enable_time_secs=1720558583	enable_time_usecs=738748	siftrver=1.2.4	hz=100	tcp_rtt_scale=32	sysname=FreeBSD	sysver=1301000	ipmode=4
o,0x00000000,1720558583.738792,10.0.2.15,22,10.0.2.2,56260,1073725440,17770,0,65535,65700,0,0,4,1460,1,0,4,24,33580,44,65700,0,0,0,0,0
o,0x00000000,1720558583.738958,10.0.2.15,22,10.0.2.2,56260,1073725440,17770,0,65535,65700,0,0,4,1460,1,0,4,24,33580,80,65700,0,44,0,0,0
i,0x00000000,1720558583.739925,10.0.2.15,22,10.0.2.2,56260,1073725440,17770,0,65535,65700,0,0,4,1460,1,0,4,24,33580,80,65700,0,80,0,0,0
i,0x00000000,1720558583.739931,10.0.2.15,22,10.0.2.2,56260,1073725440,17814,0,65535,65700,0,0,4,1460,1,0,4,24,33580,36,65700,0,36,0,0,0
o,0x00000000,1720558583.740098,10.0.2.15,22,10.0.2.2,56260,1073725440,17850,0,65535,65700,0,0,4,1460,1,0,4,24,33580,36,65700,0,0,0,0,0
i,0x00000000,1720558583.741194,10.0.2.15,22,10.0.2.2,56260,1073725440,17850,0,65535,65700,0,0,4,1460,1,0,4,24,33580,36,65700,0,36,0,0,0
o,0x00000000,1720558583.741321,10.0.2.15,22,10.0.2.2,56260,1073725440,17886,0,65535,65700,0,0,4,1460,1,0,4,24,33580,36,65700,0,0,0,0,0
i,0x00000000,1720558583.742019,10.0.2.15,22,10.0.2.2,56260,1073725440,17886,0,65535,65700,0,0,4,1460,1,0,4,24,33580,36,65700,0,36,0,0,0
o,0x00000000,1720558583.742130,10.0.2.15,22,10.0.2.2,56260,1073725440,17922,0,65535,65700,0,0,4,1460,1,0,4,24,33580,140,65700,0,0,0,0,0
i,0x00000000,1720558583.743171,10.0.2.15,22,10.0.2.2,56260,1073725440,17922,0,65535,65700,0,0,4,1460,1,0,4,24,33580,140,65700,0,140,0,0,0
i,0x00000000,1720558583.743200,10.0.2.15,22,10.0.2.2,56260,1073725440,18062,0,65535,65700,0,0,4,1460,1,0,4,24,33580,0,65700,0,0,0,0,0
i,0x00000000,1720558583.743203,10.0.2.15,22,10.0.2.2,56260,1073725440,18062,0,65535,65700,0,0,4,1460,1,0,4,24,33580,0,65700,96,0,0,0,0
o,0x00000000,1720558583.743207,10.0.2.15,22,10.0.2.2,56260,1073725440,18062,0,65535,65604,0,0,5,1460,1,0,5,24,33580,0,65700,96,0,0,0,0
o,0x00000000,1720558583.743673,10.0.2.15,22,10.0.2.2,56260,1073725440,18062,0,65535,65604,0,0,8,1460,1,0,4,24,33580,0,65700,0,0,0,0,0
i,0x00000000,1720558583.744331,10.0.2.15,22,10.0.2.2,56260,1073725440,18062,0,65535,65604,0,0,8,1460,1,0,20,24,33580,0,65700,0,1,0,0,0
i,0x00000000,1720558586.112134,10.0.2.15,22,10.0.2.2,56262,1073725440,14600,0,65535,65700,0,0,4,1460,1,0,0,27,33580,0,65700,0,0,0,0,0
o,0x00000000,1720558586.118046,10.0.2.15,22,10.0.2.2,56262,1073725440,14600,0,65535,65700,0,0,4,1460,1,0,0,27,33580,38,65700,42,0,0,0,0
i,0x00000000,1720558586.119479,10.0.2.15,22,10.0.2.2,56262,1073725440,14600,0,65535,65700,0,0,4,1460,1,0,0,27,33580,38,65700,42,38,0,0,0
i,0x00000000,1720558586.119485,10.0.2.15,22,10.0.2.2,56262,1073725440,14638,0,65535,65700,0,0,4,1460,1,0,0,24,33580,0,65700,42,0,0,0,0
i,0x00000000,1720558586.119487,10.0.2.15,22,10.0.2.2,56262,1073725440,14638,0,65535,65700,0,0,4,1460,1,0,0,24,33580,0,65700,1502,0,0,0,0
o,0x00000000,1720558586.119490,10.0.2.15,22,10.0.2.2,56262,1073725440,14638,0,65535,65700,0,0,4,1460,1,0,1,24,33580,0,65700,1578,0,0,0,0
o,0x00000000,1720558586.120287,10.0.2.15,22,10.0.2.2,56262,1073725440,14638,0,65535,65700,0,0,4,1460,1,0,0,24,33580,1056,65700,1536,0,0,0,0
i,0x00000000,1720558586.121054,10.0.2.15,22,10.0.2.2,56262,1073725440,14638,0,65535,65700,0,0,4,1460,1,0,0,24,33580,1056,65700,1536,1056,0,0,0
i,0x00000000,1720558586.122647,10.0.2.15,22,10.0.2.2,56262,1073725440,15694,0,65535,65700,0,0,4,1460,1,0,0,24,33580,0,65700,0,0,0,0,0
o,0x00000000,1720558586.125349,10.0.2.15,22,10.0.2.2,56262,1073725440,15694,0,65535,65700,0,0,4,1460,1,0,0,24,33580,484,65700,0,0,0,0,0
i,0x00000000,1720558586.126620,10.0.2.15,22,10.0.2.2,56262,1073725440,15694,0,65535,65700,0,0,4,1460,1,0,0,24,33580,484,65700,0,484,0,0,0
i,0x00000000,1720558586.134324,10.0.2.15,22,10.0.2.2,56262,1073725440,16178,0,65535,65700,0,0,4,1460,1,0,0,24,33580,0,65700,0,0,0,0,0
i,0x00000000,1720558586.134346,10.0.2.15,22,10.0.2.2,56262,1073725440,16178,0,65535,65700,0,0,4,1460,1,0,0,24,33580,0,65700,16,0,0,0,0
o,0x00000000,1720558586.134358,10.0.2.15,22,10.0.2.2,56262,1073725440,16178,0,65535,65700,0,0,4,1460,1,0,1,24,33580,0,65700,60,0,0,0,0
o,0x00000000,1720558586.134848,10.0.2.15,22,10.0.2.2,56262,1073725440,16178,0,65535,65700,0,0,4,1460,1,0,0,24,33580,44,65700,0,0,0,0,0
i,0x00000000,1720558586.136803,10.0.2.15,22,10.0.2.2,56262,1073725440,16178,0,65535,65700,0,0,4,1460,1,0,0,24,33580,44,65700,0,44,0,0,0
i,0x00000000,1720558586.136813,10.0.2.15,22,10.0.2.2,56262,1073725440,16222,0,65535,65700,0,0,4,1460,1,0,0,24,33580,0,65700,0,0,0,0,0
o,0x00000000,1720558586.147469,10.0.2.15,22,10.0.2.2,56262,1073725440,16222,0,65535,65700,0,0,4,1460,1,0,0,24,33580,68,65700,0,0,0,0,0
i,0x00000000,1720558586.148986,10.0.2.15,22,10.0.2.2,56262,1073725440,16222,0,65535,65700,0,0,4,1460,1,0,0,24,33580,68,65700,0,68,0,0,0
i,0x00000000,1720558586.148994,10.0.2.15,22,10.0.2.2,56262,1073725440,16290,0,65535,65700,0,0,4,1460,1,0,0,24,33580,0,65700,0,0,0,0,0
o,0x00000000,1720558586.149656,10.0.2.15,22,10.0.2.2,56262,1073725440,16290,0,65535,65700,0,0,4,1460,1,0,0,24,33580,332,65700,0,0,0,0,0
i,0x00000000,1720558586.152105,10.0.2.15,22,10.0.2.2,56262,1073725440,16290,0,65535,65700,0,0,4,1460,1,0,0,24,33580,332,65700,0,332,0,0,0
i,0x00000000,1720558586.153966,10.0.2.15,22,10.0.2.2,56262,1073725440,16622,0,65535,65700,0,0,4,1460,1,0,0,24,33580,0,65700,0,0,0,0,0
o,0x00000000,1720558586.167864,10.0.2.15,22,10.0.2.2,56262,1073725440,16622,0,65535,65700,0,0,4,1460,1,0,0,24,33580,28,65700,0,0,0,0,0
i,0x00000000,1720558586.169629,10.0.2.15,22,10.0.2.2,56262,1073725440,16622,0,65535,65700,0,0,4,1460,1,0,0,24,33580,28,65700,0,28,0,0,0
i,0x00000000,1720558586.169690,10.0.2.15,22,10.0.2.2,56262,1073725440,16650,0,65535,65700,0,0,4,1460,1,0,0,24,33580,0,65700,0,0,0,0,0
o,0x00000000,1720558586.170557,10.0.2.15,22,10.0.2.2,56262,1073725440,16650,0,65535,65700,0,0,4,1460,1,0,0,24,33580,768,65700,112,0,0,0,0
i,0x00000000,1720558586.172065,10.0.2.15,22,10.0.2.2,56262,1073725440,16650,0,65535,65700,0,0,4,1460,1,0,0,24,33580,768,65700,112,768,0,0,0
o,0x00000000,1720558586.172161,10.0.2.15,22,10.0.2.2,56262,1073725440,17418,0,65535,65700,0,0,4,1460,1,0,0,24,33580,140,65700,112,0,0,0,0
i,0x00000000,1720558586.173189,10.0.2.15,22,10.0.2.2,56262,1073725440,17418,0,65535,65700,0,0,4,1460,1,0,0,24,33580,140,65700,112,140,0,0,0
o,0x00000000,1720558586.173421,10.0.2.15,22,10.0.2.2,56262,1073725440,17558,0,65535,65700,0,0,4,1460,1,0,0,24,33580,44,65700,0,0,0,0,0
i,0x00000000,1720558586.174737,10.0.2.15,22,10.0.2.2,56262,1073725440,17558,0,65535,65700,0,0,4,1460,1,0,0,24,33580,44,65700,0,44,0,0,0
i,0x00000000,1720558586.174743,10.0.2.15,22,10.0.2.2,56262,1073725440,17602,0,65535,65700,0,0,4,1460,1,0,0,24,33580,0,65700,0,0,0,0,0
o,0x00000000,1720558586.175157,10.0.2.15,22,10.0.2.2,56262,1073725440,17602,0,65535,65700,0,0,4,1460,1,0,4,24,33580,72,65700,0,0,0,0,0
i,0x00000000,1720558586.176052,10.0.2.15,22,10.0.2.2,56262,1073725440,17602,0,65535,65700,0,0,4,1460,1,0,4,24,33580,72,65700,0,72,0,0,0
o,0x00000000,1720558586.179557,10.0.2.15,22,10.0.2.2,56262,1073725440,17674,0,65535,65700,0,0,4,1460,1,0,4,24,33580,44,65700,0,0,0,0,0
i,0x00000000,1720558586.180390,10.0.2.15,22,10.0.2.2,56262,1073725440,17674,0,65535,65700,0,0,4,1460,1,0,4,24,33580,44,65700,0,44,0,0,0
o,0x00000000,1720558586.180575,10.0.2.15,22,10.0.2.2,56262,1073725440,17718,0,65535,65700,0,0,4,1460,1,0,4,24,33580,44,65700,0,0,0,0,0
i,0x00000000,1720558586.181894,10.0.2.15,22,10.0.2.2,56262,1073725440,17718,0,65535,65700,0,0,4,1460,1,0,4,24,33580,44,65700,0,44,0,0,0
o,0x00000000,1720558586.185159,10.0.2.15,22,10.0.2.2,56262,1073725440,17762,0,65535,65700,0,0,4,1460,1,0,4,24,33580,176,65700,0,0,0,0,0
i,0x00000000,1720558586.185836,10.0.2.15,22,10.0.2.2,56262,1073725440,17762,0,65535,65700,0,0,4,1460,1,0,4,24,33580,176,65700,0,176,0,0,0
i,0x00000000,1720558586.187862,10.0.2.15,22,10.0.2.2,56262,1073725440,17938,0,65535,65700,0,0,4,1460,1,0,4,24,33580,0,65700,0,0,0,0,0
i,0x00000000,1720558586.187870,10.0.2.15,22,10.0.2.2,56262,1073725440,17938,0,65535,65700,0,0,4,1460,1,0,4,24,33580,0,65700,96,0,0,0,0
o,0x00000000,1720558586.187874,10.0.2.15,22,10.0.2.2,56262,1073725440,17938,0,65535,65604,0,0,5,1460,1,0,5,24,33580,0,65700,96,0,0,0,0
o,0x00000000,1720558586.190740,10.0.2.15,22,10.0.2.2,56262,1073725440,17938,0,65535,65604,0,0,8,1460,1,0,4,24,33580,0,65700,0,0,0,0,0
i,0x00000000,1720558586.191390,10.0.2.15,22,10.0.2.2,56262,1073725440,17938,0,65535,65604,0,0,8,1460,1,0,20,24,33580,0,65700,0,1,0,0,0
i,0x00000000,1720558587.319454,10.0.2.15,22,10.0.2.2,56272,1073725440,14600,0,65535,65700,0,0,4,1460,1,0,0,27,33580,0,65700,0,0,0,0,0
o,0x00000000,1720558587.324805,10.0.2.15,22,10.0.2.2,56272,1073725440,14600,0,65535,65700,0,0,4,1460,1,0,0,27,33580,38,65700,42,0,0,0,0
i,0x00000000,1720558587.325823,10.0.2.15,22,10.0.2.2,56272,1073725440,14600,0,65535,65700,0,0,4,1460,1,0,0,27,33580,38,65700,42,38,0,0,0
i,0x00000000,1720558587.325896,10.0.2.15,22,10.0.2.2,56272,1073725440,14638,0,65535,65700,0,0,4,1460,1,0,0,24,33580,0,65700,42,0,0,0,0
i,0x00000000,1720558587.325899,10.0.2.15,22,10.0.2.2,56272,1073725440,14638,0,65535,65700,0,0,4,1460,1,0,0,24,33580,0,65700,1502,0,0,0,0
o,0x00000000,1720558587.325901,10.0.2.15,22,10.0.2.2,56272,1073725440,14638,0,65535,65700,0,0,4,1460,1,0,1,24,33580,0,65700,1578,0,0,0,0
o,0x00000000,1720558587.326532,10.0.2.15,22,10.0.2.2,56272,1073725440,14638,0,65535,65700,0,0,4,1460,1,0,0,24,33580,1056,65700,1536,0,0,0,0
i,0x00000000,1720558587.327310,10.0.2.15,22,10.0.2.2,56272,1073725440,14638,0,65535,65700,0,0,4,1460,1,0,0,24,33580,1056,65700,1536,1056,0,0,0
i,0x00000000,1720558587.328341,10.0.2.15,22,10.0.2.2,56272,1073725440,15694,0,65535,65700,0,0,4,1460,1,0,0,24,33580,0,65700,0,0,0,0,0
o,0x00000000,1720558587.330666,10.0.2.15,22,10.0.2.2,56272,1073725440,15694,0,65535,65700,0,0,4,1460,1,0,0,24,33580,484,65700,0,0,0,0,0
i,0x00000000,1720558587.331315,10.0.2.15,22,10.0.2.2,56272,1073725440,15694,0,65535,65700,0,0,4,1460,1,0,0,24,33580,484,65700,0,484,0,0,0
i,0x00000000,1720558587.335724,10.0.2.15,22,10.0.2.2,56272,1073725440,16178,0,65535,65700,0,0,4,1460,1,0,0,24,33580,0,65700,0,0,0,0,0
i,0x00000000,1720558587.335731,10.0.2.15,22,10.0.2.2,56272,1073725440,16178,0,65535,65700,0,0,4,1460,1,0,0,24,33580,0,65700,16,0,0,0,0
o,0x00000000,1720558587.335735,10.0.2.15,22,10.0.2.2,56272,1073725440,16178,0,65535,65700,0,0,4,1460,1,0,1,24,33580,0,65700,60,0,0,0,0
o,0x00000000,1720558587.335937,10.0.2.15,22,10.0.2.2,56272,1073725440,16178,0,65535,65700,0,0,4,1460,1,0,0,24,33580,44,65700,0,0,0,0,0
i,0x00000000,1720558587.336773,10.0.2.15,22,10.0.2.2,56272,1073725440,16178,0,65535,65700,0,0,4,1460,1,0,0,24,33580,44,65700,0,44,0,0,0
i,0x00000000,1720558587.336777,10.0.2.15,22,10.0.2.2,56272,1073725440,16222,0,65535,65700,0,0,4,1460,1,0,0,24,33580,0,65700,0,0,0,0,0
o,0x00000000,1720558587.346716,10.0.2.15,22,10.0.2.2,56272,1073725440,16222,0,65535,65700,0,0,4,1460,1,0,0,24,33580,68,65700,0,0,0,0,0
i,0x00000000,1720558587.347654,10.0.2.15,22,10.0.2.2,56272,1073725440,16222,0,65535,65700,0,0,4,1460,1,0,0,24,33580,68,65700,0,68,0,0,0
i,0x00000000,1720558587.348130,10.0.2.15,22,10.0.2.2,56272,1073725440,16290,0,65535,65700,0,0,4,1460,1,0,0,24,33580,0,65700,0,0,0,0,0
o,0x00000000,1720558587.348415,10.0.2.15,22,10.0.2.2,56272,1073725440,16290,0,65535,65700,0,0,4,1460,1,0,0,24,33580,332,65700,0,0,0,0,0
i,0x00000000,1720558587.349117,10.0.2.15,22,10.0.2.2,56272,1073725440,16290,0,65535,65700,0,0,4,1460,1,0,0,24,33580,332,65700,0,332,0,0,0
i,0x00000000,1720558587.351590,10.0.2.15,22,10.0.2.2,56272,1073725440,16622,0,65535,65700,0,0,4,1460,1,0,0,24,33580,0,65700,0,0,0,0,0
o,0x00000000,1720558587.368659,10.0.2.15,22,10.0.2.2,56272,1073725440,16622,0,65535,65700,0,0,4,1460,1,0,0,24,33580,28,65700,0,0,0,0,0
i,0x00000000,1720558587.370695,10.0.2.15,22,10.0.2.2,56272,1073725440,16622,0,65535,65700,0,0,4,1460,1,0,0,24,33580,28,65700,0,28,0,0,0
i,0x00000000,1720558587.370760,10.0.2.15,22,10.0.2.2,56272,1073725440,16650,0,65535,65700,0,0,4,1460,1,0,0,24,33580,0,65700,0,0,0,0,0
o,0x00000000,1720558587.372067,10.0.2.15,22,10.0.2.2,56272,1073725440,16650,0,65535,65700,0,0,4,1460,1,0,0,24,33580,768,65700,112,0,0,0,0
i,0x00000000,1720558587.373733,10.0.2.15,22,10.0.2.2,56272,1073725440,16650,0,65535,65700,0,0,4,1460,1,0,0,24,33580,768,65700,112,768,0,0,0
o,0x00000000,1720558587.373798,10.0.2.15,22,10.0.2.2,56272,1073725440,17418,0,65535,65700,0,0,4,1460,1,0,0,24,33580,140,65700,112,0,0,0,0
i,0x00000000,1720558587.374453,10.0.2.15,22,10.0.2.2,56272,1073725440,17418,0,65535,65700,0,0,4,1460,1,0,0,24,33580,140,65700,112,140,0,0,0
o,0x00000000,1720558587.374555,10.0.2.15,22,10.0.2.2,56272,1073725440,17558,0,65535,65700,0,0,4,1460,1,0,0,24,33580,44,65700,0,0,0,0,0
i,0x00000000,1720558587.375271,10.0.2.15,22,10.0.2.2,56272,1073725440,17558,0,65535,65700,0,0,4,1460,1,0,0,24,33580,44,65700,0,44,0,0,0
i,0x00000000,1720558587.375274,10.0.2.15,22,10.0.2.2,56272,1073725440,17602,0,65535,65700,0,0,4,1460,1,0,0,24,33580,0,65700,0,0,0,0,0
o,0x00000000,1720558587.375828,10.0.2.15,22,10.0.2.2,56272,1073725440,17602,0,65535,65700,0,0,4,1460,1,0,4,24,33580,72,65700,0,0,0,0,0
i,0x00000000,1720558587.376779,10.0.2.15,22,10.0.2.2,56272,1073725440,17602,0,65535,65700,0,0,4,1460,1,0,4,24,33580,72,65700,0,72,0,0,0
i,0x00000000,1720558587.377119,10.0.2.15,22,10.0.2.2,56272,1073725440,17674,0,65535,65700,0,0,4,1460,1,0,4,24,33580,0,65700,0,0,0,0,0
o,0x00000000,1720558587.382788,172.16.1.2,53370,172.16.3.2,5101,1073725440,1073725440,0,0,0,0,0,2,536,0,1,672,100,32768,0,65536,0,0,0,0,0
o,0x00000000,1720558587.417213,10.0.2.15,22,10.0.2.2,56272,1073725440,17674,0,65535,65700,0,0,4,1460,1,0,5,24,33580,0,65700,0,0,0,0,0
i,0x00000000,1720558587.499356,172.16.1.2,53370,172.16.3.2,5101,1073725440,1073725440,0,0,0,0,0,2,536,0,1,672,100,32768,0,65536,0,1,0,0,0
o,0x00000000,1720558587.499369,172.16.1.2,53370,172.16.3.2,5101,20640,14480,0,65535,65700,6,6,4,1460,729,1,993,80,33580,0,65700,0,0,0,0,0
o,0x00000000,1720558587.499735,172.16.1.2,53370,172.16.3.2,5101,20640,14480,0,65535,65700,6,6,4,1460,729,1,996,80,33580,37,65700,0,0,0,0,0
i,0x00000000,1720558587.626594,172.16.1.2,53370,172.16.3.2,5101,20640,14480,0,65535,65700,6,6,4,1460,729,1,996,80,33580,37,65700,0,37,0,0,0
o,0x00000000,1720558587.627191,172.16.1.2,53370,172.16.3.2,5101,20640,14517,0,65728,65728,6,6,4,1460,690,1,996,79,33580,4,65700,0,0,0,0,0
o,0x00000000,1720558587.628103,172.16.1.2,53370,172.16.3.2,5101,20640,14517,0,65728,65728,6,6,4,1460,690,1,996,79,33580,128,65700,0,4,0,0,0
i,0x00000000,1720558587.747394,172.16.1.2,53370,172.16.3.2,5101,20640,14517,0,65728,65728,6,6,4,1460,690,1,996,79,33580,128,65700,0,128,0,0,0
i,0x00000000,1720558587.747411,172.16.1.2,53370,172.16.3.2,5101,20640,14645,0,65600,65728,6,6,4,1460,652,1,996,78,33580,0,65700,0,0,0,0,0
o,0x00000000,1720558587.747672,172.16.1.2,17149,172.16.3.2,5101,1073725440,1073725440,0,0,0,0,0,2,536,0,1,672,100,32768,0,65536,0,0,0,0,0
o,0x00000000,1720558587.787428,172.16.1.2,53370,172.16.3.2,5101,20640,14645,0,65728,65728,6,6,4,1460,652,1,997,78,33580,0,65700,0,0,0,0,0
i,0x00000000,1720558587.879065,172.16.1.2,17149,172.16.3.2,5101,1073725440,1073725440,0,0,0,0,0,2,536,0,1,672,100,32768,0,65536,0,1,0,0,0
o,0x00000000,1720558587.879109,172.16.1.2,17149,172.16.3.2,5101,20640,14480,0,65535,65700,6,6,4,1460,737,1,993,78,33580,0,65700,0,0,0,0,0
o,0x00000000,1720558587.879935,172.16.1.2,17149,172.16.3.2,5101,20640,14480,0,65535,65700,6,6,4,1460,737,1,992,78,33580,37,65700,0,0,0,0,0
i,0x00000000,1720558588.003724,172.16.1.2,53370,172.16.3.2,5101,20640,14645,0,65728,65728,6,6,4,1460,652,1,996,78,33580,0,65700,0,0,0,0,0
i,0x00000000,1720558588.003734,172.16.1.2,53370,172.16.3.2,5101,20640,14645,0,65728,65728,6,6,4,1460,652,1,996,78,33580,0,65700,1,0,0,0,0
o,0x00000000,1720558588.003741,172.16.1.2,53370,172.16.3.2,5101,20640,14645,0,65728,65728,6,6,4,1460,652,1,997,78,33580,0,65700,2,0,0,0,0
o,0x00000000,1720558588.011069,172.16.1.2,17149,172.16.3.2,5101,20640,14480,0,65535,65700,6,6,4,1460,737,1,992,78,33580,33580,65700,0,37,0,0,0
o,0x00000000,1720558588.011544,172.16.1.2,17149,172.16.3.2,5101,20640,14480,0,65535,65700,6,6,4,1460,737,1,992,78,33580,33580,65700,0,1485,0,0,0
o,0x00000000,1720558588.011946,172.16.1.2,17149,172.16.3.2,5101,20640,14480,0,65535,65700,6,6,4,1460,737,1,992,78,33580,33580,65700,0,2933,0,0,0
o,0x00000000,1720558588.012286,172.16.1.2,17149,172.16.3.2,5101,20640,14480,0,65535,65700,6,6,4,1460,737,1,992,78,33580,33580,65700,0,4381,0,0,0
o,0x00000000,1720558588.012605,172.16.1.2,17149,172.16.3.2,5101,20640,14480,0,65535,65700,6,6,4,1460,737,1,992,78,33580,33580,65700,0,5829,0,0,0
o,0x00000000,1720558588.012934,172.16.1.2,17149,172.16.3.2,5101,20640,14480,0,65535,65700,6,6,4,1460,737,1,992,78,33580,33580,65700,0,7277,0,0,0
o,0x00000000,1720558588.013260,172.16.1.2,17149,172.16.3.2,5101,20640,14480,0,65535,65700,6,6,4,1460,737,1,992,78,33580,33580,65700,0,8725,0,0,0
o,0x00000000,1720558588.013579,172.16.1.2,17149,172.16.3.2,5101,20640,14480,0,65535,65700,6,6,4,1460,737,1,992,78,33580,33580,65700,0,10173,0,0,0
o,0x00000000,1720558588.013897,172.16.1.2,17149,172.16.3.2,5101,20640,14480,0,65535,65700,6,6,4,1460,737,1,992,78,33580,33580,65700,0,11621,0,0,0
i,0x00000000,1720558588.037907,172.16.1.2,17149,172.16.3.2,5101,20640,14480,0,65535,65700,6,6,4,1460,737,1,992,78,33580,33580,65700,0,13069,0,0,0
o,0x00000000,1720558588.037949,172.16.1.2,17149,172.16.3.2,5101,20640,14517,0,65728,65728,6,6,4,1460,709,1,992,75,33580,33543,65700,0,13032,0,0,0
i,0x00000000,1720558588.243834,172.16.1.2,17149,172.16.3.2,5101,20640,14517,0,65728,65728,6,6,4,1460,709,1,992,75,33580,33543,65700,0,14480,0,0,0
o,0x00000000,1720558588.243864,172.16.1.2,17149,172.16.3.2,5101,20640,17413,0,64256,65728,6,6,4,1460,713,1,992,68,33580,30647,65700,0,11584,0,0,0
o,0x00000000,1720558588.244911,172.16.1.2,17149,172.16.3.2,5101,20640,17413,0,64256,65728,6,6,4,1460,713,1,992,68,33580,30647,65700,0,13032,0,0,0
o,0x00000000,1720558588.247187,172.16.1.2,17149,172.16.3.2,5101,20640,17413,0,64256,65728,6,6,4,1460,713,1,992,68,41772,30647,65700,0,14480,0,0,0
o,0x00000000,1720558588.248474,172.16.1.2,17149,172.16.3.2,5101,20640,17413,0,64256,65728,6,6,4,1460,713,1,992,68,41772,30647,65700,0,15928,0,0,0
i,0x00000000,1720558588.258892,172.16.1.2,17149,172.16.3.2,5101,20640,17413,0,64256,65728,6,6,4,1460,713,1,992,68,41772,41772,65700,0,17376,0,0,0
o,0x00000000,1720558588.258925,172.16.1.2,17149,172.16.3.2,5101,20640,20309,0,64256,65728,6,6,4,1460,724,1,992,65,41772,38876,65700,0,14480,0,0,0
o,0x00000000,1720558588.260060,172.16.1.2,17149,172.16.3.2,5101,20640,20309,0,64256,65728,6,6,4,1460,724,1,992,65,41772,38876,65700,0,15928,0,0,0
o,0x00000000,1720558588.261281,172.16.1.2,17149,172.16.3.2,5101,20640,20309,0,64256,65728,6,6,4,1460,724,1,992,65,41772,38876,65700,0,17376,0,0,0
o,0x00000000,1720558588.262098,172.16.1.2,17149,172.16.3.2,5101,20640,20309,0,64256,65728,6,6,4,1460,724,1,992,65,49964,38876,65700,0,18824,0,0,0
i,0x00000000,1720558588.307248,172.16.1.2,17149,172.16.3.2,5101,20640,20309,0,64256,65728,6,6,4,1460,724,1,992,65,49964,49964,65700,0,20272,0,0,0
o,0x00000000,1720558588.307290,172.16.1.2,17149,172.16.3.2,5101,20640,23205,0,64256,65728,6,6,4,1460,754,1,992,68,49964,47068,65700,0,17376,0,0,0
o,0x00000000,1720558588.310023,172.16.1.2,17149,172.16.3.2,5101,20640,23205,0,64256,65728,6,6,4,1460,754,1,992,68,49964,47068,65700,0,18824,0,0,0
o,0x00000000,1720558588.311755,172.16.1.2,17149,172.16.3.2,5101,20640,23205,0,64256,65728,6,6,4,1460,754,1,992,68,49964,47068,65700,0,20272,0,0,0
o,0x00000000,1720558588.313292,172.16.1.2,17149,172.16.3.2,5101,20640,23205,0,64256,65728,6,6,4,1460,754,1,992,68,49964,47068,65700,0,21720,0,0,0
i,0x00000000,1720558588.318493,172.16.1.2,17149,172.16.3.2,5101,20640,23205,0,64256,65728,6,6,4,1460,754,1,992,68,49964,49964,65700,0,23168,0,0,0
o,0x00000000,1720558588.318521,172.16.1.2,17149,172.16.3.2,5101,20640,23205,0,64256,65728,6,6,4,1460,784,1,992,70,49964,47068,65700,0,20272,0,0,0
o,0x00000000,1720558588.319518,172.16.1.2,17149,172.16.3.2,5101,20640,23205,0,64256,65728,6,6,4,1460,784,1,992,70,49964,47068,65700,0,21720,0,0,0
i,0x00000000,1720558588.358694,172.16.1.2,17149,172.16.3.2,5101,20640,23205,0,64256,65728,6,6,4,1460,784,1,992,70,49964,49964,65700,0,23168,0,0,0
i,0x00000000,1720558588.464104,172.16.1.2,17149,172.16.3.2,5101,11584,18824,0,64256,65728,6,6,4,1460,826,1,536871904,75,49964,49964,65700,0,20272,0,0,0
i,0x00000000,1720558588.492796,172.16.1.2,17149,172.16.3.2,5101,11584,17376,0,64256,65728,6,6,4,1460,811,1,536871904,71,49964,49964,65700,0,17376,0,0,0
o,0x00000000,1720558588.492809,172.16.1.2,17149,172.16.3.2,5101,11584,17376,0,65728,65728,6,6,4,1460,806,1,536871904,66,49964,48516,65700,0,15928,0,0,0
i,0x00000000,1720558588.589026,172.16.1.2,17149,172.16.3.2,5101,11584,17376,0,65728,65728,6,6,4,1460,806,1,536871904,66,49964,48516,65700,0,17376,0,0,0
i,0x00000000,1720558588.589059,172.16.1.2,17149,172.16.3.2,5101,11584,14480,0,64256,65728,6,6,4,1460,842,1,536871904,71,49964,45620,65700,0,14480,0,0,0
o,0x00000000,1720558588.589075,172.16.1.2,17149,172.16.3.2,5101,11584,13032,0,64256,65728,6,6,4,1460,869,1,536871904,72,49964,42724,65700,0,11584,0,0,0
i,0x00000000,1720558588.620393,172.16.1.2,17149,172.16.3.2,5101,11584,13032,0,64256,65728,6,6,4,1460,869,1,536871904,72,49964,49964,65700,0,13032,0,0,0
i,0x00000000,1720558588.643857,172.16.1.2,17149,172.16.3.2,5101,11584,8688,0,62848,65728,6,6,4,1460,905,1,536871904,76,49964,49964,65700,0,10136,0,0,0
o,0x00000000,1720558588.643896,172.16.1.2,17149,172.16.3.2,5101,11584,8688,0,64256,65728,6,6,4,1460,924,1,536871904,74,49964,47068,65700,0,7240,0,0,0
i,0x00000000,1720558588.657734,172.16.1.2,17149,172.16.3.2,5101,11584,8688,0,64256,65728,6,6,4,1460,924,1,536871904,74,49964,49964,65700,0,8688,0,0,0
o,0x00000000,1720558588.657766,172.16.1.2,17149,172.16.3.2,5101,11584,8688,0,64256,65728,6,6,4,1460,949,1,536871904,75,49964,47068,65700,0,5792,0,0,0
o,0x00000000,1720558588.658861,172.16.1.2,17149,172.16.3.2,5101,11584,8688,0,64256,65728,6,6,4,1460,949,1,536871904,75,49964,47068,65700,0,7240,0,0,0
i,0x00000000,1720558588.696783,172.16.1.2,17149,172.16.3.2,5101,11584,8688,0,64256,65728,6,6,4,1460,949,1,536871904,75,49964,49964,65700,0,8688,0,0,0
o,0x00000000,1720558588.696793,172.16.1.2,17149,172.16.3.2,5101,11584,10136,0,64256,65728,6,6,4,1460,949,1,536871904,75,49964,49964,65700,0,8688,0,0,0
o,0x00000000,1720558588.697065,172.16.1.2,17149,172.16.3.2,5101,11584,10136,0,65728,65728,6,6,4,1460,979,1,536871904,77,49964,48516,65700,0,8688,0,0,0
i,0x00000000,1720558588.747627,172.16.1.2,17149,172.16.3.2,5101,11584,10136,0,65728,65728,6,6,4,1460,979,1,536871904,77,49964,48516,65700,0,10136,0,0,0
o,0x00000000,1720558588.747662,172.16.1.2,17149,172.16.3.2,5101,11584,10136,0,65728,65728,6,6,4,1460,957,1,992,75,49964,47068,65700,0,8688,0,0,0
i,0x00000000,1720558588.748019,172.16.1.2,17149,172.16.3.2,5101,11584,10136,0,65728,65728,6,6,4,1460,957,1,992,75,49964,47068,65700,0,10136,0,0,0
o,0x00000000,1720558588.748036,172.16.1.2,17149,172.16.3.2,5101,11584,11584,0,65728,65728,6,6,4,1460,898,1,992,82,49964,45620,65700,0,8688,0,0,0
o,0x00000000,1720558588.748438,172.16.1.2,17149,172.16.3.2,5101,11584,11584,0,65728,65728,6,6,4,1460,898,1,992,82,49964,45620,65700,0,10136,0,0,0
i,0x00000000,1720558588.797702,172.16.1.2,17149,172.16.3.2,5101,11584,11584,0,65728,65728,6,6,4,1460,898,1,992,82,49964,49964,65700,0,11584,0,0,0
o,0x00000000,1720558588.797735,172.16.1.2,17149,172.16.3.2,5101,11584,14480,0,64256,65728,6,6,4,1460,846,1,992,85,49964,47068,65700,0,8688,0,0,0
o,0x00000000,1720558588.798742,172.16.1.2,17149,172.16.3.2,5101,11584,14480,0,64256,65728,6,6,4,1460,846,1,992,85,49964,47068,65700,0,10136,0,0,0
o,0x00000000,1720558588.800065,172.16.1.2,17149,172.16.3.2,5101,11584,14480,0,64256,65728,6,6,4,1460,846,1,992,85,49964,47068,65700,0,11584,0,0,0
o,0x00000000,1720558588.801082,172.16.1.2,17149,172.16.3.2,5101,11584,14480,0,64256,65728,6,6,4,1460,846,1,992,85,49964,47068,65700,0,13032,0,0,0
i,0x00000000,1720558588.850007,172.16.1.2,17149,172.16.3.2,5101,11584,14480,0,64256,65728,6,6,4,1460,846,1,992,85,49964,49964,65700,0,14480,0,0,0
o,0x00000000,1720558588.850040,172.16.1.2,17149,172.16.3.2,5101,11584,14480,0,64256,65728,6,6,4,1460,817,1,992,82,49964,47068,65700,0,11584,0,0,0
o,0x00000000,1720558588.851063,172.16.1.2,17149,172.16.3.2,5101,11584,14480,0,64256,65728,6,6,4,1460,817,1,992,82,49964,47068,65700,0,13032,0,0,0
i,0x00000000,1720558588.908484,172.16.1.2,17149,172.16.3.2,5101,11584,14480,0,64256,65728,6,6,4,1460,817,1,992,82,49964,49964,65700,0,14480,0,0,0
o,0x00000000,1720558588.908526,172.16.1.2,17149,172.16.3.2,5101,11584,14480,0,64256,65728,6,6,4,1460,799,1,992,76,49964,47068,65700,0,11584,0,0,0
o,0x00000000,1720558588.910570,172.16.1.2,17149,172.16.3.2,5101,11584,14480,0,64256,65728,6,6,4,1460,799,1,992,76,49964,47068,65700,0,13032,0,0,0
i,0x00000000,1720558588.999433,172.16.1.2,17149,172.16.3.2,5101,11584,14480,0,64256,65728,6,6,4,1460,799,1,992,76,49964,49964,65700,0,14480,0,0,0
o,0x00000000,1720558588.999475,172.16.1.2,17149,172.16.3.2,5101,11584,14480,0,64256,65728,6,6,4,1460,800,1,992,69,49964,47068,65700,0,11584,0,0,0
o,0x00000000,1720558589.000872,172.16.1.2,17149,172.16.3.2,5101,11584,14480,0,64256,65728,6,6,4,1460,800,1,992,69,49964,47068,65700,0,13032,0,0,0
i,0x00000000,1720558589.050281,172.16.1.2,17149,172.16.3.2,5101,11584,14480,0,64256,65728,6,6,4,1460,800,1,992,69,49964,49964,65700,0,14480,0,0,0
o,0x00000000,1720558589.050320,172.16.1.2,17149,172.16.3.2,5101,11584,14480,0,64256,65728,6,6,4,1460,800,1,992,63,49964,47068,65700,0,11584,0,0,0
o,0x00000000,1720558589.050846,172.16.1.2,17149,172.16.3.2,5101,11584,14480,0,64256,65728,6,6,4,1460,800,1,992,63,49964,47068,65700,0,13032,0,0,0
i,0x00000000,1720558589.051509,172.16.1.2,17149,172.16.3.2,5101,11584,14480,0,64256,65728,6,6,4,1460,800,1,992,63,49964,47068,65700,0,14480,0,0,0
o,0x00000000,1720558589.051537,172.16.1.2,17149,172.16.3.2,5101,11584,15940,0,64256,65728,6,6,4,1460,800,1,992,58,49964,44172,65700,0,11584,0,0,0
o,0x00000000,1720558589.052010,172.16.1.2,17149,172.16.3.2,5101,11584,15940,0,64256,65728,6,6,4,1460,800,1,992,58,49964,44172,65700,0,13032,0,0,0
o,0x00000000,1720558589.052392,172.16.1.2,17149,172.16.3.2,5101,11584,15940,0,64256,65728,6,6,4,1460,800,1,992,58,49964,44172,65700,0,14480,0,0,0
i,0x00000000,1720558589.108079,172.16.1.2,17149,172.16.3.2,5101,11584,15940,0,64256,65728,6,6,4,1460,800,1,992,58,49964,49964,65700,0,15928,0,0,0
o,0x00000000,1720558589.108109,172.16.1.2,17149,172.16.3.2,5101,7240,17376,0,64256,65728,6,6,4,1460,800,1,536871904,58,49964,49964,65700,0,15928,0,0,0
o,0x00000000,1720558589.109300,172.16.1.2,17149,172.16.3.2,5101,7240,17376,0,64256,65728,6,6,4,1460,800,1,536871904,55,49964,47068,65700,0,14480,0,0,0
o,0x00000000,1720558589.110366,172.16.1.2,17149,172.16.3.2,5101,7240,17376,0,64256,65728,6,6,4,1460,800,1,536871904,55,49964,47068,65700,0,15928,0,0,0
i,0x00000000,1720558589.183673,172.16.1.2,17149,172.16.3.2,5101,7240,17376,0,64256,65728,6,6,4,1460,800,1,536871904,55,49964,49964,65700,0,17376,0,0,0
o,0x00000000,1720558589.183689,172.16.1.2,17149,172.16.3.2,5101,7240,15928,0,64256,65728,6,6,4,1460,808,1,536871904,55,49964,47068,65700,0,14480,0,0,0
i,0x00000000,1720558589.235351,172.16.1.2,17149,172.16.3.2,5101,7240,15928,0,64256,65728,6,6,4,1460,808,1,536871904,55,49964,49964,65700,0,15928,0,0,0
i,0x00000000,1720558589.263775,172.16.1.2,17149,172.16.3.2,5101,7240,13032,0,64256,65728,6,6,4,1460,799,1,536871904,54,49964,49964,65700,0,13032,0,0,0
o,0x00000000,1720558589.263791,172.16.1.2,17149,172.16.3.2,5101,7240,11584,0,64256,65728,6,6,4,1460,780,1,536871904,56,49964,47068,65700,0,10136,0,0,0
i,0x00000000,1720558589.352056,172.16.1.2,17149,172.16.3.2,5101,7240,11584,0,64256,65728,6,6,4,1460,780,1,536871904,56,49964,49964,65700,0,11584,0,0,0
o,0x00000000,1720558589.352106,172.16.1.2,17149,172.16.3.2,5101,7240,10136,0,64256,65728,6,6,4,1460,803,1,536871904,60,49964,47068,65700,0,8688,0,0,0
i,0x00000000,1720558589.358487,172.16.1.2,17149,172.16.3.2,5101,7240,10136,0,64256,65728,6,6,4,1460,803,1,536871904,60,49964,49964,65700,0,10136,0,0,0
i,0x00000000,1720558589.377012,172.16.1.2,17149,172.16.3.2,5101,4344,4344,0,64256,65728,6,6,4,1460,823,1,536871904,61,49964,49964,65700,0,7240,0,0,0
i,0x00000000,1720558589.429644,172.16.1.2,17149,172.16.3.2,5101,4344,1448,0,64256,65728,6,6,4,1460,829,1,536871904,59,49964,49964,65700,0,4344,0,0,0
i,0x00000000,1720558589.539320,172.16.1.2,17149,172.16.3.2,5101,4344,1448,0,64256,65728,6,6,4,1460,822,1,536871904,57,49964,49964,65700,0,1448,0,0,0
o,0x00000000,1720558589.539359,172.16.1.2,17149,172.16.3.2,5101,4344,2896,0,64256,65728,6,6,4,1460,822,1,536871904,57,49964,49964,65700,0,1448,0,0,0
o,0x00000000,1720558589.540837,172.16.1.2,17149,172.16.3.2,5101,4344,2896,0,65728,65728,6,6,4,1460,796,1,536871904,60,49964,48516,65700,0,1448,0,0,0
i,0x00000000,1720558589.667858,172.16.1.2,17149,172.16.3.2,5101,4344,2896,0,65728,65728,6,6,4,1460,796,1,536871904,60,49964,48516,65700,0,2896,0,0,0
o,0x00000000,1720558589.667901,172.16.1.2,17149,172.16.3.2,5101,4344,2896,0,65728,65728,6,6,4,1460,745,1,992,68,49964,47068,65700,0,1448,0,0,0
i,0x00000000,1720558589.704786,172.16.1.2,17149,172.16.3.2,5101,4344,2896,0,65728,65728,6,6,4,1460,745,1,992,68,49964,49964,65700,0,2896,0,0,0
o,0x00000000,1720558589.704798,172.16.1.2,17149,172.16.3.2,5101,4344,4344,0,65728,65728,6,6,4,1460,712,1,992,69,49964,48516,65700,0,1448,0,0,0
o,0x00000000,1720558589.705069,172.16.1.2,17149,172.16.3.2,5101,4344,4344,0,65728,65728,6,6,4,1460,712,1,992,69,49964,48516,65700,0,2896,0,0,0
i,0x00000000,1720558589.842003,172.16.1.2,17149,172.16.3.2,5101,4344,4344,0,65728,65728,6,6,4,1460,712,1,992,69,49964,48536,65700,0,4344,0,0,0
o,0x00000000,1720558589.842044,172.16.1.2,17149,172.16.3.2,5101,4344,7240,0,64256,65728,6,6,4,1460,691,1,992,67,49964,45640,65700,0,1448,0,0,0
o,0x00000000,1720558589.844041,172.16.1.2,17149,172.16.3.2,5101,4344,7240,0,64256,65728,6,6,4,1460,691,1,992,67,49964,45640,65700,0,2896,0,0,0
o,0x00000000,1720558589.845331,172.16.1.2,17149,172.16.3.2,5101,4344,7240,0,64256,65728,6,6,4,1460,691,1,992,67,49964,45640,65700,0,4344,0,0,0
o,0x00000000,1720558589.847311,172.16.1.2,17149,172.16.3.2,5101,4344,7240,0,64256,65728,6,6,4,1460,691,1,992,67,49964,45640,65700,0,5792,0,0,0
i,0x00000000,1720558589.869175,172.16.1.2,17149,172.16.3.2,5101,4344,7240,0,64256,65728,6,6,4,1460,691,1,992,67,49964,49964,65700,0,7240,0,0,0
o,0x00000000,1720558589.869215,172.16.1.2,17149,172.16.3.2,5101,4344,7240,0,65728,65728,6,6,4,1460,673,1,992,64,49964,48516,65700,0,5792,0,0,0
i,0x00000000,1720558590.016548,172.16.1.2,17149,172.16.3.2,5101,4344,7240,0,65728,65728,6,6,4,1460,673,1,992,64,49964,48516,65700,0,7240,0,0,0
o,0x00000000,1720558590.016827,172.16.1.2,17149,172.16.3.2,5101,4344,7240,0,64256,65728,6,6,4,1460,661,1,992,61,49964,45620,65700,0,4344,0,0,0
o,0x00000000,1720558590.016915,172.16.1.2,17149,172.16.3.2,5101,4344,7240,0,64256,65728,6,6,4,1460,661,1,992,61,49964,45620,65700,0,5792,0,0,0
i,0x00000000,1720558590.017206,172.16.1.2,17149,172.16.3.2,5101,4344,7240,0,64256,65728,6,6,4,1460,661,1,992,61,49964,45620,65700,0,7240,0,0,0
o,0x00000000,1720558590.017210,172.16.1.2,17149,172.16.3.2,5101,4344,8700,0,64256,65728,6,6,4,1460,651,1,992,58,49964,42724,65700,0,4344,0,0,0
o,0x00000000,1720558590.017295,172.16.1.2,17149,172.16.3.2,5101,4344,8700,0,64256,65728,6,6,4,1460,651,1,992,58,49964,42724,65700,0,5792,0,0,0
o,0x00000000,1720558590.017371,172.16.1.2,17149,172.16.3.2,5101,4344,8700,0,64256,65728,6,6,4,1460,651,1,992,58,49964,42724,65700,0,7240,0,0,0
i,0x00000000,1720558590.107824,172.16.1.2,17149,172.16.3.2,5101,4344,8700,0,64256,65728,6,6,4,1460,651,1,992,58,49964,49964,65700,0,8688,0,0,0
o,0x00000000,1720558590.107865,172.16.1.2,17149,172.16.3.2,5101,4344,8700,0,65728,65728,6,6,4,1460,662,1,992,57,49964,48516,65700,0,7240,0,0,0
i,0x00000000,1720558590.200114,172.16.1.2,17149,172.16.3.2,5101,4344,8700,0,65728,65728,6,6,4,1460,662,1,992,57,49964,48516,65700,0,8688,0,0,0
o,0x00000000,1720558590.200131,172.16.1.2,17149,172.16.3.2,5101,4344,8700,0,64256,65728,6,6,4,1460,652,1,992,55,49964,45620,65700,0,5792,0,0,0
o,0x00000000,1720558590.200461,172.16.1.2,17149,172.16.3.2,5101,4344,8700,0,64256,65728,6,6,4,1460,652,1,992,55,49964,45620,65700,0,7240,0,0,0
i,0x00000000,1720558590.208760,172.16.1.2,17149,172.16.3.2,5101,4344,8700,0,64256,65728,6,6,4,1460,652,1,992,55,49964,49964,65700,0,8688,0,0,0
o,0x00000000,1720558590.208777,172.16.1.2,17149,172.16.3.2,5101,4344,8700,0,64256,65728,6,6,4,1460,647,1,992,52,49964,47068,65700,0,5792,0,0,0
o,0x00000000,1720558590.209138,172.16.1.2,17149,172.16.3.2,5101,4344,8700,0,64256,65728,6,6,4,1460,647,1,992,52,49964,47068,65700,0,7240,0,0,0
i,0x00000000,1720558590.291247,172.16.1.2,17149,172.16.3.2,5101,4344,8700,0,64256,65728,6,6,4,1460,647,1,992,52,49964,49964,65700,0,8688,0,0,0
o,0x00000000,1720558590.291288,172.16.1.2,17149,172.16.3.2,5101,4344,10160,0,64256,65728,6,6,4,1460,675,1,992,57,49964,47068,65700,0,5792,0,0,0
o,0x00000000,1720558590.293849,172.16.1.2,17149,172.16.3.2,5101,4344,10160,0,64256,65728,6,6,4,1460,675,1,992,57,49964,47068,65700,0,7240,0,0,0
o,0x00000000,1720558590.295143,172.16.1.2,17149,172.16.3.2,5101,4344,10160,0,64256,65728,6,6,4,1460,675,1,992,57,49964,47068,65700,0,8688,0,0,0
i,0x00000000,1720558590.362542,172.16.1.2,17149,172.16.3.2,5101,4344,10160,0,64256,65728,6,6,4,1460,675,1,992,57,49964,49964,65700,0,10136,0,0,0
o,0x00000000,1720558590.362554,172.16.1.2,17149,172.16.3.2,5101,4344,10160,0,64256,65728,6,6,4,1460,651,1,992,58,49964,47068,65700,0,7240,0,0,0
o,0x00000000,1720558590.364402,172.16.1.2,17149,172.16.3.2,5101,4344,10160,0,64256,65728,6,6,4,1460,651,1,992,58,49964,47068,65700,0,8688,0,0,0
i,0x00000000,1720558590.388009,172.16.1.2,17149,172.16.3.2,5101,4344,10160,0,64256,65728,6,6,4,1460,651,1,992,58,49964,49964,65700,0,10136,0,0,0
o,0x00000000,1720558590.388051,172.16.1.2,17149,172.16.3.2,5101,4344,10160,0,64256,65728,6,6,4,1460,642,1,992,56,49964,47068,65700,0,7240,0,0,0
o,0x00000000,1720558590.389513,172.16.1.2,17149,172.16.3.2,5101,4344,10160,0,64256,65728,6,6,4,1460,642,1,992,56,49964,47068,65700,0,8688,0,0,0
i,0x00000000,1720558590.465669,172.16.1.2,17149,172.16.3.2,5101,4344,10160,0,64256,65728,6,6,4,1460,642,1,992,56,49964,49964,65700,0,10136,0,0,0
o,0x00000000,1720558590.465682,172.16.1.2,17149,172.16.3.2,5101,4344,10160,0,64256,65728,6,6,4,1460,630,1,992,54,49964,47068,65700,0,7240,0,0,0
o,0x00000000,1720558590.465930,172.16.1.2,17149,172.16.3.2,5101,4344,10160,0,64256,65728,6,6,4,1460,630,1,992,54,49964,47068,65700,0,8688,0,0,0
i,0x00000000,1720558590.488245,172.16.1.2,17149,172.16.3.2,5101,4344,10160,0,64256,65728,6,6,4,1460,630,1,992,54,49964,49964,65700,0,10136,0,0,0
o,0x00000000,1720558590.488258,172.16.1.2,17149,172.16.3.2,5101,4344,11620,0,65728,65728,6,6,4,1460,632,1,992,51,49964,48516,65700,0,8688,0,0,0
o,0x00000000,1720558590.488512,172.16.1.2,17149,172.16.3.2,5101,4344,11620,0,65728,65728,6,6,4,1460,632,1,992,51,49964,48516,65700,0,10136,0,0,0
i,0x00000000,1720558590.527724,172.16.1.2,17149,172.16.3.2,5101,4344,11620,0,65728,65728,6,6,4,1460,632,1,992,51,49964,48516,65700,0,11584,0,0,0
o,0x00000000,1720558590.527740,172.16.1.2,17149,172.16.3.2,5101,4344,11620,0,64256,65728,6,6,4,1460,621,1,992,51,49964,45620,65700,0,8688,0,0,0
o,0x00000000,1720558590.527993,172.16.1.2,17149,172.16.3.2,5101,4344,11620,0,64256,65728,6,6,4,1460,621,1,992,51,49964,45620,65700,0,10136,0,0,0
i,0x00000000,1720558590.577595,172.16.1.2,17149,172.16.3.2,5101,4344,11620,0,64256,65728,6,6,4,1460,621,1,992,51,49964,49964,65700,0,11584,0,0,0
o,0x00000000,1720558590.577609,172.16.1.2,17149,172.16.3.2,5101,4344,11620,0,64256,65728,6,6,4,1460,620,1,992,48,49964,47068,65700,0,8688,0,0,0
o,0x00000000,1720558590.577875,172.16.1.2,17149,172.16.3.2,5101,4344,11620,0,64256,65728,6,6,4,1460,620,1,992,48,49964,47068,65700,0,10136,0,0,0
i,0x00000000,1720558590.626188,172.16.1.2,17149,172.16.3.2,5101,4344,11620,0,64256,65728,6,6,4,1460,620,1,992,48,49964,49964,65700,0,11584,0,0,0
o,0x00000000,1720558590.626200,172.16.1.2,17149,172.16.3.2,5101,4344,11620,0,64256,65728,6,6,4,1460,603,1,992,50,49964,47068,65700,0,8688,0,0,0
o,0x00000000,1720558590.626580,172.16.1.2,17149,172.16.3.2,5101,4344,11620,0,64256,65728,6,6,4,1460,603,1,992,50,49964,47068,65700,0,10136,0,0,0
i,0x00000000,1720558590.679138,172.16.1.2,17149,172.16.3.2,5101,4344,11620,0,64256,65728,6,6,4,1460,603,1,992,50,49964,49964,65700,0,11584,0,0,0
o,0x00000000,1720558590.679179,172.16.1.2,17149,172.16.3.2,5101,4344,13080,0,64256,65728,6,6,4,1460,600,1,992,48,49964,47068,65700,0,8688,0,0,0
o,0x00000000,1720558590.680525,172.16.1.2,17149,172.16.3.2,5101,4344,13080,0,64256,65728,6,6,4,1460,600,1,992,48,49964,47068,65700,0,10136,0,0,0
o,0x00000000,1720558590.681790,172.16.1.2,17149,172.16.3.2,5101,4344,13080,0,64256,65728,6,6,4,1460,600,1,992,48,49964,47068,65700,0,11584,0,0,0
i,0x00000000,1720558590.739313,172.16.1.2,17149,172.16.3.2,5101,4344,13080,0,64256,65728,6,6,4,1460,600,1,992,48,49964,49964,65700,0,13032,0,0,0
o,0x00000000,1720558590.739354,172.16.1.2,17149,172.16.3.2,5101,4344,13080,0,64256,65728,6,6,4,1460,609,1,992,48,49964,47068,65700,0,10136,0,0,0
o,0x00000000,1720558590.740702,172.16.1.2,17149,172.16.3.2,5101,4344,13080,0,64256,65728,6,6,4,1460,609,1,992,48,49964,47068,65700,0,11584,0,0,0
i,0x00000000,1720558590.775845,172.16.1.2,17149,172.16.3.2,5101,4344,13080,0,64256,65728,6,6,4,1460,609,1,992,48,49964,49964,65700,0,13032,0,0,0
o,0x00000000,1720558590.775857,172.16.1.2,17149,172.16.3.2,5101,4344,13080,0,64256,65728,6,6,4,1460,605,1,992,46,49964,47068,65700,0,10136,0,0,0
o,0x00000000,1720558590.776106,172.16.1.2,17149,172.16.3.2,5101,4344,13080,0,64256,65728,6,6,4,1460,605,1,992,46,49964,47068,65700,0,11584,0,0,0
i,0x00000000,1720558590.828283,172.16.1.2,17149,172.16.3.2,5101,4344,13080,0,64256,65728,6,6,4,1460,605,1,992,46,49964,49964,65700,0,13032,0,0,0
o,0x00000000,1720558590.828313,172.16.1.2,17149,172.16.3.2,5101,4344,13080,0,64256,65728,6,6,4,1460,614,1,992,47,49964,47068,65700,0,10136,0,0,0
o,0x00000000,1720558590.829082,172.16.1.2,17149,172.16.3.2,5101,4344,13080,0,64256,65728,6,6,4,1460,614,1,992,47,49964,47068,65700,0,11584,0,0,0
i,0x00000000,1720558590.876801,172.16.1.2,17149,172.16.3.2,5101,4344,13080,0,64256,65728,6,6,4,1460,614,1,992,47,49964,49964,65700,0,13032,0,0,0
o,0x00000000,1720558590.876817,172.16.1.2,17149,172.16.3.2,5101,5792,18824,0,64256,65728,6,6,4,1460,614,1,536871904,47,49964,49964,65700,0,13032,0,0,0
o,0x00000000,1720558590.877347,172.16.1.2,17149,172.16.3.2,5101,5792,18824,0,64256,65728,6,6,4,1460,614,1,536871904,47,49964,49964,65700,0,14480,0,0,0
o,0x00000000,1720558590.877842,172.16.1.2,17149,172.16.3.2,5101,5792,18824,0,64256,65728,6,6,4,1460,614,1,536871904,47,49964,49964,65700,0,15928,0,0,0
o,0x00000000,1720558590.878336,172.16.1.2,17149,172.16.3.2,5101,5792,18824,0,64256,65728,6,6,4,1460,614,1,536871904,47,49964,49964,65700,0,17376,0,0,0
o,0x00000000,1720558590.878835,172.16.1.2,17149,172.16.3.2,5101,5792,18824,0,64256,65728,6,6,4,1460,618,1,536871904,46,49964,47068,65700,0,15928,0,0,0
o,0x00000000,1720558590.879348,172.16.1.2,17149,172.16.3.2,5101,5792,18824,0,64256,65728,6,6,4,1460,618,1,536871904,46,49964,47068,65700,0,17376,0,0,0
i,0x00000000,1720558590.928053,172.16.1.2,17149,172.16.3.2,5101,5792,18824,0,64256,65728,6,6,4,1460,618,1,536871904,46,49964,49964,65700,0,18824,0,0,0
o,0x00000000,1720558590.928069,172.16.1.2,17149,172.16.3.2,5101,5792,20272,0,64256,65728,6,6,4,1460,618,1,536871904,46,49964,49964,65700,0,18824,0,0,0
o,0x00000000,1720558590.928985,172.16.1.2,17149,172.16.3.2,5101,5792,20272,0,65728,65728,6,6,4,1460,641,1,536871904,51,49964,48516,65700,0,18824,0,0,0
i,0x00000000,1720558590.956982,172.16.1.2,17149,172.16.3.2,5101,5792,20272,0,65728,65728,6,6,4,1460,641,1,536871904,51,49964,48516,65700,0,20272,0,0,0
i,0x00000000,1720558590.985572,172.16.1.2,17149,172.16.3.2,5101,5792,15928,0,64256,65728,6,6,4,1460,645,1,536871904,49,49964,49964,65700,0,17376,0,0,0
i,0x00000000,1720558591.097111,172.16.1.2,17149,172.16.3.2,5101,5792,14480,0,64256,65728,6,6,4,1460,649,1,536871904,48,49964,49964,65700,0,14480,0,0,0
i,0x00000000,1720558591.125345,172.16.1.2,17149,172.16.3.2,5101,5792,11584,0,64256,65728,6,6,4,1460,676,1,536871904,54,49964,49964,65700,0,11584,0,0,0
o,0x00000000,1720558591.125359,172.16.1.2,17149,172.16.3.2,5101,5792,11584,0,65728,65728,6,6,4,1460,688,1,992,54,49964,48516,65700,0,10136,0,0,0
i,0x00000000,1720558591.156578,172.16.1.2,17149,172.16.3.2,5101,5792,11584,0,65728,65728,6,6,4,1460,688,1,992,54,49964,48516,65700,0,11584,0,0,0
o,0x00000000,1720558591.156594,172.16.1.2,17149,172.16.3.2,5101,5792,13044,0,64256,65728,6,6,4,1460,714,1,992,58,49964,45620,65700,0,8688,0,0,0
o,0x00000000,1720558591.156847,172.16.1.2,17149,172.16.3.2,5101,5792,13044,0,64256,65728,6,6,4,1460,714,1,992,58,49964,45620,65700,0,10136,0,0,0
o,0x00000000,1720558591.157081,172.16.1.2,17149,172.16.3.2,5101,5792,13044,0,64256,65728,6,6,4,1460,714,1,992,58,49964,45620,65700,0,11584,0,0,0
i,0x00000000,1720558591.184171,172.16.1.2,17149,172.16.3.2,5101,5792,13044,0,64256,65728,6,6,4,1460,714,1,992,58,49964,49964,65700,0,13032,0,0,0
o,0x00000000,1720558591.184181,172.16.1.2,17149,172.16.3.2,5101,5792,23168,0,64256,65728,6,6,4,1460,714,1,536871904,58,49964,49964,65700,0,13032,0,0,0
o,0x00000000,1720558591.184439,172.16.1.2,17149,172.16.3.2,5101,5792,23168,0,64256,65728,6,6,4,1460,714,1,536871904,58,49964,49964,65700,0,14480,0,0,0
o,0x00000000,1720558591.184703,172.16.1.2,17149,172.16.3.2,5101,5792,23168,0,64256,65728,6,6,4,1460,714,1,536871904,58,49964,49964,65700,0,15928,0,0,0
o,0x00000000,1720558591.184948,172.16.1.2,17149,172.16.3.2,5101,5792,23168,0,64256,65728,6,6,4,1460,714,1,536871904,58,49964,49964,65700,0,17376,0,0,0
o,0x00000000,1720558591.185194,172.16.1.2,17149,172.16.3.2,5101,5792,23168,0,64256,65728,6,6,4,1460,714,1,536871904,58,49964,49964,65700,0,18824,0,0,0
o,0x00000000,1720558591.185429,172.16.1.2,17149,172.16.3.2,5101,5792,23168,0,64256,65728,6,6,4,1460,714,1,536871904,58,49964,49964,65700,0,20272,0,0,0
o,0x00000000,1720558591.185661,172.16.1.2,17149,172.16.3.2,5101,5792,23168,0,64256,65728,6,6,4,1460,714,1,536871904,58,49964,49964,65700,0,21720,0,0,0
o,0x00000000,1720558591.185899,172.16.1.2,17149,172.16.3.2,5101,5792,23168,0,64256,65728,6,6,4,1460,745,1,536871904,63,49964,47068,65700,0,20272,0,0,0
o,0x00000000,1720558591.186255,172.16.1.2,17149,172.16.3.2,5101,5792,23168,0,64256,65728,6,6,4,1460,745,1,536871904,63,49964,47068,65700,0,21720,0,0,0
i,0x00000000,1720558591.226132,172.16.1.2,17149,172.16.3.2,5101,5792,23168,0,64256,65728,6,6,4,1460,745,1,536871904,63,49964,49964,65700,0,23168,0,0,0
i,0x00000000,1720558591.257800,172.16.1.2,17149,172.16.3.2,5101,5792,20272,0,64256,65728,6,6,4,1460,788,1,536871904,70,49964,49964,65700,0,20272,0,0,0
o,0x00000000,1720558591.257819,172.16.1.2,17149,172.16.3.2,5101,5792,20272,0,65728,65728,6,6,4,1460,818,1,536871904,72,49964,48516,65700,0,18824,0,0,0
i,0x00000000,1720558591.289899,172.16.1.2,17149,172.16.3.2,5101,5792,20272,0,65728,65728,6,6,4,1460,818,1,536871904,72,49964,48516,65700,0,20272,0,0,0
i,0x00000000,1720558591.398170,172.16.1.2,17149,172.16.3.2,5101,5792,17376,0,64256,65728,6,6,4,1460,780,1,536871904,74,49964,49964,65700,0,17376,0,0,0
o,0x00000000,1720558591.398201,172.16.1.2,17149,172.16.3.2,5101,5792,17376,0,65728,65728,6,6,4,1460,779,1,536871904,67,49964,48516,65700,0,15928,0,0,0
i,0x00000000,1720558591.429179,172.16.1.2,17149,172.16.3.2,5101,5792,17376,0,65728,65728,6,6,4,1460,779,1,536871904,67,49964,48516,65700,0,17376,0,0,0
o,0x00000000,1720558591.429191,172.16.1.2,17149,172.16.3.2,5101,5792,17376,0,64256,65728,6,6,4,1460,790,1,992,64,49964,45620,65700,0,14480,0,0,0
o,0x00000000,1720558591.429437,172.16.1.2,17149,172.16.3.2,5101,5792,17376,0,64256,65728,6,6,4,1460,790,1,992,64,49964,45620,65700,0,15928,0,0,0
i,0x00000000,1720558591.455469,172.16.1.2,17149,172.16.3.2,5101,5792,17376,0,64256,65728,6,6,4,1460,790,1,992,64,49964,49964,65700,0,17376,0,0,0
o,0x00000000,1720558591.455480,172.16.1.2,17149,172.16.3.2,5101,8688,39096,0,64256,65728,6,6,4,1460,790,1,536871904,64,58156,49964,65700,0,17376,0,0,0
o,0x00000000,1720558591.455754,172.16.1.2,17149,172.16.3.2,5101,8688,39096,0,64256,65728,6,6,4,1460,790,1,536871904,64,58156,49964,65700,0,18824,0,0,0
o,0x00000000,1720558591.456015,172.16.1.2,17149,172.16.3.2,5101,8688,39096,0,64256,65728,6,6,4,1460,790,1,536871904,64,58156,49964,65700,0,20272,0,0,0
o,0x00000000,1720558591.456400,172.16.1.2,17149,172.16.3.2,5101,8688,39096,0,64256,65728,6,6,4,1460,790,1,536871904,64,58156,49964,65700,0,21720,0,0,0
o,0x00000000,1720558591.456669,172.16.1.2,17149,172.16.3.2,5101,8688,39096,0,64256,65728,6,6,4,1460,790,1,536871904,64,58156,49964,65700,0,23168,0,0,0
o,0x00000000,1720558591.456934,172.16.1.2,17149,172.16.3.2,5101,8688,39096,0,64256,65728,6,6,4,1460,790,1,536871904,64,58156,49964,65700,0,24616,0,0,0
o,0x00000000,1720558591.457191,172.16.1.2,17149,172.16.3.2,5101,8688,39096,0,64256,65728,6,6,4,1460,790,1,536871904,64,58156,49964,65700,0,26064,0,0,0
o,0x00000000,1720558591.457428,172.16.1.2,17149,172.16.3.2,5101,8688,39096,0,64256,65728,6,6,4,1460,790,1,536871904,64,58156,49964,65700,0,27512,0,0,0
o,0x00000000,1720558591.457760,172.16.1.2,17149,172.16.3.2,5101,8688,39096,0,64256,65728,6,6,4,1460,790,1,536871904,64,58156,49964,65700,0,28960,0,0,0
o,0x00000000,1720558591.457997,172.16.1.2,17149,172.16.3.2,5101,8688,39096,0,64256,65728,6,6,4,1460,790,1,536871904,64,58156,49964,65700,0,30408,0,0,0
o,0x00000000,1720558591.458225,172.16.1.2,17149,172.16.3.2,5101,8688,39096,0,64256,65728,6,6,4,1460,790,1,536871904,64,58156,49964,65700,0,31856,0,0,0
o,0x00000000,1720558591.458454,172.16.1.2,17149,172.16.3.2,5101,8688,39096,0,64256,65728,6,6,4,1460,790,1,536871904,64,58156,49964,65700,0,33304,0,0,0
o,0x00000000,1720558591.458682,172.16.1.2,17149,172.16.3.2,5101,8688,39096,0,64256,65728,6,6,4,1460,790,1,536871904,64,58156,49964,65700,0,34752,0,0,0
o,0x00000000,1720558591.458921,172.16.1.2,17149,172.16.3.2,5101,8688,39096,0,64256,65728,6,6,4,1460,790,1,536871904,64,58156,49964,65700,0,36200,0,0,0
o,0x00000000,1720558591.459186,172.16.1.2,17149,172.16.3.2,5101,8688,39096,0,64256,65728,6,6,4,1460,790,1,536871904,64,58156,49964,65700,0,37648,0,0,0
o,0x00000000,1720558591.459425,172.16.1.2,17149,172.16.3.2,5101,8688,39096,0,64256,65728,6,6,4,1460,804,1,536871904,63,58156,47068,65700,0,36200,0,0,0
o,0x00000000,1720558591.459654,172.16.1.2,17149,172.16.3.2,5101,8688,39096,0,64256,65728,6,6,4,1460,804,1,536871904,63,58156,47068,65700,0,37648,0,0,0
i,0x00000000,1720558591.497536,172.16.1.2,17149,172.16.3.2,5101,8688,39096,0,64256,65728,6,6,4,1460,804,1,536871904,63,82732,82732,65700,0,39096,0,0,0
o,0x00000000,1720558591.497566,172.16.1.2,17149,172.16.3.2,5101,8688,37648,0,64256,65728,6,6,4,1460,832,1,536871904,67,82732,79836,65700,0,36200,0,0,0
i,0x00000000,1720558591.530236,172.16.1.2,17149,172.16.3.2,5101,8688,37648,0,64256,65728,6,6,4,1460,832,1,536871904,67,82732,82732,65700,0,37648,0,0,0
o,0x00000000,1720558591.530280,172.16.1.2,17149,172.16.3.2,5101,8688,36200,0,64256,65728,6,6,4,1460,868,1,536871904,71,82732,79836,65700,0,34752,0,0,0
i,0x00000000,1720558591.552390,172.16.1.2,17149,172.16.3.2,5101,8688,36200,0,64256,65728,6,6,4,1460,868,1,536871904,71,82732,82732,65700,0,36200,0,0,0
i,0x00000000,1720558591.612526,172.16.1.2,17149,172.16.3.2,5101,8688,33304,0,64256,65728,6,6,4,1460,908,1,536871904,77,82732,82732,65700,0,33304,0,0,0
o,0x00000000,1720558591.612561,172.16.1.2,17149,172.16.3.2,5101,8688,34752,0,64256,65728,6,6,4,1460,908,1,536871904,77,82732,82732,65700,0,33304,0,0,0
o,0x00000000,1720558591.614050,172.16.1.2,17149,172.16.3.2,5101,8688,34752,0,65728,65728,6,6,4,1460,935,1,536871904,77,82732,81284,65700,0,33304,0,0,0
i,0x00000000,1720558591.826927,172.16.1.2,17149,172.16.3.2,5101,8688,34752,0,65728,65728,6,6,4,1460,935,1,536871904,77,82732,81284,65700,0,34752,0,0,0
i,0x00000000,1720558591.887038,172.16.1.2,17149,172.16.3.2,5101,8688,30408,0,64256,65728,6,6,4,1460,987,1,536871904,85,82732,81144,65700,0,31856,0,0,0
o,0x00000000,1720558591.887069,172.16.1.2,17149,172.16.3.2,5101,14480,52128,0,64256,65728,6,6,4,1460,987,1,536871904,85,82732,81144,65700,0,31856,0,0,0
o,0x00000000,1720558591.888525,172.16.1.2,17149,172.16.3.2,5101,14480,52128,0,64256,65728,6,6,4,1460,987,1,536871904,85,82732,81144,65700,0,33304,0,0,0
o,0x00000000,1720558591.889851,172.16.1.2,17149,172.16.3.2,5101,14480,52128,0,64256,65728,6,6,4,1460,987,1,536871904,85,82732,81144,65700,0,34752,0,0,0
o,0x00000000,1720558591.891443,172.16.1.2,17149,172.16.3.2,5101,14480,52128,0,64256,65728,6,6,4,1460,987,1,536871904,85,82732,81144,65700,0,36200,0,0,0
o,0x00000000,1720558591.892556,172.16.1.2,17149,172.16.3.2,5101,14480,52128,0,64256,65728,6,6,4,1460,987,1,536871904,85,82732,81144,65700,0,37648,0,0,0
o,0x00000000,1720558591.893547,172.16.1.2,17149,172.16.3.2,5101,14480,52128,0,64256,65728,6,6,4,1460,987,1,536871904,85,82732,81144,65700,0,39096,0,0,0
o,0x00000000,1720558591.894460,172.16.1.2,17149,172.16.3.2,5101,14480,52128,0,64256,65728,6,6,4,1460,987,1,536871904,85,82732,81144,65700,0,40544,0,0,0
o,0x00000000,1720558591.895138,172.16.1.2,17149,172.16.3.2,5101,14480,52128,0,64256,65728,6,6,4,1460,987,1,536871904,85,82732,81144,65700,0,41992,0,0,0
o,0x00000000,1720558591.895795,172.16.1.2,17149,172.16.3.2,5101,14480,52128,0,64256,65728,6,6,4,1460,987,1,536871904,85,82732,81144,65700,0,43440,0,0,0
o,0x00000000,1720558591.896763,172.16.1.2,17149,172.16.3.2,5101,14480,52128,0,64256,65728,6,6,4,1460,987,1,536871904,85,82732,81144,65700,0,44888,0,0,0
o,0x00000000,1720558591.897433,172.16.1.2,17149,172.16.3.2,5101,14480,52128,0,64256,65728,6,6,4,1460,987,1,536871904,85,82732,81144,65700,0,46336,0,0,0
o,0x00000000,1720558591.898113,172.16.1.2,17149,172.16.3.2,5101,14480,52128,0,64256,65728,6,6,4,1460,987,1,536871904,85,82732,81144,65700,0,47784,0,0,0
o,0x00000000,1720558591.898944,172.16.1.2,17149,172.16.3.2,5101,14480,52128,0,64256,65728,6,6,4,1460,987,1,536871904,85,82732,81144,65700,0,49232,0,0,0
o,0x00000000,1720558591.899391,172.16.1.2,17149,172.16.3.2,5101,14480,52128,0,64256,65728,6,6,4,1460,987,1,536871904,85,82732,81144,65700,0,50680,0,0,0
o,0x00000000,1720558591.899842,172.16.1.2,17149,172.16.3.2,5101,14480,52128,0,64256,65728,6,6,4,1460,1052,1,536871904,95,82732,78248,65700,0,49232,0,0,0
o,0x00000000,1720558591.900291,172.16.1.2,17149,172.16.3.2,5101,14480,52128,0,64256,65728,6,6,4,1460,1052,1,536871904,95,82732,78248,65700,0,50680,0,0,0
i,0x00000000,1720558591.903503,172.16.1.2,17149,172.16.3.2,5101,14480,52128,0,64256,65728,6,6,4,1460,1052,1,536871904,95,82732,82732,65700,0,52128,0,0,0
o,0x00000000,1720558591.903515,172.16.1.2,17149,172.16.3.2,5101,14480,50680,0,64256,65728,6,6,4,1460,1101,1,536871904,98,82732,79836,65700,0,49232,0,0,0
i,0x00000000,1720558591.939050,172.16.1.2,17149,172.16.3.2,5101,14480,50680,0,64256,65728,6,6,4,1460,1101,1,536871904,98,82732,82732,65700,0,50680,0,0,0
o,0x00000000,1720558591.939093,172.16.1.2,17149,172.16.3.2,5101,14480,49232,0,64256,65728,6,6,4,1460,1156,1,536871904,102,82732,79836,65700,0,47784,0,0,0
i,0x00000000,1720558591.960148,172.16.1.2,17149,172.16.3.2,5101,14480,49232,0,64256,65728,6,6,4,1460,1156,1,536871904,102,82732,82732,65700,0,49232,0,0,0
o,0x00000000,1720558591.960181,172.16.1.2,17149,172.16.3.2,5101,14480,50680,0,64256,65728,6,6,4,1460,1156,1,536871904,102,82732,82732,65700,0,49232,0,0,0
o,0x00000000,1720558591.961542,172.16.1.2,17149,172.16.3.2,5101,14480,50680,0,65728,65728,6,6,4,1460,1212,1,536871904,107,82732,81284,65700,0,49232,0,0,0
i,0x00000000,1720558591.991203,172.16.1.2,17149,172.16.3.2,5101,14480,50680,0,65728,65728,6,6,4,1460,1212,1,536871904,107,82732,81284,65700,0,50680,0,0,0
i,0x00000000,1720558592.041809,172.16.1.2,17149,172.16.3.2,5101,14480,47784,0,64256,65728,6,6,4,1460,1273,1,536871904,112,82732,82732,65700,0,47784,0,0,0
o,0x00000000,1720558592.041849,172.16.1.2,17149,172.16.3.2,5101,14480,47784,0,64256,65728,6,6,4,1460,1346,1,536871904,119,82732,79836,65700,0,44888,0,0,0
o,0x00000000,1720558592.042243,172.16.1.2,17149,172.16.3.2,5101,14480,47784,0,64256,65728,6,6,4,1460,1346,1,536871904,119,82732,79836,65700,0,46336,0,0,0
i,0x00000000,1720558592.042646,172.16.1.2,17149,172.16.3.2,5101,14480,47784,0,64256,65728,6,6,4,1460,1346,1,536871904,119,82732,79836,65700,0,47784,0,0,0
o,0x00000000,1720558592.042668,172.16.1.2,17149,172.16.3.2,5101,14480,46336,0,64256,65728,6,6,4,1460,1410,1,536871904,123,82732,76940,65700,0,44888,0,0,0
i,0x00000000,1720558592.070284,172.16.1.2,17149,172.16.3.2,5101,14480,46336,0,64256,65728,6,6,4,1460,1410,1,536871904,123,82732,82732,65700,0,46336,0,0,0
o,0x00000000,1720558592.070329,172.16.1.2,17149,172.16.3.2,5101,14480,44888,0,64256,65728,6,6,4,1460,1478,1,536871904,127,82732,79836,65700,0,43440,0,0,0
i,0x00000000,1720558592.075762,172.16.1.2,17149,172.16.3.2,5101,14480,44888,0,64256,65728,6,6,4,1460,1478,1,536871904,127,82732,82732,65700,0,44888,0,0,0
o,0x00000000,1720558592.075799,172.16.1.2,17149,172.16.3.2,5101,14480,43440,0,62848,65728,6,6,4,1460,1538,1,536871904,129,82732,79836,65700,0,41992,0,0,0
i,0x00000000,1720558592.125368,172.16.1.2,17149,172.16.3.2,5101,14480,43440,0,62848,65728,6,6,4,1460,1538,1,536871904,129,82732,82732,65700,0,43440,0,0,0
o,0x00000000,1720558592.125413,172.16.1.2,17149,172.16.3.2,5101,14480,43440,0,64256,65728,6,6,4,1460,1610,1,536871904,134,82732,79836,65700,0,40544,0,0,0
o,0x00000000,1720558592.127431,172.16.1.2,17149,172.16.3.2,5101,14480,43440,0,64256,65728,6,6,4,1460,1610,1,536871904,134,82732,79836,65700,0,41992,0,0,0
i,0x00000000,1720558592.175555,172.16.1.2,17149,172.16.3.2,5101,14480,43440,0,64256,65728,6,6,4,1460,1610,1,536871904,134,82732,82732,65700,0,43440,0,0,0
o,0x00000000,1720558592.175596,172.16.1.2,17149,172.16.3.2,5101,14480,41992,0,64256,65728,6,6,4,1460,1661,1,536871904,132,82732,79836,65700,0,40544,0,0,0
i,0x00000000,1720558592.322534,172.16.1.2,17149,172.16.3.2,5101,14480,41992,0,64256,65728,6,6,4,1460,1661,1,536871904,132,82732,82732,65700,0,41992,0,0,0
o,0x00000000,1720558592.322581,172.16.1.2,17149,172.16.3.2,5101,14480,41992,0,65728,65728,6,6,4,1460,1738,1,536871904,139,82732,81284,65700,0,40544,0,0,0
i,0x00000000,1720558592.456116,172.16.1.2,17149,172.16.3.2,5101,14480,41992,0,65728,65728,6,6,4,1460,1738,1,536871904,139,82732,81284,65700,0,41992,0,0,0
o,0x00000000,1720558592.456132,172.16.1.2,17149,172.16.3.2,5101,14480,41992,0,65728,65728,6,6,4,1460,1745,1,992,125,82732,79836,65700,0,40544,0,0,0
i,0x00000000,1720558592.486447,172.16.1.2,17149,172.16.3.2,5101,14480,41992,0,65728,65728,6,6,4,1460,1745,1,992,125,82732,82732,65700,0,41992,0,0,0
o,0x00000000,1720558592.486458,172.16.1.2,17149,172.16.3.2,5101,20272,143352,0,65728,65728,6,6,4,1460,1745,1,536871904,125,82732,82732,65700,0,41992,0,0,0
o,0x00000000,1720558592.486730,172.16.1.2,17149,172.16.3.2,5101,20272,143352,0,65728,65728,6,6,4,1460,1745,1,536871904,125,82732,82732,65700,0,43440,0,0,0
o,0x00000000,1720558592.487050,172.16.1.2,17149,172.16.3.2,5101,20272,143352,0,65728,65728,6,6,4,1460,1745,1,536871904,125,82732,82732,65700,0,44888,0,0,0
o,0x00000000,1720558592.487308,172.16.1.2,17149,172.16.3.2,5101,20272,143352,0,65728,65728,6,6,4,1460,1745,1,536871904,125,82732,82732,65700,0,46336,0,0,0
o,0x00000000,1720558592.487709,172.16.1.2,17149,172.16.3.2,5101,20272,143352,0,65728,65728,6,6,4,1460,1745,1,536871904,125,82732,82732,65700,0,47784,0,0,0
o,0x00000000,1720558592.488555,172.16.1.2,17149,172.16.3.2,5101,20272,143352,0,65728,65728,6,6,4,1460,1745,1,536871904,125,82732,82732,65700,0,49232,0,0,0
o,0x00000000,1720558592.489000,172.16.1.2,17149,172.16.3.2,5101,20272,143352,0,65728,65728,6,6,4,1460,1745,1,536871904,125,82732,82732,65700,0,50680,0,0,0
o,0x00000000,1720558592.489644,172.16.1.2,17149,172.16.3.2,5101,20272,143352,0,65728,65728,6,6,4,1460,1745,1,536871904,125,82732,82732,65700,0,52128,0,0,0
o,0x00000000,1720558592.490500,172.16.1.2,17149,172.16.3.2,5101,20272,143352,0,65728,65728,6,6,4,1460,1745,1,536871904,125,82732,82732,65700,0,53576,0,0,0
o,0x00000000,1720558592.491070,172.16.1.2,17149,172.16.3.2,5101,20272,143352,0,65728,65728,6,6,4,1460,1745,1,536871904,125,82732,82732,65700,0,55024,0,0,0
o,0x00000000,1720558592.491859,172.16.1.2,17149,172.16.3.2,5101,20272,143352,0,65728,65728,6,6,4,1460,1745,1,536871904,125,82732,82732,65700,0,56472,0,0,0
o,0x00000000,1720558592.492656,172.16.1.2,17149,172.16.3.2,5101,20272,143352,0,65728,65728,6,6,4,1460,1745,1,536871904,125,82732,82732,65700,0,57920,0,0,0
o,0x00000000,1720558592.493108,172.16.1.2,17149,172.16.3.2,5101,20272,143352,0,65728,65728,6,6,4,1460,1745,1,536871904,125,82732,82732,65700,0,59368,0,0,0
o,0x00000000,1720558592.493571,172.16.1.2,17149,172.16.3.2,5101,20272,143352,0,65728,65728,6,6,4,1460,1745,1,536871904,125,82732,82732,65700,0,60816,0,0,0
o,0x00000000,1720558592.493938,172.16.1.2,17149,172.16.3.2,5101,20272,143352,0,65728,65728,6,6,4,1460,1745,1,536871904,125,82732,82732,65700,0,62264,0,0,0
o,0x00000000,1720558592.494168,172.16.1.2,17149,172.16.3.2,5101,20272,143352,0,65728,65728,6,6,4,1460,1745,1,536871904,125,82732,82732,65700,0,63712,0,0,0
o,0x00000000,1720558592.494403,172.16.1.2,17149,172.16.3.2,5101,20272,143352,0,64256,65728,6,6,4,1460,1767,1,536871904,118,82732,79836,65700,0,62264,0,0,0
i,0x00000000,1720558592.518188,172.16.1.2,17149,172.16.3.2,5101,20272,143352,0,64256,65728,6,6,4,1460,1767,1,536871904,118,82732,82732,65700,0,63712,0,0,0
o,0x00000000,1720558592.518219,172.16.1.2,17149,172.16.3.2,5101,20272,144800,0,65728,65728,6,6,4,1460,1799,1,536871904,116,82732,81284,65700,0,62264,0,0,0
o,0x00000000,1720558592.519112,172.16.1.2,17149,172.16.3.2,5101,20272,144800,0,65728,65728,6,6,4,1460,1799,1,536871904,116,82732,81284,65700,0,63712,0,0,0
i,0x00000000,1720558592.540591,172.16.1.2,17149,172.16.3.2,5101,20272,144800,0,65728,65728,6,6,4,1460,1799,1,536871904,116,82732,81284,65700,0,65160,0,0,0
o,0x00000000,1720558592.540638,172.16.1.2,17149,172.16.3.2,5101,20272,143352,0,64256,65728,6,6,4,1460,1835,1,536871904,117,82732,78388,65700,0,62264,0,0,0
i,0x00000000,1720558592.568562,172.16.1.2,17149,172.16.3.2,5101,20272,143352,0,64256,65728,6,6,4,1460,1835,1,536871904,117,82732,82732,65700,0,63712,0,0,0
o,0x00000000,1720558592.568600,172.16.1.2,17149,172.16.3.2,5101,20272,141904,0,64256,65728,6,6,4,1460,1878,1,536871904,119,82732,79836,65700,0,60816,0,0,0
o,0x00000000,1720558592.569761,172.16.1.2,17149,172.16.3.2,5101,20272,141904,0,64256,65728,6,6,4,1460,1878,1,536871904,119,82732,79836,65700,0,62264,0,0,0
i,0x00000000,1720558592.609019,172.16.1.2,17149,172.16.3.2,5101,20272,141904,0,64256,65728,6,6,4,1460,1878,1,536871904,119,82732,82732,65700,0,63712,0,0,0
o,0x00000000,1720558592.609061,172.16.1.2,17149,172.16.3.2,5101,20272,141904,0,64256,65728,6,6,4,1460,1932,1,536871904,124,82732,79836,65700,0,60816,0,0,0
o,0x00000000,1720558592.610421,172.16.1.2,17149,172.16.3.2,5101,20272,141904,0,64256,65728,6,6,4,1460,1932,1,536871904,124,82732,79836,65700,0,62264,0,0,0
i,0x00000000,1720558592.639139,172.16.1.2,17149,172.16.3.2,5101,20272,141904,0,64256,65728,6,6,4,1460,1932,1,536871904,124,82732,82732,65700,0,63712,0,0,0
o,0x00000000,1720558592.639166,172.16.1.2,17149,172.16.3.2,5101,20272,141904,0,64256,65728,6,6,4,1460,1987,1,536871904,129,82732,79836,65700,0,60816,0,0,0
o,0x00000000,1720558592.639891,172.16.1.2,17149,172.16.3.2,5101,20272,141904,0,64256,65728,6,6,4,1460,1987,1,536871904,129,82732,79836,65700,0,62264,0,0,0
i,0x00000000,1720558592.668502,172.16.1.2,17149,172.16.3.2,5101,20272,141904,0,64256,65728,6,6,4,1460,1987,1,536871904,129,82732,82732,65700,0,63712,0,0,0
o,0x00000000,1720558592.668517,172.16.1.2,17149,172.16.3.2,5101,20272,141904,0,64256,65728,6,6,4,1460,2047,1,536871904,134,82732,79836,65700,0,60816,0,0,0
o,0x00000000,1720558592.668776,172.16.1.2,17149,172.16.3.2,5101,20272,141904,0,64256,65728,6,6,4,1460,2047,1,536871904,134,82732,79836,65700,0,62264,0,0,0
