enable_time_secs=1720557157	enable_time_usecs=995036	siftrver=1.2.4	hz=100	tcp_rtt_scale=32	sysname=FreeBSD	sysver=1301000	ipmode=4
o,0x00000000,1720557157.995095,10.0.2.15,22,10.0.2.2,56320,1073725440,17770,0,65535,65700,0,0,4,1460,1,0,4,24,33580,44,65700,0,0,0,0,0
o,0x00000000,1720557157.995315,10.0.2.15,22,10.0.2.2,56320,1073725440,17770,0,65535,65700,0,0,4,1460,1,0,4,24,33580,80,65700,0,44,0,0,0
i,0x00000000,1720557157.996594,10.0.2.15,22,10.0.2.2,56320,1073725440,17770,0,65535,65700,0,0,4,1460,1,0,4,24,33580,80,65700,0,80,0,0,0
i,0x00000000,1720557157.996600,10.0.2.15,22,10.0.2.2,56320,1073725440,17814,0,65535,65700,0,0,4,1460,1,0,4,23,33580,36,65700,0,36,0,0,0
o,0x00000000,1720557157.996761,10.0.2.15,22,10.0.2.2,56320,1073725440,17850,0,65535,65700,0,0,4,1460,1,0,4,23,33580,36,65700,0,0,0,0,0
i,0x00000000,1720557157.997833,10.0.2.15,22,10.0.2.2,56320,1073725440,17850,0,65535,65700,0,0,4,1460,1,0,4,23,33580,36,65700,0,36,0,0,0
o,0x00000000,1720557157.997996,10.0.2.15,22,10.0.2.2,56320,1073725440,17886,0,65535,65700,0,0,4,1460,1,0,4,23,33580,176,65700,0,0,0,0,0
i,0x00000000,1720557157.998643,10.0.2.15,22,10.0.2.2,56320,1073725440,17886,0,65535,65700,0,0,4,1460,1,0,4,23,33580,176,65700,0,176,0,0,0
i,0x00000000,1720557157.998647,10.0.2.15,22,10.0.2.2,56320,1073725440,18062,0,65535,65700,0,0,4,1460,1,0,4,23,33580,0,65700,0,0,0,0,0
i,0x00000000,1720557157.998649,10.0.2.15,22,10.0.2.2,56320,1073725440,18062,0,65535,65700,0,0,4,1460,1,0,4,23,33580,0,65700,96,0,0,0,0
o,0x00000000,1720557157.998652,10.0.2.15,22,10.0.2.2,56320,1073725440,18062,0,65535,65604,0,0,5,1460,1,0,5,23,33580,0,65700,96,0,0,0,0
o,0x00000000,1720557157.999352,10.0.2.15,22,10.0.2.2,56320,1073725440,18062,0,65535,65604,0,0,8,1460,1,0,4,23,33580,0,65700,0,0,0,0,0
i,0x00000000,1720557158.000220,10.0.2.15,22,10.0.2.2,56320,1073725440,18062,0,65535,65604,0,0,8,1460,1,0,20,23,33580,0,65700,0,1,0,0,0
i,0x00000000,1720557160.343602,10.0.2.15,22,10.0.2.2,56326,1073725440,14600,0,65535,65700,0,0,4,1460,1,0,0,27,33580,0,65700,0,0,0,0,0
o,0x00000000,1720557160.353833,10.0.2.15,22,10.0.2.2,56326,1073725440,14600,0,65535,65700,0,0,4,1460,1,0,0,27,33580,38,65700,42,0,0,0,0
i,0x00000000,1720557160.355775,10.0.2.15,22,10.0.2.2,56326,1073725440,14600,0,65535,65700,0,0,4,1460,1,0,0,27,33580,38,65700,42,38,0,0,0
i,0x00000000,1720557160.355880,10.0.2.15,22,10.0.2.2,56326,1073725440,14638,0,65535,65700,0,0,4,1460,1,0,0,24,33580,0,65700,42,0,0,0,0
i,0x00000000,1720557160.355883,10.0.2.15,22,10.0.2.2,56326,1073725440,14638,0,65535,65700,0,0,4,1460,1,0,0,24,33580,0,65700,1502,0,0,0,0
o,0x00000000,1720557160.355888,10.0.2.15,22,10.0.2.2,56326,1073725440,14638,0,65535,65700,0,0,4,1460,1,0,1,24,33580,0,65700,1578,0,0,0,0
o,0x00000000,1720557160.356720,10.0.2.15,22,10.0.2.2,56326,1073725440,14638,0,65535,65700,0,0,4,1460,1,0,0,24,33580,1056,65700,1536,0,0,0,0
i,0x00000000,1720557160.358637,10.0.2.15,22,10.0.2.2,56326,1073725440,14638,0,65535,65700,0,0,4,1460,1,0,0,24,33580,1056,65700,1536,1056,0,0,0
i,0x00000000,1720557160.360056,10.0.2.15,22,10.0.2.2,56326,1073725440,15694,0,65535,65700,0,0,4,1460,1,0,0,24,33580,0,65700,0,0,0,0,0
o,0x00000000,1720557160.364422,10.0.2.15,22,10.0.2.2,56326,1073725440,15694,0,65535,65700,0,0,4,1460,1,0,0,24,33580,484,65700,0,0,0,0,0
i,0x00000000,1720557160.366819,10.0.2.15,22,10.0.2.2,56326,1073725440,15694,0,65535,65700,0,0,4,1460,1,0,0,24,33580,484,65700,0,484,0,0,0
i,0x00000000,1720557160.374192,10.0.2.15,22,10.0.2.2,56326,1073725440,16178,0,65535,65700,0,0,4,1460,1,0,0,24,33580,0,65700,0,0,0,0,0
i,0x00000000,1720557160.374200,10.0.2.15,22,10.0.2.2,56326,1073725440,16178,0,65535,65700,0,0,4,1460,1,0,0,24,33580,0,65700,16,0,0,0,0
o,0x00000000,1720557160.374205,10.0.2.15,22,10.0.2.2,56326,1073725440,16178,0,65535,65700,0,0,4,1460,1,0,1,24,33580,0,65700,60,0,0,0,0
o,0x00000000,1720557160.374435,10.0.2.15,22,10.0.2.2,56326,1073725440,16178,0,65535,65700,0,0,4,1460,1,0,0,24,33580,44,65700,0,0,0,0,0
i,0x00000000,1720557160.375807,10.0.2.15,22,10.0.2.2,56326,1073725440,16178,0,65535,65700,0,0,4,1460,1,0,0,24,33580,44,65700,0,44,0,0,0
i,0x00000000,1720557160.375813,10.0.2.15,22,10.0.2.2,56326,1073725440,16222,0,65535,65700,0,0,4,1460,1,0,0,24,33580,0,65700,0,0,0,0,0
o,0x00000000,1720557160.386123,10.0.2.15,22,10.0.2.2,56326,1073725440,16222,0,65535,65700,0,0,4,1460,1,0,0,24,33580,68,65700,0,0,0,0,0
i,0x00000000,1720557160.388510,10.0.2.15,22,10.0.2.2,56326,1073725440,16222,0,65535,65700,0,0,4,1460,1,0,0,24,33580,68,65700,0,68,0,0,0
i,0x00000000,1720557160.388521,10.0.2.15,22,10.0.2.2,56326,1073725440,16290,0,65535,65700,0,0,4,1460,1,0,0,24,33580,0,65700,0,0,0,0,0
o,0x00000000,1720557160.389101,10.0.2.15,22,10.0.2.2,56326,1073725440,16290,0,65535,65700,0,0,4,1460,1,0,0,24,33580,332,65700,0,0,0,0,0
i,0x00000000,1720557160.391087,10.0.2.15,22,10.0.2.2,56326,1073725440,16290,0,65535,65700,0,0,4,1460,1,0,0,24,33580,332,65700,0,332,0,0,0
i,0x00000000,1720557160.394968,10.0.2.15,22,10.0.2.2,56326,1073725440,16622,0,65535,65700,0,0,4,1460,1,0,0,24,33580,0,65700,0,0,0,0,0
o,0x00000000,1720557160.408852,10.0.2.15,22,10.0.2.2,56326,1073725440,16622,0,65535,65700,0,0,4,1460,1,0,0,24,33580,28,65700,0,0,0,0,0
i,0x00000000,1720557160.412754,10.0.2.15,22,10.0.2.2,56326,1073725440,16622,0,65535,65700,0,0,4,1460,1,0,0,24,33580,28,65700,0,28,0,0,0
i,0x00000000,1720557160.412767,10.0.2.15,22,10.0.2.2,56326,1073725440,16650,0,65535,65700,0,0,4,1460,1,0,0,24,33580,0,65700,0,0,0,0,0
o,0x00000000,1720557160.414339,10.0.2.15,22,10.0.2.2,56326,1073725440,16650,0,65535,65700,0,0,4,1460,1,0,0,24,33580,768,65700,112,0,0,0,0
i,0x00000000,1720557160.416827,10.0.2.15,22,10.0.2.2,56326,1073725440,16650,0,65535,65700,0,0,4,1460,1,0,0,24,33580,768,65700,112,768,0,0,0
o,0x00000000,1720557160.417121,10.0.2.15,22,10.0.2.2,56326,1073725440,17418,0,65535,65700,0,0,4,1460,1,0,0,24,33580,140,65700,112,0,0,0,0
i,0x00000000,1720557160.419066,10.0.2.15,22,10.0.2.2,56326,1073725440,17418,0,65535,65700,0,0,4,1460,1,0,0,24,33580,140,65700,112,140,0,0,0
o,0x00000000,1720557160.419311,10.0.2.15,22,10.0.2.2,56326,1073725440,17558,0,65535,65700,0,0,4,1460,1,0,0,24,33580,44,65700,0,0,0,0,0
i,0x00000000,1720557160.421442,10.0.2.15,22,10.0.2.2,56326,1073725440,17558,0,65535,65700,0,0,4,1460,1,0,0,24,33580,44,65700,0,44,0,0,0
i,0x00000000,1720557160.421448,10.0.2.15,22,10.0.2.2,56326,1073725440,17602,0,65535,65700,0,0,4,1460,1,0,0,24,33580,0,65700,0,0,0,0,0
o,0x00000000,1720557160.421966,10.0.2.15,22,10.0.2.2,56326,1073725440,17602,0,65535,65700,0,0,4,1460,1,0,4,24,33580,72,65700,0,0,0,0,0
i,0x00000000,1720557160.423613,10.0.2.15,22,10.0.2.2,56326,1073725440,17602,0,65535,65700,0,0,4,1460,1,0,4,24,33580,72,65700,0,72,0,0,0
o,0x00000000,1720557160.430559,10.0.2.15,22,10.0.2.2,56326,1073725440,17674,0,65535,65700,0,0,4,1460,1,0,4,24,33580,44,65700,0,0,0,0,0
i,0x00000000,1720557160.431716,10.0.2.15,22,10.0.2.2,56326,1073725440,17674,0,65535,65700,0,0,4,1460,1,0,4,24,33580,44,65700,0,44,0,0,0
o,0x00000000,1720557160.432021,10.0.2.15,22,10.0.2.2,56326,1073725440,17718,0,65535,65700,0,0,4,1460,1,0,4,24,33580,44,65700,0,0,0,0,0
i,0x00000000,1720557160.433560,10.0.2.15,22,10.0.2.2,56326,1073725440,17718,0,65535,65700,0,0,4,1460,1,0,4,24,33580,44,65700,0,44,0,0,0
o,0x00000000,1720557160.434731,10.0.2.15,22,10.0.2.2,56326,1073725440,17762,0,65535,65700,0,0,4,1460,1,0,4,24,33580,176,65700,0,0,0,0,0
i,0x00000000,1720557160.435404,10.0.2.15,22,10.0.2.2,56326,1073725440,17762,0,65535,65700,0,0,4,1460,1,0,4,24,33580,176,65700,0,176,0,0,0
i,0x00000000,1720557160.435765,10.0.2.15,22,10.0.2.2,56326,1073725440,17938,0,65535,65700,0,0,4,1460,1,0,4,24,33580,0,65700,0,0,0,0,0
i,0x00000000,1720557160.435769,10.0.2.15,22,10.0.2.2,56326,1073725440,17938,0,65535,65700,0,0,4,1460,1,0,4,24,33580,0,65700,96,0,0,0,0
o,0x00000000,1720557160.435771,10.0.2.15,22,10.0.2.2,56326,1073725440,17938,0,65535,65604,0,0,5,1460,1,0,5,24,33580,0,65700,96,0,0,0,0
o,0x00000000,1720557160.442144,10.0.2.15,22,10.0.2.2,56326,1073725440,17938,0,65535,65604,0,0,8,1460,1,0,4,24,33580,0,65700,0,0,0,0,0
i,0x00000000,1720557160.443091,10.0.2.15,22,10.0.2.2,56326,1073725440,17938,0,65535,65604,0,0,8,1460,1,0,20,24,33580,0,65700,0,1,0,0,0
i,0x00000000,1720557161.573133,10.0.2.15,22,10.0.2.2,56334,1073725440,14600,0,65535,65700,0,0,4,1460,1,0,0,27,33580,0,65700,0,0,0,0,0
o,0x00000000,1720557161.578138,10.0.2.15,22,10.0.2.2,56334,1073725440,14600,0,65535,65700,0,0,4,1460,1,0,0,27,33580,38,65700,42,0,0,0,0
i,0x00000000,1720557161.579576,10.0.2.15,22,10.0.2.2,56334,1073725440,14600,0,65535,65700,0,0,4,1460,1,0,0,27,33580,38,65700,42,38,0,0,0
i,0x00000000,1720557161.580244,10.0.2.15,22,10.0.2.2,56334,1073725440,14638,0,65535,65700,0,0,4,1460,1,0,0,24,33580,0,65700,0,0,0,0,0
i,0x00000000,1720557161.580247,10.0.2.15,22,10.0.2.2,56334,1073725440,14638,0,65535,65700,0,0,4,1460,1,0,0,24,33580,0,65700,1460,0,0,0,0
o,0x00000000,1720557161.580250,10.0.2.15,22,10.0.2.2,56334,1073725440,14638,0,65535,65700,0,0,4,1460,1,0,1,24,33580,0,65700,1536,0,0,0,0
o,0x00000000,1720557161.580579,10.0.2.15,22,10.0.2.2,56334,1073725440,14638,0,65535,65700,0,0,4,1460,1,0,0,24,33580,1056,65700,1536,0,0,0,0
i,0x00000000,1720557161.581226,10.0.2.15,22,10.0.2.2,56334,1073725440,14638,0,65535,65700,0,0,4,1460,1,0,0,24,33580,1056,65700,1536,1056,0,0,0
i,0x00000000,1720557161.582543,10.0.2.15,22,10.0.2.2,56334,1073725440,15694,0,65535,65700,0,0,4,1460,1,0,0,24,33580,0,65700,0,0,0,0,0
o,0x00000000,1720557161.584977,10.0.2.15,22,10.0.2.2,56334,1073725440,15694,0,65535,65700,0,0,4,1460,1,0,0,24,33580,484,65700,0,0,0,0,0
i,0x00000000,1720557161.586404,10.0.2.15,22,10.0.2.2,56334,1073725440,15694,0,65535,65700,0,0,4,1460,1,0,0,24,33580,484,65700,0,484,0,0,0
i,0x00000000,1720557161.590748,10.0.2.15,22,10.0.2.2,56334,1073725440,16178,0,65535,65700,0,0,4,1460,1,0,0,24,33580,0,65700,0,0,0,0,0
i,0x00000000,1720557161.590755,10.0.2.15,22,10.0.2.2,56334,1073725440,16178,0,65535,65700,0,0,4,1460,1,0,0,24,33580,0,65700,16,0,0,0,0
o,0x00000000,1720557161.590758,10.0.2.15,22,10.0.2.2,56334,1073725440,16178,0,65535,65700,0,0,4,1460,1,0,1,24,33580,0,65700,60,0,0,0,0
o,0x00000000,1720557161.590956,10.0.2.15,22,10.0.2.2,56334,1073725440,16178,0,65535,65700,0,0,4,1460,1,0,0,24,33580,44,65700,0,0,0,0,0
i,0x00000000,1720557161.591697,10.0.2.15,22,10.0.2.2,56334,1073725440,16178,0,65535,65700,0,0,4,1460,1,0,0,24,33580,44,65700,0,44,0,0,0
i,0x00000000,1720557161.591702,10.0.2.15,22,10.0.2.2,56334,1073725440,16222,0,65535,65700,0,0,4,1460,1,0,0,24,33580,0,65700,0,0,0,0,0
o,0x00000000,1720557161.600914,10.0.2.15,22,10.0.2.2,56334,1073725440,16222,0,65535,65700,0,0,4,1460,1,0,0,24,33580,68,65700,0,0,0,0,0
i,0x00000000,1720557161.601805,10.0.2.15,22,10.0.2.2,56334,1073725440,16222,0,65535,65700,0,0,4,1460,1,0,0,24,33580,68,65700,0,68,0,0,0
i,0x00000000,1720557161.601813,10.0.2.15,22,10.0.2.2,56334,1073725440,16290,0,65535,65700,0,0,4,1460,1,0,0,24,33580,0,65700,0,0,0,0,0
o,0x00000000,1720557161.602185,10.0.2.15,22,10.0.2.2,56334,1073725440,16290,0,65535,65700,0,0,4,1460,1,0,0,24,33580,332,65700,0,0,0,0,0
i,0x00000000,1720557161.603050,10.0.2.15,22,10.0.2.2,56334,1073725440,16290,0,65535,65700,0,0,4,1460,1,0,0,24,33580,332,65700,0,332,0,0,0
i,0x00000000,1720557161.605589,10.0.2.15,22,10.0.2.2,56334,1073725440,16622,0,65535,65700,0,0,4,1460,1,0,0,24,33580,0,65700,0,0,0,0,0
o,0x00000000,1720557161.622254,10.0.2.15,22,10.0.2.2,56334,1073725440,16622,0,65535,65700,0,0,4,1460,1,0,0,24,33580,28,65700,0,0,0,0,0
i,0x00000000,1720557161.623352,10.0.2.15,22,10.0.2.2,56334,1073725440,16622,0,65535,65700,0,0,4,1460,1,0,0,24,33580,28,65700,0,28,0,0,0
i,0x00000000,1720557161.623357,10.0.2.15,22,10.0.2.2,56334,1073725440,16650,0,65535,65700,0,0,4,1460,1,0,0,24,33580,0,65700,0,0,0,0,0
o,0x00000000,1720557161.623885,10.0.2.15,22,10.0.2.2,56334,1073725440,16650,0,65535,65700,0,0,4,1460,1,0,0,24,33580,768,65700,112,0,0,0,0
i,0x00000000,1720557161.624557,10.0.2.15,22,10.0.2.2,56334,1073725440,16650,0,65535,65700,0,0,4,1460,1,0,0,24,33580,768,65700,112,768,0,0,0
o,0x00000000,1720557161.624638,10.0.2.15,22,10.0.2.2,56334,1073725440,17418,0,65535,65700,0,0,4,1460,1,0,0,24,33580,140,65700,112,0,0,0,0
i,0x00000000,1720557161.625916,10.0.2.15,22,10.0.2.2,56334,1073725440,17418,0,65535,65700,0,0,4,1460,1,0,0,24,33580,140,65700,112,140,0,0,0
o,0x00000000,1720557161.626088,10.0.2.15,22,10.0.2.2,56334,1073725440,17558,0,65535,65700,0,0,4,1460,1,0,0,24,33580,44,65700,0,0,0,0,0
i,0x00000000,1720557161.626976,10.0.2.15,22,10.0.2.2,56334,1073725440,17558,0,65535,65700,0,0,4,1460,1,0,0,24,33580,44,65700,0,44,0,0,0
i,0x00000000,1720557161.627390,10.0.2.15,22,10.0.2.2,56334,1073725440,17602,0,65535,65700,0,0,4,1460,1,0,0,24,33580,0,65700,0,0,0,0,0
o,0x00000000,1720557161.627684,10.0.2.15,22,10.0.2.2,56334,1073725440,17602,0,65535,65700,0,0,4,1460,1,0,4,24,33580,72,65700,0,0,0,0,0
i,0x00000000,1720557161.628545,10.0.2.15,22,10.0.2.2,56334,1073725440,17602,0,65535,65700,0,0,4,1460,1,0,4,24,33580,72,65700,0,72,0,0,0
i,0x00000000,1720557161.628548,10.0.2.15,22,10.0.2.2,56334,1073725440,17674,0,65535,65700,0,0,4,1460,1,0,4,24,33580,0,65700,0,0,0,0,0
o,0x00000000,1720557161.632216,172.16.1.2,37193,172.16.3.2,5101,1073725440,1073725440,0,0,0,0,0,2,536,0,1,672,100,32768,0,65536,0,0,0,0,0
o,0x00000000,1720557161.667240,10.0.2.15,22,10.0.2.2,56334,1073725440,17674,0,65535,65700,0,0,4,1460,1,0,5,24,33580,0,65700,0,0,0,0,0
i,0x00000000,1720557161.769438,172.16.1.2,37193,172.16.3.2,5101,1073725440,1073725440,0,0,0,0,0,2,536,0,1,672,100,32768,0,65536,0,1,0,0,0
o,0x00000000,1720557161.769451,172.16.1.2,37193,172.16.3.2,5101,10151,14480,0,65535,65700,6,6,4,1460,864,1,993,93,33580,0,65700,0,0,0,0,0
o,0x00000000,1720557161.769815,172.16.1.2,37193,172.16.3.2,5101,10151,14480,0,65535,65700,6,6,4,1460,864,1,996,93,33580,37,65700,0,0,0,0,0
i,0x00000000,1720557161.894891,172.16.1.2,37193,172.16.3.2,5101,10151,14480,0,65535,65700,6,6,4,1460,864,1,996,93,33580,37,65700,0,37,0,0,0
o,0x00000000,1720557161.895358,172.16.1.2,37193,172.16.3.2,5101,10151,14480,0,65728,65728,6,6,4,1460,800,1,996,96,33580,4,65700,0,0,0,0,0
o,0x00000000,1720557161.898695,172.16.1.2,37193,172.16.3.2,5101,10151,14480,0,65728,65728,6,6,4,1460,800,1,996,96,33580,128,65700,0,4,0,0,0
i,0x00000000,1720557162.008433,172.16.1.2,37193,172.16.3.2,5101,10151,14480,0,65728,65728,6,6,4,1460,800,1,996,96,33580,128,65700,0,128,0,0,0
i,0x00000000,1720557162.008442,172.16.1.2,37193,172.16.3.2,5101,10151,14480,0,65600,65728,6,6,4,1460,748,1,996,94,33580,0,65700,0,0,0,0,0
o,0x00000000,1720557162.008619,172.16.1.2,42029,172.16.3.2,5101,1073725440,1073725440,0,0,0,0,0,2,536,0,1,672,100,32768,0,65536,0,0,0,0,0
o,0x00000000,1720557162.047249,172.16.1.2,37193,172.16.3.2,5101,10151,14480,0,65728,65728,6,6,4,1460,748,1,997,94,33580,0,65700,0,0,0,0,0
i,0x00000000,1720557162.148212,172.16.1.2,42029,172.16.3.2,5101,1073725440,1073725440,0,0,0,0,0,2,536,0,1,672,100,32768,0,65536,0,1,0,0,0
o,0x00000000,1720557162.148254,172.16.1.2,42029,172.16.3.2,5101,10151,14480,0,65535,65700,6,6,4,1460,864,1,993,93,33580,0,65700,0,0,0,0,0
o,0x00000000,1720557162.149038,172.16.1.2,42029,172.16.3.2,5101,10151,14480,0,65535,65700,6,6,4,1460,864,1,992,93,33580,37,65700,0,0,0,0,0
i,0x00000000,1720557162.293153,172.16.1.2,37193,172.16.3.2,5101,10151,14480,0,65728,65728,6,6,4,1460,748,1,996,94,33580,0,65700,0,0,0,0,0
i,0x00000000,1720557162.293175,172.16.1.2,37193,172.16.3.2,5101,10151,14480,0,65728,65728,6,6,4,1460,748,1,996,94,33580,0,65700,1,0,0,0,0
o,0x00000000,1720557162.293188,172.16.1.2,37193,172.16.3.2,5101,10151,14480,0,65728,65728,6,6,4,1460,748,1,997,94,33580,0,65700,2,0,0,0,0
o,0x00000000,1720557162.293895,172.16.1.2,42029,172.16.3.2,5101,10151,14480,0,65535,65700,6,6,4,1460,864,1,992,93,33580,33580,65700,0,37,0,0,0
o,0x00000000,1720557162.295155,172.16.1.2,42029,172.16.3.2,5101,10151,14480,0,65535,65700,6,6,4,1460,864,1,992,93,33580,33580,65700,0,1485,0,0,0
o,0x00000000,1720557162.296208,172.16.1.2,42029,172.16.3.2,5101,10151,14480,0,65535,65700,6,6,4,1460,864,1,992,93,33580,33580,65700,0,2933,0,0,0
o,0x00000000,1720557162.297651,172.16.1.2,42029,172.16.3.2,5101,10151,14480,0,65535,65700,6,6,4,1460,864,1,992,93,33580,33580,65700,0,4381,0,0,0
o,0x00000000,1720557162.298669,172.16.1.2,42029,172.16.3.2,5101,10151,14480,0,65535,65700,6,6,4,1460,864,1,992,93,33580,33580,65700,0,5829,0,0,0
o,0x00000000,1720557162.299458,172.16.1.2,42029,172.16.3.2,5101,10151,14480,0,65535,65700,6,6,4,1460,864,1,992,93,33580,33580,65700,0,7277,0,0,0
o,0x00000000,1720557162.300710,172.16.1.2,42029,172.16.3.2,5101,10151,14480,0,65535,65700,6,6,4,1460,864,1,992,93,33580,33580,65700,0,8725,0,0,0
o,0x00000000,1720557162.301451,172.16.1.2,42029,172.16.3.2,5101,10151,14480,0,65535,65700,6,6,4,1460,864,1,992,93,33580,33580,65700,0,10173,0,0,0
o,0x00000000,1720557162.302154,172.16.1.2,42029,172.16.3.2,5101,10151,14480,0,65535,65700,6,6,4,1460,864,1,992,93,33580,33580,65700,0,11621,0,0,0
i,0x00000000,1720557162.322488,172.16.1.2,42029,172.16.3.2,5101,10151,14480,0,65535,65700,6,6,4,1460,864,1,992,93,33580,33580,65700,0,13069,0,0,0
o,0x00000000,1720557162.322510,172.16.1.2,42029,172.16.3.2,5101,10151,14480,0,65728,65728,6,6,4,1460,824,1,992,90,33580,33543,65700,0,13032,0,0,0
i,0x00000000,1720557162.530017,172.16.1.2,42029,172.16.3.2,5101,10151,14480,0,65728,65728,6,6,4,1460,824,1,992,90,33580,33543,65700,0,14480,0,0,0
o,0x00000000,1720557162.530034,172.16.1.2,42029,172.16.3.2,5101,10151,14480,0,64256,65728,6,6,4,1460,817,1,992,81,33580,30647,65700,0,11584,0,0,0
o,0x00000000,1720557162.530390,172.16.1.2,42029,172.16.3.2,5101,10151,14480,0,64256,65728,6,6,4,1460,817,1,992,81,33580,30647,65700,0,13032,0,0,0
i,0x00000000,1720557162.548280,172.16.1.2,42029,172.16.3.2,5101,10151,14480,0,64256,65728,6,6,4,1460,817,1,992,81,33580,33580,65700,0,14480,0,0,0
o,0x00000000,1720557162.548293,172.16.1.2,42029,172.16.3.2,5101,10151,14480,0,64256,65728,6,6,4,1460,819,1,992,72,33580,30684,65700,0,11584,0,0,0
o,0x00000000,1720557162.548541,172.16.1.2,42029,172.16.3.2,5101,10151,14480,0,64256,65728,6,6,4,1460,819,1,992,72,33580,30684,65700,0,13032,0,0,0
i,0x00000000,1720557162.593000,172.16.1.2,42029,172.16.3.2,5101,10151,14480,0,64256,65728,6,6,4,1460,819,1,992,72,33580,33580,65700,0,14480,0,0,0
o,0x00000000,1720557162.593041,172.16.1.2,42029,172.16.3.2,5101,10151,14480,0,64256,65728,6,6,4,1460,833,1,992,70,33580,30684,65700,0,11584,0,0,0
o,0x00000000,1720557162.593917,172.16.1.2,42029,172.16.3.2,5101,10151,14480,0,64256,65728,6,6,4,1460,833,1,992,70,33580,30684,65700,0,13032,0,0,0
i,0x00000000,1720557162.598450,172.16.1.2,42029,172.16.3.2,5101,10151,14480,0,64256,65728,6,6,4,1460,833,1,992,70,33580,33580,65700,0,14480,0,0,0
o,0x00000000,1720557162.598469,172.16.1.2,42029,172.16.3.2,5101,10151,14480,0,64256,65728,6,6,4,1460,849,1,992,68,33580,30684,65700,0,11584,0,0,0
o,0x00000000,1720557162.599236,172.16.1.2,42029,172.16.3.2,5101,10151,14480,0,64256,65728,6,6,4,1460,849,1,992,68,33580,30684,65700,0,13032,0,0,0
i,0x00000000,1720557162.629961,172.16.1.2,42029,172.16.3.2,5101,10151,14480,0,64256,65728,6,6,4,1460,849,1,992,68,33580,33580,65700,0,14480,0,0,0
o,0x00000000,1720557162.630001,172.16.1.2,42029,172.16.3.2,5101,10151,15940,0,64256,65728,6,6,4,1460,875,1,992,70,33580,30684,65700,0,11584,0,0,0
o,0x00000000,1720557162.631900,172.16.1.2,42029,172.16.3.2,5101,10151,15940,0,64256,65728,6,6,4,1460,875,1,992,70,33580,30684,65700,0,13032,0,0,0
o,0x00000000,1720557162.633268,172.16.1.2,42029,172.16.3.2,5101,10151,15940,0,64256,65728,6,6,4,1460,875,1,992,70,33580,30684,65700,0,14480,0,0,0
i,0x00000000,1720557162.686955,172.16.1.2,42029,172.16.3.2,5101,10151,15940,0,64256,65728,6,6,4,1460,875,1,992,70,41772,41772,65700,0,15928,0,0,0
o,0x00000000,1720557162.686995,172.16.1.2,42029,172.16.3.2,5101,10151,15940,0,62848,65728,6,6,4,1460,826,1,992,75,41772,38876,65700,0,13032,0,0,0
o,0x00000000,1720557162.688359,172.16.1.2,42029,172.16.3.2,5101,10151,15940,0,62848,65728,6,6,4,1460,826,1,992,75,41772,38876,65700,0,14480,0,0,0
i,0x00000000,1720557162.768876,172.16.1.2,42029,172.16.3.2,5101,10151,15940,0,62848,65728,6,6,4,1460,826,1,992,75,41772,41772,65700,0,15928,0,0,0
o,0x00000000,1720557162.768889,172.16.1.2,42029,172.16.3.2,5101,10151,15940,0,64256,65728,6,6,4,1460,807,1,992,72,41772,38876,65700,0,13032,0,0,0
o,0x00000000,1720557162.769135,172.16.1.2,42029,172.16.3.2,5101,10151,15940,0,64256,65728,6,6,4,1460,807,1,992,72,41772,38876,65700,0,14480,0,0,0
i,0x00000000,1720557162.826709,172.16.1.2,42029,172.16.3.2,5101,10151,15940,0,64256,65728,6,6,4,1460,807,1,992,72,41772,41772,65700,0,15928,0,0,0
o,0x00000000,1720557162.826721,172.16.1.2,42029,172.16.3.2,5101,10151,15940,0,64256,65728,6,6,4,1460,799,1,992,67,41772,38876,65700,0,13032,0,0,0
o,0x00000000,1720557162.826993,172.16.1.2,42029,172.16.3.2,5101,10151,15940,0,64256,65728,6,6,4,1460,799,1,992,67,41772,38876,65700,0,14480,0,0,0
i,0x00000000,1720557162.859243,172.16.1.2,42029,172.16.3.2,5101,10151,15940,0,64256,65728,6,6,4,1460,799,1,992,67,41772,41772,65700,0,15928,0,0,0
o,0x00000000,1720557162.859272,172.16.1.2,42029,172.16.3.2,5101,10151,15940,0,64256,65728,6,6,4,1460,804,1,992,63,41772,38876,65700,0,13032,0,0,0
o,0x00000000,1720557162.860522,172.16.1.2,42029,172.16.3.2,5101,10151,15940,0,64256,65728,6,6,4,1460,804,1,992,63,41772,38876,65700,0,14480,0,0,0
i,0x00000000,1720557162.908753,172.16.1.2,42029,172.16.3.2,5101,10151,15940,0,64256,65728,6,6,4,1460,804,1,992,63,41772,41772,65700,0,15928,0,0,0
o,0x00000000,1720557162.908871,172.16.1.2,42029,172.16.3.2,5101,10151,15940,0,64256,65728,6,6,4,1460,816,1,992,62,41772,38876,65700,0,13032,0,0,0
o,0x00000000,1720557162.909398,172.16.1.2,42029,172.16.3.2,5101,10151,15940,0,64256,65728,6,6,4,1460,816,1,992,62,41772,38876,65700,0,14480,0,0,0
i,0x00000000,1720557162.947634,172.16.1.2,42029,172.16.3.2,5101,10151,15940,0,64256,65728,6,6,4,1460,816,1,992,62,41772,41772,65700,0,15928,0,0,0
o,0x00000000,1720557162.947646,172.16.1.2,42029,172.16.3.2,5101,10151,17400,0,64256,65728,6,6,4,1460,838,1,992,64,41772,38876,65700,0,13032,0,0,0
o,0x00000000,1720557162.947892,172.16.1.2,42029,172.16.3.2,5101,10151,17400,0,64256,65728,6,6,4,1460,838,1,992,64,41772,38876,65700,0,14480,0,0,0
o,0x00000000,1720557162.948122,172.16.1.2,42029,172.16.3.2,5101,10151,17400,0,64256,65728,6,6,4,1460,838,1,992,64,41772,38876,65700,0,15928,0,0,0
i,0x00000000,1720557163.019148,172.16.1.2,42029,172.16.3.2,5101,10151,17400,0,64256,65728,6,6,4,1460,838,1,992,64,41772,41772,65700,0,17376,0,0,0
o,0x00000000,1720557163.019188,172.16.1.2,42029,172.16.3.2,5101,10151,17400,0,64256,65728,6,6,4,1460,866,1,992,67,41772,38876,65700,0,14480,0,0,0
o,0x00000000,1720557163.020513,172.16.1.2,42029,172.16.3.2,5101,10151,17400,0,64256,65728,6,6,4,1460,866,1,992,67,41772,38876,65700,0,15928,0,0,0
i,0x00000000,1720557163.054198,172.16.1.2,42029,172.16.3.2,5101,10151,17400,0,64256,65728,6,6,4,1460,866,1,992,67,41772,41772,65700,0,17376,0,0,0
o,0x00000000,1720557163.054235,172.16.1.2,42029,172.16.3.2,5101,10151,17400,0,64256,65728,6,6,4,1460,870,1,992,63,41772,38876,65700,0,14480,0,0,0
o,0x00000000,1720557163.055566,172.16.1.2,42029,172.16.3.2,5101,10151,17400,0,64256,65728,6,6,4,1460,870,1,992,63,41772,38876,65700,0,15928,0,0,0
i,0x00000000,1720557163.100047,172.16.1.2,42029,172.16.3.2,5101,10151,17400,0,64256,65728,6,6,4,1460,870,1,992,63,41772,41772,65700,0,17376,0,0,0
o,0x00000000,1720557163.100099,172.16.1.2,42029,172.16.3.2,5101,10151,17400,0,64256,65728,6,6,4,1460,870,1,992,59,41772,38876,65700,0,14480,0,0,0
o,0x00000000,1720557163.101648,172.16.1.2,42029,172.16.3.2,5101,10151,17400,0,64256,65728,6,6,4,1460,870,1,992,59,41772,38876,65700,0,15928,0,0,0
i,0x00000000,1720557163.157964,172.16.1.2,42029,172.16.3.2,5101,10151,17400,0,64256,65728,6,6,4,1460,870,1,992,59,41772,41772,65700,0,17376,0,0,0
o,0x00000000,1720557163.158005,172.16.1.2,42029,172.16.3.2,5101,10151,17400,0,64256,65728,6,6,4,1460,878,1,992,58,41772,38876,65700,0,14480,0,0,0
o,0x00000000,1720557163.160219,172.16.1.2,42029,172.16.3.2,5101,10151,17400,0,64256,65728,6,6,4,1460,878,1,992,58,41772,38876,65700,0,15928,0,0,0
i,0x00000000,1720557163.207260,172.16.1.2,42029,172.16.3.2,5101,10151,17400,0,64256,65728,6,6,4,1460,878,1,992,58,41772,41772,65700,0,17376,0,0,0
o,0x00000000,1720557163.207285,172.16.1.2,42029,172.16.3.2,5101,10151,17400,0,64256,65728,6,6,4,1460,885,1,992,58,41772,38876,65700,0,14480,0,0,0
o,0x00000000,1720557163.207545,172.16.1.2,42029,172.16.3.2,5101,10151,17400,0,64256,65728,6,6,4,1460,885,1,992,58,41772,38876,65700,0,15928,0,0,0
i,0x00000000,1720557163.264043,172.16.1.2,42029,172.16.3.2,5101,10151,17400,0,64256,65728,6,6,4,1460,885,1,992,58,41772,41772,65700,0,17376,0,0,0
o,0x00000000,1720557163.264069,172.16.1.2,42029,172.16.3.2,5101,10151,18860,0,64256,65728,6,6,4,1460,899,1,992,59,41772,38876,65700,0,14480,0,0,0
o,0x00000000,1720557163.264945,172.16.1.2,42029,172.16.3.2,5101,10151,18860,0,64256,65728,6,6,4,1460,899,1,992,59,41772,38876,65700,0,15928,0,0,0
o,0x00000000,1720557163.265742,172.16.1.2,42029,172.16.3.2,5101,10151,18860,0,64256,65728,6,6,4,1460,899,1,992,59,41772,38876,65700,0,17376,0,0,0
i,0x00000000,1720557163.295746,172.16.1.2,42029,172.16.3.2,5101,10151,18860,0,64256,65728,6,6,4,1460,899,1,992,59,41772,41772,65700,0,18824,0,0,0
o,0x00000000,1720557163.295764,172.16.1.2,42029,172.16.3.2,5101,10151,18860,0,64256,65728,6,6,4,1460,891,1,992,58,41772,38876,65700,0,15928,0,0,0
o,0x00000000,1720557163.296541,172.16.1.2,42029,172.16.3.2,5101,10151,18860,0,64256,65728,6,6,4,1460,891,1,992,58,41772,38876,65700,0,17376,0,0,0
i,0x00000000,1720557163.359123,172.16.1.2,42029,172.16.3.2,5101,10151,18860,0,64256,65728,6,6,4,1460,891,1,992,58,41772,41772,65700,0,18824,0,0,0
o,0x00000000,1720557163.359185,172.16.1.2,42029,172.16.3.2,5101,10151,18860,0,64256,65728,6,6,4,1460,904,1,992,59,41772,38876,65700,0,15928,0,0,0
o,0x00000000,1720557163.360368,172.16.1.2,42029,172.16.3.2,5101,10151,18860,0,64256,65728,6,6,4,1460,904,1,992,59,41772,38876,65700,0,17376,0,0,0
i,0x00000000,1720557163.388321,172.16.1.2,42029,172.16.3.2,5101,10151,18860,0,64256,65728,6,6,4,1460,904,1,992,59,41772,41772,65700,0,18824,0,0,0
o,0x00000000,1720557163.388342,172.16.1.2,42029,172.16.3.2,5101,10151,18860,0,65728,65728,6,6,4,1460,907,1,992,57,41772,40324,65700,0,17376,0,0,0
i,0x00000000,1720557163.443117,172.16.1.2,42029,172.16.3.2,5101,10151,18860,0,65728,65728,6,6,4,1460,907,1,992,57,41772,40324,65700,0,18824,0,0,0
o,0x00000000,1720557163.443159,172.16.1.2,42029,172.16.3.2,5101,10151,18860,0,65728,65728,6,6,4,1460,930,1,992,62,41772,38876,65700,0,17376,0,0,0
i,0x00000000,1720557163.457213,172.16.1.2,42029,172.16.3.2,5101,10151,18860,0,65728,65728,6,6,4,1460,930,1,992,62,41772,41772,65700,0,18824,0,0,0
o,0x00000000,1720557163.457335,172.16.1.2,42029,172.16.3.2,5101,10151,18860,0,64256,65728,6,6,4,1460,934,1,992,59,41772,38876,65700,0,15928,0,0,0
o,0x00000000,1720557163.458735,172.16.1.2,42029,172.16.3.2,5101,10151,18860,0,64256,65728,6,6,4,1460,934,1,992,59,41772,38876,65700,0,17376,0,0,0
i,0x00000000,1720557163.520871,172.16.1.2,42029,172.16.3.2,5101,10151,18860,0,64256,65728,6,6,4,1460,934,1,992,59,41772,41772,65700,0,18824,0,0,0
o,0x00000000,1720557163.520886,172.16.1.2,42029,172.16.3.2,5101,10151,18860,0,64256,65728,6,6,4,1460,942,1,992,59,41772,38876,65700,0,15928,0,0,0
o,0x00000000,1720557163.521170,172.16.1.2,42029,172.16.3.2,5101,10151,18860,0,64256,65728,6,6,4,1460,942,1,992,59,41772,38876,65700,0,17376,0,0,0
i,0x00000000,1720557163.540439,172.16.1.2,42029,172.16.3.2,5101,10151,18860,0,64256,65728,6,6,4,1460,942,1,992,59,41772,41772,65700,0,18824,0,0,0
o,0x00000000,1720557163.540463,172.16.1.2,42029,172.16.3.2,5101,10151,18860,0,64256,65728,6,6,4,1460,937,1,992,58,41772,38876,65700,0,15928,0,0,0
o,0x00000000,1720557163.541262,172.16.1.2,42029,172.16.3.2,5101,10151,18860,0,64256,65728,6,6,4,1460,937,1,992,58,41772,38876,65700,0,17376,0,0,0
i,0x00000000,1720557163.609800,172.16.1.2,42029,172.16.3.2,5101,10151,18860,0,64256,65728,6,6,4,1460,937,1,992,58,41772,41772,65700,0,18824,0,0,0
o,0x00000000,1720557163.609849,172.16.1.2,42029,172.16.3.2,5101,10151,20320,0,64256,65728,6,6,4,1460,960,1,992,62,41772,38876,65700,0,15928,0,0,0
o,0x00000000,1720557163.611633,172.16.1.2,42029,172.16.3.2,5101,10151,20320,0,64256,65728,6,6,4,1460,960,1,992,62,41772,38876,65700,0,17376,0,0,0
o,0x00000000,1720557163.613079,172.16.1.2,42029,172.16.3.2,5101,10151,20320,0,64256,65728,6,6,4,1460,960,1,992,62,49964,38876,65700,0,18824,0,0,0
i,0x00000000,1720557163.649185,172.16.1.2,42029,172.16.3.2,5101,10151,20320,0,64256,65728,6,6,4,1460,960,1,992,62,49964,49964,65700,0,20272,0,0,0
o,0x00000000,1720557163.649225,172.16.1.2,42029,172.16.3.2,5101,10151,20320,0,65728,65728,6,6,4,1460,980,1,992,65,49964,48516,65700,0,18824,0,0,0
i,0x00000000,1720557163.679008,172.16.1.2,42029,172.16.3.2,5101,10151,20320,0,65728,65728,6,6,4,1460,980,1,992,65,49964,48516,65700,0,20272,0,0,0
o,0x00000000,1720557163.679023,172.16.1.2,42029,172.16.3.2,5101,10151,20320,0,64256,65728,6,6,4,1460,986,1,992,63,49964,45620,65700,0,17376,0,0,0
o,0x00000000,1720557163.679272,172.16.1.2,42029,172.16.3.2,5101,10151,20320,0,64256,65728,6,6,4,1460,986,1,992,63,49964,45620,65700,0,18824,0,0,0
i,0x00000000,1720557163.729734,172.16.1.2,42029,172.16.3.2,5101,10151,20320,0,64256,65728,6,6,4,1460,986,1,992,63,49964,49964,65700,0,20272,0,0,0
o,0x00000000,1720557163.729747,172.16.1.2,42029,172.16.3.2,5101,10151,20320,0,65728,65728,6,6,4,1460,999,1,992,63,49964,48516,65700,0,18824,0,0,0
i,0x00000000,1720557163.760001,172.16.1.2,42029,172.16.3.2,5101,10151,20320,0,65728,65728,6,6,4,1460,999,1,992,63,49964,48516,65700,0,20272,0,0,0
o,0x00000000,1720557163.760014,172.16.1.2,42029,172.16.3.2,5101,10151,20320,0,64256,65728,6,6,4,1460,1003,1,992,62,49964,45620,65700,0,17376,0,0,0
o,0x00000000,1720557163.760287,172.16.1.2,42029,172.16.3.2,5101,10151,20320,0,64256,65728,6,6,4,1460,1003,1,992,62,49964,45620,65700,0,18824,0,0,0
i,0x00000000,1720557163.811387,172.16.1.2,42029,172.16.3.2,5101,10151,20320,0,64256,65728,6,6,4,1460,1003,1,992,62,49964,49964,65700,0,20272,0,0,0
o,0x00000000,1720557163.811423,172.16.1.2,42029,172.16.3.2,5101,10151,20320,0,65728,65728,6,6,4,1460,1018,1,992,63,49964,48516,65700,0,18824,0,0,0
i,0x00000000,1720557163.845916,172.16.1.2,42029,172.16.3.2,5101,10151,20320,0,65728,65728,6,6,4,1460,1018,1,992,63,49964,48516,65700,0,20272,0,0,0
o,0x00000000,1720557163.845929,172.16.1.2,42029,172.16.3.2,5101,10151,20320,0,64256,65728,6,6,4,1460,1015,1,992,61,49964,45620,65700,0,17376,0,0,0
o,0x00000000,1720557163.846175,172.16.1.2,42029,172.16.3.2,5101,10151,20320,0,64256,65728,6,6,4,1460,1015,1,992,61,49964,45620,65700,0,18824,0,0,0
i,0x00000000,1720557163.877208,172.16.1.2,42029,172.16.3.2,5101,10151,20320,0,64256,65728,6,6,4,1460,1015,1,992,61,49964,48536,65700,0,20272,0,0,0
o,0x00000000,1720557163.877220,172.16.1.2,42029,172.16.3.2,5101,10151,20320,0,64256,65728,6,6,4,1460,1021,1,992,60,49964,45640,65700,0,17376,0,0,0
o,0x00000000,1720557163.878071,172.16.1.2,42029,172.16.3.2,5101,10151,20320,0,64256,65728,6,6,4,1460,1021,1,992,60,49964,45640,65700,0,18824,0,0,0
i,0x00000000,1720557163.922140,172.16.1.2,42029,172.16.3.2,5101,10151,20320,0,64256,65728,6,6,4,1460,1021,1,992,60,49964,49964,65700,0,20272,0,0,0
o,0x00000000,1720557163.922179,172.16.1.2,42029,172.16.3.2,5101,10151,21780,0,64256,65728,6,6,4,1460,1018,1,992,59,49964,47068,65700,0,17376,0,0,0
o,0x00000000,1720557163.924098,172.16.1.2,42029,172.16.3.2,5101,10151,21780,0,64256,65728,6,6,4,1460,1018,1,992,59,49964,47068,65700,0,18824,0,0,0
o,0x00000000,1720557163.925350,172.16.1.2,42029,172.16.3.2,5101,10151,21780,0,64256,65728,6,6,4,1460,1018,1,992,59,49964,47068,65700,0,20272,0,0,0
i,0x00000000,1720557163.993712,172.16.1.2,42029,172.16.3.2,5101,10151,21780,0,64256,65728,6,6,4,1460,1018,1,992,59,49964,49964,65700,0,21720,0,0,0
o,0x00000000,1720557163.993752,172.16.1.2,42029,172.16.3.2,5101,10151,21780,0,64256,65728,6,6,4,1460,1043,1,992,64,49964,47068,65700,0,18824,0,0,0
o,0x00000000,1720557163.995099,172.16.1.2,42029,172.16.3.2,5101,10151,21780,0,64256,65728,6,6,4,1460,1043,1,992,64,49964,47068,65700,0,20272,0,0,0
i,0x00000000,1720557164.026126,172.16.1.2,42029,172.16.3.2,5101,10151,21780,0,64256,65728,6,6,4,1460,1043,1,992,64,49964,49964,65700,0,21720,0,0,0
o,0x00000000,1720557164.026154,172.16.1.2,42029,172.16.3.2,5101,10151,21780,0,62848,65728,6,6,4,1460,1045,1,992,62,49964,47068,65700,0,18824,0,0,0
o,0x00000000,1720557164.027290,172.16.1.2,42029,172.16.3.2,5101,10151,21780,0,62848,65728,6,6,4,1460,1045,1,992,62,49964,47068,65700,0,20272,0,0,0
i,0x00000000,1720557164.086530,172.16.1.2,42029,172.16.3.2,5101,10151,21780,0,62848,65728,6,6,4,1460,1045,1,992,62,49964,49964,65700,0,21720,0,0,0
o,0x00000000,1720557164.086545,172.16.1.2,42029,172.16.3.2,5101,10151,21780,0,64256,65728,6,6,4,1460,1055,1,992,62,49964,47068,65700,0,18824,0,0,0
o,0x00000000,1720557164.086944,172.16.1.2,42029,172.16.3.2,5101,10151,21780,0,64256,65728,6,6,4,1460,1055,1,992,62,49964,47068,65700,0,20272,0,0,0
i,0x00000000,1720557164.150141,172.16.1.2,42029,172.16.3.2,5101,10151,21780,0,64256,65728,6,6,4,1460,1055,1,992,62,49964,49964,65700,0,21720,0,0,0
o,0x00000000,1720557164.150154,172.16.1.2,42029,172.16.3.2,5101,10151,21780,0,65728,65728,6,6,4,1460,1080,1,992,67,49964,48516,65700,0,20272,0,0,0
i,0x00000000,1720557164.177290,172.16.1.2,42029,172.16.3.2,5101,10151,21780,0,65728,65728,6,6,4,1460,1080,1,992,67,49964,48516,65700,0,21720,0,0,0
o,0x00000000,1720557164.177302,172.16.1.2,42029,172.16.3.2,5101,10151,21780,0,64256,65728,6,6,4,1460,1093,1,992,67,49964,45620,65700,0,18824,0,0,0
o,0x00000000,1720557164.177592,172.16.1.2,42029,172.16.3.2,5101,10151,21780,0,64256,65728,6,6,4,1460,1093,1,992,67,49964,45620,65700,0,20272,0,0,0
i,0x00000000,1720557164.202902,172.16.1.2,42029,172.16.3.2,5101,10151,21780,0,64256,65728,6,6,4,1460,1093,1,992,67,49964,49964,65700,0,21720,0,0,0
o,0x00000000,1720557164.202956,172.16.1.2,42029,172.16.3.2,5101,10151,21780,0,65728,65728,6,6,4,1460,1101,1,992,66,49964,48516,65700,0,20272,0,0,0
i,0x00000000,1720557164.226886,172.16.1.2,42029,172.16.3.2,5101,10151,21780,0,65728,65728,6,6,4,1460,1101,1,992,66,49964,48516,65700,0,21720,0,0,0
o,0x00000000,1720557164.226925,172.16.1.2,42029,172.16.3.2,5101,10151,21780,0,64256,65728,6,6,4,1460,1100,1,992,64,49964,45620,65700,0,18824,0,0,0
o,0x00000000,1720557164.228148,172.16.1.2,42029,172.16.3.2,5101,10151,21780,0,64256,65728,6,6,4,1460,1100,1,992,64,49964,45620,65700,0,20272,0,0,0
i,0x00000000,1720557164.260318,172.16.1.2,42029,172.16.3.2,5101,10151,21780,0,64256,65728,6,6,4,1460,1100,1,992,64,49964,49964,65700,0,21720,0,0,0
o,0x00000000,1720557164.260359,172.16.1.2,42029,172.16.3.2,5101,10151,21780,0,64256,65728,6,6,4,1460,1099,1,992,62,49964,47068,65700,0,18824,0,0,0
o,0x00000000,1720557164.262256,172.16.1.2,42029,172.16.3.2,5101,10151,21780,0,64256,65728,6,6,4,1460,1099,1,992,62,49964,47068,65700,0,20272,0,0,0
i,0x00000000,1720557164.317909,172.16.1.2,42029,172.16.3.2,5101,10151,21780,0,64256,65728,6,6,4,1460,1099,1,992,62,49964,49964,65700,0,21720,0,0,0
o,0x00000000,1720557164.317946,172.16.1.2,42029,172.16.3.2,5101,10151,23240,0,65728,65728,6,6,4,1460,1118,1,992,65,49964,48516,65700,0,20272,0,0,0
o,0x00000000,1720557164.319266,172.16.1.2,42029,172.16.3.2,5101,10151,23240,0,65728,65728,6,6,4,1460,1118,1,992,65,49964,48516,65700,0,21720,0,0,0
i,0x00000000,1720557164.327845,172.16.1.2,42029,172.16.3.2,5101,10151,23240,0,65728,65728,6,6,4,1460,1118,1,992,65,49964,48516,65700,0,23168,0,0,0
o,0x00000000,1720557164.327885,172.16.1.2,42029,172.16.3.2,5101,10151,23240,0,64256,65728,6,6,4,1460,1111,1,992,64,49964,45620,65700,0,20272,0,0,0
o,0x00000000,1720557164.329186,172.16.1.2,42029,172.16.3.2,5101,10151,23240,0,64256,65728,6,6,4,1460,1111,1,992,64,49964,45620,65700,0,21720,0,0,0
i,0x00000000,1720557164.330413,172.16.1.2,42029,172.16.3.2,5101,10151,23240,0,64256,65728,6,6,4,1460,1111,1,992,64,58156,45620,65700,0,23168,0,0,0
o,0x00000000,1720557164.330431,172.16.1.2,42029,172.16.3.2,5101,10151,24616,0,64256,65728,6,6,4,1460,1111,1,992,64,58156,45620,65700,0,23168,0,0,0
i,0x00000000,1720557164.383014,172.16.1.2,42029,172.16.3.2,5101,10151,23240,0,64256,65728,6,6,4,1460,1111,1,992,64,58156,58156,65700,0,24616,0,0,0
o,0x00000000,1720557164.383046,172.16.1.2,42029,172.16.3.2,5101,10151,26064,0,64256,65728,6,6,4,1460,1111,1,992,64,58156,58156,65700,0,24616,0,0,0
i,0x00000000,1720557164.436562,172.16.1.2,42029,172.16.3.2,5101,10151,23240,0,64256,65728,6,6,4,1460,1111,1,992,64,58156,58156,65700,0,26064,0,0,0
o,0x00000000,1720557164.436588,172.16.1.2,42029,172.16.3.2,5101,11584,1448,0,64256,65728,6,6,4,1460,1111,1,537920480,64,58156,58156,65700,0,26064,0,0,0
i,0x00000000,1720557164.462477,172.16.1.2,42029,172.16.3.2,5101,11584,1448,0,64256,65728,6,6,4,1460,1111,1,537920480,64,58156,58156,65700,0,26064,0,0,0
i,0x00000000,1720557164.485787,172.16.1.2,42029,172.16.3.2,5101,11584,1448,0,64256,65728,6,6,4,1460,1111,1,537920480,64,58156,58156,65700,0,26064,0,0,0
o,0x00000000,1720557164.485799,172.16.1.2,42029,172.16.3.2,5101,11584,2896,0,64256,65728,6,6,4,1460,1111,1,537920480,64,58156,58156,65700,0,26064,0,0,0
i,0x00000000,1720557164.537235,172.16.1.2,42029,172.16.3.2,5101,11584,2896,0,64256,65728,6,6,4,1460,1111,1,537920480,64,58156,58156,65700,0,26064,0,0,0
i,0x00000000,1720557164.557509,172.16.1.2,42029,172.16.3.2,5101,11584,2896,0,64256,65728,6,6,4,1460,1111,1,537920480,64,58156,58156,65700,0,26064,0,0,0
o,0x00000000,1720557164.557526,172.16.1.2,42029,172.16.3.2,5101,11584,4344,0,64256,65728,6,6,4,1460,1111,1,537920480,64,58156,58156,65700,0,26064,0,0,0
i,0x00000000,1720557164.594838,172.16.1.2,42029,172.16.3.2,5101,11584,4344,0,64256,65728,6,6,4,1460,1111,1,537920480,64,58156,58156,65700,0,26064,0,0,0
i,0x00000000,1720557164.594847,172.16.1.2,42029,172.16.3.2,5101,11584,4344,0,64256,65728,6,6,4,1460,1111,1,537920480,64,58156,58156,65700,0,26064,0,0,0
o,0x00000000,1720557164.594852,172.16.1.2,42029,172.16.3.2,5101,11584,5792,0,64256,65728,6,6,4,1460,1111,1,537920480,64,58156,58156,65700,0,26064,0,0,0
i,0x00000000,1720557164.594940,172.16.1.2,42029,172.16.3.2,5101,11584,5792,0,64256,65728,6,6,4,1460,1111,1,537920480,64,58156,58156,65700,0,26064,0,0,0
o,0x00000000,1720557164.594944,172.16.1.2,42029,172.16.3.2,5101,11584,7240,0,64256,65728,6,6,4,1460,1111,1,537920480,64,58156,58156,65700,0,26064,0,0,0
i,0x00000000,1720557164.624363,172.16.1.2,42029,172.16.3.2,5101,11584,7240,0,64256,65728,6,6,4,1460,1111,1,537920480,64,58156,58156,65700,0,26064,0,0,0
o,0x00000000,1720557164.624375,172.16.1.2,42029,172.16.3.2,5101,11584,8688,0,64256,65728,6,6,4,1460,1111,1,537920480,64,58156,58156,65700,0,26064,0,0,0
i,0x00000000,1720557164.624861,172.16.1.2,42029,172.16.3.2,5101,11584,8688,0,64256,65728,6,6,4,1460,1111,1,537920480,64,58156,58156,65700,0,27512,0,0,0
o,0x00000000,1720557164.624867,172.16.1.2,42029,172.16.3.2,5101,11584,10136,0,64256,65728,6,6,4,1460,1111,1,537920480,64,58156,58156,65700,0,27512,0,0,0
i,0x00000000,1720557164.667157,172.16.1.2,42029,172.16.3.2,5101,11584,10136,0,64256,65728,6,6,4,1460,1111,1,537920480,64,58156,58156,65700,0,28960,0,0,0
o,0x00000000,1720557164.667190,172.16.1.2,42029,172.16.3.2,5101,11584,11584,0,64256,65728,6,6,4,1460,1111,1,537920480,64,58156,58156,65700,0,28960,0,0,0
i,0x00000000,1720557164.719071,172.16.1.2,42029,172.16.3.2,5101,11584,11584,0,64256,65728,6,6,4,1460,1111,1,537920480,64,58156,58156,65700,0,30408,0,0,0
o,0x00000000,1720557164.719090,172.16.1.2,42029,172.16.3.2,5101,11584,11584,0,64256,65728,6,6,4,1460,1111,1,537920480,64,58156,58156,65700,0,30408,0,0,0
i,0x00000000,1720557164.763063,172.16.1.2,42029,172.16.3.2,5101,11584,11584,0,64256,65728,6,6,4,1460,1111,1,537920480,64,58156,58156,65700,0,31856,0,0,0
o,0x00000000,1720557164.763094,172.16.1.2,42029,172.16.3.2,5101,11584,11584,0,64256,65728,6,6,4,1460,1111,1,537920480,64,58156,58156,65700,0,31856,0,0,0
i,0x00000000,1720557164.786939,172.16.1.2,42029,172.16.3.2,5101,11584,11584,0,64256,65728,6,6,4,1460,1111,1,537920480,64,58156,58156,65700,0,33304,0,0,0
o,0x00000000,1720557164.786953,172.16.1.2,42029,172.16.3.2,5101,11584,11584,0,64256,65728,6,6,4,1460,1111,1,537920480,64,58156,58156,65700,0,33304,0,0,0
i,0x00000000,1720557164.789202,172.16.1.2,42029,172.16.3.2,5101,11584,11584,0,64256,65728,6,6,4,1460,1111,1,537920480,64,58156,58156,65700,0,34752,0,0,0
o,0x00000000,1720557164.789209,172.16.1.2,42029,172.16.3.2,5101,11584,11584,0,64256,65728,6,6,4,1460,1111,1,537920480,64,58156,58156,65700,0,34752,0,0,0
i,0x00000000,1720557164.807730,172.16.1.2,42029,172.16.3.2,5101,11584,11584,0,64256,65728,6,6,4,1460,1111,1,537920480,64,58156,58156,65700,0,36200,0,0,0
o,0x00000000,1720557164.807745,172.16.1.2,42029,172.16.3.2,5101,11584,13032,0,64256,65728,6,6,4,1460,1111,1,537920480,64,58156,58156,65700,0,36200,0,0,0
i,0x00000000,1720557164.848766,172.16.1.2,42029,172.16.3.2,5101,11584,13032,0,64256,65728,6,6,4,1460,1111,1,537920480,64,58156,58156,65700,0,37648,0,0,0
o,0x00000000,1720557164.848797,172.16.1.2,42029,172.16.3.2,5101,11584,14480,0,64256,65728,6,6,4,1460,1111,1,537920480,64,58156,58156,65700,0,37648,0,0,0
i,0x00000000,1720557164.849256,172.16.1.2,42029,172.16.3.2,5101,11584,14480,0,64256,65728,6,6,4,1460,1111,1,537920480,64,58156,58156,65700,0,39096,0,0,0
o,0x00000000,1720557164.849274,172.16.1.2,42029,172.16.3.2,5101,11584,15928,0,64256,65728,6,6,4,1460,1111,1,537920480,64,58156,58156,65700,0,39096,0,0,0
i,0x00000000,1720557164.849738,172.16.1.2,42029,172.16.3.2,5101,11584,15928,0,64256,65728,6,6,4,1460,1111,1,537920480,64,58156,58156,65700,0,40544,0,0,0
o,0x00000000,1720557164.849757,172.16.1.2,42029,172.16.3.2,5101,11584,17376,0,64256,65728,6,6,4,1460,1111,1,537920480,64,58156,58156,65700,0,40544,0,0,0
i,0x00000000,1720557164.910571,172.16.1.2,42029,172.16.3.2,5101,11584,17376,0,64256,65728,6,6,4,1460,1111,1,537920480,64,58156,58156,65700,0,41992,0,0,0
o,0x00000000,1720557164.910604,172.16.1.2,42029,172.16.3.2,5101,11584,18824,0,64256,65728,6,6,4,1460,1111,1,537920480,64,66348,58156,65700,0,41992,0,0,0
i,0x00000000,1720557164.966310,172.16.1.2,42029,172.16.3.2,5101,11584,18824,0,64256,65728,6,6,4,1460,1111,1,537920480,64,66348,58156,65700,0,43440,0,0,0
o,0x00000000,1720557164.966353,172.16.1.2,42029,172.16.3.2,5101,11584,20272,0,64256,65728,6,6,4,1460,1111,1,537920480,64,74540,58156,65700,0,43440,0,0,0
i,0x00000000,1720557164.969122,172.16.1.2,42029,172.16.3.2,5101,11584,20272,0,64256,65728,6,6,4,1460,1111,1,537920480,64,74540,58156,65700,0,44888,0,0,0
o,0x00000000,1720557164.969141,172.16.1.2,42029,172.16.3.2,5101,11584,21720,0,64256,65728,6,6,4,1460,1111,1,537920480,64,74540,58156,65700,0,44888,0,0,0
i,0x00000000,1720557164.970091,172.16.1.2,42029,172.16.3.2,5101,11584,21720,0,64256,65728,6,6,4,1460,1111,1,537920480,64,74540,58156,65700,0,46336,0,0,0
o,0x00000000,1720557164.970108,172.16.1.2,42029,172.16.3.2,5101,11584,23168,0,64256,65728,6,6,4,1460,1111,1,537920480,64,74540,58156,65700,0,46336,0,0,0
i,0x00000000,1720557165.019526,172.16.1.2,42029,172.16.3.2,5101,11584,23168,0,64256,65728,6,6,4,1460,1111,1,537920480,64,74540,58156,65700,0,47784,0,0,0
o,0x00000000,1720557165.019548,172.16.1.2,42029,172.16.3.2,5101,11584,24616,0,64256,65728,6,6,4,1460,1111,1,537920480,64,74540,58156,65700,0,47784,0,0,0
i,0x00000000,1720557165.057199,172.16.1.2,42029,172.16.3.2,5101,11584,24616,0,64256,65728,6,6,4,1460,1111,1,537920480,64,74540,58156,65700,0,49232,0,0,0
o,0x00000000,1720557165.057234,172.16.1.2,42029,172.16.3.2,5101,11584,26064,0,64256,65728,6,6,4,1460,1111,1,537920480,64,74540,58156,65700,0,49232,0,0,0
i,0x00000000,1720557165.058267,172.16.1.2,42029,172.16.3.2,5101,11584,26064,0,64256,65728,6,6,4,1460,1111,1,537920480,64,74540,58156,65700,0,50680,0,0,0
o,0x00000000,1720557165.058284,172.16.1.2,42029,172.16.3.2,5101,11584,27512,0,64256,65728,6,6,4,1460,1111,1,537920480,64,74540,58156,65700,0,50680,0,0,0
i,0x00000000,1720557165.059576,172.16.1.2,42029,172.16.3.2,5101,11584,27512,0,64256,65728,6,6,4,1460,1111,1,537920480,64,74540,58156,65700,0,52128,0,0,0
o,0x00000000,1720557165.059585,172.16.1.2,42029,172.16.3.2,5101,11584,28960,0,64256,65728,6,6,4,1460,1111,1,537920480,64,74540,58156,65700,0,52128,0,0,0
o,0x00000000,1720557165.081191,172.16.1.2,42029,172.16.3.2,5101,14480,1448,0,64256,65728,6,6,4,1460,1111,1,1075848161,108,74540,58156,65700,0,53576,0,0,0
i,0x00000000,1720557165.114882,172.16.1.2,42029,172.16.3.2,5101,14480,1448,0,64256,65728,6,6,4,1460,1111,1,1075848160,108,74540,58156,65700,0,53576,0,0,0
o,0x00000000,1720557165.114915,172.16.1.2,42029,172.16.3.2,5101,11584,30408,0,64256,65728,6,6,4,1460,1111,1,1613759456,108,74540,58156,65700,0,53576,0,0,0
o,0x00000000,1720557165.117501,172.16.1.2,42029,172.16.3.2,5101,11584,30408,0,64256,65728,6,6,4,1460,1111,1,1613759456,108,74540,58156,65700,0,53576,0,0,0
i,0x00000000,1720557165.117997,172.16.1.2,42029,172.16.3.2,5101,11584,30408,0,64256,65728,6,6,4,1460,1111,1,1613759456,108,74540,58156,65700,0,55024,0,0,0
o,0x00000000,1720557165.118014,172.16.1.2,42029,172.16.3.2,5101,11584,31856,0,64256,65728,6,6,4,1460,1111,1,1613759456,108,74540,58156,65700,0,55024,0,0,0
i,0x00000000,1720557165.137432,172.16.1.2,42029,172.16.3.2,5101,11584,31856,0,64256,65728,6,6,4,1460,1111,1,1613759456,108,74540,58156,65700,0,56472,0,0,0
o,0x00000000,1720557165.137465,172.16.1.2,42029,172.16.3.2,5101,11584,33304,0,64256,65728,6,6,4,1460,1111,1,1613759456,108,74540,58156,65700,0,56472,0,0,0
i,0x00000000,1720557165.188540,172.16.1.2,42029,172.16.3.2,5101,11584,33304,0,64256,65728,6,6,4,1460,1111,1,1613759456,108,74540,58156,65700,0,57920,0,0,0
i,0x00000000,1720557165.219002,172.16.1.2,42029,172.16.3.2,5101,11584,34752,0,64256,65728,6,6,4,1460,1111,1,1613759456,108,74540,58156,65700,0,57920,0,0,0
i,0x00000000,1720557165.219027,172.16.1.2,42029,172.16.3.2,5101,11584,36200,0,64256,65728,6,6,4,1460,1111,1,1613759456,108,74540,58156,65700,0,57920,0,0,0
i,0x00000000,1720557165.238715,172.16.1.2,42029,172.16.3.2,5101,11584,37648,0,64256,65728,6,6,4,1460,1111,1,1613759456,108,74540,58156,65700,0,57920,0,0,0
i,0x00000000,1720557165.287913,172.16.1.2,42029,172.16.3.2,5101,11584,39096,0,64256,65728,6,6,4,1460,1111,1,1613759456,108,74540,58156,65700,0,57920,0,0,0
i,0x00000000,1720557165.287960,172.16.1.2,42029,172.16.3.2,5101,11584,5804,0,12160,65728,6,6,4,1460,1053,1,1075839968,74,74540,4580,65700,0,4344,0,0,0
o,0x00000000,1720557165.288337,172.16.1.2,42029,172.16.3.2,5101,11584,5804,0,12160,65728,6,6,4,1460,1053,1,1075839968,74,74540,74540,65700,0,4344,0,0,0
i,0x00000000,1720557165.294177,172.16.1.2,42029,172.16.3.2,5101,11584,5804,0,12160,65728,6,6,4,1460,1053,1,1075839968,74,74540,74540,65700,0,5792,0,0,0
o,0x00000000,1720557165.294215,172.16.1.2,42029,172.16.3.2,5101,11584,8688,0,12160,65728,6,6,4,1460,1053,1,1075839968,74,74540,74540,65700,0,5792,0,0,0
o,0x00000000,1720557165.295779,172.16.1.2,42029,172.16.3.2,5101,11584,8688,0,12160,65728,6,6,4,1460,1053,1,1075839968,74,74540,74540,65700,0,7240,0,0,0
i,0x00000000,1720557165.323307,172.16.1.2,42029,172.16.3.2,5101,11584,5804,0,12160,65728,6,6,4,1460,1053,1,1075839968,74,74540,74540,65700,0,8688,0,0,0
i,0x00000000,1720557165.324954,172.16.1.2,42029,172.16.3.2,5101,11584,5804,0,65728,65728,6,6,4,1460,1053,1,1075839968,74,74540,74540,65700,0,8688,0,0,0
o,0x00000000,1720557165.324979,172.16.1.2,42029,172.16.3.2,5101,11584,8700,0,64256,65728,6,6,4,1460,1002,1,1075839968,80,74540,71644,65700,0,5792,0,0,0
o,0x00000000,1720557165.325877,172.16.1.2,42029,172.16.3.2,5101,11584,8700,0,64256,65728,6,6,4,1460,1002,1,1075839968,80,74540,71644,65700,0,7240,0,0,0
i,0x00000000,1720557165.397365,172.16.1.2,42029,172.16.3.2,5101,11584,8700,0,64256,65728,6,6,4,1460,1002,1,1075839968,80,74540,74540,65700,0,8688,0,0,0
o,0x00000000,1720557165.397405,172.16.1.2,42029,172.16.3.2,5101,11584,10148,0,65728,65728,6,6,4,1460,981,1,1075839968,77,74540,73092,65700,0,7240,0,0,0
o,0x00000000,1720557165.398783,172.16.1.2,42029,172.16.3.2,5101,11584,10148,0,65728,65728,6,6,4,1460,981,1,1075839968,77,74540,73092,65700,0,8688,0,0,0
i,0x00000000,1720557165.486159,172.16.1.2,42029,172.16.3.2,5101,11584,10148,0,65728,65728,6,6,4,1460,981,1,1075839968,77,74540,73092,65700,0,10136,0,0,0
o,0x00000000,1720557165.486175,172.16.1.2,42029,172.16.3.2,5101,11584,13044,0,64256,65728,6,6,4,1460,935,1,1075839968,81,74540,70196,65700,0,7240,0,0,0
o,0x00000000,1720557165.486765,172.16.1.2,42029,172.16.3.2,5101,11584,13044,0,64256,65728,6,6,4,1460,935,1,1075839968,81,74540,70196,65700,0,8688,0,0,0
o,0x00000000,1720557165.487241,172.16.1.2,42029,172.16.3.2,5101,11584,13044,0,64256,65728,6,6,4,1460,935,1,1075839968,81,74540,70196,65700,0,10136,0,0,0
o,0x00000000,1720557165.487625,172.16.1.2,42029,172.16.3.2,5101,11584,13044,0,64256,65728,6,6,4,1460,935,1,1075839968,81,74540,70196,65700,0,11584,0,0,0
i,0x00000000,1720557165.488011,172.16.1.2,42029,172.16.3.2,5101,11584,13044,0,64256,65728,6,6,4,1460,935,1,1075839968,81,74540,70196,65700,0,13032,0,0,0
o,0x00000000,1720557165.488019,172.16.1.2,42029,172.16.3.2,5101,11584,13044,0,64256,65728,6,6,4,1460,899,1,1075839968,81,74540,67300,65700,0,10136,0,0,0
o,0x00000000,1720557165.488395,172.16.1.2,42029,172.16.3.2,5101,11584,13044,0,64256,65728,6,6,4,1460,899,1,1075839968,81,74540,67300,65700,0,11584,0,0,0
i,0x00000000,1720557165.546245,172.16.1.2,42029,172.16.3.2,5101,11584,13044,0,64256,65728,6,6,4,1460,899,1,1075839968,81,74540,74540,65700,0,13032,0,0,0
o,0x00000000,1720557165.546261,172.16.1.2,42029,172.16.3.2,5101,11584,13044,0,65728,65728,6,6,4,1460,871,1,1075839968,78,74540,73092,65700,0,11584,0,0,0
i,0x00000000,1720557165.576412,172.16.1.2,42029,172.16.3.2,5101,11584,13044,0,65728,65728,6,6,4,1460,871,1,1075839968,78,74540,73092,65700,0,13032,0,0,0
o,0x00000000,1720557165.576425,172.16.1.2,42029,172.16.3.2,5101,11584,13044,0,64256,65728,6,6,4,1460,835,1,1075839968,79,74540,70196,65700,0,10136,0,0,0
o,0x00000000,1720557165.576676,172.16.1.2,42029,172.16.3.2,5101,11584,13044,0,64256,65728,6,6,4,1460,835,1,1075839968,79,74540,70196,65700,0,11584,0,0,0
i,0x00000000,1720557165.679112,172.16.1.2,42029,172.16.3.2,5101,11584,13044,0,64256,65728,6,6,4,1460,835,1,1075839968,79,74540,74540,65700,0,13032,0,0,0
o,0x00000000,1720557165.679151,172.16.1.2,42029,172.16.3.2,5101,11584,13044,0,64256,65728,6,6,4,1460,811,1,1075839968,76,74540,71644,65700,0,10136,0,0,0
o,0x00000000,1720557165.680497,172.16.1.2,42029,172.16.3.2,5101,11584,13044,0,64256,65728,6,6,4,1460,811,1,1075839968,76,74540,71644,65700,0,11584,0,0,0
i,0x00000000,1720557165.739169,172.16.1.2,42029,172.16.3.2,5101,11584,13044,0,64256,65728,6,6,4,1460,811,1,1075839968,76,74540,74540,65700,0,13032,0,0,0
o,0x00000000,1720557165.739207,172.16.1.2,42029,172.16.3.2,5101,11584,13044,0,64256,65728,6,6,4,1460,810,1,1075839968,68,74540,71644,65700,0,10136,0,0,0
o,0x00000000,1720557165.740551,172.16.1.2,42029,172.16.3.2,5101,11584,13044,0,64256,65728,6,6,4,1460,810,1,1075839968,68,74540,71644,65700,0,11584,0,0,0
i,0x00000000,1720557165.773455,172.16.1.2,42029,172.16.3.2,5101,11584,13044,0,64256,65728,6,6,4,1460,810,1,1075839968,68,74540,74540,65700,0,13032,0,0,0
o,0x00000000,1720557165.773495,172.16.1.2,42029,172.16.3.2,5101,11584,14504,0,64256,65728,6,6,4,1460,821,1,1075839968,66,74540,71644,65700,0,10136,0,0,0
o,0x00000000,1720557165.774876,172.16.1.2,42029,172.16.3.2,5101,11584,14504,0,64256,65728,6,6,4,1460,821,1,1075839968,66,74540,71644,65700,0,11584,0,0,0
o,0x00000000,1720557165.776190,172.16.1.2,42029,172.16.3.2,5101,11584,14504,0,64256,65728,6,6,4,1460,821,1,1075839968,66,74540,71644,65700,0,13032,0,0,0
i,0x00000000,1720557165.796807,172.16.1.2,42029,172.16.3.2,5101,11584,14504,0,64256,65728,6,6,4,1460,821,1,1075839968,66,74540,74540,65700,0,14480,0,0,0
o,0x00000000,1720557165.796822,172.16.1.2,42029,172.16.3.2,5101,11584,14504,0,64256,65728,6,6,4,1460,823,1,1075839968,61,74540,71644,65700,0,11584,0,0,0
o,0x00000000,1720557165.797133,172.16.1.2,42029,172.16.3.2,5101,11584,14504,0,64256,65728,6,6,4,1460,823,1,1075839968,61,74540,71644,65700,0,13032,0,0,0
i,0x00000000,1720557165.858847,172.16.1.2,42029,172.16.3.2,5101,11584,14504,0,64256,65728,6,6,4,1460,823,1,1075839968,61,74540,74540,65700,0,14480,0,0,0
o,0x00000000,1720557165.858887,172.16.1.2,42029,172.16.3.2,5101,11584,14504,0,64256,65728,6,6,4,1460,833,1,1075839968,60,74540,71644,65700,0,11584,0,0,0
o,0x00000000,1720557165.860732,172.16.1.2,42029,172.16.3.2,5101,11584,14504,0,64256,65728,6,6,4,1460,833,1,1075839968,60,74540,71644,65700,0,13032,0,0,0
i,0x00000000,1720557165.889554,172.16.1.2,42029,172.16.3.2,5101,11584,14504,0,64256,65728,6,6,4,1460,833,1,1075839968,60,74540,74540,65700,0,14480,0,0,0
o,0x00000000,1720557165.889593,172.16.1.2,42029,172.16.3.2,5101,11584,14504,0,64256,65728,6,6,4,1460,813,1,1075839968,61,74540,71644,65700,0,11584,0,0,0
o,0x00000000,1720557165.891762,172.16.1.2,42029,172.16.3.2,5101,11584,14504,0,64256,65728,6,6,4,1460,813,1,1075839968,61,74540,71644,65700,0,13032,0,0,0
i,0x00000000,1720557165.958211,172.16.1.2,42029,172.16.3.2,5101,11584,14504,0,64256,65728,6,6,4,1460,813,1,1075839968,61,74540,74540,65700,0,14480,0,0,0
o,0x00000000,1720557165.958252,172.16.1.2,42029,172.16.3.2,5101,11584,14504,0,65728,65728,6,6,4,1460,800,1,1075839968,60,74540,73092,65700,0,13032,0,0,0
i,0x00000000,1720557165.997584,172.16.1.2,42029,172.16.3.2,5101,11584,14504,0,65728,65728,6,6,4,1460,800,1,1075839968,60,74540,73092,65700,0,14480,0,0,0
o,0x00000000,1720557165.997623,172.16.1.2,42029,172.16.3.2,5101,11584,15964,0,64256,65728,6,6,4,1460,788,1,1075839968,59,74540,70196,65700,0,11584,0,0,0
o,0x00000000,1720557165.998997,172.16.1.2,42029,172.16.3.2,5101,11584,15964,0,64256,65728,6,6,4,1460,788,1,1075839968,59,74540,70196,65700,0,13032,0,0,0
o,0x00000000,1720557166.000348,172.16.1.2,42029,172.16.3.2,5101,11584,15964,0,64256,65728,6,6,4,1460,788,1,1075839968,59,74540,70196,65700,0,14480,0,0,0
i,0x00000000,1720557166.036029,172.16.1.2,42029,172.16.3.2,5101,11584,15964,0,64256,65728,6,6,4,1460,788,1,1075839968,59,74540,74540,65700,0,15928,0,0,0
o,0x00000000,1720557166.036063,172.16.1.2,42029,172.16.3.2,5101,11584,15964,0,65728,65728,6,6,4,1460,790,1,1075839968,56,74540,73092,65700,0,14480,0,0,0
i,0x00000000,1720557166.096033,172.16.1.2,42029,172.16.3.2,5101,11584,15964,0,65728,65728,6,6,4,1460,790,1,1075839968,56,74540,73092,65700,0,15928,0,0,0
o,0x00000000,1720557166.096048,172.16.1.2,42029,172.16.3.2,5101,11584,15964,0,65728,65728,6,6,4,1460,808,1,1075839968,58,74540,71644,65700,0,14480,0,0,0
i,0x00000000,1720557166.096466,172.16.1.2,42029,172.16.3.2,5101,11584,15964,0,65728,65728,6,6,4,1460,808,1,1075839968,58,74540,71644,65700,0,15928,0,0,0
o,0x00000000,1720557166.096472,172.16.1.2,42029,172.16.3.2,5101,11584,15964,0,62848,65728,6,6,4,1460,827,1,1075839968,60,74540,68748,65700,0,13032,0,0,0
o,0x00000000,1720557166.096763,172.16.1.2,42029,172.16.3.2,5101,11584,15964,0,62848,65728,6,6,4,1460,827,1,1075839968,60,74540,68748,65700,0,14480,0,0,0
i,0x00000000,1720557166.112900,172.16.1.2,42029,172.16.3.2,5101,11584,15964,0,62848,65728,6,6,4,1460,827,1,1075839968,60,74540,74540,65700,0,15928,0,0,0
o,0x00000000,1720557166.112913,172.16.1.2,42029,172.16.3.2,5101,11584,15964,0,65728,65728,6,6,4,1460,824,1,1075839968,57,74540,73092,65700,0,14480,0,0,0
i,0x00000000,1720557166.134120,172.16.1.2,42029,172.16.3.2,5101,11584,15964,0,65728,65728,6,6,4,1460,824,1,1075839968,57,74540,73092,65700,0,15928,0,0,0
o,0x00000000,1720557166.134133,172.16.1.2,42029,172.16.3.2,5101,11584,15964,0,62848,65728,6,6,4,1460,817,1,1075839968,56,74540,70196,65700,0,13032,0,0,0
o,0x00000000,1720557166.134422,172.16.1.2,42029,172.16.3.2,5101,11584,15964,0,62848,65728,6,6,4,1460,817,1,1075839968,56,74540,70196,65700,0,14480,0,0,0
i,0x00000000,1720557166.199670,172.16.1.2,42029,172.16.3.2,5101,11584,15964,0,62848,65728,6,6,4,1460,817,1,1075839968,56,74540,74540,65700,0,15928,0,0,0
o,0x00000000,1720557166.199718,172.16.1.2,42029,172.16.3.2,5101,11584,15964,0,64256,65728,6,6,4,1460,811,1,1075839968,55,74540,71644,65700,0,13032,0,0,0
o,0x00000000,1720557166.201126,172.16.1.2,42029,172.16.3.2,5101,11584,15964,0,64256,65728,6,6,4,1460,811,1,1075839968,55,74540,71644,65700,0,14480,0,0,0
i,0x00000000,1720557166.227401,172.16.1.2,42029,172.16.3.2,5101,11584,15964,0,64256,65728,6,6,4,1460,811,1,1075839968,55,74540,74540,65700,0,15928,0,0,0
o,0x00000000,1720557166.227440,172.16.1.2,42029,172.16.3.2,5101,11584,17424,0,64256,65728,6,6,4,1460,802,1,1075839968,54,74540,71644,65700,0,13032,0,0,0
o,0x00000000,1720557166.228767,172.16.1.2,42029,172.16.3.2,5101,11584,17424,0,64256,65728,6,6,4,1460,802,1,1075839968,54,74540,71644,65700,0,14480,0,0,0
o,0x00000000,1720557166.230444,172.16.1.2,42029,172.16.3.2,5101,11584,17424,0,64256,65728,6,6,4,1460,802,1,1075839968,54,74540,71644,65700,0,15928,0,0,0
i,0x00000000,1720557166.318922,172.16.1.2,42029,172.16.3.2,5101,11584,17424,0,64256,65728,6,6,4,1460,802,1,1075839968,54,74540,74540,65700,0,17376,0,0,0
o,0x00000000,1720557166.318954,172.16.1.2,42029,172.16.3.2,5101,11584,17424,0,65728,65728,6,6,4,1460,818,1,1075839968,57,74540,73092,65700,0,15928,0,0,0
i,0x00000000,1720557166.327625,172.16.1.2,42029,172.16.3.2,5101,11584,17424,0,65728,65728,6,6,4,1460,818,1,1075839968,57,74540,73092,65700,0,17376,0,0,0
o,0x00000000,1720557166.327651,172.16.1.2,42029,172.16.3.2,5101,11584,17424,0,64256,65728,6,6,4,1460,808,1,1075839968,56,74540,70196,65700,0,14480,0,0,0
o,0x00000000,1720557166.328557,172.16.1.2,42029,172.16.3.2,5101,11584,17424,0,64256,65728,6,6,4,1460,808,1,1075839968,56,74540,70196,65700,0,15928,0,0,0
i,0x00000000,1720557166.371923,172.16.1.2,42029,172.16.3.2,5101,11584,17424,0,64256,65728,6,6,4,1460,808,1,1075839968,56,74540,74540,65700,0,17376,0,0,0
o,0x00000000,1720557166.371960,172.16.1.2,42029,172.16.3.2,5101,11584,17424,0,65728,65728,6,6,4,1460,815,1,1075839968,55,74540,73092,65700,0,15928,0,0,0
i,0x00000000,1720557166.396110,172.16.1.2,42029,172.16.3.2,5101,11584,17424,0,65728,65728,6,6,4,1460,815,1,1075839968,55,74540,73092,65700,0,17376,0,0,0
o,0x00000000,1720557166.396144,172.16.1.2,42029,172.16.3.2,5101,11584,17424,0,64256,65728,6,6,4,1460,826,1,1075839968,56,74540,70196,65700,0,14480,0,0,0
o,0x00000000,1720557166.398123,172.16.1.2,42029,172.16.3.2,5101,11584,17424,0,64256,65728,6,6,4,1460,826,1,1075839968,56,74540,70196,65700,0,15928,0,0,0
i,0x00000000,1720557166.459746,172.16.1.2,42029,172.16.3.2,5101,11584,17424,0,64256,65728,6,6,4,1460,826,1,1075839968,56,74540,74540,65700,0,17376,0,0,0
o,0x00000000,1720557166.459784,172.16.1.2,42029,172.16.3.2,5101,11584,17424,0,64256,65728,6,6,4,1460,855,1,1075839968,61,74540,71644,65700,0,14480,0,0,0
o,0x00000000,1720557166.461099,172.16.1.2,42029,172.16.3.2,5101,11584,17424,0,64256,65728,6,6,4,1460,855,1,1075839968,61,74540,71644,65700,0,15928,0,0,0
i,0x00000000,1720557166.497878,172.16.1.2,42029,172.16.3.2,5101,11584,17424,0,64256,65728,6,6,4,1460,855,1,1075839968,61,74540,74540,65700,0,17376,0,0,0
o,0x00000000,1720557166.497894,172.16.1.2,42029,172.16.3.2,5101,11584,17424,0,65728,65728,6,6,4,1460,865,1,1075839968,61,74540,73092,65700,0,15928,0,0,0
i,0x00000000,1720557166.525827,172.16.1.2,42029,172.16.3.2,5101,11584,17424,0,65728,65728,6,6,4,1460,865,1,1075839968,61,74540,73092,65700,0,17376,0,0,0
o,0x00000000,1720557166.525840,172.16.1.2,42029,172.16.3.2,5101,11584,17424,0,64256,65728,6,6,4,1460,873,1,1075839968,59,74540,70196,65700,0,14480,0,0,0
o,0x00000000,1720557166.526090,172.16.1.2,42029,172.16.3.2,5101,11584,17424,0,64256,65728,6,6,4,1460,873,1,1075839968,59,74540,70196,65700,0,15928,0,0,0
i,0x00000000,1720557166.585912,172.16.1.2,42029,172.16.3.2,5101,11584,17424,0,64256,65728,6,6,4,1460,873,1,1075839968,59,74540,74540,65700,0,17376,0,0,0
o,0x00000000,1720557166.585941,172.16.1.2,42029,172.16.3.2,5101,11584,18884,0,65728,65728,6,6,4,1460,904,1,1075839968,65,74540,73092,65700,0,15928,0,0,0
o,0x00000000,1720557166.586414,172.16.1.2,42029,172.16.3.2,5101,11584,18884,0,65728,65728,6,6,4,1460,904,1,1075839968,65,74540,73092,65700,0,17376,0,0,0
