enable_time_secs=1720599939	enable_time_usecs=069158	siftrver=1.2.4	hz=100	tcp_rtt_scale=32	sysname=FreeBSD	sysver=1301000	ipmode=4
o,0x00000000,1720599939.069324,10.0.2.15,22,10.0.2.2,56340,1073725440,17770,0,65535,65700,0,0,4,1460,1,0,4,24,33580,44,65700,0,0,0,0,0
i,0x00000000,1720599939.074941,10.0.2.15,22,10.0.2.2,56340,1073725440,17770,0,65535,65700,0,0,4,1460,1,0,4,24,33580,44,65700,0,44,0,0,0
o,0x00000000,1720599939.075442,10.0.2.15,22,10.0.2.2,56340,1073725440,17814,0,65535,65700,0,0,4,1460,1,0,4,23,33580,36,65700,0,0,0,0,0
i,0x00000000,1720599939.078526,10.0.2.15,22,10.0.2.2,56340,1073725440,17814,0,65535,65700,0,0,4,1460,1,0,4,23,33580,36,65700,0,36,0,0,0
o,0x00000000,1720599939.078897,10.0.2.15,22,10.0.2.2,56340,1073725440,17850,0,65535,65700,0,0,4,1460,1,0,4,23,33580,36,65700,0,0,0,0,0
i,0x00000000,1720599939.080897,10.0.2.15,22,10.0.2.2,56340,1073725440,17850,0,65535,65700,0,0,4,1460,1,0,4,23,33580,36,65700,0,36,0,0,0
o,0x00000000,1720599939.082073,10.0.2.15,22,10.0.2.2,56340,1073725440,17886,0,65535,65700,0,0,4,1460,1,0,4,23,33580,176,65700,0,0,0,0,0
i,0x00000000,1720599939.087668,10.0.2.15,22,10.0.2.2,56340,1073725440,17886,0,65535,65700,0,0,4,1460,1,0,4,23,33580,176,65700,0,176,0,0,0
i,0x00000000,1720599939.087697,10.0.2.15,22,10.0.2.2,56340,1073725440,18062,0,65535,65700,0,0,4,1460,1,0,4,23,33580,0,65700,0,0,0,0,0
i,0x00000000,1720599939.087708,10.0.2.15,22,10.0.2.2,56340,1073725440,18062,0,65535,65700,0,0,4,1460,1,0,4,23,33580,0,65700,96,0,0,0,0
o,0x00000000,1720599939.087725,10.0.2.15,22,10.0.2.2,56340,1073725440,18062,0,65535,65604,0,0,5,1460,1,0,5,23,33580,0,65700,96,0,0,0,0
o,0x00000000,1720599939.090406,10.0.2.15,22,10.0.2.2,56340,1073725440,18062,0,65535,65604,0,0,8,1460,1,0,4,23,33580,0,65700,0,0,0,0,0
i,0x00000000,1720599939.092647,10.0.2.15,22,10.0.2.2,56340,1073725440,18062,0,65535,65604,0,0,8,1460,1,0,20,23,33580,0,65700,0,1,0,0,0
i,0x00000000,1720599941.552607,10.0.2.15,22,10.0.2.2,56342,1073725440,14600,0,65535,65700,0,0,4,1460,1,0,0,27,33580,0,65700,0,0,0,0,0
o,0x00000000,1720599941.571497,10.0.2.15,22,10.0.2.2,56342,1073725440,14600,0,65535,65700,0,0,4,1460,1,0,0,27,33580,38,65700,42,0,0,0,0
i,0x00000000,1720599941.574301,10.0.2.15,22,10.0.2.2,56342,1073725440,14600,0,65535,65700,0,0,4,1460,1,0,0,27,33580,38,65700,42,38,0,0,0
i,0x00000000,1720599941.574313,10.0.2.15,22,10.0.2.2,56342,1073725440,14638,0,65535,65700,0,0,4,1460,1,0,0,24,33580,0,65700,42,0,0,0,0
i,0x00000000,1720599941.574315,10.0.2.15,22,10.0.2.2,56342,1073725440,14638,0,65535,65700,0,0,4,1460,1,0,0,24,33580,0,65700,1502,0,0,0,0
o,0x00000000,1720599941.574322,10.0.2.15,22,10.0.2.2,56342,1073725440,14638,0,65535,65700,0,0,4,1460,1,0,1,24,33580,0,65700,1578,0,0,0,0
o,0x00000000,1720599941.576245,10.0.2.15,22,10.0.2.2,56342,1073725440,14638,0,65535,65700,0,0,4,1460,1,0,0,24,33580,1056,65700,1536,0,0,0,0
i,0x00000000,1720599941.577399,10.0.2.15,22,10.0.2.2,56342,1073725440,14638,0,65535,65700,0,0,4,1460,1,0,0,24,33580,1056,65700,1536,1056,0,0,0
i,0x00000000,1720599941.578777,10.0.2.15,22,10.0.2.2,56342,1073725440,15694,0,65535,65700,0,0,4,1460,1,0,0,24,33580,0,65700,0,0,0,0,0
o,0x00000000,1720599941.585982,10.0.2.15,22,10.0.2.2,56342,1073725440,15694,0,65535,65700,0,0,4,1460,1,0,0,24,33580,484,65700,0,0,0,0,0
i,0x00000000,1720599941.587930,10.0.2.15,22,10.0.2.2,56342,1073725440,15694,0,65535,65700,0,0,4,1460,1,0,0,24,33580,484,65700,0,484,0,0,0
i,0x00000000,1720599941.591617,10.0.2.15,22,10.0.2.2,56342,1073725440,16178,0,65535,65700,0,0,4,1460,1,0,0,24,33580,0,65700,0,0,0,0,0
i,0x00000000,1720599941.591627,10.0.2.15,22,10.0.2.2,56342,1073725440,16178,0,65535,65700,0,0,4,1460,1,0,0,24,33580,0,65700,16,0,0,0,0
o,0x00000000,1720599941.591633,10.0.2.15,22,10.0.2.2,56342,1073725440,16178,0,65535,65700,0,0,4,1460,1,0,1,24,33580,0,65700,60,0,0,0,0
o,0x00000000,1720599941.591880,10.0.2.15,22,10.0.2.2,56342,1073725440,16178,0,65535,65700,0,0,4,1460,1,0,0,24,33580,44,65700,0,0,0,0,0
i,0x00000000,1720599941.592600,10.0.2.15,22,10.0.2.2,56342,1073725440,16178,0,65535,65700,0,0,4,1460,1,0,0,24,33580,44,65700,0,44,0,0,0
i,0x00000000,1720599941.592604,10.0.2.15,22,10.0.2.2,56342,1073725440,16222,0,65535,65700,0,0,4,1460,1,0,0,24,33580,0,65700,0,0,0,0,0
o,0x00000000,1720599941.601978,10.0.2.15,22,10.0.2.2,56342,1073725440,16222,0,65535,65700,0,0,4,1460,1,0,0,24,33580,68,65700,0,0,0,0,0
i,0x00000000,1720599941.604268,10.0.2.15,22,10.0.2.2,56342,1073725440,16222,0,65535,65700,0,0,4,1460,1,0,0,24,33580,68,65700,0,68,0,0,0
i,0x00000000,1720599941.604284,10.0.2.15,22,10.0.2.2,56342,1073725440,16290,0,65535,65700,0,0,4,1460,1,0,0,23,33580,0,65700,0,0,0,0,0
o,0x00000000,1720599941.605274,10.0.2.15,22,10.0.2.2,56342,1073725440,16290,0,65535,65700,0,0,4,1460,1,0,0,23,33580,332,65700,0,0,0,0,0
i,0x00000000,1720599941.607546,10.0.2.15,22,10.0.2.2,56342,1073725440,16290,0,65535,65700,0,0,4,1460,1,0,0,23,33580,332,65700,0,332,0,0,0
i,0x00000000,1720599941.610239,10.0.2.15,22,10.0.2.2,56342,1073725440,16622,0,65535,65700,0,0,4,1460,1,0,0,23,33580,0,65700,0,0,0,0,0
o,0x00000000,1720599941.624054,10.0.2.15,22,10.0.2.2,56342,1073725440,16622,0,65535,65700,0,0,4,1460,1,0,0,23,33580,28,65700,0,0,0,0,0
i,0x00000000,1720599941.627191,10.0.2.15,22,10.0.2.2,56342,1073725440,16622,0,65535,65700,0,0,4,1460,1,0,0,23,33580,28,65700,0,28,0,0,0
i,0x00000000,1720599941.627206,10.0.2.15,22,10.0.2.2,56342,1073725440,16650,0,65535,65700,0,0,4,1460,1,0,0,23,33580,0,65700,0,0,0,0,0
o,0x00000000,1720599941.629085,10.0.2.15,22,10.0.2.2,56342,1073725440,16650,0,65535,65700,0,0,4,1460,1,0,0,23,33580,768,65700,112,0,0,0,0
i,0x00000000,1720599941.632058,10.0.2.15,22,10.0.2.2,56342,1073725440,16650,0,65535,65700,0,0,4,1460,1,0,0,23,33580,768,65700,112,768,0,0,0
o,0x00000000,1720599941.632333,10.0.2.15,22,10.0.2.2,56342,1073725440,17418,0,65535,65700,0,0,4,1460,1,0,0,23,33580,140,65700,112,0,0,0,0
i,0x00000000,1720599941.634982,10.0.2.15,22,10.0.2.2,56342,1073725440,17418,0,65535,65700,0,0,4,1460,1,0,0,23,33580,140,65700,112,140,0,0,0
o,0x00000000,1720599941.635421,10.0.2.15,22,10.0.2.2,56342,1073725440,17558,0,65535,65700,0,0,4,1460,1,0,0,24,33580,44,65700,0,0,0,0,0
i,0x00000000,1720599941.638149,10.0.2.15,22,10.0.2.2,56342,1073725440,17558,0,65535,65700,0,0,4,1460,1,0,0,24,33580,44,65700,0,44,0,0,0
i,0x00000000,1720599941.638158,10.0.2.15,22,10.0.2.2,56342,1073725440,17602,0,65535,65700,0,0,4,1460,1,0,0,24,33580,0,65700,0,0,0,0,0
o,0x00000000,1720599941.638823,10.0.2.15,22,10.0.2.2,56342,1073725440,17602,0,65535,65700,0,0,4,1460,1,0,4,24,33580,72,65700,0,0,0,0,0
i,0x00000000,1720599941.640546,10.0.2.15,22,10.0.2.2,56342,1073725440,17602,0,65535,65700,0,0,4,1460,1,0,4,24,33580,72,65700,0,72,0,0,0
o,0x00000000,1720599941.646568,10.0.2.15,22,10.0.2.2,56342,1073725440,17674,0,65535,65700,0,0,4,1460,1,0,4,24,33580,44,65700,0,0,0,0,0
i,0x00000000,1720599941.647808,10.0.2.15,22,10.0.2.2,56342,1073725440,17674,0,65535,65700,0,0,4,1460,1,0,4,24,33580,44,65700,0,44,0,0,0
o,0x00000000,1720599941.648415,10.0.2.15,22,10.0.2.2,56342,1073725440,17718,0,65535,65700,0,0,4,1460,1,0,4,24,33580,104,65700,0,0,0,0,0
o,0x00000000,1720599941.649309,10.0.2.15,22,10.0.2.2,56342,1073725440,17718,0,65535,65700,0,0,4,1460,1,0,4,24,33580,148,65700,0,104,0,0,0
i,0x00000000,1720599941.650264,10.0.2.15,22,10.0.2.2,56342,1073725440,17718,0,65535,65700,0,0,4,1460,1,0,4,24,33580,148,65700,0,148,0,0,0
i,0x00000000,1720599941.650271,10.0.2.15,22,10.0.2.2,56342,1073725440,17822,0,65535,65700,0,0,4,1460,1,0,4,24,33580,44,65700,0,44,0,0,0
o,0x00000000,1720599941.660003,10.0.2.15,22,10.0.2.2,56342,1073725440,17866,0,65535,65700,0,0,4,1460,1,0,4,24,33580,72,65700,0,0,0,0,0
i,0x00000000,1720599941.662941,10.0.2.15,22,10.0.2.2,56342,1073725440,17866,0,65535,65700,0,0,4,1460,1,0,4,24,33580,72,65700,0,72,0,0,0
i,0x00000000,1720599941.662950,10.0.2.15,22,10.0.2.2,56342,1073725440,17938,0,65535,65700,0,0,4,1460,1,0,4,24,33580,0,65700,0,0,0,0,0
i,0x00000000,1720599941.662953,10.0.2.15,22,10.0.2.2,56342,1073725440,17938,0,65535,65700,0,0,4,1460,1,0,4,24,33580,0,65700,96,0,0,0,0
o,0x00000000,1720599941.662957,10.0.2.15,22,10.0.2.2,56342,1073725440,17938,0,65535,65604,0,0,5,1460,1,0,5,24,33580,0,65700,96,0,0,0,0
o,0x00000000,1720599941.679407,10.0.2.15,22,10.0.2.2,56342,1073725440,17938,0,65535,65604,0,0,8,1460,1,0,4,24,33580,0,65700,0,0,0,0,0
i,0x00000000,1720599941.681593,10.0.2.15,22,10.0.2.2,56342,1073725440,17938,0,65535,65604,0,0,8,1460,1,0,20,24,33580,0,65700,0,1,0,0,0
i,0x00000000,1720599942.838585,10.0.2.15,22,10.0.2.2,56268,1073725440,14600,0,65535,65700,0,0,4,1460,1,0,0,27,33580,0,65700,0,0,0,0,0
o,0x00000000,1720599942.866077,10.0.2.15,22,10.0.2.2,56268,1073725440,14600,0,65535,65700,0,0,4,1460,1,0,0,27,33580,38,65700,42,0,0,0,0
i,0x00000000,1720599942.868237,10.0.2.15,22,10.0.2.2,56268,1073725440,14600,0,65535,65700,0,0,4,1460,1,0,0,27,33580,38,65700,42,38,0,0,0
i,0x00000000,1720599942.869517,10.0.2.15,22,10.0.2.2,56268,1073725440,14638,0,65535,65700,0,0,4,1460,1,0,0,24,33580,0,65700,0,0,0,0,0
i,0x00000000,1720599942.869527,10.0.2.15,22,10.0.2.2,56268,1073725440,14638,0,65535,65700,0,0,4,1460,1,0,0,24,33580,0,65700,1460,0,0,0,0
o,0x00000000,1720599942.869546,10.0.2.15,22,10.0.2.2,56268,1073725440,14638,0,65535,65700,0,0,4,1460,1,0,1,24,33580,0,65700,1536,0,0,0,0
o,0x00000000,1720599942.871145,10.0.2.15,22,10.0.2.2,56268,1073725440,14638,0,65535,65700,0,0,4,1460,1,0,0,24,33580,1056,65700,1536,0,0,0,0
i,0x00000000,1720599942.877948,10.0.2.15,22,10.0.2.2,56268,1073725440,14638,0,65535,65700,0,0,4,1460,1,0,0,24,33580,1056,65700,1536,1056,0,0,0
i,0x00000000,1720599942.877972,10.0.2.15,22,10.0.2.2,56268,1073725440,15694,0,65535,65700,0,0,4,1460,1,0,0,24,33580,0,65700,1536,0,0,0,0
o,0x00000000,1720599942.889481,10.0.2.15,22,10.0.2.2,56268,1073725440,15694,0,65535,65700,0,0,4,1460,1,0,0,24,33580,484,65700,0,0,0,0,0
i,0x00000000,1720599942.891499,10.0.2.15,22,10.0.2.2,56268,1073725440,15694,0,65535,65700,0,0,4,1460,1,0,0,24,33580,484,65700,0,484,0,0,0
i,0x00000000,1720599942.899751,10.0.2.15,22,10.0.2.2,56268,1073725440,16178,0,65535,65700,0,0,4,1460,1,0,0,24,33580,0,65700,0,0,0,0,0
i,0x00000000,1720599942.899762,10.0.2.15,22,10.0.2.2,56268,1073725440,16178,0,65535,65700,0,0,4,1460,1,0,0,24,33580,0,65700,16,0,0,0,0
o,0x00000000,1720599942.899766,10.0.2.15,22,10.0.2.2,56268,1073725440,16178,0,65535,65700,0,0,4,1460,1,0,1,24,33580,0,65700,60,0,0,0,0
o,0x00000000,1720599942.900054,10.0.2.15,22,10.0.2.2,56268,1073725440,16178,0,65535,65700,0,0,4,1460,1,0,0,24,33580,44,65700,0,0,0,0,0
i,0x00000000,1720599942.901317,10.0.2.15,22,10.0.2.2,56268,1073725440,16178,0,65535,65700,0,0,4,1460,1,0,0,24,33580,44,65700,0,44,0,0,0
i,0x00000000,1720599942.901326,10.0.2.15,22,10.0.2.2,56268,1073725440,16222,0,65535,65700,0,0,4,1460,1,0,0,24,33580,0,65700,0,0,0,0,0
o,0x00000000,1720599942.911766,10.0.2.15,22,10.0.2.2,56268,1073725440,16222,0,65535,65700,0,0,4,1460,1,0,0,24,33580,68,65700,0,0,0,0,0
i,0x00000000,1720599942.916668,10.0.2.15,22,10.0.2.2,56268,1073725440,16222,0,65535,65700,0,0,4,1460,1,0,0,24,33580,68,65700,0,68,0,0,0
i,0x00000000,1720599942.916679,10.0.2.15,22,10.0.2.2,56268,1073725440,16290,0,65535,65700,0,0,4,1460,1,0,0,23,33580,0,65700,0,0,0,0,0
o,0x00000000,1720599942.917283,10.0.2.15,22,10.0.2.2,56268,1073725440,16290,0,65535,65700,0,0,4,1460,1,0,0,23,33580,332,65700,0,0,0,0,0
i,0x00000000,1720599942.918573,10.0.2.15,22,10.0.2.2,56268,1073725440,16290,0,65535,65700,0,0,4,1460,1,0,0,23,33580,332,65700,0,332,0,0,0
i,0x00000000,1720599942.921613,10.0.2.15,22,10.0.2.2,56268,1073725440,16622,0,65535,65700,0,0,4,1460,1,0,0,23,33580,0,65700,0,0,0,0,0
o,0x00000000,1720599942.936848,10.0.2.15,22,10.0.2.2,56268,1073725440,16622,0,65535,65700,0,0,4,1460,1,0,0,23,33580,28,65700,0,0,0,0,0
i,0x00000000,1720599942.941629,10.0.2.15,22,10.0.2.2,56268,1073725440,16622,0,65535,65700,0,0,4,1460,1,0,0,23,33580,28,65700,0,28,0,0,0
i,0x00000000,1720599942.941651,10.0.2.15,22,10.0.2.2,56268,1073725440,16650,0,65535,65700,0,0,4,1460,1,0,0,23,33580,0,65700,0,0,0,0,0
o,0x00000000,1720599942.945443,10.0.2.15,22,10.0.2.2,56268,1073725440,16650,0,65535,65700,0,0,4,1460,1,0,0,23,33580,768,65700,112,0,0,0,0
i,0x00000000,1720599942.949263,10.0.2.15,22,10.0.2.2,56268,1073725440,16650,0,65535,65700,0,0,4,1460,1,0,0,23,33580,768,65700,112,768,0,0,0
o,0x00000000,1720599942.949807,10.0.2.15,22,10.0.2.2,56268,1073725440,17418,0,65535,65700,0,0,4,1460,1,0,0,23,33580,140,65700,112,0,0,0,0
i,0x00000000,1720599942.952316,10.0.2.15,22,10.0.2.2,56268,1073725440,17418,0,65535,65700,0,0,4,1460,1,0,0,23,33580,140,65700,112,140,0,0,0
o,0x00000000,1720599942.952769,10.0.2.15,22,10.0.2.2,56268,1073725440,17558,0,65535,65700,0,0,4,1460,1,0,0,24,33580,44,65700,0,0,0,0,0
i,0x00000000,1720599942.958625,10.0.2.15,22,10.0.2.2,56268,1073725440,17558,0,65535,65700,0,0,4,1460,1,0,0,24,33580,44,65700,0,44,0,0,0
i,0x00000000,1720599942.958653,10.0.2.15,22,10.0.2.2,56268,1073725440,17602,0,65535,65700,0,0,4,1460,1,0,0,23,33580,0,65700,0,0,0,0,0
o,0x00000000,1720599942.961148,10.0.2.15,22,10.0.2.2,56268,1073725440,17602,0,65535,65700,0,0,4,1460,1,0,4,23,33580,72,65700,0,0,0,0,0
i,0x00000000,1720599942.965770,10.0.2.15,22,10.0.2.2,56268,1073725440,17602,0,65535,65700,0,0,4,1460,1,0,4,23,33580,72,65700,0,72,0,0,0
i,0x00000000,1720599942.965791,10.0.2.15,22,10.0.2.2,56268,1073725440,17674,0,65535,65700,0,0,4,1460,1,0,4,23,33580,0,65700,0,0,0,0,0
o,0x00000000,1720599942.989302,172.16.1.2,31573,172.16.3.2,5101,1073725440,1073725440,0,0,0,0,0,2,536,0,1,672,100,32768,0,65536,0,0,0,0,0
o,0x00000000,1720599943.004916,10.0.2.15,22,10.0.2.2,56268,1073725440,17674,0,65535,65700,0,0,4,1460,1,0,5,23,33580,0,65700,0,0,0,0,0
i,0x00000000,1720599943.107894,172.16.1.2,31573,172.16.3.2,5101,1073725440,1073725440,0,0,0,0,0,2,536,0,1,672,100,32768,0,65536,0,1,0,0,0
o,0x00000000,1720599943.107956,172.16.1.2,31573,172.16.3.2,5101,32929,14480,0,65535,65700,6,6,4,1460,524,1,993,60,33580,0,65700,0,0,0,0,0
o,0x00000000,1720599943.110771,172.16.1.2,31573,172.16.3.2,5101,32929,14480,0,65535,65700,6,6,4,1460,524,1,996,60,33580,37,65700,0,0,0,0,0
i,0x00000000,1720599943.232636,172.16.1.2,31573,172.16.3.2,5101,32929,14480,0,65535,65700,6,6,4,1460,524,1,996,60,33580,37,65700,0,37,0,0,0
o,0x00000000,1720599943.233286,172.16.1.2,31573,172.16.3.2,5101,32929,14517,0,65728,65728,6,6,4,1460,507,1,996,58,33580,4,65700,0,0,0,0,0
o,0x00000000,1720599943.236443,172.16.1.2,31573,172.16.3.2,5101,32929,14517,0,65728,65728,6,6,4,1460,507,1,996,58,33580,128,65700,0,4,0,0,0
i,0x00000000,1720599943.357787,172.16.1.2,31573,172.16.3.2,5101,32929,14517,0,65728,65728,6,6,4,1460,507,1,996,58,33580,128,65700,0,128,0,0,0
i,0x00000000,1720599943.357820,172.16.1.2,31573,172.16.3.2,5101,32929,14645,0,65600,65728,6,6,4,1460,496,1,996,55,33580,0,65700,0,0,0,0,0
o,0x00000000,1720599943.358834,172.16.1.2,22108,172.16.3.2,5101,1073725440,1073725440,0,0,0,0,0,2,536,0,1,672,100,32768,0,65536,0,0,0,0,0
o,0x00000000,1720599943.396599,172.16.1.2,31573,172.16.3.2,5101,32929,14645,0,65728,65728,6,6,4,1460,496,1,997,55,33580,0,65700,0,0,0,0,0
i,0x00000000,1720599943.482088,172.16.1.2,22108,172.16.3.2,5101,1073725440,1073725440,0,0,0,0,0,2,536,0,1,672,100,32768,0,65536,0,1,0,0,0
o,0x00000000,1720599943.482128,172.16.1.2,22108,172.16.3.2,5101,32929,14480,0,65535,65700,6,6,4,1460,524,1,993,60,33580,0,65700,0,0,0,0,0
o,0x00000000,1720599943.482885,172.16.1.2,22108,172.16.3.2,5101,32929,14480,0,65535,65700,6,6,4,1460,524,1,992,60,33580,37,65700,0,0,0,0,0
i,0x00000000,1720599943.598264,172.16.1.2,31573,172.16.3.2,5101,32929,14645,0,65728,65728,6,6,4,1460,496,1,996,55,33580,0,65700,0,0,0,0,0
i,0x00000000,1720599943.598290,172.16.1.2,31573,172.16.3.2,5101,32929,14645,0,65728,65728,6,6,4,1460,496,1,996,55,33580,0,65700,1,0,0,0,0
o,0x00000000,1720599943.598306,172.16.1.2,31573,172.16.3.2,5101,32929,14645,0,65728,65728,6,6,4,1460,496,1,997,55,33580,0,65700,2,0,0,0,0
o,0x00000000,1720599943.598925,172.16.1.2,22108,172.16.3.2,5101,32929,14480,0,65535,65700,6,6,4,1460,524,1,992,60,33580,33580,65700,0,37,0,0,0
o,0x00000000,1720599943.599720,172.16.1.2,22108,172.16.3.2,5101,32929,14480,0,65535,65700,6,6,4,1460,524,1,992,60,33580,33580,65700,0,1485,0,0,0
o,0x00000000,1720599943.600527,172.16.1.2,22108,172.16.3.2,5101,32929,14480,0,65535,65700,6,6,4,1460,524,1,992,60,33580,33580,65700,0,2933,0,0,0
o,0x00000000,1720599943.602357,172.16.1.2,22108,172.16.3.2,5101,32929,14480,0,65535,65700,6,6,4,1460,524,1,992,60,33580,33580,65700,0,4381,0,0,0
o,0x00000000,1720599943.605151,172.16.1.2,22108,172.16.3.2,5101,32929,14480,0,65535,65700,6,6,4,1460,524,1,992,60,33580,33580,65700,0,5829,0,0,0
o,0x00000000,1720599943.605990,172.16.1.2,22108,172.16.3.2,5101,32929,14480,0,65535,65700,6,6,4,1460,524,1,992,60,33580,33580,65700,0,7277,0,0,0
o,0x00000000,1720599943.606350,172.16.1.2,22108,172.16.3.2,5101,32929,14480,0,65535,65700,6,6,4,1460,524,1,992,60,33580,33580,65700,0,8725,0,0,0
o,0x00000000,1720599943.606678,172.16.1.2,22108,172.16.3.2,5101,32929,14480,0,65535,65700,6,6,4,1460,524,1,992,60,33580,33580,65700,0,10173,0,0,0
o,0x00000000,1720599943.608353,172.16.1.2,22108,172.16.3.2,5101,32929,14480,0,65535,65700,6,6,4,1460,524,1,992,60,33580,33580,65700,0,11621,0,0,0
i,0x00000000,1720599943.629152,172.16.1.2,22108,172.16.3.2,5101,32929,14480,0,65535,65700,6,6,4,1460,524,1,992,60,33580,33580,65700,0,13069,0,0,0
o,0x00000000,1720599943.629194,172.16.1.2,22108,172.16.3.2,5101,32929,14517,0,65728,65728,6,6,4,1460,519,1,992,55,33580,33543,65700,0,13032,0,0,0
i,0x00000000,1720599943.899095,172.16.1.2,22108,172.16.3.2,5101,32929,14517,0,65728,65728,6,6,4,1460,519,1,992,55,33580,33543,65700,0,14480,0,0,0
o,0x00000000,1720599943.899130,172.16.1.2,22108,172.16.3.2,5101,32929,17413,0,64256,65728,6,6,4,1460,571,1,992,65,33580,30647,65700,0,11584,0,0,0
o,0x00000000,1720599943.899570,172.16.1.2,22108,172.16.3.2,5101,32929,17413,0,64256,65728,6,6,4,1460,571,1,992,65,33580,30647,65700,0,13032,0,0,0
o,0x00000000,1720599943.900044,172.16.1.2,22108,172.16.3.2,5101,32929,17413,0,64256,65728,6,6,4,1460,571,1,992,65,41772,30647,65700,0,14480,0,0,0
o,0x00000000,1720599943.900451,172.16.1.2,22108,172.16.3.2,5101,32929,17413,0,64256,65728,6,6,4,1460,571,1,992,65,41772,30647,65700,0,15928,0,0,0
i,0x00000000,1720599943.900901,172.16.1.2,22108,172.16.3.2,5101,32929,17413,0,64256,65728,6,6,4,1460,571,1,992,65,41772,30647,65700,0,17376,0,0,0
o,0x00000000,1720599943.900925,172.16.1.2,22108,172.16.3.2,5101,32929,20309,0,64256,65728,6,6,4,1460,616,1,992,71,41772,27751,65700,0,14480,0,0,0
o,0x00000000,1720599943.901113,172.16.1.2,22108,172.16.3.2,5101,32929,20309,0,64256,65728,6,6,4,1460,616,1,992,71,41772,27751,65700,0,15928,0,0,0
o,0x00000000,1720599943.901191,172.16.1.2,22108,172.16.3.2,5101,32929,20309,0,64256,65728,6,6,4,1460,616,1,992,71,41772,27751,65700,0,17376,0,0,0
o,0x00000000,1720599943.901266,172.16.1.2,22108,172.16.3.2,5101,32929,20309,0,64256,65728,6,6,4,1460,616,1,992,71,41772,27751,65700,0,18824,0,0,0
i,0x00000000,1720599943.901340,172.16.1.2,22108,172.16.3.2,5101,32929,20309,0,64256,65728,6,6,4,1460,616,1,992,71,41772,27751,65700,0,20272,0,0,0
o,0x00000000,1720599943.901344,172.16.1.2,22108,172.16.3.2,5101,32929,23205,0,64256,65728,6,6,4,1460,655,1,992,74,41772,24855,65700,0,17376,0,0,0
o,0x00000000,1720599943.901420,172.16.1.2,22108,172.16.3.2,5101,32929,23205,0,64256,65728,6,6,4,1460,655,1,992,74,41772,24855,65700,0,18824,0,0,0
o,0x00000000,1720599943.901494,172.16.1.2,22108,172.16.3.2,5101,32929,23205,0,64256,65728,6,6,4,1460,655,1,992,74,41772,24855,65700,0,20272,0,0,0
o,0x00000000,1720599943.901569,172.16.1.2,22108,172.16.3.2,5101,32929,23205,0,64256,65728,6,6,4,1460,655,1,992,74,41772,24855,65700,0,21720,0,0,0
i,0x00000000,1720599943.901642,172.16.1.2,22108,172.16.3.2,5101,32929,23205,0,64256,65728,6,6,4,1460,655,1,992,74,41772,24855,65700,0,23168,0,0,0
i,0x00000000,1720599943.928001,172.16.1.2,22108,172.16.3.2,5101,11584,18824,0,64256,65728,6,6,4,1460,690,1,536871904,75,41772,41772,65700,0,20272,0,0,0
i,0x00000000,1720599944.217607,172.16.1.2,31573,172.16.3.2,5101,32929,14645,0,65728,65728,6,6,4,1460,496,1,996,55,33580,0,65700,0,0,0,0,0
o,0x00000000,1720599944.217640,172.16.1.2,31573,172.16.3.2,5101,32929,14360,0,65728,65728,6,6,4,1460,496,1,997,55,33580,0,65700,0,0,0,0,0
i,0x00000000,1720599944.238586,172.16.1.2,22108,172.16.3.2,5101,11584,17376,0,64256,65728,6,6,4,1460,732,1,536871904,79,41772,41772,65700,0,17376,0,0,0
o,0x00000000,1720599944.238625,172.16.1.2,22108,172.16.3.2,5101,11584,15928,0,64256,65728,6,6,4,1460,777,1,536871904,82,41772,38876,65700,0,14480,0,0,0
i,0x00000000,1720599944.239091,172.16.1.2,22108,172.16.3.2,5101,11584,15928,0,64256,65728,6,6,4,1460,777,1,536871904,82,41772,38876,65700,0,15928,0,0,0
o,0x00000000,1720599944.239097,172.16.1.2,22108,172.16.3.2,5101,11584,14480,0,64256,65728,6,6,4,1460,816,1,536871904,84,41772,35980,65700,0,13032,0,0,0
i,0x00000000,1720599944.239381,172.16.1.2,22108,172.16.3.2,5101,11584,14480,0,64256,65728,6,6,4,1460,816,1,536871904,84,41772,35980,65700,0,14480,0,0,0
o,0x00000000,1720599944.239386,172.16.1.2,22108,172.16.3.2,5101,11584,13032,0,64256,65728,6,6,4,1460,850,1,536871904,84,41772,33084,65700,0,11584,0,0,0
i,0x00000000,1720599944.239696,172.16.1.2,22108,172.16.3.2,5101,11584,13032,0,64256,65728,6,6,4,1460,850,1,536871904,84,41772,33084,65700,0,13032,0,0,0
i,0x00000000,1720599944.239699,172.16.1.2,22108,172.16.3.2,5101,11584,8688,0,64256,65728,6,6,4,1460,880,1,536871904,83,41772,30188,65700,0,10136,0,0,0
o,0x00000000,1720599944.239702,172.16.1.2,22108,172.16.3.2,5101,11584,8688,0,64256,65728,6,6,4,1460,906,1,536871904,81,41772,27292,65700,0,7240,0,0,0
i,0x00000000,1720599944.267517,172.16.1.2,22108,172.16.3.2,5101,11584,8688,0,64256,65728,6,6,4,1460,906,1,536871904,81,41772,41772,65700,0,8688,0,0,0
o,0x00000000,1720599944.267534,172.16.1.2,22108,172.16.3.2,5101,11584,8688,0,64256,65728,6,6,4,1460,941,1,536871904,83,41772,38876,65700,0,5792,0,0,0
o,0x00000000,1720599944.267913,172.16.1.2,22108,172.16.3.2,5101,11584,8688,0,64256,65728,6,6,4,1460,941,1,536871904,83,41772,38876,65700,0,7240,0,0,0
i,0x00000000,1720599944.429933,172.16.1.2,22108,172.16.3.2,5101,11584,8688,0,64256,65728,6,6,4,1460,941,1,536871904,83,41772,41772,65700,0,8688,0,0,0
o,0x00000000,1720599944.429985,172.16.1.2,22108,172.16.3.2,5101,11584,8688,0,65728,65728,6,6,4,1460,900,1,992,83,41772,40324,65700,0,7240,0,0,0
i,0x00000000,1720599944.431911,172.16.1.2,22108,172.16.3.2,5101,11584,8688,0,65728,65728,6,6,4,1460,900,1,992,83,41772,40324,65700,0,8688,0,0,0
o,0x00000000,1720599944.431938,172.16.1.2,22108,172.16.3.2,5101,11584,11584,0,64256,65728,6,6,4,1460,864,1,992,83,41772,37428,65700,0,5792,0,0,0
o,0x00000000,1720599944.434236,172.16.1.2,22108,172.16.3.2,5101,11584,11584,0,64256,65728,6,6,4,1460,864,1,992,83,41772,37428,65700,0,7240,0,0,0
o,0x00000000,1720599944.435540,172.16.1.2,22108,172.16.3.2,5101,11584,11584,0,64256,65728,6,6,4,1460,864,1,992,83,41772,37428,65700,0,8688,0,0,0
o,0x00000000,1720599944.437293,172.16.1.2,22108,172.16.3.2,5101,11584,11584,0,64256,65728,6,6,4,1460,864,1,992,83,41772,37428,65700,0,10136,0,0,0
i,0x00000000,1720599944.458374,172.16.1.2,22108,172.16.3.2,5101,11584,11584,0,64256,65728,6,6,4,1460,864,1,992,83,41772,41772,65700,0,11584,0,0,0
o,0x00000000,1720599944.458411,172.16.1.2,22108,172.16.3.2,5101,11584,14480,0,64256,65728,6,6,4,1460,844,1,992,78,41772,38876,65700,0,8688,0,0,0
o,0x00000000,1720599944.459389,172.16.1.2,22108,172.16.3.2,5101,11584,14480,0,64256,65728,6,6,4,1460,844,1,992,78,41772,38876,65700,0,10136,0,0,0
o,0x00000000,1720599944.460676,172.16.1.2,22108,172.16.3.2,5101,11584,14480,0,64256,65728,6,6,4,1460,844,1,992,78,41772,38876,65700,0,11584,0,0,0
o,0x00000000,1720599944.462078,172.16.1.2,22108,172.16.3.2,5101,11584,14480,0,64256,65728,6,6,4,1460,844,1,992,78,41772,38876,65700,0,13032,0,0,0
i,0x00000000,1720599944.619316,172.16.1.2,22108,172.16.3.2,5101,11584,14480,0,64256,65728,6,6,4,1460,844,1,992,78,41772,41772,65700,0,14480,0,0,0
o,0x00000000,1720599944.619364,172.16.1.2,22108,172.16.3.2,5101,11584,14480,0,65728,65728,6,6,4,1460,879,1,992,80,41772,40324,65700,0,13032,0,0,0
i,0x00000000,1720599944.708384,172.16.1.2,22108,172.16.3.2,5101,11584,14480,0,65728,65728,6,6,4,1460,879,1,992,80,41772,40324,65700,0,14480,0,0,0
o,0x00000000,1720599944.708434,172.16.1.2,22108,172.16.3.2,5101,7240,11584,0,64256,65728,6,6,4,1460,878,1,536871904,72,41772,34532,65700,0,8688,0,0,0
o,0x00000000,1720599944.710186,172.16.1.2,22108,172.16.3.2,5101,7240,11584,0,64256,65728,6,6,4,1460,878,1,536871904,72,41772,34532,65700,0,10136,0,0,0
i,0x00000000,1720599944.719802,172.16.1.2,22108,172.16.3.2,5101,7240,11584,0,64256,65728,6,6,4,1460,878,1,536871904,72,41772,41772,65700,0,11584,0,0,0
o,0x00000000,1720599944.719832,172.16.1.2,22108,172.16.3.2,5101,7240,11584,0,64256,65728,6,6,4,1460,881,1,536871904,67,41772,38876,65700,0,8688,0,0,0
o,0x00000000,1720599944.720244,172.16.1.2,22108,172.16.3.2,5101,7240,11584,0,64256,65728,6,6,4,1460,881,1,536871904,67,41772,38876,65700,0,10136,0,0,0
i,0x00000000,1720599944.720738,172.16.1.2,22108,172.16.3.2,5101,7240,11584,0,64256,65728,6,6,4,1460,881,1,536871904,67,41772,38876,65700,0,11584,0,0,0
o,0x00000000,1720599944.720761,172.16.1.2,22108,172.16.3.2,5101,7240,10136,0,62848,65728,6,6,4,1460,875,1,536871904,63,41772,35980,65700,0,8688,0,0,0
i,0x00000000,1720599944.799849,172.16.1.2,22108,172.16.3.2,5101,7240,10136,0,62848,65728,6,6,4,1460,875,1,536871904,63,41772,41772,65700,0,10136,0,0,0
o,0x00000000,1720599944.799891,172.16.1.2,22108,172.16.3.2,5101,7240,10136,0,65728,65728,6,6,4,1460,902,1,536871904,67,41772,40324,65700,0,8688,0,0,0
i,0x00000000,1720599944.869005,172.16.1.2,22108,172.16.3.2,5101,7240,10136,0,65728,65728,6,6,4,1460,902,1,536871904,67,41772,40324,65700,0,10136,0,0,0
o,0x00000000,1720599944.869068,172.16.1.2,22108,172.16.3.2,5101,7240,10136,0,65728,65728,6,6,4,1460,890,1,536871904,65,41772,38876,65700,0,8688,0,0,0
i,0x00000000,1720599944.911115,172.16.1.2,22108,172.16.3.2,5101,7240,10136,0,65728,65728,6,6,4,1460,890,1,536871904,65,41772,41772,65700,0,10136,0,0,0
o,0x00000000,1720599944.911182,172.16.1.2,22108,172.16.3.2,5101,7240,10136,0,65728,65728,6,6,4,1460,859,1,992,67,41772,40324,65700,0,8688,0,0,0
i,0x00000000,1720599944.912179,172.16.1.2,22108,172.16.3.2,5101,7240,10136,0,65728,65728,6,6,4,1460,859,1,992,67,41772,40324,65700,0,10136,0,0,0
o,0x00000000,1720599944.912246,172.16.1.2,22108,172.16.3.2,5101,7240,11596,0,64256,65728,6,6,4,1460,832,1,992,68,41772,37428,65700,0,7240,0,0,0
o,0x00000000,1720599944.914764,172.16.1.2,22108,172.16.3.2,5101,7240,11596,0,64256,65728,6,6,4,1460,832,1,992,68,41772,37428,65700,0,8688,0,0,0
o,0x00000000,1720599944.915440,172.16.1.2,22108,172.16.3.2,5101,7240,11596,0,64256,65728,6,6,4,1460,832,1,992,68,41772,37428,65700,0,10136,0,0,0
i,0x00000000,1720599944.938136,172.16.1.2,22108,172.16.3.2,5101,7240,11596,0,64256,65728,6,6,4,1460,832,1,992,68,41772,41772,65700,0,11584,0,0,0
o,0x00000000,1720599944.938158,172.16.1.2,22108,172.16.3.2,5101,7240,11596,0,64256,65728,6,6,4,1460,816,1,992,66,41772,38876,65700,0,8688,0,0,0
o,0x00000000,1720599944.938719,172.16.1.2,22108,172.16.3.2,5101,7240,11596,0,64256,65728,6,6,4,1460,816,1,992,66,41772,38876,65700,0,10136,0,0,0
i,0x00000000,1720599945.088905,172.16.1.2,22108,172.16.3.2,5101,7240,11596,0,64256,65728,6,6,4,1460,816,1,992,66,41772,41772,65700,0,11584,0,0,0
o,0x00000000,1720599945.088954,172.16.1.2,22108,172.16.3.2,5101,7240,11596,0,65728,65728,6,6,4,1460,830,1,992,65,41772,40324,65700,0,10136,0,0,0
i,0x00000000,1720599945.111116,172.16.1.2,22108,172.16.3.2,5101,7240,11596,0,65728,65728,6,6,4,1460,830,1,992,65,41772,40324,65700,0,11584,0,0,0
o,0x00000000,1720599945.111155,172.16.1.2,22108,172.16.3.2,5101,7240,11596,0,65728,65728,6,6,4,1460,819,1,992,62,41772,38876,65700,0,10136,0,0,0
i,0x00000000,1720599945.111648,172.16.1.2,22108,172.16.3.2,5101,7240,11596,0,65728,65728,6,6,4,1460,819,1,992,62,41772,38876,65700,0,11584,0,0,0
o,0x00000000,1720599945.111670,172.16.1.2,22108,172.16.3.2,5101,7240,13056,0,64256,65728,6,6,4,1460,793,1,992,64,41772,35980,65700,0,8688,0,0,0
o,0x00000000,1720599945.112097,172.16.1.2,22108,172.16.3.2,5101,7240,13056,0,64256,65728,6,6,4,1460,793,1,992,64,41772,35980,65700,0,10136,0,0,0
o,0x00000000,1720599945.112510,172.16.1.2,22108,172.16.3.2,5101,7240,13056,0,64256,65728,6,6,4,1460,793,1,992,64,41772,35980,65700,0,11584,0,0,0
i,0x00000000,1720599945.112917,172.16.1.2,22108,172.16.3.2,5101,7240,13056,0,64256,65728,6,6,4,1460,793,1,992,64,41772,35980,65700,0,13032,0,0,0
o,0x00000000,1720599945.112932,172.16.1.2,22108,172.16.3.2,5101,5792,17376,0,64256,65728,6,6,4,1460,793,1,536871904,64,41772,35980,65700,0,13032,0,0,0
o,0x00000000,1720599945.113435,172.16.1.2,22108,172.16.3.2,5101,5792,17376,0,64256,65728,6,6,4,1460,793,1,536871904,64,41772,35980,65700,0,14480,0,0,0
o,0x00000000,1720599945.115803,172.16.1.2,22108,172.16.3.2,5101,5792,17376,0,64256,65728,6,6,4,1460,793,1,536871904,64,41772,35980,65700,0,15928,0,0,0
o,0x00000000,1720599945.116365,172.16.1.2,22108,172.16.3.2,5101,5792,17376,0,64256,65728,6,6,4,1460,774,1,536871904,63,41772,33084,65700,0,14480,0,0,0
o,0x00000000,1720599945.116894,172.16.1.2,22108,172.16.3.2,5101,5792,17376,0,64256,65728,6,6,4,1460,774,1,536871904,63,41772,33084,65700,0,15928,0,0,0
i,0x00000000,1720599945.138492,172.16.1.2,22108,172.16.3.2,5101,5792,17376,0,64256,65728,6,6,4,1460,774,1,536871904,63,41772,41772,65700,0,17376,0,0,0
i,0x00000000,1720599945.370092,172.16.1.2,22108,172.16.3.2,5101,5792,14480,0,64256,65728,6,6,4,1460,754,1,536871904,63,41772,41772,65700,0,14480,0,0,0
o,0x00000000,1720599945.370140,172.16.1.2,22108,172.16.3.2,5101,5792,14480,0,65728,65728,6,6,4,1460,768,1,536871904,62,41772,40324,65700,0,13032,0,0,0
i,0x00000000,1720599945.400093,172.16.1.2,22108,172.16.3.2,5101,5792,14480,0,65728,65728,6,6,4,1460,768,1,536871904,62,41772,40324,65700,0,14480,0,0,0
i,0x00000000,1720599945.400128,172.16.1.2,22108,172.16.3.2,5101,5792,11584,0,64256,65728,6,6,4,1460,788,1,536871904,63,41772,37428,65700,0,11584,0,0,0
i,0x00000000,1720599945.400132,172.16.1.2,22108,172.16.3.2,5101,5792,8688,0,64256,65728,6,6,4,1460,806,1,536871904,63,41772,34532,65700,0,8688,0,0,0
o,0x00000000,1720599945.400147,172.16.1.2,22108,172.16.3.2,5101,5792,8688,0,65728,65728,6,6,4,1460,822,1,992,63,41772,33084,65700,0,7240,0,0,0
i,0x00000000,1720599945.400720,172.16.1.2,22108,172.16.3.2,5101,5792,8688,0,65728,65728,6,6,4,1460,822,1,992,63,41772,33084,65700,0,8688,0,0,0
o,0x00000000,1720599945.400747,172.16.1.2,22108,172.16.3.2,5101,5792,10148,0,64256,65728,6,6,4,1460,836,1,992,63,41772,30188,65700,0,5792,0,0,0
o,0x00000000,1720599945.401911,172.16.1.2,22108,172.16.3.2,5101,5792,10148,0,64256,65728,6,6,4,1460,836,1,992,63,41772,30188,65700,0,7240,0,0,0
o,0x00000000,1720599945.402320,172.16.1.2,22108,172.16.3.2,5101,5792,10148,0,64256,65728,6,6,4,1460,836,1,992,63,41772,30188,65700,0,8688,0,0,0
i,0x00000000,1720599945.419211,172.16.1.2,22108,172.16.3.2,5101,5792,10148,0,64256,65728,6,6,4,1460,836,1,992,63,41772,41772,65700,0,10136,0,0,0
o,0x00000000,1720599945.419232,172.16.1.2,22108,172.16.3.2,5101,4344,13032,0,64256,65728,6,6,4,1460,836,1,536871904,63,41772,41772,65700,0,10136,0,0,0
o,0x00000000,1720599945.420411,172.16.1.2,22108,172.16.3.2,5101,4344,13032,0,64256,65728,6,6,4,1460,836,1,536871904,63,41772,41772,65700,0,11584,0,0,0
o,0x00000000,1720599945.421759,172.16.1.2,22108,172.16.3.2,5101,4344,13032,0,64256,65728,6,6,4,1460,848,1,536871904,62,41772,38876,65700,0,10136,0,0,0
o,0x00000000,1720599945.423444,172.16.1.2,22108,172.16.3.2,5101,4344,13032,0,64256,65728,6,6,4,1460,848,1,536871904,62,41772,38876,65700,0,11584,0,0,0
i,0x00000000,1720599945.618062,172.16.1.2,22108,172.16.3.2,5101,4344,13032,0,64256,65728,6,6,4,1460,848,1,536871904,62,41772,41772,65700,0,13032,0,0,0
o,0x00000000,1720599945.618088,172.16.1.2,22108,172.16.3.2,5101,4344,14480,0,64256,65728,6,6,4,1460,848,1,536871904,62,41772,41772,65700,0,13032,0,0,0
o,0x00000000,1720599945.619360,172.16.1.2,22108,172.16.3.2,5101,4344,14480,0,65728,65728,6,6,4,1460,842,1,536871904,59,41772,40324,65700,0,13032,0,0,0
i,0x00000000,1720599945.639486,172.16.1.2,22108,172.16.3.2,5101,4344,14480,0,65728,65728,6,6,4,1460,842,1,536871904,59,41772,41296,65700,0,14480,0,0,0
i,0x00000000,1720599945.639516,172.16.1.2,22108,172.16.3.2,5101,4344,10136,0,64256,65728,6,6,4,1460,833,1,536871904,58,41772,38400,65700,0,11584,0,0,0
i,0x00000000,1720599945.641465,172.16.1.2,22108,172.16.3.2,5101,4344,7240,0,64256,65728,6,6,4,1460,825,1,536871904,57,41772,41772,65700,0,8688,0,0,0
i,0x00000000,1720599945.657455,172.16.1.2,22108,172.16.3.2,5101,4344,7240,0,65728,65728,6,6,4,1460,810,1,992,57,41772,40324,65700,0,7240,0,0,0
o,0x00000000,1720599945.657488,172.16.1.2,22108,172.16.3.2,5101,4344,8700,0,64256,65728,6,6,4,1460,805,1,992,55,41772,37428,65700,0,4344,0,0,0
o,0x00000000,1720599945.658906,172.16.1.2,22108,172.16.3.2,5101,4344,8700,0,64256,65728,6,6,4,1460,805,1,992,55,41772,37428,65700,0,5792,0,0,0
o,0x00000000,1720599945.660208,172.16.1.2,22108,172.16.3.2,5101,4344,8700,0,64256,65728,6,6,4,1460,805,1,992,55,41772,37428,65700,0,7240,0,0,0
i,0x00000000,1720599945.744315,172.16.1.2,22108,172.16.3.2,5101,4344,8700,0,64256,65728,6,6,4,1460,805,1,992,55,41772,41772,65700,0,8688,0,0,0
o,0x00000000,1720599945.744357,172.16.1.2,22108,172.16.3.2,5101,4344,8700,0,65728,65728,6,6,4,1460,833,1,992,61,41772,40324,65700,0,7240,0,0,0
i,0x00000000,1720599945.769122,172.16.1.2,22108,172.16.3.2,5101,4344,8700,0,65728,65728,6,6,4,1460,833,1,992,61,41772,40324,65700,0,8688,0,0,0
o,0x00000000,1720599945.769169,172.16.1.2,22108,172.16.3.2,5101,4344,8700,0,64256,65728,6,6,4,1460,789,1,992,67,41772,37428,65700,0,5792,0,0,0
o,0x00000000,1720599945.770738,172.16.1.2,22108,172.16.3.2,5101,4344,8700,0,64256,65728,6,6,4,1460,789,1,992,67,41772,37428,65700,0,7240,0,0,0
i,0x00000000,1720599945.829211,172.16.1.2,22108,172.16.3.2,5101,4344,8700,0,64256,65728,6,6,4,1460,789,1,992,67,41772,41772,65700,0,8688,0,0,0
o,0x00000000,1720599945.829272,172.16.1.2,22108,172.16.3.2,5101,4344,10160,0,64256,65728,6,6,4,1460,759,1,992,68,41772,38876,65700,0,5792,0,0,0
o,0x00000000,1720599945.831217,172.16.1.2,22108,172.16.3.2,5101,4344,10160,0,64256,65728,6,6,4,1460,759,1,992,68,41772,38876,65700,0,7240,0,0,0
o,0x00000000,1720599945.832740,172.16.1.2,22108,172.16.3.2,5101,4344,10160,0,64256,65728,6,6,4,1460,759,1,992,68,41772,38876,65700,0,8688,0,0,0
i,0x00000000,1720599945.887978,172.16.1.2,22108,172.16.3.2,5101,4344,10160,0,64256,65728,6,6,4,1460,759,1,992,68,41772,41772,65700,0,10136,0,0,0
o,0x00000000,1720599945.888032,172.16.1.2,22108,172.16.3.2,5101,4344,10160,0,65728,65728,6,6,4,1460,757,1,992,62,41772,40324,65700,0,8688,0,0,0
i,0x00000000,1720599945.899993,172.16.1.2,22108,172.16.3.2,5101,4344,10160,0,65728,65728,6,6,4,1460,757,1,992,62,41772,40324,65700,0,10136,0,0,0
o,0x00000000,1720599945.900031,172.16.1.2,22108,172.16.3.2,5101,4344,10160,0,64256,65728,6,6,4,1460,723,1,992,65,41772,37428,65700,0,7240,0,0,0
o,0x00000000,1720599945.901391,172.16.1.2,22108,172.16.3.2,5101,4344,10160,0,64256,65728,6,6,4,1460,723,1,992,65,41772,37428,65700,0,8688,0,0,0
i,0x00000000,1720599945.969694,172.16.1.2,22108,172.16.3.2,5101,4344,10160,0,64256,65728,6,6,4,1460,723,1,992,65,41772,41772,65700,0,10136,0,0,0
o,0x00000000,1720599945.969734,172.16.1.2,22108,172.16.3.2,5101,4344,10160,0,65728,65728,6,6,4,1460,713,1,992,62,41772,40324,65700,0,8688,0,0,0
i,0x00000000,1720599945.999076,172.16.1.2,22108,172.16.3.2,5101,4344,10160,0,65728,65728,6,6,4,1460,713,1,992,62,41772,40324,65700,0,10136,0,0,0
o,0x00000000,1720599945.999103,172.16.1.2,22108,172.16.3.2,5101,4344,11620,0,64256,65728,6,6,4,1460,692,1,992,61,41772,37428,65700,0,7240,0,0,0
o,0x00000000,1720599946.001131,172.16.1.2,22108,172.16.3.2,5101,4344,11620,0,64256,65728,6,6,4,1460,692,1,992,61,41772,37428,65700,0,8688,0,0,0
o,0x00000000,1720599946.003220,172.16.1.2,22108,172.16.3.2,5101,4344,11620,0,64256,65728,6,6,4,1460,692,1,992,61,41772,37428,65700,0,10136,0,0,0
i,0x00000000,1720599946.029014,172.16.1.2,22108,172.16.3.2,5101,4344,11620,0,64256,65728,6,6,4,1460,692,1,992,61,41772,41772,65700,0,11584,0,0,0
o,0x00000000,1720599946.029053,172.16.1.2,22108,172.16.3.2,5101,4344,11620,0,65728,65728,6,6,4,1460,682,1,992,59,41772,40324,65700,0,10136,0,0,0
i,0x00000000,1720599946.055909,172.16.1.2,22108,172.16.3.2,5101,4344,11620,0,65728,65728,6,6,4,1460,682,1,992,59,41772,40324,65700,0,11584,0,0,0
o,0x00000000,1720599946.055944,172.16.1.2,22108,172.16.3.2,5101,4344,11620,0,64256,65728,6,6,4,1460,665,1,992,58,41772,37428,65700,0,8688,0,0,0
o,0x00000000,1720599946.056433,172.16.1.2,22108,172.16.3.2,5101,4344,11620,0,64256,65728,6,6,4,1460,665,1,992,58,41772,37428,65700,0,10136,0,0,0
i,0x00000000,1720599946.162737,172.16.1.2,22108,172.16.3.2,5101,4344,11620,0,64256,65728,6,6,4,1460,665,1,992,58,41772,41772,65700,0,11584,0,0,0
o,0x00000000,1720599946.162788,172.16.1.2,22108,172.16.3.2,5101,4344,11620,0,65728,65728,6,6,4,1460,682,1,992,59,41772,40324,65700,0,10136,0,0,0
i,0x00000000,1720599946.177622,172.16.1.2,22108,172.16.3.2,5101,4344,11620,0,65728,65728,6,6,4,1460,682,1,992,59,41772,40324,65700,0,11584,0,0,0
o,0x00000000,1720599946.177664,172.16.1.2,22108,172.16.3.2,5101,4344,11620,0,65728,65728,6,6,4,1460,681,1,992,55,41772,38876,65700,0,10136,0,0,0
i,0x00000000,1720599946.179032,172.16.1.2,22108,172.16.3.2,5101,4344,11620,0,65728,65728,6,6,4,1460,681,1,992,55,41772,38876,65700,0,11584,0,0,0
o,0x00000000,1720599946.179061,172.16.1.2,22108,172.16.3.2,5101,4344,11620,0,64256,65728,6,6,4,1460,668,1,992,54,41772,35980,65700,0,8688,0,0,0
o,0x00000000,1720599946.180974,172.16.1.2,22108,172.16.3.2,5101,4344,11620,0,64256,65728,6,6,4,1460,668,1,992,54,41772,35980,65700,0,10136,0,0,0
i,0x00000000,1720599946.197950,172.16.1.2,22108,172.16.3.2,5101,4344,11620,0,64256,65728,6,6,4,1460,668,1,992,54,41772,41772,65700,0,11584,0,0,0
o,0x00000000,1720599946.197982,172.16.1.2,22108,172.16.3.2,5101,5792,21720,0,64256,65728,6,6,4,1460,668,1,536871904,54,41772,41772,65700,0,11584,0,0,0
o,0x00000000,1720599946.199553,172.16.1.2,22108,172.16.3.2,5101,5792,21720,0,64256,65728,6,6,4,1460,668,1,536871904,54,41772,41772,65700,0,13032,0,0,0
o,0x00000000,1720599946.201055,172.16.1.2,22108,172.16.3.2,5101,5792,21720,0,64256,65728,6,6,4,1460,668,1,536871904,54,41772,41772,65700,0,14480,0,0,0
o,0x00000000,1720599946.202786,172.16.1.2,22108,172.16.3.2,5101,5792,21720,0,64256,65728,6,6,4,1460,668,1,536871904,54,41772,41772,65700,0,15928,0,0,0
o,0x00000000,1720599946.205314,172.16.1.2,22108,172.16.3.2,5101,5792,21720,0,64256,65728,6,6,4,1460,668,1,536871904,54,41772,41772,65700,0,17376,0,0,0
o,0x00000000,1720599946.206773,172.16.1.2,22108,172.16.3.2,5101,5792,21720,0,64256,65728,6,6,4,1460,668,1,536871904,54,41772,41772,65700,0,18824,0,0,0
o,0x00000000,1720599946.208137,172.16.1.2,22108,172.16.3.2,5101,5792,21720,0,64256,65728,6,6,4,1460,668,1,536871904,54,49964,41772,65700,0,20272,0,0,0
o,0x00000000,1720599946.209449,172.16.1.2,22108,172.16.3.2,5101,5792,21720,0,64256,65728,6,6,4,1460,665,1,536871904,52,49964,38876,65700,0,18824,0,0,0
o,0x00000000,1720599946.210627,172.16.1.2,22108,172.16.3.2,5101,5792,21720,0,64256,65728,6,6,4,1460,665,1,536871904,52,49964,38876,65700,0,20272,0,0,0
i,0x00000000,1720599946.251508,172.16.1.2,22108,172.16.3.2,5101,5792,21720,0,64256,65728,6,6,4,1460,665,1,536871904,52,49964,49964,65700,0,21720,0,0,0
i,0x00000000,1720599946.497679,172.16.1.2,22108,172.16.3.2,5101,5792,18824,0,64256,65728,6,6,4,1460,658,1,536871904,50,49964,49964,65700,0,18824,0,0,0
o,0x00000000,1720599946.497693,172.16.1.2,22108,172.16.3.2,5101,5792,18824,0,65728,65728,6,6,4,1460,712,1,536871904,63,49964,48516,65700,0,17376,0,0,0
i,0x00000000,1720599946.516781,172.16.1.2,22108,172.16.3.2,5101,5792,18824,0,65728,65728,6,6,4,1460,712,1,536871904,63,49964,48516,65700,0,18824,0,0,0
o,0x00000000,1720599946.516800,172.16.1.2,22108,172.16.3.2,5101,5792,18824,0,65728,65728,6,6,4,1460,759,1,536871904,71,49964,47068,65700,0,17376,0,0,0
i,0x00000000,1720599946.516902,172.16.1.2,22108,172.16.3.2,5101,5792,18824,0,65728,65728,6,6,4,1460,759,1,536871904,71,49964,47068,65700,0,18824,0,0,0
i,0x00000000,1720599946.516906,172.16.1.2,22108,172.16.3.2,5101,5792,14480,0,64256,65728,6,6,4,1460,801,1,536871904,76,49964,44172,65700,0,15928,0,0,0
i,0x00000000,1720599946.517168,172.16.1.2,22108,172.16.3.2,5101,5792,14480,0,65728,65728,6,6,4,1460,829,1,992,76,49964,42724,65700,0,14480,0,0,0
o,0x00000000,1720599946.517173,172.16.1.2,22108,172.16.3.2,5101,5792,15940,0,64256,65728,6,6,4,1460,854,1,992,76,49964,39828,65700,0,11584,0,0,0
o,0x00000000,1720599946.517268,172.16.1.2,22108,172.16.3.2,5101,5792,15940,0,64256,65728,6,6,4,1460,854,1,992,76,49964,39828,65700,0,13032,0,0,0
o,0x00000000,1720599946.517359,172.16.1.2,22108,172.16.3.2,5101,5792,15940,0,64256,65728,6,6,4,1460,854,1,992,76,49964,39828,65700,0,14480,0,0,0
i,0x00000000,1720599946.517461,172.16.1.2,22108,172.16.3.2,5101,5792,15940,0,64256,65728,6,6,4,1460,854,1,992,76,49964,39828,65700,0,15928,0,0,0
o,0x00000000,1720599946.517464,172.16.1.2,22108,172.16.3.2,5101,7240,33304,0,64256,65728,6,6,4,1460,854,1,536871904,76,49964,39828,65700,0,15928,0,0,0
o,0x00000000,1720599946.517561,172.16.1.2,22108,172.16.3.2,5101,7240,33304,0,64256,65728,6,6,4,1460,854,1,536871904,76,49964,39828,65700,0,17376,0,0,0
o,0x00000000,1720599946.517642,172.16.1.2,22108,172.16.3.2,5101,7240,33304,0,64256,65728,6,6,4,1460,854,1,536871904,76,49964,39828,65700,0,18824,0,0,0
o,0x00000000,1720599946.517718,172.16.1.2,22108,172.16.3.2,5101,7240,33304,0,64256,65728,6,6,4,1460,854,1,536871904,76,49964,39828,65700,0,20272,0,0,0
o,0x00000000,1720599946.517795,172.16.1.2,22108,172.16.3.2,5101,7240,33304,0,64256,65728,6,6,4,1460,854,1,536871904,76,49964,39828,65700,0,21720,0,0,0
o,0x00000000,1720599946.517871,172.16.1.2,22108,172.16.3.2,5101,7240,33304,0,64256,65728,6,6,4,1460,854,1,536871904,76,49964,39828,65700,0,23168,0,0,0
o,0x00000000,1720599946.517947,172.16.1.2,22108,172.16.3.2,5101,7240,33304,0,64256,65728,6,6,4,1460,854,1,536871904,76,49964,39828,65700,0,24616,0,0,0
o,0x00000000,1720599946.518023,172.16.1.2,22108,172.16.3.2,5101,7240,33304,0,64256,65728,6,6,4,1460,854,1,536871904,76,49964,39828,65700,0,26064,0,0,0
o,0x00000000,1720599946.518099,172.16.1.2,22108,172.16.3.2,5101,7240,33304,0,64256,65728,6,6,4,1460,854,1,536871904,76,49964,39828,65700,0,27512,0,0,0
o,0x00000000,1720599946.518174,172.16.1.2,22108,172.16.3.2,5101,7240,33304,0,64256,65728,6,6,4,1460,854,1,536871904,76,49964,39828,65700,0,28960,0,0,0
o,0x00000000,1720599946.518250,172.16.1.2,22108,172.16.3.2,5101,7240,33304,0,64256,65728,6,6,4,1460,854,1,536871904,76,49964,39828,65700,0,30408,0,0,0
o,0x00000000,1720599946.518325,172.16.1.2,22108,172.16.3.2,5101,7240,33304,0,64256,65728,6,6,4,1460,854,1,536871904,76,49964,39828,65700,0,31856,0,0,0
o,0x00000000,1720599946.518401,172.16.1.2,22108,172.16.3.2,5101,7240,33304,0,64256,65728,6,6,4,1460,876,1,536871904,75,49964,36932,65700,0,30408,0,0,0
o,0x00000000,1720599946.518477,172.16.1.2,22108,172.16.3.2,5101,7240,33304,0,64256,65728,6,6,4,1460,876,1,536871904,75,49964,36932,65700,0,31856,0,0,0
i,0x00000000,1720599946.518769,172.16.1.2,22108,172.16.3.2,5101,7240,33304,0,64256,65728,6,6,4,1460,876,1,536871904,75,49964,36932,65700,0,33304,0,0,0
i,0x00000000,1720599946.558055,172.16.1.2,22108,172.16.3.2,5101,7240,30408,0,64256,65728,6,6,4,1460,891,1,536871904,72,66348,66348,65700,0,30408,0,0,0
o,0x00000000,1720599946.558096,172.16.1.2,22108,172.16.3.2,5101,7240,28960,0,64256,65728,6,6,4,1460,920,1,536871904,74,66348,63452,65700,0,27512,0,0,0
i,0x00000000,1720599947.048170,172.16.1.2,22108,172.16.3.2,5101,7240,28960,0,64256,65728,6,6,4,1460,920,1,536871904,74,66348,66348,65700,0,28960,0,0,0
o,0x00000000,1720599947.048214,172.16.1.2,22108,172.16.3.2,5101,7240,27512,0,64256,65728,6,6,4,1460,1025,1,536871904,97,66348,63452,65700,0,26064,0,0,0
i,0x00000000,1720599947.048693,172.16.1.2,22108,172.16.3.2,5101,7240,27512,0,64256,65728,6,6,4,1460,1025,1,536871904,97,66348,63452,65700,0,27512,0,0,0
i,0x00000000,1720599947.048709,172.16.1.2,22108,172.16.3.2,5101,7240,24616,0,64256,65728,6,6,4,1460,1109,1,536871904,110,66348,60556,65700,0,24616,0,0,0
o,0x00000000,1720599947.048720,172.16.1.2,22108,172.16.3.2,5101,11584,40544,0,64256,65728,6,6,4,1460,1109,1,536871904,110,74540,60556,65700,0,24616,0,0,0
o,0x00000000,1720599947.049145,172.16.1.2,22108,172.16.3.2,5101,11584,40544,0,64256,65728,6,6,4,1460,1109,1,536871904,110,74540,60556,65700,0,26064,0,0,0
o,0x00000000,1720599947.049584,172.16.1.2,22108,172.16.3.2,5101,11584,40544,0,64256,65728,6,6,4,1460,1109,1,536871904,110,74540,60556,65700,0,27512,0,0,0
o,0x00000000,1720599947.050012,172.16.1.2,22108,172.16.3.2,5101,11584,40544,0,64256,65728,6,6,4,1460,1109,1,536871904,110,74540,60556,65700,0,28960,0,0,0
o,0x00000000,1720599947.050433,172.16.1.2,22108,172.16.3.2,5101,11584,40544,0,64256,65728,6,6,4,1460,1109,1,536871904,110,74540,60556,65700,0,30408,0,0,0
o,0x00000000,1720599947.050858,172.16.1.2,22108,172.16.3.2,5101,11584,40544,0,64256,65728,6,6,4,1460,1109,1,536871904,110,74540,60556,65700,0,31856,0,0,0
o,0x00000000,1720599947.051295,172.16.1.2,22108,172.16.3.2,5101,11584,40544,0,64256,65728,6,6,4,1460,1109,1,536871904,110,74540,60556,65700,0,33304,0,0,0
o,0x00000000,1720599947.051729,172.16.1.2,22108,172.16.3.2,5101,11584,40544,0,64256,65728,6,6,4,1460,1109,1,536871904,110,74540,60556,65700,0,34752,0,0,0
o,0x00000000,1720599947.052152,172.16.1.2,22108,172.16.3.2,5101,11584,40544,0,64256,65728,6,6,4,1460,1109,1,536871904,110,74540,60556,65700,0,36200,0,0,0
o,0x00000000,1720599947.052589,172.16.1.2,22108,172.16.3.2,5101,11584,40544,0,64256,65728,6,6,4,1460,1109,1,536871904,110,74540,60556,65700,0,37648,0,0,0
o,0x00000000,1720599947.053031,172.16.1.2,22108,172.16.3.2,5101,11584,40544,0,64256,65728,6,6,4,1460,1109,1,536871904,110,74540,60556,65700,0,39096,0,0,0
o,0x00000000,1720599947.053473,172.16.1.2,22108,172.16.3.2,5101,11584,40544,0,64256,65728,6,6,4,1460,1183,1,536871904,117,74540,57660,65700,0,37648,0,0,0
o,0x00000000,1720599947.054881,172.16.1.2,22108,172.16.3.2,5101,11584,40544,0,64256,65728,6,6,4,1460,1183,1,536871904,117,74540,57660,65700,0,39096,0,0,0
i,0x00000000,1720599947.055504,172.16.1.2,22108,172.16.3.2,5101,11584,40544,0,64256,65728,6,6,4,1460,1183,1,536871904,117,74540,57660,65700,0,40544,0,0,0
o,0x00000000,1720599947.055534,172.16.1.2,22108,172.16.3.2,5101,11584,39096,0,64256,65728,6,6,4,1460,1248,1,536871904,120,74540,54764,65700,0,37648,0,0,0
i,0x00000000,1720599947.056749,172.16.1.2,22108,172.16.3.2,5101,11584,39096,0,64256,65728,6,6,4,1460,1248,1,536871904,120,74540,54764,65700,0,39096,0,0,0
o,0x00000000,1720599947.056771,172.16.1.2,22108,172.16.3.2,5101,11584,37648,0,64256,65728,6,6,4,1460,1304,1,536871904,121,74540,51868,65700,0,36200,0,0,0
i,0x00000000,1720599947.057197,172.16.1.2,22108,172.16.3.2,5101,11584,37648,0,64256,65728,6,6,4,1460,1304,1,536871904,121,74540,51868,65700,0,37648,0,0,0
o,0x00000000,1720599947.057216,172.16.1.2,22108,172.16.3.2,5101,11584,36200,0,64256,65728,6,6,4,1460,1353,1,536871904,119,74540,48972,65700,0,34752,0,0,0
i,0x00000000,1720599947.057624,172.16.1.2,22108,172.16.3.2,5101,11584,36200,0,64256,65728,6,6,4,1460,1353,1,536871904,119,74540,48972,65700,0,36200,0,0,0
o,0x00000000,1720599947.057641,172.16.1.2,22108,172.16.3.2,5101,11584,34752,0,64256,65728,6,6,4,1460,1396,1,536871904,117,74540,46076,65700,0,33304,0,0,0
i,0x00000000,1720599947.058048,172.16.1.2,22108,172.16.3.2,5101,11584,34752,0,64256,65728,6,6,4,1460,1396,1,536871904,117,74540,46076,65700,0,34752,0,0,0
o,0x00000000,1720599947.058066,172.16.1.2,22108,172.16.3.2,5101,11584,33304,0,64256,65728,6,6,4,1460,1434,1,536871904,114,74540,43180,65700,0,31856,0,0,0
i,0x00000000,1720599947.058515,172.16.1.2,22108,172.16.3.2,5101,11584,33304,0,64256,65728,6,6,4,1460,1434,1,536871904,114,74540,43180,65700,0,33304,0,0,0
o,0x00000000,1720599947.058536,172.16.1.2,22108,172.16.3.2,5101,11584,31856,0,64256,65728,6,6,4,1460,1467,1,536871904,111,74540,40284,65700,0,30408,0,0,0
i,0x00000000,1720599947.075581,172.16.1.2,22108,172.16.3.2,5101,11584,31856,0,64256,65728,6,6,4,1460,1467,1,536871904,111,74540,74540,65700,0,31856,0,0,0
o,0x00000000,1720599947.075595,172.16.1.2,22108,172.16.3.2,5101,11584,30408,0,64256,65728,6,6,4,1460,1504,1,536871904,110,74540,71644,65700,0,28960,0,0,0
i,0x00000000,1720599947.599554,172.16.1.2,22108,172.16.3.2,5101,11584,30408,0,64256,65728,6,6,4,1460,1504,1,536871904,110,74540,74540,65700,0,30408,0,0,0
o,0x00000000,1720599947.599586,172.16.1.2,22108,172.16.3.2,5101,11584,30408,0,64256,65728,6,6,4,1460,1536,1,992,109,74540,71644,65700,0,27512,0,0,0
o,0x00000000,1720599947.599966,172.16.1.2,22108,172.16.3.2,5101,11584,30408,0,64256,65728,6,6,4,1460,1536,1,992,109,74540,71644,65700,0,28960,0,0,0
i,0x00000000,1720599947.600298,172.16.1.2,22108,172.16.3.2,5101,11584,30408,0,64256,65728,6,6,4,1460,1536,1,992,109,74540,71644,65700,0,30408,0,0,0
o,0x00000000,1720599947.600311,172.16.1.2,22108,172.16.3.2,5101,14480,94120,0,64256,65728,6,6,4,1460,1536,1,536871904,109,82732,71644,65700,0,30408,0,0,0
o,0x00000000,1720599947.600641,172.16.1.2,22108,172.16.3.2,5101,14480,94120,0,64256,65728,6,6,4,1460,1536,1,536871904,109,82732,71644,65700,0,31856,0,0,0
o,0x00000000,1720599947.600984,172.16.1.2,22108,172.16.3.2,5101,14480,94120,0,64256,65728,6,6,4,1460,1536,1,536871904,109,82732,71644,65700,0,33304,0,0,0
o,0x00000000,1720599947.601317,172.16.1.2,22108,172.16.3.2,5101,14480,94120,0,64256,65728,6,6,4,1460,1536,1,536871904,109,82732,71644,65700,0,34752,0,0,0
o,0x00000000,1720599947.601644,172.16.1.2,22108,172.16.3.2,5101,14480,94120,0,64256,65728,6,6,4,1460,1536,1,536871904,109,82732,71644,65700,0,36200,0,0,0
o,0x00000000,1720599947.601985,172.16.1.2,22108,172.16.3.2,5101,14480,94120,0,64256,65728,6,6,4,1460,1536,1,536871904,109,82732,71644,65700,0,37648,0,0,0
o,0x00000000,1720599947.602320,172.16.1.2,22108,172.16.3.2,5101,14480,94120,0,64256,65728,6,6,4,1460,1536,1,536871904,109,82732,71644,65700,0,39096,0,0,0
o,0x00000000,1720599947.602638,172.16.1.2,22108,172.16.3.2,5101,14480,94120,0,64256,65728,6,6,4,1460,1536,1,536871904,109,82732,71644,65700,0,40544,0,0,0
o,0x00000000,1720599947.602964,172.16.1.2,22108,172.16.3.2,5101,14480,94120,0,64256,65728,6,6,4,1460,1536,1,536871904,109,82732,71644,65700,0,41992,0,0,0
o,0x00000000,1720599947.603290,172.16.1.2,22108,172.16.3.2,5101,14480,94120,0,64256,65728,6,6,4,1460,1536,1,536871904,109,82732,71644,65700,0,43440,0,0,0
o,0x00000000,1720599947.603660,172.16.1.2,22108,172.16.3.2,5101,14480,94120,0,64256,65728,6,6,4,1460,1536,1,536871904,109,82732,71644,65700,0,44888,0,0,0
o,0x00000000,1720599947.604799,172.16.1.2,22108,172.16.3.2,5101,14480,94120,0,64256,65728,6,6,4,1460,1536,1,536871904,109,82732,71644,65700,0,46336,0,0,0
o,0x00000000,1720599947.605263,172.16.1.2,22108,172.16.3.2,5101,14480,94120,0,64256,65728,6,6,4,1460,1536,1,536871904,109,82732,71644,65700,0,47784,0,0,0
o,0x00000000,1720599947.606081,172.16.1.2,22108,172.16.3.2,5101,14480,94120,0,64256,65728,6,6,4,1460,1536,1,536871904,109,82732,71644,65700,0,49232,0,0,0
o,0x00000000,1720599947.606376,172.16.1.2,22108,172.16.3.2,5101,14480,94120,0,64256,65728,6,6,4,1460,1536,1,536871904,109,82732,71644,65700,0,50680,0,0,0
o,0x00000000,1720599947.606666,172.16.1.2,22108,172.16.3.2,5101,14480,94120,0,64256,65728,6,6,4,1460,1536,1,536871904,109,82732,71644,65700,0,52128,0,0,0
o,0x00000000,1720599947.606963,172.16.1.2,22108,172.16.3.2,5101,14480,94120,0,64256,65728,6,6,4,1460,1536,1,536871904,109,82732,71644,65700,0,53576,0,0,0
o,0x00000000,1720599947.607238,172.16.1.2,22108,172.16.3.2,5101,14480,94120,0,64256,65728,6,6,4,1460,1536,1,536871904,109,82732,71644,65700,0,55024,0,0,0
o,0x00000000,1720599947.607531,172.16.1.2,22108,172.16.3.2,5101,14480,94120,0,64256,65728,6,6,4,1460,1536,1,536871904,109,82732,71644,65700,0,56472,0,0,0
o,0x00000000,1720599947.607798,172.16.1.2,22108,172.16.3.2,5101,14480,94120,0,64256,65728,6,6,4,1460,1536,1,536871904,109,82732,71644,65700,0,57920,0,0,0
o,0x00000000,1720599947.608067,172.16.1.2,22108,172.16.3.2,5101,14480,94120,0,64256,65728,6,6,4,1460,1536,1,536871904,109,82732,71644,65700,0,59368,0,0,0
o,0x00000000,1720599947.608330,172.16.1.2,22108,172.16.3.2,5101,14480,94120,0,64256,65728,6,6,4,1460,1536,1,536871904,109,82732,71644,65700,0,60816,0,0,0
o,0x00000000,1720599947.608616,172.16.1.2,22108,172.16.3.2,5101,14480,94120,0,64256,65728,6,6,4,1460,1536,1,536871904,109,82732,71644,65700,0,62264,0,0,0
o,0x00000000,1720599947.608928,172.16.1.2,22108,172.16.3.2,5101,14480,94120,0,64256,65728,6,6,4,1460,1564,1,536871904,106,82732,68748,65700,0,60816,0,0,0
o,0x00000000,1720599947.609196,172.16.1.2,22108,172.16.3.2,5101,14480,94120,0,64256,65728,6,6,4,1460,1564,1,536871904,106,82732,68748,65700,0,62264,0,0,0
i,0x00000000,1720599947.609474,172.16.1.2,22108,172.16.3.2,5101,14480,94120,0,64256,65728,6,6,4,1460,1564,1,536871904,106,82732,68748,65700,0,63712,0,0,0
o,0x00000000,1720599947.609489,172.16.1.2,22108,172.16.3.2,5101,14480,94120,0,64256,65728,6,6,4,1460,1589,1,536871904,104,82732,65852,65700,0,60816,0,0,0
o,0x00000000,1720599947.609765,172.16.1.2,22108,172.16.3.2,5101,14480,94120,0,64256,65728,6,6,4,1460,1589,1,536871904,104,82732,65852,65700,0,62264,0,0,0
i,0x00000000,1720599947.610057,172.16.1.2,22108,172.16.3.2,5101,14480,94120,0,64256,65728,6,6,4,1460,1589,1,536871904,104,82732,65852,65700,0,63712,0,0,0
o,0x00000000,1720599947.610073,172.16.1.2,22108,172.16.3.2,5101,14480,92672,0,64256,65728,6,6,4,1460,1611,1,536871904,102,82732,62956,65700,0,60816,0,0,0
i,0x00000000,1720599947.610377,172.16.1.2,22108,172.16.3.2,5101,14480,92672,0,64256,65728,6,6,4,1460,1611,1,536871904,102,82732,62956,65700,0,62264,0,0,0
i,0x00000000,1720599947.610386,172.16.1.2,22108,172.16.3.2,5101,14480,91224,0,64256,65728,6,6,4,1460,1630,1,536871904,99,82732,60060,65700,0,59368,0,0,0
i,0x00000000,1720599947.611204,172.16.1.2,22108,172.16.3.2,5101,14480,89776,0,64256,65728,6,6,4,1460,1647,1,536871904,97,82732,57164,65700,0,56472,0,0,0
i,0x00000000,1720599947.611214,172.16.1.2,22108,172.16.3.2,5101,14480,89776,0,64256,65728,6,6,4,1460,1662,1,536871904,95,82732,54268,65700,0,53576,0,0,0
i,0x00000000,1720599947.611217,172.16.1.2,22108,172.16.3.2,5101,14480,88328,0,64256,65728,6,6,4,1460,1675,1,536871904,93,82732,51372,65700,0,50680,0,0,0
o,0x00000000,1720599947.611830,172.16.1.2,22108,172.16.3.2,5101,14480,86880,0,64256,65728,6,6,4,1460,1686,1,536871904,91,82732,56528,65700,0,47784,0,0,0
o,0x00000000,1720599947.612915,172.16.1.2,22108,172.16.3.2,5101,14480,86880,0,64256,65728,6,6,4,1460,1686,1,536871904,91,82732,56528,65700,0,49232,0,0,0
o,0x00000000,1720599947.613343,172.16.1.2,22108,172.16.3.2,5101,14480,86880,0,64256,65728,6,6,4,1460,1686,1,536871904,91,82732,56528,65700,0,50680,0,0,0
o,0x00000000,1720599947.614480,172.16.1.2,22108,172.16.3.2,5101,14480,86880,0,64256,65728,6,6,4,1460,1686,1,536871904,91,82732,56528,65700,0,52128,0,0,0
o,0x00000000,1720599947.615330,172.16.1.2,22108,172.16.3.2,5101,14480,86880,0,64256,65728,6,6,4,1460,1686,1,536871904,91,82732,56528,65700,0,53576,0,0,0
o,0x00000000,1720599947.616117,172.16.1.2,22108,172.16.3.2,5101,14480,86880,0,64256,65728,6,6,4,1460,1686,1,536871904,91,82732,56528,65700,0,55024,0,0,0
o,0x00000000,1720599947.617034,172.16.1.2,22108,172.16.3.2,5101,14480,86880,0,64256,65728,6,6,4,1460,1686,1,536871904,91,82732,82732,65700,0,56472,0,0,0
o,0x00000000,1720599947.617942,172.16.1.2,22108,172.16.3.2,5101,14480,86880,0,64256,65728,6,6,4,1460,1686,1,536871904,91,82732,82732,65700,0,57920,0,0,0
o,0x00000000,1720599947.618703,172.16.1.2,22108,172.16.3.2,5101,14480,86880,0,64256,65728,6,6,4,1460,1686,1,536871904,91,82732,82732,65700,0,59368,0,0,0
o,0x00000000,1720599947.619475,172.16.1.2,22108,172.16.3.2,5101,14480,86880,0,64256,65728,6,6,4,1460,1686,1,536871904,91,82732,82732,65700,0,60816,0,0,0
o,0x00000000,1720599947.620781,172.16.1.2,22108,172.16.3.2,5101,14480,86880,0,64256,65728,6,6,4,1460,1686,1,536871904,91,82732,82732,65700,0,62264,0,0,0
i,0x00000000,1720599947.626969,172.16.1.2,22108,172.16.3.2,5101,14480,86880,0,64256,65728,6,6,4,1460,1686,1,536871904,91,82732,82732,65700,0,63712,0,0,0
o,0x00000000,1720599947.626988,172.16.1.2,22108,172.16.3.2,5101,14480,85432,0,64256,65728,6,6,4,1460,1704,1,536871904,91,82732,79836,65700,0,60816,0,0,0
o,0x00000000,1720599947.627843,172.16.1.2,22108,172.16.3.2,5101,14480,85432,0,64256,65728,6,6,4,1460,1704,1,536871904,91,82732,79836,65700,0,62264,0,0,0
o,0x00000000,1720599948.537121,172.16.1.2,22108,172.16.3.2,5101,31856,1448,0,64256,65728,6,6,4,1460,1704,1,1073751009,162,82732,82732,65700,0,63712,0,0,0
i,0x00000000,1720599948.676916,172.16.1.2,22108,172.16.3.2,5101,31856,1448,0,64256,65728,6,6,4,1460,1704,1,1073751008,162,82732,82732,65700,0,63712,0,0,0
o,0x00000000,1720599948.676930,172.16.1.2,22108,172.16.3.2,5101,14480,85432,0,64256,65728,6,6,4,1460,1919,1,1073742816,147,82732,74044,65700,0,55024,0,0,0
o,0x00000000,1720599948.677335,172.16.1.2,22108,172.16.3.2,5101,14480,85432,0,64256,65728,6,6,4,1460,1919,1,1073742816,147,82732,74044,65700,0,56472,0,0,0
o,0x00000000,1720599948.677416,172.16.1.2,22108,172.16.3.2,5101,14480,85432,0,64256,65728,6,6,4,1460,1919,1,1073742816,147,82732,74044,65700,0,57920,0,0,0
o,0x00000000,1720599948.677624,172.16.1.2,22108,172.16.3.2,5101,14480,85432,0,64256,65728,6,6,4,1460,1919,1,1073742816,147,82732,74044,65700,0,59368,0,0,0
o,0x00000000,1720599948.677896,172.16.1.2,22108,172.16.3.2,5101,14480,85432,0,64256,65728,6,6,4,1460,1919,1,1073742816,147,82732,74044,65700,0,60816,0,0,0
o,0x00000000,1720599948.678202,172.16.1.2,22108,172.16.3.2,5101,14480,85432,0,64256,65728,6,6,4,1460,1919,1,1073742816,147,82732,74044,65700,0,62264,0,0,0
i,0x00000000,1720599948.678576,172.16.1.2,22108,172.16.3.2,5101,14480,85432,0,64256,65728,6,6,4,1460,1919,1,1073742816,147,82732,74044,65700,0,63712,0,0,0
o,0x00000000,1720599948.678592,172.16.1.2,22108,172.16.3.2,5101,41992,309872,0,64256,65728,6,6,4,1460,2108,1,1610613728,184,82732,71148,65700,0,60816,0,0,0
o,0x00000000,1720599948.678955,172.16.1.2,22108,172.16.3.2,5101,41992,309872,0,64256,65728,6,6,4,1460,2108,1,1610613728,184,82732,71148,65700,0,62264,0,0,0
i,0x00000000,1720599948.679330,172.16.1.2,22108,172.16.3.2,5101,41992,309872,0,64256,65728,6,6,4,1460,2108,1,1610613728,184,82732,71148,65700,0,63712,0,0,0
o,0x00000000,1720599948.679346,172.16.1.2,22108,172.16.3.2,5101,41992,311320,0,64256,65728,6,6,4,1460,2273,1,1610613728,206,82732,68252,65700,0,60816,0,0,0
o,0x00000000,1720599948.679712,172.16.1.2,22108,172.16.3.2,5101,41992,311320,0,64256,65728,6,6,4,1460,2273,1,1610613728,206,82732,68252,65700,0,62264,0,0,0
i,0x00000000,1720599948.680177,172.16.1.2,22108,172.16.3.2,5101,41992,311320,0,64256,65728,6,6,4,1460,2273,1,1610613728,206,82732,68252,65700,0,63712,0,0,0
o,0x00000000,1720599948.680221,172.16.1.2,22108,172.16.3.2,5101,41992,314216,0,64256,65728,6,6,4,1460,2417,1,1610613728,217,82732,65356,65700,0,60816,0,0,0
o,0x00000000,1720599948.680717,172.16.1.2,22108,172.16.3.2,5101,41992,314216,0,64256,65728,6,6,4,1460,2417,1,1610613728,217,82732,65356,65700,0,62264,0,0,0
i,0x00000000,1720599948.681166,172.16.1.2,22108,172.16.3.2,5101,41992,314216,0,64256,65728,6,6,4,1460,2417,1,1610613728,217,82732,65356,65700,0,63712,0,0,0
o,0x00000000,1720599948.681195,172.16.1.2,22108,172.16.3.2,5101,41992,315664,0,64256,65728,6,6,4,1460,2543,1,1610613728,222,82732,62460,65700,0,60816,0,0,0
i,0x00000000,1720599948.681658,172.16.1.2,22108,172.16.3.2,5101,41992,315664,0,64256,65728,6,6,4,1460,2543,1,1610613728,222,82732,62460,65700,0,62264,0,0,0
i,0x00000000,1720599948.681810,172.16.1.2,22108,172.16.3.2,5101,41992,318560,0,64256,65728,6,6,4,1460,2654,1,1610613728,223,82732,59564,65700,0,59368,0,0,0
i,0x00000000,1720599948.681821,172.16.1.2,22108,172.16.3.2,5101,41992,321456,0,64256,65728,6,6,4,1460,2751,1,1610613728,220,82732,56668,65700,0,56472,0,0,0
i,0x00000000,1720599948.681824,172.16.1.2,22108,172.16.3.2,5101,41992,322904,0,64256,65728,6,6,4,1460,2836,1,1610613728,215,82732,53772,65700,0,53576,0,0,0
