enable_time_secs=1716793057	enable_time_usecs=973974	siftrver=1.2.4	hz=100	tcp_rtt_scale=32	sysname=FreeBSD	sysver=1301000	ipmode=4
o,0x00000000,1716793057.974005,10.0.2.15,22,10.0.2.2,56869,1073725440,17298,0,65535,65700,0,0,4,1460,1,0,4,24,33580,44,65700,0,0,0,0,0
o,0x00000000,1716793057.974105,10.0.2.15,22,10.0.2.2,56869,1073725440,17298,0,65535,65700,0,0,4,1460,1,0,4,24,33580,80,65700,0,44,0,0,0
i,0x00000000,1716793057.974671,10.0.2.15,22,10.0.2.2,56869,1073725440,17298,0,65535,65700,0,0,4,1460,1,0,4,24,33580,80,65700,0,80,0,0,0
i,0x00000000,1716793057.974976,10.0.2.15,22,10.0.2.2,56869,1073725440,17342,0,65535,65700,0,0,4,1460,1,0,4,24,33580,36,65700,0,36,0,0,0
o,0x00000000,1716793057.975355,10.0.2.15,22,10.0.2.2,56869,1073725440,17378,0,65535,65700,0,0,4,1460,1,0,4,24,33580,36,65700,0,0,0,0,0
i,0x00000000,1716793057.975698,10.0.2.15,22,10.0.2.2,56869,1073725440,17378,0,65535,65700,0,0,4,1460,1,0,4,24,33580,36,65700,0,36,0,0,0
o,0x00000000,1716793057.975901,10.0.2.15,22,10.0.2.2,56869,1073725440,17414,0,65535,65700,0,0,4,1460,1,0,4,24,33580,176,65700,0,0,0,0,0
i,0x00000000,1716793057.976522,10.0.2.15,22,10.0.2.2,56869,1073725440,17414,0,65535,65700,0,0,4,1460,1,0,4,24,33580,176,65700,0,176,0,0,0
i,0x00000000,1716793057.978908,10.0.2.15,22,10.0.2.2,56869,1073725440,17590,0,65535,65700,0,0,4,1460,1,0,4,24,33580,0,65700,0,0,0,0,0
i,0x00000000,1716793057.978911,10.0.2.15,22,10.0.2.2,56869,1073725440,17590,0,65535,65700,0,0,4,1460,1,0,4,24,33580,0,65700,36,0,0,0,0
o,0x00000000,1716793057.978913,10.0.2.15,22,10.0.2.2,56869,1073725440,17590,0,65535,65700,0,0,4,1460,1,0,5,24,33580,0,65700,96,0,0,0,0
i,0x00000000,1716793057.979015,10.0.2.15,22,10.0.2.2,56869,1073725440,17590,0,65535,65700,0,0,4,1460,1,0,4,24,33580,0,65700,96,0,0,0,0
o,0x00000000,1716793057.979019,10.0.2.15,22,10.0.2.2,56869,1073725440,17590,0,65535,65604,0,0,5,1460,1,0,7,24,33580,0,65700,96,0,0,0,0
o,0x00000000,1716793057.979787,10.0.2.15,22,10.0.2.2,56869,1073725440,17590,0,65535,65604,0,0,8,1460,1,0,4,24,33580,0,65700,0,0,0,0,0
i,0x00000000,1716793057.980237,10.0.2.15,22,10.0.2.2,56869,1073725440,17590,0,65535,65604,0,0,8,1460,1,0,20,24,33580,0,65700,0,1,0,0,0
i,0x00000000,1716793060.137369,10.0.2.15,22,10.0.2.2,56873,1073725440,14600,0,65535,65700,0,0,4,1460,1,0,0,27,33580,0,65700,0,0,0,0,0
o,0x00000000,1716793060.144130,10.0.2.15,22,10.0.2.2,56873,1073725440,14600,0,65535,65700,0,0,4,1460,1,0,0,27,33580,38,65700,41,0,0,0,0
i,0x00000000,1716793060.144596,10.0.2.15,22,10.0.2.2,56873,1073725440,14600,0,65535,65700,0,0,4,1460,1,0,0,27,33580,38,65700,0,38,0,0,0
i,0x00000000,1716793060.145529,10.0.2.15,22,10.0.2.2,56873,1073725440,14638,0,65535,65700,0,0,4,1460,1,0,0,24,33580,0,65700,0,0,0,0,0
i,0x00000000,1716793060.145536,10.0.2.15,22,10.0.2.2,56873,1073725440,14638,0,65535,65700,0,0,4,1460,1,0,0,24,33580,0,65700,1460,0,0,0,0
o,0x00000000,1716793060.145541,10.0.2.15,22,10.0.2.2,56873,1073725440,14638,0,65535,65700,0,0,4,1460,1,0,1,24,33580,0,65700,1536,0,0,0,0
o,0x00000000,1716793060.146705,10.0.2.15,22,10.0.2.2,56873,1073725440,14638,0,65535,65700,0,0,4,1460,1,0,0,24,33580,1056,65700,1536,0,0,0,0
i,0x00000000,1716793060.147356,10.0.2.15,22,10.0.2.2,56873,1073725440,14638,0,65535,65700,0,0,4,1460,1,0,0,24,33580,1056,65700,1536,1056,0,0,0
i,0x00000000,1716793060.148772,10.0.2.15,22,10.0.2.2,56873,1073725440,15694,0,65535,65700,0,0,4,1460,1,0,0,24,33580,0,65700,0,0,0,0,0
o,0x00000000,1716793060.151507,10.0.2.15,22,10.0.2.2,56873,1073725440,15694,0,65535,65700,0,0,4,1460,1,0,0,24,33580,484,65700,0,0,0,0,0
i,0x00000000,1716793060.152316,10.0.2.15,22,10.0.2.2,56873,1073725440,15694,0,65535,65700,0,0,4,1460,1,0,0,24,33580,484,65700,0,484,0,0,0
i,0x00000000,1716793060.156942,10.0.2.15,22,10.0.2.2,56873,1073725440,16178,0,65535,65700,0,0,4,1460,1,0,0,24,33580,0,65700,0,0,0,0,0
i,0x00000000,1716793060.162291,10.0.2.15,22,10.0.2.2,56873,1073725440,16178,0,65535,65700,0,0,4,1460,1,0,0,24,33580,0,65700,0,0,0,0,0
o,0x00000000,1716793060.162318,10.0.2.15,22,10.0.2.2,56873,1073725440,16178,0,65535,65700,0,0,4,1460,1,0,1,24,33580,0,65700,44,0,0,0,0
o,0x00000000,1716793060.162484,10.0.2.15,22,10.0.2.2,56873,1073725440,16178,0,65535,65700,0,0,4,1460,1,0,0,24,33580,44,65700,0,0,0,0,0
i,0x00000000,1716793060.162891,10.0.2.15,22,10.0.2.2,56873,1073725440,16178,0,65535,65700,0,0,4,1460,1,0,0,24,33580,44,65700,0,44,0,0,0
i,0x00000000,1716793060.163475,10.0.2.15,22,10.0.2.2,56873,1073725440,16222,0,65535,65700,0,0,4,1460,1,0,0,24,33580,0,65700,0,0,0,0,0
o,0x00000000,1716793060.173002,10.0.2.15,22,10.0.2.2,56873,1073725440,16222,0,65535,65700,0,0,4,1460,1,0,0,24,33580,68,65700,0,0,0,0,0
i,0x00000000,1716793060.173503,10.0.2.15,22,10.0.2.2,56873,1073725440,16222,0,65535,65700,0,0,4,1460,1,0,0,24,33580,68,65700,0,68,0,0,0
i,0x00000000,1716793060.176216,10.0.2.15,22,10.0.2.2,56873,1073725440,16290,0,65535,65700,0,0,4,1460,1,0,0,24,33580,0,65700,0,0,0,0,0
o,0x00000000,1716793060.186770,10.0.2.15,22,10.0.2.2,56873,1073725440,16290,0,65535,65700,0,0,4,1460,1,0,0,24,33580,28,65700,0,0,0,0,0
i,0x00000000,1716793060.187562,10.0.2.15,22,10.0.2.2,56873,1073725440,16290,0,65535,65700,0,0,4,1460,1,0,0,24,33580,28,65700,0,28,0,0,0
i,0x00000000,1716793060.187931,10.0.2.15,22,10.0.2.2,56873,1073725440,16318,0,65535,65700,0,0,4,1460,1,0,0,24,33580,0,65700,0,0,0,0,0
o,0x00000000,1716793060.188767,10.0.2.15,22,10.0.2.2,56873,1073725440,16318,0,65535,65700,0,0,4,1460,1,0,0,24,33580,768,65700,112,0,0,0,0
i,0x00000000,1716793060.189218,10.0.2.15,22,10.0.2.2,56873,1073725440,16318,0,65535,65700,0,0,4,1460,1,0,0,24,33580,768,65700,112,768,0,0,0
o,0x00000000,1716793060.189328,10.0.2.15,22,10.0.2.2,56873,1073725440,17086,0,65535,65700,0,0,4,1460,1,0,0,24,33580,44,65700,0,0,0,0,0
i,0x00000000,1716793060.189797,10.0.2.15,22,10.0.2.2,56873,1073725440,17086,0,65535,65700,0,0,4,1460,1,0,0,24,33580,44,65700,0,44,0,0,0
i,0x00000000,1716793060.190551,10.0.2.15,22,10.0.2.2,56873,1073725440,17130,0,65535,65700,0,0,4,1460,1,0,0,24,33580,0,65700,0,0,0,0,0
o,0x00000000,1716793060.190863,10.0.2.15,22,10.0.2.2,56873,1073725440,17130,0,65535,65700,0,0,4,1460,1,0,4,24,33580,72,65700,0,0,0,0,0
i,0x00000000,1716793060.191269,10.0.2.15,22,10.0.2.2,56873,1073725440,17130,0,65535,65700,0,0,4,1460,1,0,4,24,33580,72,65700,0,72,0,0,0
o,0x00000000,1716793060.193693,10.0.2.15,22,10.0.2.2,56873,1073725440,17202,0,65535,65700,0,0,4,1460,1,0,4,24,33580,44,65700,0,0,0,0,0
i,0x00000000,1716793060.194217,10.0.2.15,22,10.0.2.2,56873,1073725440,17202,0,65535,65700,0,0,4,1460,1,0,4,24,33580,44,65700,0,44,0,0,0
o,0x00000000,1716793060.194667,10.0.2.15,22,10.0.2.2,56873,1073725440,17246,0,65535,65700,0,0,4,1460,1,0,4,24,33580,44,65700,0,0,0,0,0
i,0x00000000,1716793060.195488,10.0.2.15,22,10.0.2.2,56873,1073725440,17246,0,65535,65700,0,0,4,1460,1,0,4,24,33580,44,65700,0,44,0,0,0
o,0x00000000,1716793060.199072,10.0.2.15,22,10.0.2.2,56873,1073725440,17290,0,65535,65700,0,0,4,1460,1,0,4,24,33580,176,65700,0,0,0,0,0
i,0x00000000,1716793060.199752,10.0.2.15,22,10.0.2.2,56873,1073725440,17290,0,65535,65700,0,0,4,1460,1,0,4,24,33580,176,65700,0,176,0,0,0
i,0x00000000,1716793060.200239,10.0.2.15,22,10.0.2.2,56873,1073725440,17466,0,65535,65700,0,0,4,1460,1,0,4,24,33580,0,65700,0,0,0,0,0
i,0x00000000,1716793060.200243,10.0.2.15,22,10.0.2.2,56873,1073725440,17466,0,65535,65700,0,0,4,1460,1,0,4,24,33580,0,65700,96,0,0,0,0
o,0x00000000,1716793060.200247,10.0.2.15,22,10.0.2.2,56873,1073725440,17466,0,65535,65604,0,0,5,1460,1,0,5,24,33580,0,65700,96,0,0,0,0
o,0x00000000,1716793060.206525,10.0.2.15,22,10.0.2.2,56873,1073725440,17466,0,65535,65604,0,0,8,1460,1,0,4,24,33580,0,65700,0,0,0,0,0
i,0x00000000,1716793060.207181,10.0.2.15,22,10.0.2.2,56873,1073725440,17466,0,65535,65604,0,0,8,1460,1,0,20,24,33580,0,65700,0,1,0,0,0
i,0x00000000,1716793061.294855,10.0.2.15,22,10.0.2.2,56877,1073725440,14600,0,65535,65700,0,0,4,1460,1,0,0,27,33580,0,65700,0,0,0,0,0
o,0x00000000,1716793061.303080,10.0.2.15,22,10.0.2.2,56877,1073725440,14600,0,65535,65700,0,0,4,1460,1,0,0,27,33580,38,65700,41,0,0,0,0
i,0x00000000,1716793061.304020,10.0.2.15,22,10.0.2.2,56877,1073725440,14600,0,65535,65700,0,0,4,1460,1,0,0,27,33580,38,65700,41,38,0,0,0
i,0x00000000,1716793061.305570,10.0.2.15,22,10.0.2.2,56877,1073725440,14638,0,65535,65700,0,0,4,1460,1,0,0,24,33580,0,65700,0,0,0,0,0
i,0x00000000,1716793061.305580,10.0.2.15,22,10.0.2.2,56877,1073725440,14638,0,65535,65700,0,0,4,1460,1,0,0,24,33580,0,65700,1460,0,0,0,0
o,0x00000000,1716793061.305592,10.0.2.15,22,10.0.2.2,56877,1073725440,14638,0,65535,65700,0,0,4,1460,1,0,1,24,33580,0,65700,1536,0,0,0,0
o,0x00000000,1716793061.306686,10.0.2.15,22,10.0.2.2,56877,1073725440,14638,0,65535,65700,0,0,4,1460,1,0,0,24,33580,1056,65700,1536,0,0,0,0
i,0x00000000,1716793061.307838,10.0.2.15,22,10.0.2.2,56877,1073725440,14638,0,65535,65700,0,0,4,1460,1,0,0,24,33580,1056,65700,1536,1056,0,0,0
i,0x00000000,1716793061.310145,10.0.2.15,22,10.0.2.2,56877,1073725440,15694,0,65535,65700,0,0,4,1460,1,0,0,24,33580,0,65700,0,0,0,0,0
o,0x00000000,1716793061.314335,10.0.2.15,22,10.0.2.2,56877,1073725440,15694,0,65535,65700,0,0,4,1460,1,0,0,24,33580,484,65700,0,0,0,0,0
i,0x00000000,1716793061.315956,10.0.2.15,22,10.0.2.2,56877,1073725440,15694,0,65535,65700,0,0,4,1460,1,0,0,24,33580,484,65700,0,484,0,0,0
i,0x00000000,1716793061.323512,10.0.2.15,22,10.0.2.2,56877,1073725440,16178,0,65535,65700,0,0,4,1460,1,0,0,24,33580,0,65700,0,0,0,0,0
i,0x00000000,1716793061.328977,10.0.2.15,22,10.0.2.2,56877,1073725440,16178,0,65535,65700,0,0,4,1460,1,0,0,24,33580,0,65700,0,0,0,0,0
o,0x00000000,1716793061.329009,10.0.2.15,22,10.0.2.2,56877,1073725440,16178,0,65535,65700,0,0,4,1460,1,0,1,24,33580,0,65700,44,0,0,0,0
o,0x00000000,1716793061.329281,10.0.2.15,22,10.0.2.2,56877,1073725440,16178,0,65535,65700,0,0,4,1460,1,0,0,24,33580,44,65700,0,0,0,0,0
i,0x00000000,1716793061.330156,10.0.2.15,22,10.0.2.2,56877,1073725440,16178,0,65535,65700,0,0,4,1460,1,0,0,24,33580,44,65700,0,44,0,0,0
i,0x00000000,1716793061.332777,10.0.2.15,22,10.0.2.2,56877,1073725440,16222,0,65535,65700,0,0,4,1460,1,0,0,24,33580,0,65700,0,0,0,0,0
o,0x00000000,1716793061.342587,10.0.2.15,22,10.0.2.2,56877,1073725440,16222,0,65535,65700,0,0,4,1460,1,0,0,24,33580,68,65700,0,0,0,0,0
i,0x00000000,1716793061.343430,10.0.2.15,22,10.0.2.2,56877,1073725440,16222,0,65535,65700,0,0,4,1460,1,0,0,24,33580,68,65700,0,68,0,0,0
i,0x00000000,1716793061.346877,10.0.2.15,22,10.0.2.2,56877,1073725440,16290,0,65535,65700,0,0,4,1460,1,0,0,24,33580,0,65700,0,0,0,0,0
o,0x00000000,1716793061.356609,10.0.2.15,22,10.0.2.2,56877,1073725440,16290,0,65535,65700,0,0,4,1460,1,0,0,24,33580,28,65700,0,0,0,0,0
i,0x00000000,1716793061.357703,10.0.2.15,22,10.0.2.2,56877,1073725440,16290,0,65535,65700,0,0,4,1460,1,0,0,24,33580,28,65700,0,28,0,0,0
i,0x00000000,1716793061.358623,10.0.2.15,22,10.0.2.2,56877,1073725440,16318,0,65535,65700,0,0,4,1460,1,0,0,24,33580,0,65700,0,0,0,0,0
o,0x00000000,1716793061.359365,10.0.2.15,22,10.0.2.2,56877,1073725440,16318,0,65535,65700,0,0,4,1460,1,0,0,24,33580,768,65700,112,0,0,0,0
i,0x00000000,1716793061.360112,10.0.2.15,22,10.0.2.2,56877,1073725440,16318,0,65535,65700,0,0,4,1460,1,0,0,24,33580,768,65700,112,768,0,0,0
o,0x00000000,1716793061.360272,10.0.2.15,22,10.0.2.2,56877,1073725440,17086,0,65535,65700,0,0,4,1460,1,0,0,24,33580,44,65700,0,0,0,0,0
i,0x00000000,1716793061.360866,10.0.2.15,22,10.0.2.2,56877,1073725440,17086,0,65535,65700,0,0,4,1460,1,0,0,24,33580,44,65700,0,44,0,0,0
i,0x00000000,1716793061.361622,10.0.2.15,22,10.0.2.2,56877,1073725440,17130,0,65535,65700,0,0,4,1460,1,0,0,24,33580,0,65700,0,0,0,0,0
o,0x00000000,1716793061.362122,10.0.2.15,22,10.0.2.2,56877,1073725440,17130,0,65535,65700,0,0,4,1460,1,0,4,24,33580,72,65700,0,0,0,0,0
i,0x00000000,1716793061.362910,10.0.2.15,22,10.0.2.2,56877,1073725440,17130,0,65535,65700,0,0,4,1460,1,0,4,24,33580,72,65700,0,72,0,0,0
i,0x00000000,1716793061.363285,10.0.2.15,22,10.0.2.2,56877,1073725440,17202,0,65535,65700,0,0,4,1460,1,0,4,24,33580,0,65700,0,0,0,0,0
o,0x00000000,1716793061.367563,172.16.1.2,65075,172.16.3.2,5101,1073725440,1073725440,0,0,0,0,0,2,536,0,1,672,100,32768,0,65536,0,0,0,0,0
o,0x00000000,1716793061.395507,10.0.2.15,22,10.0.2.2,56877,1073725440,17202,0,65535,65700,0,0,4,1460,1,0,5,24,33580,0,65700,0,0,0,0,0
i,0x00000000,1716793061.487709,172.16.1.2,65075,172.16.3.2,5101,1073725440,1073725440,0,0,0,0,0,2,536,0,1,672,100,32768,0,65536,0,1,0,0,0
o,0x00000000,1716793061.487729,172.16.1.2,65075,172.16.3.2,5101,22977,14480,0,65535,65700,6,6,4,1460,886,1,993,138,33580,0,65700,0,0,0,0,0
o,0x00000000,1716793061.487900,172.16.1.2,65075,172.16.3.2,5101,22977,14480,0,65535,65700,6,6,4,1460,886,1,996,138,33580,37,65700,0,0,0,0,0
i,0x00000000,1716793061.606790,172.16.1.2,65075,172.16.3.2,5101,22977,14480,0,65535,65700,6,6,4,1460,886,1,996,138,33580,37,65700,0,37,0,0,0
o,0x00000000,1716793061.606941,172.16.1.2,65075,172.16.3.2,5101,22977,14517,0,65728,65728,6,6,4,1460,824,1,996,129,33580,4,65700,0,0,0,0,0
o,0x00000000,1716793061.607051,172.16.1.2,65075,172.16.3.2,5101,22977,14517,0,65728,65728,6,6,4,1460,824,1,996,129,33580,128,65700,0,4,0,0,0
i,0x00000000,1716793061.727073,172.16.1.2,65075,172.16.3.2,5101,22977,14517,0,65728,65728,6,6,4,1460,824,1,996,129,33580,128,65700,0,128,0,0,0
i,0x00000000,1716793061.727087,172.16.1.2,65075,172.16.3.2,5101,22977,14645,0,65600,65728,6,6,4,1460,765,1,996,121,33580,0,65700,0,0,0,0,0
o,0x00000000,1716793061.727207,172.16.1.2,46717,172.16.3.2,5101,1073725440,1073725440,0,0,0,0,0,2,536,0,1,672,100,32768,0,65536,0,0,0,0,0
o,0x00000000,1716793061.766280,172.16.1.2,65075,172.16.3.2,5101,22977,14645,0,65728,65728,6,6,4,1460,765,1,997,121,33580,0,65700,0,0,0,0,0
i,0x00000000,1716793061.846541,172.16.1.2,46717,172.16.3.2,5101,1073725440,1073725440,0,0,0,0,0,2,536,0,1,672,100,32768,0,65536,0,1,0,0,0
o,0x00000000,1716793061.846564,172.16.1.2,46717,172.16.3.2,5101,22977,14480,0,65535,65700,6,6,4,1460,886,1,993,138,33580,0,65700,0,0,0,0,0
o,0x00000000,1716793061.846830,172.16.1.2,46717,172.16.3.2,5101,22977,14480,0,65535,65700,6,6,4,1460,886,1,992,138,33580,37,65700,0,0,0,0,0
i,0x00000000,1716793061.966853,172.16.1.2,65075,172.16.3.2,5101,22977,14645,0,65728,65728,6,6,4,1460,765,1,996,121,33580,0,65700,0,0,0,0,0
i,0x00000000,1716793061.966867,172.16.1.2,65075,172.16.3.2,5101,22977,14645,0,65728,65728,6,6,4,1460,765,1,996,121,33580,0,65700,1,0,0,0,0
o,0x00000000,1716793061.966876,172.16.1.2,65075,172.16.3.2,5101,22977,14645,0,65728,65728,6,6,4,1460,765,1,997,121,33580,0,65700,2,0,0,0,0
o,0x00000000,1716793061.967142,172.16.1.2,46717,172.16.3.2,5101,22977,14480,0,65535,65700,6,6,4,1460,886,1,992,138,33580,33580,65700,0,37,0,0,0
o,0x00000000,1716793061.967542,172.16.1.2,46717,172.16.3.2,5101,22977,14480,0,65535,65700,6,6,4,1460,886,1,992,138,33580,33580,65700,0,1485,0,0,0
o,0x00000000,1716793061.967860,172.16.1.2,46717,172.16.3.2,5101,22977,14480,0,65535,65700,6,6,4,1460,886,1,992,138,33580,33580,65700,0,2933,0,0,0
o,0x00000000,1716793061.968180,172.16.1.2,46717,172.16.3.2,5101,22977,14480,0,65535,65700,6,6,4,1460,886,1,992,138,33580,33580,65700,0,4381,0,0,0
o,0x00000000,1716793061.968532,172.16.1.2,46717,172.16.3.2,5101,22977,14480,0,65535,65700,6,6,4,1460,886,1,992,138,33580,33580,65700,0,5829,0,0,0
o,0x00000000,1716793061.968850,172.16.1.2,46717,172.16.3.2,5101,22977,14480,0,65535,65700,6,6,4,1460,886,1,992,138,33580,33580,65700,0,7277,0,0,0
o,0x00000000,1716793061.969196,172.16.1.2,46717,172.16.3.2,5101,22977,14480,0,65535,65700,6,6,4,1460,886,1,992,138,33580,33580,65700,0,8725,0,0,0
o,0x00000000,1716793061.969563,172.16.1.2,46717,172.16.3.2,5101,22977,14480,0,65535,65700,6,6,4,1460,886,1,992,138,33580,33580,65700,0,10173,0,0,0
o,0x00000000,1716793061.969927,172.16.1.2,46717,172.16.3.2,5101,22977,14480,0,65535,65700,6,6,4,1460,886,1,992,138,33580,33580,65700,0,11621,0,0,0
i,0x00000000,1716793061.996412,172.16.1.2,46717,172.16.3.2,5101,22977,14480,0,65535,65700,6,6,4,1460,886,1,992,138,33580,33580,65700,0,13069,0,0,0
o,0x00000000,1716793061.996450,172.16.1.2,46717,172.16.3.2,5101,22977,14517,0,65728,65728,6,6,4,1460,836,1,992,127,33580,33543,65700,0,13032,0,0,0
i,0x00000000,1716793062.267304,172.16.1.2,46717,172.16.3.2,5101,22977,14517,0,65728,65728,6,6,4,1460,836,1,992,127,33580,33543,65700,0,14480,0,0,0
o,0x00000000,1716793062.267326,172.16.1.2,46717,172.16.3.2,5101,22977,17413,0,64256,65728,6,6,4,1460,848,1,992,110,33580,30647,65700,0,11584,0,0,0
o,0x00000000,1716793062.267420,172.16.1.2,46717,172.16.3.2,5101,22977,17413,0,64256,65728,6,6,4,1460,848,1,992,110,33580,30647,65700,0,13032,0,0,0
o,0x00000000,1716793062.267497,172.16.1.2,46717,172.16.3.2,5101,22977,17413,0,64256,65728,6,6,4,1460,848,1,992,110,41772,30647,65700,0,14480,0,0,0
o,0x00000000,1716793062.267571,172.16.1.2,46717,172.16.3.2,5101,22977,17413,0,64256,65728,6,6,4,1460,848,1,992,110,41772,30647,65700,0,15928,0,0,0
i,0x00000000,1716793062.267644,172.16.1.2,46717,172.16.3.2,5101,22977,17413,0,64256,65728,6,6,4,1460,848,1,992,110,41772,30647,65700,0,17376,0,0,0
o,0x00000000,1716793062.267648,172.16.1.2,46717,172.16.3.2,5101,22977,20309,0,64256,65728,6,6,4,1460,858,1,992,97,41772,27751,65700,0,14480,0,0,0
o,0x00000000,1716793062.267722,172.16.1.2,46717,172.16.3.2,5101,22977,20309,0,64256,65728,6,6,4,1460,858,1,992,97,41772,27751,65700,0,15928,0,0,0
o,0x00000000,1716793062.267795,172.16.1.2,46717,172.16.3.2,5101,22977,20309,0,64256,65728,6,6,4,1460,858,1,992,97,41772,27751,65700,0,17376,0,0,0
o,0x00000000,1716793062.267870,172.16.1.2,46717,172.16.3.2,5101,22977,20309,0,64256,65728,6,6,4,1460,858,1,992,97,41772,27751,65700,0,18824,0,0,0
i,0x00000000,1716793062.267945,172.16.1.2,46717,172.16.3.2,5101,22977,20309,0,64256,65728,6,6,4,1460,858,1,992,97,41772,27751,65700,0,20272,0,0,0
o,0x00000000,1716793062.267947,172.16.1.2,46717,172.16.3.2,5101,22977,23205,0,64256,65728,6,6,4,1460,867,1,992,87,41772,24855,65700,0,17376,0,0,0
o,0x00000000,1716793062.268022,172.16.1.2,46717,172.16.3.2,5101,22977,23205,0,64256,65728,6,6,4,1460,867,1,992,87,41772,24855,65700,0,18824,0,0,0
o,0x00000000,1716793062.268101,172.16.1.2,46717,172.16.3.2,5101,22977,23205,0,64256,65728,6,6,4,1460,867,1,992,87,41772,24855,65700,0,20272,0,0,0
o,0x00000000,1716793062.268192,172.16.1.2,46717,172.16.3.2,5101,22977,23205,0,64256,65728,6,6,4,1460,867,1,992,87,41772,24855,65700,0,21720,0,0,0
i,0x00000000,1716793062.268519,172.16.1.2,46717,172.16.3.2,5101,22977,23205,0,64256,65728,6,6,4,1460,867,1,992,87,41772,24855,65700,0,23168,0,0,0
o,0x00000000,1716793062.268522,172.16.1.2,46717,172.16.3.2,5101,22977,23205,0,64256,65728,6,6,4,1460,875,1,992,79,41772,21959,65700,0,20272,0,0,0
o,0x00000000,1716793062.268879,172.16.1.2,46717,172.16.3.2,5101,22977,23205,0,64256,65728,6,6,4,1460,875,1,992,79,49964,41772,65700,0,21720,0,0,0
i,0x00000000,1716793062.297636,172.16.1.2,46717,172.16.3.2,5101,22977,23205,0,64256,65728,6,6,4,1460,875,1,992,79,49964,49964,65700,0,23168,0,0,0
o,0x00000000,1716793062.297658,172.16.1.2,46717,172.16.3.2,5101,22977,23205,0,64256,65728,6,6,4,1460,898,1,992,78,49964,47068,65700,0,20272,0,0,0
o,0x00000000,1716793062.297922,172.16.1.2,46717,172.16.3.2,5101,22977,23205,0,64256,65728,6,6,4,1460,898,1,992,78,49964,47068,65700,0,21720,0,0,0
i,0x00000000,1716793062.706845,172.16.1.2,46717,172.16.3.2,5101,22977,23205,0,64256,65728,6,6,4,1460,898,1,992,78,49964,49964,65700,0,23168,0,0,0
o,0x00000000,1716793062.706865,172.16.1.2,46717,172.16.3.2,5101,22977,23205,0,64256,65728,6,6,4,1460,962,1,992,88,49964,47068,65700,0,20272,0,0,0
o,0x00000000,1716793062.706983,172.16.1.2,46717,172.16.3.2,5101,22977,23205,0,64256,65728,6,6,4,1460,962,1,992,88,49964,47068,65700,0,21720,0,0,0
i,0x00000000,1716793062.707073,172.16.1.2,46717,172.16.3.2,5101,22977,23205,0,64256,65728,6,6,4,1460,962,1,992,88,49964,47068,65700,0,23168,0,0,0
o,0x00000000,1716793062.707076,172.16.1.2,46717,172.16.3.2,5101,22977,23205,0,64256,65728,6,6,4,1460,1018,1,992,94,49964,44172,65700,0,20272,0,0,0
o,0x00000000,1716793062.707180,172.16.1.2,46717,172.16.3.2,5101,22977,23205,0,64256,65728,6,6,4,1460,1018,1,992,94,58156,44172,65700,0,21720,0,0,0
i,0x00000000,1716793062.707261,172.16.1.2,46717,172.16.3.2,5101,22977,23205,0,64256,65728,6,6,4,1460,1018,1,992,94,58156,44172,65700,0,23168,0,0,0
o,0x00000000,1716793062.707263,172.16.1.2,46717,172.16.3.2,5101,22977,23205,0,64256,65728,6,6,4,1460,1067,1,992,97,58156,41276,65700,0,20272,0,0,0
o,0x00000000,1716793062.707337,172.16.1.2,46717,172.16.3.2,5101,22977,23205,0,64256,65728,6,6,4,1460,1067,1,992,97,58156,41276,65700,0,21720,0,0,0
i,0x00000000,1716793062.707424,172.16.1.2,46717,172.16.3.2,5101,22977,23205,0,64256,65728,6,6,4,1460,1067,1,992,97,58156,41276,65700,0,23168,0,0,0
o,0x00000000,1716793062.707426,172.16.1.2,46717,172.16.3.2,5101,22977,23205,0,64256,65728,6,6,4,1460,1110,1,992,98,58156,38380,65700,0,20272,0,0,0
o,0x00000000,1716793062.707505,172.16.1.2,46717,172.16.3.2,5101,22977,23205,0,64256,65728,6,6,4,1460,1110,1,992,98,58156,38380,65700,0,21720,0,0,0
i,0x00000000,1716793062.707797,172.16.1.2,46717,172.16.3.2,5101,22977,23205,0,64256,65728,6,6,4,1460,1110,1,992,98,58156,38380,65700,0,23168,0,0,0
o,0x00000000,1716793062.707800,172.16.1.2,46717,172.16.3.2,5101,22977,23205,0,64256,65728,6,6,4,1460,1148,1,992,98,58156,35484,65700,0,20272,0,0,0
o,0x00000000,1716793062.707875,172.16.1.2,46717,172.16.3.2,5101,22977,23205,0,64256,65728,6,6,4,1460,1148,1,992,98,58156,35484,65700,0,21720,0,0,0
i,0x00000000,1716793062.707949,172.16.1.2,46717,172.16.3.2,5101,22977,23205,0,64256,65728,6,6,4,1460,1148,1,992,98,58156,35484,65700,0,23168,0,0,0
o,0x00000000,1716793062.707951,172.16.1.2,46717,172.16.3.2,5101,22977,23205,0,64256,65728,6,6,4,1460,1181,1,992,97,58156,32588,65700,0,20272,0,0,0
o,0x00000000,1716793062.708025,172.16.1.2,46717,172.16.3.2,5101,22977,23205,0,64256,65728,6,6,4,1460,1181,1,992,97,58156,32588,65700,0,21720,0,0,0
i,0x00000000,1716793062.708114,172.16.1.2,46717,172.16.3.2,5101,22977,23205,0,64256,65728,6,6,4,1460,1181,1,992,97,58156,32588,65700,0,23168,0,0,0
o,0x00000000,1716793062.708117,172.16.1.2,46717,172.16.3.2,5101,22977,24665,0,64256,65728,6,6,4,1460,1210,1,992,95,58156,29692,65700,0,20272,0,0,0
o,0x00000000,1716793062.708206,172.16.1.2,46717,172.16.3.2,5101,22977,24665,0,64256,65728,6,6,4,1460,1210,1,992,95,58156,29692,65700,0,21720,0,0,0
o,0x00000000,1716793062.708279,172.16.1.2,46717,172.16.3.2,5101,22977,24665,0,64256,65728,6,6,4,1460,1210,1,992,95,58156,29692,65700,0,23168,0,0,0
i,0x00000000,1716793062.736941,172.16.1.2,46717,172.16.3.2,5101,22977,24665,0,64256,65728,6,6,4,1460,1210,1,992,95,58156,58156,65700,0,24616,0,0,0
o,0x00000000,1716793062.736960,172.16.1.2,46717,172.16.3.2,5101,22977,24665,0,64256,65728,6,6,4,1460,1235,1,992,93,58156,55260,65700,0,21720,0,0,0
o,0x00000000,1716793062.737205,172.16.1.2,46717,172.16.3.2,5101,22977,24665,0,64256,65728,6,6,4,1460,1235,1,992,93,58156,55260,65700,0,23168,0,0,0
i,0x00000000,1716793063.167993,172.16.1.2,46717,172.16.3.2,5101,22977,24665,0,64256,65728,6,6,4,1460,1235,1,992,93,58156,58156,65700,0,24616,0,0,0
o,0x00000000,1716793063.168108,172.16.1.2,46717,172.16.3.2,5101,22977,24665,0,64256,65728,6,6,4,1460,1261,1,992,92,58156,55260,65700,0,21720,0,0,0
o,0x00000000,1716793063.168268,172.16.1.2,46717,172.16.3.2,5101,22977,24665,0,64256,65728,6,6,4,1460,1261,1,992,92,58156,55260,65700,0,23168,0,0,0
i,0x00000000,1716793063.168364,172.16.1.2,46717,172.16.3.2,5101,22977,24665,0,64256,65728,6,6,4,1460,1261,1,992,92,58156,55260,65700,0,24616,0,0,0
o,0x00000000,1716793063.168372,172.16.1.2,46717,172.16.3.2,5101,22977,24665,0,64256,65728,6,6,4,1460,1284,1,992,90,58156,52364,65700,0,21720,0,0,0
o,0x00000000,1716793063.168466,172.16.1.2,46717,172.16.3.2,5101,22977,24665,0,64256,65728,6,6,4,1460,1284,1,992,90,58156,52364,65700,0,23168,0,0,0
i,0x00000000,1716793063.168565,172.16.1.2,46717,172.16.3.2,5101,22977,24665,0,64256,65728,6,6,4,1460,1284,1,992,90,58156,52364,65700,0,24616,0,0,0
o,0x00000000,1716793063.168573,172.16.1.2,46717,172.16.3.2,5101,22977,24665,0,64256,65728,6,6,4,1460,1304,1,992,88,58156,49468,65700,0,21720,0,0,0
o,0x00000000,1716793063.168662,172.16.1.2,46717,172.16.3.2,5101,22977,24665,0,64256,65728,6,6,4,1460,1304,1,992,88,58156,49468,65700,0,23168,0,0,0
i,0x00000000,1716793063.168753,172.16.1.2,46717,172.16.3.2,5101,22977,24665,0,64256,65728,6,6,4,1460,1304,1,992,88,58156,49468,65700,0,24616,0,0,0
o,0x00000000,1716793063.168756,172.16.1.2,46717,172.16.3.2,5101,22977,24665,0,64256,65728,6,6,4,1460,1321,1,992,86,58156,46572,65700,0,21720,0,0,0
o,0x00000000,1716793063.168839,172.16.1.2,46717,172.16.3.2,5101,22977,24665,0,64256,65728,6,6,4,1460,1321,1,992,86,58156,46572,65700,0,23168,0,0,0
i,0x00000000,1716793063.169166,172.16.1.2,46717,172.16.3.2,5101,22977,24665,0,64256,65728,6,6,4,1460,1321,1,992,86,58156,46572,65700,0,24616,0,0,0
o,0x00000000,1716793063.169172,172.16.1.2,46717,172.16.3.2,5101,22977,24665,0,64256,65728,6,6,4,1460,1336,1,992,84,58156,43676,65700,0,21720,0,0,0
o,0x00000000,1716793063.169262,172.16.1.2,46717,172.16.3.2,5101,22977,24665,0,64256,65728,6,6,4,1460,1336,1,992,84,58156,43676,65700,0,23168,0,0,0
i,0x00000000,1716793063.169353,172.16.1.2,46717,172.16.3.2,5101,22977,24665,0,64256,65728,6,6,4,1460,1336,1,992,84,58156,43676,65700,0,24616,0,0,0
o,0x00000000,1716793063.169358,172.16.1.2,46717,172.16.3.2,5101,22977,24665,0,64256,65728,6,6,4,1460,1349,1,992,82,58156,40780,65700,0,21720,0,0,0
o,0x00000000,1716793063.169452,172.16.1.2,46717,172.16.3.2,5101,22977,24665,0,64256,65728,6,6,4,1460,1349,1,992,82,58156,40780,65700,0,23168,0,0,0
i,0x00000000,1716793063.169653,172.16.1.2,46717,172.16.3.2,5101,22977,24665,0,64256,65728,6,6,4,1460,1349,1,992,82,58156,40780,65700,0,24616,0,0,0
o,0x00000000,1716793063.169659,172.16.1.2,46717,172.16.3.2,5101,22977,26125,0,64256,65728,6,6,4,1460,1361,1,992,81,58156,37884,65700,0,21720,0,0,0
o,0x00000000,1716793063.169740,172.16.1.2,46717,172.16.3.2,5101,22977,26125,0,64256,65728,6,6,4,1460,1361,1,992,81,58156,37884,65700,0,23168,0,0,0
o,0x00000000,1716793063.169830,172.16.1.2,46717,172.16.3.2,5101,22977,26125,0,64256,65728,6,6,4,1460,1361,1,992,81,58156,37884,65700,0,24616,0,0,0
i,0x00000000,1716793063.169909,172.16.1.2,46717,172.16.3.2,5101,22977,26125,0,64256,65728,6,6,4,1460,1361,1,992,81,58156,37884,65700,0,26064,0,0,0
o,0x00000000,1716793063.169912,172.16.1.2,46717,172.16.3.2,5101,22977,26125,0,64256,65728,6,6,4,1460,1371,1,992,79,58156,34988,65700,0,23168,0,0,0
o,0x00000000,1716793063.169994,172.16.1.2,46717,172.16.3.2,5101,22977,26125,0,64256,65728,6,6,4,1460,1371,1,992,79,58156,34988,65700,0,24616,0,0,0
i,0x00000000,1716793063.596878,172.16.1.2,46717,172.16.3.2,5101,22977,26125,0,64256,65728,6,6,4,1460,1371,1,992,79,58156,58156,65700,0,26064,0,0,0
o,0x00000000,1716793063.596911,172.16.1.2,46717,172.16.3.2,5101,22977,26125,0,65728,65728,6,6,4,1460,1540,1,992,122,58156,56708,65700,0,24616,0,0,0
i,0x00000000,1716793063.628665,172.16.1.2,46717,172.16.3.2,5101,22977,26125,0,65728,65728,6,6,4,1460,1540,1,992,122,58156,56708,65700,0,26064,0,0,0
o,0x00000000,1716793063.628690,172.16.1.2,46717,172.16.3.2,5101,22977,26125,0,64256,65728,6,6,4,1460,1532,1,992,111,58156,53812,65700,0,23168,0,0,0
o,0x00000000,1716793063.628784,172.16.1.2,46717,172.16.3.2,5101,22977,26125,0,64256,65728,6,6,4,1460,1532,1,992,111,58156,53812,65700,0,24616,0,0,0
i,0x00000000,1716793063.628861,172.16.1.2,46717,172.16.3.2,5101,22977,26125,0,64256,65728,6,6,4,1460,1532,1,992,111,58156,53812,65700,0,26064,0,0,0
o,0x00000000,1716793063.628864,172.16.1.2,46717,172.16.3.2,5101,22977,26125,0,64256,65728,6,6,4,1460,1525,1,992,101,58156,50916,65700,0,23168,0,0,0
o,0x00000000,1716793063.628957,172.16.1.2,46717,172.16.3.2,5101,22977,26125,0,64256,65728,6,6,4,1460,1525,1,992,101,58156,50916,65700,0,24616,0,0,0
i,0x00000000,1716793063.637253,172.16.1.2,46717,172.16.3.2,5101,22977,26125,0,64256,65728,6,6,4,1460,1525,1,992,101,66348,66348,65700,0,26064,0,0,0
o,0x00000000,1716793063.637260,172.16.1.2,46717,172.16.3.2,5101,22977,26125,0,64256,65728,6,6,4,1460,1523,1,992,93,66348,63452,65700,0,23168,0,0,0
o,0x00000000,1716793063.637343,172.16.1.2,46717,172.16.3.2,5101,22977,26125,0,64256,65728,6,6,4,1460,1523,1,992,93,66348,63452,65700,0,24616,0,0,0
i,0x00000000,1716793063.637656,172.16.1.2,46717,172.16.3.2,5101,22977,26125,0,64256,65728,6,6,4,1460,1523,1,992,93,66348,63452,65700,0,26064,0,0,0
o,0x00000000,1716793063.637659,172.16.1.2,46717,172.16.3.2,5101,22977,26125,0,64256,65728,6,6,4,1460,1521,1,992,87,66348,60556,65700,0,23168,0,0,0
o,0x00000000,1716793063.637743,172.16.1.2,46717,172.16.3.2,5101,22977,26125,0,64256,65728,6,6,4,1460,1521,1,992,87,66348,60556,65700,0,24616,0,0,0
i,0x00000000,1716793063.637819,172.16.1.2,46717,172.16.3.2,5101,22977,26125,0,64256,65728,6,6,4,1460,1521,1,992,87,66348,60556,65700,0,26064,0,0,0
o,0x00000000,1716793063.637821,172.16.1.2,46717,172.16.3.2,5101,22977,26125,0,64256,65728,6,6,4,1460,1519,1,992,83,66348,57660,65700,0,23168,0,0,0
o,0x00000000,1716793063.637899,172.16.1.2,46717,172.16.3.2,5101,22977,26125,0,64256,65728,6,6,4,1460,1519,1,992,83,66348,57660,65700,0,24616,0,0,0
i,0x00000000,1716793063.637974,172.16.1.2,46717,172.16.3.2,5101,22977,26125,0,64256,65728,6,6,4,1460,1519,1,992,83,66348,57660,65700,0,26064,0,0,0
o,0x00000000,1716793063.637976,172.16.1.2,46717,172.16.3.2,5101,22977,26125,0,64256,65728,6,6,4,1460,1518,1,992,79,66348,54764,65700,0,23168,0,0,0
o,0x00000000,1716793063.638052,172.16.1.2,46717,172.16.3.2,5101,22977,26125,0,64256,65728,6,6,4,1460,1518,1,992,79,66348,54764,65700,0,24616,0,0,0
i,0x00000000,1716793063.638438,172.16.1.2,46717,172.16.3.2,5101,22977,26125,0,64256,65728,6,6,4,1460,1518,1,992,79,66348,54764,65700,0,26064,0,0,0
o,0x00000000,1716793063.638441,172.16.1.2,46717,172.16.3.2,5101,22977,26125,0,64256,65728,6,6,4,1460,1517,1,992,76,66348,51868,65700,0,23168,0,0,0
o,0x00000000,1716793063.638532,172.16.1.2,46717,172.16.3.2,5101,22977,26125,0,64256,65728,6,6,4,1460,1517,1,992,76,66348,51868,65700,0,24616,0,0,0
i,0x00000000,1716793063.638630,172.16.1.2,46717,172.16.3.2,5101,22977,26125,0,64256,65728,6,6,4,1460,1517,1,992,76,66348,51868,65700,0,26064,0,0,0
o,0x00000000,1716793063.638632,172.16.1.2,46717,172.16.3.2,5101,22977,27585,0,64256,65728,6,6,4,1460,1516,1,992,74,66348,48972,65700,0,23168,0,0,0
o,0x00000000,1716793063.638714,172.16.1.2,46717,172.16.3.2,5101,22977,27585,0,64256,65728,6,6,4,1460,1516,1,992,74,66348,48972,65700,0,24616,0,0,0
o,0x00000000,1716793063.638789,172.16.1.2,46717,172.16.3.2,5101,22977,27585,0,64256,65728,6,6,4,1460,1516,1,992,74,66348,48972,65700,0,26064,0,0,0
i,0x00000000,1716793063.917165,172.16.1.2,46717,172.16.3.2,5101,22977,27585,0,64256,65728,6,6,4,1460,1516,1,992,74,66348,66348,65700,0,27512,0,0,0
o,0x00000000,1716793063.917188,172.16.1.2,46717,172.16.3.2,5101,22977,27585,0,65728,65728,6,6,4,1460,1627,1,992,104,66348,64900,65700,0,26064,0,0,0
i,0x00000000,1716793064.086347,172.16.1.2,46717,172.16.3.2,5101,22977,27585,0,65728,65728,6,6,4,1460,1627,1,992,104,66348,64900,65700,0,27512,0,0,0
o,0x00000000,1716793064.086369,172.16.1.2,46717,172.16.3.2,5101,22977,27585,0,65728,65728,6,6,4,1460,1620,1,992,97,66348,63452,65700,0,26064,0,0,0
i,0x00000000,1716793064.107230,172.16.1.2,46717,172.16.3.2,5101,22977,27585,0,65728,65728,6,6,4,1460,1620,1,992,97,66348,66348,65700,0,27512,0,0,0
o,0x00000000,1716793064.107244,172.16.1.2,46717,172.16.3.2,5101,22977,27585,0,64256,65728,6,6,4,1460,1610,1,992,93,66348,63452,65700,0,24616,0,0,0
o,0x00000000,1716793064.107332,172.16.1.2,46717,172.16.3.2,5101,22977,27585,0,64256,65728,6,6,4,1460,1610,1,992,93,66348,63452,65700,0,26064,0,0,0
i,0x00000000,1716793064.107406,172.16.1.2,46717,172.16.3.2,5101,22977,27585,0,64256,65728,6,6,4,1460,1610,1,992,93,66348,63452,65700,0,27512,0,0,0
o,0x00000000,1716793064.107409,172.16.1.2,46717,172.16.3.2,5101,22977,27585,0,64256,65728,6,6,4,1460,1601,1,992,89,66348,60556,65700,0,24616,0,0,0
o,0x00000000,1716793064.107483,172.16.1.2,46717,172.16.3.2,5101,22977,27585,0,64256,65728,6,6,4,1460,1601,1,992,89,66348,60556,65700,0,26064,0,0,0
i,0x00000000,1716793064.118331,172.16.1.2,46717,172.16.3.2,5101,22977,27585,0,64256,65728,6,6,4,1460,1601,1,992,89,66348,66348,65700,0,27512,0,0,0
o,0x00000000,1716793064.118342,172.16.1.2,46717,172.16.3.2,5101,22977,27585,0,64256,65728,6,6,4,1460,1589,1,992,87,66348,63452,65700,0,24616,0,0,0
o,0x00000000,1716793064.118428,172.16.1.2,46717,172.16.3.2,5101,22977,27585,0,64256,65728,6,6,4,1460,1589,1,992,87,66348,63452,65700,0,26064,0,0,0
i,0x00000000,1716793064.118518,172.16.1.2,46717,172.16.3.2,5101,22977,27585,0,64256,65728,6,6,4,1460,1589,1,992,87,66348,63452,65700,0,27512,0,0,0
o,0x00000000,1716793064.118521,172.16.1.2,46717,172.16.3.2,5101,22977,27585,0,64256,65728,6,6,4,1460,1579,1,992,85,66348,60556,65700,0,24616,0,0,0
o,0x00000000,1716793064.118706,172.16.1.2,46717,172.16.3.2,5101,22977,27585,0,64256,65728,6,6,4,1460,1579,1,992,85,66348,60556,65700,0,26064,0,0,0
i,0x00000000,1716793064.118875,172.16.1.2,46717,172.16.3.2,5101,22977,27585,0,64256,65728,6,6,4,1460,1579,1,992,85,66348,60556,65700,0,27512,0,0,0
o,0x00000000,1716793064.118878,172.16.1.2,46717,172.16.3.2,5101,22977,27585,0,64256,65728,6,6,4,1460,1570,1,992,83,66348,57660,65700,0,24616,0,0,0
o,0x00000000,1716793064.119013,172.16.1.2,46717,172.16.3.2,5101,22977,27585,0,64256,65728,6,6,4,1460,1570,1,992,83,66348,57660,65700,0,26064,0,0,0
i,0x00000000,1716793064.119390,172.16.1.2,46717,172.16.3.2,5101,22977,27585,0,64256,65728,6,6,4,1460,1570,1,992,83,66348,57660,65700,0,27512,0,0,0
o,0x00000000,1716793064.119395,172.16.1.2,46717,172.16.3.2,5101,22977,27585,0,64256,65728,6,6,4,1460,1562,1,992,81,66348,54764,65700,0,24616,0,0,0
o,0x00000000,1716793064.119490,172.16.1.2,46717,172.16.3.2,5101,22977,27585,0,64256,65728,6,6,4,1460,1562,1,992,81,66348,54764,65700,0,26064,0,0,0
i,0x00000000,1716793064.119571,172.16.1.2,46717,172.16.3.2,5101,22977,27585,0,64256,65728,6,6,4,1460,1562,1,992,81,66348,54764,65700,0,27512,0,0,0
o,0x00000000,1716793064.119574,172.16.1.2,46717,172.16.3.2,5101,22977,27585,0,64256,65728,6,6,4,1460,1555,1,992,80,66348,51868,65700,0,24616,0,0,0
o,0x00000000,1716793064.119670,172.16.1.2,46717,172.16.3.2,5101,22977,27585,0,64256,65728,6,6,4,1460,1555,1,992,80,66348,51868,65700,0,26064,0,0,0
i,0x00000000,1716793064.119749,172.16.1.2,46717,172.16.3.2,5101,22977,27585,0,64256,65728,6,6,4,1460,1555,1,992,80,66348,51868,65700,0,27512,0,0,0
o,0x00000000,1716793064.119752,172.16.1.2,46717,172.16.3.2,5101,22977,29045,0,64256,65728,6,6,4,1460,1549,1,992,78,66348,48972,65700,0,24616,0,0,0
o,0x00000000,1716793064.119846,172.16.1.2,46717,172.16.3.2,5101,22977,29045,0,64256,65728,6,6,4,1460,1549,1,992,78,66348,48972,65700,0,26064,0,0,0
o,0x00000000,1716793064.119919,172.16.1.2,46717,172.16.3.2,5101,22977,29045,0,64256,65728,6,6,4,1460,1549,1,992,78,66348,48972,65700,0,27512,0,0,0
i,0x00000000,1716793064.397304,172.16.1.2,46717,172.16.3.2,5101,22977,29045,0,64256,65728,6,6,4,1460,1549,1,992,78,66348,66348,65700,0,28960,0,0,0
o,0x00000000,1716793064.397327,172.16.1.2,46717,172.16.3.2,5101,22977,29045,0,65728,65728,6,6,4,1460,1660,1,992,107,66348,64900,65700,0,27512,0,0,0
i,0x00000000,1716793064.546836,172.16.1.2,46717,172.16.3.2,5101,22977,29045,0,65728,65728,6,6,4,1460,1660,1,992,107,66348,64900,65700,0,28960,0,0,0
o,0x00000000,1716793064.546865,172.16.1.2,46717,172.16.3.2,5101,22977,29045,0,65728,65728,6,6,4,1460,1705,1,992,111,66348,63452,65700,0,27512,0,0,0
i,0x00000000,1716793064.566821,172.16.1.2,46717,172.16.3.2,5101,22977,29045,0,65728,65728,6,6,4,1460,1705,1,992,111,66348,66348,65700,0,28960,0,0,0
o,0x00000000,1716793064.566842,172.16.1.2,46717,172.16.3.2,5101,22977,29045,0,64256,65728,6,6,4,1460,1684,1,992,106,66348,63452,65700,0,26064,0,0,0
o,0x00000000,1716793064.566937,172.16.1.2,46717,172.16.3.2,5101,22977,29045,0,64256,65728,6,6,4,1460,1684,1,992,106,66348,63452,65700,0,27512,0,0,0
i,0x00000000,1716793064.567015,172.16.1.2,46717,172.16.3.2,5101,22977,29045,0,64256,65728,6,6,4,1460,1684,1,992,106,66348,63452,65700,0,28960,0,0,0
o,0x00000000,1716793064.567019,172.16.1.2,46717,172.16.3.2,5101,22977,29045,0,64256,65728,6,6,4,1460,1658,1,992,103,66348,60556,65700,0,26064,0,0,0
o,0x00000000,1716793064.567115,172.16.1.2,46717,172.16.3.2,5101,22977,29045,0,64256,65728,6,6,4,1460,1658,1,992,103,66348,60556,65700,0,27512,0,0,0
i,0x00000000,1716793064.608538,172.16.1.2,46717,172.16.3.2,5101,22977,29045,0,64256,65728,6,6,4,1460,1658,1,992,103,66348,66348,65700,0,28960,0,0,0
o,0x00000000,1716793064.608557,172.16.1.2,46717,172.16.3.2,5101,22977,29045,0,64256,65728,6,6,4,1460,1647,1,992,98,66348,63452,65700,0,26064,0,0,0
o,0x00000000,1716793064.608646,172.16.1.2,46717,172.16.3.2,5101,22977,29045,0,64256,65728,6,6,4,1460,1647,1,992,98,66348,63452,65700,0,27512,0,0,0
i,0x00000000,1716793064.608773,172.16.1.2,46717,172.16.3.2,5101,22977,29045,0,64256,65728,6,6,4,1460,1647,1,992,98,66348,63452,65700,0,28960,0,0,0
o,0x00000000,1716793064.608776,172.16.1.2,46717,172.16.3.2,5101,22977,29045,0,64256,65728,6,6,4,1460,1638,1,992,93,66348,60556,65700,0,26064,0,0,0
o,0x00000000,1716793064.608852,172.16.1.2,46717,172.16.3.2,5101,22977,29045,0,64256,65728,6,6,4,1460,1638,1,992,93,66348,60556,65700,0,27512,0,0,0
i,0x00000000,1716793064.608928,172.16.1.2,46717,172.16.3.2,5101,22977,29045,0,64256,65728,6,6,4,1460,1638,1,992,93,66348,60556,65700,0,28960,0,0,0
o,0x00000000,1716793064.608930,172.16.1.2,46717,172.16.3.2,5101,22977,29045,0,64256,65728,6,6,4,1460,1630,1,992,89,66348,57660,65700,0,26064,0,0,0
o,0x00000000,1716793064.609005,172.16.1.2,46717,172.16.3.2,5101,22977,29045,0,64256,65728,6,6,4,1460,1630,1,992,89,66348,57660,65700,0,27512,0,0,0
i,0x00000000,1716793064.609296,172.16.1.2,46717,172.16.3.2,5101,22977,29045,0,64256,65728,6,6,4,1460,1630,1,992,89,66348,57660,65700,0,28960,0,0,0
o,0x00000000,1716793064.609300,172.16.1.2,46717,172.16.3.2,5101,22977,29045,0,64256,65728,6,6,4,1460,1623,1,992,86,66348,54764,65700,0,26064,0,0,0
o,0x00000000,1716793064.609376,172.16.1.2,46717,172.16.3.2,5101,22977,29045,0,64256,65728,6,6,4,1460,1623,1,992,86,66348,54764,65700,0,27512,0,0,0
i,0x00000000,1716793064.609660,172.16.1.2,46717,172.16.3.2,5101,22977,29045,0,64256,65728,6,6,4,1460,1623,1,992,86,66348,54764,65700,0,28960,0,0,0
o,0x00000000,1716793064.609664,172.16.1.2,46717,172.16.3.2,5101,22977,29045,0,64256,65728,6,6,4,1460,1617,1,992,84,66348,51868,65700,0,26064,0,0,0
o,0x00000000,1716793064.609737,172.16.1.2,46717,172.16.3.2,5101,22977,29045,0,64256,65728,6,6,4,1460,1617,1,992,84,66348,51868,65700,0,27512,0,0,0
i,0x00000000,1716793064.609810,172.16.1.2,46717,172.16.3.2,5101,22977,29045,0,64256,65728,6,6,4,1460,1617,1,992,84,66348,51868,65700,0,28960,0,0,0
o,0x00000000,1716793064.609813,172.16.1.2,46717,172.16.3.2,5101,22977,29045,0,64256,65728,6,6,4,1460,1611,1,992,82,66348,48972,65700,0,26064,0,0,0
o,0x00000000,1716793064.609886,172.16.1.2,46717,172.16.3.2,5101,22977,29045,0,64256,65728,6,6,4,1460,1611,1,992,82,66348,48972,65700,0,27512,0,0,0
i,0x00000000,1716793064.609958,172.16.1.2,46717,172.16.3.2,5101,22977,29045,0,64256,65728,6,6,4,1460,1611,1,992,82,66348,48972,65700,0,28960,0,0,0
o,0x00000000,1716793064.609961,172.16.1.2,46717,172.16.3.2,5101,22977,30505,0,64256,65728,6,6,4,1460,1606,1,992,80,66348,46076,65700,0,26064,0,0,0
o,0x00000000,1716793064.610044,172.16.1.2,46717,172.16.3.2,5101,22977,30505,0,64256,65728,6,6,4,1460,1606,1,992,80,66348,46076,65700,0,27512,0,0,0
o,0x00000000,1716793064.610143,172.16.1.2,46717,172.16.3.2,5101,22977,30505,0,64256,65728,6,6,4,1460,1606,1,992,80,66348,46076,65700,0,28960,0,0,0
i,0x00000000,1716793065.078303,172.16.1.2,46717,172.16.3.2,5101,22977,30505,0,64256,65728,6,6,4,1460,1606,1,992,80,66348,66348,65700,0,30408,0,0,0
o,0x00000000,1716793065.078328,172.16.1.2,46717,172.16.3.2,5101,22977,30505,0,65728,65728,6,6,4,1460,1674,1,992,97,66348,64900,65700,0,28960,0,0,0
i,0x00000000,1716793065.078580,172.16.1.2,46717,172.16.3.2,5101,22977,30505,0,65728,65728,6,6,4,1460,1674,1,992,97,66348,64900,65700,0,30408,0,0,0
o,0x00000000,1716793065.078585,172.16.1.2,46717,172.16.3.2,5101,22977,30505,0,65728,65728,6,6,4,1460,1673,1,992,91,66348,63452,65700,0,28960,0,0,0
i,0x00000000,1716793065.097769,172.16.1.2,46717,172.16.3.2,5101,22977,30505,0,65728,65728,6,6,4,1460,1673,1,992,91,66348,66348,65700,0,30408,0,0,0
o,0x00000000,1716793065.097779,172.16.1.2,46717,172.16.3.2,5101,22977,30505,0,64256,65728,6,6,4,1460,1672,1,992,86,66348,63452,65700,0,27512,0,0,0
o,0x00000000,1716793065.097878,172.16.1.2,46717,172.16.3.2,5101,22977,30505,0,64256,65728,6,6,4,1460,1672,1,992,86,66348,63452,65700,0,28960,0,0,0
i,0x00000000,1716793065.097968,172.16.1.2,46717,172.16.3.2,5101,22977,30505,0,64256,65728,6,6,4,1460,1672,1,992,86,66348,63452,65700,0,30408,0,0,0
o,0x00000000,1716793065.097971,172.16.1.2,46717,172.16.3.2,5101,22977,30505,0,64256,65728,6,6,4,1460,1671,1,992,83,66348,60556,65700,0,27512,0,0,0
o,0x00000000,1716793065.098066,172.16.1.2,46717,172.16.3.2,5101,22977,30505,0,64256,65728,6,6,4,1460,1671,1,992,83,66348,60556,65700,0,28960,0,0,0
i,0x00000000,1716793065.098148,172.16.1.2,46717,172.16.3.2,5101,22977,30505,0,64256,65728,6,6,4,1460,1671,1,992,83,74540,60556,65700,0,30408,0,0,0
o,0x00000000,1716793065.098152,172.16.1.2,46717,172.16.3.2,5101,22977,30505,0,64256,65728,6,6,4,1460,1659,1,992,83,74540,57660,65700,0,27512,0,0,0
o,0x00000000,1716793065.098229,172.16.1.2,46717,172.16.3.2,5101,22977,30505,0,64256,65728,6,6,4,1460,1659,1,992,83,74540,57660,65700,0,28960,0,0,0
i,0x00000000,1716793065.098302,172.16.1.2,46717,172.16.3.2,5101,22977,30505,0,64256,65728,6,6,4,1460,1659,1,992,83,74540,57660,65700,0,30408,0,0,0
o,0x00000000,1716793065.098305,172.16.1.2,46717,172.16.3.2,5101,22977,30505,0,64256,65728,6,6,4,1460,1648,1,992,83,74540,54764,65700,0,27512,0,0,0
o,0x00000000,1716793065.098378,172.16.1.2,46717,172.16.3.2,5101,22977,30505,0,64256,65728,6,6,4,1460,1648,1,992,83,74540,54764,65700,0,28960,0,0,0
i,0x00000000,1716793065.098771,172.16.1.2,46717,172.16.3.2,5101,22977,30505,0,64256,65728,6,6,4,1460,1648,1,992,83,74540,54764,65700,0,30408,0,0,0
o,0x00000000,1716793065.098774,172.16.1.2,46717,172.16.3.2,5101,22977,30505,0,64256,65728,6,6,4,1460,1638,1,992,82,74540,51868,65700,0,27512,0,0,0
o,0x00000000,1716793065.098848,172.16.1.2,46717,172.16.3.2,5101,22977,30505,0,64256,65728,6,6,4,1460,1638,1,992,82,74540,51868,65700,0,28960,0,0,0
i,0x00000000,1716793065.099131,172.16.1.2,46717,172.16.3.2,5101,22977,30505,0,64256,65728,6,6,4,1460,1638,1,992,82,74540,51868,65700,0,30408,0,0,0
o,0x00000000,1716793065.099134,172.16.1.2,46717,172.16.3.2,5101,22977,30505,0,64256,65728,6,6,4,1460,1630,1,992,81,74540,48972,65700,0,27512,0,0,0
o,0x00000000,1716793065.099208,172.16.1.2,46717,172.16.3.2,5101,22977,30505,0,64256,65728,6,6,4,1460,1630,1,992,81,74540,48972,65700,0,28960,0,0,0
i,0x00000000,1716793065.099281,172.16.1.2,46717,172.16.3.2,5101,22977,30505,0,64256,65728,6,6,4,1460,1630,1,992,81,74540,48972,65700,0,30408,0,0,0
o,0x00000000,1716793065.099284,172.16.1.2,46717,172.16.3.2,5101,22977,30505,0,64256,65728,6,6,4,1460,1623,1,992,80,74540,46076,65700,0,27512,0,0,0
o,0x00000000,1716793065.099358,172.16.1.2,46717,172.16.3.2,5101,22977,30505,0,64256,65728,6,6,4,1460,1623,1,992,80,74540,46076,65700,0,28960,0,0,0
i,0x00000000,1716793065.099450,172.16.1.2,46717,172.16.3.2,5101,22977,30505,0,64256,65728,6,6,4,1460,1623,1,992,80,74540,46076,65700,0,30408,0,0,0
o,0x00000000,1716793065.099453,172.16.1.2,46717,172.16.3.2,5101,22977,30505,0,64256,65728,6,6,4,1460,1617,1,992,79,74540,43180,65700,0,27512,0,0,0
o,0x00000000,1716793065.099606,172.16.1.2,46717,172.16.3.2,5101,22977,30505,0,64256,65728,6,6,4,1460,1617,1,992,79,74540,43180,65700,0,28960,0,0,0
i,0x00000000,1716793065.117724,172.16.1.2,46717,172.16.3.2,5101,22977,30505,0,64256,65728,6,6,4,1460,1617,1,992,79,74540,74540,65700,0,30408,0,0,0
o,0x00000000,1716793065.117747,172.16.1.2,46717,172.16.3.2,5101,22977,30505,0,64256,65728,6,6,4,1460,1619,1,992,77,74540,71644,65700,0,27512,0,0,0
o,0x00000000,1716793065.118132,172.16.1.2,46717,172.16.3.2,5101,22977,30505,0,64256,65728,6,6,4,1460,1619,1,992,77,74540,71644,65700,0,28960,0,0,0
i,0x00000000,1716793065.556443,172.16.1.2,46717,172.16.3.2,5101,22977,30505,0,64256,65728,6,6,4,1460,1619,1,992,77,74540,74540,65700,0,30408,0,0,0
o,0x00000000,1716793065.556471,172.16.1.2,46717,172.16.3.2,5101,22977,31965,0,65728,65728,6,6,4,1460,1797,1,992,126,74540,73092,65700,0,28960,0,0,0
o,0x00000000,1716793065.556746,172.16.1.2,46717,172.16.3.2,5101,22977,31965,0,65728,65728,6,6,4,1460,1797,1,992,126,74540,73092,65700,0,30408,0,0,0
i,0x00000000,1716793065.578072,172.16.1.2,46717,172.16.3.2,5101,22977,31965,0,65728,65728,6,6,4,1460,1797,1,992,126,74540,73092,65700,0,31856,0,0,0
o,0x00000000,1716793065.578105,172.16.1.2,46717,172.16.3.2,5101,22977,31965,0,64256,65728,6,6,4,1460,1773,1,992,118,74540,70196,65700,0,28960,0,0,0
o,0x00000000,1716793065.578371,172.16.1.2,46717,172.16.3.2,5101,22977,31965,0,64256,65728,6,6,4,1460,1773,1,992,118,74540,70196,65700,0,30408,0,0,0
i,0x00000000,1716793065.606580,172.16.1.2,46717,172.16.3.2,5101,22977,31965,0,64256,65728,6,6,4,1460,1773,1,992,118,74540,74540,65700,0,31856,0,0,0
o,0x00000000,1716793065.606599,172.16.1.2,46717,172.16.3.2,5101,22977,31965,0,64256,65728,6,6,4,1460,1756,1,992,111,74540,71644,65700,0,28960,0,0,0
o,0x00000000,1716793065.606689,172.16.1.2,46717,172.16.3.2,5101,22977,31965,0,64256,65728,6,6,4,1460,1756,1,992,111,74540,71644,65700,0,30408,0,0,0
i,0x00000000,1716793065.606777,172.16.1.2,46717,172.16.3.2,5101,22977,31965,0,64256,65728,6,6,4,1460,1756,1,992,111,74540,71644,65700,0,31856,0,0,0
o,0x00000000,1716793065.606782,172.16.1.2,46717,172.16.3.2,5101,22977,31965,0,64256,65728,6,6,4,1460,1741,1,992,105,74540,68748,65700,0,28960,0,0,0
o,0x00000000,1716793065.606865,172.16.1.2,46717,172.16.3.2,5101,22977,31965,0,64256,65728,6,6,4,1460,1741,1,992,105,74540,68748,65700,0,30408,0,0,0
i,0x00000000,1716793065.606939,172.16.1.2,46717,172.16.3.2,5101,22977,31965,0,64256,65728,6,6,4,1460,1741,1,992,105,74540,68748,65700,0,31856,0,0,0
o,0x00000000,1716793065.606942,172.16.1.2,46717,172.16.3.2,5101,22977,31965,0,64256,65728,6,6,4,1460,1728,1,992,101,74540,65852,65700,0,28960,0,0,0
o,0x00000000,1716793065.607016,172.16.1.2,46717,172.16.3.2,5101,22977,31965,0,64256,65728,6,6,4,1460,1728,1,992,101,74540,65852,65700,0,30408,0,0,0
i,0x00000000,1716793065.607303,172.16.1.2,46717,172.16.3.2,5101,22977,31965,0,64256,65728,6,6,4,1460,1728,1,992,101,74540,65852,65700,0,31856,0,0,0
o,0x00000000,1716793065.607306,172.16.1.2,46717,172.16.3.2,5101,22977,31965,0,64256,65728,6,6,4,1460,1716,1,992,96,74540,62956,65700,0,28960,0,0,0
o,0x00000000,1716793065.607381,172.16.1.2,46717,172.16.3.2,5101,22977,31965,0,64256,65728,6,6,4,1460,1716,1,992,96,74540,62956,65700,0,30408,0,0,0
i,0x00000000,1716793065.607455,172.16.1.2,46717,172.16.3.2,5101,22977,31965,0,64256,65728,6,6,4,1460,1716,1,992,96,74540,62956,65700,0,31856,0,0,0
o,0x00000000,1716793065.607458,172.16.1.2,46717,172.16.3.2,5101,22977,31965,0,64256,65728,6,6,4,1460,1706,1,992,93,74540,60060,65700,0,28960,0,0,0
o,0x00000000,1716793065.607532,172.16.1.2,46717,172.16.3.2,5101,22977,31965,0,64256,65728,6,6,4,1460,1706,1,992,93,74540,60060,65700,0,30408,0,0,0
i,0x00000000,1716793065.607606,172.16.1.2,46717,172.16.3.2,5101,22977,31965,0,64256,65728,6,6,4,1460,1706,1,992,93,74540,60060,65700,0,31856,0,0,0
o,0x00000000,1716793065.607609,172.16.1.2,46717,172.16.3.2,5101,22977,31965,0,64256,65728,6,6,4,1460,1697,1,992,90,74540,57164,65700,0,28960,0,0,0
o,0x00000000,1716793065.607681,172.16.1.2,46717,172.16.3.2,5101,22977,31965,0,64256,65728,6,6,4,1460,1697,1,992,90,74540,57164,65700,0,30408,0,0,0
i,0x00000000,1716793065.607768,172.16.1.2,46717,172.16.3.2,5101,22977,31965,0,64256,65728,6,6,4,1460,1697,1,992,90,74540,57164,65700,0,31856,0,0,0
o,0x00000000,1716793065.607770,172.16.1.2,46717,172.16.3.2,5101,22977,31965,0,64256,65728,6,6,4,1460,1689,1,992,87,74540,54268,65700,0,28960,0,0,0
o,0x00000000,1716793065.607852,172.16.1.2,46717,172.16.3.2,5101,22977,31965,0,64256,65728,6,6,4,1460,1689,1,992,87,74540,54268,65700,0,30408,0,0,0
i,0x00000000,1716793065.607924,172.16.1.2,46717,172.16.3.2,5101,22977,31965,0,64256,65728,6,6,4,1460,1689,1,992,87,74540,54268,65700,0,31856,0,0,0
o,0x00000000,1716793065.607927,172.16.1.2,46717,172.16.3.2,5101,22977,31965,0,64256,65728,6,6,4,1460,1682,1,992,85,74540,51372,65700,0,28960,0,0,0
o,0x00000000,1716793065.608000,172.16.1.2,46717,172.16.3.2,5101,22977,31965,0,64256,65728,6,6,4,1460,1682,1,992,85,74540,51372,65700,0,30408,0,0,0
i,0x00000000,1716793065.657839,172.16.1.2,46717,172.16.3.2,5101,22977,31965,0,64256,65728,6,6,4,1460,1682,1,992,85,74540,74540,65700,0,31856,0,0,0
o,0x00000000,1716793065.657873,172.16.1.2,46717,172.16.3.2,5101,22977,31965,0,64256,65728,6,6,4,1460,1688,1,992,84,74540,71644,65700,0,28960,0,0,0
o,0x00000000,1716793065.658137,172.16.1.2,46717,172.16.3.2,5101,22977,31965,0,64256,65728,6,6,4,1460,1688,1,992,84,74540,71644,65700,0,30408,0,0,0
i,0x00000000,1716793066.086823,172.16.1.2,46717,172.16.3.2,5101,22977,31965,0,64256,65728,6,6,4,1460,1688,1,992,84,74540,74540,65700,0,31856,0,0,0
o,0x00000000,1716793066.086845,172.16.1.2,46717,172.16.3.2,5101,22977,33425,0,64256,65728,6,6,4,1460,1689,1,992,81,74540,71644,65700,0,28960,0,0,0
o,0x00000000,1716793066.087201,172.16.1.2,46717,172.16.3.2,5101,22977,33425,0,64256,65728,6,6,4,1460,1689,1,992,81,74540,71644,65700,0,30408,0,0,0
o,0x00000000,1716793066.087486,172.16.1.2,46717,172.16.3.2,5101,22977,33425,0,64256,65728,6,6,4,1460,1689,1,992,81,74540,71644,65700,0,31856,0,0,0
i,0x00000000,1716793066.118053,172.16.1.2,46717,172.16.3.2,5101,22977,33425,0,64256,65728,6,6,4,1460,1689,1,992,81,74540,74540,65700,0,33304,0,0,0
o,0x00000000,1716793066.118072,172.16.1.2,46717,172.16.3.2,5101,22977,33425,0,64256,65728,6,6,4,1460,1694,1,992,80,74540,71644,65700,0,30408,0,0,0
o,0x00000000,1716793066.118400,172.16.1.2,46717,172.16.3.2,5101,22977,33425,0,64256,65728,6,6,4,1460,1694,1,992,80,74540,71644,65700,0,31856,0,0,0
i,0x00000000,1716793066.157626,172.16.1.2,46717,172.16.3.2,5101,22977,33425,0,64256,65728,6,6,4,1460,1694,1,992,80,74540,74540,65700,0,33304,0,0,0
o,0x00000000,1716793066.157669,172.16.1.2,46717,172.16.3.2,5101,22977,33425,0,64256,65728,6,6,4,1460,1703,1,992,81,74540,71644,65700,0,30408,0,0,0
o,0x00000000,1716793066.157803,172.16.1.2,46717,172.16.3.2,5101,22977,33425,0,64256,65728,6,6,4,1460,1703,1,992,81,74540,71644,65700,0,31856,0,0,0
i,0x00000000,1716793066.157900,172.16.1.2,46717,172.16.3.2,5101,22977,33425,0,64256,65728,6,6,4,1460,1703,1,992,81,74540,71644,65700,0,33304,0,0,0
o,0x00000000,1716793066.157903,172.16.1.2,46717,172.16.3.2,5101,22977,33425,0,64256,65728,6,6,4,1460,1711,1,992,81,74540,68748,65700,0,30408,0,0,0
o,0x00000000,1716793066.157985,172.16.1.2,46717,172.16.3.2,5101,22977,33425,0,64256,65728,6,6,4,1460,1711,1,992,81,74540,68748,65700,0,31856,0,0,0
i,0x00000000,1716793066.158293,172.16.1.2,46717,172.16.3.2,5101,22977,33425,0,64256,65728,6,6,4,1460,1711,1,992,81,74540,68748,65700,0,33304,0,0,0
o,0x00000000,1716793066.158297,172.16.1.2,46717,172.16.3.2,5101,22977,33425,0,64256,65728,6,6,4,1460,1718,1,992,81,74540,65852,65700,0,30408,0,0,0
o,0x00000000,1716793066.158371,172.16.1.2,46717,172.16.3.2,5101,22977,33425,0,64256,65728,6,6,4,1460,1718,1,992,81,74540,65852,65700,0,31856,0,0,0
i,0x00000000,1716793066.158448,172.16.1.2,46717,172.16.3.2,5101,22977,33425,0,64256,65728,6,6,4,1460,1718,1,992,81,82732,65852,65700,0,33304,0,0,0
o,0x00000000,1716793066.158450,172.16.1.2,46717,172.16.3.2,5101,22977,33425,0,64256,65728,6,6,4,1460,1724,1,992,81,82732,62956,65700,0,30408,0,0,0
o,0x00000000,1716793066.158525,172.16.1.2,46717,172.16.3.2,5101,22977,33425,0,64256,65728,6,6,4,1460,1724,1,992,81,82732,62956,65700,0,31856,0,0,0
i,0x00000000,1716793066.158600,172.16.1.2,46717,172.16.3.2,5101,22977,33425,0,64256,65728,6,6,4,1460,1724,1,992,81,82732,62956,65700,0,33304,0,0,0
o,0x00000000,1716793066.158602,172.16.1.2,46717,172.16.3.2,5101,22977,33425,0,64256,65728,6,6,4,1460,1729,1,992,81,82732,60060,65700,0,30408,0,0,0
o,0x00000000,1716793066.158702,172.16.1.2,46717,172.16.3.2,5101,22977,33425,0,64256,65728,6,6,4,1460,1729,1,992,81,82732,60060,65700,0,31856,0,0,0
i,0x00000000,1716793066.159011,172.16.1.2,46717,172.16.3.2,5101,22977,33425,0,64256,65728,6,6,4,1460,1729,1,992,81,82732,60060,65700,0,33304,0,0,0
o,0x00000000,1716793066.159013,172.16.1.2,46717,172.16.3.2,5101,22977,33425,0,64256,65728,6,6,4,1460,1733,1,992,80,82732,57164,65700,0,30408,0,0,0
o,0x00000000,1716793066.159088,172.16.1.2,46717,172.16.3.2,5101,22977,33425,0,64256,65728,6,6,4,1460,1733,1,992,80,82732,57164,65700,0,31856,0,0,0
i,0x00000000,1716793066.159162,172.16.1.2,46717,172.16.3.2,5101,22977,33425,0,64256,65728,6,6,4,1460,1733,1,992,80,82732,57164,65700,0,33304,0,0,0
o,0x00000000,1716793066.159164,172.16.1.2,46717,172.16.3.2,5101,22977,33425,0,64256,65728,6,6,4,1460,1737,1,992,80,82732,54268,65700,0,30408,0,0,0
o,0x00000000,1716793066.159238,172.16.1.2,46717,172.16.3.2,5101,22977,33425,0,64256,65728,6,6,4,1460,1737,1,992,80,82732,54268,65700,0,31856,0,0,0
i,0x00000000,1716793066.159311,172.16.1.2,46717,172.16.3.2,5101,22977,33425,0,64256,65728,6,6,4,1460,1737,1,992,80,82732,54268,65700,0,33304,0,0,0
o,0x00000000,1716793066.159313,172.16.1.2,46717,172.16.3.2,5101,22977,33425,0,64256,65728,6,6,4,1460,1740,1,992,79,82732,51372,65700,0,30408,0,0,0
o,0x00000000,1716793066.159387,172.16.1.2,46717,172.16.3.2,5101,22977,33425,0,64256,65728,6,6,4,1460,1740,1,992,79,82732,51372,65700,0,31856,0,0,0
i,0x00000000,1716793066.217543,172.16.1.2,46717,172.16.3.2,5101,22977,33425,0,64256,65728,6,6,4,1460,1740,1,992,79,82732,82732,65700,0,33304,0,0,0
o,0x00000000,1716793066.217566,172.16.1.2,46717,172.16.3.2,5101,22977,33425,0,64256,65728,6,6,4,1460,1747,1,992,80,82732,79836,65700,0,30408,0,0,0
o,0x00000000,1716793066.217905,172.16.1.2,46717,172.16.3.2,5101,22977,33425,0,64256,65728,6,6,4,1460,1747,1,992,80,82732,79836,65700,0,31856,0,0,0
i,0x00000000,1716793066.648662,172.16.1.2,46717,172.16.3.2,5101,22977,33425,0,64256,65728,6,6,4,1460,1747,1,992,80,82732,82732,65700,0,33304,0,0,0
o,0x00000000,1716793066.648790,172.16.1.2,46717,172.16.3.2,5101,22977,33425,0,64256,65728,6,6,4,1460,1753,1,992,80,82732,79836,65700,0,30408,0,0,0
o,0x00000000,1716793066.649219,172.16.1.2,46717,172.16.3.2,5101,22977,33425,0,64256,65728,6,6,4,1460,1753,1,992,80,82732,79836,65700,0,31856,0,0,0
i,0x00000000,1716793066.677385,172.16.1.2,46717,172.16.3.2,5101,22977,33425,0,64256,65728,6,6,4,1460,1753,1,992,80,82732,82732,65700,0,33304,0,0,0
o,0x00000000,1716793066.677406,172.16.1.2,46717,172.16.3.2,5101,22977,34885,0,65728,65728,6,6,4,1460,1770,1,992,84,82732,81284,65700,0,31856,0,0,0
o,0x00000000,1716793066.677772,172.16.1.2,46717,172.16.3.2,5101,22977,34885,0,65728,65728,6,6,4,1460,1770,1,992,84,82732,81284,65700,0,33304,0,0,0
i,0x00000000,1716793066.707303,172.16.1.2,46717,172.16.3.2,5101,22977,34885,0,65728,65728,6,6,4,1460,1770,1,992,84,82732,81284,65700,0,34752,0,0,0
o,0x00000000,1716793066.707325,172.16.1.2,46717,172.16.3.2,5101,22977,34885,0,64256,65728,6,6,4,1460,1785,1,992,86,82732,78388,65700,0,31856,0,0,0
o,0x00000000,1716793066.707429,172.16.1.2,46717,172.16.3.2,5101,22977,34885,0,64256,65728,6,6,4,1460,1785,1,992,86,82732,78388,65700,0,33304,0,0,0
i,0x00000000,1716793066.707532,172.16.1.2,46717,172.16.3.2,5101,22977,34885,0,64256,65728,6,6,4,1460,1785,1,992,86,82732,78388,65700,0,34752,0,0,0
o,0x00000000,1716793066.707536,172.16.1.2,46717,172.16.3.2,5101,22977,34885,0,64256,65728,6,6,4,1460,1782,1,992,84,82732,75492,65700,0,31856,0,0,0
o,0x00000000,1716793066.707622,172.16.1.2,46717,172.16.3.2,5101,22977,34885,0,64256,65728,6,6,4,1460,1782,1,992,84,82732,75492,65700,0,33304,0,0,0
i,0x00000000,1716793066.707702,172.16.1.2,46717,172.16.3.2,5101,22977,34885,0,64256,65728,6,6,4,1460,1782,1,992,84,82732,75492,65700,0,34752,0,0,0
o,0x00000000,1716793066.707704,172.16.1.2,46717,172.16.3.2,5101,22977,34885,0,64256,65728,6,6,4,1460,1780,1,992,82,82732,72596,65700,0,31856,0,0,0
o,0x00000000,1716793066.707779,172.16.1.2,46717,172.16.3.2,5101,22977,34885,0,64256,65728,6,6,4,1460,1780,1,992,82,82732,72596,65700,0,33304,0,0,0
i,0x00000000,1716793066.708676,172.16.1.2,46717,172.16.3.2,5101,22977,34885,0,64256,65728,6,6,4,1460,1780,1,992,82,82732,82732,65700,0,34752,0,0,0
o,0x00000000,1716793066.708679,172.16.1.2,46717,172.16.3.2,5101,22977,34885,0,64256,65728,6,6,4,1460,1778,1,992,81,82732,79836,65700,0,31856,0,0,0
o,0x00000000,1716793066.708754,172.16.1.2,46717,172.16.3.2,5101,22977,34885,0,64256,65728,6,6,4,1460,1778,1,992,81,82732,79836,65700,0,33304,0,0,0
i,0x00000000,1716793066.708827,172.16.1.2,46717,172.16.3.2,5101,22977,34885,0,64256,65728,6,6,4,1460,1778,1,992,81,82732,79836,65700,0,34752,0,0,0
o,0x00000000,1716793066.708830,172.16.1.2,46717,172.16.3.2,5101,22977,34885,0,64256,65728,6,6,4,1460,1776,1,992,80,82732,76940,65700,0,31856,0,0,0
o,0x00000000,1716793066.708904,172.16.1.2,46717,172.16.3.2,5101,22977,34885,0,64256,65728,6,6,4,1460,1776,1,992,80,82732,76940,65700,0,33304,0,0,0
i,0x00000000,1716793066.708984,172.16.1.2,46717,172.16.3.2,5101,22977,34885,0,64256,65728,6,6,4,1460,1776,1,992,80,82732,76940,65700,0,34752,0,0,0
o,0x00000000,1716793066.708987,172.16.1.2,46717,172.16.3.2,5101,22977,34885,0,64256,65728,6,6,4,1460,1774,1,992,79,82732,74044,65700,0,31856,0,0,0
o,0x00000000,1716793066.709069,172.16.1.2,46717,172.16.3.2,5101,22977,34885,0,64256,65728,6,6,4,1460,1774,1,992,79,82732,74044,65700,0,33304,0,0,0
i,0x00000000,1716793066.709148,172.16.1.2,46717,172.16.3.2,5101,22977,34885,0,64256,65728,6,6,4,1460,1774,1,992,79,82732,74044,65700,0,34752,0,0,0
o,0x00000000,1716793066.709151,172.16.1.2,46717,172.16.3.2,5101,22977,34885,0,64256,65728,6,6,4,1460,1773,1,992,78,82732,71148,65700,0,31856,0,0,0
o,0x00000000,1716793066.709257,172.16.1.2,46717,172.16.3.2,5101,22977,34885,0,64256,65728,6,6,4,1460,1773,1,992,78,82732,71148,65700,0,33304,0,0,0
i,0x00000000,1716793066.709350,172.16.1.2,46717,172.16.3.2,5101,22977,34885,0,64256,65728,6,6,4,1460,1773,1,992,78,82732,71148,65700,0,34752,0,0,0
o,0x00000000,1716793066.709352,172.16.1.2,46717,172.16.3.2,5101,22977,34885,0,64256,65728,6,6,4,1460,1772,1,992,78,82732,68252,65700,0,31856,0,0,0
o,0x00000000,1716793066.709447,172.16.1.2,46717,172.16.3.2,5101,22977,34885,0,64256,65728,6,6,4,1460,1772,1,992,78,82732,68252,65700,0,33304,0,0,0
i,0x00000000,1716793066.709894,172.16.1.2,46717,172.16.3.2,5101,22977,34885,0,64256,65728,6,6,4,1460,1772,1,992,78,82732,68252,65700,0,34752,0,0,0
o,0x00000000,1716793066.709898,172.16.1.2,46717,172.16.3.2,5101,22977,34885,0,64256,65728,6,6,4,1460,1771,1,992,77,82732,65356,65700,0,31856,0,0,0
o,0x00000000,1716793066.709999,172.16.1.2,46717,172.16.3.2,5101,22977,34885,0,64256,65728,6,6,4,1460,1771,1,992,77,82732,65356,65700,0,33304,0,0,0
i,0x00000000,1716793066.757691,172.16.1.2,46717,172.16.3.2,5101,22977,34885,0,64256,65728,6,6,4,1460,1771,1,992,77,82732,82732,65700,0,34752,0,0,0
o,0x00000000,1716793066.757767,172.16.1.2,46717,172.16.3.2,5101,22977,34885,0,64256,65728,6,6,4,1460,1766,1,992,78,82732,79836,65700,0,31856,0,0,0
o,0x00000000,1716793066.758080,172.16.1.2,46717,172.16.3.2,5101,22977,34885,0,64256,65728,6,6,4,1460,1766,1,992,78,82732,79836,65700,0,33304,0,0,0
i,0x00000000,1716793067.237059,172.16.1.2,46717,172.16.3.2,5101,22977,34885,0,64256,65728,6,6,4,1460,1766,1,992,78,82732,82732,65700,0,34752,0,0,0
o,0x00000000,1716793067.237082,172.16.1.2,46717,172.16.3.2,5101,22977,34885,0,64256,65728,6,6,4,1460,1778,1,992,81,82732,79836,65700,0,31856,0,0,0
o,0x00000000,1716793067.237428,172.16.1.2,46717,172.16.3.2,5101,22977,34885,0,64256,65728,6,6,4,1460,1778,1,992,81,82732,79836,65700,0,33304,0,0,0
i,0x00000000,1716793067.267829,172.16.1.2,46717,172.16.3.2,5101,22977,34885,0,64256,65728,6,6,4,1460,1778,1,992,81,82732,82732,65700,0,34752,0,0,0
o,0x00000000,1716793067.267931,172.16.1.2,46717,172.16.3.2,5101,22977,36345,0,64256,65728,6,6,4,1460,1792,1,992,83,82732,79836,65700,0,31856,0,0,0
