enable_time_secs=1716791402	enable_time_usecs=330001	siftrver=1.2.4	hz=100	tcp_rtt_scale=32	sysname=FreeBSD	sysver=1301000	ipmode=4
o,0x00000000,1716791402.330033,10.0.2.15,22,10.0.2.2,55025,1073725440,17298,0,65535,65700,0,0,4,1460,1,0,4,24,33580,44,65700,0,0,0,0,0
o,0x00000000,1716791402.330136,10.0.2.15,22,10.0.2.2,55025,1073725440,17298,0,65535,65700,0,0,4,1460,1,0,4,24,33580,80,65700,0,44,0,0,0
i,0x00000000,1716791402.330589,10.0.2.15,22,10.0.2.2,55025,1073725440,17298,0,65535,65700,0,0,4,1460,1,0,4,24,33580,80,65700,0,80,0,0,0
i,0x00000000,1716791402.330592,10.0.2.15,22,10.0.2.2,55025,1073725440,17342,0,65535,65700,0,0,4,1460,1,0,4,24,33580,36,65700,0,36,0,0,0
o,0x00000000,1716791402.330655,10.0.2.15,22,10.0.2.2,55025,1073725440,17378,0,65535,65700,0,0,4,1460,1,0,4,24,33580,36,65700,0,0,0,0,0
i,0x00000000,1716791402.331107,10.0.2.15,22,10.0.2.2,55025,1073725440,17378,0,65535,65700,0,0,4,1460,1,0,4,24,33580,36,65700,0,36,0,0,0
o,0x00000000,1716791402.331304,10.0.2.15,22,10.0.2.2,55025,1073725440,17414,0,65535,65700,0,0,4,1460,1,0,4,24,33580,176,65700,0,0,0,0,0
i,0x00000000,1716791402.332038,10.0.2.15,22,10.0.2.2,55025,1073725440,17414,0,65535,65700,0,0,4,1460,1,0,4,24,33580,176,65700,0,176,0,0,0
i,0x00000000,1716791402.332974,10.0.2.15,22,10.0.2.2,55025,1073725440,17590,0,65535,65700,0,0,4,1460,1,0,4,24,33580,0,65700,0,0,0,0,0
i,0x00000000,1716791402.332978,10.0.2.15,22,10.0.2.2,55025,1073725440,17590,0,65535,65700,0,0,4,1460,1,0,4,24,33580,0,65700,36,0,0,0,0
o,0x00000000,1716791402.332980,10.0.2.15,22,10.0.2.2,55025,1073725440,17590,0,65535,65700,0,0,4,1460,1,0,5,24,33580,0,65700,96,0,0,0,0
i,0x00000000,1716791402.333062,10.0.2.15,22,10.0.2.2,55025,1073725440,17590,0,65535,65700,0,0,4,1460,1,0,4,24,33580,0,65700,96,0,0,0,0
o,0x00000000,1716791402.333066,10.0.2.15,22,10.0.2.2,55025,1073725440,17590,0,65535,65604,0,0,5,1460,1,0,7,24,33580,0,65700,96,0,0,0,0
o,0x00000000,1716791402.333733,10.0.2.15,22,10.0.2.2,55025,1073725440,17590,0,65535,65604,0,0,8,1460,1,0,4,24,33580,0,65700,0,0,0,0,0
i,0x00000000,1716791402.334287,10.0.2.15,22,10.0.2.2,55025,1073725440,17590,0,65535,65604,0,0,8,1460,1,0,20,24,33580,0,65700,0,1,0,0,0
i,0x00000000,1716791404.515811,10.0.2.15,22,10.0.2.2,55030,1073725440,14600,0,65535,65700,0,0,4,1460,1,0,0,27,33580,0,65700,0,0,0,0,0
o,0x00000000,1716791404.522094,10.0.2.15,22,10.0.2.2,55030,1073725440,14600,0,65535,65700,0,0,4,1460,1,0,0,27,33580,38,65700,41,0,0,0,0
i,0x00000000,1716791404.522622,10.0.2.15,22,10.0.2.2,55030,1073725440,14600,0,65535,65700,0,0,4,1460,1,0,0,27,33580,38,65700,0,38,0,0,0
i,0x00000000,1716791404.524069,10.0.2.15,22,10.0.2.2,55030,1073725440,14638,0,65535,65700,0,0,4,1460,1,0,0,24,33580,0,65700,0,0,0,0,0
i,0x00000000,1716791404.524072,10.0.2.15,22,10.0.2.2,55030,1073725440,14638,0,65535,65700,0,0,4,1460,1,0,0,24,33580,0,65700,1460,0,0,0,0
o,0x00000000,1716791404.524075,10.0.2.15,22,10.0.2.2,55030,1073725440,14638,0,65535,65700,0,0,4,1460,1,0,1,24,33580,0,65700,1536,0,0,0,0
o,0x00000000,1716791404.524685,10.0.2.15,22,10.0.2.2,55030,1073725440,14638,0,65535,65700,0,0,4,1460,1,0,0,24,33580,1056,65700,1536,0,0,0,0
i,0x00000000,1716791404.525644,10.0.2.15,22,10.0.2.2,55030,1073725440,14638,0,65535,65700,0,0,4,1460,1,0,0,24,33580,1056,65700,1536,1056,0,0,0
i,0x00000000,1716791404.527097,10.0.2.15,22,10.0.2.2,55030,1073725440,15694,0,65535,65700,0,0,4,1460,1,0,0,24,33580,0,65700,0,0,0,0,0
o,0x00000000,1716791404.529884,10.0.2.15,22,10.0.2.2,55030,1073725440,15694,0,65535,65700,0,0,4,1460,1,0,0,24,33580,484,65700,0,0,0,0,0
i,0x00000000,1716791404.530312,10.0.2.15,22,10.0.2.2,55030,1073725440,15694,0,65535,65700,0,0,4,1460,1,0,0,24,33580,484,65700,0,484,0,0,0
i,0x00000000,1716791404.535411,10.0.2.15,22,10.0.2.2,55030,1073725440,16178,0,65535,65700,0,0,4,1460,1,0,0,24,33580,0,65700,0,0,0,0,0
i,0x00000000,1716791404.539414,10.0.2.15,22,10.0.2.2,55030,1073725440,16178,0,65535,65700,0,0,4,1460,1,0,0,24,33580,0,65700,0,0,0,0,0
o,0x00000000,1716791404.539418,10.0.2.15,22,10.0.2.2,55030,1073725440,16178,0,65535,65700,0,0,4,1460,1,0,1,24,33580,0,65700,44,0,0,0,0
o,0x00000000,1716791404.539558,10.0.2.15,22,10.0.2.2,55030,1073725440,16178,0,65535,65700,0,0,4,1460,1,0,0,24,33580,44,65700,0,0,0,0,0
i,0x00000000,1716791404.540071,10.0.2.15,22,10.0.2.2,55030,1073725440,16178,0,65535,65700,0,0,4,1460,1,0,0,24,33580,44,65700,0,44,0,0,0
i,0x00000000,1716791404.540586,10.0.2.15,22,10.0.2.2,55030,1073725440,16222,0,65535,65700,0,0,4,1460,1,0,0,24,33580,0,65700,0,0,0,0,0
o,0x00000000,1716791404.550561,10.0.2.15,22,10.0.2.2,55030,1073725440,16222,0,65535,65700,0,0,4,1460,1,0,0,24,33580,68,65700,0,0,0,0,0
i,0x00000000,1716791404.551085,10.0.2.15,22,10.0.2.2,55030,1073725440,16222,0,65535,65700,0,0,4,1460,1,0,0,24,33580,68,65700,0,68,0,0,0
i,0x00000000,1716791404.553478,10.0.2.15,22,10.0.2.2,55030,1073725440,16290,0,65535,65700,0,0,4,1460,1,0,0,24,33580,0,65700,0,0,0,0,0
o,0x00000000,1716791404.563043,10.0.2.15,22,10.0.2.2,55030,1073725440,16290,0,65535,65700,0,0,4,1460,1,0,0,24,33580,28,65700,0,0,0,0,0
i,0x00000000,1716791404.563860,10.0.2.15,22,10.0.2.2,55030,1073725440,16290,0,65535,65700,0,0,4,1460,1,0,0,24,33580,28,65700,0,28,0,0,0
o,0x00000000,1716791404.564737,10.0.2.15,22,10.0.2.2,55030,1073725440,16318,0,65535,65700,0,0,4,1460,1,0,0,24,33580,768,65700,0,0,0,0,0
i,0x00000000,1716791404.566185,10.0.2.15,22,10.0.2.2,55030,1073725440,16318,0,65535,65700,0,0,4,1460,1,0,0,24,33580,768,65700,0,768,0,0,0
i,0x00000000,1716791404.566188,10.0.2.15,22,10.0.2.2,55030,1073725440,16318,0,65535,65700,0,0,4,1460,1,0,0,24,33580,768,65700,112,768,0,0,0
o,0x00000000,1716791404.566292,10.0.2.15,22,10.0.2.2,55030,1073725440,17086,0,65535,65700,0,0,4,1460,1,0,0,23,33580,44,65700,0,0,0,0,0
i,0x00000000,1716791404.566857,10.0.2.15,22,10.0.2.2,55030,1073725440,17086,0,65535,65700,0,0,4,1460,1,0,0,23,33580,44,65700,0,44,0,0,0
i,0x00000000,1716791404.567650,10.0.2.15,22,10.0.2.2,55030,1073725440,17130,0,65535,65700,0,0,4,1460,1,0,0,23,33580,0,65700,0,0,0,0,0
o,0x00000000,1716791404.567965,10.0.2.15,22,10.0.2.2,55030,1073725440,17130,0,65535,65700,0,0,4,1460,1,0,4,23,33580,72,65700,0,0,0,0,0
i,0x00000000,1716791404.568677,10.0.2.15,22,10.0.2.2,55030,1073725440,17130,0,65535,65700,0,0,4,1460,1,0,4,23,33580,72,65700,0,72,0,0,0
o,0x00000000,1716791404.571222,10.0.2.15,22,10.0.2.2,55030,1073725440,17202,0,65535,65700,0,0,4,1460,1,0,4,23,33580,44,65700,0,0,0,0,0
i,0x00000000,1716791404.571752,10.0.2.15,22,10.0.2.2,55030,1073725440,17202,0,65535,65700,0,0,4,1460,1,0,4,23,33580,44,65700,0,44,0,0,0
o,0x00000000,1716791404.572237,10.0.2.15,22,10.0.2.2,55030,1073725440,17246,0,65535,65700,0,0,4,1460,1,0,4,23,33580,44,65700,0,0,0,0,0
i,0x00000000,1716791404.572972,10.0.2.15,22,10.0.2.2,55030,1073725440,17246,0,65535,65700,0,0,4,1460,1,0,4,23,33580,44,65700,0,44,0,0,0
o,0x00000000,1716791404.576449,10.0.2.15,22,10.0.2.2,55030,1073725440,17290,0,65535,65700,0,0,4,1460,1,0,4,24,33580,176,65700,0,0,0,0,0
i,0x00000000,1716791404.577126,10.0.2.15,22,10.0.2.2,55030,1073725440,17290,0,65535,65700,0,0,4,1460,1,0,4,24,33580,176,65700,0,176,0,0,0
i,0x00000000,1716791404.577769,10.0.2.15,22,10.0.2.2,55030,1073725440,17466,0,65535,65700,0,0,4,1460,1,0,4,24,33580,0,65700,0,0,0,0,0
i,0x00000000,1716791404.577772,10.0.2.15,22,10.0.2.2,55030,1073725440,17466,0,65535,65700,0,0,4,1460,1,0,4,24,33580,0,65700,96,0,0,0,0
o,0x00000000,1716791404.577776,10.0.2.15,22,10.0.2.2,55030,1073725440,17466,0,65535,65604,0,0,5,1460,1,0,5,24,33580,0,65700,96,0,0,0,0
o,0x00000000,1716791404.582653,10.0.2.15,22,10.0.2.2,55030,1073725440,17466,0,65535,65604,0,0,8,1460,1,0,4,24,33580,0,65700,0,0,0,0,0
i,0x00000000,1716791404.583469,10.0.2.15,22,10.0.2.2,55030,1073725440,17466,0,65535,65604,0,0,8,1460,1,0,20,24,33580,0,65700,0,1,0,0,0
i,0x00000000,1716791405.668813,10.0.2.15,22,10.0.2.2,55032,1073725440,14600,0,65535,65700,0,0,4,1460,1,0,0,27,33580,0,65700,0,0,0,0,0
o,0x00000000,1716791405.676587,10.0.2.15,22,10.0.2.2,55032,1073725440,14600,0,65535,65700,0,0,4,1460,1,0,0,27,33580,38,65700,41,0,0,0,0
i,0x00000000,1716791405.677320,10.0.2.15,22,10.0.2.2,55032,1073725440,14600,0,65535,65700,0,0,4,1460,1,0,0,27,33580,38,65700,41,38,0,0,0
i,0x00000000,1716791405.678091,10.0.2.15,22,10.0.2.2,55032,1073725440,14638,0,65535,65700,0,0,4,1460,1,0,0,24,33580,0,65700,0,0,0,0,0
i,0x00000000,1716791405.678111,10.0.2.15,22,10.0.2.2,55032,1073725440,14638,0,65535,65700,0,0,4,1460,1,0,0,24,33580,0,65700,1460,0,0,0,0
o,0x00000000,1716791405.678116,10.0.2.15,22,10.0.2.2,55032,1073725440,14638,0,65535,65700,0,0,4,1460,1,0,1,24,33580,0,65700,1536,0,0,0,0
o,0x00000000,1716791405.678594,10.0.2.15,22,10.0.2.2,55032,1073725440,14638,0,65535,65700,0,0,4,1460,1,0,0,24,33580,1056,65700,1536,0,0,0,0
i,0x00000000,1716791405.679312,10.0.2.15,22,10.0.2.2,55032,1073725440,14638,0,65535,65700,0,0,4,1460,1,0,0,24,33580,1056,65700,1536,1056,0,0,0
i,0x00000000,1716791405.680961,10.0.2.15,22,10.0.2.2,55032,1073725440,15694,0,65535,65700,0,0,4,1460,1,0,0,24,33580,0,65700,0,0,0,0,0
o,0x00000000,1716791405.683515,10.0.2.15,22,10.0.2.2,55032,1073725440,15694,0,65535,65700,0,0,4,1460,1,0,0,24,33580,484,65700,0,0,0,0,0
i,0x00000000,1716791405.684300,10.0.2.15,22,10.0.2.2,55032,1073725440,15694,0,65535,65700,0,0,4,1460,1,0,0,24,33580,484,65700,0,484,0,0,0
i,0x00000000,1716791405.689203,10.0.2.15,22,10.0.2.2,55032,1073725440,16178,0,65535,65700,0,0,4,1460,1,0,0,24,33580,0,65700,0,0,0,0,0
i,0x00000000,1716791405.693642,10.0.2.15,22,10.0.2.2,55032,1073725440,16178,0,65535,65700,0,0,4,1460,1,0,0,24,33580,0,65700,0,0,0,0,0
o,0x00000000,1716791405.693649,10.0.2.15,22,10.0.2.2,55032,1073725440,16178,0,65535,65700,0,0,4,1460,1,0,1,24,33580,0,65700,44,0,0,0,0
o,0x00000000,1716791405.693808,10.0.2.15,22,10.0.2.2,55032,1073725440,16178,0,65535,65700,0,0,4,1460,1,0,0,24,33580,44,65700,0,0,0,0,0
i,0x00000000,1716791405.694252,10.0.2.15,22,10.0.2.2,55032,1073725440,16178,0,65535,65700,0,0,4,1460,1,0,0,24,33580,44,65700,0,44,0,0,0
i,0x00000000,1716791405.694932,10.0.2.15,22,10.0.2.2,55032,1073725440,16222,0,65535,65700,0,0,4,1460,1,0,0,24,33580,0,65700,0,0,0,0,0
o,0x00000000,1716791405.703747,10.0.2.15,22,10.0.2.2,55032,1073725440,16222,0,65535,65700,0,0,4,1460,1,0,0,24,33580,68,65700,0,0,0,0,0
i,0x00000000,1716791405.704312,10.0.2.15,22,10.0.2.2,55032,1073725440,16222,0,65535,65700,0,0,4,1460,1,0,0,24,33580,68,65700,0,68,0,0,0
i,0x00000000,1716791405.706731,10.0.2.15,22,10.0.2.2,55032,1073725440,16290,0,65535,65700,0,0,4,1460,1,0,0,24,33580,0,65700,0,0,0,0,0
o,0x00000000,1716791405.716727,10.0.2.15,22,10.0.2.2,55032,1073725440,16290,0,65535,65700,0,0,4,1460,1,0,0,24,33580,28,65700,0,0,0,0,0
i,0x00000000,1716791405.717164,10.0.2.15,22,10.0.2.2,55032,1073725440,16290,0,65535,65700,0,0,4,1460,1,0,0,24,33580,28,65700,0,28,0,0,0
i,0x00000000,1716791405.717739,10.0.2.15,22,10.0.2.2,55032,1073725440,16318,0,65535,65700,0,0,4,1460,1,0,0,24,33580,0,65700,0,0,0,0,0
o,0x00000000,1716791405.718386,10.0.2.15,22,10.0.2.2,55032,1073725440,16318,0,65535,65700,0,0,4,1460,1,0,0,24,33580,768,65700,112,0,0,0,0
i,0x00000000,1716791405.718809,10.0.2.15,22,10.0.2.2,55032,1073725440,16318,0,65535,65700,0,0,4,1460,1,0,0,24,33580,768,65700,112,768,0,0,0
o,0x00000000,1716791405.718915,10.0.2.15,22,10.0.2.2,55032,1073725440,17086,0,65535,65700,0,0,4,1460,1,0,0,24,33580,44,65700,0,0,0,0,0
i,0x00000000,1716791405.719303,10.0.2.15,22,10.0.2.2,55032,1073725440,17086,0,65535,65700,0,0,4,1460,1,0,0,24,33580,44,65700,0,44,0,0,0
i,0x00000000,1716791405.719776,10.0.2.15,22,10.0.2.2,55032,1073725440,17130,0,65535,65700,0,0,4,1460,1,0,0,24,33580,0,65700,0,0,0,0,0
o,0x00000000,1716791405.720142,10.0.2.15,22,10.0.2.2,55032,1073725440,17130,0,65535,65700,0,0,4,1460,1,0,4,24,33580,72,65700,0,0,0,0,0
i,0x00000000,1716791405.720930,10.0.2.15,22,10.0.2.2,55032,1073725440,17130,0,65535,65700,0,0,4,1460,1,0,4,24,33580,72,65700,0,72,0,0,0
i,0x00000000,1716791405.720958,10.0.2.15,22,10.0.2.2,55032,1073725440,17202,0,65535,65700,0,0,4,1460,1,0,4,24,33580,0,65700,0,0,0,0,0
o,0x00000000,1716791405.726361,172.16.1.2,49415,172.16.3.2,5101,1073725440,1073725440,0,0,0,0,0,2,536,0,1,672,100,32768,0,65536,0,0,0,0,0
o,0x00000000,1716791405.756195,10.0.2.15,22,10.0.2.2,55032,1073725440,17202,0,65535,65700,0,0,4,1460,1,0,5,24,33580,0,65700,0,0,0,0,0
i,0x00000000,1716791405.842705,172.16.1.2,49415,172.16.3.2,5101,1073725440,1073725440,0,0,0,0,0,2,536,0,1,672,100,32768,0,65536,0,1,0,0,0
o,0x00000000,1716791405.842728,172.16.1.2,49415,172.16.3.2,5101,14437,14480,0,65535,65700,6,6,4,1460,1085,1,993,169,33580,0,65700,0,0,0,0,0
o,0x00000000,1716791405.843161,172.16.1.2,49415,172.16.3.2,5101,14437,14480,0,65535,65700,6,6,4,1460,1085,1,996,169,33580,37,65700,0,0,0,0,0
i,0x00000000,1716791405.962107,172.16.1.2,49415,172.16.3.2,5101,14437,14480,0,65535,65700,6,6,4,1460,1085,1,996,169,33580,37,65700,0,37,0,0,0
o,0x00000000,1716791405.962273,172.16.1.2,49415,172.16.3.2,5101,14437,14480,0,65728,65728,6,6,4,1460,994,1,996,160,33580,4,65700,0,0,0,0,0
o,0x00000000,1716791405.962635,172.16.1.2,49415,172.16.3.2,5101,14437,14480,0,65728,65728,6,6,4,1460,994,1,996,160,33580,128,65700,0,4,0,0,0
i,0x00000000,1716791406.081809,172.16.1.2,49415,172.16.3.2,5101,14437,14480,0,65728,65728,6,6,4,1460,994,1,996,160,33580,128,65700,0,128,0,0,0
i,0x00000000,1716791406.081823,172.16.1.2,49415,172.16.3.2,5101,14437,14480,0,65600,65728,6,6,4,1460,918,1,996,150,33580,0,65700,0,0,0,0,0
o,0x00000000,1716791406.081973,172.16.1.2,35081,172.16.3.2,5101,1073725440,1073725440,0,0,0,0,0,2,536,0,1,672,100,32768,0,65536,0,0,0,0,0
o,0x00000000,1716791406.116186,172.16.1.2,49415,172.16.3.2,5101,14437,14480,0,65728,65728,6,6,4,1460,918,1,997,150,33580,0,65700,0,0,0,0,0
i,0x00000000,1716791406.202581,172.16.1.2,35081,172.16.3.2,5101,1073725440,1073725440,0,0,0,0,0,2,536,0,1,672,100,32768,0,65536,0,1,0,0,0
o,0x00000000,1716791406.202603,172.16.1.2,35081,172.16.3.2,5101,14437,14480,0,65535,65700,6,6,4,1460,1089,1,993,168,33580,0,65700,0,0,0,0,0
o,0x00000000,1716791406.202770,172.16.1.2,35081,172.16.3.2,5101,14437,14480,0,65535,65700,6,6,4,1460,1089,1,992,168,33580,37,65700,0,0,0,0,0
i,0x00000000,1716791406.321900,172.16.1.2,49415,172.16.3.2,5101,14437,14480,0,65728,65728,6,6,4,1460,918,1,996,150,33580,0,65700,0,0,0,0,0
i,0x00000000,1716791406.321916,172.16.1.2,49415,172.16.3.2,5101,14437,14480,0,65728,65728,6,6,4,1460,918,1,996,150,33580,0,65700,1,0,0,0,0
o,0x00000000,1716791406.321923,172.16.1.2,49415,172.16.3.2,5101,14437,14480,0,65728,65728,6,6,4,1460,918,1,997,150,33580,0,65700,2,0,0,0,0
o,0x00000000,1716791406.322220,172.16.1.2,35081,172.16.3.2,5101,14437,14480,0,65535,65700,6,6,4,1460,1089,1,992,168,33580,33580,65700,0,37,0,0,0
o,0x00000000,1716791406.322660,172.16.1.2,35081,172.16.3.2,5101,14437,14480,0,65535,65700,6,6,4,1460,1089,1,992,168,33580,33580,65700,0,1485,0,0,0
o,0x00000000,1716791406.323046,172.16.1.2,35081,172.16.3.2,5101,14437,14480,0,65535,65700,6,6,4,1460,1089,1,992,168,33580,33580,65700,0,2933,0,0,0
o,0x00000000,1716791406.323383,172.16.1.2,35081,172.16.3.2,5101,14437,14480,0,65535,65700,6,6,4,1460,1089,1,992,168,33580,33580,65700,0,4381,0,0,0
o,0x00000000,1716791406.323717,172.16.1.2,35081,172.16.3.2,5101,14437,14480,0,65535,65700,6,6,4,1460,1089,1,992,168,33580,33580,65700,0,5829,0,0,0
o,0x00000000,1716791406.324056,172.16.1.2,35081,172.16.3.2,5101,14437,14480,0,65535,65700,6,6,4,1460,1089,1,992,168,33580,33580,65700,0,7277,0,0,0
o,0x00000000,1716791406.324404,172.16.1.2,35081,172.16.3.2,5101,14437,14480,0,65535,65700,6,6,4,1460,1089,1,992,168,33580,33580,65700,0,8725,0,0,0
o,0x00000000,1716791406.324745,172.16.1.2,35081,172.16.3.2,5101,14437,14480,0,65535,65700,6,6,4,1460,1089,1,992,168,33580,33580,65700,0,10173,0,0,0
o,0x00000000,1716791406.325088,172.16.1.2,35081,172.16.3.2,5101,14437,14480,0,65535,65700,6,6,4,1460,1089,1,992,168,33580,33580,65700,0,11621,0,0,0
i,0x00000000,1716791406.351646,172.16.1.2,35081,172.16.3.2,5101,14437,14480,0,65535,65700,6,6,4,1460,1089,1,992,168,33580,33580,65700,0,13069,0,0,0
o,0x00000000,1716791406.351667,172.16.1.2,35081,172.16.3.2,5101,14437,14480,0,65728,65728,6,6,4,1460,1013,1,992,156,33580,33543,65700,0,13032,0,0,0
i,0x00000000,1716791406.622806,172.16.1.2,35081,172.16.3.2,5101,14437,14480,0,65728,65728,6,6,4,1460,1013,1,992,156,33580,33543,65700,0,14480,0,0,0
o,0x00000000,1716791406.623013,172.16.1.2,35081,172.16.3.2,5101,14437,14480,0,64256,65728,6,6,4,1460,1007,1,992,131,33580,30647,65700,0,11584,0,0,0
o,0x00000000,1716791406.623147,172.16.1.2,35081,172.16.3.2,5101,14437,14480,0,64256,65728,6,6,4,1460,1007,1,992,131,33580,30647,65700,0,13032,0,0,0
i,0x00000000,1716791406.623236,172.16.1.2,35081,172.16.3.2,5101,14437,14480,0,64256,65728,6,6,4,1460,1007,1,992,131,33580,30647,65700,0,14480,0,0,0
o,0x00000000,1716791406.623240,172.16.1.2,35081,172.16.3.2,5101,14437,14480,0,64256,65728,6,6,4,1460,1002,1,992,113,33580,27751,65700,0,11584,0,0,0
o,0x00000000,1716791406.623346,172.16.1.2,35081,172.16.3.2,5101,14437,14480,0,64256,65728,6,6,4,1460,1002,1,992,113,33580,27751,65700,0,13032,0,0,0
i,0x00000000,1716791406.623692,172.16.1.2,35081,172.16.3.2,5101,14437,14480,0,64256,65728,6,6,4,1460,1002,1,992,113,33580,27751,65700,0,14480,0,0,0
o,0x00000000,1716791406.623695,172.16.1.2,35081,172.16.3.2,5101,14437,14480,0,64256,65728,6,6,4,1460,997,1,992,98,33580,24855,65700,0,11584,0,0,0
o,0x00000000,1716791406.623773,172.16.1.2,35081,172.16.3.2,5101,14437,14480,0,64256,65728,6,6,4,1460,997,1,992,98,33580,24855,65700,0,13032,0,0,0
i,0x00000000,1716791406.623852,172.16.1.2,35081,172.16.3.2,5101,14437,14480,0,64256,65728,6,6,4,1460,997,1,992,98,33580,24855,65700,0,14480,0,0,0
o,0x00000000,1716791406.623854,172.16.1.2,35081,172.16.3.2,5101,14437,14480,0,64256,65728,6,6,4,1460,993,1,992,88,33580,21959,65700,0,11584,0,0,0
o,0x00000000,1716791406.623940,172.16.1.2,35081,172.16.3.2,5101,14437,14480,0,64256,65728,6,6,4,1460,993,1,992,88,33580,21959,65700,0,13032,0,0,0
i,0x00000000,1716791406.651783,172.16.1.2,35081,172.16.3.2,5101,14437,14480,0,64256,65728,6,6,4,1460,993,1,992,88,33580,33580,65700,0,14480,0,0,0
o,0x00000000,1716791406.651800,172.16.1.2,35081,172.16.3.2,5101,14437,15940,0,64256,65728,6,6,4,1460,997,1,992,79,33580,30684,65700,0,11584,0,0,0
o,0x00000000,1716791406.652063,172.16.1.2,35081,172.16.3.2,5101,14437,15940,0,64256,65728,6,6,4,1460,997,1,992,79,33580,30684,65700,0,13032,0,0,0
o,0x00000000,1716791406.652316,172.16.1.2,35081,172.16.3.2,5101,14437,15940,0,64256,65728,6,6,4,1460,997,1,992,79,33580,30684,65700,0,14480,0,0,0
i,0x00000000,1716791406.932338,172.16.1.2,35081,172.16.3.2,5101,14437,15940,0,64256,65728,6,6,4,1460,997,1,992,79,41772,41772,65700,0,15928,0,0,0
o,0x00000000,1716791406.932360,172.16.1.2,35081,172.16.3.2,5101,14437,15940,0,64256,65728,6,6,4,1460,997,1,992,72,41772,38876,65700,0,13032,0,0,0
o,0x00000000,1716791406.932465,172.16.1.2,35081,172.16.3.2,5101,14437,15940,0,64256,65728,6,6,4,1460,997,1,992,72,41772,38876,65700,0,14480,0,0,0
i,0x00000000,1716791406.932584,172.16.1.2,35081,172.16.3.2,5101,14437,15940,0,64256,65728,6,6,4,1460,997,1,992,72,41772,38876,65700,0,15928,0,0,0
o,0x00000000,1716791406.932587,172.16.1.2,35081,172.16.3.2,5101,14437,15940,0,64256,65728,6,6,4,1460,997,1,992,67,41772,35980,65700,0,13032,0,0,0
o,0x00000000,1716791406.932690,172.16.1.2,35081,172.16.3.2,5101,14437,15940,0,64256,65728,6,6,4,1460,997,1,992,67,41772,35980,65700,0,14480,0,0,0
i,0x00000000,1716791406.932769,172.16.1.2,35081,172.16.3.2,5101,14437,15940,0,64256,65728,6,6,4,1460,997,1,992,67,41772,35980,65700,0,15928,0,0,0
o,0x00000000,1716791406.932772,172.16.1.2,35081,172.16.3.2,5101,14437,15940,0,64256,65728,6,6,4,1460,997,1,992,63,41772,33084,65700,0,13032,0,0,0
o,0x00000000,1716791406.932846,172.16.1.2,35081,172.16.3.2,5101,14437,15940,0,64256,65728,6,6,4,1460,997,1,992,63,41772,33084,65700,0,14480,0,0,0
i,0x00000000,1716791406.933174,172.16.1.2,35081,172.16.3.2,5101,14437,15940,0,64256,65728,6,6,4,1460,997,1,992,63,41772,33084,65700,0,15928,0,0,0
o,0x00000000,1716791406.933177,172.16.1.2,35081,172.16.3.2,5101,14437,15940,0,64256,65728,6,6,4,1460,997,1,992,60,41772,30188,65700,0,13032,0,0,0
o,0x00000000,1716791406.933249,172.16.1.2,35081,172.16.3.2,5101,14437,15940,0,64256,65728,6,6,4,1460,997,1,992,60,41772,30188,65700,0,14480,0,0,0
i,0x00000000,1716791406.962658,172.16.1.2,35081,172.16.3.2,5101,14437,15940,0,64256,65728,6,6,4,1460,997,1,992,60,41772,41772,65700,0,15928,0,0,0
o,0x00000000,1716791406.962666,172.16.1.2,35081,172.16.3.2,5101,14437,15940,0,64256,65728,6,6,4,1460,997,1,992,58,41772,38876,65700,0,13032,0,0,0
o,0x00000000,1716791406.962908,172.16.1.2,35081,172.16.3.2,5101,14437,15940,0,64256,65728,6,6,4,1460,997,1,992,58,41772,38876,65700,0,14480,0,0,0
i,0x00000000,1716791407.172808,172.16.1.2,35081,172.16.3.2,5101,14437,15940,0,64256,65728,6,6,4,1460,997,1,992,58,41772,41772,65700,0,15928,0,0,0
o,0x00000000,1716791407.172860,172.16.1.2,35081,172.16.3.2,5101,14437,17400,0,65728,65728,6,6,4,1460,1081,1,992,80,41772,40324,65700,0,14480,0,0,0
o,0x00000000,1716791407.173208,172.16.1.2,35081,172.16.3.2,5101,14437,17400,0,65728,65728,6,6,4,1460,1081,1,992,80,41772,40324,65700,0,15928,0,0,0
i,0x00000000,1716791407.222974,172.16.1.2,35081,172.16.3.2,5101,14437,17400,0,65728,65728,6,6,4,1460,1081,1,992,80,41772,40324,65700,0,17376,0,0,0
o,0x00000000,1716791407.223006,172.16.1.2,35081,172.16.3.2,5101,14437,17400,0,64256,65728,6,6,4,1460,1058,1,992,78,41772,37428,65700,0,14480,0,0,0
o,0x00000000,1716791407.223162,172.16.1.2,35081,172.16.3.2,5101,14437,17400,0,64256,65728,6,6,4,1460,1058,1,992,78,41772,37428,65700,0,15928,0,0,0
i,0x00000000,1716791407.223472,172.16.1.2,35081,172.16.3.2,5101,14437,17400,0,64256,65728,6,6,4,1460,1058,1,992,78,41772,37428,65700,0,17376,0,0,0
o,0x00000000,1716791407.223502,172.16.1.2,35081,172.16.3.2,5101,14437,17400,0,64256,65728,6,6,4,1460,1038,1,992,76,41772,34532,65700,0,14480,0,0,0
o,0x00000000,1716791407.223658,172.16.1.2,35081,172.16.3.2,5101,14437,17400,0,64256,65728,6,6,4,1460,1038,1,992,76,41772,34532,65700,0,15928,0,0,0
i,0x00000000,1716791407.223790,172.16.1.2,35081,172.16.3.2,5101,14437,17400,0,64256,65728,6,6,4,1460,1038,1,992,76,41772,34532,65700,0,17376,0,0,0
o,0x00000000,1716791407.223793,172.16.1.2,35081,172.16.3.2,5101,14437,17400,0,64256,65728,6,6,4,1460,1021,1,992,74,41772,31636,65700,0,14480,0,0,0
o,0x00000000,1716791407.223913,172.16.1.2,35081,172.16.3.2,5101,14437,17400,0,64256,65728,6,6,4,1460,1021,1,992,74,41772,31636,65700,0,15928,0,0,0
i,0x00000000,1716791407.224278,172.16.1.2,35081,172.16.3.2,5101,14437,17400,0,64256,65728,6,6,4,1460,1021,1,992,74,41772,31636,65700,0,17376,0,0,0
o,0x00000000,1716791407.224281,172.16.1.2,35081,172.16.3.2,5101,14437,17400,0,64256,65728,6,6,4,1460,1006,1,992,72,41772,28740,65700,0,14480,0,0,0
o,0x00000000,1716791407.224360,172.16.1.2,35081,172.16.3.2,5101,14437,17400,0,64256,65728,6,6,4,1460,1006,1,992,72,41772,28740,65700,0,15928,0,0,0
i,0x00000000,1716791407.262892,172.16.1.2,35081,172.16.3.2,5101,14437,17400,0,64256,65728,6,6,4,1460,1006,1,992,72,41772,41772,65700,0,17376,0,0,0
o,0x00000000,1716791407.262916,172.16.1.2,35081,172.16.3.2,5101,14437,17400,0,64256,65728,6,6,4,1460,997,1,992,69,41772,38876,65700,0,14480,0,0,0
o,0x00000000,1716791407.263163,172.16.1.2,35081,172.16.3.2,5101,14437,17400,0,64256,65728,6,6,4,1460,997,1,992,69,41772,38876,65700,0,15928,0,0,0
i,0x00000000,1716791407.482833,172.16.1.2,35081,172.16.3.2,5101,14437,17400,0,64256,65728,6,6,4,1460,997,1,992,69,41772,41772,65700,0,17376,0,0,0
o,0x00000000,1716791407.482854,172.16.1.2,35081,172.16.3.2,5101,14437,18860,0,64256,65728,6,6,4,1460,993,1,992,65,41772,38876,65700,0,14480,0,0,0
o,0x00000000,1716791407.483138,172.16.1.2,35081,172.16.3.2,5101,14437,18860,0,64256,65728,6,6,4,1460,993,1,992,65,41772,38876,65700,0,15928,0,0,0
o,0x00000000,1716791407.483376,172.16.1.2,35081,172.16.3.2,5101,14437,18860,0,64256,65728,6,6,4,1460,993,1,992,65,41772,38876,65700,0,17376,0,0,0
i,0x00000000,1716791407.543101,172.16.1.2,35081,172.16.3.2,5101,14437,18860,0,64256,65728,6,6,4,1460,993,1,992,65,41772,41772,65700,0,18824,0,0,0
o,0x00000000,1716791407.543114,172.16.1.2,35081,172.16.3.2,5101,14437,18860,0,64256,65728,6,6,4,1460,997,1,992,63,41772,38876,65700,0,15928,0,0,0
o,0x00000000,1716791407.543200,172.16.1.2,35081,172.16.3.2,5101,14437,18860,0,64256,65728,6,6,4,1460,997,1,992,63,41772,38876,65700,0,17376,0,0,0
i,0x00000000,1716791407.543273,172.16.1.2,35081,172.16.3.2,5101,14437,18860,0,64256,65728,6,6,4,1460,997,1,992,63,41772,38876,65700,0,18824,0,0,0
o,0x00000000,1716791407.543276,172.16.1.2,35081,172.16.3.2,5101,14437,18860,0,64256,65728,6,6,4,1460,1001,1,992,61,41772,35980,65700,0,15928,0,0,0
o,0x00000000,1716791407.543360,172.16.1.2,35081,172.16.3.2,5101,14437,18860,0,64256,65728,6,6,4,1460,1001,1,992,61,41772,35980,65700,0,17376,0,0,0
i,0x00000000,1716791407.543434,172.16.1.2,35081,172.16.3.2,5101,14437,18860,0,64256,65728,6,6,4,1460,1001,1,992,61,41772,35980,65700,0,18824,0,0,0
o,0x00000000,1716791407.543436,172.16.1.2,35081,172.16.3.2,5101,14437,18860,0,64256,65728,6,6,4,1460,1004,1,992,59,41772,33084,65700,0,15928,0,0,0
o,0x00000000,1716791407.543510,172.16.1.2,35081,172.16.3.2,5101,14437,18860,0,64256,65728,6,6,4,1460,1004,1,992,59,41772,33084,65700,0,17376,0,0,0
i,0x00000000,1716791407.543800,172.16.1.2,35081,172.16.3.2,5101,14437,18860,0,64256,65728,6,6,4,1460,1004,1,992,59,41772,33084,65700,0,18824,0,0,0
o,0x00000000,1716791407.543803,172.16.1.2,35081,172.16.3.2,5101,14437,18860,0,64256,65728,6,6,4,1460,1007,1,992,58,41772,30188,65700,0,15928,0,0,0
o,0x00000000,1716791407.543877,172.16.1.2,35081,172.16.3.2,5101,14437,18860,0,64256,65728,6,6,4,1460,1007,1,992,58,41772,30188,65700,0,17376,0,0,0
i,0x00000000,1716791407.582967,172.16.1.2,35081,172.16.3.2,5101,14437,18860,0,64256,65728,6,6,4,1460,1007,1,992,58,41772,41772,65700,0,18824,0,0,0
o,0x00000000,1716791407.582984,172.16.1.2,35081,172.16.3.2,5101,14437,18860,0,64256,65728,6,6,4,1460,1010,1,992,57,41772,38876,65700,0,15928,0,0,0
o,0x00000000,1716791407.583279,172.16.1.2,35081,172.16.3.2,5101,14437,18860,0,64256,65728,6,6,4,1460,1010,1,992,57,41772,38876,65700,0,17376,0,0,0
i,0x00000000,1716791407.791979,172.16.1.2,35081,172.16.3.2,5101,14437,18860,0,64256,65728,6,6,4,1460,1010,1,992,57,41772,41772,65700,0,18824,0,0,0
o,0x00000000,1716791407.792000,172.16.1.2,35081,172.16.3.2,5101,14437,18860,0,64256,65728,6,6,4,1460,1008,1,992,56,41772,38876,65700,0,15928,0,0,0
o,0x00000000,1716791407.792300,172.16.1.2,35081,172.16.3.2,5101,14437,18860,0,64256,65728,6,6,4,1460,1008,1,992,56,41772,38876,65700,0,17376,0,0,0
i,0x00000000,1716791407.823200,172.16.1.2,35081,172.16.3.2,5101,14437,18860,0,64256,65728,6,6,4,1460,1008,1,992,56,41772,41772,65700,0,18824,0,0,0
o,0x00000000,1716791407.823223,172.16.1.2,35081,172.16.3.2,5101,14437,18860,0,65728,65728,6,6,4,1460,1018,1,992,58,41772,40324,65700,0,17376,0,0,0
i,0x00000000,1716791407.841855,172.16.1.2,35081,172.16.3.2,5101,14437,18860,0,65728,65728,6,6,4,1460,1018,1,992,58,41772,40324,65700,0,18824,0,0,0
o,0x00000000,1716791407.841868,172.16.1.2,35081,172.16.3.2,5101,14437,20320,0,64256,65728,6,6,4,1460,1011,1,992,58,41772,37428,65700,0,15928,0,0,0
o,0x00000000,1716791407.842283,172.16.1.2,35081,172.16.3.2,5101,14437,20320,0,64256,65728,6,6,4,1460,1011,1,992,58,49964,37428,65700,0,17376,0,0,0
o,0x00000000,1716791407.842360,172.16.1.2,35081,172.16.3.2,5101,14437,20320,0,64256,65728,6,6,4,1460,1011,1,992,58,49964,37428,65700,0,18824,0,0,0
i,0x00000000,1716791407.842438,172.16.1.2,35081,172.16.3.2,5101,14437,20320,0,64256,65728,6,6,4,1460,1011,1,992,58,49964,37428,65700,0,20272,0,0,0
o,0x00000000,1716791407.842441,172.16.1.2,35081,172.16.3.2,5101,14437,20320,0,64256,65728,6,6,4,1460,1005,1,992,57,49964,34532,65700,0,17376,0,0,0
o,0x00000000,1716791407.842517,172.16.1.2,35081,172.16.3.2,5101,14437,20320,0,64256,65728,6,6,4,1460,1005,1,992,57,49964,34532,65700,0,18824,0,0,0
i,0x00000000,1716791407.842618,172.16.1.2,35081,172.16.3.2,5101,14437,20320,0,64256,65728,6,6,4,1460,1005,1,992,57,49964,34532,65700,0,20272,0,0,0
o,0x00000000,1716791407.842621,172.16.1.2,35081,172.16.3.2,5101,14437,20320,0,64256,65728,6,6,4,1460,1000,1,992,57,49964,31636,65700,0,17376,0,0,0
o,0x00000000,1716791407.842698,172.16.1.2,35081,172.16.3.2,5101,14437,20320,0,64256,65728,6,6,4,1460,1000,1,992,57,49964,31636,65700,0,18824,0,0,0
i,0x00000000,1716791407.852351,172.16.1.2,35081,172.16.3.2,5101,14437,20320,0,64256,65728,6,6,4,1460,1000,1,992,57,49964,49964,65700,0,20272,0,0,0
o,0x00000000,1716791407.852366,172.16.1.2,35081,172.16.3.2,5101,14437,20320,0,64256,65728,6,6,4,1460,999,1,992,56,49964,47068,65700,0,17376,0,0,0
o,0x00000000,1716791407.852630,172.16.1.2,35081,172.16.3.2,5101,14437,20320,0,64256,65728,6,6,4,1460,999,1,992,56,49964,47068,65700,0,18824,0,0,0
i,0x00000000,1716791407.972792,172.16.1.2,35081,172.16.3.2,5101,14437,20320,0,64256,65728,6,6,4,1460,999,1,992,56,49964,49964,65700,0,20272,0,0,0
o,0x00000000,1716791407.972809,172.16.1.2,35081,172.16.3.2,5101,14437,20320,0,64256,65728,6,6,4,1460,1031,1,992,63,49964,47068,65700,0,17376,0,0,0
o,0x00000000,1716791407.973056,172.16.1.2,35081,172.16.3.2,5101,14437,20320,0,64256,65728,6,6,4,1460,1031,1,992,63,49964,47068,65700,0,18824,0,0,0
i,0x00000000,1716791408.142712,172.16.1.2,35081,172.16.3.2,5101,14437,20320,0,64256,65728,6,6,4,1460,1031,1,992,63,49964,49964,65700,0,20272,0,0,0
o,0x00000000,1716791408.142733,172.16.1.2,35081,172.16.3.2,5101,14437,20320,0,64256,65728,6,6,4,1460,1043,1,992,64,49964,47068,65700,0,17376,0,0,0
o,0x00000000,1716791408.142985,172.16.1.2,35081,172.16.3.2,5101,14437,20320,0,64256,65728,6,6,4,1460,1043,1,992,64,49964,47068,65700,0,18824,0,0,0
i,0x00000000,1716791408.161778,172.16.1.2,35081,172.16.3.2,5101,14437,20320,0,64256,65728,6,6,4,1460,1043,1,992,64,49964,49964,65700,0,20272,0,0,0
o,0x00000000,1716791408.161787,172.16.1.2,35081,172.16.3.2,5101,14437,20320,0,64256,65728,6,6,4,1460,1049,1,992,63,49964,47068,65700,0,17376,0,0,0
o,0x00000000,1716791408.161994,172.16.1.2,35081,172.16.3.2,5101,14437,20320,0,64256,65728,6,6,4,1460,1049,1,992,63,49964,47068,65700,0,18824,0,0,0
i,0x00000000,1716791408.162084,172.16.1.2,35081,172.16.3.2,5101,14437,20320,0,64256,65728,6,6,4,1460,1049,1,992,63,49964,47068,65700,0,20272,0,0,0
o,0x00000000,1716791408.162087,172.16.1.2,35081,172.16.3.2,5101,14437,21780,0,64256,65728,6,6,4,1460,1046,1,992,61,49964,44172,65700,0,17376,0,0,0
o,0x00000000,1716791408.162164,172.16.1.2,35081,172.16.3.2,5101,14437,21780,0,64256,65728,6,6,4,1460,1046,1,992,61,49964,44172,65700,0,18824,0,0,0
o,0x00000000,1716791408.162265,172.16.1.2,35081,172.16.3.2,5101,14437,21780,0,64256,65728,6,6,4,1460,1046,1,992,61,49964,44172,65700,0,20272,0,0,0
i,0x00000000,1716791408.162563,172.16.1.2,35081,172.16.3.2,5101,14437,21780,0,64256,65728,6,6,4,1460,1046,1,992,61,49964,44172,65700,0,21720,0,0,0
o,0x00000000,1716791408.162565,172.16.1.2,35081,172.16.3.2,5101,14437,21780,0,64256,65728,6,6,4,1460,1044,1,992,59,49964,41276,65700,0,18824,0,0,0
o,0x00000000,1716791408.162643,172.16.1.2,35081,172.16.3.2,5101,14437,21780,0,64256,65728,6,6,4,1460,1044,1,992,59,49964,41276,65700,0,20272,0,0,0
i,0x00000000,1716791408.162715,172.16.1.2,35081,172.16.3.2,5101,14437,21780,0,64256,65728,6,6,4,1460,1044,1,992,59,49964,41276,65700,0,21720,0,0,0
o,0x00000000,1716791408.162718,172.16.1.2,35081,172.16.3.2,5101,14437,21780,0,64256,65728,6,6,4,1460,1042,1,992,58,49964,38380,65700,0,18824,0,0,0
o,0x00000000,1716791408.162792,172.16.1.2,35081,172.16.3.2,5101,14437,21780,0,64256,65728,6,6,4,1460,1042,1,992,58,49964,38380,65700,0,20272,0,0,0
i,0x00000000,1716791408.192557,172.16.1.2,35081,172.16.3.2,5101,14437,21780,0,64256,65728,6,6,4,1460,1042,1,992,58,49964,49964,65700,0,21720,0,0,0
o,0x00000000,1716791408.192578,172.16.1.2,35081,172.16.3.2,5101,14437,21780,0,64256,65728,6,6,4,1460,1048,1,992,58,49964,47068,65700,0,18824,0,0,0
o,0x00000000,1716791408.192853,172.16.1.2,35081,172.16.3.2,5101,14437,21780,0,64256,65728,6,6,4,1460,1048,1,992,58,49964,47068,65700,0,20272,0,0,0
i,0x00000000,1716791408.323420,172.16.1.2,35081,172.16.3.2,5101,14437,21780,0,64256,65728,6,6,4,1460,1048,1,992,58,49964,49964,65700,0,21720,0,0,0
o,0x00000000,1716791408.323439,172.16.1.2,35081,172.16.3.2,5101,14437,21780,0,64256,65728,6,6,4,1460,1053,1,992,58,49964,47068,65700,0,18824,0,0,0
o,0x00000000,1716791408.323736,172.16.1.2,35081,172.16.3.2,5101,14437,21780,0,64256,65728,6,6,4,1460,1053,1,992,58,49964,47068,65700,0,20272,0,0,0
i,0x00000000,1716791408.501778,172.16.1.2,35081,172.16.3.2,5101,14437,21780,0,64256,65728,6,6,4,1460,1053,1,992,58,49964,49964,65700,0,21720,0,0,0
o,0x00000000,1716791408.501813,172.16.1.2,35081,172.16.3.2,5101,14437,21780,0,64256,65728,6,6,4,1460,1062,1,992,59,49964,47068,65700,0,18824,0,0,0
o,0x00000000,1716791408.502085,172.16.1.2,35081,172.16.3.2,5101,14437,21780,0,64256,65728,6,6,4,1460,1062,1,992,59,49964,47068,65700,0,20272,0,0,0
i,0x00000000,1716791408.532502,172.16.1.2,35081,172.16.3.2,5101,14437,21780,0,64256,65728,6,6,4,1460,1062,1,992,59,49964,49964,65700,0,21720,0,0,0
o,0x00000000,1716791408.532516,172.16.1.2,35081,172.16.3.2,5101,14437,21780,0,64256,65728,6,6,4,1460,1078,1,992,62,49964,47068,65700,0,18824,0,0,0
o,0x00000000,1716791408.532617,172.16.1.2,35081,172.16.3.2,5101,14437,21780,0,64256,65728,6,6,4,1460,1078,1,992,62,49964,47068,65700,0,20272,0,0,0
i,0x00000000,1716791408.532699,172.16.1.2,35081,172.16.3.2,5101,14437,21780,0,64256,65728,6,6,4,1460,1078,1,992,62,49964,47068,65700,0,21720,0,0,0
o,0x00000000,1716791408.532702,172.16.1.2,35081,172.16.3.2,5101,14437,23240,0,64256,65728,6,6,4,1460,1092,1,992,64,49964,44172,65700,0,18824,0,0,0
o,0x00000000,1716791408.532775,172.16.1.2,35081,172.16.3.2,5101,14437,23240,0,64256,65728,6,6,4,1460,1092,1,992,64,49964,44172,65700,0,20272,0,0,0
o,0x00000000,1716791408.532849,172.16.1.2,35081,172.16.3.2,5101,14437,23240,0,64256,65728,6,6,4,1460,1092,1,992,64,58156,44172,65700,0,21720,0,0,0
i,0x00000000,1716791408.532922,172.16.1.2,35081,172.16.3.2,5101,14437,23240,0,64256,65728,6,6,4,1460,1092,1,992,64,58156,44172,65700,0,23168,0,0,0
o,0x00000000,1716791408.532924,172.16.1.2,35081,172.16.3.2,5101,14437,23240,0,64256,65728,6,6,4,1460,1104,1,992,65,58156,41276,65700,0,20272,0,0,0
o,0x00000000,1716791408.533007,172.16.1.2,35081,172.16.3.2,5101,14437,23240,0,64256,65728,6,6,4,1460,1104,1,992,65,58156,41276,65700,0,21720,0,0,0
i,0x00000000,1716791408.533296,172.16.1.2,35081,172.16.3.2,5101,14437,23240,0,64256,65728,6,6,4,1460,1104,1,992,65,58156,41276,65700,0,23168,0,0,0
o,0x00000000,1716791408.533298,172.16.1.2,35081,172.16.3.2,5101,14437,23240,0,64256,65728,6,6,4,1460,1114,1,992,65,58156,38380,65700,0,20272,0,0,0
o,0x00000000,1716791408.533372,172.16.1.2,35081,172.16.3.2,5101,14437,23240,0,64256,65728,6,6,4,1460,1114,1,992,65,58156,38380,65700,0,21720,0,0,0
i,0x00000000,1716791408.551951,172.16.1.2,35081,172.16.3.2,5101,14437,23240,0,64256,65728,6,6,4,1460,1114,1,992,65,58156,58156,65700,0,23168,0,0,0
o,0x00000000,1716791408.551958,172.16.1.2,35081,172.16.3.2,5101,14437,23240,0,65728,65728,6,6,4,1460,1131,1,992,67,58156,56708,65700,0,21720,0,0,0
i,0x00000000,1716791408.552225,172.16.1.2,35081,172.16.3.2,5101,14437,23240,0,65728,65728,6,6,4,1460,1131,1,992,67,58156,56708,65700,0,23168,0,0,0
o,0x00000000,1716791408.552229,172.16.1.2,35081,172.16.3.2,5101,14437,23240,0,64256,65728,6,6,4,1460,1134,1,992,65,58156,53812,65700,0,20272,0,0,0
o,0x00000000,1716791408.552461,172.16.1.2,35081,172.16.3.2,5101,14437,23240,0,64256,65728,6,6,4,1460,1134,1,992,65,58156,53812,65700,0,21720,0,0,0
i,0x00000000,1716791408.692153,172.16.1.2,35081,172.16.3.2,5101,14437,23240,0,64256,65728,6,6,4,1460,1134,1,992,65,58156,58156,65700,0,23168,0,0,0
o,0x00000000,1716791408.692172,172.16.1.2,35081,172.16.3.2,5101,14437,23240,0,64256,65728,6,6,4,1460,1141,1,992,65,58156,55260,65700,0,20272,0,0,0
o,0x00000000,1716791408.692456,172.16.1.2,35081,172.16.3.2,5101,14437,23240,0,64256,65728,6,6,4,1460,1141,1,992,65,58156,55260,65700,0,21720,0,0,0
i,0x00000000,1716791408.892630,172.16.1.2,35081,172.16.3.2,5101,14437,23240,0,64256,65728,6,6,4,1460,1141,1,992,65,58156,58156,65700,0,23168,0,0,0
o,0x00000000,1716791408.892650,172.16.1.2,35081,172.16.3.2,5101,14437,23240,0,64256,65728,6,6,4,1460,1155,1,992,66,58156,55260,65700,0,20272,0,0,0
o,0x00000000,1716791408.892895,172.16.1.2,35081,172.16.3.2,5101,14437,23240,0,64256,65728,6,6,4,1460,1155,1,992,66,58156,55260,65700,0,21720,0,0,0
i,0x00000000,1716791408.922134,172.16.1.2,35081,172.16.3.2,5101,14437,23240,0,64256,65728,6,6,4,1460,1155,1,992,66,58156,58156,65700,0,23168,0,0,0
o,0x00000000,1716791408.922155,172.16.1.2,35081,172.16.3.2,5101,14437,23240,0,64256,65728,6,6,4,1460,1163,1,992,66,58156,55260,65700,0,20272,0,0,0
o,0x00000000,1716791408.922262,172.16.1.2,35081,172.16.3.2,5101,14437,23240,0,64256,65728,6,6,4,1460,1163,1,992,66,58156,55260,65700,0,21720,0,0,0
i,0x00000000,1716791408.922349,172.16.1.2,35081,172.16.3.2,5101,14437,23240,0,64256,65728,6,6,4,1460,1163,1,992,66,58156,55260,65700,0,23168,0,0,0
o,0x00000000,1716791408.922352,172.16.1.2,35081,172.16.3.2,5101,14437,23240,0,64256,65728,6,6,4,1460,1170,1,992,66,58156,52364,65700,0,20272,0,0,0
o,0x00000000,1716791408.922440,172.16.1.2,35081,172.16.3.2,5101,14437,23240,0,64256,65728,6,6,4,1460,1170,1,992,66,58156,52364,65700,0,21720,0,0,0
i,0x00000000,1716791408.922514,172.16.1.2,35081,172.16.3.2,5101,14437,23240,0,64256,65728,6,6,4,1460,1170,1,992,66,58156,52364,65700,0,23168,0,0,0
o,0x00000000,1716791408.922517,172.16.1.2,35081,172.16.3.2,5101,14437,24700,0,64256,65728,6,6,4,1460,1176,1,992,65,58156,49468,65700,0,20272,0,0,0
o,0x00000000,1716791408.922590,172.16.1.2,35081,172.16.3.2,5101,14437,24700,0,64256,65728,6,6,4,1460,1176,1,992,65,58156,49468,65700,0,21720,0,0,0
o,0x00000000,1716791408.922672,172.16.1.2,35081,172.16.3.2,5101,14437,24700,0,64256,65728,6,6,4,1460,1176,1,992,65,58156,49468,65700,0,23168,0,0,0
i,0x00000000,1716791408.922975,172.16.1.2,35081,172.16.3.2,5101,14437,24700,0,64256,65728,6,6,4,1460,1176,1,992,65,58156,49468,65700,0,24616,0,0,0
o,0x00000000,1716791408.922978,172.16.1.2,35081,172.16.3.2,5101,14437,24700,0,64256,65728,6,6,4,1460,1181,1,992,64,58156,46572,65700,0,21720,0,0,0
o,0x00000000,1716791408.923053,172.16.1.2,35081,172.16.3.2,5101,14437,24700,0,64256,65728,6,6,4,1460,1181,1,992,64,58156,46572,65700,0,23168,0,0,0
i,0x00000000,1716791408.942620,172.16.1.2,35081,172.16.3.2,5101,14437,24700,0,64256,65728,6,6,4,1460,1181,1,992,64,58156,58156,65700,0,24616,0,0,0
o,0x00000000,1716791408.942631,172.16.1.2,35081,172.16.3.2,5101,14437,24700,0,65728,65728,6,6,4,1460,1198,1,992,67,58156,56708,65700,0,23168,0,0,0
i,0x00000000,1716791408.942713,172.16.1.2,35081,172.16.3.2,5101,14437,24700,0,65728,65728,6,6,4,1460,1198,1,992,67,58156,56708,65700,0,24616,0,0,0
o,0x00000000,1716791408.942716,172.16.1.2,35081,172.16.3.2,5101,14437,24700,0,64256,65728,6,6,4,1460,1205,1,992,67,58156,53812,65700,0,21720,0,0,0
o,0x00000000,1716791408.942790,172.16.1.2,35081,172.16.3.2,5101,14437,24700,0,64256,65728,6,6,4,1460,1205,1,992,67,58156,53812,65700,0,23168,0,0,0
i,0x00000000,1716791409.082369,172.16.1.2,35081,172.16.3.2,5101,14437,24700,0,64256,65728,6,6,4,1460,1205,1,992,67,58156,58156,65700,0,24616,0,0,0
o,0x00000000,1716791409.082389,172.16.1.2,35081,172.16.3.2,5101,14437,24700,0,64256,65728,6,6,4,1460,1267,1,992,82,58156,55260,65700,0,21720,0,0,0
o,0x00000000,1716791409.082654,172.16.1.2,35081,172.16.3.2,5101,14437,24700,0,64256,65728,6,6,4,1460,1267,1,992,82,58156,55260,65700,0,23168,0,0,0
i,0x00000000,1716791409.283008,172.16.1.2,35081,172.16.3.2,5101,14437,24700,0,64256,65728,6,6,4,1460,1267,1,992,82,58156,58156,65700,0,24616,0,0,0
o,0x00000000,1716791409.283041,172.16.1.2,35081,172.16.3.2,5101,14437,24700,0,65728,65728,6,6,4,1460,1345,1,992,98,58156,56708,65700,0,23168,0,0,0
i,0x00000000,1716791409.283356,172.16.1.2,35081,172.16.3.2,5101,14437,24700,0,65728,65728,6,6,4,1460,1345,1,992,98,58156,56708,65700,0,24616,0,0,0
o,0x00000000,1716791409.283361,172.16.1.2,35081,172.16.3.2,5101,14437,24700,0,64256,65728,6,6,4,1460,1333,1,992,92,58156,53812,65700,0,21720,0,0,0
o,0x00000000,1716791409.283605,172.16.1.2,35081,172.16.3.2,5101,14437,24700,0,64256,65728,6,6,4,1460,1333,1,992,92,58156,53812,65700,0,23168,0,0,0
i,0x00000000,1716791409.312674,172.16.1.2,35081,172.16.3.2,5101,14437,24700,0,64256,65728,6,6,4,1460,1333,1,992,92,58156,58156,65700,0,24616,0,0,0
o,0x00000000,1716791409.312684,172.16.1.2,35081,172.16.3.2,5101,14437,24700,0,64256,65728,6,6,4,1460,1323,1,992,87,58156,55260,65700,0,21720,0,0,0
o,0x00000000,1716791409.312771,172.16.1.2,35081,172.16.3.2,5101,14437,24700,0,64256,65728,6,6,4,1460,1323,1,992,87,58156,55260,65700,0,23168,0,0,0
i,0x00000000,1716791409.312846,172.16.1.2,35081,172.16.3.2,5101,14437,24700,0,64256,65728,6,6,4,1460,1323,1,992,87,58156,55260,65700,0,24616,0,0,0
o,0x00000000,1716791409.312849,172.16.1.2,35081,172.16.3.2,5101,14437,24700,0,64256,65728,6,6,4,1460,1314,1,992,82,58156,52364,65700,0,21720,0,0,0
o,0x00000000,1716791409.312943,172.16.1.2,35081,172.16.3.2,5101,14437,24700,0,64256,65728,6,6,4,1460,1314,1,992,82,58156,52364,65700,0,23168,0,0,0
i,0x00000000,1716791409.313035,172.16.1.2,35081,172.16.3.2,5101,14437,24700,0,64256,65728,6,6,4,1460,1314,1,992,82,58156,52364,65700,0,24616,0,0,0
o,0x00000000,1716791409.313037,172.16.1.2,35081,172.16.3.2,5101,14437,26160,0,64256,65728,6,6,4,1460,1306,1,992,79,58156,49468,65700,0,21720,0,0,0
o,0x00000000,1716791409.313122,172.16.1.2,35081,172.16.3.2,5101,14437,26160,0,64256,65728,6,6,4,1460,1306,1,992,79,58156,49468,65700,0,23168,0,0,0
o,0x00000000,1716791409.313198,172.16.1.2,35081,172.16.3.2,5101,14437,26160,0,64256,65728,6,6,4,1460,1306,1,992,79,58156,49468,65700,0,24616,0,0,0
i,0x00000000,1716791409.313282,172.16.1.2,35081,172.16.3.2,5101,14437,26160,0,64256,65728,6,6,4,1460,1306,1,992,79,58156,49468,65700,0,26064,0,0,0
o,0x00000000,1716791409.313285,172.16.1.2,35081,172.16.3.2,5101,14437,26160,0,64256,65728,6,6,4,1460,1299,1,992,76,58156,46572,65700,0,23168,0,0,0
o,0x00000000,1716791409.313388,172.16.1.2,35081,172.16.3.2,5101,14437,26160,0,64256,65728,6,6,4,1460,1299,1,992,76,58156,46572,65700,0,24616,0,0,0
i,0x00000000,1716791409.352278,172.16.1.2,35081,172.16.3.2,5101,14437,26160,0,64256,65728,6,6,4,1460,1299,1,992,76,58156,58156,65700,0,26064,0,0,0
o,0x00000000,1716791409.352298,172.16.1.2,35081,172.16.3.2,5101,14437,26160,0,65728,65728,6,6,4,1460,1309,1,992,75,58156,56708,65700,0,24616,0,0,0
i,0x00000000,1716791409.352546,172.16.1.2,35081,172.16.3.2,5101,14437,26160,0,65728,65728,6,6,4,1460,1309,1,992,75,58156,56708,65700,0,26064,0,0,0
o,0x00000000,1716791409.352550,172.16.1.2,35081,172.16.3.2,5101,14437,26160,0,64256,65728,6,6,4,1460,1310,1,992,72,58156,53812,65700,0,23168,0,0,0
o,0x00000000,1716791409.352828,172.16.1.2,35081,172.16.3.2,5101,14437,26160,0,64256,65728,6,6,4,1460,1310,1,992,72,58156,53812,65700,0,24616,0,0,0
i,0x00000000,1716791409.492738,172.16.1.2,35081,172.16.3.2,5101,14437,26160,0,64256,65728,6,6,4,1460,1310,1,992,72,58156,58156,65700,0,26064,0,0,0
o,0x00000000,1716791409.492758,172.16.1.2,35081,172.16.3.2,5101,14437,26160,0,64256,65728,6,6,4,1460,1367,1,992,85,58156,55260,65700,0,23168,0,0,0
o,0x00000000,1716791409.493038,172.16.1.2,35081,172.16.3.2,5101,14437,26160,0,64256,65728,6,6,4,1460,1367,1,992,85,58156,55260,65700,0,24616,0,0,0
i,0x00000000,1716791409.642920,172.16.1.2,35081,172.16.3.2,5101,14437,26160,0,64256,65728,6,6,4,1460,1367,1,992,85,58156,58156,65700,0,26064,0,0,0
o,0x00000000,1716791409.642940,172.16.1.2,35081,172.16.3.2,5101,14437,26160,0,65728,65728,6,6,4,1460,1421,1,992,95,58156,56708,65700,0,24616,0,0,0
i,0x00000000,1716791409.701878,172.16.1.2,35081,172.16.3.2,5101,14437,26160,0,65728,65728,6,6,4,1460,1421,1,992,95,58156,56708,65700,0,26064,0,0,0
o,0x00000000,1716791409.701901,172.16.1.2,35081,172.16.3.2,5101,14437,26160,0,64256,65728,6,6,4,1460,1408,1,992,90,58156,53812,65700,0,23168,0,0,0
o,0x00000000,1716791409.702184,172.16.1.2,35081,172.16.3.2,5101,14437,26160,0,64256,65728,6,6,4,1460,1408,1,992,90,58156,53812,65700,0,24616,0,0,0
i,0x00000000,1716791409.742966,172.16.1.2,35081,172.16.3.2,5101,14437,26160,0,64256,65728,6,6,4,1460,1408,1,992,90,58156,58156,65700,0,26064,0,0,0
o,0x00000000,1716791409.742987,172.16.1.2,35081,172.16.3.2,5101,14437,26160,0,65728,65728,6,6,4,1460,1412,1,992,85,58156,56708,65700,0,24616,0,0,0
i,0x00000000,1716791409.743097,172.16.1.2,35081,172.16.3.2,5101,14437,26160,0,65728,65728,6,6,4,1460,1412,1,992,85,58156,56708,65700,0,26064,0,0,0
o,0x00000000,1716791409.743102,172.16.1.2,35081,172.16.3.2,5101,14437,26160,0,64256,65728,6,6,4,1460,1408,1,992,80,58156,53812,65700,0,23168,0,0,0
o,0x00000000,1716791409.743185,172.16.1.2,35081,172.16.3.2,5101,14437,26160,0,64256,65728,6,6,4,1460,1408,1,992,80,58156,53812,65700,0,24616,0,0,0
i,0x00000000,1716791409.743290,172.16.1.2,35081,172.16.3.2,5101,14437,26160,0,64256,65728,6,6,4,1460,1408,1,992,80,58156,53812,65700,0,26064,0,0,0
o,0x00000000,1716791409.743293,172.16.1.2,35081,172.16.3.2,5101,14437,26160,0,64256,65728,6,6,4,1460,1404,1,992,77,58156,50916,65700,0,23168,0,0,0
o,0x00000000,1716791409.743367,172.16.1.2,35081,172.16.3.2,5101,14437,26160,0,64256,65728,6,6,4,1460,1404,1,992,77,58156,50916,65700,0,24616,0,0,0
i,0x00000000,1716791409.743656,172.16.1.2,35081,172.16.3.2,5101,14437,26160,0,64256,65728,6,6,4,1460,1404,1,992,77,66348,50916,65700,0,26064,0,0,0
o,0x00000000,1716791409.743658,172.16.1.2,35081,172.16.3.2,5101,14437,26160,0,64256,65728,6,6,4,1460,1401,1,992,75,66348,48020,65700,0,23168,0,0,0
o,0x00000000,1716791409.743732,172.16.1.2,35081,172.16.3.2,5101,14437,26160,0,64256,65728,6,6,4,1460,1401,1,992,75,66348,48020,65700,0,24616,0,0,0
i,0x00000000,1716791409.743819,172.16.1.2,35081,172.16.3.2,5101,14437,26160,0,64256,65728,6,6,4,1460,1401,1,992,75,66348,48020,65700,0,26064,0,0,0
o,0x00000000,1716791409.743824,172.16.1.2,35081,172.16.3.2,5101,14437,27620,0,64256,65728,6,6,4,1460,1398,1,992,72,66348,45124,65700,0,23168,0,0,0
o,0x00000000,1716791409.743910,172.16.1.2,35081,172.16.3.2,5101,14437,27620,0,64256,65728,6,6,4,1460,1398,1,992,72,66348,45124,65700,0,24616,0,0,0
o,0x00000000,1716791409.743992,172.16.1.2,35081,172.16.3.2,5101,14437,27620,0,64256,65728,6,6,4,1460,1398,1,992,72,66348,45124,65700,0,26064,0,0,0
i,0x00000000,1716791409.782281,172.16.1.2,35081,172.16.3.2,5101,14437,27620,0,64256,65728,6,6,4,1460,1398,1,992,72,66348,66348,65700,0,27512,0,0,0
o,0x00000000,1716791409.782295,172.16.1.2,35081,172.16.3.2,5101,14437,27620,0,64256,65728,6,6,4,1460,1412,1,992,74,66348,63452,65700,0,24616,0,0,0
o,0x00000000,1716791409.782394,172.16.1.2,35081,172.16.3.2,5101,14437,27620,0,64256,65728,6,6,4,1460,1412,1,992,74,66348,63452,65700,0,26064,0,0,0
i,0x00000000,1716791409.782490,172.16.1.2,35081,172.16.3.2,5101,14437,27620,0,64256,65728,6,6,4,1460,1412,1,992,74,66348,63452,65700,0,27512,0,0,0
o,0x00000000,1716791409.782493,172.16.1.2,35081,172.16.3.2,5101,14437,27620,0,64256,65728,6,6,4,1460,1408,1,992,73,66348,60556,65700,0,24616,0,0,0
o,0x00000000,1716791409.782587,172.16.1.2,35081,172.16.3.2,5101,14437,27620,0,64256,65728,6,6,4,1460,1408,1,992,73,66348,60556,65700,0,26064,0,0,0
i,0x00000000,1716791409.921890,172.16.1.2,35081,172.16.3.2,5101,14437,27620,0,64256,65728,6,6,4,1460,1408,1,992,73,66348,66348,65700,0,27512,0,0,0
o,0x00000000,1716791409.921912,172.16.1.2,35081,172.16.3.2,5101,14437,27620,0,64256,65728,6,6,4,1460,1404,1,992,71,66348,63452,65700,0,24616,0,0,0
o,0x00000000,1716791409.922186,172.16.1.2,35081,172.16.3.2,5101,14437,27620,0,64256,65728,6,6,4,1460,1404,1,992,71,66348,63452,65700,0,26064,0,0,0
i,0x00000000,1716791410.161836,172.16.1.2,35081,172.16.3.2,5101,14437,27620,0,64256,65728,6,6,4,1460,1404,1,992,71,66348,66348,65700,0,27512,0,0,0
o,0x00000000,1716791410.161856,172.16.1.2,35081,172.16.3.2,5101,14437,27620,0,65728,65728,6,6,4,1460,1433,1,992,78,66348,64900,65700,0,26064,0,0,0
i,0x00000000,1716791410.192081,172.16.1.2,35081,172.16.3.2,5101,14437,27620,0,65728,65728,6,6,4,1460,1433,1,992,78,66348,64900,65700,0,27512,0,0,0
o,0x00000000,1716791410.192104,172.16.1.2,35081,172.16.3.2,5101,14437,27620,0,64256,65728,6,6,4,1460,1450,1,992,79,66348,62004,65700,0,24616,0,0,0
o,0x00000000,1716791410.192348,172.16.1.2,35081,172.16.3.2,5101,14437,27620,0,64256,65728,6,6,4,1460,1450,1,992,79,66348,62004,65700,0,26064,0,0,0
i,0x00000000,1716791410.192446,172.16.1.2,35081,172.16.3.2,5101,14437,27620,0,64256,65728,6,6,4,1460,1450,1,992,79,66348,62004,65700,0,27512,0,0,0
o,0x00000000,1716791410.192449,172.16.1.2,35081,172.16.3.2,5101,14437,27620,0,64256,65728,6,6,4,1460,1449,1,992,76,66348,59108,65700,0,24616,0,0,0
o,0x00000000,1716791410.192535,172.16.1.2,35081,172.16.3.2,5101,14437,27620,0,64256,65728,6,6,4,1460,1449,1,992,76,66348,59108,65700,0,26064,0,0,0
i,0x00000000,1716791410.192864,172.16.1.2,35081,172.16.3.2,5101,14437,27620,0,64256,65728,6,6,4,1460,1449,1,992,76,66348,59108,65700,0,27512,0,0,0
o,0x00000000,1716791410.192867,172.16.1.2,35081,172.16.3.2,5101,14437,27620,0,64256,65728,6,6,4,1460,1448,1,992,73,66348,56212,65700,0,24616,0,0,0
o,0x00000000,1716791410.192946,172.16.1.2,35081,172.16.3.2,5101,14437,27620,0,64256,65728,6,6,4,1460,1448,1,992,73,66348,56212,65700,0,26064,0,0,0
i,0x00000000,1716791410.193354,172.16.1.2,35081,172.16.3.2,5101,14437,27620,0,64256,65728,6,6,4,1460,1448,1,992,73,66348,56212,65700,0,27512,0,0,0
o,0x00000000,1716791410.193359,172.16.1.2,35081,172.16.3.2,5101,14437,27620,0,64256,65728,6,6,4,1460,1447,1,992,71,66348,53316,65700,0,24616,0,0,0
o,0x00000000,1716791410.193456,172.16.1.2,35081,172.16.3.2,5101,14437,27620,0,64256,65728,6,6,4,1460,1447,1,992,71,66348,53316,65700,0,26064,0,0,0
i,0x00000000,1716791410.193536,172.16.1.2,35081,172.16.3.2,5101,14437,27620,0,64256,65728,6,6,4,1460,1447,1,992,71,66348,53316,65700,0,27512,0,0,0
o,0x00000000,1716791410.193538,172.16.1.2,35081,172.16.3.2,5101,14437,27620,0,64256,65728,6,6,4,1460,1447,1,992,70,66348,50420,65700,0,24616,0,0,0
o,0x00000000,1716791410.193619,172.16.1.2,35081,172.16.3.2,5101,14437,27620,0,64256,65728,6,6,4,1460,1447,1,992,70,66348,50420,65700,0,26064,0,0,0
i,0x00000000,1716791410.193702,172.16.1.2,35081,172.16.3.2,5101,14437,27620,0,64256,65728,6,6,4,1460,1447,1,992,70,66348,50420,65700,0,27512,0,0,0
o,0x00000000,1716791410.193705,172.16.1.2,35081,172.16.3.2,5101,14437,29080,0,64256,65728,6,6,4,1460,1447,1,992,69,66348,47524,65700,0,24616,0,0,0
o,0x00000000,1716791410.193790,172.16.1.2,35081,172.16.3.2,5101,14437,29080,0,64256,65728,6,6,4,1460,1447,1,992,69,66348,47524,65700,0,26064,0,0,0
o,0x00000000,1716791410.193871,172.16.1.2,35081,172.16.3.2,5101,14437,29080,0,64256,65728,6,6,4,1460,1447,1,992,69,66348,47524,65700,0,27512,0,0,0
i,0x00000000,1716791410.222523,172.16.1.2,35081,172.16.3.2,5101,14437,29080,0,64256,65728,6,6,4,1460,1447,1,992,69,66348,66348,65700,0,28960,0,0,0
o,0x00000000,1716791410.222543,172.16.1.2,35081,172.16.3.2,5101,14437,29080,0,64256,65728,6,6,4,1460,1443,1,992,69,66348,63452,65700,0,26064,0,0,0
o,0x00000000,1716791410.222817,172.16.1.2,35081,172.16.3.2,5101,14437,29080,0,64256,65728,6,6,4,1460,1443,1,992,69,66348,63452,65700,0,27512,0,0,0
i,0x00000000,1716791410.223073,172.16.1.2,35081,172.16.3.2,5101,14437,29080,0,64256,65728,6,6,4,1460,1443,1,992,69,66348,63452,65700,0,28960,0,0,0
o,0x00000000,1716791410.223076,172.16.1.2,35081,172.16.3.2,5101,14437,29080,0,64256,65728,6,6,4,1460,1439,1,992,68,66348,60556,65700,0,26064,0,0,0
o,0x00000000,1716791410.223317,172.16.1.2,35081,172.16.3.2,5101,14437,29080,0,64256,65728,6,6,4,1460,1439,1,992,68,66348,60556,65700,0,27512,0,0,0
i,0x00000000,1716791410.382502,172.16.1.2,35081,172.16.3.2,5101,14437,29080,0,64256,65728,6,6,4,1460,1439,1,992,68,66348,66348,65700,0,28960,0,0,0
o,0x00000000,1716791410.382522,172.16.1.2,35081,172.16.3.2,5101,14437,29080,0,64256,65728,6,6,4,1460,1444,1,992,69,66348,63452,65700,0,26064,0,0,0
o,0x00000000,1716791410.382822,172.16.1.2,35081,172.16.3.2,5101,14437,29080,0,64256,65728,6,6,4,1460,1444,1,992,69,66348,63452,65700,0,27512,0,0,0
i,0x00000000,1716791410.692264,172.16.1.2,35081,172.16.3.2,5101,14437,29080,0,64256,65728,6,6,4,1460,1444,1,992,69,66348,66348,65700,0,28960,0,0,0
o,0x00000000,1716791410.692306,172.16.1.2,35081,172.16.3.2,5101,14437,29080,0,65728,65728,6,6,4,1460,1476,1,992,77,66348,64900,65700,0,27512,0,0,0
i,0x00000000,1716791410.692414,172.16.1.2,35081,172.16.3.2,5101,14437,29080,0,65728,65728,6,6,4,1460,1476,1,992,77,66348,64900,65700,0,28960,0,0,0
o,0x00000000,1716791410.692417,172.16.1.2,35081,172.16.3.2,5101,14437,29080,0,64256,65728,6,6,4,1460,1492,1,992,79,66348,62004,65700,0,26064,0,0,0
o,0x00000000,1716791410.692495,172.16.1.2,35081,172.16.3.2,5101,14437,29080,0,64256,65728,6,6,4,1460,1492,1,992,79,66348,62004,65700,0,27512,0,0,0
i,0x00000000,1716791410.692592,172.16.1.2,35081,172.16.3.2,5101,14437,29080,0,64256,65728,6,6,4,1460,1492,1,992,79,66348,62004,65700,0,28960,0,0,0
o,0x00000000,1716791410.692594,172.16.1.2,35081,172.16.3.2,5101,14437,29080,0,64256,65728,6,6,4,1460,1506,1,992,80,66348,59108,65700,0,26064,0,0,0
o,0x00000000,1716791410.692676,172.16.1.2,35081,172.16.3.2,5101,14437,29080,0,64256,65728,6,6,4,1460,1506,1,992,80,66348,59108,65700,0,27512,0,0,0
i,0x00000000,1716791410.692770,172.16.1.2,35081,172.16.3.2,5101,14437,29080,0,64256,65728,6,6,4,1460,1506,1,992,80,66348,59108,65700,0,28960,0,0,0
o,0x00000000,1716791410.692773,172.16.1.2,35081,172.16.3.2,5101,14437,29080,0,64256,65728,6,6,4,1460,1518,1,992,80,66348,56212,65700,0,26064,0,0,0
o,0x00000000,1716791410.692869,172.16.1.2,35081,172.16.3.2,5101,14437,29080,0,64256,65728,6,6,4,1460,1518,1,992,80,66348,56212,65700,0,27512,0,0,0
i,0x00000000,1716791410.693169,172.16.1.2,35081,172.16.3.2,5101,14437,29080,0,64256,65728,6,6,4,1460,1518,1,992,80,66348,56212,65700,0,28960,0,0,0
o,0x00000000,1716791410.693172,172.16.1.2,35081,172.16.3.2,5101,14437,29080,0,64256,65728,6,6,4,1460,1529,1,992,80,66348,53316,65700,0,26064,0,0,0
o,0x00000000,1716791410.693250,172.16.1.2,35081,172.16.3.2,5101,14437,29080,0,64256,65728,6,6,4,1460,1529,1,992,80,66348,53316,65700,0,27512,0,0,0
i,0x00000000,1716791410.693337,172.16.1.2,35081,172.16.3.2,5101,14437,29080,0,64256,65728,6,6,4,1460,1529,1,992,80,66348,53316,65700,0,28960,0,0,0
o,0x00000000,1716791410.693339,172.16.1.2,35081,172.16.3.2,5101,14437,29080,0,64256,65728,6,6,4,1460,1538,1,992,79,66348,50420,65700,0,26064,0,0,0
o,0x00000000,1716791410.693419,172.16.1.2,35081,172.16.3.2,5101,14437,29080,0,64256,65728,6,6,4,1460,1538,1,992,79,66348,50420,65700,0,27512,0,0,0
i,0x00000000,1716791410.693728,172.16.1.2,35081,172.16.3.2,5101,14437,29080,0,64256,65728,6,6,4,1460,1538,1,992,79,66348,50420,65700,0,28960,0,0,0
o,0x00000000,1716791410.693731,172.16.1.2,35081,172.16.3.2,5101,14437,30540,0,64256,65728,6,6,4,1460,1546,1,992,79,66348,47524,65700,0,26064,0,0,0
o,0x00000000,1716791410.693810,172.16.1.2,35081,172.16.3.2,5101,14437,30540,0,64256,65728,6,6,4,1460,1546,1,992,79,66348,47524,65700,0,27512,0,0,0
o,0x00000000,1716791410.693889,172.16.1.2,35081,172.16.3.2,5101,14437,30540,0,64256,65728,6,6,4,1460,1546,1,992,79,66348,47524,65700,0,28960,0,0,0
i,0x00000000,1716791410.712658,172.16.1.2,35081,172.16.3.2,5101,14437,30540,0,64256,65728,6,6,4,1460,1546,1,992,79,66348,66348,65700,0,30408,0,0,0
o,0x00000000,1716791410.712667,172.16.1.2,35081,172.16.3.2,5101,14437,30540,0,64256,65728,6,6,4,1460,1561,1,992,80,66348,63452,65700,0,27512,0,0,0
o,0x00000000,1716791410.713034,172.16.1.2,35081,172.16.3.2,5101,14437,30540,0,64256,65728,6,6,4,1460,1561,1,992,80,66348,63452,65700,0,28960,0,0,0
i,0x00000000,1716791410.713307,172.16.1.2,35081,172.16.3.2,5101,14437,30540,0,64256,65728,6,6,4,1460,1561,1,992,80,66348,63452,65700,0,30408,0,0,0
o,0x00000000,1716791410.713310,172.16.1.2,35081,172.16.3.2,5101,14437,30540,0,64256,65728,6,6,4,1460,1562,1,992,78,66348,60556,65700,0,27512,0,0,0
o,0x00000000,1716791410.713592,172.16.1.2,35081,172.16.3.2,5101,14437,30540,0,64256,65728,6,6,4,1460,1562,1,992,78,66348,60556,65700,0,28960,0,0,0
i,0x00000000,1716791410.871528,172.16.1.2,35081,172.16.3.2,5101,14437,30540,0,64256,65728,6,6,4,1460,1562,1,992,78,74540,74540,65700,0,30408,0,0,0
o,0x00000000,1716791410.871550,172.16.1.2,35081,172.16.3.2,5101,14437,30540,0,64256,65728,6,6,4,1460,1627,1,992,94,74540,71644,65700,0,27512,0,0,0
o,0x00000000,1716791410.871802,172.16.1.2,35081,172.16.3.2,5101,14437,30540,0,64256,65728,6,6,4,1460,1627,1,992,94,74540,71644,65700,0,28960,0,0,0
i,0x00000000,1716791411.161526,172.16.1.2,35081,172.16.3.2,5101,14437,30540,0,64256,65728,6,6,4,1460,1627,1,992,94,74540,74540,65700,0,30408,0,0,0
o,0x00000000,1716791411.161547,172.16.1.2,35081,172.16.3.2,5101,14437,30540,0,65728,65728,6,6,4,1460,1736,1,992,119,74540,73092,65700,0,28960,0,0,0
i,0x00000000,1716791411.192152,172.16.1.2,35081,172.16.3.2,5101,14437,30540,0,65728,65728,6,6,4,1460,1736,1,992,119,74540,73092,65700,0,30408,0,0,0
o,0x00000000,1716791411.192177,172.16.1.2,35081,172.16.3.2,5101,14437,30540,0,64256,65728,6,6,4,1460,1719,1,992,111,74540,70196,65700,0,27512,0,0,0
o,0x00000000,1716791411.192274,172.16.1.2,35081,172.16.3.2,5101,14437,30540,0,64256,65728,6,6,4,1460,1719,1,992,111,74540,70196,65700,0,28960,0,0,0
i,0x00000000,1716791411.192354,172.16.1.2,35081,172.16.3.2,5101,14437,30540,0,64256,65728,6,6,4,1460,1719,1,992,111,74540,70196,65700,0,30408,0,0,0
o,0x00000000,1716791411.192358,172.16.1.2,35081,172.16.3.2,5101,14437,30540,0,64256,65728,6,6,4,1460,1705,1,992,105,74540,67300,65700,0,27512,0,0,0
o,0x00000000,1716791411.192438,172.16.1.2,35081,172.16.3.2,5101,14437,30540,0,64256,65728,6,6,4,1460,1705,1,992,105,74540,67300,65700,0,28960,0,0,0
i,0x00000000,1716791411.192517,172.16.1.2,35081,172.16.3.2,5101,14437,30540,0,64256,65728,6,6,4,1460,1705,1,992,105,74540,67300,65700,0,30408,0,0,0
o,0x00000000,1716791411.192520,172.16.1.2,35081,172.16.3.2,5101,14437,30540,0,64256,65728,6,6,4,1460,1692,1,992,100,74540,64404,65700,0,27512,0,0,0
o,0x00000000,1716791411.192599,172.16.1.2,35081,172.16.3.2,5101,14437,30540,0,64256,65728,6,6,4,1460,1692,1,992,100,74540,64404,65700,0,28960,0,0,0
i,0x00000000,1716791411.202541,172.16.1.2,35081,172.16.3.2,5101,14437,30540,0,64256,65728,6,6,4,1460,1692,1,992,100,74540,74540,65700,0,30408,0,0,0
o,0x00000000,1716791411.202563,172.16.1.2,35081,172.16.3.2,5101,14437,30540,0,64256,65728,6,6,4,1460,1685,1,992,94,74540,71644,65700,0,27512,0,0,0
o,0x00000000,1716791411.202834,172.16.1.2,35081,172.16.3.2,5101,14437,30540,0,64256,65728,6,6,4,1460,1685,1,992,94,74540,71644,65700,0,28960,0,0,0
i,0x00000000,1716791411.212742,172.16.1.2,35081,172.16.3.2,5101,14437,30540,0,64256,65728,6,6,4,1460,1685,1,992,94,74540,74540,65700,0,30408,0,0,0
o,0x00000000,1716791411.212933,172.16.1.2,35081,172.16.3.2,5101,14437,30540,0,64256,65728,6,6,4,1460,1683,1,992,89,74540,71644,65700,0,27512,0,0,0
o,0x00000000,1716791411.213018,172.16.1.2,35081,172.16.3.2,5101,14437,30540,0,64256,65728,6,6,4,1460,1683,1,992,89,74540,71644,65700,0,28960,0,0,0
i,0x00000000,1716791411.213096,172.16.1.2,35081,172.16.3.2,5101,14437,30540,0,64256,65728,6,6,4,1460,1683,1,992,89,74540,71644,65700,0,30408,0,0,0
o,0x00000000,1716791411.213099,172.16.1.2,35081,172.16.3.2,5101,14437,30540,0,64256,65728,6,6,4,1460,1681,1,992,86,74540,68748,65700,0,27512,0,0,0
o,0x00000000,1716791411.213178,172.16.1.2,35081,172.16.3.2,5101,14437,30540,0,64256,65728,6,6,4,1460,1681,1,992,86,74540,68748,65700,0,28960,0,0,0
i,0x00000000,1716791411.213559,172.16.1.2,35081,172.16.3.2,5101,14437,30540,0,64256,65728,6,6,4,1460,1681,1,992,86,74540,68748,65700,0,30408,0,0,0
o,0x00000000,1716791411.213562,172.16.1.2,35081,172.16.3.2,5101,14437,32000,0,64256,65728,6,6,4,1460,1679,1,992,83,74540,65852,65700,0,27512,0,0,0
o,0x00000000,1716791411.213641,172.16.1.2,35081,172.16.3.2,5101,14437,32000,0,64256,65728,6,6,4,1460,1679,1,992,83,74540,65852,65700,0,28960,0,0,0
o,0x00000000,1716791411.213741,172.16.1.2,35081,172.16.3.2,5101,14437,32000,0,64256,65728,6,6,4,1460,1679,1,992,83,74540,65852,65700,0,30408,0,0,0
