enable_time_secs=1716793889	enable_time_usecs=670311	siftrver=1.2.4	hz=100	tcp_rtt_scale=32	sysname=FreeBSD	sysver=1301000	ipmode=4
o,0x00000000,1716793889.670345,10.0.2.15,22,10.0.2.2,57878,1073725440,17298,0,65535,65700,0,0,4,1460,1,0,4,24,33580,44,65700,0,0,0,0,0
o,0x00000000,1716793889.670494,10.0.2.15,22,10.0.2.2,57878,1073725440,17298,0,65535,65700,0,0,4,1460,1,0,4,24,33580,80,65700,0,44,0,0,0
i,0x00000000,1716793889.670922,10.0.2.15,22,10.0.2.2,57878,1073725440,17298,0,65535,65700,0,0,4,1460,1,0,4,24,33580,80,65700,0,80,0,0,0
i,0x00000000,1716793889.670925,10.0.2.15,22,10.0.2.2,57878,1073725440,17342,0,65535,65700,0,0,4,1460,1,0,4,24,33580,36,65700,0,36,0,0,0
o,0x00000000,1716793889.670983,10.0.2.15,22,10.0.2.2,57878,1073725440,17378,0,65535,65700,0,0,4,1460,1,0,4,24,33580,36,65700,0,0,0,0,0
i,0x00000000,1716793889.671571,10.0.2.15,22,10.0.2.2,57878,1073725440,17378,0,65535,65700,0,0,4,1460,1,0,4,24,33580,36,65700,0,36,0,0,0
o,0x00000000,1716793889.671657,10.0.2.15,22,10.0.2.2,57878,1073725440,17414,0,65535,65700,0,0,4,1460,1,0,4,24,33580,36,65700,0,0,0,0,0
i,0x00000000,1716793889.672337,10.0.2.15,22,10.0.2.2,57878,1073725440,17414,0,65535,65700,0,0,4,1460,1,0,4,24,33580,36,65700,0,36,0,0,0
o,0x00000000,1716793889.672433,10.0.2.15,22,10.0.2.2,57878,1073725440,17450,0,65535,65700,0,0,4,1460,1,0,4,24,33580,140,65700,0,0,0,0,0
i,0x00000000,1716793889.673109,10.0.2.15,22,10.0.2.2,57878,1073725440,17450,0,65535,65700,0,0,4,1460,1,0,4,24,33580,140,65700,0,140,0,0,0
i,0x00000000,1716793889.673847,10.0.2.15,22,10.0.2.2,57878,1073725440,17590,0,65535,65700,0,0,4,1460,1,0,4,24,33580,0,65700,0,0,0,0,0
i,0x00000000,1716793889.673850,10.0.2.15,22,10.0.2.2,57878,1073725440,17590,0,65535,65700,0,0,4,1460,1,0,4,24,33580,0,65700,36,0,0,0,0
o,0x00000000,1716793889.673852,10.0.2.15,22,10.0.2.2,57878,1073725440,17590,0,65535,65700,0,0,4,1460,1,0,5,24,33580,0,65700,96,0,0,0,0
i,0x00000000,1716793889.674259,10.0.2.15,22,10.0.2.2,57878,1073725440,17590,0,65535,65700,0,0,4,1460,1,0,4,24,33580,0,65700,96,0,0,0,0
o,0x00000000,1716793889.674262,10.0.2.15,22,10.0.2.2,57878,1073725440,17590,0,65535,65604,0,0,5,1460,1,0,7,24,33580,0,65700,96,0,0,0,0
o,0x00000000,1716793889.674934,10.0.2.15,22,10.0.2.2,57878,1073725440,17590,0,65535,65604,0,0,8,1460,1,0,4,24,33580,0,65700,0,0,0,0,0
i,0x00000000,1716793889.675532,10.0.2.15,22,10.0.2.2,57878,1073725440,17590,0,65535,65604,0,0,8,1460,1,0,20,24,33580,0,65700,0,1,0,0,0
i,0x00000000,1716793891.845619,10.0.2.15,22,10.0.2.2,57886,1073725440,14600,0,65535,65700,0,0,4,1460,1,0,0,26,33580,0,65700,0,0,0,0,0
o,0x00000000,1716793891.849285,10.0.2.15,22,10.0.2.2,57886,1073725440,14600,0,65535,65700,0,0,4,1460,1,0,0,26,33580,38,65700,41,0,0,0,0
i,0x00000000,1716793891.849967,10.0.2.15,22,10.0.2.2,57886,1073725440,14600,0,65535,65700,0,0,4,1460,1,0,0,26,33580,38,65700,0,38,0,0,0
o,0x00000000,1716793891.850490,10.0.2.15,22,10.0.2.2,57886,1073725440,14638,0,65535,65700,0,0,4,1460,1,0,0,23,33580,1056,65700,0,0,0,0,0
i,0x00000000,1716793891.851297,10.0.2.15,22,10.0.2.2,57886,1073725440,14638,0,65535,65700,0,0,4,1460,1,0,0,23,33580,1056,65700,0,1056,0,0,0
i,0x00000000,1716793891.851301,10.0.2.15,22,10.0.2.2,57886,1073725440,14638,0,65535,65700,0,0,4,1460,1,0,0,23,33580,1056,65700,1460,1056,0,0,0
o,0x00000000,1716793891.851304,10.0.2.15,22,10.0.2.2,57886,1073725440,14638,0,65535,65700,0,0,4,1460,1,0,1,23,33580,1056,65700,1536,1056,0,0,0
i,0x00000000,1716793891.851384,10.0.2.15,22,10.0.2.2,57886,1073725440,14638,0,65535,65700,0,0,4,1460,1,0,0,23,33580,1056,65700,1536,1056,0,0,0
i,0x00000000,1716793891.852794,10.0.2.15,22,10.0.2.2,57886,1073725440,15694,0,65535,65700,0,0,4,1460,1,0,0,23,33580,0,65700,0,0,0,0,0
o,0x00000000,1716793891.855191,10.0.2.15,22,10.0.2.2,57886,1073725440,15694,0,65535,65700,0,0,4,1460,1,0,0,23,33580,484,65700,0,0,0,0,0
i,0x00000000,1716793891.856047,10.0.2.15,22,10.0.2.2,57886,1073725440,15694,0,65535,65700,0,0,4,1460,1,0,0,23,33580,484,65700,0,484,0,0,0
i,0x00000000,1716793891.861962,10.0.2.15,22,10.0.2.2,57886,1073725440,16178,0,65535,65700,0,0,4,1460,1,0,0,24,33580,0,65700,0,0,0,0,0
i,0x00000000,1716793891.866579,10.0.2.15,22,10.0.2.2,57886,1073725440,16178,0,65535,65700,0,0,4,1460,1,0,0,24,33580,0,65700,0,0,0,0,0
o,0x00000000,1716793891.866584,10.0.2.15,22,10.0.2.2,57886,1073725440,16178,0,65535,65700,0,0,4,1460,1,0,1,24,33580,0,65700,44,0,0,0,0
o,0x00000000,1716793891.866743,10.0.2.15,22,10.0.2.2,57886,1073725440,16178,0,65535,65700,0,0,4,1460,1,0,0,24,33580,44,65700,0,0,0,0,0
i,0x00000000,1716793891.867412,10.0.2.15,22,10.0.2.2,57886,1073725440,16178,0,65535,65700,0,0,4,1460,1,0,0,24,33580,44,65700,0,44,0,0,0
i,0x00000000,1716793891.868193,10.0.2.15,22,10.0.2.2,57886,1073725440,16222,0,65535,65700,0,0,4,1460,1,0,0,24,33580,0,65700,0,0,0,0,0
o,0x00000000,1716793891.878256,10.0.2.15,22,10.0.2.2,57886,1073725440,16222,0,65535,65700,0,0,4,1460,1,0,0,24,33580,68,65700,0,0,0,0,0
i,0x00000000,1716793891.878804,10.0.2.15,22,10.0.2.2,57886,1073725440,16222,0,65535,65700,0,0,4,1460,1,0,0,24,33580,68,65700,0,68,0,0,0
i,0x00000000,1716793891.882070,10.0.2.15,22,10.0.2.2,57886,1073725440,16290,0,65535,65700,0,0,4,1460,1,0,0,24,33580,0,65700,0,0,0,0,0
o,0x00000000,1716793891.891606,10.0.2.15,22,10.0.2.2,57886,1073725440,16290,0,65535,65700,0,0,4,1460,1,0,0,24,33580,28,65700,0,0,0,0,0
i,0x00000000,1716793891.892284,10.0.2.15,22,10.0.2.2,57886,1073725440,16290,0,65535,65700,0,0,4,1460,1,0,0,24,33580,28,65700,0,28,0,0,0
i,0x00000000,1716793891.892688,10.0.2.15,22,10.0.2.2,57886,1073725440,16318,0,65535,65700,0,0,4,1460,1,0,0,24,33580,0,65700,0,0,0,0,0
o,0x00000000,1716793891.893497,10.0.2.15,22,10.0.2.2,57886,1073725440,16318,0,65535,65700,0,0,4,1460,1,0,0,24,33580,768,65700,112,0,0,0,0
i,0x00000000,1716793891.894228,10.0.2.15,22,10.0.2.2,57886,1073725440,16318,0,65535,65700,0,0,4,1460,1,0,0,24,33580,768,65700,112,768,0,0,0
o,0x00000000,1716793891.894370,10.0.2.15,22,10.0.2.2,57886,1073725440,17086,0,65535,65700,0,0,4,1460,1,0,0,24,33580,44,65700,0,0,0,0,0
i,0x00000000,1716793891.894937,10.0.2.15,22,10.0.2.2,57886,1073725440,17086,0,65535,65700,0,0,4,1460,1,0,0,24,33580,44,65700,0,44,0,0,0
i,0x00000000,1716793891.896121,10.0.2.15,22,10.0.2.2,57886,1073725440,17130,0,65535,65700,0,0,4,1460,1,0,0,24,33580,0,65700,0,0,0,0,0
o,0x00000000,1716793891.896447,10.0.2.15,22,10.0.2.2,57886,1073725440,17130,0,65535,65700,0,0,4,1460,1,0,4,24,33580,72,65700,0,0,0,0,0
i,0x00000000,1716793891.897105,10.0.2.15,22,10.0.2.2,57886,1073725440,17130,0,65535,65700,0,0,4,1460,1,0,4,24,33580,72,65700,0,72,0,0,0
o,0x00000000,1716793891.899491,10.0.2.15,22,10.0.2.2,57886,1073725440,17202,0,65535,65700,0,0,4,1460,1,0,4,24,33580,44,65700,0,0,0,0,0
i,0x00000000,1716793891.900037,10.0.2.15,22,10.0.2.2,57886,1073725440,17202,0,65535,65700,0,0,4,1460,1,0,4,24,33580,44,65700,0,44,0,0,0
o,0x00000000,1716793891.900384,10.0.2.15,22,10.0.2.2,57886,1073725440,17246,0,65535,65700,0,0,4,1460,1,0,4,24,33580,44,65700,0,0,0,0,0
i,0x00000000,1716793891.901074,10.0.2.15,22,10.0.2.2,57886,1073725440,17246,0,65535,65700,0,0,4,1460,1,0,4,24,33580,44,65700,0,44,0,0,0
o,0x00000000,1716793891.902459,10.0.2.15,22,10.0.2.2,57886,1073725440,17290,0,65535,65700,0,0,4,1460,1,0,4,24,33580,176,65700,0,0,0,0,0
i,0x00000000,1716793891.903182,10.0.2.15,22,10.0.2.2,57886,1073725440,17290,0,65535,65700,0,0,4,1460,1,0,4,24,33580,176,65700,0,176,0,0,0
i,0x00000000,1716793891.904487,10.0.2.15,22,10.0.2.2,57886,1073725440,17466,0,65535,65700,0,0,4,1460,1,0,4,24,33580,0,65700,0,0,0,0,0
i,0x00000000,1716793891.904490,10.0.2.15,22,10.0.2.2,57886,1073725440,17466,0,65535,65700,0,0,4,1460,1,0,4,24,33580,0,65700,36,0,0,0,0
o,0x00000000,1716793891.904492,10.0.2.15,22,10.0.2.2,57886,1073725440,17466,0,65535,65700,0,0,4,1460,1,0,5,24,33580,0,65700,96,0,0,0,0
i,0x00000000,1716793891.904564,10.0.2.15,22,10.0.2.2,57886,1073725440,17466,0,65535,65700,0,0,4,1460,1,0,4,24,33580,0,65700,96,0,0,0,0
o,0x00000000,1716793891.904568,10.0.2.15,22,10.0.2.2,57886,1073725440,17466,0,65535,65604,0,0,5,1460,1,0,7,24,33580,0,65700,96,0,0,0,0
o,0x00000000,1716793891.910922,10.0.2.15,22,10.0.2.2,57886,1073725440,17466,0,65535,65604,0,0,8,1460,1,0,4,24,33580,0,65700,0,0,0,0,0
i,0x00000000,1716793891.911415,10.0.2.15,22,10.0.2.2,57886,1073725440,17466,0,65535,65604,0,0,8,1460,1,0,20,24,33580,0,65700,0,1,0,0,0
i,0x00000000,1716793892.984458,10.0.2.15,22,10.0.2.2,57889,1073725440,14600,0,65535,65700,0,0,4,1460,1,0,0,27,33580,0,65700,0,0,0,0,0
o,0x00000000,1716793892.990742,10.0.2.15,22,10.0.2.2,57889,1073725440,14600,0,65535,65700,0,0,4,1460,1,0,0,27,33580,38,65700,41,0,0,0,0
i,0x00000000,1716793892.991418,10.0.2.15,22,10.0.2.2,57889,1073725440,14600,0,65535,65700,0,0,4,1460,1,0,0,27,33580,38,65700,0,38,0,0,0
i,0x00000000,1716793892.992547,10.0.2.15,22,10.0.2.2,57889,1073725440,14638,0,65535,65700,0,0,4,1460,1,0,0,23,33580,0,65700,0,0,0,0,0
i,0x00000000,1716793892.992551,10.0.2.15,22,10.0.2.2,57889,1073725440,14638,0,65535,65700,0,0,4,1460,1,0,0,23,33580,0,65700,1460,0,0,0,0
o,0x00000000,1716793892.992555,10.0.2.15,22,10.0.2.2,57889,1073725440,14638,0,65535,65700,0,0,4,1460,1,0,1,23,33580,0,65700,1536,0,0,0,0
o,0x00000000,1716793892.993019,10.0.2.15,22,10.0.2.2,57889,1073725440,14638,0,65535,65700,0,0,4,1460,1,0,0,23,33580,1056,65700,1536,0,0,0,0
i,0x00000000,1716793892.993722,10.0.2.15,22,10.0.2.2,57889,1073725440,14638,0,65535,65700,0,0,4,1460,1,0,0,23,33580,1056,65700,1536,1056,0,0,0
i,0x00000000,1716793892.995734,10.0.2.15,22,10.0.2.2,57889,1073725440,15694,0,65535,65700,0,0,4,1460,1,0,0,24,33580,0,65700,0,0,0,0,0
o,0x00000000,1716793892.998313,10.0.2.15,22,10.0.2.2,57889,1073725440,15694,0,65535,65700,0,0,4,1460,1,0,0,24,33580,484,65700,0,0,0,0,0
i,0x00000000,1716793892.999176,10.0.2.15,22,10.0.2.2,57889,1073725440,15694,0,65535,65700,0,0,4,1460,1,0,0,24,33580,484,65700,0,484,0,0,0
i,0x00000000,1716793893.004513,10.0.2.15,22,10.0.2.2,57889,1073725440,16178,0,65535,65700,0,0,4,1460,1,0,0,24,33580,0,65700,0,0,0,0,0
i,0x00000000,1716793893.009103,10.0.2.15,22,10.0.2.2,57889,1073725440,16178,0,65535,65700,0,0,4,1460,1,0,0,24,33580,0,65700,0,0,0,0,0
o,0x00000000,1716793893.009108,10.0.2.15,22,10.0.2.2,57889,1073725440,16178,0,65535,65700,0,0,4,1460,1,0,1,24,33580,0,65700,44,0,0,0,0
o,0x00000000,1716793893.009247,10.0.2.15,22,10.0.2.2,57889,1073725440,16178,0,65535,65700,0,0,4,1460,1,0,0,24,33580,44,65700,0,0,0,0,0
i,0x00000000,1716793893.009952,10.0.2.15,22,10.0.2.2,57889,1073725440,16178,0,65535,65700,0,0,4,1460,1,0,0,24,33580,44,65700,0,44,0,0,0
i,0x00000000,1716793893.010446,10.0.2.15,22,10.0.2.2,57889,1073725440,16222,0,65535,65700,0,0,4,1460,1,0,0,24,33580,0,65700,0,0,0,0,0
o,0x00000000,1716793893.019649,10.0.2.15,22,10.0.2.2,57889,1073725440,16222,0,65535,65700,0,0,4,1460,1,0,0,24,33580,68,65700,0,0,0,0,0
i,0x00000000,1716793893.020245,10.0.2.15,22,10.0.2.2,57889,1073725440,16222,0,65535,65700,0,0,4,1460,1,0,0,24,33580,68,65700,0,68,0,0,0
i,0x00000000,1716793893.022991,10.0.2.15,22,10.0.2.2,57889,1073725440,16290,0,65535,65700,0,0,4,1460,1,0,0,24,33580,0,65700,0,0,0,0,0
o,0x00000000,1716793893.032107,10.0.2.15,22,10.0.2.2,57889,1073725440,16290,0,65535,65700,0,0,4,1460,1,0,0,24,33580,28,65700,0,0,0,0,0
i,0x00000000,1716793893.032804,10.0.2.15,22,10.0.2.2,57889,1073725440,16290,0,65535,65700,0,0,4,1460,1,0,0,24,33580,28,65700,0,28,0,0,0
i,0x00000000,1716793893.033587,10.0.2.15,22,10.0.2.2,57889,1073725440,16318,0,65535,65700,0,0,4,1460,1,0,0,24,33580,0,65700,0,0,0,0,0
o,0x00000000,1716793893.034297,10.0.2.15,22,10.0.2.2,57889,1073725440,16318,0,65535,65700,0,0,4,1460,1,0,0,24,33580,768,65700,112,0,0,0,0
i,0x00000000,1716793893.035114,10.0.2.15,22,10.0.2.2,57889,1073725440,16318,0,65535,65700,0,0,4,1460,1,0,0,24,33580,768,65700,112,768,0,0,0
o,0x00000000,1716793893.035216,10.0.2.15,22,10.0.2.2,57889,1073725440,17086,0,65535,65700,0,0,4,1460,1,0,0,24,33580,44,65700,0,0,0,0,0
i,0x00000000,1716793893.036026,10.0.2.15,22,10.0.2.2,57889,1073725440,17086,0,65535,65700,0,0,4,1460,1,0,0,24,33580,44,65700,0,44,0,0,0
i,0x00000000,1716793893.036932,10.0.2.15,22,10.0.2.2,57889,1073725440,17130,0,65535,65700,0,0,4,1460,1,0,0,24,33580,0,65700,0,0,0,0,0
o,0x00000000,1716793893.037228,10.0.2.15,22,10.0.2.2,57889,1073725440,17130,0,65535,65700,0,0,4,1460,1,0,4,24,33580,72,65700,0,0,0,0,0
i,0x00000000,1716793893.037868,10.0.2.15,22,10.0.2.2,57889,1073725440,17130,0,65535,65700,0,0,4,1460,1,0,4,24,33580,72,65700,0,72,0,0,0
i,0x00000000,1716793893.039789,10.0.2.15,22,10.0.2.2,57889,1073725440,17202,0,65535,65700,0,0,4,1460,1,0,4,24,33580,0,65700,0,0,0,0,0
o,0x00000000,1716793893.042171,172.16.1.2,35801,172.16.3.2,5101,1073725440,1073725440,0,0,0,0,0,2,536,0,1,672,100,32768,0,65536,0,0,0,0,0
o,0x00000000,1716793893.076060,10.0.2.15,22,10.0.2.2,57889,1073725440,17202,0,65535,65700,0,0,4,1460,1,0,5,24,33580,0,65700,0,0,0,0,0
i,0x00000000,1716793893.153694,172.16.1.2,35801,172.16.3.2,5101,1073725440,1073725440,0,0,0,0,0,2,536,0,1,672,100,32768,0,65536,0,1,0,0,0
o,0x00000000,1716793893.153708,172.16.1.2,35801,172.16.3.2,5101,22711,14480,0,65535,65700,6,6,4,1460,884,1,993,135,33580,0,65700,0,0,0,0,0
o,0x00000000,1716793893.154243,172.16.1.2,35801,172.16.3.2,5101,22711,14480,0,65535,65700,6,6,4,1460,884,1,996,135,33580,37,65700,0,0,0,0,0
i,0x00000000,1716793893.273646,172.16.1.2,35801,172.16.3.2,5101,22711,14480,0,65535,65700,6,6,4,1460,884,1,996,135,33580,37,65700,0,37,0,0,0
o,0x00000000,1716793893.273800,172.16.1.2,35801,172.16.3.2,5101,22711,14517,0,65728,65728,6,6,4,1460,822,1,996,127,33580,4,65700,0,0,0,0,0
o,0x00000000,1716793893.274209,172.16.1.2,35801,172.16.3.2,5101,22711,14517,0,65728,65728,6,6,4,1460,822,1,996,127,33580,128,65700,0,4,0,0,0
i,0x00000000,1716793893.394804,172.16.1.2,35801,172.16.3.2,5101,22711,14517,0,65728,65728,6,6,4,1460,822,1,996,127,33580,128,65700,0,128,0,0,0
i,0x00000000,1716793893.394817,172.16.1.2,35801,172.16.3.2,5101,22711,14645,0,65600,65728,6,6,4,1460,768,1,996,119,33580,0,65700,0,0,0,0,0
o,0x00000000,1716793893.394959,172.16.1.2,27300,172.16.3.2,5101,1073725440,1073725440,0,0,0,0,0,2,536,0,1,672,100,32768,0,65536,0,0,0,0,0
o,0x00000000,1716793893.426027,172.16.1.2,35801,172.16.3.2,5101,22711,14645,0,65728,65728,6,6,4,1460,768,1,997,119,33580,0,65700,0,0,0,0,0
i,0x00000000,1716793893.514917,172.16.1.2,27300,172.16.3.2,5101,1073725440,1073725440,0,0,0,0,0,2,536,0,1,672,100,32768,0,65536,0,1,0,0,0
o,0x00000000,1716793893.514939,172.16.1.2,27300,172.16.3.2,5101,22711,14480,0,65535,65700,6,6,4,1460,884,1,993,135,33580,0,65700,0,0,0,0,0
o,0x00000000,1716793893.515092,172.16.1.2,27300,172.16.3.2,5101,22711,14480,0,65535,65700,6,6,4,1460,884,1,992,135,33580,37,65700,0,0,0,0,0
i,0x00000000,1716793893.634165,172.16.1.2,35801,172.16.3.2,5101,22711,14645,0,65728,65728,6,6,4,1460,768,1,996,119,33580,0,65700,0,0,0,0,0
i,0x00000000,1716793893.634179,172.16.1.2,35801,172.16.3.2,5101,22711,14645,0,65728,65728,6,6,4,1460,768,1,996,119,33580,0,65700,1,0,0,0,0
o,0x00000000,1716793893.634187,172.16.1.2,35801,172.16.3.2,5101,22711,14645,0,65728,65728,6,6,4,1460,768,1,997,119,33580,0,65700,2,0,0,0,0
o,0x00000000,1716793893.634429,172.16.1.2,27300,172.16.3.2,5101,22711,14480,0,65535,65700,6,6,4,1460,884,1,992,135,33580,33580,65700,0,37,0,0,0
o,0x00000000,1716793893.634763,172.16.1.2,27300,172.16.3.2,5101,22711,14480,0,65535,65700,6,6,4,1460,884,1,992,135,33580,33580,65700,0,1485,0,0,0
o,0x00000000,1716793893.635232,172.16.1.2,27300,172.16.3.2,5101,22711,14480,0,65535,65700,6,6,4,1460,884,1,992,135,33580,33580,65700,0,2933,0,0,0
o,0x00000000,1716793893.635573,172.16.1.2,27300,172.16.3.2,5101,22711,14480,0,65535,65700,6,6,4,1460,884,1,992,135,33580,33580,65700,0,4381,0,0,0
o,0x00000000,1716793893.635896,172.16.1.2,27300,172.16.3.2,5101,22711,14480,0,65535,65700,6,6,4,1460,884,1,992,135,33580,33580,65700,0,5829,0,0,0
o,0x00000000,1716793893.636225,172.16.1.2,27300,172.16.3.2,5101,22711,14480,0,65535,65700,6,6,4,1460,884,1,992,135,33580,33580,65700,0,7277,0,0,0
o,0x00000000,1716793893.636575,172.16.1.2,27300,172.16.3.2,5101,22711,14480,0,65535,65700,6,6,4,1460,884,1,992,135,33580,33580,65700,0,8725,0,0,0
o,0x00000000,1716793893.636916,172.16.1.2,27300,172.16.3.2,5101,22711,14480,0,65535,65700,6,6,4,1460,884,1,992,135,33580,33580,65700,0,10173,0,0,0
o,0x00000000,1716793893.637235,172.16.1.2,27300,172.16.3.2,5101,22711,14480,0,65535,65700,6,6,4,1460,884,1,992,135,33580,33580,65700,0,11621,0,0,0
i,0x00000000,1716793893.664948,172.16.1.2,27300,172.16.3.2,5101,22711,14480,0,65535,65700,6,6,4,1460,884,1,992,135,33580,33580,65700,0,13069,0,0,0
o,0x00000000,1716793893.664964,172.16.1.2,27300,172.16.3.2,5101,22711,14517,0,65728,65728,6,6,4,1460,834,1,992,124,33580,33543,65700,0,13032,0,0,0
i,0x00000000,1716793893.934685,172.16.1.2,27300,172.16.3.2,5101,22711,14517,0,65728,65728,6,6,4,1460,834,1,992,124,33580,33543,65700,0,14480,0,0,0
o,0x00000000,1716793893.934706,172.16.1.2,27300,172.16.3.2,5101,22711,17413,0,64256,65728,6,6,4,1460,850,1,992,109,33580,30647,65700,0,11584,0,0,0
o,0x00000000,1716793893.934794,172.16.1.2,27300,172.16.3.2,5101,22711,17413,0,64256,65728,6,6,4,1460,850,1,992,109,33580,30647,65700,0,13032,0,0,0
o,0x00000000,1716793893.934891,172.16.1.2,27300,172.16.3.2,5101,22711,17413,0,64256,65728,6,6,4,1460,850,1,992,109,41772,30647,65700,0,14480,0,0,0
o,0x00000000,1716793893.934980,172.16.1.2,27300,172.16.3.2,5101,22711,17413,0,64256,65728,6,6,4,1460,850,1,992,109,41772,30647,65700,0,15928,0,0,0
i,0x00000000,1716793893.935064,172.16.1.2,27300,172.16.3.2,5101,22711,17413,0,64256,65728,6,6,4,1460,850,1,992,109,41772,30647,65700,0,17376,0,0,0
o,0x00000000,1716793893.935067,172.16.1.2,27300,172.16.3.2,5101,22711,20309,0,64256,65728,6,6,4,1460,860,1,992,96,41772,27751,65700,0,14480,0,0,0
o,0x00000000,1716793893.935142,172.16.1.2,27300,172.16.3.2,5101,22711,20309,0,64256,65728,6,6,4,1460,860,1,992,96,41772,27751,65700,0,15928,0,0,0
o,0x00000000,1716793893.935321,172.16.1.2,27300,172.16.3.2,5101,22711,20309,0,64256,65728,6,6,4,1460,860,1,992,96,41772,27751,65700,0,17376,0,0,0
o,0x00000000,1716793893.935395,172.16.1.2,27300,172.16.3.2,5101,22711,20309,0,64256,65728,6,6,4,1460,860,1,992,96,41772,27751,65700,0,18824,0,0,0
i,0x00000000,1716793893.935469,172.16.1.2,27300,172.16.3.2,5101,22711,20309,0,64256,65728,6,6,4,1460,860,1,992,96,41772,27751,65700,0,20272,0,0,0
o,0x00000000,1716793893.935472,172.16.1.2,27300,172.16.3.2,5101,22711,23205,0,64256,65728,6,6,4,1460,873,1,992,88,41772,24855,65700,0,17376,0,0,0
o,0x00000000,1716793893.935546,172.16.1.2,27300,172.16.3.2,5101,22711,23205,0,64256,65728,6,6,4,1460,873,1,992,88,41772,24855,65700,0,18824,0,0,0
o,0x00000000,1716793893.935622,172.16.1.2,27300,172.16.3.2,5101,22711,23205,0,64256,65728,6,6,4,1460,873,1,992,88,41772,24855,65700,0,20272,0,0,0
o,0x00000000,1716793893.935694,172.16.1.2,27300,172.16.3.2,5101,22711,23205,0,64256,65728,6,6,4,1460,873,1,992,88,41772,24855,65700,0,21720,0,0,0
i,0x00000000,1716793893.935771,172.16.1.2,27300,172.16.3.2,5101,22711,23205,0,64256,65728,6,6,4,1460,873,1,992,88,41772,24855,65700,0,23168,0,0,0
o,0x00000000,1716793893.935774,172.16.1.2,27300,172.16.3.2,5101,22711,23205,0,64256,65728,6,6,4,1460,884,1,992,81,41772,21959,65700,0,20272,0,0,0
o,0x00000000,1716793893.936164,172.16.1.2,27300,172.16.3.2,5101,22711,23205,0,64256,65728,6,6,4,1460,884,1,992,81,49964,41772,65700,0,21720,0,0,0
i,0x00000000,1716793893.964722,172.16.1.2,27300,172.16.3.2,5101,22711,23205,0,64256,65728,6,6,4,1460,884,1,992,81,49964,49964,65700,0,23168,0,0,0
o,0x00000000,1716793893.964753,172.16.1.2,27300,172.16.3.2,5101,22711,23205,0,64256,65728,6,6,4,1460,902,1,992,77,49964,47068,65700,0,20272,0,0,0
o,0x00000000,1716793893.965300,172.16.1.2,27300,172.16.3.2,5101,22711,23205,0,64256,65728,6,6,4,1460,902,1,992,77,49964,47068,65700,0,21720,0,0,0
i,0x00000000,1716793894.374673,172.16.1.2,27300,172.16.3.2,5101,22711,23205,0,64256,65728,6,6,4,1460,902,1,992,77,49964,49964,65700,0,23168,0,0,0
o,0x00000000,1716793894.374693,172.16.1.2,27300,172.16.3.2,5101,22711,23205,0,64256,65728,6,6,4,1460,966,1,992,88,49964,47068,65700,0,20272,0,0,0
o,0x00000000,1716793894.374784,172.16.1.2,27300,172.16.3.2,5101,22711,23205,0,64256,65728,6,6,4,1460,966,1,992,88,49964,47068,65700,0,21720,0,0,0
i,0x00000000,1716793894.374860,172.16.1.2,27300,172.16.3.2,5101,22711,23205,0,64256,65728,6,6,4,1460,966,1,992,88,49964,47068,65700,0,23168,0,0,0
o,0x00000000,1716793894.374863,172.16.1.2,27300,172.16.3.2,5101,22711,23205,0,64256,65728,6,6,4,1460,1022,1,992,94,49964,44172,65700,0,20272,0,0,0
o,0x00000000,1716793894.374938,172.16.1.2,27300,172.16.3.2,5101,22711,23205,0,64256,65728,6,6,4,1460,1022,1,992,94,58156,44172,65700,0,21720,0,0,0
i,0x00000000,1716793894.375010,172.16.1.2,27300,172.16.3.2,5101,22711,23205,0,64256,65728,6,6,4,1460,1022,1,992,94,58156,44172,65700,0,23168,0,0,0
o,0x00000000,1716793894.375013,172.16.1.2,27300,172.16.3.2,5101,22711,23205,0,64256,65728,6,6,4,1460,1071,1,992,97,58156,41276,65700,0,20272,0,0,0
o,0x00000000,1716793894.375098,172.16.1.2,27300,172.16.3.2,5101,22711,23205,0,64256,65728,6,6,4,1460,1071,1,992,97,58156,41276,65700,0,21720,0,0,0
i,0x00000000,1716793894.375285,172.16.1.2,27300,172.16.3.2,5101,22711,23205,0,64256,65728,6,6,4,1460,1071,1,992,97,58156,41276,65700,0,23168,0,0,0
o,0x00000000,1716793894.375288,172.16.1.2,27300,172.16.3.2,5101,22711,23205,0,64256,65728,6,6,4,1460,1114,1,992,99,58156,38380,65700,0,20272,0,0,0
o,0x00000000,1716793894.375362,172.16.1.2,27300,172.16.3.2,5101,22711,23205,0,64256,65728,6,6,4,1460,1114,1,992,99,58156,38380,65700,0,21720,0,0,0
i,0x00000000,1716793894.375664,172.16.1.2,27300,172.16.3.2,5101,22711,23205,0,64256,65728,6,6,4,1460,1114,1,992,99,58156,38380,65700,0,23168,0,0,0
o,0x00000000,1716793894.375667,172.16.1.2,27300,172.16.3.2,5101,22711,23205,0,64256,65728,6,6,4,1460,1151,1,992,98,58156,35484,65700,0,20272,0,0,0
o,0x00000000,1716793894.375742,172.16.1.2,27300,172.16.3.2,5101,22711,23205,0,64256,65728,6,6,4,1460,1151,1,992,98,58156,35484,65700,0,21720,0,0,0
i,0x00000000,1716793894.376049,172.16.1.2,27300,172.16.3.2,5101,22711,23205,0,64256,65728,6,6,4,1460,1151,1,992,98,58156,35484,65700,0,23168,0,0,0
o,0x00000000,1716793894.376052,172.16.1.2,27300,172.16.3.2,5101,22711,23205,0,64256,65728,6,6,4,1460,1184,1,992,97,58156,32588,65700,0,20272,0,0,0
o,0x00000000,1716793894.376126,172.16.1.2,27300,172.16.3.2,5101,22711,23205,0,64256,65728,6,6,4,1460,1184,1,992,97,58156,32588,65700,0,21720,0,0,0
i,0x00000000,1716793894.376198,172.16.1.2,27300,172.16.3.2,5101,22711,23205,0,64256,65728,6,6,4,1460,1184,1,992,97,58156,32588,65700,0,23168,0,0,0
o,0x00000000,1716793894.376201,172.16.1.2,27300,172.16.3.2,5101,22711,24665,0,64256,65728,6,6,4,1460,1212,1,992,95,58156,29692,65700,0,20272,0,0,0
o,0x00000000,1716793894.376275,172.16.1.2,27300,172.16.3.2,5101,22711,24665,0,64256,65728,6,6,4,1460,1212,1,992,95,58156,29692,65700,0,21720,0,0,0
o,0x00000000,1716793894.376349,172.16.1.2,27300,172.16.3.2,5101,22711,24665,0,64256,65728,6,6,4,1460,1212,1,992,95,58156,29692,65700,0,23168,0,0,0
i,0x00000000,1716793894.405451,172.16.1.2,27300,172.16.3.2,5101,22711,24665,0,64256,65728,6,6,4,1460,1212,1,992,95,58156,58156,65700,0,24616,0,0,0
o,0x00000000,1716793894.405464,172.16.1.2,27300,172.16.3.2,5101,22711,24665,0,64256,65728,6,6,4,1460,1237,1,992,92,58156,55260,65700,0,21720,0,0,0
o,0x00000000,1716793894.405918,172.16.1.2,27300,172.16.3.2,5101,22711,24665,0,64256,65728,6,6,4,1460,1237,1,992,92,58156,55260,65700,0,23168,0,0,0
i,0x00000000,1716793894.833836,172.16.1.2,27300,172.16.3.2,5101,22711,24665,0,64256,65728,6,6,4,1460,1237,1,992,92,58156,58156,65700,0,24616,0,0,0
o,0x00000000,1716793894.833857,172.16.1.2,27300,172.16.3.2,5101,22711,24665,0,64256,65728,6,6,4,1460,1263,1,992,91,58156,55260,65700,0,21720,0,0,0
o,0x00000000,1716793894.833945,172.16.1.2,27300,172.16.3.2,5101,22711,24665,0,64256,65728,6,6,4,1460,1263,1,992,91,58156,55260,65700,0,23168,0,0,0
i,0x00000000,1716793894.834020,172.16.1.2,27300,172.16.3.2,5101,22711,24665,0,64256,65728,6,6,4,1460,1263,1,992,91,58156,55260,65700,0,24616,0,0,0
o,0x00000000,1716793894.834023,172.16.1.2,27300,172.16.3.2,5101,22711,24665,0,64256,65728,6,6,4,1460,1286,1,992,90,58156,52364,65700,0,21720,0,0,0
o,0x00000000,1716793894.834096,172.16.1.2,27300,172.16.3.2,5101,22711,24665,0,64256,65728,6,6,4,1460,1286,1,992,90,58156,52364,65700,0,23168,0,0,0
i,0x00000000,1716793894.834169,172.16.1.2,27300,172.16.3.2,5101,22711,24665,0,64256,65728,6,6,4,1460,1286,1,992,90,58156,52364,65700,0,24616,0,0,0
o,0x00000000,1716793894.834172,172.16.1.2,27300,172.16.3.2,5101,22711,24665,0,64256,65728,6,6,4,1460,1306,1,992,88,58156,49468,65700,0,21720,0,0,0
o,0x00000000,1716793894.834246,172.16.1.2,27300,172.16.3.2,5101,22711,24665,0,64256,65728,6,6,4,1460,1306,1,992,88,58156,49468,65700,0,23168,0,0,0
i,0x00000000,1716793894.834321,172.16.1.2,27300,172.16.3.2,5101,22711,24665,0,64256,65728,6,6,4,1460,1306,1,992,88,58156,49468,65700,0,24616,0,0,0
o,0x00000000,1716793894.834323,172.16.1.2,27300,172.16.3.2,5101,22711,24665,0,64256,65728,6,6,4,1460,1323,1,992,86,58156,46572,65700,0,21720,0,0,0
o,0x00000000,1716793894.834395,172.16.1.2,27300,172.16.3.2,5101,22711,24665,0,64256,65728,6,6,4,1460,1323,1,992,86,58156,46572,65700,0,23168,0,0,0
i,0x00000000,1716793894.834696,172.16.1.2,27300,172.16.3.2,5101,22711,24665,0,64256,65728,6,6,4,1460,1323,1,992,86,58156,46572,65700,0,24616,0,0,0
o,0x00000000,1716793894.834699,172.16.1.2,27300,172.16.3.2,5101,22711,24665,0,64256,65728,6,6,4,1460,1338,1,992,84,58156,43676,65700,0,21720,0,0,0
o,0x00000000,1716793894.834773,172.16.1.2,27300,172.16.3.2,5101,22711,24665,0,64256,65728,6,6,4,1460,1338,1,992,84,58156,43676,65700,0,23168,0,0,0
i,0x00000000,1716793894.834844,172.16.1.2,27300,172.16.3.2,5101,22711,24665,0,64256,65728,6,6,4,1460,1338,1,992,84,58156,43676,65700,0,24616,0,0,0
o,0x00000000,1716793894.834847,172.16.1.2,27300,172.16.3.2,5101,22711,24665,0,64256,65728,6,6,4,1460,1351,1,992,82,58156,40780,65700,0,21720,0,0,0
o,0x00000000,1716793894.834921,172.16.1.2,27300,172.16.3.2,5101,22711,24665,0,64256,65728,6,6,4,1460,1351,1,992,82,58156,40780,65700,0,23168,0,0,0
i,0x00000000,1716793894.834993,172.16.1.2,27300,172.16.3.2,5101,22711,24665,0,64256,65728,6,6,4,1460,1351,1,992,82,58156,40780,65700,0,24616,0,0,0
o,0x00000000,1716793894.834996,172.16.1.2,27300,172.16.3.2,5101,22711,26125,0,64256,65728,6,6,4,1460,1363,1,992,80,58156,37884,65700,0,21720,0,0,0
o,0x00000000,1716793894.835070,172.16.1.2,27300,172.16.3.2,5101,22711,26125,0,64256,65728,6,6,4,1460,1363,1,992,80,58156,37884,65700,0,23168,0,0,0
o,0x00000000,1716793894.835246,172.16.1.2,27300,172.16.3.2,5101,22711,26125,0,64256,65728,6,6,4,1460,1363,1,992,80,58156,37884,65700,0,24616,0,0,0
i,0x00000000,1716793894.835318,172.16.1.2,27300,172.16.3.2,5101,22711,26125,0,64256,65728,6,6,4,1460,1363,1,992,80,58156,37884,65700,0,26064,0,0,0
o,0x00000000,1716793894.835321,172.16.1.2,27300,172.16.3.2,5101,22711,26125,0,64256,65728,6,6,4,1460,1377,1,992,80,58156,34988,65700,0,23168,0,0,0
o,0x00000000,1716793894.835394,172.16.1.2,27300,172.16.3.2,5101,22711,26125,0,64256,65728,6,6,4,1460,1377,1,992,80,58156,34988,65700,0,24616,0,0,0
i,0x00000000,1716793895.264086,172.16.1.2,27300,172.16.3.2,5101,22711,26125,0,64256,65728,6,6,4,1460,1377,1,992,80,58156,58156,65700,0,26064,0,0,0
o,0x00000000,1716793895.264108,172.16.1.2,27300,172.16.3.2,5101,22711,26125,0,65728,65728,6,6,4,1460,1545,1,992,123,58156,56708,65700,0,24616,0,0,0
i,0x00000000,1716793895.294694,172.16.1.2,27300,172.16.3.2,5101,22711,26125,0,65728,65728,6,6,4,1460,1545,1,992,123,58156,56708,65700,0,26064,0,0,0
o,0x00000000,1716793895.294704,172.16.1.2,27300,172.16.3.2,5101,22711,26125,0,64256,65728,6,6,4,1460,1536,1,992,111,58156,53812,65700,0,23168,0,0,0
o,0x00000000,1716793895.294806,172.16.1.2,27300,172.16.3.2,5101,22711,26125,0,64256,65728,6,6,4,1460,1536,1,992,111,58156,53812,65700,0,24616,0,0,0
i,0x00000000,1716793895.294888,172.16.1.2,27300,172.16.3.2,5101,22711,26125,0,64256,65728,6,6,4,1460,1536,1,992,111,58156,53812,65700,0,26064,0,0,0
o,0x00000000,1716793895.294892,172.16.1.2,27300,172.16.3.2,5101,22711,26125,0,64256,65728,6,6,4,1460,1528,1,992,102,58156,50916,65700,0,23168,0,0,0
o,0x00000000,1716793895.294973,172.16.1.2,27300,172.16.3.2,5101,22711,26125,0,64256,65728,6,6,4,1460,1528,1,992,102,58156,50916,65700,0,24616,0,0,0
i,0x00000000,1716793895.304068,172.16.1.2,27300,172.16.3.2,5101,22711,26125,0,64256,65728,6,6,4,1460,1528,1,992,102,66348,66348,65700,0,26064,0,0,0
o,0x00000000,1716793895.304075,172.16.1.2,27300,172.16.3.2,5101,22711,26125,0,64256,65728,6,6,4,1460,1525,1,992,94,66348,63452,65700,0,23168,0,0,0
o,0x00000000,1716793895.304174,172.16.1.2,27300,172.16.3.2,5101,22711,26125,0,64256,65728,6,6,4,1460,1525,1,992,94,66348,63452,65700,0,24616,0,0,0
i,0x00000000,1716793895.304249,172.16.1.2,27300,172.16.3.2,5101,22711,26125,0,64256,65728,6,6,4,1460,1525,1,992,94,66348,63452,65700,0,26064,0,0,0
o,0x00000000,1716793895.304252,172.16.1.2,27300,172.16.3.2,5101,22711,26125,0,64256,65728,6,6,4,1460,1523,1,992,88,66348,60556,65700,0,23168,0,0,0
o,0x00000000,1716793895.304326,172.16.1.2,27300,172.16.3.2,5101,22711,26125,0,64256,65728,6,6,4,1460,1523,1,992,88,66348,60556,65700,0,24616,0,0,0
i,0x00000000,1716793895.304422,172.16.1.2,27300,172.16.3.2,5101,22711,26125,0,64256,65728,6,6,4,1460,1523,1,992,88,66348,60556,65700,0,26064,0,0,0
o,0x00000000,1716793895.304426,172.16.1.2,27300,172.16.3.2,5101,22711,26125,0,64256,65728,6,6,4,1460,1521,1,992,83,66348,57660,65700,0,23168,0,0,0
o,0x00000000,1716793895.304508,172.16.1.2,27300,172.16.3.2,5101,22711,26125,0,64256,65728,6,6,4,1460,1521,1,992,83,66348,57660,65700,0,24616,0,0,0
i,0x00000000,1716793895.304804,172.16.1.2,27300,172.16.3.2,5101,22711,26125,0,64256,65728,6,6,4,1460,1521,1,992,83,66348,57660,65700,0,26064,0,0,0
o,0x00000000,1716793895.304807,172.16.1.2,27300,172.16.3.2,5101,22711,26125,0,64256,65728,6,6,4,1460,1519,1,992,80,66348,54764,65700,0,23168,0,0,0
o,0x00000000,1716793895.304883,172.16.1.2,27300,172.16.3.2,5101,22711,26125,0,64256,65728,6,6,4,1460,1519,1,992,80,66348,54764,65700,0,24616,0,0,0
i,0x00000000,1716793895.304987,172.16.1.2,27300,172.16.3.2,5101,22711,26125,0,64256,65728,6,6,4,1460,1519,1,992,80,66348,54764,65700,0,26064,0,0,0
o,0x00000000,1716793895.304989,172.16.1.2,27300,172.16.3.2,5101,22711,26125,0,64256,65728,6,6,4,1460,1518,1,992,77,66348,51868,65700,0,23168,0,0,0
o,0x00000000,1716793895.305062,172.16.1.2,27300,172.16.3.2,5101,22711,26125,0,64256,65728,6,6,4,1460,1518,1,992,77,66348,51868,65700,0,24616,0,0,0
i,0x00000000,1716793895.305136,172.16.1.2,27300,172.16.3.2,5101,22711,26125,0,64256,65728,6,6,4,1460,1518,1,992,77,66348,51868,65700,0,26064,0,0,0
o,0x00000000,1716793895.305138,172.16.1.2,27300,172.16.3.2,5101,22711,27585,0,64256,65728,6,6,4,1460,1513,1,992,76,66348,48972,65700,0,23168,0,0,0
o,0x00000000,1716793895.305329,172.16.1.2,27300,172.16.3.2,5101,22711,27585,0,64256,65728,6,6,4,1460,1513,1,992,76,66348,48972,65700,0,24616,0,0,0
o,0x00000000,1716793895.305402,172.16.1.2,27300,172.16.3.2,5101,22711,27585,0,64256,65728,6,6,4,1460,1513,1,992,76,66348,48972,65700,0,26064,0,0,0
i,0x00000000,1716793895.585347,172.16.1.2,27300,172.16.3.2,5101,22711,27585,0,64256,65728,6,6,4,1460,1513,1,992,76,66348,66348,65700,0,27512,0,0,0
o,0x00000000,1716793895.585370,172.16.1.2,27300,172.16.3.2,5101,22711,27585,0,65728,65728,6,6,4,1460,1624,1,992,105,66348,64900,65700,0,26064,0,0,0
i,0x00000000,1716793895.754219,172.16.1.2,27300,172.16.3.2,5101,22711,27585,0,65728,65728,6,6,4,1460,1624,1,992,105,66348,64900,65700,0,27512,0,0,0
o,0x00000000,1716793895.754239,172.16.1.2,27300,172.16.3.2,5101,22711,27585,0,65728,65728,6,6,4,1460,1617,1,992,98,66348,63452,65700,0,26064,0,0,0
i,0x00000000,1716793895.774284,172.16.1.2,27300,172.16.3.2,5101,22711,27585,0,65728,65728,6,6,4,1460,1617,1,992,98,66348,66348,65700,0,27512,0,0,0
o,0x00000000,1716793895.774301,172.16.1.2,27300,172.16.3.2,5101,22711,27585,0,64256,65728,6,6,4,1460,1607,1,992,93,66348,63452,65700,0,24616,0,0,0
o,0x00000000,1716793895.774422,172.16.1.2,27300,172.16.3.2,5101,22711,27585,0,64256,65728,6,6,4,1460,1607,1,992,93,66348,63452,65700,0,26064,0,0,0
i,0x00000000,1716793895.774520,172.16.1.2,27300,172.16.3.2,5101,22711,27585,0,64256,65728,6,6,4,1460,1607,1,992,93,66348,63452,65700,0,27512,0,0,0
o,0x00000000,1716793895.774524,172.16.1.2,27300,172.16.3.2,5101,22711,27585,0,64256,65728,6,6,4,1460,1599,1,992,89,66348,60556,65700,0,24616,0,0,0
o,0x00000000,1716793895.774629,172.16.1.2,27300,172.16.3.2,5101,22711,27585,0,64256,65728,6,6,4,1460,1599,1,992,89,66348,60556,65700,0,26064,0,0,0
i,0x00000000,1716793895.784900,172.16.1.2,27300,172.16.3.2,5101,22711,27585,0,64256,65728,6,6,4,1460,1599,1,992,89,66348,66348,65700,0,27512,0,0,0
o,0x00000000,1716793895.784907,172.16.1.2,27300,172.16.3.2,5101,22711,27585,0,64256,65728,6,6,4,1460,1592,1,992,86,66348,63452,65700,0,24616,0,0,0
o,0x00000000,1716793895.784991,172.16.1.2,27300,172.16.3.2,5101,22711,27585,0,64256,65728,6,6,4,1460,1592,1,992,86,66348,63452,65700,0,26064,0,0,0
i,0x00000000,1716793895.785086,172.16.1.2,27300,172.16.3.2,5101,22711,27585,0,64256,65728,6,6,4,1460,1592,1,992,86,66348,63452,65700,0,27512,0,0,0
o,0x00000000,1716793895.785089,172.16.1.2,27300,172.16.3.2,5101,22711,27585,0,64256,65728,6,6,4,1460,1585,1,992,84,66348,60556,65700,0,24616,0,0,0
o,0x00000000,1716793895.785163,172.16.1.2,27300,172.16.3.2,5101,22711,27585,0,64256,65728,6,6,4,1460,1585,1,992,84,66348,60556,65700,0,26064,0,0,0
i,0x00000000,1716793895.785342,172.16.1.2,27300,172.16.3.2,5101,22711,27585,0,64256,65728,6,6,4,1460,1585,1,992,84,66348,60556,65700,0,27512,0,0,0
o,0x00000000,1716793895.785345,172.16.1.2,27300,172.16.3.2,5101,22711,27585,0,64256,65728,6,6,4,1460,1583,1,992,80,66348,57660,65700,0,24616,0,0,0
o,0x00000000,1716793895.785431,172.16.1.2,27300,172.16.3.2,5101,22711,27585,0,64256,65728,6,6,4,1460,1583,1,992,80,66348,57660,65700,0,26064,0,0,0
i,0x00000000,1716793895.785714,172.16.1.2,27300,172.16.3.2,5101,22711,27585,0,64256,65728,6,6,4,1460,1583,1,992,80,66348,57660,65700,0,27512,0,0,0
o,0x00000000,1716793895.785717,172.16.1.2,27300,172.16.3.2,5101,22711,27585,0,64256,65728,6,6,4,1460,1582,1,992,78,66348,54764,65700,0,24616,0,0,0
o,0x00000000,1716793895.785810,172.16.1.2,27300,172.16.3.2,5101,22711,27585,0,64256,65728,6,6,4,1460,1582,1,992,78,66348,54764,65700,0,26064,0,0,0
i,0x00000000,1716793895.785884,172.16.1.2,27300,172.16.3.2,5101,22711,27585,0,64256,65728,6,6,4,1460,1582,1,992,78,66348,54764,65700,0,27512,0,0,0
o,0x00000000,1716793895.785886,172.16.1.2,27300,172.16.3.2,5101,22711,27585,0,64256,65728,6,6,4,1460,1581,1,992,76,66348,51868,65700,0,24616,0,0,0
o,0x00000000,1716793895.785960,172.16.1.2,27300,172.16.3.2,5101,22711,27585,0,64256,65728,6,6,4,1460,1581,1,992,76,66348,51868,65700,0,26064,0,0,0
i,0x00000000,1716793895.786252,172.16.1.2,27300,172.16.3.2,5101,22711,27585,0,64256,65728,6,6,4,1460,1581,1,992,76,66348,51868,65700,0,27512,0,0,0
o,0x00000000,1716793895.786255,172.16.1.2,27300,172.16.3.2,5101,22711,29045,0,64256,65728,6,6,4,1460,1580,1,992,74,66348,48972,65700,0,24616,0,0,0
o,0x00000000,1716793895.786330,172.16.1.2,27300,172.16.3.2,5101,22711,29045,0,64256,65728,6,6,4,1460,1580,1,992,74,66348,48972,65700,0,26064,0,0,0
o,0x00000000,1716793895.786414,172.16.1.2,27300,172.16.3.2,5101,22711,29045,0,64256,65728,6,6,4,1460,1580,1,992,74,66348,48972,65700,0,27512,0,0,0
i,0x00000000,1716793896.064863,172.16.1.2,27300,172.16.3.2,5101,22711,29045,0,64256,65728,6,6,4,1460,1580,1,992,74,66348,66348,65700,0,28960,0,0,0
o,0x00000000,1716793896.064886,172.16.1.2,27300,172.16.3.2,5101,22711,29045,0,65728,65728,6,6,4,1460,1683,1,992,102,66348,64900,65700,0,27512,0,0,0
i,0x00000000,1716793896.214376,172.16.1.2,27300,172.16.3.2,5101,22711,29045,0,65728,65728,6,6,4,1460,1683,1,992,102,66348,64900,65700,0,28960,0,0,0
o,0x00000000,1716793896.214405,172.16.1.2,27300,172.16.3.2,5101,22711,29045,0,65728,65728,6,6,4,1460,1721,1,992,105,66348,63452,65700,0,27512,0,0,0
i,0x00000000,1716793896.234493,172.16.1.2,27300,172.16.3.2,5101,22711,29045,0,65728,65728,6,6,4,1460,1721,1,992,105,66348,66348,65700,0,28960,0,0,0
o,0x00000000,1716793896.234515,172.16.1.2,27300,172.16.3.2,5101,22711,29045,0,64256,65728,6,6,4,1460,1698,1,992,102,66348,63452,65700,0,26064,0,0,0
o,0x00000000,1716793896.234608,172.16.1.2,27300,172.16.3.2,5101,22711,29045,0,64256,65728,6,6,4,1460,1698,1,992,102,66348,63452,65700,0,27512,0,0,0
i,0x00000000,1716793896.234709,172.16.1.2,27300,172.16.3.2,5101,22711,29045,0,64256,65728,6,6,4,1460,1698,1,992,102,66348,63452,65700,0,28960,0,0,0
o,0x00000000,1716793896.234713,172.16.1.2,27300,172.16.3.2,5101,22711,29045,0,64256,65728,6,6,4,1460,1666,1,992,102,66348,60556,65700,0,26064,0,0,0
o,0x00000000,1716793896.234813,172.16.1.2,27300,172.16.3.2,5101,22711,29045,0,64256,65728,6,6,4,1460,1666,1,992,102,66348,60556,65700,0,27512,0,0,0
i,0x00000000,1716793896.273711,172.16.1.2,27300,172.16.3.2,5101,22711,29045,0,64256,65728,6,6,4,1460,1666,1,992,102,66348,66348,65700,0,28960,0,0,0
o,0x00000000,1716793896.273977,172.16.1.2,27300,172.16.3.2,5101,22711,29045,0,64256,65728,6,6,4,1460,1658,1,992,96,66348,63452,65700,0,26064,0,0,0
o,0x00000000,1716793896.274072,172.16.1.2,27300,172.16.3.2,5101,22711,29045,0,64256,65728,6,6,4,1460,1658,1,992,96,66348,63452,65700,0,27512,0,0,0
i,0x00000000,1716793896.274412,172.16.1.2,27300,172.16.3.2,5101,22711,29045,0,64256,65728,6,6,4,1460,1658,1,992,96,66348,63452,65700,0,28960,0,0,0
o,0x00000000,1716793896.274416,172.16.1.2,27300,172.16.3.2,5101,22711,29045,0,64256,65728,6,6,4,1460,1647,1,992,92,66348,60556,65700,0,26064,0,0,0
o,0x00000000,1716793896.274491,172.16.1.2,27300,172.16.3.2,5101,22711,29045,0,64256,65728,6,6,4,1460,1647,1,992,92,66348,60556,65700,0,27512,0,0,0
i,0x00000000,1716793896.274565,172.16.1.2,27300,172.16.3.2,5101,22711,29045,0,64256,65728,6,6,4,1460,1647,1,992,92,66348,60556,65700,0,28960,0,0,0
o,0x00000000,1716793896.274567,172.16.1.2,27300,172.16.3.2,5101,22711,29045,0,64256,65728,6,6,4,1460,1638,1,992,89,66348,57660,65700,0,26064,0,0,0
o,0x00000000,1716793896.274642,172.16.1.2,27300,172.16.3.2,5101,22711,29045,0,64256,65728,6,6,4,1460,1638,1,992,89,66348,57660,65700,0,27512,0,0,0
i,0x00000000,1716793896.274716,172.16.1.2,27300,172.16.3.2,5101,22711,29045,0,64256,65728,6,6,4,1460,1638,1,992,89,66348,57660,65700,0,28960,0,0,0
o,0x00000000,1716793896.274719,172.16.1.2,27300,172.16.3.2,5101,22711,29045,0,64256,65728,6,6,4,1460,1626,1,992,87,66348,54764,65700,0,26064,0,0,0
o,0x00000000,1716793896.274794,172.16.1.2,27300,172.16.3.2,5101,22711,29045,0,64256,65728,6,6,4,1460,1626,1,992,87,66348,54764,65700,0,27512,0,0,0
i,0x00000000,1716793896.275076,172.16.1.2,27300,172.16.3.2,5101,22711,29045,0,64256,65728,6,6,4,1460,1626,1,992,87,66348,54764,65700,0,28960,0,0,0
o,0x00000000,1716793896.275079,172.16.1.2,27300,172.16.3.2,5101,22711,29045,0,64256,65728,6,6,4,1460,1615,1,992,85,66348,51868,65700,0,26064,0,0,0
o,0x00000000,1716793896.275153,172.16.1.2,27300,172.16.3.2,5101,22711,29045,0,64256,65728,6,6,4,1460,1615,1,992,85,66348,51868,65700,0,27512,0,0,0
i,0x00000000,1716793896.275328,172.16.1.2,27300,172.16.3.2,5101,22711,29045,0,64256,65728,6,6,4,1460,1615,1,992,85,66348,51868,65700,0,28960,0,0,0
o,0x00000000,1716793896.275330,172.16.1.2,27300,172.16.3.2,5101,22711,29045,0,64256,65728,6,6,4,1460,1610,1,992,83,66348,48972,65700,0,26064,0,0,0
o,0x00000000,1716793896.275404,172.16.1.2,27300,172.16.3.2,5101,22711,29045,0,64256,65728,6,6,4,1460,1610,1,992,83,66348,48972,65700,0,27512,0,0,0
i,0x00000000,1716793896.275484,172.16.1.2,27300,172.16.3.2,5101,22711,29045,0,64256,65728,6,6,4,1460,1610,1,992,83,66348,48972,65700,0,28960,0,0,0
o,0x00000000,1716793896.275486,172.16.1.2,27300,172.16.3.2,5101,22711,30505,0,64256,65728,6,6,4,1460,1605,1,992,81,66348,46076,65700,0,26064,0,0,0
o,0x00000000,1716793896.275560,172.16.1.2,27300,172.16.3.2,5101,22711,30505,0,64256,65728,6,6,4,1460,1605,1,992,81,66348,46076,65700,0,27512,0,0,0
o,0x00000000,1716793896.275634,172.16.1.2,27300,172.16.3.2,5101,22711,30505,0,64256,65728,6,6,4,1460,1605,1,992,81,66348,46076,65700,0,28960,0,0,0
i,0x00000000,1716793896.744551,172.16.1.2,27300,172.16.3.2,5101,22711,30505,0,64256,65728,6,6,4,1460,1605,1,992,81,66348,66348,65700,0,30408,0,0,0
o,0x00000000,1716793896.744576,172.16.1.2,27300,172.16.3.2,5101,22711,30505,0,65728,65728,6,6,4,1460,1677,1,992,98,66348,64900,65700,0,28960,0,0,0
i,0x00000000,1716793896.744864,172.16.1.2,27300,172.16.3.2,5101,22711,30505,0,65728,65728,6,6,4,1460,1677,1,992,98,66348,64900,65700,0,30408,0,0,0
o,0x00000000,1716793896.744871,172.16.1.2,27300,172.16.3.2,5101,22711,30505,0,65728,65728,6,6,4,1460,1680,1,992,93,66348,63452,65700,0,28960,0,0,0
i,0x00000000,1716793896.764122,172.16.1.2,27300,172.16.3.2,5101,22711,30505,0,65728,65728,6,6,4,1460,1680,1,992,93,66348,66348,65700,0,30408,0,0,0
o,0x00000000,1716793896.764129,172.16.1.2,27300,172.16.3.2,5101,22711,30505,0,64256,65728,6,6,4,1460,1682,1,992,88,66348,63452,65700,0,27512,0,0,0
o,0x00000000,1716793896.764213,172.16.1.2,27300,172.16.3.2,5101,22711,30505,0,64256,65728,6,6,4,1460,1682,1,992,88,66348,63452,65700,0,28960,0,0,0
i,0x00000000,1716793896.764287,172.16.1.2,27300,172.16.3.2,5101,22711,30505,0,64256,65728,6,6,4,1460,1682,1,992,88,66348,63452,65700,0,30408,0,0,0
o,0x00000000,1716793896.764290,172.16.1.2,27300,172.16.3.2,5101,22711,30505,0,64256,65728,6,6,4,1460,1684,1,992,85,66348,60556,65700,0,27512,0,0,0
o,0x00000000,1716793896.764363,172.16.1.2,27300,172.16.3.2,5101,22711,30505,0,64256,65728,6,6,4,1460,1684,1,992,85,66348,60556,65700,0,28960,0,0,0
i,0x00000000,1716793896.764437,172.16.1.2,27300,172.16.3.2,5101,22711,30505,0,64256,65728,6,6,4,1460,1684,1,992,85,74540,60556,65700,0,30408,0,0,0
o,0x00000000,1716793896.764441,172.16.1.2,27300,172.16.3.2,5101,22711,30505,0,64256,65728,6,6,4,1460,1670,1,992,85,74540,57660,65700,0,27512,0,0,0
o,0x00000000,1716793896.764514,172.16.1.2,27300,172.16.3.2,5101,22711,30505,0,64256,65728,6,6,4,1460,1670,1,992,85,74540,57660,65700,0,28960,0,0,0
i,0x00000000,1716793896.764586,172.16.1.2,27300,172.16.3.2,5101,22711,30505,0,64256,65728,6,6,4,1460,1670,1,992,85,74540,57660,65700,0,30408,0,0,0
o,0x00000000,1716793896.764589,172.16.1.2,27300,172.16.3.2,5101,22711,30505,0,64256,65728,6,6,4,1460,1658,1,992,84,74540,54764,65700,0,27512,0,0,0
o,0x00000000,1716793896.764662,172.16.1.2,27300,172.16.3.2,5101,22711,30505,0,64256,65728,6,6,4,1460,1658,1,992,84,74540,54764,65700,0,28960,0,0,0
i,0x00000000,1716793896.764953,172.16.1.2,27300,172.16.3.2,5101,22711,30505,0,64256,65728,6,6,4,1460,1658,1,992,84,74540,54764,65700,0,30408,0,0,0
o,0x00000000,1716793896.764956,172.16.1.2,27300,172.16.3.2,5101,22711,30505,0,64256,65728,6,6,4,1460,1647,1,992,83,74540,51868,65700,0,27512,0,0,0
o,0x00000000,1716793896.765032,172.16.1.2,27300,172.16.3.2,5101,22711,30505,0,64256,65728,6,6,4,1460,1647,1,992,83,74540,51868,65700,0,28960,0,0,0
i,0x00000000,1716793896.765410,172.16.1.2,27300,172.16.3.2,5101,22711,30505,0,64256,65728,6,6,4,1460,1647,1,992,83,74540,51868,65700,0,30408,0,0,0
o,0x00000000,1716793896.765413,172.16.1.2,27300,172.16.3.2,5101,22711,30505,0,64256,65728,6,6,4,1460,1638,1,992,82,74540,48972,65700,0,27512,0,0,0
o,0x00000000,1716793896.765521,172.16.1.2,27300,172.16.3.2,5101,22711,30505,0,64256,65728,6,6,4,1460,1638,1,992,82,74540,48972,65700,0,28960,0,0,0
i,0x00000000,1716793896.765594,172.16.1.2,27300,172.16.3.2,5101,22711,30505,0,64256,65728,6,6,4,1460,1638,1,992,82,74540,48972,65700,0,30408,0,0,0
o,0x00000000,1716793896.765598,172.16.1.2,27300,172.16.3.2,5101,22711,30505,0,64256,65728,6,6,4,1460,1630,1,992,81,74540,46076,65700,0,27512,0,0,0
o,0x00000000,1716793896.765671,172.16.1.2,27300,172.16.3.2,5101,22711,30505,0,64256,65728,6,6,4,1460,1630,1,992,81,74540,46076,65700,0,28960,0,0,0
i,0x00000000,1716793896.765744,172.16.1.2,27300,172.16.3.2,5101,22711,30505,0,64256,65728,6,6,4,1460,1630,1,992,81,74540,46076,65700,0,30408,0,0,0
o,0x00000000,1716793896.765747,172.16.1.2,27300,172.16.3.2,5101,22711,30505,0,64256,65728,6,6,4,1460,1623,1,992,80,74540,43180,65700,0,27512,0,0,0
o,0x00000000,1716793896.765820,172.16.1.2,27300,172.16.3.2,5101,22711,30505,0,64256,65728,6,6,4,1460,1623,1,992,80,74540,43180,65700,0,28960,0,0,0
i,0x00000000,1716793896.783910,172.16.1.2,27300,172.16.3.2,5101,22711,30505,0,64256,65728,6,6,4,1460,1623,1,992,80,74540,74540,65700,0,30408,0,0,0
o,0x00000000,1716793896.783919,172.16.1.2,27300,172.16.3.2,5101,22711,30505,0,64256,65728,6,6,4,1460,1621,1,992,78,74540,71644,65700,0,27512,0,0,0
o,0x00000000,1716793896.784162,172.16.1.2,27300,172.16.3.2,5101,22711,30505,0,64256,65728,6,6,4,1460,1621,1,992,78,74540,71644,65700,0,28960,0,0,0
i,0x00000000,1716793897.224099,172.16.1.2,27300,172.16.3.2,5101,22711,30505,0,64256,65728,6,6,4,1460,1621,1,992,78,74540,74540,65700,0,30408,0,0,0
o,0x00000000,1716793897.224123,172.16.1.2,27300,172.16.3.2,5101,22711,31965,0,65728,65728,6,6,4,1460,1795,1,992,125,74540,73092,65700,0,28960,0,0,0
o,0x00000000,1716793897.224424,172.16.1.2,27300,172.16.3.2,5101,22711,31965,0,65728,65728,6,6,4,1460,1795,1,992,125,74540,73092,65700,0,30408,0,0,0
i,0x00000000,1716793897.243842,172.16.1.2,27300,172.16.3.2,5101,22711,31965,0,65728,65728,6,6,4,1460,1795,1,992,125,74540,73092,65700,0,31856,0,0,0
o,0x00000000,1716793897.243867,172.16.1.2,27300,172.16.3.2,5101,22711,31965,0,64256,65728,6,6,4,1460,1767,1,992,119,74540,70196,65700,0,28960,0,0,0
o,0x00000000,1716793897.244129,172.16.1.2,27300,172.16.3.2,5101,22711,31965,0,64256,65728,6,6,4,1460,1767,1,992,119,74540,70196,65700,0,30408,0,0,0
i,0x00000000,1716793897.274630,172.16.1.2,27300,172.16.3.2,5101,22711,31965,0,64256,65728,6,6,4,1460,1767,1,992,119,74540,74540,65700,0,31856,0,0,0
o,0x00000000,1716793897.274644,172.16.1.2,27300,172.16.3.2,5101,22711,31965,0,64256,65728,6,6,4,1460,1751,1,992,111,74540,71644,65700,0,28960,0,0,0
o,0x00000000,1716793897.274735,172.16.1.2,27300,172.16.3.2,5101,22711,31965,0,64256,65728,6,6,4,1460,1751,1,992,111,74540,71644,65700,0,30408,0,0,0
i,0x00000000,1716793897.274810,172.16.1.2,27300,172.16.3.2,5101,22711,31965,0,64256,65728,6,6,4,1460,1751,1,992,111,74540,71644,65700,0,31856,0,0,0
o,0x00000000,1716793897.274813,172.16.1.2,27300,172.16.3.2,5101,22711,31965,0,64256,65728,6,6,4,1460,1737,1,992,105,74540,68748,65700,0,28960,0,0,0
o,0x00000000,1716793897.274897,172.16.1.2,27300,172.16.3.2,5101,22711,31965,0,64256,65728,6,6,4,1460,1737,1,992,105,74540,68748,65700,0,30408,0,0,0
i,0x00000000,1716793897.274969,172.16.1.2,27300,172.16.3.2,5101,22711,31965,0,64256,65728,6,6,4,1460,1737,1,992,105,74540,68748,65700,0,31856,0,0,0
o,0x00000000,1716793897.274971,172.16.1.2,27300,172.16.3.2,5101,22711,31965,0,64256,65728,6,6,4,1460,1724,1,992,100,74540,65852,65700,0,28960,0,0,0
o,0x00000000,1716793897.275044,172.16.1.2,27300,172.16.3.2,5101,22711,31965,0,64256,65728,6,6,4,1460,1724,1,992,100,74540,65852,65700,0,30408,0,0,0
i,0x00000000,1716793897.275437,172.16.1.2,27300,172.16.3.2,5101,22711,31965,0,64256,65728,6,6,4,1460,1724,1,992,100,74540,65852,65700,0,31856,0,0,0
o,0x00000000,1716793897.275440,172.16.1.2,27300,172.16.3.2,5101,22711,31965,0,64256,65728,6,6,4,1460,1713,1,992,96,74540,62956,65700,0,28960,0,0,0
o,0x00000000,1716793897.275524,172.16.1.2,27300,172.16.3.2,5101,22711,31965,0,64256,65728,6,6,4,1460,1713,1,992,96,74540,62956,65700,0,30408,0,0,0
i,0x00000000,1716793897.275660,172.16.1.2,27300,172.16.3.2,5101,22711,31965,0,64256,65728,6,6,4,1460,1713,1,992,96,74540,62956,65700,0,31856,0,0,0
o,0x00000000,1716793897.275663,172.16.1.2,27300,172.16.3.2,5101,22711,31965,0,64256,65728,6,6,4,1460,1703,1,992,92,74540,60060,65700,0,28960,0,0,0
o,0x00000000,1716793897.275934,172.16.1.2,27300,172.16.3.2,5101,22711,31965,0,64256,65728,6,6,4,1460,1703,1,992,92,74540,60060,65700,0,30408,0,0,0
i,0x00000000,1716793897.276238,172.16.1.2,27300,172.16.3.2,5101,22711,31965,0,64256,65728,6,6,4,1460,1703,1,992,92,74540,60060,65700,0,31856,0,0,0
o,0x00000000,1716793897.276241,172.16.1.2,27300,172.16.3.2,5101,22711,31965,0,64256,65728,6,6,4,1460,1695,1,992,89,74540,57164,65700,0,28960,0,0,0
o,0x00000000,1716793897.276315,172.16.1.2,27300,172.16.3.2,5101,22711,31965,0,64256,65728,6,6,4,1460,1695,1,992,89,74540,57164,65700,0,30408,0,0,0
i,0x00000000,1716793897.276388,172.16.1.2,27300,172.16.3.2,5101,22711,31965,0,64256,65728,6,6,4,1460,1695,1,992,89,74540,57164,65700,0,31856,0,0,0
o,0x00000000,1716793897.276391,172.16.1.2,27300,172.16.3.2,5101,22711,31965,0,64256,65728,6,6,4,1460,1688,1,992,87,74540,54268,65700,0,28960,0,0,0
o,0x00000000,1716793897.276465,172.16.1.2,27300,172.16.3.2,5101,22711,31965,0,64256,65728,6,6,4,1460,1688,1,992,87,74540,54268,65700,0,30408,0,0,0
i,0x00000000,1716793897.276537,172.16.1.2,27300,172.16.3.2,5101,22711,31965,0,64256,65728,6,6,4,1460,1688,1,992,87,74540,54268,65700,0,31856,0,0,0
o,0x00000000,1716793897.276540,172.16.1.2,27300,172.16.3.2,5101,22711,31965,0,64256,65728,6,6,4,1460,1681,1,992,85,74540,51372,65700,0,28960,0,0,0
o,0x00000000,1716793897.276614,172.16.1.2,27300,172.16.3.2,5101,22711,31965,0,64256,65728,6,6,4,1460,1681,1,992,85,74540,51372,65700,0,30408,0,0,0
i,0x00000000,1716793897.324051,172.16.1.2,27300,172.16.3.2,5101,22711,31965,0,64256,65728,6,6,4,1460,1681,1,992,85,74540,74540,65700,0,31856,0,0,0
o,0x00000000,1716793897.324069,172.16.1.2,27300,172.16.3.2,5101,22711,31965,0,64256,65728,6,6,4,1460,1687,1,992,83,74540,71644,65700,0,28960,0,0,0
o,0x00000000,1716793897.324315,172.16.1.2,27300,172.16.3.2,5101,22711,31965,0,64256,65728,6,6,4,1460,1687,1,992,83,74540,71644,65700,0,30408,0,0,0
i,0x00000000,1716793897.754204,172.16.1.2,27300,172.16.3.2,5101,22711,31965,0,64256,65728,6,6,4,1460,1687,1,992,83,74540,74540,65700,0,31856,0,0,0
o,0x00000000,1716793897.754226,172.16.1.2,27300,172.16.3.2,5101,22711,33425,0,64256,65728,6,6,4,1460,1685,1,992,81,74540,71644,65700,0,28960,0,0,0
o,0x00000000,1716793897.754540,172.16.1.2,27300,172.16.3.2,5101,22711,33425,0,64256,65728,6,6,4,1460,1685,1,992,81,74540,71644,65700,0,30408,0,0,0
o,0x00000000,1716793897.754844,172.16.1.2,27300,172.16.3.2,5101,22711,33425,0,64256,65728,6,6,4,1460,1685,1,992,81,74540,71644,65700,0,31856,0,0,0
i,0x00000000,1716793897.784269,172.16.1.2,27300,172.16.3.2,5101,22711,33425,0,64256,65728,6,6,4,1460,1685,1,992,81,74540,74540,65700,0,33304,0,0,0
o,0x00000000,1716793897.784278,172.16.1.2,27300,172.16.3.2,5101,22711,33425,0,64256,65728,6,6,4,1460,1691,1,992,81,74540,71644,65700,0,30408,0,0,0
o,0x00000000,1716793897.784582,172.16.1.2,27300,172.16.3.2,5101,22711,33425,0,64256,65728,6,6,4,1460,1691,1,992,81,74540,71644,65700,0,31856,0,0,0
i,0x00000000,1716793897.824147,172.16.1.2,27300,172.16.3.2,5101,22711,33425,0,64256,65728,6,6,4,1460,1691,1,992,81,74540,74540,65700,0,33304,0,0,0
o,0x00000000,1716793897.824167,172.16.1.2,27300,172.16.3.2,5101,22711,33425,0,64256,65728,6,6,4,1460,1696,1,992,80,74540,71644,65700,0,30408,0,0,0
o,0x00000000,1716793897.824258,172.16.1.2,27300,172.16.3.2,5101,22711,33425,0,64256,65728,6,6,4,1460,1696,1,992,80,74540,71644,65700,0,31856,0,0,0
i,0x00000000,1716793897.824337,172.16.1.2,27300,172.16.3.2,5101,22711,33425,0,64256,65728,6,6,4,1460,1696,1,992,80,74540,71644,65700,0,33304,0,0,0
o,0x00000000,1716793897.824340,172.16.1.2,27300,172.16.3.2,5101,22711,33425,0,64256,65728,6,6,4,1460,1700,1,992,79,74540,68748,65700,0,30408,0,0,0
o,0x00000000,1716793897.824418,172.16.1.2,27300,172.16.3.2,5101,22711,33425,0,64256,65728,6,6,4,1460,1700,1,992,79,74540,68748,65700,0,31856,0,0,0
i,0x00000000,1716793897.824491,172.16.1.2,27300,172.16.3.2,5101,22711,33425,0,64256,65728,6,6,4,1460,1700,1,992,79,74540,68748,65700,0,33304,0,0,0
o,0x00000000,1716793897.824493,172.16.1.2,27300,172.16.3.2,5101,22711,33425,0,64256,65728,6,6,4,1460,1704,1,992,79,74540,65852,65700,0,30408,0,0,0
o,0x00000000,1716793897.824567,172.16.1.2,27300,172.16.3.2,5101,22711,33425,0,64256,65728,6,6,4,1460,1704,1,992,79,74540,65852,65700,0,31856,0,0,0
i,0x00000000,1716793897.824641,172.16.1.2,27300,172.16.3.2,5101,22711,33425,0,64256,65728,6,6,4,1460,1704,1,992,79,82732,65852,65700,0,33304,0,0,0
o,0x00000000,1716793897.824644,172.16.1.2,27300,172.16.3.2,5101,22711,33425,0,64256,65728,6,6,4,1460,1707,1,992,78,82732,62956,65700,0,30408,0,0,0
o,0x00000000,1716793897.824719,172.16.1.2,27300,172.16.3.2,5101,22711,33425,0,64256,65728,6,6,4,1460,1707,1,992,78,82732,62956,65700,0,31856,0,0,0
i,0x00000000,1716793897.825235,172.16.1.2,27300,172.16.3.2,5101,22711,33425,0,64256,65728,6,6,4,1460,1707,1,992,78,82732,62956,65700,0,33304,0,0,0
o,0x00000000,1716793897.825239,172.16.1.2,27300,172.16.3.2,5101,22711,33425,0,64256,65728,6,6,4,1460,1714,1,992,79,82732,60060,65700,0,30408,0,0,0
o,0x00000000,1716793897.825339,172.16.1.2,27300,172.16.3.2,5101,22711,33425,0,64256,65728,6,6,4,1460,1714,1,992,79,82732,60060,65700,0,31856,0,0,0
i,0x00000000,1716793897.825435,172.16.1.2,27300,172.16.3.2,5101,22711,33425,0,64256,65728,6,6,4,1460,1714,1,992,79,82732,60060,65700,0,33304,0,0,0
o,0x00000000,1716793897.825439,172.16.1.2,27300,172.16.3.2,5101,22711,33425,0,64256,65728,6,6,4,1460,1720,1,992,79,82732,57164,65700,0,30408,0,0,0
o,0x00000000,1716793897.825535,172.16.1.2,27300,172.16.3.2,5101,22711,33425,0,64256,65728,6,6,4,1460,1720,1,992,79,82732,57164,65700,0,31856,0,0,0
i,0x00000000,1716793897.825662,172.16.1.2,27300,172.16.3.2,5101,22711,33425,0,64256,65728,6,6,4,1460,1720,1,992,79,82732,57164,65700,0,33304,0,0,0
o,0x00000000,1716793897.825665,172.16.1.2,27300,172.16.3.2,5101,22711,33425,0,64256,65728,6,6,4,1460,1725,1,992,79,82732,54268,65700,0,30408,0,0,0
o,0x00000000,1716793897.825760,172.16.1.2,27300,172.16.3.2,5101,22711,33425,0,64256,65728,6,6,4,1460,1725,1,992,79,82732,54268,65700,0,31856,0,0,0
i,0x00000000,1716793897.825854,172.16.1.2,27300,172.16.3.2,5101,22711,33425,0,64256,65728,6,6,4,1460,1725,1,992,79,82732,54268,65700,0,33304,0,0,0
o,0x00000000,1716793897.825857,172.16.1.2,27300,172.16.3.2,5101,22711,33425,0,64256,65728,6,6,4,1460,1730,1,992,79,82732,51372,65700,0,30408,0,0,0
o,0x00000000,1716793897.825970,172.16.1.2,27300,172.16.3.2,5101,22711,33425,0,64256,65728,6,6,4,1460,1730,1,992,79,82732,51372,65700,0,31856,0,0,0
i,0x00000000,1716793897.884601,172.16.1.2,27300,172.16.3.2,5101,22711,33425,0,64256,65728,6,6,4,1460,1730,1,992,79,82732,82732,65700,0,33304,0,0,0
o,0x00000000,1716793897.884616,172.16.1.2,27300,172.16.3.2,5101,22711,33425,0,64256,65728,6,6,4,1460,1738,1,992,80,82732,79836,65700,0,30408,0,0,0
o,0x00000000,1716793897.884892,172.16.1.2,27300,172.16.3.2,5101,22711,33425,0,64256,65728,6,6,4,1460,1738,1,992,80,82732,79836,65700,0,31856,0,0,0
i,0x00000000,1716793898.314488,172.16.1.2,27300,172.16.3.2,5101,22711,33425,0,64256,65728,6,6,4,1460,1738,1,992,80,82732,82732,65700,0,33304,0,0,0
o,0x00000000,1716793898.314522,172.16.1.2,27300,172.16.3.2,5101,22711,33425,0,64256,65728,6,6,4,1460,1745,1,992,81,82732,79836,65700,0,30408,0,0,0
o,0x00000000,1716793898.314803,172.16.1.2,27300,172.16.3.2,5101,22711,33425,0,64256,65728,6,6,4,1460,1745,1,992,81,82732,79836,65700,0,31856,0,0,0
i,0x00000000,1716793898.344504,172.16.1.2,27300,172.16.3.2,5101,22711,33425,0,64256,65728,6,6,4,1460,1745,1,992,81,82732,82732,65700,0,33304,0,0,0
o,0x00000000,1716793898.344515,172.16.1.2,27300,172.16.3.2,5101,22711,34885,0,65728,65728,6,6,4,1460,1763,1,992,84,82732,81284,65700,0,31856,0,0,0
o,0x00000000,1716793898.344780,172.16.1.2,27300,172.16.3.2,5101,22711,34885,0,65728,65728,6,6,4,1460,1763,1,992,84,82732,81284,65700,0,33304,0,0,0
i,0x00000000,1716793898.373826,172.16.1.2,27300,172.16.3.2,5101,22711,34885,0,65728,65728,6,6,4,1460,1763,1,992,84,82732,81284,65700,0,34752,0,0,0
o,0x00000000,1716793898.373839,172.16.1.2,27300,172.16.3.2,5101,22711,34885,0,64256,65728,6,6,4,1460,1779,1,992,87,82732,78388,65700,0,31856,0,0,0
o,0x00000000,1716793898.373941,172.16.1.2,27300,172.16.3.2,5101,22711,34885,0,64256,65728,6,6,4,1460,1779,1,992,87,82732,78388,65700,0,33304,0,0,0
i,0x00000000,1716793898.374020,172.16.1.2,27300,172.16.3.2,5101,22711,34885,0,64256,65728,6,6,4,1460,1779,1,992,87,82732,78388,65700,0,34752,0,0,0
o,0x00000000,1716793898.374024,172.16.1.2,27300,172.16.3.2,5101,22711,34885,0,64256,65728,6,6,4,1460,1777,1,992,84,82732,75492,65700,0,31856,0,0,0
o,0x00000000,1716793898.374118,172.16.1.2,27300,172.16.3.2,5101,22711,34885,0,64256,65728,6,6,4,1460,1777,1,992,84,82732,75492,65700,0,33304,0,0,0
i,0x00000000,1716793898.374408,172.16.1.2,27300,172.16.3.2,5101,22711,34885,0,64256,65728,6,6,4,1460,1777,1,992,84,82732,75492,65700,0,34752,0,0,0
o,0x00000000,1716793898.374428,172.16.1.2,27300,172.16.3.2,5101,22711,34885,0,64256,65728,6,6,4,1460,1775,1,992,82,82732,72596,65700,0,31856,0,0,0
o,0x00000000,1716793898.374526,172.16.1.2,27300,172.16.3.2,5101,22711,34885,0,64256,65728,6,6,4,1460,1775,1,992,82,82732,72596,65700,0,33304,0,0,0
i,0x00000000,1716793898.374865,172.16.1.2,27300,172.16.3.2,5101,22711,34885,0,64256,65728,6,6,4,1460,1775,1,992,82,82732,72596,65700,0,34752,0,0,0
o,0x00000000,1716793898.374868,172.16.1.2,27300,172.16.3.2,5101,22711,34885,0,64256,65728,6,6,4,1460,1774,1,992,81,82732,69700,65700,0,31856,0,0,0
o,0x00000000,1716793898.374942,172.16.1.2,27300,172.16.3.2,5101,22711,34885,0,64256,65728,6,6,4,1460,1774,1,992,81,82732,69700,65700,0,33304,0,0,0
i,0x00000000,1716793898.375015,172.16.1.2,27300,172.16.3.2,5101,22711,34885,0,64256,65728,6,6,4,1460,1774,1,992,81,82732,69700,65700,0,34752,0,0,0
o,0x00000000,1716793898.375018,172.16.1.2,27300,172.16.3.2,5101,22711,34885,0,64256,65728,6,6,4,1460,1773,1,992,80,82732,66804,65700,0,31856,0,0,0
o,0x00000000,1716793898.375091,172.16.1.2,27300,172.16.3.2,5101,22711,34885,0,64256,65728,6,6,4,1460,1773,1,992,80,82732,66804,65700,0,33304,0,0,0
i,0x00000000,1716793898.375273,172.16.1.2,27300,172.16.3.2,5101,22711,34885,0,64256,65728,6,6,4,1460,1773,1,992,80,82732,66804,65700,0,34752,0,0,0
o,0x00000000,1716793898.375276,172.16.1.2,27300,172.16.3.2,5101,22711,34885,0,64256,65728,6,6,4,1460,1772,1,992,79,82732,63908,65700,0,31856,0,0,0
o,0x00000000,1716793898.375349,172.16.1.2,27300,172.16.3.2,5101,22711,34885,0,64256,65728,6,6,4,1460,1772,1,992,79,82732,63908,65700,0,33304,0,0,0
i,0x00000000,1716793898.375422,172.16.1.2,27300,172.16.3.2,5101,22711,34885,0,64256,65728,6,6,4,1460,1772,1,992,79,82732,63908,65700,0,34752,0,0,0
o,0x00000000,1716793898.375425,172.16.1.2,27300,172.16.3.2,5101,22711,34885,0,64256,65728,6,6,4,1460,1771,1,992,78,82732,61012,65700,0,31856,0,0,0
o,0x00000000,1716793898.375498,172.16.1.2,27300,172.16.3.2,5101,22711,34885,0,64256,65728,6,6,4,1460,1771,1,992,78,82732,61012,65700,0,33304,0,0,0
i,0x00000000,1716793898.375571,172.16.1.2,27300,172.16.3.2,5101,22711,34885,0,64256,65728,6,6,4,1460,1771,1,992,78,82732,61012,65700,0,34752,0,0,0
o,0x00000000,1716793898.375574,172.16.1.2,27300,172.16.3.2,5101,22711,34885,0,64256,65728,6,6,4,1460,1770,1,992,78,82732,58116,65700,0,31856,0,0,0
o,0x00000000,1716793898.375647,172.16.1.2,27300,172.16.3.2,5101,22711,34885,0,64256,65728,6,6,4,1460,1770,1,992,78,82732,58116,65700,0,33304,0,0,0
i,0x00000000,1716793898.375720,172.16.1.2,27300,172.16.3.2,5101,22711,34885,0,64256,65728,6,6,4,1460,1770,1,992,78,82732,58116,65700,0,34752,0,0,0
o,0x00000000,1716793898.375722,172.16.1.2,27300,172.16.3.2,5101,22711,34885,0,64256,65728,6,6,4,1460,1769,1,992,77,82732,55220,65700,0,31856,0,0,0
o,0x00000000,1716793898.375795,172.16.1.2,27300,172.16.3.2,5101,22711,34885,0,64256,65728,6,6,4,1460,1769,1,992,77,82732,55220,65700,0,33304,0,0,0
i,0x00000000,1716793898.425098,172.16.1.2,27300,172.16.3.2,5101,22711,34885,0,64256,65728,6,6,4,1460,1769,1,992,77,82732,82732,65700,0,34752,0,0,0
o,0x00000000,1716793898.425113,172.16.1.2,27300,172.16.3.2,5101,22711,34885,0,64256,65728,6,6,4,1460,1760,1,992,79,82732,79836,65700,0,31856,0,0,0
o,0x00000000,1716793898.425477,172.16.1.2,27300,172.16.3.2,5101,22711,34885,0,64256,65728,6,6,4,1460,1760,1,992,79,82732,79836,65700,0,33304,0,0,0
i,0x00000000,1716793898.903885,172.16.1.2,27300,172.16.3.2,5101,22711,34885,0,64256,65728,6,6,4,1460,1760,1,992,79,82732,82732,65700,0,34752,0,0,0
o,0x00000000,1716793898.903907,172.16.1.2,27300,172.16.3.2,5101,22711,34885,0,64256,65728,6,6,4,1460,1772,1,992,81,82732,79836,65700,0,31856,0,0,0
