enable_time_secs=1716941185	enable_time_usecs=382216	siftrver=1.2.4	hz=100	tcp_rtt_scale=32	sysname=FreeBSD	sysver=1301000	ipmode=4
o,0x00000000,1716941185.382256,10.0.2.15,22,10.0.2.2,61621,1073725440,17298,0,65535,65700,0,0,4,1460,1,0,4,24,33580,44,65700,0,0,0,0,0
o,0x00000000,1716941185.382360,10.0.2.15,22,10.0.2.2,61621,1073725440,17298,0,65535,65700,0,0,4,1460,1,0,4,24,33580,80,65700,0,44,0,0,0
i,0x00000000,1716941185.383066,10.0.2.15,22,10.0.2.2,61621,1073725440,17298,0,65535,65700,0,0,4,1460,1,0,4,24,33580,80,65700,0,80,0,0,0
i,0x00000000,1716941185.383069,10.0.2.15,22,10.0.2.2,61621,1073725440,17342,0,65535,65700,0,0,4,1460,1,0,4,24,33580,36,65700,0,36,0,0,0
o,0x00000000,1716941185.383170,10.0.2.15,22,10.0.2.2,61621,1073725440,17378,0,65535,65700,0,0,4,1460,1,0,4,24,33580,36,65700,0,0,0,0,0
i,0x00000000,1716941185.383851,10.0.2.15,22,10.0.2.2,61621,1073725440,17378,0,65535,65700,0,0,4,1460,1,0,4,24,33580,36,65700,0,36,0,0,0
o,0x00000000,1716941185.383941,10.0.2.15,22,10.0.2.2,61621,1073725440,17414,0,65535,65700,0,0,4,1460,1,0,4,24,33580,176,65700,0,0,0,0,0
i,0x00000000,1716941185.384751,10.0.2.15,22,10.0.2.2,61621,1073725440,17414,0,65535,65700,0,0,4,1460,1,0,4,24,33580,176,65700,0,176,0,0,0
i,0x00000000,1716941185.386222,10.0.2.15,22,10.0.2.2,61621,1073725440,17590,0,65535,65700,0,0,4,1460,1,0,4,24,33580,0,65700,0,0,0,0,0
i,0x00000000,1716941185.386228,10.0.2.15,22,10.0.2.2,61621,1073725440,17590,0,65535,65700,0,0,4,1460,1,0,4,24,33580,0,65700,36,0,0,0,0
o,0x00000000,1716941185.386230,10.0.2.15,22,10.0.2.2,61621,1073725440,17590,0,65535,65700,0,0,4,1460,1,0,5,24,33580,0,65700,96,0,0,0,0
i,0x00000000,1716941185.386312,10.0.2.15,22,10.0.2.2,61621,1073725440,17590,0,65535,65700,0,0,4,1460,1,0,4,24,33580,0,65700,96,0,0,0,0
o,0x00000000,1716941185.386316,10.0.2.15,22,10.0.2.2,61621,1073725440,17590,0,65535,65604,0,0,5,1460,1,0,7,24,33580,0,65700,96,0,0,0,0
o,0x00000000,1716941185.387033,10.0.2.15,22,10.0.2.2,61621,1073725440,17590,0,65535,65604,0,0,8,1460,1,0,4,24,33580,0,65700,0,0,0,0,0
i,0x00000000,1716941185.387558,10.0.2.15,22,10.0.2.2,61621,1073725440,17590,0,65535,65604,0,0,8,1460,1,0,20,24,33580,0,65700,0,1,0,0,0
i,0x00000000,1716941187.581304,10.0.2.15,22,10.0.2.2,61625,1073725440,14600,0,65535,65700,0,0,4,1460,1,0,0,27,33580,0,65700,0,0,0,0,0
o,0x00000000,1716941187.595996,10.0.2.15,22,10.0.2.2,61625,1073725440,14600,0,65535,65700,0,0,4,1460,1,0,0,27,33580,38,65700,41,0,0,0,0
i,0x00000000,1716941187.596784,10.0.2.15,22,10.0.2.2,61625,1073725440,14600,0,65535,65700,0,0,4,1460,1,0,0,27,33580,38,65700,0,38,0,0,0
i,0x00000000,1716941187.597910,10.0.2.15,22,10.0.2.2,61625,1073725440,14638,0,65535,65700,0,0,4,1460,1,0,0,24,33580,0,65700,0,0,0,0,0
i,0x00000000,1716941187.597915,10.0.2.15,22,10.0.2.2,61625,1073725440,14638,0,65535,65700,0,0,4,1460,1,0,0,24,33580,0,65700,1460,0,0,0,0
o,0x00000000,1716941187.597919,10.0.2.15,22,10.0.2.2,61625,1073725440,14638,0,65535,65700,0,0,4,1460,1,0,1,24,33580,0,65700,1536,0,0,0,0
o,0x00000000,1716941187.599010,10.0.2.15,22,10.0.2.2,61625,1073725440,14638,0,65535,65700,0,0,4,1460,1,0,0,24,33580,1056,65700,1536,0,0,0,0
i,0x00000000,1716941187.599742,10.0.2.15,22,10.0.2.2,61625,1073725440,14638,0,65535,65700,0,0,4,1460,1,0,0,24,33580,1056,65700,1536,1056,0,0,0
i,0x00000000,1716941187.600954,10.0.2.15,22,10.0.2.2,61625,1073725440,15694,0,65535,65700,0,0,4,1460,1,0,0,24,33580,0,65700,0,0,0,0,0
o,0x00000000,1716941187.603497,10.0.2.15,22,10.0.2.2,61625,1073725440,15694,0,65535,65700,0,0,4,1460,1,0,0,24,33580,484,65700,0,0,0,0,0
i,0x00000000,1716941187.604320,10.0.2.15,22,10.0.2.2,61625,1073725440,15694,0,65535,65700,0,0,4,1460,1,0,0,24,33580,484,65700,0,484,0,0,0
i,0x00000000,1716941187.608981,10.0.2.15,22,10.0.2.2,61625,1073725440,16178,0,65535,65700,0,0,4,1460,1,0,0,24,33580,0,65700,0,0,0,0,0
i,0x00000000,1716941187.613204,10.0.2.15,22,10.0.2.2,61625,1073725440,16178,0,65535,65700,0,0,4,1460,1,0,0,24,33580,0,65700,0,0,0,0,0
o,0x00000000,1716941187.613208,10.0.2.15,22,10.0.2.2,61625,1073725440,16178,0,65535,65700,0,0,4,1460,1,0,1,24,33580,0,65700,44,0,0,0,0
o,0x00000000,1716941187.613365,10.0.2.15,22,10.0.2.2,61625,1073725440,16178,0,65535,65700,0,0,4,1460,1,0,0,24,33580,44,65700,0,0,0,0,0
i,0x00000000,1716941187.614074,10.0.2.15,22,10.0.2.2,61625,1073725440,16178,0,65535,65700,0,0,4,1460,1,0,0,24,33580,44,65700,0,44,0,0,0
i,0x00000000,1716941187.615231,10.0.2.15,22,10.0.2.2,61625,1073725440,16222,0,65535,65700,0,0,4,1460,1,0,0,24,33580,0,65700,0,0,0,0,0
o,0x00000000,1716941187.624744,10.0.2.15,22,10.0.2.2,61625,1073725440,16222,0,65535,65700,0,0,4,1460,1,0,0,24,33580,68,65700,0,0,0,0,0
i,0x00000000,1716941187.625596,10.0.2.15,22,10.0.2.2,61625,1073725440,16222,0,65535,65700,0,0,4,1460,1,0,0,24,33580,68,65700,0,68,0,0,0
i,0x00000000,1716941187.627765,10.0.2.15,22,10.0.2.2,61625,1073725440,16290,0,65535,65700,0,0,4,1460,1,0,0,24,33580,0,65700,0,0,0,0,0
o,0x00000000,1716941187.637181,10.0.2.15,22,10.0.2.2,61625,1073725440,16290,0,65535,65700,0,0,4,1460,1,0,0,24,33580,28,65700,0,0,0,0,0
i,0x00000000,1716941187.637827,10.0.2.15,22,10.0.2.2,61625,1073725440,16290,0,65535,65700,0,0,4,1460,1,0,0,24,33580,28,65700,0,28,0,0,0
i,0x00000000,1716941187.638397,10.0.2.15,22,10.0.2.2,61625,1073725440,16318,0,65535,65700,0,0,4,1460,1,0,0,24,33580,0,65700,0,0,0,0,0
o,0x00000000,1716941187.639010,10.0.2.15,22,10.0.2.2,61625,1073725440,16318,0,65535,65700,0,0,4,1460,1,0,0,24,33580,768,65700,112,0,0,0,0
i,0x00000000,1716941187.639640,10.0.2.15,22,10.0.2.2,61625,1073725440,16318,0,65535,65700,0,0,4,1460,1,0,0,24,33580,768,65700,112,768,0,0,0
o,0x00000000,1716941187.639738,10.0.2.15,22,10.0.2.2,61625,1073725440,17086,0,65535,65700,0,0,4,1460,1,0,0,24,33580,44,65700,0,0,0,0,0
i,0x00000000,1716941187.640506,10.0.2.15,22,10.0.2.2,61625,1073725440,17086,0,65535,65700,0,0,4,1460,1,0,0,24,33580,44,65700,0,44,0,0,0
i,0x00000000,1716941187.641097,10.0.2.15,22,10.0.2.2,61625,1073725440,17130,0,65535,65700,0,0,4,1460,1,0,0,24,33580,0,65700,0,0,0,0,0
o,0x00000000,1716941187.641426,10.0.2.15,22,10.0.2.2,61625,1073725440,17130,0,65535,65700,0,0,4,1460,1,0,4,24,33580,72,65700,0,0,0,0,0
i,0x00000000,1716941187.642079,10.0.2.15,22,10.0.2.2,61625,1073725440,17130,0,65535,65700,0,0,4,1460,1,0,4,24,33580,72,65700,0,72,0,0,0
o,0x00000000,1716941187.646349,10.0.2.15,22,10.0.2.2,61625,1073725440,17202,0,65535,65700,0,0,4,1460,1,0,4,24,33580,44,65700,0,0,0,0,0
i,0x00000000,1716941187.647025,10.0.2.15,22,10.0.2.2,61625,1073725440,17202,0,65535,65700,0,0,4,1460,1,0,4,24,33580,44,65700,0,44,0,0,0
o,0x00000000,1716941187.647398,10.0.2.15,22,10.0.2.2,61625,1073725440,17246,0,65535,65700,0,0,4,1460,1,0,4,24,33580,104,65700,0,0,0,0,0
i,0x00000000,1716941187.648235,10.0.2.15,22,10.0.2.2,61625,1073725440,17246,0,65535,65700,0,0,4,1460,1,0,4,24,33580,104,65700,0,104,0,0,0
o,0x00000000,1716941187.648293,10.0.2.15,22,10.0.2.2,61625,1073725440,17350,0,65535,65700,0,0,4,1460,1,0,4,24,33580,44,65700,0,0,0,0,0
i,0x00000000,1716941187.648981,10.0.2.15,22,10.0.2.2,61625,1073725440,17350,0,65535,65700,0,0,4,1460,1,0,4,24,33580,44,65700,0,44,0,0,0
o,0x00000000,1716941187.651851,10.0.2.15,22,10.0.2.2,61625,1073725440,17394,0,65535,65700,0,0,4,1460,1,0,4,24,33580,72,65700,0,0,0,0,0
i,0x00000000,1716941187.652790,10.0.2.15,22,10.0.2.2,61625,1073725440,17394,0,65535,65700,0,0,4,1460,1,0,4,24,33580,72,65700,0,72,0,0,0
i,0x00000000,1716941187.652793,10.0.2.15,22,10.0.2.2,61625,1073725440,17466,0,65535,65700,0,0,4,1460,1,0,4,24,33580,0,65700,0,0,0,0,0
i,0x00000000,1716941187.652859,10.0.2.15,22,10.0.2.2,61625,1073725440,17466,0,65535,65700,0,0,4,1460,1,0,4,24,33580,0,65700,36,0,0,0,0
o,0x00000000,1716941187.652862,10.0.2.15,22,10.0.2.2,61625,1073725440,17466,0,65535,65700,0,0,4,1460,1,0,5,24,33580,0,65700,96,0,0,0,0
i,0x00000000,1716941187.652934,10.0.2.15,22,10.0.2.2,61625,1073725440,17466,0,65535,65700,0,0,4,1460,1,0,4,24,33580,0,65700,96,0,0,0,0
o,0x00000000,1716941187.652937,10.0.2.15,22,10.0.2.2,61625,1073725440,17466,0,65535,65604,0,0,5,1460,1,0,7,24,33580,0,65700,96,0,0,0,0
o,0x00000000,1716941187.659445,10.0.2.15,22,10.0.2.2,61625,1073725440,17466,0,65535,65604,0,0,8,1460,1,0,4,24,33580,0,65700,0,0,0,0,0
i,0x00000000,1716941187.660043,10.0.2.15,22,10.0.2.2,61625,1073725440,17466,0,65535,65604,0,0,8,1460,1,0,20,24,33580,0,65700,0,1,0,0,0
i,0x00000000,1716941188.742223,10.0.2.15,22,10.0.2.2,61632,1073725440,14600,0,65535,65700,0,0,4,1460,1,0,0,27,33580,0,65700,0,0,0,0,0
o,0x00000000,1716941188.748954,10.0.2.15,22,10.0.2.2,61632,1073725440,14600,0,65535,65700,0,0,4,1460,1,0,0,27,33580,38,65700,41,0,0,0,0
i,0x00000000,1716941188.749559,10.0.2.15,22,10.0.2.2,61632,1073725440,14600,0,65535,65700,0,0,4,1460,1,0,0,27,33580,38,65700,0,38,0,0,0
i,0x00000000,1716941188.750252,10.0.2.15,22,10.0.2.2,61632,1073725440,14638,0,65535,65700,0,0,4,1460,1,0,0,24,33580,0,65700,0,0,0,0,0
i,0x00000000,1716941188.750256,10.0.2.15,22,10.0.2.2,61632,1073725440,14638,0,65535,65700,0,0,4,1460,1,0,0,24,33580,0,65700,1460,0,0,0,0
o,0x00000000,1716941188.750259,10.0.2.15,22,10.0.2.2,61632,1073725440,14638,0,65535,65700,0,0,4,1460,1,0,1,24,33580,0,65700,1536,0,0,0,0
o,0x00000000,1716941188.752354,10.0.2.15,22,10.0.2.2,61632,1073725440,14638,0,65535,65700,0,0,4,1460,1,0,0,24,33580,1056,65700,1536,0,0,0,0
i,0x00000000,1716941188.753361,10.0.2.15,22,10.0.2.2,61632,1073725440,14638,0,65535,65700,0,0,4,1460,1,0,0,24,33580,1056,65700,1536,1056,0,0,0
i,0x00000000,1716941188.754893,10.0.2.15,22,10.0.2.2,61632,1073725440,15694,0,65535,65700,0,0,4,1460,1,0,0,24,33580,0,65700,0,0,0,0,0
o,0x00000000,1716941188.759054,10.0.2.15,22,10.0.2.2,61632,1073725440,15694,0,65535,65700,0,0,4,1460,1,0,0,24,33580,484,65700,0,0,0,0,0
i,0x00000000,1716941188.759908,10.0.2.15,22,10.0.2.2,61632,1073725440,15694,0,65535,65700,0,0,4,1460,1,0,0,24,33580,484,65700,0,484,0,0,0
i,0x00000000,1716941188.764452,10.0.2.15,22,10.0.2.2,61632,1073725440,16178,0,65535,65700,0,0,4,1460,1,0,0,24,33580,0,65700,0,0,0,0,0
i,0x00000000,1716941188.768364,10.0.2.15,22,10.0.2.2,61632,1073725440,16178,0,65535,65700,0,0,4,1460,1,0,0,24,33580,0,65700,0,0,0,0,0
o,0x00000000,1716941188.768371,10.0.2.15,22,10.0.2.2,61632,1073725440,16178,0,65535,65700,0,0,4,1460,1,0,1,24,33580,0,65700,44,0,0,0,0
o,0x00000000,1716941188.768539,10.0.2.15,22,10.0.2.2,61632,1073725440,16178,0,65535,65700,0,0,4,1460,1,0,0,24,33580,44,65700,0,0,0,0,0
i,0x00000000,1716941188.769263,10.0.2.15,22,10.0.2.2,61632,1073725440,16178,0,65535,65700,0,0,4,1460,1,0,0,24,33580,44,65700,0,44,0,0,0
i,0x00000000,1716941188.769728,10.0.2.15,22,10.0.2.2,61632,1073725440,16222,0,65535,65700,0,0,4,1460,1,0,0,24,33580,0,65700,0,0,0,0,0
o,0x00000000,1716941188.779832,10.0.2.15,22,10.0.2.2,61632,1073725440,16222,0,65535,65700,0,0,4,1460,1,0,0,24,33580,68,65700,0,0,0,0,0
i,0x00000000,1716941188.780451,10.0.2.15,22,10.0.2.2,61632,1073725440,16222,0,65535,65700,0,0,4,1460,1,0,0,24,33580,68,65700,0,68,0,0,0
i,0x00000000,1716941188.782828,10.0.2.15,22,10.0.2.2,61632,1073725440,16290,0,65535,65700,0,0,4,1460,1,0,0,24,33580,0,65700,0,0,0,0,0
o,0x00000000,1716941188.793182,10.0.2.15,22,10.0.2.2,61632,1073725440,16290,0,65535,65700,0,0,4,1460,1,0,0,24,33580,28,65700,0,0,0,0,0
i,0x00000000,1716941188.793893,10.0.2.15,22,10.0.2.2,61632,1073725440,16290,0,65535,65700,0,0,4,1460,1,0,0,24,33580,28,65700,0,28,0,0,0
i,0x00000000,1716941188.794768,10.0.2.15,22,10.0.2.2,61632,1073725440,16318,0,65535,65700,0,0,4,1460,1,0,0,24,33580,0,65700,0,0,0,0,0
o,0x00000000,1716941188.795439,10.0.2.15,22,10.0.2.2,61632,1073725440,16318,0,65535,65700,0,0,4,1460,1,0,0,24,33580,768,65700,112,0,0,0,0
i,0x00000000,1716941188.796339,10.0.2.15,22,10.0.2.2,61632,1073725440,16318,0,65535,65700,0,0,4,1460,1,0,0,24,33580,768,65700,112,768,0,0,0
o,0x00000000,1716941188.796448,10.0.2.15,22,10.0.2.2,61632,1073725440,17086,0,65535,65700,0,0,4,1460,1,0,0,24,33580,44,65700,0,0,0,0,0
i,0x00000000,1716941188.796933,10.0.2.15,22,10.0.2.2,61632,1073725440,17086,0,65535,65700,0,0,4,1460,1,0,0,24,33580,44,65700,0,44,0,0,0
i,0x00000000,1716941188.797494,10.0.2.15,22,10.0.2.2,61632,1073725440,17130,0,65535,65700,0,0,4,1460,1,0,0,24,33580,0,65700,0,0,0,0,0
o,0x00000000,1716941188.797834,10.0.2.15,22,10.0.2.2,61632,1073725440,17130,0,65535,65700,0,0,4,1460,1,0,4,24,33580,72,65700,0,0,0,0,0
i,0x00000000,1716941188.799145,10.0.2.15,22,10.0.2.2,61632,1073725440,17130,0,65535,65700,0,0,4,1460,1,0,4,24,33580,72,65700,0,72,0,0,0
i,0x00000000,1716941188.799148,10.0.2.15,22,10.0.2.2,61632,1073725440,17202,0,65535,65700,0,0,4,1460,1,0,4,24,33580,0,65700,0,0,0,0,0
o,0x00000000,1716941188.806824,172.16.1.2,22468,172.16.3.2,5101,1073725440,1073725440,0,0,0,0,0,2,536,0,1,672,100,32768,0,65536,0,0,0,0,0
o,0x00000000,1716941188.837316,10.0.2.15,22,10.0.2.2,61632,1073725440,17202,0,65535,65700,0,0,4,1460,1,0,5,24,33580,0,65700,0,0,0,0,0
i,0x00000000,1716941188.927086,172.16.1.2,22468,172.16.3.2,5101,1073725440,1073725440,0,0,0,0,0,2,536,0,1,672,100,32768,0,65536,0,1,0,0,0
o,0x00000000,1716941188.927117,172.16.1.2,22468,172.16.3.2,5101,22294,14480,0,65535,65700,6,6,4,1460,465,1,993,48,33580,0,65700,0,0,0,0,0
o,0x00000000,1716941188.927547,172.16.1.2,22468,172.16.3.2,5101,22294,14480,0,65535,65700,6,6,4,1460,465,1,996,48,33580,37,65700,0,0,0,0,0
i,0x00000000,1716941189.047859,172.16.1.2,22468,172.16.3.2,5101,22294,14480,0,65535,65700,6,6,4,1460,465,1,996,48,33580,37,65700,0,37,0,0,0
o,0x00000000,1716941189.048014,172.16.1.2,22468,172.16.3.2,5101,22294,14517,0,65728,65728,6,6,4,1460,455,1,996,47,33580,4,65700,0,0,0,0,0
o,0x00000000,1716941189.048390,172.16.1.2,22468,172.16.3.2,5101,22294,14517,0,65728,65728,6,6,4,1460,455,1,996,47,33580,128,65700,0,4,0,0,0
i,0x00000000,1716941189.166135,172.16.1.2,22468,172.16.3.2,5101,22294,14517,0,65728,65728,6,6,4,1460,455,1,996,47,33580,128,65700,0,128,0,0,0
i,0x00000000,1716941189.166147,172.16.1.2,22468,172.16.3.2,5101,22294,14645,0,65600,65728,6,6,4,1460,443,1,996,46,33580,0,65700,0,0,0,0,0
o,0x00000000,1716941189.166284,172.16.1.2,20445,172.16.3.2,5101,1073725440,1073725440,0,0,0,0,0,2,536,0,1,672,100,32768,0,65536,0,0,0,0,0
o,0x00000000,1716941189.207313,172.16.1.2,22468,172.16.3.2,5101,22294,14645,0,65728,65728,6,6,4,1460,443,1,997,46,33580,0,65700,0,0,0,0,0
i,0x00000000,1716941189.286306,172.16.1.2,20445,172.16.3.2,5101,1073725440,1073725440,0,0,0,0,0,2,536,0,1,672,100,32768,0,65536,0,1,0,0,0
o,0x00000000,1716941189.286327,172.16.1.2,20445,172.16.3.2,5101,22294,14480,0,65535,65700,6,6,4,1460,465,1,993,48,33580,0,65700,0,0,0,0,0
o,0x00000000,1716941189.286486,172.16.1.2,20445,172.16.3.2,5101,22294,14480,0,65535,65700,6,6,4,1460,465,1,992,48,33580,37,65700,0,0,0,0,0
i,0x00000000,1716941189.406216,172.16.1.2,22468,172.16.3.2,5101,22294,14645,0,65728,65728,6,6,4,1460,443,1,996,46,33580,0,65700,0,0,0,0,0
i,0x00000000,1716941189.406229,172.16.1.2,22468,172.16.3.2,5101,22294,14645,0,65728,65728,6,6,4,1460,443,1,996,46,33580,0,65700,1,0,0,0,0
o,0x00000000,1716941189.406236,172.16.1.2,22468,172.16.3.2,5101,22294,14645,0,65728,65728,6,6,4,1460,443,1,997,46,33580,0,65700,2,0,0,0,0
o,0x00000000,1716941189.406588,172.16.1.2,20445,172.16.3.2,5101,22294,14480,0,65535,65700,6,6,4,1460,465,1,992,48,33580,33580,65700,0,37,0,0,0
o,0x00000000,1716941189.406933,172.16.1.2,20445,172.16.3.2,5101,22294,14480,0,65535,65700,6,6,4,1460,465,1,992,48,33580,33580,65700,0,1485,0,0,0
o,0x00000000,1716941189.407250,172.16.1.2,20445,172.16.3.2,5101,22294,14480,0,65535,65700,6,6,4,1460,465,1,992,48,33580,33580,65700,0,2933,0,0,0
o,0x00000000,1716941189.407614,172.16.1.2,20445,172.16.3.2,5101,22294,14480,0,65535,65700,6,6,4,1460,465,1,992,48,33580,33580,65700,0,4381,0,0,0
o,0x00000000,1716941189.407930,172.16.1.2,20445,172.16.3.2,5101,22294,14480,0,65535,65700,6,6,4,1460,465,1,992,48,33580,33580,65700,0,5829,0,0,0
o,0x00000000,1716941189.408243,172.16.1.2,20445,172.16.3.2,5101,22294,14480,0,65535,65700,6,6,4,1460,465,1,992,48,33580,33580,65700,0,7277,0,0,0
o,0x00000000,1716941189.408557,172.16.1.2,20445,172.16.3.2,5101,22294,14480,0,65535,65700,6,6,4,1460,465,1,992,48,33580,33580,65700,0,8725,0,0,0
o,0x00000000,1716941189.408940,172.16.1.2,20445,172.16.3.2,5101,22294,14480,0,65535,65700,6,6,4,1460,465,1,992,48,33580,33580,65700,0,10173,0,0,0
o,0x00000000,1716941189.409325,172.16.1.2,20445,172.16.3.2,5101,22294,14480,0,65535,65700,6,6,4,1460,465,1,992,48,33580,33580,65700,0,11621,0,0,0
i,0x00000000,1716941189.436024,172.16.1.2,20445,172.16.3.2,5101,22294,14480,0,65535,65700,6,6,4,1460,465,1,992,48,33580,33580,65700,0,13069,0,0,0
o,0x00000000,1716941189.436038,172.16.1.2,20445,172.16.3.2,5101,22294,14517,0,65728,65728,6,6,4,1460,463,1,992,45,33580,33543,65700,0,13032,0,0,0
i,0x00000000,1716941189.646220,172.16.1.2,20445,172.16.3.2,5101,22294,14517,0,65728,65728,6,6,4,1460,463,1,992,45,33580,33543,65700,0,14480,0,0,0
o,0x00000000,1716941189.646241,172.16.1.2,20445,172.16.3.2,5101,22294,17413,0,64256,65728,6,6,4,1460,502,1,992,53,33580,30647,65700,0,11584,0,0,0
o,0x00000000,1716941189.646485,172.16.1.2,20445,172.16.3.2,5101,22294,17413,0,64256,65728,6,6,4,1460,502,1,992,53,33580,30647,65700,0,13032,0,0,0
o,0x00000000,1716941189.646849,172.16.1.2,20445,172.16.3.2,5101,22294,17413,0,64256,65728,6,6,4,1460,502,1,992,53,41772,30647,65700,0,14480,0,0,0
o,0x00000000,1716941189.647107,172.16.1.2,20445,172.16.3.2,5101,22294,17413,0,64256,65728,6,6,4,1460,502,1,992,53,41772,30647,65700,0,15928,0,0,0
i,0x00000000,1716941189.665377,172.16.1.2,20445,172.16.3.2,5101,22294,17413,0,64256,65728,6,6,4,1460,502,1,992,53,41772,41772,65700,0,17376,0,0,0
o,0x00000000,1716941189.665389,172.16.1.2,20445,172.16.3.2,5101,22294,20309,0,64256,65728,6,6,4,1460,540,1,992,60,41772,38876,65700,0,14480,0,0,0
o,0x00000000,1716941189.665634,172.16.1.2,20445,172.16.3.2,5101,22294,20309,0,64256,65728,6,6,4,1460,540,1,992,60,41772,38876,65700,0,15928,0,0,0
o,0x00000000,1716941189.665861,172.16.1.2,20445,172.16.3.2,5101,22294,20309,0,64256,65728,6,6,4,1460,540,1,992,60,41772,38876,65700,0,17376,0,0,0
o,0x00000000,1716941189.666302,172.16.1.2,20445,172.16.3.2,5101,22294,20309,0,64256,65728,6,6,4,1460,540,1,992,60,49964,38876,65700,0,18824,0,0,0
i,0x00000000,1716941189.695177,172.16.1.2,20445,172.16.3.2,5101,22294,20309,0,64256,65728,6,6,4,1460,540,1,992,60,49964,49964,65700,0,20272,0,0,0
o,0x00000000,1716941189.695187,172.16.1.2,20445,172.16.3.2,5101,22294,23205,0,64256,65728,6,6,4,1460,585,1,992,67,49964,47068,65700,0,17376,0,0,0
o,0x00000000,1716941189.695447,172.16.1.2,20445,172.16.3.2,5101,22294,23205,0,64256,65728,6,6,4,1460,585,1,992,67,49964,47068,65700,0,18824,0,0,0
o,0x00000000,1716941189.695720,172.16.1.2,20445,172.16.3.2,5101,22294,23205,0,64256,65728,6,6,4,1460,585,1,992,67,49964,47068,65700,0,20272,0,0,0
o,0x00000000,1716941189.695975,172.16.1.2,20445,172.16.3.2,5101,22294,23205,0,64256,65728,6,6,4,1460,585,1,992,67,49964,47068,65700,0,21720,0,0,0
i,0x00000000,1716941189.716215,172.16.1.2,20445,172.16.3.2,5101,22294,23205,0,64256,65728,6,6,4,1460,585,1,992,67,49964,49964,65700,0,23168,0,0,0
o,0x00000000,1716941189.716222,172.16.1.2,20445,172.16.3.2,5101,22294,23205,0,64256,65728,6,6,4,1460,636,1,992,74,49964,47068,65700,0,20272,0,0,0
o,0x00000000,1716941189.716456,172.16.1.2,20445,172.16.3.2,5101,22294,23205,0,64256,65728,6,6,4,1460,636,1,992,74,49964,47068,65700,0,21720,0,0,0
i,0x00000000,1716941189.745213,172.16.1.2,20445,172.16.3.2,5101,22294,23205,0,64256,65728,6,6,4,1460,636,1,992,74,49964,49964,65700,0,23168,0,0,0
o,0x00000000,1716941189.745219,172.16.1.2,20445,172.16.3.2,5101,22294,23205,0,64256,65728,6,6,4,1460,689,1,992,80,49964,47068,65700,0,20272,0,0,0
o,0x00000000,1716941189.745478,172.16.1.2,20445,172.16.3.2,5101,22294,23205,0,64256,65728,6,6,4,1460,689,1,992,80,49964,47068,65700,0,21720,0,0,0
i,0x00000000,1716941189.865769,172.16.1.2,20445,172.16.3.2,5101,22294,23205,0,64256,65728,6,6,4,1460,689,1,992,80,49964,49964,65700,0,23168,0,0,0
o,0x00000000,1716941189.865796,172.16.1.2,20445,172.16.3.2,5101,22294,23205,0,64256,65728,6,6,4,1460,687,1,992,71,49964,47068,65700,0,20272,0,0,0
o,0x00000000,1716941189.866306,172.16.1.2,20445,172.16.3.2,5101,22294,23205,0,64256,65728,6,6,4,1460,687,1,992,71,49964,47068,65700,0,21720,0,0,0
i,0x00000000,1716941189.945909,172.16.1.2,20445,172.16.3.2,5101,22294,23205,0,64256,65728,6,6,4,1460,687,1,992,71,49964,49964,65700,0,23168,0,0,0
o,0x00000000,1716941189.945927,172.16.1.2,20445,172.16.3.2,5101,22294,23205,0,65728,65728,6,6,4,1460,718,1,992,72,49964,48516,65700,0,21720,0,0,0
i,0x00000000,1716941189.974848,172.16.1.2,20445,172.16.3.2,5101,22294,23205,0,65728,65728,6,6,4,1460,718,1,992,72,49964,48516,65700,0,23168,0,0,0
o,0x00000000,1716941189.974860,172.16.1.2,20445,172.16.3.2,5101,22294,23205,0,64256,65728,6,6,4,1460,757,1,992,76,49964,45620,65700,0,20272,0,0,0
o,0x00000000,1716941189.975110,172.16.1.2,20445,172.16.3.2,5101,22294,23205,0,64256,65728,6,6,4,1460,757,1,992,76,49964,45620,65700,0,21720,0,0,0
i,0x00000000,1716941190.004850,172.16.1.2,20445,172.16.3.2,5101,22294,23205,0,64256,65728,6,6,4,1460,757,1,992,76,58156,58156,65700,0,23168,0,0,0
o,0x00000000,1716941190.004858,172.16.1.2,20445,172.16.3.2,5101,22294,23205,0,65728,65728,6,6,4,1460,795,1,992,78,58156,56708,65700,0,21720,0,0,0
i,0x00000000,1716941190.025493,172.16.1.2,20445,172.16.3.2,5101,22294,23205,0,65728,65728,6,6,4,1460,795,1,992,78,58156,56708,65700,0,23168,0,0,0
o,0x00000000,1716941190.025507,172.16.1.2,20445,172.16.3.2,5101,22294,23205,0,64256,65728,6,6,4,1460,836,1,992,81,58156,53812,65700,0,20272,0,0,0
o,0x00000000,1716941190.025753,172.16.1.2,20445,172.16.3.2,5101,22294,23205,0,64256,65728,6,6,4,1460,836,1,992,81,58156,53812,65700,0,21720,0,0,0
i,0x00000000,1716941190.054408,172.16.1.2,20445,172.16.3.2,5101,22294,23205,0,64256,65728,6,6,4,1460,836,1,992,81,58156,58156,65700,0,23168,0,0,0
o,0x00000000,1716941190.054419,172.16.1.2,20445,172.16.3.2,5101,22294,23205,0,64256,65728,6,6,4,1460,876,1,992,84,58156,55260,65700,0,20272,0,0,0
o,0x00000000,1716941190.054659,172.16.1.2,20445,172.16.3.2,5101,22294,23205,0,64256,65728,6,6,4,1460,876,1,992,84,58156,55260,65700,0,21720,0,0,0
i,0x00000000,1716941190.085616,172.16.1.2,20445,172.16.3.2,5101,22294,23205,0,64256,65728,6,6,4,1460,876,1,992,84,58156,58156,65700,0,23168,0,0,0
o,0x00000000,1716941190.085629,172.16.1.2,20445,172.16.3.2,5101,22294,23205,0,64256,65728,6,6,4,1460,923,1,992,88,58156,55260,65700,0,20272,0,0,0
o,0x00000000,1716941190.085874,172.16.1.2,20445,172.16.3.2,5101,22294,23205,0,64256,65728,6,6,4,1460,923,1,992,88,58156,55260,65700,0,21720,0,0,0
i,0x00000000,1716941190.114361,172.16.1.2,20445,172.16.3.2,5101,22294,23205,0,64256,65728,6,6,4,1460,923,1,992,88,58156,58156,65700,0,23168,0,0,0
o,0x00000000,1716941190.114369,172.16.1.2,20445,172.16.3.2,5101,22294,24665,0,65728,65728,6,6,4,1460,964,1,992,90,58156,56708,65700,0,21720,0,0,0
o,0x00000000,1716941190.114617,172.16.1.2,20445,172.16.3.2,5101,22294,24665,0,65728,65728,6,6,4,1460,964,1,992,90,58156,56708,65700,0,23168,0,0,0
i,0x00000000,1716941190.135017,172.16.1.2,20445,172.16.3.2,5101,22294,24665,0,65728,65728,6,6,4,1460,964,1,992,90,58156,56708,65700,0,24616,0,0,0
o,0x00000000,1716941190.135023,172.16.1.2,20445,172.16.3.2,5101,22294,24665,0,64256,65728,6,6,4,1460,1008,1,992,92,58156,53812,65700,0,21720,0,0,0
o,0x00000000,1716941190.135254,172.16.1.2,20445,172.16.3.2,5101,22294,24665,0,64256,65728,6,6,4,1460,1008,1,992,92,58156,53812,65700,0,23168,0,0,0
i,0x00000000,1716941190.185636,172.16.1.2,20445,172.16.3.2,5101,22294,24665,0,64256,65728,6,6,4,1460,1008,1,992,92,58156,58156,65700,0,24616,0,0,0
o,0x00000000,1716941190.185661,172.16.1.2,20445,172.16.3.2,5101,22294,24665,0,65728,65728,6,6,4,1460,1058,1,992,96,58156,56708,65700,0,23168,0,0,0
i,0x00000000,1716941190.245136,172.16.1.2,20445,172.16.3.2,5101,22294,24665,0,65728,65728,6,6,4,1460,1058,1,992,96,58156,56708,65700,0,24616,0,0,0
o,0x00000000,1716941190.245154,172.16.1.2,20445,172.16.3.2,5101,22294,24665,0,64256,65728,6,6,4,1460,1078,1,992,91,58156,53812,65700,0,21720,0,0,0
o,0x00000000,1716941190.245412,172.16.1.2,20445,172.16.3.2,5101,22294,24665,0,64256,65728,6,6,4,1460,1078,1,992,91,58156,53812,65700,0,23168,0,0,0
i,0x00000000,1716941190.325135,172.16.1.2,20445,172.16.3.2,5101,22294,24665,0,64256,65728,6,6,4,1460,1078,1,992,91,58156,58156,65700,0,24616,0,0,0
o,0x00000000,1716941190.325160,172.16.1.2,20445,172.16.3.2,5101,22294,24665,0,65728,65728,6,6,4,1460,1096,1,992,87,58156,56708,65700,0,23168,0,0,0
i,0x00000000,1716941190.334294,172.16.1.2,20445,172.16.3.2,5101,22294,24665,0,65728,65728,6,6,4,1460,1096,1,992,87,58156,56708,65700,0,24616,0,0,0
o,0x00000000,1716941190.334307,172.16.1.2,20445,172.16.3.2,5101,22294,26064,0,65728,65728,6,6,4,1460,1096,1,992,87,58156,56708,65700,0,24616,0,0,0
i,0x00000000,1716941190.355161,172.16.1.2,20445,172.16.3.2,5101,22294,24665,0,65728,65728,6,6,4,1460,1096,1,992,87,58156,56708,65700,0,26064,0,0,0
o,0x00000000,1716941190.355168,172.16.1.2,20445,172.16.3.2,5101,22294,27512,0,65728,65728,6,6,4,1460,1096,1,992,87,58156,56708,65700,0,26064,0,0,0
i,0x00000000,1716941190.385138,172.16.1.2,20445,172.16.3.2,5101,22294,24665,0,65728,65728,6,6,4,1460,1096,1,992,87,58156,56708,65700,0,27512,0,0,0
o,0x00000000,1716941190.385153,172.16.1.2,20445,172.16.3.2,5101,11584,1448,0,65728,65728,6,6,4,1460,1096,1,537920480,87,58156,56708,65700,0,27512,0,0,0
i,0x00000000,1716941190.415049,172.16.1.2,20445,172.16.3.2,5101,11584,1448,0,65728,65728,6,6,4,1460,1096,1,537920480,87,58156,56708,65700,0,27512,0,0,0
i,0x00000000,1716941190.415058,172.16.1.2,20445,172.16.3.2,5101,11584,1448,0,65728,65728,6,6,4,1460,1096,1,537920480,87,58156,56708,65700,0,27512,0,0,0
o,0x00000000,1716941190.415062,172.16.1.2,20445,172.16.3.2,5101,11584,2896,0,65728,65728,6,6,4,1460,1096,1,537920480,87,58156,56708,65700,0,27512,0,0,0
i,0x00000000,1716941190.445315,172.16.1.2,20445,172.16.3.2,5101,11584,2896,0,65728,65728,6,6,4,1460,1096,1,537920480,87,58156,56708,65700,0,27512,0,0,0
i,0x00000000,1716941190.445323,172.16.1.2,20445,172.16.3.2,5101,11584,2896,0,65728,65728,6,6,4,1460,1096,1,537920480,87,58156,56708,65700,0,27512,0,0,0
i,0x00000000,1716941190.474861,172.16.1.2,20445,172.16.3.2,5101,11584,2896,0,65728,65728,6,6,4,1460,1096,1,537920480,87,58156,56708,65700,0,27512,0,0,0
o,0x00000000,1716941190.474877,172.16.1.2,20445,172.16.3.2,5101,11584,4344,0,65728,65728,6,6,4,1460,1096,1,537920480,87,58156,56708,65700,0,27512,0,0,0
i,0x00000000,1716941190.514529,172.16.1.2,20445,172.16.3.2,5101,11584,4344,0,65728,65728,6,6,4,1460,1096,1,537920480,87,58156,56708,65700,0,28960,0,0,0
i,0x00000000,1716941190.544820,172.16.1.2,20445,172.16.3.2,5101,11584,4344,0,65728,65728,6,6,4,1460,1096,1,537920480,87,58156,56708,65700,0,28960,0,0,0
o,0x00000000,1716941190.544833,172.16.1.2,20445,172.16.3.2,5101,11584,4344,0,65728,65728,6,6,4,1460,1096,1,537920481,87,58156,56708,65700,0,28960,0,0,0
i,0x00000000,1716941190.545171,172.16.1.2,20445,172.16.3.2,5101,11584,4344,0,59968,65728,6,6,4,1460,1023,1,537920480,94,58156,50916,65700,0,24616,0,0,0
i,0x00000000,1716941190.553946,172.16.1.2,20445,172.16.3.2,5101,11584,4344,0,65728,65728,6,6,4,1460,1023,1,537920480,94,58156,58156,65700,0,24616,0,0,0
i,0x00000000,1716941190.584983,172.16.1.2,20445,172.16.3.2,5101,11584,4344,0,65728,65728,6,6,4,1460,1023,1,537920480,94,58156,58156,65700,0,24616,0,0,0
o,0x00000000,1716941190.584993,172.16.1.2,20445,172.16.3.2,5101,11584,5792,0,65728,65728,6,6,4,1460,1023,1,537920481,94,58156,58156,65700,0,24616,0,0,0
i,0x00000000,1716941190.615811,172.16.1.2,20445,172.16.3.2,5101,11584,5792,0,55616,65728,6,6,4,1460,964,1,537920480,97,58156,58156,65700,0,14480,0,0,0
i,0x00000000,1716941190.634854,172.16.1.2,20445,172.16.3.2,5101,11584,14480,0,55616,65728,6,6,4,1460,964,1,537920480,97,58156,58156,65700,0,14480,0,0,0
i,0x00000000,1716941190.654527,172.16.1.2,20445,172.16.3.2,5101,11584,14480,0,55616,65728,6,6,4,1460,964,1,537920480,97,58156,58156,65700,0,14480,0,0,0
o,0x00000000,1716941190.654539,172.16.1.2,20445,172.16.3.2,5101,11584,15928,0,55616,65728,6,6,4,1460,964,1,537920480,97,58156,58156,65700,0,14480,0,0,0
i,0x00000000,1716941190.654864,172.16.1.2,20445,172.16.3.2,5101,11584,15928,0,55616,65728,6,6,4,1460,964,1,537920480,97,58156,58156,65700,0,15928,0,0,0
o,0x00000000,1716941190.654867,172.16.1.2,20445,172.16.3.2,5101,11584,17376,0,55616,65728,6,6,4,1460,964,1,537920480,97,58156,58156,65700,0,15928,0,0,0
i,0x00000000,1716941190.684405,172.16.1.2,20445,172.16.3.2,5101,11584,17376,0,55616,65728,6,6,4,1460,964,1,537920480,97,58156,58156,65700,0,17376,0,0,0
o,0x00000000,1716941190.684420,172.16.1.2,20445,172.16.3.2,5101,11584,18824,0,55616,65728,6,6,4,1460,964,1,537920480,97,58156,58156,65700,0,17376,0,0,0
i,0x00000000,1716941190.684519,172.16.1.2,20445,172.16.3.2,5101,11584,18824,0,55616,65728,6,6,4,1460,964,1,537920480,97,58156,58156,65700,0,18824,0,0,0
o,0x00000000,1716941190.684524,172.16.1.2,20445,172.16.3.2,5101,11584,13032,0,55616,65728,6,6,4,1460,964,1,537920480,97,58156,58156,65700,0,18824,0,0,0
o,0x00000000,1716941190.684620,172.16.1.2,20445,172.16.3.2,5101,11584,13032,0,55616,65728,6,6,4,1460,964,1,537920480,97,58156,58156,65700,0,18824,0,0,0
o,0x00000000,1716941190.684696,172.16.1.2,20445,172.16.3.2,5101,11584,13032,0,55616,65728,6,6,4,1460,964,1,537920480,97,58156,58156,65700,0,18824,0,0,0
o,0x00000000,1716941190.684769,172.16.1.2,20445,172.16.3.2,5101,11584,13032,0,55616,65728,6,6,4,1460,964,1,537920480,97,58156,58156,65700,0,18824,0,0,0
o,0x00000000,1716941190.684843,172.16.1.2,20445,172.16.3.2,5101,11584,13032,0,55616,65728,6,6,4,1460,964,1,537920480,97,58156,58156,65700,0,18824,0,0,0
o,0x00000000,1716941190.684915,172.16.1.2,20445,172.16.3.2,5101,11584,13032,0,55616,65728,6,6,4,1460,964,1,537920480,97,58156,58156,65700,0,18824,0,0,0
o,0x00000000,1716941190.684993,172.16.1.2,20445,172.16.3.2,5101,11584,13032,0,55616,65728,6,6,4,1460,964,1,537920480,97,58156,58156,65700,0,18824,0,0,0
o,0x00000000,1716941190.685084,172.16.1.2,20445,172.16.3.2,5101,11584,13032,0,55616,65728,6,6,4,1460,964,1,537920480,97,58156,58156,65700,0,18824,0,0,0
i,0x00000000,1716941190.814623,172.16.1.2,20445,172.16.3.2,5101,11584,13032,0,55616,65728,6,6,4,1460,964,1,537920480,97,58156,58156,65700,0,18824,0,0,0
i,0x00000000,1716941190.835448,172.16.1.2,20445,172.16.3.2,5101,11584,18824,0,55616,65728,6,6,4,1460,964,1,537920480,97,58156,58156,65700,0,18824,0,0,0
i,0x00000000,1716941190.864651,172.16.1.2,20445,172.16.3.2,5101,11584,18824,0,55616,65728,6,6,4,1460,964,1,537920480,97,58156,58156,65700,0,18824,0,0,0
i,0x00000000,1716941190.934284,172.16.1.2,20445,172.16.3.2,5101,11584,18824,0,55616,65728,6,6,4,1460,964,1,537920480,97,58156,58156,65700,0,18824,0,0,0
o,0x00000000,1716941190.934304,172.16.1.2,20445,172.16.3.2,5101,11584,18824,0,55616,65728,6,6,4,1460,964,1,537920481,97,58156,58156,65700,0,18824,0,0,0
i,0x00000000,1716941190.934592,172.16.1.2,20445,172.16.3.2,5101,11584,18824,0,64320,65728,6,6,4,1460,944,1,537920480,89,58156,56708,65700,0,18824,0,0,0
o,0x00000000,1716941190.934595,172.16.1.2,20445,172.16.3.2,5101,11584,18824,0,64320,65728,6,6,4,1460,944,1,537920481,89,58156,56708,65700,0,18824,0,0,0
i,0x00000000,1716941190.954906,172.16.1.2,20445,172.16.3.2,5101,11584,18824,0,64256,65728,6,6,4,1460,926,1,537920480,83,58156,58156,65700,0,18824,0,0,0
o,0x00000000,1716941190.954931,172.16.1.2,20445,172.16.3.2,5101,11584,18824,0,64256,65728,6,6,4,1460,926,1,537920481,83,58156,58156,65700,0,18824,0,0,0
i,0x00000000,1716941190.955291,172.16.1.2,20445,172.16.3.2,5101,11584,18824,0,64256,65728,6,6,4,1460,915,1,537920480,77,58156,56708,65700,0,18824,0,0,0
o,0x00000000,1716941190.955295,172.16.1.2,20445,172.16.3.2,5101,11584,18824,0,64256,65728,6,6,4,1460,915,1,537920481,77,58156,56708,65700,0,18824,0,0,0
i,0x00000000,1716941190.974189,172.16.1.2,20445,172.16.3.2,5101,11584,18824,0,64256,65728,6,6,4,1460,905,1,537920480,72,58156,58156,65700,0,18824,0,0,0
o,0x00000000,1716941190.974197,172.16.1.2,20445,172.16.3.2,5101,11584,18824,0,64256,65728,6,6,4,1460,905,1,537920481,72,58156,58156,65700,0,18824,0,0,0
i,0x00000000,1716941190.974553,172.16.1.2,20445,172.16.3.2,5101,11584,18824,0,64256,65728,6,6,4,1460,908,1,537920480,67,58156,56708,65700,0,18824,0,0,0
o,0x00000000,1716941190.974558,172.16.1.2,20445,172.16.3.2,5101,11584,18824,0,64256,65728,6,6,4,1460,908,1,537920481,67,58156,56708,65700,0,18824,0,0,0
i,0x00000000,1716941191.004064,172.16.1.2,20445,172.16.3.2,5101,11584,18824,0,64256,65728,6,6,4,1460,911,1,537920480,63,58156,58156,65700,0,18824,0,0,0
o,0x00000000,1716941191.004072,172.16.1.2,20445,172.16.3.2,5101,11584,18824,0,64256,65728,6,6,4,1460,911,1,537920481,63,58156,58156,65700,0,18824,0,0,0
i,0x00000000,1716941191.015367,172.16.1.2,20445,172.16.3.2,5101,11584,18824,0,64256,65728,6,6,4,1460,922,1,537920480,62,58156,56708,65700,0,18824,0,0,0
i,0x00000000,1716941191.074768,172.16.1.2,20445,172.16.3.2,5101,11584,11584,0,62848,65728,6,6,4,1460,939,1,992,64,58156,58156,65700,0,15928,0,0,0
i,0x00000000,1716941191.094163,172.16.1.2,20445,172.16.3.2,5101,11584,11584,0,62848,65728,6,6,4,1460,939,1,992,64,58156,58156,65700,0,15928,0,0,0
o,0x00000000,1716941191.094174,172.16.1.2,20445,172.16.3.2,5101,5792,1448,0,62848,65728,6,6,4,1460,939,1,537920480,64,58156,58156,65700,0,15928,0,0,0
i,0x00000000,1716941191.124646,172.16.1.2,20445,172.16.3.2,5101,5792,1448,0,62848,65728,6,6,4,1460,939,1,537920480,64,58156,58156,65700,0,15928,0,0,0
o,0x00000000,1716941191.124654,172.16.1.2,20445,172.16.3.2,5101,5792,2896,0,62848,65728,6,6,4,1460,939,1,537920480,64,58156,58156,65700,0,15928,0,0,0
i,0x00000000,1716941191.145091,172.16.1.2,20445,172.16.3.2,5101,5792,2896,0,62848,65728,6,6,4,1460,939,1,537920480,64,58156,58156,65700,0,17376,0,0,0
i,0x00000000,1716941191.184241,172.16.1.2,20445,172.16.3.2,5101,5792,2896,0,62848,65728,6,6,4,1460,939,1,537920480,64,58156,58156,65700,0,17376,0,0,0
i,0x00000000,1716941191.184245,172.16.1.2,20445,172.16.3.2,5101,5792,2896,0,62848,65728,6,6,4,1460,939,1,537920480,64,58156,58156,65700,0,17376,0,0,0
o,0x00000000,1716941191.184248,172.16.1.2,20445,172.16.3.2,5101,5792,4344,0,62848,65728,6,6,4,1460,939,1,537920480,64,58156,58156,65700,0,17376,0,0,0
i,0x00000000,1716941191.184432,172.16.1.2,20445,172.16.3.2,5101,5792,4344,0,62848,65728,6,6,4,1460,939,1,537920480,64,58156,58156,65700,0,18824,0,0,0
o,0x00000000,1716941191.184434,172.16.1.2,20445,172.16.3.2,5101,5792,5792,0,62848,65728,6,6,4,1460,939,1,537920480,64,58156,58156,65700,0,18824,0,0,0
i,0x00000000,1716941191.234219,172.16.1.2,20445,172.16.3.2,5101,5792,5792,0,62848,65728,6,6,4,1460,939,1,537920480,64,58156,58156,65700,0,20272,0,0,0
o,0x00000000,1716941191.234231,172.16.1.2,20445,172.16.3.2,5101,5792,5804,0,49856,65728,6,6,4,1460,878,1,992,73,58156,42228,65700,0,4344,0,0,0
i,0x00000000,1716941191.273751,172.16.1.2,20445,172.16.3.2,5101,5792,5804,0,49856,65728,6,6,4,1460,878,1,992,73,58156,58156,65700,0,5792,0,0,0
o,0x00000000,1716941191.273769,172.16.1.2,20445,172.16.3.2,5101,5792,7264,0,65728,65728,6,6,4,1460,829,1,992,78,58156,56708,65700,0,4344,0,0,0
o,0x00000000,1716941191.274108,172.16.1.2,20445,172.16.3.2,5101,5792,7264,0,65728,65728,6,6,4,1460,829,1,992,78,58156,56708,65700,0,5792,0,0,0
i,0x00000000,1716941191.333877,172.16.1.2,20445,172.16.3.2,5101,5792,7264,0,65728,65728,6,6,4,1460,829,1,992,78,58156,56708,65700,0,7240,0,0,0
o,0x00000000,1716941191.333895,172.16.1.2,20445,172.16.3.2,5101,5792,8724,0,64256,65728,6,6,4,1460,786,1,992,79,58156,53812,65700,0,4344,0,0,0
o,0x00000000,1716941191.334312,172.16.1.2,20445,172.16.3.2,5101,5792,8724,0,64256,65728,6,6,4,1460,786,1,992,79,58156,53812,65700,0,5792,0,0,0
o,0x00000000,1716941191.334543,172.16.1.2,20445,172.16.3.2,5101,5792,8724,0,64256,65728,6,6,4,1460,786,1,992,79,58156,53812,65700,0,7240,0,0,0
i,0x00000000,1716941191.403954,172.16.1.2,20445,172.16.3.2,5101,5792,8724,0,64256,65728,6,6,4,1460,786,1,992,79,58156,58156,65700,0,8688,0,0,0
o,0x00000000,1716941191.404000,172.16.1.2,20445,172.16.3.2,5101,5792,8724,0,64256,65728,6,6,4,1460,756,1,992,77,58156,55260,65700,0,5792,0,0,0
o,0x00000000,1716941191.404301,172.16.1.2,20445,172.16.3.2,5101,5792,8724,0,64256,65728,6,6,4,1460,756,1,992,77,58156,55260,65700,0,7240,0,0,0
i,0x00000000,1716941191.453237,172.16.1.2,20445,172.16.3.2,5101,5792,8724,0,64256,65728,6,6,4,1460,756,1,992,77,58156,58156,65700,0,8688,0,0,0
o,0x00000000,1716941191.453256,172.16.1.2,20445,172.16.3.2,5101,5792,8724,0,65728,65728,6,6,4,1460,734,1,992,73,58156,56708,65700,0,7240,0,0,0
i,0x00000000,1716941191.493768,172.16.1.2,20445,172.16.3.2,5101,5792,8724,0,65728,65728,6,6,4,1460,734,1,992,73,58156,56708,65700,0,8688,0,0,0
o,0x00000000,1716941191.493786,172.16.1.2,20445,172.16.3.2,5101,5792,8724,0,64256,65728,6,6,4,1460,707,1,992,72,58156,53812,65700,0,5792,0,0,0
o,0x00000000,1716941191.494119,172.16.1.2,20445,172.16.3.2,5101,5792,8724,0,64256,65728,6,6,4,1460,707,1,992,72,58156,53812,65700,0,7240,0,0,0
i,0x00000000,1716941191.544132,172.16.1.2,20445,172.16.3.2,5101,5792,8724,0,64256,65728,6,6,4,1460,707,1,992,72,58156,58156,65700,0,8688,0,0,0
o,0x00000000,1716941191.544141,172.16.1.2,20445,172.16.3.2,5101,5792,10184,0,65728,65728,6,6,4,1460,703,1,992,65,58156,56708,65700,0,7240,0,0,0
o,0x00000000,1716941191.544379,172.16.1.2,20445,172.16.3.2,5101,5792,10184,0,65728,65728,6,6,4,1460,703,1,992,65,58156,56708,65700,0,8688,0,0,0
i,0x00000000,1716941191.553754,172.16.1.2,20445,172.16.3.2,5101,5792,10184,0,65728,65728,6,6,4,1460,703,1,992,65,58156,56708,65700,0,10136,0,0,0
o,0x00000000,1716941191.553761,172.16.1.2,20445,172.16.3.2,5101,5792,10184,0,64256,65728,6,6,4,1460,676,1,992,65,58156,53812,65700,0,7240,0,0,0
o,0x00000000,1716941191.554008,172.16.1.2,20445,172.16.3.2,5101,5792,10184,0,64256,65728,6,6,4,1460,676,1,992,65,58156,53812,65700,0,8688,0,0,0
i,0x00000000,1716941191.634211,172.16.1.2,20445,172.16.3.2,5101,5792,10184,0,64256,65728,6,6,4,1460,676,1,992,65,58156,58156,65700,0,10136,0,0,0
o,0x00000000,1716941191.634228,172.16.1.2,20445,172.16.3.2,5101,5792,10184,0,64256,65728,6,6,4,1460,664,1,992,62,58156,55260,65700,0,7240,0,0,0
o,0x00000000,1716941191.634469,172.16.1.2,20445,172.16.3.2,5101,5792,10184,0,64256,65728,6,6,4,1460,664,1,992,62,58156,55260,65700,0,8688,0,0,0
i,0x00000000,1716941191.693197,172.16.1.2,20445,172.16.3.2,5101,5792,10184,0,64256,65728,6,6,4,1460,664,1,992,62,58156,58156,65700,0,10136,0,0,0
o,0x00000000,1716941191.693215,172.16.1.2,20445,172.16.3.2,5101,5792,10184,0,65728,65728,6,6,4,1460,661,1,992,57,58156,56708,65700,0,8688,0,0,0
i,0x00000000,1716941191.744008,172.16.1.2,20445,172.16.3.2,5101,5792,10184,0,65728,65728,6,6,4,1460,661,1,992,57,58156,56708,65700,0,10136,0,0,0
o,0x00000000,1716941191.744021,172.16.1.2,20445,172.16.3.2,5101,5792,11644,0,64256,65728,6,6,4,1460,659,1,992,53,58156,53812,65700,0,7240,0,0,0
o,0x00000000,1716941191.744103,172.16.1.2,20445,172.16.3.2,5101,5792,11644,0,64256,65728,6,6,4,1460,659,1,992,53,58156,53812,65700,0,8688,0,0,0
o,0x00000000,1716941191.744180,172.16.1.2,20445,172.16.3.2,5101,5792,11644,0,64256,65728,6,6,4,1460,659,1,992,53,58156,53812,65700,0,10136,0,0,0
i,0x00000000,1716941191.744253,172.16.1.2,20445,172.16.3.2,5101,5792,11644,0,64256,65728,6,6,4,1460,659,1,992,53,58156,53812,65700,0,11584,0,0,0
o,0x00000000,1716941191.744256,172.16.1.2,20445,172.16.3.2,5101,5792,11644,0,64256,65728,6,6,4,1460,653,1,992,51,58156,50916,65700,0,8688,0,0,0
o,0x00000000,1716941191.744331,172.16.1.2,20445,172.16.3.2,5101,5792,11644,0,64256,65728,6,6,4,1460,653,1,992,51,58156,50916,65700,0,10136,0,0,0
i,0x00000000,1716941191.833248,172.16.1.2,20445,172.16.3.2,5101,5792,11644,0,64256,65728,6,6,4,1460,653,1,992,51,58156,58156,65700,0,11584,0,0,0
o,0x00000000,1716941191.833265,172.16.1.2,20445,172.16.3.2,5101,5792,11644,0,64256,65728,6,6,4,1460,652,1,992,49,58156,55260,65700,0,8688,0,0,0
o,0x00000000,1716941191.833514,172.16.1.2,20445,172.16.3.2,5101,5792,11644,0,64256,65728,6,6,4,1460,652,1,992,49,58156,55260,65700,0,10136,0,0,0
i,0x00000000,1716941191.893913,172.16.1.2,20445,172.16.3.2,5101,5792,11644,0,64256,65728,6,6,4,1460,652,1,992,49,58156,58156,65700,0,11584,0,0,0
o,0x00000000,1716941191.893929,172.16.1.2,20445,172.16.3.2,5101,5792,11644,0,65728,65728,6,6,4,1460,647,1,992,48,58156,56708,65700,0,10136,0,0,0
i,0x00000000,1716941191.922955,172.16.1.2,20445,172.16.3.2,5101,5792,11644,0,65728,65728,6,6,4,1460,647,1,992,48,58156,56708,65700,0,11584,0,0,0
o,0x00000000,1716941191.922971,172.16.1.2,20445,172.16.3.2,5101,5792,11644,0,64256,65728,6,6,4,1460,639,1,992,47,58156,53812,65700,0,8688,0,0,0
o,0x00000000,1716941191.923214,172.16.1.2,20445,172.16.3.2,5101,5792,11644,0,64256,65728,6,6,4,1460,639,1,992,47,58156,53812,65700,0,10136,0,0,0
i,0x00000000,1716941191.953437,172.16.1.2,20445,172.16.3.2,5101,5792,11644,0,64256,65728,6,6,4,1460,639,1,992,47,58156,58156,65700,0,11584,0,0,0
o,0x00000000,1716941191.953444,172.16.1.2,20445,172.16.3.2,5101,5792,13104,0,64256,65728,6,6,4,1460,644,1,992,47,58156,55260,65700,0,8688,0,0,0
o,0x00000000,1716941191.953701,172.16.1.2,20445,172.16.3.2,5101,5792,13104,0,64256,65728,6,6,4,1460,644,1,992,47,58156,55260,65700,0,10136,0,0,0
o,0x00000000,1716941191.953929,172.16.1.2,20445,172.16.3.2,5101,5792,13104,0,64256,65728,6,6,4,1460,644,1,992,47,58156,55260,65700,0,11584,0,0,0
i,0x00000000,1716941192.014384,172.16.1.2,20445,172.16.3.2,5101,5792,13104,0,64256,65728,6,6,4,1460,644,1,992,47,58156,58156,65700,0,13032,0,0,0
o,0x00000000,1716941192.014407,172.16.1.2,20445,172.16.3.2,5101,5792,13104,0,64256,65728,6,6,4,1460,668,1,992,52,58156,55260,65700,0,10136,0,0,0
o,0x00000000,1716941192.014813,172.16.1.2,20445,172.16.3.2,5101,5792,13104,0,64256,65728,6,6,4,1460,668,1,992,52,58156,55260,65700,0,11584,0,0,0
i,0x00000000,1716941192.062607,172.16.1.2,20445,172.16.3.2,5101,5792,13104,0,64256,65728,6,6,4,1460,668,1,992,52,58156,58156,65700,0,13032,0,0,0
o,0x00000000,1716941192.062631,172.16.1.2,20445,172.16.3.2,5101,5792,13104,0,65728,65728,6,6,4,1460,677,1,992,52,58156,56708,65700,0,11584,0,0,0
i,0x00000000,1716941192.113946,172.16.1.2,20445,172.16.3.2,5101,5792,13104,0,65728,65728,6,6,4,1460,677,1,992,52,58156,56708,65700,0,13032,0,0,0
o,0x00000000,1716941192.113965,172.16.1.2,20445,172.16.3.2,5101,5792,13104,0,65728,65728,6,6,4,1460,681,1,992,50,58156,55260,65700,0,11584,0,0,0
i,0x00000000,1716941192.122734,172.16.1.2,20445,172.16.3.2,5101,5792,13104,0,65728,65728,6,6,4,1460,681,1,992,50,58156,58156,65700,0,13032,0,0,0
o,0x00000000,1716941192.122743,172.16.1.2,20445,172.16.3.2,5101,5792,13104,0,64256,65728,6,6,4,1460,676,1,992,49,58156,55260,65700,0,10136,0,0,0
o,0x00000000,1716941192.123091,172.16.1.2,20445,172.16.3.2,5101,5792,13104,0,64256,65728,6,6,4,1460,676,1,992,49,58156,55260,65700,0,11584,0,0,0
i,0x00000000,1716941192.173063,172.16.1.2,20445,172.16.3.2,5101,5792,13104,0,64256,65728,6,6,4,1460,676,1,992,49,58156,58156,65700,0,13032,0,0,0
o,0x00000000,1716941192.173072,172.16.1.2,20445,172.16.3.2,5101,5792,13104,0,65728,65728,6,6,4,1460,680,1,992,48,58156,56708,65700,0,11584,0,0,0
i,0x00000000,1716941192.192730,172.16.1.2,20445,172.16.3.2,5101,5792,13104,0,65728,65728,6,6,4,1460,680,1,992,48,58156,56708,65700,0,13032,0,0,0
o,0x00000000,1716941192.192736,172.16.1.2,20445,172.16.3.2,5101,5792,14564,0,64256,65728,6,6,4,1460,691,1,992,49,58156,53812,65700,0,10136,0,0,0
o,0x00000000,1716941192.192977,172.16.1.2,20445,172.16.3.2,5101,5792,14564,0,64256,65728,6,6,4,1460,691,1,992,49,58156,53812,65700,0,11584,0,0,0
o,0x00000000,1716941192.193286,172.16.1.2,20445,172.16.3.2,5101,5792,14564,0,64256,65728,6,6,4,1460,691,1,992,49,58156,53812,65700,0,13032,0,0,0
i,0x00000000,1716941192.223040,172.16.1.2,20445,172.16.3.2,5101,5792,14564,0,64256,65728,6,6,4,1460,691,1,992,49,58156,58156,65700,0,14480,0,0,0
o,0x00000000,1716941192.223045,172.16.1.2,20445,172.16.3.2,5101,5792,14564,0,64256,65728,6,6,4,1460,689,1,992,48,58156,55260,65700,0,11584,0,0,0
o,0x00000000,1716941192.223362,172.16.1.2,20445,172.16.3.2,5101,5792,14564,0,64256,65728,6,6,4,1460,689,1,992,48,58156,55260,65700,0,13032,0,0,0
i,0x00000000,1716941192.282770,172.16.1.2,20445,172.16.3.2,5101,5792,14564,0,64256,65728,6,6,4,1460,689,1,992,48,58156,58156,65700,0,14480,0,0,0
o,0x00000000,1716941192.282782,172.16.1.2,20445,172.16.3.2,5101,5792,14564,0,64256,65728,6,6,4,1460,691,1,992,47,58156,55260,65700,0,11584,0,0,0
o,0x00000000,1716941192.283033,172.16.1.2,20445,172.16.3.2,5101,5792,14564,0,64256,65728,6,6,4,1460,691,1,992,47,58156,55260,65700,0,13032,0,0,0
i,0x00000000,1716941192.322323,172.16.1.2,20445,172.16.3.2,5101,5792,14564,0,64256,65728,6,6,4,1460,691,1,992,47,58156,58156,65700,0,14480,0,0,0
o,0x00000000,1716941192.322340,172.16.1.2,20445,172.16.3.2,5101,5792,14564,0,64256,65728,6,6,4,1460,685,1,992,47,58156,55260,65700,0,11584,0,0,0
o,0x00000000,1716941192.322590,172.16.1.2,20445,172.16.3.2,5101,5792,14564,0,64256,65728,6,6,4,1460,685,1,992,47,58156,55260,65700,0,13032,0,0,0
i,0x00000000,1716941192.413025,172.16.1.2,20445,172.16.3.2,5101,5792,14564,0,64256,65728,6,6,4,1460,685,1,992,47,58156,58156,65700,0,14480,0,0,0
o,0x00000000,1716941192.413080,172.16.1.2,20445,172.16.3.2,5101,5792,14564,0,64256,65728,6,6,4,1460,696,1,992,49,58156,55260,65700,0,11584,0,0,0
o,0x00000000,1716941192.413395,172.16.1.2,20445,172.16.3.2,5101,5792,14564,0,64256,65728,6,6,4,1460,696,1,992,49,58156,55260,65700,0,13032,0,0,0
i,0x00000000,1716941192.462586,172.16.1.2,20445,172.16.3.2,5101,5792,14564,0,64256,65728,6,6,4,1460,696,1,992,49,58156,58156,65700,0,14480,0,0,0
o,0x00000000,1716941192.462612,172.16.1.2,20445,172.16.3.2,5101,5792,16024,0,65728,65728,6,6,4,1460,717,1,992,53,58156,56708,65700,0,13032,0,0,0
o,0x00000000,1716941192.462731,172.16.1.2,20445,172.16.3.2,5101,5792,16024,0,65728,65728,6,6,4,1460,717,1,992,53,58156,56708,65700,0,14480,0,0,0
i,0x00000000,1716941192.462837,172.16.1.2,20445,172.16.3.2,5101,5792,16024,0,65728,65728,6,6,4,1460,717,1,992,53,58156,56708,65700,0,15928,0,0,0
o,0x00000000,1716941192.462842,172.16.1.2,20445,172.16.3.2,5101,5792,16024,0,64256,65728,6,6,4,1460,736,1,992,56,58156,53812,65700,0,13032,0,0,0
o,0x00000000,1716941192.462941,172.16.1.2,20445,172.16.3.2,5101,5792,16024,0,64256,65728,6,6,4,1460,736,1,992,56,58156,53812,65700,0,14480,0,0,0
i,0x00000000,1716941192.522202,172.16.1.2,20445,172.16.3.2,5101,5792,16024,0,64256,65728,6,6,4,1460,736,1,992,56,58156,58156,65700,0,15928,0,0,0
o,0x00000000,1716941192.522222,172.16.1.2,20445,172.16.3.2,5101,5792,16024,0,65728,65728,6,6,4,1460,764,1,992,60,58156,56708,65700,0,14480,0,0,0
i,0x00000000,1716941192.522315,172.16.1.2,20445,172.16.3.2,5101,5792,16024,0,65728,65728,6,6,4,1460,764,1,992,60,58156,56708,65700,0,15928,0,0,0
o,0x00000000,1716941192.522318,172.16.1.2,20445,172.16.3.2,5101,5792,16024,0,64256,65728,6,6,4,1460,765,1,992,56,58156,53812,65700,0,13032,0,0,0
o,0x00000000,1716941192.522397,172.16.1.2,20445,172.16.3.2,5101,5792,16024,0,64256,65728,6,6,4,1460,765,1,992,56,58156,53812,65700,0,14480,0,0,0
i,0x00000000,1716941192.572785,172.16.1.2,20445,172.16.3.2,5101,5792,16024,0,64256,65728,6,6,4,1460,765,1,992,56,58156,58156,65700,0,15928,0,0,0
o,0x00000000,1716941192.572806,172.16.1.2,20445,172.16.3.2,5101,5792,16024,0,64256,65728,6,6,4,1460,766,1,992,53,58156,55260,65700,0,13032,0,0,0
o,0x00000000,1716941192.573078,172.16.1.2,20445,172.16.3.2,5101,5792,16024,0,64256,65728,6,6,4,1460,766,1,992,53,58156,55260,65700,0,14480,0,0,0
i,0x00000000,1716941192.652825,172.16.1.2,20445,172.16.3.2,5101,5792,16024,0,64256,65728,6,6,4,1460,766,1,992,53,58156,58156,65700,0,15928,0,0,0
o,0x00000000,1716941192.652852,172.16.1.2,20445,172.16.3.2,5101,5792,16024,0,64256,65728,6,6,4,1460,763,1,992,52,58156,55260,65700,0,13032,0,0,0
o,0x00000000,1716941192.653110,172.16.1.2,20445,172.16.3.2,5101,5792,16024,0,64256,65728,6,6,4,1460,763,1,992,52,58156,55260,65700,0,14480,0,0,0
i,0x00000000,1716941192.693900,172.16.1.2,20445,172.16.3.2,5101,5792,16024,0,64256,65728,6,6,4,1460,763,1,992,52,58156,58156,65700,0,15928,0,0,0
o,0x00000000,1716941192.693918,172.16.1.2,20445,172.16.3.2,5101,5792,16024,0,65728,65728,6,6,4,1460,760,1,992,50,58156,56708,65700,0,14480,0,0,0
i,0x00000000,1716941192.722466,172.16.1.2,20445,172.16.3.2,5101,5792,16024,0,65728,65728,6,6,4,1460,760,1,992,50,58156,56708,65700,0,15928,0,0,0
o,0x00000000,1716941192.722488,172.16.1.2,20445,172.16.3.2,5101,5792,17484,0,64256,65728,6,6,4,1460,769,1,992,51,58156,53812,65700,0,13032,0,0,0
o,0x00000000,1716941192.722751,172.16.1.2,20445,172.16.3.2,5101,5792,17484,0,64256,65728,6,6,4,1460,769,1,992,51,58156,53812,65700,0,14480,0,0,0
o,0x00000000,1716941192.722989,172.16.1.2,20445,172.16.3.2,5101,5792,17484,0,64256,65728,6,6,4,1460,769,1,992,51,58156,53812,65700,0,15928,0,0,0
i,0x00000000,1716941192.772157,172.16.1.2,20445,172.16.3.2,5101,5792,17484,0,64256,65728,6,6,4,1460,769,1,992,51,58156,58156,65700,0,17376,0,0,0
o,0x00000000,1716941192.772173,172.16.1.2,20445,172.16.3.2,5101,5792,17484,0,64256,65728,6,6,4,1460,797,1,992,57,58156,55260,65700,0,14480,0,0,0
o,0x00000000,1716941192.772415,172.16.1.2,20445,172.16.3.2,5101,5792,17484,0,64256,65728,6,6,4,1460,797,1,992,57,58156,55260,65700,0,15928,0,0,0
i,0x00000000,1716941192.792423,172.16.1.2,20445,172.16.3.2,5101,5792,17484,0,64256,65728,6,6,4,1460,797,1,992,57,58156,58156,65700,0,17376,0,0,0
o,0x00000000,1716941192.792434,172.16.1.2,20445,172.16.3.2,5101,5792,17484,0,64256,65728,6,6,4,1460,802,1,992,56,58156,55260,65700,0,14480,0,0,0
o,0x00000000,1716941192.792679,172.16.1.2,20445,172.16.3.2,5101,5792,17484,0,64256,65728,6,6,4,1460,802,1,992,56,58156,55260,65700,0,15928,0,0,0
i,0x00000000,1716941192.851743,172.16.1.2,20445,172.16.3.2,5101,5792,17484,0,64256,65728,6,6,4,1460,802,1,992,56,58156,58156,65700,0,17376,0,0,0
o,0x00000000,1716941192.851764,172.16.1.2,20445,172.16.3.2,5101,5792,17484,0,64256,65728,6,6,4,1460,810,1,992,55,58156,55260,65700,0,14480,0,0,0
o,0x00000000,1716941192.852114,172.16.1.2,20445,172.16.3.2,5101,5792,17484,0,64256,65728,6,6,4,1460,810,1,992,55,58156,55260,65700,0,15928,0,0,0
i,0x00000000,1716941192.912034,172.16.1.2,20445,172.16.3.2,5101,5792,17484,0,64256,65728,6,6,4,1460,810,1,992,55,58156,58156,65700,0,17376,0,0,0
o,0x00000000,1716941192.912089,172.16.1.2,20445,172.16.3.2,5101,5792,17484,0,64256,65728,6,6,4,1460,813,1,992,53,58156,55260,65700,0,14480,0,0,0
o,0x00000000,1716941192.912495,172.16.1.2,20445,172.16.3.2,5101,5792,17484,0,64256,65728,6,6,4,1460,813,1,992,53,58156,55260,65700,0,15928,0,0,0
i,0x00000000,1716941192.992172,172.16.1.2,20445,172.16.3.2,5101,5792,17484,0,64256,65728,6,6,4,1460,813,1,992,53,58156,58156,65700,0,17376,0,0,0
o,0x00000000,1716941192.992211,172.16.1.2,20445,172.16.3.2,5101,5792,17484,0,64256,65728,6,6,4,1460,828,1,992,56,58156,55260,65700,0,14480,0,0,0
o,0x00000000,1716941192.992854,172.16.1.2,20445,172.16.3.2,5101,5792,17484,0,64256,65728,6,6,4,1460,828,1,992,56,58156,55260,65700,0,15928,0,0,0
i,0x00000000,1716941193.013334,172.16.1.2,20445,172.16.3.2,5101,5792,17484,0,64256,65728,6,6,4,1460,828,1,992,56,58156,58156,65700,0,17376,0,0,0
o,0x00000000,1716941193.013413,172.16.1.2,20445,172.16.3.2,5101,5792,18944,0,64256,65728,6,6,4,1460,841,1,992,57,58156,55260,65700,0,14480,0,0,0
o,0x00000000,1716941193.013827,172.16.1.2,20445,172.16.3.2,5101,5792,18944,0,64256,65728,6,6,4,1460,841,1,992,57,58156,55260,65700,0,15928,0,0,0
o,0x00000000,1716941193.014172,172.16.1.2,20445,172.16.3.2,5101,5792,18944,0,64256,65728,6,6,4,1460,841,1,992,57,58156,55260,65700,0,17376,0,0,0
i,0x00000000,1716941193.072333,172.16.1.2,20445,172.16.3.2,5101,5792,18944,0,64256,65728,6,6,4,1460,841,1,992,57,58156,58156,65700,0,18824,0,0,0
o,0x00000000,1716941193.072358,172.16.1.2,20445,172.16.3.2,5101,5792,18944,0,64256,65728,6,6,4,1460,856,1,992,58,58156,55260,65700,0,15928,0,0,0
o,0x00000000,1716941193.072724,172.16.1.2,20445,172.16.3.2,5101,5792,18944,0,64256,65728,6,6,4,1460,856,1,992,58,58156,55260,65700,0,17376,0,0,0
i,0x00000000,1716941193.091863,172.16.1.2,20445,172.16.3.2,5101,5792,18944,0,64256,65728,6,6,4,1460,856,1,992,58,58156,58156,65700,0,18824,0,0,0
o,0x00000000,1716941193.091876,172.16.1.2,20445,172.16.3.2,5101,5792,18944,0,64256,65728,6,6,4,1460,869,1,992,59,58156,55260,65700,0,15928,0,0,0
o,0x00000000,1716941193.092116,172.16.1.2,20445,172.16.3.2,5101,5792,18944,0,64256,65728,6,6,4,1460,869,1,992,59,58156,55260,65700,0,17376,0,0,0
i,0x00000000,1716941193.132207,172.16.1.2,20445,172.16.3.2,5101,5792,18944,0,64256,65728,6,6,4,1460,869,1,992,59,58156,58156,65700,0,18824,0,0,0
o,0x00000000,1716941193.132216,172.16.1.2,20445,172.16.3.2,5101,5792,18944,0,64256,65728,6,6,4,1460,873,1,992,57,58156,55260,65700,0,15928,0,0,0
o,0x00000000,1716941193.132452,172.16.1.2,20445,172.16.3.2,5101,5792,18944,0,64256,65728,6,6,4,1460,873,1,992,57,58156,55260,65700,0,17376,0,0,0
i,0x00000000,1716941193.231418,172.16.1.2,20445,172.16.3.2,5101,5792,18944,0,64256,65728,6,6,4,1460,873,1,992,57,58156,58156,65700,0,18824,0,0,0
o,0x00000000,1716941193.231444,172.16.1.2,20445,172.16.3.2,5101,5792,18944,0,64256,65728,6,6,4,1460,892,1,992,60,58156,55260,65700,0,15928,0,0,0
o,0x00000000,1716941193.231845,172.16.1.2,20445,172.16.3.2,5101,5792,18944,0,64256,65728,6,6,4,1460,892,1,992,60,58156,55260,65700,0,17376,0,0,0
i,0x00000000,1716941193.291450,172.16.1.2,20445,172.16.3.2,5101,5792,18944,0,64256,65728,6,6,4,1460,892,1,992,60,58156,58156,65700,0,18824,0,0,0
o,0x00000000,1716941193.291469,172.16.1.2,20445,172.16.3.2,5101,5792,18944,0,65728,65728,6,6,4,1460,901,1,992,59,58156,56708,65700,0,17376,0,0,0
i,0x00000000,1716941193.311192,172.16.1.2,20445,172.16.3.2,5101,5792,18944,0,65728,65728,6,6,4,1460,901,1,992,59,58156,56708,65700,0,18824,0,0,0
o,0x00000000,1716941193.311214,172.16.1.2,20445,172.16.3.2,5101,5792,18944,0,64256,65728,6,6,4,1460,917,1,992,61,58156,53812,65700,0,15928,0,0,0
o,0x00000000,1716941193.311553,172.16.1.2,20445,172.16.3.2,5101,5792,18944,0,64256,65728,6,6,4,1460,917,1,992,61,58156,53812,65700,0,17376,0,0,0
i,0x00000000,1716941193.342357,172.16.1.2,20445,172.16.3.2,5101,5792,18944,0,64256,65728,6,6,4,1460,917,1,992,61,58156,58156,65700,0,18824,0,0,0
o,0x00000000,1716941193.342365,172.16.1.2,20445,172.16.3.2,5101,5792,20404,0,64256,65728,6,6,4,1460,931,1,992,62,58156,55260,65700,0,15928,0,0,0
o,0x00000000,1716941193.342603,172.16.1.2,20445,172.16.3.2,5101,5792,20404,0,64256,65728,6,6,4,1460,931,1,992,62,58156,55260,65700,0,17376,0,0,0
o,0x00000000,1716941193.342837,172.16.1.2,20445,172.16.3.2,5101,5792,20404,0,64256,65728,6,6,4,1460,931,1,992,62,58156,55260,65700,0,18824,0,0,0
i,0x00000000,1716941193.381541,172.16.1.2,20445,172.16.3.2,5101,5792,20404,0,64256,65728,6,6,4,1460,931,1,992,62,58156,58156,65700,0,20272,0,0,0
o,0x00000000,1716941193.381557,172.16.1.2,20445,172.16.3.2,5101,5792,20404,0,64256,65728,6,6,4,1460,935,1,992,60,58156,55260,65700,0,17376,0,0,0
o,0x00000000,1716941193.381819,172.16.1.2,20445,172.16.3.2,5101,5792,20404,0,64256,65728,6,6,4,1460,935,1,992,60,58156,55260,65700,0,18824,0,0,0
i,0x00000000,1716941193.402070,172.16.1.2,20445,172.16.3.2,5101,5792,20404,0,64256,65728,6,6,4,1460,935,1,992,60,58156,56528,65700,0,20272,0,0,0
o,0x00000000,1716941193.402079,172.16.1.2,20445,172.16.3.2,5101,5792,20404,0,64256,65728,6,6,4,1460,943,1,992,59,58156,53632,65700,0,17376,0,0,0
o,0x00000000,1716941193.402324,172.16.1.2,20445,172.16.3.2,5101,5792,20404,0,64256,65728,6,6,4,1460,943,1,992,59,58156,53632,65700,0,18824,0,0,0
i,0x00000000,1716941193.452141,172.16.1.2,20445,172.16.3.2,5101,5792,20404,0,64256,65728,6,6,4,1460,943,1,992,59,58156,58156,65700,0,20272,0,0,0
o,0x00000000,1716941193.452158,172.16.1.2,20445,172.16.3.2,5101,5792,20404,0,64256,65728,6,6,4,1460,954,1,992,60,58156,55260,65700,0,17376,0,0,0
o,0x00000000,1716941193.452405,172.16.1.2,20445,172.16.3.2,5101,5792,20404,0,64256,65728,6,6,4,1460,954,1,992,60,58156,55260,65700,0,18824,0,0,0
i,0x00000000,1716941193.561881,172.16.1.2,20445,172.16.3.2,5101,5792,20404,0,64256,65728,6,6,4,1460,954,1,992,60,58156,58156,65700,0,20272,0,0,0
o,0x00000000,1716941193.561900,172.16.1.2,20445,172.16.3.2,5101,5792,20404,0,64256,65728,6,6,4,1460,963,1,992,60,58156,55260,65700,0,17376,0,0,0
o,0x00000000,1716941193.562138,172.16.1.2,20445,172.16.3.2,5101,5792,20404,0,64256,65728,6,6,4,1460,963,1,992,60,58156,55260,65700,0,18824,0,0,0
i,0x00000000,1716941193.621303,172.16.1.2,20445,172.16.3.2,5101,5792,20404,0,64256,65728,6,6,4,1460,963,1,992,60,58156,58156,65700,0,20272,0,0,0
o,0x00000000,1716941193.621320,172.16.1.2,20445,172.16.3.2,5101,5792,20404,0,65728,65728,6,6,4,1460,975,1,992,61,58156,56708,65700,0,18824,0,0,0
i,0x00000000,1716941193.641410,172.16.1.2,20445,172.16.3.2,5101,5792,20404,0,65728,65728,6,6,4,1460,975,1,992,61,58156,56708,65700,0,20272,0,0,0
o,0x00000000,1716941193.641419,172.16.1.2,20445,172.16.3.2,5101,5792,20404,0,64256,65728,6,6,4,1460,986,1,992,61,58156,53812,65700,0,17376,0,0,0
o,0x00000000,1716941193.641662,172.16.1.2,20445,172.16.3.2,5101,5792,20404,0,64256,65728,6,6,4,1460,986,1,992,61,58156,53812,65700,0,18824,0,0,0
i,0x00000000,1716941193.671543,172.16.1.2,20445,172.16.3.2,5101,5792,20404,0,64256,65728,6,6,4,1460,986,1,992,61,58156,58156,65700,0,20272,0,0,0
o,0x00000000,1716941193.671565,172.16.1.2,20445,172.16.3.2,5101,5792,21864,0,64256,65728,6,6,4,1460,995,1,992,61,58156,55260,65700,0,17376,0,0,0
o,0x00000000,1716941193.671913,172.16.1.2,20445,172.16.3.2,5101,5792,21864,0,64256,65728,6,6,4,1460,995,1,992,61,58156,55260,65700,0,18824,0,0,0
o,0x00000000,1716941193.672152,172.16.1.2,20445,172.16.3.2,5101,5792,21864,0,64256,65728,6,6,4,1460,995,1,992,61,58156,55260,65700,0,20272,0,0,0
i,0x00000000,1716941193.711687,172.16.1.2,20445,172.16.3.2,5101,5792,21864,0,64256,65728,6,6,4,1460,995,1,992,61,58156,58156,65700,0,21720,0,0,0
o,0x00000000,1716941193.711702,172.16.1.2,20445,172.16.3.2,5101,5792,21864,0,64256,65728,6,6,4,1460,1015,1,992,64,58156,55260,65700,0,18824,0,0,0
o,0x00000000,1716941193.711941,172.16.1.2,20445,172.16.3.2,5101,5792,21864,0,64256,65728,6,6,4,1460,1015,1,992,64,58156,55260,65700,0,20272,0,0,0
i,0x00000000,1716941193.731730,172.16.1.2,20445,172.16.3.2,5101,5792,21864,0,64256,65728,6,6,4,1460,1015,1,992,64,58156,58156,65700,0,21720,0,0,0
o,0x00000000,1716941193.731740,172.16.1.2,20445,172.16.3.2,5101,5792,21864,0,64256,65728,6,6,4,1460,1029,1,992,65,58156,55260,65700,0,18824,0,0,0
o,0x00000000,1716941193.732040,172.16.1.2,20445,172.16.3.2,5101,5792,21864,0,64256,65728,6,6,4,1460,1029,1,992,65,58156,55260,65700,0,20272,0,0,0
i,0x00000000,1716941193.781000,172.16.1.2,20445,172.16.3.2,5101,5792,21864,0,64256,65728,6,6,4,1460,1029,1,992,65,58156,58156,65700,0,21720,0,0,0
o,0x00000000,1716941193.781011,172.16.1.2,20445,172.16.3.2,5101,5792,21864,0,65728,65728,6,6,4,1460,1053,1,992,68,58156,56708,65700,0,20272,0,0,0
i,0x00000000,1716941193.800642,172.16.1.2,20445,172.16.3.2,5101,5792,21864,0,65728,65728,6,6,4,1460,1053,1,992,68,58156,56708,65700,0,21720,0,0,0
o,0x00000000,1716941193.800652,172.16.1.2,20445,172.16.3.2,5101,5792,21864,0,64256,65728,6,6,4,1460,1058,1,992,66,58156,53812,65700,0,18824,0,0,0
o,0x00000000,1716941193.800894,172.16.1.2,20445,172.16.3.2,5101,5792,21864,0,64256,65728,6,6,4,1460,1058,1,992,66,58156,53812,65700,0,20272,0,0,0
i,0x00000000,1716941193.892552,172.16.1.2,20445,172.16.3.2,5101,5792,21864,0,64256,65728,6,6,4,1460,1058,1,992,66,58156,58156,65700,0,21720,0,0,0
o,0x00000000,1716941193.892591,172.16.1.2,20445,172.16.3.2,5101,5792,21864,0,64256,65728,6,6,4,1460,1058,1,992,63,58156,55260,65700,0,18824,0,0,0
o,0x00000000,1716941193.893043,172.16.1.2,20445,172.16.3.2,5101,5792,21864,0,64256,65728,6,6,4,1460,1058,1,992,63,58156,55260,65700,0,20272,0,0,0
i,0x00000000,1716941193.951408,172.16.1.2,20445,172.16.3.2,5101,5792,21864,0,64256,65728,6,6,4,1460,1058,1,992,63,58156,58156,65700,0,21720,0,0,0
o,0x00000000,1716941193.951426,172.16.1.2,20445,172.16.3.2,5101,5792,21864,0,64256,65728,6,6,4,1460,1054,1,992,61,58156,55260,65700,0,18824,0,0,0
o,0x00000000,1716941193.951717,172.16.1.2,20445,172.16.3.2,5101,5792,21864,0,64256,65728,6,6,4,1460,1054,1,992,61,58156,55260,65700,0,20272,0,0,0
i,0x00000000,1716941193.981641,172.16.1.2,20445,172.16.3.2,5101,5792,21864,0,64256,65728,6,6,4,1460,1054,1,992,61,58156,58156,65700,0,21720,0,0,0
