enable_time_secs=1716940778	enable_time_usecs=083539	siftrver=1.2.4	hz=100	tcp_rtt_scale=32	sysname=FreeBSD	sysver=1301000	ipmode=4
o,0x00000000,1716940778.083600,10.0.2.15,22,10.0.2.2,61156,1073725440,17298,0,65535,65700,0,0,4,1460,1,0,4,24,33580,44,65700,0,0,0,0,0
o,0x00000000,1716940778.084032,10.0.2.15,22,10.0.2.2,61156,1073725440,17298,0,65535,65700,0,0,4,1460,1,0,4,24,33580,80,65700,0,44,0,0,0
i,0x00000000,1716940778.084313,10.0.2.15,22,10.0.2.2,61156,1073725440,17298,0,65535,65700,0,0,4,1460,1,0,4,24,33580,80,65700,0,80,0,0,0
i,0x00000000,1716940778.084388,10.0.2.15,22,10.0.2.2,61156,1073725440,17342,0,65535,65700,0,0,4,1460,1,0,4,24,33580,36,65700,0,36,0,0,0
o,0x00000000,1716940778.084460,10.0.2.15,22,10.0.2.2,61156,1073725440,17378,0,65535,65700,0,0,4,1460,1,0,4,24,33580,36,65700,0,0,0,0,0
i,0x00000000,1716940778.084884,10.0.2.15,22,10.0.2.2,61156,1073725440,17378,0,65535,65700,0,0,4,1460,1,0,4,24,33580,36,65700,0,36,0,0,0
o,0x00000000,1716940778.085295,10.0.2.15,22,10.0.2.2,61156,1073725440,17414,0,65535,65700,0,0,4,1460,1,0,4,24,33580,176,65700,0,0,0,0,0
i,0x00000000,1716940778.085971,10.0.2.15,22,10.0.2.2,61156,1073725440,17414,0,65535,65700,0,0,4,1460,1,0,4,24,33580,176,65700,0,176,0,0,0
i,0x00000000,1716940778.089655,10.0.2.15,22,10.0.2.2,61156,1073725440,17590,0,65535,65700,0,0,4,1460,1,0,4,24,33580,0,65700,0,0,0,0,0
i,0x00000000,1716940778.089677,10.0.2.15,22,10.0.2.2,61156,1073725440,17590,0,65535,65700,0,0,4,1460,1,0,4,24,33580,0,65700,36,0,0,0,0
o,0x00000000,1716940778.089687,10.0.2.15,22,10.0.2.2,61156,1073725440,17590,0,65535,65700,0,0,4,1460,1,0,5,24,33580,0,65700,96,0,0,0,0
i,0x00000000,1716940778.089789,10.0.2.15,22,10.0.2.2,61156,1073725440,17590,0,65535,65700,0,0,4,1460,1,0,4,24,33580,0,65700,96,0,0,0,0
o,0x00000000,1716940778.089795,10.0.2.15,22,10.0.2.2,61156,1073725440,17590,0,65535,65604,0,0,5,1460,1,0,7,24,33580,0,65700,96,0,0,0,0
o,0x00000000,1716940778.091437,10.0.2.15,22,10.0.2.2,61156,1073725440,17590,0,65535,65604,0,0,8,1460,1,0,4,24,33580,0,65700,0,0,0,0,0
i,0x00000000,1716940778.092058,10.0.2.15,22,10.0.2.2,61156,1073725440,17590,0,65535,65604,0,0,8,1460,1,0,20,24,33580,0,65700,0,1,0,0,0
i,0x00000000,1716940780.250733,10.0.2.15,22,10.0.2.2,61162,1073725440,14600,0,65535,65700,0,0,4,1460,1,0,0,27,33580,0,65700,0,0,0,0,0
o,0x00000000,1716940780.256735,10.0.2.15,22,10.0.2.2,61162,1073725440,14600,0,65535,65700,0,0,4,1460,1,0,0,27,33580,38,65700,41,0,0,0,0
i,0x00000000,1716940780.257405,10.0.2.15,22,10.0.2.2,61162,1073725440,14600,0,65535,65700,0,0,4,1460,1,0,0,27,33580,38,65700,0,38,0,0,0
o,0x00000000,1716940780.258084,10.0.2.15,22,10.0.2.2,61162,1073725440,14638,0,65535,65700,0,0,4,1460,1,0,0,24,33580,1056,65700,0,0,0,0,0
i,0x00000000,1716940780.258538,10.0.2.15,22,10.0.2.2,61162,1073725440,14638,0,65535,65700,0,0,4,1460,1,0,0,24,33580,1056,65700,0,1056,0,0,0
i,0x00000000,1716940780.258542,10.0.2.15,22,10.0.2.2,61162,1073725440,14638,0,65535,65700,0,0,4,1460,1,0,0,24,33580,1056,65700,1460,1056,0,0,0
o,0x00000000,1716940780.258544,10.0.2.15,22,10.0.2.2,61162,1073725440,14638,0,65535,65700,0,0,4,1460,1,0,1,24,33580,1056,65700,1536,1056,0,0,0
i,0x00000000,1716940780.258633,10.0.2.15,22,10.0.2.2,61162,1073725440,14638,0,65535,65700,0,0,4,1460,1,0,0,24,33580,1056,65700,1536,1056,0,0,0
i,0x00000000,1716940780.260219,10.0.2.15,22,10.0.2.2,61162,1073725440,15694,0,65535,65700,0,0,4,1460,1,0,0,24,33580,0,65700,0,0,0,0,0
o,0x00000000,1716940780.262705,10.0.2.15,22,10.0.2.2,61162,1073725440,15694,0,65535,65700,0,0,4,1460,1,0,0,24,33580,484,65700,0,0,0,0,0
i,0x00000000,1716940780.263618,10.0.2.15,22,10.0.2.2,61162,1073725440,15694,0,65535,65700,0,0,4,1460,1,0,0,24,33580,484,65700,0,484,0,0,0
i,0x00000000,1716940780.268009,10.0.2.15,22,10.0.2.2,61162,1073725440,16178,0,65535,65700,0,0,4,1460,1,0,0,24,33580,0,65700,0,0,0,0,0
i,0x00000000,1716940780.272176,10.0.2.15,22,10.0.2.2,61162,1073725440,16178,0,65535,65700,0,0,4,1460,1,0,0,24,33580,0,65700,0,0,0,0,0
o,0x00000000,1716940780.272180,10.0.2.15,22,10.0.2.2,61162,1073725440,16178,0,65535,65700,0,0,4,1460,1,0,1,24,33580,0,65700,44,0,0,0,0
o,0x00000000,1716940780.272318,10.0.2.15,22,10.0.2.2,61162,1073725440,16178,0,65535,65700,0,0,4,1460,1,0,0,24,33580,44,65700,0,0,0,0,0
i,0x00000000,1716940780.275148,10.0.2.15,22,10.0.2.2,61162,1073725440,16178,0,65535,65700,0,0,4,1460,1,0,0,24,33580,44,65700,0,44,0,0,0
i,0x00000000,1716940780.275575,10.0.2.15,22,10.0.2.2,61162,1073725440,16222,0,65535,65700,0,0,4,1460,1,0,0,24,33580,0,65700,0,0,0,0,0
o,0x00000000,1716940780.285260,10.0.2.15,22,10.0.2.2,61162,1073725440,16222,0,65535,65700,0,0,4,1460,1,0,0,24,33580,68,65700,0,0,0,0,0
i,0x00000000,1716940780.285880,10.0.2.15,22,10.0.2.2,61162,1073725440,16222,0,65535,65700,0,0,4,1460,1,0,0,24,33580,68,65700,0,68,0,0,0
i,0x00000000,1716940780.288052,10.0.2.15,22,10.0.2.2,61162,1073725440,16290,0,65535,65700,0,0,4,1460,1,0,0,24,33580,0,65700,0,0,0,0,0
o,0x00000000,1716940780.297813,10.0.2.15,22,10.0.2.2,61162,1073725440,16290,0,65535,65700,0,0,4,1460,1,0,0,24,33580,28,65700,0,0,0,0,0
i,0x00000000,1716940780.298468,10.0.2.15,22,10.0.2.2,61162,1073725440,16290,0,65535,65700,0,0,4,1460,1,0,0,24,33580,28,65700,0,28,0,0,0
i,0x00000000,1716940780.299014,10.0.2.15,22,10.0.2.2,61162,1073725440,16318,0,65535,65700,0,0,4,1460,1,0,0,24,33580,0,65700,0,0,0,0,0
o,0x00000000,1716940780.299549,10.0.2.15,22,10.0.2.2,61162,1073725440,16318,0,65535,65700,0,0,4,1460,1,0,0,24,33580,768,65700,112,0,0,0,0
i,0x00000000,1716940780.300209,10.0.2.15,22,10.0.2.2,61162,1073725440,16318,0,65535,65700,0,0,4,1460,1,0,0,24,33580,768,65700,112,768,0,0,0
o,0x00000000,1716940780.300303,10.0.2.15,22,10.0.2.2,61162,1073725440,17086,0,65535,65700,0,0,4,1460,1,0,0,24,33580,44,65700,0,0,0,0,0
i,0x00000000,1716940780.300921,10.0.2.15,22,10.0.2.2,61162,1073725440,17086,0,65535,65700,0,0,4,1460,1,0,0,24,33580,44,65700,0,44,0,0,0
i,0x00000000,1716940780.301750,10.0.2.15,22,10.0.2.2,61162,1073725440,17130,0,65535,65700,0,0,4,1460,1,0,0,24,33580,0,65700,0,0,0,0,0
o,0x00000000,1716940780.302022,10.0.2.15,22,10.0.2.2,61162,1073725440,17130,0,65535,65700,0,0,4,1460,1,0,4,24,33580,72,65700,0,0,0,0,0
i,0x00000000,1716940780.302900,10.0.2.15,22,10.0.2.2,61162,1073725440,17130,0,65535,65700,0,0,4,1460,1,0,4,24,33580,72,65700,0,72,0,0,0
o,0x00000000,1716940780.305413,10.0.2.15,22,10.0.2.2,61162,1073725440,17202,0,65535,65700,0,0,4,1460,1,0,4,24,33580,44,65700,0,0,0,0,0
i,0x00000000,1716940780.306243,10.0.2.15,22,10.0.2.2,61162,1073725440,17202,0,65535,65700,0,0,4,1460,1,0,4,24,33580,44,65700,0,44,0,0,0
o,0x00000000,1716940780.306478,10.0.2.15,22,10.0.2.2,61162,1073725440,17246,0,65535,65700,0,0,4,1460,1,0,4,23,33580,44,65700,0,0,0,0,0
i,0x00000000,1716940780.307193,10.0.2.15,22,10.0.2.2,61162,1073725440,17246,0,65535,65700,0,0,4,1460,1,0,4,23,33580,44,65700,0,44,0,0,0
o,0x00000000,1716940780.310236,10.0.2.15,22,10.0.2.2,61162,1073725440,17290,0,65535,65700,0,0,4,1460,1,0,4,23,33580,176,65700,0,0,0,0,0
i,0x00000000,1716940780.311162,10.0.2.15,22,10.0.2.2,61162,1073725440,17290,0,65535,65700,0,0,4,1460,1,0,4,23,33580,176,65700,0,176,0,0,0
i,0x00000000,1716940780.311517,10.0.2.15,22,10.0.2.2,61162,1073725440,17466,0,65535,65700,0,0,4,1460,1,0,4,23,33580,0,65700,0,0,0,0,0
i,0x00000000,1716940780.311519,10.0.2.15,22,10.0.2.2,61162,1073725440,17466,0,65535,65700,0,0,4,1460,1,0,4,23,33580,0,65700,96,0,0,0,0
o,0x00000000,1716940780.311522,10.0.2.15,22,10.0.2.2,61162,1073725440,17466,0,65535,65604,0,0,5,1460,1,0,5,23,33580,0,65700,96,0,0,0,0
o,0x00000000,1716940780.319835,10.0.2.15,22,10.0.2.2,61162,1073725440,17466,0,65535,65604,0,0,8,1460,1,0,4,23,33580,0,65700,0,0,0,0,0
i,0x00000000,1716940780.320540,10.0.2.15,22,10.0.2.2,61162,1073725440,17466,0,65535,65604,0,0,8,1460,1,0,20,23,33580,0,65700,0,1,0,0,0
i,0x00000000,1716940781.391213,10.0.2.15,22,10.0.2.2,61164,1073725440,14600,0,65535,65700,0,0,4,1460,1,0,0,27,33580,0,65700,0,0,0,0,0
o,0x00000000,1716940781.400551,10.0.2.15,22,10.0.2.2,61164,1073725440,14600,0,65535,65700,0,0,4,1460,1,0,0,27,33580,38,65700,41,0,0,0,0
i,0x00000000,1716940781.401353,10.0.2.15,22,10.0.2.2,61164,1073725440,14600,0,65535,65700,0,0,4,1460,1,0,0,27,33580,38,65700,41,38,0,0,0
i,0x00000000,1716940781.402083,10.0.2.15,22,10.0.2.2,61164,1073725440,14638,0,65535,65700,0,0,4,1460,1,0,0,24,33580,0,65700,0,0,0,0,0
i,0x00000000,1716940781.402086,10.0.2.15,22,10.0.2.2,61164,1073725440,14638,0,65535,65700,0,0,4,1460,1,0,0,24,33580,0,65700,1460,0,0,0,0
o,0x00000000,1716940781.402089,10.0.2.15,22,10.0.2.2,61164,1073725440,14638,0,65535,65700,0,0,4,1460,1,0,1,24,33580,0,65700,1536,0,0,0,0
o,0x00000000,1716940781.402506,10.0.2.15,22,10.0.2.2,61164,1073725440,14638,0,65535,65700,0,0,4,1460,1,0,0,24,33580,1056,65700,1536,0,0,0,0
i,0x00000000,1716940781.403189,10.0.2.15,22,10.0.2.2,61164,1073725440,14638,0,65535,65700,0,0,4,1460,1,0,0,24,33580,1056,65700,1536,1056,0,0,0
i,0x00000000,1716940781.405027,10.0.2.15,22,10.0.2.2,61164,1073725440,15694,0,65535,65700,0,0,4,1460,1,0,0,24,33580,0,65700,0,0,0,0,0
o,0x00000000,1716940781.407502,10.0.2.15,22,10.0.2.2,61164,1073725440,15694,0,65535,65700,0,0,4,1460,1,0,0,24,33580,484,65700,0,0,0,0,0
i,0x00000000,1716940781.408316,10.0.2.15,22,10.0.2.2,61164,1073725440,15694,0,65535,65700,0,0,4,1460,1,0,0,24,33580,484,65700,0,484,0,0,0
i,0x00000000,1716940781.412854,10.0.2.15,22,10.0.2.2,61164,1073725440,16178,0,65535,65700,0,0,4,1460,1,0,0,24,33580,0,65700,0,0,0,0,0
i,0x00000000,1716940781.416880,10.0.2.15,22,10.0.2.2,61164,1073725440,16178,0,65535,65700,0,0,4,1460,1,0,0,24,33580,0,65700,0,0,0,0,0
o,0x00000000,1716940781.416884,10.0.2.15,22,10.0.2.2,61164,1073725440,16178,0,65535,65700,0,0,4,1460,1,0,1,24,33580,0,65700,44,0,0,0,0
o,0x00000000,1716940781.417038,10.0.2.15,22,10.0.2.2,61164,1073725440,16178,0,65535,65700,0,0,4,1460,1,0,0,24,33580,44,65700,0,0,0,0,0
i,0x00000000,1716940781.417712,10.0.2.15,22,10.0.2.2,61164,1073725440,16178,0,65535,65700,0,0,4,1460,1,0,0,24,33580,44,65700,0,44,0,0,0
i,0x00000000,1716940781.418093,10.0.2.15,22,10.0.2.2,61164,1073725440,16222,0,65535,65700,0,0,4,1460,1,0,0,24,33580,0,65700,0,0,0,0,0
o,0x00000000,1716940781.427573,10.0.2.15,22,10.0.2.2,61164,1073725440,16222,0,65535,65700,0,0,4,1460,1,0,0,24,33580,68,65700,0,0,0,0,0
i,0x00000000,1716940781.428190,10.0.2.15,22,10.0.2.2,61164,1073725440,16222,0,65535,65700,0,0,4,1460,1,0,0,24,33580,68,65700,0,68,0,0,0
i,0x00000000,1716940781.430407,10.0.2.15,22,10.0.2.2,61164,1073725440,16290,0,65535,65700,0,0,4,1460,1,0,0,24,33580,0,65700,0,0,0,0,0
o,0x00000000,1716940781.440131,10.0.2.15,22,10.0.2.2,61164,1073725440,16290,0,65535,65700,0,0,4,1460,1,0,0,24,33580,28,65700,0,0,0,0,0
i,0x00000000,1716940781.441029,10.0.2.15,22,10.0.2.2,61164,1073725440,16290,0,65535,65700,0,0,4,1460,1,0,0,24,33580,28,65700,0,28,0,0,0
i,0x00000000,1716940781.441096,10.0.2.15,22,10.0.2.2,61164,1073725440,16318,0,65535,65700,0,0,4,1460,1,0,0,24,33580,0,65700,0,0,0,0,0
o,0x00000000,1716940781.441932,10.0.2.15,22,10.0.2.2,61164,1073725440,16318,0,65535,65700,0,0,4,1460,1,0,0,24,33580,768,65700,112,0,0,0,0
i,0x00000000,1716940781.442708,10.0.2.15,22,10.0.2.2,61164,1073725440,16318,0,65535,65700,0,0,4,1460,1,0,0,24,33580,768,65700,112,768,0,0,0
o,0x00000000,1716940781.442810,10.0.2.15,22,10.0.2.2,61164,1073725440,17086,0,65535,65700,0,0,4,1460,1,0,0,24,33580,44,65700,0,0,0,0,0
i,0x00000000,1716940781.443445,10.0.2.15,22,10.0.2.2,61164,1073725440,17086,0,65535,65700,0,0,4,1460,1,0,0,24,33580,44,65700,0,44,0,0,0
i,0x00000000,1716940781.443909,10.0.2.15,22,10.0.2.2,61164,1073725440,17130,0,65535,65700,0,0,4,1460,1,0,0,24,33580,0,65700,0,0,0,0,0
o,0x00000000,1716940781.444187,10.0.2.15,22,10.0.2.2,61164,1073725440,17130,0,65535,65700,0,0,4,1460,1,0,4,24,33580,72,65700,0,0,0,0,0
i,0x00000000,1716940781.445240,10.0.2.15,22,10.0.2.2,61164,1073725440,17130,0,65535,65700,0,0,4,1460,1,0,4,24,33580,72,65700,0,72,0,0,0
i,0x00000000,1716940781.445266,10.0.2.15,22,10.0.2.2,61164,1073725440,17202,0,65535,65700,0,0,4,1460,1,0,4,24,33580,0,65700,0,0,0,0,0
o,0x00000000,1716940781.451453,172.16.1.2,29264,172.16.3.2,5101,1073725440,1073725440,0,0,0,0,0,2,536,0,1,672,100,32768,0,65536,0,0,0,0,0
o,0x00000000,1716940781.477575,10.0.2.15,22,10.0.2.2,61164,1073725440,17202,0,65535,65700,0,0,4,1460,1,0,5,24,33580,0,65700,0,0,0,0,0
i,0x00000000,1716940781.568882,172.16.1.2,29264,172.16.3.2,5101,1073725440,1073725440,0,0,0,0,0,2,536,0,1,672,100,32768,0,65536,0,1,0,0,0
o,0x00000000,1716940781.568902,172.16.1.2,29264,172.16.3.2,5101,27249,14480,0,65535,65700,6,6,4,1460,431,1,993,38,33580,0,65700,0,0,0,0,0
o,0x00000000,1716940781.569287,172.16.1.2,29264,172.16.3.2,5101,27249,14480,0,65535,65700,6,6,4,1460,431,1,996,38,33580,37,65700,0,0,0,0,0
i,0x00000000,1716940781.688172,172.16.1.2,29264,172.16.3.2,5101,27249,14480,0,65535,65700,6,6,4,1460,431,1,996,38,33580,37,65700,0,37,0,0,0
o,0x00000000,1716940781.688450,172.16.1.2,29264,172.16.3.2,5101,27249,14517,0,65728,65728,6,6,4,1460,426,1,996,38,33580,4,65700,0,0,0,0,0
o,0x00000000,1716940781.688797,172.16.1.2,29264,172.16.3.2,5101,27249,14517,0,65728,65728,6,6,4,1460,426,1,996,38,33580,128,65700,0,4,0,0,0
i,0x00000000,1716940781.808351,172.16.1.2,29264,172.16.3.2,5101,27249,14517,0,65728,65728,6,6,4,1460,426,1,996,38,33580,128,65700,0,128,0,0,0
i,0x00000000,1716940781.808364,172.16.1.2,29264,172.16.3.2,5101,27249,14645,0,65600,65728,6,6,4,1460,421,1,996,38,33580,0,65700,0,0,0,0,0
o,0x00000000,1716940781.808537,172.16.1.2,62853,172.16.3.2,5101,1073725440,1073725440,0,0,0,0,0,2,536,0,1,672,100,32768,0,65536,0,0,0,0,0
o,0x00000000,1716940781.846259,172.16.1.2,29264,172.16.3.2,5101,27249,14645,0,65728,65728,6,6,4,1460,421,1,997,38,33580,0,65700,0,0,0,0,0
i,0x00000000,1716940781.927778,172.16.1.2,62853,172.16.3.2,5101,1073725440,1073725440,0,0,0,0,0,2,536,0,1,672,100,32768,0,65536,0,1,0,0,0
o,0x00000000,1716940781.927792,172.16.1.2,62853,172.16.3.2,5101,27249,14480,0,65535,65700,6,6,4,1460,431,1,993,38,33580,0,65700,0,0,0,0,0
o,0x00000000,1716940781.927934,172.16.1.2,62853,172.16.3.2,5101,27249,14480,0,65535,65700,6,6,4,1460,431,1,992,38,33580,37,65700,0,0,0,0,0
i,0x00000000,1716940782.048177,172.16.1.2,29264,172.16.3.2,5101,27249,14645,0,65728,65728,6,6,4,1460,421,1,996,38,33580,0,65700,0,0,0,0,0
i,0x00000000,1716940782.048190,172.16.1.2,29264,172.16.3.2,5101,27249,14645,0,65728,65728,6,6,4,1460,421,1,996,38,33580,0,65700,1,0,0,0,0
o,0x00000000,1716940782.048197,172.16.1.2,29264,172.16.3.2,5101,27249,14645,0,65728,65728,6,6,4,1460,421,1,997,38,33580,0,65700,2,0,0,0,0
o,0x00000000,1716940782.048482,172.16.1.2,62853,172.16.3.2,5101,27249,14480,0,65535,65700,6,6,4,1460,431,1,992,38,33580,33580,65700,0,37,0,0,0
o,0x00000000,1716940782.048823,172.16.1.2,62853,172.16.3.2,5101,27249,14480,0,65535,65700,6,6,4,1460,431,1,992,38,33580,33580,65700,0,1485,0,0,0
o,0x00000000,1716940782.049137,172.16.1.2,62853,172.16.3.2,5101,27249,14480,0,65535,65700,6,6,4,1460,431,1,992,38,33580,33580,65700,0,2933,0,0,0
o,0x00000000,1716940782.049511,172.16.1.2,62853,172.16.3.2,5101,27249,14480,0,65535,65700,6,6,4,1460,431,1,992,38,33580,33580,65700,0,4381,0,0,0
o,0x00000000,1716940782.049876,172.16.1.2,62853,172.16.3.2,5101,27249,14480,0,65535,65700,6,6,4,1460,431,1,992,38,33580,33580,65700,0,5829,0,0,0
o,0x00000000,1716940782.050219,172.16.1.2,62853,172.16.3.2,5101,27249,14480,0,65535,65700,6,6,4,1460,431,1,992,38,33580,33580,65700,0,7277,0,0,0
o,0x00000000,1716940782.050677,172.16.1.2,62853,172.16.3.2,5101,27249,14480,0,65535,65700,6,6,4,1460,431,1,992,38,33580,33580,65700,0,8725,0,0,0
o,0x00000000,1716940782.051008,172.16.1.2,62853,172.16.3.2,5101,27249,14480,0,65535,65700,6,6,4,1460,431,1,992,38,33580,33580,65700,0,10173,0,0,0
o,0x00000000,1716940782.051360,172.16.1.2,62853,172.16.3.2,5101,27249,14480,0,65535,65700,6,6,4,1460,431,1,992,38,33580,33580,65700,0,11621,0,0,0
i,0x00000000,1716940782.078137,172.16.1.2,62853,172.16.3.2,5101,27249,14480,0,65535,65700,6,6,4,1460,431,1,992,38,33580,33580,65700,0,13069,0,0,0
o,0x00000000,1716940782.078149,172.16.1.2,62853,172.16.3.2,5101,27249,14517,0,65728,65728,6,6,4,1460,438,1,992,39,33580,33543,65700,0,13032,0,0,0
i,0x00000000,1716940782.289211,172.16.1.2,62853,172.16.3.2,5101,27249,14517,0,65728,65728,6,6,4,1460,438,1,992,39,33580,33543,65700,0,14480,0,0,0
o,0x00000000,1716940782.289243,172.16.1.2,62853,172.16.3.2,5101,27249,17413,0,64256,65728,6,6,4,1460,480,1,992,50,33580,30647,65700,0,11584,0,0,0
o,0x00000000,1716940782.289559,172.16.1.2,62853,172.16.3.2,5101,27249,17413,0,64256,65728,6,6,4,1460,480,1,992,50,33580,30647,65700,0,13032,0,0,0
o,0x00000000,1716940782.289809,172.16.1.2,62853,172.16.3.2,5101,27249,17413,0,64256,65728,6,6,4,1460,480,1,992,50,41772,30647,65700,0,14480,0,0,0
o,0x00000000,1716940782.290044,172.16.1.2,62853,172.16.3.2,5101,27249,17413,0,64256,65728,6,6,4,1460,480,1,992,50,41772,30647,65700,0,15928,0,0,0
i,0x00000000,1716940782.308198,172.16.1.2,62853,172.16.3.2,5101,27249,17413,0,64256,65728,6,6,4,1460,480,1,992,50,41772,41772,65700,0,17376,0,0,0
o,0x00000000,1716940782.308209,172.16.1.2,62853,172.16.3.2,5101,27249,20309,0,64256,65728,6,6,4,1460,524,1,992,58,41772,38876,65700,0,14480,0,0,0
o,0x00000000,1716940782.308472,172.16.1.2,62853,172.16.3.2,5101,27249,20309,0,64256,65728,6,6,4,1460,524,1,992,58,41772,38876,65700,0,15928,0,0,0
o,0x00000000,1716940782.308712,172.16.1.2,62853,172.16.3.2,5101,27249,20309,0,64256,65728,6,6,4,1460,524,1,992,58,41772,38876,65700,0,17376,0,0,0
o,0x00000000,1716940782.308941,172.16.1.2,62853,172.16.3.2,5101,27249,20309,0,64256,65728,6,6,4,1460,524,1,992,58,49964,38876,65700,0,18824,0,0,0
i,0x00000000,1716940782.338294,172.16.1.2,62853,172.16.3.2,5101,27249,20309,0,64256,65728,6,6,4,1460,524,1,992,58,49964,49964,65700,0,20272,0,0,0
o,0x00000000,1716940782.338312,172.16.1.2,62853,172.16.3.2,5101,27249,23205,0,64256,65728,6,6,4,1460,575,1,992,67,49964,47068,65700,0,17376,0,0,0
o,0x00000000,1716940782.338563,172.16.1.2,62853,172.16.3.2,5101,27249,23205,0,64256,65728,6,6,4,1460,575,1,992,67,49964,47068,65700,0,18824,0,0,0
o,0x00000000,1716940782.338792,172.16.1.2,62853,172.16.3.2,5101,27249,23205,0,64256,65728,6,6,4,1460,575,1,992,67,49964,47068,65700,0,20272,0,0,0
o,0x00000000,1716940782.339034,172.16.1.2,62853,172.16.3.2,5101,27249,23205,0,64256,65728,6,6,4,1460,575,1,992,67,49964,47068,65700,0,21720,0,0,0
i,0x00000000,1716940782.358057,172.16.1.2,62853,172.16.3.2,5101,27249,23205,0,64256,65728,6,6,4,1460,575,1,992,67,49964,49964,65700,0,23168,0,0,0
o,0x00000000,1716940782.358063,172.16.1.2,62853,172.16.3.2,5101,27249,26101,0,64256,65728,6,6,4,1460,628,1,992,75,49964,47068,65700,0,20272,0,0,0
o,0x00000000,1716940782.358309,172.16.1.2,62853,172.16.3.2,5101,27249,26101,0,64256,65728,6,6,4,1460,628,1,992,75,58156,47068,65700,0,21720,0,0,0
o,0x00000000,1716940782.358546,172.16.1.2,62853,172.16.3.2,5101,27249,26101,0,64256,65728,6,6,4,1460,628,1,992,75,58156,47068,65700,0,23168,0,0,0
o,0x00000000,1716940782.358785,172.16.1.2,62853,172.16.3.2,5101,27249,26101,0,64256,65728,6,6,4,1460,628,1,992,75,58156,47068,65700,0,24616,0,0,0
i,0x00000000,1716940782.387753,172.16.1.2,62853,172.16.3.2,5101,27249,26101,0,64256,65728,6,6,4,1460,628,1,992,75,58156,58156,65700,0,26064,0,0,0
o,0x00000000,1716940782.387759,172.16.1.2,62853,172.16.3.2,5101,27249,28997,0,64256,65728,6,6,4,1460,686,1,992,82,58156,55260,65700,0,23168,0,0,0
o,0x00000000,1716940782.388017,172.16.1.2,62853,172.16.3.2,5101,27249,28997,0,64256,65728,6,6,4,1460,686,1,992,82,58156,55260,65700,0,24616,0,0,0
o,0x00000000,1716940782.388248,172.16.1.2,62853,172.16.3.2,5101,27249,28997,0,64256,65728,6,6,4,1460,686,1,992,82,58156,55260,65700,0,26064,0,0,0
o,0x00000000,1716940782.388477,172.16.1.2,62853,172.16.3.2,5101,27249,28997,0,64256,65728,6,6,4,1460,686,1,992,82,66348,55260,65700,0,27512,0,0,0
i,0x00000000,1716940782.507836,172.16.1.2,62853,172.16.3.2,5101,27249,28997,0,64256,65728,6,6,4,1460,686,1,992,82,66348,66348,65700,0,28960,0,0,0
o,0x00000000,1716940782.507856,172.16.1.2,62853,172.16.3.2,5101,27249,28997,0,64256,65728,6,6,4,1460,689,1,992,73,66348,63452,65700,0,26064,0,0,0
o,0x00000000,1716940782.508105,172.16.1.2,62853,172.16.3.2,5101,27249,28997,0,64256,65728,6,6,4,1460,689,1,992,73,66348,63452,65700,0,27512,0,0,0
i,0x00000000,1716940782.597695,172.16.1.2,62853,172.16.3.2,5101,27249,28997,0,64256,65728,6,6,4,1460,689,1,992,73,66348,66348,65700,0,28960,0,0,0
o,0x00000000,1716940782.597715,172.16.1.2,62853,172.16.3.2,5101,27249,28997,0,65728,65728,6,6,4,1460,727,1,992,76,66348,64900,65700,0,27512,0,0,0
i,0x00000000,1716940782.627569,172.16.1.2,62853,172.16.3.2,5101,27249,28997,0,65728,65728,6,6,4,1460,727,1,992,76,66348,64900,65700,0,28960,0,0,0
o,0x00000000,1716940782.627582,172.16.1.2,62853,172.16.3.2,5101,27249,28997,0,64256,65728,6,6,4,1460,773,1,992,80,66348,62004,65700,0,26064,0,0,0
o,0x00000000,1716940782.627855,172.16.1.2,62853,172.16.3.2,5101,27249,28997,0,64256,65728,6,6,4,1460,773,1,992,80,66348,62004,65700,0,27512,0,0,0
i,0x00000000,1716940782.698582,172.16.1.2,62853,172.16.3.2,5101,27249,28997,0,64256,65728,6,6,4,1460,773,1,992,80,66348,66348,65700,0,28960,0,0,0
o,0x00000000,1716940782.698603,172.16.1.2,62853,172.16.3.2,5101,27249,28997,0,65728,65728,6,6,4,1460,833,1,992,88,66348,64900,65700,0,27512,0,0,0
i,0x00000000,1716940782.727356,172.16.1.2,62853,172.16.3.2,5101,27249,28997,0,65728,65728,6,6,4,1460,833,1,992,88,66348,64900,65700,0,28960,0,0,0
o,0x00000000,1716940782.727375,172.16.1.2,62853,172.16.3.2,5101,27249,28997,0,64256,65728,6,6,4,1460,897,1,992,96,66348,62004,65700,0,26064,0,0,0
o,0x00000000,1716940782.727743,172.16.1.2,62853,172.16.3.2,5101,27249,28997,0,64256,65728,6,6,4,1460,897,1,992,96,66348,62004,65700,0,27512,0,0,0
i,0x00000000,1716940782.747301,172.16.1.2,62853,172.16.3.2,5101,27249,28997,0,64256,65728,6,6,4,1460,897,1,992,96,66348,66348,65700,0,28960,0,0,0
o,0x00000000,1716940782.747311,172.16.1.2,62853,172.16.3.2,5101,27249,28997,0,64256,65728,6,6,4,1460,949,1,992,98,66348,63452,65700,0,26064,0,0,0
o,0x00000000,1716940782.747558,172.16.1.2,62853,172.16.3.2,5101,27249,28997,0,64256,65728,6,6,4,1460,949,1,992,98,66348,63452,65700,0,27512,0,0,0
i,0x00000000,1716940782.777715,172.16.1.2,62853,172.16.3.2,5101,27249,28997,0,64256,65728,6,6,4,1460,949,1,992,98,66348,66348,65700,0,28960,0,0,0
o,0x00000000,1716940782.777722,172.16.1.2,62853,172.16.3.2,5101,27249,28997,0,64256,65728,6,6,4,1460,1007,1,992,102,66348,63452,65700,0,26064,0,0,0
o,0x00000000,1716940782.777966,172.16.1.2,62853,172.16.3.2,5101,27249,28997,0,64256,65728,6,6,4,1460,1007,1,992,102,66348,63452,65700,0,27512,0,0,0
i,0x00000000,1716940782.817291,172.16.1.2,62853,172.16.3.2,5101,27249,28997,0,64256,65728,6,6,4,1460,1007,1,992,102,66348,66348,65700,0,28960,0,0,0
o,0x00000000,1716940782.817303,172.16.1.2,62853,172.16.3.2,5101,27249,28997,0,65728,65728,6,6,4,1460,1062,1,992,105,66348,64900,65700,0,27512,0,0,0
i,0x00000000,1716940782.837188,172.16.1.2,62853,172.16.3.2,5101,27249,28997,0,65728,65728,6,6,4,1460,1062,1,992,105,66348,64900,65700,0,28960,0,0,0
o,0x00000000,1716940782.837195,172.16.1.2,62853,172.16.3.2,5101,27249,28997,0,64256,65728,6,6,4,1460,1118,1,992,108,66348,62004,65700,0,26064,0,0,0
o,0x00000000,1716940782.837433,172.16.1.2,62853,172.16.3.2,5101,27249,28997,0,64256,65728,6,6,4,1460,1118,1,992,108,66348,62004,65700,0,27512,0,0,0
i,0x00000000,1716940782.856963,172.16.1.2,62853,172.16.3.2,5101,27249,28997,0,64256,65728,6,6,4,1460,1118,1,992,108,66348,66348,65700,0,28960,0,0,0
o,0x00000000,1716940782.856974,172.16.1.2,62853,172.16.3.2,5101,27249,28997,0,64256,65728,6,6,4,1460,1175,1,992,111,66348,63452,65700,0,26064,0,0,0
o,0x00000000,1716940782.857236,172.16.1.2,62853,172.16.3.2,5101,27249,28997,0,64256,65728,6,6,4,1460,1175,1,992,111,66348,63452,65700,0,27512,0,0,0
i,0x00000000,1716940782.888151,172.16.1.2,62853,172.16.3.2,5101,27249,28997,0,64256,65728,6,6,4,1460,1175,1,992,111,66348,66348,65700,0,28960,0,0,0
o,0x00000000,1716940782.888172,172.16.1.2,62853,172.16.3.2,5101,27249,28997,0,64256,65728,6,6,4,1460,1229,1,992,112,66348,63452,65700,0,26064,0,0,0
o,0x00000000,1716940782.888421,172.16.1.2,62853,172.16.3.2,5101,27249,28997,0,64256,65728,6,6,4,1460,1229,1,992,112,66348,63452,65700,0,27512,0,0,0
i,0x00000000,1716940782.936659,172.16.1.2,62853,172.16.3.2,5101,27249,28997,0,64256,65728,6,6,4,1460,1229,1,992,112,66348,66348,65700,0,28960,0,0,0
o,0x00000000,1716940782.936675,172.16.1.2,62853,172.16.3.2,5101,27249,28997,0,65728,65728,6,6,4,1460,1292,1,992,117,66348,64900,65700,0,27512,0,0,0
i,0x00000000,1716940782.997212,172.16.1.2,62853,172.16.3.2,5101,27249,28997,0,65728,65728,6,6,4,1460,1292,1,992,117,66348,64900,65700,0,28960,0,0,0
o,0x00000000,1716940782.997225,172.16.1.2,62853,172.16.3.2,5101,27249,30457,0,64256,65728,6,6,4,1460,1327,1,992,112,66348,62004,65700,0,26064,0,0,0
o,0x00000000,1716940782.997471,172.16.1.2,62853,172.16.3.2,5101,27249,30457,0,64256,65728,6,6,4,1460,1327,1,992,112,66348,62004,65700,0,27512,0,0,0
o,0x00000000,1716940782.997745,172.16.1.2,62853,172.16.3.2,5101,27249,30457,0,64256,65728,6,6,4,1460,1327,1,992,112,66348,62004,65700,0,28960,0,0,0
i,0x00000000,1716940783.077447,172.16.1.2,62853,172.16.3.2,5101,27249,30457,0,64256,65728,6,6,4,1460,1327,1,992,112,66348,66348,65700,0,30408,0,0,0
o,0x00000000,1716940783.077464,172.16.1.2,62853,172.16.3.2,5101,27249,31856,0,64256,65728,6,6,4,1460,1327,1,992,112,66348,66348,65700,0,30408,0,0,0
i,0x00000000,1716940783.107785,172.16.1.2,62853,172.16.3.2,5101,27249,30457,0,64256,65728,6,6,4,1460,1327,1,992,112,66348,66348,65700,0,31856,0,0,0
o,0x00000000,1716940783.107805,172.16.1.2,62853,172.16.3.2,5101,27249,33304,0,64256,65728,6,6,4,1460,1327,1,992,112,66348,66348,65700,0,31856,0,0,0
i,0x00000000,1716940783.108536,172.16.1.2,62853,172.16.3.2,5101,27249,30457,0,64256,65728,6,6,4,1460,1327,1,992,112,66348,66348,65700,0,33304,0,0,0
o,0x00000000,1716940783.108540,172.16.1.2,62853,172.16.3.2,5101,14480,1448,0,64256,65728,6,6,4,1460,1327,1,537920480,112,66348,66348,65700,0,33304,0,0,0
i,0x00000000,1716940783.137450,172.16.1.2,62853,172.16.3.2,5101,14480,1448,0,64256,65728,6,6,4,1460,1327,1,537920480,112,66348,66348,65700,0,33304,0,0,0
i,0x00000000,1716940783.156504,172.16.1.2,62853,172.16.3.2,5101,14480,1448,0,64256,65728,6,6,4,1460,1327,1,537920480,112,66348,66348,65700,0,33304,0,0,0
o,0x00000000,1716940783.156517,172.16.1.2,62853,172.16.3.2,5101,14480,2896,0,64256,65728,6,6,4,1460,1327,1,537920480,112,66348,66348,65700,0,33304,0,0,0
i,0x00000000,1716940783.167532,172.16.1.2,62853,172.16.3.2,5101,14480,2896,0,64256,65728,6,6,4,1460,1327,1,537920480,112,66348,66348,65700,0,34752,0,0,0
o,0x00000000,1716940783.167537,172.16.1.2,62853,172.16.3.2,5101,14480,2896,0,64256,65728,6,6,4,1460,1327,1,537920480,112,66348,66348,65700,0,34752,0,0,0
i,0x00000000,1716940783.197976,172.16.1.2,62853,172.16.3.2,5101,14480,2896,0,64256,65728,6,6,4,1460,1327,1,537920480,112,66348,66348,65700,0,34752,0,0,0
o,0x00000000,1716940783.197986,172.16.1.2,62853,172.16.3.2,5101,14480,4344,0,64256,65728,6,6,4,1460,1327,1,537920480,112,66348,66348,65700,0,34752,0,0,0
i,0x00000000,1716940783.198067,172.16.1.2,62853,172.16.3.2,5101,14480,4344,0,64256,65728,6,6,4,1460,1327,1,537920480,112,66348,66348,65700,0,34752,0,0,0
i,0x00000000,1716940783.217524,172.16.1.2,62853,172.16.3.2,5101,14480,5792,0,64256,65728,6,6,4,1460,1327,1,537920480,112,66348,66348,65700,0,34752,0,0,0
i,0x00000000,1716940783.267600,172.16.1.2,62853,172.16.3.2,5101,14480,5792,0,64256,65728,6,6,4,1460,1327,1,537920480,112,66348,66348,65700,0,34752,0,0,0
i,0x00000000,1716940783.267613,172.16.1.2,62853,172.16.3.2,5101,14480,5792,0,64256,65728,6,6,4,1460,1327,1,537920480,112,66348,66348,65700,0,34752,0,0,0
o,0x00000000,1716940783.267619,172.16.1.2,62853,172.16.3.2,5101,14480,4344,0,64256,65728,6,6,4,1460,1327,1,537920481,112,66348,66348,65700,0,34752,0,0,0
i,0x00000000,1716940783.316292,172.16.1.2,62853,172.16.3.2,5101,14480,4344,0,57088,65728,6,6,4,1460,1226,1,537920480,122,66348,66348,65700,0,26064,0,0,0
i,0x00000000,1716940783.326707,172.16.1.2,62853,172.16.3.2,5101,14480,4344,0,65728,65728,6,6,4,1460,1226,1,537920480,122,66348,66348,65700,0,26064,0,0,0
o,0x00000000,1716940783.326715,172.16.1.2,62853,172.16.3.2,5101,14480,4344,0,65728,65728,6,6,4,1460,1226,1,537920481,122,66348,66348,65700,0,26064,0,0,0
i,0x00000000,1716940783.356871,172.16.1.2,62853,172.16.3.2,5101,14480,4344,0,64320,65728,6,6,4,1460,1137,1,537920480,125,66348,64900,65700,0,26064,0,0,0
o,0x00000000,1716940783.356877,172.16.1.2,62853,172.16.3.2,5101,14480,5792,0,64320,65728,6,6,4,1460,1137,1,537920481,125,66348,64900,65700,0,26064,0,0,0
i,0x00000000,1716940783.356959,172.16.1.2,62853,172.16.3.2,5101,14480,5792,0,57024,65728,6,6,4,1460,1059,1,537920480,125,66348,56212,65700,0,17376,0,0,0
i,0x00000000,1716940783.397095,172.16.1.2,62853,172.16.3.2,5101,14480,17376,0,57024,65728,6,6,4,1460,1059,1,537920480,125,66348,65912,65700,0,17376,0,0,0
i,0x00000000,1716940783.397124,172.16.1.2,62853,172.16.3.2,5101,14480,17376,0,57024,65728,6,6,4,1460,1059,1,537920480,125,66348,65912,65700,0,17376,0,0,0
o,0x00000000,1716940783.397127,172.16.1.2,62853,172.16.3.2,5101,14480,18824,0,57024,65728,6,6,4,1460,1059,1,537920480,125,66348,65912,65700,0,17376,0,0,0
i,0x00000000,1716940783.427089,172.16.1.2,62853,172.16.3.2,5101,14480,18824,0,57024,65728,6,6,4,1460,1059,1,537920480,125,66348,65912,65700,0,18824,0,0,0
o,0x00000000,1716940783.427098,172.16.1.2,62853,172.16.3.2,5101,14480,20272,0,57024,65728,6,6,4,1460,1059,1,537920480,125,66348,65912,65700,0,18824,0,0,0
i,0x00000000,1716940783.427342,172.16.1.2,62853,172.16.3.2,5101,14480,20272,0,57024,65728,6,6,4,1460,1059,1,537920480,125,66348,65912,65700,0,20272,0,0,0
o,0x00000000,1716940783.427344,172.16.1.2,62853,172.16.3.2,5101,14480,21720,0,57024,65728,6,6,4,1460,1059,1,537920480,125,66348,65912,65700,0,20272,0,0,0
i,0x00000000,1716940783.536827,172.16.1.2,62853,172.16.3.2,5101,14480,21720,0,57024,65728,6,6,4,1460,1059,1,537920480,125,66348,65912,65700,0,21720,0,0,0
o,0x00000000,1716940783.536844,172.16.1.2,62853,172.16.3.2,5101,14480,17376,0,57024,65728,6,6,4,1460,1059,1,537920480,125,66348,65912,65700,0,21720,0,0,0
o,0x00000000,1716940783.536931,172.16.1.2,62853,172.16.3.2,5101,14480,17376,0,57024,65728,6,6,4,1460,1059,1,537920480,125,66348,65912,65700,0,21720,0,0,0
o,0x00000000,1716940783.537005,172.16.1.2,62853,172.16.3.2,5101,14480,17376,0,57024,65728,6,6,4,1460,1059,1,537920480,125,66348,65912,65700,0,21720,0,0,0
o,0x00000000,1716940783.537090,172.16.1.2,62853,172.16.3.2,5101,14480,17376,0,57024,65728,6,6,4,1460,1059,1,537920480,125,66348,65912,65700,0,21720,0,0,0
o,0x00000000,1716940783.537171,172.16.1.2,62853,172.16.3.2,5101,14480,17376,0,57024,65728,6,6,4,1460,1059,1,537920480,125,66348,65912,65700,0,21720,0,0,0
o,0x00000000,1716940783.537246,172.16.1.2,62853,172.16.3.2,5101,14480,17376,0,57024,65728,6,6,4,1460,1059,1,537920480,125,66348,65912,65700,0,21720,0,0,0
o,0x00000000,1716940783.537321,172.16.1.2,62853,172.16.3.2,5101,14480,17376,0,57024,65728,6,6,4,1460,1059,1,537920480,125,66348,65912,65700,0,21720,0,0,0
o,0x00000000,1716940783.537394,172.16.1.2,62853,172.16.3.2,5101,14480,17376,0,57024,65728,6,6,4,1460,1059,1,537920480,125,66348,65912,65700,0,21720,0,0,0
o,0x00000000,1716940783.537475,172.16.1.2,62853,172.16.3.2,5101,14480,17376,0,57024,65728,6,6,4,1460,1059,1,537920480,125,66348,65912,65700,0,21720,0,0,0
o,0x00000000,1716940783.537549,172.16.1.2,62853,172.16.3.2,5101,14480,17376,0,57024,65728,6,6,4,1460,1059,1,537920480,125,66348,65912,65700,0,21720,0,0,0
i,0x00000000,1716940783.537624,172.16.1.2,62853,172.16.3.2,5101,14480,17376,0,57024,65728,6,6,4,1460,1059,1,537920480,125,66348,65912,65700,0,21720,0,0,0
i,0x00000000,1716940783.566946,172.16.1.2,62853,172.16.3.2,5101,14480,21720,0,57024,65728,6,6,4,1460,1059,1,537920480,125,66348,65912,65700,0,21720,0,0,0
i,0x00000000,1716940783.836338,172.16.1.2,62853,172.16.3.2,5101,14480,21720,0,57024,65728,6,6,4,1460,1059,1,537920480,125,66348,65912,65700,0,21720,0,0,0
o,0x00000000,1716940783.836356,172.16.1.2,62853,172.16.3.2,5101,14480,21720,0,57024,65728,6,6,4,1460,1059,1,537920481,125,66348,65912,65700,0,21720,0,0,0
i,0x00000000,1716940783.836471,172.16.1.2,62853,172.16.3.2,5101,14480,21720,0,64320,65728,6,6,4,1460,1047,1,537920480,109,66348,64464,65700,0,21720,0,0,0
o,0x00000000,1716940783.836474,172.16.1.2,62853,172.16.3.2,5101,14480,21720,0,64320,65728,6,6,4,1460,1047,1,537920481,109,66348,64464,65700,0,21720,0,0,0
i,0x00000000,1716940783.836556,172.16.1.2,62853,172.16.3.2,5101,14480,21720,0,64256,65728,6,6,4,1460,1037,1,537920480,97,66348,63016,65700,0,21720,0,0,0
o,0x00000000,1716940783.836559,172.16.1.2,62853,172.16.3.2,5101,14480,21720,0,64256,65728,6,6,4,1460,1037,1,537920481,97,66348,63016,65700,0,21720,0,0,0
i,0x00000000,1716940783.836632,172.16.1.2,62853,172.16.3.2,5101,14480,21720,0,64256,65728,6,6,4,1460,1028,1,537920480,88,66348,61568,65700,0,21720,0,0,0
o,0x00000000,1716940783.836635,172.16.1.2,62853,172.16.3.2,5101,14480,21720,0,64256,65728,6,6,4,1460,1028,1,537920481,88,66348,61568,65700,0,21720,0,0,0
i,0x00000000,1716940783.836924,172.16.1.2,62853,172.16.3.2,5101,14480,21720,0,64256,65728,6,6,4,1460,1020,1,537920480,81,66348,60120,65700,0,21720,0,0,0
o,0x00000000,1716940783.836926,172.16.1.2,62853,172.16.3.2,5101,14480,21720,0,64256,65728,6,6,4,1460,1020,1,537920481,81,66348,60120,65700,0,21720,0,0,0
i,0x00000000,1716940783.837004,172.16.1.2,62853,172.16.3.2,5101,14480,21720,0,64256,65728,6,6,4,1460,1013,1,537920480,75,66348,58672,65700,0,21720,0,0,0
o,0x00000000,1716940783.837006,172.16.1.2,62853,172.16.3.2,5101,14480,21720,0,64256,65728,6,6,4,1460,1013,1,537920481,75,66348,58672,65700,0,21720,0,0,0
i,0x00000000,1716940783.837080,172.16.1.2,62853,172.16.3.2,5101,14480,21720,0,64256,65728,6,6,4,1460,1007,1,537920480,70,66348,57224,65700,0,21720,0,0,0
o,0x00000000,1716940783.837082,172.16.1.2,62853,172.16.3.2,5101,14480,21720,0,64256,65728,6,6,4,1460,1007,1,537920481,70,66348,57224,65700,0,21720,0,0,0
i,0x00000000,1716940783.837158,172.16.1.2,62853,172.16.3.2,5101,14480,21720,0,64256,65728,6,6,4,1460,1002,1,537920480,67,66348,55776,65700,0,21720,0,0,0
o,0x00000000,1716940783.837160,172.16.1.2,62853,172.16.3.2,5101,14480,21720,0,64256,65728,6,6,4,1460,1002,1,537920481,67,66348,55776,65700,0,21720,0,0,0
i,0x00000000,1716940783.837246,172.16.1.2,62853,172.16.3.2,5101,14480,21720,0,64256,65728,6,6,4,1460,997,1,537920480,64,66348,54328,65700,0,21720,0,0,0
o,0x00000000,1716940783.837249,172.16.1.2,62853,172.16.3.2,5101,14480,21720,0,64256,65728,6,6,4,1460,997,1,537920481,64,66348,54328,65700,0,21720,0,0,0
i,0x00000000,1716940783.865763,172.16.1.2,62853,172.16.3.2,5101,14480,21720,0,64256,65728,6,6,4,1460,993,1,537920480,62,66348,66348,65700,0,21720,0,0,0
i,0x00000000,1716940784.046286,172.16.1.2,62853,172.16.3.2,5101,14480,14480,0,64256,65728,6,6,4,1460,997,1,992,60,66348,64900,65700,0,20272,0,0,0
i,0x00000000,1716940784.055906,172.16.1.2,62853,172.16.3.2,5101,14480,14480,0,64256,65728,6,6,4,1460,997,1,992,60,66348,64900,65700,0,20272,0,0,0
o,0x00000000,1716940784.055920,172.16.1.2,62853,172.16.3.2,5101,7240,1448,0,64256,65728,6,6,4,1460,997,1,537920480,60,66348,64900,65700,0,20272,0,0,0
i,0x00000000,1716940784.086697,172.16.1.2,62853,172.16.3.2,5101,7240,1448,0,64256,65728,6,6,4,1460,997,1,537920480,60,66348,64900,65700,0,20272,0,0,0
o,0x00000000,1716940784.086721,172.16.1.2,62853,172.16.3.2,5101,7240,2896,0,64256,65728,6,6,4,1460,997,1,537920480,60,66348,64900,65700,0,20272,0,0,0
i,0x00000000,1716940784.086807,172.16.1.2,62853,172.16.3.2,5101,7240,2896,0,64256,65728,6,6,4,1460,997,1,537920480,60,66348,64900,65700,0,20272,0,0,0
i,0x00000000,1716940784.087052,172.16.1.2,62853,172.16.3.2,5101,7240,2896,0,64256,65728,6,6,4,1460,997,1,537920480,60,66348,64900,65700,0,20272,0,0,0
i,0x00000000,1716940784.116017,172.16.1.2,62853,172.16.3.2,5101,7240,2896,0,64256,65728,6,6,4,1460,997,1,537920480,60,66348,64900,65700,0,20272,0,0,0
o,0x00000000,1716940784.116030,172.16.1.2,62853,172.16.3.2,5101,7240,4344,0,64256,65728,6,6,4,1460,997,1,537920480,60,66348,64900,65700,0,20272,0,0,0
i,0x00000000,1716940784.116222,172.16.1.2,62853,172.16.3.2,5101,7240,4344,0,64256,65728,6,6,4,1460,997,1,537920480,60,66348,64900,65700,0,21720,0,0,0
i,0x00000000,1716940784.136922,172.16.1.2,62853,172.16.3.2,5101,7240,4344,0,64256,65728,6,6,4,1460,997,1,537920480,60,66348,64900,65700,0,21720,0,0,0
o,0x00000000,1716940784.136927,172.16.1.2,62853,172.16.3.2,5101,7240,5792,0,64256,65728,6,6,4,1460,997,1,537920480,60,66348,64900,65700,0,21720,0,0,0
i,0x00000000,1716940784.137007,172.16.1.2,62853,172.16.3.2,5101,7240,5792,0,64256,65728,6,6,4,1460,997,1,537920480,60,66348,64900,65700,0,23168,0,0,0
o,0x00000000,1716940784.137009,172.16.1.2,62853,172.16.3.2,5101,7240,7240,0,64256,65728,6,6,4,1460,997,1,537920480,60,66348,64900,65700,0,23168,0,0,0
i,0x00000000,1716940784.196010,172.16.1.2,62853,172.16.3.2,5101,7240,7240,0,64256,65728,6,6,4,1460,997,1,537920480,60,66348,64900,65700,0,24616,0,0,0
o,0x00000000,1716940784.196017,172.16.1.2,62853,172.16.3.2,5101,7240,7240,0,64256,65728,6,6,4,1460,997,1,537920481,60,66348,64900,65700,0,24616,0,0,0
i,0x00000000,1716940784.226255,172.16.1.2,62853,172.16.3.2,5101,7240,7240,0,64320,65728,6,6,4,1460,933,1,537920480,72,66348,66348,65700,0,24616,0,0,0
o,0x00000000,1716940784.226264,172.16.1.2,62853,172.16.3.2,5101,7240,7252,0,46912,65728,6,6,4,1460,873,1,992,79,66348,47524,65700,0,5792,0,0,0
i,0x00000000,1716940784.226516,172.16.1.2,62853,172.16.3.2,5101,7240,7252,0,46912,65728,6,6,4,1460,873,1,992,79,66348,47524,65700,0,7240,0,0,0
o,0x00000000,1716940784.226519,172.16.1.2,62853,172.16.3.2,5101,7240,8688,0,46912,65728,6,6,4,1460,873,1,992,79,66348,47524,65700,0,7240,0,0,0
i,0x00000000,1716940784.255386,172.16.1.2,62853,172.16.3.2,5101,7240,7252,0,46912,65728,6,6,4,1460,873,1,992,79,66348,66348,65700,0,8688,0,0,0
o,0x00000000,1716940784.255398,172.16.1.2,62853,172.16.3.2,5101,7240,8712,0,65728,65728,6,6,4,1460,820,1,992,83,66348,64900,65700,0,7240,0,0,0
i,0x00000000,1716940784.286230,172.16.1.2,62853,172.16.3.2,5101,7240,8712,0,65728,65728,6,6,4,1460,820,1,992,83,66348,64900,65700,0,8688,0,0,0
o,0x00000000,1716940784.286239,172.16.1.2,62853,172.16.3.2,5101,7240,8712,0,64256,65728,6,6,4,1460,774,1,992,83,66348,62004,65700,0,5792,0,0,0
o,0x00000000,1716940784.286505,172.16.1.2,62853,172.16.3.2,5101,7240,8712,0,64256,65728,6,6,4,1460,774,1,992,83,66348,62004,65700,0,7240,0,0,0
i,0x00000000,1716940784.385657,172.16.1.2,62853,172.16.3.2,5101,7240,8712,0,64256,65728,6,6,4,1460,774,1,992,83,66348,66348,65700,0,8688,0,0,0
o,0x00000000,1716940784.385669,172.16.1.2,62853,172.16.3.2,5101,7240,10172,0,64256,65728,6,6,4,1460,750,1,992,79,66348,63452,65700,0,5792,0,0,0
o,0x00000000,1716940784.385916,172.16.1.2,62853,172.16.3.2,5101,7240,10172,0,64256,65728,6,6,4,1460,750,1,992,79,66348,63452,65700,0,7240,0,0,0
o,0x00000000,1716940784.386266,172.16.1.2,62853,172.16.3.2,5101,7240,10172,0,64256,65728,6,6,4,1460,750,1,992,79,66348,63452,65700,0,8688,0,0,0
i,0x00000000,1716940784.415916,172.16.1.2,62853,172.16.3.2,5101,7240,10172,0,64256,65728,6,6,4,1460,750,1,992,79,66348,66348,65700,0,10136,0,0,0
o,0x00000000,1716940784.415926,172.16.1.2,62853,172.16.3.2,5101,7240,10172,0,64256,65728,6,6,4,1460,729,1,992,75,66348,63452,65700,0,7240,0,0,0
o,0x00000000,1716940784.416394,172.16.1.2,62853,172.16.3.2,5101,7240,10172,0,64256,65728,6,6,4,1460,729,1,992,75,66348,63452,65700,0,8688,0,0,0
i,0x00000000,1716940784.445022,172.16.1.2,62853,172.16.3.2,5101,7240,10172,0,64256,65728,6,6,4,1460,729,1,992,75,66348,66348,65700,0,10136,0,0,0
o,0x00000000,1716940784.445028,172.16.1.2,62853,172.16.3.2,5101,7240,10172,0,64256,65728,6,6,4,1460,698,1,992,73,66348,63452,65700,0,7240,0,0,0
o,0x00000000,1716940784.445274,172.16.1.2,62853,172.16.3.2,5101,7240,10172,0,64256,65728,6,6,4,1460,698,1,992,73,66348,63452,65700,0,8688,0,0,0
i,0x00000000,1716940784.565534,172.16.1.2,62853,172.16.3.2,5101,7240,10172,0,64256,65728,6,6,4,1460,698,1,992,73,66348,66348,65700,0,10136,0,0,0
o,0x00000000,1716940784.565550,172.16.1.2,62853,172.16.3.2,5101,7240,11632,0,64256,65728,6,6,4,1460,683,1,992,69,66348,63452,65700,0,7240,0,0,0
o,0x00000000,1716940784.565794,172.16.1.2,62853,172.16.3.2,5101,7240,11632,0,64256,65728,6,6,4,1460,683,1,992,69,66348,63452,65700,0,8688,0,0,0
o,0x00000000,1716940784.566024,172.16.1.2,62853,172.16.3.2,5101,7240,11632,0,64256,65728,6,6,4,1460,683,1,992,69,66348,63452,65700,0,10136,0,0,0
i,0x00000000,1716940784.585364,172.16.1.2,62853,172.16.3.2,5101,7240,11632,0,64256,65728,6,6,4,1460,683,1,992,69,66348,66348,65700,0,11584,0,0,0
o,0x00000000,1716940784.585374,172.16.1.2,62853,172.16.3.2,5101,7240,11632,0,65728,65728,6,6,4,1460,674,1,992,64,66348,64900,65700,0,10136,0,0,0
i,0x00000000,1716940784.615143,172.16.1.2,62853,172.16.3.2,5101,7240,11632,0,65728,65728,6,6,4,1460,674,1,992,64,66348,64900,65700,0,11584,0,0,0
o,0x00000000,1716940784.615157,172.16.1.2,62853,172.16.3.2,5101,7240,11632,0,64256,65728,6,6,4,1460,670,1,992,59,66348,62004,65700,0,8688,0,0,0
o,0x00000000,1716940784.615417,172.16.1.2,62853,172.16.3.2,5101,7240,11632,0,64256,65728,6,6,4,1460,670,1,992,59,66348,62004,65700,0,10136,0,0,0
i,0x00000000,1716940784.645590,172.16.1.2,62853,172.16.3.2,5101,7240,11632,0,64256,65728,6,6,4,1460,670,1,992,59,66348,66348,65700,0,11584,0,0,0
o,0x00000000,1716940784.645598,172.16.1.2,62853,172.16.3.2,5101,7240,11632,0,64256,65728,6,6,4,1460,667,1,992,55,66348,63452,65700,0,8688,0,0,0
o,0x00000000,1716940784.645839,172.16.1.2,62853,172.16.3.2,5101,7240,11632,0,64256,65728,6,6,4,1460,667,1,992,55,66348,63452,65700,0,10136,0,0,0
i,0x00000000,1716940784.725633,172.16.1.2,62853,172.16.3.2,5101,7240,11632,0,64256,65728,6,6,4,1460,667,1,992,55,66348,66348,65700,0,11584,0,0,0
o,0x00000000,1716940784.725654,172.16.1.2,62853,172.16.3.2,5101,7240,11632,0,64256,65728,6,6,4,1460,648,1,992,56,66348,63452,65700,0,8688,0,0,0
o,0x00000000,1716940784.725909,172.16.1.2,62853,172.16.3.2,5101,7240,11632,0,64256,65728,6,6,4,1460,648,1,992,56,66348,63452,65700,0,10136,0,0,0
i,0x00000000,1716940784.756165,172.16.1.2,62853,172.16.3.2,5101,7240,11632,0,64256,65728,6,6,4,1460,648,1,992,56,66348,66348,65700,0,11584,0,0,0
o,0x00000000,1716940784.756177,172.16.1.2,62853,172.16.3.2,5101,7240,13092,0,65728,65728,6,6,4,1460,643,1,992,53,66348,64900,65700,0,10136,0,0,0
o,0x00000000,1716940784.756453,172.16.1.2,62853,172.16.3.2,5101,7240,13092,0,65728,65728,6,6,4,1460,643,1,992,53,66348,64900,65700,0,11584,0,0,0
i,0x00000000,1716940784.804651,172.16.1.2,62853,172.16.3.2,5101,7240,13092,0,65728,65728,6,6,4,1460,643,1,992,53,66348,64900,65700,0,13032,0,0,0
o,0x00000000,1716940784.804666,172.16.1.2,62853,172.16.3.2,5101,7240,13092,0,64256,65728,6,6,4,1460,651,1,992,52,66348,62004,65700,0,10136,0,0,0
o,0x00000000,1716940784.804904,172.16.1.2,62853,172.16.3.2,5101,7240,13092,0,64256,65728,6,6,4,1460,651,1,992,52,66348,62004,65700,0,11584,0,0,0
i,0x00000000,1716940784.835918,172.16.1.2,62853,172.16.3.2,5101,7240,13092,0,64256,65728,6,6,4,1460,651,1,992,52,66348,66348,65700,0,13032,0,0,0
o,0x00000000,1716940784.835926,172.16.1.2,62853,172.16.3.2,5101,7240,13092,0,64256,65728,6,6,4,1460,658,1,992,51,66348,63452,65700,0,10136,0,0,0
o,0x00000000,1716940784.836330,172.16.1.2,62853,172.16.3.2,5101,7240,13092,0,64256,65728,6,6,4,1460,658,1,992,51,66348,63452,65700,0,11584,0,0,0
i,0x00000000,1716940784.865406,172.16.1.2,62853,172.16.3.2,5101,7240,13092,0,64256,65728,6,6,4,1460,658,1,992,51,66348,66348,65700,0,13032,0,0,0
o,0x00000000,1716940784.865413,172.16.1.2,62853,172.16.3.2,5101,7240,13092,0,65728,65728,6,6,4,1460,664,1,992,50,66348,64900,65700,0,11584,0,0,0
i,0x00000000,1716940784.914464,172.16.1.2,62853,172.16.3.2,5101,7240,13092,0,65728,65728,6,6,4,1460,664,1,992,50,66348,64900,65700,0,13032,0,0,0
o,0x00000000,1716940784.914471,172.16.1.2,62853,172.16.3.2,5101,7240,13092,0,64256,65728,6,6,4,1460,653,1,992,50,66348,62004,65700,0,10136,0,0,0
o,0x00000000,1716940784.914718,172.16.1.2,62853,172.16.3.2,5101,7240,13092,0,64256,65728,6,6,4,1460,653,1,992,50,66348,62004,65700,0,11584,0,0,0
i,0x00000000,1716940784.965209,172.16.1.2,62853,172.16.3.2,5101,7240,13092,0,64256,65728,6,6,4,1460,653,1,992,50,66348,66348,65700,0,13032,0,0,0
o,0x00000000,1716940784.965223,172.16.1.2,62853,172.16.3.2,5101,7240,14552,0,64256,65728,6,6,4,1460,652,1,992,48,66348,63452,65700,0,10136,0,0,0
o,0x00000000,1716940784.965463,172.16.1.2,62853,172.16.3.2,5101,7240,14552,0,64256,65728,6,6,4,1460,652,1,992,48,66348,63452,65700,0,11584,0,0,0
o,0x00000000,1716940784.965708,172.16.1.2,62853,172.16.3.2,5101,7240,14552,0,64256,65728,6,6,4,1460,652,1,992,48,66348,63452,65700,0,13032,0,0,0
i,0x00000000,1716940785.025659,172.16.1.2,62853,172.16.3.2,5101,7240,14552,0,64256,65728,6,6,4,1460,652,1,992,48,66348,66348,65700,0,14480,0,0,0
o,0x00000000,1716940785.025676,172.16.1.2,62853,172.16.3.2,5101,7240,14552,0,64256,65728,6,6,4,1460,659,1,992,48,66348,63452,65700,0,11584,0,0,0
o,0x00000000,1716940785.025941,172.16.1.2,62853,172.16.3.2,5101,7240,14552,0,64256,65728,6,6,4,1460,659,1,992,48,66348,63452,65700,0,13032,0,0,0
i,0x00000000,1716940785.074439,172.16.1.2,62853,172.16.3.2,5101,7240,14552,0,64256,65728,6,6,4,1460,659,1,992,48,66348,66348,65700,0,14480,0,0,0
o,0x00000000,1716940785.074460,172.16.1.2,62853,172.16.3.2,5101,7240,14552,0,64256,65728,6,6,4,1460,673,1,992,50,66348,63452,65700,0,11584,0,0,0
o,0x00000000,1716940785.074733,172.16.1.2,62853,172.16.3.2,5101,7240,14552,0,64256,65728,6,6,4,1460,673,1,992,50,66348,63452,65700,0,13032,0,0,0
i,0x00000000,1716940785.114809,172.16.1.2,62853,172.16.3.2,5101,7240,14552,0,64256,65728,6,6,4,1460,673,1,992,50,66348,66348,65700,0,14480,0,0,0
o,0x00000000,1716940785.114834,172.16.1.2,62853,172.16.3.2,5101,7240,14552,0,65728,65728,6,6,4,1460,685,1,992,51,66348,64900,65700,0,13032,0,0,0
i,0x00000000,1716940785.145998,172.16.1.2,62853,172.16.3.2,5101,7240,14552,0,65728,65728,6,6,4,1460,685,1,992,51,66348,64900,65700,0,14480,0,0,0
o,0x00000000,1716940785.146018,172.16.1.2,62853,172.16.3.2,5101,7240,14552,0,64256,65728,6,6,4,1460,692,1,992,51,66348,62004,65700,0,11584,0,0,0
o,0x00000000,1716940785.146416,172.16.1.2,62853,172.16.3.2,5101,7240,14552,0,64256,65728,6,6,4,1460,692,1,992,51,66348,62004,65700,0,13032,0,0,0
i,0x00000000,1716940785.194844,172.16.1.2,62853,172.16.3.2,5101,7240,14552,0,64256,65728,6,6,4,1460,692,1,992,51,66348,66348,65700,0,14480,0,0,0
o,0x00000000,1716940785.194858,172.16.1.2,62853,172.16.3.2,5101,7240,14552,0,64256,65728,6,6,4,1460,698,1,992,50,66348,63452,65700,0,11584,0,0,0
o,0x00000000,1716940785.195112,172.16.1.2,62853,172.16.3.2,5101,7240,14552,0,64256,65728,6,6,4,1460,698,1,992,50,66348,63452,65700,0,13032,0,0,0
i,0x00000000,1716940785.245716,172.16.1.2,62853,172.16.3.2,5101,7240,14552,0,64256,65728,6,6,4,1460,698,1,992,50,66348,66348,65700,0,14480,0,0,0
o,0x00000000,1716940785.245729,172.16.1.2,62853,172.16.3.2,5101,7240,16012,0,65728,65728,6,6,4,1460,723,1,992,55,66348,64900,65700,0,13032,0,0,0
o,0x00000000,1716940785.246003,172.16.1.2,62853,172.16.3.2,5101,7240,16012,0,65728,65728,6,6,4,1460,723,1,992,55,66348,64900,65700,0,14480,0,0,0
i,0x00000000,1716940785.255551,172.16.1.2,62853,172.16.3.2,5101,7240,16012,0,65728,65728,6,6,4,1460,723,1,992,55,66348,64900,65700,0,15928,0,0,0
o,0x00000000,1716940785.255569,172.16.1.2,62853,172.16.3.2,5101,7240,16012,0,64256,65728,6,6,4,1460,721,1,992,52,66348,62004,65700,0,13032,0,0,0
o,0x00000000,1716940785.255817,172.16.1.2,62853,172.16.3.2,5101,7240,16012,0,64256,65728,6,6,4,1460,721,1,992,52,66348,62004,65700,0,14480,0,0,0
i,0x00000000,1716940785.324870,172.16.1.2,62853,172.16.3.2,5101,7240,16012,0,64256,65728,6,6,4,1460,721,1,992,52,66348,66348,65700,0,15928,0,0,0
o,0x00000000,1716940785.324888,172.16.1.2,62853,172.16.3.2,5101,7240,16012,0,64256,65728,6,6,4,1460,731,1,992,53,66348,63452,65700,0,13032,0,0,0
o,0x00000000,1716940785.325133,172.16.1.2,62853,172.16.3.2,5101,7240,16012,0,64256,65728,6,6,4,1460,731,1,992,53,66348,63452,65700,0,14480,0,0,0
i,0x00000000,1716940785.365594,172.16.1.2,62853,172.16.3.2,5101,7240,16012,0,64256,65728,6,6,4,1460,731,1,992,53,66348,66348,65700,0,15928,0,0,0
o,0x00000000,1716940785.365633,172.16.1.2,62853,172.16.3.2,5101,7240,16012,0,64256,65728,6,6,4,1460,740,1,992,53,66348,63452,65700,0,13032,0,0,0
o,0x00000000,1716940785.365904,172.16.1.2,62853,172.16.3.2,5101,7240,16012,0,64256,65728,6,6,4,1460,740,1,992,53,66348,63452,65700,0,14480,0,0,0
i,0x00000000,1716940785.404988,172.16.1.2,62853,172.16.3.2,5101,7240,16012,0,64256,65728,6,6,4,1460,740,1,992,53,66348,66348,65700,0,15928,0,0,0
o,0x00000000,1716940785.405001,172.16.1.2,62853,172.16.3.2,5101,7240,16012,0,65728,65728,6,6,4,1460,748,1,992,52,66348,64900,65700,0,14480,0,0,0
i,0x00000000,1716940785.444652,172.16.1.2,62853,172.16.3.2,5101,7240,16012,0,65728,65728,6,6,4,1460,748,1,992,52,66348,64900,65700,0,15928,0,0,0
o,0x00000000,1716940785.444660,172.16.1.2,62853,172.16.3.2,5101,7240,16012,0,64256,65728,6,6,4,1460,751,1,992,51,66348,62004,65700,0,13032,0,0,0
o,0x00000000,1716940785.444918,172.16.1.2,62853,172.16.3.2,5101,7240,16012,0,64256,65728,6,6,4,1460,751,1,992,51,66348,62004,65700,0,14480,0,0,0
i,0x00000000,1716940785.494973,172.16.1.2,62853,172.16.3.2,5101,7240,16012,0,64256,65728,6,6,4,1460,751,1,992,51,66348,66348,65700,0,15928,0,0,0
o,0x00000000,1716940785.494994,172.16.1.2,62853,172.16.3.2,5101,7240,17472,0,64256,65728,6,6,4,1460,758,1,992,51,66348,63452,65700,0,13032,0,0,0
o,0x00000000,1716940785.495275,172.16.1.2,62853,172.16.3.2,5101,7240,17472,0,64256,65728,6,6,4,1460,758,1,992,51,66348,63452,65700,0,14480,0,0,0
o,0x00000000,1716940785.495528,172.16.1.2,62853,172.16.3.2,5101,7240,17472,0,64256,65728,6,6,4,1460,758,1,992,51,66348,63452,65700,0,15928,0,0,0
i,0x00000000,1716940785.525100,172.16.1.2,62853,172.16.3.2,5101,7240,17472,0,64256,65728,6,6,4,1460,758,1,992,51,66348,66348,65700,0,17376,0,0,0
o,0x00000000,1716940785.525122,172.16.1.2,62853,172.16.3.2,5101,7240,17472,0,64256,65728,6,6,4,1460,772,1,992,53,66348,63452,65700,0,14480,0,0,0
o,0x00000000,1716940785.525401,172.16.1.2,62853,172.16.3.2,5101,7240,17472,0,64256,65728,6,6,4,1460,772,1,992,53,66348,63452,65700,0,15928,0,0,0
i,0x00000000,1716940785.584909,172.16.1.2,62853,172.16.3.2,5101,7240,17472,0,64256,65728,6,6,4,1460,772,1,992,53,66348,66348,65700,0,17376,0,0,0
o,0x00000000,1716940785.584947,172.16.1.2,62853,172.16.3.2,5101,7240,17472,0,64256,65728,6,6,4,1460,780,1,992,53,66348,63452,65700,0,14480,0,0,0
o,0x00000000,1716940785.585305,172.16.1.2,62853,172.16.3.2,5101,7240,17472,0,64256,65728,6,6,4,1460,780,1,992,53,66348,63452,65700,0,15928,0,0,0
i,0x00000000,1716940785.634138,172.16.1.2,62853,172.16.3.2,5101,7240,17472,0,64256,65728,6,6,4,1460,780,1,992,53,66348,66348,65700,0,17376,0,0,0
o,0x00000000,1716940785.634158,172.16.1.2,62853,172.16.3.2,5101,7240,17472,0,64256,65728,6,6,4,1460,791,1,992,54,66348,63452,65700,0,14480,0,0,0
o,0x00000000,1716940785.634406,172.16.1.2,62853,172.16.3.2,5101,7240,17472,0,64256,65728,6,6,4,1460,791,1,992,54,66348,63452,65700,0,15928,0,0,0
i,0x00000000,1716940785.685193,172.16.1.2,62853,172.16.3.2,5101,7240,17472,0,64256,65728,6,6,4,1460,791,1,992,54,66348,66348,65700,0,17376,0,0,0
o,0x00000000,1716940785.685215,172.16.1.2,62853,172.16.3.2,5101,7240,17472,0,65728,65728,6,6,4,1460,805,1,992,56,66348,64900,65700,0,15928,0,0,0
i,0x00000000,1716940785.735014,172.16.1.2,62853,172.16.3.2,5101,7240,17472,0,65728,65728,6,6,4,1460,805,1,992,56,66348,64900,65700,0,17376,0,0,0
o,0x00000000,1716940785.735028,172.16.1.2,62853,172.16.3.2,5101,7240,17472,0,64256,65728,6,6,4,1460,821,1,992,57,66348,62004,65700,0,14480,0,0,0
o,0x00000000,1716940785.735272,172.16.1.2,62853,172.16.3.2,5101,7240,17472,0,64256,65728,6,6,4,1460,821,1,992,57,66348,62004,65700,0,15928,0,0,0
i,0x00000000,1716940785.774746,172.16.1.2,62853,172.16.3.2,5101,7240,17472,0,64256,65728,6,6,4,1460,821,1,992,57,66348,66348,65700,0,17376,0,0,0
o,0x00000000,1716940785.774754,172.16.1.2,62853,172.16.3.2,5101,7240,17472,0,64256,65728,6,6,4,1460,827,1,992,56,66348,63452,65700,0,14480,0,0,0
o,0x00000000,1716940785.775102,172.16.1.2,62853,172.16.3.2,5101,7240,17472,0,64256,65728,6,6,4,1460,827,1,992,56,66348,63452,65700,0,15928,0,0,0
i,0x00000000,1716940785.803763,172.16.1.2,62853,172.16.3.2,5101,7240,17472,0,64256,65728,6,6,4,1460,827,1,992,56,66348,66348,65700,0,17376,0,0,0
o,0x00000000,1716940785.803771,172.16.1.2,62853,172.16.3.2,5101,7240,18932,0,64256,65728,6,6,4,1460,844,1,992,58,66348,63452,65700,0,14480,0,0,0
o,0x00000000,1716940785.804005,172.16.1.2,62853,172.16.3.2,5101,7240,18932,0,64256,65728,6,6,4,1460,844,1,992,58,66348,63452,65700,0,15928,0,0,0
o,0x00000000,1716940785.804247,172.16.1.2,62853,172.16.3.2,5101,7240,18932,0,64256,65728,6,6,4,1460,844,1,992,58,66348,63452,65700,0,17376,0,0,0
i,0x00000000,1716940785.854375,172.16.1.2,62853,172.16.3.2,5101,7240,18932,0,64256,65728,6,6,4,1460,844,1,992,58,66348,66348,65700,0,18824,0,0,0
o,0x00000000,1716940785.854384,172.16.1.2,62853,172.16.3.2,5101,7240,18932,0,64256,65728,6,6,4,1460,871,1,992,63,66348,63452,65700,0,15928,0,0,0
o,0x00000000,1716940785.854640,172.16.1.2,62853,172.16.3.2,5101,7240,18932,0,64256,65728,6,6,4,1460,871,1,992,63,66348,63452,65700,0,17376,0,0,0
i,0x00000000,1716940785.903863,172.16.1.2,62853,172.16.3.2,5101,7240,18932,0,64256,65728,6,6,4,1460,871,1,992,63,66348,66348,65700,0,18824,0,0,0
o,0x00000000,1716940785.903882,172.16.1.2,62853,172.16.3.2,5101,7240,18932,0,65728,65728,6,6,4,1460,891,1,992,65,66348,64900,65700,0,17376,0,0,0
i,0x00000000,1716940785.933591,172.16.1.2,62853,172.16.3.2,5101,7240,18932,0,65728,65728,6,6,4,1460,891,1,992,65,66348,64900,65700,0,18824,0,0,0
o,0x00000000,1716940785.933611,172.16.1.2,62853,172.16.3.2,5101,7240,18932,0,64256,65728,6,6,4,1460,896,1,992,62,66348,62004,65700,0,15928,0,0,0
o,0x00000000,1716940785.933889,172.16.1.2,62853,172.16.3.2,5101,7240,18932,0,64256,65728,6,6,4,1460,896,1,992,62,66348,62004,65700,0,17376,0,0,0
i,0x00000000,1716940785.994201,172.16.1.2,62853,172.16.3.2,5101,7240,18932,0,64256,65728,6,6,4,1460,896,1,992,62,66348,65216,65700,0,18824,0,0,0
o,0x00000000,1716940785.994212,172.16.1.2,62853,172.16.3.2,5101,7240,18932,0,65728,65728,6,6,4,1460,904,1,992,61,66348,63768,65700,0,17376,0,0,0
i,0x00000000,1716940786.024226,172.16.1.2,62853,172.16.3.2,5101,7240,18932,0,65728,65728,6,6,4,1460,904,1,992,61,66348,66348,65700,0,18824,0,0,0
o,0x00000000,1716940786.024241,172.16.1.2,62853,172.16.3.2,5101,7240,18932,0,64256,65728,6,6,4,1460,907,1,992,58,66348,63452,65700,0,15928,0,0,0
o,0x00000000,1716940786.024499,172.16.1.2,62853,172.16.3.2,5101,7240,18932,0,64256,65728,6,6,4,1460,907,1,992,58,66348,63452,65700,0,17376,0,0,0
i,0x00000000,1716940786.074216,172.16.1.2,62853,172.16.3.2,5101,7240,18932,0,64256,65728,6,6,4,1460,907,1,992,58,66348,66348,65700,0,18824,0,0,0
o,0x00000000,1716940786.074226,172.16.1.2,62853,172.16.3.2,5101,7240,18932,0,64256,65728,6,6,4,1460,914,1,992,58,66348,63452,65700,0,15928,0,0,0
o,0x00000000,1716940786.074462,172.16.1.2,62853,172.16.3.2,5101,7240,18932,0,64256,65728,6,6,4,1460,914,1,992,58,66348,63452,65700,0,17376,0,0,0
i,0x00000000,1716940786.114443,172.16.1.2,62853,172.16.3.2,5101,7240,18932,0,64256,65728,6,6,4,1460,914,1,992,58,66348,66348,65700,0,18824,0,0,0
o,0x00000000,1716940786.114494,172.16.1.2,62853,172.16.3.2,5101,7240,20392,0,64256,65728,6,6,4,1460,924,1,992,58,66348,63452,65700,0,15928,0,0,0
o,0x00000000,1716940786.114773,172.16.1.2,62853,172.16.3.2,5101,7240,20392,0,64256,65728,6,6,4,1460,924,1,992,58,66348,63452,65700,0,17376,0,0,0
o,0x00000000,1716940786.115023,172.16.1.2,62853,172.16.3.2,5101,7240,20392,0,64256,65728,6,6,4,1460,924,1,992,58,66348,63452,65700,0,18824,0,0,0
i,0x00000000,1716940786.154232,172.16.1.2,62853,172.16.3.2,5101,7240,20392,0,64256,65728,6,6,4,1460,924,1,992,58,66348,66348,65700,0,20272,0,0,0
o,0x00000000,1716940786.154252,172.16.1.2,62853,172.16.3.2,5101,7240,20392,0,64256,65728,6,6,4,1460,949,1,992,63,66348,63452,65700,0,17376,0,0,0
o,0x00000000,1716940786.154514,172.16.1.2,62853,172.16.3.2,5101,7240,20392,0,64256,65728,6,6,4,1460,949,1,992,63,66348,63452,65700,0,18824,0,0,0
i,0x00000000,1716940786.203580,172.16.1.2,62853,172.16.3.2,5101,7240,20392,0,64256,65728,6,6,4,1460,949,1,992,63,66348,66348,65700,0,20272,0,0,0
o,0x00000000,1716940786.203603,172.16.1.2,62853,172.16.3.2,5101,7240,20392,0,64256,65728,6,6,4,1460,971,1,992,66,66348,63452,65700,0,17376,0,0,0
o,0x00000000,1716940786.203859,172.16.1.2,62853,172.16.3.2,5101,7240,20392,0,64256,65728,6,6,4,1460,971,1,992,66,66348,63452,65700,0,18824,0,0,0
i,0x00000000,1716940786.263867,172.16.1.2,62853,172.16.3.2,5101,7240,20392,0,64256,65728,6,6,4,1460,971,1,992,66,66348,66348,65700,0,20272,0,0,0
o,0x00000000,1716940786.263907,172.16.1.2,62853,172.16.3.2,5101,7240,20392,0,64256,65728,6,6,4,1460,982,1,992,65,66348,63452,65700,0,17376,0,0,0
o,0x00000000,1716940786.264174,172.16.1.2,62853,172.16.3.2,5101,7240,20392,0,64256,65728,6,6,4,1460,982,1,992,65,66348,63452,65700,0,18824,0,0,0
i,0x00000000,1716940786.324069,172.16.1.2,62853,172.16.3.2,5101,7240,20392,0,64256,65728,6,6,4,1460,982,1,992,65,66348,66348,65700,0,20272,0,0,0
o,0x00000000,1716940786.324082,172.16.1.2,62853,172.16.3.2,5101,7240,20392,0,64256,65728,6,6,4,1460,992,1,992,64,66348,63452,65700,0,17376,0,0,0
o,0x00000000,1716940786.324329,172.16.1.2,62853,172.16.3.2,5101,7240,20392,0,64256,65728,6,6,4,1460,992,1,992,64,66348,63452,65700,0,18824,0,0,0
i,0x00000000,1716940786.374247,172.16.1.2,62853,172.16.3.2,5101,7240,20392,0,64256,65728,6,6,4,1460,992,1,992,64,66348,66348,65700,0,20272,0,0,0
o,0x00000000,1716940786.374254,172.16.1.2,62853,172.16.3.2,5101,7240,20392,0,64256,65728,6,6,4,1460,1008,1,992,66,66348,63452,65700,0,17376,0,0,0
o,0x00000000,1716940786.374500,172.16.1.2,62853,172.16.3.2,5101,7240,20392,0,64256,65728,6,6,4,1460,1008,1,992,66,66348,63452,65700,0,18824,0,0,0
i,0x00000000,1716940786.423645,172.16.1.2,62853,172.16.3.2,5101,7240,20392,0,64256,65728,6,6,4,1460,1008,1,992,66,66348,66348,65700,0,20272,0,0,0
o,0x00000000,1716940786.423657,172.16.1.2,62853,172.16.3.2,5101,7240,20392,0,65728,65728,6,6,4,1460,1018,1,992,65,66348,64900,65700,0,18824,0,0,0
i,0x00000000,1716940786.434361,172.16.1.2,62853,172.16.3.2,5101,7240,20392,0,65728,65728,6,6,4,1460,1018,1,992,65,66348,64900,65700,0,20272,0,0,0
o,0x00000000,1716940786.434368,172.16.1.2,62853,172.16.3.2,5101,7240,20392,0,64256,65728,6,6,4,1460,1019,1,992,62,66348,62004,65700,0,17376,0,0,0
o,0x00000000,1716940786.434653,172.16.1.2,62853,172.16.3.2,5101,7240,20392,0,64256,65728,6,6,4,1460,1019,1,992,62,66348,62004,65700,0,18824,0,0,0
i,0x00000000,1716940786.484339,172.16.1.2,62853,172.16.3.2,5101,7240,20392,0,64256,65728,6,6,4,1460,1019,1,992,62,66348,66348,65700,0,20272,0,0,0
o,0x00000000,1716940786.484361,172.16.1.2,62853,172.16.3.2,5101,7240,21852,0,64256,65728,6,6,4,1460,1040,1,992,65,66348,63452,65700,0,17376,0,0,0
o,0x00000000,1716940786.484640,172.16.1.2,62853,172.16.3.2,5101,7240,21852,0,64256,65728,6,6,4,1460,1040,1,992,65,66348,63452,65700,0,18824,0,0,0
o,0x00000000,1716940786.484889,172.16.1.2,62853,172.16.3.2,5101,7240,21852,0,64256,65728,6,6,4,1460,1040,1,992,65,66348,63452,65700,0,20272,0,0,0
i,0x00000000,1716940786.534225,172.16.1.2,62853,172.16.3.2,5101,7240,21852,0,64256,65728,6,6,4,1460,1040,1,992,65,66348,66348,65700,0,21720,0,0,0
o,0x00000000,1716940786.534246,172.16.1.2,62853,172.16.3.2,5101,7240,21852,0,65728,65728,6,6,4,1460,1062,1,992,68,66348,64900,65700,0,20272,0,0,0
i,0x00000000,1716940786.552763,172.16.1.2,62853,172.16.3.2,5101,7240,21852,0,65728,65728,6,6,4,1460,1062,1,992,68,66348,64900,65700,0,21720,0,0,0
o,0x00000000,1716940786.552771,172.16.1.2,62853,172.16.3.2,5101,7240,21852,0,64256,65728,6,6,4,1460,1070,1,992,67,66348,62004,65700,0,18824,0,0,0
o,0x00000000,1716940786.553006,172.16.1.2,62853,172.16.3.2,5101,7240,21852,0,64256,65728,6,6,4,1460,1070,1,992,67,66348,62004,65700,0,20272,0,0,0
i,0x00000000,1716940786.593560,172.16.1.2,62853,172.16.3.2,5101,7240,21852,0,64256,65728,6,6,4,1460,1070,1,992,67,66348,66348,65700,0,21720,0,0,0
