enable_time_secs=1726830546	enable_time_usecs=473111	siftrver=1.3.0	sysname=FreeBSD	sysver=1401000	ipmode=4
o,1726830546.473517,10.0.2.15,22,10.0.2.2,49887,1073725440,17746,1026,65535,65700,0,0,4,1460,312,0,16777220,240000,33580,172,65700,0,0,0,3823920451,63
i,1726830546.474349,10.0.2.15,22,10.0.2.2,49887,1073725440,17746,1026,65535,65700,0,0,4,1460,312,0,16777220,240000,33580,172,65700,0,172,0,3823920451,63
o,1726830546.474382,10.0.2.15,22,10.0.2.2,49887,1073725440,17918,1026,65535,65700,0,0,4,1460,312,0,16777220,240000,33580,72,65700,0,0,0,3823920451,63
i,1726830546.474876,10.0.2.15,22,10.0.2.2,49887,1073725440,17918,1026,65535,65700,0,0,4,1460,312,0,16777220,240000,33580,72,65700,0,72,0,3823920451,63
i,1726830546.474893,10.0.2.15,22,10.0.2.2,49887,1073725440,17990,1026,65535,65700,0,0,4,1460,312,0,4,240000,33580,0,65700,0,0,0,3823920451,63
i,1726830546.474908,10.0.2.15,22,10.0.2.2,49887,1073725440,17990,1026,65535,65700,0,0,4,1460,312,0,4,240000,33580,0,65700,96,0,0,3823920451,63
o,1726830546.474926,10.0.2.15,22,10.0.2.2,49887,1073725440,17990,1026,65535,65604,0,0,5,1460,312,0,5,240000,33580,0,65700,96,0,0,3823920451,63
o,1726830546.475391,10.0.2.15,22,10.0.2.2,49887,1073725440,17990,1026,65535,65604,0,0,8,1460,312,0,4,240000,33580,0,65700,0,0,0,3823920451,63
i,1726830546.475959,10.0.2.15,22,10.0.2.2,49887,1073725440,17990,1026,65535,65604,0,0,8,1460,312,0,67108884,240000,33580,0,65700,0,1,0,3823920451,63
i,1726830549.684239,10.0.2.15,22,10.0.2.2,49895,1073725440,14600,0,65535,65700,0,0,4,1460,312,0,16777216,260000,33580,0,65700,0,0,0,684052475,63
o,1726830549.693634,10.0.2.15,22,10.0.2.2,49895,1073725440,14600,1026,65535,65700,0,0,4,1460,312,0,16777216,260000,33580,38,65700,42,0,0,684052475,63
i,1726830549.694602,10.0.2.15,22,10.0.2.2,49895,1073725440,14600,1026,65535,65700,0,0,4,1460,312,0,16777216,260000,33580,38,65700,0,38,0,684052475,63
i,1726830549.694649,10.0.2.15,22,10.0.2.2,49895,1073725440,14638,1026,65535,65700,0,0,4,1460,312,0,0,230000,33580,0,65700,0,0,0,684052475,63
i,1726830549.694676,10.0.2.15,22,10.0.2.2,49895,1073725440,14638,1026,65535,65700,0,0,4,1460,312,0,0,230000,33580,0,65700,1460,0,0,684052475,63
o,1726830549.694693,10.0.2.15,22,10.0.2.2,49895,1073725440,14638,1026,65535,65700,0,0,4,1460,312,0,1,230000,33580,0,65700,1536,0,0,684052475,63
o,1726830549.695414,10.0.2.15,22,10.0.2.2,49895,1073725440,14638,1026,65535,65700,0,0,4,1460,312,0,16777216,230000,33580,1120,65700,1536,0,0,684052475,63
i,1726830549.695938,10.0.2.15,22,10.0.2.2,49895,1073725440,14638,1026,65535,65700,0,0,4,1460,312,0,16777216,230000,33580,1120,65700,0,1120,0,684052475,63
i,1726830549.697406,10.0.2.15,22,10.0.2.2,49895,1073725440,15758,1026,65535,65700,0,0,4,1460,312,0,0,230000,33580,0,65700,0,0,0,684052475,63
o,1726830549.700491,10.0.2.15,22,10.0.2.2,49895,1073725440,15758,1026,65535,65700,0,0,4,1460,312,0,16777216,230000,33580,492,65700,0,0,0,684052475,63
i,1726830549.701355,10.0.2.15,22,10.0.2.2,49895,1073725440,15758,1026,65535,65700,0,0,4,1460,312,0,16777216,230000,33580,492,65700,0,492,0,684052475,63
i,1726830549.705576,10.0.2.15,22,10.0.2.2,49895,1073725440,16250,1026,65535,65700,0,0,4,1460,312,0,0,230000,33580,0,65700,0,0,0,684052475,63
o,1726830549.705730,10.0.2.15,22,10.0.2.2,49895,1073725440,16250,1026,65535,65700,0,0,4,1460,312,0,16777216,230000,33580,44,65700,0,0,0,684052475,63
i,1726830549.706629,10.0.2.15,22,10.0.2.2,49895,1073725440,16250,1026,65535,65700,0,0,4,1460,312,0,16777216,230000,33580,44,65700,0,44,0,684052475,63
i,1726830549.706647,10.0.2.15,22,10.0.2.2,49895,1073725440,16294,1026,65535,65700,0,0,4,1460,312,0,0,230000,33580,0,65700,0,0,0,684052475,63
o,1726830549.707910,10.0.2.15,22,10.0.2.2,49895,1073725440,16294,1026,65535,65700,0,0,4,1460,312,0,16777216,230000,33580,68,65700,0,0,0,684052475,63
i,1726830549.709008,10.0.2.15,22,10.0.2.2,49895,1073725440,16294,1026,65535,65700,0,0,4,1460,312,0,16777216,230000,33580,68,65700,0,68,0,684052475,63
i,1726830549.709051,10.0.2.15,22,10.0.2.2,49895,1073725440,16362,1026,65535,65700,0,0,4,1460,312,0,0,230000,33580,0,65700,0,0,0,684052475,63
o,1726830549.709767,10.0.2.15,22,10.0.2.2,49895,1073725440,16362,1026,65535,65700,0,0,4,1460,312,0,16777216,230000,33580,332,65700,0,0,0,684052475,63
i,1726830549.710511,10.0.2.15,22,10.0.2.2,49895,1073725440,16362,1026,65535,65700,0,0,4,1460,312,0,16777216,230000,33580,332,65700,0,332,0,684052475,63
i,1726830549.711933,10.0.2.15,22,10.0.2.2,49895,1073725440,16694,1026,65535,65700,0,0,4,1460,312,0,0,230000,33580,0,65700,0,0,0,684052475,63
o,1726830549.731153,10.0.2.15,22,10.0.2.2,49895,1073725440,16694,1026,65535,65700,0,0,4,1460,312,0,16777216,230000,33580,28,65700,0,0,0,684052475,63
i,1726830549.732093,10.0.2.15,22,10.0.2.2,49895,1073725440,16694,1026,65535,65700,0,0,4,1460,312,0,16777216,230000,33580,28,65700,0,28,0,684052475,63
i,1726830549.732121,10.0.2.15,22,10.0.2.2,49895,1073725440,16722,1026,65535,65700,0,0,4,1460,312,0,0,230000,33580,0,65700,0,0,0,684052475,63
o,1726830549.733418,10.0.2.15,22,10.0.2.2,49895,1073725440,16722,1026,65535,65700,0,0,4,1460,312,0,16777216,230000,33580,768,65700,112,0,0,684052475,63
i,1726830549.734178,10.0.2.15,22,10.0.2.2,49895,1073725440,16722,1026,65535,65700,0,0,4,1460,312,0,16777216,230000,33580,908,65700,112,768,0,684052475,63
o,1726830549.734195,10.0.2.15,22,10.0.2.2,49895,1073725440,17490,1026,65535,65700,0,0,4,1460,312,0,16777216,230000,33580,140,65700,112,0,0,684052475,63
i,1726830549.734996,10.0.2.15,22,10.0.2.2,49895,1073725440,17490,1026,65535,65700,0,0,4,1460,312,0,16777216,230000,33580,140,65700,0,140,0,684052475,63
o,1726830549.735089,10.0.2.15,22,10.0.2.2,49895,1073725440,17630,1026,65535,65700,0,0,4,1460,312,0,16777216,240000,33580,44,65700,0,0,0,684052475,63
i,1726830549.735614,10.0.2.15,22,10.0.2.2,49895,1073725440,17630,1026,65535,65700,0,0,4,1460,312,0,16777216,240000,33580,44,65700,0,44,0,684052475,63
i,1726830549.735630,10.0.2.15,22,10.0.2.2,49895,1073725440,17674,1026,65535,65700,0,0,4,1460,312,0,0,240000,33580,0,65700,0,0,0,684052475,63
o,1726830549.736215,10.0.2.15,22,10.0.2.2,49895,1073725440,17674,1026,65535,65700,0,0,4,1460,312,0,16777220,240000,33580,72,65700,0,0,0,684052475,63
i,1726830549.736847,10.0.2.15,22,10.0.2.2,49895,1073725440,17674,1026,65535,65700,0,0,4,1460,312,0,16777220,240000,33580,72,65700,0,72,0,684052475,63
o,1726830549.739731,10.0.2.15,22,10.0.2.2,49895,1073725440,17746,1026,65535,65700,0,0,4,1460,312,0,16777220,240000,33580,104,65700,0,0,0,684052475,63
i,1726830549.740184,10.0.2.15,22,10.0.2.2,49895,1073725440,17746,1026,65535,65700,0,0,4,1460,312,0,16777220,240000,33580,104,65700,0,104,0,684052475,63
o,1726830549.764167,10.0.2.15,22,10.0.2.2,49895,1073725440,17850,1026,65535,65700,0,0,4,1460,312,0,16777220,240000,33580,72,65700,0,0,0,684052475,63
i,1726830549.766765,10.0.2.15,22,10.0.2.2,49895,1073725440,17850,1026,65535,65700,0,0,4,1460,312,0,16777220,240000,33580,72,65700,0,72,0,684052475,63
i,1726830549.766845,10.0.2.15,22,10.0.2.2,49895,1073725440,17922,1026,65535,65700,0,0,4,1460,312,0,4,230000,33580,0,65700,0,0,0,684052475,63
i,1726830549.766916,10.0.2.15,22,10.0.2.2,49895,1073725440,17922,1026,65535,65700,0,0,4,1460,312,0,4,230000,33580,0,65700,96,0,0,684052475,63
o,1726830549.766974,10.0.2.15,22,10.0.2.2,49895,1073725440,17922,1026,65535,65604,0,0,5,1460,312,0,5,230000,33580,0,65700,96,0,0,684052475,63
o,1726830549.777350,10.0.2.15,22,10.0.2.2,49895,1073725440,17922,1026,65535,65604,0,0,8,1460,312,0,4,230000,33580,0,65700,0,0,0,684052475,63
i,1726830549.778281,10.0.2.15,22,10.0.2.2,49895,1073725440,17922,1026,65535,65604,0,0,8,1460,312,0,67108884,230000,33580,0,65700,0,1,0,684052475,63
i,1726830550.838088,10.0.2.15,22,10.0.2.2,49899,1073725440,14600,0,65535,65700,0,0,4,1460,312,0,16777216,260000,33580,0,65700,0,0,0,1418430198,63
o,1726830550.849177,10.0.2.15,22,10.0.2.2,49899,1073725440,14600,1026,65535,65700,0,0,4,1460,312,0,16777216,260000,33580,38,65700,42,0,0,1418430198,63
i,1726830550.849637,10.0.2.15,22,10.0.2.2,49899,1073725440,14600,1026,65535,65700,0,0,4,1460,312,0,16777216,260000,33580,38,65700,0,38,0,1418430198,63
i,1726830550.850041,10.0.2.15,22,10.0.2.2,49899,1073725440,14638,1026,65535,65700,0,0,4,1460,312,0,0,230000,33580,0,65700,0,0,0,1418430198,63
i,1726830550.850081,10.0.2.15,22,10.0.2.2,49899,1073725440,14638,1026,65535,65700,0,0,4,1460,312,0,0,230000,33580,0,65700,1460,0,0,1418430198,63
o,1726830550.850104,10.0.2.15,22,10.0.2.2,49899,1073725440,14638,1026,65535,65700,0,0,4,1460,312,0,1,230000,33580,0,65700,1536,0,0,1418430198,63
o,1726830550.850731,10.0.2.15,22,10.0.2.2,49899,1073725440,14638,1026,65535,65700,0,0,4,1460,312,0,16777216,230000,33580,1120,65700,1536,0,0,1418430198,63
i,1726830550.851234,10.0.2.15,22,10.0.2.2,49899,1073725440,14638,1026,65535,65700,0,0,4,1460,312,0,16777216,230000,33580,1120,65700,1536,1120,0,1418430198,63
i,1726830550.852482,10.0.2.15,22,10.0.2.2,49899,1073725440,15758,1026,65535,65700,0,0,4,1460,312,0,0,230000,33580,0,65700,0,0,0,1418430198,63
o,1726830550.855421,10.0.2.15,22,10.0.2.2,49899,1073725440,15758,1026,65535,65700,0,0,4,1460,312,0,16777216,230000,33580,492,65700,0,0,0,1418430198,63
i,1726830550.856081,10.0.2.15,22,10.0.2.2,49899,1073725440,15758,1026,65535,65700,0,0,4,1460,312,0,16777216,230000,33580,492,65700,0,492,0,1418430198,63
i,1726830550.860279,10.0.2.15,22,10.0.2.2,49899,1073725440,16250,1026,65535,65700,0,0,4,1460,312,0,0,240000,33580,0,65700,0,0,0,1418430198,63
i,1726830550.860299,10.0.2.15,22,10.0.2.2,49899,1073725440,16250,1026,65535,65700,0,0,4,1460,312,0,0,240000,33580,0,65700,16,0,0,1418430198,63
o,1726830550.860315,10.0.2.15,22,10.0.2.2,49899,1073725440,16250,1026,65535,65700,0,0,4,1460,312,0,1,240000,33580,0,65700,44,0,0,1418430198,63
o,1726830550.860444,10.0.2.15,22,10.0.2.2,49899,1073725440,16250,1026,65535,65700,0,0,4,1460,312,0,16777216,240000,33580,44,65700,0,0,0,1418430198,63
i,1726830550.861335,10.0.2.15,22,10.0.2.2,49899,1073725440,16250,1026,65535,65700,0,0,4,1460,312,0,16777216,240000,33580,44,65700,0,44,0,1418430198,63
i,1726830550.861383,10.0.2.15,22,10.0.2.2,49899,1073725440,16294,1026,65535,65700,0,0,4,1460,312,0,0,240000,33580,0,65700,0,0,0,1418430198,63
o,1726830550.862798,10.0.2.15,22,10.0.2.2,49899,1073725440,16294,1026,65535,65700,0,0,4,1460,312,0,16777216,240000,33580,68,65700,0,0,0,1418430198,63
i,1726830550.863380,10.0.2.15,22,10.0.2.2,49899,1073725440,16294,1026,65535,65700,0,0,4,1460,312,0,16777216,240000,33580,68,65700,0,68,0,1418430198,63
i,1726830550.863398,10.0.2.15,22,10.0.2.2,49899,1073725440,16362,1026,65535,65700,0,0,4,1460,312,0,0,240000,33580,0,65700,0,0,0,1418430198,63
o,1726830550.864705,10.0.2.15,22,10.0.2.2,49899,1073725440,16362,1026,65535,65700,0,0,4,1460,312,0,16777216,240000,33580,332,65700,0,0,0,1418430198,63
i,1726830550.865612,10.0.2.15,22,10.0.2.2,49899,1073725440,16362,1026,65535,65700,0,0,4,1460,312,0,16777216,240000,33580,332,65700,0,332,0,1418430198,63
i,1726830550.866797,10.0.2.15,22,10.0.2.2,49899,1073725440,16694,1026,65535,65700,0,0,4,1460,312,0,0,240000,33580,0,65700,0,0,0,1418430198,63
o,1726830550.885388,10.0.2.15,22,10.0.2.2,49899,1073725440,16694,1026,65535,65700,0,0,4,1460,312,0,16777216,240000,33580,28,65700,0,0,0,1418430198,63
i,1726830550.886022,10.0.2.15,22,10.0.2.2,49899,1073725440,16694,1026,65535,65700,0,0,4,1460,312,0,16777216,240000,33580,28,65700,0,28,0,1418430198,63
i,1726830550.886067,10.0.2.15,22,10.0.2.2,49899,1073725440,16722,1026,65535,65700,0,0,4,1460,312,0,0,230000,33580,0,65700,0,0,0,1418430198,63
o,1726830550.887521,10.0.2.15,22,10.0.2.2,49899,1073725440,16722,1026,65535,65700,0,0,4,1460,312,0,16777216,230000,33580,768,65700,112,0,0,1418430198,63
i,1726830550.888319,10.0.2.15,22,10.0.2.2,49899,1073725440,16722,1026,65535,65700,0,0,4,1460,312,0,16777216,230000,33580,908,65700,112,768,0,1418430198,63
o,1726830550.888337,10.0.2.15,22,10.0.2.2,49899,1073725440,17490,1026,65535,65700,0,0,4,1460,312,0,16777216,230000,33580,140,65700,112,0,0,1418430198,63
i,1726830550.888677,10.0.2.15,22,10.0.2.2,49899,1073725440,17490,1026,65535,65700,0,0,4,1460,312,0,16777216,230000,33580,140,65700,112,140,0,1418430198,63
o,1726830550.888857,10.0.2.15,22,10.0.2.2,49899,1073725440,17630,1026,65535,65700,0,0,4,1460,312,0,16777216,230000,33580,44,65700,0,0,0,1418430198,63
i,1726830550.889311,10.0.2.15,22,10.0.2.2,49899,1073725440,17630,1026,65535,65700,0,0,4,1460,312,0,16777216,230000,33580,44,65700,0,44,0,1418430198,63
i,1726830550.889327,10.0.2.15,22,10.0.2.2,49899,1073725440,17674,1026,65535,65700,0,0,4,1460,312,0,0,230000,33580,0,65700,0,0,0,1418430198,63
o,1726830550.889803,10.0.2.15,22,10.0.2.2,49899,1073725440,17674,1026,65535,65700,0,0,4,1460,312,0,16777220,230000,33580,72,65700,0,0,0,1418430198,63
i,1726830550.890225,10.0.2.15,22,10.0.2.2,49899,1073725440,17674,1026,65535,65700,0,0,4,1460,312,0,16777220,230000,33580,72,65700,0,72,0,1418430198,63
o,1726830551.016926,172.16.5.2,37415,172.16.1.2,5102,60389,14480,2082,65535,65700,6,6,4,1460,229062,1,16778209,680000,33580,0,65700,0,0,0,3860060100,63
o,1726830551.017535,172.16.5.2,37415,172.16.1.2,5102,60389,14480,2082,65535,65700,6,6,4,1460,229062,1,16778212,680000,33580,37,65700,0,0,0,3860060100,63
i,1726830551.136757,172.16.5.2,37415,172.16.1.2,5102,60389,14480,2082,65535,65700,6,6,4,1460,229062,1,16778212,680000,33580,37,65700,0,37,0,3860060100,63
o,1726830551.137074,172.16.5.2,37415,172.16.1.2,5102,60389,14517,3106,65728,65728,6,6,4,1460,215625,1,16778212,710000,33580,4,65700,0,0,0,3860060100,63
o,1726830551.137517,172.16.5.2,37415,172.16.1.2,5102,60389,14517,3106,65728,65728,6,6,4,1460,215625,1,16778212,710000,33580,130,65700,0,4,0,3860060100,63
i,1726830551.265511,172.16.5.2,37415,172.16.1.2,5102,60389,14517,3106,65728,65728,6,6,4,1460,215625,1,16778212,710000,33580,130,65700,0,130,0,3860060100,63
i,1726830551.265552,172.16.5.2,37415,172.16.1.2,5102,60389,14647,3106,65600,65728,6,6,4,1460,203750,1,996,720000,33580,0,65700,0,0,0,3860060100,63
o,1726830551.347436,172.16.5.2,37415,172.16.1.2,5102,60389,14647,3106,65728,65728,6,6,4,1460,203750,1,997,720000,33580,0,65700,0,0,0,3860060100,63
o,1726830551.386534,172.16.5.2,50396,172.16.1.2,5102,60389,14480,2082,65535,65700,6,6,4,1460,229062,1,16778209,680000,33580,0,65700,0,0,0,1067000184,63
o,1726830551.386665,172.16.5.2,50396,172.16.1.2,5102,60389,14480,2082,65535,65700,6,6,4,1460,229062,1,16778208,680000,33580,37,65700,0,0,0,1067000184,63
i,1726830551.489195,172.16.5.2,37415,172.16.1.2,5102,60389,14647,3106,65728,65728,6,6,4,1460,203750,1,996,720000,33580,0,65700,0,0,0,3860060100,63
i,1726830551.489293,172.16.5.2,37415,172.16.1.2,5102,60389,14647,3106,65728,65728,6,6,4,1460,203750,1,996,720000,33580,0,65700,1,0,0,3860060100,63
o,1726830551.489346,172.16.5.2,37415,172.16.1.2,5102,60389,14647,3106,65728,65728,6,6,4,1460,203750,1,997,720000,33580,0,65700,2,0,0,3860060100,63
o,1726830551.490021,172.16.5.2,50396,172.16.1.2,5102,60389,14480,2086,65535,65700,6,6,4,1460,229062,1,16778208,680000,33580,33580,65700,0,37,0,1067000184,63
i,1726830551.516047,172.16.5.2,50396,172.16.1.2,5102,60389,14480,2086,65535,65700,6,6,4,1460,229062,1,16778208,680000,33580,33580,65700,0,13069,0,1067000184,63
o,1726830551.516096,172.16.5.2,50396,172.16.1.2,5102,60389,14517,2086,65728,65728,6,6,4,1460,215625,1,16778208,710000,33580,33543,65700,0,13032,0,1067000184,63
i,1726830551.576397,172.16.5.2,50396,172.16.1.2,5102,60389,14517,2086,65728,65728,6,6,4,1460,215625,1,16778208,710000,33580,33543,65700,0,14480,0,1067000184,63
o,1726830551.576443,172.16.5.2,50396,172.16.1.2,5102,60389,17413,2086,62848,65728,6,6,4,1460,200000,1,16778208,750000,33580,30647,65700,0,11584,0,1067000184,63
i,1726830551.577503,172.16.5.2,50396,172.16.1.2,5102,60389,17413,2086,62848,65728,6,6,4,1460,200000,1,16778208,750000,41772,41772,65700,0,17376,0,1067000184,63
o,1726830551.577524,172.16.5.2,50396,172.16.1.2,5102,60389,20309,2086,64256,65728,6,6,4,1460,186250,1,16778208,750000,41772,38876,65700,0,14480,0,1067000184,63
i,1726830551.608359,172.16.5.2,50396,172.16.1.2,5102,60389,20309,2086,64256,65728,6,6,4,1460,186250,1,16778208,750000,49964,49964,65700,0,20272,0,1067000184,63
o,1726830551.608436,172.16.5.2,50396,172.16.1.2,5102,60389,23205,2086,64256,65728,6,6,4,1460,178125,1,16778208,720000,49964,47068,65700,0,17376,0,1067000184,63
i,1726830551.608700,172.16.5.2,50396,172.16.1.2,5102,60389,23205,2086,64256,65728,6,6,4,1460,178125,1,16778208,720000,49964,47068,65700,0,23168,0,1067000184,63
o,1726830551.608746,172.16.5.2,50396,172.16.1.2,5102,60389,26101,2086,61376,65728,6,6,4,1460,170937,1,16778208,680000,58156,44172,65700,0,20272,0,1067000184,63
i,1726830551.635938,172.16.5.2,50396,172.16.1.2,5102,60389,26101,2086,61376,65728,6,6,4,1460,170937,1,16778208,680000,58156,58156,65700,0,26064,0,1067000184,63
o,1726830551.636001,172.16.5.2,50396,172.16.1.2,5102,60389,28997,2086,64256,65728,6,6,4,1460,167187,1,16778208,630000,58156,55260,65700,0,23168,0,1067000184,63
o,1726830551.636186,172.16.5.2,50396,172.16.1.2,5102,60389,28997,2086,64256,65728,6,6,4,1460,167187,1,16778208,630000,58156,55260,65700,0,24616,0,1067000184,63
i,1726830551.718424,172.16.5.2,50396,172.16.1.2,5102,60389,28997,2086,64256,65728,6,6,4,1460,167187,1,16778208,630000,66348,66348,65700,0,28960,0,1067000184,63
o,1726830551.718543,172.16.5.2,50396,172.16.1.2,5102,60389,31893,2086,62848,65728,6,6,4,1460,164062,1,16778208,590000,66348,63452,65700,0,26064,0,1067000184,63
i,1726830551.718812,172.16.5.2,50396,172.16.1.2,5102,60389,31893,2086,62848,65728,6,6,4,1460,164062,1,16778208,590000,74540,63452,65700,0,31856,0,1067000184,63
o,1726830551.718850,172.16.5.2,50396,172.16.1.2,5102,60389,34789,2086,62848,65728,6,6,4,1460,161250,1,16778208,550000,74540,60556,65700,0,28960,0,1067000184,63
i,1726830551.719160,172.16.5.2,50396,172.16.1.2,5102,60389,34789,2086,62848,65728,6,6,4,1460,161250,1,16778208,550000,74540,60556,65700,0,34752,0,1067000184,63
o,1726830551.719190,172.16.5.2,50396,172.16.1.2,5102,60389,37685,2086,64256,65728,6,6,4,1460,158750,1,16778208,520000,74540,57660,65700,0,31856,0,1067000184,63
i,1726830551.745130,172.16.5.2,50396,172.16.1.2,5102,60389,37685,2086,64256,65728,6,6,4,1460,158750,1,16778208,520000,82732,82732,65700,0,37648,0,1067000184,63
o,1726830551.745243,172.16.5.2,50396,172.16.1.2,5102,60389,40581,2086,64256,65728,6,6,4,1460,159062,1,16778208,480000,82732,79836,65700,0,34752,0,1067000184,63
i,1726830551.745585,172.16.5.2,50396,172.16.1.2,5102,60389,40581,2086,64256,65728,6,6,4,1460,159062,1,16778208,480000,82732,79836,65700,0,40544,0,1067000184,63
o,1726830551.745655,172.16.5.2,50396,172.16.1.2,5102,60389,43477,2086,62848,65728,6,6,4,1460,154375,1,16778208,480000,82732,76940,65700,0,37648,0,1067000184,63
i,1726830551.746036,172.16.5.2,50396,172.16.1.2,5102,60389,43477,2086,62848,65728,6,6,4,1460,154375,1,16778208,480000,82732,76940,65700,0,43440,0,1067000184,63
o,1726830551.746078,172.16.5.2,50396,172.16.1.2,5102,60389,46373,2086,59968,65728,6,6,4,1460,151562,1,16778208,470000,82732,74044,65700,0,40544,0,1067000184,63
i,1726830551.746241,172.16.5.2,50396,172.16.1.2,5102,60389,46373,2086,59968,65728,6,6,4,1460,151562,1,16778208,470000,82732,74044,65700,0,46336,0,1067000184,63
o,1726830551.746258,172.16.5.2,50396,172.16.1.2,5102,60389,49269,2086,64256,65728,6,6,4,1460,149062,1,16778208,460000,82732,71148,65700,0,43440,0,1067000184,63
i,1726830551.772937,172.16.5.2,50396,172.16.1.2,5102,60389,49269,2086,64256,65728,6,6,4,1460,149062,1,16778208,460000,82732,82732,65700,0,49232,0,1067000184,63
o,1726830551.772983,172.16.5.2,50396,172.16.1.2,5102,60389,52165,2086,62848,65728,6,6,4,1460,149375,1,16778208,430000,82732,79836,65700,0,46336,0,1067000184,63
i,1726830551.773127,172.16.5.2,50396,172.16.1.2,5102,60389,52165,2086,62848,65728,6,6,4,1460,149375,1,16778208,430000,82732,79836,65700,0,52128,0,1067000184,63
o,1726830551.773143,172.16.5.2,50396,172.16.1.2,5102,60389,55061,2086,62848,65728,6,6,4,1460,147187,1,16778208,430000,82732,76940,65700,0,49232,0,1067000184,63
o,1726830551.773258,172.16.5.2,50396,172.16.1.2,5102,60389,55061,2086,62848,65728,6,6,4,1460,147187,1,16778208,430000,82732,76940,65700,0,50680,0,1067000184,63
i,1726830551.773413,172.16.5.2,50396,172.16.1.2,5102,60389,55061,2086,62848,65728,6,6,4,1460,147187,1,16778208,430000,82732,76940,65700,0,55024,0,1067000184,63
o,1726830551.773429,172.16.5.2,50396,172.16.1.2,5102,60389,57957,2086,59968,65728,6,6,4,1460,145312,1,16778208,420000,82732,74044,65700,0,52128,0,1067000184,63
i,1726830551.956055,172.16.5.2,50396,172.16.1.2,5102,60389,57957,2086,59968,65728,6,6,4,1460,145312,1,16778208,420000,82732,82732,65700,0,57920,0,1067000184,63
o,1726830551.956835,172.16.5.2,50396,172.16.1.2,5102,60389,60853,2086,95680,65728,6,6,4,1460,155937,1,16778208,500000,90924,79836,65700,0,55024,0,1067000184,63
i,1726830551.957162,172.16.5.2,50396,172.16.1.2,5102,60389,60853,2086,95680,65728,6,6,4,1460,155937,1,16778208,500000,99116,79836,65700,0,60816,0,1067000184,63
o,1726830551.957181,172.16.5.2,50396,172.16.1.2,5102,60389,60853,2086,95680,65728,6,6,4,1460,166562,1,16778208,560000,99116,76940,65700,0,57920,0,1067000184,63
i,1726830551.958626,172.16.5.2,50396,172.16.1.2,5102,60389,60853,2086,95680,65728,6,6,4,1460,166562,1,16778208,560000,123692,123692,65700,0,60816,0,1067000184,63
o,1726830551.958646,172.16.5.2,50396,172.16.1.2,5102,60389,60853,2086,97152,65728,6,6,4,1460,175937,1,16778208,590000,123692,120796,65700,0,57920,0,1067000184,63
i,1726830551.958841,172.16.5.2,50396,172.16.1.2,5102,60389,60853,2086,97152,65728,6,6,4,1460,175937,1,16778208,590000,123692,120796,65700,0,60816,0,1067000184,63
o,1726830551.958859,172.16.5.2,50396,172.16.1.2,5102,60389,60853,2086,94272,65728,6,6,4,1460,184062,1,16778208,610000,123692,117900,65700,0,57920,0,1067000184,63
i,1726830551.959007,172.16.5.2,50396,172.16.1.2,5102,60389,60853,2086,94272,65728,6,6,4,1460,184062,1,16778208,610000,123692,117900,65700,0,60816,0,1067000184,63
o,1726830551.959023,172.16.5.2,50396,172.16.1.2,5102,60389,60853,2086,95680,65728,6,6,4,1460,191250,1,16778208,620000,123692,115004,65700,0,57920,0,1067000184,63
i,1726830551.960486,172.16.5.2,50396,172.16.1.2,5102,60389,60853,2086,95680,65728,6,6,4,1460,191250,1,16778208,620000,123692,123692,65700,0,60816,0,1067000184,63
o,1726830551.960569,172.16.5.2,50396,172.16.1.2,5102,60389,60853,2086,92800,65728,6,6,4,1460,197500,1,16778208,620000,123692,120796,65700,0,57920,0,1067000184,63
i,1726830551.961823,172.16.5.2,50396,172.16.1.2,5102,60389,60853,2086,92800,65728,6,6,4,1460,197500,1,16778208,620000,123692,123692,65700,0,60816,0,1067000184,63
o,1726830551.961898,172.16.5.2,50396,172.16.1.2,5102,60389,60853,2086,95680,65728,6,6,4,1460,200312,1,16778208,590000,123692,120796,65700,0,57920,0,1067000184,63
i,1726830551.962048,172.16.5.2,50396,172.16.1.2,5102,60389,60853,2086,95680,65728,6,6,4,1460,200312,1,16778208,590000,123692,120796,65700,0,60816,0,1067000184,63
o,1726830551.962065,172.16.5.2,50396,172.16.1.2,5102,60389,60853,2086,95680,65728,6,6,4,1460,202812,1,16778208,560000,123692,117900,65700,0,57920,0,1067000184,63
i,1726830551.962185,172.16.5.2,50396,172.16.1.2,5102,60389,60853,2086,95680,65728,6,6,4,1460,202812,1,16778208,560000,123692,117900,65700,0,60816,0,1067000184,63
o,1726830551.962202,172.16.5.2,50396,172.16.1.2,5102,60389,60853,2086,92800,65728,6,6,4,1460,205000,1,16778208,540000,123692,115004,65700,0,57920,0,1067000184,63
i,1726830551.962344,172.16.5.2,50396,172.16.1.2,5102,60389,60853,2086,92800,65728,6,6,4,1460,205000,1,16778208,540000,123692,115004,65700,0,60816,0,1067000184,63
o,1726830551.962374,172.16.5.2,50396,172.16.1.2,5102,60389,60853,2086,97152,65728,6,6,4,1460,206875,1,16778208,520000,123692,112108,65700,0,57920,0,1067000184,63
i,1726830551.962542,172.16.5.2,50396,172.16.1.2,5102,60389,60853,2086,97152,65728,6,6,4,1460,206875,1,16778208,520000,123692,112108,65700,0,60816,0,1067000184,63
o,1726830551.962559,172.16.5.2,50396,172.16.1.2,5102,60389,60853,2086,94272,65728,6,6,4,1460,207500,1,16778208,500000,123692,109212,65700,0,57920,0,1067000184,63
i,1726830551.962724,172.16.5.2,50396,172.16.1.2,5102,60389,60853,2086,94272,65728,6,6,4,1460,207500,1,16778208,500000,123692,109212,65700,0,60816,0,1067000184,63
o,1726830551.962740,172.16.5.2,50396,172.16.1.2,5102,60389,60853,2086,91392,65728,6,6,4,1460,207812,1,16778208,480000,123692,106316,65700,0,57920,0,1067000184,63
i,1726830551.962905,172.16.5.2,50396,172.16.1.2,5102,60389,60853,2086,91392,65728,6,6,4,1460,207812,1,16778208,480000,123692,106316,65700,0,60816,0,1067000184,63
o,1726830551.962924,172.16.5.2,50396,172.16.1.2,5102,60389,60853,2086,97152,65728,6,6,4,1460,208125,1,16778208,470000,123692,103420,65700,0,57920,0,1067000184,63
i,1726830551.976436,172.16.5.2,50396,172.16.1.2,5102,60389,60853,2086,97152,65728,6,6,4,1460,208125,1,16778208,470000,123692,123692,65700,0,60816,0,1067000184,63
o,1726830551.976506,172.16.5.2,50396,172.16.1.2,5102,60389,60853,2086,94272,65728,6,6,4,1460,210937,1,16778208,480000,123692,120796,65700,0,57920,0,1067000184,63
i,1726830551.976639,172.16.5.2,50396,172.16.1.2,5102,60389,60853,2086,94272,65728,6,6,4,1460,210937,1,16778208,480000,123692,120796,65700,0,60816,0,1067000184,63
o,1726830551.976665,172.16.5.2,50396,172.16.1.2,5102,60389,60853,2086,91392,65728,6,6,4,1460,210937,1,16778208,460000,123692,117900,65700,0,57920,0,1067000184,63
i,1726830551.982614,172.16.5.2,50396,172.16.1.2,5102,60389,60853,2086,91392,65728,6,6,4,1460,210937,1,16778208,460000,123692,123692,65700,0,60816,0,1067000184,63
o,1726830551.982637,172.16.5.2,50396,172.16.1.2,5102,60389,60853,2086,95680,65728,6,6,4,1460,210937,1,16778208,450000,123692,120796,65700,0,57920,0,1067000184,63
i,1726830551.982769,172.16.5.2,50396,172.16.1.2,5102,60389,60853,2086,95680,65728,6,6,4,1460,210937,1,16778208,450000,123692,120796,65700,0,60816,0,1067000184,63
o,1726830551.982786,172.16.5.2,50396,172.16.1.2,5102,60389,60853,2086,95680,65728,6,6,4,1460,210937,1,16778208,440000,123692,117900,65700,0,57920,0,1067000184,63
o,1726830551.982894,172.16.5.2,50396,172.16.1.2,5102,60389,60853,2086,95680,65728,6,6,4,1460,210937,1,16778208,440000,123692,117900,65700,0,59368,0,1067000184,63
i,1726830551.983023,172.16.5.2,50396,172.16.1.2,5102,60389,60853,2086,95680,65728,6,6,4,1460,210937,1,16778208,440000,123692,117900,65700,0,60816,0,1067000184,63
o,1726830551.983038,172.16.5.2,50396,172.16.1.2,5102,60389,60853,2086,92800,65728,6,6,4,1460,210937,1,16778208,430000,123692,115004,65700,0,57920,0,1067000184,63
i,1726830551.983128,172.16.5.2,50396,172.16.1.2,5102,60389,60853,2086,92800,65728,6,6,4,1460,210937,1,16778208,430000,123692,115004,65700,0,60816,0,1067000184,63
o,1726830551.983128,172.16.5.2,50396,172.16.1.2,5102,60389,60853,2086,95680,65728,6,6,4,1460,210937,1,16778208,420000,123692,112108,65700,0,57920,0,1067000184,63
i,1726830551.983128,172.16.5.2,50396,172.16.1.2,5102,60389,60853,2086,95680,65728,6,6,4,1460,210937,1,16778208,420000,123692,112108,65700,0,60816,0,1067000184,63
o,1726830551.983128,172.16.5.2,50396,172.16.1.2,5102,60389,60853,2086,92800,65728,6,6,4,1460,210937,1,16778208,420000,123692,109212,65700,0,57920,0,1067000184,63
i,1726830552.168049,172.16.5.2,50396,172.16.1.2,5102,60389,60853,2086,92800,65728,6,6,4,1460,210937,1,16778208,420000,123692,123692,65700,0,60816,0,1067000184,63
o,1726830552.168205,172.16.5.2,50396,172.16.1.2,5102,60389,60853,2086,95680,65728,6,6,4,1460,210937,1,16778208,420000,123692,120796,65700,0,57920,0,1067000184,63
i,1726830552.170597,172.16.5.2,50396,172.16.1.2,5102,60389,60853,2086,95680,65728,6,6,4,1460,210937,1,16778208,420000,123692,123692,65700,0,60816,0,1067000184,63
o,1726830552.170689,172.16.5.2,50396,172.16.1.2,5102,60389,60853,2086,97152,65728,6,6,4,1460,210937,1,16778208,420000,123692,120796,65700,0,57920,0,1067000184,63
i,1726830552.171054,172.16.5.2,50396,172.16.1.2,5102,60389,60853,2086,97152,65728,6,6,4,1460,210937,1,16778208,420000,123692,120796,65700,0,60816,0,1067000184,63
o,1726830552.171088,172.16.5.2,50396,172.16.1.2,5102,60389,62313,2086,97152,65728,6,6,4,1460,210937,1,16778208,410000,123692,117900,65700,0,57920,0,1067000184,63
i,1726830552.171277,172.16.5.2,50396,172.16.1.2,5102,60389,62313,2086,97152,65728,6,6,4,1460,210937,1,16778208,410000,123692,117900,65700,0,62264,0,1067000184,63
o,1726830552.171294,172.16.5.2,50396,172.16.1.2,5102,60389,62313,2086,95680,65728,6,6,4,1460,210937,1,16778208,410000,123692,115004,65700,0,59368,0,1067000184,63
i,1726830552.171460,172.16.5.2,50396,172.16.1.2,5102,60389,62313,2086,95680,65728,6,6,4,1460,210937,1,16778208,410000,123692,115004,65700,0,62264,0,1067000184,63
o,1726830552.171476,172.16.5.2,50396,172.16.1.2,5102,60389,62313,2086,95680,65728,6,6,4,1460,210937,1,16778208,410000,123692,112108,65700,0,59368,0,1067000184,63
i,1726830552.171632,172.16.5.2,50396,172.16.1.2,5102,60389,62313,2086,95680,65728,6,6,4,1460,210937,1,16778208,410000,123692,112108,65700,0,62264,0,1067000184,63
o,1726830552.171648,172.16.5.2,50396,172.16.1.2,5102,60389,62313,2086,92800,65728,6,6,4,1460,210937,1,16778208,410000,123692,109212,65700,0,59368,0,1067000184,63
i,1726830552.172532,172.16.5.2,50396,172.16.1.2,5102,60389,62313,2086,92800,65728,6,6,4,1460,210937,1,16778208,410000,123692,123692,65700,0,62264,0,1067000184,63
o,1726830552.172566,172.16.5.2,50396,172.16.1.2,5102,60389,62313,2086,97152,65728,6,6,4,1460,210937,1,16778208,410000,123692,120796,65700,0,59368,0,1067000184,63
i,1726830552.172829,172.16.5.2,50396,172.16.1.2,5102,60389,62313,2086,97152,65728,6,6,4,1460,210937,1,16778208,410000,123692,120796,65700,0,62264,0,1067000184,63
o,1726830552.172846,172.16.5.2,50396,172.16.1.2,5102,60389,62313,2086,94272,65728,6,6,4,1460,210937,1,16778208,410000,123692,117900,65700,0,59368,0,1067000184,63
i,1726830552.173138,172.16.5.2,50396,172.16.1.2,5102,60389,62313,2086,94272,65728,6,6,4,1460,210937,1,16778208,410000,123692,117900,65700,0,62264,0,1067000184,63
o,1726830552.173155,172.16.5.2,50396,172.16.1.2,5102,60389,62313,2086,97152,65728,6,6,4,1460,210937,1,16778208,410000,123692,115004,65700,0,59368,0,1067000184,63
i,1726830552.173317,172.16.5.2,50396,172.16.1.2,5102,60389,62313,2086,97152,65728,6,6,4,1460,210937,1,16778208,410000,123692,115004,65700,0,62264,0,1067000184,63
o,1726830552.173335,172.16.5.2,50396,172.16.1.2,5102,60389,62313,2086,94272,65728,6,6,4,1460,210937,1,16778208,410000,123692,112108,65700,0,59368,0,1067000184,63
i,1726830552.173517,172.16.5.2,50396,172.16.1.2,5102,60389,62313,2086,94272,65728,6,6,4,1460,210937,1,16778208,410000,123692,112108,65700,0,62264,0,1067000184,63
o,1726830552.173533,172.16.5.2,50396,172.16.1.2,5102,60389,62313,2086,91392,65728,6,6,4,1460,210937,1,16778208,410000,123692,109212,65700,0,59368,0,1067000184,63
i,1726830552.173658,172.16.5.2,50396,172.16.1.2,5102,60389,62313,2086,91392,65728,6,6,4,1460,210937,1,16778208,410000,123692,109212,65700,0,62264,0,1067000184,63
o,1726830552.173674,172.16.5.2,50396,172.16.1.2,5102,60389,62313,2086,95680,65728,6,6,4,1460,210937,1,16778208,410000,123692,106316,65700,0,59368,0,1067000184,63
i,1726830552.173802,172.16.5.2,50396,172.16.1.2,5102,60389,62313,2086,95680,65728,6,6,4,1460,210937,1,16778208,410000,123692,106316,65700,0,62264,0,1067000184,63
o,1726830552.173817,172.16.5.2,50396,172.16.1.2,5102,60389,62313,2086,97152,65728,6,6,4,1460,210937,1,16778208,410000,123692,103420,65700,0,59368,0,1067000184,63
i,1726830552.173963,172.16.5.2,50396,172.16.1.2,5102,60389,62313,2086,97152,65728,6,6,4,1460,210937,1,16778208,410000,123692,103420,65700,0,62264,0,1067000184,63
o,1726830552.173979,172.16.5.2,50396,172.16.1.2,5102,60389,62313,2086,94272,65728,6,6,4,1460,210937,1,16778208,410000,123692,100524,65700,0,59368,0,1067000184,63
i,1726830552.174740,172.16.5.2,50396,172.16.1.2,5102,60389,62313,2086,94272,65728,6,6,4,1460,210937,1,16778208,410000,123692,123692,65700,0,62264,0,1067000184,63
o,1726830552.174801,172.16.5.2,50396,172.16.1.2,5102,60389,62313,2086,97152,65728,6,6,4,1460,208437,1,16778208,430000,123692,120796,65700,0,59368,0,1067000184,63
i,1726830552.174957,172.16.5.2,50396,172.16.1.2,5102,60389,62313,2086,97152,65728,6,6,4,1460,208437,1,16778208,430000,123692,120796,65700,0,62264,0,1067000184,63
o,1726830552.174974,172.16.5.2,50396,172.16.1.2,5102,60389,62313,2086,97152,65728,6,6,4,1460,206250,1,16778208,440000,123692,117900,65700,0,59368,0,1067000184,63
i,1726830552.175107,172.16.5.2,50396,172.16.1.2,5102,60389,62313,2086,97152,65728,6,6,4,1460,206250,1,16778208,440000,123692,117900,65700,0,62264,0,1067000184,63
o,1726830552.175123,172.16.5.2,50396,172.16.1.2,5102,60389,62313,2086,94272,65728,6,6,4,1460,204375,1,16778208,440000,123692,115004,65700,0,59368,0,1067000184,63
i,1726830552.175994,172.16.5.2,50396,172.16.1.2,5102,60389,62313,2086,94272,65728,6,6,4,1460,204375,1,16778208,440000,123692,123692,65700,0,62264,0,1067000184,63
o,1726830552.176014,172.16.5.2,50396,172.16.1.2,5102,60389,62313,2086,97152,65728,6,6,4,1460,202812,1,16778208,450000,123692,120796,65700,0,59368,0,1067000184,63
o,1726830552.176195,172.16.5.2,50396,172.16.1.2,5102,60389,62313,2086,97152,65728,6,6,4,1460,202812,1,16778208,450000,123692,120796,65700,0,60816,0,1067000184,63
i,1726830552.176313,172.16.5.2,50396,172.16.1.2,5102,60389,62313,2086,97152,65728,6,6,4,1460,202812,1,16778208,450000,123692,120796,65700,0,62264,0,1067000184,63
o,1726830552.176329,172.16.5.2,50396,172.16.1.2,5102,60389,62313,2086,97152,65728,6,6,4,1460,201250,1,16778208,450000,123692,117900,65700,0,59368,0,1067000184,63
i,1726830552.186006,172.16.5.2,50396,172.16.1.2,5102,60389,62313,2086,97152,65728,6,6,4,1460,201250,1,16778208,450000,123692,123692,65700,0,62264,0,1067000184,63
o,1726830552.186032,172.16.5.2,50396,172.16.1.2,5102,60389,62313,2086,95680,65728,6,6,4,1460,201250,1,16778208,430000,123692,120796,65700,0,59368,0,1067000184,63
i,1726830552.186162,172.16.5.2,50396,172.16.1.2,5102,60389,62313,2086,95680,65728,6,6,4,1460,201250,1,16778208,430000,123692,120796,65700,0,62264,0,1067000184,63
o,1726830552.186178,172.16.5.2,50396,172.16.1.2,5102,60389,62313,2086,95680,65728,6,6,4,1460,201250,1,16778208,430000,123692,117900,65700,0,59368,0,1067000184,63
i,1726830552.378903,172.16.5.2,50396,172.16.1.2,5102,60389,62313,2086,95680,65728,6,6,4,1460,201250,1,16778208,430000,123692,123692,65700,0,62264,0,1067000184,63
o,1726830552.378966,172.16.5.2,50396,172.16.1.2,5102,60389,62313,2086,144960,65728,6,6,4,1460,201250,1,16778208,420000,131884,120796,65700,0,59368,0,1067000184,63
i,1726830552.379190,172.16.5.2,50396,172.16.1.2,5102,60389,62313,2086,144960,65728,6,6,4,1460,201250,1,16778208,420000,140076,120796,65700,0,62264,0,1067000184,63
o,1726830552.379231,172.16.5.2,50396,172.16.1.2,5102,60389,62313,2086,144960,65728,6,6,4,1460,201250,1,16778208,410000,140076,117900,65700,0,59368,0,1067000184,63
i,1726830552.380196,172.16.5.2,50396,172.16.1.2,5102,60389,62313,2086,144960,65728,6,6,4,1460,201250,1,16778208,410000,140076,140076,65700,0,62264,0,1067000184,63
o,1726830552.380292,172.16.5.2,50396,172.16.1.2,5102,60389,63773,2086,144960,65728,6,6,4,1460,201250,1,16778208,410000,140076,137180,65700,0,59368,0,1067000184,63
i,1726830552.380410,172.16.5.2,50396,172.16.1.2,5102,60389,63773,2086,144960,65728,6,6,4,1460,201250,1,16778208,410000,140076,137180,65700,0,63712,0,1067000184,63
o,1726830552.380415,172.16.5.2,50396,172.16.1.2,5102,60389,63773,2086,142080,65728,6,6,4,1460,201250,1,16778208,410000,140076,134284,65700,0,60816,0,1067000184,63
i,1726830552.380427,172.16.5.2,50396,172.16.1.2,5102,60389,63773,2086,142080,65728,6,6,4,1460,201250,1,16778208,410000,140076,134284,65700,0,63712,0,1067000184,63
o,1726830552.380431,172.16.5.2,50396,172.16.1.2,5102,60389,63773,2086,139200,65728,6,6,4,1460,201250,1,16778208,410000,140076,131388,65700,0,60816,0,1067000184,63
i,1726830552.381805,172.16.5.2,50396,172.16.1.2,5102,60389,63773,2086,139200,65728,6,6,4,1460,201250,1,16778208,410000,140076,140076,65700,0,63712,0,1067000184,63
o,1726830552.381826,172.16.5.2,50396,172.16.1.2,5102,60389,63773,2086,144960,65728,6,6,4,1460,201250,1,16778208,400000,140076,137180,65700,0,60816,0,1067000184,63
i,1726830552.382000,172.16.5.2,50396,172.16.1.2,5102,60389,63773,2086,144960,65728,6,6,4,1460,201250,1,16778208,400000,140076,137180,65700,0,63712,0,1067000184,63
o,1726830552.382016,172.16.5.2,50396,172.16.1.2,5102,60389,63773,2086,144960,65728,6,6,4,1460,201250,1,16778208,400000,140076,134284,65700,0,60816,0,1067000184,63
i,1726830552.382137,172.16.5.2,50396,172.16.1.2,5102,60389,63773,2086,144960,65728,6,6,4,1460,201250,1,16778208,400000,140076,134284,65700,0,63712,0,1067000184,63
o,1726830552.382153,172.16.5.2,50396,172.16.1.2,5102,60389,63773,2086,142080,65728,6,6,4,1460,201250,1,16778208,400000,140076,131388,65700,0,60816,0,1067000184,63
i,1726830552.382335,172.16.5.2,50396,172.16.1.2,5102,60389,63773,2086,142080,65728,6,6,4,1460,201250,1,16778208,400000,140076,131388,65700,0,63712,0,1067000184,63
o,1726830552.382354,172.16.5.2,50396,172.16.1.2,5102,60389,63773,2086,146432,65728,6,6,4,1460,201250,1,16778208,400000,140076,128492,65700,0,60816,0,1067000184,63
i,1726830552.382801,172.16.5.2,50396,172.16.1.2,5102,60389,63773,2086,146432,65728,6,6,4,1460,201250,1,16778208,400000,140076,140076,65700,0,63712,0,1067000184,63
o,1726830552.382819,172.16.5.2,50396,172.16.1.2,5102,60389,63773,2086,144960,65728,6,6,4,1460,201250,1,16778208,400000,140076,137180,65700,0,60816,0,1067000184,63
i,1726830552.382963,172.16.5.2,50396,172.16.1.2,5102,60389,63773,2086,144960,65728,6,6,4,1460,201250,1,16778208,400000,140076,137180,65700,0,63712,0,1067000184,63
o,1726830552.382979,172.16.5.2,50396,172.16.1.2,5102,60389,63773,2086,146432,65728,6,6,4,1460,201250,1,16778208,400000,140076,134284,65700,0,60816,0,1067000184,63
i,1726830552.384212,172.16.5.2,50396,172.16.1.2,5102,60389,63773,2086,146432,65728,6,6,4,1460,201250,1,16778208,400000,140076,140076,65700,0,63712,0,1067000184,63
o,1726830552.384233,172.16.5.2,50396,172.16.1.2,5102,60389,63773,2086,144960,65728,6,6,4,1460,201250,1,16778208,400000,140076,137180,65700,0,60816,0,1067000184,63
i,1726830552.384371,172.16.5.2,50396,172.16.1.2,5102,60389,63773,2086,144960,65728,6,6,4,1460,201250,1,16778208,400000,140076,137180,65700,0,63712,0,1067000184,63
o,1726830552.384387,172.16.5.2,50396,172.16.1.2,5102,60389,63773,2086,144960,65728,6,6,4,1460,201250,1,16778208,400000,140076,134284,65700,0,60816,0,1067000184,63
i,1726830552.384522,172.16.5.2,50396,172.16.1.2,5102,60389,63773,2086,144960,65728,6,6,4,1460,201250,1,16778208,400000,140076,134284,65700,0,63712,0,1067000184,63
o,1726830552.384539,172.16.5.2,50396,172.16.1.2,5102,60389,63773,2086,142080,65728,6,6,4,1460,201250,1,16778208,400000,140076,131388,65700,0,60816,0,1067000184,63
i,1726830552.385366,172.16.5.2,50396,172.16.1.2,5102,60389,63773,2086,142080,65728,6,6,4,1460,201250,1,16778208,400000,140076,140076,65700,0,63712,0,1067000184,63
o,1726830552.385389,172.16.5.2,50396,172.16.1.2,5102,60389,63773,2086,144960,65728,6,6,4,1460,201250,1,16778208,400000,140076,137180,65700,0,60816,0,1067000184,63
i,1726830552.385543,172.16.5.2,50396,172.16.1.2,5102,60389,63773,2086,144960,65728,6,6,4,1460,201250,1,16778208,400000,140076,137180,65700,0,63712,0,1067000184,63
o,1726830552.385563,172.16.5.2,50396,172.16.1.2,5102,60389,63773,2086,142080,65728,6,6,4,1460,201250,1,16778208,400000,140076,134284,65700,0,60816,0,1067000184,63
i,1726830552.385757,172.16.5.2,50396,172.16.1.2,5102,60389,63773,2086,142080,65728,6,6,4,1460,201250,1,16778208,400000,140076,134284,65700,0,63712,0,1067000184,63
o,1726830552.385775,172.16.5.2,50396,172.16.1.2,5102,60389,63773,2086,139200,65728,6,6,4,1460,201250,1,16778208,400000,140076,131388,65700,0,60816,0,1067000184,63
i,1726830552.386022,172.16.5.2,50396,172.16.1.2,5102,60389,63773,2086,139200,65728,6,6,4,1460,201250,1,16778208,400000,140076,131388,65700,0,63712,0,1067000184,63
o,1726830552.386038,172.16.5.2,50396,172.16.1.2,5102,60389,63773,2086,136320,65728,6,6,4,1460,202500,1,16778208,420000,140076,128492,65700,0,60816,0,1067000184,63
o,1726830552.386212,172.16.5.2,50396,172.16.1.2,5102,60389,63773,2086,136320,65728,6,6,4,1460,202500,1,16778208,420000,140076,128492,65700,0,62264,0,1067000184,63
i,1726830552.386329,172.16.5.2,50396,172.16.1.2,5102,60389,63773,2086,136320,65728,6,6,4,1460,202500,1,16778208,420000,140076,128492,65700,0,63712,0,1067000184,63
o,1726830552.386346,172.16.5.2,50396,172.16.1.2,5102,60389,63773,2086,144960,65728,6,6,4,1460,203437,1,16778208,420000,140076,125596,65700,0,60816,0,1067000184,63
i,1726830552.402276,172.16.5.2,50396,172.16.1.2,5102,60389,63773,2086,144960,65728,6,6,4,1460,203437,1,16778208,420000,148268,148268,65700,0,63712,0,1067000184,63
o,1726830552.402311,172.16.5.2,50396,172.16.1.2,5102,60389,63773,2086,146432,65728,6,6,4,1460,205625,1,16778208,440000,148268,145372,65700,0,60816,0,1067000184,63
i,1726830552.428010,172.16.5.2,50396,172.16.1.2,5102,60389,63773,2086,146432,65728,6,6,4,1460,205625,1,16778208,440000,148268,148268,65700,0,63712,0,1067000184,63
o,1726830552.428185,172.16.5.2,50396,172.16.1.2,5102,60389,63773,2086,143552,65728,6,6,4,1460,210000,1,16778208,470000,148268,145372,65700,0,60816,0,1067000184,63
i,1726830552.430023,172.16.5.2,50396,172.16.1.2,5102,60389,63773,2086,143552,65728,6,6,4,1460,210000,1,16778208,470000,148268,148268,65700,0,63712,0,1067000184,63
o,1726830552.430102,172.16.5.2,50396,172.16.1.2,5102,60389,63773,2086,147840,65728,6,6,4,1460,213750,1,16778208,490000,148268,146820,65700,0,62264,0,1067000184,63
i,1726830552.618265,172.16.5.2,50396,172.16.1.2,5102,60389,63773,2086,147840,65728,6,6,4,1460,213750,1,16778208,490000,148268,146820,65700,0,63712,0,1067000184,63
o,1726830552.618341,172.16.5.2,50396,172.16.1.2,5102,60389,63773,2086,146432,65728,6,6,4,1460,217187,1,16778208,500000,148268,143924,65700,0,60816,0,1067000184,63
i,1726830552.618587,172.16.5.2,50396,172.16.1.2,5102,60389,63773,2086,146432,65728,6,6,4,1460,217187,1,16778208,500000,148268,143924,65700,0,63712,0,1067000184,63
o,1726830552.618630,172.16.5.2,50396,172.16.1.2,5102,60389,63773,2086,143552,65728,6,6,4,1460,220312,1,16778208,510000,148268,141028,65700,0,60816,0,1067000184,63
i,1726830552.619597,172.16.5.2,50396,172.16.1.2,5102,60389,63773,2086,143552,65728,6,6,4,1460,220312,1,16778208,510000,148268,148268,65700,0,63712,0,1067000184,63
o,1726830552.619623,172.16.5.2,50396,172.16.1.2,5102,60389,63773,2086,144960,65728,6,6,4,1460,222812,1,16778208,510000,148268,145372,65700,0,60816,0,1067000184,63
i,1726830552.619900,172.16.5.2,50396,172.16.1.2,5102,60389,63773,2086,144960,65728,6,6,4,1460,222812,1,16778208,510000,148268,145372,65700,0,63712,0,1067000184,63
o,1726830552.619918,172.16.5.2,50396,172.16.1.2,5102,60389,65233,2086,146432,65728,6,6,4,1460,225000,1,16778208,510000,148268,142476,65700,0,60816,0,1067000184,63
i,1726830552.620041,172.16.5.2,50396,172.16.1.2,5102,60389,65233,2086,146432,65728,6,6,4,1460,225000,1,16778208,510000,148268,142476,65700,0,65160,0,1067000184,63
o,1726830552.620056,172.16.5.2,50396,172.16.1.2,5102,60389,65233,2086,144960,65728,6,6,4,1460,226875,1,16778208,500000,148268,139580,65700,0,62264,0,1067000184,63
i,1726830552.620200,172.16.5.2,50396,172.16.1.2,5102,60389,65233,2086,144960,65728,6,6,4,1460,226875,1,16778208,500000,148268,139580,65700,0,65160,0,1067000184,63
o,1726830552.620216,172.16.5.2,50396,172.16.1.2,5102,60389,65233,2086,142080,65728,6,6,4,1460,228750,1,16778208,500000,148268,136684,65700,0,62264,0,1067000184,63
i,1726830552.620336,172.16.5.2,50396,172.16.1.2,5102,60389,65233,2086,142080,65728,6,6,4,1460,228750,1,16778208,500000,148268,136684,65700,0,65160,0,1067000184,63
o,1726830552.620352,172.16.5.2,50396,172.16.1.2,5102,60389,65233,2086,146432,65728,6,6,4,1460,230312,1,16778208,500000,148268,133788,65700,0,62264,0,1067000184,63
i,1726830552.621277,172.16.5.2,50396,172.16.1.2,5102,60389,65233,2086,146432,65728,6,6,4,1460,230312,1,16778208,500000,148268,148268,65700,0,65160,0,1067000184,63
o,1726830552.621297,172.16.5.2,50396,172.16.1.2,5102,60389,65233,2086,144960,65728,6,6,4,1460,231562,1,16778208,490000,148268,145372,65700,0,62264,0,1067000184,63
i,1726830552.621497,172.16.5.2,50396,172.16.1.2,5102,60389,65233,2086,144960,65728,6,6,4,1460,231562,1,16778208,490000,148268,145372,65700,0,65160,0,1067000184,63
o,1726830552.621513,172.16.5.2,50396,172.16.1.2,5102,60389,65233,2086,144960,65728,6,6,4,1460,232812,1,16778208,490000,148268,142476,65700,0,62264,0,1067000184,63
i,1726830552.621635,172.16.5.2,50396,172.16.1.2,5102,60389,65233,2086,144960,65728,6,6,4,1460,232812,1,16778208,490000,148268,142476,65700,0,65160,0,1067000184,63
o,1726830552.621652,172.16.5.2,50396,172.16.1.2,5102,60389,65233,2086,142080,65728,6,6,4,1460,233750,1,16778208,480000,148268,139580,65700,0,62264,0,1067000184,63
i,1726830552.621823,172.16.5.2,50396,172.16.1.2,5102,60389,65233,2086,142080,65728,6,6,4,1460,233750,1,16778208,480000,148268,139580,65700,0,65160,0,1067000184,63
o,1726830552.621840,172.16.5.2,50396,172.16.1.2,5102,60389,65233,2086,146432,65728,6,6,4,1460,234687,1,16778208,480000,148268,136684,65700,0,62264,0,1067000184,63
i,1726830552.622754,172.16.5.2,50396,172.16.1.2,5102,60389,65233,2086,146432,65728,6,6,4,1460,234687,1,16778208,480000,148268,148268,65700,0,65160,0,1067000184,63
o,1726830552.622774,172.16.5.2,50396,172.16.1.2,5102,60389,65233,2086,143552,65728,6,6,4,1460,235625,1,16778208,480000,148268,145372,65700,0,62264,0,1067000184,63
i,1726830552.622950,172.16.5.2,50396,172.16.1.2,5102,60389,65233,2086,143552,65728,6,6,4,1460,235625,1,16778208,480000,148268,145372,65700,0,65160,0,1067000184,63
o,1726830552.622967,172.16.5.2,50396,172.16.1.2,5102,60389,65233,2086,146432,65728,6,6,4,1460,236250,1,16778208,470000,148268,142476,65700,0,62264,0,1067000184,63
i,1726830552.623088,172.16.5.2,50396,172.16.1.2,5102,60389,65233,2086,146432,65728,6,6,4,1460,236250,1,16778208,470000,148268,142476,65700,0,65160,0,1067000184,63
o,1726830552.623104,172.16.5.2,50396,172.16.1.2,5102,60389,65233,2086,143552,65728,6,6,4,1460,236875,1,16778208,470000,148268,139580,65700,0,62264,0,1067000184,63
i,1726830552.623253,172.16.5.2,50396,172.16.1.2,5102,60389,65233,2086,143552,65728,6,6,4,1460,236875,1,16778208,470000,148268,139580,65700,0,65160,0,1067000184,63
o,1726830552.623269,172.16.5.2,50396,172.16.1.2,5102,60389,65233,2086,144960,65728,6,6,4,1460,237500,1,16778208,470000,148268,136684,65700,0,62264,0,1067000184,63
i,1726830552.624178,172.16.5.2,50396,172.16.1.2,5102,60389,65233,2086,144960,65728,6,6,4,1460,237500,1,16778208,470000,148268,148268,65700,0,65160,0,1067000184,63
o,1726830552.624254,172.16.5.2,50396,172.16.1.2,5102,60389,65233,2086,142080,65728,6,6,4,1460,237812,1,16778208,460000,148268,145372,65700,0,62264,0,1067000184,63
i,1726830552.624404,172.16.5.2,50396,172.16.1.2,5102,60389,65233,2086,142080,65728,6,6,4,1460,237812,1,16778208,460000,148268,145372,65700,0,65160,0,1067000184,63
o,1726830552.624421,172.16.5.2,50396,172.16.1.2,5102,60389,65233,2086,146432,65728,6,6,4,1460,238125,1,16778208,460000,148268,142476,65700,0,62264,0,1067000184,63
i,1726830552.624541,172.16.5.2,50396,172.16.1.2,5102,60389,65233,2086,146432,65728,6,6,4,1460,238125,1,16778208,460000,148268,142476,65700,0,65160,0,1067000184,63
o,1726830552.624557,172.16.5.2,50396,172.16.1.2,5102,60389,65233,2086,143552,65728,6,6,4,1460,238437,1,16778208,460000,148268,139580,65700,0,62264,0,1067000184,63
o,1726830552.624663,172.16.5.2,50396,172.16.1.2,5102,60389,65233,2086,143552,65728,6,6,4,1460,238437,1,16778208,460000,148268,139580,65700,0,63712,0,1067000184,63
i,1726830552.624824,172.16.5.2,50396,172.16.1.2,5102,60389,65233,2086,143552,65728,6,6,4,1460,238437,1,16778208,460000,148268,139580,65700,0,65160,0,1067000184,63
o,1726830552.624840,172.16.5.2,50396,172.16.1.2,5102,60389,65233,2086,146432,65728,6,6,4,1460,237500,1,16778208,460000,148268,136684,65700,0,62264,0,1067000184,63
i,1726830552.625687,172.16.5.2,50396,172.16.1.2,5102,60389,65233,2086,146432,65728,6,6,4,1460,237500,1,16778208,460000,148268,148268,65700,0,65160,0,1067000184,63
o,1726830552.625767,172.16.5.2,50396,172.16.1.2,5102,60389,65233,2086,143552,65728,6,6,4,1460,236562,1,16778208,460000,148268,145372,65700,0,62264,0,1067000184,63
i,1726830552.656686,172.16.5.2,50396,172.16.1.2,5102,60389,65233,2086,143552,65728,6,6,4,1460,236562,1,16778208,460000,148268,148268,65700,0,65160,0,1067000184,63
o,1726830552.656791,172.16.5.2,50396,172.16.1.2,5102,60389,65233,2086,144960,65728,6,6,4,1460,239687,1,16778208,480000,148268,145372,65700,0,62264,0,1067000184,63
i,1726830552.656943,172.16.5.2,50396,172.16.1.2,5102,60389,65233,2086,144960,65728,6,6,4,1460,239687,1,16778208,480000,148268,145372,65700,0,65160,0,1067000184,63
o,1726830552.656960,172.16.5.2,50396,172.16.1.2,5102,60389,65233,2086,142080,65728,6,6,4,1460,238750,1,16778208,480000,148268,142476,65700,0,62264,0,1067000184,63
i,1726830552.878371,172.16.5.2,50396,172.16.1.2,5102,60389,65233,2086,142080,65728,6,6,4,1460,238750,1,16778208,480000,148268,148268,65700,0,65160,0,1067000184,63
o,1726830552.878451,172.16.5.2,50396,172.16.1.2,5102,60389,65233,2086,218880,65728,6,6,4,1460,240312,1,16778208,480000,148268,145372,65700,0,62264,0,1067000184,63
i,1726830552.878583,172.16.5.2,50396,172.16.1.2,5102,60389,65233,2086,218880,65728,6,6,4,1460,240312,1,16778208,480000,148268,145372,65700,0,65160,0,1067000184,63
o,1726830552.878599,172.16.5.2,50396,172.16.1.2,5102,60389,65233,2086,216000,65728,6,6,4,1460,241562,1,16778208,480000,148268,142476,65700,0,62264,0,1067000184,63
i,1726830552.878746,172.16.5.2,50396,172.16.1.2,5102,60389,65233,2086,216000,65728,6,6,4,1460,241562,1,16778208,480000,148268,142476,65700,0,65160,0,1067000184,63
o,1726830552.878762,172.16.5.2,50396,172.16.1.2,5102,60389,65233,2086,220352,65728,6,6,4,1460,242812,1,16778208,490000,148268,139580,65700,0,62264,0,1067000184,63
i,1726830552.879739,172.16.5.2,50396,172.16.1.2,5102,60389,65233,2086,220352,65728,6,6,4,1460,242812,1,16778208,490000,148268,148268,65700,0,65160,0,1067000184,63
o,1726830552.879844,172.16.5.2,50396,172.16.1.2,5102,60389,66693,2086,217472,65728,6,6,4,1460,243750,1,16778208,480000,148268,145372,65700,0,62264,0,1067000184,63
i,1726830552.879977,172.16.5.2,50396,172.16.1.2,5102,60389,66693,2086,217472,65728,6,6,4,1460,243750,1,16778208,480000,148268,145372,65700,0,66608,0,1067000184,63
o,1726830552.879994,172.16.5.2,50396,172.16.1.2,5102,60389,66693,2086,220352,65728,6,6,4,1460,244687,1,16778208,480000,148268,142476,65700,0,63712,0,1067000184,63
i,1726830552.880141,172.16.5.2,50396,172.16.1.2,5102,60389,66693,2086,220352,65728,6,6,4,1460,244687,1,16778208,480000,148268,142476,65700,0,66608,0,1067000184,63
o,1726830552.880157,172.16.5.2,50396,172.16.1.2,5102,60389,66693,2086,220352,65728,6,6,4,1460,245625,1,16778208,480000,148268,139580,65700,0,63712,0,1067000184,63
i,1726830552.895714,172.16.5.2,50396,172.16.1.2,5102,60389,66693,2086,220352,65728,6,6,4,1460,245625,1,16778208,480000,148268,148268,65700,0,66608,0,1067000184,63
o,1726830552.895714,172.16.5.2,50396,172.16.1.2,5102,60389,66693,2086,220352,65728,6,6,4,1460,248750,1,16778208,500000,148268,145372,65700,0,63712,0,1067000184,63
i,1726830552.896533,172.16.5.2,50396,172.16.1.2,5102,60389,66693,2086,220352,65728,6,6,4,1460,248750,1,16778208,500000,148268,145372,65700,0,66608,0,1067000184,63
o,1726830552.896550,172.16.5.2,50396,172.16.1.2,5102,60389,66693,2086,220352,65728,6,6,4,1460,251562,1,16778208,510000,148268,142476,65700,0,63712,0,1067000184,63
i,1726830552.905165,172.16.5.2,50396,172.16.1.2,5102,60389,66693,2086,220352,65728,6,6,4,1460,251562,1,16778208,510000,148268,148268,65700,0,66608,0,1067000184,63
o,1726830552.905193,172.16.5.2,50396,172.16.1.2,5102,60389,66693,2086,218880,65728,6,6,4,1460,254062,1,16778208,520000,148268,145372,65700,0,63712,0,1067000184,63
i,1726830552.905392,172.16.5.2,50396,172.16.1.2,5102,60389,66693,2086,218880,65728,6,6,4,1460,254062,1,16778208,520000,148268,145372,65700,0,66608,0,1067000184,63
o,1726830552.905410,172.16.5.2,50396,172.16.1.2,5102,60389,66693,2086,216000,65728,6,6,4,1460,256250,1,16778208,520000,148268,142476,65700,0,63712,0,1067000184,63
i,1726830552.905531,172.16.5.2,50396,172.16.1.2,5102,60389,66693,2086,216000,65728,6,6,4,1460,256250,1,16778208,520000,148268,142476,65700,0,66608,0,1067000184,63
o,1726830552.905547,172.16.5.2,50396,172.16.1.2,5102,60389,66693,2086,220352,65728,6,6,4,1460,258125,1,16778208,520000,148268,139580,65700,0,63712,0,1067000184,63
i,1726830552.905666,172.16.5.2,50396,172.16.1.2,5102,60389,66693,2086,220352,65728,6,6,4,1460,258125,1,16778208,520000,148268,139580,65700,0,66608,0,1067000184,63
o,1726830552.905682,172.16.5.2,50396,172.16.1.2,5102,60389,66693,2086,217472,65728,6,6,4,1460,259687,1,16778208,520000,148268,136684,65700,0,63712,0,1067000184,63
i,1726830552.905830,172.16.5.2,50396,172.16.1.2,5102,60389,66693,2086,217472,65728,6,6,4,1460,259687,1,16778208,520000,148268,136684,65700,0,66608,0,1067000184,63
o,1726830552.905847,172.16.5.2,50396,172.16.1.2,5102,60389,66693,2086,218880,65728,6,6,4,1460,261250,1,16778208,520000,148268,133788,65700,0,63712,0,1067000184,63
i,1726830552.906692,172.16.5.2,50396,172.16.1.2,5102,60389,66693,2086,218880,65728,6,6,4,1460,261250,1,16778208,520000,148268,148268,65700,0,66608,0,1067000184,63
o,1726830552.906716,172.16.5.2,50396,172.16.1.2,5102,60389,66693,2086,216000,65728,6,6,4,1460,263750,1,16778208,530000,148268,145372,65700,0,63712,0,1067000184,63
i,1726830552.906888,172.16.5.2,50396,172.16.1.2,5102,60389,66693,2086,216000,65728,6,6,4,1460,263750,1,16778208,530000,148268,145372,65700,0,66608,0,1067000184,63
o,1726830552.906905,172.16.5.2,50396,172.16.1.2,5102,60389,66693,2086,218880,65728,6,6,4,1460,265937,1,16778208,530000,148268,142476,65700,0,63712,0,1067000184,63
i,1726830552.907074,172.16.5.2,50396,172.16.1.2,5102,60389,66693,2086,218880,65728,6,6,4,1460,265937,1,16778208,530000,148268,142476,65700,0,66608,0,1067000184,63
o,1726830552.907090,172.16.5.2,50396,172.16.1.2,5102,60389,66693,2086,216000,65728,6,6,4,1460,267812,1,16778208,530000,148268,139580,65700,0,63712,0,1067000184,63
i,1726830552.907254,172.16.5.2,50396,172.16.1.2,5102,60389,66693,2086,216000,65728,6,6,4,1460,267812,1,16778208,530000,148268,139580,65700,0,66608,0,1067000184,63
o,1726830552.907270,172.16.5.2,50396,172.16.1.2,5102,60389,66693,2086,220352,65728,6,6,4,1460,269375,1,16778208,530000,148268,136684,65700,0,63712,0,1067000184,63
i,1726830552.907412,172.16.5.2,50396,172.16.1.2,5102,60389,66693,2086,220352,65728,6,6,4,1460,269375,1,16778208,530000,148268,136684,65700,0,66608,0,1067000184,63
o,1726830552.907442,172.16.5.2,50396,172.16.1.2,5102,60389,66693,2086,218880,65728,6,6,4,1460,270937,1,16778208,530000,148268,133788,65700,0,63712,0,1067000184,63
o,1726830552.907550,172.16.5.2,50396,172.16.1.2,5102,60389,66693,2086,218880,65728,6,6,4,1460,270937,1,16778208,530000,148268,133788,65700,0,65160,0,1067000184,63
i,1726830552.907694,172.16.5.2,50396,172.16.1.2,5102,60389,66693,2086,218880,65728,6,6,4,1460,270937,1,16778208,530000,148268,133788,65700,0,66608,0,1067000184,63
o,1726830552.907711,172.16.5.2,50396,172.16.1.2,5102,60389,66693,2086,216000,65728,6,6,4,1460,272187,1,16778208,520000,148268,130892,65700,0,63712,0,1067000184,63
i,1726830552.908522,172.16.5.2,50396,172.16.1.2,5102,60389,66693,2086,216000,65728,6,6,4,1460,272187,1,16778208,520000,156460,156460,65700,0,66608,0,1067000184,63
o,1726830552.908540,172.16.5.2,50396,172.16.1.2,5102,60389,66693,2086,220352,65728,6,6,4,1460,273437,1,16778208,520000,156460,153564,65700,0,63712,0,1067000184,63
i,1726830552.908701,172.16.5.2,50396,172.16.1.2,5102,60389,66693,2086,220352,65728,6,6,4,1460,273437,1,16778208,520000,156460,153564,65700,0,66608,0,1067000184,63
o,1726830552.908718,172.16.5.2,50396,172.16.1.2,5102,60389,66693,2086,218880,65728,6,6,4,1460,274375,1,16778208,520000,156460,150668,65700,0,63712,0,1067000184,63
i,1726830552.908840,172.16.5.2,50396,172.16.1.2,5102,60389,66693,2086,218880,65728,6,6,4,1460,274375,1,16778208,520000,156460,150668,65700,0,66608,0,1067000184,63
o,1726830552.908855,172.16.5.2,50396,172.16.1.2,5102,60389,66693,2086,216000,65728,6,6,4,1460,270312,1,16778208,540000,156460,147772,65700,0,63712,0,1067000184,63
i,1726830552.936328,172.16.5.2,50396,172.16.1.2,5102,60389,66693,2086,216000,65728,6,6,4,1460,270312,1,16778208,540000,156460,156460,65700,0,66608,0,1067000184,63
o,1726830552.936378,172.16.5.2,50396,172.16.1.2,5102,60389,66693,2086,221760,65728,6,6,4,1460,271562,1,16778208,530000,156460,155012,65700,0,65160,0,1067000184,63
i,1726830553.137970,172.16.5.2,50396,172.16.1.2,5102,60389,66693,2086,221760,65728,6,6,4,1460,271562,1,16778208,530000,156460,155012,65700,0,66608,0,1067000184,63
o,1726830553.138137,172.16.5.2,50396,172.16.1.2,5102,60389,66693,2086,218880,65728,6,6,4,1460,270312,1,16778208,520000,156460,152116,65700,0,63712,0,1067000184,63
i,1726830553.156290,172.16.5.2,50396,172.16.1.2,5102,60389,66693,2086,218880,65728,6,6,4,1460,270312,1,16778208,520000,156460,156460,65700,0,66608,0,1067000184,63
o,1726830553.156387,172.16.5.2,50396,172.16.1.2,5102,60389,66693,2086,216000,65728,6,6,4,1460,271562,1,16778208,520000,156460,153564,65700,0,63712,0,1067000184,63
i,1726830553.156527,172.16.5.2,50396,172.16.1.2,5102,60389,66693,2086,216000,65728,6,6,4,1460,271562,1,16778208,520000,156460,153564,65700,0,66608,0,1067000184,63
o,1726830553.156544,172.16.5.2,50396,172.16.1.2,5102,60389,66693,2086,213120,65728,6,6,4,1460,272812,1,16778208,520000,156460,150668,65700,0,63712,0,1067000184,63
i,1726830553.163953,172.16.5.2,50396,172.16.1.2,5102,60389,66693,2086,213120,65728,6,6,4,1460,272812,1,16778208,520000,156460,156460,65700,0,66608,0,1067000184,63
o,1726830553.163988,172.16.5.2,50396,172.16.1.2,5102,60389,66693,2086,220352,65728,6,6,4,1460,273750,1,16778208,520000,156460,153564,65700,0,63712,0,1067000184,63
i,1726830553.164077,172.16.5.2,50396,172.16.1.2,5102,60389,66693,2086,220352,65728,6,6,4,1460,273750,1,16778208,520000,156460,153564,65700,0,66608,0,1067000184,63
o,1726830553.164077,172.16.5.2,50396,172.16.1.2,5102,60389,68153,2086,217472,65728,6,6,4,1460,274687,1,16778208,510000,156460,150668,65700,0,63712,0,1067000184,63
i,1726830553.164077,172.16.5.2,50396,172.16.1.2,5102,60389,68153,2086,217472,65728,6,6,4,1460,274687,1,16778208,510000,156460,150668,65700,0,68056,0,1067000184,63
o,1726830553.164077,172.16.5.2,50396,172.16.1.2,5102,60389,68153,2086,220352,65728,6,6,4,1460,275625,1,16778208,510000,156460,147772,65700,0,65160,0,1067000184,63
i,1726830553.164077,172.16.5.2,50396,172.16.1.2,5102,60389,68153,2086,220352,65728,6,6,4,1460,275625,1,16778208,510000,156460,147772,65700,0,68056,0,1067000184,63
o,1726830553.164077,172.16.5.2,50396,172.16.1.2,5102,60389,68153,2086,218880,65728,6,6,4,1460,276250,1,16778208,510000,156460,150704,65700,0,65160,0,1067000184,63
i,1726830553.165381,172.16.5.2,50396,172.16.1.2,5102,60389,68153,2086,218880,65728,6,6,4,1460,276250,1,16778208,510000,156460,150704,65700,0,68056,0,1067000184,63
o,1726830553.165413,172.16.5.2,50396,172.16.1.2,5102,60389,68153,2086,218880,65728,6,6,4,1460,274375,1,16778208,510000,156460,147808,65700,0,65160,0,1067000184,63
i,1726830553.165558,172.16.5.2,50396,172.16.1.2,5102,60389,68153,2086,218880,65728,6,6,4,1460,274375,1,16778208,510000,156460,147808,65700,0,68056,0,1067000184,63
o,1726830553.165575,172.16.5.2,50396,172.16.1.2,5102,60389,68153,2086,218880,65728,6,6,4,1460,272812,1,16778208,520000,156460,144912,65700,0,65160,0,1067000184,63
i,1726830553.165715,172.16.5.2,50396,172.16.1.2,5102,60389,68153,2086,218880,65728,6,6,4,1460,272812,1,16778208,520000,156460,144912,65700,0,68056,0,1067000184,63
o,1726830553.165732,172.16.5.2,50396,172.16.1.2,5102,60389,68153,2086,220352,65728,6,6,4,1460,271250,1,16778208,520000,156460,142016,65700,0,65160,0,1067000184,63
i,1726830553.166034,172.16.5.2,50396,172.16.1.2,5102,60389,68153,2086,220352,65728,6,6,4,1460,271250,1,16778208,520000,156460,142016,65700,0,68056,0,1067000184,63
o,1726830553.166050,172.16.5.2,50396,172.16.1.2,5102,60389,68153,2086,217472,65728,6,6,4,1460,270000,1,16778208,510000,156460,139120,65700,0,65160,0,1067000184,63
