enable_time_secs=1732626824	enable_time_usecs=687681	siftrver=1.3.0	sysname=FreeBSD	sysver=1401000	ipmode=4
o,1732626824.688126,10.0.2.15,22,10.0.2.2,54522,1073725440,17746,1026,65535,65700,0,0,4,1460,312,0,16777220,240000,33580,172,65700,0,0,0,3730169053,63
o,1732626824.688322,10.0.2.15,22,10.0.2.2,54522,1073725440,17746,1026,65535,65700,0,0,4,1460,312,0,16777220,240000,33580,244,65700,0,172,0,3730169053,63
i,1732626824.688535,10.0.2.15,22,10.0.2.2,54522,1073725440,17746,1026,65535,65700,0,0,4,1460,312,0,16777220,240000,33580,244,65700,0,244,0,3730169053,63
i,1732626824.689278,10.0.2.15,22,10.0.2.2,54522,1073725440,17918,1026,65535,65700,0,0,4,1460,312,0,4,240000,33580,72,65700,0,72,0,3730169053,63
i,1732626824.689297,10.0.2.15,22,10.0.2.2,54522,1073725440,17990,1026,65535,65700,0,0,4,1460,312,0,4,240000,33580,0,65700,0,0,0,3730169053,63
i,1732626824.689316,10.0.2.15,22,10.0.2.2,54522,1073725440,17990,1026,65535,65700,0,0,4,1460,312,0,4,240000,33580,0,65700,96,0,0,3730169053,63
o,1732626824.689336,10.0.2.15,22,10.0.2.2,54522,1073725440,17990,1026,65535,65604,0,0,5,1460,312,0,5,240000,33580,0,65700,96,0,0,3730169053,63
o,1732626824.690304,10.0.2.15,22,10.0.2.2,54522,1073725440,17990,1026,65535,65604,0,0,8,1460,312,0,4,240000,33580,0,65700,0,0,0,3730169053,63
i,1732626824.690809,10.0.2.15,22,10.0.2.2,54522,1073725440,17990,1026,65535,65604,0,0,8,1460,312,0,67108884,240000,33580,0,65700,0,1,0,3730169053,63
i,1732626827.918290,10.0.2.15,22,10.0.2.2,54504,1073725440,14600,0,65535,65700,0,0,4,1460,312,0,16777216,280000,33580,0,65700,0,0,0,1688216396,63
o,1732626827.928411,10.0.2.15,22,10.0.2.2,54504,1073725440,14600,1026,65535,65700,0,0,4,1460,312,0,16777216,280000,33580,38,65700,42,0,0,1688216396,63
i,1732626827.929017,10.0.2.15,22,10.0.2.2,54504,1073725440,14600,1026,65535,65700,0,0,4,1460,312,0,16777216,280000,33580,38,65700,0,38,0,1688216396,63
i,1732626827.929066,10.0.2.15,22,10.0.2.2,54504,1073725440,14638,1026,65535,65700,0,0,4,1460,312,0,0,240000,33580,0,65700,0,0,0,1688216396,63
i,1732626827.929107,10.0.2.15,22,10.0.2.2,54504,1073725440,14638,1026,65535,65700,0,0,4,1460,312,0,0,240000,33580,0,65700,1460,0,0,1688216396,63
o,1732626827.929124,10.0.2.15,22,10.0.2.2,54504,1073725440,14638,1026,65535,65700,0,0,4,1460,312,0,1,240000,33580,0,65700,1536,0,0,1688216396,63
o,1732626827.930542,10.0.2.15,22,10.0.2.2,54504,1073725440,14638,1026,65535,65700,0,0,4,1460,312,0,16777216,240000,33580,1120,65700,1536,0,0,1688216396,63
i,1732626827.930876,10.0.2.15,22,10.0.2.2,54504,1073725440,14638,1026,65535,65700,0,0,4,1460,312,0,16777216,240000,33580,1120,65700,0,1120,0,1688216396,63
i,1732626827.932545,10.0.2.15,22,10.0.2.2,54504,1073725440,15758,1026,65535,65700,0,0,4,1460,312,0,0,240000,33580,0,65700,0,0,0,1688216396,63
o,1732626827.935698,10.0.2.15,22,10.0.2.2,54504,1073725440,15758,1026,65535,65700,0,0,4,1460,312,0,16777216,240000,33580,492,65700,0,0,0,1688216396,63
i,1732626827.936543,10.0.2.15,22,10.0.2.2,54504,1073725440,15758,1026,65535,65700,0,0,4,1460,312,0,16777216,240000,33580,492,65700,0,492,0,1688216396,63
i,1732626827.940736,10.0.2.15,22,10.0.2.2,54504,1073725440,16250,1026,65535,65700,0,0,4,1460,312,0,0,240000,33580,0,65700,0,0,0,1688216396,63
i,1732626827.940755,10.0.2.15,22,10.0.2.2,54504,1073725440,16250,1026,65535,65700,0,0,4,1460,312,0,0,240000,33580,0,65700,16,0,0,1688216396,63
o,1732626827.940771,10.0.2.15,22,10.0.2.2,54504,1073725440,16250,1026,65535,65700,0,0,4,1460,312,0,1,240000,33580,0,65700,60,0,0,1688216396,63
o,1732626827.940968,10.0.2.15,22,10.0.2.2,54504,1073725440,16250,1026,65535,65700,0,0,4,1460,312,0,16777216,240000,33580,44,65700,0,0,0,1688216396,63
i,1732626827.942033,10.0.2.15,22,10.0.2.2,54504,1073725440,16250,1026,65535,65700,0,0,4,1460,312,0,16777216,240000,33580,44,65700,0,44,0,1688216396,63
i,1732626827.942050,10.0.2.15,22,10.0.2.2,54504,1073725440,16294,1026,65535,65700,0,0,4,1460,312,0,0,240000,33580,0,65700,0,0,0,1688216396,63
o,1732626827.943448,10.0.2.15,22,10.0.2.2,54504,1073725440,16294,1026,65535,65700,0,0,4,1460,312,0,16777216,240000,33580,68,65700,0,0,0,1688216396,63
i,1732626827.944001,10.0.2.15,22,10.0.2.2,54504,1073725440,16294,1026,65535,65700,0,0,4,1460,312,0,16777216,240000,33580,68,65700,0,68,0,1688216396,63
i,1732626827.944335,10.0.2.15,22,10.0.2.2,54504,1073725440,16362,1026,65535,65700,0,0,4,1460,312,0,0,240000,33580,0,65700,0,0,0,1688216396,63
o,1732626827.945415,10.0.2.15,22,10.0.2.2,54504,1073725440,16362,1026,65535,65700,0,0,4,1460,312,0,16777216,240000,33580,332,65700,0,0,0,1688216396,63
i,1732626827.946200,10.0.2.15,22,10.0.2.2,54504,1073725440,16362,1026,65535,65700,0,0,4,1460,312,0,16777216,240000,33580,332,65700,0,332,0,1688216396,63
i,1732626827.947671,10.0.2.15,22,10.0.2.2,54504,1073725440,16694,1026,65535,65700,0,0,4,1460,312,0,0,240000,33580,0,65700,0,0,0,1688216396,63
o,1732626827.965409,10.0.2.15,22,10.0.2.2,54504,1073725440,16694,1026,65535,65700,0,0,4,1460,312,0,16777216,240000,33580,28,65700,0,0,0,1688216396,63
i,1732626827.966131,10.0.2.15,22,10.0.2.2,54504,1073725440,16694,1026,65535,65700,0,0,4,1460,312,0,16777216,240000,33580,28,65700,0,28,0,1688216396,63
i,1732626827.966609,10.0.2.15,22,10.0.2.2,54504,1073725440,16722,1026,65535,65700,0,0,4,1460,312,0,0,240000,33580,0,65700,0,0,0,1688216396,63
o,1732626827.967464,10.0.2.15,22,10.0.2.2,54504,1073725440,16722,1026,65535,65700,0,0,4,1460,312,0,16777216,240000,33580,768,65700,112,0,0,1688216396,63
i,1732626827.968824,10.0.2.15,22,10.0.2.2,54504,1073725440,16722,1026,65535,65700,0,0,4,1460,312,0,16777216,240000,33580,952,65700,0,768,0,1688216396,63
o,1732626827.968841,10.0.2.15,22,10.0.2.2,54504,1073725440,17490,1026,65535,65700,0,0,4,1460,312,0,16777216,240000,33580,184,65700,0,0,0,1688216396,63
i,1732626827.969381,10.0.2.15,22,10.0.2.2,54504,1073725440,17490,1026,65535,65700,0,0,4,1460,312,0,16777216,240000,33580,184,65700,0,184,0,1688216396,63
i,1732626827.969823,10.0.2.15,22,10.0.2.2,54504,1073725440,17674,1026,65535,65700,0,0,4,1460,312,0,0,240000,33580,0,65700,0,0,0,1688216396,63
o,1732626827.970392,10.0.2.15,22,10.0.2.2,54504,1073725440,17674,1026,65535,65700,0,0,4,1460,312,0,16777220,240000,33580,72,65700,0,0,0,1688216396,63
i,1732626827.970912,10.0.2.15,22,10.0.2.2,54504,1073725440,17674,1026,65535,65700,0,0,4,1460,312,0,16777220,240000,33580,72,65700,0,72,0,1688216396,63
o,1732626827.973934,10.0.2.15,22,10.0.2.2,54504,1073725440,17746,1026,65535,65700,0,0,4,1460,312,0,16777220,240000,33580,104,65700,0,0,0,1688216396,63
i,1732626827.974618,10.0.2.15,22,10.0.2.2,54504,1073725440,17746,1026,65535,65700,0,0,4,1460,312,0,16777220,240000,33580,104,65700,0,104,0,1688216396,63
o,1732626827.974649,10.0.2.15,22,10.0.2.2,54504,1073725440,17850,1026,65535,65700,0,0,4,1460,312,0,16777220,240000,33580,72,65700,0,0,0,1688216396,63
i,1732626827.975263,10.0.2.15,22,10.0.2.2,54504,1073725440,17850,1026,65535,65700,0,0,4,1460,312,0,16777220,240000,33580,72,65700,0,72,0,1688216396,63
i,1732626827.975280,10.0.2.15,22,10.0.2.2,54504,1073725440,17922,1026,65535,65700,0,0,4,1460,312,0,4,240000,33580,0,65700,0,0,0,1688216396,63
i,1732626827.975296,10.0.2.15,22,10.0.2.2,54504,1073725440,17922,1026,65535,65700,0,0,4,1460,312,0,4,240000,33580,0,65700,96,0,0,1688216396,63
o,1732626827.975314,10.0.2.15,22,10.0.2.2,54504,1073725440,17922,1026,65535,65604,0,0,5,1460,312,0,5,240000,33580,0,65700,96,0,0,1688216396,63
o,1732626827.975849,10.0.2.15,22,10.0.2.2,54504,1073725440,17922,1026,65535,65604,0,0,8,1460,312,0,4,240000,33580,0,65700,0,0,0,1688216396,63
i,1732626827.976277,10.0.2.15,22,10.0.2.2,54504,1073725440,17922,1026,65535,65604,0,0,8,1460,312,0,67108884,240000,33580,0,65700,0,1,0,1688216396,63
i,1732626829.045090,10.0.2.15,22,10.0.2.2,54530,1073725440,14600,0,65535,65700,0,0,4,1460,312,0,16777216,280000,33580,0,65700,0,0,0,3424207666,63
o,1732626829.067242,10.0.2.15,22,10.0.2.2,54530,1073725440,14600,1026,65535,65700,0,0,4,1460,312,0,16777216,280000,33580,38,65700,42,0,0,3424207666,63
i,1732626829.068014,10.0.2.15,22,10.0.2.2,54530,1073725440,14600,1026,65535,65700,0,0,4,1460,312,0,16777216,280000,33580,38,65700,0,38,0,3424207666,63
i,1732626829.068064,10.0.2.15,22,10.0.2.2,54530,1073725440,14638,1026,65535,65700,0,0,4,1460,312,0,0,240000,33580,0,65700,0,0,0,3424207666,63
i,1732626829.068084,10.0.2.15,22,10.0.2.2,54530,1073725440,14638,1026,65535,65700,0,0,4,1460,312,0,0,240000,33580,0,65700,1460,0,0,3424207666,63
o,1732626829.068106,10.0.2.15,22,10.0.2.2,54530,1073725440,14638,1026,65535,65700,0,0,4,1460,312,0,1,240000,33580,0,65700,1536,0,0,3424207666,63
o,1732626829.070563,10.0.2.15,22,10.0.2.2,54530,1073725440,14638,1026,65535,65700,0,0,4,1460,312,0,16777216,240000,33580,1120,65700,1536,0,0,3424207666,63
i,1732626829.071632,10.0.2.15,22,10.0.2.2,54530,1073725440,14638,1026,65535,65700,0,0,4,1460,312,0,16777216,240000,33580,1120,65700,0,1120,0,3424207666,63
i,1732626829.072349,10.0.2.15,22,10.0.2.2,54530,1073725440,15758,1026,65535,65700,0,0,4,1460,312,0,0,240000,33580,0,65700,0,0,0,3424207666,63
o,1732626829.077893,10.0.2.15,22,10.0.2.2,54530,1073725440,15758,1026,65535,65700,0,0,4,1460,312,0,16777216,240000,33580,492,65700,0,0,0,3424207666,63
i,1732626829.079023,10.0.2.15,22,10.0.2.2,54530,1073725440,15758,1026,65535,65700,0,0,4,1460,312,0,16777216,240000,33580,492,65700,0,492,0,3424207666,63
i,1732626829.083872,10.0.2.15,22,10.0.2.2,54530,1073725440,16250,1026,65535,65700,0,0,4,1460,312,0,0,240000,33580,0,65700,0,0,0,3424207666,63
i,1732626829.083905,10.0.2.15,22,10.0.2.2,54530,1073725440,16250,1026,65535,65700,0,0,4,1460,312,0,0,240000,33580,0,65700,16,0,0,3424207666,63
o,1732626829.083935,10.0.2.15,22,10.0.2.2,54530,1073725440,16250,1026,65535,65700,0,0,4,1460,312,0,1,240000,33580,0,65700,60,0,0,3424207666,63
o,1732626829.084160,10.0.2.15,22,10.0.2.2,54530,1073725440,16250,1026,65535,65700,0,0,4,1460,312,0,16777216,240000,33580,44,65700,0,0,0,3424207666,63
i,1732626829.085148,10.0.2.15,22,10.0.2.2,54530,1073725440,16250,1026,65535,65700,0,0,4,1460,312,0,16777216,240000,33580,44,65700,0,44,0,3424207666,63
i,1732626829.085172,10.0.2.15,22,10.0.2.2,54530,1073725440,16294,1026,65535,65700,0,0,4,1460,312,0,0,240000,33580,0,65700,0,0,0,3424207666,63
o,1732626829.087315,10.0.2.15,22,10.0.2.2,54530,1073725440,16294,1026,65535,65700,0,0,4,1460,312,0,16777216,240000,33580,68,65700,0,0,0,3424207666,63
i,1732626829.087864,10.0.2.15,22,10.0.2.2,54530,1073725440,16294,1026,65535,65700,0,0,4,1460,312,0,16777216,240000,33580,68,65700,0,68,0,3424207666,63
i,1732626829.087881,10.0.2.15,22,10.0.2.2,54530,1073725440,16362,1026,65535,65700,0,0,4,1460,312,0,0,240000,33580,0,65700,0,0,0,3424207666,63
o,1732626829.090114,10.0.2.15,22,10.0.2.2,54530,1073725440,16362,1026,65535,65700,0,0,4,1460,312,0,16777216,240000,33580,332,65700,0,0,0,3424207666,63
i,1732626829.091010,10.0.2.15,22,10.0.2.2,54530,1073725440,16362,1026,65535,65700,0,0,4,1460,312,0,16777216,240000,33580,332,65700,0,332,0,3424207666,63
i,1732626829.092583,10.0.2.15,22,10.0.2.2,54530,1073725440,16694,1026,65535,65700,0,0,4,1460,312,0,0,240000,33580,0,65700,0,0,0,3424207666,63
o,1732626829.109438,10.0.2.15,22,10.0.2.2,54530,1073725440,16694,1026,65535,65700,0,0,4,1460,312,0,16777216,240000,33580,28,65700,0,0,0,3424207666,63
i,1732626829.110008,10.0.2.15,22,10.0.2.2,54530,1073725440,16694,1026,65535,65700,0,0,4,1460,312,0,16777216,240000,33580,28,65700,0,28,0,3424207666,63
o,1732626829.112202,10.0.2.15,22,10.0.2.2,54530,1073725440,16722,1026,65535,65700,0,0,4,1460,312,0,16777216,240000,33580,768,65700,0,0,0,3424207666,63
i,1732626829.112638,10.0.2.15,22,10.0.2.2,54530,1073725440,16722,1026,65535,65700,0,0,4,1460,312,0,16777216,240000,33580,908,65700,0,768,0,3424207666,63
i,1732626829.112657,10.0.2.15,22,10.0.2.2,54530,1073725440,16722,1026,65535,65700,0,0,4,1460,312,0,16777216,240000,33580,908,65700,112,768,0,3424207666,63
o,1732626829.112703,10.0.2.15,22,10.0.2.2,54530,1073725440,17490,1026,65535,65700,0,0,4,1460,312,0,16777216,230000,33580,140,65700,112,0,0,3424207666,63
i,1732626829.112932,10.0.2.15,22,10.0.2.2,54530,1073725440,17490,1026,65535,65700,0,0,4,1460,312,0,16777216,230000,33580,140,65700,112,140,0,3424207666,63
o,1732626829.114938,10.0.2.15,22,10.0.2.2,54530,1073725440,17630,1026,65535,65700,0,0,4,1460,312,0,16777216,230000,33580,44,65700,0,0,0,3424207666,63
i,1732626829.115456,10.0.2.15,22,10.0.2.2,54530,1073725440,17630,1026,65535,65700,0,0,4,1460,312,0,16777216,230000,33580,44,65700,0,44,0,3424207666,63
i,1732626829.115475,10.0.2.15,22,10.0.2.2,54530,1073725440,17674,1026,65535,65700,0,0,4,1460,312,0,0,230000,33580,0,65700,0,0,0,3424207666,63
o,1732626829.116777,10.0.2.15,22,10.0.2.2,54530,1073725440,17674,1026,65535,65700,0,0,4,1460,312,0,16777220,230000,33580,72,65700,0,0,0,3424207666,63
i,1732626829.117525,10.0.2.15,22,10.0.2.2,54530,1073725440,17674,1026,65535,65700,0,0,4,1460,312,0,16777220,230000,33580,72,65700,0,72,0,3424207666,63
o,1732626829.292028,172.16.5.2,35012,172.16.1.2,5102,1073725440,14480,2082,65535,65700,6,6,4,1460,150000,1,16778209,650000,33580,0,65700,0,0,0,3434848601,63
o,1732626829.292191,172.16.5.2,35012,172.16.1.2,5102,1073725440,14480,2082,65535,65700,6,6,4,1460,150000,1,16778212,650000,33580,37,65700,0,0,0,3434848601,63
i,1732626829.424686,172.16.5.2,35012,172.16.1.2,5102,1073725440,14480,2082,65535,65700,6,6,4,1460,150000,1,16778212,650000,33580,37,65700,0,37,0,3434848601,63
o,1732626829.425117,172.16.5.2,35012,172.16.1.2,5102,1073725440,14517,3106,65728,65728,6,6,4,1460,147500,1,16778212,590000,33580,4,65700,0,0,0,3434848601,63
o,1732626829.425267,172.16.5.2,35012,172.16.1.2,5102,1073725440,14517,3106,65728,65728,6,6,4,1460,147500,1,16778212,590000,33580,130,65700,0,4,0,3434848601,63
i,1732626829.542633,172.16.5.2,35012,172.16.1.2,5102,1073725440,14517,3106,65728,65728,6,6,4,1460,147500,1,16778212,590000,33580,130,65700,0,130,0,3434848601,63
i,1732626829.543368,172.16.5.2,35012,172.16.1.2,5102,1073725440,14647,3106,65600,65728,6,6,4,1460,142812,1,996,560000,33580,0,65700,0,0,0,3434848601,63
o,1732626829.583233,172.16.5.2,35012,172.16.1.2,5102,1073725440,14647,3106,65728,65728,6,6,4,1460,142812,1,997,560000,33580,0,65700,0,0,0,3434848601,63
o,1732626829.661443,172.16.5.2,31930,172.16.1.2,5102,1073725440,14480,2082,65535,65700,6,6,4,1460,120000,1,16778209,560000,33580,0,65700,0,0,0,421502363,63
o,1732626829.661688,172.16.5.2,31930,172.16.1.2,5102,1073725440,14480,2082,65535,65700,6,6,4,1460,120000,1,16778208,560000,33580,37,65700,0,0,0,421502363,63
i,1732626829.801019,172.16.5.2,35012,172.16.1.2,5102,1073725440,14647,3106,65728,65728,6,6,4,1460,142812,1,996,560000,33580,0,65700,0,0,0,3434848601,63
i,1732626829.819131,172.16.5.2,35012,172.16.1.2,5102,1073725440,14647,3106,65728,65728,6,6,4,1460,142812,1,996,560000,33580,0,65700,0,0,0,3434848601,63
o,1732626829.819239,172.16.5.2,35012,172.16.1.2,5102,1073725440,14647,3106,65728,65728,6,6,4,1460,142812,1,997,560000,33580,0,65700,1,0,0,3434848601,63
o,1732626829.819699,172.16.5.2,31930,172.16.1.2,5102,1073725440,14480,2086,65535,65700,6,6,4,1460,120000,1,16778208,560000,33580,33580,65700,0,37,0,421502363,63
i,1732626829.841323,172.16.5.2,31930,172.16.1.2,5102,1073725440,14480,2086,65535,65700,6,6,4,1460,120000,1,16778208,560000,33580,33580,65700,0,13069,0,421502363,63
o,1732626829.841356,172.16.5.2,31930,172.16.1.2,5102,1073725440,14517,2086,65728,65728,6,6,4,1460,127500,1,16778208,560000,33580,33543,65700,0,13032,0,421502363,63
i,1732626829.933331,172.16.5.2,31930,172.16.1.2,5102,1073725440,14517,2086,65728,65728,6,6,4,1460,127500,1,16778208,560000,33580,33543,65700,0,14480,0,421502363,63
o,1732626829.933383,172.16.5.2,31930,172.16.1.2,5102,1073725440,17413,2086,64256,65728,6,6,4,1460,126562,1,16778208,510000,33580,30647,65700,0,11584,0,421502363,63
i,1732626829.933595,172.16.5.2,31930,172.16.1.2,5102,1073725440,17413,2086,64256,65728,6,6,4,1460,126562,1,16778208,510000,41772,30647,65700,0,17376,0,421502363,63
o,1732626829.933616,172.16.5.2,31930,172.16.1.2,5102,1073725440,20309,2086,61376,65728,6,6,4,1460,125937,1,16778208,470000,41772,27751,65700,0,14480,0,421502363,63
i,1732626829.933839,172.16.5.2,31930,172.16.1.2,5102,1073725440,20309,2086,61376,65728,6,6,4,1460,125937,1,16778208,470000,41772,27751,65700,0,20272,0,421502363,63
o,1732626829.933880,172.16.5.2,31930,172.16.1.2,5102,1073725440,23205,2086,58496,65728,6,6,4,1460,125312,1,16778208,440000,41772,24855,65700,0,17376,0,421502363,63
i,1732626829.962221,172.16.5.2,31930,172.16.1.2,5102,1073725440,23205,2086,58496,65728,6,6,4,1460,125312,1,16778208,440000,49964,49964,65700,0,23168,0,421502363,63
o,1732626829.962308,172.16.5.2,31930,172.16.1.2,5102,1073725440,26101,2086,64256,65728,6,6,4,1460,127187,1,16778208,430000,49964,47068,65700,0,20272,0,421502363,63
i,1732626830.003542,172.16.5.2,31930,172.16.1.2,5102,1073725440,26101,2086,64256,65728,6,6,4,1460,127187,1,16778208,430000,58156,58156,65700,0,26064,0,421502363,63
o,1732626830.003577,172.16.5.2,31930,172.16.1.2,5102,1073725440,28997,2086,64256,65728,6,6,4,1460,135312,1,16778208,480000,58156,55260,65700,0,23168,0,421502363,63
o,1732626830.003737,172.16.5.2,31930,172.16.1.2,5102,1073725440,28997,2086,64256,65728,6,6,4,1460,135312,1,16778208,480000,58156,55260,65700,0,24616,0,421502363,63
i,1732626830.082619,172.16.5.2,31930,172.16.1.2,5102,1073725440,28997,2086,64256,65728,6,6,4,1460,135312,1,16778208,480000,66348,66348,65700,0,28960,0,421502363,63
o,1732626830.082651,172.16.5.2,31930,172.16.1.2,5102,1073725440,31893,2086,64256,65728,6,6,4,1460,135937,1,16778208,450000,66348,63452,65700,0,26064,0,421502363,63
i,1732626830.082808,172.16.5.2,31930,172.16.1.2,5102,1073725440,31893,2086,64256,65728,6,6,4,1460,135937,1,16778208,450000,74540,63452,65700,0,31856,0,421502363,63
o,1732626830.082826,172.16.5.2,31930,172.16.1.2,5102,1073725440,34789,2086,62848,65728,6,6,4,1460,136562,1,16778208,420000,74540,60556,65700,0,28960,0,421502363,63
i,1732626830.083016,172.16.5.2,31930,172.16.1.2,5102,1073725440,34789,2086,62848,65728,6,6,4,1460,136562,1,16778208,420000,74540,60556,65700,0,34752,0,421502363,63
o,1732626830.083033,172.16.5.2,31930,172.16.1.2,5102,1073725440,37685,2086,59968,65728,6,6,4,1460,137187,1,16778208,410000,74540,57660,65700,0,31856,0,421502363,63
i,1732626830.083199,172.16.5.2,31930,172.16.1.2,5102,1073725440,37685,2086,59968,65728,6,6,4,1460,137187,1,16778208,410000,74540,57660,65700,0,37648,0,421502363,63
o,1732626830.083231,172.16.5.2,31930,172.16.1.2,5102,1073725440,40581,2086,57088,65728,6,6,4,1460,137812,1,16778208,400000,74540,54764,65700,0,34752,0,421502363,63
i,1732626830.083368,172.16.5.2,31930,172.16.1.2,5102,1073725440,40581,2086,57088,65728,6,6,4,1460,137812,1,16778208,400000,74540,54764,65700,0,40544,0,421502363,63
o,1732626830.083384,172.16.5.2,31930,172.16.1.2,5102,1073725440,43477,2086,62848,65728,6,6,4,1460,138125,1,16778208,380000,74540,51868,65700,0,37648,0,421502363,63
i,1732626830.083516,172.16.5.2,31930,172.16.1.2,5102,1073725440,43477,2086,62848,65728,6,6,4,1460,138125,1,16778208,380000,74540,51868,65700,0,43440,0,421502363,63
o,1732626830.083532,172.16.5.2,31930,172.16.1.2,5102,1073725440,46373,2086,59968,65728,6,6,4,1460,138437,1,16778208,370000,74540,48972,65700,0,40544,0,421502363,63
i,1732626830.083686,172.16.5.2,31930,172.16.1.2,5102,1073725440,46373,2086,59968,65728,6,6,4,1460,138437,1,16778208,370000,74540,48972,65700,0,46336,0,421502363,63
o,1732626830.083702,172.16.5.2,31930,172.16.1.2,5102,1073725440,49269,2086,62848,65728,6,6,4,1460,136250,1,16778208,380000,74540,46076,65700,0,43440,0,421502363,63
o,1732626830.083827,172.16.5.2,31930,172.16.1.2,5102,1073725440,49269,2086,62848,65728,6,6,4,1460,136250,1,16778208,380000,82732,74540,65700,0,46076,0,421502363,63
i,1732626830.084376,172.16.5.2,31930,172.16.1.2,5102,1073725440,49269,2086,62848,65728,6,6,4,1460,136250,1,16778208,380000,82732,82732,65700,0,48972,0,421502363,63
o,1732626830.084398,172.16.5.2,31930,172.16.1.2,5102,1073725440,52165,2086,64256,65728,6,6,4,1460,134375,1,16778208,380000,82732,79836,65700,0,46076,0,421502363,63
i,1732626830.112710,172.16.5.2,31930,172.16.1.2,5102,1073725440,52165,2086,64256,65728,6,6,4,1460,134375,1,16778208,380000,82732,82732,65700,0,51868,0,421502363,63
o,1732626830.112744,172.16.5.2,31930,172.16.1.2,5102,1073725440,55061,2086,62848,65728,6,6,4,1460,130312,1,16778208,400000,82732,79836,65700,0,48972,0,421502363,63
o,1732626830.112901,172.16.5.2,31930,172.16.1.2,5102,1073725440,55061,2086,62848,65728,6,6,4,1460,130312,1,16778208,400000,82732,79836,65700,0,50420,0,421502363,63
i,1732626830.113043,172.16.5.2,31930,172.16.1.2,5102,1073725440,55061,2086,62848,65728,6,6,4,1460,130312,1,16778208,400000,82732,79836,65700,0,54764,0,421502363,63
o,1732626830.113074,172.16.5.2,31930,172.16.1.2,5102,1073725440,57957,2086,62848,65728,6,6,4,1460,126562,1,16778208,410000,82732,76940,65700,0,51868,0,421502363,63
i,1732626830.304533,172.16.5.2,31930,172.16.1.2,5102,1073725440,57957,2086,62848,65728,6,6,4,1460,126562,1,16778208,410000,82732,82732,65700,0,57660,0,421502363,63
o,1732626830.304590,172.16.5.2,31930,172.16.1.2,5102,1073725440,60853,2086,95680,65728,6,6,4,1460,138437,1,16778208,490000,90924,79836,65700,0,54764,0,421502363,63
i,1732626830.304797,172.16.5.2,31930,172.16.1.2,5102,1073725440,60853,2086,95680,65728,6,6,4,1460,138437,1,16778208,490000,99116,79836,65700,0,60556,0,421502363,63
o,1732626830.304829,172.16.5.2,31930,172.16.1.2,5102,1073725440,63749,2086,92800,65728,6,6,4,1460,148750,1,16778208,550000,99116,76940,65700,0,57660,0,421502363,63
i,1732626830.305055,172.16.5.2,31930,172.16.1.2,5102,1073725440,63749,2086,92800,65728,6,6,4,1460,148750,1,16778208,550000,99116,76940,65700,0,63452,0,421502363,63
o,1732626830.305085,172.16.5.2,31930,172.16.1.2,5102,1073725440,66645,2086,97152,65728,6,6,4,1460,157812,1,16778208,580000,99116,74044,65700,0,60556,0,421502363,63
i,1732626830.305258,172.16.5.2,31930,172.16.1.2,5102,1073725440,66645,2086,97152,65728,6,6,4,1460,157812,1,16778208,580000,99116,74044,65700,0,66348,0,421502363,63
o,1732626830.305283,172.16.5.2,31930,172.16.1.2,5102,1073725440,69541,2086,97152,65728,6,6,4,1460,165625,1,16778208,590000,99116,71148,65700,0,63452,0,421502363,63
i,1732626830.305431,172.16.5.2,31930,172.16.1.2,5102,1073725440,69541,2086,97152,65728,6,6,4,1460,165625,1,16778208,590000,99116,71148,65700,0,69244,0,421502363,63
o,1732626830.305454,172.16.5.2,31930,172.16.1.2,5102,1073725440,72437,2086,97152,65728,6,6,4,1460,172500,1,16778208,600000,99116,68252,65700,0,66348,0,421502363,63
i,1732626830.305631,172.16.5.2,31930,172.16.1.2,5102,1073725440,72437,2086,97152,65728,6,6,4,1460,172500,1,16778208,600000,99116,68252,65700,0,68252,0,421502363,63
i,1732626830.305669,172.16.5.2,31930,172.16.1.2,5102,1073725440,75333,2086,97152,65728,6,6,4,1460,178437,1,16778208,590000,99116,65356,65700,0,65356,0,421502363,63
o,1732626830.305751,172.16.5.2,31930,172.16.1.2,5102,1073725440,78229,2086,94272,65728,6,6,4,1460,183750,1,16778208,590000,99116,67360,65700,0,62460,0,421502363,63
o,1732626830.305983,172.16.5.2,31930,172.16.1.2,5102,1073725440,78229,2086,94272,65728,6,6,4,1460,183750,1,16778208,590000,107308,99116,65700,0,67360,0,421502363,63
i,1732626830.306784,172.16.5.2,31930,172.16.1.2,5102,1073725440,78229,2086,94272,65728,6,6,4,1460,183750,1,16778208,590000,123692,123692,65700,0,77496,0,421502363,63
o,1732626830.306804,172.16.5.2,31930,172.16.1.2,5102,1073725440,81125,2086,91392,65728,6,6,4,1460,188437,1,16778208,580000,123692,120796,65700,0,74600,0,421502363,63
i,1732626830.306981,172.16.5.2,31930,172.16.1.2,5102,1073725440,81125,2086,91392,65728,6,6,4,1460,188437,1,16778208,580000,123692,120796,65700,0,80392,0,421502363,63
o,1732626830.306997,172.16.5.2,31930,172.16.1.2,5102,1073725440,84021,2086,95680,65728,6,6,4,1460,192500,1,16778208,570000,123692,117900,65700,0,77496,0,421502363,63
i,1732626830.307169,172.16.5.2,31930,172.16.1.2,5102,1073725440,84021,2086,95680,65728,6,6,4,1460,192500,1,16778208,570000,123692,117900,65700,0,83288,0,421502363,63
o,1732626830.307184,172.16.5.2,31930,172.16.1.2,5102,1073725440,86917,2086,92800,65728,6,6,4,1460,195937,1,16778208,550000,123692,115004,65700,0,80392,0,421502363,63
i,1732626830.307357,172.16.5.2,31930,172.16.1.2,5102,1073725440,86917,2086,92800,65728,6,6,4,1460,195937,1,16778208,550000,123692,115004,65700,0,86184,0,421502363,63
o,1732626830.307374,172.16.5.2,31930,172.16.1.2,5102,1073725440,89813,2086,89920,65728,6,6,4,1460,199062,1,16778208,540000,123692,112108,65700,0,83288,0,421502363,63
i,1732626830.326350,172.16.5.2,31930,172.16.1.2,5102,1073725440,89813,2086,89920,65728,6,6,4,1460,199062,1,16778208,540000,123692,123692,65700,0,89080,0,421502363,63
o,1732626830.326392,172.16.5.2,31930,172.16.1.2,5102,1073725440,92709,2086,97152,65728,6,6,4,1460,204375,1,16778208,550000,123692,120796,65700,0,86184,0,421502363,63
i,1732626830.326604,172.16.5.2,31930,172.16.1.2,5102,1073725440,92709,2086,97152,65728,6,6,4,1460,204375,1,16778208,550000,123692,120796,65700,0,91976,0,421502363,63
o,1732626830.326627,172.16.5.2,31930,172.16.1.2,5102,1073725440,95345,2086,95936,65728,6,6,4,1460,209062,1,16778208,560000,123692,118160,65700,0,89340,0,421502363,63
i,1732626830.326780,172.16.5.2,31930,172.16.1.2,5102,1073725440,95345,2086,95936,65728,6,6,4,1460,209062,1,16778208,560000,123692,118160,65700,0,95132,0,421502363,63
i,1732626830.326813,172.16.5.2,31930,172.16.1.2,5102,1073725440,98241,2086,93056,65728,6,6,4,1460,213125,1,16778208,560000,123692,115264,65700,0,92236,0,421502363,63
o,1732626830.326831,172.16.5.2,31930,172.16.1.2,5102,1073725440,98241,2086,95680,65728,6,6,4,1460,216562,1,16778208,550000,123692,112368,65700,0,89340,0,421502363,63
i,1732626830.327002,172.16.5.2,31930,172.16.1.2,5102,1073725440,98241,2086,95680,65728,6,6,4,1460,216562,1,16778208,550000,123692,112368,65700,0,95132,0,421502363,63
i,1732626830.327041,172.16.5.2,31930,172.16.1.2,5102,1073725440,98241,2086,92800,65728,6,6,4,1460,219687,1,16778208,540000,123692,109472,65700,0,92236,0,421502363,63
i,1732626830.327078,172.16.5.2,31930,172.16.1.2,5102,1073725440,98241,2086,89920,65728,6,6,4,1460,218750,1,992,520000,123692,106576,65700,0,89340,0,421502363,63
i,1732626830.327123,172.16.5.2,31930,172.16.1.2,5102,1073725440,98241,2086,87040,65728,6,6,4,1460,217812,1,992,500000,123692,103680,65700,0,86444,0,421502363,63
o,1732626830.327139,172.16.5.2,31930,172.16.1.2,5102,1073725440,98241,2086,97152,65728,6,6,4,1460,216875,1,16778208,490000,123692,100784,65700,0,83548,0,421502363,63
o,1732626830.327302,172.16.5.2,31930,172.16.1.2,5102,1073725440,98241,2086,97152,65728,6,6,4,1460,216875,1,16778208,490000,123692,100784,65700,0,84996,0,421502363,63
i,1732626830.327461,172.16.5.2,31930,172.16.1.2,5102,1073725440,98241,2086,97152,65728,6,6,4,1460,216875,1,16778208,490000,123692,100784,65700,0,96580,0,421502363,63
i,1732626830.668518,172.16.5.2,31930,172.16.1.2,5102,1073725440,98241,2086,94272,65728,6,6,4,1460,216250,1,16778208,470000,123692,123692,65700,0,93684,0,421502363,63
o,1732626830.668582,172.16.5.2,31930,172.16.1.2,5102,1073725440,98241,2086,147840,65728,6,6,4,1460,233125,1,16778208,610000,131884,122244,65700,0,92236,0,421502363,63
i,1732626830.668839,172.16.5.2,31930,172.16.1.2,5102,1073725440,98241,2086,147840,65728,6,6,4,1460,233125,1,16778208,610000,140076,122244,65700,0,98028,0,421502363,63
o,1732626830.668871,172.16.5.2,31930,172.16.1.2,5102,1073725440,101137,2086,146432,65728,6,6,4,1460,247812,1,16778208,700000,140076,119348,65700,0,95132,0,421502363,63
i,1732626830.669152,172.16.5.2,31930,172.16.1.2,5102,1073725440,101137,2086,146432,65728,6,6,4,1460,247812,1,16778208,700000,140076,119348,65700,0,100924,0,421502363,63
o,1732626830.669184,172.16.5.2,31930,172.16.1.2,5102,1073725440,104033,2086,144960,65728,6,6,4,1460,260625,1,16778208,750000,140076,116452,65700,0,98028,0,421502363,63
i,1732626830.669402,172.16.5.2,31930,172.16.1.2,5102,1073725440,104033,2086,144960,65728,6,6,4,1460,260625,1,16778208,750000,140076,116452,65700,0,103820,0,421502363,63
o,1732626830.669431,172.16.5.2,31930,172.16.1.2,5102,1073725440,106929,2086,142080,65728,6,6,4,1460,271875,1,16778208,780000,140076,113556,65700,0,100924,0,421502363,63
i,1732626830.669711,172.16.5.2,31930,172.16.1.2,5102,1073725440,106929,2086,142080,65728,6,6,4,1460,271875,1,16778208,780000,140076,113556,65700,0,106716,0,421502363,63
o,1732626830.669737,172.16.5.2,31930,172.16.1.2,5102,1073725440,109825,2086,144960,65728,6,6,4,1460,281875,1,16778208,790000,140076,110660,65700,0,103820,0,421502363,63
i,1732626830.669949,172.16.5.2,31930,172.16.1.2,5102,1073725440,109825,2086,144960,65728,6,6,4,1460,281875,1,16778208,790000,140076,110660,65700,0,109612,0,421502363,63
i,1732626830.670029,172.16.5.2,31930,172.16.1.2,5102,1073725440,112721,2086,142080,65728,6,6,4,1460,290625,1,16778208,790000,140076,107764,65700,0,106716,0,421502363,63
o,1732626830.670125,172.16.5.2,31930,172.16.1.2,5102,1073725440,115617,2086,139200,65728,6,6,4,1460,298125,1,16778208,790000,148268,140076,65700,0,103820,0,421502363,63
i,1732626830.671514,172.16.5.2,31930,172.16.1.2,5102,1073725440,115617,2086,139200,65728,6,6,4,1460,298125,1,16778208,790000,181036,181036,65700,0,115404,0,421502363,63
o,1732626830.671588,172.16.5.2,31930,172.16.1.2,5102,1073725440,118513,2086,146432,65728,6,6,4,1460,304687,1,16778208,770000,189228,178140,65700,0,112508,0,421502363,63
i,1732626830.671791,172.16.5.2,31930,172.16.1.2,5102,1073725440,118513,2086,146432,65728,6,6,4,1460,304687,1,16778208,770000,189228,178140,65700,0,118300,0,421502363,63
o,1732626830.671812,172.16.5.2,31930,172.16.1.2,5102,1073725440,121409,2086,143552,65728,6,6,4,1460,310625,1,16778208,760000,189228,175244,65700,0,115404,0,421502363,63
i,1732626830.672025,172.16.5.2,31930,172.16.1.2,5102,1073725440,121409,2086,143552,65728,6,6,4,1460,310625,1,16778208,760000,189228,175244,65700,0,121196,0,421502363,63
o,1732626830.672045,172.16.5.2,31930,172.16.1.2,5102,1073725440,123313,2086,141696,65728,6,6,4,1460,315625,1,16778208,740000,189228,173340,65700,0,119292,0,421502363,63
i,1732626830.672632,172.16.5.2,31930,172.16.1.2,5102,1073725440,123313,2086,141696,65728,6,6,4,1460,315625,1,16778208,740000,189228,173340,65700,0,122188,0,421502363,63
o,1732626830.672651,172.16.5.2,31930,172.16.1.2,5102,1073725440,126209,2086,138816,65728,6,6,4,1460,321250,1,16778208,730000,189228,170444,65700,0,119292,0,421502363,63
i,1732626830.672859,172.16.5.2,31930,172.16.1.2,5102,1073725440,126209,2086,138816,65728,6,6,4,1460,321250,1,16778208,730000,189228,170444,65700,0,125084,0,421502363,63
o,1732626830.672879,172.16.5.2,31930,172.16.1.2,5102,1073725440,128213,2086,136832,65728,6,6,4,1460,326250,1,16778208,730000,189228,168440,65700,0,123080,0,421502363,63
i,1732626830.673849,172.16.5.2,31930,172.16.1.2,5102,1073725440,128213,2086,136832,65728,6,6,4,1460,326250,1,16778208,730000,189228,189228,65700,0,127424,0,421502363,63
o,1732626830.673871,172.16.5.2,31930,172.16.1.2,5102,1073725440,131109,2086,144960,65728,6,6,4,1460,330625,1,16778208,720000,189228,186332,65700,0,124528,0,421502363,63
i,1732626830.674029,172.16.5.2,31930,172.16.1.2,5102,1073725440,131109,2086,144960,65728,6,6,4,1460,330625,1,16778208,720000,189228,186332,65700,0,130320,0,421502363,63
o,1732626830.674045,172.16.5.2,31930,172.16.1.2,5102,1073725440,134005,2086,146432,65728,6,6,4,1460,334375,1,16778208,700000,189228,183436,65700,0,127424,0,421502363,63
i,1732626830.674219,172.16.5.2,31930,172.16.1.2,5102,1073725440,134005,2086,146432,65728,6,6,4,1460,334375,1,16778208,700000,189228,183436,65700,0,133216,0,421502363,63
o,1732626830.674256,172.16.5.2,31930,172.16.1.2,5102,1073725440,136901,2086,146432,65728,6,6,4,1460,337812,1,16778208,690000,189228,180540,65700,0,130320,0,421502363,63
i,1732626830.674436,172.16.5.2,31930,172.16.1.2,5102,1073725440,136901,2086,146432,65728,6,6,4,1460,337812,1,16778208,690000,189228,180540,65700,0,136112,0,421502363,63
o,1732626830.674442,172.16.5.2,31930,172.16.1.2,5102,1073725440,139797,2086,143552,65728,6,6,4,1460,340625,1,16778208,680000,189228,177644,65700,0,133216,0,421502363,63
i,1732626830.674442,172.16.5.2,31930,172.16.1.2,5102,1073725440,139797,2086,143552,65728,6,6,4,1460,340625,1,16778208,680000,189228,177644,65700,0,139008,0,421502363,63
o,1732626830.674442,172.16.5.2,31930,172.16.1.2,5102,1073725440,142693,2086,144960,65728,6,6,4,1460,343125,1,16778208,670000,189228,174748,65700,0,136112,0,421502363,63
i,1732626830.674442,172.16.5.2,31930,172.16.1.2,5102,1073725440,142693,2086,144960,65728,6,6,4,1460,343125,1,16778208,670000,189228,174748,65700,0,141904,0,421502363,63
o,1732626830.674442,172.16.5.2,31930,172.16.1.2,5102,1073725440,145589,2086,144960,65728,6,6,4,1460,345312,1,16778208,660000,189228,171852,65700,0,139008,0,421502363,63
i,1732626830.674442,172.16.5.2,31930,172.16.1.2,5102,1073725440,145589,2086,144960,65728,6,6,4,1460,345312,1,16778208,660000,189228,171852,65700,0,144800,0,421502363,63
i,1732626830.675869,172.16.5.2,31930,172.16.1.2,5102,1073725440,145589,2086,142080,65728,6,6,4,1460,347187,1,16778208,640000,189228,189228,65700,0,141904,0,421502363,63
o,1732626830.675888,172.16.5.2,31930,172.16.1.2,5102,1073725440,145589,2086,144960,65728,6,6,4,1460,349062,1,16778208,640000,189228,186332,65700,0,139008,0,421502363,63
i,1732626830.676052,172.16.5.2,31930,172.16.1.2,5102,1073725440,145589,2086,144960,65728,6,6,4,1460,349062,1,16778208,640000,189228,186332,65700,0,144800,0,421502363,63
i,1732626830.676080,172.16.5.2,31930,172.16.1.2,5102,1073725440,145589,2086,142080,65728,6,6,4,1460,350625,1,16778208,630000,189228,183436,65700,0,141904,0,421502363,63
i,1732626830.676816,172.16.5.2,31930,172.16.1.2,5102,1073725440,145589,2086,139200,65728,6,6,4,1460,351875,1,16778208,620000,189228,189228,65700,0,139008,0,421502363,63
o,1732626830.676836,172.16.5.2,31930,172.16.1.2,5102,1073725440,145589,2086,144960,65728,6,6,4,1460,353125,1,16778208,610000,189228,186332,65700,0,136112,0,421502363,63
i,1732626830.676992,172.16.5.2,31930,172.16.1.2,5102,1073725440,145589,2086,144960,65728,6,6,4,1460,353125,1,16778208,610000,189228,186332,65700,0,144800,0,421502363,63
i,1732626830.689207,172.16.5.2,31930,172.16.1.2,5102,1073725440,145589,2086,142080,65728,6,6,4,1460,351562,1,16778208,610000,189228,189228,65700,0,141904,0,421502363,63
o,1732626830.689283,172.16.5.2,31930,172.16.1.2,5102,1073725440,145589,2086,144960,65728,6,6,4,1460,351562,1,16778208,590000,189228,186332,65700,0,139008,0,421502363,63
i,1732626830.700897,172.16.5.2,31930,172.16.1.2,5102,1073725440,145589,2086,144960,65728,6,6,4,1460,351562,1,16778208,590000,189228,189228,65700,0,144800,0,421502363,63
o,1732626830.700919,172.16.5.2,31930,172.16.1.2,5102,1073725440,145589,2086,146432,65728,6,6,4,1460,352812,1,16778208,600000,189228,186332,65700,0,141904,0,421502363,63
i,1732626830.701156,172.16.5.2,31930,172.16.1.2,5102,1073725440,145589,2086,146432,65728,6,6,4,1460,352812,1,16778208,600000,189228,186332,65700,0,144800,0,421502363,63
o,1732626830.701174,172.16.5.2,31930,172.16.1.2,5102,1073725440,148485,2086,146432,65728,6,6,4,1460,353750,1,16778208,590000,189228,183436,65700,0,141904,0,421502363,63
i,1732626830.702673,172.16.5.2,31930,172.16.1.2,5102,1073725440,148485,2086,146432,65728,6,6,4,1460,353750,1,16778208,590000,189228,189228,65700,0,146248,0,421502363,63
i,1732626830.716282,172.16.5.2,31930,172.16.1.2,5102,1073725440,148485,2086,143552,65728,6,6,4,1460,355937,1,16778208,600000,189228,189228,65700,0,143352,0,421502363,63
o,1732626830.716305,172.16.5.2,31930,172.16.1.2,5102,1073725440,148485,2086,146432,65728,6,6,4,1460,360312,1,16778208,630000,189228,186332,65700,0,140456,0,421502363,63
i,1732626830.716495,172.16.5.2,31930,172.16.1.2,5102,1073725440,148485,2086,146432,65728,6,6,4,1460,360312,1,16778208,630000,189228,186332,65700,0,146248,0,421502363,63
o,1732626830.716514,172.16.5.2,31930,172.16.1.2,5102,1073725440,148485,2086,146432,65728,6,6,4,1460,364062,1,16778208,650000,189228,183436,65700,0,143352,0,421502363,63
o,1732626830.716638,172.16.5.2,31930,172.16.1.2,5102,1073725440,148485,2086,146432,65728,6,6,4,1460,364062,1,16778208,650000,189228,183436,65700,0,144800,0,421502363,63
i,1732626830.716850,172.16.5.2,31930,172.16.1.2,5102,1073725440,148485,2086,146432,65728,6,6,4,1460,364062,1,16778208,650000,189228,183436,65700,0,146248,0,421502363,63
o,1732626830.716877,172.16.5.2,31930,172.16.1.2,5102,1073725440,148485,2086,221760,65728,6,6,4,1460,367500,1,16778208,660000,197420,181988,65700,0,144800,0,421502363,63
i,1732626830.717040,172.16.5.2,31930,172.16.1.2,5102,1073725440,148485,2086,221760,65728,6,6,4,1460,367500,1,16778208,660000,205612,181988,65700,0,147696,0,421502363,63
o,1732626830.717058,172.16.5.2,31930,172.16.1.2,5102,1073725440,151381,2086,218880,65728,6,6,4,1460,370312,1,16778208,660000,205612,179092,65700,0,144800,0,421502363,63
i,1732626830.717302,172.16.5.2,31930,172.16.1.2,5102,1073725440,151381,2086,218880,65728,6,6,4,1460,370312,1,16778208,660000,205612,179092,65700,0,150592,0,421502363,63
o,1732626830.717321,172.16.5.2,31930,172.16.1.2,5102,1073725440,154277,2086,216000,65728,6,6,4,1460,372812,1,16778208,660000,205612,176196,65700,0,147696,0,421502363,63
i,1732626830.717502,172.16.5.2,31930,172.16.1.2,5102,1073725440,154277,2086,216000,65728,6,6,4,1460,372812,1,16778208,660000,205612,176196,65700,0,153488,0,421502363,63
o,1732626830.717524,172.16.5.2,31930,172.16.1.2,5102,1073725440,157173,2086,218880,65728,6,6,4,1460,375000,1,16778208,660000,205612,173300,65700,0,150592,0,421502363,63
i,1732626831.211942,172.16.5.2,31930,172.16.1.2,5102,1073725440,157173,2086,218880,65728,6,6,4,1460,375000,1,16778208,660000,279340,279340,65700,0,156384,0,421502363,63
o,1732626831.211988,172.16.5.2,31930,172.16.1.2,5102,1073725440,160069,2086,218880,65728,6,6,4,1460,395625,1,16778208,820000,279340,276444,65700,0,153488,0,421502363,63
i,1732626831.212152,172.16.5.2,31930,172.16.1.2,5102,1073725440,160069,2086,218880,65728,6,6,4,1460,395625,1,16778208,820000,279340,276444,65700,0,159280,0,421502363,63
o,1732626831.212174,172.16.5.2,31930,172.16.1.2,5102,1073725440,161517,2086,221760,65728,6,6,4,1460,413750,1,16778208,930000,279340,274996,65700,0,157832,0,421502363,63
i,1732626831.212650,172.16.5.2,31930,172.16.1.2,5102,1073725440,161517,2086,221760,65728,6,6,4,1460,413750,1,16778208,930000,279340,274996,65700,0,160728,0,421502363,63
o,1732626831.212671,172.16.5.2,31930,172.16.1.2,5102,1073725440,164413,2086,218880,65728,6,6,4,1460,429687,1,16778208,990000,279340,272100,65700,0,157832,0,421502363,63
i,1732626831.212845,172.16.5.2,31930,172.16.1.2,5102,1073725440,164413,2086,218880,65728,6,6,4,1460,429687,1,16778208,990000,279340,272100,65700,0,163624,0,421502363,63
o,1732626831.212861,172.16.5.2,31930,172.16.1.2,5102,1073725440,167309,2086,216000,65728,6,6,4,1460,443750,1,16778208,1030000,279340,269204,65700,0,160728,0,421502363,63
i,1732626831.212986,172.16.5.2,31930,172.16.1.2,5102,1073725440,167309,2086,216000,65728,6,6,4,1460,443750,1,16778208,1030000,279340,269204,65700,0,166520,0,421502363,63
o,1732626831.213006,172.16.5.2,31930,172.16.1.2,5102,1073725440,170205,2086,213120,65728,6,6,4,1460,455937,1,16778208,1040000,279340,266308,65700,0,163624,0,421502363,63
i,1732626831.213159,172.16.5.2,31930,172.16.1.2,5102,1073725440,170205,2086,213120,65728,6,6,4,1460,455937,1,16778208,1040000,279340,266308,65700,0,169416,0,421502363,63
o,1732626831.213179,172.16.5.2,31930,172.16.1.2,5102,1073725440,173101,2086,210240,65728,6,6,4,1460,466562,1,16778208,1040000,279340,263412,65700,0,166520,0,421502363,63
i,1732626831.213335,172.16.5.2,31930,172.16.1.2,5102,1073725440,173101,2086,210240,65728,6,6,4,1460,466562,1,16778208,1040000,279340,263412,65700,0,172312,0,421502363,63
o,1732626831.213355,172.16.5.2,31930,172.16.1.2,5102,1073725440,175997,2086,207360,65728,6,6,4,1460,475937,1,16778208,1030000,279340,260516,65700,0,169416,0,421502363,63
i,1732626831.213560,172.16.5.2,31930,172.16.1.2,5102,1073725440,175997,2086,207360,65728,6,6,4,1460,475937,1,16778208,1030000,279340,260516,65700,0,175208,0,421502363,63
o,1732626831.213581,172.16.5.2,31930,172.16.1.2,5102,1073725440,178893,2086,220352,65728,6,6,4,1460,484062,1,16778208,1010000,279340,257620,65700,0,172312,0,421502363,63
i,1732626831.214038,172.16.5.2,31930,172.16.1.2,5102,1073725440,178893,2086,220352,65728,6,6,4,1460,484062,1,16778208,1010000,279340,279340,65700,0,178104,0,421502363,63
o,1732626831.214059,172.16.5.2,31930,172.16.1.2,5102,1073725440,181789,2086,220352,65728,6,6,4,1460,491250,1,16778208,1000000,279340,276444,65700,0,175208,0,421502363,63
i,1732626831.214266,172.16.5.2,31930,172.16.1.2,5102,1073725440,181789,2086,220352,65728,6,6,4,1460,491250,1,16778208,1000000,279340,276444,65700,0,181000,0,421502363,63
o,1732626831.214282,172.16.5.2,31930,172.16.1.2,5102,1073725440,184685,2086,217472,65728,6,6,4,1460,497500,1,16778208,980000,279340,273548,65700,0,178104,0,421502363,63
i,1732626831.214475,172.16.5.2,31930,172.16.1.2,5102,1073725440,184685,2086,217472,65728,6,6,4,1460,497500,1,16778208,980000,279340,273548,65700,0,183896,0,421502363,63
o,1732626831.214495,172.16.5.2,31930,172.16.1.2,5102,1073725440,187581,2086,218880,65728,6,6,4,1460,502812,1,16778208,950000,279340,270652,65700,0,181000,0,421502363,63
i,1732626831.215193,172.16.5.2,31930,172.16.1.2,5102,1073725440,187581,2086,218880,65728,6,6,4,1460,502812,1,16778208,950000,279340,279340,65700,0,186792,0,421502363,63
o,1732626831.215210,172.16.5.2,31930,172.16.1.2,5102,1073725440,190477,2086,216000,65728,6,6,4,1460,507500,1,16778208,930000,279340,276444,65700,0,183896,0,421502363,63
i,1732626831.215369,172.16.5.2,31930,172.16.1.2,5102,1073725440,190477,2086,216000,65728,6,6,4,1460,507500,1,16778208,930000,279340,276444,65700,0,189688,0,421502363,63
o,1732626831.215386,172.16.5.2,31930,172.16.1.2,5102,1073725440,193373,2086,213120,65728,6,6,4,1460,511562,1,16778208,910000,279340,273548,65700,0,186792,0,421502363,63
i,1732626831.215737,172.16.5.2,31930,172.16.1.2,5102,1073725440,193373,2086,213120,65728,6,6,4,1460,511562,1,16778208,910000,279340,273548,65700,0,192584,0,421502363,63
o,1732626831.215757,172.16.5.2,31930,172.16.1.2,5102,1073725440,196269,2086,210240,65728,6,6,4,1460,515312,1,16778208,900000,279340,270652,65700,0,189688,0,421502363,63
i,1732626831.215959,172.16.5.2,31930,172.16.1.2,5102,1073725440,196269,2086,210240,65728,6,6,4,1460,515312,1,16778208,900000,279340,270652,65700,0,195480,0,421502363,63
o,1732626831.215979,172.16.5.2,31930,172.16.1.2,5102,1073725440,199165,2086,220352,65728,6,6,4,1460,518437,1,16778208,880000,279340,267756,65700,0,192584,0,421502363,63
i,1732626831.216220,172.16.5.2,31930,172.16.1.2,5102,1073725440,199165,2086,220352,65728,6,6,4,1460,518437,1,16778208,880000,279340,267756,65700,0,198376,0,421502363,63
o,1732626831.216240,172.16.5.2,31930,172.16.1.2,5102,1073725440,202061,2086,220352,65728,6,6,4,1460,521250,1,16778208,860000,279340,264860,65700,0,195480,0,421502363,63
i,1732626831.216409,172.16.5.2,31930,172.16.1.2,5102,1073725440,202061,2086,220352,65728,6,6,4,1460,521250,1,16778208,860000,279340,264860,65700,0,201272,0,421502363,63
o,1732626831.216429,172.16.5.2,31930,172.16.1.2,5102,1073725440,204957,2086,217472,65728,6,6,4,1460,523750,1,16778208,850000,279340,261964,65700,0,198376,0,421502363,63
i,1732626831.217300,172.16.5.2,31930,172.16.1.2,5102,1073725440,204957,2086,217472,65728,6,6,4,1460,523750,1,16778208,850000,279340,279340,65700,0,204168,0,421502363,63
o,1732626831.217327,172.16.5.2,31930,172.16.1.2,5102,1073725440,207853,2086,218880,65728,6,6,4,1460,525937,1,16778208,840000,279340,276444,65700,0,201272,0,421502363,63
i,1732626831.217476,172.16.5.2,31930,172.16.1.2,5102,1073725440,207853,2086,218880,65728,6,6,4,1460,525937,1,16778208,840000,279340,276444,65700,0,207064,0,421502363,63
o,1732626831.217493,172.16.5.2,31930,172.16.1.2,5102,1073725440,210749,2086,216000,65728,6,6,4,1460,527812,1,16778208,830000,279340,273548,65700,0,204168,0,421502363,63
i,1732626831.217659,172.16.5.2,31930,172.16.1.2,5102,1073725440,210749,2086,216000,65728,6,6,4,1460,527812,1,16778208,830000,279340,273548,65700,0,209960,0,421502363,63
o,1732626831.217679,172.16.5.2,31930,172.16.1.2,5102,1073725440,213669,2086,217472,65728,6,6,4,1460,529375,1,16778208,820000,279340,267756,65700,0,204168,0,421502363,63
i,1732626831.217900,172.16.5.2,31930,172.16.1.2,5102,1073725440,213669,2086,217472,65728,6,6,4,1460,529375,1,16778208,820000,279340,267756,65700,0,212856,0,421502363,63
o,1732626831.217920,172.16.5.2,31930,172.16.1.2,5102,1073725440,216565,2086,220352,65728,6,6,4,1460,530937,1,16778208,810000,279340,264860,65700,0,209960,0,421502363,63
i,1732626831.218177,172.16.5.2,31930,172.16.1.2,5102,1073725440,216565,2086,220352,65728,6,6,4,1460,530937,1,16778208,810000,279340,264860,65700,0,215752,0,421502363,63
o,1732626831.218194,172.16.5.2,31930,172.16.1.2,5102,1073725440,219461,2086,217472,65728,6,6,4,1460,532187,1,16778208,800000,279340,261964,65700,0,212856,0,421502363,63
i,1732626831.218398,172.16.5.2,31930,172.16.1.2,5102,1073725440,219461,2086,217472,65728,6,6,4,1460,532187,1,16778208,800000,279340,261964,65700,0,217200,0,421502363,63
o,1732626831.218419,172.16.5.2,31930,172.16.1.2,5102,1073725440,219461,2086,220352,65728,6,6,4,1460,533437,1,16778208,790000,279340,259068,65700,0,214304,0,421502363,63
i,1732626831.218693,172.16.5.2,31930,172.16.1.2,5102,1073725440,219461,2086,220352,65728,6,6,4,1460,533437,1,16778208,790000,279340,259068,65700,0,218648,0,421502363,63
o,1732626831.218712,172.16.5.2,31930,172.16.1.2,5102,1073725440,222357,2086,218176,65728,6,6,4,1460,534375,1,16778208,790000,279340,256172,65700,0,215752,0,421502363,63
i,1732626831.218909,172.16.5.2,31930,172.16.1.2,5102,1073725440,222357,2086,218176,65728,6,6,4,1460,534375,1,16778208,790000,279340,256172,65700,0,217200,0,421502363,63
o,1732626831.218930,172.16.5.2,31930,172.16.1.2,5102,1073725440,222357,2086,218880,65728,6,6,4,1460,535312,1,16778208,780000,279340,253276,65700,0,214304,0,421502363,63
i,1732626831.219844,172.16.5.2,31930,172.16.1.2,5102,1073725440,222357,2086,218880,65728,6,6,4,1460,535312,1,16778208,780000,279340,279340,65700,0,218648,0,421502363,63
i,1732626831.219876,172.16.5.2,31930,172.16.1.2,5102,1073725440,222357,2086,216000,65728,6,6,4,1460,535937,1,16778208,780000,279340,276444,65700,0,215752,0,421502363,63
o,1732626831.219892,172.16.5.2,31930,172.16.1.2,5102,1073725440,222357,2086,218880,65728,6,6,4,1460,536562,1,16778208,770000,279340,273548,65700,0,212856,0,421502363,63
i,1732626831.220059,172.16.5.2,31930,172.16.1.2,5102,1073725440,222357,2086,218880,65728,6,6,4,1460,536562,1,16778208,770000,279340,273548,65700,0,218648,0,421502363,63
i,1732626831.220121,172.16.5.2,31930,172.16.1.2,5102,1073725440,222357,2086,216000,65728,6,6,4,1460,537187,1,16778208,770000,279340,270652,65700,0,215752,0,421502363,63
o,1732626831.220139,172.16.5.2,31930,172.16.1.2,5102,1073725440,222357,2086,220352,65728,6,6,4,1460,537812,1,16778208,770000,279340,267756,65700,0,212856,0,421502363,63
i,1732626831.221976,172.16.5.2,31930,172.16.1.2,5102,1073725440,222357,2086,220352,65728,6,6,4,1460,537812,1,16778208,770000,279340,279340,65700,0,220096,0,421502363,63
i,1732626831.221976,172.16.5.2,31930,172.16.1.2,5102,1073725440,222357,2086,217472,65728,6,6,4,1460,538125,1,16778208,760000,279340,276444,65700,0,217200,0,421502363,63
o,1732626831.221976,172.16.5.2,31930,172.16.1.2,5102,1073725440,222357,2086,220352,65728,6,6,4,1460,538437,1,16778208,760000,279340,273548,65700,0,214304,0,421502363,63
i,1732626831.221976,172.16.5.2,31930,172.16.1.2,5102,1073725440,222357,2086,220352,65728,6,6,4,1460,538437,1,16778208,760000,279340,273548,65700,0,220096,0,421502363,63
i,1732626831.223834,172.16.5.2,31930,172.16.1.2,5102,1073725440,222357,2086,217472,65728,6,6,4,1460,538750,1,16778208,760000,279340,279340,65700,0,217200,0,421502363,63
o,1732626831.223857,172.16.5.2,31930,172.16.1.2,5102,1073725440,222357,2086,218880,65728,6,6,4,1460,540312,1,16778208,770000,279340,276444,65700,0,214304,0,421502363,63
i,1732626831.224033,172.16.5.2,31930,172.16.1.2,5102,1073725440,222357,2086,218880,65728,6,6,4,1460,540312,1,16778208,770000,279340,276444,65700,0,218648,0,421502363,63
i,1732626831.224090,172.16.5.2,31930,172.16.1.2,5102,1073725440,222357,2086,216000,65728,6,6,4,1460,541562,1,16778208,770000,279340,273548,65700,0,215752,0,421502363,63
o,1732626831.224110,172.16.5.2,31930,172.16.1.2,5102,1073725440,222357,2086,220352,65728,6,6,4,1460,542812,1,16778208,770000,279340,270652,65700,0,212856,0,421502363,63
i,1732626831.224321,172.16.5.2,31930,172.16.1.2,5102,1073725440,222357,2086,220352,65728,6,6,4,1460,542812,1,16778208,770000,279340,270652,65700,0,220096,0,421502363,63
i,1732626831.225033,172.16.5.2,31930,172.16.1.2,5102,1073725440,222357,2086,217472,65728,6,6,4,1460,543750,1,16778208,770000,279340,279340,65700,0,217200,0,421502363,63
o,1732626831.225074,172.16.5.2,31930,172.16.1.2,5102,1073725440,222357,2086,220352,65728,6,6,4,1460,544687,1,16778208,770000,279340,276444,65700,0,214304,0,421502363,63
i,1732626831.225249,172.16.5.2,31930,172.16.1.2,5102,1073725440,222357,2086,220352,65728,6,6,4,1460,544687,1,16778208,770000,279340,276444,65700,0,220096,0,421502363,63
o,1732626831.225269,172.16.5.2,31930,172.16.1.2,5102,1073725440,222357,2086,220352,65728,6,6,4,1460,545625,1,16778208,780000,279340,273548,65700,0,217200,0,421502363,63
i,1732626831.225434,172.16.5.2,31930,172.16.1.2,5102,1073725440,222357,2086,220352,65728,6,6,4,1460,545625,1,16778208,780000,279340,273548,65700,0,220096,0,421502363,63
o,1732626831.225453,172.16.5.2,31930,172.16.1.2,5102,1073725440,222357,2086,220352,65728,6,6,4,1460,546250,1,16778208,770000,279340,270652,65700,0,217200,0,421502363,63
i,1732626831.225639,172.16.5.2,31930,172.16.1.2,5102,1073725440,222357,2086,220352,65728,6,6,4,1460,546250,1,16778208,770000,279340,270652,65700,0,220096,0,421502363,63
i,1732626831.226232,172.16.5.2,31930,172.16.1.2,5102,1073725440,222357,2086,217472,65728,6,6,4,1460,545625,1,16778208,770000,279340,279340,65700,0,217200,0,421502363,63
i,1732626831.226276,172.16.5.2,31930,172.16.1.2,5102,1073725440,222357,2086,214592,65728,6,6,4,1460,545000,1,16778208,770000,279340,276444,65700,0,214304,0,421502363,63
i,1732626831.226346,172.16.5.2,31930,172.16.1.2,5102,1073725440,222357,2086,211712,65728,6,6,4,1460,543125,1,16778208,780000,279340,273548,65700,0,211408,0,421502363,63
o,1732626831.226364,172.16.5.2,31930,172.16.1.2,5102,1073725440,222357,2086,218880,65728,6,6,4,1460,541562,1,16778208,780000,279340,270652,65700,0,208512,0,421502363,63
i,1732626831.226648,172.16.5.2,31930,172.16.1.2,5102,1073725440,222357,2086,218880,65728,6,6,4,1460,541562,1,16778208,780000,279340,270652,65700,0,218648,0,421502363,63
i,1732626831.227209,172.16.5.2,31930,172.16.1.2,5102,1073725440,222357,2086,216000,65728,6,6,4,1460,540312,1,16778208,780000,279340,279340,65700,0,215752,0,421502363,63
i,1732626831.227266,172.16.5.2,31930,172.16.1.2,5102,1073725440,222357,2086,213120,65728,6,6,4,1460,535312,1,16778208,800000,279340,276444,65700,0,212856,0,421502363,63
i,1732626831.227976,172.16.5.2,31930,172.16.1.2,5102,1073725440,222357,2086,210240,65728,6,6,4,1460,530937,1,992,820000,279340,279340,65700,0,209960,0,421502363,63
i,1732626831.228054,172.16.5.2,31930,172.16.1.2,5102,1073725440,222357,2086,207360,65728,6,6,4,1460,527187,1,992,820000,279340,276444,65700,0,207064,0,421502363,63
o,1732626831.228070,172.16.5.2,31930,172.16.1.2,5102,1073725440,222357,2086,220352,65728,6,6,4,1460,524062,1,16778208,820000,279340,273548,65700,0,204168,0,421502363,63
o,1732626831.228214,172.16.5.2,31930,172.16.1.2,5102,1073725440,222357,2086,220352,65728,6,6,4,1460,524062,1,16778208,820000,279340,273548,65700,0,205616,0,421502363,63
i,1732626831.228384,172.16.5.2,31930,172.16.1.2,5102,1073725440,222357,2086,220352,65728,6,6,4,1460,524062,1,16778208,820000,279340,273548,65700,0,220096,0,421502363,63
o,1732626831.228400,172.16.5.2,31930,172.16.1.2,5102,1073725440,222357,2086,218880,65728,6,6,4,1460,521250,1,16778208,810000,279340,270652,65700,0,217200,0,421502363,63
i,1732626831.228602,172.16.5.2,31930,172.16.1.2,5102,1073725440,222357,2086,218880,65728,6,6,4,1460,521250,1,16778208,810000,279340,270652,65700,0,218648,0,421502363,63
o,1732626831.228617,172.16.5.2,31930,172.16.1.2,5102,1073725440,222357,2086,218880,65728,6,6,4,1460,518750,1,16778208,810000,279340,267756,65700,0,215752,0,421502363,63
i,1732626831.228735,172.16.5.2,31930,172.16.1.2,5102,1073725440,222357,2086,218880,65728,6,6,4,1460,518750,1,16778208,810000,279340,267756,65700,0,218648,0,421502363,63
i,1732626831.228780,172.16.5.2,31930,172.16.1.2,5102,1073725440,222357,2086,216000,65728,6,6,4,1460,516562,1,16778208,800000,279340,264860,65700,0,215752,0,421502363,63
o,1732626831.228795,172.16.5.2,31930,172.16.1.2,5102,1073725440,222357,2086,218880,65728,6,6,4,1460,514687,1,16778208,790000,279340,259068,65700,0,209960,0,421502363,63
i,1732626831.884301,172.16.5.2,31930,172.16.1.2,5102,1073725440,222357,2086,218880,65728,6,6,4,1460,514687,1,16778208,790000,279340,279340,65700,0,218648,0,421502363,63
o,1732626831.884684,172.16.5.2,31930,172.16.1.2,5102,1073725440,222357,2086,218880,65728,6,6,4,1460,534375,1,16778208,950000,279340,274996,65700,0,214304,0,421502363,63
i,1732626831.885705,172.16.5.2,31930,172.16.1.2,5102,1073725440,222357,2086,218880,65728,6,6,4,1460,534375,1,16778208,950000,279340,274996,65700,0,218648,0,421502363,63
o,1732626831.885823,172.16.5.2,31930,172.16.1.2,5102,1073725440,222357,2086,218880,65728,6,6,4,1460,551562,1,16778208,1050000,279340,272100,65700,0,215752,0,421502363,63
i,1732626831.886347,172.16.5.2,31930,172.16.1.2,5102,1073725440,222357,2086,218880,65728,6,6,4,1460,551562,1,16778208,1050000,279340,272100,65700,0,218648,0,421502363,63
o,1732626831.886411,172.16.5.2,31930,172.16.1.2,5102,1073725440,222357,2086,218880,65728,6,6,4,1460,566562,1,16778208,1110000,279340,269204,65700,0,215752,0,421502363,63
i,1732626831.886670,172.16.5.2,31930,172.16.1.2,5102,1073725440,222357,2086,218880,65728,6,6,4,1460,566562,1,16778208,1110000,279340,269204,65700,0,218648,0,421502363,63
i,1732626831.887506,172.16.5.2,31930,172.16.1.2,5102,1073725440,222357,2086,216000,65728,6,6,4,1460,579687,1,16778208,1140000,279340,279340,65700,0,215752,0,421502363,63
i,1732626831.887586,172.16.5.2,31930,172.16.1.2,5102,1073725440,222357,2086,213120,65728,6,6,4,1460,591250,1,16778208,1160000,279340,276444,65700,0,212856,0,421502363,63
o,1732626831.887614,172.16.5.2,31930,172.16.1.2,5102,1073725440,222357,2086,218880,65728,6,6,4,1460,601250,1,16778208,1150000,279340,273548,65700,0,209960,0,421502363,63
i,1732626831.887902,172.16.5.2,31930,172.16.1.2,5102,1073725440,222357,2086,218880,65728,6,6,4,1460,601250,1,16778208,1150000,279340,273548,65700,0,218648,0,421502363,63
i,1732626831.887972,172.16.5.2,31930,172.16.1.2,5102,1073725440,222357,2086,216000,65728,6,6,4,1460,610000,1,16778208,1150000,279340,270652,65700,0,215752,0,421502363,63
o,1732626831.887993,172.16.5.2,31930,172.16.1.2,5102,1073725440,222357,2086,218880,65728,6,6,4,1460,617500,1,16778208,1130000,279340,267756,65700,0,212856,0,421502363,63
i,1732626831.888250,172.16.5.2,31930,172.16.1.2,5102,1073725440,222357,2086,218880,65728,6,6,4,1460,617500,1,16778208,1130000,279340,267756,65700,0,218648,0,421502363,63
o,1732626831.888270,172.16.5.2,31930,172.16.1.2,5102,1073725440,222357,2086,218880,65728,6,6,4,1460,624062,1,16778208,1110000,279340,264860,65700,0,215752,0,421502363,63
i,1732626831.889826,172.16.5.2,31930,172.16.1.2,5102,1073725440,222357,2086,218880,65728,6,6,4,1460,624062,1,16778208,1110000,279340,278128,65700,0,218648,0,421502363,63
i,1732626831.889861,172.16.5.2,31930,172.16.1.2,5102,1073725440,222357,2086,216000,65728,6,6,4,1460,630000,1,16778208,1090000,279340,275232,65700,0,215752,0,421502363,63
o,1732626831.889892,172.16.5.2,31930,172.16.1.2,5102,1073725440,222357,2086,218880,65728,6,6,4,1460,635000,1,16778208,1070000,279340,272336,65700,0,212856,0,421502363,63
i,1732626831.890058,172.16.5.2,31930,172.16.1.2,5102,1073725440,222357,2086,218880,65728,6,6,4,1460,635000,1,16778208,1070000,279340,272336,65700,0,218648,0,421502363,63
i,1732626831.890113,172.16.5.2,31930,172.16.1.2,5102,1073725440,222357,2086,216000,65728,6,6,4,1460,639375,1,16778208,1050000,279340,269440,65700,0,215752,0,421502363,63
i,1732626831.890150,172.16.5.2,31930,172.16.1.2,5102,1073725440,222357,2086,213120,65728,6,6,4,1460,643437,1,16778208,1030000,279340,266544,65700,0,212856,0,421502363,63
o,1732626831.890166,172.16.5.2,31930,172.16.1.2,5102,1073725440,222357,2086,218880,65728,6,6,4,1460,646875,1,16778208,1020000,279340,263648,65700,0,209960,0,421502363,63
i,1732626831.891869,172.16.5.2,31930,172.16.1.2,5102,1073725440,222357,2086,218880,65728,6,6,4,1460,646875,1,16778208,1020000,279340,279340,65700,0,218648,0,421502363,63
i,1732626831.901828,172.16.5.2,31930,172.16.1.2,5102,1073725440,222357,2086,216000,65728,6,6,4,1460,650000,1,16778208,1000000,279340,279340,65700,0,215752,0,421502363,63
o,1732626831.901854,172.16.5.2,31930,172.16.1.2,5102,1073725440,222357,2086,218880,65728,6,6,4,1460,653750,1,16778208,1000000,279340,276444,65700,0,212856,0,421502363,63
i,1732626831.902084,172.16.5.2,31930,172.16.1.2,5102,1073725440,222357,2086,218880,65728,6,6,4,1460,653750,1,16778208,1000000,279340,276444,65700,0,218648,0,421502363,63
i,1732626831.902146,172.16.5.2,31930,172.16.1.2,5102,1073725440,222357,2086,216000,65728,6,6,4,1460,657187,1,16778208,990000,279340,273548,65700,0,215752,0,421502363,63
i,1732626831.902210,172.16.5.2,31930,172.16.1.2,5102,1073725440,222357,2086,213120,65728,6,6,4,1460,660312,1,16778208,990000,279340,270652,65700,0,212856,0,421502363,63
o,1732626831.902227,172.16.5.2,31930,172.16.1.2,5102,1073725440,222357,2086,220352,65728,6,6,4,1460,662812,1,16778208,980000,279340,267756,65700,0,209960,0,421502363,63
i,1732626831.902401,172.16.5.2,31930,172.16.1.2,5102,1073725440,222357,2086,220352,65728,6,6,4,1460,662812,1,16778208,980000,279340,267756,65700,0,220096,0,421502363,63
i,1732626831.902638,172.16.5.2,31930,172.16.1.2,5102,1073725440,222357,2086,217472,65728,6,6,4,1460,666250,1,16778208,980000,279340,264860,65700,0,217200,0,421502363,63
o,1732626831.902653,172.16.5.2,31930,172.16.1.2,5102,1073725440,222357,2086,218880,65728,6,6,4,1460,669375,1,16778208,980000,279340,261964,65700,0,214304,0,421502363,63
i,1732626831.902809,172.16.5.2,31930,172.16.1.2,5102,1073725440,222357,2086,218880,65728,6,6,4,1460,669375,1,16778208,980000,279340,261964,65700,0,218648,0,421502363,63
o,1732626831.902825,172.16.5.2,31930,172.16.1.2,5102,1073725440,222357,2086,220352,65728,6,6,4,1460,672187,1,16778208,980000,279340,259068,65700,0,215752,0,421502363,63
i,1732626831.902968,172.16.5.2,31930,172.16.1.2,5102,1073725440,222357,2086,220352,65728,6,6,4,1460,672187,1,16778208,980000,279340,259068,65700,0,220096,0,421502363,63
i,1732626831.903990,172.16.5.2,31930,172.16.1.2,5102,1073725440,222357,2086,217472,65728,6,6,4,1460,674687,1,16778208,970000,279340,279340,65700,0,217200,0,421502363,63
o,1732626831.904027,172.16.5.2,31930,172.16.1.2,5102,1073725440,222357,2086,218880,65728,6,6,4,1460,676875,1,16778208,970000,279340,276444,65700,0,214304,0,421502363,63
i,1732626831.904264,172.16.5.2,31930,172.16.1.2,5102,1073725440,222357,2086,218880,65728,6,6,4,1460,676875,1,16778208,970000,279340,276444,65700,0,218648,0,421502363,63
o,1732626831.904283,172.16.5.2,31930,172.16.1.2,5102,1073725440,222357,2086,220352,65728,6,6,4,1460,678750,1,16778208,960000,279340,270652,65700,0,212856,0,421502363,63
i,1732626831.904431,172.16.5.2,31930,172.16.1.2,5102,1073725440,222357,2086,220352,65728,6,6,4,1460,678750,1,16778208,960000,279340,270652,65700,0,220096,0,421502363,63
i,1732626831.904692,172.16.5.2,31930,172.16.1.2,5102,1073725440,222357,2086,217472,65728,6,6,4,1460,680312,1,16778208,960000,279340,279340,65700,0,217200,0,421502363,63
o,1732626831.904708,172.16.5.2,31930,172.16.1.2,5102,1073725440,222357,2086,220352,65728,6,6,4,1460,681562,1,16778208,950000,279340,276444,65700,0,214304,0,421502363,63
