enable_time_secs=1720562152	enable_time_usecs=276066	siftrver=1.2.4	hz=100	tcp_rtt_scale=32	sysname=FreeBSD	sysver=1301000	ipmode=4
o,0x00000000,1720562152.276121,10.0.2.15,22,10.0.2.2,56294,1073725440,17770,0,65535,65700,0,0,4,1460,1,0,4,24,33580,44,65700,0,0,0,0,0
o,0x00000000,1720562152.276284,10.0.2.15,22,10.0.2.2,56294,1073725440,17770,0,65535,65700,0,0,4,1460,1,0,4,24,33580,80,65700,0,44,0,0,0
i,0x00000000,1720562152.277126,10.0.2.15,22,10.0.2.2,56294,1073725440,17770,0,65535,65700,0,0,4,1460,1,0,4,24,33580,80,65700,0,80,0,0,0
i,0x00000000,1720562152.277507,10.0.2.15,22,10.0.2.2,56294,1073725440,17814,0,65535,65700,0,0,4,1460,1,0,4,23,33580,36,65700,0,36,0,0,0
o,0x00000000,1720562152.277691,10.0.2.15,22,10.0.2.2,56294,1073725440,17850,0,65535,65700,0,0,4,1460,1,0,4,23,33580,36,65700,0,0,0,0,0
i,0x00000000,1720562152.278347,10.0.2.15,22,10.0.2.2,56294,1073725440,17850,0,65535,65700,0,0,4,1460,1,0,4,23,33580,36,65700,0,36,0,0,0
o,0x00000000,1720562152.278587,10.0.2.15,22,10.0.2.2,56294,1073725440,17886,0,65535,65700,0,0,4,1460,1,0,4,23,33580,104,65700,0,0,0,0,0
i,0x00000000,1720562152.279418,10.0.2.15,22,10.0.2.2,56294,1073725440,17886,0,65535,65700,0,0,4,1460,1,0,4,23,33580,104,65700,0,104,0,0,0
o,0x00000000,1720562152.279589,10.0.2.15,22,10.0.2.2,56294,1073725440,17990,0,65535,65700,0,0,4,1460,1,0,4,23,33580,72,65700,0,0,0,0,0
i,0x00000000,1720562152.280608,10.0.2.15,22,10.0.2.2,56294,1073725440,17990,0,65535,65700,0,0,4,1460,1,0,4,23,33580,72,65700,0,72,0,0,0
i,0x00000000,1720562152.280617,10.0.2.15,22,10.0.2.2,56294,1073725440,18062,0,65535,65700,0,0,4,1460,1,0,4,23,33580,0,65700,0,0,0,0,0
i,0x00000000,1720562152.280623,10.0.2.15,22,10.0.2.2,56294,1073725440,18062,0,65535,65700,0,0,4,1460,1,0,4,23,33580,0,65700,96,0,0,0,0
o,0x00000000,1720562152.280628,10.0.2.15,22,10.0.2.2,56294,1073725440,18062,0,65535,65604,0,0,5,1460,1,0,5,23,33580,0,65700,96,0,0,0,0
o,0x00000000,1720562152.281743,10.0.2.15,22,10.0.2.2,56294,1073725440,18062,0,65535,65604,0,0,8,1460,1,0,4,23,33580,0,65700,0,0,0,0,0
i,0x00000000,1720562152.282258,10.0.2.15,22,10.0.2.2,56294,1073725440,18062,0,65535,65604,0,0,8,1460,1,0,20,23,33580,0,65700,0,1,0,0,0
i,0x00000000,1720562154.366817,10.0.2.15,22,10.0.2.2,56310,1073725440,14600,0,65535,65700,0,0,4,1460,1,0,0,27,33580,0,65700,0,0,0,0,0
o,0x00000000,1720562154.381021,10.0.2.15,22,10.0.2.2,56310,1073725440,14600,0,65535,65700,0,0,4,1460,1,0,0,27,33580,38,65700,42,0,0,0,0
i,0x00000000,1720562154.382567,10.0.2.15,22,10.0.2.2,56310,1073725440,14600,0,65535,65700,0,0,4,1460,1,0,0,27,33580,38,65700,0,38,0,0,0
o,0x00000000,1720562154.383152,10.0.2.15,22,10.0.2.2,56310,1073725440,14638,0,65535,65700,0,0,4,1460,1,0,0,24,33580,1056,65700,0,0,0,0,0
i,0x00000000,1720562154.384456,10.0.2.15,22,10.0.2.2,56310,1073725440,14638,0,65535,65700,0,0,4,1460,1,0,0,24,33580,1056,65700,0,1056,0,0,0
i,0x00000000,1720562154.384461,10.0.2.15,22,10.0.2.2,56310,1073725440,14638,0,65535,65700,0,0,4,1460,1,0,0,24,33580,1056,65700,1460,1056,0,0,0
o,0x00000000,1720562154.384464,10.0.2.15,22,10.0.2.2,56310,1073725440,14638,0,65535,65700,0,0,4,1460,1,0,1,24,33580,1056,65700,1536,1056,0,0,0
i,0x00000000,1720562154.384560,10.0.2.15,22,10.0.2.2,56310,1073725440,14638,0,65535,65700,0,0,4,1460,1,0,0,24,33580,1056,65700,1536,1056,0,0,0
i,0x00000000,1720562154.388041,10.0.2.15,22,10.0.2.2,56310,1073725440,15694,0,65535,65700,0,0,4,1460,1,0,0,24,33580,0,65700,0,0,0,0,0
o,0x00000000,1720562154.402908,10.0.2.15,22,10.0.2.2,56310,1073725440,15694,0,65535,65700,0,0,4,1460,1,0,0,24,33580,484,65700,0,0,0,0,0
i,0x00000000,1720562154.407447,10.0.2.15,22,10.0.2.2,56310,1073725440,15694,0,65535,65700,0,0,4,1460,1,0,0,24,33580,484,65700,0,484,0,0,0
i,0x00000000,1720562154.418201,10.0.2.15,22,10.0.2.2,56310,1073725440,16178,0,65535,65700,0,0,4,1460,1,0,0,24,33580,0,65700,0,0,0,0,0
i,0x00000000,1720562154.418212,10.0.2.15,22,10.0.2.2,56310,1073725440,16178,0,65535,65700,0,0,4,1460,1,0,0,24,33580,0,65700,16,0,0,0,0
o,0x00000000,1720562154.418218,10.0.2.15,22,10.0.2.2,56310,1073725440,16178,0,65535,65700,0,0,4,1460,1,0,1,24,33580,0,65700,60,0,0,0,0
o,0x00000000,1720562154.418867,10.0.2.15,22,10.0.2.2,56310,1073725440,16178,0,65535,65700,0,0,4,1460,1,0,0,24,33580,44,65700,0,0,0,0,0
i,0x00000000,1720562154.421989,10.0.2.15,22,10.0.2.2,56310,1073725440,16178,0,65535,65700,0,0,4,1460,1,0,0,24,33580,44,65700,0,44,0,0,0
i,0x00000000,1720562154.422006,10.0.2.15,22,10.0.2.2,56310,1073725440,16222,0,65535,65700,0,0,4,1460,1,0,0,24,33580,0,65700,0,0,0,0,0
o,0x00000000,1720562154.441122,10.0.2.15,22,10.0.2.2,56310,1073725440,16222,0,65535,65700,0,0,4,1460,1,0,0,24,33580,68,65700,0,0,0,0,0
i,0x00000000,1720562154.442641,10.0.2.15,22,10.0.2.2,56310,1073725440,16222,0,65535,65700,0,0,4,1460,1,0,0,24,33580,68,65700,0,68,0,0,0
i,0x00000000,1720562154.442658,10.0.2.15,22,10.0.2.2,56310,1073725440,16290,0,65535,65700,0,0,4,1460,1,0,0,24,33580,0,65700,0,0,0,0,0
o,0x00000000,1720562154.443396,10.0.2.15,22,10.0.2.2,56310,1073725440,16290,0,65535,65700,0,0,4,1460,1,0,0,24,33580,332,65700,0,0,0,0,0
i,0x00000000,1720562154.445927,10.0.2.15,22,10.0.2.2,56310,1073725440,16290,0,65535,65700,0,0,4,1460,1,0,0,24,33580,332,65700,0,332,0,0,0
i,0x00000000,1720562154.451262,10.0.2.15,22,10.0.2.2,56310,1073725440,16622,0,65535,65700,0,0,4,1460,1,0,0,24,33580,0,65700,0,0,0,0,0
o,0x00000000,1720562154.466310,10.0.2.15,22,10.0.2.2,56310,1073725440,16622,0,65535,65700,0,0,4,1460,1,0,0,24,33580,28,65700,0,0,0,0,0
i,0x00000000,1720562154.468556,10.0.2.15,22,10.0.2.2,56310,1073725440,16622,0,65535,65700,0,0,4,1460,1,0,0,24,33580,28,65700,0,28,0,0,0
i,0x00000000,1720562154.469451,10.0.2.15,22,10.0.2.2,56310,1073725440,16650,0,65535,65700,0,0,4,1460,1,0,0,24,33580,0,65700,0,0,0,0,0
o,0x00000000,1720562154.470034,10.0.2.15,22,10.0.2.2,56310,1073725440,16650,0,65535,65700,0,0,4,1460,1,0,0,24,33580,768,65700,112,0,0,0,0
i,0x00000000,1720562154.472422,10.0.2.15,22,10.0.2.2,56310,1073725440,16650,0,65535,65700,0,0,4,1460,1,0,0,24,33580,768,65700,112,768,0,0,0
o,0x00000000,1720562154.473389,10.0.2.15,22,10.0.2.2,56310,1073725440,17418,0,65535,65700,0,0,4,1460,1,0,0,24,33580,140,65700,112,0,0,0,0
i,0x00000000,1720562154.475939,10.0.2.15,22,10.0.2.2,56310,1073725440,17418,0,65535,65700,0,0,4,1460,1,0,0,24,33580,140,65700,112,140,0,0,0
o,0x00000000,1720562154.477255,10.0.2.15,22,10.0.2.2,56310,1073725440,17558,0,65535,65700,0,0,4,1460,1,0,0,24,33580,44,65700,0,0,0,0,0
i,0x00000000,1720562154.479467,10.0.2.15,22,10.0.2.2,56310,1073725440,17558,0,65535,65700,0,0,4,1460,1,0,0,24,33580,44,65700,0,44,0,0,0
i,0x00000000,1720562154.479480,10.0.2.15,22,10.0.2.2,56310,1073725440,17602,0,65535,65700,0,0,4,1460,1,0,0,24,33580,0,65700,0,0,0,0,0
o,0x00000000,1720562154.480751,10.0.2.15,22,10.0.2.2,56310,1073725440,17602,0,65535,65700,0,0,4,1460,1,0,4,24,33580,72,65700,0,0,0,0,0
i,0x00000000,1720562154.484448,10.0.2.15,22,10.0.2.2,56310,1073725440,17602,0,65535,65700,0,0,4,1460,1,0,4,24,33580,72,65700,0,72,0,0,0
o,0x00000000,1720562154.496731,10.0.2.15,22,10.0.2.2,56310,1073725440,17674,0,65535,65700,0,0,4,1460,1,0,4,24,33580,44,65700,0,0,0,0,0
i,0x00000000,1720562154.498320,10.0.2.15,22,10.0.2.2,56310,1073725440,17674,0,65535,65700,0,0,4,1460,1,0,4,24,33580,44,65700,0,44,0,0,0
o,0x00000000,1720562154.498906,10.0.2.15,22,10.0.2.2,56310,1073725440,17718,0,65535,65700,0,0,4,1460,1,0,4,24,33580,104,65700,0,0,0,0,0
i,0x00000000,1720562154.499929,10.0.2.15,22,10.0.2.2,56310,1073725440,17718,0,65535,65700,0,0,4,1460,1,0,4,24,33580,104,65700,0,104,0,0,0
o,0x00000000,1720562154.500008,10.0.2.15,22,10.0.2.2,56310,1073725440,17822,0,65535,65700,0,0,4,1460,1,0,4,24,33580,44,65700,0,0,0,0,0
i,0x00000000,1720562154.500632,10.0.2.15,22,10.0.2.2,56310,1073725440,17822,0,65535,65700,0,0,4,1460,1,0,4,24,33580,44,65700,0,44,0,0,0
o,0x00000000,1720562154.504294,10.0.2.15,22,10.0.2.2,56310,1073725440,17866,0,65535,65700,0,0,4,1460,1,0,4,24,33580,72,65700,0,0,0,0,0
i,0x00000000,1720562154.505286,10.0.2.15,22,10.0.2.2,56310,1073725440,17866,0,65535,65700,0,0,4,1460,1,0,4,24,33580,72,65700,0,72,0,0,0
i,0x00000000,1720562154.506450,10.0.2.15,22,10.0.2.2,56310,1073725440,17938,0,65535,65700,0,0,4,1460,1,0,4,24,33580,0,65700,0,0,0,0,0
i,0x00000000,1720562154.506457,10.0.2.15,22,10.0.2.2,56310,1073725440,17938,0,65535,65700,0,0,4,1460,1,0,4,24,33580,0,65700,96,0,0,0,0
o,0x00000000,1720562154.506462,10.0.2.15,22,10.0.2.2,56310,1073725440,17938,0,65535,65604,0,0,5,1460,1,0,5,24,33580,0,65700,96,0,0,0,0
o,0x00000000,1720562154.517366,10.0.2.15,22,10.0.2.2,56310,1073725440,17938,0,65535,65604,0,0,8,1460,1,0,4,24,33580,0,65700,0,0,0,0,0
i,0x00000000,1720562154.518067,10.0.2.15,22,10.0.2.2,56310,1073725440,17938,0,65535,65604,0,0,8,1460,1,0,20,24,33580,0,65700,0,1,0,0,0
i,0x00000000,1720562154.744953,172.16.3.2,5101,172.16.1.2,24634,10499,14480,0,65728,65700,6,6,4,1460,685,1,992,83,33580,0,65700,0,0,0,0,0
o,0x00000000,1720562154.745042,172.16.3.2,5101,172.16.1.2,24634,10499,14480,0,65728,65700,6,6,4,1460,685,1,996,83,33580,1,65700,0,0,0,0,0
i,0x00000000,1720562154.865682,172.16.3.2,5101,172.16.1.2,24634,10499,14480,0,65728,65700,6,6,4,1460,685,1,996,83,33580,1,65700,0,1,0,0,0
i,0x00000000,1720562154.865694,172.16.3.2,5101,172.16.1.2,24634,10499,14480,0,65728,65728,6,6,4,1460,648,1,996,81,33580,0,65700,4,0,0,0,0
o,0x00000000,1720562154.865699,172.16.3.2,5101,172.16.1.2,24634,10499,14480,0,65728,65728,6,6,4,1460,648,1,997,81,33580,0,65700,128,0,0,0,0
o,0x00000000,1720562154.865862,172.16.3.2,5101,172.16.1.2,24634,10499,14480,0,65728,65728,6,6,4,1460,648,1,996,81,33580,1,65700,0,0,0,0,0
o,0x00000000,1720562154.866557,10.0.2.15,22,10.0.2.2,49435,1073725440,14600,0,65535,65700,0,0,4,1460,1,0,4,24,33580,84,65700,0,0,0,0,0
i,0x00000000,1720562154.868270,10.0.2.15,22,10.0.2.2,49435,1073725440,14600,0,65535,65700,0,0,4,1460,1,0,4,24,33580,84,65700,0,84,0,0,0
i,0x00000000,1720562155.020936,172.16.3.2,5101,172.16.1.2,24634,10499,14480,0,65728,65728,6,6,4,1460,648,1,996,81,33580,1,65700,0,1,0,0,0
i,0x00000000,1720562155.109336,172.16.3.2,5101,172.16.1.2,49644,10499,14480,0,65728,65700,6,6,4,1460,685,1,992,83,33580,0,65700,0,0,0,0,0
o,0x00000000,1720562155.120956,172.16.3.2,5101,172.16.1.2,24634,10499,14480,0,65728,65728,6,6,4,1460,631,1,996,74,33580,1,65700,0,0,0,0,0
o,0x00000000,1720562155.123336,172.16.3.2,5101,172.16.1.2,24634,10499,14480,0,65728,65728,6,6,4,1460,631,1,996,74,33580,2,65700,0,1,0,0,0
o,0x00000000,1720562155.123978,10.0.2.15,22,10.0.2.2,49435,1073725440,14600,0,65535,65700,0,0,4,1460,1,0,4,24,33580,108,65700,0,0,0,0,0
i,0x00000000,1720562155.127375,10.0.2.15,22,10.0.2.2,49435,1073725440,14600,0,65535,65700,0,0,4,1460,1,0,4,24,33580,108,65700,0,108,0,0,0
o,0x00000000,1720562155.147805,172.16.3.2,5101,172.16.1.2,49644,10499,14480,0,65728,65700,6,6,4,1460,685,1,993,83,33580,0,65700,0,0,0,0,0
i,0x00000000,1720562155.247204,172.16.3.2,5101,172.16.1.2,24634,10499,14480,0,65728,65728,6,6,4,1460,631,1,996,74,33580,2,65700,0,2,0,0,0
i,0x00000000,1720562155.334756,172.16.3.2,5101,172.16.1.2,49644,10499,14480,0,65728,65700,6,6,4,1460,685,1,992,83,33580,0,65700,0,0,0,0,0
i,0x00000000,1720562155.349522,172.16.3.2,5101,172.16.1.2,49644,10499,14480,0,65728,65700,6,6,4,1460,685,1,992,83,33580,0,65700,0,0,0,0,0
o,0x00000000,1720562155.349579,172.16.3.2,5101,172.16.1.2,49644,10499,14480,0,65728,65700,6,6,4,1460,685,1,993,83,33580,0,65700,1448,0,0,0,0
i,0x00000000,1720562155.357672,172.16.3.2,5101,172.16.1.2,49644,10499,14480,0,65728,65700,6,6,4,1460,685,1,992,83,33580,0,65700,0,0,0,0,0
i,0x00000000,1720562155.366767,172.16.3.2,5101,172.16.1.2,49644,10499,14480,0,65728,65700,6,6,4,1460,685,1,992,83,33580,0,65700,0,0,0,0,0
o,0x00000000,1720562155.366784,172.16.3.2,5101,172.16.1.2,49644,10499,14480,0,65728,65700,6,6,4,1460,685,1,993,83,33580,0,65700,1448,0,0,0,0
i,0x00000000,1720562155.396901,172.16.3.2,5101,172.16.1.2,49644,10499,14480,0,65728,65700,6,6,4,1460,685,1,992,83,33580,0,65700,0,0,0,0,0
i,0x00000000,1720562155.407274,172.16.3.2,5101,172.16.1.2,49644,10499,14480,0,65728,65700,6,6,4,1460,685,1,992,83,33580,0,65700,0,0,0,0,0
o,0x00000000,1720562155.407312,172.16.3.2,5101,172.16.1.2,49644,10499,14480,0,65728,65700,6,6,4,1460,685,1,993,83,33580,0,65700,1448,0,0,0,0
i,0x00000000,1720562155.417747,172.16.3.2,5101,172.16.1.2,49644,10499,14480,0,65728,65700,6,6,4,1460,685,1,992,83,33580,0,65700,0,0,0,0,0
i,0x00000000,1720562155.428206,172.16.3.2,5101,172.16.1.2,49644,10499,14480,0,65728,65700,6,6,4,1460,685,1,992,83,33580,0,65700,0,0,0,0,0
o,0x00000000,1720562155.428240,172.16.3.2,5101,172.16.1.2,49644,10499,14480,0,65728,65700,6,6,4,1460,685,1,993,83,33580,0,65700,1448,0,0,0,0
i,0x00000000,1720562155.449090,172.16.3.2,5101,172.16.1.2,49644,10499,14480,0,65728,65700,6,6,4,1460,685,1,992,83,33580,0,65700,0,0,0,0,0
i,0x00000000,1720562155.451465,172.16.3.2,5101,172.16.1.2,49644,10499,14480,0,65728,65700,6,6,4,1460,685,1,992,83,33580,0,65700,0,0,0,0,0
o,0x00000000,1720562155.451504,172.16.3.2,5101,172.16.1.2,49644,10499,14480,0,65728,65700,6,6,4,1460,685,1,993,83,33580,0,65700,1448,0,0,0,0
i,0x00000000,1720562155.547896,172.16.3.2,5101,172.16.1.2,49644,10499,14480,0,65728,65700,6,6,4,1460,685,1,992,83,33580,0,65700,0,0,0,0,0
o,0x00000000,1720562155.548548,172.16.3.2,5101,172.16.1.2,49644,10499,14480,0,65728,65700,6,6,4,1460,685,1,993,83,33580,0,65700,0,0,0,0,0
i,0x00000000,1720562155.567994,172.16.3.2,5101,172.16.1.2,49644,10499,14480,0,65728,65700,6,6,4,1460,685,1,992,83,33580,0,65700,0,0,0,0,0
i,0x00000000,1720562155.595402,172.16.3.2,5101,172.16.1.2,49644,10499,14480,0,65728,65700,6,6,4,1460,685,1,992,83,33580,0,65700,0,0,0,0,0
o,0x00000000,1720562155.595415,172.16.3.2,5101,172.16.1.2,49644,10499,14480,0,65728,65700,6,6,4,1460,685,1,993,83,33580,0,65700,1448,0,0,0,0
i,0x00000000,1720562155.607978,172.16.3.2,5101,172.16.1.2,49644,10499,14480,0,65728,65700,6,6,4,1460,685,1,992,83,33580,0,65700,0,0,0,0,0
i,0x00000000,1720562155.628827,172.16.3.2,5101,172.16.1.2,49644,10499,14480,0,65728,65700,6,6,4,1460,685,1,992,83,33580,0,65700,0,0,0,0,0
o,0x00000000,1720562155.628867,172.16.3.2,5101,172.16.1.2,49644,10499,14480,0,65728,65700,6,6,4,1460,685,1,993,83,33580,0,65700,1448,0,0,0,0
i,0x00000000,1720562155.677148,172.16.3.2,5101,172.16.1.2,49644,10499,14480,0,65728,65700,6,6,4,1460,685,1,992,83,33580,0,65700,0,0,0,0,0
i,0x00000000,1720562155.691806,172.16.3.2,5101,172.16.1.2,49644,10499,14480,0,65728,65700,6,6,4,1460,685,1,992,83,33580,0,65700,0,0,0,0,0
o,0x00000000,1720562155.691855,172.16.3.2,5101,172.16.1.2,49644,10499,14480,0,65728,65700,6,6,4,1460,685,1,993,83,33580,0,65700,1448,0,0,0,0
i,0x00000000,1720562155.751405,172.16.3.2,5101,172.16.1.2,49644,10499,14480,0,65728,65700,6,6,4,1460,685,1,992,83,33580,0,65700,0,0,0,0,0
i,0x00000000,1720562155.756075,172.16.3.2,5101,172.16.1.2,49644,10499,14480,0,65728,65700,6,6,4,1460,685,1,992,83,33580,0,65700,0,0,0,0,0
o,0x00000000,1720562155.756093,172.16.3.2,5101,172.16.1.2,49644,10499,14480,0,65728,65700,6,6,4,1460,685,1,993,83,33580,0,65700,1448,0,0,0,0
i,0x00000000,1720562155.767103,172.16.3.2,5101,172.16.1.2,49644,10499,14480,0,65728,65700,6,6,4,1460,685,1,992,83,33580,0,65700,0,0,0,0,0
i,0x00000000,1720562155.785091,172.16.3.2,5101,172.16.1.2,49644,10499,14480,0,65728,65700,6,6,4,1460,685,1,992,83,33580,0,65700,0,0,0,0,0
o,0x00000000,1720562155.785107,172.16.3.2,5101,172.16.1.2,49644,10499,14480,0,65728,65700,6,6,4,1460,685,1,993,83,33580,0,65700,1448,0,0,0,0
i,0x00000000,1720562155.836267,172.16.3.2,5101,172.16.1.2,49644,10499,14480,0,65728,65700,6,6,4,1460,685,1,992,83,33580,0,65700,0,0,0,0,0
i,0x00000000,1720562155.846185,172.16.3.2,5101,172.16.1.2,49644,10499,14480,0,65728,65700,6,6,4,1460,685,1,992,83,33580,0,65700,0,0,0,0,0
o,0x00000000,1720562155.846198,172.16.3.2,5101,172.16.1.2,49644,10499,14480,0,65728,65700,6,6,4,1460,685,1,993,83,33580,0,65700,1448,0,0,0,0
i,0x00000000,1720562155.855776,172.16.3.2,5101,172.16.1.2,49644,10499,14480,0,65728,65700,6,6,4,1460,685,1,992,83,33580,0,65700,0,0,0,0,0
o,0x00000000,1720562155.887220,172.16.3.2,5101,172.16.1.2,49644,10499,14480,0,65728,65700,6,6,4,1460,685,1,993,83,33580,0,65700,0,0,0,0,0
i,0x00000000,1720562155.916976,172.16.3.2,5101,172.16.1.2,49644,10499,14480,0,65728,65700,6,6,4,1460,685,1,992,83,33580,0,65700,0,0,0,0,0
i,0x00000000,1720562155.926386,172.16.3.2,5101,172.16.1.2,49644,10499,14480,0,65728,65700,6,6,4,1460,685,1,992,83,33580,0,65700,0,0,0,0,0
o,0x00000000,1720562155.926421,172.16.3.2,5101,172.16.1.2,49644,10499,14480,0,65728,65700,6,6,4,1460,685,1,993,83,33580,0,65700,1448,0,0,0,0
i,0x00000000,1720562155.946474,172.16.3.2,5101,172.16.1.2,49644,10499,14480,0,65728,65700,6,6,4,1460,685,1,992,83,33580,0,65700,0,0,0,0,0
i,0x00000000,1720562155.955358,172.16.3.2,5101,172.16.1.2,49644,10499,14480,0,65728,65700,6,6,4,1460,685,1,992,83,33580,0,65700,0,0,0,0,0
o,0x00000000,1720562155.955376,172.16.3.2,5101,172.16.1.2,49644,10499,14480,0,65728,65700,6,6,4,1460,685,1,993,83,33580,0,65700,1448,0,0,0,0
i,0x00000000,1720562156.005723,172.16.3.2,5101,172.16.1.2,49644,10499,14480,0,65728,65700,6,6,4,1460,685,1,992,83,33580,0,65700,0,0,0,0,0
i,0x00000000,1720562156.017452,172.16.3.2,5101,172.16.1.2,49644,10499,14480,0,65728,65700,6,6,4,1460,685,1,992,83,33580,0,65700,0,0,0,0,0
o,0x00000000,1720562156.017498,172.16.3.2,5101,172.16.1.2,49644,10499,14480,0,65728,65700,6,6,4,1460,685,1,993,83,33580,0,65700,1448,0,0,0,0
i,0x00000000,1720562156.027038,172.16.3.2,5101,172.16.1.2,49644,10499,14480,0,65728,65700,6,6,4,1460,685,1,992,83,33580,0,65700,0,0,0,0,0
o,0x00000000,1720562156.068538,172.16.3.2,5101,172.16.1.2,49644,10499,14480,0,65728,65700,6,6,4,1460,685,1,993,83,33580,0,65700,0,0,0,0,0
i,0x00000000,1720562156.098992,172.16.3.2,5101,172.16.1.2,49644,10499,14480,0,65728,65700,6,6,4,1460,685,1,992,83,33580,0,65700,0,0,0,0,0
i,0x00000000,1720562156.117628,172.16.3.2,5101,172.16.1.2,49644,10499,14480,0,65728,65700,6,6,4,1460,685,1,992,83,33580,0,65700,0,0,0,0,0
o,0x00000000,1720562156.117653,172.16.3.2,5101,172.16.1.2,49644,10499,14480,0,65728,65700,6,6,4,1460,685,1,993,83,33580,0,65700,1448,0,0,0,0
i,0x00000000,1720562156.130579,172.16.3.2,5101,172.16.1.2,49644,10499,14480,0,65728,65700,6,6,4,1460,685,1,992,83,33580,0,65700,0,0,0,0,0
o,0x00000000,1720562156.131161,10.0.2.15,22,10.0.2.2,49435,1073725440,14600,0,65535,65700,0,0,4,1460,1,0,4,24,33580,156,65700,0,0,0,0,0
i,0x00000000,1720562156.135364,10.0.2.15,22,10.0.2.2,49435,1073725440,14600,0,65535,65700,0,0,4,1460,1,0,4,24,33580,156,65700,0,156,0,0,0
i,0x00000000,1720562156.139638,172.16.3.2,5101,172.16.1.2,49644,10499,14480,0,65728,65700,6,6,4,1460,685,1,992,83,33580,0,65700,0,0,0,0,0
o,0x00000000,1720562156.139680,172.16.3.2,5101,172.16.1.2,49644,10499,14480,0,65728,65700,6,6,4,1460,685,1,993,83,33580,0,65700,1448,0,0,0,0
i,0x00000000,1720562156.147400,172.16.3.2,5101,172.16.1.2,49644,10499,14480,0,65728,65700,6,6,4,1460,685,1,992,83,33580,0,65700,0,0,0,0,0
o,0x00000000,1720562156.187708,172.16.3.2,5101,172.16.1.2,49644,10499,14480,0,65728,65700,6,6,4,1460,685,1,993,83,33580,0,65700,0,0,0,0,0
i,0x00000000,1720562156.198899,172.16.3.2,5101,172.16.1.2,49644,10499,14480,0,65728,65700,6,6,4,1460,685,1,992,83,33580,0,65700,0,0,0,0,0
i,0x00000000,1720562156.209401,172.16.3.2,5101,172.16.1.2,49644,10499,14480,0,65728,65700,6,6,4,1460,685,1,992,83,33580,0,65700,0,0,0,0,0
o,0x00000000,1720562156.209453,172.16.3.2,5101,172.16.1.2,49644,10499,14480,0,65728,65700,6,6,4,1460,685,1,993,83,33580,0,65700,1448,0,0,0,0
i,0x00000000,1720562156.265146,172.16.3.2,5101,172.16.1.2,49644,10499,14480,0,65728,65700,6,6,4,1460,685,1,992,83,33580,0,65700,0,0,0,0,0
o,0x00000000,1720562156.297567,172.16.3.2,5101,172.16.1.2,49644,10499,14480,0,65728,65700,6,6,4,1460,685,1,993,83,33580,0,65700,0,0,0,0,0
i,0x00000000,1720562156.300169,172.16.3.2,5101,172.16.1.2,49644,10499,14480,0,65728,65700,6,6,4,1460,685,1,992,83,33580,0,65700,0,0,0,0,0
i,0x00000000,1720562156.308692,172.16.3.2,5101,172.16.1.2,49644,10499,14480,0,65728,65700,6,6,4,1460,685,1,992,83,33580,0,65700,0,0,0,0,0
o,0x00000000,1720562156.308730,172.16.3.2,5101,172.16.1.2,49644,10499,14480,0,65728,65700,6,6,4,1460,685,1,993,83,33580,0,65700,1448,0,0,0,0
i,0x00000000,1720562156.318069,172.16.3.2,5101,172.16.1.2,49644,10499,14480,0,65728,65700,6,6,4,1460,685,1,992,83,33580,0,65700,0,0,0,0,0
i,0x00000000,1720562156.347142,172.16.3.2,5101,172.16.1.2,49644,10499,14480,0,65728,65700,6,6,4,1460,685,1,992,83,33580,0,65700,0,0,0,0,0
o,0x00000000,1720562156.347172,172.16.3.2,5101,172.16.1.2,49644,10499,14480,0,65728,65700,6,6,4,1460,685,1,993,83,33580,0,65700,1448,0,0,0,0
i,0x00000000,1720562156.390786,172.16.3.2,5101,172.16.1.2,49644,10499,14480,0,65728,65700,6,6,4,1460,685,1,992,83,33580,0,65700,0,0,0,0,0
i,0x00000000,1720562156.398249,172.16.3.2,5101,172.16.1.2,49644,10499,14480,0,65728,65700,6,6,4,1460,685,1,992,83,33580,0,65700,0,0,0,0,0
o,0x00000000,1720562156.398290,172.16.3.2,5101,172.16.1.2,49644,10499,14480,0,65728,65700,6,6,4,1460,685,1,993,83,33580,0,65700,1448,0,0,0,0
i,0x00000000,1720562156.407154,172.16.3.2,5101,172.16.1.2,49644,10499,14480,0,65728,65700,6,6,4,1460,685,1,992,83,33580,0,65700,0,0,0,0,0
i,0x00000000,1720562156.419360,172.16.3.2,5101,172.16.1.2,49644,10499,14480,0,65728,65700,6,6,4,1460,685,1,992,83,33580,0,65700,0,0,0,0,0
o,0x00000000,1720562156.419405,172.16.3.2,5101,172.16.1.2,49644,10499,14480,0,65728,65700,6,6,4,1460,685,1,993,83,33580,0,65700,1448,0,0,0,0
i,0x00000000,1720562156.533877,172.16.3.2,5101,172.16.1.2,49644,10499,14480,0,65728,65700,6,6,4,1460,685,1,992,83,33580,0,65700,0,0,0,0,0
i,0x00000000,1720562156.543955,172.16.3.2,5101,172.16.1.2,49644,10499,14480,0,65728,65700,6,6,4,1460,685,1,992,83,33580,0,65700,0,0,0,0,0
o,0x00000000,1720562156.543970,172.16.3.2,5101,172.16.1.2,49644,10499,14480,0,65728,65700,6,6,4,1460,685,1,993,83,33580,0,65700,1448,0,0,0,0
i,0x00000000,1720562156.557816,172.16.3.2,5101,172.16.1.2,49644,10499,14480,0,65728,65700,6,6,4,1460,685,1,992,83,33580,0,65700,0,0,0,0,0
i,0x00000000,1720562156.569325,172.16.3.2,5101,172.16.1.2,49644,10499,14480,0,65728,65700,6,6,4,1460,685,1,992,83,33580,0,65700,0,0,0,0,0
o,0x00000000,1720562156.569381,172.16.3.2,5101,172.16.1.2,49644,10499,14480,0,65728,65700,6,6,4,1460,685,1,993,83,33580,0,65700,1448,0,0,0,0
i,0x00000000,1720562156.576873,172.16.3.2,5101,172.16.1.2,49644,10499,14480,0,65728,65700,6,6,4,1460,685,1,992,83,33580,0,65700,0,0,0,0,0
o,0x00000000,1720562156.617777,172.16.3.2,5101,172.16.1.2,49644,10499,14480,0,65728,65700,6,6,4,1460,685,1,993,83,33580,0,65700,0,0,0,0,0
i,0x00000000,1720562156.618359,172.16.3.2,5101,172.16.1.2,49644,10499,14480,0,65728,65700,6,6,4,1460,685,1,992,83,33580,0,65700,0,0,0,0,0
i,0x00000000,1720562156.626616,172.16.3.2,5101,172.16.1.2,49644,10499,14480,0,65728,65700,6,6,4,1460,685,1,992,83,33580,0,65700,0,0,0,0,0
o,0x00000000,1720562156.626630,172.16.3.2,5101,172.16.1.2,49644,10499,14480,0,65728,65700,6,6,4,1460,685,1,993,83,33580,0,65700,1448,0,0,0,0
i,0x00000000,1720562156.636508,172.16.3.2,5101,172.16.1.2,49644,10499,14480,0,65728,65700,6,6,4,1460,685,1,992,83,33580,0,65700,0,0,0,0,0
i,0x00000000,1720562156.645447,172.16.3.2,5101,172.16.1.2,49644,10499,14480,0,65728,65700,6,6,4,1460,685,1,992,83,33580,0,65700,0,0,0,0,0
o,0x00000000,1720562156.645461,172.16.3.2,5101,172.16.1.2,49644,10499,14480,0,65728,65700,6,6,4,1460,685,1,993,83,33580,0,65700,1448,0,0,0,0
i,0x00000000,1720562156.666629,172.16.3.2,5101,172.16.1.2,49644,10499,14480,0,65728,65700,6,6,4,1460,685,1,992,83,33580,0,65700,0,0,0,0,0
o,0x00000000,1720562156.708088,172.16.3.2,5101,172.16.1.2,49644,10499,14480,0,65728,65700,6,6,4,1460,685,1,993,83,33580,0,65700,0,0,0,0,0
i,0x00000000,1720562156.719581,172.16.3.2,5101,172.16.1.2,49644,10499,14480,0,65728,65700,6,6,4,1460,685,1,992,83,33580,0,65700,0,0,0,0,0
i,0x00000000,1720562156.751203,172.16.3.2,5101,172.16.1.2,49644,10499,14480,0,65728,65700,6,6,4,1460,685,1,992,83,33580,0,65700,0,0,0,0,0
o,0x00000000,1720562156.751238,172.16.3.2,5101,172.16.1.2,49644,10499,14480,0,65728,65700,6,6,4,1460,685,1,993,83,33580,0,65700,1448,0,0,0,0
i,0x00000000,1720562156.778096,172.16.3.2,5101,172.16.1.2,49644,10499,14480,0,65728,65700,6,6,4,1460,685,1,992,83,33580,0,65700,0,0,0,0,0
i,0x00000000,1720562156.790284,172.16.3.2,5101,172.16.1.2,49644,10499,14480,0,65728,65700,6,6,4,1460,685,1,992,83,33580,0,65700,0,0,0,0,0
o,0x00000000,1720562156.790321,172.16.3.2,5101,172.16.1.2,49644,10499,14480,0,65728,65700,6,6,4,1460,685,1,993,83,33580,0,65700,1448,0,0,0,0
i,0x00000000,1720562156.799087,172.16.3.2,5101,172.16.1.2,49644,10499,14480,0,65728,65700,6,6,4,1460,685,1,992,83,33580,0,65700,0,0,0,0,0
o,0x00000000,1720562156.838958,172.16.3.2,5101,172.16.1.2,49644,10499,14480,0,65728,65700,6,6,4,1460,685,1,993,83,33580,0,65700,0,0,0,0,0
i,0x00000000,1720562156.880982,172.16.3.2,5101,172.16.1.2,49644,10499,14480,0,65728,65700,6,6,4,1460,685,1,992,83,33580,0,65700,0,0,0,0,0
i,0x00000000,1720562156.892389,172.16.3.2,5101,172.16.1.2,49644,10499,14480,0,65728,65700,6,6,4,1460,685,1,992,83,33580,0,65700,0,0,0,0,0
o,0x00000000,1720562156.892441,172.16.3.2,5101,172.16.1.2,49644,10499,14480,0,65728,65700,6,6,4,1460,685,1,993,83,33580,0,65700,1448,0,0,0,0
i,0x00000000,1720562156.899856,172.16.3.2,5101,172.16.1.2,49644,10499,14480,0,65728,65700,6,6,4,1460,685,1,992,83,33580,0,65700,0,0,0,0,0
i,0x00000000,1720562156.938890,172.16.3.2,5101,172.16.1.2,49644,10499,14480,0,65728,65700,6,6,4,1460,685,1,992,83,33580,0,65700,0,0,0,0,0
o,0x00000000,1720562156.938917,172.16.3.2,5101,172.16.1.2,49644,10499,14480,0,65728,65700,6,6,4,1460,685,1,993,83,33580,0,65700,1448,0,0,0,0
i,0x00000000,1720562156.946109,172.16.3.2,5101,172.16.1.2,49644,10499,14480,0,65728,65700,6,6,4,1460,685,1,992,83,33580,0,65700,0,0,0,0,0
i,0x00000000,1720562156.956598,172.16.3.2,5101,172.16.1.2,49644,10499,14480,0,65728,65700,6,6,4,1460,685,1,992,83,33580,0,65700,0,0,0,0,0
o,0x00000000,1720562156.956626,172.16.3.2,5101,172.16.1.2,49644,10499,14480,0,65728,65700,6,6,4,1460,685,1,993,83,33580,0,65700,1448,0,0,0,0
i,0x00000000,1720562157.017850,172.16.3.2,5101,172.16.1.2,49644,10499,14480,0,65728,65700,6,6,4,1460,685,1,992,83,33580,0,65700,0,0,0,0,0
i,0x00000000,1720562157.029672,172.16.3.2,5101,172.16.1.2,49644,10499,14480,0,65728,65700,6,6,4,1460,685,1,992,83,33580,0,65700,0,0,0,0,0
o,0x00000000,1720562157.029708,172.16.3.2,5101,172.16.1.2,49644,10499,14480,0,65728,65700,6,6,4,1460,685,1,993,83,33580,0,65700,1448,0,0,0,0
i,0x00000000,1720562157.048451,172.16.3.2,5101,172.16.1.2,49644,10499,14480,0,65728,65700,6,6,4,1460,685,1,992,83,33580,0,65700,0,0,0,0,0
o,0x00000000,1720562157.089101,172.16.3.2,5101,172.16.1.2,49644,10499,14480,0,65728,65700,6,6,4,1460,685,1,993,83,33580,0,65700,0,0,0,0,0
i,0x00000000,1720562157.119875,172.16.3.2,5101,172.16.1.2,49644,10499,14480,0,65728,65700,6,6,4,1460,685,1,992,83,33580,0,65700,0,0,0,0,0
o,0x00000000,1720562157.138434,10.0.2.15,22,10.0.2.2,49435,1073725440,14600,0,65535,65700,0,0,4,1460,1,0,4,24,33580,108,65700,0,0,0,0,0
i,0x00000000,1720562157.142810,10.0.2.15,22,10.0.2.2,49435,1073725440,14600,0,65535,65700,0,0,4,1460,1,0,4,24,33580,108,65700,0,108,0,0,0
i,0x00000000,1720562157.143368,172.16.3.2,5101,172.16.1.2,49644,10499,14480,0,65728,65700,6,6,4,1460,685,1,992,83,33580,0,65700,0,0,0,0,0
o,0x00000000,1720562157.143412,172.16.3.2,5101,172.16.1.2,49644,10499,14480,0,65728,65700,6,6,4,1460,685,1,993,83,33580,0,65700,1448,0,0,0,0
i,0x00000000,1720562157.148901,172.16.3.2,5101,172.16.1.2,49644,10499,14480,0,65728,65700,6,6,4,1460,685,1,992,83,33580,0,65700,0,0,0,0,0
i,0x00000000,1720562157.166705,172.16.3.2,5101,172.16.1.2,49644,10499,14480,0,65728,65700,6,6,4,1460,685,1,992,83,33580,0,65700,0,0,0,0,0
o,0x00000000,1720562157.166718,172.16.3.2,5101,172.16.1.2,49644,10499,14480,0,65728,65700,6,6,4,1460,685,1,993,83,33580,0,65700,1448,0,0,0,0
i,0x00000000,1720562157.192140,172.16.3.2,5101,172.16.1.2,49644,10499,14480,0,65728,65700,6,6,4,1460,685,1,992,83,33580,0,65700,0,0,0,0,0
i,0x00000000,1720562157.220229,172.16.3.2,5101,172.16.1.2,49644,10499,14480,0,65728,65700,6,6,4,1460,685,1,992,83,33580,0,65700,0,0,0,0,0
o,0x00000000,1720562157.220279,172.16.3.2,5101,172.16.1.2,49644,10499,14480,0,65728,65700,6,6,4,1460,685,1,993,83,33580,0,65700,1448,0,0,0,0
i,0x00000000,1720562157.230617,172.16.3.2,5101,172.16.1.2,49644,10499,14480,0,65728,65700,6,6,4,1460,685,1,992,83,33580,0,65700,0,0,0,0,0
o,0x00000000,1720562157.267844,172.16.3.2,5101,172.16.1.2,49644,10499,14480,0,65728,65700,6,6,4,1460,685,1,993,83,33580,0,65700,0,0,0,0,0
i,0x00000000,1720562157.273599,172.16.3.2,5101,172.16.1.2,49644,10499,14480,0,65728,65700,6,6,4,1460,685,1,992,83,33580,0,65700,0,0,0,0,0
o,0x00000000,1720562157.307418,172.16.3.2,5101,172.16.1.2,49644,10499,14480,0,65728,65700,6,6,4,1460,685,1,993,83,33580,0,65700,0,0,0,0,0
i,0x00000000,1720562157.316826,172.16.3.2,5101,172.16.1.2,49644,10499,14480,0,65728,65700,6,6,4,1460,685,1,992,83,33580,0,65700,0,0,0,0,0
i,0x00000000,1720562157.330496,172.16.3.2,5101,172.16.1.2,49644,10499,14480,0,65728,65700,6,6,4,1460,685,1,992,83,33580,0,65700,0,0,0,0,0
o,0x00000000,1720562157.330558,172.16.3.2,5101,172.16.1.2,49644,10499,14480,0,65728,65700,6,6,4,1460,685,1,993,83,33580,0,65700,1448,0,0,0,0
i,0x00000000,1720562157.337956,172.16.3.2,5101,172.16.1.2,49644,10499,14480,0,65728,65700,6,6,4,1460,685,1,992,83,33580,0,65700,0,0,0,0,0
i,0x00000000,1720562157.379038,172.16.3.2,5101,172.16.1.2,49644,10499,14480,0,65728,65700,6,6,4,1460,685,1,992,83,33580,0,65700,0,0,0,0,0
o,0x00000000,1720562157.379076,172.16.3.2,5101,172.16.1.2,49644,10499,14480,0,65728,65700,6,6,4,1460,685,1,993,83,33580,0,65700,1448,0,0,0,0
i,0x00000000,1720562157.387652,172.16.3.2,5101,172.16.1.2,49644,10499,14480,0,65728,65700,6,6,4,1460,685,1,992,83,33580,0,65700,0,0,0,0,0
i,0x00000000,1720562157.411610,172.16.3.2,5101,172.16.1.2,49644,10499,14480,0,65728,65700,6,6,4,1460,685,1,992,83,33580,0,65700,0,0,0,0,0
o,0x00000000,1720562157.411646,172.16.3.2,5101,172.16.1.2,49644,10499,14480,0,65728,65700,6,6,4,1460,685,1,993,83,33580,0,65700,1448,0,0,0,0
i,0x00000000,1720562157.429335,172.16.3.2,5101,172.16.1.2,49644,10499,14480,0,65728,65700,6,6,4,1460,685,1,992,83,33580,0,65700,0,0,0,0,0
i,0x00000000,1720562157.468396,172.16.3.2,5101,172.16.1.2,49644,10499,14480,0,65728,65700,6,6,4,1460,685,1,992,83,33580,0,65700,0,0,0,0,0
o,0x00000000,1720562157.468454,172.16.3.2,5101,172.16.1.2,49644,10499,14480,0,65728,65700,6,6,4,1460,685,1,993,83,33580,0,65700,1448,0,0,0,0
i,0x00000000,1720562157.486850,172.16.3.2,5101,172.16.1.2,49644,10499,14480,0,65728,65700,6,6,4,1460,685,1,992,83,33580,0,65700,0,0,0,0,0
i,0x00000000,1720562157.527265,172.16.3.2,5101,172.16.1.2,49644,10499,14480,0,65728,65700,6,6,4,1460,685,1,992,83,33580,0,65700,0,0,0,0,0
o,0x00000000,1720562157.527278,172.16.3.2,5101,172.16.1.2,49644,10499,14480,0,65728,65700,6,6,4,1460,685,1,993,83,33580,0,65700,1448,0,0,0,0
i,0x00000000,1720562157.527538,172.16.3.2,5101,172.16.1.2,49644,10499,14480,0,65728,65700,6,6,4,1460,685,1,992,83,33580,0,65700,1448,0,0,0,0
o,0x00000000,1720562157.567669,172.16.3.2,5101,172.16.1.2,49644,10499,14480,0,65728,65700,6,6,4,1460,685,1,993,83,33580,0,65700,0,0,0,0,0
i,0x00000000,1720562157.578231,172.16.3.2,5101,172.16.1.2,49644,10499,14480,0,65728,65700,6,6,4,1460,685,1,992,83,33580,0,65700,0,0,0,0,0
i,0x00000000,1720562157.609608,172.16.3.2,5101,172.16.1.2,49644,10499,14480,0,65728,65700,6,6,4,1460,685,1,992,83,33580,0,65700,0,0,0,0,0
o,0x00000000,1720562157.609652,172.16.3.2,5101,172.16.1.2,49644,10499,14480,0,65728,65700,6,6,4,1460,685,1,993,83,33580,0,65700,1448,0,0,0,0
i,0x00000000,1720562157.631072,172.16.3.2,5101,172.16.1.2,49644,10499,14480,0,65728,65700,6,6,4,1460,685,1,992,83,33580,0,65700,0,0,0,0,0
i,0x00000000,1720562157.641087,172.16.3.2,5101,172.16.1.2,49644,10499,14480,0,65728,65700,6,6,4,1460,685,1,992,83,33580,0,65700,0,0,0,0,0
o,0x00000000,1720562157.641139,172.16.3.2,5101,172.16.1.2,49644,10499,14480,0,65728,65700,6,6,4,1460,685,1,993,83,33580,0,65700,1448,0,0,0,0
i,0x00000000,1720562157.659876,172.16.3.2,5101,172.16.1.2,49644,10499,14480,0,65728,65700,6,6,4,1460,685,1,992,83,33580,0,65700,0,0,0,0,0
i,0x00000000,1720562157.689798,172.16.3.2,5101,172.16.1.2,49644,10499,14480,0,65728,65700,6,6,4,1460,685,1,992,83,33580,0,65700,0,0,0,0,0
o,0x00000000,1720562157.689841,172.16.3.2,5101,172.16.1.2,49644,10499,14480,0,65728,65700,6,6,4,1460,685,1,993,83,33580,0,65700,1448,0,0,0,0
i,0x00000000,1720562157.710143,172.16.3.2,5101,172.16.1.2,49644,10499,14480,0,65728,65700,6,6,4,1460,685,1,992,83,33580,0,65700,0,0,0,0,0
i,0x00000000,1720562157.733772,172.16.3.2,5101,172.16.1.2,49644,10499,14480,0,65728,65700,6,6,4,1460,685,1,992,83,33580,0,65700,0,0,0,0,0
o,0x00000000,1720562157.733806,172.16.3.2,5101,172.16.1.2,49644,10499,14480,0,65728,65700,6,6,4,1460,685,1,993,83,33580,0,65700,1448,0,0,0,0
i,0x00000000,1720562157.739647,172.16.3.2,5101,172.16.1.2,49644,10499,14480,0,65728,65700,6,6,4,1460,685,1,992,83,33580,0,65700,0,0,0,0,0
o,0x00000000,1720562157.778706,172.16.3.2,5101,172.16.1.2,49644,10499,14480,0,65728,65700,6,6,4,1460,685,1,993,83,33580,0,65700,0,0,0,0,0
i,0x00000000,1720562157.992782,172.16.3.2,5101,172.16.1.2,49644,10499,14480,0,65728,65700,6,6,4,1460,685,1,992,83,33580,0,65700,0,0,0,0,0
i,0x00000000,1720562158.000761,172.16.3.2,5101,172.16.1.2,49644,10499,14480,0,65728,65700,6,6,4,1460,685,1,992,83,33580,0,65700,0,0,0,0,0
o,0x00000000,1720562158.000793,172.16.3.2,5101,172.16.1.2,49644,10499,14480,0,65728,65700,6,6,4,1460,685,1,993,83,33580,0,65700,1448,0,0,0,0
i,0x00000000,1720562158.026951,172.16.3.2,5101,172.16.1.2,49644,10499,14480,0,65728,65700,6,6,4,1460,685,1,992,83,33580,0,65700,0,0,0,0,0
i,0x00000000,1720562158.046330,172.16.3.2,5101,172.16.1.2,49644,10499,14480,0,65728,65700,6,6,4,1460,685,1,992,83,33580,0,65700,0,0,0,0,0
o,0x00000000,1720562158.046342,172.16.3.2,5101,172.16.1.2,49644,10499,14480,0,65728,65700,6,6,4,1460,685,1,993,83,33580,0,65700,1448,0,0,0,0
i,0x00000000,1720562158.059538,172.16.3.2,5101,172.16.1.2,49644,10499,14480,0,65728,65700,6,6,4,1460,685,1,992,83,33580,0,65700,0,0,0,0,0
i,0x00000000,1720562158.086907,172.16.3.2,5101,172.16.1.2,49644,10499,14480,0,65728,65700,6,6,4,1460,685,1,992,83,33580,0,65700,0,0,0,0,0
o,0x00000000,1720562158.086921,172.16.3.2,5101,172.16.1.2,49644,10499,14480,0,65728,65700,6,6,4,1460,685,1,993,83,33580,0,65700,1448,0,0,0,0
i,0x00000000,1720562158.087009,172.16.3.2,5101,172.16.1.2,49644,10499,14480,0,65728,65700,6,6,4,1460,685,1,992,83,33580,0,65700,1448,0,0,0,0
i,0x00000000,1720562158.111437,172.16.3.2,5101,172.16.1.2,49644,10499,14480,0,65728,65700,6,6,4,1460,685,1,992,83,33580,0,65700,0,0,0,0,0
o,0x00000000,1720562158.111473,172.16.3.2,5101,172.16.1.2,49644,10499,14480,0,65728,65700,6,6,4,1460,685,1,993,83,33580,0,65700,1448,0,0,0,0
i,0x00000000,1720562158.139520,172.16.3.2,5101,172.16.1.2,49644,10499,14480,0,65728,65700,6,6,4,1460,685,1,992,83,33580,0,65700,0,0,0,0,0
o,0x00000000,1720562158.139892,10.0.2.15,22,10.0.2.2,49435,1073725440,14600,0,65535,65700,0,0,4,1460,1,0,4,24,33580,108,65700,0,0,0,0,0
i,0x00000000,1720562158.142975,10.0.2.15,22,10.0.2.2,49435,1073725440,14600,0,65535,65700,0,0,4,1460,1,0,4,24,33580,108,65700,0,108,0,0,0
i,0x00000000,1720562158.158585,172.16.3.2,5101,172.16.1.2,49644,10499,14480,0,65728,65700,6,6,4,1460,685,1,992,83,33580,0,65700,0,0,0,0,0
o,0x00000000,1720562158.158599,172.16.3.2,5101,172.16.1.2,49644,10499,14480,0,65728,65700,6,6,4,1460,685,1,993,83,33580,0,65700,1448,0,0,0,0
i,0x00000000,1720562158.167069,172.16.3.2,5101,172.16.1.2,49644,10499,14480,0,65728,65700,6,6,4,1460,685,1,992,83,33580,0,65700,0,0,0,0,0
i,0x00000000,1720562158.191187,172.16.3.2,5101,172.16.1.2,49644,10499,14480,0,65728,65700,6,6,4,1460,685,1,992,83,33580,0,65700,0,0,0,0,0
o,0x00000000,1720562158.191199,172.16.3.2,5101,172.16.1.2,49644,10499,14480,0,65728,65700,6,6,4,1460,685,1,993,83,33580,0,65700,1448,0,0,0,0
i,0x00000000,1720562158.191442,172.16.3.2,5101,172.16.1.2,49644,10499,14480,0,65728,65700,6,6,4,1460,685,1,992,83,33580,0,65700,1448,0,0,0,0
i,0x00000000,1720562158.196730,172.16.3.2,5101,172.16.1.2,49644,10499,14480,0,65728,65700,6,6,4,1460,685,1,992,83,33580,0,65700,0,0,0,0,0
o,0x00000000,1720562158.196747,172.16.3.2,5101,172.16.1.2,49644,10499,14480,0,65728,65700,6,6,4,1460,685,1,993,83,33580,0,65700,1448,0,0,0,0
i,0x00000000,1720562158.216740,172.16.3.2,5101,172.16.1.2,49644,10499,14480,0,65728,65700,6,6,4,1460,685,1,992,83,33580,0,65700,0,0,0,0,0
i,0x00000000,1720562158.240550,172.16.3.2,5101,172.16.1.2,49644,10499,14480,0,65728,65700,6,6,4,1460,685,1,992,83,33580,0,65700,0,0,0,0,0
o,0x00000000,1720562158.240598,172.16.3.2,5101,172.16.1.2,49644,10499,14480,0,65728,65700,6,6,4,1460,685,1,993,83,33580,0,65700,1448,0,0,0,0
i,0x00000000,1720562158.242464,172.16.3.2,5101,172.16.1.2,49644,10499,14480,0,65728,65700,6,6,4,1460,685,1,992,83,33580,0,65700,1448,0,0,0,0
i,0x00000000,1720562158.249120,172.16.3.2,5101,172.16.1.2,49644,10499,14480,0,65728,65700,6,6,4,1460,685,1,992,83,33580,0,65700,0,0,0,0,0
o,0x00000000,1720562158.249165,172.16.3.2,5101,172.16.1.2,49644,10499,14480,0,65728,65700,6,6,4,1460,685,1,993,83,33580,0,65700,1448,0,0,0,0
i,0x00000000,1720562158.267654,172.16.3.2,5101,172.16.1.2,49644,10499,14480,0,65728,65700,6,6,4,1460,685,1,992,83,33580,0,65700,0,0,0,0,0
i,0x00000000,1720562158.279854,172.16.3.2,5101,172.16.1.2,49644,10499,14480,0,65728,65700,6,6,4,1460,685,1,992,83,33580,0,65700,0,0,0,0,0
o,0x00000000,1720562158.279866,172.16.3.2,5101,172.16.1.2,49644,10499,14480,0,65728,65700,6,6,4,1460,685,1,993,83,33580,0,65700,1448,0,0,0,0
i,0x00000000,1720562158.287476,172.16.3.2,5101,172.16.1.2,49644,10499,14480,0,65728,65700,6,6,4,1460,685,1,992,83,33580,0,65700,0,0,0,0,0
i,0x00000000,1720562158.296948,172.16.3.2,5101,172.16.1.2,49644,10499,14480,0,65728,65700,6,6,4,1460,685,1,992,83,33580,0,65700,0,0,0,0,0
o,0x00000000,1720562158.296962,172.16.3.2,5101,172.16.1.2,49644,10499,14480,0,65728,65700,6,6,4,1460,685,1,993,83,33580,0,65700,1448,0,0,0,0
i,0x00000000,1720562158.340263,172.16.3.2,5101,172.16.1.2,49644,10499,14480,0,65728,65700,6,6,4,1460,685,1,992,83,33580,0,65700,0,0,0,0,0
i,0x00000000,1720562158.347457,172.16.3.2,5101,172.16.1.2,49644,10499,14480,0,65728,65700,6,6,4,1460,685,1,992,83,33580,0,65700,0,0,0,0,0
o,0x00000000,1720562158.347477,172.16.3.2,5101,172.16.1.2,49644,10499,14480,0,65728,65700,6,6,4,1460,685,1,993,83,33580,0,65700,1448,0,0,0,0
i,0x00000000,1720562158.387278,172.16.3.2,5101,172.16.1.2,49644,10499,14480,0,65728,65700,6,6,4,1460,685,1,992,83,33580,0,65700,0,0,0,0,0
o,0x00000000,1720562158.428663,172.16.3.2,5101,172.16.1.2,49644,10499,14480,0,65728,65700,6,6,4,1460,685,1,993,83,33580,0,65700,0,0,0,0,0
i,0x00000000,1720562158.779509,172.16.3.2,5101,172.16.1.2,49644,10499,14480,0,65728,65700,6,6,4,1460,685,1,992,83,33580,0,65700,0,0,0,0,0
i,0x00000000,1720562158.818602,172.16.3.2,5101,172.16.1.2,49644,10499,14480,0,65728,65700,6,6,4,1460,685,1,992,83,33580,0,65700,0,0,0,0,0
o,0x00000000,1720562158.818653,172.16.3.2,5101,172.16.1.2,49644,10499,14480,0,65728,65700,6,6,4,1460,685,1,993,83,33580,0,65700,1448,0,0,0,0
i,0x00000000,1720562158.858395,172.16.3.2,5101,172.16.1.2,49644,10499,14480,0,65728,65700,6,6,4,1460,685,1,992,83,33580,0,65700,0,0,0,0,0
i,0x00000000,1720562158.878760,172.16.3.2,5101,172.16.1.2,49644,10499,14480,0,65728,65700,6,6,4,1460,685,1,992,83,33580,0,65700,0,0,0,0,0
o,0x00000000,1720562158.878802,172.16.3.2,5101,172.16.1.2,49644,10499,14480,0,65728,65700,6,6,4,1460,685,1,993,83,33580,0,65700,1448,0,0,0,0
i,0x00000000,1720562158.899260,172.16.3.2,5101,172.16.1.2,49644,10499,14480,0,65728,65700,6,6,4,1460,685,1,992,83,33580,0,65700,0,0,0,0,0
o,0x00000000,1720562158.899514,172.16.3.2,5101,172.16.1.2,49644,10499,14480,0,65728,65700,6,6,4,1460,685,1,993,83,33580,0,65700,0,0,0,0,0
i,0x00000000,1720562158.911396,172.16.3.2,5101,172.16.1.2,49644,10499,14480,0,65728,65700,6,6,4,1460,685,1,992,83,33580,0,65700,0,0,0,0,0
o,0x00000000,1720562158.947517,172.16.3.2,5101,172.16.1.2,49644,10499,14480,0,65728,65700,6,6,4,1460,685,1,993,83,33580,0,65700,0,0,0,0,0
i,0x00000000,1720562158.948797,172.16.3.2,5101,172.16.1.2,49644,10499,14480,0,65728,65700,6,6,4,1460,685,1,992,83,33580,0,65700,0,0,0,0,0
i,0x00000000,1720562158.956997,172.16.3.2,5101,172.16.1.2,49644,10499,14480,0,65728,65700,6,6,4,1460,685,1,992,83,33580,0,65700,0,0,0,0,0
o,0x00000000,1720562158.957014,172.16.3.2,5101,172.16.1.2,49644,10499,14480,0,65728,65700,6,6,4,1460,685,1,993,83,33580,0,65700,1448,0,0,0,0
i,0x00000000,1720562158.968048,172.16.3.2,5101,172.16.1.2,49644,10499,14480,0,65728,65700,6,6,4,1460,685,1,992,83,33580,0,65700,0,0,0,0,0
i,0x00000000,1720562158.977883,172.16.3.2,5101,172.16.1.2,49644,10499,14480,0,65728,65700,6,6,4,1460,685,1,992,83,33580,0,65700,0,0,0,0,0
o,0x00000000,1720562158.977909,172.16.3.2,5101,172.16.1.2,49644,10499,14480,0,65728,65700,6,6,4,1460,685,1,993,83,33580,0,65700,1448,0,0,0,0
i,0x00000000,1720562158.988521,172.16.3.2,5101,172.16.1.2,49644,10499,14480,0,65728,65700,6,6,4,1460,685,1,992,83,33580,0,65700,0,0,0,0,0
i,0x00000000,1720562159.009324,172.16.3.2,5101,172.16.1.2,49644,10499,14480,0,65728,65700,6,6,4,1460,685,1,992,83,33580,0,65700,0,0,0,0,0
o,0x00000000,1720562159.009368,172.16.3.2,5101,172.16.1.2,49644,10499,14480,0,65728,65700,6,6,4,1460,685,1,993,83,33580,0,65700,1448,0,0,0,0
i,0x00000000,1720562159.036700,172.16.3.2,5101,172.16.1.2,49644,10499,14480,0,65728,65700,6,6,4,1460,685,1,992,83,33580,0,65700,0,0,0,0,0
i,0x00000000,1720562159.057269,172.16.3.2,5101,172.16.1.2,49644,10499,14480,0,65728,65700,6,6,4,1460,685,1,992,83,33580,0,65700,0,0,0,0,0
o,0x00000000,1720562159.057286,172.16.3.2,5101,172.16.1.2,49644,10499,14480,0,65728,65700,6,6,4,1460,685,1,993,83,33580,0,65700,1448,0,0,0,0
i,0x00000000,1720562159.067648,172.16.3.2,5101,172.16.1.2,49644,10499,14480,0,65728,65700,6,6,4,1460,685,1,992,83,33580,0,65700,0,0,0,0,0
i,0x00000000,1720562159.079392,172.16.3.2,5101,172.16.1.2,49644,10499,14480,0,65728,65700,6,6,4,1460,685,1,992,83,33580,0,65700,0,0,0,0,0
o,0x00000000,1720562159.079415,172.16.3.2,5101,172.16.1.2,49644,10499,14480,0,65728,65700,6,6,4,1460,685,1,993,83,33580,0,65700,1448,0,0,0,0
i,0x00000000,1720562159.089842,172.16.3.2,5101,172.16.1.2,49644,10499,14480,0,65728,65700,6,6,4,1460,685,1,992,83,33580,0,65700,0,0,0,0,0
i,0x00000000,1720562159.109922,172.16.3.2,5101,172.16.1.2,49644,10499,14480,0,65728,65700,6,6,4,1460,685,1,992,83,33580,0,65700,0,0,0,0,0
o,0x00000000,1720562159.109961,172.16.3.2,5101,172.16.1.2,49644,10499,14480,0,65728,65700,6,6,4,1460,685,1,993,83,33580,0,65700,1448,0,0,0,0
i,0x00000000,1720562159.119756,172.16.3.2,5101,172.16.1.2,49644,10499,14480,0,65728,65700,6,6,4,1460,685,1,992,83,33580,0,65700,0,0,0,0,0
i,0x00000000,1720562159.130130,172.16.3.2,5101,172.16.1.2,49644,10499,14480,0,65728,65700,6,6,4,1460,685,1,992,83,33580,0,65700,0,0,0,0,0
o,0x00000000,1720562159.130224,172.16.3.2,5101,172.16.1.2,49644,10499,14480,0,65728,65700,6,6,4,1460,685,1,993,83,33580,0,65700,1448,0,0,0,0
o,0x00000000,1720562159.138362,10.0.2.15,22,10.0.2.2,49435,1073725440,14600,0,65535,65700,0,0,4,1460,1,0,4,24,33580,108,65700,0,0,0,0,0
i,0x00000000,1720562159.143284,172.16.3.2,5101,172.16.1.2,49644,10499,14480,0,65728,65700,6,6,4,1460,685,1,992,83,33580,0,65700,0,0,0,0,0
i,0x00000000,1720562159.144071,10.0.2.15,22,10.0.2.2,49435,1073725440,14600,0,65535,65700,0,0,4,1460,1,0,4,24,33580,108,65700,0,108,0,0,0
i,0x00000000,1720562159.158832,172.16.3.2,5101,172.16.1.2,49644,10499,14480,0,65728,65700,6,6,4,1460,685,1,992,83,33580,0,65700,0,0,0,0,0
o,0x00000000,1720562159.158845,172.16.3.2,5101,172.16.1.2,49644,10499,14480,0,65728,65700,6,6,4,1460,685,1,993,83,33580,0,65700,1448,0,0,0,0
i,0x00000000,1720562159.167260,172.16.3.2,5101,172.16.1.2,49644,10499,14480,0,65728,65700,6,6,4,1460,685,1,992,83,33580,0,65700,0,0,0,0,0
i,0x00000000,1720562159.179380,172.16.3.2,5101,172.16.1.2,49644,10499,14480,0,65728,65700,6,6,4,1460,685,1,992,83,33580,0,65700,0,0,0,0,0
o,0x00000000,1720562159.179408,172.16.3.2,5101,172.16.1.2,49644,10499,14480,0,65728,65700,6,6,4,1460,685,1,993,83,33580,0,65700,1448,0,0,0,0
i,0x00000000,1720562159.188512,172.16.3.2,5101,172.16.1.2,49644,10499,14480,0,65728,65700,6,6,4,1460,685,1,992,83,33580,0,65700,0,0,0,0,0
i,0x00000000,1720562159.212556,172.16.3.2,5101,172.16.1.2,49644,10499,14480,0,65728,65700,6,6,4,1460,685,1,992,83,33580,0,65700,0,0,0,0,0
o,0x00000000,1720562159.212772,172.16.3.2,5101,172.16.1.2,49644,10499,14480,0,65728,65700,6,6,4,1460,685,1,993,83,33580,0,65700,1448,0,0,0,0
i,0x00000000,1720562159.219855,172.16.3.2,5101,172.16.1.2,49644,10499,14480,0,65728,65700,6,6,4,1460,685,1,992,83,33580,0,65700,0,0,0,0,0
i,0x00000000,1720562159.229659,172.16.3.2,5101,172.16.1.2,49644,10499,14480,0,65728,65700,6,6,4,1460,685,1,992,83,33580,0,65700,0,0,0,0,0
o,0x00000000,1720562159.229678,172.16.3.2,5101,172.16.1.2,49644,10499,14480,0,65728,65700,6,6,4,1460,685,1,993,83,33580,0,65700,1448,0,0,0,0
i,0x00000000,1720562159.237498,172.16.3.2,5101,172.16.1.2,49644,10499,14480,0,65728,65700,6,6,4,1460,685,1,992,83,33580,0,65700,0,0,0,0,0
i,0x00000000,1720562159.261234,172.16.3.2,5101,172.16.1.2,49644,10499,14480,0,65728,65700,6,6,4,1460,685,1,992,83,33580,0,65700,0,0,0,0,0
o,0x00000000,1720562159.261303,172.16.3.2,5101,172.16.1.2,49644,10499,14480,0,65728,65700,6,6,4,1460,685,1,993,83,33580,0,65700,1448,0,0,0,0
i,0x00000000,1720562159.269661,172.16.3.2,5101,172.16.1.2,49644,10499,14480,0,65728,65700,6,6,4,1460,685,1,992,83,33580,0,65700,0,0,0,0,0
i,0x00000000,1720562159.281463,172.16.3.2,5101,172.16.1.2,49644,10499,14480,0,65728,65700,6,6,4,1460,685,1,992,83,33580,0,65700,0,0,0,0,0
o,0x00000000,1720562159.281497,172.16.3.2,5101,172.16.1.2,49644,10499,14480,0,65728,65700,6,6,4,1460,685,1,993,83,33580,0,65700,1448,0,0,0,0
i,0x00000000,1720562159.296224,172.16.3.2,5101,172.16.1.2,49644,10499,14480,0,65728,65700,6,6,4,1460,685,1,992,83,33580,0,65700,0,0,0,0,0
i,0x00000000,1720562159.298703,172.16.3.2,5101,172.16.1.2,49644,10499,14480,0,65728,65700,6,6,4,1460,685,1,992,83,33580,0,65700,0,0,0,0,0
o,0x00000000,1720562159.298735,172.16.3.2,5101,172.16.1.2,49644,10499,14480,0,65728,65700,6,6,4,1460,685,1,993,83,33580,0,65700,1448,0,0,0,0
i,0x00000000,1720562159.317944,172.16.3.2,5101,172.16.1.2,49644,10499,14480,0,65728,65700,6,6,4,1460,685,1,992,83,33580,0,65700,0,0,0,0,0
i,0x00000000,1720562159.327259,172.16.3.2,5101,172.16.1.2,49644,10499,14480,0,65728,65700,6,6,4,1460,685,1,992,83,33580,0,65700,0,0,0,0,0
o,0x00000000,1720562159.327269,172.16.3.2,5101,172.16.1.2,49644,10499,14480,0,65728,65700,6,6,4,1460,685,1,993,83,33580,0,65700,1448,0,0,0,0
i,0x00000000,1720562159.338884,172.16.3.2,5101,172.16.1.2,49644,10499,14480,0,65728,65700,6,6,4,1460,685,1,992,83,33580,0,65700,0,0,0,0,0
i,0x00000000,1720562159.357360,172.16.3.2,5101,172.16.1.2,49644,10499,14480,0,65728,65700,6,6,4,1460,685,1,992,83,33580,0,65700,0,0,0,0,0
o,0x00000000,1720562159.357378,172.16.3.2,5101,172.16.1.2,49644,10499,14480,0,65728,65700,6,6,4,1460,685,1,993,83,33580,0,65700,1448,0,0,0,0
i,0x00000000,1720562159.369009,172.16.3.2,5101,172.16.1.2,49644,10499,14480,0,65728,65700,6,6,4,1460,685,1,992,83,33580,0,65700,0,0,0,0,0
i,0x00000000,1720562159.378220,172.16.3.2,5101,172.16.1.2,49644,10499,14480,0,65728,65700,6,6,4,1460,685,1,992,83,33580,0,65700,0,0,0,0,0
o,0x00000000,1720562159.378238,172.16.3.2,5101,172.16.1.2,49644,10499,14480,0,65728,65700,6,6,4,1460,685,1,993,83,33580,0,65700,1448,0,0,0,0
i,0x00000000,1720562159.387452,172.16.3.2,5101,172.16.1.2,49644,10499,14480,0,65728,65700,6,6,4,1460,685,1,992,83,33580,0,65700,0,0,0,0,0
i,0x00000000,1720562159.419393,172.16.3.2,5101,172.16.1.2,49644,10499,14480,0,65728,65700,6,6,4,1460,685,1,992,83,33580,0,65700,0,0,0,0,0
o,0x00000000,1720562159.419406,172.16.3.2,5101,172.16.1.2,49644,10499,14480,0,65728,65700,6,6,4,1460,685,1,993,83,33580,0,65700,1448,0,0,0,0
i,0x00000000,1720562159.427559,172.16.3.2,5101,172.16.1.2,49644,10499,14480,0,65728,65700,6,6,4,1460,685,1,992,83,33580,0,65700,0,0,0,0,0
o,0x00000000,1720562159.467165,172.16.3.2,5101,172.16.1.2,49644,10499,14480,0,65728,65700,6,6,4,1460,685,1,993,83,33580,0,65700,0,0,0,0,0
i,0x00000000,1720562159.503710,172.16.3.2,5101,172.16.1.2,49644,10499,14480,0,65728,65700,6,6,4,1460,685,1,992,83,33580,0,65700,0,0,0,0,0
i,0x00000000,1720562159.508912,172.16.3.2,5101,172.16.1.2,49644,10499,14480,0,65728,65700,6,6,4,1460,685,1,992,83,33580,0,65700,0,0,0,0,0
o,0x00000000,1720562159.508958,172.16.3.2,5101,172.16.1.2,49644,10499,14480,0,65728,65700,6,6,4,1460,685,1,993,83,33580,0,65700,1448,0,0,0,0
i,0x00000000,1720562159.855993,172.16.3.2,5101,172.16.1.2,49644,10499,14480,0,65728,65700,6,6,4,1460,685,1,992,83,33580,0,65700,0,0,0,0,0
o,0x00000000,1720562159.887515,172.16.3.2,5101,172.16.1.2,49644,10499,14480,0,65728,65700,6,6,4,1460,685,1,993,83,33580,0,65700,0,0,0,0,0
i,0x00000000,1720562159.908385,172.16.3.2,5101,172.16.1.2,49644,10499,14480,0,65728,65700,6,6,4,1460,685,1,992,83,33580,0,65700,0,0,0,0,0
i,0x00000000,1720562159.919109,172.16.3.2,5101,172.16.1.2,49644,10499,14480,0,65728,65700,6,6,4,1460,685,1,992,83,33580,0,65700,0,0,0,0,0
o,0x00000000,1720562159.919123,172.16.3.2,5101,172.16.1.2,49644,10499,14480,0,65728,65700,6,6,4,1460,685,1,993,83,33580,0,65700,1448,0,0,0,0
i,0x00000000,1720562159.959878,172.16.3.2,5101,172.16.1.2,49644,10499,14480,0,65728,65700,6,6,4,1460,685,1,992,83,33580,0,65700,0,0,0,0,0
o,0x00000000,1720562159.959947,172.16.3.2,5101,172.16.1.2,49644,10499,14480,0,65728,65700,6,6,4,1460,685,1,993,83,33580,0,65700,0,0,0,0,0
i,0x00000000,1720562159.969369,172.16.3.2,5101,172.16.1.2,49644,10499,14480,0,65728,65700,6,6,4,1460,685,1,992,83,33580,0,65700,0,0,0,0,0
o,0x00000000,1720562160.007914,172.16.3.2,5101,172.16.1.2,49644,10499,14480,0,65728,65700,6,6,4,1460,685,1,993,83,33580,0,65700,0,0,0,0,0
i,0x00000000,1720562160.009850,172.16.3.2,5101,172.16.1.2,49644,10499,14480,0,65728,65700,6,6,4,1460,685,1,992,83,33580,0,65700,0,0,0,0,0
i,0x00000000,1720562160.019806,172.16.3.2,5101,172.16.1.2,49644,10499,14480,0,65728,65700,6,6,4,1460,685,1,992,83,33580,0,65700,0,0,0,0,0
o,0x00000000,1720562160.019822,172.16.3.2,5101,172.16.1.2,49644,10499,14480,0,65728,65700,6,6,4,1460,685,1,993,83,33580,0,65700,1448,0,0,0,0
i,0x00000000,1720562160.064222,172.16.3.2,5101,172.16.1.2,49644,10499,14480,0,65728,65700,6,6,4,1460,685,1,992,83,33580,0,65700,0,0,0,0,0
i,0x00000000,1720562160.074427,172.16.3.2,5101,172.16.1.2,49644,10499,14480,0,65728,65700,6,6,4,1460,685,1,992,83,33580,0,65700,0,0,0,0,0
o,0x00000000,1720562160.074449,172.16.3.2,5101,172.16.1.2,49644,10499,14480,0,65728,65700,6,6,4,1460,685,1,993,83,33580,0,65700,1448,0,0,0,0
i,0x00000000,1720562160.079775,172.16.3.2,5101,172.16.1.2,49644,10499,14480,0,65728,65700,6,6,4,1460,685,1,992,83,33580,0,65700,0,0,0,0,0
i,0x00000000,1720562160.098964,172.16.3.2,5101,172.16.1.2,49644,10499,14480,0,65728,65700,6,6,4,1460,685,1,992,83,33580,0,65700,0,0,0,0,0
o,0x00000000,1720562160.098979,172.16.3.2,5101,172.16.1.2,49644,10499,14480,0,65728,65700,6,6,4,1460,685,1,993,83,33580,0,65700,1448,0,0,0,0
i,0x00000000,1720562160.124354,172.16.3.2,5101,172.16.1.2,49644,10499,14480,0,65728,65700,6,6,4,1460,685,1,992,83,33580,0,65700,0,0,0,0,0
i,0x00000000,1720562160.129845,172.16.3.2,5101,172.16.1.2,49644,10499,14480,0,65728,65700,6,6,4,1460,685,1,992,83,33580,0,65700,0,0,0,0,0
o,0x00000000,1720562160.129879,172.16.3.2,5101,172.16.1.2,49644,10499,14480,0,65728,65700,6,6,4,1460,685,1,993,83,33580,0,65700,1448,0,0,0,0
o,0x00000000,1720562160.138005,10.0.2.15,22,10.0.2.2,49435,1073725440,14600,0,65535,65700,0,0,4,1460,1,0,4,24,33580,108,65700,0,0,0,0,0
i,0x00000000,1720562160.139183,10.0.2.15,22,10.0.2.2,49435,1073725440,14600,0,65535,65700,0,0,4,1460,1,0,4,24,33580,108,65700,0,108,0,0,0
i,0x00000000,1720562160.150934,172.16.3.2,5101,172.16.1.2,49644,10499,14480,0,65728,65700,6,6,4,1460,685,1,992,83,33580,0,65700,0,0,0,0,0
i,0x00000000,1720562160.160556,172.16.3.2,5101,172.16.1.2,49644,10499,14480,0,65728,65700,6,6,4,1460,685,1,992,83,33580,0,65700,0,0,0,0,0
o,0x00000000,1720562160.160579,172.16.3.2,5101,172.16.1.2,49644,10499,14480,0,65728,65700,6,6,4,1460,685,1,993,83,33580,0,65700,1448,0,0,0,0
i,0x00000000,1720562160.167731,172.16.3.2,5101,172.16.1.2,49644,10499,14480,0,65728,65700,6,6,4,1460,685,1,992,83,33580,0,65700,0,0,0,0,0
i,0x00000000,1720562160.179120,172.16.3.2,5101,172.16.1.2,49644,10499,14480,0,65728,65700,6,6,4,1460,685,1,992,83,33580,0,65700,0,0,0,0,0
o,0x00000000,1720562160.179158,172.16.3.2,5101,172.16.1.2,49644,10499,14480,0,65728,65700,6,6,4,1460,685,1,993,83,33580,0,65700,1448,0,0,0,0
i,0x00000000,1720562160.187778,172.16.3.2,5101,172.16.1.2,49644,10499,14480,0,65728,65700,6,6,4,1460,685,1,992,83,33580,0,65700,0,0,0,0,0
i,0x00000000,1720562160.210115,172.16.3.2,5101,172.16.1.2,49644,10499,14480,0,65728,65700,6,6,4,1460,685,1,992,83,33580,0,65700,0,0,0,0,0
o,0x00000000,1720562160.210141,172.16.3.2,5101,172.16.1.2,49644,10499,14480,0,65728,65700,6,6,4,1460,685,1,993,83,33580,0,65700,1448,0,0,0,0
i,0x00000000,1720562160.218381,172.16.3.2,5101,172.16.1.2,49644,10499,14480,0,65728,65700,6,6,4,1460,685,1,992,83,33580,0,65700,0,0,0,0,0
i,0x00000000,1720562160.231780,172.16.3.2,5101,172.16.1.2,49644,10499,14480,0,65728,65700,6,6,4,1460,685,1,992,83,33580,0,65700,0,0,0,0,0
o,0x00000000,1720562160.231832,172.16.3.2,5101,172.16.1.2,49644,10499,14480,0,65728,65700,6,6,4,1460,685,1,993,83,33580,0,65700,1448,0,0,0,0
i,0x00000000,1720562160.239440,172.16.3.2,5101,172.16.1.2,49644,10499,14480,0,65728,65700,6,6,4,1460,685,1,992,83,33580,0,65700,0,0,0,0,0
i,0x00000000,1720562160.260884,172.16.3.2,5101,172.16.1.2,49644,10499,14480,0,65728,65700,6,6,4,1460,685,1,992,83,33580,0,65700,0,0,0,0,0
o,0x00000000,1720562160.260935,172.16.3.2,5101,172.16.1.2,49644,10499,14480,0,65728,65700,6,6,4,1460,685,1,993,83,33580,0,65700,1448,0,0,0,0
i,0x00000000,1720562160.268379,172.16.3.2,5101,172.16.1.2,49644,10499,14480,0,65728,65700,6,6,4,1460,685,1,992,83,33580,0,65700,0,0,0,0,0
i,0x00000000,1720562160.279290,172.16.3.2,5101,172.16.1.2,49644,10499,14480,0,65728,65700,6,6,4,1460,685,1,992,83,33580,0,65700,0,0,0,0,0
o,0x00000000,1720562160.279339,172.16.3.2,5101,172.16.1.2,49644,10499,14480,0,65728,65700,6,6,4,1460,685,1,993,83,33580,0,65700,1448,0,0,0,0
i,0x00000000,1720562160.289079,172.16.3.2,5101,172.16.1.2,49644,10499,14480,0,65728,65700,6,6,4,1460,685,1,992,83,33580,0,65700,0,0,0,0,0
i,0x00000000,1720562160.309548,172.16.3.2,5101,172.16.1.2,49644,10499,14480,0,65728,65700,6,6,4,1460,685,1,992,83,33580,0,65700,0,0,0,0,0
o,0x00000000,1720562160.309587,172.16.3.2,5101,172.16.1.2,49644,10499,14480,0,65728,65700,6,6,4,1460,685,1,993,83,33580,0,65700,1448,0,0,0,0
i,0x00000000,1720562160.318961,172.16.3.2,5101,172.16.1.2,49644,10499,14480,0,65728,65700,6,6,4,1460,685,1,992,83,33580,0,65700,0,0,0,0,0
i,0x00000000,1720562160.330012,172.16.3.2,5101,172.16.1.2,49644,10499,14480,0,65728,65700,6,6,4,1460,685,1,992,83,33580,0,65700,0,0,0,0,0
o,0x00000000,1720562160.330072,172.16.3.2,5101,172.16.1.2,49644,10499,14480,0,65728,65700,6,6,4,1460,685,1,993,83,33580,0,65700,1448,0,0,0,0
i,0x00000000,1720562160.339737,172.16.3.2,5101,172.16.1.2,49644,10499,14480,0,65728,65700,6,6,4,1460,685,1,992,83,33580,0,65700,0,0,0,0,0
i,0x00000000,1720562160.359029,172.16.3.2,5101,172.16.1.2,49644,10499,14480,0,65728,65700,6,6,4,1460,685,1,992,83,33580,0,65700,0,0,0,0,0
o,0x00000000,1720562160.359072,172.16.3.2,5101,172.16.1.2,49644,10499,14480,0,65728,65700,6,6,4,1460,685,1,993,83,33580,0,65700,1448,0,0,0,0
i,0x00000000,1720562160.369565,172.16.3.2,5101,172.16.1.2,49644,10499,14480,0,65728,65700,6,6,4,1460,685,1,992,83,33580,0,65700,0,0,0,0,0
i,0x00000000,1720562160.379949,172.16.3.2,5101,172.16.1.2,49644,10499,14480,0,65728,65700,6,6,4,1460,685,1,992,83,33580,0,65700,0,0,0,0,0
o,0x00000000,1720562160.379983,172.16.3.2,5101,172.16.1.2,49644,10499,14480,0,65728,65700,6,6,4,1460,685,1,993,83,33580,0,65700,1448,0,0,0,0
i,0x00000000,1720562160.390293,172.16.3.2,5101,172.16.1.2,49644,10499,14480,0,65728,65700,6,6,4,1460,685,1,992,83,33580,0,65700,0,0,0,0,0
i,0x00000000,1720562160.410670,172.16.3.2,5101,172.16.1.2,49644,10499,14480,0,65728,65700,6,6,4,1460,685,1,992,83,33580,0,65700,0,0,0,0,0
o,0x00000000,1720562160.410710,172.16.3.2,5101,172.16.1.2,49644,10499,14480,0,65728,65700,6,6,4,1460,685,1,993,83,33580,0,65700,1448,0,0,0,0
i,0x00000000,1720562160.420480,172.16.3.2,5101,172.16.1.2,49644,10499,14480,0,65728,65700,6,6,4,1460,685,1,992,83,33580,0,65700,0,0,0,0,0
i,0x00000000,1720562160.429410,172.16.3.2,5101,172.16.1.2,49644,10499,14480,0,65728,65700,6,6,4,1460,685,1,992,83,33580,0,65700,0,0,0,0,0
o,0x00000000,1720562160.429426,172.16.3.2,5101,172.16.1.2,49644,10499,14480,0,65728,65700,6,6,4,1460,685,1,993,83,33580,0,65700,1448,0,0,0,0
i,0x00000000,1720562160.439439,172.16.3.2,5101,172.16.1.2,49644,10499,14480,0,65728,65700,6,6,4,1460,685,1,992,83,33580,0,65700,0,0,0,0,0
o,0x00000000,1720562160.477402,172.16.3.2,5101,172.16.1.2,49644,10499,14480,0,65728,65700,6,6,4,1460,685,1,993,83,33580,0,65700,0,0,0,0,0
i,0x00000000,1720562160.479588,172.16.3.2,5101,172.16.1.2,49644,10499,14480,0,65728,65700,6,6,4,1460,685,1,992,83,33580,0,65700,0,0,0,0,0
i,0x00000000,1720562160.489278,172.16.3.2,5101,172.16.1.2,49644,10499,14480,0,65728,65700,6,6,4,1460,685,1,992,83,33580,0,65700,0,0,0,0,0
o,0x00000000,1720562160.489294,172.16.3.2,5101,172.16.1.2,49644,10499,14480,0,65728,65700,6,6,4,1460,685,1,993,83,33580,0,65700,1448,0,0,0,0
i,0x00000000,1720562160.521173,172.16.3.2,5101,172.16.1.2,49644,10499,14480,0,65728,65700,6,6,4,1460,685,1,992,83,33580,0,65700,0,0,0,0,0
i,0x00000000,1720562160.552369,172.16.3.2,5101,172.16.1.2,49644,10499,14480,0,65728,65700,6,6,4,1460,685,1,992,83,33580,0,65700,0,0,0,0,0
o,0x00000000,1720562160.552388,172.16.3.2,5101,172.16.1.2,49644,10499,14480,0,65728,65700,6,6,4,1460,685,1,993,83,33580,0,65700,1448,0,0,0,0
i,0x00000000,1720562160.571520,172.16.3.2,5101,172.16.1.2,49644,10499,14480,0,65728,65700,6,6,4,1460,685,1,992,83,33580,0,65700,0,0,0,0,0
i,0x00000000,1720562160.600124,172.16.3.2,5101,172.16.1.2,49644,10499,14480,0,65728,65700,6,6,4,1460,685,1,992,83,33580,0,65700,0,0,0,0,0
o,0x00000000,1720562160.600141,172.16.3.2,5101,172.16.1.2,49644,10499,14480,0,65728,65700,6,6,4,1460,685,1,993,83,33580,0,65700,1448,0,0,0,0
i,0x00000000,1720562160.930042,172.16.3.2,5101,172.16.1.2,49644,10499,14480,0,65728,65700,6,6,4,1460,685,1,992,83,33580,0,65700,0,0,0,0,0
i,0x00000000,1720562160.938542,172.16.3.2,5101,172.16.1.2,49644,10499,14480,0,65728,65700,6,6,4,1460,685,1,992,83,33580,0,65700,0,0,0,0,0
o,0x00000000,1720562160.938565,172.16.3.2,5101,172.16.1.2,49644,10499,14480,0,65728,65700,6,6,4,1460,685,1,993,83,33580,0,65700,1448,0,0,0,0
i,0x00000000,1720562160.998965,172.16.3.2,5101,172.16.1.2,49644,10499,14480,0,65728,65700,6,6,4,1460,685,1,992,83,33580,0,65700,0,0,0,0,0
i,0x00000000,1720562161.008744,172.16.3.2,5101,172.16.1.2,49644,10499,14480,0,65728,65700,6,6,4,1460,685,1,992,83,33580,0,65700,0,0,0,0,0
o,0x00000000,1720562161.008764,172.16.3.2,5101,172.16.1.2,49644,10499,14480,0,65728,65700,6,6,4,1460,685,1,993,83,33580,0,65700,1448,0,0,0,0
i,0x00000000,1720562161.019694,172.16.3.2,5101,172.16.1.2,49644,10499,14480,0,65728,65700,6,6,4,1460,685,1,992,83,33580,0,65700,0,0,0,0,0
o,0x00000000,1720562161.057141,172.16.3.2,5101,172.16.1.2,49644,10499,14480,0,65728,65700,6,6,4,1460,685,1,993,83,33580,0,65700,0,0,0,0,0
i,0x00000000,1720562161.069392,172.16.3.2,5101,172.16.1.2,49644,10499,14480,0,65728,65700,6,6,4,1460,685,1,992,83,33580,0,65700,0,0,0,0,0
i,0x00000000,1720562161.091574,172.16.3.2,5101,172.16.1.2,49644,10499,14480,0,65728,65700,6,6,4,1460,685,1,992,83,33580,0,65700,0,0,0,0,0
o,0x00000000,1720562161.091599,172.16.3.2,5101,172.16.1.2,49644,10499,14480,0,65728,65700,6,6,4,1460,685,1,993,83,33580,0,65700,1448,0,0,0,0
i,0x00000000,1720562161.100954,172.16.3.2,5101,172.16.1.2,49644,10499,14480,0,65728,65700,6,6,4,1460,685,1,992,83,33580,0,65700,0,0,0,0,0
i,0x00000000,1720562161.131051,172.16.3.2,5101,172.16.1.2,49644,10499,14480,0,65728,65700,6,6,4,1460,685,1,992,83,33580,0,65700,0,0,0,0,0
