enable_time_secs=1720562354	enable_time_usecs=383913	siftrver=1.2.4	hz=100	tcp_rtt_scale=32	sysname=FreeBSD	sysver=1301000	ipmode=4
o,0x00000000,1720562354.383944,10.0.2.15,22,10.0.2.2,56346,1073725440,17770,0,65535,65700,0,0,4,1460,1,0,4,24,33580,44,65700,0,0,0,0,0
o,0x00000000,1720562354.384066,10.0.2.15,22,10.0.2.2,56346,1073725440,17770,0,65535,65700,0,0,4,1460,1,0,4,24,33580,80,65700,0,44,0,0,0
i,0x00000000,1720562354.384794,10.0.2.15,22,10.0.2.2,56346,1073725440,17770,0,65535,65700,0,0,4,1460,1,0,4,24,33580,80,65700,0,80,0,0,0
i,0x00000000,1720562354.384798,10.0.2.15,22,10.0.2.2,56346,1073725440,17814,0,65535,65700,0,0,4,1460,1,0,4,24,33580,36,65700,0,36,0,0,0
o,0x00000000,1720562354.384913,10.0.2.15,22,10.0.2.2,56346,1073725440,17850,0,65535,65700,0,0,4,1460,1,0,4,24,33580,36,65700,0,0,0,0,0
i,0x00000000,1720562354.385680,10.0.2.15,22,10.0.2.2,56346,1073725440,17850,0,65535,65700,0,0,4,1460,1,0,4,24,33580,36,65700,0,36,0,0,0
o,0x00000000,1720562354.386328,10.0.2.15,22,10.0.2.2,56346,1073725440,17886,0,65535,65700,0,0,4,1460,1,0,4,24,33580,176,65700,0,0,0,0,0
i,0x00000000,1720562354.387642,10.0.2.15,22,10.0.2.2,56346,1073725440,17886,0,65535,65700,0,0,4,1460,1,0,4,24,33580,176,65700,0,176,0,0,0
i,0x00000000,1720562354.387647,10.0.2.15,22,10.0.2.2,56346,1073725440,18062,0,65535,65700,0,0,4,1460,1,0,4,24,33580,0,65700,0,0,0,0,0
i,0x00000000,1720562354.387648,10.0.2.15,22,10.0.2.2,56346,1073725440,18062,0,65535,65700,0,0,4,1460,1,0,4,24,33580,0,65700,96,0,0,0,0
o,0x00000000,1720562354.387652,10.0.2.15,22,10.0.2.2,56346,1073725440,18062,0,65535,65604,0,0,5,1460,1,0,5,24,33580,0,65700,96,0,0,0,0
o,0x00000000,1720562354.388065,10.0.2.15,22,10.0.2.2,56346,1073725440,18062,0,65535,65604,0,0,8,1460,1,0,4,24,33580,0,65700,0,0,0,0,0
i,0x00000000,1720562354.388882,10.0.2.15,22,10.0.2.2,56346,1073725440,18062,0,65535,65604,0,0,8,1460,1,0,20,24,33580,0,65700,0,1,0,0,0
i,0x00000000,1720562356.566194,10.0.2.15,22,10.0.2.2,56348,1073725440,14600,0,65535,65700,0,0,4,1460,1,0,0,27,33580,0,65700,0,0,0,0,0
o,0x00000000,1720562356.584191,10.0.2.15,22,10.0.2.2,56348,1073725440,14600,0,65535,65700,0,0,4,1460,1,0,0,27,33580,38,65700,42,0,0,0,0
i,0x00000000,1720562356.585570,10.0.2.15,22,10.0.2.2,56348,1073725440,14600,0,65535,65700,0,0,4,1460,1,0,0,27,33580,38,65700,42,38,0,0,0
i,0x00000000,1720562356.585576,10.0.2.15,22,10.0.2.2,56348,1073725440,14638,0,65535,65700,0,0,4,1460,1,0,0,24,33580,0,65700,42,0,0,0,0
i,0x00000000,1720562356.585578,10.0.2.15,22,10.0.2.2,56348,1073725440,14638,0,65535,65700,0,0,4,1460,1,0,0,24,33580,0,65700,1502,0,0,0,0
o,0x00000000,1720562356.585581,10.0.2.15,22,10.0.2.2,56348,1073725440,14638,0,65535,65700,0,0,4,1460,1,0,1,24,33580,0,65700,1578,0,0,0,0
o,0x00000000,1720562356.588173,10.0.2.15,22,10.0.2.2,56348,1073725440,14638,0,65535,65700,0,0,4,1460,1,0,0,24,33580,1056,65700,1536,0,0,0,0
i,0x00000000,1720562356.589060,10.0.2.15,22,10.0.2.2,56348,1073725440,14638,0,65535,65700,0,0,4,1460,1,0,0,24,33580,1056,65700,1536,1056,0,0,0
i,0x00000000,1720562356.590091,10.0.2.15,22,10.0.2.2,56348,1073725440,15694,0,65535,65700,0,0,4,1460,1,0,0,24,33580,0,65700,0,0,0,0,0
o,0x00000000,1720562356.594017,10.0.2.15,22,10.0.2.2,56348,1073725440,15694,0,65535,65700,0,0,4,1460,1,0,0,24,33580,484,65700,0,0,0,0,0
i,0x00000000,1720562356.595466,10.0.2.15,22,10.0.2.2,56348,1073725440,15694,0,65535,65700,0,0,4,1460,1,0,0,24,33580,484,65700,0,484,0,0,0
i,0x00000000,1720562356.605733,10.0.2.15,22,10.0.2.2,56348,1073725440,16178,0,65535,65700,0,0,4,1460,1,0,0,24,33580,0,65700,0,0,0,0,0
i,0x00000000,1720562356.605754,10.0.2.15,22,10.0.2.2,56348,1073725440,16178,0,65535,65700,0,0,4,1460,1,0,0,24,33580,0,65700,16,0,0,0,0
o,0x00000000,1720562356.605766,10.0.2.15,22,10.0.2.2,56348,1073725440,16178,0,65535,65700,0,0,4,1460,1,0,1,24,33580,0,65700,60,0,0,0,0
o,0x00000000,1720562356.607488,10.0.2.15,22,10.0.2.2,56348,1073725440,16178,0,65535,65700,0,0,4,1460,1,0,0,24,33580,44,65700,0,0,0,0,0
i,0x00000000,1720562356.611322,10.0.2.15,22,10.0.2.2,56348,1073725440,16178,0,65535,65700,0,0,4,1460,1,0,0,24,33580,44,65700,0,44,0,0,0
i,0x00000000,1720562356.611358,10.0.2.15,22,10.0.2.2,56348,1073725440,16222,0,65535,65700,0,0,4,1460,1,0,0,24,33580,0,65700,0,0,0,0,0
o,0x00000000,1720562356.630357,10.0.2.15,22,10.0.2.2,56348,1073725440,16222,0,65535,65700,0,0,4,1460,1,0,0,24,33580,68,65700,0,0,0,0,0
i,0x00000000,1720562356.633525,10.0.2.15,22,10.0.2.2,56348,1073725440,16222,0,65535,65700,0,0,4,1460,1,0,0,24,33580,68,65700,0,68,0,0,0
i,0x00000000,1720562356.633539,10.0.2.15,22,10.0.2.2,56348,1073725440,16290,0,65535,65700,0,0,4,1460,1,0,0,24,33580,0,65700,0,0,0,0,0
o,0x00000000,1720562356.634221,10.0.2.15,22,10.0.2.2,56348,1073725440,16290,0,65535,65700,0,0,4,1460,1,0,0,24,33580,332,65700,0,0,0,0,0
i,0x00000000,1720562356.637349,10.0.2.15,22,10.0.2.2,56348,1073725440,16290,0,65535,65700,0,0,4,1460,1,0,0,24,33580,332,65700,0,332,0,0,0
i,0x00000000,1720562356.641480,10.0.2.15,22,10.0.2.2,56348,1073725440,16622,0,65535,65700,0,0,4,1460,1,0,0,24,33580,0,65700,0,0,0,0,0
o,0x00000000,1720562356.655056,10.0.2.15,22,10.0.2.2,56348,1073725440,16622,0,65535,65700,0,0,4,1460,1,0,0,24,33580,28,65700,0,0,0,0,0
i,0x00000000,1720562356.659676,10.0.2.15,22,10.0.2.2,56348,1073725440,16622,0,65535,65700,0,0,4,1460,1,0,0,24,33580,28,65700,0,28,0,0,0
i,0x00000000,1720562356.659699,10.0.2.15,22,10.0.2.2,56348,1073725440,16650,0,65535,65700,0,0,4,1460,1,0,0,23,33580,0,65700,0,0,0,0,0
o,0x00000000,1720562356.663232,10.0.2.15,22,10.0.2.2,56348,1073725440,16650,0,65535,65700,0,0,4,1460,1,0,0,23,33580,768,65700,112,0,0,0,0
i,0x00000000,1720562356.665320,10.0.2.15,22,10.0.2.2,56348,1073725440,16650,0,65535,65700,0,0,4,1460,1,0,0,23,33580,768,65700,112,768,0,0,0
o,0x00000000,1720562356.665620,10.0.2.15,22,10.0.2.2,56348,1073725440,17418,0,65535,65700,0,0,4,1460,1,0,0,23,33580,140,65700,112,0,0,0,0
i,0x00000000,1720562356.667719,10.0.2.15,22,10.0.2.2,56348,1073725440,17418,0,65535,65700,0,0,4,1460,1,0,0,23,33580,140,65700,112,140,0,0,0
o,0x00000000,1720562356.668173,10.0.2.15,22,10.0.2.2,56348,1073725440,17558,0,65535,65700,0,0,4,1460,1,0,0,23,33580,44,65700,0,0,0,0,0
i,0x00000000,1720562356.670252,10.0.2.15,22,10.0.2.2,56348,1073725440,17558,0,65535,65700,0,0,4,1460,1,0,0,23,33580,44,65700,0,44,0,0,0
i,0x00000000,1720562356.670265,10.0.2.15,22,10.0.2.2,56348,1073725440,17602,0,65535,65700,0,0,4,1460,1,0,0,23,33580,0,65700,0,0,0,0,0
o,0x00000000,1720562356.670762,10.0.2.15,22,10.0.2.2,56348,1073725440,17602,0,65535,65700,0,0,4,1460,1,0,4,23,33580,72,65700,0,0,0,0,0
i,0x00000000,1720562356.671999,10.0.2.15,22,10.0.2.2,56348,1073725440,17602,0,65535,65700,0,0,4,1460,1,0,4,23,33580,72,65700,0,72,0,0,0
o,0x00000000,1720562356.687709,10.0.2.15,22,10.0.2.2,56348,1073725440,17674,0,65535,65700,0,0,4,1460,1,0,4,24,33580,44,65700,0,0,0,0,0
i,0x00000000,1720562356.688490,10.0.2.15,22,10.0.2.2,56348,1073725440,17674,0,65535,65700,0,0,4,1460,1,0,4,24,33580,44,65700,0,44,0,0,0
o,0x00000000,1720562356.688845,10.0.2.15,22,10.0.2.2,56348,1073725440,17718,0,65535,65700,0,0,4,1460,1,0,4,24,33580,104,65700,0,0,0,0,0
i,0x00000000,1720562356.689521,10.0.2.15,22,10.0.2.2,56348,1073725440,17718,0,65535,65700,0,0,4,1460,1,0,4,24,33580,104,65700,0,104,0,0,0
o,0x00000000,1720562356.689643,10.0.2.15,22,10.0.2.2,56348,1073725440,17822,0,65535,65700,0,0,4,1460,1,0,4,24,33580,44,65700,0,0,0,0,0
i,0x00000000,1720562356.690550,10.0.2.15,22,10.0.2.2,56348,1073725440,17822,0,65535,65700,0,0,4,1460,1,0,4,24,33580,44,65700,0,44,0,0,0
o,0x00000000,1720562356.695165,10.0.2.15,22,10.0.2.2,56348,1073725440,17866,0,65535,65700,0,0,4,1460,1,0,4,24,33580,72,65700,0,0,0,0,0
i,0x00000000,1720562356.696479,10.0.2.15,22,10.0.2.2,56348,1073725440,17866,0,65535,65700,0,0,4,1460,1,0,4,24,33580,72,65700,0,72,0,0,0
i,0x00000000,1720562356.696489,10.0.2.15,22,10.0.2.2,56348,1073725440,17938,0,65535,65700,0,0,4,1460,1,0,4,24,33580,0,65700,0,0,0,0,0
i,0x00000000,1720562356.696491,10.0.2.15,22,10.0.2.2,56348,1073725440,17938,0,65535,65700,0,0,4,1460,1,0,4,24,33580,0,65700,96,0,0,0,0
o,0x00000000,1720562356.696494,10.0.2.15,22,10.0.2.2,56348,1073725440,17938,0,65535,65604,0,0,5,1460,1,0,5,24,33580,0,65700,96,0,0,0,0
o,0x00000000,1720562356.700776,10.0.2.15,22,10.0.2.2,56348,1073725440,17938,0,65535,65604,0,0,8,1460,1,0,4,24,33580,0,65700,0,0,0,0,0
i,0x00000000,1720562356.701579,10.0.2.15,22,10.0.2.2,56348,1073725440,17938,0,65535,65604,0,0,8,1460,1,0,20,24,33580,0,65700,0,1,0,0,0
i,0x00000000,1720562356.956342,172.16.3.2,5101,172.16.1.2,61933,10499,14480,0,65728,65700,6,6,4,1460,560,1,992,58,33580,0,65700,0,0,0,0,0
o,0x00000000,1720562356.957622,172.16.3.2,5101,172.16.1.2,61933,10499,14480,0,65728,65700,6,6,4,1460,560,1,996,58,33580,1,65700,0,0,0,0,0
i,0x00000000,1720562357.090862,172.16.3.2,5101,172.16.1.2,61933,10499,14480,0,65728,65700,6,6,4,1460,560,1,996,58,33580,1,65700,0,1,0,0,0
i,0x00000000,1720562357.090900,172.16.3.2,5101,172.16.1.2,61933,10499,14480,0,65728,65728,6,6,4,1460,542,1,996,57,33580,0,65700,4,0,0,0,0
o,0x00000000,1720562357.090920,172.16.3.2,5101,172.16.1.2,61933,10499,14480,0,65728,65728,6,6,4,1460,542,1,997,57,33580,0,65700,128,0,0,0,0
o,0x00000000,1720562357.093426,172.16.3.2,5101,172.16.1.2,61933,10499,14480,0,65728,65728,6,6,4,1460,542,1,996,57,33580,1,65700,0,0,0,0,0
o,0x00000000,1720562357.094216,10.0.2.15,22,10.0.2.2,49435,1073725440,14600,0,65535,65700,0,0,4,1460,1,0,4,24,33580,84,65700,0,0,0,0,0
i,0x00000000,1720562357.095561,10.0.2.15,22,10.0.2.2,49435,1073725440,14600,0,65535,65700,0,0,4,1460,1,0,4,24,33580,84,65700,0,84,0,0,0
i,0x00000000,1720562357.242992,172.16.3.2,5101,172.16.1.2,61933,10499,14480,0,65728,65728,6,6,4,1460,542,1,996,57,33580,1,65700,0,1,0,0,0
i,0x00000000,1720562357.336018,172.16.3.2,5101,172.16.1.2,56415,10499,14480,0,65728,65700,6,6,4,1460,556,1,992,59,33580,0,65700,0,0,0,0,0
o,0x00000000,1720562357.341018,172.16.3.2,5101,172.16.1.2,61933,10499,14480,0,65728,65728,6,6,4,1460,535,1,996,53,33580,1,65700,0,0,0,0,0
o,0x00000000,1720562357.341132,172.16.3.2,5101,172.16.1.2,61933,10499,14480,0,65728,65728,6,6,4,1460,535,1,996,53,33580,2,65700,0,1,0,0,0
o,0x00000000,1720562357.342070,10.0.2.15,22,10.0.2.2,49435,1073725440,14600,0,65535,65700,0,0,4,1460,1,0,4,24,33580,108,65700,0,0,0,0,0
i,0x00000000,1720562357.344171,10.0.2.15,22,10.0.2.2,49435,1073725440,14600,0,65535,65700,0,0,4,1460,1,0,4,24,33580,108,65700,0,108,0,0,0
o,0x00000000,1720562357.367682,172.16.3.2,5101,172.16.1.2,56415,10499,14480,0,65728,65700,6,6,4,1460,556,1,993,59,33580,0,65700,0,0,0,0,0
i,0x00000000,1720562357.469636,172.16.3.2,5101,172.16.1.2,61933,10499,14480,0,65728,65728,6,6,4,1460,535,1,996,53,33580,2,65700,0,2,0,0,0
i,0x00000000,1720562357.575517,172.16.3.2,5101,172.16.1.2,56415,10499,14480,0,65728,65700,6,6,4,1460,556,1,992,59,33580,0,65700,0,0,0,0,0
o,0x00000000,1720562357.575538,172.16.3.2,5101,172.16.1.2,56415,10499,14480,0,65728,65728,6,6,4,1460,556,1,993,59,33580,0,65700,0,0,1,0,0
i,0x00000000,1720562357.584180,172.16.3.2,5101,172.16.1.2,56415,10499,14480,0,65728,65728,6,6,4,1460,556,1,992,59,33580,0,65700,0,0,1,0,0
o,0x00000000,1720562357.584203,172.16.3.2,5101,172.16.1.2,56415,10499,14480,0,65728,65728,6,6,4,1460,556,1,993,59,33580,0,65700,0,0,1,0,0
i,0x00000000,1720562357.593500,172.16.3.2,5101,172.16.1.2,56415,10499,14480,0,65728,65728,6,6,4,1460,556,1,992,59,33580,0,65700,0,0,1,0,0
o,0x00000000,1720562357.593526,172.16.3.2,5101,172.16.1.2,56415,10499,14480,0,65728,65728,6,6,4,1460,556,1,993,59,33580,0,65700,0,0,1,0,0
i,0x00000000,1720562357.603223,172.16.3.2,5101,172.16.1.2,56415,10499,14480,0,65728,65728,6,6,4,1460,556,1,992,59,33580,0,65700,0,0,1,0,0
o,0x00000000,1720562357.603249,172.16.3.2,5101,172.16.1.2,56415,10499,14480,0,65728,65728,6,6,4,1460,556,1,993,59,33580,0,65700,0,0,1,0,0
i,0x00000000,1720562357.625375,172.16.3.2,5101,172.16.1.2,56415,10499,14480,0,65728,65728,6,6,4,1460,556,1,992,59,33580,0,65700,0,0,1,0,0
o,0x00000000,1720562357.625403,172.16.3.2,5101,172.16.1.2,56415,10499,14480,0,65728,65728,6,6,4,1460,556,1,993,59,33580,0,65700,0,0,1,0,0
i,0x00000000,1720562357.635788,172.16.3.2,5101,172.16.1.2,56415,10499,14480,0,65728,65728,6,6,4,1460,556,1,992,59,33580,0,65700,0,0,1,0,0
o,0x00000000,1720562357.635818,172.16.3.2,5101,172.16.1.2,56415,10499,14480,0,65728,65728,6,6,4,1460,556,1,993,59,33580,0,65700,0,0,1,0,0
i,0x00000000,1720562357.645831,172.16.3.2,5101,172.16.1.2,56415,10499,14480,0,65728,65728,6,6,4,1460,556,1,992,59,33580,0,65700,0,0,1,0,0
o,0x00000000,1720562357.645865,172.16.3.2,5101,172.16.1.2,56415,10499,14480,0,65728,65728,6,6,4,1460,556,1,993,59,33580,0,65700,0,0,1,0,0
i,0x00000000,1720562357.654812,172.16.3.2,5101,172.16.1.2,56415,10499,14480,0,65728,65728,6,6,4,1460,556,1,992,59,33580,0,65700,0,0,1,0,0
o,0x00000000,1720562357.654858,172.16.3.2,5101,172.16.1.2,56415,10499,14480,0,65728,65728,6,6,4,1460,556,1,993,59,33580,0,65700,0,0,1,0,0
i,0x00000000,1720562357.673457,172.16.3.2,5101,172.16.1.2,56415,10499,14480,0,65728,65728,6,6,4,1460,556,1,992,59,33580,0,65700,0,0,1,0,0
o,0x00000000,1720562357.673475,172.16.3.2,5101,172.16.1.2,56415,10499,14480,0,65728,65728,6,6,4,1460,556,1,993,59,33580,0,65700,0,0,1,0,0
i,0x00000000,1720562357.725165,172.16.3.2,5101,172.16.1.2,56415,10499,14480,0,65728,65728,6,6,4,1460,556,1,992,59,33580,0,65700,0,0,1,0,0
o,0x00000000,1720562357.725199,172.16.3.2,5101,172.16.1.2,56415,10499,14480,0,65728,65728,6,6,4,1460,556,1,993,59,33580,0,65700,0,0,1,0,0
i,0x00000000,1720562357.734813,172.16.3.2,5101,172.16.1.2,56415,10499,14480,0,65728,65728,6,6,4,1460,556,1,992,59,33580,0,65700,0,0,1,0,0
o,0x00000000,1720562357.734840,172.16.3.2,5101,172.16.1.2,56415,10499,14480,0,65728,65728,6,6,4,1460,556,1,993,59,33580,0,65700,0,0,1,0,0
i,0x00000000,1720562357.767651,172.16.3.2,5101,172.16.1.2,56415,10499,14480,0,65728,65728,6,6,4,1460,556,1,992,59,33580,0,65700,0,0,1,0,0
o,0x00000000,1720562357.767683,172.16.3.2,5101,172.16.1.2,56415,10499,14480,0,65728,65728,6,6,4,1460,556,1,993,59,33580,0,65700,17376,0,0,0,0
o,0x00000000,1720562357.768224,172.16.3.2,5101,172.16.1.2,56415,10499,14480,0,65728,65728,6,6,4,1460,556,1,992,59,33580,0,65700,0,0,0,0,0
i,0x00000000,1720562357.785275,172.16.3.2,5101,172.16.1.2,56415,10499,14480,0,65728,65728,6,6,4,1460,556,1,992,59,33580,0,65700,0,0,0,0,0
i,0x00000000,1720562357.815821,172.16.3.2,5101,172.16.1.2,56415,10499,14480,0,65728,65728,6,6,4,1460,556,1,992,59,33580,0,65700,0,0,0,0,0
o,0x00000000,1720562357.815872,172.16.3.2,5101,172.16.1.2,56415,10499,14480,0,65728,65728,6,6,4,1460,556,1,993,59,33580,0,65700,1448,0,0,0,0
i,0x00000000,1720562357.867003,172.16.3.2,5101,172.16.1.2,56415,10499,14480,0,65728,65728,6,6,4,1460,556,1,992,59,33580,0,65700,0,0,0,0,0
i,0x00000000,1720562357.896098,172.16.3.2,5101,172.16.1.2,56415,10499,14480,0,65728,65728,6,6,4,1460,556,1,992,59,33580,0,65700,0,0,0,0,0
o,0x00000000,1720562357.896132,172.16.3.2,5101,172.16.1.2,56415,10499,14480,0,65728,65728,6,6,4,1460,556,1,993,59,33580,0,65700,1448,0,0,0,0
i,0x00000000,1720562357.915147,172.16.3.2,5101,172.16.1.2,56415,10499,14480,0,65728,65728,6,6,4,1460,556,1,992,59,33580,0,65700,0,0,0,0,0
i,0x00000000,1720562357.945749,172.16.3.2,5101,172.16.1.2,56415,10499,14480,0,65728,65728,6,6,4,1460,556,1,992,59,33580,0,65700,0,0,0,0,0
o,0x00000000,1720562357.945799,172.16.3.2,5101,172.16.1.2,56415,10499,14480,0,65728,65728,6,6,4,1460,556,1,993,59,33580,0,65700,1448,0,0,0,0
i,0x00000000,1720562357.955062,172.16.3.2,5101,172.16.1.2,56415,10499,14480,0,65728,65728,6,6,4,1460,556,1,992,59,33580,0,65700,0,0,0,0,0
i,0x00000000,1720562357.974674,172.16.3.2,5101,172.16.1.2,56415,10499,14480,0,65728,65728,6,6,4,1460,556,1,992,59,33580,0,65700,0,0,0,0,0
o,0x00000000,1720562357.974716,172.16.3.2,5101,172.16.1.2,56415,10499,14480,0,65728,65728,6,6,4,1460,556,1,993,59,33580,0,65700,1448,0,0,0,0
i,0x00000000,1720562358.036027,172.16.3.2,5101,172.16.1.2,56415,10499,14480,0,65728,65728,6,6,4,1460,556,1,992,59,33580,0,65700,0,0,0,0,0
i,0x00000000,1720562358.048159,172.16.3.2,5101,172.16.1.2,56415,10499,14480,0,65728,65728,6,6,4,1460,556,1,992,59,33580,0,65700,0,0,0,0,0
o,0x00000000,1720562358.048195,172.16.3.2,5101,172.16.1.2,56415,10499,14480,0,65728,65728,6,6,4,1460,556,1,993,59,33580,0,65700,1448,0,0,0,0
i,0x00000000,1720562358.104820,172.16.3.2,5101,172.16.1.2,56415,10499,14480,0,65728,65728,6,6,4,1460,556,1,992,59,33580,0,65700,0,0,0,0,0
i,0x00000000,1720562358.115673,172.16.3.2,5101,172.16.1.2,56415,10499,14480,0,65728,65728,6,6,4,1460,556,1,992,59,33580,0,65700,0,0,0,0,0
o,0x00000000,1720562358.115691,172.16.3.2,5101,172.16.1.2,56415,10499,14480,0,65728,65728,6,6,4,1460,556,1,993,59,33580,0,65700,1448,0,0,0,0
i,0x00000000,1720562358.138541,172.16.3.2,5101,172.16.1.2,56415,10499,14480,0,65728,65728,6,6,4,1460,556,1,992,59,33580,0,65700,0,0,0,0,0
i,0x00000000,1720562358.143054,172.16.3.2,5101,172.16.1.2,56415,10499,14480,0,65728,65728,6,6,4,1460,556,1,992,59,33580,0,65700,0,0,0,0,0
o,0x00000000,1720562358.143070,172.16.3.2,5101,172.16.1.2,56415,10499,14480,0,65728,65728,6,6,4,1460,556,1,993,59,33580,0,65700,1448,0,0,0,0
i,0x00000000,1720562358.152565,172.16.3.2,5101,172.16.1.2,56415,10499,14480,0,65728,65728,6,6,4,1460,556,1,992,59,33580,0,65700,0,0,0,0,0
o,0x00000000,1720562358.187955,172.16.3.2,5101,172.16.1.2,56415,10499,14480,0,65728,65728,6,6,4,1460,556,1,993,59,33580,0,65700,0,0,0,0,0
i,0x00000000,1720562358.195018,172.16.3.2,5101,172.16.1.2,56415,10499,14480,0,65728,65728,6,6,4,1460,556,1,992,59,33580,0,65700,0,0,0,0,0
i,0x00000000,1720562358.206795,172.16.3.2,5101,172.16.1.2,56415,10499,14480,0,65728,65728,6,6,4,1460,556,1,992,59,33580,0,65700,0,0,0,0,0
o,0x00000000,1720562358.206849,172.16.3.2,5101,172.16.1.2,56415,10499,14480,0,65728,65728,6,6,4,1460,556,1,993,59,33580,0,65700,1448,0,0,0,0
i,0x00000000,1720562358.284741,172.16.3.2,5101,172.16.1.2,56415,10499,14480,0,65728,65728,6,6,4,1460,556,1,992,59,33580,0,65700,0,0,0,0,0
i,0x00000000,1720562358.296728,172.16.3.2,5101,172.16.1.2,56415,10499,14480,0,65728,65728,6,6,4,1460,556,1,992,59,33580,0,65700,0,0,0,0,0
o,0x00000000,1720562358.296763,172.16.3.2,5101,172.16.1.2,56415,10499,14480,0,65728,65728,6,6,4,1460,556,1,993,59,33580,0,65700,1448,0,0,0,0
i,0x00000000,1720562358.307135,172.16.3.2,5101,172.16.1.2,56415,10499,14480,0,65728,65728,6,6,4,1460,556,1,992,59,33580,0,65700,0,0,0,0,0
i,0x00000000,1720562358.316011,172.16.3.2,5101,172.16.1.2,56415,10499,14480,0,65728,65728,6,6,4,1460,556,1,992,59,33580,0,65700,0,0,0,0,0
o,0x00000000,1720562358.316063,172.16.3.2,5101,172.16.1.2,56415,10499,14480,0,65728,65728,6,6,4,1460,556,1,993,59,33580,0,65700,1448,0,0,0,0
i,0x00000000,1720562358.348384,172.16.3.2,5101,172.16.1.2,56415,10499,14480,0,65728,65728,6,6,4,1460,556,1,992,59,33580,0,65700,0,0,0,0,0
o,0x00000000,1720562358.348890,10.0.2.15,22,10.0.2.2,49435,1073725440,14600,0,65535,65700,0,0,4,1460,1,0,4,24,33580,156,65700,0,0,0,0,0
i,0x00000000,1720562358.352530,10.0.2.15,22,10.0.2.2,49435,1073725440,14600,0,65535,65700,0,0,4,1460,1,0,4,24,33580,156,65700,0,156,0,0,0
i,0x00000000,1720562358.385519,172.16.3.2,5101,172.16.1.2,56415,10499,14480,0,65728,65728,6,6,4,1460,556,1,992,59,33580,0,65700,0,0,0,0,0
o,0x00000000,1720562358.385535,172.16.3.2,5101,172.16.1.2,56415,10499,14480,0,65728,65728,6,6,4,1460,556,1,993,59,33580,0,65700,1448,0,0,0,0
i,0x00000000,1720562358.385865,172.16.3.2,5101,172.16.1.2,56415,10499,14480,0,65728,65728,6,6,4,1460,556,1,992,59,33580,0,65700,1448,0,0,0,0
o,0x00000000,1720562358.417778,172.16.3.2,5101,172.16.1.2,56415,10499,14480,0,65728,65728,6,6,4,1460,556,1,993,59,33580,0,65700,0,0,0,0,0
i,0x00000000,1720562358.422845,172.16.3.2,5101,172.16.1.2,56415,10499,14480,0,65728,65728,6,6,4,1460,556,1,992,59,33580,0,65700,0,0,0,0,0
i,0x00000000,1720562358.437698,172.16.3.2,5101,172.16.1.2,56415,10499,14480,0,65728,65728,6,6,4,1460,556,1,992,59,33580,0,65700,0,0,0,0,0
o,0x00000000,1720562358.437718,172.16.3.2,5101,172.16.1.2,56415,10499,14480,0,65728,65728,6,6,4,1460,556,1,993,59,33580,0,65700,1448,0,0,0,0
i,0x00000000,1720562358.484417,172.16.3.2,5101,172.16.1.2,56415,10499,14480,0,65728,65728,6,6,4,1460,556,1,992,59,33580,0,65700,0,0,0,0,0
i,0x00000000,1720562358.494377,172.16.3.2,5101,172.16.1.2,56415,10499,14480,0,65728,65728,6,6,4,1460,556,1,992,59,33580,0,65700,0,0,0,0,0
o,0x00000000,1720562358.494402,172.16.3.2,5101,172.16.1.2,56415,10499,14480,0,65728,65728,6,6,4,1460,556,1,993,59,33580,0,65700,1448,0,0,0,0
i,0x00000000,1720562358.536156,172.16.3.2,5101,172.16.1.2,56415,10499,14480,0,65728,65728,6,6,4,1460,556,1,992,59,33580,0,65700,0,0,0,0,0
i,0x00000000,1720562358.548226,172.16.3.2,5101,172.16.1.2,56415,10499,14480,0,65728,65728,6,6,4,1460,556,1,992,59,33580,0,65700,0,0,0,0,0
o,0x00000000,1720562358.548265,172.16.3.2,5101,172.16.1.2,56415,10499,14480,0,65728,65728,6,6,4,1460,556,1,993,59,33580,0,65700,1448,0,0,0,0
i,0x00000000,1720562358.573528,172.16.3.2,5101,172.16.1.2,56415,10499,14480,0,65728,65728,6,6,4,1460,556,1,992,59,33580,0,65700,0,0,0,0,0
o,0x00000000,1720562358.608144,172.16.3.2,5101,172.16.1.2,56415,10499,14480,0,65728,65728,6,6,4,1460,556,1,993,59,33580,0,65700,0,0,0,0,0
i,0x00000000,1720562358.614285,172.16.3.2,5101,172.16.1.2,56415,10499,14480,0,65728,65728,6,6,4,1460,556,1,992,59,33580,0,65700,0,0,0,0,0
i,0x00000000,1720562358.635589,172.16.3.2,5101,172.16.1.2,56415,10499,14480,0,65728,65728,6,6,4,1460,556,1,992,59,33580,0,65700,0,0,0,0,0
o,0x00000000,1720562358.635627,172.16.3.2,5101,172.16.1.2,56415,10499,14480,0,65728,65728,6,6,4,1460,556,1,993,59,33580,0,65700,1448,0,0,0,0
i,0x00000000,1720562358.656168,172.16.3.2,5101,172.16.1.2,56415,10499,14480,0,65728,65728,6,6,4,1460,556,1,992,59,33580,0,65700,0,0,0,0,0
o,0x00000000,1720562358.656212,172.16.3.2,5101,172.16.1.2,56415,10499,14480,0,65728,65700,6,6,4,1460,556,1,993,59,33580,0,65700,0,0,1,0,0
i,0x00000000,1720562358.704180,172.16.3.2,5101,172.16.1.2,56415,10499,14480,0,65728,65700,6,6,4,1460,556,1,992,59,33580,0,65700,0,0,1,0,0
o,0x00000000,1720562358.704211,172.16.3.2,5101,172.16.1.2,56415,10499,14480,0,65728,65728,6,6,4,1460,556,1,993,59,33580,0,65700,0,0,1,0,0
i,0x00000000,1720562358.714382,172.16.3.2,5101,172.16.1.2,56415,10499,14480,0,65728,65728,6,6,4,1460,556,1,992,59,33580,0,65700,0,0,1,0,0
o,0x00000000,1720562358.714401,172.16.3.2,5101,172.16.1.2,56415,10499,14480,0,65728,65728,6,6,4,1460,556,1,993,59,33580,0,65700,0,0,1,0,0
i,0x00000000,1720562358.735676,172.16.3.2,5101,172.16.1.2,56415,10499,14480,0,65728,65728,6,6,4,1460,556,1,992,59,33580,0,65700,0,0,1,0,0
o,0x00000000,1720562358.735713,172.16.3.2,5101,172.16.1.2,56415,10499,14480,0,65728,65728,6,6,4,1460,556,1,993,59,33580,0,65700,0,0,1,0,0
i,0x00000000,1720562358.754632,172.16.3.2,5101,172.16.1.2,56415,10499,14480,0,65728,65728,6,6,4,1460,556,1,992,59,33580,0,65700,0,0,1,0,0
o,0x00000000,1720562358.754655,172.16.3.2,5101,172.16.1.2,56415,10499,14480,0,65728,65728,6,6,4,1460,556,1,993,59,33580,0,65700,0,0,1,0,0
i,0x00000000,1720562358.806104,172.16.3.2,5101,172.16.1.2,56415,10499,14480,0,65728,65728,6,6,4,1460,556,1,992,59,33580,0,65700,0,0,1,0,0
o,0x00000000,1720562358.806140,172.16.3.2,5101,172.16.1.2,56415,10499,14480,0,65728,65728,6,6,4,1460,556,1,993,59,33580,0,65700,0,0,2,0,0
i,0x00000000,1720562358.814124,172.16.3.2,5101,172.16.1.2,56415,10499,14480,0,65728,65728,6,6,4,1460,556,1,992,59,33580,0,65700,0,0,2,0,0
o,0x00000000,1720562358.814147,172.16.3.2,5101,172.16.1.2,56415,10499,14480,0,65728,65728,6,6,4,1460,556,1,993,59,33580,0,65700,0,0,2,0,0
i,0x00000000,1720562358.852074,172.16.3.2,5101,172.16.1.2,56415,10499,14480,0,65728,65728,6,6,4,1460,556,1,992,59,33580,0,65700,0,0,2,0,0
o,0x00000000,1720562358.852112,172.16.3.2,5101,172.16.1.2,56415,10499,14480,0,65728,65728,6,6,4,1460,556,1,993,59,33580,0,65700,0,0,2,0,0
i,0x00000000,1720562358.865197,172.16.3.2,5101,172.16.1.2,56415,10499,14480,0,65728,65728,6,6,4,1460,556,1,992,59,33580,0,65700,0,0,2,0,0
o,0x00000000,1720562358.865217,172.16.3.2,5101,172.16.1.2,56415,10499,14480,0,65728,65728,6,6,4,1460,556,1,993,59,33580,0,65700,0,0,2,0,0
i,0x00000000,1720562358.897441,172.16.3.2,5101,172.16.1.2,56415,10499,14480,0,65728,65728,6,6,4,1460,556,1,992,59,33580,0,65700,0,0,2,0,0
o,0x00000000,1720562358.897493,172.16.3.2,5101,172.16.1.2,56415,10499,14480,0,65728,65728,6,6,4,1460,556,1,993,59,33580,0,65700,0,0,2,0,0
i,0x00000000,1720562358.903308,172.16.3.2,5101,172.16.1.2,56415,10499,14480,0,65728,65728,6,6,4,1460,556,1,992,59,33580,0,65700,0,0,2,0,0
o,0x00000000,1720562358.903328,172.16.3.2,5101,172.16.1.2,56415,10499,14480,0,65728,65728,6,6,4,1460,556,1,993,59,33580,0,65700,8688,0,1,0,0
i,0x00000000,1720562358.914221,172.16.3.2,5101,172.16.1.2,56415,10499,14480,0,65728,65728,6,6,4,1460,556,1,992,59,33580,0,65700,0,0,1,0,0
o,0x00000000,1720562358.914246,172.16.3.2,5101,172.16.1.2,56415,10499,14480,0,65728,65700,6,6,4,1460,556,1,993,59,33580,0,65700,0,0,1,0,0
i,0x00000000,1720562358.979015,172.16.3.2,5101,172.16.1.2,56415,10499,14480,0,65728,65700,6,6,4,1460,556,1,992,59,33580,0,65700,0,0,1,0,0
o,0x00000000,1720562358.979050,172.16.3.2,5101,172.16.1.2,56415,10499,14480,0,65728,65728,6,6,4,1460,556,1,993,59,33580,0,65700,10136,0,0,0,0
i,0x00000000,1720562358.987455,172.16.3.2,5101,172.16.1.2,56415,10499,14480,0,65728,65728,6,6,4,1460,556,1,992,59,33580,0,65700,0,0,0,0,0
o,0x00000000,1720562359.028179,172.16.3.2,5101,172.16.1.2,56415,10499,14480,0,65728,65728,6,6,4,1460,556,1,993,59,33580,0,65700,0,0,0,0,0
i,0x00000000,1720562359.046378,172.16.3.2,5101,172.16.1.2,56415,10499,14480,0,65728,65728,6,6,4,1460,556,1,992,59,33580,0,65700,0,0,0,0,0
i,0x00000000,1720562359.071386,172.16.3.2,5101,172.16.1.2,56415,10499,14480,0,65728,65728,6,6,4,1460,556,1,992,59,33580,0,65700,0,0,0,0,0
o,0x00000000,1720562359.071406,172.16.3.2,5101,172.16.1.2,56415,10499,14480,0,65728,65728,6,6,4,1460,556,1,993,59,33580,0,65700,1448,0,0,0,0
i,0x00000000,1720562359.074541,172.16.3.2,5101,172.16.1.2,56415,10499,14480,0,65728,65728,6,6,4,1460,556,1,992,59,33580,0,65700,0,0,0,0,0
o,0x00000000,1720562359.106542,172.16.3.2,5101,172.16.1.2,56415,10499,14480,0,65728,65728,6,6,4,1460,556,1,993,59,33580,0,65700,0,0,0,0,0
i,0x00000000,1720562359.114585,172.16.3.2,5101,172.16.1.2,56415,10499,14480,0,65728,65728,6,6,4,1460,556,1,992,59,33580,0,65700,0,0,0,0,0
o,0x00000000,1720562359.148342,172.16.3.2,5101,172.16.1.2,56415,10499,14480,0,65728,65728,6,6,4,1460,556,1,993,59,33580,0,65700,0,0,0,0,0
i,0x00000000,1720562359.196849,172.16.3.2,5101,172.16.1.2,56415,10499,14480,0,65728,65728,6,6,4,1460,556,1,992,59,33580,0,65700,0,0,0,0,0
i,0x00000000,1720562359.206100,172.16.3.2,5101,172.16.1.2,56415,10499,14480,0,65728,65728,6,6,4,1460,556,1,992,59,33580,0,65700,0,0,0,0,0
o,0x00000000,1720562359.206153,172.16.3.2,5101,172.16.1.2,56415,10499,14480,0,65728,65728,6,6,4,1460,556,1,993,59,33580,0,65700,1448,0,0,0,0
i,0x00000000,1720562359.215376,172.16.3.2,5101,172.16.1.2,56415,10499,14480,0,65728,65728,6,6,4,1460,556,1,992,59,33580,0,65700,0,0,0,0,0
i,0x00000000,1720562359.231112,172.16.3.2,5101,172.16.1.2,56415,10499,14480,0,65728,65728,6,6,4,1460,556,1,992,59,33580,0,65700,0,0,0,0,0
o,0x00000000,1720562359.231163,172.16.3.2,5101,172.16.1.2,56415,10499,14480,0,65728,65728,6,6,4,1460,556,1,993,59,33580,0,65700,1448,0,0,0,0
i,0x00000000,1720562359.277529,172.16.3.2,5101,172.16.1.2,56415,10499,14480,0,65728,65728,6,6,4,1460,556,1,992,59,33580,0,65700,0,0,0,0,0
i,0x00000000,1720562359.292460,172.16.3.2,5101,172.16.1.2,56415,10499,14480,0,65728,65728,6,6,4,1460,556,1,992,59,33580,0,65700,0,0,0,0,0
o,0x00000000,1720562359.292495,172.16.3.2,5101,172.16.1.2,56415,10499,14480,0,65728,65728,6,6,4,1460,556,1,993,59,33580,0,65700,1448,0,0,0,0
i,0x00000000,1720562359.321409,172.16.3.2,5101,172.16.1.2,56415,10499,14480,0,65728,65728,6,6,4,1460,556,1,992,59,33580,0,65700,0,0,0,0,0
o,0x00000000,1720562359.357507,172.16.3.2,5101,172.16.1.2,56415,10499,14480,0,65728,65728,6,6,4,1460,556,1,993,59,33580,0,65700,0,0,0,0,0
o,0x00000000,1720562359.358288,10.0.2.15,22,10.0.2.2,49435,1073725440,14600,0,65535,65700,0,0,4,1460,1,0,4,24,33580,108,65700,0,0,0,0,0
i,0x00000000,1720562359.361983,10.0.2.15,22,10.0.2.2,49435,1073725440,14600,0,65535,65700,0,0,4,1460,1,0,4,24,33580,108,65700,0,108,0,0,0
i,0x00000000,1720562359.375193,172.16.3.2,5101,172.16.1.2,56415,10499,14480,0,65728,65728,6,6,4,1460,556,1,992,59,33580,0,65700,0,0,0,0,0
i,0x00000000,1720562359.384976,172.16.3.2,5101,172.16.1.2,56415,10499,14480,0,65728,65728,6,6,4,1460,556,1,992,59,33580,0,65700,0,0,0,0,0
o,0x00000000,1720562359.385008,172.16.3.2,5101,172.16.1.2,56415,10499,14480,0,65728,65728,6,6,4,1460,556,1,993,59,33580,0,65700,1448,0,0,0,0
i,0x00000000,1720562359.394525,172.16.3.2,5101,172.16.1.2,56415,10499,14480,0,65728,65728,6,6,4,1460,556,1,992,59,33580,0,65700,0,0,0,0,0
i,0x00000000,1720562359.407289,172.16.3.2,5101,172.16.1.2,56415,10499,14480,0,65728,65728,6,6,4,1460,556,1,992,59,33580,0,65700,0,0,0,0,0
o,0x00000000,1720562359.407324,172.16.3.2,5101,172.16.1.2,56415,10499,14480,0,65728,65728,6,6,4,1460,556,1,993,59,33580,0,65700,1448,0,0,0,0
i,0x00000000,1720562359.453146,172.16.3.2,5101,172.16.1.2,56415,10499,14480,0,65728,65728,6,6,4,1460,556,1,992,59,33580,0,65700,0,0,0,0,0
i,0x00000000,1720562359.464784,172.16.3.2,5101,172.16.1.2,56415,10499,14480,0,65728,65728,6,6,4,1460,556,1,992,59,33580,0,65700,0,0,0,0,0
o,0x00000000,1720562359.464798,172.16.3.2,5101,172.16.1.2,56415,10499,14480,0,65728,65728,6,6,4,1460,556,1,993,59,33580,0,65700,1448,0,0,0,0
i,0x00000000,1720562359.552582,172.16.3.2,5101,172.16.1.2,56415,10499,14480,0,65728,65728,6,6,4,1460,556,1,992,59,33580,0,65700,0,0,0,0,0
i,0x00000000,1720562359.578422,172.16.3.2,5101,172.16.1.2,56415,10499,14480,0,65728,65728,6,6,4,1460,556,1,992,59,33580,0,65700,0,0,0,0,0
o,0x00000000,1720562359.578470,172.16.3.2,5101,172.16.1.2,56415,10499,14480,0,65728,65728,6,6,4,1460,556,1,993,59,33580,0,65700,1448,0,0,0,0
i,0x00000000,1720562359.579089,172.16.3.2,5101,172.16.1.2,56415,10499,14480,0,65728,65728,6,6,4,1460,556,1,992,59,33580,0,65700,1448,0,0,0,0
i,0x00000000,1720562359.585078,172.16.3.2,5101,172.16.1.2,56415,10499,14480,0,65728,65728,6,6,4,1460,556,1,992,59,33580,0,65700,0,0,0,0,0
o,0x00000000,1720562359.585121,172.16.3.2,5101,172.16.1.2,56415,10499,14480,0,65728,65728,6,6,4,1460,556,1,993,59,33580,0,65700,1448,0,0,0,0
i,0x00000000,1720562359.627473,172.16.3.2,5101,172.16.1.2,56415,10499,14480,0,65728,65728,6,6,4,1460,556,1,992,59,33580,0,65700,0,0,0,0,0
i,0x00000000,1720562359.636876,172.16.3.2,5101,172.16.1.2,56415,10499,14480,0,65728,65728,6,6,4,1460,556,1,992,59,33580,0,65700,0,0,0,0,0
o,0x00000000,1720562359.636912,172.16.3.2,5101,172.16.1.2,56415,10499,14480,0,65728,65728,6,6,4,1460,556,1,993,59,33580,0,65700,1448,0,0,0,0
i,0x00000000,1720562359.645537,172.16.3.2,5101,172.16.1.2,56415,10499,14480,0,65728,65728,6,6,4,1460,556,1,992,59,33580,0,65700,0,0,0,0,0
i,0x00000000,1720562359.655139,172.16.3.2,5101,172.16.1.2,56415,10499,14480,0,65728,65728,6,6,4,1460,556,1,992,59,33580,0,65700,0,0,0,0,0
o,0x00000000,1720562359.655153,172.16.3.2,5101,172.16.1.2,56415,10499,14480,0,65728,65728,6,6,4,1460,556,1,993,59,33580,0,65700,1448,0,0,0,0
i,0x00000000,1720562359.744313,172.16.3.2,5101,172.16.1.2,56415,10499,14480,0,65728,65728,6,6,4,1460,556,1,992,59,33580,0,65700,0,0,0,0,0
i,0x00000000,1720562359.755696,172.16.3.2,5101,172.16.1.2,56415,10499,14480,0,65728,65728,6,6,4,1460,556,1,992,59,33580,0,65700,0,0,0,0,0
o,0x00000000,1720562359.755739,172.16.3.2,5101,172.16.1.2,56415,10499,14480,0,65728,65728,6,6,4,1460,556,1,993,59,33580,0,65700,1448,0,0,0,0
i,0x00000000,1720562359.796858,172.16.3.2,5101,172.16.1.2,56415,10499,14480,0,65728,65728,6,6,4,1460,556,1,992,59,33580,0,65700,0,0,0,0,0
i,0x00000000,1720562359.811116,172.16.3.2,5101,172.16.1.2,56415,10499,14480,0,65728,65728,6,6,4,1460,556,1,992,59,33580,0,65700,0,0,0,0,0
o,0x00000000,1720562359.811174,172.16.3.2,5101,172.16.1.2,56415,10499,14480,0,65728,65728,6,6,4,1460,556,1,993,59,33580,0,65700,1448,0,0,0,0
i,0x00000000,1720562359.819699,172.16.3.2,5101,172.16.1.2,56415,10499,14480,0,65728,65728,6,6,4,1460,556,1,992,59,33580,0,65700,0,0,0,0,0
o,0x00000000,1720562359.858843,172.16.3.2,5101,172.16.1.2,56415,10499,14480,0,65728,65728,6,6,4,1460,556,1,993,59,33580,0,65700,0,0,0,0,0
i,0x00000000,1720562359.864809,172.16.3.2,5101,172.16.1.2,56415,10499,14480,0,65728,65728,6,6,4,1460,556,1,992,59,33580,0,65700,0,0,0,0,0
i,0x00000000,1720562359.868193,172.16.3.2,5101,172.16.1.2,56415,10499,14480,0,65728,65728,6,6,4,1460,556,1,992,59,33580,0,65700,0,0,0,0,0
o,0x00000000,1720562359.868229,172.16.3.2,5101,172.16.1.2,56415,10499,14480,0,65728,65728,6,6,4,1460,556,1,993,59,33580,0,65700,1448,0,0,0,0
i,0x00000000,1720562359.875458,172.16.3.2,5101,172.16.1.2,56415,10499,14480,0,65728,65728,6,6,4,1460,556,1,992,59,33580,0,65700,0,0,0,0,0
o,0x00000000,1720562359.907172,172.16.3.2,5101,172.16.1.2,56415,10499,14480,0,65728,65728,6,6,4,1460,556,1,993,59,33580,0,65700,0,0,0,0,0
i,0x00000000,1720562359.916394,172.16.3.2,5101,172.16.1.2,56415,10499,14480,0,65728,65728,6,6,4,1460,556,1,992,59,33580,0,65700,0,0,0,0,0
o,0x00000000,1720562359.947911,172.16.3.2,5101,172.16.1.2,56415,10499,14480,0,65728,65728,6,6,4,1460,556,1,993,59,33580,0,65700,0,0,0,0,0
i,0x00000000,1720562359.966104,172.16.3.2,5101,172.16.1.2,56415,10499,14480,0,65728,65728,6,6,4,1460,556,1,992,59,33580,0,65700,0,0,0,0,0
i,0x00000000,1720562359.987403,172.16.3.2,5101,172.16.1.2,56415,10499,14480,0,65728,65728,6,6,4,1460,556,1,992,59,33580,0,65700,0,0,0,0,0
o,0x00000000,1720562359.987443,172.16.3.2,5101,172.16.1.2,56415,10499,14480,0,65728,65728,6,6,4,1460,556,1,993,59,33580,0,65700,1448,0,0,0,0
i,0x00000000,1720562359.998405,172.16.3.2,5101,172.16.1.2,56415,10499,14480,0,65728,65728,6,6,4,1460,556,1,992,59,33580,0,65700,0,0,0,0,0
o,0x00000000,1720562360.037821,172.16.3.2,5101,172.16.1.2,56415,10499,14480,0,65728,65728,6,6,4,1460,556,1,993,59,33580,0,65700,0,0,0,0,0
i,0x00000000,1720562360.043649,172.16.3.2,5101,172.16.1.2,56415,10499,14480,0,65728,65728,6,6,4,1460,556,1,992,59,33580,0,65700,0,0,0,0,0
o,0x00000000,1720562360.043687,172.16.3.2,5101,172.16.1.2,56415,10499,14480,0,65728,65728,6,6,4,1460,556,1,993,59,33580,0,65700,0,0,1,0,0
i,0x00000000,1720562360.074161,172.16.3.2,5101,172.16.1.2,56415,10499,14480,0,65728,65728,6,6,4,1460,556,1,992,59,33580,0,65700,0,0,1,0,0
o,0x00000000,1720562360.074178,172.16.3.2,5101,172.16.1.2,56415,10499,14480,0,65728,65728,6,6,4,1460,556,1,993,59,33580,0,65700,0,0,1,0,0
i,0x00000000,1720562360.084312,172.16.3.2,5101,172.16.1.2,56415,10499,14480,0,65728,65728,6,6,4,1460,556,1,992,59,33580,0,65700,0,0,1,0,0
o,0x00000000,1720562360.084327,172.16.3.2,5101,172.16.1.2,56415,10499,14480,0,65728,65728,6,6,4,1460,556,1,993,59,33580,0,65700,0,0,1,0,0
i,0x00000000,1720562360.108796,172.16.3.2,5101,172.16.1.2,56415,10499,14480,0,65728,65728,6,6,4,1460,556,1,992,59,33580,0,65700,0,0,1,0,0
o,0x00000000,1720562360.108811,172.16.3.2,5101,172.16.1.2,56415,10499,14480,0,65728,65728,6,6,4,1460,556,1,993,59,33580,0,65700,0,0,1,0,0
i,0x00000000,1720562360.119950,172.16.3.2,5101,172.16.1.2,56415,10499,14480,0,65728,65728,6,6,4,1460,556,1,992,59,33580,0,65700,0,0,1,0,0
o,0x00000000,1720562360.119992,172.16.3.2,5101,172.16.1.2,56415,10499,14480,0,65728,65728,6,6,4,1460,556,1,993,59,33580,0,65700,0,0,1,0,0
i,0x00000000,1720562360.145017,172.16.3.2,5101,172.16.1.2,56415,10499,14480,0,65728,65728,6,6,4,1460,556,1,992,59,33580,0,65700,0,0,1,0,0
o,0x00000000,1720562360.145028,172.16.3.2,5101,172.16.1.2,56415,10499,14480,0,65728,65728,6,6,4,1460,556,1,993,59,33580,0,65700,0,0,1,0,0
i,0x00000000,1720562360.185681,172.16.3.2,5101,172.16.1.2,56415,10499,14480,0,65728,65728,6,6,4,1460,556,1,992,59,33580,0,65700,0,0,1,0,0
o,0x00000000,1720562360.185725,172.16.3.2,5101,172.16.1.2,56415,10499,14480,0,65728,65728,6,6,4,1460,556,1,993,59,33580,0,65700,0,0,1,0,0
i,0x00000000,1720562360.197488,172.16.3.2,5101,172.16.1.2,56415,10499,14480,0,65728,65728,6,6,4,1460,556,1,992,59,33580,0,65700,0,0,1,0,0
o,0x00000000,1720562360.197520,172.16.3.2,5101,172.16.1.2,56415,10499,14480,0,65728,65728,6,6,4,1460,556,1,993,59,33580,0,65700,0,0,1,0,0
i,0x00000000,1720562360.227731,172.16.3.2,5101,172.16.1.2,56415,10499,14480,0,65728,65728,6,6,4,1460,556,1,992,59,33580,0,65700,0,0,1,0,0
o,0x00000000,1720562360.227764,172.16.3.2,5101,172.16.1.2,56415,10499,14480,0,65728,65728,6,6,4,1460,556,1,993,59,33580,0,65700,0,0,1,0,0
i,0x00000000,1720562360.248316,172.16.3.2,5101,172.16.1.2,56415,10499,14480,0,65728,65728,6,6,4,1460,556,1,992,59,33580,0,65700,0,0,1,0,0
o,0x00000000,1720562360.248352,172.16.3.2,5101,172.16.1.2,56415,10499,14480,0,65728,65728,6,6,4,1460,556,1,993,59,33580,0,65700,0,0,1,0,0
i,0x00000000,1720562360.275237,172.16.3.2,5101,172.16.1.2,56415,10499,14480,0,65728,65728,6,6,4,1460,556,1,992,59,33580,0,65700,0,0,1,0,0
o,0x00000000,1720562360.275258,172.16.3.2,5101,172.16.1.2,56415,10499,14480,0,65728,65728,6,6,4,1460,556,1,993,59,33580,0,65700,0,0,1,0,0
i,0x00000000,1720562360.285719,172.16.3.2,5101,172.16.1.2,56415,10499,14480,0,65728,65728,6,6,4,1460,556,1,992,59,33580,0,65700,0,0,1,0,0
o,0x00000000,1720562360.285758,172.16.3.2,5101,172.16.1.2,56415,10499,14480,0,65728,65728,6,6,4,1460,556,1,993,59,33580,0,65700,17376,0,0,0,0
o,0x00000000,1720562360.288235,172.16.3.2,5101,172.16.1.2,56415,10499,14480,0,65728,65728,6,6,4,1460,556,1,992,59,33580,0,65700,0,0,0,0,0
i,0x00000000,1720562360.296812,172.16.3.2,5101,172.16.1.2,56415,10499,14480,0,65728,65728,6,6,4,1460,556,1,992,59,33580,0,65700,0,0,0,0,0
o,0x00000000,1720562360.338258,172.16.3.2,5101,172.16.1.2,56415,10499,14480,0,65728,65728,6,6,4,1460,556,1,993,59,33580,0,65700,0,0,0,0,0
o,0x00000000,1720562360.358526,10.0.2.15,22,10.0.2.2,49435,1073725440,14600,0,65535,65700,0,0,4,1460,1,0,4,24,33580,108,65700,0,0,0,0,0
i,0x00000000,1720562360.362084,10.0.2.15,22,10.0.2.2,49435,1073725440,14600,0,65535,65700,0,0,4,1460,1,0,4,24,33580,108,65700,0,108,0,0,0
i,0x00000000,1720562360.364280,172.16.3.2,5101,172.16.1.2,56415,10499,14480,0,65728,65728,6,6,4,1460,556,1,992,59,33580,0,65700,0,0,0,0,0
o,0x00000000,1720562360.398020,172.16.3.2,5101,172.16.1.2,56415,10499,14480,0,65728,65728,6,6,4,1460,556,1,993,59,33580,0,65700,0,0,0,0,0
i,0x00000000,1720562360.406161,172.16.3.2,5101,172.16.1.2,56415,10499,14480,0,65728,65728,6,6,4,1460,556,1,992,59,33580,0,65700,0,0,0,0,0
o,0x00000000,1720562360.438602,172.16.3.2,5101,172.16.1.2,56415,10499,14480,0,65728,65728,6,6,4,1460,556,1,993,59,33580,0,65700,0,0,0,0,0
i,0x00000000,1720562360.457255,172.16.3.2,5101,172.16.1.2,56415,10499,14480,0,65728,65728,6,6,4,1460,556,1,992,59,33580,0,65700,0,0,0,0,0
i,0x00000000,1720562360.474867,172.16.3.2,5101,172.16.1.2,56415,10499,14480,0,65728,65728,6,6,4,1460,556,1,992,59,33580,0,65700,0,0,0,0,0
o,0x00000000,1720562360.474889,172.16.3.2,5101,172.16.1.2,56415,10499,14480,0,65728,65728,6,6,4,1460,556,1,993,59,33580,0,65700,1448,0,0,0,0
i,0x00000000,1720562360.496698,172.16.3.2,5101,172.16.1.2,56415,10499,14480,0,65728,65728,6,6,4,1460,556,1,992,59,33580,0,65700,0,0,0,0,0
i,0x00000000,1720562360.510116,172.16.3.2,5101,172.16.1.2,56415,10499,14480,0,65728,65728,6,6,4,1460,556,1,992,59,33580,0,65700,0,0,0,0,0
o,0x00000000,1720562360.510168,172.16.3.2,5101,172.16.1.2,56415,10499,14480,0,65728,65728,6,6,4,1460,556,1,993,59,33580,0,65700,1448,0,0,0,0
i,0x00000000,1720562360.555403,172.16.3.2,5101,172.16.1.2,56415,10499,14480,0,65728,65728,6,6,4,1460,556,1,992,59,33580,0,65700,0,0,0,0,0
o,0x00000000,1720562360.588221,172.16.3.2,5101,172.16.1.2,56415,10499,14480,0,65728,65728,6,6,4,1460,556,1,993,59,33580,0,65700,0,0,0,0,0
i,0x00000000,1720562360.655153,172.16.3.2,5101,172.16.1.2,56415,10499,14480,0,65728,65728,6,6,4,1460,556,1,992,59,33580,0,65700,0,0,0,0,0
i,0x00000000,1720562360.663434,172.16.3.2,5101,172.16.1.2,56415,10499,14480,0,65728,65728,6,6,4,1460,556,1,992,59,33580,0,65700,0,0,0,0,0
o,0x00000000,1720562360.663445,172.16.3.2,5101,172.16.1.2,56415,10499,14480,0,65728,65728,6,6,4,1460,556,1,993,59,33580,0,65700,1448,0,0,0,0
i,0x00000000,1720562360.688100,172.16.3.2,5101,172.16.1.2,56415,10499,14480,0,65728,65728,6,6,4,1460,556,1,992,59,33580,0,65700,0,0,0,0,0
i,0x00000000,1720562360.688126,172.16.3.2,5101,172.16.1.2,56415,10499,14480,0,65728,65728,6,6,4,1460,556,1,992,59,33580,0,65700,1448,0,0,0,0
o,0x00000000,1720562360.688144,172.16.3.2,5101,172.16.1.2,56415,10499,14480,0,65728,65728,6,6,4,1460,556,1,993,59,33580,0,65700,2896,0,0,0,0
i,0x00000000,1720562360.707058,172.16.3.2,5101,172.16.1.2,56415,10499,14480,0,65728,65728,6,6,4,1460,556,1,992,59,33580,0,65700,0,0,0,0,0
i,0x00000000,1720562360.720239,172.16.3.2,5101,172.16.1.2,56415,10499,14480,0,65728,65728,6,6,4,1460,556,1,992,59,33580,0,65700,0,0,0,0,0
o,0x00000000,1720562360.720279,172.16.3.2,5101,172.16.1.2,56415,10499,14480,0,65728,65728,6,6,4,1460,556,1,993,59,33580,0,65700,1448,0,0,0,0
i,0x00000000,1720562360.758841,172.16.3.2,5101,172.16.1.2,56415,10499,14480,0,65728,65728,6,6,4,1460,556,1,992,59,33580,0,65700,0,0,0,0,0
o,0x00000000,1720562360.798047,172.16.3.2,5101,172.16.1.2,56415,10499,14480,0,65728,65728,6,6,4,1460,556,1,993,59,33580,0,65700,0,0,0,0,0
i,0x00000000,1720562360.826894,172.16.3.2,5101,172.16.1.2,56415,10499,14480,0,65728,65728,6,6,4,1460,556,1,992,59,33580,0,65700,0,0,0,0,0
i,0x00000000,1720562360.837255,172.16.3.2,5101,172.16.1.2,56415,10499,14480,0,65728,65728,6,6,4,1460,556,1,992,59,33580,0,65700,0,0,0,0,0
o,0x00000000,1720562360.837315,172.16.3.2,5101,172.16.1.2,56415,10499,14480,0,65728,65728,6,6,4,1460,556,1,993,59,33580,0,65700,1448,0,0,0,0
i,0x00000000,1720562360.875315,172.16.3.2,5101,172.16.1.2,56415,10499,14480,0,65728,65728,6,6,4,1460,556,1,992,59,33580,0,65700,0,0,0,0,0
i,0x00000000,1720562360.886531,172.16.3.2,5101,172.16.1.2,56415,10499,14480,0,65728,65728,6,6,4,1460,556,1,992,59,33580,0,65700,0,0,0,0,0
o,0x00000000,1720562360.886572,172.16.3.2,5101,172.16.1.2,56415,10499,14480,0,65728,65728,6,6,4,1460,556,1,993,59,33580,0,65700,1448,0,0,0,0
i,0x00000000,1720562360.895635,172.16.3.2,5101,172.16.1.2,56415,10499,14480,0,65728,65728,6,6,4,1460,556,1,992,59,33580,0,65700,0,0,0,0,0
i,0x00000000,1720562360.917671,172.16.3.2,5101,172.16.1.2,56415,10499,14480,0,65728,65728,6,6,4,1460,556,1,992,59,33580,0,65700,0,0,0,0,0
o,0x00000000,1720562360.917704,172.16.3.2,5101,172.16.1.2,56415,10499,14480,0,65728,65728,6,6,4,1460,556,1,993,59,33580,0,65700,1448,0,0,0,0
i,0x00000000,1720562360.925136,172.16.3.2,5101,172.16.1.2,56415,10499,14480,0,65728,65728,6,6,4,1460,556,1,992,59,33580,0,65700,0,0,0,0,0
o,0x00000000,1720562360.958802,172.16.3.2,5101,172.16.1.2,56415,10499,14480,0,65728,65728,6,6,4,1460,556,1,993,59,33580,0,65700,0,0,0,0,0
i,0x00000000,1720562360.989261,172.16.3.2,5101,172.16.1.2,56415,10499,14480,0,65728,65728,6,6,4,1460,556,1,992,59,33580,0,65700,0,0,0,0,0
i,0x00000000,1720562360.989281,172.16.3.2,5101,172.16.1.2,56415,10499,14480,0,65728,65728,6,6,4,1460,556,1,992,59,33580,0,65700,1448,0,0,0,0
o,0x00000000,1720562360.989293,172.16.3.2,5101,172.16.1.2,56415,10499,14480,0,65728,65728,6,6,4,1460,556,1,993,59,33580,0,65700,2896,0,0,0,0
i,0x00000000,1720562361.031565,172.16.3.2,5101,172.16.1.2,56415,10499,14480,0,65728,65728,6,6,4,1460,556,1,992,59,33580,0,65700,0,0,0,0,0
o,0x00000000,1720562361.068245,172.16.3.2,5101,172.16.1.2,56415,10499,14480,0,65728,65728,6,6,4,1460,556,1,993,59,33580,0,65700,0,0,0,0,0
i,0x00000000,1720562361.074694,172.16.3.2,5101,172.16.1.2,56415,10499,14480,0,65728,65728,6,6,4,1460,556,1,992,59,33580,0,65700,0,0,0,0,0
i,0x00000000,1720562361.085015,172.16.3.2,5101,172.16.1.2,56415,10499,14480,0,65728,65728,6,6,4,1460,556,1,992,59,33580,0,65700,0,0,0,0,0
o,0x00000000,1720562361.085029,172.16.3.2,5101,172.16.1.2,56415,10499,14480,0,65728,65728,6,6,4,1460,556,1,993,59,33580,0,65700,1448,0,0,0,0
i,0x00000000,1720562361.095514,172.16.3.2,5101,172.16.1.2,56415,10499,14480,0,65728,65728,6,6,4,1460,556,1,992,59,33580,0,65700,0,0,0,0,0
i,0x00000000,1720562361.117307,172.16.3.2,5101,172.16.1.2,56415,10499,14480,0,65728,65728,6,6,4,1460,556,1,992,59,33580,0,65700,0,0,0,0,0
o,0x00000000,1720562361.117344,172.16.3.2,5101,172.16.1.2,56415,10499,14480,0,65728,65728,6,6,4,1460,556,1,993,59,33580,0,65700,1448,0,0,0,0
i,0x00000000,1720562361.135781,172.16.3.2,5101,172.16.1.2,56415,10499,14480,0,65728,65728,6,6,4,1460,556,1,992,59,33580,0,65700,0,0,0,0,0
i,0x00000000,1720562361.167136,172.16.3.2,5101,172.16.1.2,56415,10499,14480,0,65728,65728,6,6,4,1460,556,1,992,59,33580,0,65700,0,0,0,0,0
o,0x00000000,1720562361.167187,172.16.3.2,5101,172.16.1.2,56415,10499,14480,0,65728,65728,6,6,4,1460,556,1,993,59,33580,0,65700,1448,0,0,0,0
i,0x00000000,1720562361.197958,172.16.3.2,5101,172.16.1.2,56415,10499,14480,0,65728,65728,6,6,4,1460,556,1,992,59,33580,0,65700,0,0,0,0,0
i,0x00000000,1720562361.230213,172.16.3.2,5101,172.16.1.2,56415,10499,14480,0,65728,65728,6,6,4,1460,556,1,992,59,33580,0,65700,0,0,0,0,0
o,0x00000000,1720562361.230264,172.16.3.2,5101,172.16.1.2,56415,10499,14480,0,65728,65728,6,6,4,1460,556,1,993,59,33580,0,65700,1448,0,0,0,0
i,0x00000000,1720562361.244415,172.16.3.2,5101,172.16.1.2,56415,10499,14480,0,65728,65728,6,6,4,1460,556,1,992,59,33580,0,65700,0,0,0,0,0
o,0x00000000,1720562361.278026,172.16.3.2,5101,172.16.1.2,56415,10499,14480,0,65728,65728,6,6,4,1460,556,1,993,59,33580,0,65700,0,0,0,0,0
i,0x00000000,1720562361.287364,172.16.3.2,5101,172.16.1.2,56415,10499,14480,0,65728,65728,6,6,4,1460,556,1,992,59,33580,0,65700,0,0,0,0,0
i,0x00000000,1720562361.307143,172.16.3.2,5101,172.16.1.2,56415,10499,14480,0,65728,65728,6,6,4,1460,556,1,992,59,33580,0,65700,0,0,0,0,0
o,0x00000000,1720562361.307174,172.16.3.2,5101,172.16.1.2,56415,10499,14480,0,65728,65728,6,6,4,1460,556,1,993,59,33580,0,65700,1448,0,0,0,0
i,0x00000000,1720562361.328578,172.16.3.2,5101,172.16.1.2,56415,10499,14480,0,65728,65728,6,6,4,1460,556,1,992,59,33580,0,65700,0,0,0,0,0
i,0x00000000,1720562361.336037,172.16.3.2,5101,172.16.1.2,56415,10499,14480,0,65728,65728,6,6,4,1460,556,1,992,59,33580,0,65700,0,0,0,0,0
o,0x00000000,1720562361.336063,172.16.3.2,5101,172.16.1.2,56415,10499,14480,0,65728,65728,6,6,4,1460,556,1,993,59,33580,0,65700,1448,0,0,0,0
i,0x00000000,1720562361.357243,172.16.3.2,5101,172.16.1.2,56415,10499,14480,0,65728,65728,6,6,4,1460,556,1,992,59,33580,0,65700,0,0,0,0,0
o,0x00000000,1720562361.357770,10.0.2.15,22,10.0.2.2,49435,1073725440,14600,0,65535,65700,0,0,4,1460,1,0,4,24,33580,108,65700,0,0,0,0,0
i,0x00000000,1720562361.360342,10.0.2.15,22,10.0.2.2,49435,1073725440,14600,0,65535,65700,0,0,4,1460,1,0,4,24,33580,108,65700,0,108,0,0,0
i,0x00000000,1720562361.389070,172.16.3.2,5101,172.16.1.2,56415,10499,14480,0,65728,65728,6,6,4,1460,556,1,992,59,33580,0,65700,0,0,0,0,0
o,0x00000000,1720562361.389113,172.16.3.2,5101,172.16.1.2,56415,10499,14480,0,65728,65728,6,6,4,1460,556,1,993,59,33580,0,65700,1448,0,0,0,0
i,0x00000000,1720562361.419257,172.16.3.2,5101,172.16.1.2,56415,10499,14480,0,65728,65728,6,6,4,1460,556,1,992,59,33580,0,65700,0,0,0,0,0
o,0x00000000,1720562361.419295,172.16.3.2,5101,172.16.1.2,56415,10499,14480,0,65728,65700,6,6,4,1460,556,1,993,59,33580,0,65700,0,0,1,0,0
i,0x00000000,1720562361.448043,172.16.3.2,5101,172.16.1.2,56415,10499,14480,0,65728,65700,6,6,4,1460,556,1,992,59,33580,0,65700,0,0,1,0,0
o,0x00000000,1720562361.448085,172.16.3.2,5101,172.16.1.2,56415,10499,14480,0,65728,65728,6,6,4,1460,556,1,993,59,33580,0,65700,0,0,1,0,0
i,0x00000000,1720562361.465767,172.16.3.2,5101,172.16.1.2,56415,10499,14480,0,65728,65728,6,6,4,1460,556,1,992,59,33580,0,65700,0,0,1,0,0
o,0x00000000,1720562361.465794,172.16.3.2,5101,172.16.1.2,56415,10499,14480,0,65728,65728,6,6,4,1460,556,1,993,59,33580,0,65700,0,0,1,0,0
i,0x00000000,1720562361.495965,172.16.3.2,5101,172.16.1.2,56415,10499,14480,0,65728,65728,6,6,4,1460,556,1,992,59,33580,0,65700,0,0,1,0,0
o,0x00000000,1720562361.496000,172.16.3.2,5101,172.16.1.2,56415,10499,14480,0,65728,65728,6,6,4,1460,556,1,993,59,33580,0,65700,0,0,1,0,0
i,0x00000000,1720562361.515061,172.16.3.2,5101,172.16.1.2,56415,10499,14480,0,65728,65728,6,6,4,1460,556,1,992,59,33580,0,65700,0,0,1,0,0
o,0x00000000,1720562361.515082,172.16.3.2,5101,172.16.1.2,56415,10499,14480,0,65728,65728,6,6,4,1460,556,1,993,59,33580,0,65700,0,0,1,0,0
i,0x00000000,1720562361.548881,172.16.3.2,5101,172.16.1.2,56415,10499,14480,0,65728,65728,6,6,4,1460,556,1,992,59,33580,0,65700,0,0,1,0,0
o,0x00000000,1720562361.548916,172.16.3.2,5101,172.16.1.2,56415,10499,14480,0,65728,65728,6,6,4,1460,556,1,993,59,33580,0,65700,0,0,1,0,0
i,0x00000000,1720562361.565345,172.16.3.2,5101,172.16.1.2,56415,10499,14480,0,65728,65728,6,6,4,1460,556,1,992,59,33580,0,65700,0,0,1,0,0
o,0x00000000,1720562361.565361,172.16.3.2,5101,172.16.1.2,56415,10499,14480,0,65728,65728,6,6,4,1460,556,1,993,59,33580,0,65700,0,0,1,0,0
i,0x00000000,1720562361.602641,172.16.3.2,5101,172.16.1.2,56415,10499,14480,0,65728,65728,6,6,4,1460,556,1,992,59,33580,0,65700,0,0,1,0,0
o,0x00000000,1720562361.602656,172.16.3.2,5101,172.16.1.2,56415,10499,14480,0,65728,65728,6,6,4,1460,556,1,993,59,33580,0,65700,0,0,1,0,0
i,0x00000000,1720562361.634733,172.16.3.2,5101,172.16.1.2,56415,10499,14480,0,65728,65728,6,6,4,1460,556,1,992,59,33580,0,65700,0,0,1,0,0
o,0x00000000,1720562361.634745,172.16.3.2,5101,172.16.1.2,56415,10499,14480,0,65728,65728,6,6,4,1460,556,1,993,59,33580,0,65700,0,0,1,0,0
i,0x00000000,1720562361.645329,172.16.3.2,5101,172.16.1.2,56415,10499,14480,0,65728,65728,6,6,4,1460,556,1,992,59,33580,0,65700,0,0,1,0,0
o,0x00000000,1720562361.645340,172.16.3.2,5101,172.16.1.2,56415,10499,14480,0,65728,65728,6,6,4,1460,556,1,993,59,33580,0,65700,0,0,2,0,0
i,0x00000000,1720562361.654237,172.16.3.2,5101,172.16.1.2,56415,10499,14480,0,65728,65728,6,6,4,1460,556,1,992,59,33580,0,65700,0,0,2,0,0
o,0x00000000,1720562361.654246,172.16.3.2,5101,172.16.1.2,56415,10499,14480,0,65728,65728,6,6,4,1460,556,1,993,59,33580,0,65700,0,0,2,0,0
i,0x00000000,1720562361.668041,172.16.3.2,5101,172.16.1.2,56415,10499,14480,0,65728,65728,6,6,4,1460,556,1,992,59,33580,0,65700,0,0,2,0,0
o,0x00000000,1720562361.668060,172.16.3.2,5101,172.16.1.2,56415,10499,14480,0,65728,65728,6,6,4,1460,556,1,993,59,33580,0,65700,14480,0,1,0,0
i,0x00000000,1720562361.727067,172.16.3.2,5101,172.16.1.2,56415,10499,14480,0,65728,65728,6,6,4,1460,556,1,992,59,33580,0,65700,0,0,1,0,0
o,0x00000000,1720562361.727110,172.16.3.2,5101,172.16.1.2,56415,10499,14480,0,65728,65700,6,6,4,1460,556,1,993,59,33580,0,65700,0,0,1,0,0
i,0x00000000,1720562361.737106,172.16.3.2,5101,172.16.1.2,56415,10499,14480,0,65728,65700,6,6,4,1460,556,1,992,59,33580,0,65700,0,0,1,0,0
o,0x00000000,1720562361.737145,172.16.3.2,5101,172.16.1.2,56415,10499,14480,0,65728,65728,6,6,4,1460,556,1,993,59,33580,0,65700,0,0,1,0,0
i,0x00000000,1720562361.787126,172.16.3.2,5101,172.16.1.2,56415,10499,14480,0,65728,65728,6,6,4,1460,556,1,992,59,33580,0,65700,0,0,1,0,0
o,0x00000000,1720562361.787186,172.16.3.2,5101,172.16.1.2,56415,10499,14480,0,65728,65728,6,6,4,1460,556,1,993,59,33580,0,65700,7240,0,0,0,0
i,0x00000000,1720562361.796907,172.16.3.2,5101,172.16.1.2,56415,10499,14480,0,65728,65728,6,6,4,1460,556,1,992,59,33580,0,65700,0,0,0,0,0
i,0x00000000,1720562361.817637,172.16.3.2,5101,172.16.1.2,56415,10499,14480,0,65728,65728,6,6,4,1460,556,1,992,59,33580,0,65700,0,0,0,0,0
o,0x00000000,1720562361.817677,172.16.3.2,5101,172.16.1.2,56415,10499,14480,0,65728,65728,6,6,4,1460,556,1,993,59,33580,0,65700,1448,0,0,0,0
i,0x00000000,1720562361.870413,172.16.3.2,5101,172.16.1.2,56415,10499,14480,0,65728,65728,6,6,4,1460,556,1,992,59,33580,0,65700,0,0,0,0,0
i,0x00000000,1720562361.876728,172.16.3.2,5101,172.16.1.2,56415,10499,14480,0,65728,65728,6,6,4,1460,556,1,992,59,33580,0,65700,0,0,0,0,0
o,0x00000000,1720562361.876757,172.16.3.2,5101,172.16.1.2,56415,10499,14480,0,65728,65728,6,6,4,1460,556,1,993,59,33580,0,65700,1448,0,0,0,0
i,0x00000000,1720562361.967508,172.16.3.2,5101,172.16.1.2,56415,10499,14480,0,65728,65728,6,6,4,1460,556,1,992,59,33580,0,65700,0,0,0,0,0
i,0x00000000,1720562361.980966,172.16.3.2,5101,172.16.1.2,56415,10499,14480,0,65728,65728,6,6,4,1460,556,1,992,59,33580,0,65700,0,0,0,0,0
o,0x00000000,1720562361.981023,172.16.3.2,5101,172.16.1.2,56415,10499,14480,0,65728,65728,6,6,4,1460,556,1,993,59,33580,0,65700,1448,0,0,0,0
i,0x00000000,1720562361.985376,172.16.3.2,5101,172.16.1.2,56415,10499,14480,0,65728,65728,6,6,4,1460,556,1,992,59,33580,0,65700,0,0,0,0,0
i,0x00000000,1720562362.007591,172.16.3.2,5101,172.16.1.2,56415,10499,14480,0,65728,65728,6,6,4,1460,556,1,992,59,33580,0,65700,0,0,0,0,0
o,0x00000000,1720562362.007627,172.16.3.2,5101,172.16.1.2,56415,10499,14480,0,65728,65728,6,6,4,1460,556,1,993,59,33580,0,65700,1448,0,0,0,0
i,0x00000000,1720562362.041709,172.16.3.2,5101,172.16.1.2,56415,10499,14480,0,65728,65728,6,6,4,1460,556,1,992,59,33580,0,65700,0,0,0,0,0
i,0x00000000,1720562362.067147,172.16.3.2,5101,172.16.1.2,56415,10499,14480,0,65728,65728,6,6,4,1460,556,1,992,59,33580,0,65700,0,0,0,0,0
o,0x00000000,1720562362.067182,172.16.3.2,5101,172.16.1.2,56415,10499,14480,0,65728,65728,6,6,4,1460,556,1,993,59,33580,0,65700,1448,0,0,0,0
i,0x00000000,1720562362.175700,172.16.3.2,5101,172.16.1.2,56415,10499,14480,0,65728,65728,6,6,4,1460,556,1,992,59,33580,0,65700,0,0,0,0,0
i,0x00000000,1720562362.185995,172.16.3.2,5101,172.16.1.2,56415,10499,14480,0,65728,65728,6,6,4,1460,556,1,992,59,33580,0,65700,0,0,0,0,0
o,0x00000000,1720562362.186005,172.16.3.2,5101,172.16.1.2,56415,10499,14480,0,65728,65728,6,6,4,1460,556,1,993,59,33580,0,65700,1448,0,0,0,0
i,0x00000000,1720562362.186455,172.16.3.2,5101,172.16.1.2,56415,10499,14480,0,65728,65728,6,6,4,1460,556,1,992,59,33580,0,65700,1448,0,0,0,0
i,0x00000000,1720562362.195271,172.16.3.2,5101,172.16.1.2,56415,10499,14480,0,65728,65728,6,6,4,1460,556,1,992,59,33580,0,65700,0,0,0,0,0
o,0x00000000,1720562362.195284,172.16.3.2,5101,172.16.1.2,56415,10499,14480,0,65728,65728,6,6,4,1460,556,1,993,59,33580,0,65700,1448,0,0,0,0
i,0x00000000,1720562362.216967,172.16.3.2,5101,172.16.1.2,56415,10499,14480,0,65728,65728,6,6,4,1460,556,1,992,59,33580,0,65700,0,0,0,0,0
o,0x00000000,1720562362.257363,172.16.3.2,5101,172.16.1.2,56415,10499,14480,0,65728,65728,6,6,4,1460,556,1,993,59,33580,0,65700,0,0,0,0,0
i,0x00000000,1720562362.267860,172.16.3.2,5101,172.16.1.2,56415,10499,14480,0,65728,65728,6,6,4,1460,556,1,992,59,33580,0,65700,0,0,0,0,0
i,0x00000000,1720562362.277304,172.16.3.2,5101,172.16.1.2,56415,10499,14480,0,65728,65728,6,6,4,1460,556,1,992,59,33580,0,65700,0,0,0,0,0
o,0x00000000,1720562362.277349,172.16.3.2,5101,172.16.1.2,56415,10499,14480,0,65728,65728,6,6,4,1460,556,1,993,59,33580,0,65700,1448,0,0,0,0
i,0x00000000,1720562362.352949,172.16.3.2,5101,172.16.1.2,56415,10499,14480,0,65728,65728,6,6,4,1460,556,1,992,59,33580,0,65700,0,0,0,0,0
o,0x00000000,1720562362.358362,10.0.2.15,22,10.0.2.2,49435,1073725440,14600,0,65535,65700,0,0,4,1460,1,0,4,24,33580,108,65700,0,0,0,0,0
i,0x00000000,1720562362.359154,10.0.2.15,22,10.0.2.2,49435,1073725440,14600,0,65535,65700,0,0,4,1460,1,0,4,24,33580,108,65700,0,108,0,0,0
i,0x00000000,1720562362.365261,172.16.3.2,5101,172.16.1.2,56415,10499,14480,0,65728,65728,6,6,4,1460,556,1,992,59,33580,0,65700,0,0,0,0,0
o,0x00000000,1720562362.365277,172.16.3.2,5101,172.16.1.2,56415,10499,14480,0,65728,65728,6,6,4,1460,556,1,993,59,33580,0,65700,1448,0,0,0,0
i,0x00000000,1720562362.375371,172.16.3.2,5101,172.16.1.2,56415,10499,14480,0,65728,65728,6,6,4,1460,556,1,992,59,33580,0,65700,0,0,0,0,0
i,0x00000000,1720562362.394307,172.16.3.2,5101,172.16.1.2,56415,10499,14480,0,65728,65728,6,6,4,1460,556,1,992,59,33580,0,65700,0,0,0,0,0
o,0x00000000,1720562362.394324,172.16.3.2,5101,172.16.1.2,56415,10499,14480,0,65728,65728,6,6,4,1460,556,1,993,59,33580,0,65700,1448,0,0,0,0
i,0x00000000,1720562362.436156,172.16.3.2,5101,172.16.1.2,56415,10499,14480,0,65728,65728,6,6,4,1460,556,1,992,59,33580,0,65700,0,0,0,0,0
i,0x00000000,1720562362.447138,172.16.3.2,5101,172.16.1.2,56415,10499,14480,0,65728,65728,6,6,4,1460,556,1,992,59,33580,0,65700,0,0,0,0,0
o,0x00000000,1720562362.447171,172.16.3.2,5101,172.16.1.2,56415,10499,14480,0,65728,65728,6,6,4,1460,556,1,993,59,33580,0,65700,1448,0,0,0,0
i,0x00000000,1720562362.456540,172.16.3.2,5101,172.16.1.2,56415,10499,14480,0,65728,65728,6,6,4,1460,556,1,992,59,33580,0,65700,0,0,0,0,0
i,0x00000000,1720562362.464976,172.16.3.2,5101,172.16.1.2,56415,10499,14480,0,65728,65728,6,6,4,1460,556,1,992,59,33580,0,65700,0,0,0,0,0
o,0x00000000,1720562362.464990,172.16.3.2,5101,172.16.1.2,56415,10499,14480,0,65728,65728,6,6,4,1460,556,1,993,59,33580,0,65700,1448,0,0,0,0
i,0x00000000,1720562362.540074,172.16.3.2,5101,172.16.1.2,56415,10499,14480,0,65728,65728,6,6,4,1460,556,1,992,59,33580,0,65700,0,0,0,0,0
i,0x00000000,1720562362.550987,172.16.3.2,5101,172.16.1.2,56415,10499,14480,0,65728,65728,6,6,4,1460,556,1,992,59,33580,0,65700,0,0,0,0,0
o,0x00000000,1720562362.551027,172.16.3.2,5101,172.16.1.2,56415,10499,14480,0,65728,65728,6,6,4,1460,556,1,993,59,33580,0,65700,1448,0,0,0,0
i,0x00000000,1720562362.558210,172.16.3.2,5101,172.16.1.2,56415,10499,14480,0,65728,65728,6,6,4,1460,556,1,992,59,33580,0,65700,0,0,0,0,0
i,0x00000000,1720562362.568991,172.16.3.2,5101,172.16.1.2,56415,10499,14480,0,65728,65728,6,6,4,1460,556,1,992,59,33580,0,65700,0,0,0,0,0
o,0x00000000,1720562362.569041,172.16.3.2,5101,172.16.1.2,56415,10499,14480,0,65728,65728,6,6,4,1460,556,1,993,59,33580,0,65700,1448,0,0,0,0
i,0x00000000,1720562362.651196,172.16.3.2,5101,172.16.1.2,56415,10499,14480,0,65728,65728,6,6,4,1460,556,1,992,59,33580,0,65700,0,0,0,0,0
i,0x00000000,1720562362.655301,172.16.3.2,5101,172.16.1.2,56415,10499,14480,0,65728,65728,6,6,4,1460,556,1,992,59,33580,0,65700,0,0,0,0,0
o,0x00000000,1720562362.655311,172.16.3.2,5101,172.16.1.2,56415,10499,14480,0,65728,65728,6,6,4,1460,556,1,993,59,33580,0,65700,1448,0,0,0,0
i,0x00000000,1720562362.668437,172.16.3.2,5101,172.16.1.2,56415,10499,14480,0,65728,65728,6,6,4,1460,556,1,992,59,33580,0,65700,0,0,0,0,0
i,0x00000000,1720562362.707362,172.16.3.2,5101,172.16.1.2,56415,10499,14480,0,65728,65728,6,6,4,1460,556,1,992,59,33580,0,65700,0,0,0,0,0
o,0x00000000,1720562362.707410,172.16.3.2,5101,172.16.1.2,56415,10499,14480,0,65728,65728,6,6,4,1460,556,1,993,59,33580,0,65700,1448,0,0,0,0
i,0x00000000,1720562362.719594,172.16.3.2,5101,172.16.1.2,56415,10499,14480,0,65728,65728,6,6,4,1460,556,1,992,59,33580,0,65700,0,0,0,0,0
o,0x00000000,1720562362.758295,172.16.3.2,5101,172.16.1.2,56415,10499,14480,0,65728,65728,6,6,4,1460,556,1,993,59,33580,0,65700,0,0,0,0,0
i,0x00000000,1720562362.763390,172.16.3.2,5101,172.16.1.2,56415,10499,14480,0,65728,65728,6,6,4,1460,556,1,992,59,33580,0,65700,0,0,0,0,0
i,0x00000000,1720562362.768649,172.16.3.2,5101,172.16.1.2,56415,10499,14480,0,65728,65728,6,6,4,1460,556,1,992,59,33580,0,65700,0,0,0,0,0
o,0x00000000,1720562362.768683,172.16.3.2,5101,172.16.1.2,56415,10499,14480,0,65728,65728,6,6,4,1460,556,1,993,59,33580,0,65700,1448,0,0,0,0
i,0x00000000,1720562362.820496,172.16.3.2,5101,172.16.1.2,56415,10499,14480,0,65728,65728,6,6,4,1460,556,1,992,59,33580,0,65700,0,0,0,0,0
i,0x00000000,1720562362.828803,172.16.3.2,5101,172.16.1.2,56415,10499,14480,0,65728,65728,6,6,4,1460,556,1,992,59,33580,0,65700,0,0,0,0,0
o,0x00000000,1720562362.828859,172.16.3.2,5101,172.16.1.2,56415,10499,14480,0,65728,65728,6,6,4,1460,556,1,993,59,33580,0,65700,1448,0,0,0,0
i,0x00000000,1720562362.868460,172.16.3.2,5101,172.16.1.2,56415,10499,14480,0,65728,65728,6,6,4,1460,556,1,992,59,33580,0,65700,0,0,0,0,0
i,0x00000000,1720562362.878646,172.16.3.2,5101,172.16.1.2,56415,10499,14480,0,65728,65728,6,6,4,1460,556,1,992,59,33580,0,65700,0,0,0,0,0
o,0x00000000,1720562362.878698,172.16.3.2,5101,172.16.1.2,56415,10499,14480,0,65728,65700,6,6,4,1460,556,1,993,59,33580,0,65700,0,0,1,0,0
i,0x00000000,1720562362.928113,172.16.3.2,5101,172.16.1.2,56415,10499,14480,0,65728,65700,6,6,4,1460,556,1,992,59,33580,0,65700,0,0,1,0,0
o,0x00000000,1720562362.928138,172.16.3.2,5101,172.16.1.2,56415,10499,14480,0,65728,65728,6,6,4,1460,556,1,993,59,33580,0,65700,0,0,1,0,0
i,0x00000000,1720562362.940928,172.16.3.2,5101,172.16.1.2,56415,10499,14480,0,65728,65728,6,6,4,1460,556,1,992,59,33580,0,65700,0,0,1,0,0
