enable_time_secs=1720563477	enable_time_usecs=789177	siftrver=1.2.4	hz=100	tcp_rtt_scale=32	sysname=FreeBSD	sysver=1301000	ipmode=4
o,0x00000000,1720563477.789264,10.0.2.15,22,10.0.2.2,56348,1073725440,17770,0,65535,65700,0,0,4,1460,1,0,4,24,33580,44,65700,0,0,0,0,0
o,0x00000000,1720563477.789423,10.0.2.15,22,10.0.2.2,56348,1073725440,17770,0,65535,65700,0,0,4,1460,1,0,4,24,33580,80,65700,0,44,0,0,0
i,0x00000000,1720563477.790485,10.0.2.15,22,10.0.2.2,56348,1073725440,17770,0,65535,65700,0,0,4,1460,1,0,4,24,33580,80,65700,0,80,0,0,0
i,0x00000000,1720563477.790654,10.0.2.15,22,10.0.2.2,56348,1073725440,17814,0,65535,65700,0,0,4,1460,1,0,4,24,33580,36,65700,0,36,0,0,0
o,0x00000000,1720563477.790811,10.0.2.15,22,10.0.2.2,56348,1073725440,17850,0,65535,65700,0,0,4,1460,1,0,4,24,33580,36,65700,0,0,0,0,0
i,0x00000000,1720563477.791695,10.0.2.15,22,10.0.2.2,56348,1073725440,17850,0,65535,65700,0,0,4,1460,1,0,4,24,33580,36,65700,0,36,0,0,0
o,0x00000000,1720563477.791848,10.0.2.15,22,10.0.2.2,56348,1073725440,17886,0,65535,65700,0,0,4,1460,1,0,4,24,33580,36,65700,0,0,0,0,0
i,0x00000000,1720563477.792566,10.0.2.15,22,10.0.2.2,56348,1073725440,17886,0,65535,65700,0,0,4,1460,1,0,4,24,33580,36,65700,0,36,0,0,0
o,0x00000000,1720563477.792715,10.0.2.15,22,10.0.2.2,56348,1073725440,17922,0,65535,65700,0,0,4,1460,1,0,4,24,33580,140,65700,0,0,0,0,0
i,0x00000000,1720563477.793672,10.0.2.15,22,10.0.2.2,56348,1073725440,17922,0,65535,65700,0,0,4,1460,1,0,4,24,33580,140,65700,0,140,0,0,0
i,0x00000000,1720563477.793679,10.0.2.15,22,10.0.2.2,56348,1073725440,18062,0,65535,65700,0,0,4,1460,1,0,4,24,33580,0,65700,0,0,0,0,0
i,0x00000000,1720563477.793681,10.0.2.15,22,10.0.2.2,56348,1073725440,18062,0,65535,65700,0,0,4,1460,1,0,4,24,33580,0,65700,96,0,0,0,0
o,0x00000000,1720563477.793684,10.0.2.15,22,10.0.2.2,56348,1073725440,18062,0,65535,65604,0,0,5,1460,1,0,5,24,33580,0,65700,96,0,0,0,0
o,0x00000000,1720563477.794126,10.0.2.15,22,10.0.2.2,56348,1073725440,18062,0,65535,65604,0,0,8,1460,1,0,4,24,33580,0,65700,0,0,0,0,0
i,0x00000000,1720563477.795550,10.0.2.15,22,10.0.2.2,56348,1073725440,18062,0,65535,65604,0,0,8,1460,1,0,20,24,33580,0,65700,0,1,0,0,0
i,0x00000000,1720563479.889094,10.0.2.15,22,10.0.2.2,56270,1073725440,14600,0,65535,65700,0,0,4,1460,1,0,0,27,33580,0,65700,0,0,0,0,0
o,0x00000000,1720563479.899519,10.0.2.15,22,10.0.2.2,56270,1073725440,14600,0,65535,65700,0,0,4,1460,1,0,0,27,33580,38,65700,42,0,0,0,0
i,0x00000000,1720563479.901571,10.0.2.15,22,10.0.2.2,56270,1073725440,14600,0,65535,65700,0,0,4,1460,1,0,0,27,33580,38,65700,42,38,0,0,0
i,0x00000000,1720563479.901578,10.0.2.15,22,10.0.2.2,56270,1073725440,14638,0,65535,65700,0,0,4,1460,1,0,0,24,33580,0,65700,42,0,0,0,0
i,0x00000000,1720563479.901581,10.0.2.15,22,10.0.2.2,56270,1073725440,14638,0,65535,65700,0,0,4,1460,1,0,0,24,33580,0,65700,1502,0,0,0,0
o,0x00000000,1720563479.901585,10.0.2.15,22,10.0.2.2,56270,1073725440,14638,0,65535,65700,0,0,4,1460,1,0,1,24,33580,0,65700,1578,0,0,0,0
o,0x00000000,1720563479.903437,10.0.2.15,22,10.0.2.2,56270,1073725440,14638,0,65535,65700,0,0,4,1460,1,0,0,24,33580,1056,65700,1536,0,0,0,0
i,0x00000000,1720563479.906494,10.0.2.15,22,10.0.2.2,56270,1073725440,14638,0,65535,65700,0,0,4,1460,1,0,0,24,33580,1056,65700,1536,1056,0,0,0
i,0x00000000,1720563479.907904,10.0.2.15,22,10.0.2.2,56270,1073725440,15694,0,65535,65700,0,0,4,1460,1,0,0,24,33580,0,65700,1536,0,0,0,0
o,0x00000000,1720563479.911987,10.0.2.15,22,10.0.2.2,56270,1073725440,15694,0,65535,65700,0,0,4,1460,1,0,0,24,33580,484,65700,0,0,0,0,0
i,0x00000000,1720563479.913663,10.0.2.15,22,10.0.2.2,56270,1073725440,15694,0,65535,65700,0,0,4,1460,1,0,0,24,33580,484,65700,0,484,0,0,0
i,0x00000000,1720563479.923328,10.0.2.15,22,10.0.2.2,56270,1073725440,16178,0,65535,65700,0,0,4,1460,1,0,0,24,33580,0,65700,0,0,0,0,0
i,0x00000000,1720563479.923364,10.0.2.15,22,10.0.2.2,56270,1073725440,16178,0,65535,65700,0,0,4,1460,1,0,0,24,33580,0,65700,16,0,0,0,0
o,0x00000000,1720563479.923380,10.0.2.15,22,10.0.2.2,56270,1073725440,16178,0,65535,65700,0,0,4,1460,1,0,1,24,33580,0,65700,60,0,0,0,0
o,0x00000000,1720563479.924779,10.0.2.15,22,10.0.2.2,56270,1073725440,16178,0,65535,65700,0,0,4,1460,1,0,0,24,33580,44,65700,0,0,0,0,0
i,0x00000000,1720563479.928101,10.0.2.15,22,10.0.2.2,56270,1073725440,16178,0,65535,65700,0,0,4,1460,1,0,0,24,33580,44,65700,0,44,0,0,0
i,0x00000000,1720563479.928112,10.0.2.15,22,10.0.2.2,56270,1073725440,16222,0,65535,65700,0,0,4,1460,1,0,0,24,33580,0,65700,0,0,0,0,0
o,0x00000000,1720563479.939486,10.0.2.15,22,10.0.2.2,56270,1073725440,16222,0,65535,65700,0,0,4,1460,1,0,0,24,33580,68,65700,0,0,0,0,0
i,0x00000000,1720563479.941994,10.0.2.15,22,10.0.2.2,56270,1073725440,16222,0,65535,65700,0,0,4,1460,1,0,0,24,33580,68,65700,0,68,0,0,0
i,0x00000000,1720563479.942005,10.0.2.15,22,10.0.2.2,56270,1073725440,16290,0,65535,65700,0,0,4,1460,1,0,0,24,33580,0,65700,0,0,0,0,0
o,0x00000000,1720563479.942701,10.0.2.15,22,10.0.2.2,56270,1073725440,16290,0,65535,65700,0,0,4,1460,1,0,0,24,33580,332,65700,0,0,0,0,0
i,0x00000000,1720563479.944578,10.0.2.15,22,10.0.2.2,56270,1073725440,16290,0,65535,65700,0,0,4,1460,1,0,0,24,33580,332,65700,0,332,0,0,0
i,0x00000000,1720563479.946551,10.0.2.15,22,10.0.2.2,56270,1073725440,16622,0,65535,65700,0,0,4,1460,1,0,0,24,33580,0,65700,0,0,0,0,0
o,0x00000000,1720563479.961963,10.0.2.15,22,10.0.2.2,56270,1073725440,16622,0,65535,65700,0,0,4,1460,1,0,0,24,33580,28,65700,0,0,0,0,0
i,0x00000000,1720563479.963081,10.0.2.15,22,10.0.2.2,56270,1073725440,16622,0,65535,65700,0,0,4,1460,1,0,0,24,33580,28,65700,0,28,0,0,0
i,0x00000000,1720563479.963086,10.0.2.15,22,10.0.2.2,56270,1073725440,16650,0,65535,65700,0,0,4,1460,1,0,0,24,33580,0,65700,0,0,0,0,0
o,0x00000000,1720563479.964166,10.0.2.15,22,10.0.2.2,56270,1073725440,16650,0,65535,65700,0,0,4,1460,1,0,0,24,33580,768,65700,112,0,0,0,0
i,0x00000000,1720563479.965183,10.0.2.15,22,10.0.2.2,56270,1073725440,16650,0,65535,65700,0,0,4,1460,1,0,0,24,33580,768,65700,112,768,0,0,0
o,0x00000000,1720563479.965362,10.0.2.15,22,10.0.2.2,56270,1073725440,17418,0,65535,65700,0,0,4,1460,1,0,0,24,33580,140,65700,112,0,0,0,0
i,0x00000000,1720563479.968050,10.0.2.15,22,10.0.2.2,56270,1073725440,17418,0,65535,65700,0,0,4,1460,1,0,0,24,33580,140,65700,112,140,0,0,0
o,0x00000000,1720563479.968699,10.0.2.15,22,10.0.2.2,56270,1073725440,17558,0,65535,65700,0,0,4,1460,1,0,0,24,33580,44,65700,0,0,0,0,0
i,0x00000000,1720563479.971438,10.0.2.15,22,10.0.2.2,56270,1073725440,17558,0,65535,65700,0,0,4,1460,1,0,0,24,33580,44,65700,0,44,0,0,0
i,0x00000000,1720563479.971457,10.0.2.15,22,10.0.2.2,56270,1073725440,17602,0,65535,65700,0,0,4,1460,1,0,0,24,33580,0,65700,0,0,0,0,0
o,0x00000000,1720563479.972325,10.0.2.15,22,10.0.2.2,56270,1073725440,17602,0,65535,65700,0,0,4,1460,1,0,4,24,33580,72,65700,0,0,0,0,0
i,0x00000000,1720563479.974731,10.0.2.15,22,10.0.2.2,56270,1073725440,17602,0,65535,65700,0,0,4,1460,1,0,4,24,33580,72,65700,0,72,0,0,0
o,0x00000000,1720563479.985248,10.0.2.15,22,10.0.2.2,56270,1073725440,17674,0,65535,65700,0,0,4,1460,1,0,4,24,33580,44,65700,0,0,0,0,0
i,0x00000000,1720563479.986982,10.0.2.15,22,10.0.2.2,56270,1073725440,17674,0,65535,65700,0,0,4,1460,1,0,4,24,33580,44,65700,0,44,0,0,0
o,0x00000000,1720563479.987679,10.0.2.15,22,10.0.2.2,56270,1073725440,17718,0,65535,65700,0,0,4,1460,1,0,4,23,33580,44,65700,0,0,0,0,0
i,0x00000000,1720563479.988671,10.0.2.15,22,10.0.2.2,56270,1073725440,17718,0,65535,65700,0,0,4,1460,1,0,4,23,33580,44,65700,0,44,0,0,0
o,0x00000000,1720563479.996543,10.0.2.15,22,10.0.2.2,56270,1073725440,17762,0,65535,65700,0,0,4,1460,1,0,4,23,33580,176,65700,0,0,0,0,0
i,0x00000000,1720563479.998355,10.0.2.15,22,10.0.2.2,56270,1073725440,17762,0,65535,65700,0,0,4,1460,1,0,4,23,33580,176,65700,0,176,0,0,0
i,0x00000000,1720563479.998366,10.0.2.15,22,10.0.2.2,56270,1073725440,17938,0,65535,65700,0,0,4,1460,1,0,4,23,33580,0,65700,0,0,0,0,0
i,0x00000000,1720563480.001497,10.0.2.15,22,10.0.2.2,56270,1073725440,17938,0,65535,65700,0,0,4,1460,1,0,4,23,33580,0,65700,0,0,0,0,0
o,0x00000000,1720563480.001513,10.0.2.15,22,10.0.2.2,56270,1073725440,17938,0,65535,65700,0,0,5,1460,1,0,5,23,33580,0,65700,0,0,0,0,0
o,0x00000000,1720563480.012005,10.0.2.15,22,10.0.2.2,56270,1073725440,17938,0,65535,65700,0,0,8,1460,1,0,4,23,33580,0,65700,0,0,0,0,0
i,0x00000000,1720563480.013810,10.0.2.15,22,10.0.2.2,56270,1073725440,17938,0,65535,65700,0,0,8,1460,1,0,20,23,33580,0,65700,0,1,0,0,0
i,0x00000000,1720563480.257081,172.16.3.2,5101,172.16.1.2,39251,10499,14480,0,65728,65700,6,6,4,1460,466,1,996,46,33580,0,65700,0,0,0,0,0
o,0x00000000,1720563480.257670,172.16.3.2,5101,172.16.1.2,39251,10499,14480,0,65728,65700,6,6,4,1460,466,1,996,46,33580,1,65700,0,0,0,0,0
i,0x00000000,1720563480.382780,172.16.3.2,5101,172.16.1.2,39251,10499,14480,0,65728,65700,6,6,4,1460,466,1,996,46,33580,1,65700,0,1,0,0,0
i,0x00000000,1720563480.382818,172.16.3.2,5101,172.16.1.2,39251,10499,14480,0,65728,65728,6,6,4,1460,456,1,996,45,33580,0,65700,4,0,0,0,0
o,0x00000000,1720563480.382837,172.16.3.2,5101,172.16.1.2,39251,10499,14480,0,65728,65728,6,6,4,1460,456,1,997,45,33580,0,65700,128,0,0,0,0
o,0x00000000,1720563480.386311,172.16.3.2,5101,172.16.1.2,39251,10499,14480,0,65728,65728,6,6,4,1460,456,1,996,45,33580,1,65700,0,0,0,0,0
o,0x00000000,1720563480.388700,10.0.2.15,22,10.0.2.2,49435,1073725440,14600,0,65535,65700,0,0,4,1460,1,0,4,24,33580,84,65700,0,0,0,0,0
i,0x00000000,1720563480.392322,10.0.2.15,22,10.0.2.2,49435,1073725440,14600,0,65535,65700,0,0,4,1460,1,0,4,24,33580,84,65700,0,84,0,0,0
i,0x00000000,1720563480.532770,172.16.3.2,5101,172.16.1.2,39251,10499,14480,0,65728,65728,6,6,4,1460,456,1,996,45,33580,1,65700,0,1,0,0,0
i,0x00000000,1720563480.627753,172.16.3.2,5101,172.16.1.2,25004,10499,14480,0,65728,65700,6,6,4,1460,474,1,992,44,33580,0,65700,0,0,0,0,0
o,0x00000000,1720563480.639202,172.16.3.2,5101,172.16.1.2,39251,10499,14480,0,65728,65728,6,6,4,1460,459,1,996,43,33580,1,65700,0,0,0,0,0
o,0x00000000,1720563480.640340,172.16.3.2,5101,172.16.1.2,39251,10499,14480,0,65728,65728,6,6,4,1460,459,1,996,43,33580,2,65700,0,1,0,0,0
o,0x00000000,1720563480.642124,10.0.2.15,22,10.0.2.2,49435,1073725440,14600,0,65535,65700,0,0,4,1460,1,0,4,24,33580,108,65700,0,0,0,0,0
i,0x00000000,1720563480.644807,10.0.2.15,22,10.0.2.2,49435,1073725440,14600,0,65535,65700,0,0,4,1460,1,0,4,24,33580,108,65700,0,108,0,0,0
o,0x00000000,1720563480.667939,172.16.3.2,5101,172.16.1.2,25004,10499,14480,0,65728,65700,6,6,4,1460,474,1,993,44,33580,0,65700,0,0,0,0,0
i,0x00000000,1720563480.763655,172.16.3.2,5101,172.16.1.2,39251,10499,14480,0,65728,65728,6,6,4,1460,459,1,996,43,33580,2,65700,0,2,0,0,0
i,0x00000000,1720563480.860715,172.16.3.2,5101,172.16.1.2,25004,10499,14480,0,65728,65700,6,6,4,1460,474,1,992,44,33580,0,65700,0,0,0,0,0
i,0x00000000,1720563480.866767,172.16.3.2,5101,172.16.1.2,25004,10499,14480,0,65728,65700,6,6,4,1460,474,1,992,44,33580,0,65700,0,0,0,0,0
o,0x00000000,1720563480.866814,172.16.3.2,5101,172.16.1.2,25004,10499,14480,0,65728,65700,6,6,4,1460,474,1,993,44,33580,0,65700,1448,0,0,0,0
i,0x00000000,1720563480.875732,172.16.3.2,5101,172.16.1.2,25004,10499,14480,0,65728,65700,6,6,4,1460,474,1,992,44,33580,0,65700,0,0,0,0,0
i,0x00000000,1720563480.886226,172.16.3.2,5101,172.16.1.2,25004,10499,14480,0,65728,65700,6,6,4,1460,474,1,992,44,33580,0,65700,0,0,0,0,0
o,0x00000000,1720563480.886263,172.16.3.2,5101,172.16.1.2,25004,10499,14480,0,65728,65700,6,6,4,1460,474,1,993,44,33580,0,65700,1448,0,0,0,0
i,0x00000000,1720563480.905788,172.16.3.2,5101,172.16.1.2,25004,10499,14480,0,65728,65700,6,6,4,1460,474,1,992,44,33580,0,65700,0,0,0,0,0
i,0x00000000,1720563480.922471,172.16.3.2,5101,172.16.1.2,25004,10499,14480,0,65728,65700,6,6,4,1460,474,1,992,44,33580,0,65700,0,0,0,0,0
o,0x00000000,1720563480.922532,172.16.3.2,5101,172.16.1.2,25004,10499,14480,0,65728,65700,6,6,4,1460,474,1,993,44,33580,0,65700,1448,0,0,0,0
i,0x00000000,1720563480.929104,172.16.3.2,5101,172.16.1.2,25004,10499,14480,0,65728,65700,6,6,4,1460,474,1,992,44,33580,0,65700,0,0,0,0,0
i,0x00000000,1720563480.943677,172.16.3.2,5101,172.16.1.2,25004,10499,14480,0,65728,65700,6,6,4,1460,474,1,992,44,33580,0,65700,0,0,0,0,0
o,0x00000000,1720563480.943726,172.16.3.2,5101,172.16.1.2,25004,10499,14480,0,65728,65700,6,6,4,1460,474,1,993,44,33580,0,65700,1448,0,0,0,0
i,0x00000000,1720563480.955466,172.16.3.2,5101,172.16.1.2,25004,10499,14480,0,65728,65700,6,6,4,1460,474,1,992,44,33580,0,65700,0,0,0,0,0
i,0x00000000,1720563480.965686,172.16.3.2,5101,172.16.1.2,25004,10499,14480,0,65728,65700,6,6,4,1460,474,1,992,44,33580,0,65700,0,0,0,0,0
o,0x00000000,1720563480.965719,172.16.3.2,5101,172.16.1.2,25004,10499,14480,0,65728,65700,6,6,4,1460,474,1,993,44,33580,0,65700,1448,0,0,0,0
i,0x00000000,1720563481.077902,172.16.3.2,5101,172.16.1.2,25004,10499,14480,0,65728,65700,6,6,4,1460,474,1,992,44,33580,0,65700,0,0,0,0,0
i,0x00000000,1720563481.087041,172.16.3.2,5101,172.16.1.2,25004,10499,14480,0,65728,65700,6,6,4,1460,474,1,992,44,33580,0,65700,0,0,0,0,0
o,0x00000000,1720563481.087079,172.16.3.2,5101,172.16.1.2,25004,10499,14480,0,65728,65700,6,6,4,1460,474,1,993,44,33580,0,65700,1448,0,0,0,0
i,0x00000000,1720563481.125176,172.16.3.2,5101,172.16.1.2,25004,10499,14480,0,65728,65700,6,6,4,1460,474,1,992,44,33580,0,65700,0,0,0,0,0
i,0x00000000,1720563481.139641,172.16.3.2,5101,172.16.1.2,25004,10499,14480,0,65728,65700,6,6,4,1460,474,1,992,44,33580,0,65700,0,0,0,0,0
o,0x00000000,1720563481.139726,172.16.3.2,5101,172.16.1.2,25004,10499,14480,0,65728,65700,6,6,4,1460,474,1,993,44,33580,0,65700,1448,0,0,0,0
i,0x00000000,1720563481.182466,172.16.3.2,5101,172.16.1.2,25004,10499,14480,0,65728,65700,6,6,4,1460,474,1,992,44,33580,0,65700,0,0,0,0,0
i,0x00000000,1720563481.189373,172.16.3.2,5101,172.16.1.2,25004,10499,14480,0,65728,65700,6,6,4,1460,474,1,992,44,33580,0,65700,0,0,0,0,0
o,0x00000000,1720563481.189395,172.16.3.2,5101,172.16.1.2,25004,10499,14480,0,65728,65700,6,6,4,1460,474,1,993,44,33580,0,65700,1448,0,0,0,0
i,0x00000000,1720563481.197321,172.16.3.2,5101,172.16.1.2,25004,10499,14480,0,65728,65700,6,6,4,1460,474,1,992,44,33580,0,65700,0,0,0,0,0
o,0x00000000,1720563481.239028,172.16.3.2,5101,172.16.1.2,25004,10499,14480,0,65728,65700,6,6,4,1460,474,1,993,44,33580,0,65700,0,0,0,0,0
i,0x00000000,1720563481.245348,172.16.3.2,5101,172.16.1.2,25004,10499,14480,0,65728,65700,6,6,4,1460,474,1,992,44,33580,0,65700,0,0,0,0,0
i,0x00000000,1720563481.255149,172.16.3.2,5101,172.16.1.2,25004,10499,14480,0,65728,65700,6,6,4,1460,474,1,992,44,33580,0,65700,0,0,0,0,0
o,0x00000000,1720563481.255204,172.16.3.2,5101,172.16.1.2,25004,10499,14480,0,65728,65700,6,6,4,1460,474,1,993,44,33580,0,65700,1448,0,0,0,0
i,0x00000000,1720563481.255790,172.16.3.2,5101,172.16.1.2,25004,10499,14480,0,65728,65700,6,6,4,1460,474,1,992,44,33580,0,65700,1448,0,0,0,0
i,0x00000000,1720563481.267008,172.16.3.2,5101,172.16.1.2,25004,10499,14480,0,65728,65700,6,6,4,1460,474,1,992,44,33580,0,65700,0,0,0,0,0
o,0x00000000,1720563481.267057,172.16.3.2,5101,172.16.1.2,25004,10499,14480,0,65728,65700,6,6,4,1460,474,1,993,44,33580,0,65700,1448,0,0,0,0
i,0x00000000,1720563481.298068,172.16.3.2,5101,172.16.1.2,25004,10499,14480,0,65728,65700,6,6,4,1460,474,1,992,44,33580,0,65700,0,0,0,0,0
i,0x00000000,1720563481.316087,172.16.3.2,5101,172.16.1.2,25004,10499,14480,0,65728,65700,6,6,4,1460,474,1,992,44,33580,0,65700,0,0,0,0,0
o,0x00000000,1720563481.316115,172.16.3.2,5101,172.16.1.2,25004,10499,14480,0,65728,65700,6,6,4,1460,474,1,993,44,33580,0,65700,1448,0,0,0,0
i,0x00000000,1720563481.371681,172.16.3.2,5101,172.16.1.2,25004,10499,14480,0,65728,65700,6,6,4,1460,474,1,992,44,33580,0,65700,0,0,0,0,0
i,0x00000000,1720563481.397994,172.16.3.2,5101,172.16.1.2,25004,10499,14480,0,65728,65700,6,6,4,1460,474,1,992,44,33580,0,65700,0,0,0,0,0
o,0x00000000,1720563481.398020,172.16.3.2,5101,172.16.1.2,25004,10499,14480,0,65728,65700,6,6,4,1460,474,1,993,44,33580,0,65700,1448,0,0,0,0
i,0x00000000,1720563481.405744,172.16.3.2,5101,172.16.1.2,25004,10499,14480,0,65728,65700,6,6,4,1460,474,1,992,44,33580,0,65700,0,0,0,0,0
i,0x00000000,1720563481.427672,172.16.3.2,5101,172.16.1.2,25004,10499,14480,0,65728,65700,6,6,4,1460,474,1,992,44,33580,0,65700,0,0,0,0,0
o,0x00000000,1720563481.427730,172.16.3.2,5101,172.16.1.2,25004,10499,14480,0,65728,65700,6,6,4,1460,474,1,993,44,33580,0,65700,1448,0,0,0,0
i,0x00000000,1720563481.475363,172.16.3.2,5101,172.16.1.2,25004,10499,14480,0,65728,65700,6,6,4,1460,474,1,992,44,33580,0,65700,0,0,0,0,0
o,0x00000000,1720563481.506955,172.16.3.2,5101,172.16.1.2,25004,10499,14480,0,65728,65700,6,6,4,1460,474,1,993,44,33580,0,65700,0,0,0,0,0
i,0x00000000,1720563481.517011,172.16.3.2,5101,172.16.1.2,25004,10499,14480,0,65728,65700,6,6,4,1460,474,1,992,44,33580,0,65700,0,0,0,0,0
i,0x00000000,1720563481.529699,172.16.3.2,5101,172.16.1.2,25004,10499,14480,0,65728,65700,6,6,4,1460,474,1,992,44,33580,0,65700,0,0,0,0,0
o,0x00000000,1720563481.529772,172.16.3.2,5101,172.16.1.2,25004,10499,14480,0,65728,65700,6,6,4,1460,474,1,993,44,33580,0,65700,1448,0,0,0,0
i,0x00000000,1720563481.568975,172.16.3.2,5101,172.16.1.2,25004,10499,14480,0,65728,65700,6,6,4,1460,474,1,992,44,33580,0,65700,0,0,0,0,0
i,0x00000000,1720563481.577274,172.16.3.2,5101,172.16.1.2,25004,10499,14480,0,65728,65700,6,6,4,1460,474,1,992,44,33580,0,65700,0,0,0,0,0
o,0x00000000,1720563481.577346,172.16.3.2,5101,172.16.1.2,25004,10499,14480,0,65728,65700,6,6,4,1460,474,1,993,44,33580,0,65700,1448,0,0,0,0
i,0x00000000,1720563481.585295,172.16.3.2,5101,172.16.1.2,25004,10499,14480,0,65728,65700,6,6,4,1460,474,1,992,44,33580,0,65700,0,0,0,0,0
o,0x00000000,1720563481.619255,172.16.3.2,5101,172.16.1.2,25004,10499,14480,0,65728,65700,6,6,4,1460,474,1,993,44,33580,0,65700,0,0,0,0,0
i,0x00000000,1720563481.625304,172.16.3.2,5101,172.16.1.2,25004,10499,14480,0,65728,65700,6,6,4,1460,474,1,992,44,33580,0,65700,0,0,0,0,0
i,0x00000000,1720563481.636431,172.16.3.2,5101,172.16.1.2,25004,10499,14480,0,65728,65700,6,6,4,1460,474,1,992,44,33580,0,65700,0,0,0,0,0
o,0x00000000,1720563481.636477,172.16.3.2,5101,172.16.1.2,25004,10499,14480,0,65728,65700,6,6,4,1460,474,1,993,44,33580,0,65700,1448,0,0,0,0
o,0x00000000,1720563481.648203,10.0.2.15,22,10.0.2.2,49435,1073725440,14600,0,65535,65700,0,0,4,1460,1,0,4,24,33580,156,65700,0,0,0,0,0
i,0x00000000,1720563481.650737,10.0.2.15,22,10.0.2.2,49435,1073725440,14600,0,65535,65700,0,0,4,1460,1,0,4,24,33580,156,65700,0,156,0,0,0
i,0x00000000,1720563481.682970,172.16.3.2,5101,172.16.1.2,25004,10499,14480,0,65728,65700,6,6,4,1460,474,1,992,44,33580,0,65700,0,0,0,0,0
i,0x00000000,1720563481.688950,172.16.3.2,5101,172.16.1.2,25004,10499,14480,0,65728,65700,6,6,4,1460,474,1,992,44,33580,0,65700,0,0,0,0,0
o,0x00000000,1720563481.688988,172.16.3.2,5101,172.16.1.2,25004,10499,14480,0,65728,65700,6,6,4,1460,474,1,993,44,33580,0,65700,1448,0,0,0,0
i,0x00000000,1720563481.696123,172.16.3.2,5101,172.16.1.2,25004,10499,14480,0,65728,65700,6,6,4,1460,474,1,992,44,33580,0,65700,0,0,0,0,0
i,0x00000000,1720563481.723928,172.16.3.2,5101,172.16.1.2,25004,10499,14480,0,65728,65700,6,6,4,1460,474,1,992,44,33580,0,65700,0,0,0,0,0
o,0x00000000,1720563481.723952,172.16.3.2,5101,172.16.1.2,25004,10499,14480,0,65728,65700,6,6,4,1460,474,1,993,44,33580,0,65700,1448,0,0,0,0
i,0x00000000,1720563481.753639,172.16.3.2,5101,172.16.1.2,25004,10499,14480,0,65728,65700,6,6,4,1460,474,1,992,44,33580,0,65700,0,0,0,0,0
o,0x00000000,1720563481.787319,172.16.3.2,5101,172.16.1.2,25004,10499,14480,0,65728,65700,6,6,4,1460,474,1,993,44,33580,0,65700,0,0,0,0,0
i,0x00000000,1720563481.788412,172.16.3.2,5101,172.16.1.2,25004,10499,14480,0,65728,65700,6,6,4,1460,474,1,992,44,33580,0,65700,0,0,0,0,0
i,0x00000000,1720563481.808236,172.16.3.2,5101,172.16.1.2,25004,10499,14480,0,65728,65700,6,6,4,1460,474,1,992,44,33580,0,65700,0,0,0,0,0
o,0x00000000,1720563481.808270,172.16.3.2,5101,172.16.1.2,25004,10499,14480,0,65728,65700,6,6,4,1460,474,1,993,44,33580,0,65700,1448,0,0,0,0
i,0x00000000,1720563481.837226,172.16.3.2,5101,172.16.1.2,25004,10499,14480,0,65728,65700,6,6,4,1460,474,1,992,44,33580,0,65700,0,0,0,0,0
o,0x00000000,1720563481.878024,172.16.3.2,5101,172.16.1.2,25004,10499,14480,0,65728,65700,6,6,4,1460,474,1,993,44,33580,0,65700,0,0,0,0,0
i,0x00000000,1720563481.902336,172.16.3.2,5101,172.16.1.2,25004,10499,14480,0,65728,65700,6,6,4,1460,474,1,992,44,33580,0,65700,0,0,0,0,0
i,0x00000000,1720563481.902361,172.16.3.2,5101,172.16.1.2,25004,10499,14480,0,65728,65700,6,6,4,1460,474,1,992,44,33580,0,65700,1448,0,0,0,0
o,0x00000000,1720563481.902379,172.16.3.2,5101,172.16.1.2,25004,10499,14480,0,65728,65700,6,6,4,1460,474,1,993,44,33580,0,65700,2896,0,0,0,0
i,0x00000000,1720563481.934000,172.16.3.2,5101,172.16.1.2,25004,10499,14480,0,65728,65700,6,6,4,1460,474,1,992,44,33580,0,65700,0,0,0,0,0
i,0x00000000,1720563481.947591,172.16.3.2,5101,172.16.1.2,25004,10499,14480,0,65728,65700,6,6,4,1460,474,1,992,44,33580,0,65700,0,0,0,0,0
o,0x00000000,1720563481.947642,172.16.3.2,5101,172.16.1.2,25004,10499,14480,0,65728,65700,6,6,4,1460,474,1,993,44,33580,0,65700,1448,0,0,0,0
i,0x00000000,1720563481.973263,172.16.3.2,5101,172.16.1.2,25004,10499,14480,0,65728,65700,6,6,4,1460,474,1,992,44,33580,0,65700,0,0,0,0,0
i,0x00000000,1720563481.994600,172.16.3.2,5101,172.16.1.2,25004,10499,14480,0,65728,65700,6,6,4,1460,474,1,992,44,33580,0,65700,0,0,0,0,0
o,0x00000000,1720563481.994627,172.16.3.2,5101,172.16.1.2,25004,10499,14480,0,65728,65700,6,6,4,1460,474,1,993,44,33580,0,65700,1448,0,0,0,0
i,0x00000000,1720563482.013685,172.16.3.2,5101,172.16.1.2,25004,10499,14480,0,65728,65700,6,6,4,1460,474,1,992,44,33580,0,65700,0,0,0,0,0
i,0x00000000,1720563482.024136,172.16.3.2,5101,172.16.1.2,25004,10499,14480,0,65728,65700,6,6,4,1460,474,1,992,44,33580,0,65700,0,0,0,0,0
o,0x00000000,1720563482.024161,172.16.3.2,5101,172.16.1.2,25004,10499,14480,0,65728,65700,6,6,4,1460,474,1,993,44,33580,0,65700,1448,0,0,0,0
i,0x00000000,1720563482.065463,172.16.3.2,5101,172.16.1.2,25004,10499,14480,0,65728,65700,6,6,4,1460,474,1,992,44,33580,0,65700,0,0,0,0,0
i,0x00000000,1720563482.073787,172.16.3.2,5101,172.16.1.2,25004,10499,14480,0,65728,65700,6,6,4,1460,474,1,992,44,33580,0,65700,0,0,0,0,0
o,0x00000000,1720563482.073808,172.16.3.2,5101,172.16.1.2,25004,10499,14480,0,65728,65700,6,6,4,1460,474,1,993,44,33580,0,65700,1448,0,0,0,0
i,0x00000000,1720563482.103864,172.16.3.2,5101,172.16.1.2,25004,10499,14480,0,65728,65700,6,6,4,1460,474,1,992,44,33580,0,65700,0,0,0,0,0
i,0x00000000,1720563482.113968,172.16.3.2,5101,172.16.1.2,25004,10499,14480,0,65728,65700,6,6,4,1460,474,1,992,44,33580,0,65700,0,0,0,0,0
o,0x00000000,1720563482.113982,172.16.3.2,5101,172.16.1.2,25004,10499,14480,0,65728,65700,6,6,4,1460,474,1,993,44,33580,0,65700,1448,0,0,0,0
i,0x00000000,1720563482.146120,172.16.3.2,5101,172.16.1.2,25004,10499,14480,0,65728,65700,6,6,4,1460,474,1,992,44,33580,0,65700,0,0,0,0,0
o,0x00000000,1720563482.177275,172.16.3.2,5101,172.16.1.2,25004,10499,14480,0,65728,65700,6,6,4,1460,474,1,993,44,33580,0,65700,0,0,0,0,0
i,0x00000000,1720563482.184273,172.16.3.2,5101,172.16.1.2,25004,10499,14480,0,65728,65700,6,6,4,1460,474,1,992,44,33580,0,65700,0,0,0,0,0
i,0x00000000,1720563482.201070,172.16.3.2,5101,172.16.1.2,25004,10499,14480,0,65728,65700,6,6,4,1460,474,1,992,44,33580,0,65700,0,0,0,0,0
o,0x00000000,1720563482.201086,172.16.3.2,5101,172.16.1.2,25004,10499,14480,0,65728,65700,6,6,4,1460,474,1,993,44,33580,0,65700,1448,0,0,0,0
i,0x00000000,1720563482.223206,172.16.3.2,5101,172.16.1.2,25004,10499,14480,0,65728,65700,6,6,4,1460,474,1,992,44,33580,0,65700,0,0,0,0,0
o,0x00000000,1720563482.261837,172.16.3.2,5101,172.16.1.2,25004,10499,14480,0,65728,65700,6,6,4,1460,474,1,993,44,33580,0,65700,0,0,0,0,0
i,0x00000000,1720563482.276818,172.16.3.2,5101,172.16.1.2,25004,10499,14480,0,65728,65700,6,6,4,1460,474,1,992,44,33580,0,65700,0,0,0,0,0
i,0x00000000,1720563482.286926,172.16.3.2,5101,172.16.1.2,25004,10499,14480,0,65728,65700,6,6,4,1460,474,1,992,44,33580,0,65700,0,0,0,0,0
o,0x00000000,1720563482.286940,172.16.3.2,5101,172.16.1.2,25004,10499,14480,0,65728,65700,6,6,4,1460,474,1,993,44,33580,0,65700,1448,0,0,0,0
i,0x00000000,1720563482.324467,172.16.3.2,5101,172.16.1.2,25004,10499,14480,0,65728,65700,6,6,4,1460,474,1,992,44,33580,0,65700,0,0,0,0,0
o,0x00000000,1720563482.356695,172.16.3.2,5101,172.16.1.2,25004,10499,14480,0,65728,65700,6,6,4,1460,474,1,993,44,33580,0,65700,0,0,0,0,0
i,0x00000000,1720563482.358033,172.16.3.2,5101,172.16.1.2,25004,10499,14480,0,65728,65700,6,6,4,1460,474,1,992,44,33580,0,65700,0,0,0,0,0
o,0x00000000,1720563482.358045,172.16.3.2,5101,172.16.1.2,25004,10499,14480,0,65728,65728,6,6,4,1460,474,1,993,44,33580,0,65700,0,0,1,0,0
i,0x00000000,1720563482.364157,172.16.3.2,5101,172.16.1.2,25004,10499,14480,0,65728,65728,6,6,4,1460,474,1,992,44,33580,0,65700,0,0,1,0,0
o,0x00000000,1720563482.364169,172.16.3.2,5101,172.16.1.2,25004,10499,14480,0,65728,65728,6,6,4,1460,474,1,993,44,33580,0,65700,0,0,1,0,0
i,0x00000000,1720563482.387379,172.16.3.2,5101,172.16.1.2,25004,10499,14480,0,65728,65728,6,6,4,1460,474,1,992,44,33580,0,65700,0,0,1,0,0
o,0x00000000,1720563482.387405,172.16.3.2,5101,172.16.1.2,25004,10499,14480,0,65728,65728,6,6,4,1460,474,1,993,44,33580,0,65700,0,0,1,0,0
i,0x00000000,1720563482.393873,172.16.3.2,5101,172.16.1.2,25004,10499,14480,0,65728,65728,6,6,4,1460,474,1,992,44,33580,0,65700,0,0,1,0,0
o,0x00000000,1720563482.393888,172.16.3.2,5101,172.16.1.2,25004,10499,14480,0,65728,65728,6,6,4,1460,474,1,993,44,33580,0,65700,0,0,1,0,0
i,0x00000000,1720563482.459408,172.16.3.2,5101,172.16.1.2,25004,10499,14480,0,65728,65728,6,6,4,1460,474,1,992,44,33580,0,65700,0,0,1,0,0
o,0x00000000,1720563482.459427,172.16.3.2,5101,172.16.1.2,25004,10499,14480,0,65728,65728,6,6,4,1460,474,1,993,44,33580,0,65700,0,0,1,0,0
i,0x00000000,1720563482.459550,172.16.3.2,5101,172.16.1.2,25004,10499,14480,0,65728,65728,6,6,4,1460,474,1,992,44,33580,0,65700,0,0,1,0,0
o,0x00000000,1720563482.459559,172.16.3.2,5101,172.16.1.2,25004,10499,14480,0,65728,65728,6,6,4,1460,474,1,993,44,33580,0,65700,0,0,1,0,0
i,0x00000000,1720563482.480070,172.16.3.2,5101,172.16.1.2,25004,10499,14480,0,65728,65728,6,6,4,1460,474,1,992,44,33580,0,65700,0,0,1,0,0
o,0x00000000,1720563482.480082,172.16.3.2,5101,172.16.1.2,25004,10499,14480,0,65728,65728,6,6,4,1460,474,1,993,44,33580,0,65700,0,0,1,0,0
i,0x00000000,1720563482.483108,172.16.3.2,5101,172.16.1.2,25004,10499,14480,0,65728,65728,6,6,4,1460,474,1,992,44,33580,0,65700,0,0,1,0,0
o,0x00000000,1720563482.483119,172.16.3.2,5101,172.16.1.2,25004,10499,14480,0,65728,65728,6,6,4,1460,474,1,993,44,33580,0,65700,0,0,1,0,0
i,0x00000000,1720563482.514192,172.16.3.2,5101,172.16.1.2,25004,10499,14480,0,65728,65728,6,6,4,1460,474,1,992,44,33580,0,65700,0,0,1,0,0
o,0x00000000,1720563482.514205,172.16.3.2,5101,172.16.1.2,25004,10499,14480,0,65728,65728,6,6,4,1460,474,1,993,44,33580,0,65700,0,0,1,0,0
i,0x00000000,1720563482.542144,172.16.3.2,5101,172.16.1.2,25004,10499,14480,0,65728,65728,6,6,4,1460,474,1,992,44,33580,0,65700,0,0,1,0,0
o,0x00000000,1720563482.542168,172.16.3.2,5101,172.16.1.2,25004,10499,14480,0,65728,65728,6,6,4,1460,474,1,993,44,33580,0,65700,0,0,1,0,0
i,0x00000000,1720563482.586397,172.16.3.2,5101,172.16.1.2,25004,10499,14480,0,65728,65728,6,6,4,1460,474,1,992,44,33580,0,65700,0,0,1,0,0
o,0x00000000,1720563482.586416,172.16.3.2,5101,172.16.1.2,25004,10499,14480,0,65728,65728,6,6,4,1460,474,1,993,44,33580,0,65700,0,0,2,0,0
i,0x00000000,1720563482.594163,172.16.3.2,5101,172.16.1.2,25004,10499,14480,0,65728,65728,6,6,4,1460,474,1,992,44,33580,0,65700,0,0,2,0,0
o,0x00000000,1720563482.594176,172.16.3.2,5101,172.16.1.2,25004,10499,14480,0,65728,65728,6,6,4,1460,474,1,993,44,33580,0,65700,0,0,2,0,0
i,0x00000000,1720563482.604834,172.16.3.2,5101,172.16.1.2,25004,10499,14480,0,65728,65728,6,6,4,1460,474,1,992,44,33580,0,65700,0,0,2,0,0
o,0x00000000,1720563482.604846,172.16.3.2,5101,172.16.1.2,25004,10499,14480,0,65728,65728,6,6,4,1460,474,1,993,44,33580,0,65700,0,0,2,0,0
i,0x00000000,1720563482.634907,172.16.3.2,5101,172.16.1.2,25004,10499,14480,0,65728,65728,6,6,4,1460,474,1,992,44,33580,0,65700,0,0,2,0,0
o,0x00000000,1720563482.634918,172.16.3.2,5101,172.16.1.2,25004,10499,14480,0,65728,65728,6,6,4,1460,474,1,993,44,33580,0,65700,0,0,2,0,0
i,0x00000000,1720563482.645643,172.16.3.2,5101,172.16.1.2,25004,10499,14480,0,65728,65728,6,6,4,1460,474,1,992,44,33580,0,65700,0,0,2,0,0
o,0x00000000,1720563482.645659,172.16.3.2,5101,172.16.1.2,25004,10499,14480,0,65728,65728,6,6,4,1460,474,1,993,44,33580,0,65700,0,0,2,0,0
i,0x00000000,1720563482.655880,172.16.3.2,5101,172.16.1.2,25004,10499,14480,0,65728,65728,6,6,4,1460,474,1,992,44,33580,0,65700,0,0,2,0,0
o,0x00000000,1720563482.655900,172.16.3.2,5101,172.16.1.2,25004,10499,14480,0,65728,65728,6,6,4,1460,474,1,993,44,33580,0,65700,0,0,2,0,0
o,0x00000000,1720563482.656526,10.0.2.15,22,10.0.2.2,49435,1073725440,14600,0,65535,65700,0,0,4,1460,1,0,4,24,33580,108,65700,0,0,0,0,0
i,0x00000000,1720563482.658194,10.0.2.15,22,10.0.2.2,49435,1073725440,14600,0,65535,65700,0,0,4,1460,1,0,4,24,33580,108,65700,0,108,0,0,0
i,0x00000000,1720563482.687313,172.16.3.2,5101,172.16.1.2,25004,10499,14480,0,65728,65728,6,6,4,1460,474,1,992,44,33580,0,65700,0,0,2,0,0
o,0x00000000,1720563482.687337,172.16.3.2,5101,172.16.1.2,25004,10499,14480,0,65728,65728,6,6,4,1460,474,1,993,44,33580,0,65700,0,0,2,0,0
i,0x00000000,1720563482.704472,172.16.3.2,5101,172.16.1.2,25004,10499,14480,0,65728,65728,6,6,4,1460,474,1,992,44,33580,0,65700,0,0,2,0,0
o,0x00000000,1720563482.704499,172.16.3.2,5101,172.16.1.2,25004,10499,14480,0,65728,65728,6,6,4,1460,474,1,993,44,33580,0,65700,0,0,2,0,0
i,0x00000000,1720563482.725043,172.16.3.2,5101,172.16.1.2,25004,10499,14480,0,65728,65728,6,6,4,1460,474,1,992,44,33580,0,65700,0,0,2,0,0
o,0x00000000,1720563482.725060,172.16.3.2,5101,172.16.1.2,25004,10499,14480,0,65728,65728,6,6,4,1460,474,1,993,44,33580,0,65700,0,0,1,0,0
i,0x00000000,1720563482.804546,172.16.3.2,5101,172.16.1.2,25004,10499,14480,0,65728,65728,6,6,4,1460,474,1,992,44,33580,0,65700,0,0,1,0,0
o,0x00000000,1720563482.804570,172.16.3.2,5101,172.16.1.2,25004,10499,14480,0,65728,65728,6,6,4,1460,474,1,993,44,33580,0,65700,0,0,1,0,0
i,0x00000000,1720563482.815089,172.16.3.2,5101,172.16.1.2,25004,10499,14480,0,65728,65728,6,6,4,1460,474,1,992,44,33580,0,65700,0,0,1,0,0
o,0x00000000,1720563482.815099,172.16.3.2,5101,172.16.1.2,25004,10499,14480,0,65728,65728,6,6,4,1460,474,1,993,44,33580,0,65700,0,0,1,0,0
i,0x00000000,1720563482.841785,172.16.3.2,5101,172.16.1.2,25004,10499,14480,0,65728,65728,6,6,4,1460,474,1,992,44,33580,0,65700,0,0,1,0,0
o,0x00000000,1720563482.841799,172.16.3.2,5101,172.16.1.2,25004,10499,14480,0,65728,65728,6,6,4,1460,474,1,993,44,33580,0,65700,0,0,1,0,0
i,0x00000000,1720563482.854061,172.16.3.2,5101,172.16.1.2,25004,10499,14480,0,65728,65728,6,6,4,1460,474,1,992,44,33580,0,65700,0,0,1,0,0
o,0x00000000,1720563482.854087,172.16.3.2,5101,172.16.1.2,25004,10499,14480,0,65728,65728,6,6,4,1460,474,1,993,44,33580,0,65700,0,0,1,0,0
i,0x00000000,1720563482.877796,172.16.3.2,5101,172.16.1.2,25004,10499,14480,0,65728,65728,6,6,4,1460,474,1,992,44,33580,0,65700,0,0,1,0,0
o,0x00000000,1720563482.877824,172.16.3.2,5101,172.16.1.2,25004,10499,14480,0,65728,65728,6,6,4,1460,474,1,993,44,33580,0,65700,0,0,1,0,0
i,0x00000000,1720563482.905870,172.16.3.2,5101,172.16.1.2,25004,10499,14480,0,65728,65728,6,6,4,1460,474,1,992,44,33580,0,65700,0,0,1,0,0
o,0x00000000,1720563482.905881,172.16.3.2,5101,172.16.1.2,25004,10499,14480,0,65728,65728,6,6,4,1460,474,1,993,44,33580,0,65700,0,0,1,0,0
i,0x00000000,1720563482.959917,172.16.3.2,5101,172.16.1.2,25004,10499,14480,0,65728,65728,6,6,4,1460,474,1,992,44,33580,0,65700,0,0,1,0,0
o,0x00000000,1720563482.959964,172.16.3.2,5101,172.16.1.2,25004,10499,14480,0,65728,65728,6,6,4,1460,474,1,993,44,33580,0,65700,0,0,1,0,0
i,0x00000000,1720563482.990049,172.16.3.2,5101,172.16.1.2,25004,10499,14480,0,65728,65728,6,6,4,1460,474,1,992,44,33580,0,65700,0,0,1,0,0
o,0x00000000,1720563482.990074,172.16.3.2,5101,172.16.1.2,25004,10499,14480,0,65728,65728,6,6,4,1460,474,1,993,44,33580,0,65700,0,0,1,0,0
i,0x00000000,1720563483.009236,172.16.3.2,5101,172.16.1.2,25004,10499,14480,0,65728,65728,6,6,4,1460,474,1,992,44,33580,0,65700,0,0,1,0,0
o,0x00000000,1720563483.009285,172.16.3.2,5101,172.16.1.2,25004,10499,14480,0,65728,65728,6,6,4,1460,474,1,993,44,33580,0,65700,0,0,1,0,0
i,0x00000000,1720563483.045413,172.16.3.2,5101,172.16.1.2,25004,10499,14480,0,65728,65728,6,6,4,1460,474,1,992,44,33580,0,65700,0,0,1,0,0
o,0x00000000,1720563483.045449,172.16.3.2,5101,172.16.1.2,25004,10499,14480,0,65728,65728,6,6,4,1460,474,1,993,44,33580,0,65700,0,0,1,0,0
i,0x00000000,1720563483.056845,172.16.3.2,5101,172.16.1.2,25004,10499,14480,0,65728,65728,6,6,4,1460,474,1,992,44,33580,0,65700,0,0,1,0,0
o,0x00000000,1720563483.056858,172.16.3.2,5101,172.16.1.2,25004,10499,14480,0,65728,65728,6,6,4,1460,474,1,993,44,33580,0,65700,0,0,1,0,0
i,0x00000000,1720563483.076045,172.16.3.2,5101,172.16.1.2,25004,10499,14480,0,65728,65728,6,6,4,1460,474,1,992,44,33580,0,65700,0,0,1,0,0
o,0x00000000,1720563483.076081,172.16.3.2,5101,172.16.1.2,25004,10499,14480,0,65728,65728,6,6,4,1460,474,1,993,44,33580,0,65700,0,0,1,0,0
i,0x00000000,1720563483.109700,172.16.3.2,5101,172.16.1.2,25004,10499,14480,0,65728,65728,6,6,4,1460,474,1,992,44,33580,0,65700,0,0,1,0,0
o,0x00000000,1720563483.109751,172.16.3.2,5101,172.16.1.2,25004,10499,14480,0,65728,65728,6,6,4,1460,474,1,993,44,33580,0,65700,0,0,1,0,0
i,0x00000000,1720563483.169390,172.16.3.2,5101,172.16.1.2,25004,10499,14480,0,65728,65728,6,6,4,1460,474,1,992,44,33580,0,65700,0,0,1,0,0
o,0x00000000,1720563483.169425,172.16.3.2,5101,172.16.1.2,25004,10499,14480,0,65728,65728,6,6,4,1460,474,1,993,44,33580,0,65700,0,0,1,0,0
i,0x00000000,1720563483.179591,172.16.3.2,5101,172.16.1.2,25004,10499,14480,0,65728,65728,6,6,4,1460,474,1,992,44,33580,0,65700,0,0,1,0,0
o,0x00000000,1720563483.179630,172.16.3.2,5101,172.16.1.2,25004,10499,14480,0,65728,65728,6,6,4,1460,474,1,993,44,33580,0,65700,0,0,1,0,0
i,0x00000000,1720563483.267504,172.16.3.2,5101,172.16.1.2,25004,10499,14480,0,65728,65728,6,6,4,1460,474,1,992,44,33580,0,65700,0,0,1,0,0
o,0x00000000,1720563483.267539,172.16.3.2,5101,172.16.1.2,25004,10499,14480,0,65728,65728,6,6,4,1460,474,1,993,44,33580,0,65700,0,0,1,0,0
i,0x00000000,1720563483.279077,172.16.3.2,5101,172.16.1.2,25004,10499,14480,0,65728,65728,6,6,4,1460,474,1,992,44,33580,0,65700,0,0,1,0,0
o,0x00000000,1720563483.279112,172.16.3.2,5101,172.16.1.2,25004,10499,14480,0,65728,65728,6,6,4,1460,474,1,993,44,33580,0,65700,0,0,1,0,0
i,0x00000000,1720563483.287843,172.16.3.2,5101,172.16.1.2,25004,10499,14480,0,65728,65728,6,6,4,1460,474,1,992,44,33580,0,65700,0,0,1,0,0
o,0x00000000,1720563483.287884,172.16.3.2,5101,172.16.1.2,25004,10499,14480,0,65728,65728,6,6,4,1460,474,1,993,44,33580,0,65700,1448,0,1,0,0
i,0x00000000,1720563483.297271,172.16.3.2,5101,172.16.1.2,25004,10499,14480,0,65728,65728,6,6,4,1460,474,1,992,44,33580,0,65700,0,0,1,0,0
o,0x00000000,1720563483.297310,172.16.3.2,5101,172.16.1.2,25004,10499,14480,0,65728,65700,6,6,4,1460,474,1,993,44,33580,0,65700,0,0,1,0,0
i,0x00000000,1720563483.306110,172.16.3.2,5101,172.16.1.2,25004,10499,14480,0,65728,65700,6,6,4,1460,474,1,992,44,33580,0,65700,0,0,1,0,0
o,0x00000000,1720563483.306164,172.16.3.2,5101,172.16.1.2,25004,10499,14480,0,65728,65728,6,6,4,1460,474,1,993,44,33580,0,65700,53576,0,0,0,0
o,0x00000000,1720563483.309185,172.16.3.2,5101,172.16.1.2,25004,10499,14480,0,65728,65728,6,6,4,1460,474,1,992,44,33580,0,65700,13728,0,0,0,0
i,0x00000000,1720563483.327929,172.16.3.2,5101,172.16.1.2,25004,10499,14480,0,65728,65728,6,6,4,1460,474,1,992,44,33580,0,65700,0,0,0,0,0
o,0x00000000,1720563483.328490,172.16.3.2,5101,172.16.1.2,25004,10499,14480,0,65728,65728,6,6,4,1460,474,1,993,44,33580,0,65700,0,0,0,0,0
i,0x00000000,1720563483.408706,172.16.3.2,5101,172.16.1.2,25004,10499,14480,0,65728,65728,6,6,4,1460,474,1,992,44,33580,0,65700,0,0,0,0,0
i,0x00000000,1720563483.440898,172.16.3.2,5101,172.16.1.2,25004,10499,14480,0,65728,65728,6,6,4,1460,474,1,992,44,33580,0,65700,0,0,0,0,0
o,0x00000000,1720563483.440939,172.16.3.2,5101,172.16.1.2,25004,10499,14480,0,65728,65728,6,6,4,1460,474,1,993,44,33580,0,65700,1448,0,0,0,0
i,0x00000000,1720563483.459231,172.16.3.2,5101,172.16.1.2,25004,10499,14480,0,65728,65728,6,6,4,1460,474,1,992,44,33580,0,65700,0,0,0,0,0
i,0x00000000,1720563483.467560,172.16.3.2,5101,172.16.1.2,25004,10499,14480,0,65728,65728,6,6,4,1460,474,1,992,44,33580,0,65700,0,0,0,0,0
o,0x00000000,1720563483.467645,172.16.3.2,5101,172.16.1.2,25004,10499,14480,0,65728,65728,6,6,4,1460,474,1,993,44,33580,0,65700,1448,0,0,0,0
i,0x00000000,1720563483.596115,172.16.3.2,5101,172.16.1.2,25004,10499,14480,0,65728,65728,6,6,4,1460,474,1,992,44,33580,0,65700,0,0,0,0,0
i,0x00000000,1720563483.619178,172.16.3.2,5101,172.16.1.2,25004,10499,14480,0,65728,65728,6,6,4,1460,474,1,992,44,33580,0,65700,0,0,0,0,0
o,0x00000000,1720563483.619228,172.16.3.2,5101,172.16.1.2,25004,10499,14480,0,65728,65728,6,6,4,1460,474,1,993,44,33580,0,65700,1448,0,0,0,0
i,0x00000000,1720563483.629783,172.16.3.2,5101,172.16.1.2,25004,10499,14480,0,65728,65728,6,6,4,1460,474,1,992,44,33580,0,65700,0,0,0,0,0
i,0x00000000,1720563483.648468,172.16.3.2,5101,172.16.1.2,25004,10499,14480,0,65728,65728,6,6,4,1460,474,1,992,44,33580,0,65700,0,0,0,0,0
o,0x00000000,1720563483.648524,172.16.3.2,5101,172.16.1.2,25004,10499,14480,0,65728,65728,6,6,4,1460,474,1,993,44,33580,0,65700,1448,0,0,0,0
i,0x00000000,1720563483.656104,172.16.3.2,5101,172.16.1.2,25004,10499,14480,0,65728,65728,6,6,4,1460,474,1,992,44,33580,0,65700,0,0,0,0,0
o,0x00000000,1720563483.658055,10.0.2.15,22,10.0.2.2,49435,1073725440,14600,0,65535,65700,0,0,4,1460,1,0,4,24,33580,108,65700,0,0,0,0,0
i,0x00000000,1720563483.659484,10.0.2.15,22,10.0.2.2,49435,1073725440,14600,0,65535,65700,0,0,4,1460,1,0,4,24,33580,108,65700,0,108,0,0,0
i,0x00000000,1720563483.666111,172.16.3.2,5101,172.16.1.2,25004,10499,14480,0,65728,65728,6,6,4,1460,474,1,992,44,33580,0,65700,0,0,0,0,0
o,0x00000000,1720563483.666128,172.16.3.2,5101,172.16.1.2,25004,10499,14480,0,65728,65728,6,6,4,1460,474,1,993,44,33580,0,65700,1448,0,0,0,0
i,0x00000000,1720563483.801132,172.16.3.2,5101,172.16.1.2,25004,10499,14480,0,65728,65728,6,6,4,1460,474,1,992,44,33580,0,65700,0,0,0,0,0
i,0x00000000,1720563483.816348,172.16.3.2,5101,172.16.1.2,25004,10499,14480,0,65728,65728,6,6,4,1460,474,1,992,44,33580,0,65700,0,0,0,0,0
o,0x00000000,1720563483.816362,172.16.3.2,5101,172.16.1.2,25004,10499,14480,0,65728,65728,6,6,4,1460,474,1,993,44,33580,0,65700,1448,0,0,0,0
i,0x00000000,1720563483.830131,172.16.3.2,5101,172.16.1.2,25004,10499,14480,0,65728,65728,6,6,4,1460,474,1,992,44,33580,0,65700,0,0,0,0,0
i,0x00000000,1720563483.863813,172.16.3.2,5101,172.16.1.2,25004,10499,14480,0,65728,65728,6,6,4,1460,474,1,992,44,33580,0,65700,0,0,0,0,0
o,0x00000000,1720563483.863840,172.16.3.2,5101,172.16.1.2,25004,10499,14480,0,65728,65728,6,6,4,1460,474,1,993,44,33580,0,65700,1448,0,0,0,0
i,0x00000000,1720563483.875295,172.16.3.2,5101,172.16.1.2,25004,10499,14480,0,65728,65728,6,6,4,1460,474,1,992,44,33580,0,65700,0,0,0,0,0
i,0x00000000,1720563483.883721,172.16.3.2,5101,172.16.1.2,25004,10499,14480,0,65728,65728,6,6,4,1460,474,1,992,44,33580,0,65700,0,0,0,0,0
o,0x00000000,1720563483.883734,172.16.3.2,5101,172.16.1.2,25004,10499,14480,0,65728,65728,6,6,4,1460,474,1,993,44,33580,0,65700,1448,0,0,0,0
i,0x00000000,1720563483.896012,172.16.3.2,5101,172.16.1.2,25004,10499,14480,0,65728,65728,6,6,4,1460,474,1,992,44,33580,0,65700,0,0,0,0,0
i,0x00000000,1720563483.906852,172.16.3.2,5101,172.16.1.2,25004,10499,14480,0,65728,65728,6,6,4,1460,474,1,992,44,33580,0,65700,0,0,0,0,0
o,0x00000000,1720563483.906898,172.16.3.2,5101,172.16.1.2,25004,10499,14480,0,65728,65728,6,6,4,1460,474,1,993,44,33580,0,65700,1448,0,0,0,0
i,0x00000000,1720563483.927504,172.16.3.2,5101,172.16.1.2,25004,10499,14480,0,65728,65728,6,6,4,1460,474,1,992,44,33580,0,65700,0,0,0,0,0
i,0x00000000,1720563483.935796,172.16.3.2,5101,172.16.1.2,25004,10499,14480,0,65728,65728,6,6,4,1460,474,1,992,44,33580,0,65700,0,0,0,0,0
o,0x00000000,1720563483.935830,172.16.3.2,5101,172.16.1.2,25004,10499,14480,0,65728,65728,6,6,4,1460,474,1,993,44,33580,0,65700,1448,0,0,0,0
i,0x00000000,1720563483.996521,172.16.3.2,5101,172.16.1.2,25004,10499,14480,0,65728,65728,6,6,4,1460,474,1,992,44,33580,0,65700,0,0,0,0,0
i,0x00000000,1720563484.010302,172.16.3.2,5101,172.16.1.2,25004,10499,14480,0,65728,65728,6,6,4,1460,474,1,992,44,33580,0,65700,0,0,0,0,0
o,0x00000000,1720563484.010329,172.16.3.2,5101,172.16.1.2,25004,10499,14480,0,65728,65728,6,6,4,1460,474,1,993,44,33580,0,65700,1448,0,0,0,0
i,0x00000000,1720563484.051744,172.16.3.2,5101,172.16.1.2,25004,10499,14480,0,65728,65728,6,6,4,1460,474,1,992,44,33580,0,65700,0,0,0,0,0
i,0x00000000,1720563484.085593,172.16.3.2,5101,172.16.1.2,25004,10499,14480,0,65728,65728,6,6,4,1460,474,1,992,44,33580,0,65700,0,0,0,0,0
o,0x00000000,1720563484.085613,172.16.3.2,5101,172.16.1.2,25004,10499,14480,0,65728,65728,6,6,4,1460,474,1,993,44,33580,0,65700,1448,0,0,0,0
i,0x00000000,1720563484.124231,172.16.3.2,5101,172.16.1.2,25004,10499,14480,0,65728,65728,6,6,4,1460,474,1,992,44,33580,0,65700,0,0,0,0,0
i,0x00000000,1720563484.150729,172.16.3.2,5101,172.16.1.2,25004,10499,14480,0,65728,65728,6,6,4,1460,474,1,992,44,33580,0,65700,0,0,0,0,0
o,0x00000000,1720563484.150750,172.16.3.2,5101,172.16.1.2,25004,10499,14480,0,65728,65728,6,6,4,1460,474,1,993,44,33580,0,65700,1448,0,0,0,0
i,0x00000000,1720563484.154985,172.16.3.2,5101,172.16.1.2,25004,10499,14480,0,65728,65728,6,6,4,1460,474,1,992,44,33580,0,65700,0,0,0,0,0
i,0x00000000,1720563484.165283,172.16.3.2,5101,172.16.1.2,25004,10499,14480,0,65728,65728,6,6,4,1460,474,1,992,44,33580,0,65700,0,0,0,0,0
o,0x00000000,1720563484.165297,172.16.3.2,5101,172.16.1.2,25004,10499,14480,0,65728,65728,6,6,4,1460,474,1,993,44,33580,0,65700,1448,0,0,0,0
i,0x00000000,1720563484.205641,172.16.3.2,5101,172.16.1.2,25004,10499,14480,0,65728,65728,6,6,4,1460,474,1,992,44,33580,0,65700,0,0,0,0,0
i,0x00000000,1720563484.215165,172.16.3.2,5101,172.16.1.2,25004,10499,14480,0,65728,65728,6,6,4,1460,474,1,992,44,33580,0,65700,0,0,0,0,0
o,0x00000000,1720563484.215179,172.16.3.2,5101,172.16.1.2,25004,10499,14480,0,65728,65728,6,6,4,1460,474,1,993,44,33580,0,65700,1448,0,0,0,0
i,0x00000000,1720563484.226502,172.16.3.2,5101,172.16.1.2,25004,10499,14480,0,65728,65728,6,6,4,1460,474,1,992,44,33580,0,65700,0,0,0,0,0
i,0x00000000,1720563484.265772,172.16.3.2,5101,172.16.1.2,25004,10499,14480,0,65728,65728,6,6,4,1460,474,1,992,44,33580,0,65700,0,0,0,0,0
o,0x00000000,1720563484.265792,172.16.3.2,5101,172.16.1.2,25004,10499,14480,0,65728,65728,6,6,4,1460,474,1,993,44,33580,0,65700,1448,0,0,0,0
i,0x00000000,1720563484.277733,172.16.3.2,5101,172.16.1.2,25004,10499,14480,0,65728,65728,6,6,4,1460,474,1,992,44,33580,0,65700,0,0,0,0,0
o,0x00000000,1720563484.317058,172.16.3.2,5101,172.16.1.2,25004,10499,14480,0,65728,65728,6,6,4,1460,474,1,993,44,33580,0,65700,0,0,0,0,0
i,0x00000000,1720563484.318175,172.16.3.2,5101,172.16.1.2,25004,10499,14480,0,65728,65728,6,6,4,1460,474,1,992,44,33580,0,65700,0,0,0,0,0
i,0x00000000,1720563484.350750,172.16.3.2,5101,172.16.1.2,25004,10499,14480,0,65728,65728,6,6,4,1460,474,1,992,44,33580,0,65700,0,0,0,0,0
o,0x00000000,1720563484.350768,172.16.3.2,5101,172.16.1.2,25004,10499,14480,0,65728,65728,6,6,4,1460,474,1,993,44,33580,0,65700,1448,0,0,0,0
i,0x00000000,1720563484.365897,172.16.3.2,5101,172.16.1.2,25004,10499,14480,0,65728,65728,6,6,4,1460,474,1,992,44,33580,0,65700,0,0,0,0,0
o,0x00000000,1720563484.397986,172.16.3.2,5101,172.16.1.2,25004,10499,14480,0,65728,65728,6,6,4,1460,474,1,993,44,33580,0,65700,0,0,0,0,0
i,0x00000000,1720563484.406825,172.16.3.2,5101,172.16.1.2,25004,10499,14480,0,65728,65728,6,6,4,1460,474,1,992,44,33580,0,65700,0,0,0,0,0
i,0x00000000,1720563484.424628,172.16.3.2,5101,172.16.1.2,25004,10499,14480,0,65728,65728,6,6,4,1460,474,1,992,44,33580,0,65700,0,0,0,0,0
o,0x00000000,1720563484.424651,172.16.3.2,5101,172.16.1.2,25004,10499,14480,0,65728,65728,6,6,4,1460,474,1,993,44,33580,0,65700,1448,0,0,0,0
i,0x00000000,1720563484.464776,172.16.3.2,5101,172.16.1.2,25004,10499,14480,0,65728,65728,6,6,4,1460,474,1,992,44,33580,0,65700,0,0,0,0,0
i,0x00000000,1720563484.493873,172.16.3.2,5101,172.16.1.2,25004,10499,14480,0,65728,65728,6,6,4,1460,474,1,992,44,33580,0,65700,0,0,0,0,0
o,0x00000000,1720563484.493894,172.16.3.2,5101,172.16.1.2,25004,10499,14480,0,65728,65728,6,6,4,1460,474,1,993,44,33580,0,65700,1448,0,0,0,0
i,0x00000000,1720563484.495400,172.16.3.2,5101,172.16.1.2,25004,10499,14480,0,65728,65728,6,6,4,1460,474,1,992,44,33580,0,65700,0,0,0,0,0
i,0x00000000,1720563484.508812,172.16.3.2,5101,172.16.1.2,25004,10499,14480,0,65728,65728,6,6,4,1460,474,1,992,44,33580,0,65700,0,0,0,0,0
o,0x00000000,1720563484.508868,172.16.3.2,5101,172.16.1.2,25004,10499,14480,0,65728,65728,6,6,4,1460,474,1,993,44,33580,0,65700,1448,0,0,0,0
i,0x00000000,1720563484.548398,172.16.3.2,5101,172.16.1.2,25004,10499,14480,0,65728,65728,6,6,4,1460,474,1,992,44,33580,0,65700,0,0,0,0,0
i,0x00000000,1720563484.561218,172.16.3.2,5101,172.16.1.2,25004,10499,14480,0,65728,65728,6,6,4,1460,474,1,992,44,33580,0,65700,0,0,0,0,0
o,0x00000000,1720563484.561233,172.16.3.2,5101,172.16.1.2,25004,10499,14480,0,65728,65728,6,6,4,1460,474,1,993,44,33580,0,65700,1448,0,0,0,0
i,0x00000000,1720563484.589051,172.16.3.2,5101,172.16.1.2,25004,10499,14480,0,65728,65728,6,6,4,1460,474,1,992,44,33580,0,65700,0,0,0,0,0
i,0x00000000,1720563484.620543,172.16.3.2,5101,172.16.1.2,25004,10499,14480,0,65728,65728,6,6,4,1460,474,1,992,44,33580,0,65700,0,0,0,0,0
o,0x00000000,1720563484.620564,172.16.3.2,5101,172.16.1.2,25004,10499,14480,0,65728,65728,6,6,4,1460,474,1,993,44,33580,0,65700,1448,0,0,0,0
i,0x00000000,1720563484.636615,172.16.3.2,5101,172.16.1.2,25004,10499,14480,0,65728,65728,6,6,4,1460,474,1,992,44,33580,0,65700,0,0,0,0,0
o,0x00000000,1720563484.658092,10.0.2.15,22,10.0.2.2,49435,1073725440,14600,0,65535,65700,0,0,4,1460,1,0,4,24,33580,108,65700,0,0,0,0,0
i,0x00000000,1720563484.659320,10.0.2.15,22,10.0.2.2,49435,1073725440,14600,0,65535,65700,0,0,4,1460,1,0,4,24,33580,108,65700,0,108,0,0,0
i,0x00000000,1720563484.662032,172.16.3.2,5101,172.16.1.2,25004,10499,14480,0,65728,65728,6,6,4,1460,474,1,992,44,33580,0,65700,0,0,0,0,0
o,0x00000000,1720563484.662057,172.16.3.2,5101,172.16.1.2,25004,10499,14480,0,65728,65728,6,6,4,1460,474,1,993,44,33580,0,65700,1448,0,0,0,0
i,0x00000000,1720563484.716278,172.16.3.2,5101,172.16.1.2,25004,10499,14480,0,65728,65728,6,6,4,1460,474,1,992,44,33580,0,65700,0,0,0,0,0
i,0x00000000,1720563484.716303,172.16.3.2,5101,172.16.1.2,25004,10499,14480,0,65728,65728,6,6,4,1460,474,1,992,44,33580,0,65700,1448,0,0,0,0
o,0x00000000,1720563484.716320,172.16.3.2,5101,172.16.1.2,25004,10499,14480,0,65728,65728,6,6,4,1460,474,1,993,44,33580,0,65700,2896,0,0,0,0
i,0x00000000,1720563484.767452,172.16.3.2,5101,172.16.1.2,25004,10499,14480,0,65728,65728,6,6,4,1460,474,1,992,44,33580,0,65700,0,0,0,0,0
i,0x00000000,1720563484.774843,172.16.3.2,5101,172.16.1.2,25004,10499,14480,0,65728,65728,6,6,4,1460,474,1,992,44,33580,0,65700,0,0,0,0,0
o,0x00000000,1720563484.774882,172.16.3.2,5101,172.16.1.2,25004,10499,14480,0,65728,65728,6,6,4,1460,474,1,993,44,33580,0,65700,1448,0,0,0,0
i,0x00000000,1720563484.789765,172.16.3.2,5101,172.16.1.2,25004,10499,14480,0,65728,65728,6,6,4,1460,474,1,992,44,33580,0,65700,0,0,0,0,0
o,0x00000000,1720563484.827805,172.16.3.2,5101,172.16.1.2,25004,10499,14480,0,65728,65728,6,6,4,1460,474,1,993,44,33580,0,65700,0,0,0,0,0
i,0x00000000,1720563484.829562,172.16.3.2,5101,172.16.1.2,25004,10499,14480,0,65728,65728,6,6,4,1460,474,1,992,44,33580,0,65700,0,0,0,0,0
i,0x00000000,1720563484.839592,172.16.3.2,5101,172.16.1.2,25004,10499,14480,0,65728,65728,6,6,4,1460,474,1,992,44,33580,0,65700,0,0,0,0,0
o,0x00000000,1720563484.839640,172.16.3.2,5101,172.16.1.2,25004,10499,14480,0,65728,65728,6,6,4,1460,474,1,993,44,33580,0,65700,1448,0,0,0,0
i,0x00000000,1720563484.870639,172.16.3.2,5101,172.16.1.2,25004,10499,14480,0,65728,65728,6,6,4,1460,474,1,992,44,33580,0,65700,0,0,0,0,0
i,0x00000000,1720563484.881695,172.16.3.2,5101,172.16.1.2,25004,10499,14480,0,65728,65728,6,6,4,1460,474,1,992,44,33580,0,65700,0,0,0,0,0
o,0x00000000,1720563484.881712,172.16.3.2,5101,172.16.1.2,25004,10499,14480,0,65728,65728,6,6,4,1460,474,1,993,44,33580,0,65700,1448,0,0,0,0
i,0x00000000,1720563484.922097,172.16.3.2,5101,172.16.1.2,25004,10499,14480,0,65728,65728,6,6,4,1460,474,1,992,44,33580,0,65700,0,0,0,0,0
i,0x00000000,1720563484.926737,172.16.3.2,5101,172.16.1.2,25004,10499,14480,0,65728,65728,6,6,4,1460,474,1,992,44,33580,0,65700,0,0,0,0,0
o,0x00000000,1720563484.926761,172.16.3.2,5101,172.16.1.2,25004,10499,14480,0,65728,65728,6,6,4,1460,474,1,993,44,33580,0,65700,1448,0,0,0,0
i,0x00000000,1720563484.975937,172.16.3.2,5101,172.16.1.2,25004,10499,14480,0,65728,65728,6,6,4,1460,474,1,992,44,33580,0,65700,0,0,0,0,0
i,0x00000000,1720563484.981277,172.16.3.2,5101,172.16.1.2,25004,10499,14480,0,65728,65728,6,6,4,1460,474,1,992,44,33580,0,65700,0,0,0,0,0
o,0x00000000,1720563484.981308,172.16.3.2,5101,172.16.1.2,25004,10499,14480,0,65728,65700,6,6,4,1460,474,1,993,44,33580,0,65700,0,0,1,0,0
i,0x00000000,1720563484.986918,172.16.3.2,5101,172.16.1.2,25004,10499,14480,0,65728,65700,6,6,4,1460,474,1,992,44,33580,0,65700,0,0,1,0,0
o,0x00000000,1720563484.986952,172.16.3.2,5101,172.16.1.2,25004,10499,14480,0,65728,65728,6,6,4,1460,474,1,993,44,33580,0,65700,0,0,1,0,0
i,0x00000000,1720563485.040965,172.16.3.2,5101,172.16.1.2,25004,10499,14480,0,65728,65728,6,6,4,1460,474,1,992,44,33580,0,65700,0,0,1,0,0
o,0x00000000,1720563485.041009,172.16.3.2,5101,172.16.1.2,25004,10499,14480,0,65728,65728,6,6,4,1460,474,1,993,44,33580,0,65700,0,0,1,0,0
i,0x00000000,1720563485.047591,172.16.3.2,5101,172.16.1.2,25004,10499,14480,0,65728,65728,6,6,4,1460,474,1,992,44,33580,0,65700,0,0,1,0,0
o,0x00000000,1720563485.047664,172.16.3.2,5101,172.16.1.2,25004,10499,14480,0,65728,65728,6,6,4,1460,474,1,993,44,33580,0,65700,0,0,1,0,0
i,0x00000000,1720563485.099233,172.16.3.2,5101,172.16.1.2,25004,10499,14480,0,65728,65728,6,6,4,1460,474,1,992,44,33580,0,65700,0,0,1,0,0
o,0x00000000,1720563485.099267,172.16.3.2,5101,172.16.1.2,25004,10499,14480,0,65728,65728,6,6,4,1460,474,1,993,44,33580,0,65700,0,0,1,0,0
i,0x00000000,1720563485.126943,172.16.3.2,5101,172.16.1.2,25004,10499,14480,0,65728,65728,6,6,4,1460,474,1,992,44,33580,0,65700,0,0,1,0,0
o,0x00000000,1720563485.126994,172.16.3.2,5101,172.16.1.2,25004,10499,14480,0,65728,65728,6,6,4,1460,474,1,993,44,33580,0,65700,0,0,1,0,0
i,0x00000000,1720563485.144064,172.16.3.2,5101,172.16.1.2,25004,10499,14480,0,65728,65728,6,6,4,1460,474,1,992,44,33580,0,65700,0,0,1,0,0
o,0x00000000,1720563485.144119,172.16.3.2,5101,172.16.1.2,25004,10499,14480,0,65728,65728,6,6,4,1460,474,1,993,44,33580,0,65700,0,0,1,0,0
i,0x00000000,1720563485.148746,172.16.3.2,5101,172.16.1.2,25004,10499,14480,0,65728,65728,6,6,4,1460,474,1,992,44,33580,0,65700,0,0,1,0,0
o,0x00000000,1720563485.148774,172.16.3.2,5101,172.16.1.2,25004,10499,14480,0,65728,65728,6,6,4,1460,474,1,993,44,33580,0,65700,0,0,1,0,0
i,0x00000000,1720563485.205573,172.16.3.2,5101,172.16.1.2,25004,10499,14480,0,65728,65728,6,6,4,1460,474,1,992,44,33580,0,65700,0,0,1,0,0
o,0x00000000,1720563485.205608,172.16.3.2,5101,172.16.1.2,25004,10499,14480,0,65728,65728,6,6,4,1460,474,1,993,44,33580,0,65700,0,0,1,0,0
i,0x00000000,1720563485.208178,172.16.3.2,5101,172.16.1.2,25004,10499,14480,0,65728,65728,6,6,4,1460,474,1,992,44,33580,0,65700,0,0,1,0,0
o,0x00000000,1720563485.208207,172.16.3.2,5101,172.16.1.2,25004,10499,14480,0,65728,65728,6,6,4,1460,474,1,993,44,33580,0,65700,0,0,1,0,0
i,0x00000000,1720563485.235191,172.16.3.2,5101,172.16.1.2,25004,10499,14480,0,65728,65728,6,6,4,1460,474,1,992,44,33580,0,65700,0,0,1,0,0
o,0x00000000,1720563485.235221,172.16.3.2,5101,172.16.1.2,25004,10499,14480,0,65728,65728,6,6,4,1460,474,1,993,44,33580,0,65700,0,0,1,0,0
i,0x00000000,1720563485.266773,172.16.3.2,5101,172.16.1.2,25004,10499,14480,0,65728,65728,6,6,4,1460,474,1,992,44,33580,0,65700,0,0,1,0,0
o,0x00000000,1720563485.266802,172.16.3.2,5101,172.16.1.2,25004,10499,14480,0,65728,65728,6,6,4,1460,474,1,993,44,33580,0,65700,0,0,2,0,0
i,0x00000000,1720563485.279520,172.16.3.2,5101,172.16.1.2,25004,10499,14480,0,65728,65728,6,6,4,1460,474,1,992,44,33580,0,65700,0,0,2,0,0
o,0x00000000,1720563485.279583,172.16.3.2,5101,172.16.1.2,25004,10499,14480,0,65728,65728,6,6,4,1460,474,1,993,44,33580,0,65700,0,0,2,0,0
i,0x00000000,1720563485.301440,172.16.3.2,5101,172.16.1.2,25004,10499,14480,0,65728,65728,6,6,4,1460,474,1,992,44,33580,0,65700,0,0,2,0,0
o,0x00000000,1720563485.301490,172.16.3.2,5101,172.16.1.2,25004,10499,14480,0,65728,65728,6,6,4,1460,474,1,993,44,33580,0,65700,17376,0,1,0,0
o,0x00000000,1720563485.303519,172.16.3.2,5101,172.16.1.2,25004,10499,14480,0,65728,65728,6,6,4,1460,474,1,992,44,33580,0,65700,0,0,1,0,0
i,0x00000000,1720563485.326653,172.16.3.2,5101,172.16.1.2,25004,10499,14480,0,65728,65728,6,6,4,1460,474,1,992,44,33580,0,65700,0,0,1,0,0
o,0x00000000,1720563485.326666,172.16.3.2,5101,172.16.1.2,25004,10499,14480,0,65728,65728,6,6,4,1460,474,1,993,44,33580,0,65700,0,0,2,0,0
i,0x00000000,1720563485.336419,172.16.3.2,5101,172.16.1.2,25004,10499,14480,0,65728,65728,6,6,4,1460,474,1,992,44,33580,0,65700,0,0,2,0,0
o,0x00000000,1720563485.336437,172.16.3.2,5101,172.16.1.2,25004,10499,14480,0,65728,65728,6,6,4,1460,474,1,993,44,33580,0,65700,0,0,2,0,0
i,0x00000000,1720563485.413404,172.16.3.2,5101,172.16.1.2,25004,10499,14480,0,65728,65728,6,6,4,1460,474,1,992,44,33580,0,65700,0,0,2,0,0
o,0x00000000,1720563485.413457,172.16.3.2,5101,172.16.1.2,25004,10499,14480,0,65728,65728,6,6,4,1460,474,1,993,44,33580,0,65700,1448,0,2,0,0
i,0x00000000,1720563485.420445,172.16.3.2,5101,172.16.1.2,25004,10499,14480,0,65728,65728,6,6,4,1460,474,1,992,44,33580,0,65700,0,0,2,0,0
o,0x00000000,1720563485.420515,172.16.3.2,5101,172.16.1.2,25004,10499,14480,0,65728,65700,6,6,4,1460,474,1,993,44,33580,0,65700,4344,0,1,0,0
i,0x00000000,1720563485.457499,172.16.3.2,5101,172.16.1.2,25004,10499,14480,0,65728,65700,6,6,4,1460,474,1,992,44,33580,0,65700,0,0,1,0,0
o,0x00000000,1720563485.457544,172.16.3.2,5101,172.16.1.2,25004,10499,14480,0,65728,65700,6,6,4,1460,474,1,993,44,33580,0,65700,0,0,1,0,0
i,0x00000000,1720563485.490834,172.16.3.2,5101,172.16.1.2,25004,10499,14480,0,65728,65700,6,6,4,1460,474,1,992,44,33580,0,65700,0,0,1,0,0
o,0x00000000,1720563485.490866,172.16.3.2,5101,172.16.1.2,25004,10499,14480,0,65728,65728,6,6,4,1460,474,1,993,44,33580,0,65700,0,0,1,0,0
i,0x00000000,1720563485.515155,172.16.3.2,5101,172.16.1.2,25004,10499,14480,0,65728,65728,6,6,4,1460,474,1,992,44,33580,0,65700,0,0,1,0,0
o,0x00000000,1720563485.515175,172.16.3.2,5101,172.16.1.2,25004,10499,14480,0,65728,65728,6,6,4,1460,474,1,993,44,33580,0,65700,0,0,1,0,0
i,0x00000000,1720563485.517253,172.16.3.2,5101,172.16.1.2,25004,10499,14480,0,65728,65728,6,6,4,1460,474,1,992,44,33580,0,65700,0,0,1,0,0
o,0x00000000,1720563485.517303,172.16.3.2,5101,172.16.1.2,25004,10499,14480,0,65728,65728,6,6,4,1460,474,1,993,44,33580,0,65700,0,0,1,0,0
i,0x00000000,1720563485.525921,172.16.3.2,5101,172.16.1.2,25004,10499,14480,0,65728,65728,6,6,4,1460,474,1,992,44,33580,0,65700,0,0,1,0,0
o,0x00000000,1720563485.525939,172.16.3.2,5101,172.16.1.2,25004,10499,14480,0,65728,65728,6,6,4,1460,474,1,993,44,33580,0,65700,0,0,1,0,0
i,0x00000000,1720563485.577084,172.16.3.2,5101,172.16.1.2,25004,10499,14480,0,65728,65728,6,6,4,1460,474,1,992,44,33580,0,65700,0,0,1,0,0
o,0x00000000,1720563485.577112,172.16.3.2,5101,172.16.1.2,25004,10499,14480,0,65728,65728,6,6,4,1460,474,1,993,44,33580,0,65700,0,0,1,0,0
i,0x00000000,1720563485.615553,172.16.3.2,5101,172.16.1.2,25004,10499,14480,0,65728,65728,6,6,4,1460,474,1,992,44,33580,0,65700,0,0,1,0,0
o,0x00000000,1720563485.615607,172.16.3.2,5101,172.16.1.2,25004,10499,14480,0,65728,65728,6,6,4,1460,474,1,993,44,33580,0,65700,13032,0,0,0,0
o,0x00000000,1720563485.658247,10.0.2.15,22,10.0.2.2,49435,1073725440,14600,0,65535,65700,0,0,4,1460,1,0,4,24,33580,108,65700,0,0,0,0,0
i,0x00000000,1720563485.659067,10.0.2.15,22,10.0.2.2,49435,1073725440,14600,0,65535,65700,0,0,4,1460,1,0,4,24,33580,108,65700,0,108,0,0,0
i,0x00000000,1720563485.659566,172.16.3.2,5101,172.16.1.2,25004,10499,14480,0,65728,65728,6,6,4,1460,474,1,992,44,33580,0,65700,0,0,0,0,0
o,0x00000000,1720563485.659710,172.16.3.2,5101,172.16.1.2,25004,10499,14480,0,65728,65728,6,6,4,1460,474,1,993,44,33580,0,65700,0,0,0,0,0
i,0x00000000,1720563485.732063,172.16.3.2,5101,172.16.1.2,25004,10499,14480,0,65728,65728,6,6,4,1460,474,1,992,44,33580,0,65700,0,0,0,0,0
o,0x00000000,1720563485.767800,172.16.3.2,5101,172.16.1.2,25004,10499,14480,0,65728,65728,6,6,4,1460,474,1,993,44,33580,0,65700,0,0,0,0,0
i,0x00000000,1720563485.769235,172.16.3.2,5101,172.16.1.2,25004,10499,14480,0,65728,65728,6,6,4,1460,474,1,992,44,33580,0,65700,0,0,0,0,0
i,0x00000000,1720563485.775733,172.16.3.2,5101,172.16.1.2,25004,10499,14480,0,65728,65728,6,6,4,1460,474,1,992,44,33580,0,65700,0,0,0,0,0
o,0x00000000,1720563485.775753,172.16.3.2,5101,172.16.1.2,25004,10499,14480,0,65728,65728,6,6,4,1460,474,1,993,44,33580,0,65700,1448,0,0,0,0
i,0x00000000,1720563485.785940,172.16.3.2,5101,172.16.1.2,25004,10499,14480,0,65728,65728,6,6,4,1460,474,1,992,44,33580,0,65700,0,0,0,0,0
o,0x00000000,1720563485.817293,172.16.3.2,5101,172.16.1.2,25004,10499,14480,0,65728,65728,6,6,4,1460,474,1,993,44,33580,0,65700,0,0,0,0,0
i,0x00000000,1720563485.906172,172.16.3.2,5101,172.16.1.2,25004,10499,14480,0,65728,65728,6,6,4,1460,474,1,992,44,33580,0,65700,0,0,0,0,0
i,0x00000000,1720563485.918071,172.16.3.2,5101,172.16.1.2,25004,10499,14480,0,65728,65728,6,6,4,1460,474,1,992,44,33580,0,65700,0,0,0,0,0
o,0x00000000,1720563485.918104,172.16.3.2,5101,172.16.1.2,25004,10499,14480,0,65728,65728,6,6,4,1460,474,1,993,44,33580,0,65700,1448,0,0,0,0
i,0x00000000,1720563485.927033,172.16.3.2,5101,172.16.1.2,25004,10499,14480,0,65728,65728,6,6,4,1460,474,1,992,44,33580,0,65700,0,0,0,0,0
o,0x00000000,1720563485.967931,172.16.3.2,5101,172.16.1.2,25004,10499,14480,0,65728,65728,6,6,4,1460,474,1,993,44,33580,0,65700,0,0,0,0,0
i,0x00000000,1720563485.977062,172.16.3.2,5101,172.16.1.2,25004,10499,14480,0,65728,65728,6,6,4,1460,474,1,992,44,33580,0,65700,0,0,0,0,0
o,0x00000000,1720563486.017101,172.16.3.2,5101,172.16.1.2,25004,10499,14480,0,65728,65728,6,6,4,1460,474,1,993,44,33580,0,65700,0,0,0,0,0
i,0x00000000,1720563486.071571,172.16.3.2,5101,172.16.1.2,25004,10499,14480,0,65728,65728,6,6,4,1460,474,1,992,44,33580,0,65700,0,0,0,0,0
i,0x00000000,1720563486.082556,172.16.3.2,5101,172.16.1.2,25004,10499,14480,0,65728,65728,6,6,4,1460,474,1,992,44,33580,0,65700,0,0,0,0,0
o,0x00000000,1720563486.082574,172.16.3.2,5101,172.16.1.2,25004,10499,14480,0,65728,65728,6,6,4,1460,474,1,993,44,33580,0,65700,1448,0,0,0,0
i,0x00000000,1720563486.086823,172.16.3.2,5101,172.16.1.2,25004,10499,14480,0,65728,65728,6,6,4,1460,474,1,992,44,33580,0,65700,0,0,0,0,0
i,0x00000000,1720563486.095453,172.16.3.2,5101,172.16.1.2,25004,10499,14480,0,65728,65728,6,6,4,1460,474,1,992,44,33580,0,65700,0,0,0,0,0
o,0x00000000,1720563486.095481,172.16.3.2,5101,172.16.1.2,25004,10499,14480,0,65728,65728,6,6,4,1460,474,1,993,44,33580,0,65700,1448,0,0,0,0
i,0x00000000,1720563486.135917,172.16.3.2,5101,172.16.1.2,25004,10499,14480,0,65728,65728,6,6,4,1460,474,1,992,44,33580,0,65700,0,0,0,0,0
o,0x00000000,1720563486.167673,172.16.3.2,5101,172.16.1.2,25004,10499,14480,0,65728,65728,6,6,4,1460,474,1,993,44,33580,0,65700,0,0,0,0,0
i,0x00000000,1720563486.227548,172.16.3.2,5101,172.16.1.2,25004,10499,14480,0,65728,65728,6,6,4,1460,474,1,992,44,33580,0,65700,0,0,0,0,0
i,0x00000000,1720563486.237044,172.16.3.2,5101,172.16.1.2,25004,10499,14480,0,65728,65728,6,6,4,1460,474,1,992,44,33580,0,65700,0,0,0,0,0
