enable_time_secs=1720560731	enable_time_usecs=559265	siftrver=1.2.4	hz=100	tcp_rtt_scale=32	sysname=FreeBSD	sysver=1301000	ipmode=4
o,0x00000000,1720560731.559311,10.0.2.15,22,10.0.2.2,56316,1073725440,17770,0,65535,65700,0,0,4,1460,1,0,4,24,33580,44,65700,0,0,0,0,0
o,0x00000000,1720560731.559574,10.0.2.15,22,10.0.2.2,56316,1073725440,17770,0,65535,65700,0,0,4,1460,1,0,4,24,33580,80,65700,0,44,0,0,0
i,0x00000000,1720560731.560254,10.0.2.15,22,10.0.2.2,56316,1073725440,17770,0,65535,65700,0,0,4,1460,1,0,4,24,33580,80,65700,0,80,0,0,0
i,0x00000000,1720560731.560369,10.0.2.15,22,10.0.2.2,56316,1073725440,17814,0,65535,65700,0,0,4,1460,1,0,4,24,33580,36,65700,0,36,0,0,0
o,0x00000000,1720560731.560485,10.0.2.15,22,10.0.2.2,56316,1073725440,17850,0,65535,65700,0,0,4,1460,1,0,4,24,33580,36,65700,0,0,0,0,0
i,0x00000000,1720560731.561122,10.0.2.15,22,10.0.2.2,56316,1073725440,17850,0,65535,65700,0,0,4,1460,1,0,4,24,33580,36,65700,0,36,0,0,0
o,0x00000000,1720560731.561469,10.0.2.15,22,10.0.2.2,56316,1073725440,17886,0,65535,65700,0,0,4,1460,1,0,4,24,33580,176,65700,0,0,0,0,0
i,0x00000000,1720560731.562439,10.0.2.15,22,10.0.2.2,56316,1073725440,17886,0,65535,65700,0,0,4,1460,1,0,4,24,33580,176,65700,0,176,0,0,0
i,0x00000000,1720560731.562444,10.0.2.15,22,10.0.2.2,56316,1073725440,18062,0,65535,65700,0,0,4,1460,1,0,4,24,33580,0,65700,0,0,0,0,0
i,0x00000000,1720560731.562446,10.0.2.15,22,10.0.2.2,56316,1073725440,18062,0,65535,65700,0,0,4,1460,1,0,4,24,33580,0,65700,96,0,0,0,0
o,0x00000000,1720560731.562449,10.0.2.15,22,10.0.2.2,56316,1073725440,18062,0,65535,65604,0,0,5,1460,1,0,5,24,33580,0,65700,96,0,0,0,0
o,0x00000000,1720560731.562897,10.0.2.15,22,10.0.2.2,56316,1073725440,18062,0,65535,65604,0,0,8,1460,1,0,4,24,33580,0,65700,0,0,0,0,0
i,0x00000000,1720560731.563584,10.0.2.15,22,10.0.2.2,56316,1073725440,18062,0,65535,65604,0,0,8,1460,1,0,20,24,33580,0,65700,0,1,0,0,0
i,0x00000000,1720560733.648484,10.0.2.15,22,10.0.2.2,56322,1073725440,14600,0,65535,65700,0,0,4,1460,1,0,0,27,33580,0,65700,0,0,0,0,0
o,0x00000000,1720560733.654994,10.0.2.15,22,10.0.2.2,56322,1073725440,14600,0,65535,65700,0,0,4,1460,1,0,0,27,33580,38,65700,42,0,0,0,0
i,0x00000000,1720560733.656671,10.0.2.15,22,10.0.2.2,56322,1073725440,14600,0,65535,65700,0,0,4,1460,1,0,0,27,33580,38,65700,42,38,0,0,0
i,0x00000000,1720560733.656680,10.0.2.15,22,10.0.2.2,56322,1073725440,14638,0,65535,65700,0,0,4,1460,1,0,0,24,33580,0,65700,42,0,0,0,0
i,0x00000000,1720560733.656682,10.0.2.15,22,10.0.2.2,56322,1073725440,14638,0,65535,65700,0,0,4,1460,1,0,0,24,33580,0,65700,1502,0,0,0,0
o,0x00000000,1720560733.656688,10.0.2.15,22,10.0.2.2,56322,1073725440,14638,0,65535,65700,0,0,4,1460,1,0,1,24,33580,0,65700,1578,0,0,0,0
o,0x00000000,1720560733.657709,10.0.2.15,22,10.0.2.2,56322,1073725440,14638,0,65535,65700,0,0,4,1460,1,0,0,24,33580,1056,65700,1536,0,0,0,0
i,0x00000000,1720560733.658549,10.0.2.15,22,10.0.2.2,56322,1073725440,14638,0,65535,65700,0,0,4,1460,1,0,0,24,33580,1056,65700,1536,1056,0,0,0
i,0x00000000,1720560733.659624,10.0.2.15,22,10.0.2.2,56322,1073725440,15694,0,65535,65700,0,0,4,1460,1,0,0,24,33580,0,65700,0,0,0,0,0
o,0x00000000,1720560733.663970,10.0.2.15,22,10.0.2.2,56322,1073725440,15694,0,65535,65700,0,0,4,1460,1,0,0,24,33580,484,65700,0,0,0,0,0
i,0x00000000,1720560733.664889,10.0.2.15,22,10.0.2.2,56322,1073725440,15694,0,65535,65700,0,0,4,1460,1,0,0,24,33580,484,65700,0,484,0,0,0
i,0x00000000,1720560733.669204,10.0.2.15,22,10.0.2.2,56322,1073725440,16178,0,65535,65700,0,0,4,1460,1,0,0,24,33580,0,65700,0,0,0,0,0
i,0x00000000,1720560733.669216,10.0.2.15,22,10.0.2.2,56322,1073725440,16178,0,65535,65700,0,0,4,1460,1,0,0,24,33580,0,65700,16,0,0,0,0
o,0x00000000,1720560733.669221,10.0.2.15,22,10.0.2.2,56322,1073725440,16178,0,65535,65700,0,0,4,1460,1,0,1,24,33580,0,65700,60,0,0,0,0
o,0x00000000,1720560733.669600,10.0.2.15,22,10.0.2.2,56322,1073725440,16178,0,65535,65700,0,0,4,1460,1,0,0,24,33580,44,65700,0,0,0,0,0
i,0x00000000,1720560733.670420,10.0.2.15,22,10.0.2.2,56322,1073725440,16178,0,65535,65700,0,0,4,1460,1,0,0,24,33580,44,65700,0,44,0,0,0
i,0x00000000,1720560733.670425,10.0.2.15,22,10.0.2.2,56322,1073725440,16222,0,65535,65700,0,0,4,1460,1,0,0,24,33580,0,65700,0,0,0,0,0
o,0x00000000,1720560733.680242,10.0.2.15,22,10.0.2.2,56322,1073725440,16222,0,65535,65700,0,0,4,1460,1,0,0,24,33580,68,65700,0,0,0,0,0
i,0x00000000,1720560733.681229,10.0.2.15,22,10.0.2.2,56322,1073725440,16222,0,65535,65700,0,0,4,1460,1,0,0,24,33580,68,65700,0,68,0,0,0
i,0x00000000,1720560733.681235,10.0.2.15,22,10.0.2.2,56322,1073725440,16290,0,65535,65700,0,0,4,1460,1,0,0,24,33580,0,65700,0,0,0,0,0
o,0x00000000,1720560733.681616,10.0.2.15,22,10.0.2.2,56322,1073725440,16290,0,65535,65700,0,0,4,1460,1,0,0,24,33580,332,65700,0,0,0,0,0
i,0x00000000,1720560733.682340,10.0.2.15,22,10.0.2.2,56322,1073725440,16290,0,65535,65700,0,0,4,1460,1,0,0,24,33580,332,65700,0,332,0,0,0
i,0x00000000,1720560733.683648,10.0.2.15,22,10.0.2.2,56322,1073725440,16622,0,65535,65700,0,0,4,1460,1,0,0,24,33580,0,65700,0,0,0,0,0
o,0x00000000,1720560733.702275,10.0.2.15,22,10.0.2.2,56322,1073725440,16622,0,65535,65700,0,0,4,1460,1,0,0,24,33580,28,65700,0,0,0,0,0
i,0x00000000,1720560733.703191,10.0.2.15,22,10.0.2.2,56322,1073725440,16622,0,65535,65700,0,0,4,1460,1,0,0,24,33580,28,65700,0,28,0,0,0
i,0x00000000,1720560733.703198,10.0.2.15,22,10.0.2.2,56322,1073725440,16650,0,65535,65700,0,0,4,1460,1,0,0,24,33580,0,65700,0,0,0,0,0
o,0x00000000,1720560733.703877,10.0.2.15,22,10.0.2.2,56322,1073725440,16650,0,65535,65700,0,0,4,1460,1,0,0,24,33580,768,65700,112,0,0,0,0
i,0x00000000,1720560733.704672,10.0.2.15,22,10.0.2.2,56322,1073725440,16650,0,65535,65700,0,0,4,1460,1,0,0,24,33580,768,65700,112,768,0,0,0
o,0x00000000,1720560733.704762,10.0.2.15,22,10.0.2.2,56322,1073725440,17418,0,65535,65700,0,0,4,1460,1,0,0,24,33580,140,65700,112,0,0,0,0
i,0x00000000,1720560733.707214,10.0.2.15,22,10.0.2.2,56322,1073725440,17418,0,65535,65700,0,0,4,1460,1,0,0,24,33580,184,65700,0,140,0,0,0
o,0x00000000,1720560733.707228,10.0.2.15,22,10.0.2.2,56322,1073725440,17558,0,65535,65700,0,0,4,1460,1,0,0,23,33580,44,65700,0,0,0,0,0
i,0x00000000,1720560733.708126,10.0.2.15,22,10.0.2.2,56322,1073725440,17558,0,65535,65700,0,0,4,1460,1,0,0,23,33580,44,65700,0,44,0,0,0
i,0x00000000,1720560733.708133,10.0.2.15,22,10.0.2.2,56322,1073725440,17602,0,65535,65700,0,0,4,1460,1,0,0,23,33580,0,65700,0,0,0,0,0
o,0x00000000,1720560733.708481,10.0.2.15,22,10.0.2.2,56322,1073725440,17602,0,65535,65700,0,0,4,1460,1,0,4,23,33580,72,65700,0,0,0,0,0
i,0x00000000,1720560733.709582,10.0.2.15,22,10.0.2.2,56322,1073725440,17602,0,65535,65700,0,0,4,1460,1,0,4,23,33580,72,65700,0,72,0,0,0
o,0x00000000,1720560733.713990,10.0.2.15,22,10.0.2.2,56322,1073725440,17674,0,65535,65700,0,0,4,1460,1,0,4,23,33580,44,65700,0,0,0,0,0
i,0x00000000,1720560733.714588,10.0.2.15,22,10.0.2.2,56322,1073725440,17674,0,65535,65700,0,0,4,1460,1,0,4,23,33580,44,65700,0,44,0,0,0
o,0x00000000,1720560733.714859,10.0.2.15,22,10.0.2.2,56322,1073725440,17718,0,65535,65700,0,0,4,1460,1,0,4,23,33580,44,65700,0,0,0,0,0
i,0x00000000,1720560733.715692,10.0.2.15,22,10.0.2.2,56322,1073725440,17718,0,65535,65700,0,0,4,1460,1,0,4,23,33580,44,65700,0,44,0,0,0
o,0x00000000,1720560733.717520,10.0.2.15,22,10.0.2.2,56322,1073725440,17762,0,65535,65700,0,0,4,1460,1,0,4,24,33580,176,65700,0,0,0,0,0
i,0x00000000,1720560733.718421,10.0.2.15,22,10.0.2.2,56322,1073725440,17762,0,65535,65700,0,0,4,1460,1,0,4,24,33580,176,65700,0,176,0,0,0
i,0x00000000,1720560733.718429,10.0.2.15,22,10.0.2.2,56322,1073725440,17938,0,65535,65700,0,0,4,1460,1,0,4,24,33580,0,65700,0,0,0,0,0
i,0x00000000,1720560733.718431,10.0.2.15,22,10.0.2.2,56322,1073725440,17938,0,65535,65700,0,0,4,1460,1,0,4,24,33580,0,65700,96,0,0,0,0
o,0x00000000,1720560733.718436,10.0.2.15,22,10.0.2.2,56322,1073725440,17938,0,65535,65604,0,0,5,1460,1,0,5,24,33580,0,65700,96,0,0,0,0
o,0x00000000,1720560733.727508,10.0.2.15,22,10.0.2.2,56322,1073725440,17938,0,65535,65604,0,0,8,1460,1,0,4,24,33580,0,65700,0,0,0,0,0
i,0x00000000,1720560733.728237,10.0.2.15,22,10.0.2.2,56322,1073725440,17938,0,65535,65604,0,0,8,1460,1,0,20,24,33580,0,65700,0,1,0,0,0
i,0x00000000,1720560734.048697,172.16.3.2,5101,172.16.1.2,21169,8999,14480,0,65728,65700,6,6,4,1460,616,1,992,74,33580,0,65700,0,0,0,0,0
o,0x00000000,1720560734.048786,172.16.3.2,5101,172.16.1.2,21169,8999,14480,0,65728,65700,6,6,4,1460,616,1,996,74,33580,1,65700,0,0,0,0,0
i,0x00000000,1720560734.163446,172.16.3.2,5101,172.16.1.2,21169,8999,14480,0,65728,65700,6,6,4,1460,616,1,996,74,33580,1,65700,0,1,0,0,0
i,0x00000000,1720560734.163473,172.16.3.2,5101,172.16.1.2,21169,8999,14480,0,65728,65728,6,6,4,1460,579,1,996,73,33580,0,65700,4,0,0,0,0
o,0x00000000,1720560734.163485,172.16.3.2,5101,172.16.1.2,21169,8999,14480,0,65728,65728,6,6,4,1460,579,1,997,73,33580,0,65700,128,0,0,0,0
o,0x00000000,1720560734.163768,172.16.3.2,5101,172.16.1.2,21169,8999,14480,0,65728,65728,6,6,4,1460,579,1,996,73,33580,1,65700,0,0,0,0,0
o,0x00000000,1720560734.164411,10.0.2.15,22,10.0.2.2,49435,1073725440,14600,0,65535,65700,0,0,4,1460,1,0,4,24,33580,84,65700,0,0,0,0,0
i,0x00000000,1720560734.165140,10.0.2.15,22,10.0.2.2,49435,1073725440,14600,0,65535,65700,0,0,4,1460,1,0,4,24,33580,84,65700,0,84,0,0,0
i,0x00000000,1720560734.313377,172.16.3.2,5101,172.16.1.2,21169,8999,14480,0,65728,65728,6,6,4,1460,579,1,996,73,33580,1,65700,0,1,0,0,0
i,0x00000000,1720560734.414928,172.16.3.2,5101,172.16.1.2,33282,8999,14480,0,65728,65700,6,6,4,1460,616,1,992,74,33580,0,65700,0,0,0,0,0
o,0x00000000,1720560734.416580,172.16.3.2,5101,172.16.1.2,21169,8999,14480,0,65728,65728,6,6,4,1460,567,1,996,67,33580,1,65700,0,0,0,0,0
o,0x00000000,1720560734.417174,172.16.3.2,5101,172.16.1.2,21169,8999,14480,0,65728,65728,6,6,4,1460,567,1,996,67,33580,2,65700,0,1,0,0,0
o,0x00000000,1720560734.417335,10.0.2.15,22,10.0.2.2,49435,1073725440,14600,0,65535,65700,0,0,4,1460,1,0,4,24,33580,108,65700,0,0,0,0,0
i,0x00000000,1720560734.418274,10.0.2.15,22,10.0.2.2,49435,1073725440,14600,0,65535,65700,0,0,4,1460,1,0,4,24,33580,108,65700,0,108,0,0,0
o,0x00000000,1720560734.449071,172.16.3.2,5101,172.16.1.2,33282,8999,14480,0,65728,65700,6,6,4,1460,616,1,993,74,33580,0,65700,0,0,0,0,0
i,0x00000000,1720560734.593227,172.16.3.2,5101,172.16.1.2,21169,8999,14480,0,65728,65728,6,6,4,1460,567,1,996,67,33580,2,65700,0,2,0,0,0
i,0x00000000,1720560734.631152,172.16.3.2,5101,172.16.1.2,33282,8999,14480,0,65728,65700,6,6,4,1460,616,1,992,74,33580,0,65700,0,0,0,0,0
i,0x00000000,1720560734.634873,172.16.3.2,5101,172.16.1.2,33282,8999,14480,0,65728,65700,6,6,4,1460,616,1,992,74,33580,0,65700,0,0,0,0,0
o,0x00000000,1720560734.634885,172.16.3.2,5101,172.16.1.2,33282,8999,14480,0,65728,65700,6,6,4,1460,616,1,993,74,33580,0,65700,1448,0,0,0,0
i,0x00000000,1720560734.642735,172.16.3.2,5101,172.16.1.2,33282,8999,14480,0,65728,65700,6,6,4,1460,616,1,992,74,33580,0,65700,0,0,0,0,0
i,0x00000000,1720560734.652548,172.16.3.2,5101,172.16.1.2,33282,8999,14480,0,65728,65700,6,6,4,1460,616,1,992,74,33580,0,65700,0,0,0,0,0
o,0x00000000,1720560734.652565,172.16.3.2,5101,172.16.1.2,33282,8999,14480,0,65728,65700,6,6,4,1460,616,1,993,74,33580,0,65700,1448,0,0,0,0
i,0x00000000,1720560734.684336,172.16.3.2,5101,172.16.1.2,33282,8999,14480,0,65728,65700,6,6,4,1460,616,1,992,74,33580,0,65700,0,0,0,0,0
i,0x00000000,1720560734.692623,172.16.3.2,5101,172.16.1.2,33282,8999,14480,0,65728,65700,6,6,4,1460,616,1,992,74,33580,0,65700,0,0,0,0,0
o,0x00000000,1720560734.692636,172.16.3.2,5101,172.16.1.2,33282,8999,14480,0,65728,65700,6,6,4,1460,616,1,993,74,33580,0,65700,1448,0,0,0,0
i,0x00000000,1720560734.702801,172.16.3.2,5101,172.16.1.2,33282,8999,14480,0,65728,65700,6,6,4,1460,616,1,992,74,33580,0,65700,0,0,0,0,0
i,0x00000000,1720560734.713333,172.16.3.2,5101,172.16.1.2,33282,8999,14480,0,65728,65700,6,6,4,1460,616,1,992,74,33580,0,65700,0,0,0,0,0
o,0x00000000,1720560734.713350,172.16.3.2,5101,172.16.1.2,33282,8999,14480,0,65728,65700,6,6,4,1460,616,1,993,74,33580,0,65700,1448,0,0,0,0
i,0x00000000,1720560734.735317,172.16.3.2,5101,172.16.1.2,33282,8999,14480,0,65728,65700,6,6,4,1460,616,1,992,74,33580,0,65700,0,0,0,0,0
i,0x00000000,1720560734.743067,172.16.3.2,5101,172.16.1.2,33282,8999,14480,0,65728,65700,6,6,4,1460,616,1,992,74,33580,0,65700,0,0,0,0,0
o,0x00000000,1720560734.743080,172.16.3.2,5101,172.16.1.2,33282,8999,14480,0,65728,65700,6,6,4,1460,616,1,993,74,33580,0,65700,1448,0,0,0,0
i,0x00000000,1720560734.802441,172.16.3.2,5101,172.16.1.2,33282,8999,14480,0,65728,65700,6,6,4,1460,616,1,992,74,33580,0,65700,0,0,0,0,0
i,0x00000000,1720560734.815126,172.16.3.2,5101,172.16.1.2,33282,8999,14480,0,65728,65700,6,6,4,1460,616,1,992,74,33580,0,65700,0,0,0,0,0
o,0x00000000,1720560734.815145,172.16.3.2,5101,172.16.1.2,33282,8999,14480,0,65728,65700,6,6,4,1460,616,1,993,74,33580,0,65700,1448,0,0,0,0
i,0x00000000,1720560734.848177,172.16.3.2,5101,172.16.1.2,33282,8999,14480,0,65728,65700,6,6,4,1460,616,1,992,74,33580,0,65700,0,0,0,0,0
i,0x00000000,1720560734.874228,172.16.3.2,5101,172.16.1.2,33282,8999,14480,0,65728,65700,6,6,4,1460,616,1,992,74,33580,0,65700,0,0,0,0,0
o,0x00000000,1720560734.874241,172.16.3.2,5101,172.16.1.2,33282,8999,14480,0,65728,65700,6,6,4,1460,616,1,993,74,33580,0,65700,1448,0,0,0,0
i,0x00000000,1720560734.926309,172.16.3.2,5101,172.16.1.2,33282,8999,14480,0,65728,65700,6,6,4,1460,616,1,992,74,33580,0,65700,0,0,0,0,0
i,0x00000000,1720560734.951297,172.16.3.2,5101,172.16.1.2,33282,8999,14480,0,65728,65700,6,6,4,1460,616,1,992,74,33580,0,65700,0,0,0,0,0
o,0x00000000,1720560734.951310,172.16.3.2,5101,172.16.1.2,33282,8999,14480,0,65728,65700,6,6,4,1460,616,1,993,74,33580,0,65700,1448,0,0,0,0
i,0x00000000,1720560734.953368,172.16.3.2,5101,172.16.1.2,33282,8999,14480,0,65728,65700,6,6,4,1460,616,1,992,74,33580,0,65700,0,0,0,0,0
i,0x00000000,1720560734.982385,172.16.3.2,5101,172.16.1.2,33282,8999,14480,0,65728,65700,6,6,4,1460,616,1,992,74,33580,0,65700,0,0,0,0,0
o,0x00000000,1720560734.982399,172.16.3.2,5101,172.16.1.2,33282,8999,14480,0,65728,65700,6,6,4,1460,616,1,993,74,33580,0,65700,1448,0,0,0,0
i,0x00000000,1720560735.011819,172.16.3.2,5101,172.16.1.2,33282,8999,14480,0,65728,65700,6,6,4,1460,616,1,992,74,33580,0,65700,0,0,0,0,0
i,0x00000000,1720560735.013334,172.16.3.2,5101,172.16.1.2,33282,8999,14480,0,65728,65700,6,6,4,1460,616,1,992,74,33580,0,65700,0,0,0,0,0
o,0x00000000,1720560735.013404,172.16.3.2,5101,172.16.1.2,33282,8999,14480,0,65728,65700,6,6,4,1460,616,1,993,74,33580,0,65700,1448,0,0,0,0
i,0x00000000,1720560735.023343,172.16.3.2,5101,172.16.1.2,33282,8999,14480,0,65728,65700,6,6,4,1460,616,1,992,74,33580,0,65700,0,0,0,0,0
o,0x00000000,1720560735.056354,172.16.3.2,5101,172.16.1.2,33282,8999,14480,0,65728,65700,6,6,4,1460,616,1,993,74,33580,0,65700,0,0,0,0,0
i,0x00000000,1720560735.062241,172.16.3.2,5101,172.16.1.2,33282,8999,14480,0,65728,65700,6,6,4,1460,616,1,992,74,33580,0,65700,0,0,0,0,0
i,0x00000000,1720560735.075858,172.16.3.2,5101,172.16.1.2,33282,8999,14480,0,65728,65700,6,6,4,1460,616,1,992,74,33580,0,65700,0,0,0,0,0
o,0x00000000,1720560735.075872,172.16.3.2,5101,172.16.1.2,33282,8999,14480,0,65728,65700,6,6,4,1460,616,1,993,74,33580,0,65700,1448,0,0,0,0
i,0x00000000,1720560735.127759,172.16.3.2,5101,172.16.1.2,33282,8999,14480,0,65728,65700,6,6,4,1460,616,1,992,74,33580,0,65700,0,0,0,0,0
i,0x00000000,1720560735.127872,172.16.3.2,5101,172.16.1.2,33282,8999,14480,0,65728,65700,6,6,4,1460,616,1,992,74,33580,0,65700,1448,0,0,0,0
o,0x00000000,1720560735.127884,172.16.3.2,5101,172.16.1.2,33282,8999,14480,0,65728,65700,6,6,4,1460,616,1,993,74,33580,0,65700,2896,0,0,0,0
i,0x00000000,1720560735.168598,172.16.3.2,5101,172.16.1.2,33282,8999,14480,0,65728,65700,6,6,4,1460,616,1,992,74,33580,0,65700,0,0,0,0,0
i,0x00000000,1720560735.199950,172.16.3.2,5101,172.16.1.2,33282,8999,14480,0,65728,65700,6,6,4,1460,616,1,992,74,33580,0,65700,0,0,0,0,0
o,0x00000000,1720560735.199966,172.16.3.2,5101,172.16.1.2,33282,8999,14480,0,65728,65700,6,6,4,1460,616,1,993,74,33580,0,65700,1448,0,0,0,0
i,0x00000000,1720560735.251753,172.16.3.2,5101,172.16.1.2,33282,8999,14480,0,65728,65700,6,6,4,1460,616,1,992,74,33580,0,65700,0,0,0,0,0
i,0x00000000,1720560735.251791,172.16.3.2,5101,172.16.1.2,33282,8999,14480,0,65728,65700,6,6,4,1460,616,1,992,74,33580,0,65700,1448,0,0,0,0
o,0x00000000,1720560735.251816,172.16.3.2,5101,172.16.1.2,33282,8999,14480,0,65728,65700,6,6,4,1460,616,1,993,74,33580,0,65700,2896,0,0,0,0
i,0x00000000,1720560735.282384,172.16.3.2,5101,172.16.1.2,33282,8999,14480,0,65728,65700,6,6,4,1460,616,1,992,74,33580,0,65700,0,0,0,0,0
i,0x00000000,1720560735.302345,172.16.3.2,5101,172.16.1.2,33282,8999,14480,0,65728,65700,6,6,4,1460,616,1,992,74,33580,0,65700,0,0,0,0,0
o,0x00000000,1720560735.302363,172.16.3.2,5101,172.16.1.2,33282,8999,14480,0,65728,65700,6,6,4,1460,616,1,993,74,33580,0,65700,1448,0,0,0,0
i,0x00000000,1720560735.334455,172.16.3.2,5101,172.16.1.2,33282,8999,14480,0,65728,65700,6,6,4,1460,616,1,992,74,33580,0,65700,0,0,0,0,0
i,0x00000000,1720560735.355643,172.16.3.2,5101,172.16.1.2,33282,8999,14480,0,65728,65700,6,6,4,1460,616,1,992,74,33580,0,65700,0,0,0,0,0
o,0x00000000,1720560735.355670,172.16.3.2,5101,172.16.1.2,33282,8999,14480,0,65728,65700,6,6,4,1460,616,1,993,74,33580,0,65700,1448,0,0,0,0
i,0x00000000,1720560735.362422,172.16.3.2,5101,172.16.1.2,33282,8999,14480,0,65728,65700,6,6,4,1460,616,1,992,74,33580,0,65700,0,0,0,0,0
i,0x00000000,1720560735.396658,172.16.3.2,5101,172.16.1.2,33282,8999,14480,0,65728,65700,6,6,4,1460,616,1,992,74,33580,0,65700,0,0,0,0,0
o,0x00000000,1720560735.396687,172.16.3.2,5101,172.16.1.2,33282,8999,14480,0,65728,65700,6,6,4,1460,616,1,993,74,33580,0,65700,1448,0,0,0,0
i,0x00000000,1720560735.410646,172.16.3.2,5101,172.16.1.2,33282,8999,14480,0,65728,65700,6,6,4,1460,616,1,992,74,33580,0,65700,0,0,0,0,0
o,0x00000000,1720560735.428113,10.0.2.15,22,10.0.2.2,49435,1073725440,14600,0,65535,65700,0,0,4,1460,1,0,4,24,33580,156,65700,0,0,0,0,0
i,0x00000000,1720560735.429022,10.0.2.15,22,10.0.2.2,49435,1073725440,14600,0,65535,65700,0,0,4,1460,1,0,4,24,33580,156,65700,0,156,0,0,0
i,0x00000000,1720560735.447029,172.16.3.2,5101,172.16.1.2,33282,8999,14480,0,65728,65700,6,6,4,1460,616,1,992,74,33580,0,65700,0,0,0,0,0
o,0x00000000,1720560735.447046,172.16.3.2,5101,172.16.1.2,33282,8999,14480,0,65728,65700,6,6,4,1460,616,1,993,74,33580,0,65700,1448,0,0,0,0
i,0x00000000,1720560735.453888,172.16.3.2,5101,172.16.1.2,33282,8999,14480,0,65728,65700,6,6,4,1460,616,1,992,74,33580,0,65700,0,0,0,0,0
i,0x00000000,1720560735.467990,172.16.3.2,5101,172.16.1.2,33282,8999,14480,0,65728,65700,6,6,4,1460,616,1,992,74,33580,0,65700,0,0,0,0,0
o,0x00000000,1720560735.468012,172.16.3.2,5101,172.16.1.2,33282,8999,14480,0,65728,65700,6,6,4,1460,616,1,993,74,33580,0,65700,1448,0,0,0,0
i,0x00000000,1720560735.502761,172.16.3.2,5101,172.16.1.2,33282,8999,14480,0,65728,65700,6,6,4,1460,616,1,992,74,33580,0,65700,0,0,0,0,0
i,0x00000000,1720560735.519612,172.16.3.2,5101,172.16.1.2,33282,8999,14480,0,65728,65700,6,6,4,1460,616,1,992,74,33580,0,65700,0,0,0,0,0
o,0x00000000,1720560735.519630,172.16.3.2,5101,172.16.1.2,33282,8999,14480,0,65728,65700,6,6,4,1460,616,1,993,74,33580,0,65700,1448,0,0,0,0
i,0x00000000,1720560735.584272,172.16.3.2,5101,172.16.1.2,33282,8999,14480,0,65728,65700,6,6,4,1460,616,1,992,74,33580,0,65700,0,0,0,0,0
i,0x00000000,1720560735.603509,172.16.3.2,5101,172.16.1.2,33282,8999,14480,0,65728,65700,6,6,4,1460,616,1,992,74,33580,0,65700,0,0,0,0,0
o,0x00000000,1720560735.603527,172.16.3.2,5101,172.16.1.2,33282,8999,14480,0,65728,65700,6,6,4,1460,616,1,993,74,33580,0,65700,1448,0,0,0,0
i,0x00000000,1720560735.636170,172.16.3.2,5101,172.16.1.2,33282,8999,14480,0,65728,65700,6,6,4,1460,616,1,992,74,33580,0,65700,0,0,0,0,0
o,0x00000000,1720560735.666942,172.16.3.2,5101,172.16.1.2,33282,8999,14480,0,65728,65700,6,6,4,1460,616,1,993,74,33580,0,65700,0,0,0,0,0
i,0x00000000,1720560735.674520,172.16.3.2,5101,172.16.1.2,33282,8999,14480,0,65728,65700,6,6,4,1460,616,1,992,74,33580,0,65700,0,0,0,0,0
i,0x00000000,1720560735.685647,172.16.3.2,5101,172.16.1.2,33282,8999,14480,0,65728,65700,6,6,4,1460,616,1,992,74,33580,0,65700,0,0,0,0,0
o,0x00000000,1720560735.685691,172.16.3.2,5101,172.16.1.2,33282,8999,14480,0,65728,65700,6,6,4,1460,616,1,993,74,33580,0,65700,0,0,1,0,0
i,0x00000000,1720560735.695039,172.16.3.2,5101,172.16.1.2,33282,8999,14480,0,65728,65700,6,6,4,1460,616,1,992,74,33580,0,65700,0,0,1,0,0
o,0x00000000,1720560735.695068,172.16.3.2,5101,172.16.1.2,33282,8999,14480,0,65728,65728,6,6,4,1460,616,1,993,74,33580,0,65700,0,0,1,0,0
i,0x00000000,1720560735.735826,172.16.3.2,5101,172.16.1.2,33282,8999,14480,0,65728,65728,6,6,4,1460,616,1,992,74,33580,0,65700,0,0,1,0,0
o,0x00000000,1720560735.735854,172.16.3.2,5101,172.16.1.2,33282,8999,14480,0,65728,65728,6,6,4,1460,616,1,993,74,33580,0,65700,0,0,1,0,0
i,0x00000000,1720560735.742132,172.16.3.2,5101,172.16.1.2,33282,8999,14480,0,65728,65728,6,6,4,1460,616,1,992,74,33580,0,65700,0,0,1,0,0
o,0x00000000,1720560735.742144,172.16.3.2,5101,172.16.1.2,33282,8999,14480,0,65728,65728,6,6,4,1460,616,1,993,74,33580,0,65700,0,0,1,0,0
i,0x00000000,1720560735.772769,172.16.3.2,5101,172.16.1.2,33282,8999,14480,0,65728,65728,6,6,4,1460,616,1,992,74,33580,0,65700,0,0,1,0,0
o,0x00000000,1720560735.772806,172.16.3.2,5101,172.16.1.2,33282,8999,14480,0,65728,65728,6,6,4,1460,616,1,993,74,33580,0,65700,0,0,1,0,0
i,0x00000000,1720560735.777094,172.16.3.2,5101,172.16.1.2,33282,8999,14480,0,65728,65728,6,6,4,1460,616,1,992,74,33580,0,65700,0,0,1,0,0
o,0x00000000,1720560735.777127,172.16.3.2,5101,172.16.1.2,33282,8999,14480,0,65728,65728,6,6,4,1460,616,1,993,74,33580,0,65700,0,0,1,0,0
i,0x00000000,1720560735.805868,172.16.3.2,5101,172.16.1.2,33282,8999,14480,0,65728,65728,6,6,4,1460,616,1,992,74,33580,0,65700,0,0,1,0,0
o,0x00000000,1720560735.805913,172.16.3.2,5101,172.16.1.2,33282,8999,14480,0,65728,65728,6,6,4,1460,616,1,993,74,33580,0,65700,0,0,1,0,0
i,0x00000000,1720560735.831404,172.16.3.2,5101,172.16.1.2,33282,8999,14480,0,65728,65728,6,6,4,1460,616,1,992,74,33580,0,65700,0,0,1,0,0
o,0x00000000,1720560735.831420,172.16.3.2,5101,172.16.1.2,33282,8999,14480,0,65728,65728,6,6,4,1460,616,1,993,74,33580,0,65700,0,0,1,0,0
i,0x00000000,1720560735.873309,172.16.3.2,5101,172.16.1.2,33282,8999,14480,0,65728,65728,6,6,4,1460,616,1,992,74,33580,0,65700,0,0,1,0,0
o,0x00000000,1720560735.873369,172.16.3.2,5101,172.16.1.2,33282,8999,14480,0,65728,65728,6,6,4,1460,616,1,993,74,33580,0,65700,0,0,1,0,0
i,0x00000000,1720560735.883835,172.16.3.2,5101,172.16.1.2,33282,8999,14480,0,65728,65728,6,6,4,1460,616,1,992,74,33580,0,65700,0,0,1,0,0
o,0x00000000,1720560735.883856,172.16.3.2,5101,172.16.1.2,33282,8999,14480,0,65728,65728,6,6,4,1460,616,1,993,74,33580,0,65700,0,0,1,0,0
i,0x00000000,1720560735.925695,172.16.3.2,5101,172.16.1.2,33282,8999,14480,0,65728,65728,6,6,4,1460,616,1,992,74,33580,0,65700,0,0,1,0,0
o,0x00000000,1720560735.925762,172.16.3.2,5101,172.16.1.2,33282,8999,14480,0,65728,65728,6,6,4,1460,616,1,993,74,33580,0,65700,0,0,1,0,0
i,0x00000000,1720560735.926857,172.16.3.2,5101,172.16.1.2,33282,8999,14480,0,65728,65728,6,6,4,1460,616,1,992,74,33580,0,65700,0,0,1,0,0
o,0x00000000,1720560735.926927,172.16.3.2,5101,172.16.1.2,33282,8999,14480,0,65728,65728,6,6,4,1460,616,1,993,74,33580,0,65700,0,0,1,0,0
i,0x00000000,1720560735.944877,172.16.3.2,5101,172.16.1.2,33282,8999,14480,0,65728,65728,6,6,4,1460,616,1,992,74,33580,0,65700,0,0,1,0,0
o,0x00000000,1720560735.944910,172.16.3.2,5101,172.16.1.2,33282,8999,14480,0,65728,65728,6,6,4,1460,616,1,993,74,33580,0,65700,0,0,1,0,0
i,0x00000000,1720560735.953069,172.16.3.2,5101,172.16.1.2,33282,8999,14480,0,65728,65728,6,6,4,1460,616,1,992,74,33580,0,65700,0,0,1,0,0
o,0x00000000,1720560735.953093,172.16.3.2,5101,172.16.1.2,33282,8999,14480,0,65728,65728,6,6,4,1460,616,1,993,74,33580,0,65700,20272,0,0,0,0
o,0x00000000,1720560735.953293,172.16.3.2,5101,172.16.1.2,33282,8999,14480,0,65728,65728,6,6,4,1460,616,1,992,74,33580,0,65700,0,0,0,0,0
i,0x00000000,1720560735.992312,172.16.3.2,5101,172.16.1.2,33282,8999,14480,0,65728,65728,6,6,4,1460,616,1,992,74,33580,0,65700,0,0,0,0,0
o,0x00000000,1720560735.992325,172.16.3.2,5101,172.16.1.2,33282,8999,14480,0,65728,65728,6,6,4,1460,616,1,993,74,33580,0,65700,0,0,1,0,0
i,0x00000000,1720560736.024875,172.16.3.2,5101,172.16.1.2,33282,8999,14480,0,65728,65728,6,6,4,1460,616,1,992,74,33580,0,65700,0,0,1,0,0
o,0x00000000,1720560736.024907,172.16.3.2,5101,172.16.1.2,33282,8999,14480,0,65728,65728,6,6,4,1460,616,1,993,74,33580,0,65700,0,0,1,0,0
i,0x00000000,1720560736.048084,172.16.3.2,5101,172.16.1.2,33282,8999,14480,0,65728,65728,6,6,4,1460,616,1,992,74,33580,0,65700,0,0,1,0,0
o,0x00000000,1720560736.048097,172.16.3.2,5101,172.16.1.2,33282,8999,14480,0,65728,65728,6,6,4,1460,616,1,993,74,33580,0,65700,0,0,1,0,0
i,0x00000000,1720560736.101396,172.16.3.2,5101,172.16.1.2,33282,8999,14480,0,65728,65728,6,6,4,1460,616,1,992,74,33580,0,65700,0,0,1,0,0
o,0x00000000,1720560736.101415,172.16.3.2,5101,172.16.1.2,33282,8999,14480,0,65728,65728,6,6,4,1460,616,1,993,74,33580,0,65700,0,0,1,0,0
i,0x00000000,1720560736.102138,172.16.3.2,5101,172.16.1.2,33282,8999,14480,0,65728,65728,6,6,4,1460,616,1,992,74,33580,0,65700,0,0,1,0,0
i,0x00000000,1720560736.131578,172.16.3.2,5101,172.16.1.2,33282,8999,14480,0,65728,65728,6,6,4,1460,616,1,992,74,33580,0,65700,0,0,1,0,0
o,0x00000000,1720560736.131596,172.16.3.2,5101,172.16.1.2,33282,8999,14480,0,65728,65728,6,6,4,1460,616,1,993,74,33580,0,65700,0,0,1,0,0
i,0x00000000,1720560736.131729,172.16.3.2,5101,172.16.1.2,33282,8999,14480,0,65728,65728,6,6,4,1460,616,1,992,74,33580,0,65700,0,0,1,0,0
o,0x00000000,1720560736.131735,172.16.3.2,5101,172.16.1.2,33282,8999,14480,0,65728,65728,6,6,4,1460,616,1,993,74,33580,0,65700,0,0,1,0,0
i,0x00000000,1720560736.162666,172.16.3.2,5101,172.16.1.2,33282,8999,14480,0,65728,65728,6,6,4,1460,616,1,992,74,33580,0,65700,0,0,1,0,0
o,0x00000000,1720560736.162687,172.16.3.2,5101,172.16.1.2,33282,8999,14480,0,65728,65728,6,6,4,1460,616,1,993,74,33580,0,65700,10136,0,0,0,0
i,0x00000000,1720560736.173695,172.16.3.2,5101,172.16.1.2,33282,8999,14480,0,65728,65728,6,6,4,1460,616,1,992,74,33580,0,65700,0,0,0,0,0
o,0x00000000,1720560736.208702,172.16.3.2,5101,172.16.1.2,33282,8999,14480,0,65728,65728,6,6,4,1460,616,1,993,74,33580,0,65700,0,0,0,0,0
i,0x00000000,1720560736.212971,172.16.3.2,5101,172.16.1.2,33282,8999,14480,0,65728,65728,6,6,4,1460,616,1,992,74,33580,0,65700,0,0,0,0,0
o,0x00000000,1720560736.247678,172.16.3.2,5101,172.16.1.2,33282,8999,14480,0,65728,65728,6,6,4,1460,616,1,993,74,33580,0,65700,0,0,0,0,0
i,0x00000000,1720560736.256132,172.16.3.2,5101,172.16.1.2,33282,8999,14480,0,65728,65728,6,6,4,1460,616,1,992,74,33580,0,65700,0,0,0,0,0
o,0x00000000,1720560736.287010,172.16.3.2,5101,172.16.1.2,33282,8999,14480,0,65728,65728,6,6,4,1460,616,1,993,74,33580,0,65700,0,0,0,0,0
i,0x00000000,1720560736.305198,172.16.3.2,5101,172.16.1.2,33282,8999,14480,0,65728,65728,6,6,4,1460,616,1,992,74,33580,0,65700,0,0,0,0,0
i,0x00000000,1720560736.316706,172.16.3.2,5101,172.16.1.2,33282,8999,14480,0,65728,65728,6,6,4,1460,616,1,992,74,33580,0,65700,0,0,0,0,0
o,0x00000000,1720560736.316728,172.16.3.2,5101,172.16.1.2,33282,8999,14480,0,65728,65728,6,6,4,1460,616,1,993,74,33580,0,65700,1448,0,0,0,0
i,0x00000000,1720560736.348243,172.16.3.2,5101,172.16.1.2,33282,8999,14480,0,65728,65728,6,6,4,1460,616,1,992,74,33580,0,65700,0,0,0,0,0
i,0x00000000,1720560736.382101,172.16.3.2,5101,172.16.1.2,33282,8999,14480,0,65728,65728,6,6,4,1460,616,1,992,74,33580,0,65700,0,0,0,0,0
o,0x00000000,1720560736.382148,172.16.3.2,5101,172.16.1.2,33282,8999,14480,0,65728,65728,6,6,4,1460,616,1,993,74,33580,0,65700,1448,0,0,0,0
i,0x00000000,1720560736.386938,172.16.3.2,5101,172.16.1.2,33282,8999,14480,0,65728,65728,6,6,4,1460,616,1,992,74,33580,0,65700,0,0,0,0,0
i,0x00000000,1720560736.417662,172.16.3.2,5101,172.16.1.2,33282,8999,14480,0,65728,65728,6,6,4,1460,616,1,992,74,33580,0,65700,0,0,0,0,0
o,0x00000000,1720560736.417676,172.16.3.2,5101,172.16.1.2,33282,8999,14480,0,65728,65728,6,6,4,1460,616,1,993,74,33580,0,65700,1448,0,0,0,0
o,0x00000000,1720560736.428535,10.0.2.15,22,10.0.2.2,49435,1073725440,14600,0,65535,65700,0,0,4,1460,1,0,4,24,33580,108,65700,0,0,0,0,0
i,0x00000000,1720560736.430081,10.0.2.15,22,10.0.2.2,49435,1073725440,14600,0,65535,65700,0,0,4,1460,1,0,4,24,33580,108,65700,0,108,0,0,0
i,0x00000000,1720560736.451769,172.16.3.2,5101,172.16.1.2,33282,8999,14480,0,65728,65728,6,6,4,1460,616,1,992,74,33580,0,65700,0,0,0,0,0
i,0x00000000,1720560736.483139,172.16.3.2,5101,172.16.1.2,33282,8999,14480,0,65728,65728,6,6,4,1460,616,1,992,74,33580,0,65700,0,0,0,0,0
o,0x00000000,1720560736.483160,172.16.3.2,5101,172.16.1.2,33282,8999,14480,0,65728,65728,6,6,4,1460,616,1,993,74,33580,0,65700,1448,0,0,0,0
i,0x00000000,1720560736.483704,172.16.3.2,5101,172.16.1.2,33282,8999,14480,0,65728,65728,6,6,4,1460,616,1,992,74,33580,0,65700,1448,0,0,0,0
o,0x00000000,1720560736.517392,172.16.3.2,5101,172.16.1.2,33282,8999,14480,0,65728,65728,6,6,4,1460,616,1,993,74,33580,0,65700,0,0,0,0,0
i,0x00000000,1720560736.545971,172.16.3.2,5101,172.16.1.2,33282,8999,14480,0,65728,65728,6,6,4,1460,616,1,992,74,33580,0,65700,0,0,0,0,0
i,0x00000000,1720560736.555979,172.16.3.2,5101,172.16.1.2,33282,8999,14480,0,65728,65728,6,6,4,1460,616,1,992,74,33580,0,65700,0,0,0,0,0
o,0x00000000,1720560736.555995,172.16.3.2,5101,172.16.1.2,33282,8999,14480,0,65728,65728,6,6,4,1460,616,1,993,74,33580,0,65700,1448,0,0,0,0
i,0x00000000,1720560736.565274,172.16.3.2,5101,172.16.1.2,33282,8999,14480,0,65728,65728,6,6,4,1460,616,1,992,74,33580,0,65700,0,0,0,0,0
i,0x00000000,1720560736.585831,172.16.3.2,5101,172.16.1.2,33282,8999,14480,0,65728,65728,6,6,4,1460,616,1,992,74,33580,0,65700,0,0,0,0,0
o,0x00000000,1720560736.585849,172.16.3.2,5101,172.16.1.2,33282,8999,14480,0,65728,65728,6,6,4,1460,616,1,993,74,33580,0,65700,1448,0,0,0,0
i,0x00000000,1720560736.594033,172.16.3.2,5101,172.16.1.2,33282,8999,14480,0,65728,65728,6,6,4,1460,616,1,992,74,33580,0,65700,0,0,0,0,0
o,0x00000000,1720560736.627210,172.16.3.2,5101,172.16.1.2,33282,8999,14480,0,65728,65728,6,6,4,1460,616,1,993,74,33580,0,65700,0,0,0,0,0
i,0x00000000,1720560736.648548,172.16.3.2,5101,172.16.1.2,33282,8999,14480,0,65728,65728,6,6,4,1460,616,1,992,74,33580,0,65700,0,0,0,0,0
i,0x00000000,1720560736.654513,172.16.3.2,5101,172.16.1.2,33282,8999,14480,0,65728,65728,6,6,4,1460,616,1,992,74,33580,0,65700,0,0,0,0,0
o,0x00000000,1720560736.654527,172.16.3.2,5101,172.16.1.2,33282,8999,14480,0,65728,65728,6,6,4,1460,616,1,993,74,33580,0,65700,1448,0,0,0,0
i,0x00000000,1720560736.693765,172.16.3.2,5101,172.16.1.2,33282,8999,14480,0,65728,65728,6,6,4,1460,616,1,992,74,33580,0,65700,0,0,0,0,0
o,0x00000000,1720560736.726905,172.16.3.2,5101,172.16.1.2,33282,8999,14480,0,65728,65728,6,6,4,1460,616,1,993,74,33580,0,65700,0,0,0,0,0
i,0x00000000,1720560736.746245,172.16.3.2,5101,172.16.1.2,33282,8999,14480,0,65728,65728,6,6,4,1460,616,1,992,74,33580,0,65700,0,0,0,0,0
i,0x00000000,1720560736.754332,172.16.3.2,5101,172.16.1.2,33282,8999,14480,0,65728,65728,6,6,4,1460,616,1,992,74,33580,0,65700,0,0,0,0,0
o,0x00000000,1720560736.754346,172.16.3.2,5101,172.16.1.2,33282,8999,14480,0,65728,65728,6,6,4,1460,616,1,993,74,33580,0,65700,1448,0,0,0,0
i,0x00000000,1720560736.785640,172.16.3.2,5101,172.16.1.2,33282,8999,14480,0,65728,65728,6,6,4,1460,616,1,992,74,33580,0,65700,0,0,0,0,0
i,0x00000000,1720560736.793250,172.16.3.2,5101,172.16.1.2,33282,8999,14480,0,65728,65728,6,6,4,1460,616,1,992,74,33580,0,65700,0,0,0,0,0
o,0x00000000,1720560736.793268,172.16.3.2,5101,172.16.1.2,33282,8999,14480,0,65728,65728,6,6,4,1460,616,1,993,74,33580,0,65700,1448,0,0,0,0
i,0x00000000,1720560736.833880,172.16.3.2,5101,172.16.1.2,33282,8999,14480,0,65728,65728,6,6,4,1460,616,1,992,74,33580,0,65700,0,0,0,0,0
i,0x00000000,1720560736.834917,172.16.3.2,5101,172.16.1.2,33282,8999,14480,0,65728,65728,6,6,4,1460,616,1,992,74,33580,0,65700,0,0,0,0,0
o,0x00000000,1720560736.834929,172.16.3.2,5101,172.16.1.2,33282,8999,14480,0,65728,65728,6,6,4,1460,616,1,993,74,33580,0,65700,1448,0,0,0,0
i,0x00000000,1720560736.864404,172.16.3.2,5101,172.16.1.2,33282,8999,14480,0,65728,65728,6,6,4,1460,616,1,992,74,33580,0,65700,0,0,0,0,0
i,0x00000000,1720560736.875331,172.16.3.2,5101,172.16.1.2,33282,8999,14480,0,65728,65728,6,6,4,1460,616,1,992,74,33580,0,65700,0,0,0,0,0
o,0x00000000,1720560736.875348,172.16.3.2,5101,172.16.1.2,33282,8999,14480,0,65728,65728,6,6,4,1460,616,1,993,74,33580,0,65700,1448,0,0,0,0
i,0x00000000,1720560736.916221,172.16.3.2,5101,172.16.1.2,33282,8999,14480,0,65728,65728,6,6,4,1460,616,1,992,74,33580,0,65700,0,0,0,0,0
o,0x00000000,1720560736.947445,172.16.3.2,5101,172.16.1.2,33282,8999,14480,0,65728,65728,6,6,4,1460,616,1,993,74,33580,0,65700,0,0,0,0,0
i,0x00000000,1720560736.963766,172.16.3.2,5101,172.16.1.2,33282,8999,14480,0,65728,65728,6,6,4,1460,616,1,992,74,33580,0,65700,0,0,0,0,0
i,0x00000000,1720560736.982064,172.16.3.2,5101,172.16.1.2,33282,8999,14480,0,65728,65728,6,6,4,1460,616,1,992,74,33580,0,65700,0,0,0,0,0
o,0x00000000,1720560736.982091,172.16.3.2,5101,172.16.1.2,33282,8999,14480,0,65728,65728,6,6,4,1460,616,1,993,74,33580,0,65700,1448,0,0,0,0
i,0x00000000,1720560737.014749,172.16.3.2,5101,172.16.1.2,33282,8999,14480,0,65728,65728,6,6,4,1460,616,1,992,74,33580,0,65700,0,0,0,0,0
i,0x00000000,1720560737.024001,172.16.3.2,5101,172.16.1.2,33282,8999,14480,0,65728,65728,6,6,4,1460,616,1,992,74,33580,0,65700,0,0,0,0,0
o,0x00000000,1720560737.024018,172.16.3.2,5101,172.16.1.2,33282,8999,14480,0,65728,65728,6,6,4,1460,616,1,993,74,33580,0,65700,1448,0,0,0,0
i,0x00000000,1720560737.064692,172.16.3.2,5101,172.16.1.2,33282,8999,14480,0,65728,65728,6,6,4,1460,616,1,992,74,33580,0,65700,0,0,0,0,0
i,0x00000000,1720560737.085476,172.16.3.2,5101,172.16.1.2,33282,8999,14480,0,65728,65728,6,6,4,1460,616,1,992,74,33580,0,65700,0,0,0,0,0
o,0x00000000,1720560737.085514,172.16.3.2,5101,172.16.1.2,33282,8999,14480,0,65728,65728,6,6,4,1460,616,1,993,74,33580,0,65700,1448,0,0,0,0
i,0x00000000,1720560737.091173,172.16.3.2,5101,172.16.1.2,33282,8999,14480,0,65728,65728,6,6,4,1460,616,1,992,74,33580,0,65700,0,0,0,0,0
i,0x00000000,1720560737.105932,172.16.3.2,5101,172.16.1.2,33282,8999,14480,0,65728,65728,6,6,4,1460,616,1,992,74,33580,0,65700,0,0,0,0,0
o,0x00000000,1720560737.105952,172.16.3.2,5101,172.16.1.2,33282,8999,14480,0,65728,65728,6,6,4,1460,616,1,993,74,33580,0,65700,1448,0,0,0,0
i,0x00000000,1720560737.123745,172.16.3.2,5101,172.16.1.2,33282,8999,14480,0,65728,65728,6,6,4,1460,616,1,992,74,33580,0,65700,0,0,0,0,0
i,0x00000000,1720560737.156530,172.16.3.2,5101,172.16.1.2,33282,8999,14480,0,65728,65728,6,6,4,1460,616,1,992,74,33580,0,65700,0,0,0,0,0
o,0x00000000,1720560737.156556,172.16.3.2,5101,172.16.1.2,33282,8999,14480,0,65728,65728,6,6,4,1460,616,1,993,74,33580,0,65700,1448,0,0,0,0
i,0x00000000,1720560737.197641,172.16.3.2,5101,172.16.1.2,33282,8999,14480,0,65728,65728,6,6,4,1460,616,1,992,74,33580,0,65700,0,0,0,0,0
i,0x00000000,1720560737.214517,172.16.3.2,5101,172.16.1.2,33282,8999,14480,0,65728,65728,6,6,4,1460,616,1,992,74,33580,0,65700,0,0,0,0,0
o,0x00000000,1720560737.214539,172.16.3.2,5101,172.16.1.2,33282,8999,14480,0,65728,65728,6,6,4,1460,616,1,993,74,33580,0,65700,1448,0,0,0,0
i,0x00000000,1720560737.258713,172.16.3.2,5101,172.16.1.2,33282,8999,14480,0,65728,65728,6,6,4,1460,616,1,992,74,33580,0,65700,0,0,0,0,0
i,0x00000000,1720560737.270214,172.16.3.2,5101,172.16.1.2,33282,8999,14480,0,65728,65728,6,6,4,1460,616,1,992,74,33580,0,65700,0,0,0,0,0
o,0x00000000,1720560737.270244,172.16.3.2,5101,172.16.1.2,33282,8999,14480,0,65728,65728,6,6,4,1460,616,1,993,74,33580,0,65700,1448,0,0,0,0
i,0x00000000,1720560737.306124,172.16.3.2,5101,172.16.1.2,33282,8999,14480,0,65728,65728,6,6,4,1460,616,1,992,74,33580,0,65700,0,0,0,0,0
o,0x00000000,1720560737.337702,172.16.3.2,5101,172.16.1.2,33282,8999,14480,0,65728,65728,6,6,4,1460,616,1,993,74,33580,0,65700,0,0,0,0,0
i,0x00000000,1720560737.352016,172.16.3.2,5101,172.16.1.2,33282,8999,14480,0,65728,65728,6,6,4,1460,616,1,992,74,33580,0,65700,0,0,0,0,0
i,0x00000000,1720560737.361678,172.16.3.2,5101,172.16.1.2,33282,8999,14480,0,65728,65728,6,6,4,1460,616,1,992,74,33580,0,65700,0,0,0,0,0
o,0x00000000,1720560737.361699,172.16.3.2,5101,172.16.1.2,33282,8999,14480,0,65728,65728,6,6,4,1460,616,1,993,74,33580,0,65700,1448,0,0,0,0
i,0x00000000,1720560737.367807,172.16.3.2,5101,172.16.1.2,33282,8999,14480,0,65728,65728,6,6,4,1460,616,1,992,74,33580,0,65700,0,0,0,0,0
i,0x00000000,1720560737.404296,172.16.3.2,5101,172.16.1.2,33282,8999,14480,0,65728,65728,6,6,4,1460,616,1,992,74,33580,0,65700,0,0,0,0,0
o,0x00000000,1720560737.404311,172.16.3.2,5101,172.16.1.2,33282,8999,14480,0,65728,65728,6,6,4,1460,616,1,993,74,33580,0,65700,1448,0,0,0,0
i,0x00000000,1720560737.415224,172.16.3.2,5101,172.16.1.2,33282,8999,14480,0,65728,65728,6,6,4,1460,616,1,992,74,33580,0,65700,0,0,0,0,0
i,0x00000000,1720560737.434206,172.16.3.2,5101,172.16.1.2,33282,8999,14480,0,65728,65728,6,6,4,1460,616,1,992,74,33580,0,65700,0,0,0,0,0
o,0x00000000,1720560737.434219,172.16.3.2,5101,172.16.1.2,33282,8999,14480,0,65728,65728,6,6,4,1460,616,1,993,74,33580,0,65700,1448,0,0,0,0
o,0x00000000,1720560737.437891,10.0.2.15,22,10.0.2.2,49435,1073725440,14600,0,65535,65700,0,0,4,1460,1,0,4,24,33580,108,65700,0,0,0,0,0
i,0x00000000,1720560737.438687,10.0.2.15,22,10.0.2.2,49435,1073725440,14600,0,65535,65700,0,0,4,1460,1,0,4,24,33580,108,65700,0,108,0,0,0
i,0x00000000,1720560737.475623,172.16.3.2,5101,172.16.1.2,33282,8999,14480,0,65728,65728,6,6,4,1460,616,1,992,74,33580,0,65700,0,0,0,0,0
i,0x00000000,1720560737.476776,172.16.3.2,5101,172.16.1.2,33282,8999,14480,0,65728,65728,6,6,4,1460,616,1,992,74,33580,0,65700,0,0,0,0,0
o,0x00000000,1720560737.476787,172.16.3.2,5101,172.16.1.2,33282,8999,14480,0,65728,65728,6,6,4,1460,616,1,993,74,33580,0,65700,1448,0,0,0,0
i,0x00000000,1720560737.539825,172.16.3.2,5101,172.16.1.2,33282,8999,14480,0,65728,65728,6,6,4,1460,616,1,992,74,33580,0,65700,0,0,0,0,0
i,0x00000000,1720560737.550904,172.16.3.2,5101,172.16.1.2,33282,8999,14480,0,65728,65728,6,6,4,1460,616,1,992,74,33580,0,65700,0,0,0,0,0
o,0x00000000,1720560737.550946,172.16.3.2,5101,172.16.1.2,33282,8999,14480,0,65728,65728,6,6,4,1460,616,1,993,74,33580,0,65700,1448,0,0,0,0
i,0x00000000,1720560737.598450,172.16.3.2,5101,172.16.1.2,33282,8999,14480,0,65728,65728,6,6,4,1460,616,1,992,74,33580,0,65700,0,0,0,0,0
i,0x00000000,1720560737.632964,172.16.3.2,5101,172.16.1.2,33282,8999,14480,0,65728,65728,6,6,4,1460,616,1,992,74,33580,0,65700,0,0,0,0,0
o,0x00000000,1720560737.633008,172.16.3.2,5101,172.16.1.2,33282,8999,14480,0,65728,65728,6,6,4,1460,616,1,993,74,33580,0,65700,1448,0,0,0,0
i,0x00000000,1720560737.639650,172.16.3.2,5101,172.16.1.2,33282,8999,14480,0,65728,65728,6,6,4,1460,616,1,992,74,33580,0,65700,0,0,0,0,0
i,0x00000000,1720560737.647303,172.16.3.2,5101,172.16.1.2,33282,8999,14480,0,65728,65728,6,6,4,1460,616,1,992,74,33580,0,65700,0,0,0,0,0
o,0x00000000,1720560737.647342,172.16.3.2,5101,172.16.1.2,33282,8999,14480,0,65728,65728,6,6,4,1460,616,1,993,74,33580,0,65700,1448,0,0,0,0
i,0x00000000,1720560737.689896,172.16.3.2,5101,172.16.1.2,33282,8999,14480,0,65728,65728,6,6,4,1460,616,1,992,74,33580,0,65700,0,0,0,0,0
i,0x00000000,1720560737.710109,172.16.3.2,5101,172.16.1.2,33282,8999,14480,0,65728,65728,6,6,4,1460,616,1,992,74,33580,0,65700,0,0,0,0,0
o,0x00000000,1720560737.710151,172.16.3.2,5101,172.16.1.2,33282,8999,14480,0,65728,65728,6,6,4,1460,616,1,993,74,33580,0,65700,1448,0,0,0,0
i,0x00000000,1720560737.710648,172.16.3.2,5101,172.16.1.2,33282,8999,14480,0,65728,65728,6,6,4,1460,616,1,992,74,33580,0,65700,1448,0,0,0,0
i,0x00000000,1720560737.715328,172.16.3.2,5101,172.16.1.2,33282,8999,14480,0,65728,65728,6,6,4,1460,616,1,992,74,33580,0,65700,0,0,0,0,0
o,0x00000000,1720560737.715375,172.16.3.2,5101,172.16.1.2,33282,8999,14480,0,65728,65728,6,6,4,1460,616,1,993,74,33580,0,65700,1448,0,0,0,0
i,0x00000000,1720560737.757121,172.16.3.2,5101,172.16.1.2,33282,8999,14480,0,65728,65728,6,6,4,1460,616,1,992,74,33580,0,65700,0,0,0,0,0
i,0x00000000,1720560737.773170,172.16.3.2,5101,172.16.1.2,33282,8999,14480,0,65728,65728,6,6,4,1460,616,1,992,74,33580,0,65700,0,0,0,0,0
o,0x00000000,1720560737.773210,172.16.3.2,5101,172.16.1.2,33282,8999,14480,0,65728,65728,6,6,4,1460,616,1,993,74,33580,0,65700,1448,0,0,0,0
i,0x00000000,1720560737.820066,172.16.3.2,5101,172.16.1.2,33282,8999,14480,0,65728,65728,6,6,4,1460,616,1,992,74,33580,0,65700,0,0,0,0,0
o,0x00000000,1720560737.857279,172.16.3.2,5101,172.16.1.2,33282,8999,14480,0,65728,65728,6,6,4,1460,616,1,993,74,33580,0,65700,0,0,0,0,0
i,0x00000000,1720560737.858351,172.16.3.2,5101,172.16.1.2,33282,8999,14480,0,65728,65728,6,6,4,1460,616,1,992,74,33580,0,65700,0,0,0,0,0
i,0x00000000,1720560737.865364,172.16.3.2,5101,172.16.1.2,33282,8999,14480,0,65728,65728,6,6,4,1460,616,1,992,74,33580,0,65700,0,0,0,0,0
o,0x00000000,1720560737.865418,172.16.3.2,5101,172.16.1.2,33282,8999,14480,0,65728,65728,6,6,4,1460,616,1,993,74,33580,0,65700,1448,0,0,0,0
i,0x00000000,1720560737.875321,172.16.3.2,5101,172.16.1.2,33282,8999,14480,0,65728,65728,6,6,4,1460,616,1,992,74,33580,0,65700,0,0,0,0,0
o,0x00000000,1720560737.907715,172.16.3.2,5101,172.16.1.2,33282,8999,14480,0,65728,65728,6,6,4,1460,616,1,993,74,33580,0,65700,0,0,0,0,0
i,0x00000000,1720560737.946179,172.16.3.2,5101,172.16.1.2,33282,8999,14480,0,65728,65728,6,6,4,1460,616,1,992,74,33580,0,65700,0,0,0,0,0
i,0x00000000,1720560737.956073,172.16.3.2,5101,172.16.1.2,33282,8999,14480,0,65728,65728,6,6,4,1460,616,1,992,74,33580,0,65700,0,0,0,0,0
o,0x00000000,1720560737.956129,172.16.3.2,5101,172.16.1.2,33282,8999,14480,0,65728,65728,6,6,4,1460,616,1,993,74,33580,0,65700,1448,0,0,0,0
i,0x00000000,1720560737.965733,172.16.3.2,5101,172.16.1.2,33282,8999,14480,0,65728,65728,6,6,4,1460,616,1,992,74,33580,0,65700,0,0,0,0,0
o,0x00000000,1720560737.997361,172.16.3.2,5101,172.16.1.2,33282,8999,14480,0,65728,65728,6,6,4,1460,616,1,993,74,33580,0,65700,0,0,0,0,0
i,0x00000000,1720560738.006062,172.16.3.2,5101,172.16.1.2,33282,8999,14480,0,65728,65728,6,6,4,1460,616,1,992,74,33580,0,65700,0,0,0,0,0
i,0x00000000,1720560738.015766,172.16.3.2,5101,172.16.1.2,33282,8999,14480,0,65728,65728,6,6,4,1460,616,1,992,74,33580,0,65700,0,0,0,0,0
o,0x00000000,1720560738.015794,172.16.3.2,5101,172.16.1.2,33282,8999,14480,0,65728,65728,6,6,4,1460,616,1,993,74,33580,0,65700,1448,0,0,0,0
i,0x00000000,1720560738.038668,172.16.3.2,5101,172.16.1.2,33282,8999,14480,0,65728,65728,6,6,4,1460,616,1,992,74,33580,0,65700,0,0,0,0,0
i,0x00000000,1720560738.048149,172.16.3.2,5101,172.16.1.2,33282,8999,14480,0,65728,65728,6,6,4,1460,616,1,992,74,33580,0,65700,0,0,0,0,0
o,0x00000000,1720560738.048162,172.16.3.2,5101,172.16.1.2,33282,8999,14480,0,65728,65728,6,6,4,1460,616,1,993,74,33580,0,65700,1448,0,0,0,0
i,0x00000000,1720560738.085562,172.16.3.2,5101,172.16.1.2,33282,8999,14480,0,65728,65728,6,6,4,1460,616,1,992,74,33580,0,65700,0,0,0,0,0
i,0x00000000,1720560738.115218,172.16.3.2,5101,172.16.1.2,33282,8999,14480,0,65728,65728,6,6,4,1460,616,1,992,74,33580,0,65700,0,0,0,0,0
o,0x00000000,1720560738.115237,172.16.3.2,5101,172.16.1.2,33282,8999,14480,0,65728,65728,6,6,4,1460,616,1,993,74,33580,0,65700,1448,0,0,0,0
i,0x00000000,1720560738.163589,172.16.3.2,5101,172.16.1.2,33282,8999,14480,0,65728,65728,6,6,4,1460,616,1,992,74,33580,0,65700,0,0,0,0,0
i,0x00000000,1720560738.196184,172.16.3.2,5101,172.16.1.2,33282,8999,14480,0,65728,65728,6,6,4,1460,616,1,992,74,33580,0,65700,0,0,0,0,0
o,0x00000000,1720560738.196211,172.16.3.2,5101,172.16.1.2,33282,8999,14480,0,65728,65728,6,6,4,1460,616,1,993,74,33580,0,65700,1448,0,0,0,0
i,0x00000000,1720560738.200939,172.16.3.2,5101,172.16.1.2,33282,8999,14480,0,65728,65728,6,6,4,1460,616,1,992,74,33580,0,65700,0,0,0,0,0
i,0x00000000,1720560738.236008,172.16.3.2,5101,172.16.1.2,33282,8999,14480,0,65728,65728,6,6,4,1460,616,1,992,74,33580,0,65700,0,0,0,0,0
o,0x00000000,1720560738.236042,172.16.3.2,5101,172.16.1.2,33282,8999,14480,0,65728,65728,6,6,4,1460,616,1,993,74,33580,0,65700,1448,0,0,0,0
i,0x00000000,1720560738.272830,172.16.3.2,5101,172.16.1.2,33282,8999,14480,0,65728,65728,6,6,4,1460,616,1,992,74,33580,0,65700,0,0,0,0,0
i,0x00000000,1720560738.289640,172.16.3.2,5101,172.16.1.2,33282,8999,14480,0,65728,65728,6,6,4,1460,616,1,992,74,33580,0,65700,0,0,0,0,0
o,0x00000000,1720560738.289691,172.16.3.2,5101,172.16.1.2,33282,8999,14480,0,65728,65728,6,6,4,1460,616,1,993,74,33580,0,65700,1448,0,0,0,0
i,0x00000000,1720560738.297050,172.16.3.2,5101,172.16.1.2,33282,8999,14480,0,65728,65728,6,6,4,1460,616,1,992,74,33580,0,65700,0,0,0,0,0
i,0x00000000,1720560738.317809,172.16.3.2,5101,172.16.1.2,33282,8999,14480,0,65728,65728,6,6,4,1460,616,1,992,74,33580,0,65700,0,0,0,0,0
o,0x00000000,1720560738.317850,172.16.3.2,5101,172.16.1.2,33282,8999,14480,0,65728,65728,6,6,4,1460,616,1,993,74,33580,0,65700,1448,0,0,0,0
i,0x00000000,1720560738.362689,172.16.3.2,5101,172.16.1.2,33282,8999,14480,0,65728,65728,6,6,4,1460,616,1,992,74,33580,0,65700,0,0,0,0,0
i,0x00000000,1720560738.364269,172.16.3.2,5101,172.16.1.2,33282,8999,14480,0,65728,65728,6,6,4,1460,616,1,992,74,33580,0,65700,1448,0,0,0,0
o,0x00000000,1720560738.364318,172.16.3.2,5101,172.16.1.2,33282,8999,14480,0,65728,65728,6,6,4,1460,616,1,993,74,33580,0,65700,2896,0,0,0,0
i,0x00000000,1720560738.368639,172.16.3.2,5101,172.16.1.2,33282,8999,14480,0,65728,65728,6,6,4,1460,616,1,992,74,33580,0,65700,0,0,0,0,0
i,0x00000000,1720560738.388404,172.16.3.2,5101,172.16.1.2,33282,8999,14480,0,65728,65728,6,6,4,1460,616,1,992,74,33580,0,65700,0,0,0,0,0
o,0x00000000,1720560738.388430,172.16.3.2,5101,172.16.1.2,33282,8999,14480,0,65728,65728,6,6,4,1460,616,1,993,74,33580,0,65700,1448,0,0,0,0
o,0x00000000,1720560738.427751,10.0.2.15,22,10.0.2.2,49435,1073725440,14600,0,65535,65700,0,0,4,1460,1,0,4,24,33580,108,65700,0,0,0,0,0
i,0x00000000,1720560738.429082,10.0.2.15,22,10.0.2.2,49435,1073725440,14600,0,65535,65700,0,0,4,1460,1,0,4,24,33580,108,65700,0,108,0,0,0
i,0x00000000,1720560738.447709,172.16.3.2,5101,172.16.1.2,33282,8999,14480,0,65728,65728,6,6,4,1460,616,1,992,74,33580,0,65700,0,0,0,0,0
i,0x00000000,1720560738.456441,172.16.3.2,5101,172.16.1.2,33282,8999,14480,0,65728,65728,6,6,4,1460,616,1,992,74,33580,0,65700,0,0,0,0,0
o,0x00000000,1720560738.456475,172.16.3.2,5101,172.16.1.2,33282,8999,14480,0,65728,65728,6,6,4,1460,616,1,993,74,33580,0,65700,1448,0,0,0,0
i,0x00000000,1720560738.526014,172.16.3.2,5101,172.16.1.2,33282,8999,14480,0,65728,65728,6,6,4,1460,616,1,992,74,33580,0,65700,0,0,0,0,0
i,0x00000000,1720560738.535929,172.16.3.2,5101,172.16.1.2,33282,8999,14480,0,65728,65728,6,6,4,1460,616,1,992,74,33580,0,65700,0,0,0,0,0
o,0x00000000,1720560738.535952,172.16.3.2,5101,172.16.1.2,33282,8999,14480,0,65728,65728,6,6,4,1460,616,1,993,74,33580,0,65700,1448,0,0,0,0
i,0x00000000,1720560738.555614,172.16.3.2,5101,172.16.1.2,33282,8999,14480,0,65728,65728,6,6,4,1460,616,1,992,74,33580,0,65700,0,0,0,0,0
o,0x00000000,1720560738.587840,172.16.3.2,5101,172.16.1.2,33282,8999,14480,0,65728,65728,6,6,4,1460,616,1,993,74,33580,0,65700,0,0,0,0,0
i,0x00000000,1720560738.589897,172.16.3.2,5101,172.16.1.2,33282,8999,14480,0,65728,65728,6,6,4,1460,616,1,992,74,33580,0,65700,0,0,0,0,0
o,0x00000000,1720560738.627503,172.16.3.2,5101,172.16.1.2,33282,8999,14480,0,65728,65728,6,6,4,1460,616,1,993,74,33580,0,65700,0,0,0,0,0
i,0x00000000,1720560738.628433,172.16.3.2,5101,172.16.1.2,33282,8999,14480,0,65728,65728,6,6,4,1460,616,1,992,74,33580,0,65700,0,0,0,0,0
i,0x00000000,1720560738.635813,172.16.3.2,5101,172.16.1.2,33282,8999,14480,0,65728,65728,6,6,4,1460,616,1,992,74,33580,0,65700,0,0,0,0,0
o,0x00000000,1720560738.635861,172.16.3.2,5101,172.16.1.2,33282,8999,14480,0,65728,65728,6,6,4,1460,616,1,993,74,33580,0,65700,1448,0,0,0,0
i,0x00000000,1720560738.651107,172.16.3.2,5101,172.16.1.2,33282,8999,14480,0,65728,65728,6,6,4,1460,616,1,992,74,33580,0,65700,0,0,0,0,0
i,0x00000000,1720560738.657453,172.16.3.2,5101,172.16.1.2,33282,8999,14480,0,65728,65728,6,6,4,1460,616,1,992,74,33580,0,65700,0,0,0,0,0
o,0x00000000,1720560738.657462,172.16.3.2,5101,172.16.1.2,33282,8999,14480,0,65728,65728,6,6,4,1460,616,1,993,74,33580,0,65700,1448,0,0,0,0
i,0x00000000,1720560738.683199,172.16.3.2,5101,172.16.1.2,33282,8999,14480,0,65728,65728,6,6,4,1460,616,1,992,74,33580,0,65700,0,0,0,0,0
o,0x00000000,1720560738.717638,172.16.3.2,5101,172.16.1.2,33282,8999,14480,0,65728,65728,6,6,4,1460,616,1,993,74,33580,0,65700,0,0,0,0,0
i,0x00000000,1720560738.721813,172.16.3.2,5101,172.16.1.2,33282,8999,14480,0,65728,65728,6,6,4,1460,616,1,992,74,33580,0,65700,0,0,0,0,0
i,0x00000000,1720560738.728223,172.16.3.2,5101,172.16.1.2,33282,8999,14480,0,65728,65728,6,6,4,1460,616,1,992,74,33580,0,65700,0,0,0,0,0
o,0x00000000,1720560738.728256,172.16.3.2,5101,172.16.1.2,33282,8999,14480,0,65728,65728,6,6,4,1460,616,1,993,74,33580,0,65700,1448,0,0,0,0
i,0x00000000,1720560738.735228,172.16.3.2,5101,172.16.1.2,33282,8999,14480,0,65728,65728,6,6,4,1460,616,1,992,74,33580,0,65700,0,0,0,0,0
i,0x00000000,1720560738.768457,172.16.3.2,5101,172.16.1.2,33282,8999,14480,0,65728,65728,6,6,4,1460,616,1,992,74,33580,0,65700,0,0,0,0,0
o,0x00000000,1720560738.768499,172.16.3.2,5101,172.16.1.2,33282,8999,14480,0,65728,65728,6,6,4,1460,616,1,993,74,33580,0,65700,1448,0,0,0,0
i,0x00000000,1720560738.795947,172.16.3.2,5101,172.16.1.2,33282,8999,14480,0,65728,65728,6,6,4,1460,616,1,992,74,33580,0,65700,0,0,0,0,0
i,0x00000000,1720560738.806143,172.16.3.2,5101,172.16.1.2,33282,8999,14480,0,65728,65728,6,6,4,1460,616,1,992,74,33580,0,65700,0,0,0,0,0
o,0x00000000,1720560738.806155,172.16.3.2,5101,172.16.1.2,33282,8999,14480,0,65728,65728,6,6,4,1460,616,1,993,74,33580,0,65700,1448,0,0,0,0
i,0x00000000,1720560738.900099,172.16.3.2,5101,172.16.1.2,33282,8999,14480,0,65728,65728,6,6,4,1460,616,1,992,74,33580,0,65700,0,0,0,0,0
i,0x00000000,1720560738.910787,172.16.3.2,5101,172.16.1.2,33282,8999,14480,0,65728,65728,6,6,4,1460,616,1,992,74,33580,0,65700,0,0,0,0,0
o,0x00000000,1720560738.910822,172.16.3.2,5101,172.16.1.2,33282,8999,14480,0,65728,65728,6,6,4,1460,616,1,993,74,33580,0,65700,1448,0,0,0,0
i,0x00000000,1720560738.918947,172.16.3.2,5101,172.16.1.2,33282,8999,14480,0,65728,65728,6,6,4,1460,616,1,992,74,33580,0,65700,0,0,0,0,0
o,0x00000000,1720560738.957457,172.16.3.2,5101,172.16.1.2,33282,8999,14480,0,65728,65728,6,6,4,1460,616,1,993,74,33580,0,65700,0,0,0,0,0
i,0x00000000,1720560738.965994,172.16.3.2,5101,172.16.1.2,33282,8999,14480,0,65728,65728,6,6,4,1460,616,1,992,74,33580,0,65700,0,0,0,0,0
o,0x00000000,1720560738.997978,172.16.3.2,5101,172.16.1.2,33282,8999,14480,0,65728,65728,6,6,4,1460,616,1,993,74,33580,0,65700,0,0,0,0,0
i,0x00000000,1720560739.005492,172.16.3.2,5101,172.16.1.2,33282,8999,14480,0,65728,65728,6,6,4,1460,616,1,992,74,33580,0,65700,0,0,0,0,0
i,0x00000000,1720560739.014581,172.16.3.2,5101,172.16.1.2,33282,8999,14480,0,65728,65728,6,6,4,1460,616,1,992,74,33580,0,65700,0,0,0,0,0
o,0x00000000,1720560739.014595,172.16.3.2,5101,172.16.1.2,33282,8999,14480,0,65728,65728,6,6,4,1460,616,1,993,74,33580,0,65700,1448,0,0,0,0
i,0x00000000,1720560739.025715,172.16.3.2,5101,172.16.1.2,33282,8999,14480,0,65728,65728,6,6,4,1460,616,1,992,74,33580,0,65700,0,0,0,0,0
i,0x00000000,1720560739.037907,172.16.3.2,5101,172.16.1.2,33282,8999,14480,0,65728,65728,6,6,4,1460,616,1,992,74,33580,0,65700,0,0,0,0,0
o,0x00000000,1720560739.037956,172.16.3.2,5101,172.16.1.2,33282,8999,14480,0,65728,65728,6,6,4,1460,616,1,993,74,33580,0,65700,1448,0,0,0,0
i,0x00000000,1720560739.089556,172.16.3.2,5101,172.16.1.2,33282,8999,14480,0,65728,65728,6,6,4,1460,616,1,992,74,33580,0,65700,0,0,0,0,0
i,0x00000000,1720560739.099952,172.16.3.2,5101,172.16.1.2,33282,8999,14480,0,65728,65728,6,6,4,1460,616,1,992,74,33580,0,65700,0,0,0,0,0
o,0x00000000,1720560739.099986,172.16.3.2,5101,172.16.1.2,33282,8999,14480,0,65728,65728,6,6,4,1460,616,1,993,74,33580,0,65700,1448,0,0,0,0
i,0x00000000,1720560739.127705,172.16.3.2,5101,172.16.1.2,33282,8999,14480,0,65728,65728,6,6,4,1460,616,1,992,74,33580,0,65700,0,0,0,0,0
i,0x00000000,1720560739.127730,172.16.3.2,5101,172.16.1.2,33282,8999,14480,0,65728,65728,6,6,4,1460,616,1,992,74,33580,0,65700,1448,0,0,0,0
o,0x00000000,1720560739.127748,172.16.3.2,5101,172.16.1.2,33282,8999,14480,0,65728,65728,6,6,4,1460,616,1,993,74,33580,0,65700,2896,0,0,0,0
i,0x00000000,1720560739.138490,172.16.3.2,5101,172.16.1.2,33282,8999,14480,0,65728,65728,6,6,4,1460,616,1,992,74,33580,0,65700,0,0,0,0,0
i,0x00000000,1720560739.166933,172.16.3.2,5101,172.16.1.2,33282,8999,14480,0,65728,65728,6,6,4,1460,616,1,992,74,33580,0,65700,0,0,0,0,0
o,0x00000000,1720560739.166947,172.16.3.2,5101,172.16.1.2,33282,8999,14480,0,65728,65728,6,6,4,1460,616,1,993,74,33580,0,65700,1448,0,0,0,0
i,0x00000000,1720560739.194336,172.16.3.2,5101,172.16.1.2,33282,8999,14480,0,65728,65728,6,6,4,1460,616,1,992,74,33580,0,65700,0,0,0,0,0
i,0x00000000,1720560739.217021,172.16.3.2,5101,172.16.1.2,33282,8999,14480,0,65728,65728,6,6,4,1460,616,1,992,74,33580,0,65700,0,0,0,0,0
o,0x00000000,1720560739.217034,172.16.3.2,5101,172.16.1.2,33282,8999,14480,0,65728,65728,6,6,4,1460,616,1,993,74,33580,0,65700,1448,0,0,0,0
i,0x00000000,1720560739.276013,172.16.3.2,5101,172.16.1.2,33282,8999,14480,0,65728,65728,6,6,4,1460,616,1,992,74,33580,0,65700,0,0,0,0,0
i,0x00000000,1720560739.287706,172.16.3.2,5101,172.16.1.2,33282,8999,14480,0,65728,65728,6,6,4,1460,616,1,992,74,33580,0,65700,0,0,0,0,0
o,0x00000000,1720560739.287742,172.16.3.2,5101,172.16.1.2,33282,8999,14480,0,65728,65728,6,6,4,1460,616,1,993,74,33580,0,65700,1448,0,0,0,0
i,0x00000000,1720560739.328132,172.16.3.2,5101,172.16.1.2,33282,8999,14480,0,65728,65728,6,6,4,1460,616,1,992,74,33580,0,65700,0,0,0,0,0
i,0x00000000,1720560739.339158,172.16.3.2,5101,172.16.1.2,33282,8999,14480,0,65728,65728,6,6,4,1460,616,1,992,74,33580,0,65700,0,0,0,0,0
o,0x00000000,1720560739.339181,172.16.3.2,5101,172.16.1.2,33282,8999,14480,0,65728,65728,6,6,4,1460,616,1,993,74,33580,0,65700,1448,0,0,0,0
i,0x00000000,1720560739.402456,172.16.3.2,5101,172.16.1.2,33282,8999,14480,0,65728,65728,6,6,4,1460,616,1,992,74,33580,0,65700,0,0,0,0,0
o,0x00000000,1720560739.402499,172.16.3.2,5101,172.16.1.2,33282,8999,14480,0,65728,65700,6,6,4,1460,616,1,993,74,33580,0,65700,0,0,1,0,0
i,0x00000000,1720560739.410079,172.16.3.2,5101,172.16.1.2,33282,8999,14480,0,65728,65700,6,6,4,1460,616,1,992,74,33580,0,65700,0,0,1,0,0
o,0x00000000,1720560739.410118,172.16.3.2,5101,172.16.1.2,33282,8999,14480,0,65728,65728,6,6,4,1460,616,1,993,74,33580,0,65700,0,0,1,0,0
i,0x00000000,1720560739.419020,172.16.3.2,5101,172.16.1.2,33282,8999,14480,0,65728,65728,6,6,4,1460,616,1,992,74,33580,0,65700,0,0,1,0,0
o,0x00000000,1720560739.419054,172.16.3.2,5101,172.16.1.2,33282,8999,14480,0,65728,65728,6,6,4,1460,616,1,993,74,33580,0,65700,0,0,1,0,0
o,0x00000000,1720560739.427649,10.0.2.15,22,10.0.2.2,49435,1073725440,14600,0,65535,65700,0,0,4,1460,1,0,4,24,33580,108,65700,0,0,0,0,0
i,0x00000000,1720560739.429833,10.0.2.15,22,10.0.2.2,49435,1073725440,14600,0,65535,65700,0,0,4,1460,1,0,4,24,33580,108,65700,0,108,0,0,0
i,0x00000000,1720560739.461964,172.16.3.2,5101,172.16.1.2,33282,8999,14480,0,65728,65728,6,6,4,1460,616,1,992,74,33580,0,65700,0,0,1,0,0
o,0x00000000,1720560739.461975,172.16.3.2,5101,172.16.1.2,33282,8999,14480,0,65728,65728,6,6,4,1460,616,1,993,74,33580,0,65700,0,0,1,0,0
i,0x00000000,1720560739.465034,172.16.3.2,5101,172.16.1.2,33282,8999,14480,0,65728,65728,6,6,4,1460,616,1,992,74,33580,0,65700,0,0,1,0,0
o,0x00000000,1720560739.465048,172.16.3.2,5101,172.16.1.2,33282,8999,14480,0,65728,65728,6,6,4,1460,616,1,993,74,33580,0,65700,0,0,1,0,0
i,0x00000000,1720560739.488464,172.16.3.2,5101,172.16.1.2,33282,8999,14480,0,65728,65728,6,6,4,1460,616,1,992,74,33580,0,65700,0,0,1,0,0
o,0x00000000,1720560739.488480,172.16.3.2,5101,172.16.1.2,33282,8999,14480,0,65728,65728,6,6,4,1460,616,1,993,74,33580,0,65700,0,0,2,0,0
i,0x00000000,1720560739.495607,172.16.3.2,5101,172.16.1.2,33282,8999,14480,0,65728,65728,6,6,4,1460,616,1,992,74,33580,0,65700,0,0,2,0,0
o,0x00000000,1720560739.495623,172.16.3.2,5101,172.16.1.2,33282,8999,14480,0,65728,65728,6,6,4,1460,616,1,993,74,33580,0,65700,0,0,2,0,0
i,0x00000000,1720560739.543777,172.16.3.2,5101,172.16.1.2,33282,8999,14480,0,65728,65728,6,6,4,1460,616,1,992,74,33580,0,65700,0,0,2,0,0
o,0x00000000,1720560739.543795,172.16.3.2,5101,172.16.1.2,33282,8999,14480,0,65728,65728,6,6,4,1460,616,1,993,74,33580,0,65700,0,0,3,0,0
i,0x00000000,1720560739.557600,172.16.3.2,5101,172.16.1.2,33282,8999,14480,0,65728,65728,6,6,4,1460,616,1,992,74,33580,0,65700,0,0,3,0,0
o,0x00000000,1720560739.557640,172.16.3.2,5101,172.16.1.2,33282,8999,14480,0,65728,65728,6,6,4,1460,616,1,993,74,33580,0,65700,0,0,3,0,0
i,0x00000000,1720560739.566057,172.16.3.2,5101,172.16.1.2,33282,8999,14480,0,65728,65728,6,6,4,1460,616,1,992,74,33580,0,65700,0,0,3,0,0
o,0x00000000,1720560739.566067,172.16.3.2,5101,172.16.1.2,33282,8999,14480,0,65728,65728,6,6,4,1460,616,1,993,74,33580,0,65700,0,0,3,0,0
i,0x00000000,1720560739.630214,172.16.3.2,5101,172.16.1.2,33282,8999,14480,0,65728,65728,6,6,4,1460,616,1,992,74,33580,0,65700,0,0,3,0,0
o,0x00000000,1720560739.630258,172.16.3.2,5101,172.16.1.2,33282,8999,14480,0,65728,65728,6,6,4,1460,616,1,993,74,33580,0,65700,0,0,3,0,0
i,0x00000000,1720560739.639353,172.16.3.2,5101,172.16.1.2,33282,8999,14480,0,65728,65728,6,6,4,1460,616,1,992,74,33580,0,65700,0,0,3,0,0
o,0x00000000,1720560739.639366,172.16.3.2,5101,172.16.1.2,33282,8999,14480,0,65728,65728,6,6,4,1460,616,1,993,74,33580,0,65700,0,0,3,0,0
i,0x00000000,1720560739.646904,172.16.3.2,5101,172.16.1.2,33282,8999,14480,0,65728,65728,6,6,4,1460,616,1,992,74,33580,0,65700,0,0,3,0,0
o,0x00000000,1720560739.646915,172.16.3.2,5101,172.16.1.2,33282,8999,14480,0,65728,65728,6,6,4,1460,616,1,993,74,33580,0,65700,0,0,3,0,0
i,0x00000000,1720560739.682672,172.16.3.2,5101,172.16.1.2,33282,8999,14480,0,65728,65728,6,6,4,1460,616,1,992,74,33580,0,65700,0,0,3,0,0
o,0x00000000,1720560739.682682,172.16.3.2,5101,172.16.1.2,33282,8999,14480,0,65728,65728,6,6,4,1460,616,1,993,74,33580,0,65700,0,0,4,0,0
i,0x00000000,1720560739.685608,172.16.3.2,5101,172.16.1.2,33282,8999,14480,0,65728,65728,6,6,4,1460,616,1,992,74,33580,0,65700,0,0,4,0,0
o,0x00000000,1720560739.685623,172.16.3.2,5101,172.16.1.2,33282,8999,14480,0,65728,65728,6,6,4,1460,616,1,993,74,33580,0,65700,8688,0,3,0,0
i,0x00000000,1720560739.695578,172.16.3.2,5101,172.16.1.2,33282,8999,14480,0,65728,65728,6,6,4,1460,616,1,992,74,33580,0,65700,0,0,3,0,0
o,0x00000000,1720560739.695600,172.16.3.2,5101,172.16.1.2,33282,8999,14480,0,65728,65700,6,6,4,1460,616,1,993,74,33580,0,65700,4344,0,2,0,0
i,0x00000000,1720560739.786461,172.16.3.2,5101,172.16.1.2,33282,8999,14480,0,65728,65700,6,6,4,1460,616,1,992,74,33580,0,65700,0,0,2,0,0
o,0x00000000,1720560739.786490,172.16.3.2,5101,172.16.1.2,33282,8999,14480,0,65728,65700,6,6,4,1460,616,1,993,74,33580,0,65700,0,0,3,0,0
i,0x00000000,1720560739.826034,172.16.3.2,5101,172.16.1.2,33282,8999,14480,0,65728,65700,6,6,4,1460,616,1,992,74,33580,0,65700,0,0,3,0,0
o,0x00000000,1720560739.826055,172.16.3.2,5101,172.16.1.2,33282,8999,14480,0,65728,65728,6,6,4,1460,616,1,993,74,33580,0,65700,0,0,3,0,0
i,0x00000000,1720560739.845784,172.16.3.2,5101,172.16.1.2,33282,8999,14480,0,65728,65728,6,6,4,1460,616,1,992,74,33580,0,65700,0,0,3,0,0
o,0x00000000,1720560739.845800,172.16.3.2,5101,172.16.1.2,33282,8999,14480,0,65728,65728,6,6,4,1460,616,1,993,74,33580,0,65700,0,0,2,0,0
i,0x00000000,1720560739.846840,172.16.3.2,5101,172.16.1.2,33282,8999,14480,0,65728,65728,6,6,4,1460,616,1,992,74,33580,0,65700,0,0,2,0,0
o,0x00000000,1720560739.846854,172.16.3.2,5101,172.16.1.2,33282,8999,14480,0,65728,65728,6,6,4,1460,616,1,993,74,33580,0,65700,0,0,2,0,0
i,0x00000000,1720560739.866802,172.16.3.2,5101,172.16.1.2,33282,8999,14480,0,65728,65728,6,6,4,1460,616,1,992,74,33580,0,65700,0,0,2,0,0
