enable_time_secs=1720561338	enable_time_usecs=800176	siftrver=1.2.4	hz=100	tcp_rtt_scale=32	sysname=FreeBSD	sysver=1301000	ipmode=4
o,0x00000000,1720561338.800236,10.0.2.15,22,10.0.2.2,56322,1073725440,17770,0,65535,65700,0,0,4,1460,1,0,4,23,33580,44,65700,0,0,0,0,0
o,0x00000000,1720561338.800497,10.0.2.15,22,10.0.2.2,56322,1073725440,17770,0,65535,65700,0,0,4,1460,1,0,4,23,33580,80,65700,0,44,0,0,0
i,0x00000000,1720561338.801411,10.0.2.15,22,10.0.2.2,56322,1073725440,17770,0,65535,65700,0,0,4,1460,1,0,4,23,33580,80,65700,0,80,0,0,0
i,0x00000000,1720561338.801416,10.0.2.15,22,10.0.2.2,56322,1073725440,17814,0,65535,65700,0,0,4,1460,1,0,4,23,33580,36,65700,0,36,0,0,0
o,0x00000000,1720561338.801531,10.0.2.15,22,10.0.2.2,56322,1073725440,17850,0,65535,65700,0,0,4,1460,1,0,4,23,33580,36,65700,0,0,0,0,0
i,0x00000000,1720561338.802066,10.0.2.15,22,10.0.2.2,56322,1073725440,17850,0,65535,65700,0,0,4,1460,1,0,4,23,33580,36,65700,0,36,0,0,0
o,0x00000000,1720561338.802156,10.0.2.15,22,10.0.2.2,56322,1073725440,17886,0,65535,65700,0,0,4,1460,1,0,4,24,33580,36,65700,0,0,0,0,0
i,0x00000000,1720561338.803062,10.0.2.15,22,10.0.2.2,56322,1073725440,17886,0,65535,65700,0,0,4,1460,1,0,4,24,33580,36,65700,0,36,0,0,0
o,0x00000000,1720561338.803241,10.0.2.15,22,10.0.2.2,56322,1073725440,17922,0,65535,65700,0,0,4,1460,1,0,4,24,33580,140,65700,0,0,0,0,0
i,0x00000000,1720561338.804433,10.0.2.15,22,10.0.2.2,56322,1073725440,17922,0,65535,65700,0,0,4,1460,1,0,4,24,33580,140,65700,0,140,0,0,0
i,0x00000000,1720561338.805057,10.0.2.15,22,10.0.2.2,56322,1073725440,18062,0,65535,65700,0,0,4,1460,1,0,4,24,33580,0,65700,0,0,0,0,0
i,0x00000000,1720561338.805060,10.0.2.15,22,10.0.2.2,56322,1073725440,18062,0,65535,65700,0,0,4,1460,1,0,4,24,33580,0,65700,96,0,0,0,0
o,0x00000000,1720561338.805064,10.0.2.15,22,10.0.2.2,56322,1073725440,18062,0,65535,65604,0,0,5,1460,1,0,5,24,33580,0,65700,96,0,0,0,0
o,0x00000000,1720561338.805586,10.0.2.15,22,10.0.2.2,56322,1073725440,18062,0,65535,65604,0,0,8,1460,1,0,4,24,33580,0,65700,0,0,0,0,0
i,0x00000000,1720561338.806615,10.0.2.15,22,10.0.2.2,56322,1073725440,18062,0,65535,65604,0,0,8,1460,1,0,20,24,33580,0,65700,0,1,0,0,0
i,0x00000000,1720561340.920114,10.0.2.15,22,10.0.2.2,56338,1073725440,14600,0,65535,65700,0,0,4,1460,1,0,0,27,33580,0,65700,0,0,0,0,0
o,0x00000000,1720561340.937432,10.0.2.15,22,10.0.2.2,56338,1073725440,14600,0,65535,65700,0,0,4,1460,1,0,0,27,33580,38,65700,42,0,0,0,0
i,0x00000000,1720561340.941009,10.0.2.15,22,10.0.2.2,56338,1073725440,14600,0,65535,65700,0,0,4,1460,1,0,0,27,33580,38,65700,42,38,0,0,0
i,0x00000000,1720561340.941016,10.0.2.15,22,10.0.2.2,56338,1073725440,14638,0,65535,65700,0,0,4,1460,1,0,0,24,33580,0,65700,42,0,0,0,0
i,0x00000000,1720561340.941017,10.0.2.15,22,10.0.2.2,56338,1073725440,14638,0,65535,65700,0,0,4,1460,1,0,0,24,33580,0,65700,1502,0,0,0,0
o,0x00000000,1720561340.941021,10.0.2.15,22,10.0.2.2,56338,1073725440,14638,0,65535,65700,0,0,4,1460,1,0,1,24,33580,0,65700,1578,0,0,0,0
o,0x00000000,1720561340.942662,10.0.2.15,22,10.0.2.2,56338,1073725440,14638,0,65535,65700,0,0,4,1460,1,0,0,24,33580,1056,65700,1536,0,0,0,0
i,0x00000000,1720561340.943614,10.0.2.15,22,10.0.2.2,56338,1073725440,14638,0,65535,65700,0,0,4,1460,1,0,0,24,33580,1056,65700,1536,1056,0,0,0
i,0x00000000,1720561340.948364,10.0.2.15,22,10.0.2.2,56338,1073725440,15694,0,65535,65700,0,0,4,1460,1,0,0,24,33580,0,65700,0,0,0,0,0
o,0x00000000,1720561340.962473,10.0.2.15,22,10.0.2.2,56338,1073725440,15694,0,65535,65700,0,0,4,1460,1,0,0,24,33580,484,65700,0,0,0,0,0
i,0x00000000,1720561340.966858,10.0.2.15,22,10.0.2.2,56338,1073725440,15694,0,65535,65700,0,0,4,1460,1,0,0,24,33580,484,65700,0,484,0,0,0
i,0x00000000,1720561340.975320,10.0.2.15,22,10.0.2.2,56338,1073725440,16178,0,65535,65700,0,0,4,1460,1,0,0,24,33580,0,65700,0,0,0,0,0
i,0x00000000,1720561340.975341,10.0.2.15,22,10.0.2.2,56338,1073725440,16178,0,65535,65700,0,0,4,1460,1,0,0,24,33580,0,65700,16,0,0,0,0
o,0x00000000,1720561340.975349,10.0.2.15,22,10.0.2.2,56338,1073725440,16178,0,65535,65700,0,0,4,1460,1,0,1,24,33580,0,65700,60,0,0,0,0
o,0x00000000,1720561340.975742,10.0.2.15,22,10.0.2.2,56338,1073725440,16178,0,65535,65700,0,0,4,1460,1,0,0,24,33580,44,65700,0,0,0,0,0
i,0x00000000,1720561340.977560,10.0.2.15,22,10.0.2.2,56338,1073725440,16178,0,65535,65700,0,0,4,1460,1,0,0,24,33580,44,65700,0,44,0,0,0
i,0x00000000,1720561340.977572,10.0.2.15,22,10.0.2.2,56338,1073725440,16222,0,65535,65700,0,0,4,1460,1,0,0,24,33580,0,65700,0,0,0,0,0
o,0x00000000,1720561340.987273,10.0.2.15,22,10.0.2.2,56338,1073725440,16222,0,65535,65700,0,0,4,1460,1,0,0,24,33580,68,65700,0,0,0,0,0
i,0x00000000,1720561340.988041,10.0.2.15,22,10.0.2.2,56338,1073725440,16222,0,65535,65700,0,0,4,1460,1,0,0,24,33580,68,65700,0,68,0,0,0
i,0x00000000,1720561340.989171,10.0.2.15,22,10.0.2.2,56338,1073725440,16290,0,65535,65700,0,0,4,1460,1,0,0,24,33580,0,65700,0,0,0,0,0
o,0x00000000,1720561340.990086,10.0.2.15,22,10.0.2.2,56338,1073725440,16290,0,65535,65700,0,0,4,1460,1,0,0,24,33580,332,65700,0,0,0,0,0
i,0x00000000,1720561340.993397,10.0.2.15,22,10.0.2.2,56338,1073725440,16290,0,65535,65700,0,0,4,1460,1,0,0,24,33580,332,65700,0,332,0,0,0
i,0x00000000,1720561340.993440,10.0.2.15,22,10.0.2.2,56338,1073725440,16622,0,65535,65700,0,0,4,1460,1,0,0,24,33580,0,65700,0,0,0,0,0
o,0x00000000,1720561341.010126,10.0.2.15,22,10.0.2.2,56338,1073725440,16622,0,65535,65700,0,0,4,1460,1,0,0,24,33580,28,65700,0,0,0,0,0
i,0x00000000,1720561341.011405,10.0.2.15,22,10.0.2.2,56338,1073725440,16622,0,65535,65700,0,0,4,1460,1,0,0,24,33580,28,65700,0,28,0,0,0
i,0x00000000,1720561341.011716,10.0.2.15,22,10.0.2.2,56338,1073725440,16650,0,65535,65700,0,0,4,1460,1,0,0,24,33580,0,65700,0,0,0,0,0
o,0x00000000,1720561341.012449,10.0.2.15,22,10.0.2.2,56338,1073725440,16650,0,65535,65700,0,0,4,1460,1,0,0,24,33580,768,65700,112,0,0,0,0
i,0x00000000,1720561341.013614,10.0.2.15,22,10.0.2.2,56338,1073725440,16650,0,65535,65700,0,0,4,1460,1,0,0,24,33580,768,65700,112,768,0,0,0
o,0x00000000,1720561341.013696,10.0.2.15,22,10.0.2.2,56338,1073725440,17418,0,65535,65700,0,0,4,1460,1,0,0,24,33580,140,65700,112,0,0,0,0
i,0x00000000,1720561341.014591,10.0.2.15,22,10.0.2.2,56338,1073725440,17418,0,65535,65700,0,0,4,1460,1,0,0,24,33580,140,65700,112,140,0,0,0
o,0x00000000,1720561341.014752,10.0.2.15,22,10.0.2.2,56338,1073725440,17558,0,65535,65700,0,0,4,1460,1,0,0,24,33580,44,65700,0,0,0,0,0
i,0x00000000,1720561341.015688,10.0.2.15,22,10.0.2.2,56338,1073725440,17558,0,65535,65700,0,0,4,1460,1,0,0,24,33580,44,65700,0,44,0,0,0
i,0x00000000,1720561341.015694,10.0.2.15,22,10.0.2.2,56338,1073725440,17602,0,65535,65700,0,0,4,1460,1,0,0,24,33580,0,65700,0,0,0,0,0
o,0x00000000,1720561341.016084,10.0.2.15,22,10.0.2.2,56338,1073725440,17602,0,65535,65700,0,0,4,1460,1,0,4,24,33580,72,65700,0,0,0,0,0
i,0x00000000,1720561341.016985,10.0.2.15,22,10.0.2.2,56338,1073725440,17602,0,65535,65700,0,0,4,1460,1,0,4,24,33580,72,65700,0,72,0,0,0
o,0x00000000,1720561341.021860,10.0.2.15,22,10.0.2.2,56338,1073725440,17674,0,65535,65700,0,0,4,1460,1,0,4,24,33580,44,65700,0,0,0,0,0
i,0x00000000,1720561341.022954,10.0.2.15,22,10.0.2.2,56338,1073725440,17674,0,65535,65700,0,0,4,1460,1,0,4,24,33580,44,65700,0,44,0,0,0
o,0x00000000,1720561341.023354,10.0.2.15,22,10.0.2.2,56338,1073725440,17718,0,65535,65700,0,0,4,1460,1,0,4,24,33580,44,65700,0,0,0,0,0
i,0x00000000,1720561341.024443,10.0.2.15,22,10.0.2.2,56338,1073725440,17718,0,65535,65700,0,0,4,1460,1,0,4,24,33580,44,65700,0,44,0,0,0
o,0x00000000,1720561341.027843,10.0.2.15,22,10.0.2.2,56338,1073725440,17762,0,65535,65700,0,0,4,1460,1,0,4,24,33580,176,65700,0,0,0,0,0
i,0x00000000,1720561341.028600,10.0.2.15,22,10.0.2.2,56338,1073725440,17762,0,65535,65700,0,0,4,1460,1,0,4,24,33580,176,65700,0,176,0,0,0
i,0x00000000,1720561341.028607,10.0.2.15,22,10.0.2.2,56338,1073725440,17938,0,65535,65700,0,0,4,1460,1,0,4,24,33580,0,65700,0,0,0,0,0
i,0x00000000,1720561341.028609,10.0.2.15,22,10.0.2.2,56338,1073725440,17938,0,65535,65700,0,0,4,1460,1,0,4,24,33580,0,65700,96,0,0,0,0
o,0x00000000,1720561341.028612,10.0.2.15,22,10.0.2.2,56338,1073725440,17938,0,65535,65604,0,0,5,1460,1,0,5,24,33580,0,65700,96,0,0,0,0
o,0x00000000,1720561341.034449,10.0.2.15,22,10.0.2.2,56338,1073725440,17938,0,65535,65604,0,0,8,1460,1,0,4,24,33580,0,65700,0,0,0,0,0
i,0x00000000,1720561341.035181,10.0.2.15,22,10.0.2.2,56338,1073725440,17938,0,65535,65604,0,0,8,1460,1,0,20,24,33580,0,65700,0,1,0,0,0
i,0x00000000,1720561341.267660,172.16.3.2,5101,172.16.1.2,64630,10498,14480,0,65728,65700,6,6,4,1460,560,1,992,62,33580,0,65700,0,0,0,0,0
o,0x00000000,1720561341.268189,172.16.3.2,5101,172.16.1.2,64630,10498,14480,0,65728,65700,6,6,4,1460,560,1,996,62,33580,1,65700,0,0,0,0,0
i,0x00000000,1720561341.389448,172.16.3.2,5101,172.16.1.2,64630,10498,14480,0,65728,65700,6,6,4,1460,560,1,996,62,33580,1,65700,0,1,0,0,0
i,0x00000000,1720561341.389485,172.16.3.2,5101,172.16.1.2,64630,10498,14480,0,65728,65728,6,6,4,1460,538,1,996,61,33580,0,65700,4,0,0,0,0
o,0x00000000,1720561341.389505,172.16.3.2,5101,172.16.1.2,64630,10498,14480,0,65728,65728,6,6,4,1460,538,1,997,61,33580,0,65700,128,0,0,0,0
o,0x00000000,1720561341.390439,172.16.3.2,5101,172.16.1.2,64630,10498,14480,0,65728,65728,6,6,4,1460,538,1,996,61,33580,1,65700,0,0,0,0,0
o,0x00000000,1720561341.393157,10.0.2.15,22,10.0.2.2,49435,1073725440,14600,0,65535,65700,0,0,4,1460,1,0,4,24,33580,84,65700,0,0,0,0,0
i,0x00000000,1720561341.397297,10.0.2.15,22,10.0.2.2,49435,1073725440,14600,0,65535,65700,0,0,4,1460,1,0,4,24,33580,84,65700,0,84,0,0,0
i,0x00000000,1720561341.535542,172.16.3.2,5101,172.16.1.2,64630,10498,14480,0,65728,65728,6,6,4,1460,538,1,996,61,33580,1,65700,0,1,0,0,0
i,0x00000000,1720561341.640912,172.16.3.2,5101,172.16.1.2,64464,10498,14480,0,65728,65700,6,6,4,1460,568,1,992,60,33580,0,65700,0,0,0,0,0
o,0x00000000,1720561341.646377,172.16.3.2,5101,172.16.1.2,64630,10498,14480,0,65728,65728,6,6,4,1460,527,1,996,57,33580,1,65700,0,0,0,0,0
o,0x00000000,1720561341.650516,172.16.3.2,5101,172.16.1.2,64630,10498,14480,0,65728,65728,6,6,4,1460,527,1,996,57,33580,2,65700,0,1,0,0,0
o,0x00000000,1720561341.651287,10.0.2.15,22,10.0.2.2,49435,1073725440,14600,0,65535,65700,0,0,4,1460,1,0,4,23,33580,108,65700,0,0,0,0,0
i,0x00000000,1720561341.655010,10.0.2.15,22,10.0.2.2,49435,1073725440,14600,0,65535,65700,0,0,4,1460,1,0,4,23,33580,108,65700,0,108,0,0,0
o,0x00000000,1720561341.678496,172.16.3.2,5101,172.16.1.2,64464,10498,14480,0,65728,65700,6,6,4,1460,568,1,993,60,33580,0,65700,0,0,0,0,0
i,0x00000000,1720561341.768903,172.16.3.2,5101,172.16.1.2,64630,10498,14480,0,65728,65728,6,6,4,1460,527,1,996,57,33580,2,65700,0,2,0,0,0
i,0x00000000,1720561341.857675,172.16.3.2,5101,172.16.1.2,64464,10498,14480,0,65728,65700,6,6,4,1460,568,1,992,60,33580,0,65700,0,0,0,0,0
i,0x00000000,1720561341.867846,172.16.3.2,5101,172.16.1.2,64464,10498,14480,0,65728,65700,6,6,4,1460,568,1,992,60,33580,0,65700,0,0,0,0,0
o,0x00000000,1720561341.867885,172.16.3.2,5101,172.16.1.2,64464,10498,14480,0,65728,65700,6,6,4,1460,568,1,993,60,33580,0,65700,1448,0,0,0,0
i,0x00000000,1720561341.876744,172.16.3.2,5101,172.16.1.2,64464,10498,14480,0,65728,65700,6,6,4,1460,568,1,992,60,33580,0,65700,0,0,0,0,0
i,0x00000000,1720561341.886321,172.16.3.2,5101,172.16.1.2,64464,10498,14480,0,65728,65700,6,6,4,1460,568,1,992,60,33580,0,65700,0,0,0,0,0
o,0x00000000,1720561341.886367,172.16.3.2,5101,172.16.1.2,64464,10498,14480,0,65728,65700,6,6,4,1460,568,1,993,60,33580,0,65700,1448,0,0,0,0
i,0x00000000,1720561341.910510,172.16.3.2,5101,172.16.1.2,64464,10498,14480,0,65728,65700,6,6,4,1460,568,1,992,60,33580,0,65700,0,0,0,0,0
i,0x00000000,1720561341.919908,172.16.3.2,5101,172.16.1.2,64464,10498,14480,0,65728,65700,6,6,4,1460,568,1,992,60,33580,0,65700,0,0,0,0,0
o,0x00000000,1720561341.919949,172.16.3.2,5101,172.16.1.2,64464,10498,14480,0,65728,65700,6,6,4,1460,568,1,993,60,33580,0,65700,1448,0,0,0,0
i,0x00000000,1720561341.926497,172.16.3.2,5101,172.16.1.2,64464,10498,14480,0,65728,65700,6,6,4,1460,568,1,992,60,33580,0,65700,0,0,0,0,0
i,0x00000000,1720561341.946978,172.16.3.2,5101,172.16.1.2,64464,10498,14480,0,65728,65700,6,6,4,1460,568,1,992,60,33580,0,65700,0,0,0,0,0
o,0x00000000,1720561341.947020,172.16.3.2,5101,172.16.1.2,64464,10498,14480,0,65728,65700,6,6,4,1460,568,1,993,60,33580,0,65700,1448,0,0,0,0
i,0x00000000,1720561341.966507,172.16.3.2,5101,172.16.1.2,64464,10498,14480,0,65728,65700,6,6,4,1460,568,1,992,60,33580,0,65700,0,0,0,0,0
i,0x00000000,1720561341.978480,172.16.3.2,5101,172.16.1.2,64464,10498,14480,0,65728,65700,6,6,4,1460,568,1,992,60,33580,0,65700,0,0,0,0,0
o,0x00000000,1720561341.978523,172.16.3.2,5101,172.16.1.2,64464,10498,14480,0,65728,65700,6,6,4,1460,568,1,993,60,33580,0,65700,1448,0,0,0,0
i,0x00000000,1720561342.080902,172.16.3.2,5101,172.16.1.2,64464,10498,14480,0,65728,65700,6,6,4,1460,568,1,992,60,33580,0,65700,0,0,0,0,0
i,0x00000000,1720561342.089724,172.16.3.2,5101,172.16.1.2,64464,10498,14480,0,65728,65700,6,6,4,1460,568,1,992,60,33580,0,65700,0,0,0,0,0
o,0x00000000,1720561342.089768,172.16.3.2,5101,172.16.1.2,64464,10498,14480,0,65728,65700,6,6,4,1460,568,1,993,60,33580,0,65700,1448,0,0,0,0
i,0x00000000,1720561342.151166,172.16.3.2,5101,172.16.1.2,64464,10498,14480,0,65728,65700,6,6,4,1460,568,1,992,60,33580,0,65700,0,0,0,0,0
o,0x00000000,1720561342.187617,172.16.3.2,5101,172.16.1.2,64464,10498,14480,0,65728,65700,6,6,4,1460,568,1,993,60,33580,0,65700,0,0,0,0,0
i,0x00000000,1720561342.214172,172.16.3.2,5101,172.16.1.2,64464,10498,14480,0,65728,65700,6,6,4,1460,568,1,992,60,33580,0,65700,0,0,0,0,0
i,0x00000000,1720561342.225136,172.16.3.2,5101,172.16.1.2,64464,10498,14480,0,65728,65700,6,6,4,1460,568,1,992,60,33580,0,65700,0,0,0,0,0
o,0x00000000,1720561342.225185,172.16.3.2,5101,172.16.1.2,64464,10498,14480,0,65728,65700,6,6,4,1460,568,1,993,60,33580,0,65700,1448,0,0,0,0
i,0x00000000,1720561342.253748,172.16.3.2,5101,172.16.1.2,64464,10498,14480,0,65728,65700,6,6,4,1460,568,1,992,60,33580,0,65700,0,0,0,0,0
o,0x00000000,1720561342.287486,172.16.3.2,5101,172.16.1.2,64464,10498,14480,0,65728,65700,6,6,4,1460,568,1,993,60,33580,0,65700,0,0,0,0,0
i,0x00000000,1720561342.305910,172.16.3.2,5101,172.16.1.2,64464,10498,14480,0,65728,65700,6,6,4,1460,568,1,992,60,33580,0,65700,0,0,0,0,0
i,0x00000000,1720561342.317035,172.16.3.2,5101,172.16.1.2,64464,10498,14480,0,65728,65700,6,6,4,1460,568,1,992,60,33580,0,65700,0,0,0,0,0
o,0x00000000,1720561342.317049,172.16.3.2,5101,172.16.1.2,64464,10498,14480,0,65728,65700,6,6,4,1460,568,1,993,60,33580,0,65700,1448,0,0,0,0
i,0x00000000,1720561342.317290,172.16.3.2,5101,172.16.1.2,64464,10498,14480,0,65728,65700,6,6,4,1460,568,1,992,60,33580,0,65700,1448,0,0,0,0
i,0x00000000,1720561342.327608,172.16.3.2,5101,172.16.1.2,64464,10498,14480,0,65728,65700,6,6,4,1460,568,1,992,60,33580,0,65700,0,0,0,0,0
o,0x00000000,1720561342.327635,172.16.3.2,5101,172.16.1.2,64464,10498,14480,0,65728,65700,6,6,4,1460,568,1,993,60,33580,0,65700,1448,0,0,0,0
i,0x00000000,1720561342.347204,172.16.3.2,5101,172.16.1.2,64464,10498,14480,0,65728,65700,6,6,4,1460,568,1,992,60,33580,0,65700,0,0,0,0,0
i,0x00000000,1720561342.359634,172.16.3.2,5101,172.16.1.2,64464,10498,14480,0,65728,65700,6,6,4,1460,568,1,992,60,33580,0,65700,0,0,0,0,0
o,0x00000000,1720561342.359677,172.16.3.2,5101,172.16.1.2,64464,10498,14480,0,65728,65700,6,6,4,1460,568,1,993,60,33580,0,65700,1448,0,0,0,0
i,0x00000000,1720561342.364848,172.16.3.2,5101,172.16.1.2,64464,10498,14480,0,65728,65700,6,6,4,1460,568,1,992,60,33580,0,65700,0,0,0,0,0
o,0x00000000,1720561342.398015,172.16.3.2,5101,172.16.1.2,64464,10498,14480,0,65728,65700,6,6,4,1460,568,1,993,60,33580,0,65700,0,0,0,0,0
i,0x00000000,1720561342.425548,172.16.3.2,5101,172.16.1.2,64464,10498,14480,0,65728,65700,6,6,4,1460,568,1,992,60,33580,0,65700,0,0,0,0,0
i,0x00000000,1720561342.437749,172.16.3.2,5101,172.16.1.2,64464,10498,14480,0,65728,65700,6,6,4,1460,568,1,992,60,33580,0,65700,0,0,0,0,0
o,0x00000000,1720561342.437788,172.16.3.2,5101,172.16.1.2,64464,10498,14480,0,65728,65700,6,6,4,1460,568,1,993,60,33580,0,65700,1448,0,0,0,0
i,0x00000000,1720561342.457993,172.16.3.2,5101,172.16.1.2,64464,10498,14480,0,65728,65700,6,6,4,1460,568,1,992,60,33580,0,65700,0,0,0,0,0
i,0x00000000,1720561342.471978,172.16.3.2,5101,172.16.1.2,64464,10498,14480,0,65728,65700,6,6,4,1460,568,1,992,60,33580,0,65700,0,0,0,0,0
o,0x00000000,1720561342.471992,172.16.3.2,5101,172.16.1.2,64464,10498,14480,0,65728,65700,6,6,4,1460,568,1,993,60,33580,0,65700,1448,0,0,0,0
i,0x00000000,1720561342.507198,172.16.3.2,5101,172.16.1.2,64464,10498,14480,0,65728,65700,6,6,4,1460,568,1,992,60,33580,0,65700,0,0,0,0,0
i,0x00000000,1720561342.514745,172.16.3.2,5101,172.16.1.2,64464,10498,14480,0,65728,65700,6,6,4,1460,568,1,992,60,33580,0,65700,0,0,0,0,0
o,0x00000000,1720561342.514763,172.16.3.2,5101,172.16.1.2,64464,10498,14480,0,65728,65700,6,6,4,1460,568,1,993,60,33580,0,65700,1448,0,0,0,0
i,0x00000000,1720561342.525387,172.16.3.2,5101,172.16.1.2,64464,10498,14480,0,65728,65700,6,6,4,1460,568,1,992,60,33580,0,65700,0,0,0,0,0
o,0x00000000,1720561342.556543,172.16.3.2,5101,172.16.1.2,64464,10498,14480,0,65728,65700,6,6,4,1460,568,1,993,60,33580,0,65700,0,0,0,0,0
i,0x00000000,1720561342.618697,172.16.3.2,5101,172.16.1.2,64464,10498,14480,0,65728,65700,6,6,4,1460,568,1,992,60,33580,0,65700,0,0,0,0,0
i,0x00000000,1720561342.648042,172.16.3.2,5101,172.16.1.2,64464,10498,14480,0,65728,65700,6,6,4,1460,568,1,992,60,33580,0,65700,0,0,0,0,0
o,0x00000000,1720561342.648082,172.16.3.2,5101,172.16.1.2,64464,10498,14480,0,65728,65700,6,6,4,1460,568,1,993,60,33580,0,65700,1448,0,0,0,0
o,0x00000000,1720561342.658984,10.0.2.15,22,10.0.2.2,49435,1073725440,14600,0,65535,65700,0,0,4,1460,1,0,4,23,33580,156,65700,0,0,0,0,0
i,0x00000000,1720561342.663328,10.0.2.15,22,10.0.2.2,49435,1073725440,14600,0,65535,65700,0,0,4,1460,1,0,4,23,33580,156,65700,0,156,0,0,0
i,0x00000000,1720561342.715393,172.16.3.2,5101,172.16.1.2,64464,10498,14480,0,65728,65700,6,6,4,1460,568,1,992,60,33580,0,65700,0,0,0,0,0
i,0x00000000,1720561342.727773,172.16.3.2,5101,172.16.1.2,64464,10498,14480,0,65728,65700,6,6,4,1460,568,1,992,60,33580,0,65700,0,0,0,0,0
o,0x00000000,1720561342.727815,172.16.3.2,5101,172.16.1.2,64464,10498,14480,0,65728,65700,6,6,4,1460,568,1,993,60,33580,0,65700,1448,0,0,0,0
i,0x00000000,1720561342.796081,172.16.3.2,5101,172.16.1.2,64464,10498,14480,0,65728,65700,6,6,4,1460,568,1,992,60,33580,0,65700,0,0,0,0,0
o,0x00000000,1720561342.796124,172.16.3.2,5101,172.16.1.2,64464,10498,14480,0,65728,65700,6,6,4,1460,568,1,993,60,33580,0,65700,0,0,1,0,0
i,0x00000000,1720561342.827969,172.16.3.2,5101,172.16.1.2,64464,10498,14480,0,65728,65700,6,6,4,1460,568,1,992,60,33580,0,65700,0,0,1,0,0
o,0x00000000,1720561342.828003,172.16.3.2,5101,172.16.1.2,64464,10498,14480,0,65728,65728,6,6,4,1460,568,1,993,60,33580,0,65700,0,0,1,0,0
i,0x00000000,1720561342.869974,172.16.3.2,5101,172.16.1.2,64464,10498,14480,0,65728,65728,6,6,4,1460,568,1,992,60,33580,0,65700,0,0,1,0,0
o,0x00000000,1720561342.870019,172.16.3.2,5101,172.16.1.2,64464,10498,14480,0,65728,65728,6,6,4,1460,568,1,993,60,33580,0,65700,0,0,1,0,0
i,0x00000000,1720561342.876865,172.16.3.2,5101,172.16.1.2,64464,10498,14480,0,65728,65728,6,6,4,1460,568,1,992,60,33580,0,65700,0,0,1,0,0
o,0x00000000,1720561342.876892,172.16.3.2,5101,172.16.1.2,64464,10498,14480,0,65728,65728,6,6,4,1460,568,1,993,60,33580,0,65700,0,0,1,0,0
i,0x00000000,1720561342.904409,172.16.3.2,5101,172.16.1.2,64464,10498,14480,0,65728,65728,6,6,4,1460,568,1,992,60,33580,0,65700,0,0,1,0,0
o,0x00000000,1720561342.904443,172.16.3.2,5101,172.16.1.2,64464,10498,14480,0,65728,65728,6,6,4,1460,568,1,993,60,33580,0,65700,0,0,2,0,0
i,0x00000000,1720561342.918242,172.16.3.2,5101,172.16.1.2,64464,10498,14480,0,65728,65728,6,6,4,1460,568,1,992,60,33580,0,65700,0,0,2,0,0
o,0x00000000,1720561342.918275,172.16.3.2,5101,172.16.1.2,64464,10498,14480,0,65728,65728,6,6,4,1460,568,1,993,60,33580,0,65700,0,0,2,0,0
i,0x00000000,1720561342.956759,172.16.3.2,5101,172.16.1.2,64464,10498,14480,0,65728,65728,6,6,4,1460,568,1,992,60,33580,0,65700,0,0,2,0,0
o,0x00000000,1720561342.956794,172.16.3.2,5101,172.16.1.2,64464,10498,14480,0,65728,65728,6,6,4,1460,568,1,993,60,33580,0,65700,0,0,3,0,0
i,0x00000000,1720561342.967475,172.16.3.2,5101,172.16.1.2,64464,10498,14480,0,65728,65728,6,6,4,1460,568,1,992,60,33580,0,65700,0,0,3,0,0
o,0x00000000,1720561342.967518,172.16.3.2,5101,172.16.1.2,64464,10498,14480,0,65728,65728,6,6,4,1460,568,1,993,60,33580,0,65700,0,0,3,0,0
i,0x00000000,1720561343.009428,172.16.3.2,5101,172.16.1.2,64464,10498,14480,0,65728,65728,6,6,4,1460,568,1,992,60,33580,0,65700,0,0,3,0,0
o,0x00000000,1720561343.009462,172.16.3.2,5101,172.16.1.2,64464,10498,14480,0,65728,65728,6,6,4,1460,568,1,993,60,33580,0,65700,0,0,3,0,0
i,0x00000000,1720561343.018329,172.16.3.2,5101,172.16.1.2,64464,10498,14480,0,65728,65728,6,6,4,1460,568,1,992,60,33580,0,65700,0,0,3,0,0
o,0x00000000,1720561343.018374,172.16.3.2,5101,172.16.1.2,64464,10498,14480,0,65728,65728,6,6,4,1460,568,1,993,60,33580,0,65700,0,0,4,0,0
i,0x00000000,1720561343.018895,172.16.3.2,5101,172.16.1.2,64464,10498,14480,0,65728,65728,6,6,4,1460,568,1,992,60,33580,0,65700,0,0,4,0,0
o,0x00000000,1720561343.018940,172.16.3.2,5101,172.16.1.2,64464,10498,14480,0,65728,65728,6,6,4,1460,568,1,993,60,33580,0,65700,7240,0,3,0,0
i,0x00000000,1720561343.048646,172.16.3.2,5101,172.16.1.2,64464,10498,14480,0,65728,65728,6,6,4,1460,568,1,992,60,33580,0,65700,0,0,3,0,0
o,0x00000000,1720561343.048686,172.16.3.2,5101,172.16.1.2,64464,10498,14480,0,65728,65700,6,6,4,1460,568,1,993,60,33580,0,65700,0,0,3,0,0
i,0x00000000,1720561343.058583,172.16.3.2,5101,172.16.1.2,64464,10498,14480,0,65728,65700,6,6,4,1460,568,1,992,60,33580,0,65700,0,0,3,0,0
o,0x00000000,1720561343.058621,172.16.3.2,5101,172.16.1.2,64464,10498,14480,0,65728,65728,6,6,4,1460,568,1,993,60,33580,0,65700,0,0,3,0,0
i,0x00000000,1720561343.067046,172.16.3.2,5101,172.16.1.2,64464,10498,14480,0,65728,65728,6,6,4,1460,568,1,992,60,33580,0,65700,0,0,3,0,0
o,0x00000000,1720561343.067090,172.16.3.2,5101,172.16.1.2,64464,10498,14480,0,65728,65728,6,6,4,1460,568,1,993,60,33580,0,65700,4344,0,2,0,0
i,0x00000000,1720561343.124414,172.16.3.2,5101,172.16.1.2,64464,10498,14480,0,65728,65728,6,6,4,1460,568,1,992,60,33580,0,65700,0,0,2,0,0
o,0x00000000,1720561343.124472,172.16.3.2,5101,172.16.1.2,64464,10498,14480,0,65728,65700,6,6,4,1460,568,1,993,60,33580,0,65700,5792,0,1,0,0
i,0x00000000,1720561343.137374,172.16.3.2,5101,172.16.1.2,64464,10498,14480,0,65728,65700,6,6,4,1460,568,1,992,60,33580,0,65700,0,0,1,0,0
o,0x00000000,1720561343.137406,172.16.3.2,5101,172.16.1.2,64464,10498,14480,0,65728,65700,6,6,4,1460,568,1,993,60,33580,0,65700,0,0,1,0,0
i,0x00000000,1720561343.165178,172.16.3.2,5101,172.16.1.2,64464,10498,14480,0,65728,65700,6,6,4,1460,568,1,992,60,33580,0,65700,0,0,1,0,0
o,0x00000000,1720561343.165189,172.16.3.2,5101,172.16.1.2,64464,10498,14480,0,65728,65728,6,6,4,1460,568,1,993,60,33580,0,65700,0,0,1,0,0
i,0x00000000,1720561343.177095,172.16.3.2,5101,172.16.1.2,64464,10498,14480,0,65728,65728,6,6,4,1460,568,1,992,60,33580,0,65700,0,0,1,0,0
o,0x00000000,1720561343.177123,172.16.3.2,5101,172.16.1.2,64464,10498,14480,0,65728,65728,6,6,4,1460,568,1,993,60,33580,0,65700,0,0,1,0,0
i,0x00000000,1720561343.188657,172.16.3.2,5101,172.16.1.2,64464,10498,14480,0,65728,65728,6,6,4,1460,568,1,992,60,33580,0,65700,0,0,1,0,0
o,0x00000000,1720561343.188697,172.16.3.2,5101,172.16.1.2,64464,10498,14480,0,65728,65728,6,6,4,1460,568,1,993,60,33580,0,65700,2896,0,0,0,0
i,0x00000000,1720561343.199410,172.16.3.2,5101,172.16.1.2,64464,10498,14480,0,65728,65728,6,6,4,1460,568,1,992,60,33580,0,65700,0,0,0,0,0
i,0x00000000,1720561343.209238,172.16.3.2,5101,172.16.1.2,64464,10498,14480,0,65728,65700,6,6,4,1460,568,1,992,60,33580,0,65700,0,0,0,0,0
o,0x00000000,1720561343.209266,172.16.3.2,5101,172.16.1.2,64464,10498,14480,0,65728,65700,6,6,4,1460,568,1,993,60,33580,0,65700,0,0,0,0,0
i,0x00000000,1720561343.218272,172.16.3.2,5101,172.16.1.2,64464,10498,14480,0,65728,65700,6,6,4,1460,568,1,992,60,33580,0,65700,0,0,0,0,0
i,0x00000000,1720561343.230639,172.16.3.2,5101,172.16.1.2,64464,10498,14480,0,65728,65728,6,6,4,1460,568,1,992,60,33580,0,65700,0,0,0,0,0
o,0x00000000,1720561343.230679,172.16.3.2,5101,172.16.1.2,64464,10498,14480,0,65728,65728,6,6,4,1460,568,1,993,60,33580,0,65700,0,0,0,0,0
i,0x00000000,1720561343.236368,172.16.3.2,5101,172.16.1.2,64464,10498,14480,0,65728,65728,6,6,4,1460,568,1,992,60,33580,0,65700,0,0,0,0,0
o,0x00000000,1720561343.236394,172.16.3.2,5101,172.16.1.2,64464,10498,14480,0,65728,65728,6,6,4,1460,568,1,993,60,33580,0,65700,0,0,0,0,0
i,0x00000000,1720561343.266725,172.16.3.2,5101,172.16.1.2,64464,10498,14480,0,65728,65728,6,6,4,1460,568,1,992,60,33580,0,65700,0,0,0,0,0
o,0x00000000,1720561343.266761,172.16.3.2,5101,172.16.1.2,64464,10498,14480,0,65728,65728,6,6,4,1460,568,1,993,60,33580,0,65700,0,0,0,0,0
i,0x00000000,1720561343.279164,172.16.3.2,5101,172.16.1.2,64464,10498,14480,0,65728,65728,6,6,4,1460,568,1,992,60,33580,0,65700,0,0,0,0,0
o,0x00000000,1720561343.279192,172.16.3.2,5101,172.16.1.2,64464,10498,14480,0,65728,65728,6,6,4,1460,568,1,993,60,33580,0,65700,0,0,0,0,0
i,0x00000000,1720561343.289150,172.16.3.2,5101,172.16.1.2,64464,10498,14480,0,65728,65728,6,6,4,1460,568,1,992,60,33580,0,65700,0,0,0,0,0
o,0x00000000,1720561343.289177,172.16.3.2,5101,172.16.1.2,64464,10498,14480,0,65728,65728,6,6,4,1460,568,1,993,60,33580,0,65700,0,0,0,0,0
i,0x00000000,1720561343.296804,172.16.3.2,5101,172.16.1.2,64464,10498,14480,0,65728,65728,6,6,4,1460,568,1,992,60,33580,0,65700,0,0,0,0,0
o,0x00000000,1720561343.296825,172.16.3.2,5101,172.16.1.2,64464,10498,14480,0,65728,65728,6,6,4,1460,568,1,993,60,33580,0,65700,0,0,0,0,0
i,0x00000000,1720561343.320182,172.16.3.2,5101,172.16.1.2,64464,10498,14480,0,65728,65728,6,6,4,1460,568,1,992,60,33580,0,65700,0,0,0,0,0
i,0x00000000,1720561343.383544,172.16.3.2,5101,172.16.1.2,64464,10498,14480,0,65728,65728,6,6,4,1460,568,1,992,60,33580,0,65700,0,0,0,0,0
o,0x00000000,1720561343.383555,172.16.3.2,5101,172.16.1.2,64464,10498,14480,0,65728,65728,6,6,4,1460,568,1,993,60,33580,0,65700,0,0,1,0,0
i,0x00000000,1720561343.389119,172.16.3.2,5101,172.16.1.2,64464,10498,14480,0,65728,65728,6,6,4,1460,568,1,992,60,33580,0,65700,0,0,1,0,0
o,0x00000000,1720561343.389154,172.16.3.2,5101,172.16.1.2,64464,10498,14480,0,65728,65728,6,6,4,1460,568,1,993,60,33580,0,65700,0,0,1,0,0
i,0x00000000,1720561343.409043,172.16.3.2,5101,172.16.1.2,64464,10498,14480,0,65728,65728,6,6,4,1460,568,1,992,60,33580,0,65700,0,0,1,0,0
o,0x00000000,1720561343.409079,172.16.3.2,5101,172.16.1.2,64464,10498,14480,0,65728,65728,6,6,4,1460,568,1,993,60,33580,0,65700,0,0,1,0,0
o,0x00000000,1720561343.667695,10.0.2.15,22,10.0.2.2,49435,1073725440,14600,0,65535,65700,0,0,4,1460,1,0,4,23,33580,108,65700,0,0,0,0,0
i,0x00000000,1720561343.670215,10.0.2.15,22,10.0.2.2,49435,1073725440,14600,0,65535,65700,0,0,4,1460,1,0,4,23,33580,108,65700,0,108,0,0,0
i,0x00000000,1720561343.727603,172.16.3.2,5101,172.16.1.2,64464,10498,14480,0,65728,65728,6,6,4,1460,568,1,992,60,33580,0,65700,0,0,1,0,0
o,0x00000000,1720561343.727645,172.16.3.2,5101,172.16.1.2,64464,10498,14480,0,65728,65728,6,6,4,1460,568,1,993,60,33580,0,65700,1448,0,1,0,0
i,0x00000000,1720561343.749006,172.16.3.2,5101,172.16.1.2,64464,10498,14480,0,65728,65728,6,6,4,1460,568,1,992,60,33580,0,65700,0,0,1,0,0
o,0x00000000,1720561343.749048,172.16.3.2,5101,172.16.1.2,64464,10498,14480,0,65728,65700,6,6,4,1460,568,1,993,60,33580,0,65700,1448,0,1,0,0
i,0x00000000,1720561343.760124,172.16.3.2,5101,172.16.1.2,64464,10498,14480,0,65728,65700,6,6,4,1460,568,1,992,60,33580,0,65700,0,0,1,0,0
o,0x00000000,1720561343.760174,172.16.3.2,5101,172.16.1.2,64464,10498,14480,0,65728,65700,6,6,4,1460,568,1,993,60,33580,0,65700,1448,0,1,0,0
i,0x00000000,1720561343.781714,172.16.3.2,5101,172.16.1.2,64464,10498,14480,0,65728,65700,6,6,4,1460,568,1,992,60,33580,0,65700,0,0,1,0,0
o,0x00000000,1720561343.781771,172.16.3.2,5101,172.16.1.2,64464,10498,14480,0,65728,65700,6,6,4,1460,568,1,993,60,33580,0,65700,1448,0,1,0,0
i,0x00000000,1720561343.783595,172.16.3.2,5101,172.16.1.2,64464,10498,14480,0,65728,65700,6,6,4,1460,568,1,992,60,33580,0,65700,1448,0,1,0,0
o,0x00000000,1720561343.783625,172.16.3.2,5101,172.16.1.2,64464,10498,14480,0,65728,64256,6,6,4,1460,568,1,993,60,33580,0,65700,2896,0,1,0,0
i,0x00000000,1720561343.786221,172.16.3.2,5101,172.16.1.2,64464,10498,14480,0,65728,64256,6,6,4,1460,568,1,992,60,33580,0,65700,2896,0,1,0,0
o,0x00000000,1720561343.786248,172.16.3.2,5101,172.16.1.2,64464,10498,14480,0,65728,62848,6,6,4,1460,568,1,993,60,33580,0,65700,4344,0,1,0,0
i,0x00000000,1720561343.799406,172.16.3.2,5101,172.16.1.2,64464,10498,14480,0,65728,62848,6,6,4,1460,568,1,992,60,33580,0,65700,0,0,1,0,0
o,0x00000000,1720561343.799447,172.16.3.2,5101,172.16.1.2,64464,10498,14480,0,65728,65700,6,6,4,1460,568,1,993,60,33580,0,65700,1448,0,1,0,0
i,0x00000000,1720561343.823244,172.16.3.2,5101,172.16.1.2,64464,10498,14480,0,65728,65700,6,6,4,1460,568,1,992,60,33580,0,65700,0,0,1,0,0
o,0x00000000,1720561343.823306,172.16.3.2,5101,172.16.1.2,64464,10498,14480,0,65728,65700,6,6,4,1460,568,1,993,60,33580,0,65700,1448,0,1,0,0
i,0x00000000,1720561343.828593,172.16.3.2,5101,172.16.1.2,64464,10498,14480,0,65728,65700,6,6,4,1460,568,1,992,60,33580,0,65700,0,0,1,0,0
o,0x00000000,1720561343.828608,172.16.3.2,5101,172.16.1.2,64464,10498,14480,0,65728,65700,6,6,4,1460,568,1,993,60,33580,0,65700,1448,0,1,0,0
i,0x00000000,1720561343.838311,172.16.3.2,5101,172.16.1.2,64464,10498,14480,0,65728,65700,6,6,4,1460,568,1,992,60,33580,0,65700,0,0,1,0,0
o,0x00000000,1720561343.838351,172.16.3.2,5101,172.16.1.2,64464,10498,14480,0,65728,65700,6,6,4,1460,568,1,993,60,33580,0,65700,1448,0,1,0,0
i,0x00000000,1720561343.847529,172.16.3.2,5101,172.16.1.2,64464,10498,14480,0,65728,65700,6,6,4,1460,568,1,992,60,33580,0,65700,0,0,1,0,0
o,0x00000000,1720561343.847584,172.16.3.2,5101,172.16.1.2,64464,10498,14480,0,65728,65700,6,6,4,1460,568,1,993,60,33580,0,65700,1448,0,1,0,0
i,0x00000000,1720561343.869476,172.16.3.2,5101,172.16.1.2,64464,10498,14480,0,65728,65700,6,6,4,1460,568,1,992,60,33580,0,65700,0,0,1,0,0
o,0x00000000,1720561343.869518,172.16.3.2,5101,172.16.1.2,64464,10498,14480,0,65728,65700,6,6,4,1460,568,1,993,60,33580,0,65700,1448,0,1,0,0
i,0x00000000,1720561343.893850,172.16.3.2,5101,172.16.1.2,64464,10498,14480,0,65728,65700,6,6,4,1460,568,1,992,60,33580,0,65700,0,0,1,0,0
o,0x00000000,1720561343.893900,172.16.3.2,5101,172.16.1.2,64464,10498,14480,0,65728,65700,6,6,4,1460,568,1,993,60,33580,0,65700,1448,0,1,0,0
i,0x00000000,1720561343.899441,172.16.3.2,5101,172.16.1.2,64464,10498,14480,0,65728,65700,6,6,4,1460,568,1,992,60,33580,0,65700,0,0,1,0,0
o,0x00000000,1720561343.899475,172.16.3.2,5101,172.16.1.2,64464,10498,14480,0,65728,65700,6,6,4,1460,568,1,993,60,33580,0,65700,1448,0,1,0,0
i,0x00000000,1720561343.938052,172.16.3.2,5101,172.16.1.2,64464,10498,14480,0,65728,65700,6,6,4,1460,568,1,992,60,33580,0,65700,0,0,1,0,0
o,0x00000000,1720561343.938097,172.16.3.2,5101,172.16.1.2,64464,10498,14480,0,65728,65700,6,6,4,1460,568,1,993,60,33580,0,65700,1448,0,1,0,0
i,0x00000000,1720561343.988342,172.16.3.2,5101,172.16.1.2,64464,10498,14480,0,65728,65700,6,6,4,1460,568,1,992,60,33580,0,65700,0,0,1,0,0
o,0x00000000,1720561343.988386,172.16.3.2,5101,172.16.1.2,64464,10498,14480,0,65728,65700,6,6,4,1460,568,1,993,60,33580,0,65700,1448,0,1,0,0
i,0x00000000,1720561344.012017,172.16.3.2,5101,172.16.1.2,64464,10498,14480,0,65728,65700,6,6,4,1460,568,1,992,60,33580,0,65700,0,0,1,0,0
o,0x00000000,1720561344.012055,172.16.3.2,5101,172.16.1.2,64464,10498,14480,0,65728,65700,6,6,4,1460,568,1,993,60,33580,0,65700,0,0,1,0,0
i,0x00000000,1720561344.012542,172.16.3.2,5101,172.16.1.2,64464,10498,14480,0,65728,65700,6,6,4,1460,568,1,992,60,33580,0,65700,0,0,1,0,0
o,0x00000000,1720561344.012572,172.16.3.2,5101,172.16.1.2,64464,10498,14480,0,65728,65728,6,6,4,1460,568,1,993,60,33580,0,65700,1448,0,1,0,0
i,0x00000000,1720561344.017306,172.16.3.2,5101,172.16.1.2,64464,10498,14480,0,65728,65728,6,6,4,1460,568,1,992,60,33580,0,65700,0,0,1,0,0
o,0x00000000,1720561344.017331,172.16.3.2,5101,172.16.1.2,64464,10498,14480,0,65728,65700,6,6,4,1460,568,1,993,60,33580,0,65700,0,0,1,0,0
i,0x00000000,1720561344.038369,172.16.3.2,5101,172.16.1.2,64464,10498,14480,0,65728,65700,6,6,4,1460,568,1,992,60,33580,0,65700,0,0,1,0,0
o,0x00000000,1720561344.038404,172.16.3.2,5101,172.16.1.2,64464,10498,14480,0,65728,65728,6,6,4,1460,568,1,993,60,33580,0,65700,1448,0,1,0,0
i,0x00000000,1720561344.072091,172.16.3.2,5101,172.16.1.2,64464,10498,14480,0,65728,65728,6,6,4,1460,568,1,992,60,33580,0,65700,0,0,1,0,0
o,0x00000000,1720561344.072145,172.16.3.2,5101,172.16.1.2,64464,10498,14480,0,65728,65700,6,6,4,1460,568,1,993,60,33580,0,65700,1448,0,1,0,0
i,0x00000000,1720561344.078113,172.16.3.2,5101,172.16.1.2,64464,10498,14480,0,65728,65700,6,6,4,1460,568,1,992,60,33580,0,65700,0,0,1,0,0
o,0x00000000,1720561344.078210,172.16.3.2,5101,172.16.1.2,64464,10498,14480,0,65728,65700,6,6,4,1460,568,1,993,60,33580,0,65700,1448,0,1,0,0
i,0x00000000,1720561344.100393,172.16.3.2,5101,172.16.1.2,64464,10498,14480,0,65728,65700,6,6,4,1460,568,1,992,60,33580,0,65700,0,0,1,0,0
o,0x00000000,1720561344.100419,172.16.3.2,5101,172.16.1.2,64464,10498,14480,0,65728,65700,6,6,4,1460,568,1,993,60,33580,0,65700,0,0,1,0,0
i,0x00000000,1720561344.107821,172.16.3.2,5101,172.16.1.2,64464,10498,14480,0,65728,65700,6,6,4,1460,568,1,992,60,33580,0,65700,0,0,1,0,0
o,0x00000000,1720561344.107867,172.16.3.2,5101,172.16.1.2,64464,10498,14480,0,65728,65728,6,6,4,1460,568,1,993,60,33580,0,65700,1448,0,1,0,0
i,0x00000000,1720561344.129519,172.16.3.2,5101,172.16.1.2,64464,10498,14480,0,65728,65728,6,6,4,1460,568,1,992,60,33580,0,65700,0,0,1,0,0
o,0x00000000,1720561344.129566,172.16.3.2,5101,172.16.1.2,64464,10498,14480,0,65728,65700,6,6,4,1460,568,1,993,60,33580,0,65700,0,0,1,0,0
i,0x00000000,1720561344.149256,172.16.3.2,5101,172.16.1.2,64464,10498,14480,0,65728,65700,6,6,4,1460,568,1,992,60,33580,0,65700,0,0,1,0,0
o,0x00000000,1720561344.149300,172.16.3.2,5101,172.16.1.2,64464,10498,14480,0,65728,65728,6,6,4,1460,568,1,993,60,33580,0,65700,0,0,1,0,0
i,0x00000000,1720561344.160084,172.16.3.2,5101,172.16.1.2,64464,10498,14480,0,65728,65728,6,6,4,1460,568,1,992,60,33580,0,65700,0,0,1,0,0
i,0x00000000,1720561344.160106,172.16.3.2,5101,172.16.1.2,64464,10498,14480,0,65728,65728,6,6,4,1460,568,1,992,60,33580,0,65700,0,0,1,0,0
i,0x00000000,1720561344.160111,172.16.3.2,5101,172.16.1.2,64464,10498,14480,0,65728,65728,6,6,4,1460,568,1,992,60,33580,0,65700,0,0,1,0,0
i,0x00000000,1720561344.163583,172.16.3.2,5101,172.16.1.2,64464,10498,14480,0,65728,65728,6,6,4,1460,568,1,992,60,33580,0,65700,0,0,1,0,0
i,0x00000000,1720561344.184384,172.16.3.2,5101,172.16.1.2,64464,10498,14480,0,65728,65728,6,6,4,1460,568,1,992,60,33580,0,65700,0,0,1,0,0
i,0x00000000,1720561344.190102,172.16.3.2,5101,172.16.1.2,64464,10498,14480,0,65728,65728,6,6,4,1460,568,1,992,60,33580,0,65700,0,0,1,0,0
o,0x00000000,1720561344.190135,172.16.3.2,5101,172.16.1.2,64464,10498,14480,0,65728,65728,6,6,4,1460,568,1,993,60,33580,0,65700,0,0,1,0,0
i,0x00000000,1720561344.218896,172.16.3.2,5101,172.16.1.2,64464,10498,14480,0,65728,65728,6,6,4,1460,568,1,992,60,33580,0,65700,0,0,1,0,0
o,0x00000000,1720561344.218930,172.16.3.2,5101,172.16.1.2,64464,10498,14480,0,65728,65728,6,6,4,1460,568,1,993,60,33580,0,65700,0,0,1,0,0
i,0x00000000,1720561344.290140,172.16.3.2,5101,172.16.1.2,64464,10498,14480,0,65728,65728,6,6,4,1460,568,1,992,60,33580,0,65700,0,0,1,0,0
o,0x00000000,1720561344.290187,172.16.3.2,5101,172.16.1.2,64464,10498,14480,0,65728,65728,6,6,4,1460,568,1,993,60,33580,0,65700,0,0,1,0,0
i,0x00000000,1720561344.312809,172.16.3.2,5101,172.16.1.2,64464,10498,14480,0,65728,65728,6,6,4,1460,568,1,992,60,33580,0,65700,0,0,1,0,0
o,0x00000000,1720561344.312873,172.16.3.2,5101,172.16.1.2,64464,10498,14480,0,65728,65728,6,6,4,1460,568,1,993,60,33580,0,65700,1448,0,1,0,0
i,0x00000000,1720561344.362458,172.16.3.2,5101,172.16.1.2,64464,10498,14480,0,65728,65728,6,6,4,1460,568,1,992,60,33580,0,65700,0,0,1,0,0
o,0x00000000,1720561344.362491,172.16.3.2,5101,172.16.1.2,64464,10498,14480,0,65728,65700,6,6,4,1460,568,1,993,60,33580,0,65700,0,0,1,0,0
i,0x00000000,1720561344.368874,172.16.3.2,5101,172.16.1.2,64464,10498,14480,0,65728,65700,6,6,4,1460,568,1,992,60,33580,0,65700,0,0,1,0,0
o,0x00000000,1720561344.368896,172.16.3.2,5101,172.16.1.2,64464,10498,14480,0,65728,65728,6,6,4,1460,568,1,993,60,33580,0,65700,0,0,1,0,0
i,0x00000000,1720561344.394716,172.16.3.2,5101,172.16.1.2,64464,10498,14480,0,65728,65728,6,6,4,1460,568,1,992,60,33580,0,65700,0,0,1,0,0
o,0x00000000,1720561344.394847,172.16.3.2,5101,172.16.1.2,64464,10498,14480,0,65728,65728,6,6,4,1460,568,1,993,60,33580,0,65700,17376,0,0,0,0
o,0x00000000,1720561344.395895,172.16.3.2,5101,172.16.1.2,64464,10498,14480,0,65728,65728,6,6,4,1460,568,1,992,60,33580,0,65700,0,0,0,0,0
i,0x00000000,1720561344.401296,172.16.3.2,5101,172.16.1.2,64464,10498,14480,0,65728,65728,6,6,4,1460,568,1,992,60,33580,0,65700,0,0,0,0,0
o,0x00000000,1720561344.401323,172.16.3.2,5101,172.16.1.2,64464,10498,14480,0,65728,65728,6,6,4,1460,568,1,993,60,33580,0,65700,0,0,0,0,0
i,0x00000000,1720561344.407814,172.16.3.2,5101,172.16.1.2,64464,10498,14480,0,65728,65728,6,6,4,1460,568,1,992,60,33580,0,65700,0,0,0,0,0
o,0x00000000,1720561344.407841,172.16.3.2,5101,172.16.1.2,64464,10498,14480,0,65728,65728,6,6,4,1460,568,1,993,60,33580,0,65700,0,0,0,0,0
i,0x00000000,1720561344.428189,172.16.3.2,5101,172.16.1.2,64464,10498,14480,0,65728,65728,6,6,4,1460,568,1,992,60,33580,0,65700,0,0,0,0,0
o,0x00000000,1720561344.428208,172.16.3.2,5101,172.16.1.2,64464,10498,14480,0,65728,65728,6,6,4,1460,568,1,993,60,33580,0,65700,0,0,0,0,0
i,0x00000000,1720561344.437489,172.16.3.2,5101,172.16.1.2,64464,10498,14480,0,65728,65728,6,6,4,1460,568,1,992,60,33580,0,65700,0,0,0,0,0
o,0x00000000,1720561344.437499,172.16.3.2,5101,172.16.1.2,64464,10498,14480,0,65728,65728,6,6,4,1460,568,1,993,60,33580,0,65700,0,0,0,0,0
i,0x00000000,1720561344.457901,172.16.3.2,5101,172.16.1.2,64464,10498,14480,0,65728,65728,6,6,4,1460,568,1,992,60,33580,0,65700,0,0,0,0,0
o,0x00000000,1720561344.457934,172.16.3.2,5101,172.16.1.2,64464,10498,14480,0,65728,65728,6,6,4,1460,568,1,993,60,33580,0,65700,0,0,0,0,0
i,0x00000000,1720561344.478116,172.16.3.2,5101,172.16.1.2,64464,10498,14480,0,65728,65728,6,6,4,1460,568,1,992,60,33580,0,65700,0,0,0,0,0
o,0x00000000,1720561344.478141,172.16.3.2,5101,172.16.1.2,64464,10498,14480,0,65728,65728,6,6,4,1460,568,1,993,60,33580,0,65700,0,0,0,0,0
i,0x00000000,1720561344.495874,172.16.3.2,5101,172.16.1.2,64464,10498,14480,0,65728,65728,6,6,4,1460,568,1,992,60,33580,0,65700,0,0,0,0,0
o,0x00000000,1720561344.495891,172.16.3.2,5101,172.16.1.2,64464,10498,14480,0,65728,65728,6,6,4,1460,568,1,993,60,33580,0,65700,0,0,0,0,0
i,0x00000000,1720561344.499232,172.16.3.2,5101,172.16.1.2,64464,10498,14480,0,65728,65728,6,6,4,1460,568,1,992,60,33580,0,65700,0,0,0,0,0
o,0x00000000,1720561344.499241,172.16.3.2,5101,172.16.1.2,64464,10498,14480,0,65728,65728,6,6,4,1460,568,1,993,60,33580,0,65700,0,0,0,0,0
i,0x00000000,1720561344.516511,172.16.3.2,5101,172.16.1.2,64464,10498,14480,0,65728,65728,6,6,4,1460,568,1,992,60,33580,0,65700,0,0,0,0,0
i,0x00000000,1720561344.529444,172.16.3.2,5101,172.16.1.2,64464,10498,14480,0,65728,65728,6,6,4,1460,568,1,992,60,33580,0,65700,0,0,0,0,0
o,0x00000000,1720561344.529483,172.16.3.2,5101,172.16.1.2,64464,10498,14480,0,65728,65728,6,6,4,1460,568,1,993,60,33580,0,65700,0,0,1,0,0
i,0x00000000,1720561344.549649,172.16.3.2,5101,172.16.1.2,64464,10498,14480,0,65728,65728,6,6,4,1460,568,1,992,60,33580,0,65700,0,0,1,0,0
o,0x00000000,1720561344.549671,172.16.3.2,5101,172.16.1.2,64464,10498,14480,0,65728,65728,6,6,4,1460,568,1,993,60,33580,0,65700,0,0,1,0,0
i,0x00000000,1720561344.578623,172.16.3.2,5101,172.16.1.2,64464,10498,14480,0,65728,65728,6,6,4,1460,568,1,992,60,33580,0,65700,0,0,1,0,0
o,0x00000000,1720561344.578636,172.16.3.2,5101,172.16.1.2,64464,10498,14480,0,65728,65728,6,6,4,1460,568,1,993,60,33580,0,65700,0,0,1,0,0
i,0x00000000,1720561344.609139,172.16.3.2,5101,172.16.1.2,64464,10498,14480,0,65728,65728,6,6,4,1460,568,1,992,60,33580,0,65700,0,0,1,0,0
o,0x00000000,1720561344.609175,172.16.3.2,5101,172.16.1.2,64464,10498,14480,0,65728,65728,6,6,4,1460,568,1,993,60,33580,0,65700,0,0,1,0,0
o,0x00000000,1720561344.668675,10.0.2.15,22,10.0.2.2,49435,1073725440,14600,0,65535,65700,0,0,4,1460,1,0,4,23,33580,108,65700,0,0,0,0,0
i,0x00000000,1720561344.672553,10.0.2.15,22,10.0.2.2,49435,1073725440,14600,0,65535,65700,0,0,4,1460,1,0,4,23,33580,108,65700,0,108,0,0,0
i,0x00000000,1720561344.707407,172.16.3.2,5101,172.16.1.2,64464,10498,14480,0,65728,65728,6,6,4,1460,568,1,992,60,33580,0,65700,0,0,1,0,0
o,0x00000000,1720561344.707441,172.16.3.2,5101,172.16.1.2,64464,10498,14480,0,65728,65728,6,6,4,1460,568,1,993,60,33580,0,65700,0,0,1,0,0
i,0x00000000,1720561344.719920,172.16.3.2,5101,172.16.1.2,64464,10498,14480,0,65728,65728,6,6,4,1460,568,1,992,60,33580,0,65700,0,0,1,0,0
o,0x00000000,1720561344.719962,172.16.3.2,5101,172.16.1.2,64464,10498,14480,0,65728,65728,6,6,4,1460,568,1,993,60,33580,0,65700,0,0,1,0,0
i,0x00000000,1720561344.739349,172.16.3.2,5101,172.16.1.2,64464,10498,14480,0,65728,65728,6,6,4,1460,568,1,992,60,33580,0,65700,0,0,1,0,0
o,0x00000000,1720561344.739382,172.16.3.2,5101,172.16.1.2,64464,10498,14480,0,65728,65728,6,6,4,1460,568,1,993,60,33580,0,65700,0,0,1,0,0
i,0x00000000,1720561344.819114,172.16.3.2,5101,172.16.1.2,64464,10498,14480,0,65728,65728,6,6,4,1460,568,1,992,60,33580,0,65700,0,0,1,0,0
o,0x00000000,1720561344.819129,172.16.3.2,5101,172.16.1.2,64464,10498,14480,0,65728,65728,6,6,4,1460,568,1,993,60,33580,0,65700,1448,0,1,0,0
i,0x00000000,1720561344.828369,172.16.3.2,5101,172.16.1.2,64464,10498,14480,0,65728,65728,6,6,4,1460,568,1,992,60,33580,0,65700,0,0,1,0,0
o,0x00000000,1720561344.828412,172.16.3.2,5101,172.16.1.2,64464,10498,14480,0,65728,65700,6,6,4,1460,568,1,993,60,33580,0,65700,1448,0,1,0,0
i,0x00000000,1720561344.836931,172.16.3.2,5101,172.16.1.2,64464,10498,14480,0,65728,65700,6,6,4,1460,568,1,992,60,33580,0,65700,0,0,1,0,0
o,0x00000000,1720561344.836963,172.16.3.2,5101,172.16.1.2,64464,10498,14480,0,65728,65700,6,6,4,1460,568,1,993,60,33580,0,65700,1448,0,1,0,0
i,0x00000000,1720561344.863956,172.16.3.2,5101,172.16.1.2,64464,10498,14480,0,65728,65700,6,6,4,1460,568,1,992,60,33580,0,65700,0,0,1,0,0
o,0x00000000,1720561344.864002,172.16.3.2,5101,172.16.1.2,64464,10498,14480,0,65728,65700,6,6,4,1460,568,1,993,60,33580,0,65700,1448,0,1,0,0
i,0x00000000,1720561344.885088,172.16.3.2,5101,172.16.1.2,64464,10498,14480,0,65728,65700,6,6,4,1460,568,1,992,60,33580,0,65700,0,0,1,0,0
o,0x00000000,1720561344.885127,172.16.3.2,5101,172.16.1.2,64464,10498,14480,0,65728,65700,6,6,4,1460,568,1,993,60,33580,0,65700,1448,0,1,0,0
i,0x00000000,1720561344.889622,172.16.3.2,5101,172.16.1.2,64464,10498,14480,0,65728,65700,6,6,4,1460,568,1,992,60,33580,0,65700,0,0,1,0,0
o,0x00000000,1720561344.889671,172.16.3.2,5101,172.16.1.2,64464,10498,14480,0,65728,65700,6,6,4,1460,568,1,993,60,33580,0,65700,1448,0,1,0,0
i,0x00000000,1720561344.890604,172.16.3.2,5101,172.16.1.2,64464,10498,14480,0,65728,65700,6,6,4,1460,568,1,992,60,33580,0,65700,1448,0,1,0,0
o,0x00000000,1720561344.890615,172.16.3.2,5101,172.16.1.2,64464,10498,14480,0,65728,64256,6,6,4,1460,568,1,993,60,33580,0,65700,2896,0,1,0,0
i,0x00000000,1720561344.896707,172.16.3.2,5101,172.16.1.2,64464,10498,14480,0,65728,64256,6,6,4,1460,568,1,992,60,33580,0,65700,0,0,1,0,0
o,0x00000000,1720561344.896734,172.16.3.2,5101,172.16.1.2,64464,10498,14480,0,65728,65700,6,6,4,1460,568,1,993,60,33580,0,65700,1448,0,1,0,0
i,0x00000000,1720561344.920890,172.16.3.2,5101,172.16.1.2,64464,10498,14480,0,65728,65700,6,6,4,1460,568,1,992,60,33580,0,65700,0,0,1,0,0
o,0x00000000,1720561344.920944,172.16.3.2,5101,172.16.1.2,64464,10498,14480,0,65728,65700,6,6,4,1460,568,1,993,60,33580,0,65700,1448,0,1,0,0
i,0x00000000,1720561344.939216,172.16.3.2,5101,172.16.1.2,64464,10498,14480,0,65728,65700,6,6,4,1460,568,1,992,60,33580,0,65700,0,0,1,0,0
o,0x00000000,1720561344.939269,172.16.3.2,5101,172.16.1.2,64464,10498,14480,0,65728,65700,6,6,4,1460,568,1,993,60,33580,0,65700,11584,0,0,0,0
i,0x00000000,1720561344.987430,172.16.3.2,5101,172.16.1.2,64464,10498,14480,0,65728,65700,6,6,4,1460,568,1,992,60,33580,0,65700,0,0,0,0,0
i,0x00000000,1720561344.987438,172.16.3.2,5101,172.16.1.2,64464,10498,14480,0,65728,65700,6,6,4,1460,568,1,992,60,33580,0,65700,0,0,0,0,0
i,0x00000000,1720561344.994308,172.16.3.2,5101,172.16.1.2,64464,10498,14480,0,65728,65700,6,6,4,1460,568,1,992,60,33580,0,65700,0,0,0,0,0
i,0x00000000,1720561345.019673,172.16.3.2,5101,172.16.1.2,64464,10498,14480,0,65728,65700,6,6,4,1460,568,1,992,60,33580,0,65700,0,0,0,0,0
o,0x00000000,1720561345.019689,172.16.3.2,5101,172.16.1.2,64464,10498,14480,0,65728,65700,6,6,4,1460,568,1,993,60,33580,0,65700,1448,0,0,0,0
i,0x00000000,1720561345.028527,172.16.3.2,5101,172.16.1.2,64464,10498,14480,0,65728,65700,6,6,4,1460,568,1,992,60,33580,0,65700,0,0,0,0,0
o,0x00000000,1720561345.068492,172.16.3.2,5101,172.16.1.2,64464,10498,14480,0,65728,65700,6,6,4,1460,568,1,993,60,33580,0,65700,0,0,0,0,0
i,0x00000000,1720561345.073328,172.16.3.2,5101,172.16.1.2,64464,10498,14480,0,65728,65700,6,6,4,1460,568,1,992,60,33580,0,65700,0,0,0,0,0
i,0x00000000,1720561345.080412,172.16.3.2,5101,172.16.1.2,64464,10498,14480,0,65728,65700,6,6,4,1460,568,1,992,60,33580,0,65700,0,0,0,0,0
o,0x00000000,1720561345.080469,172.16.3.2,5101,172.16.1.2,64464,10498,14480,0,65728,65700,6,6,4,1460,568,1,993,60,33580,0,65700,1448,0,0,0,0
i,0x00000000,1720561345.125402,172.16.3.2,5101,172.16.1.2,64464,10498,14480,0,65728,65700,6,6,4,1460,568,1,992,60,33580,0,65700,0,0,0,0,0
i,0x00000000,1720561345.125432,172.16.3.2,5101,172.16.1.2,64464,10498,14480,0,65728,65700,6,6,4,1460,568,1,992,60,33580,0,65700,1448,0,0,0,0
o,0x00000000,1720561345.125456,172.16.3.2,5101,172.16.1.2,64464,10498,14480,0,65728,65700,6,6,4,1460,568,1,993,60,33580,0,65700,2896,0,0,0,0
i,0x00000000,1720561345.130096,172.16.3.2,5101,172.16.1.2,64464,10498,14480,0,65728,65700,6,6,4,1460,568,1,992,60,33580,0,65700,0,0,0,0,0
o,0x00000000,1720561345.168487,172.16.3.2,5101,172.16.1.2,64464,10498,14480,0,65728,65700,6,6,4,1460,568,1,993,60,33580,0,65700,0,0,0,0,0
i,0x00000000,1720561345.187393,172.16.3.2,5101,172.16.1.2,64464,10498,14480,0,65728,65700,6,6,4,1460,568,1,992,60,33580,0,65700,0,0,0,0,0
i,0x00000000,1720561345.198097,172.16.3.2,5101,172.16.1.2,64464,10498,14480,0,65728,65700,6,6,4,1460,568,1,992,60,33580,0,65700,0,0,0,0,0
o,0x00000000,1720561345.198137,172.16.3.2,5101,172.16.1.2,64464,10498,14480,0,65728,65700,6,6,4,1460,568,1,993,60,33580,0,65700,1448,0,0,0,0
i,0x00000000,1720561345.251490,172.16.3.2,5101,172.16.1.2,64464,10498,14480,0,65728,65700,6,6,4,1460,568,1,992,60,33580,0,65700,0,0,0,0,0
i,0x00000000,1720561345.271596,172.16.3.2,5101,172.16.1.2,64464,10498,14480,0,65728,65700,6,6,4,1460,568,1,992,60,33580,0,65700,0,0,0,0,0
o,0x00000000,1720561345.271643,172.16.3.2,5101,172.16.1.2,64464,10498,14480,0,65728,65700,6,6,4,1460,568,1,993,60,33580,0,65700,1448,0,0,0,0
i,0x00000000,1720561345.303051,172.16.3.2,5101,172.16.1.2,64464,10498,14480,0,65728,65700,6,6,4,1460,568,1,992,60,33580,0,65700,0,0,0,0,0
i,0x00000000,1720561345.308873,172.16.3.2,5101,172.16.1.2,64464,10498,14480,0,65728,65700,6,6,4,1460,568,1,992,60,33580,0,65700,0,0,0,0,0
o,0x00000000,1720561345.308908,172.16.3.2,5101,172.16.1.2,64464,10498,14480,0,65728,65700,6,6,4,1460,568,1,993,60,33580,0,65700,1448,0,0,0,0
i,0x00000000,1720561345.339864,172.16.3.2,5101,172.16.1.2,64464,10498,14480,0,65728,65700,6,6,4,1460,568,1,992,60,33580,0,65700,0,0,0,0,0
o,0x00000000,1720561345.377656,172.16.3.2,5101,172.16.1.2,64464,10498,14480,0,65728,65700,6,6,4,1460,568,1,993,60,33580,0,65700,0,0,0,0,0
i,0x00000000,1720561345.389711,172.16.3.2,5101,172.16.1.2,64464,10498,14480,0,65728,65700,6,6,4,1460,568,1,992,60,33580,0,65700,0,0,0,0,0
i,0x00000000,1720561345.397861,172.16.3.2,5101,172.16.1.2,64464,10498,14480,0,65728,65700,6,6,4,1460,568,1,992,60,33580,0,65700,0,0,0,0,0
o,0x00000000,1720561345.397905,172.16.3.2,5101,172.16.1.2,64464,10498,14480,0,65728,65700,6,6,4,1460,568,1,993,60,33580,0,65700,1448,0,0,0,0
i,0x00000000,1720561345.408457,172.16.3.2,5101,172.16.1.2,64464,10498,14480,0,65728,65700,6,6,4,1460,568,1,992,60,33580,0,65700,0,0,0,0,0
i,0x00000000,1720561345.439323,172.16.3.2,5101,172.16.1.2,64464,10498,14480,0,65728,65700,6,6,4,1460,568,1,992,60,33580,0,65700,0,0,0,0,0
o,0x00000000,1720561345.439368,172.16.3.2,5101,172.16.1.2,64464,10498,14480,0,65728,65700,6,6,4,1460,568,1,993,60,33580,0,65700,1448,0,0,0,0
i,0x00000000,1720561345.448038,172.16.3.2,5101,172.16.1.2,64464,10498,14480,0,65728,65700,6,6,4,1460,568,1,992,60,33580,0,65700,0,0,0,0,0
o,0x00000000,1720561345.488829,172.16.3.2,5101,172.16.1.2,64464,10498,14480,0,65728,65700,6,6,4,1460,568,1,993,60,33580,0,65700,0,0,0,0,0
i,0x00000000,1720561345.497862,172.16.3.2,5101,172.16.1.2,64464,10498,14480,0,65728,65700,6,6,4,1460,568,1,992,60,33580,0,65700,0,0,0,0,0
i,0x00000000,1720561345.508908,172.16.3.2,5101,172.16.1.2,64464,10498,14480,0,65728,65700,6,6,4,1460,568,1,992,60,33580,0,65700,0,0,0,0,0
o,0x00000000,1720561345.508936,172.16.3.2,5101,172.16.1.2,64464,10498,14480,0,65728,65700,6,6,4,1460,568,1,993,60,33580,0,65700,1448,0,0,0,0
i,0x00000000,1720561345.559190,172.16.3.2,5101,172.16.1.2,64464,10498,14480,0,65728,65700,6,6,4,1460,568,1,992,60,33580,0,65700,0,0,0,0,0
i,0x00000000,1720561345.570229,172.16.3.2,5101,172.16.1.2,64464,10498,14480,0,65728,65700,6,6,4,1460,568,1,992,60,33580,0,65700,0,0,0,0,0
o,0x00000000,1720561345.570242,172.16.3.2,5101,172.16.1.2,64464,10498,14480,0,65728,65700,6,6,4,1460,568,1,993,60,33580,0,65700,1448,0,0,0,0
i,0x00000000,1720561345.578601,172.16.3.2,5101,172.16.1.2,64464,10498,14480,0,65728,65700,6,6,4,1460,568,1,992,60,33580,0,65700,0,0,0,0,0
i,0x00000000,1720561345.618432,172.16.3.2,5101,172.16.1.2,64464,10498,14480,0,65728,65700,6,6,4,1460,568,1,992,60,33580,0,65700,0,0,0,0,0
o,0x00000000,1720561345.618472,172.16.3.2,5101,172.16.1.2,64464,10498,14480,0,65728,65700,6,6,4,1460,568,1,993,60,33580,0,65700,1448,0,0,0,0
i,0x00000000,1720561345.629138,172.16.3.2,5101,172.16.1.2,64464,10498,14480,0,65728,65700,6,6,4,1460,568,1,992,60,33580,0,65700,0,0,0,0,0
i,0x00000000,1720561345.639308,172.16.3.2,5101,172.16.1.2,64464,10498,14480,0,65728,65700,6,6,4,1460,568,1,992,60,33580,0,65700,0,0,0,0,0
o,0x00000000,1720561345.639351,172.16.3.2,5101,172.16.1.2,64464,10498,14480,0,65728,65700,6,6,4,1460,568,1,993,60,33580,0,65700,1448,0,0,0,0
o,0x00000000,1720561345.668786,10.0.2.15,22,10.0.2.2,49435,1073725440,14600,0,65535,65700,0,0,4,1460,1,0,4,24,33580,108,65700,0,0,0,0,0
i,0x00000000,1720561345.670843,10.0.2.15,22,10.0.2.2,49435,1073725440,14600,0,65535,65700,0,0,4,1460,1,0,4,24,33580,108,65700,0,108,0,0,0
i,0x00000000,1720561345.688400,172.16.3.2,5101,172.16.1.2,64464,10498,14480,0,65728,65700,6,6,4,1460,568,1,992,60,33580,0,65700,0,0,0,0,0
i,0x00000000,1720561345.719778,172.16.3.2,5101,172.16.1.2,64464,10498,14480,0,65728,65700,6,6,4,1460,568,1,992,60,33580,0,65700,0,0,0,0,0
o,0x00000000,1720561345.719817,172.16.3.2,5101,172.16.1.2,64464,10498,14480,0,65728,65700,6,6,4,1460,568,1,993,60,33580,0,65700,1448,0,0,0,0
i,0x00000000,1720561345.760335,172.16.3.2,5101,172.16.1.2,64464,10498,14480,0,65728,65700,6,6,4,1460,568,1,992,60,33580,0,65700,0,0,0,0,0
i,0x00000000,1720561345.781780,172.16.3.2,5101,172.16.1.2,64464,10498,14480,0,65728,65700,6,6,4,1460,568,1,992,60,33580,0,65700,0,0,0,0,0
o,0x00000000,1720561345.781820,172.16.3.2,5101,172.16.1.2,64464,10498,14480,0,65728,65700,6,6,4,1460,568,1,993,60,33580,0,65700,1448,0,0,0,0
i,0x00000000,1720561345.788415,172.16.3.2,5101,172.16.1.2,64464,10498,14480,0,65728,65700,6,6,4,1460,568,1,992,60,33580,0,65700,0,0,0,0,0
o,0x00000000,1720561345.828917,172.16.3.2,5101,172.16.1.2,64464,10498,14480,0,65728,65700,6,6,4,1460,568,1,993,60,33580,0,65700,0,0,0,0,0
i,0x00000000,1720561345.840478,172.16.3.2,5101,172.16.1.2,64464,10498,14480,0,65728,65700,6,6,4,1460,568,1,992,60,33580,0,65700,0,0,0,0,0
i,0x00000000,1720561345.849670,172.16.3.2,5101,172.16.1.2,64464,10498,14480,0,65728,65700,6,6,4,1460,568,1,992,60,33580,0,65700,0,0,0,0,0
o,0x00000000,1720561345.849705,172.16.3.2,5101,172.16.1.2,64464,10498,14480,0,65728,65700,6,6,4,1460,568,1,993,60,33580,0,65700,1448,0,0,0,0
i,0x00000000,1720561345.859696,172.16.3.2,5101,172.16.1.2,64464,10498,14480,0,65728,65700,6,6,4,1460,568,1,992,60,33580,0,65700,0,0,0,0,0
i,0x00000000,1720561345.899541,172.16.3.2,5101,172.16.1.2,64464,10498,14480,0,65728,65700,6,6,4,1460,568,1,992,60,33580,0,65700,0,0,0,0,0
o,0x00000000,1720561345.899598,172.16.3.2,5101,172.16.1.2,64464,10498,14480,0,65728,65700,6,6,4,1460,568,1,993,60,33580,0,65700,1448,0,0,0,0
i,0x00000000,1720561345.910240,172.16.3.2,5101,172.16.1.2,64464,10498,14480,0,65728,65700,6,6,4,1460,568,1,992,60,33580,0,65700,0,0,0,0,0
i,0x00000000,1720561345.937990,172.16.3.2,5101,172.16.1.2,64464,10498,14480,0,65728,65700,6,6,4,1460,568,1,992,60,33580,0,65700,0,0,0,0,0
o,0x00000000,1720561345.938029,172.16.3.2,5101,172.16.1.2,64464,10498,14480,0,65728,65700,6,6,4,1460,568,1,993,60,33580,0,65700,1448,0,0,0,0
i,0x00000000,1720561345.942998,172.16.3.2,5101,172.16.1.2,64464,10498,14480,0,65728,65700,6,6,4,1460,568,1,992,60,33580,0,65700,0,0,0,0,0
i,0x00000000,1720561345.971020,172.16.3.2,5101,172.16.1.2,64464,10498,14480,0,65728,65700,6,6,4,1460,568,1,992,60,33580,0,65700,0,0,0,0,0
o,0x00000000,1720561345.971072,172.16.3.2,5101,172.16.1.2,64464,10498,14480,0,65728,65700,6,6,4,1460,568,1,993,60,33580,0,65700,1448,0,0,0,0
i,0x00000000,1720561346.001486,172.16.3.2,5101,172.16.1.2,64464,10498,14480,0,65728,65700,6,6,4,1460,568,1,992,60,33580,0,65700,0,0,0,0,0
i,0x00000000,1720561346.039449,172.16.3.2,5101,172.16.1.2,64464,10498,14480,0,65728,65700,6,6,4,1460,568,1,992,60,33580,0,65700,0,0,0,0,0
o,0x00000000,1720561346.039499,172.16.3.2,5101,172.16.1.2,64464,10498,14480,0,65728,65700,6,6,4,1460,568,1,993,60,33580,0,65700,1448,0,0,0,0
i,0x00000000,1720561346.049545,172.16.3.2,5101,172.16.1.2,64464,10498,14480,0,65728,65700,6,6,4,1460,568,1,992,60,33580,0,65700,0,0,0,0,0
o,0x00000000,1720561346.087915,172.16.3.2,5101,172.16.1.2,64464,10498,14480,0,65728,65700,6,6,4,1460,568,1,993,60,33580,0,65700,0,0,0,0,0
i,0x00000000,1720561346.099346,172.16.3.2,5101,172.16.1.2,64464,10498,14480,0,65728,65700,6,6,4,1460,568,1,992,60,33580,0,65700,0,0,0,0,0
i,0x00000000,1720561346.135576,172.16.3.2,5101,172.16.1.2,64464,10498,14480,0,65728,65700,6,6,4,1460,568,1,992,60,33580,0,65700,0,0,0,0,0
o,0x00000000,1720561346.135627,172.16.3.2,5101,172.16.1.2,64464,10498,14480,0,65728,65700,6,6,4,1460,568,1,993,60,33580,0,65700,1448,0,0,0,0
i,0x00000000,1720561346.149646,172.16.3.2,5101,172.16.1.2,64464,10498,14480,0,65728,65700,6,6,4,1460,568,1,992,60,33580,0,65700,0,0,0,0,0
i,0x00000000,1720561346.187083,172.16.3.2,5101,172.16.1.2,64464,10498,14480,0,65728,65700,6,6,4,1460,568,1,992,60,33580,0,65700,0,0,0,0,0
o,0x00000000,1720561346.187122,172.16.3.2,5101,172.16.1.2,64464,10498,14480,0,65728,65700,6,6,4,1460,568,1,993,60,33580,0,65700,1448,0,0,0,0
i,0x00000000,1720561346.193266,172.16.3.2,5101,172.16.1.2,64464,10498,14480,0,65728,65700,6,6,4,1460,568,1,992,60,33580,0,65700,0,0,0,0,0
i,0x00000000,1720561346.208944,172.16.3.2,5101,172.16.1.2,64464,10498,14480,0,65728,65700,6,6,4,1460,568,1,992,60,33580,0,65700,0,0,0,0,0
o,0x00000000,1720561346.208981,172.16.3.2,5101,172.16.1.2,64464,10498,14480,0,65728,65700,6,6,4,1460,568,1,993,60,33580,0,65700,1448,0,0,0,0
i,0x00000000,1720561346.218979,172.16.3.2,5101,172.16.1.2,64464,10498,14480,0,65728,65700,6,6,4,1460,568,1,992,60,33580,0,65700,0,0,0,0,0
i,0x00000000,1720561346.259230,172.16.3.2,5101,172.16.1.2,64464,10498,14480,0,65728,65700,6,6,4,1460,568,1,992,60,33580,0,65700,0,0,0,0,0
o,0x00000000,1720561346.259271,172.16.3.2,5101,172.16.1.2,64464,10498,14480,0,65728,65700,6,6,4,1460,568,1,993,60,33580,0,65700,1448,0,0,0,0
i,0x00000000,1720561346.280180,172.16.3.2,5101,172.16.1.2,64464,10498,14480,0,65728,65700,6,6,4,1460,568,1,992,60,33580,0,65700,0,0,0,0,0
i,0x00000000,1720561346.300908,172.16.3.2,5101,172.16.1.2,64464,10498,14480,0,65728,65700,6,6,4,1460,568,1,992,60,33580,0,65700,0,0,0,0,0
o,0x00000000,1720561346.300948,172.16.3.2,5101,172.16.1.2,64464,10498,14480,0,65728,65700,6,6,4,1460,568,1,993,60,33580,0,65700,1448,0,0,0,0
i,0x00000000,1720561346.329361,172.16.3.2,5101,172.16.1.2,64464,10498,14480,0,65728,65700,6,6,4,1460,568,1,992,60,33580,0,65700,0,0,0,0,0
i,0x00000000,1720561346.342810,172.16.3.2,5101,172.16.1.2,64464,10498,14480,0,65728,65700,6,6,4,1460,568,1,992,60,33580,0,65700,0,0,0,0,0
o,0x00000000,1720561346.342820,172.16.3.2,5101,172.16.1.2,64464,10498,14480,0,65728,65700,6,6,4,1460,568,1,993,60,33580,0,65700,1448,0,0,0,0
i,0x00000000,1720561346.380662,172.16.3.2,5101,172.16.1.2,64464,10498,14480,0,65728,65700,6,6,4,1460,568,1,992,60,33580,0,65700,0,0,0,0,0
o,0x00000000,1720561346.416750,172.16.3.2,5101,172.16.1.2,64464,10498,14480,0,65728,65700,6,6,4,1460,568,1,993,60,33580,0,65700,0,0,0,0,0
i,0x00000000,1720561346.428979,172.16.3.2,5101,172.16.1.2,64464,10498,14480,0,65728,65700,6,6,4,1460,568,1,992,60,33580,0,65700,0,0,0,0,0
i,0x00000000,1720561346.441287,172.16.3.2,5101,172.16.1.2,64464,10498,14480,0,65728,65700,6,6,4,1460,568,1,992,60,33580,0,65700,0,0,0,0,0
o,0x00000000,1720561346.441301,172.16.3.2,5101,172.16.1.2,64464,10498,14480,0,65728,65700,6,6,4,1460,568,1,993,60,33580,0,65700,1448,0,0,0,0
i,0x00000000,1720561346.477544,172.16.3.2,5101,172.16.1.2,64464,10498,14480,0,65728,65700,6,6,4,1460,568,1,992,60,33580,0,65700,0,0,0,0,0
i,0x00000000,1720561346.509878,172.16.3.2,5101,172.16.1.2,64464,10498,14480,0,65728,65700,6,6,4,1460,568,1,992,60,33580,0,65700,0,0,0,0,0
o,0x00000000,1720561346.509891,172.16.3.2,5101,172.16.1.2,64464,10498,14480,0,65728,65700,6,6,4,1460,568,1,993,60,33580,0,65700,1448,0,0,0,0
i,0x00000000,1720561346.518093,172.16.3.2,5101,172.16.1.2,64464,10498,14480,0,65728,65700,6,6,4,1460,568,1,992,60,33580,0,65700,0,0,0,0,0
i,0x00000000,1720561346.551979,172.16.3.2,5101,172.16.1.2,64464,10498,14480,0,65728,65700,6,6,4,1460,568,1,992,60,33580,0,65700,0,0,0,0,0
o,0x00000000,1720561346.552025,172.16.3.2,5101,172.16.1.2,64464,10498,14480,0,65728,65700,6,6,4,1460,568,1,993,60,33580,0,65700,1448,0,0,0,0
i,0x00000000,1720561346.576855,172.16.3.2,5101,172.16.1.2,64464,10498,14480,0,65728,65700,6,6,4,1460,568,1,992,60,33580,0,65700,0,0,0,0,0
i,0x00000000,1720561346.602619,172.16.3.2,5101,172.16.1.2,64464,10498,14480,0,65728,65700,6,6,4,1460,568,1,992,60,33580,0,65700,0,0,0,0,0
o,0x00000000,1720561346.602659,172.16.3.2,5101,172.16.1.2,64464,10498,14480,0,65728,65700,6,6,4,1460,568,1,993,60,33580,0,65700,1448,0,0,0,0
i,0x00000000,1720561346.609042,172.16.3.2,5101,172.16.1.2,64464,10498,14480,0,65728,65700,6,6,4,1460,568,1,992,60,33580,0,65700,0,0,0,0,0
i,0x00000000,1720561346.629386,172.16.3.2,5101,172.16.1.2,64464,10498,14480,0,65728,65700,6,6,4,1460,568,1,992,60,33580,0,65700,0,0,0,0,0
o,0x00000000,1720561346.629434,172.16.3.2,5101,172.16.1.2,64464,10498,14480,0,65728,65700,6,6,4,1460,568,1,993,60,33580,0,65700,1448,0,0,0,0
i,0x00000000,1720561346.639478,172.16.3.2,5101,172.16.1.2,64464,10498,14480,0,65728,65700,6,6,4,1460,568,1,992,60,33580,0,65700,0,0,0,0,0
i,0x00000000,1720561346.669474,172.16.3.2,5101,172.16.1.2,64464,10498,14480,0,65728,65700,6,6,4,1460,568,1,992,60,33580,0,65700,0,0,0,0,0
o,0x00000000,1720561346.669514,172.16.3.2,5101,172.16.1.2,64464,10498,14480,0,65728,65700,6,6,4,1460,568,1,993,60,33580,0,65700,1448,0,0,0,0
o,0x00000000,1720561346.671089,10.0.2.15,22,10.0.2.2,49435,1073725440,14600,0,65535,65700,0,0,4,1460,1,0,4,24,33580,108,65700,0,0,0,0,0
