enable_time_secs=1720561541	enable_time_usecs=216419	siftrver=1.2.4	hz=100	tcp_rtt_scale=32	sysname=FreeBSD	sysver=1301000	ipmode=4
o,0x00000000,1720561541.216454,10.0.2.15,22,10.0.2.2,56304,1073725440,17770,0,65535,65700,0,0,4,1460,1,0,4,24,33580,44,65700,0,0,0,0,0
o,0x00000000,1720561541.216576,10.0.2.15,22,10.0.2.2,56304,1073725440,17770,0,65535,65700,0,0,4,1460,1,0,4,24,33580,80,65700,0,44,0,0,0
i,0x00000000,1720561541.216960,10.0.2.15,22,10.0.2.2,56304,1073725440,17770,0,65535,65700,0,0,4,1460,1,0,4,24,33580,80,65700,0,80,0,0,0
i,0x00000000,1720561541.216964,10.0.2.15,22,10.0.2.2,56304,1073725440,17814,0,65535,65700,0,0,4,1460,1,0,4,24,33580,36,65700,0,36,0,0,0
o,0x00000000,1720561541.217035,10.0.2.15,22,10.0.2.2,56304,1073725440,17850,0,65535,65700,0,0,4,1460,1,0,4,24,33580,36,65700,0,0,0,0,0
i,0x00000000,1720561541.217574,10.0.2.15,22,10.0.2.2,56304,1073725440,17850,0,65535,65700,0,0,4,1460,1,0,4,24,33580,36,65700,0,36,0,0,0
o,0x00000000,1720561541.217657,10.0.2.15,22,10.0.2.2,56304,1073725440,17886,0,65535,65700,0,0,4,1460,1,0,4,24,33580,36,65700,0,0,0,0,0
i,0x00000000,1720561541.218447,10.0.2.15,22,10.0.2.2,56304,1073725440,17886,0,65535,65700,0,0,4,1460,1,0,4,24,33580,36,65700,0,36,0,0,0
o,0x00000000,1720561541.218616,10.0.2.15,22,10.0.2.2,56304,1073725440,17922,0,65535,65700,0,0,4,1460,1,0,4,24,33580,140,65700,0,0,0,0,0
i,0x00000000,1720561541.219455,10.0.2.15,22,10.0.2.2,56304,1073725440,17922,0,65535,65700,0,0,4,1460,1,0,4,24,33580,140,65700,0,140,0,0,0
i,0x00000000,1720561541.219461,10.0.2.15,22,10.0.2.2,56304,1073725440,18062,0,65535,65700,0,0,4,1460,1,0,4,24,33580,0,65700,0,0,0,0,0
i,0x00000000,1720561541.219463,10.0.2.15,22,10.0.2.2,56304,1073725440,18062,0,65535,65700,0,0,4,1460,1,0,4,24,33580,0,65700,96,0,0,0,0
o,0x00000000,1720561541.219468,10.0.2.15,22,10.0.2.2,56304,1073725440,18062,0,65535,65604,0,0,5,1460,1,0,5,24,33580,0,65700,96,0,0,0,0
o,0x00000000,1720561541.220775,10.0.2.15,22,10.0.2.2,56304,1073725440,18062,0,65535,65604,0,0,8,1460,1,0,4,24,33580,0,65700,0,0,0,0,0
i,0x00000000,1720561541.221435,10.0.2.15,22,10.0.2.2,56304,1073725440,18062,0,65535,65604,0,0,8,1460,1,0,20,24,33580,0,65700,0,1,0,0,0
i,0x00000000,1720561543.338672,10.0.2.15,22,10.0.2.2,56310,1073725440,14600,0,65535,65700,0,0,4,1460,1,0,0,27,33580,0,65700,0,0,0,0,0
o,0x00000000,1720561543.366114,10.0.2.15,22,10.0.2.2,56310,1073725440,14600,0,65535,65700,0,0,4,1460,1,0,0,27,33580,38,65700,42,0,0,0,0
i,0x00000000,1720561543.371350,10.0.2.15,22,10.0.2.2,56310,1073725440,14600,0,65535,65700,0,0,4,1460,1,0,0,27,33580,38,65700,42,38,0,0,0
i,0x00000000,1720561543.371377,10.0.2.15,22,10.0.2.2,56310,1073725440,14638,0,65535,65700,0,0,4,1460,1,0,0,23,33580,0,65700,42,0,0,0,0
i,0x00000000,1720561543.371384,10.0.2.15,22,10.0.2.2,56310,1073725440,14638,0,65535,65700,0,0,4,1460,1,0,0,23,33580,0,65700,1502,0,0,0,0
o,0x00000000,1720561543.371398,10.0.2.15,22,10.0.2.2,56310,1073725440,14638,0,65535,65700,0,0,4,1460,1,0,1,23,33580,0,65700,1578,0,0,0,0
o,0x00000000,1720561543.376071,10.0.2.15,22,10.0.2.2,56310,1073725440,14638,0,65535,65700,0,0,4,1460,1,0,0,23,33580,1056,65700,1536,0,0,0,0
i,0x00000000,1720561543.381977,10.0.2.15,22,10.0.2.2,56310,1073725440,14638,0,65535,65700,0,0,4,1460,1,0,0,23,33580,1056,65700,1536,1056,0,0,0
i,0x00000000,1720561543.385454,10.0.2.15,22,10.0.2.2,56310,1073725440,15694,0,65535,65700,0,0,4,1460,1,0,0,24,33580,0,65700,0,0,0,0,0
o,0x00000000,1720561543.397346,10.0.2.15,22,10.0.2.2,56310,1073725440,15694,0,65535,65700,0,0,4,1460,1,0,0,24,33580,484,65700,0,0,0,0,0
i,0x00000000,1720561543.399706,10.0.2.15,22,10.0.2.2,56310,1073725440,15694,0,65535,65700,0,0,4,1460,1,0,0,24,33580,484,65700,0,484,0,0,0
i,0x00000000,1720561543.403719,10.0.2.15,22,10.0.2.2,56310,1073725440,16178,0,65535,65700,0,0,4,1460,1,0,0,24,33580,0,65700,0,0,0,0,0
i,0x00000000,1720561543.403730,10.0.2.15,22,10.0.2.2,56310,1073725440,16178,0,65535,65700,0,0,4,1460,1,0,0,24,33580,0,65700,16,0,0,0,0
o,0x00000000,1720561543.403735,10.0.2.15,22,10.0.2.2,56310,1073725440,16178,0,65535,65700,0,0,4,1460,1,0,1,24,33580,0,65700,60,0,0,0,0
o,0x00000000,1720561543.403927,10.0.2.15,22,10.0.2.2,56310,1073725440,16178,0,65535,65700,0,0,4,1460,1,0,0,24,33580,44,65700,0,0,0,0,0
i,0x00000000,1720561543.405811,10.0.2.15,22,10.0.2.2,56310,1073725440,16178,0,65535,65700,0,0,4,1460,1,0,0,24,33580,44,65700,0,44,0,0,0
i,0x00000000,1720561543.405835,10.0.2.15,22,10.0.2.2,56310,1073725440,16222,0,65535,65700,0,0,4,1460,1,0,0,24,33580,0,65700,0,0,0,0,0
o,0x00000000,1720561543.417307,10.0.2.15,22,10.0.2.2,56310,1073725440,16222,0,65535,65700,0,0,4,1460,1,0,0,24,33580,68,65700,0,0,0,0,0
i,0x00000000,1720561543.418958,10.0.2.15,22,10.0.2.2,56310,1073725440,16222,0,65535,65700,0,0,4,1460,1,0,0,24,33580,68,65700,0,68,0,0,0
i,0x00000000,1720561543.418983,10.0.2.15,22,10.0.2.2,56310,1073725440,16290,0,65535,65700,0,0,4,1460,1,0,0,24,33580,0,65700,0,0,0,0,0
o,0x00000000,1720561543.420534,10.0.2.15,22,10.0.2.2,56310,1073725440,16290,0,65535,65700,0,0,4,1460,1,0,0,24,33580,332,65700,0,0,0,0,0
i,0x00000000,1720561543.423452,10.0.2.15,22,10.0.2.2,56310,1073725440,16290,0,65535,65700,0,0,4,1460,1,0,0,24,33580,332,65700,0,332,0,0,0
i,0x00000000,1720561543.426162,10.0.2.15,22,10.0.2.2,56310,1073725440,16622,0,65535,65700,0,0,4,1460,1,0,0,24,33580,0,65700,0,0,0,0,0
o,0x00000000,1720561543.438878,10.0.2.15,22,10.0.2.2,56310,1073725440,16622,0,65535,65700,0,0,4,1460,1,0,0,24,33580,28,65700,0,0,0,0,0
i,0x00000000,1720561543.443201,10.0.2.15,22,10.0.2.2,56310,1073725440,16622,0,65535,65700,0,0,4,1460,1,0,0,24,33580,28,65700,0,28,0,0,0
i,0x00000000,1720561543.443218,10.0.2.15,22,10.0.2.2,56310,1073725440,16650,0,65535,65700,0,0,4,1460,1,0,0,24,33580,0,65700,0,0,0,0,0
o,0x00000000,1720561543.446137,10.0.2.15,22,10.0.2.2,56310,1073725440,16650,0,65535,65700,0,0,4,1460,1,0,0,24,33580,768,65700,112,0,0,0,0
i,0x00000000,1720561543.449903,10.0.2.15,22,10.0.2.2,56310,1073725440,16650,0,65535,65700,0,0,4,1460,1,0,0,24,33580,768,65700,112,768,0,0,0
o,0x00000000,1720561543.450517,10.0.2.15,22,10.0.2.2,56310,1073725440,17418,0,65535,65700,0,0,4,1460,1,0,0,24,33580,140,65700,112,0,0,0,0
i,0x00000000,1720561543.454039,10.0.2.15,22,10.0.2.2,56310,1073725440,17418,0,65535,65700,0,0,4,1460,1,0,0,24,33580,140,65700,112,140,0,0,0
o,0x00000000,1720561543.454985,10.0.2.15,22,10.0.2.2,56310,1073725440,17558,0,65535,65700,0,0,4,1460,1,0,0,24,33580,44,65700,0,0,0,0,0
i,0x00000000,1720561543.459127,10.0.2.15,22,10.0.2.2,56310,1073725440,17558,0,65535,65700,0,0,4,1460,1,0,0,24,33580,44,65700,0,44,0,0,0
i,0x00000000,1720561543.459143,10.0.2.15,22,10.0.2.2,56310,1073725440,17602,0,65535,65700,0,0,4,1460,1,0,0,23,33580,0,65700,0,0,0,0,0
o,0x00000000,1720561543.460311,10.0.2.15,22,10.0.2.2,56310,1073725440,17602,0,65535,65700,0,0,4,1460,1,0,4,23,33580,72,65700,0,0,0,0,0
i,0x00000000,1720561543.463560,10.0.2.15,22,10.0.2.2,56310,1073725440,17602,0,65535,65700,0,0,4,1460,1,0,4,23,33580,72,65700,0,72,0,0,0
o,0x00000000,1720561543.471278,10.0.2.15,22,10.0.2.2,56310,1073725440,17674,0,65535,65700,0,0,4,1460,1,0,4,23,33580,44,65700,0,0,0,0,0
i,0x00000000,1720561543.472652,10.0.2.15,22,10.0.2.2,56310,1073725440,17674,0,65535,65700,0,0,4,1460,1,0,4,23,33580,44,65700,0,44,0,0,0
o,0x00000000,1720561543.473149,10.0.2.15,22,10.0.2.2,56310,1073725440,17718,0,65535,65700,0,0,4,1460,1,0,4,23,33580,44,65700,0,0,0,0,0
i,0x00000000,1720561543.474294,10.0.2.15,22,10.0.2.2,56310,1073725440,17718,0,65535,65700,0,0,4,1460,1,0,4,23,33580,44,65700,0,44,0,0,0
o,0x00000000,1720561543.482580,10.0.2.15,22,10.0.2.2,56310,1073725440,17762,0,65535,65700,0,0,4,1460,1,0,4,23,33580,176,65700,0,0,0,0,0
i,0x00000000,1720561543.485662,10.0.2.15,22,10.0.2.2,56310,1073725440,17762,0,65535,65700,0,0,4,1460,1,0,4,23,33580,176,65700,0,176,0,0,0
i,0x00000000,1720561543.485690,10.0.2.15,22,10.0.2.2,56310,1073725440,17938,0,65535,65700,0,0,4,1460,1,0,4,24,33580,0,65700,0,0,0,0,0
i,0x00000000,1720561543.485699,10.0.2.15,22,10.0.2.2,56310,1073725440,17938,0,65535,65700,0,0,4,1460,1,0,4,24,33580,0,65700,96,0,0,0,0
o,0x00000000,1720561543.485715,10.0.2.15,22,10.0.2.2,56310,1073725440,17938,0,65535,65604,0,0,5,1460,1,0,5,24,33580,0,65700,96,0,0,0,0
o,0x00000000,1720561543.498722,10.0.2.15,22,10.0.2.2,56310,1073725440,17938,0,65535,65604,0,0,8,1460,1,0,4,24,33580,0,65700,0,0,0,0,0
i,0x00000000,1720561543.499388,10.0.2.15,22,10.0.2.2,56310,1073725440,17938,0,65535,65604,0,0,8,1460,1,0,20,24,33580,0,65700,0,1,0,0,0
i,0x00000000,1720561543.755504,172.16.3.2,5101,172.16.1.2,64859,10499,14480,0,65728,65700,6,6,4,1460,523,1,996,55,33580,0,65700,0,0,0,0,0
o,0x00000000,1720561543.755770,172.16.3.2,5101,172.16.1.2,64859,10499,14480,0,65728,65700,6,6,4,1460,523,1,996,55,33580,1,65700,0,0,0,0,0
i,0x00000000,1720561543.867208,172.16.3.2,5101,172.16.1.2,64859,10499,14480,0,65728,65700,6,6,4,1460,523,1,996,55,33580,1,65700,0,1,0,0,0
i,0x00000000,1720561543.867247,172.16.3.2,5101,172.16.1.2,64859,10499,14480,0,65728,65728,6,6,4,1460,502,1,996,55,33580,0,65700,4,0,0,0,0
o,0x00000000,1720561543.867269,172.16.3.2,5101,172.16.1.2,64859,10499,14480,0,65728,65728,6,6,4,1460,502,1,997,55,33580,0,65700,128,0,0,0,0
o,0x00000000,1720561543.868248,172.16.3.2,5101,172.16.1.2,64859,10499,14480,0,65728,65728,6,6,4,1460,502,1,996,55,33580,1,65700,0,0,0,0,0
o,0x00000000,1720561543.870972,10.0.2.15,22,10.0.2.2,49435,1073725440,14600,0,65535,65700,0,0,4,1460,1,0,4,24,33580,84,65700,0,0,0,0,0
i,0x00000000,1720561543.875917,10.0.2.15,22,10.0.2.2,49435,1073725440,14600,0,65535,65700,0,0,4,1460,1,0,4,24,33580,84,65700,0,84,0,0,0
i,0x00000000,1720561544.025080,172.16.3.2,5101,172.16.1.2,64859,10499,14480,0,65728,65728,6,6,4,1460,502,1,996,55,33580,1,65700,0,1,0,0,0
i,0x00000000,1720561544.115818,172.16.3.2,5101,172.16.1.2,30171,10499,14480,0,65728,65700,6,6,4,1460,519,1,992,55,33580,0,65700,0,0,0,0,0
o,0x00000000,1720561544.225228,172.16.3.2,5101,172.16.1.2,30171,10499,14480,0,65728,65700,6,6,4,1460,519,1,993,55,33580,0,65700,0,0,0,0,0
o,0x00000000,1720561544.233694,172.16.3.2,5101,172.16.1.2,64859,10499,14480,0,65728,65728,6,6,4,1460,500,1,996,50,33580,1,65700,0,0,0,0,0
o,0x00000000,1720561544.234017,172.16.3.2,5101,172.16.1.2,64859,10499,14480,0,65728,65728,6,6,4,1460,500,1,996,50,33580,2,65700,0,1,0,0,0
o,0x00000000,1720561544.236108,10.0.2.15,22,10.0.2.2,49435,1073725440,14600,0,65535,65700,0,0,4,1460,1,0,4,24,33580,108,65700,0,0,0,0,0
i,0x00000000,1720561544.239531,10.0.2.15,22,10.0.2.2,49435,1073725440,14600,0,65535,65700,0,0,4,1460,1,0,4,24,33580,108,65700,0,108,0,0,0
i,0x00000000,1720561544.438668,172.16.3.2,5101,172.16.1.2,64859,10499,14480,0,65728,65728,6,6,4,1460,500,1,996,50,33580,2,65700,0,2,0,0,0
i,0x00000000,1720561544.450706,172.16.3.2,5101,172.16.1.2,30171,10499,14480,0,65728,65700,6,6,4,1460,519,1,992,55,33580,0,65700,0,0,0,0,0
i,0x00000000,1720561544.453426,172.16.3.2,5101,172.16.1.2,30171,10499,14480,0,65728,65700,6,6,4,1460,519,1,992,55,33580,0,65700,0,0,0,0,0
o,0x00000000,1720561544.453438,172.16.3.2,5101,172.16.1.2,30171,10499,14480,0,65728,65700,6,6,4,1460,519,1,993,55,33580,0,65700,1448,0,0,0,0
i,0x00000000,1720561544.469266,172.16.3.2,5101,172.16.1.2,30171,10499,14480,0,65728,65700,6,6,4,1460,519,1,992,55,33580,0,65700,0,0,0,0,0
i,0x00000000,1720561544.480868,172.16.3.2,5101,172.16.1.2,30171,10499,14480,0,65728,65700,6,6,4,1460,519,1,992,55,33580,0,65700,0,0,0,0,0
o,0x00000000,1720561544.480904,172.16.3.2,5101,172.16.1.2,30171,10499,14480,0,65728,65700,6,6,4,1460,519,1,993,55,33580,0,65700,1448,0,0,0,0
i,0x00000000,1720561544.494351,172.16.3.2,5101,172.16.1.2,30171,10499,14480,0,65728,65700,6,6,4,1460,519,1,992,55,33580,0,65700,0,0,0,0,0
i,0x00000000,1720561544.505080,172.16.3.2,5101,172.16.1.2,30171,10499,14480,0,65728,65700,6,6,4,1460,519,1,992,55,33580,0,65700,0,0,0,0,0
o,0x00000000,1720561544.505120,172.16.3.2,5101,172.16.1.2,30171,10499,14480,0,65728,65700,6,6,4,1460,519,1,993,55,33580,0,65700,1448,0,0,0,0
i,0x00000000,1720561544.513225,172.16.3.2,5101,172.16.1.2,30171,10499,14480,0,65728,65700,6,6,4,1460,519,1,992,55,33580,0,65700,0,0,0,0,0
i,0x00000000,1720561544.522609,172.16.3.2,5101,172.16.1.2,30171,10499,14480,0,65728,65700,6,6,4,1460,519,1,992,55,33580,0,65700,0,0,0,0,0
o,0x00000000,1720561544.522649,172.16.3.2,5101,172.16.1.2,30171,10499,14480,0,65728,65700,6,6,4,1460,519,1,993,55,33580,0,65700,1448,0,0,0,0
i,0x00000000,1720561544.554850,172.16.3.2,5101,172.16.1.2,30171,10499,14480,0,65728,65700,6,6,4,1460,519,1,992,55,33580,0,65700,0,0,0,0,0
i,0x00000000,1720561544.558551,172.16.3.2,5101,172.16.1.2,30171,10499,14480,0,65728,65700,6,6,4,1460,519,1,992,55,33580,0,65700,0,0,0,0,0
o,0x00000000,1720561544.558595,172.16.3.2,5101,172.16.1.2,30171,10499,14480,0,65728,65700,6,6,4,1460,519,1,993,55,33580,0,65700,1448,0,0,0,0
i,0x00000000,1720561544.613584,172.16.3.2,5101,172.16.1.2,30171,10499,14480,0,65728,65700,6,6,4,1460,519,1,992,55,33580,0,65700,0,0,0,0,0
i,0x00000000,1720561544.624795,172.16.3.2,5101,172.16.1.2,30171,10499,14480,0,65728,65700,6,6,4,1460,519,1,992,55,33580,0,65700,0,0,0,0,0
o,0x00000000,1720561544.624829,172.16.3.2,5101,172.16.1.2,30171,10499,14480,0,65728,65700,6,6,4,1460,519,1,993,55,33580,0,65700,1448,0,0,0,0
i,0x00000000,1720561544.688156,172.16.3.2,5101,172.16.1.2,30171,10499,14480,0,65728,65700,6,6,4,1460,519,1,992,55,33580,0,65700,0,0,0,0,0
i,0x00000000,1720561544.693708,172.16.3.2,5101,172.16.1.2,30171,10499,14480,0,65728,65700,6,6,4,1460,519,1,992,55,33580,0,65700,0,0,0,0,0
o,0x00000000,1720561544.693743,172.16.3.2,5101,172.16.1.2,30171,10499,14480,0,65728,65700,6,6,4,1460,519,1,993,55,33580,0,65700,1448,0,0,0,0
i,0x00000000,1720561544.714405,172.16.3.2,5101,172.16.1.2,30171,10499,14480,0,65728,65700,6,6,4,1460,519,1,992,55,33580,0,65700,0,0,0,0,0
o,0x00000000,1720561544.747992,172.16.3.2,5101,172.16.1.2,30171,10499,14480,0,65728,65700,6,6,4,1460,519,1,993,55,33580,0,65700,0,0,0,0,0
i,0x00000000,1720561544.779292,172.16.3.2,5101,172.16.1.2,30171,10499,14480,0,65728,65700,6,6,4,1460,519,1,992,55,33580,0,65700,0,0,0,0,0
i,0x00000000,1720561544.779317,172.16.3.2,5101,172.16.1.2,30171,10499,14480,0,65728,65700,6,6,4,1460,519,1,992,55,33580,0,65700,1448,0,0,0,0
o,0x00000000,1720561544.779334,172.16.3.2,5101,172.16.1.2,30171,10499,14480,0,65728,65700,6,6,4,1460,519,1,993,55,33580,0,65700,2896,0,0,0,0
i,0x00000000,1720561544.784858,172.16.3.2,5101,172.16.1.2,30171,10499,14480,0,65728,65700,6,6,4,1460,519,1,992,55,33580,0,65700,0,0,0,0,0
o,0x00000000,1720561544.818912,172.16.3.2,5101,172.16.1.2,30171,10499,14480,0,65728,65700,6,6,4,1460,519,1,993,55,33580,0,65700,0,0,0,0,0
i,0x00000000,1720561544.823856,172.16.3.2,5101,172.16.1.2,30171,10499,14480,0,65728,65700,6,6,4,1460,519,1,992,55,33580,0,65700,0,0,0,0,0
i,0x00000000,1720561544.834031,172.16.3.2,5101,172.16.1.2,30171,10499,14480,0,65728,65700,6,6,4,1460,519,1,992,55,33580,0,65700,0,0,0,0,0
o,0x00000000,1720561544.834062,172.16.3.2,5101,172.16.1.2,30171,10499,14480,0,65728,65700,6,6,4,1460,519,1,993,55,33580,0,65700,1448,0,0,0,0
i,0x00000000,1720561544.843620,172.16.3.2,5101,172.16.1.2,30171,10499,14480,0,65728,65700,6,6,4,1460,519,1,992,55,33580,0,65700,0,0,0,0,0
o,0x00000000,1720561544.877444,172.16.3.2,5101,172.16.1.2,30171,10499,14480,0,65728,65700,6,6,4,1460,519,1,993,55,33580,0,65700,0,0,0,0,0
i,0x00000000,1720561544.883992,172.16.3.2,5101,172.16.1.2,30171,10499,14480,0,65728,65700,6,6,4,1460,519,1,992,55,33580,0,65700,0,0,0,0,0
i,0x00000000,1720561544.905315,172.16.3.2,5101,172.16.1.2,30171,10499,14480,0,65728,65700,6,6,4,1460,519,1,992,55,33580,0,65700,0,0,0,0,0
o,0x00000000,1720561544.905362,172.16.3.2,5101,172.16.1.2,30171,10499,14480,0,65728,65700,6,6,4,1460,519,1,993,55,33580,0,65700,1448,0,0,0,0
i,0x00000000,1720561544.943890,172.16.3.2,5101,172.16.1.2,30171,10499,14480,0,65728,65700,6,6,4,1460,519,1,992,55,33580,0,65700,0,0,0,0,0
i,0x00000000,1720561544.957477,172.16.3.2,5101,172.16.1.2,30171,10499,14480,0,65728,65700,6,6,4,1460,519,1,992,55,33580,0,65700,0,0,0,0,0
o,0x00000000,1720561544.957524,172.16.3.2,5101,172.16.1.2,30171,10499,14480,0,65728,65700,6,6,4,1460,519,1,993,55,33580,0,65700,1448,0,0,0,0
i,0x00000000,1720561544.989312,172.16.3.2,5101,172.16.1.2,30171,10499,14480,0,65728,65700,6,6,4,1460,519,1,992,55,33580,0,65700,0,0,0,0,0
i,0x00000000,1720561545.015975,172.16.3.2,5101,172.16.1.2,30171,10499,14480,0,65728,65700,6,6,4,1460,519,1,992,55,33580,0,65700,0,0,0,0,0
o,0x00000000,1720561545.016027,172.16.3.2,5101,172.16.1.2,30171,10499,14480,0,65728,65700,6,6,4,1460,519,1,993,55,33580,0,65700,1448,0,0,0,0
i,0x00000000,1720561545.034023,172.16.3.2,5101,172.16.1.2,30171,10499,14480,0,65728,65700,6,6,4,1460,519,1,992,55,33580,0,65700,0,0,0,0,0
o,0x00000000,1720561545.067624,172.16.3.2,5101,172.16.1.2,30171,10499,14480,0,65728,65700,6,6,4,1460,519,1,993,55,33580,0,65700,0,0,0,0,0
i,0x00000000,1720561545.105930,172.16.3.2,5101,172.16.1.2,30171,10499,14480,0,65728,65700,6,6,4,1460,519,1,992,55,33580,0,65700,0,0,0,0,0
i,0x00000000,1720561545.106017,172.16.3.2,5101,172.16.1.2,30171,10499,14480,0,65728,65700,6,6,4,1460,519,1,992,55,33580,0,65700,1448,0,0,0,0
o,0x00000000,1720561545.106031,172.16.3.2,5101,172.16.1.2,30171,10499,14480,0,65728,65700,6,6,4,1460,519,1,993,55,33580,0,65700,2896,0,0,0,0
i,0x00000000,1720561545.114604,172.16.3.2,5101,172.16.1.2,30171,10499,14480,0,65728,65700,6,6,4,1460,519,1,992,55,33580,0,65700,0,0,0,0,0
o,0x00000000,1720561545.147633,172.16.3.2,5101,172.16.1.2,30171,10499,14480,0,65728,65700,6,6,4,1460,519,1,993,55,33580,0,65700,0,0,0,0,0
i,0x00000000,1720561545.155162,172.16.3.2,5101,172.16.1.2,30171,10499,14480,0,65728,65700,6,6,4,1460,519,1,992,55,33580,0,65700,0,0,0,0,0
i,0x00000000,1720561545.177974,172.16.3.2,5101,172.16.1.2,30171,10499,14480,0,65728,65700,6,6,4,1460,519,1,992,55,33580,0,65700,0,0,0,0,0
o,0x00000000,1720561545.178030,172.16.3.2,5101,172.16.1.2,30171,10499,14480,0,65728,65700,6,6,4,1460,519,1,993,55,33580,0,65700,1448,0,0,0,0
i,0x00000000,1720561545.178807,172.16.3.2,5101,172.16.1.2,30171,10499,14480,0,65728,65700,6,6,4,1460,519,1,992,55,33580,0,65700,1448,0,0,0,0
i,0x00000000,1720561545.184971,172.16.3.2,5101,172.16.1.2,30171,10499,14480,0,65728,65700,6,6,4,1460,519,1,992,55,33580,0,65700,0,0,0,0,0
o,0x00000000,1720561545.185005,172.16.3.2,5101,172.16.1.2,30171,10499,14480,0,65728,65700,6,6,4,1460,519,1,993,55,33580,0,65700,1448,0,0,0,0
i,0x00000000,1720561545.223610,172.16.3.2,5101,172.16.1.2,30171,10499,14480,0,65728,65700,6,6,4,1460,519,1,992,55,33580,0,65700,0,0,0,0,0
o,0x00000000,1720561545.238044,10.0.2.15,22,10.0.2.2,49435,1073725440,14600,0,65535,65700,0,0,4,1460,1,0,4,24,33580,156,65700,0,0,0,0,0
i,0x00000000,1720561545.240701,172.16.3.2,5101,172.16.1.2,30171,10499,14480,0,65728,65700,6,6,4,1460,519,1,992,55,33580,0,65700,0,0,0,0,0
o,0x00000000,1720561545.240723,172.16.3.2,5101,172.16.1.2,30171,10499,14480,0,65728,65700,6,6,4,1460,519,1,993,55,33580,0,65700,1448,0,0,0,0
i,0x00000000,1720561545.242333,10.0.2.15,22,10.0.2.2,49435,1073725440,14600,0,65535,65700,0,0,4,1460,1,0,4,24,33580,156,65700,0,156,0,0,0
i,0x00000000,1720561545.285054,172.16.3.2,5101,172.16.1.2,30171,10499,14480,0,65728,65700,6,6,4,1460,519,1,992,55,33580,0,65700,0,0,0,0,0
i,0x00000000,1720561545.294513,172.16.3.2,5101,172.16.1.2,30171,10499,14480,0,65728,65700,6,6,4,1460,519,1,992,55,33580,0,65700,0,0,0,0,0
o,0x00000000,1720561545.294561,172.16.3.2,5101,172.16.1.2,30171,10499,14480,0,65728,65700,6,6,4,1460,519,1,993,55,33580,0,65700,1448,0,0,0,0
i,0x00000000,1720561545.324231,172.16.3.2,5101,172.16.1.2,30171,10499,14480,0,65728,65700,6,6,4,1460,519,1,992,55,33580,0,65700,0,0,0,0,0
o,0x00000000,1720561545.358631,172.16.3.2,5101,172.16.1.2,30171,10499,14480,0,65728,65700,6,6,4,1460,519,1,993,55,33580,0,65700,0,0,0,0,0
i,0x00000000,1720561545.365488,172.16.3.2,5101,172.16.1.2,30171,10499,14480,0,65728,65700,6,6,4,1460,519,1,992,55,33580,0,65700,0,0,0,0,0
o,0x00000000,1720561545.397992,172.16.3.2,5101,172.16.1.2,30171,10499,14480,0,65728,65700,6,6,4,1460,519,1,993,55,33580,0,65700,0,0,0,0,0
i,0x00000000,1720561545.405076,172.16.3.2,5101,172.16.1.2,30171,10499,14480,0,65728,65700,6,6,4,1460,519,1,992,55,33580,0,65700,0,0,0,0,0
o,0x00000000,1720561545.438315,172.16.3.2,5101,172.16.1.2,30171,10499,14480,0,65728,65700,6,6,4,1460,519,1,993,55,33580,0,65700,0,0,0,0,0
i,0x00000000,1720561545.443838,172.16.3.2,5101,172.16.1.2,30171,10499,14480,0,65728,65700,6,6,4,1460,519,1,992,55,33580,0,65700,0,0,0,0,0
i,0x00000000,1720561545.459036,172.16.3.2,5101,172.16.1.2,30171,10499,14480,0,65728,65700,6,6,4,1460,519,1,992,55,33580,0,65700,0,0,0,0,0
o,0x00000000,1720561545.459074,172.16.3.2,5101,172.16.1.2,30171,10499,14480,0,65728,65700,6,6,4,1460,519,1,993,55,33580,0,65700,1448,0,0,0,0
i,0x00000000,1720561545.473896,172.16.3.2,5101,172.16.1.2,30171,10499,14480,0,65728,65700,6,6,4,1460,519,1,992,55,33580,0,65700,0,0,0,0,0
i,0x00000000,1720561545.505319,172.16.3.2,5101,172.16.1.2,30171,10499,14480,0,65728,65700,6,6,4,1460,519,1,992,55,33580,0,65700,0,0,0,0,0
o,0x00000000,1720561545.505373,172.16.3.2,5101,172.16.1.2,30171,10499,14480,0,65728,65700,6,6,4,1460,519,1,993,55,33580,0,65700,1448,0,0,0,0
i,0x00000000,1720561545.525701,172.16.3.2,5101,172.16.1.2,30171,10499,14480,0,65728,65700,6,6,4,1460,519,1,992,55,33580,0,65700,0,0,0,0,0
i,0x00000000,1720561545.532656,172.16.3.2,5101,172.16.1.2,30171,10499,14480,0,65728,65700,6,6,4,1460,519,1,992,55,33580,0,65700,0,0,0,0,0
o,0x00000000,1720561545.532691,172.16.3.2,5101,172.16.1.2,30171,10499,14480,0,65728,65700,6,6,4,1460,519,1,993,55,33580,0,65700,1448,0,0,0,0
i,0x00000000,1720561545.544234,172.16.3.2,5101,172.16.1.2,30171,10499,14480,0,65728,65700,6,6,4,1460,519,1,992,55,33580,0,65700,0,0,0,0,0
i,0x00000000,1720561545.574214,172.16.3.2,5101,172.16.1.2,30171,10499,14480,0,65728,65700,6,6,4,1460,519,1,992,55,33580,0,65700,0,0,0,0,0
o,0x00000000,1720561545.574257,172.16.3.2,5101,172.16.1.2,30171,10499,14480,0,65728,65700,6,6,4,1460,519,1,993,55,33580,0,65700,1448,0,0,0,0
i,0x00000000,1720561545.593782,172.16.3.2,5101,172.16.1.2,30171,10499,14480,0,65728,65700,6,6,4,1460,519,1,992,55,33580,0,65700,0,0,0,0,0
i,0x00000000,1720561545.602209,172.16.3.2,5101,172.16.1.2,30171,10499,14480,0,65728,65700,6,6,4,1460,519,1,992,55,33580,0,65700,0,0,0,0,0
o,0x00000000,1720561545.602225,172.16.3.2,5101,172.16.1.2,30171,10499,14480,0,65728,65700,6,6,4,1460,519,1,993,55,33580,0,65700,1448,0,0,0,0
i,0x00000000,1720561545.652289,172.16.3.2,5101,172.16.1.2,30171,10499,14480,0,65728,65700,6,6,4,1460,519,1,992,55,33580,0,65700,0,0,0,0,0
o,0x00000000,1720561545.687584,172.16.3.2,5101,172.16.1.2,30171,10499,14480,0,65728,65700,6,6,4,1460,519,1,993,55,33580,0,65700,0,0,0,0,0
i,0x00000000,1720561545.693334,172.16.3.2,5101,172.16.1.2,30171,10499,14480,0,65728,65700,6,6,4,1460,519,1,992,55,33580,0,65700,0,0,0,0,0
o,0x00000000,1720561545.728207,172.16.3.2,5101,172.16.1.2,30171,10499,14480,0,65728,65700,6,6,4,1460,519,1,993,55,33580,0,65700,0,0,0,0,0
i,0x00000000,1720561545.761209,172.16.3.2,5101,172.16.1.2,30171,10499,14480,0,65728,65700,6,6,4,1460,519,1,992,55,33580,0,65700,0,0,0,0,0
i,0x00000000,1720561545.761924,172.16.3.2,5101,172.16.1.2,30171,10499,14480,0,65728,65700,6,6,4,1460,519,1,992,55,33580,0,65700,1448,0,0,0,0
o,0x00000000,1720561545.761931,172.16.3.2,5101,172.16.1.2,30171,10499,14480,0,65728,65700,6,6,4,1460,519,1,993,55,33580,0,65700,2896,0,0,0,0
i,0x00000000,1720561545.785317,172.16.3.2,5101,172.16.1.2,30171,10499,14480,0,65728,65700,6,6,4,1460,519,1,992,55,33580,0,65700,0,0,0,0,0
i,0x00000000,1720561545.805006,172.16.3.2,5101,172.16.1.2,30171,10499,14480,0,65728,65700,6,6,4,1460,519,1,992,55,33580,0,65700,0,0,0,0,0
o,0x00000000,1720561545.805063,172.16.3.2,5101,172.16.1.2,30171,10499,14480,0,65728,65700,6,6,4,1460,519,1,993,55,33580,0,65700,1448,0,0,0,0
i,0x00000000,1720561545.834778,172.16.3.2,5101,172.16.1.2,30171,10499,14480,0,65728,65700,6,6,4,1460,519,1,992,55,33580,0,65700,0,0,0,0,0
i,0x00000000,1720561545.855854,172.16.3.2,5101,172.16.1.2,30171,10499,14480,0,65728,65700,6,6,4,1460,519,1,992,55,33580,0,65700,0,0,0,0,0
o,0x00000000,1720561545.855899,172.16.3.2,5101,172.16.1.2,30171,10499,14480,0,65728,65700,6,6,4,1460,519,1,993,55,33580,0,65700,1448,0,0,0,0
i,0x00000000,1720561545.863246,172.16.3.2,5101,172.16.1.2,30171,10499,14480,0,65728,65700,6,6,4,1460,519,1,992,55,33580,0,65700,0,0,0,0,0
i,0x00000000,1720561545.873573,172.16.3.2,5101,172.16.1.2,30171,10499,14480,0,65728,65700,6,6,4,1460,519,1,992,55,33580,0,65700,0,0,0,0,0
o,0x00000000,1720561545.873596,172.16.3.2,5101,172.16.1.2,30171,10499,14480,0,65728,65700,6,6,4,1460,519,1,993,55,33580,0,65700,1448,0,0,0,0
i,0x00000000,1720561545.891787,172.16.3.2,5101,172.16.1.2,30171,10499,14480,0,65728,65700,6,6,4,1460,519,1,992,55,33580,0,65700,0,0,0,0,0
o,0x00000000,1720561545.891799,172.16.3.2,5101,172.16.1.2,30171,10499,14480,0,65728,65700,6,6,4,1460,519,1,993,55,33580,0,65700,0,0,1,0,0
i,0x00000000,1720561545.926355,172.16.3.2,5101,172.16.1.2,30171,10499,14480,0,65728,65700,6,6,4,1460,519,1,992,55,33580,0,65700,0,0,1,0,0
o,0x00000000,1720561545.926391,172.16.3.2,5101,172.16.1.2,30171,10499,14480,0,65728,65728,6,6,4,1460,519,1,993,55,33580,0,65700,0,0,1,0,0
i,0x00000000,1720561545.964407,172.16.3.2,5101,172.16.1.2,30171,10499,14480,0,65728,65728,6,6,4,1460,519,1,992,55,33580,0,65700,0,0,1,0,0
o,0x00000000,1720561545.964444,172.16.3.2,5101,172.16.1.2,30171,10499,14480,0,65728,65728,6,6,4,1460,519,1,993,55,33580,0,65700,0,0,1,0,0
i,0x00000000,1720561545.986984,172.16.3.2,5101,172.16.1.2,30171,10499,14480,0,65728,65728,6,6,4,1460,519,1,992,55,33580,0,65700,0,0,1,0,0
o,0x00000000,1720561545.987018,172.16.3.2,5101,172.16.1.2,30171,10499,14480,0,65728,65728,6,6,4,1460,519,1,993,55,33580,0,65700,0,0,1,0,0
i,0x00000000,1720561545.995586,172.16.3.2,5101,172.16.1.2,30171,10499,14480,0,65728,65728,6,6,4,1460,519,1,992,55,33580,0,65700,0,0,1,0,0
o,0x00000000,1720561545.995624,172.16.3.2,5101,172.16.1.2,30171,10499,14480,0,65728,65728,6,6,4,1460,519,1,993,55,33580,0,65700,0,0,1,0,0
i,0x00000000,1720561546.035699,172.16.3.2,5101,172.16.1.2,30171,10499,14480,0,65728,65728,6,6,4,1460,519,1,992,55,33580,0,65700,0,0,1,0,0
o,0x00000000,1720561546.035730,172.16.3.2,5101,172.16.1.2,30171,10499,14480,0,65728,65728,6,6,4,1460,519,1,993,55,33580,0,65700,0,0,1,0,0
i,0x00000000,1720561546.046167,172.16.3.2,5101,172.16.1.2,30171,10499,14480,0,65728,65728,6,6,4,1460,519,1,992,55,33580,0,65700,0,0,1,0,0
o,0x00000000,1720561546.046208,172.16.3.2,5101,172.16.1.2,30171,10499,14480,0,65728,65728,6,6,4,1460,519,1,993,55,33580,0,65700,0,0,1,0,0
i,0x00000000,1720561546.095735,172.16.3.2,5101,172.16.1.2,30171,10499,14480,0,65728,65728,6,6,4,1460,519,1,992,55,33580,0,65700,0,0,1,0,0
o,0x00000000,1720561546.095768,172.16.3.2,5101,172.16.1.2,30171,10499,14480,0,65728,65728,6,6,4,1460,519,1,993,55,33580,0,65700,0,0,1,0,0
i,0x00000000,1720561546.127444,172.16.3.2,5101,172.16.1.2,30171,10499,14480,0,65728,65728,6,6,4,1460,519,1,992,55,33580,0,65700,0,0,1,0,0
o,0x00000000,1720561546.127495,172.16.3.2,5101,172.16.1.2,30171,10499,14480,0,65728,65728,6,6,4,1460,519,1,993,55,33580,0,65700,0,0,2,0,0
i,0x00000000,1720561546.134750,172.16.3.2,5101,172.16.1.2,30171,10499,14480,0,65728,65728,6,6,4,1460,519,1,992,55,33580,0,65700,0,0,2,0,0
o,0x00000000,1720561546.134770,172.16.3.2,5101,172.16.1.2,30171,10499,14480,0,65728,65728,6,6,4,1460,519,1,993,55,33580,0,65700,0,0,2,0,0
i,0x00000000,1720561546.173299,172.16.3.2,5101,172.16.1.2,30171,10499,14480,0,65728,65728,6,6,4,1460,519,1,992,55,33580,0,65700,0,0,2,0,0
o,0x00000000,1720561546.173310,172.16.3.2,5101,172.16.1.2,30171,10499,14480,0,65728,65728,6,6,4,1460,519,1,993,55,33580,0,65700,0,0,3,0,0
i,0x00000000,1720561546.195823,172.16.3.2,5101,172.16.1.2,30171,10499,14480,0,65728,65728,6,6,4,1460,519,1,992,55,33580,0,65700,0,0,3,0,0
o,0x00000000,1720561546.195882,172.16.3.2,5101,172.16.1.2,30171,10499,14480,0,65728,65728,6,6,4,1460,519,1,993,55,33580,0,65700,0,0,3,0,0
i,0x00000000,1720561546.205937,172.16.3.2,5101,172.16.1.2,30171,10499,14480,0,65728,65728,6,6,4,1460,519,1,992,55,33580,0,65700,0,0,3,0,0
o,0x00000000,1720561546.205978,172.16.3.2,5101,172.16.1.2,30171,10499,14480,0,65728,65728,6,6,4,1460,519,1,993,55,33580,0,65700,0,0,4,0,0
i,0x00000000,1720561546.232419,172.16.3.2,5101,172.16.1.2,30171,10499,14480,0,65728,65728,6,6,4,1460,519,1,992,55,33580,0,65700,0,0,4,0,0
o,0x00000000,1720561546.232483,172.16.3.2,5101,172.16.1.2,30171,10499,14480,0,65728,65728,6,6,4,1460,519,1,993,55,33580,0,65700,13032,0,3,0,0
i,0x00000000,1720561546.234355,172.16.3.2,5101,172.16.1.2,30171,10499,14480,0,65728,65728,6,6,4,1460,519,1,992,55,33580,0,65700,13032,0,3,0,0
o,0x00000000,1720561546.234382,172.16.3.2,5101,172.16.1.2,30171,10499,14480,0,65728,52736,6,6,4,1460,519,1,993,55,33580,0,65700,13032,0,3,0,0
o,0x00000000,1720561546.249379,10.0.2.15,22,10.0.2.2,49435,1073725440,14600,0,65535,65700,0,0,4,1460,1,0,4,24,33580,108,65700,0,0,0,0,0
i,0x00000000,1720561546.252979,10.0.2.15,22,10.0.2.2,49435,1073725440,14600,0,65535,65700,0,0,4,1460,1,0,4,24,33580,108,65700,0,108,0,0,0
i,0x00000000,1720561546.294809,172.16.3.2,5101,172.16.1.2,30171,10499,14480,0,65728,52736,6,6,4,1460,519,1,992,55,33580,0,65700,0,0,3,0,0
o,0x00000000,1720561546.294842,172.16.3.2,5101,172.16.1.2,30171,10499,14480,0,65728,65700,6,6,4,1460,519,1,993,55,33580,0,65700,0,0,3,0,0
i,0x00000000,1720561546.306209,172.16.3.2,5101,172.16.1.2,30171,10499,14480,0,65728,65700,6,6,4,1460,519,1,992,55,33580,0,65700,0,0,3,0,0
o,0x00000000,1720561546.306291,172.16.3.2,5101,172.16.1.2,30171,10499,14480,0,65728,65728,6,6,4,1460,519,1,993,55,33580,0,65700,4344,0,2,0,0
i,0x00000000,1720561546.386626,172.16.3.2,5101,172.16.1.2,30171,10499,14480,0,65728,65728,6,6,4,1460,519,1,992,55,33580,0,65700,0,0,2,0,0
o,0x00000000,1720561546.386650,172.16.3.2,5101,172.16.1.2,30171,10499,14480,0,65728,65700,6,6,4,1460,519,1,993,55,33580,0,65700,4344,0,1,0,0
i,0x00000000,1720561546.393711,172.16.3.2,5101,172.16.1.2,30171,10499,14480,0,65728,65700,6,6,4,1460,519,1,992,55,33580,0,65700,0,0,1,0,0
o,0x00000000,1720561546.393740,172.16.3.2,5101,172.16.1.2,30171,10499,14480,0,65728,65700,6,6,4,1460,519,1,993,55,33580,0,65700,5792,0,0,0,0
i,0x00000000,1720561546.404362,172.16.3.2,5101,172.16.1.2,30171,10499,14480,0,65728,65700,6,6,4,1460,519,1,992,55,33580,0,65700,0,0,0,0,0
i,0x00000000,1720561546.415489,172.16.3.2,5101,172.16.1.2,30171,10499,14480,0,65728,65700,6,6,4,1460,519,1,992,55,33580,0,65700,0,0,0,0,0
o,0x00000000,1720561546.415502,172.16.3.2,5101,172.16.1.2,30171,10499,14480,0,65728,65700,6,6,4,1460,519,1,993,55,33580,0,65700,1448,0,0,0,0
i,0x00000000,1720561546.426344,172.16.3.2,5101,172.16.1.2,30171,10499,14480,0,65728,65700,6,6,4,1460,519,1,992,55,33580,0,65700,0,0,0,0,0
o,0x00000000,1720561546.459397,172.16.3.2,5101,172.16.1.2,30171,10499,14480,0,65728,65700,6,6,4,1460,519,1,993,55,33580,0,65700,0,0,0,0,0
i,0x00000000,1720561546.487214,172.16.3.2,5101,172.16.1.2,30171,10499,14480,0,65728,65700,6,6,4,1460,519,1,992,55,33580,0,65700,0,0,0,0,0
i,0x00000000,1720561546.504842,172.16.3.2,5101,172.16.1.2,30171,10499,14480,0,65728,65700,6,6,4,1460,519,1,992,55,33580,0,65700,0,0,0,0,0
o,0x00000000,1720561546.504888,172.16.3.2,5101,172.16.1.2,30171,10499,14480,0,65728,65700,6,6,4,1460,519,1,993,55,33580,0,65700,1448,0,0,0,0
i,0x00000000,1720561546.544096,172.16.3.2,5101,172.16.1.2,30171,10499,14480,0,65728,65700,6,6,4,1460,519,1,992,55,33580,0,65700,0,0,0,0,0
i,0x00000000,1720561546.565149,172.16.3.2,5101,172.16.1.2,30171,10499,14480,0,65728,65700,6,6,4,1460,519,1,992,55,33580,0,65700,0,0,0,0,0
o,0x00000000,1720561546.565189,172.16.3.2,5101,172.16.1.2,30171,10499,14480,0,65728,65700,6,6,4,1460,519,1,993,55,33580,0,65700,1448,0,0,0,0
i,0x00000000,1720561546.575253,172.16.3.2,5101,172.16.1.2,30171,10499,14480,0,65728,65700,6,6,4,1460,519,1,992,55,33580,0,65700,0,0,0,0,0
i,0x00000000,1720561546.594285,172.16.3.2,5101,172.16.1.2,30171,10499,14480,0,65728,65700,6,6,4,1460,519,1,992,55,33580,0,65700,0,0,0,0,0
o,0x00000000,1720561546.594302,172.16.3.2,5101,172.16.1.2,30171,10499,14480,0,65728,65700,6,6,4,1460,519,1,993,55,33580,0,65700,1448,0,0,0,0
i,0x00000000,1720561546.658576,172.16.3.2,5101,172.16.1.2,30171,10499,14480,0,65728,65700,6,6,4,1460,519,1,992,55,33580,0,65700,0,0,0,0,0
i,0x00000000,1720561546.665315,172.16.3.2,5101,172.16.1.2,30171,10499,14480,0,65728,65700,6,6,4,1460,519,1,992,55,33580,0,65700,0,0,0,0,0
o,0x00000000,1720561546.665363,172.16.3.2,5101,172.16.1.2,30171,10499,14480,0,65728,65700,6,6,4,1460,519,1,993,55,33580,0,65700,1448,0,0,0,0
i,0x00000000,1720561546.675606,172.16.3.2,5101,172.16.1.2,30171,10499,14480,0,65728,65700,6,6,4,1460,519,1,992,55,33580,0,65700,0,0,0,0,0
i,0x00000000,1720561546.684883,172.16.3.2,5101,172.16.1.2,30171,10499,14480,0,65728,65700,6,6,4,1460,519,1,992,55,33580,0,65700,0,0,0,0,0
o,0x00000000,1720561546.684921,172.16.3.2,5101,172.16.1.2,30171,10499,14480,0,65728,65700,6,6,4,1460,519,1,993,55,33580,0,65700,1448,0,0,0,0
i,0x00000000,1720561546.755584,172.16.3.2,5101,172.16.1.2,30171,10499,14480,0,65728,65700,6,6,4,1460,519,1,992,55,33580,0,65700,0,0,0,0,0
i,0x00000000,1720561546.767141,172.16.3.2,5101,172.16.1.2,30171,10499,14480,0,65728,65700,6,6,4,1460,519,1,992,55,33580,0,65700,0,0,0,0,0
o,0x00000000,1720561546.767181,172.16.3.2,5101,172.16.1.2,30171,10499,14480,0,65728,65700,6,6,4,1460,519,1,993,55,33580,0,65700,1448,0,0,0,0
i,0x00000000,1720561546.775040,172.16.3.2,5101,172.16.1.2,30171,10499,14480,0,65728,65700,6,6,4,1460,519,1,992,55,33580,0,65700,0,0,0,0,0
i,0x00000000,1720561546.785904,172.16.3.2,5101,172.16.1.2,30171,10499,14480,0,65728,65700,6,6,4,1460,519,1,992,55,33580,0,65700,0,0,0,0,0
o,0x00000000,1720561546.785941,172.16.3.2,5101,172.16.1.2,30171,10499,14480,0,65728,65700,6,6,4,1460,519,1,993,55,33580,0,65700,1448,0,0,0,0
i,0x00000000,1720561546.877783,172.16.3.2,5101,172.16.1.2,30171,10499,14480,0,65728,65700,6,6,4,1460,519,1,992,55,33580,0,65700,0,0,0,0,0
i,0x00000000,1720561546.887137,172.16.3.2,5101,172.16.1.2,30171,10499,14480,0,65728,65700,6,6,4,1460,519,1,992,55,33580,0,65700,0,0,0,0,0
o,0x00000000,1720561546.887177,172.16.3.2,5101,172.16.1.2,30171,10499,14480,0,65728,65700,6,6,4,1460,519,1,993,55,33580,0,65700,1448,0,0,0,0
i,0x00000000,1720561546.893492,172.16.3.2,5101,172.16.1.2,30171,10499,14480,0,65728,65700,6,6,4,1460,519,1,992,55,33580,0,65700,0,0,0,0,0
i,0x00000000,1720561546.923522,172.16.3.2,5101,172.16.1.2,30171,10499,14480,0,65728,65700,6,6,4,1460,519,1,992,55,33580,0,65700,0,0,0,0,0
o,0x00000000,1720561546.923557,172.16.3.2,5101,172.16.1.2,30171,10499,14480,0,65728,65700,6,6,4,1460,519,1,993,55,33580,0,65700,1448,0,0,0,0
i,0x00000000,1720561546.938597,172.16.3.2,5101,172.16.1.2,30171,10499,14480,0,65728,65700,6,6,4,1460,519,1,992,55,33580,0,65700,0,0,0,0,0
i,0x00000000,1720561546.975533,172.16.3.2,5101,172.16.1.2,30171,10499,14480,0,65728,65700,6,6,4,1460,519,1,992,55,33580,0,65700,0,0,0,0,0
o,0x00000000,1720561546.975572,172.16.3.2,5101,172.16.1.2,30171,10499,14480,0,65728,65700,6,6,4,1460,519,1,993,55,33580,0,65700,1448,0,0,0,0
i,0x00000000,1720561546.985122,172.16.3.2,5101,172.16.1.2,30171,10499,14480,0,65728,65700,6,6,4,1460,519,1,992,55,33580,0,65700,0,0,0,0,0
i,0x00000000,1720561547.015819,172.16.3.2,5101,172.16.1.2,30171,10499,14480,0,65728,65700,6,6,4,1460,519,1,992,55,33580,0,65700,0,0,0,0,0
o,0x00000000,1720561547.015860,172.16.3.2,5101,172.16.1.2,30171,10499,14480,0,65728,65700,6,6,4,1460,519,1,993,55,33580,0,65700,1448,0,0,0,0
i,0x00000000,1720561547.035669,172.16.3.2,5101,172.16.1.2,30171,10499,14480,0,65728,65700,6,6,4,1460,519,1,992,55,33580,0,65700,0,0,0,0,0
o,0x00000000,1720561547.067662,172.16.3.2,5101,172.16.1.2,30171,10499,14480,0,65728,65700,6,6,4,1460,519,1,993,55,33580,0,65700,0,0,0,0,0
i,0x00000000,1720561547.075089,172.16.3.2,5101,172.16.1.2,30171,10499,14480,0,65728,65700,6,6,4,1460,519,1,992,55,33580,0,65700,0,0,0,0,0
i,0x00000000,1720561547.094310,172.16.3.2,5101,172.16.1.2,30171,10499,14480,0,65728,65700,6,6,4,1460,519,1,992,55,33580,0,65700,0,0,0,0,0
o,0x00000000,1720561547.094358,172.16.3.2,5101,172.16.1.2,30171,10499,14480,0,65728,65700,6,6,4,1460,519,1,993,55,33580,0,65700,1448,0,0,0,0
i,0x00000000,1720561547.125348,172.16.3.2,5101,172.16.1.2,30171,10499,14480,0,65728,65700,6,6,4,1460,519,1,992,55,33580,0,65700,0,0,0,0,0
i,0x00000000,1720561547.147731,172.16.3.2,5101,172.16.1.2,30171,10499,14480,0,65728,65700,6,6,4,1460,519,1,992,55,33580,0,65700,0,0,0,0,0
o,0x00000000,1720561547.147783,172.16.3.2,5101,172.16.1.2,30171,10499,14480,0,65728,65700,6,6,4,1460,519,1,993,55,33580,0,65700,1448,0,0,0,0
i,0x00000000,1720561547.155132,172.16.3.2,5101,172.16.1.2,30171,10499,14480,0,65728,65700,6,6,4,1460,519,1,992,55,33580,0,65700,0,0,0,0,0
o,0x00000000,1720561547.187884,172.16.3.2,5101,172.16.1.2,30171,10499,14480,0,65728,65700,6,6,4,1460,519,1,993,55,33580,0,65700,0,0,0,0,0
i,0x00000000,1720561547.196833,172.16.3.2,5101,172.16.1.2,30171,10499,14480,0,65728,65700,6,6,4,1460,519,1,992,55,33580,0,65700,0,0,0,0,0
i,0x00000000,1720561547.204516,172.16.3.2,5101,172.16.1.2,30171,10499,14480,0,65728,65700,6,6,4,1460,519,1,992,55,33580,0,65700,0,0,0,0,0
o,0x00000000,1720561547.204535,172.16.3.2,5101,172.16.1.2,30171,10499,14480,0,65728,65700,6,6,4,1460,519,1,993,55,33580,0,65700,1448,0,0,0,0
i,0x00000000,1720561547.232047,172.16.3.2,5101,172.16.1.2,30171,10499,14480,0,65728,65700,6,6,4,1460,519,1,992,55,33580,0,65700,0,0,0,0,0
i,0x00000000,1720561547.239192,172.16.3.2,5101,172.16.1.2,30171,10499,14480,0,65728,65700,6,6,4,1460,519,1,992,55,33580,0,65700,0,0,0,0,0
o,0x00000000,1720561547.239230,172.16.3.2,5101,172.16.1.2,30171,10499,14480,0,65728,65700,6,6,4,1460,519,1,993,55,33580,0,65700,1448,0,0,0,0
o,0x00000000,1720561547.247828,10.0.2.15,22,10.0.2.2,49435,1073725440,14600,0,65535,65700,0,0,4,1460,1,0,4,24,33580,108,65700,0,0,0,0,0
i,0x00000000,1720561547.250999,10.0.2.15,22,10.0.2.2,49435,1073725440,14600,0,65535,65700,0,0,4,1460,1,0,4,24,33580,108,65700,0,108,0,0,0
i,0x00000000,1720561547.308042,172.16.3.2,5101,172.16.1.2,30171,10499,14480,0,65728,65700,6,6,4,1460,519,1,992,55,33580,0,65700,0,0,0,0,0
i,0x00000000,1720561547.317374,172.16.3.2,5101,172.16.1.2,30171,10499,14480,0,65728,65700,6,6,4,1460,519,1,992,55,33580,0,65700,0,0,0,0,0
o,0x00000000,1720561547.317409,172.16.3.2,5101,172.16.1.2,30171,10499,14480,0,65728,65700,6,6,4,1460,519,1,993,55,33580,0,65700,1448,0,0,0,0
i,0x00000000,1720561547.355985,172.16.3.2,5101,172.16.1.2,30171,10499,14480,0,65728,65700,6,6,4,1460,519,1,992,55,33580,0,65700,0,0,0,0,0
o,0x00000000,1720561547.386775,172.16.3.2,5101,172.16.1.2,30171,10499,14480,0,65728,65700,6,6,4,1460,519,1,993,55,33580,0,65700,0,0,0,0,0
i,0x00000000,1720561547.388783,172.16.3.2,5101,172.16.1.2,30171,10499,14480,0,65728,65700,6,6,4,1460,519,1,992,55,33580,0,65700,0,0,0,0,0
i,0x00000000,1720561547.397234,172.16.3.2,5101,172.16.1.2,30171,10499,14480,0,65728,65700,6,6,4,1460,519,1,992,55,33580,0,65700,0,0,0,0,0
o,0x00000000,1720561547.397278,172.16.3.2,5101,172.16.1.2,30171,10499,14480,0,65728,65700,6,6,4,1460,519,1,993,55,33580,0,65700,1448,0,0,0,0
i,0x00000000,1720561547.437159,172.16.3.2,5101,172.16.1.2,30171,10499,14480,0,65728,65700,6,6,4,1460,519,1,992,55,33580,0,65700,0,0,0,0,0
i,0x00000000,1720561547.448191,172.16.3.2,5101,172.16.1.2,30171,10499,14480,0,65728,65700,6,6,4,1460,519,1,992,55,33580,0,65700,0,0,0,0,0
o,0x00000000,1720561547.448236,172.16.3.2,5101,172.16.1.2,30171,10499,14480,0,65728,65700,6,6,4,1460,519,1,993,55,33580,0,65700,1448,0,0,0,0
i,0x00000000,1720561547.468525,172.16.3.2,5101,172.16.1.2,30171,10499,14480,0,65728,65700,6,6,4,1460,519,1,992,55,33580,0,65700,0,0,0,0,0
i,0x00000000,1720561547.491029,172.16.3.2,5101,172.16.1.2,30171,10499,14480,0,65728,65700,6,6,4,1460,519,1,992,55,33580,0,65700,0,0,0,0,0
o,0x00000000,1720561547.491071,172.16.3.2,5101,172.16.1.2,30171,10499,14480,0,65728,65700,6,6,4,1460,519,1,993,55,33580,0,65700,1448,0,0,0,0
i,0x00000000,1720561547.505932,172.16.3.2,5101,172.16.1.2,30171,10499,14480,0,65728,65700,6,6,4,1460,519,1,992,55,33580,0,65700,0,0,0,0,0
o,0x00000000,1720561547.537855,172.16.3.2,5101,172.16.1.2,30171,10499,14480,0,65728,65700,6,6,4,1460,519,1,993,55,33580,0,65700,0,0,0,0,0
i,0x00000000,1720561547.544698,172.16.3.2,5101,172.16.1.2,30171,10499,14480,0,65728,65700,6,6,4,1460,519,1,992,55,33580,0,65700,0,0,0,0,0
i,0x00000000,1720561547.576338,172.16.3.2,5101,172.16.1.2,30171,10499,14480,0,65728,65700,6,6,4,1460,519,1,992,55,33580,0,65700,0,0,0,0,0
o,0x00000000,1720561547.576380,172.16.3.2,5101,172.16.1.2,30171,10499,14480,0,65728,65700,6,6,4,1460,519,1,993,55,33580,0,65700,1448,0,0,0,0
i,0x00000000,1720561547.595072,172.16.3.2,5101,172.16.1.2,30171,10499,14480,0,65728,65700,6,6,4,1460,519,1,992,55,33580,0,65700,0,0,0,0,0
i,0x00000000,1720561547.597858,172.16.3.2,5101,172.16.1.2,30171,10499,14480,0,65728,65700,6,6,4,1460,519,1,992,55,33580,0,65700,0,0,0,0,0
o,0x00000000,1720561547.597893,172.16.3.2,5101,172.16.1.2,30171,10499,14480,0,65728,65700,6,6,4,1460,519,1,993,55,33580,0,65700,1448,0,0,0,0
i,0x00000000,1720561547.646892,172.16.3.2,5101,172.16.1.2,30171,10499,14480,0,65728,65700,6,6,4,1460,519,1,992,55,33580,0,65700,0,0,0,0,0
i,0x00000000,1720561547.655772,172.16.3.2,5101,172.16.1.2,30171,10499,14480,0,65728,65700,6,6,4,1460,519,1,992,55,33580,0,65700,0,0,0,0,0
o,0x00000000,1720561547.655810,172.16.3.2,5101,172.16.1.2,30171,10499,14480,0,65728,65700,6,6,4,1460,519,1,993,55,33580,0,65700,1448,0,0,0,0
i,0x00000000,1720561547.705944,172.16.3.2,5101,172.16.1.2,30171,10499,14480,0,65728,65700,6,6,4,1460,519,1,992,55,33580,0,65700,0,0,0,0,0
i,0x00000000,1720561547.716452,172.16.3.2,5101,172.16.1.2,30171,10499,14480,0,65728,65700,6,6,4,1460,519,1,992,55,33580,0,65700,0,0,0,0,0
o,0x00000000,1720561547.716499,172.16.3.2,5101,172.16.1.2,30171,10499,14480,0,65728,65700,6,6,4,1460,519,1,993,55,33580,0,65700,1448,0,0,0,0
i,0x00000000,1720561547.725565,172.16.3.2,5101,172.16.1.2,30171,10499,14480,0,65728,65700,6,6,4,1460,519,1,992,55,33580,0,65700,0,0,0,0,0
o,0x00000000,1720561547.758575,172.16.3.2,5101,172.16.1.2,30171,10499,14480,0,65728,65700,6,6,4,1460,519,1,993,55,33580,0,65700,0,0,0,0,0
i,0x00000000,1720561547.766027,172.16.3.2,5101,172.16.1.2,30171,10499,14480,0,65728,65700,6,6,4,1460,519,1,992,55,33580,0,65700,0,0,0,0,0
o,0x00000000,1720561547.797859,172.16.3.2,5101,172.16.1.2,30171,10499,14480,0,65728,65700,6,6,4,1460,519,1,993,55,33580,0,65700,0,0,0,0,0
i,0x00000000,1720561547.804688,172.16.3.2,5101,172.16.1.2,30171,10499,14480,0,65728,65700,6,6,4,1460,519,1,992,55,33580,0,65700,0,0,0,0,0
i,0x00000000,1720561547.818199,172.16.3.2,5101,172.16.1.2,30171,10499,14480,0,65728,65700,6,6,4,1460,519,1,992,55,33580,0,65700,0,0,0,0,0
o,0x00000000,1720561547.818239,172.16.3.2,5101,172.16.1.2,30171,10499,14480,0,65728,65700,6,6,4,1460,519,1,993,55,33580,0,65700,1448,0,0,0,0
i,0x00000000,1720561547.856785,172.16.3.2,5101,172.16.1.2,30171,10499,14480,0,65728,65700,6,6,4,1460,519,1,992,55,33580,0,65700,0,0,0,0,0
i,0x00000000,1720561547.864275,172.16.3.2,5101,172.16.1.2,30171,10499,14480,0,65728,65700,6,6,4,1460,519,1,992,55,33580,0,65700,0,0,0,0,0
o,0x00000000,1720561547.864311,172.16.3.2,5101,172.16.1.2,30171,10499,14480,0,65728,65700,6,6,4,1460,519,1,993,55,33580,0,65700,1448,0,0,0,0
i,0x00000000,1720561547.886391,172.16.3.2,5101,172.16.1.2,30171,10499,14480,0,65728,65700,6,6,4,1460,519,1,992,55,33580,0,65700,0,0,0,0,0
i,0x00000000,1720561547.917322,172.16.3.2,5101,172.16.1.2,30171,10499,14480,0,65728,65700,6,6,4,1460,519,1,992,55,33580,0,65700,0,0,0,0,0
o,0x00000000,1720561547.917340,172.16.3.2,5101,172.16.1.2,30171,10499,14480,0,65728,65700,6,6,4,1460,519,1,993,55,33580,0,65700,1448,0,0,0,0
i,0x00000000,1720561547.925837,172.16.3.2,5101,172.16.1.2,30171,10499,14480,0,65728,65700,6,6,4,1460,519,1,992,55,33580,0,65700,0,0,0,0,0
o,0x00000000,1720561547.958199,172.16.3.2,5101,172.16.1.2,30171,10499,14480,0,65728,65700,6,6,4,1460,519,1,993,55,33580,0,65700,0,0,0,0,0
i,0x00000000,1720561547.976068,172.16.3.2,5101,172.16.1.2,30171,10499,14480,0,65728,65700,6,6,4,1460,519,1,992,55,33580,0,65700,0,0,0,0,0
i,0x00000000,1720561547.995043,172.16.3.2,5101,172.16.1.2,30171,10499,14480,0,65728,65700,6,6,4,1460,519,1,992,55,33580,0,65700,0,0,0,0,0
o,0x00000000,1720561547.995084,172.16.3.2,5101,172.16.1.2,30171,10499,14480,0,65728,65700,6,6,4,1460,519,1,993,55,33580,0,65700,1448,0,0,0,0
i,0x00000000,1720561548.028299,172.16.3.2,5101,172.16.1.2,30171,10499,14480,0,65728,65700,6,6,4,1460,519,1,992,55,33580,0,65700,0,0,0,0,0
i,0x00000000,1720561548.035238,172.16.3.2,5101,172.16.1.2,30171,10499,14480,0,65728,65700,6,6,4,1460,519,1,992,55,33580,0,65700,0,0,0,0,0
o,0x00000000,1720561548.035276,172.16.3.2,5101,172.16.1.2,30171,10499,14480,0,65728,65700,6,6,4,1460,519,1,993,55,33580,0,65700,1448,0,0,0,0
i,0x00000000,1720561548.046157,172.16.3.2,5101,172.16.1.2,30171,10499,14480,0,65728,65700,6,6,4,1460,519,1,992,55,33580,0,65700,0,0,0,0,0
o,0x00000000,1720561548.078262,172.16.3.2,5101,172.16.1.2,30171,10499,14480,0,65728,65700,6,6,4,1460,519,1,993,55,33580,0,65700,0,0,0,0,0
i,0x00000000,1720561548.095944,172.16.3.2,5101,172.16.1.2,30171,10499,14480,0,65728,65700,6,6,4,1460,519,1,992,55,33580,0,65700,0,0,0,0,0
i,0x00000000,1720561548.113313,172.16.3.2,5101,172.16.1.2,30171,10499,14480,0,65728,65700,6,6,4,1460,519,1,992,55,33580,0,65700,0,0,0,0,0
o,0x00000000,1720561548.113352,172.16.3.2,5101,172.16.1.2,30171,10499,14480,0,65728,65700,6,6,4,1460,519,1,993,55,33580,0,65700,1448,0,0,0,0
i,0x00000000,1720561548.136148,172.16.3.2,5101,172.16.1.2,30171,10499,14480,0,65728,65700,6,6,4,1460,519,1,992,55,33580,0,65700,0,0,0,0,0
i,0x00000000,1720561548.157034,172.16.3.2,5101,172.16.1.2,30171,10499,14480,0,65728,65700,6,6,4,1460,519,1,992,55,33580,0,65700,0,0,0,0,0
o,0x00000000,1720561548.157074,172.16.3.2,5101,172.16.1.2,30171,10499,14480,0,65728,65700,6,6,4,1460,519,1,993,55,33580,0,65700,1448,0,0,0,0
i,0x00000000,1720561548.197963,172.16.3.2,5101,172.16.1.2,30171,10499,14480,0,65728,65700,6,6,4,1460,519,1,992,55,33580,0,65700,0,0,0,0,0
i,0x00000000,1720561548.207404,172.16.3.2,5101,172.16.1.2,30171,10499,14480,0,65728,65700,6,6,4,1460,519,1,992,55,33580,0,65700,0,0,0,0,0
o,0x00000000,1720561548.207441,172.16.3.2,5101,172.16.1.2,30171,10499,14480,0,65728,65700,6,6,4,1460,519,1,993,55,33580,0,65700,1448,0,0,0,0
i,0x00000000,1720561548.247260,172.16.3.2,5101,172.16.1.2,30171,10499,14480,0,65728,65700,6,6,4,1460,519,1,992,55,33580,0,65700,0,0,0,0,0
o,0x00000000,1720561548.249674,10.0.2.15,22,10.0.2.2,49435,1073725440,14600,0,65535,65700,0,0,4,1460,1,0,4,24,33580,108,65700,0,0,0,0,0
i,0x00000000,1720561548.253155,10.0.2.15,22,10.0.2.2,49435,1073725440,14600,0,65535,65700,0,0,4,1460,1,0,4,24,33580,108,65700,0,108,0,0,0
i,0x00000000,1720561548.275667,172.16.3.2,5101,172.16.1.2,30171,10499,14480,0,65728,65700,6,6,4,1460,519,1,992,55,33580,0,65700,0,0,0,0,0
o,0x00000000,1720561548.275705,172.16.3.2,5101,172.16.1.2,30171,10499,14480,0,65728,65700,6,6,4,1460,519,1,993,55,33580,0,65700,1448,0,0,0,0
i,0x00000000,1720561548.296138,172.16.3.2,5101,172.16.1.2,30171,10499,14480,0,65728,65700,6,6,4,1460,519,1,992,55,33580,0,65700,0,0,0,0,0
i,0x00000000,1720561548.309490,172.16.3.2,5101,172.16.1.2,30171,10499,14480,0,65728,65700,6,6,4,1460,519,1,992,55,33580,0,65700,0,0,0,0,0
o,0x00000000,1720561548.309530,172.16.3.2,5101,172.16.1.2,30171,10499,14480,0,65728,65700,6,6,4,1460,519,1,993,55,33580,0,65700,1448,0,0,0,0
i,0x00000000,1720561548.349537,172.16.3.2,5101,172.16.1.2,30171,10499,14480,0,65728,65700,6,6,4,1460,519,1,992,55,33580,0,65700,0,0,0,0,0
i,0x00000000,1720561548.377512,172.16.3.2,5101,172.16.1.2,30171,10499,14480,0,65728,65700,6,6,4,1460,519,1,992,55,33580,0,65700,0,0,0,0,0
o,0x00000000,1720561548.377553,172.16.3.2,5101,172.16.1.2,30171,10499,14480,0,65728,65700,6,6,4,1460,519,1,993,55,33580,0,65700,1448,0,0,0,0
i,0x00000000,1720561548.386357,172.16.3.2,5101,172.16.1.2,30171,10499,14480,0,65728,65700,6,6,4,1460,519,1,992,55,33580,0,65700,0,0,0,0,0
i,0x00000000,1720561548.405216,172.16.3.2,5101,172.16.1.2,30171,10499,14480,0,65728,65700,6,6,4,1460,519,1,992,55,33580,0,65700,0,0,0,0,0
o,0x00000000,1720561548.405229,172.16.3.2,5101,172.16.1.2,30171,10499,14480,0,65728,65700,6,6,4,1460,519,1,993,55,33580,0,65700,1448,0,0,0,0
i,0x00000000,1720561548.436074,172.16.3.2,5101,172.16.1.2,30171,10499,14480,0,65728,65700,6,6,4,1460,519,1,992,55,33580,0,65700,0,0,0,0,0
i,0x00000000,1720561548.459542,172.16.3.2,5101,172.16.1.2,30171,10499,14480,0,65728,65700,6,6,4,1460,519,1,992,55,33580,0,65700,0,0,0,0,0
o,0x00000000,1720561548.459582,172.16.3.2,5101,172.16.1.2,30171,10499,14480,0,65728,65700,6,6,4,1460,519,1,993,55,33580,0,65700,1448,0,0,0,0
i,0x00000000,1720561548.497048,172.16.3.2,5101,172.16.1.2,30171,10499,14480,0,65728,65700,6,6,4,1460,519,1,992,55,33580,0,65700,0,0,0,0,0
i,0x00000000,1720561548.499801,172.16.3.2,5101,172.16.1.2,30171,10499,14480,0,65728,65700,6,6,4,1460,519,1,992,55,33580,0,65700,0,0,0,0,0
o,0x00000000,1720561548.499832,172.16.3.2,5101,172.16.1.2,30171,10499,14480,0,65728,65700,6,6,4,1460,519,1,993,55,33580,0,65700,1448,0,0,0,0
i,0x00000000,1720561548.537928,172.16.3.2,5101,172.16.1.2,30171,10499,14480,0,65728,65700,6,6,4,1460,519,1,992,55,33580,0,65700,0,0,0,0,0
i,0x00000000,1720561548.544089,172.16.3.2,5101,172.16.1.2,30171,10499,14480,0,65728,65700,6,6,4,1460,519,1,992,55,33580,0,65700,0,0,0,0,0
o,0x00000000,1720561548.544102,172.16.3.2,5101,172.16.1.2,30171,10499,14480,0,65728,65700,6,6,4,1460,519,1,993,55,33580,0,65700,1448,0,0,0,0
i,0x00000000,1720561548.583312,172.16.3.2,5101,172.16.1.2,30171,10499,14480,0,65728,65700,6,6,4,1460,519,1,992,55,33580,0,65700,0,0,0,0,0
o,0x00000000,1720561548.617226,172.16.3.2,5101,172.16.1.2,30171,10499,14480,0,65728,65700,6,6,4,1460,519,1,993,55,33580,0,65700,0,0,0,0,0
i,0x00000000,1720561548.640319,172.16.3.2,5101,172.16.1.2,30171,10499,14480,0,65728,65700,6,6,4,1460,519,1,992,55,33580,0,65700,0,0,0,0,0
i,0x00000000,1720561548.651283,172.16.3.2,5101,172.16.1.2,30171,10499,14480,0,65728,65700,6,6,4,1460,519,1,992,55,33580,0,65700,0,0,0,0,0
o,0x00000000,1720561548.651329,172.16.3.2,5101,172.16.1.2,30171,10499,14480,0,65728,65700,6,6,4,1460,519,1,993,55,33580,0,65700,1448,0,0,0,0
i,0x00000000,1720561548.687973,172.16.3.2,5101,172.16.1.2,30171,10499,14480,0,65728,65700,6,6,4,1460,519,1,992,55,33580,0,65700,0,0,0,0,0
i,0x00000000,1720561548.696719,172.16.3.2,5101,172.16.1.2,30171,10499,14480,0,65728,65700,6,6,4,1460,519,1,992,55,33580,0,65700,0,0,0,0,0
o,0x00000000,1720561548.696756,172.16.3.2,5101,172.16.1.2,30171,10499,14480,0,65728,65700,6,6,4,1460,519,1,993,55,33580,0,65700,1448,0,0,0,0
i,0x00000000,1720561548.750007,172.16.3.2,5101,172.16.1.2,30171,10499,14480,0,65728,65700,6,6,4,1460,519,1,992,55,33580,0,65700,0,0,0,0,0
i,0x00000000,1720561548.750045,172.16.3.2,5101,172.16.1.2,30171,10499,14480,0,65728,65700,6,6,4,1460,519,1,992,55,33580,0,65700,1448,0,0,0,0
o,0x00000000,1720561548.750072,172.16.3.2,5101,172.16.1.2,30171,10499,14480,0,65728,65700,6,6,4,1460,519,1,993,55,33580,0,65700,2896,0,0,0,0
i,0x00000000,1720561548.754870,172.16.3.2,5101,172.16.1.2,30171,10499,14480,0,65728,65700,6,6,4,1460,519,1,992,55,33580,0,65700,0,0,0,0,0
o,0x00000000,1720561548.787575,172.16.3.2,5101,172.16.1.2,30171,10499,14480,0,65728,65700,6,6,4,1460,519,1,993,55,33580,0,65700,0,0,0,0,0
i,0x00000000,1720561548.799709,172.16.3.2,5101,172.16.1.2,30171,10499,14480,0,65728,65700,6,6,4,1460,519,1,992,55,33580,0,65700,0,0,0,0,0
i,0x00000000,1720561548.820184,172.16.3.2,5101,172.16.1.2,30171,10499,14480,0,65728,65700,6,6,4,1460,519,1,992,55,33580,0,65700,0,0,0,0,0
o,0x00000000,1720561548.820236,172.16.3.2,5101,172.16.1.2,30171,10499,14480,0,65728,65700,6,6,4,1460,519,1,993,55,33580,0,65700,1448,0,0,0,0
i,0x00000000,1720561548.820858,172.16.3.2,5101,172.16.1.2,30171,10499,14480,0,65728,65700,6,6,4,1460,519,1,992,55,33580,0,65700,1448,0,0,0,0
i,0x00000000,1720561548.846974,172.16.3.2,5101,172.16.1.2,30171,10499,14480,0,65728,65700,6,6,4,1460,519,1,992,55,33580,0,65700,0,0,0,0,0
o,0x00000000,1720561548.847025,172.16.3.2,5101,172.16.1.2,30171,10499,14480,0,65728,65700,6,6,4,1460,519,1,993,55,33580,0,65700,1448,0,0,0,0
i,0x00000000,1720561548.875221,172.16.3.2,5101,172.16.1.2,30171,10499,14480,0,65728,65700,6,6,4,1460,519,1,992,55,33580,0,65700,0,0,0,0,0
o,0x00000000,1720561548.875256,172.16.3.2,5101,172.16.1.2,30171,10499,14480,0,65728,65700,6,6,4,1460,519,1,993,55,33580,0,65700,0,0,1,0,0
i,0x00000000,1720561548.895951,172.16.3.2,5101,172.16.1.2,30171,10499,14480,0,65728,65700,6,6,4,1460,519,1,992,55,33580,0,65700,0,0,1,0,0
o,0x00000000,1720561548.895980,172.16.3.2,5101,172.16.1.2,30171,10499,14480,0,65728,65728,6,6,4,1460,519,1,993,55,33580,0,65700,0,0,1,0,0
i,0x00000000,1720561548.958529,172.16.3.2,5101,172.16.1.2,30171,10499,14480,0,65728,65728,6,6,4,1460,519,1,992,55,33580,0,65700,0,0,1,0,0
o,0x00000000,1720561548.958572,172.16.3.2,5101,172.16.1.2,30171,10499,14480,0,65728,65728,6,6,4,1460,519,1,993,55,33580,0,65700,0,0,1,0,0
i,0x00000000,1720561548.965455,172.16.3.2,5101,172.16.1.2,30171,10499,14480,0,65728,65728,6,6,4,1460,519,1,992,55,33580,0,65700,0,0,1,0,0
o,0x00000000,1720561548.965484,172.16.3.2,5101,172.16.1.2,30171,10499,14480,0,65728,65728,6,6,4,1460,519,1,993,55,33580,0,65700,0,0,1,0,0
i,0x00000000,1720561548.987427,172.16.3.2,5101,172.16.1.2,30171,10499,14480,0,65728,65728,6,6,4,1460,519,1,992,55,33580,0,65700,0,0,1,0,0
o,0x00000000,1720561548.987461,172.16.3.2,5101,172.16.1.2,30171,10499,14480,0,65728,65728,6,6,4,1460,519,1,993,55,33580,0,65700,0,0,1,0,0
i,0x00000000,1720561549.028986,172.16.3.2,5101,172.16.1.2,30171,10499,14480,0,65728,65728,6,6,4,1460,519,1,992,55,33580,0,65700,0,0,1,0,0
o,0x00000000,1720561549.029032,172.16.3.2,5101,172.16.1.2,30171,10499,14480,0,65728,65728,6,6,4,1460,519,1,993,55,33580,0,65700,0,0,1,0,0
i,0x00000000,1720561549.064965,172.16.3.2,5101,172.16.1.2,30171,10499,14480,0,65728,65728,6,6,4,1460,519,1,992,55,33580,0,65700,0,0,1,0,0
o,0x00000000,1720561549.064999,172.16.3.2,5101,172.16.1.2,30171,10499,14480,0,65728,65728,6,6,4,1460,519,1,993,55,33580,0,65700,0,0,1,0,0
i,0x00000000,1720561549.069356,172.16.3.2,5101,172.16.1.2,30171,10499,14480,0,65728,65728,6,6,4,1460,519,1,992,55,33580,0,65700,0,0,1,0,0
o,0x00000000,1720561549.069387,172.16.3.2,5101,172.16.1.2,30171,10499,14480,0,65728,65728,6,6,4,1460,519,1,993,55,33580,0,65700,0,0,1,0,0
i,0x00000000,1720561549.075436,172.16.3.2,5101,172.16.1.2,30171,10499,14480,0,65728,65728,6,6,4,1460,519,1,992,55,33580,0,65700,0,0,1,0,0
o,0x00000000,1720561549.075453,172.16.3.2,5101,172.16.1.2,30171,10499,14480,0,65728,65728,6,6,4,1460,519,1,993,55,33580,0,65700,0,0,1,0,0
i,0x00000000,1720561549.115267,172.16.3.2,5101,172.16.1.2,30171,10499,14480,0,65728,65728,6,6,4,1460,519,1,992,55,33580,0,65700,0,0,1,0,0
o,0x00000000,1720561549.115301,172.16.3.2,5101,172.16.1.2,30171,10499,14480,0,65728,65728,6,6,4,1460,519,1,993,55,33580,0,65700,0,0,2,0,0
i,0x00000000,1720561549.133967,172.16.3.2,5101,172.16.1.2,30171,10499,14480,0,65728,65728,6,6,4,1460,519,1,992,55,33580,0,65700,0,0,2,0,0
o,0x00000000,1720561549.134001,172.16.3.2,5101,172.16.1.2,30171,10499,14480,0,65728,65728,6,6,4,1460,519,1,993,55,33580,0,65700,0,0,2,0,0
i,0x00000000,1720561549.138708,172.16.3.2,5101,172.16.1.2,30171,10499,14480,0,65728,65728,6,6,4,1460,519,1,992,55,33580,0,65700,0,0,2,0,0
o,0x00000000,1720561549.138743,172.16.3.2,5101,172.16.1.2,30171,10499,14480,0,65728,65728,6,6,4,1460,519,1,993,55,33580,0,65700,0,0,2,0,0
i,0x00000000,1720561549.158473,172.16.3.2,5101,172.16.1.2,30171,10499,14480,0,65728,65728,6,6,4,1460,519,1,992,55,33580,0,65700,0,0,2,0,0
o,0x00000000,1720561549.158505,172.16.3.2,5101,172.16.1.2,30171,10499,14480,0,65728,65728,6,6,4,1460,519,1,993,55,33580,0,65700,0,0,3,0,0
i,0x00000000,1720561549.178649,172.16.3.2,5101,172.16.1.2,30171,10499,14480,0,65728,65728,6,6,4,1460,519,1,992,55,33580,0,65700,0,0,3,0,0
o,0x00000000,1720561549.178687,172.16.3.2,5101,172.16.1.2,30171,10499,14480,0,65728,65728,6,6,4,1460,519,1,993,55,33580,0,65700,0,0,4,0,0
i,0x00000000,1720561549.207052,172.16.3.2,5101,172.16.1.2,30171,10499,14480,0,65728,65728,6,6,4,1460,519,1,992,55,33580,0,65700,0,0,4,0,0
o,0x00000000,1720561549.207089,172.16.3.2,5101,172.16.1.2,30171,10499,14480,0,65728,65728,6,6,4,1460,519,1,993,55,33580,0,65700,14480,0,3,0,0
i,0x00000000,1720561549.231463,172.16.3.2,5101,172.16.1.2,30171,10499,14480,0,65728,65728,6,6,4,1460,519,1,992,55,33580,0,65700,0,0,3,0,0
o,0x00000000,1720561549.231508,172.16.3.2,5101,172.16.1.2,30171,10499,14480,0,65728,65700,6,6,4,1460,519,1,993,55,33580,0,65700,0,0,3,0,0
o,0x00000000,1720561549.248058,10.0.2.15,22,10.0.2.2,49435,1073725440,14600,0,65535,65700,0,0,4,1460,1,0,4,24,33580,108,65700,0,0,0,0,0
i,0x00000000,1720561549.249268,10.0.2.15,22,10.0.2.2,49435,1073725440,14600,0,65535,65700,0,0,4,1460,1,0,4,24,33580,108,65700,0,108,0,0,0
i,0x00000000,1720561549.269049,172.16.3.2,5101,172.16.1.2,30171,10499,14480,0,65728,65700,6,6,4,1460,519,1,992,55,33580,0,65700,0,0,3,0,0
o,0x00000000,1720561549.269090,172.16.3.2,5101,172.16.1.2,30171,10499,14480,0,65728,65728,6,6,4,1460,519,1,993,55,33580,0,65700,0,0,3,0,0
i,0x00000000,1720561549.277152,172.16.3.2,5101,172.16.1.2,30171,10499,14480,0,65728,65728,6,6,4,1460,519,1,992,55,33580,0,65700,0,0,3,0,0
o,0x00000000,1720561549.277188,172.16.3.2,5101,172.16.1.2,30171,10499,14480,0,65728,65728,6,6,4,1460,519,1,993,55,33580,0,65700,0,0,3,0,0
i,0x00000000,1720561549.299255,172.16.3.2,5101,172.16.1.2,30171,10499,14480,0,65728,65728,6,6,4,1460,519,1,992,55,33580,0,65700,0,0,3,0,0
o,0x00000000,1720561549.299312,172.16.3.2,5101,172.16.1.2,30171,10499,14480,0,65728,65728,6,6,4,1460,519,1,993,55,33580,0,65700,5792,0,2,0,0
i,0x00000000,1720561549.355748,172.16.3.2,5101,172.16.1.2,30171,10499,14480,0,65728,65728,6,6,4,1460,519,1,992,55,33580,0,65700,0,0,2,0,0
o,0x00000000,1720561549.355763,172.16.3.2,5101,172.16.1.2,30171,10499,14480,0,65728,65700,6,6,4,1460,519,1,993,55,33580,0,65700,2896,0,1,0,0
i,0x00000000,1720561549.385103,172.16.3.2,5101,172.16.1.2,30171,10499,14480,0,65728,65700,6,6,4,1460,519,1,992,55,33580,0,65700,0,0,1,0,0
o,0x00000000,1720561549.385146,172.16.3.2,5101,172.16.1.2,30171,10499,14480,0,65728,65700,6,6,4,1460,519,1,993,55,33580,0,65700,0,0,1,0,0
i,0x00000000,1720561549.395200,172.16.3.2,5101,172.16.1.2,30171,10499,14480,0,65728,65700,6,6,4,1460,519,1,992,55,33580,0,65700,0,0,1,0,0
o,0x00000000,1720561549.395216,172.16.3.2,5101,172.16.1.2,30171,10499,14480,0,65728,65728,6,6,4,1460,519,1,993,55,33580,0,65700,0,0,1,0,0
i,0x00000000,1720561549.424058,172.16.3.2,5101,172.16.1.2,30171,10499,14480,0,65728,65728,6,6,4,1460,519,1,992,55,33580,0,65700,0,0,1,0,0
o,0x00000000,1720561549.424072,172.16.3.2,5101,172.16.1.2,30171,10499,14480,0,65728,65728,6,6,4,1460,519,1,993,55,33580,0,65700,0,0,1,0,0
i,0x00000000,1720561549.446795,172.16.3.2,5101,172.16.1.2,30171,10499,14480,0,65728,65728,6,6,4,1460,519,1,992,55,33580,0,65700,0,0,1,0,0
o,0x00000000,1720561549.446829,172.16.3.2,5101,172.16.1.2,30171,10499,14480,0,65728,65728,6,6,4,1460,519,1,993,55,33580,0,65700,0,0,1,0,0
i,0x00000000,1720561549.459276,172.16.3.2,5101,172.16.1.2,30171,10499,14480,0,65728,65728,6,6,4,1460,519,1,992,55,33580,0,65700,0,0,1,0,0
o,0x00000000,1720561549.459311,172.16.3.2,5101,172.16.1.2,30171,10499,14480,0,65728,65728,6,6,4,1460,519,1,993,55,33580,0,65700,0,0,1,0,0
i,0x00000000,1720561549.467589,172.16.3.2,5101,172.16.1.2,30171,10499,14480,0,65728,65728,6,6,4,1460,519,1,992,55,33580,0,65700,0,0,1,0,0
o,0x00000000,1720561549.467621,172.16.3.2,5101,172.16.1.2,30171,10499,14480,0,65728,65728,6,6,4,1460,519,1,993,55,33580,0,65700,0,0,1,0,0
i,0x00000000,1720561549.521757,172.16.3.2,5101,172.16.1.2,30171,10499,14480,0,65728,65728,6,6,4,1460,519,1,992,55,33580,0,65700,0,0,1,0,0
o,0x00000000,1720561549.521791,172.16.3.2,5101,172.16.1.2,30171,10499,14480,0,65728,65728,6,6,4,1460,519,1,993,55,33580,0,65700,0,0,1,0,0
i,0x00000000,1720561549.547169,172.16.3.2,5101,172.16.1.2,30171,10499,14480,0,65728,65728,6,6,4,1460,519,1,992,55,33580,0,65700,0,0,1,0,0
o,0x00000000,1720561549.547205,172.16.3.2,5101,172.16.1.2,30171,10499,14480,0,65728,65728,6,6,4,1460,519,1,993,55,33580,0,65700,0,0,1,0,0
