enable_time_secs=1716772340	enable_time_usecs=097638	siftrver=1.2.4	hz=100	tcp_rtt_scale=32	sysname=FreeBSD	sysver=1301000	ipmode=4
o,0x00000000,1716772340.097672,10.0.2.15,22,10.0.2.2,53734,1073725440,17298,0,65535,65700,0,0,4,1460,1,0,4,24,33580,44,65700,0,0,0,0,0
o,0x00000000,1716772340.097778,10.0.2.15,22,10.0.2.2,53734,1073725440,17298,0,65535,65700,0,0,4,1460,1,0,4,24,33580,80,65700,0,44,0,0,0
i,0x00000000,1716772340.098617,10.0.2.15,22,10.0.2.2,53734,1073725440,17298,0,65535,65700,0,0,4,1460,1,0,4,24,33580,80,65700,0,80,0,0,0
i,0x00000000,1716772340.098689,10.0.2.15,22,10.0.2.2,53734,1073725440,17342,0,65535,65700,0,0,4,1460,1,0,4,24,33580,36,65700,0,36,0,0,0
o,0x00000000,1716772340.098863,10.0.2.15,22,10.0.2.2,53734,1073725440,17378,0,65535,65700,0,0,4,1460,1,0,4,24,33580,36,65700,0,0,0,0,0
i,0x00000000,1716772340.099261,10.0.2.15,22,10.0.2.2,53734,1073725440,17378,0,65535,65700,0,0,4,1460,1,0,4,24,33580,36,65700,0,36,0,0,0
o,0x00000000,1716772340.099468,10.0.2.15,22,10.0.2.2,53734,1073725440,17414,0,65535,65700,0,0,4,1460,1,0,4,24,33580,176,65700,0,0,0,0,0
i,0x00000000,1716772340.099873,10.0.2.15,22,10.0.2.2,53734,1073725440,17414,0,65535,65700,0,0,4,1460,1,0,4,24,33580,176,65700,0,176,0,0,0
i,0x00000000,1716772340.101380,10.0.2.15,22,10.0.2.2,53734,1073725440,17590,0,65535,65700,0,0,4,1460,1,0,4,24,33580,0,65700,0,0,0,0,0
i,0x00000000,1716772340.102125,10.0.2.15,22,10.0.2.2,53734,1073725440,17590,0,65535,65700,0,0,4,1460,1,0,4,24,33580,0,65700,0,0,0,0,0
o,0x00000000,1716772340.102130,10.0.2.15,22,10.0.2.2,53734,1073725440,17590,0,65535,65700,0,0,4,1460,1,0,5,24,33580,0,65700,60,0,0,0,0
i,0x00000000,1716772340.102212,10.0.2.15,22,10.0.2.2,53734,1073725440,17590,0,65535,65700,0,0,4,1460,1,0,4,24,33580,0,65700,60,0,0,0,0
o,0x00000000,1716772340.102216,10.0.2.15,22,10.0.2.2,53734,1073725440,17590,0,65535,65640,0,0,5,1460,1,0,7,24,33580,0,65700,60,0,0,0,0
o,0x00000000,1716772340.102850,10.0.2.15,22,10.0.2.2,53734,1073725440,17590,0,65535,65640,0,0,8,1460,1,0,4,24,33580,0,65700,0,0,0,0,0
i,0x00000000,1716772340.103293,10.0.2.15,22,10.0.2.2,53734,1073725440,17590,0,65535,65640,0,0,8,1460,1,0,20,24,33580,0,65700,0,1,0,0,0
i,0x00000000,1716772342.273961,10.0.2.15,22,10.0.2.2,53739,1073725440,14600,0,65535,65700,0,0,4,1460,1,0,0,27,33580,0,65700,0,0,0,0,0
o,0x00000000,1716772342.280343,10.0.2.15,22,10.0.2.2,53739,1073725440,14600,0,65535,65700,0,0,4,1460,1,0,0,27,33580,38,65700,41,0,0,0,0
i,0x00000000,1716772342.280969,10.0.2.15,22,10.0.2.2,53739,1073725440,14600,0,65535,65700,0,0,4,1460,1,0,0,27,33580,38,65700,0,38,0,0,0
i,0x00000000,1716772342.281710,10.0.2.15,22,10.0.2.2,53739,1073725440,14638,0,65535,65700,0,0,4,1460,1,0,0,23,33580,0,65700,0,0,0,0,0
i,0x00000000,1716772342.281714,10.0.2.15,22,10.0.2.2,53739,1073725440,14638,0,65535,65700,0,0,4,1460,1,0,0,23,33580,0,65700,1460,0,0,0,0
o,0x00000000,1716772342.281717,10.0.2.15,22,10.0.2.2,53739,1073725440,14638,0,65535,65700,0,0,4,1460,1,0,1,23,33580,0,65700,1536,0,0,0,0
o,0x00000000,1716772342.282348,10.0.2.15,22,10.0.2.2,53739,1073725440,14638,0,65535,65700,0,0,4,1460,1,0,0,23,33580,1056,65700,1536,0,0,0,0
i,0x00000000,1716772342.283010,10.0.2.15,22,10.0.2.2,53739,1073725440,14638,0,65535,65700,0,0,4,1460,1,0,0,23,33580,1056,65700,1536,1056,0,0,0
i,0x00000000,1716772342.284596,10.0.2.15,22,10.0.2.2,53739,1073725440,15694,0,65535,65700,0,0,4,1460,1,0,0,24,33580,0,65700,0,0,0,0,0
o,0x00000000,1716772342.287087,10.0.2.15,22,10.0.2.2,53739,1073725440,15694,0,65535,65700,0,0,4,1460,1,0,0,24,33580,484,65700,0,0,0,0,0
i,0x00000000,1716772342.288417,10.0.2.15,22,10.0.2.2,53739,1073725440,15694,0,65535,65700,0,0,4,1460,1,0,0,24,33580,484,65700,0,484,0,0,0
i,0x00000000,1716772342.293158,10.0.2.15,22,10.0.2.2,53739,1073725440,16178,0,65535,65700,0,0,4,1460,1,0,0,24,33580,0,65700,0,0,0,0,0
i,0x00000000,1716772342.297658,10.0.2.15,22,10.0.2.2,53739,1073725440,16178,0,65535,65700,0,0,4,1460,1,0,0,24,33580,0,65700,0,0,0,0,0
o,0x00000000,1716772342.297663,10.0.2.15,22,10.0.2.2,53739,1073725440,16178,0,65535,65700,0,0,4,1460,1,0,1,24,33580,0,65700,44,0,0,0,0
o,0x00000000,1716772342.297807,10.0.2.15,22,10.0.2.2,53739,1073725440,16178,0,65535,65700,0,0,4,1460,1,0,0,24,33580,44,65700,0,0,0,0,0
i,0x00000000,1716772342.298216,10.0.2.15,22,10.0.2.2,53739,1073725440,16178,0,65535,65700,0,0,4,1460,1,0,0,24,33580,44,65700,0,44,0,0,0
i,0x00000000,1716772342.298885,10.0.2.15,22,10.0.2.2,53739,1073725440,16222,0,65535,65700,0,0,4,1460,1,0,0,24,33580,0,65700,0,0,0,0,0
o,0x00000000,1716772342.308783,10.0.2.15,22,10.0.2.2,53739,1073725440,16222,0,65535,65700,0,0,4,1460,1,0,0,24,33580,68,65700,0,0,0,0,0
i,0x00000000,1716772342.309294,10.0.2.15,22,10.0.2.2,53739,1073725440,16222,0,65535,65700,0,0,4,1460,1,0,0,24,33580,68,65700,0,68,0,0,0
i,0x00000000,1716772342.311628,10.0.2.15,22,10.0.2.2,53739,1073725440,16290,0,65535,65700,0,0,4,1460,1,0,0,24,33580,0,65700,0,0,0,0,0
o,0x00000000,1716772342.321286,10.0.2.15,22,10.0.2.2,53739,1073725440,16290,0,65535,65700,0,0,4,1460,1,0,0,24,33580,28,65700,0,0,0,0,0
i,0x00000000,1716772342.321968,10.0.2.15,22,10.0.2.2,53739,1073725440,16290,0,65535,65700,0,0,4,1460,1,0,0,24,33580,28,65700,0,28,0,0,0
i,0x00000000,1716772342.322353,10.0.2.15,22,10.0.2.2,53739,1073725440,16318,0,65535,65700,0,0,4,1460,1,0,0,24,33580,0,65700,0,0,0,0,0
o,0x00000000,1716772342.323260,10.0.2.15,22,10.0.2.2,53739,1073725440,16318,0,65535,65700,0,0,4,1460,1,0,0,24,33580,768,65700,112,0,0,0,0
i,0x00000000,1716772342.323975,10.0.2.15,22,10.0.2.2,53739,1073725440,16318,0,65535,65700,0,0,4,1460,1,0,0,24,33580,768,65700,112,768,0,0,0
o,0x00000000,1716772342.324124,10.0.2.15,22,10.0.2.2,53739,1073725440,17086,0,65535,65700,0,0,4,1460,1,0,0,24,33580,44,65700,0,0,0,0,0
i,0x00000000,1716772342.324529,10.0.2.15,22,10.0.2.2,53739,1073725440,17086,0,65535,65700,0,0,4,1460,1,0,0,24,33580,44,65700,0,44,0,0,0
i,0x00000000,1716772342.325460,10.0.2.15,22,10.0.2.2,53739,1073725440,17130,0,65535,65700,0,0,4,1460,1,0,0,24,33580,0,65700,0,0,0,0,0
o,0x00000000,1716772342.325815,10.0.2.15,22,10.0.2.2,53739,1073725440,17130,0,65535,65700,0,0,4,1460,1,0,4,24,33580,72,65700,0,0,0,0,0
i,0x00000000,1716772342.326642,10.0.2.15,22,10.0.2.2,53739,1073725440,17130,0,65535,65700,0,0,4,1460,1,0,4,24,33580,72,65700,0,72,0,0,0
o,0x00000000,1716772342.329258,10.0.2.15,22,10.0.2.2,53739,1073725440,17202,0,65535,65700,0,0,4,1460,1,0,4,24,33580,44,65700,0,0,0,0,0
i,0x00000000,1716772342.329781,10.0.2.15,22,10.0.2.2,53739,1073725440,17202,0,65535,65700,0,0,4,1460,1,0,4,24,33580,44,65700,0,44,0,0,0
o,0x00000000,1716772342.330326,10.0.2.15,22,10.0.2.2,53739,1073725440,17246,0,65535,65700,0,0,4,1460,1,0,4,24,33580,44,65700,0,0,0,0,0
i,0x00000000,1716772342.330812,10.0.2.15,22,10.0.2.2,53739,1073725440,17246,0,65535,65700,0,0,4,1460,1,0,4,24,33580,44,65700,0,44,0,0,0
o,0x00000000,1716772342.334265,10.0.2.15,22,10.0.2.2,53739,1073725440,17290,0,65535,65700,0,0,4,1460,1,0,4,24,33580,176,65700,0,0,0,0,0
i,0x00000000,1716772342.335299,10.0.2.15,22,10.0.2.2,53739,1073725440,17290,0,65535,65700,0,0,4,1460,1,0,4,24,33580,176,65700,0,176,0,0,0
i,0x00000000,1716772342.336153,10.0.2.15,22,10.0.2.2,53739,1073725440,17466,0,65535,65700,0,0,4,1460,1,0,4,24,33580,0,65700,0,0,0,0,0
i,0x00000000,1716772342.336155,10.0.2.15,22,10.0.2.2,53739,1073725440,17466,0,65535,65700,0,0,4,1460,1,0,4,24,33580,0,65700,36,0,0,0,0
o,0x00000000,1716772342.336157,10.0.2.15,22,10.0.2.2,53739,1073725440,17466,0,65535,65700,0,0,4,1460,1,0,5,24,33580,0,65700,96,0,0,0,0
i,0x00000000,1716772342.336235,10.0.2.15,22,10.0.2.2,53739,1073725440,17466,0,65535,65700,0,0,4,1460,1,0,4,24,33580,0,65700,96,0,0,0,0
o,0x00000000,1716772342.336238,10.0.2.15,22,10.0.2.2,53739,1073725440,17466,0,65535,65604,0,0,5,1460,1,0,7,24,33580,0,65700,96,0,0,0,0
o,0x00000000,1716772342.341853,10.0.2.15,22,10.0.2.2,53739,1073725440,17466,0,65535,65604,0,0,8,1460,1,0,4,24,33580,0,65700,0,0,0,0,0
i,0x00000000,1716772342.342700,10.0.2.15,22,10.0.2.2,53739,1073725440,17466,0,65535,65604,0,0,8,1460,1,0,20,24,33580,0,65700,0,1,0,0,0
i,0x00000000,1716772342.343182,10.0.2.15,22,10.0.2.2,53740,1073725440,14600,0,65535,65700,0,0,4,1460,1,0,0,27,33580,0,65700,0,0,0,0,0
o,0x00000000,1716772342.350134,10.0.2.15,22,10.0.2.2,53740,1073725440,14600,0,65535,65700,0,0,4,1460,1,0,0,27,33580,38,65700,41,0,0,0,0
i,0x00000000,1716772342.350788,10.0.2.15,22,10.0.2.2,53740,1073725440,14600,0,65535,65700,0,0,4,1460,1,0,0,27,33580,38,65700,0,38,0,0,0
i,0x00000000,1716772342.351396,10.0.2.15,22,10.0.2.2,53740,1073725440,14638,0,65535,65700,0,0,4,1460,1,0,0,24,33580,0,65700,0,0,0,0,0
i,0x00000000,1716772342.351399,10.0.2.15,22,10.0.2.2,53740,1073725440,14638,0,65535,65700,0,0,4,1460,1,0,0,24,33580,0,65700,1460,0,0,0,0
o,0x00000000,1716772342.351402,10.0.2.15,22,10.0.2.2,53740,1073725440,14638,0,65535,65700,0,0,4,1460,1,0,1,24,33580,0,65700,1536,0,0,0,0
o,0x00000000,1716772342.352521,10.0.2.15,22,10.0.2.2,53740,1073725440,14638,0,65535,65700,0,0,4,1460,1,0,0,24,33580,1056,65700,1536,0,0,0,0
i,0x00000000,1716772342.353325,10.0.2.15,22,10.0.2.2,53740,1073725440,14638,0,65535,65700,0,0,4,1460,1,0,0,24,33580,1056,65700,1536,1056,0,0,0
i,0x00000000,1716772342.354593,10.0.2.15,22,10.0.2.2,53740,1073725440,15694,0,65535,65700,0,0,4,1460,1,0,0,24,33580,0,65700,0,0,0,0,0
o,0x00000000,1716772342.359335,10.0.2.15,22,10.0.2.2,53740,1073725440,15694,0,65535,65700,0,0,4,1460,1,0,0,24,33580,484,65700,0,0,0,0,0
i,0x00000000,1716772342.360181,10.0.2.15,22,10.0.2.2,53740,1073725440,15694,0,65535,65700,0,0,4,1460,1,0,0,24,33580,484,65700,0,484,0,0,0
i,0x00000000,1716772342.365161,10.0.2.15,22,10.0.2.2,53740,1073725440,16178,0,65535,65700,0,0,4,1460,1,0,0,24,33580,0,65700,0,0,0,0,0
i,0x00000000,1716772342.369255,10.0.2.15,22,10.0.2.2,53740,1073725440,16178,0,65535,65700,0,0,4,1460,1,0,0,24,33580,0,65700,0,0,0,0,0
o,0x00000000,1716772342.369259,10.0.2.15,22,10.0.2.2,53740,1073725440,16178,0,65535,65700,0,0,4,1460,1,0,1,24,33580,0,65700,44,0,0,0,0
o,0x00000000,1716772342.369401,10.0.2.15,22,10.0.2.2,53740,1073725440,16178,0,65535,65700,0,0,4,1460,1,0,0,24,33580,44,65700,0,0,0,0,0
i,0x00000000,1716772342.370070,10.0.2.15,22,10.0.2.2,53740,1073725440,16178,0,65535,65700,0,0,4,1460,1,0,0,24,33580,44,65700,0,44,0,0,0
i,0x00000000,1716772342.370436,10.0.2.15,22,10.0.2.2,53740,1073725440,16222,0,65535,65700,0,0,4,1460,1,0,0,24,33580,0,65700,0,0,0,0,0
o,0x00000000,1716772342.379610,10.0.2.15,22,10.0.2.2,53740,1073725440,16222,0,65535,65700,0,0,4,1460,1,0,0,24,33580,68,65700,0,0,0,0,0
i,0x00000000,1716772342.380110,10.0.2.15,22,10.0.2.2,53740,1073725440,16222,0,65535,65700,0,0,4,1460,1,0,0,24,33580,68,65700,0,68,0,0,0
i,0x00000000,1716772342.382407,10.0.2.15,22,10.0.2.2,53740,1073725440,16290,0,65535,65700,0,0,4,1460,1,0,0,24,33580,0,65700,0,0,0,0,0
o,0x00000000,1716772342.391711,10.0.2.15,22,10.0.2.2,53740,1073725440,16290,0,65535,65700,0,0,4,1460,1,0,0,24,33580,28,65700,0,0,0,0,0
i,0x00000000,1716772342.392134,10.0.2.15,22,10.0.2.2,53740,1073725440,16290,0,65535,65700,0,0,4,1460,1,0,0,24,33580,28,65700,0,28,0,0,0
i,0x00000000,1716772342.392707,10.0.2.15,22,10.0.2.2,53740,1073725440,16318,0,65535,65700,0,0,4,1460,1,0,0,24,33580,0,65700,0,0,0,0,0
o,0x00000000,1716772342.393434,10.0.2.15,22,10.0.2.2,53740,1073725440,16318,0,65535,65700,0,0,4,1460,1,0,0,24,33580,768,65700,112,0,0,0,0
i,0x00000000,1716772342.393896,10.0.2.15,22,10.0.2.2,53740,1073725440,16318,0,65535,65700,0,0,4,1460,1,0,0,24,33580,768,65700,112,768,0,0,0
o,0x00000000,1716772342.394005,10.0.2.15,22,10.0.2.2,53740,1073725440,17086,0,65535,65700,0,0,4,1460,1,0,0,24,33580,44,65700,0,0,0,0,0
i,0x00000000,1716772342.394486,10.0.2.15,22,10.0.2.2,53740,1073725440,17086,0,65535,65700,0,0,4,1460,1,0,0,24,33580,44,65700,0,44,0,0,0
i,0x00000000,1716772342.395532,10.0.2.15,22,10.0.2.2,53740,1073725440,17130,0,65535,65700,0,0,4,1460,1,0,0,24,33580,0,65700,0,0,0,0,0
o,0x00000000,1716772342.395841,10.0.2.15,22,10.0.2.2,53740,1073725440,17130,0,65535,65700,0,0,4,1460,1,0,4,24,33580,72,65700,0,0,0,0,0
i,0x00000000,1716772342.396650,10.0.2.15,22,10.0.2.2,53740,1073725440,17130,0,65535,65700,0,0,4,1460,1,0,4,24,33580,72,65700,0,72,0,0,0
i,0x00000000,1716772342.397223,10.0.2.15,22,10.0.2.2,53740,1073725440,17202,0,65535,65700,0,0,4,1460,1,0,4,24,33580,0,65700,0,0,0,0,0
o,0x00000000,1716772342.401103,172.16.1.2,19050,172.16.3.2,5101,1073725440,1073725440,0,0,0,0,0,2,536,0,1,672,100,32768,0,65536,0,0,0,0,0
o,0x00000000,1716772342.437334,10.0.2.15,22,10.0.2.2,53740,1073725440,17202,0,65535,65700,0,0,4,1460,1,0,5,24,33580,0,65700,0,0,0,0,0
i,0x00000000,1716772342.513493,172.16.1.2,19050,172.16.3.2,5101,1073725440,1073725440,0,0,0,0,0,2,536,0,1,672,100,32768,0,65536,0,1,0,0,0
o,0x00000000,1716772342.513511,172.16.1.2,19050,172.16.3.2,5101,33867,14480,0,65535,65700,6,6,4,1460,844,1,993,120,33580,0,65700,0,0,0,0,0
o,0x00000000,1716772342.513913,172.16.1.2,19050,172.16.3.2,5101,33867,14480,0,65535,65700,6,6,4,1460,844,1,996,120,33580,37,65700,0,0,0,0,0
i,0x00000000,1716772342.634179,172.16.1.2,19050,172.16.3.2,5101,33867,14480,0,65535,65700,6,6,4,1460,844,1,996,120,33580,37,65700,0,37,0,0,0
o,0x00000000,1716772342.634328,172.16.1.2,19050,172.16.3.2,5101,33867,14517,0,65728,65728,6,6,4,1460,787,1,996,114,33580,4,65700,0,0,0,0,0
o,0x00000000,1716772342.634722,172.16.1.2,19050,172.16.3.2,5101,33867,14517,0,65728,65728,6,6,4,1460,787,1,996,114,33580,128,65700,0,4,0,0,0
i,0x00000000,1716772342.754356,172.16.1.2,19050,172.16.3.2,5101,33867,14517,0,65728,65728,6,6,4,1460,787,1,996,114,33580,128,65700,0,128,0,0,0
i,0x00000000,1716772342.754370,172.16.1.2,19050,172.16.3.2,5101,33867,14645,0,65600,65728,6,6,4,1460,737,1,996,108,33580,0,65700,0,0,0,0,0
o,0x00000000,1716772342.754501,172.16.1.2,30595,172.16.3.2,5101,1073725440,1073725440,0,0,0,0,0,2,536,0,1,672,100,32768,0,65536,0,0,0,0,0
o,0x00000000,1716772342.786859,172.16.1.2,19050,172.16.3.2,5101,33867,14645,0,65728,65728,6,6,4,1460,737,1,997,108,33580,0,65700,0,0,0,0,0
i,0x00000000,1716772342.874567,172.16.1.2,30595,172.16.3.2,5101,1073725440,1073725440,0,0,0,0,0,2,536,0,1,672,100,32768,0,65536,0,1,0,0,0
o,0x00000000,1716772342.874588,172.16.1.2,30595,172.16.3.2,5101,33867,14480,0,65535,65700,6,6,4,1460,844,1,993,120,33580,0,65700,0,0,0,0,0
o,0x00000000,1716772342.874738,172.16.1.2,30595,172.16.3.2,5101,33867,14480,0,65535,65700,6,6,4,1460,844,1,992,120,33580,37,65700,0,0,0,0,0
i,0x00000000,1716772342.994394,172.16.1.2,19050,172.16.3.2,5101,33867,14645,0,65728,65728,6,6,4,1460,737,1,996,108,33580,0,65700,0,0,0,0,0
i,0x00000000,1716772342.994407,172.16.1.2,19050,172.16.3.2,5101,33867,14645,0,65728,65728,6,6,4,1460,737,1,996,108,33580,0,65700,1,0,0,0,0
o,0x00000000,1716772342.994414,172.16.1.2,19050,172.16.3.2,5101,33867,14645,0,65728,65728,6,6,4,1460,737,1,997,108,33580,0,65700,2,0,0,0,0
o,0x00000000,1716772342.994706,172.16.1.2,30595,172.16.3.2,5101,33867,14480,0,65535,65700,6,6,4,1460,844,1,992,120,33580,33580,65700,0,37,0,0,0
o,0x00000000,1716772342.995112,172.16.1.2,30595,172.16.3.2,5101,33867,14480,0,65535,65700,6,6,4,1460,844,1,992,120,33580,33580,65700,0,1485,0,0,0
o,0x00000000,1716772342.995430,172.16.1.2,30595,172.16.3.2,5101,33867,14480,0,65535,65700,6,6,4,1460,844,1,992,120,33580,33580,65700,0,2933,0,0,0
o,0x00000000,1716772342.995905,172.16.1.2,30595,172.16.3.2,5101,33867,14480,0,65535,65700,6,6,4,1460,844,1,992,120,33580,33580,65700,0,4381,0,0,0
o,0x00000000,1716772342.996229,172.16.1.2,30595,172.16.3.2,5101,33867,14480,0,65535,65700,6,6,4,1460,844,1,992,120,33580,33580,65700,0,5829,0,0,0
o,0x00000000,1716772342.996643,172.16.1.2,30595,172.16.3.2,5101,33867,14480,0,65535,65700,6,6,4,1460,844,1,992,120,33580,33580,65700,0,7277,0,0,0
o,0x00000000,1716772342.997038,172.16.1.2,30595,172.16.3.2,5101,33867,14480,0,65535,65700,6,6,4,1460,844,1,992,120,33580,33580,65700,0,8725,0,0,0
o,0x00000000,1716772342.997394,172.16.1.2,30595,172.16.3.2,5101,33867,14480,0,65535,65700,6,6,4,1460,844,1,992,120,33580,33580,65700,0,10173,0,0,0
o,0x00000000,1716772342.997715,172.16.1.2,30595,172.16.3.2,5101,33867,14480,0,65535,65700,6,6,4,1460,844,1,992,120,33580,33580,65700,0,11621,0,0,0
i,0x00000000,1716772343.024680,172.16.1.2,30595,172.16.3.2,5101,33867,14480,0,65535,65700,6,6,4,1460,844,1,992,120,33580,33580,65700,0,13069,0,0,0
o,0x00000000,1716772343.024692,172.16.1.2,30595,172.16.3.2,5101,33867,14517,0,65728,65728,6,6,4,1460,799,1,992,112,33580,33543,65700,0,13032,0,0,0
i,0x00000000,1716772343.294682,172.16.1.2,30595,172.16.3.2,5101,33867,14517,0,65728,65728,6,6,4,1460,799,1,992,112,33580,33543,65700,0,14480,0,0,0
o,0x00000000,1716772343.294702,172.16.1.2,30595,172.16.3.2,5101,33867,17413,0,64256,65728,6,6,4,1460,820,1,992,101,33580,30647,65700,0,11584,0,0,0
o,0x00000000,1716772343.294796,172.16.1.2,30595,172.16.3.2,5101,33867,17413,0,64256,65728,6,6,4,1460,820,1,992,101,33580,30647,65700,0,13032,0,0,0
o,0x00000000,1716772343.294890,172.16.1.2,30595,172.16.3.2,5101,33867,17413,0,64256,65728,6,6,4,1460,820,1,992,101,41772,30647,65700,0,14480,0,0,0
o,0x00000000,1716772343.294973,172.16.1.2,30595,172.16.3.2,5101,33867,17413,0,64256,65728,6,6,4,1460,820,1,992,101,41772,30647,65700,0,15928,0,0,0
i,0x00000000,1716772343.295086,172.16.1.2,30595,172.16.3.2,5101,33867,17413,0,64256,65728,6,6,4,1460,820,1,992,101,41772,30647,65700,0,17376,0,0,0
o,0x00000000,1716772343.295090,172.16.1.2,30595,172.16.3.2,5101,33867,20309,0,64256,65728,6,6,4,1460,838,1,992,92,41772,27751,65700,0,14480,0,0,0
o,0x00000000,1716772343.295169,172.16.1.2,30595,172.16.3.2,5101,33867,20309,0,64256,65728,6,6,4,1460,838,1,992,92,41772,27751,65700,0,15928,0,0,0
o,0x00000000,1716772343.295262,172.16.1.2,30595,172.16.3.2,5101,33867,20309,0,64256,65728,6,6,4,1460,838,1,992,92,41772,27751,65700,0,17376,0,0,0
o,0x00000000,1716772343.295351,172.16.1.2,30595,172.16.3.2,5101,33867,20309,0,64256,65728,6,6,4,1460,838,1,992,92,41772,27751,65700,0,18824,0,0,0
i,0x00000000,1716772343.295440,172.16.1.2,30595,172.16.3.2,5101,33867,20309,0,64256,65728,6,6,4,1460,838,1,992,92,41772,27751,65700,0,20272,0,0,0
o,0x00000000,1716772343.295442,172.16.1.2,30595,172.16.3.2,5101,33867,23205,0,64256,65728,6,6,4,1460,850,1,992,84,41772,24855,65700,0,17376,0,0,0
o,0x00000000,1716772343.295775,172.16.1.2,30595,172.16.3.2,5101,33867,23205,0,64256,65728,6,6,4,1460,850,1,992,84,41772,24855,65700,0,18824,0,0,0
o,0x00000000,1716772343.295849,172.16.1.2,30595,172.16.3.2,5101,33867,23205,0,64256,65728,6,6,4,1460,850,1,992,84,41772,24855,65700,0,20272,0,0,0
o,0x00000000,1716772343.295932,172.16.1.2,30595,172.16.3.2,5101,33867,23205,0,64256,65728,6,6,4,1460,850,1,992,84,41772,24855,65700,0,21720,0,0,0
i,0x00000000,1716772343.296213,172.16.1.2,30595,172.16.3.2,5101,33867,23205,0,64256,65728,6,6,4,1460,850,1,992,84,41772,24855,65700,0,23168,0,0,0
o,0x00000000,1716772343.296216,172.16.1.2,30595,172.16.3.2,5101,33867,26101,0,64256,65728,6,6,4,1460,864,1,992,79,41772,21959,65700,0,20272,0,0,0
o,0x00000000,1716772343.296616,172.16.1.2,30595,172.16.3.2,5101,33867,26101,0,64256,65728,6,6,4,1460,864,1,992,79,49964,41772,65700,0,21720,0,0,0
o,0x00000000,1716772343.296975,172.16.1.2,30595,172.16.3.2,5101,33867,26101,0,64256,65728,6,6,4,1460,864,1,992,79,49964,41772,65700,0,23168,0,0,0
o,0x00000000,1716772343.297292,172.16.1.2,30595,172.16.3.2,5101,33867,26101,0,64256,65728,6,6,4,1460,864,1,992,79,49964,41772,65700,0,24616,0,0,0
i,0x00000000,1716772343.324699,172.16.1.2,30595,172.16.3.2,5101,33867,26101,0,64256,65728,6,6,4,1460,864,1,992,79,58156,58156,65700,0,26064,0,0,0
o,0x00000000,1716772343.324707,172.16.1.2,30595,172.16.3.2,5101,33867,28997,0,64256,65728,6,6,4,1460,884,1,992,76,58156,55260,65700,0,23168,0,0,0
o,0x00000000,1716772343.324948,172.16.1.2,30595,172.16.3.2,5101,33867,28997,0,64256,65728,6,6,4,1460,884,1,992,76,58156,55260,65700,0,24616,0,0,0
o,0x00000000,1716772343.325216,172.16.1.2,30595,172.16.3.2,5101,33867,28997,0,64256,65728,6,6,4,1460,884,1,992,76,58156,55260,65700,0,26064,0,0,0
o,0x00000000,1716772343.325445,172.16.1.2,30595,172.16.3.2,5101,33867,28997,0,64256,65728,6,6,4,1460,884,1,992,76,66348,55260,65700,0,27512,0,0,0
i,0x00000000,1716772343.834117,172.16.1.2,30595,172.16.3.2,5101,33867,28997,0,64256,65728,6,6,4,1460,884,1,992,76,66348,66348,65700,0,28960,0,0,0
o,0x00000000,1716772343.834137,172.16.1.2,30595,172.16.3.2,5101,33867,31893,0,64256,65728,6,6,4,1460,990,1,992,99,66348,63452,65700,0,26064,0,0,0
o,0x00000000,1716772343.834241,172.16.1.2,30595,172.16.3.2,5101,33867,31893,0,64256,65728,6,6,4,1460,990,1,992,99,66348,63452,65700,0,27512,0,0,0
o,0x00000000,1716772343.834342,172.16.1.2,30595,172.16.3.2,5101,33867,31893,0,64256,65728,6,6,4,1460,990,1,992,99,66348,63452,65700,0,28960,0,0,0
o,0x00000000,1716772343.834415,172.16.1.2,30595,172.16.3.2,5101,33867,31893,0,64256,65728,6,6,4,1460,990,1,992,99,66348,63452,65700,0,30408,0,0,0
i,0x00000000,1716772343.834489,172.16.1.2,30595,172.16.3.2,5101,33867,31893,0,64256,65728,6,6,4,1460,990,1,992,99,74540,63452,65700,0,31856,0,0,0
o,0x00000000,1716772343.834492,172.16.1.2,30595,172.16.3.2,5101,33867,34789,0,64256,65728,6,6,4,1460,1083,1,992,113,74540,60556,65700,0,28960,0,0,0
o,0x00000000,1716772343.834565,172.16.1.2,30595,172.16.3.2,5101,33867,34789,0,64256,65728,6,6,4,1460,1083,1,992,113,74540,60556,65700,0,30408,0,0,0
o,0x00000000,1716772343.834640,172.16.1.2,30595,172.16.3.2,5101,33867,34789,0,64256,65728,6,6,4,1460,1083,1,992,113,74540,60556,65700,0,31856,0,0,0
o,0x00000000,1716772343.834714,172.16.1.2,30595,172.16.3.2,5101,33867,34789,0,64256,65728,6,6,4,1460,1083,1,992,113,74540,60556,65700,0,33304,0,0,0
i,0x00000000,1716772343.834787,172.16.1.2,30595,172.16.3.2,5101,33867,34789,0,64256,65728,6,6,4,1460,1083,1,992,113,74540,60556,65700,0,34752,0,0,0
o,0x00000000,1716772343.834789,172.16.1.2,30595,172.16.3.2,5101,33867,34789,0,64256,65728,6,6,4,1460,1164,1,992,121,74540,57660,65700,0,31856,0,0,0
o,0x00000000,1716772343.834863,172.16.1.2,30595,172.16.3.2,5101,33867,34789,0,64256,65728,6,6,4,1460,1164,1,992,121,74540,57660,65700,0,33304,0,0,0
i,0x00000000,1716772343.834936,172.16.1.2,30595,172.16.3.2,5101,33867,34789,0,64256,65728,6,6,4,1460,1164,1,992,121,74540,57660,65700,0,34752,0,0,0
o,0x00000000,1716772343.834939,172.16.1.2,30595,172.16.3.2,5101,33867,34789,0,64256,65728,6,6,4,1460,1235,1,992,125,74540,54764,65700,0,31856,0,0,0
o,0x00000000,1716772343.835021,172.16.1.2,30595,172.16.3.2,5101,33867,34789,0,64256,65728,6,6,4,1460,1235,1,992,125,74540,54764,65700,0,33304,0,0,0
i,0x00000000,1716772343.835306,172.16.1.2,30595,172.16.3.2,5101,33867,34789,0,64256,65728,6,6,4,1460,1235,1,992,125,74540,54764,65700,0,34752,0,0,0
o,0x00000000,1716772343.835309,172.16.1.2,30595,172.16.3.2,5101,33867,34789,0,64256,65728,6,6,4,1460,1297,1,992,126,74540,51868,65700,0,31856,0,0,0
o,0x00000000,1716772343.835385,172.16.1.2,30595,172.16.3.2,5101,33867,34789,0,64256,65728,6,6,4,1460,1297,1,992,126,74540,51868,65700,0,33304,0,0,0
i,0x00000000,1716772343.835458,172.16.1.2,30595,172.16.3.2,5101,33867,34789,0,64256,65728,6,6,4,1460,1297,1,992,126,74540,51868,65700,0,34752,0,0,0
o,0x00000000,1716772343.835460,172.16.1.2,30595,172.16.3.2,5101,33867,34789,0,64256,65728,6,6,4,1460,1347,1,992,123,74540,48972,65700,0,31856,0,0,0
o,0x00000000,1716772343.835534,172.16.1.2,30595,172.16.3.2,5101,33867,34789,0,64256,65728,6,6,4,1460,1347,1,992,123,74540,48972,65700,0,33304,0,0,0
i,0x00000000,1716772343.835607,172.16.1.2,30595,172.16.3.2,5101,33867,34789,0,64256,65728,6,6,4,1460,1347,1,992,123,74540,48972,65700,0,34752,0,0,0
o,0x00000000,1716772343.835610,172.16.1.2,30595,172.16.3.2,5101,33867,34789,0,64256,65728,6,6,4,1460,1391,1,992,120,74540,46076,65700,0,31856,0,0,0
o,0x00000000,1716772343.835787,172.16.1.2,30595,172.16.3.2,5101,33867,34789,0,64256,65728,6,6,4,1460,1391,1,992,120,74540,46076,65700,0,33304,0,0,0
i,0x00000000,1716772343.835861,172.16.1.2,30595,172.16.3.2,5101,33867,34789,0,64256,65728,6,6,4,1460,1391,1,992,120,74540,46076,65700,0,34752,0,0,0
o,0x00000000,1716772343.835864,172.16.1.2,30595,172.16.3.2,5101,33867,34789,0,64256,65728,6,6,4,1460,1434,1,992,118,74540,43180,65700,0,31856,0,0,0
o,0x00000000,1716772343.835936,172.16.1.2,30595,172.16.3.2,5101,33867,34789,0,64256,65728,6,6,4,1460,1434,1,992,118,74540,43180,65700,0,33304,0,0,0
i,0x00000000,1716772343.836010,172.16.1.2,30595,172.16.3.2,5101,33867,34789,0,64256,65728,6,6,4,1460,1434,1,992,118,74540,43180,65700,0,34752,0,0,0
o,0x00000000,1716772343.836012,172.16.1.2,30595,172.16.3.2,5101,33867,34789,0,64256,65728,6,6,4,1460,1459,1,992,112,74540,40284,65700,0,31856,0,0,0
o,0x00000000,1716772343.836085,172.16.1.2,30595,172.16.3.2,5101,33867,34789,0,64256,65728,6,6,4,1460,1459,1,992,112,74540,40284,65700,0,33304,0,0,0
i,0x00000000,1716772343.864061,172.16.1.2,30595,172.16.3.2,5101,33867,34789,0,64256,65728,6,6,4,1460,1459,1,992,112,74540,74540,65700,0,34752,0,0,0
o,0x00000000,1716772343.864071,172.16.1.2,30595,172.16.3.2,5101,33867,34789,0,64256,65728,6,6,4,1460,1493,1,992,110,74540,71644,65700,0,31856,0,0,0
o,0x00000000,1716772343.864313,172.16.1.2,30595,172.16.3.2,5101,33867,34789,0,64256,65728,6,6,4,1460,1493,1,992,110,74540,71644,65700,0,33304,0,0,0
i,0x00000000,1716772344.464478,172.16.1.2,30595,172.16.3.2,5101,33867,34789,0,64256,65728,6,6,4,1460,1493,1,992,110,74540,74540,65700,0,34752,0,0,0
o,0x00000000,1716772344.464499,172.16.1.2,30595,172.16.3.2,5101,33867,34789,0,64256,65728,6,6,4,1460,1555,1,992,117,74540,71644,65700,0,31856,0,0,0
o,0x00000000,1716772344.464629,172.16.1.2,30595,172.16.3.2,5101,33867,34789,0,64256,65728,6,6,4,1460,1555,1,992,117,74540,71644,65700,0,33304,0,0,0
i,0x00000000,1716772344.464732,172.16.1.2,30595,172.16.3.2,5101,33867,34789,0,64256,65728,6,6,4,1460,1555,1,992,117,74540,71644,65700,0,34752,0,0,0
o,0x00000000,1716772344.464736,172.16.1.2,30595,172.16.3.2,5101,33867,34789,0,64256,65728,6,6,4,1460,1609,1,992,120,74540,68748,65700,0,31856,0,0,0
o,0x00000000,1716772344.464832,172.16.1.2,30595,172.16.3.2,5101,33867,34789,0,64256,65728,6,6,4,1460,1609,1,992,120,74540,68748,65700,0,33304,0,0,0
i,0x00000000,1716772344.464911,172.16.1.2,30595,172.16.3.2,5101,33867,34789,0,64256,65728,6,6,4,1460,1609,1,992,120,82732,68748,65700,0,34752,0,0,0
o,0x00000000,1716772344.464913,172.16.1.2,30595,172.16.3.2,5101,33867,34789,0,64256,65728,6,6,4,1460,1656,1,992,121,82732,65852,65700,0,31856,0,0,0
o,0x00000000,1716772344.464997,172.16.1.2,30595,172.16.3.2,5101,33867,34789,0,64256,65728,6,6,4,1460,1656,1,992,121,82732,65852,65700,0,33304,0,0,0
i,0x00000000,1716772344.465079,172.16.1.2,30595,172.16.3.2,5101,33867,34789,0,64256,65728,6,6,4,1460,1656,1,992,121,82732,65852,65700,0,34752,0,0,0
o,0x00000000,1716772344.465082,172.16.1.2,30595,172.16.3.2,5101,33867,34789,0,64256,65728,6,6,4,1460,1697,1,992,120,82732,62956,65700,0,31856,0,0,0
o,0x00000000,1716772344.465162,172.16.1.2,30595,172.16.3.2,5101,33867,34789,0,64256,65728,6,6,4,1460,1697,1,992,120,82732,62956,65700,0,33304,0,0,0
i,0x00000000,1716772344.465502,172.16.1.2,30595,172.16.3.2,5101,33867,34789,0,64256,65728,6,6,4,1460,1697,1,992,120,82732,62956,65700,0,34752,0,0,0
o,0x00000000,1716772344.465505,172.16.1.2,30595,172.16.3.2,5101,33867,36249,0,64256,65728,6,6,4,1460,1733,1,992,118,82732,60060,65700,0,31856,0,0,0
o,0x00000000,1716772344.465583,172.16.1.2,30595,172.16.3.2,5101,33867,36249,0,64256,65728,6,6,4,1460,1733,1,992,118,82732,60060,65700,0,33304,0,0,0
o,0x00000000,1716772344.465659,172.16.1.2,30595,172.16.3.2,5101,33867,36249,0,64256,65728,6,6,4,1460,1733,1,992,118,82732,60060,65700,0,34752,0,0,0
i,0x00000000,1716772344.465868,172.16.1.2,30595,172.16.3.2,5101,33867,36249,0,64256,65728,6,6,4,1460,1733,1,992,118,82732,60060,65700,0,36200,0,0,0
o,0x00000000,1716772344.465871,172.16.1.2,30595,172.16.3.2,5101,33867,36249,0,64256,65728,6,6,4,1460,1769,1,992,117,82732,57164,65700,0,33304,0,0,0
o,0x00000000,1716772344.465948,172.16.1.2,30595,172.16.3.2,5101,33867,36249,0,64256,65728,6,6,4,1460,1769,1,992,117,82732,57164,65700,0,34752,0,0,0
i,0x00000000,1716772344.466026,172.16.1.2,30595,172.16.3.2,5101,33867,36249,0,64256,65728,6,6,4,1460,1769,1,992,117,82732,57164,65700,0,36200,0,0,0
o,0x00000000,1716772344.466029,172.16.1.2,30595,172.16.3.2,5101,33867,36249,0,64256,65728,6,6,4,1460,1800,1,992,116,82732,54268,65700,0,33304,0,0,0
o,0x00000000,1716772344.466109,172.16.1.2,30595,172.16.3.2,5101,33867,36249,0,64256,65728,6,6,4,1460,1800,1,992,116,82732,54268,65700,0,34752,0,0,0
i,0x00000000,1716772344.466184,172.16.1.2,30595,172.16.3.2,5101,33867,36249,0,64256,65728,6,6,4,1460,1800,1,992,116,82732,54268,65700,0,36200,0,0,0
o,0x00000000,1716772344.466187,172.16.1.2,30595,172.16.3.2,5101,33867,36249,0,64256,65728,6,6,4,1460,1827,1,992,113,82732,51372,65700,0,33304,0,0,0
o,0x00000000,1716772344.466269,172.16.1.2,30595,172.16.3.2,5101,33867,36249,0,64256,65728,6,6,4,1460,1827,1,992,113,82732,51372,65700,0,34752,0,0,0
i,0x00000000,1716772344.466355,172.16.1.2,30595,172.16.3.2,5101,33867,36249,0,64256,65728,6,6,4,1460,1827,1,992,113,82732,51372,65700,0,36200,0,0,0
o,0x00000000,1716772344.466367,172.16.1.2,30595,172.16.3.2,5101,33867,36249,0,64256,65728,6,6,4,1460,1851,1,992,111,82732,48476,65700,0,33304,0,0,0
o,0x00000000,1716772344.466445,172.16.1.2,30595,172.16.3.2,5101,33867,36249,0,64256,65728,6,6,4,1460,1851,1,992,111,82732,48476,65700,0,34752,0,0,0
i,0x00000000,1716772344.466519,172.16.1.2,30595,172.16.3.2,5101,33867,36249,0,64256,65728,6,6,4,1460,1851,1,992,111,82732,48476,65700,0,36200,0,0,0
o,0x00000000,1716772344.466522,172.16.1.2,30595,172.16.3.2,5101,33867,36249,0,64256,65728,6,6,4,1460,1872,1,992,109,82732,45580,65700,0,33304,0,0,0
o,0x00000000,1716772344.466594,172.16.1.2,30595,172.16.3.2,5101,33867,36249,0,64256,65728,6,6,4,1460,1872,1,992,109,82732,45580,65700,0,34752,0,0,0
i,0x00000000,1716772344.466674,172.16.1.2,30595,172.16.3.2,5101,33867,36249,0,64256,65728,6,6,4,1460,1872,1,992,109,82732,45580,65700,0,36200,0,0,0
o,0x00000000,1716772344.466677,172.16.1.2,30595,172.16.3.2,5101,33867,36249,0,64256,65728,6,6,4,1460,1890,1,992,106,82732,42684,65700,0,33304,0,0,0
o,0x00000000,1716772344.466750,172.16.1.2,30595,172.16.3.2,5101,33867,36249,0,64256,65728,6,6,4,1460,1890,1,992,106,82732,42684,65700,0,34752,0,0,0
i,0x00000000,1716772344.494722,172.16.1.2,30595,172.16.3.2,5101,33867,36249,0,64256,65728,6,6,4,1460,1890,1,992,106,82732,82732,65700,0,36200,0,0,0
o,0x00000000,1716772344.494732,172.16.1.2,30595,172.16.3.2,5101,33867,36249,0,64256,65728,6,6,4,1460,1902,1,992,103,82732,79836,65700,0,33304,0,0,0
o,0x00000000,1716772344.494977,172.16.1.2,30595,172.16.3.2,5101,33867,36249,0,64256,65728,6,6,4,1460,1902,1,992,103,82732,79836,65700,0,34752,0,0,0
i,0x00000000,1716772345.123523,172.16.1.2,30595,172.16.3.2,5101,33867,36249,0,64256,65728,6,6,4,1460,1902,1,992,103,82732,82732,65700,0,36200,0,0,0
o,0x00000000,1716772345.123543,172.16.1.2,30595,172.16.3.2,5101,33867,36249,0,64256,65728,6,6,4,1460,1929,1,992,105,82732,79836,65700,0,33304,0,0,0
o,0x00000000,1716772345.123661,172.16.1.2,30595,172.16.3.2,5101,33867,36249,0,64256,65728,6,6,4,1460,1929,1,992,105,82732,79836,65700,0,34752,0,0,0
i,0x00000000,1716772345.123737,172.16.1.2,30595,172.16.3.2,5101,33867,36249,0,64256,65728,6,6,4,1460,1929,1,992,105,82732,79836,65700,0,36200,0,0,0
o,0x00000000,1716772345.123741,172.16.1.2,30595,172.16.3.2,5101,33867,36249,0,64256,65728,6,6,4,1460,1952,1,992,105,82732,76940,65700,0,33304,0,0,0
o,0x00000000,1716772345.123844,172.16.1.2,30595,172.16.3.2,5101,33867,36249,0,64256,65728,6,6,4,1460,1952,1,992,105,82732,76940,65700,0,34752,0,0,0
i,0x00000000,1716772345.123923,172.16.1.2,30595,172.16.3.2,5101,33867,36249,0,64256,65728,6,6,4,1460,1952,1,992,105,82732,76940,65700,0,36200,0,0,0
o,0x00000000,1716772345.123925,172.16.1.2,30595,172.16.3.2,5101,33867,36249,0,64256,65728,6,6,4,1460,1972,1,992,105,82732,74044,65700,0,33304,0,0,0
o,0x00000000,1716772345.124014,172.16.1.2,30595,172.16.3.2,5101,33867,36249,0,64256,65728,6,6,4,1460,1972,1,992,105,82732,74044,65700,0,34752,0,0,0
i,0x00000000,1716772345.124119,172.16.1.2,30595,172.16.3.2,5101,33867,36249,0,64256,65728,6,6,4,1460,1972,1,992,105,82732,74044,65700,0,36200,0,0,0
o,0x00000000,1716772345.124125,172.16.1.2,30595,172.16.3.2,5101,33867,36249,0,64256,65728,6,6,4,1460,1990,1,992,104,82732,71148,65700,0,33304,0,0,0
o,0x00000000,1716772345.124206,172.16.1.2,30595,172.16.3.2,5101,33867,36249,0,64256,65728,6,6,4,1460,1990,1,992,104,82732,71148,65700,0,34752,0,0,0
i,0x00000000,1716772345.124536,172.16.1.2,30595,172.16.3.2,5101,33867,36249,0,64256,65728,6,6,4,1460,1990,1,992,104,82732,71148,65700,0,36200,0,0,0
o,0x00000000,1716772345.124539,172.16.1.2,30595,172.16.3.2,5101,33867,37709,0,64256,65728,6,6,4,1460,2006,1,992,103,82732,68252,65700,0,33304,0,0,0
o,0x00000000,1716772345.124615,172.16.1.2,30595,172.16.3.2,5101,33867,37709,0,64256,65728,6,6,4,1460,2006,1,992,103,82732,68252,65700,0,34752,0,0,0
o,0x00000000,1716772345.124705,172.16.1.2,30595,172.16.3.2,5101,33867,37709,0,64256,65728,6,6,4,1460,2006,1,992,103,82732,68252,65700,0,36200,0,0,0
i,0x00000000,1716772345.124783,172.16.1.2,30595,172.16.3.2,5101,33867,37709,0,64256,65728,6,6,4,1460,2006,1,992,103,82732,68252,65700,0,37648,0,0,0
o,0x00000000,1716772345.124785,172.16.1.2,30595,172.16.3.2,5101,33867,37709,0,64256,65728,6,6,4,1460,2020,1,992,102,82732,65356,65700,0,34752,0,0,0
o,0x00000000,1716772345.124863,172.16.1.2,30595,172.16.3.2,5101,33867,37709,0,64256,65728,6,6,4,1460,2020,1,992,102,82732,65356,65700,0,36200,0,0,0
i,0x00000000,1716772345.124942,172.16.1.2,30595,172.16.3.2,5101,33867,37709,0,64256,65728,6,6,4,1460,2020,1,992,102,82732,65356,65700,0,37648,0,0,0
o,0x00000000,1716772345.124945,172.16.1.2,30595,172.16.3.2,5101,33867,37709,0,64256,65728,6,6,4,1460,2028,1,992,99,82732,62460,65700,0,34752,0,0,0
o,0x00000000,1716772345.125041,172.16.1.2,30595,172.16.3.2,5101,33867,37709,0,64256,65728,6,6,4,1460,2028,1,992,99,82732,62460,65700,0,36200,0,0,0
i,0x00000000,1716772345.125119,172.16.1.2,30595,172.16.3.2,5101,33867,37709,0,64256,65728,6,6,4,1460,2028,1,992,99,82732,62460,65700,0,37648,0,0,0
o,0x00000000,1716772345.125121,172.16.1.2,30595,172.16.3.2,5101,33867,37709,0,64256,65728,6,6,4,1460,2035,1,992,97,82732,59564,65700,0,34752,0,0,0
o,0x00000000,1716772345.125204,172.16.1.2,30595,172.16.3.2,5101,33867,37709,0,64256,65728,6,6,4,1460,2035,1,992,97,82732,59564,65700,0,36200,0,0,0
i,0x00000000,1716772345.125296,172.16.1.2,30595,172.16.3.2,5101,33867,37709,0,64256,65728,6,6,4,1460,2035,1,992,97,82732,59564,65700,0,37648,0,0,0
o,0x00000000,1716772345.125299,172.16.1.2,30595,172.16.3.2,5101,33867,37709,0,64256,65728,6,6,4,1460,2041,1,992,96,82732,56668,65700,0,34752,0,0,0
o,0x00000000,1716772345.125380,172.16.1.2,30595,172.16.3.2,5101,33867,37709,0,64256,65728,6,6,4,1460,2041,1,992,96,82732,56668,65700,0,36200,0,0,0
i,0x00000000,1716772345.125454,172.16.1.2,30595,172.16.3.2,5101,33867,37709,0,64256,65728,6,6,4,1460,2041,1,992,96,82732,56668,65700,0,37648,0,0,0
o,0x00000000,1716772345.125456,172.16.1.2,30595,172.16.3.2,5101,33867,37709,0,64256,65728,6,6,4,1460,2046,1,992,94,82732,53772,65700,0,34752,0,0,0
o,0x00000000,1716772345.125532,172.16.1.2,30595,172.16.3.2,5101,33867,37709,0,64256,65728,6,6,4,1460,2046,1,992,94,82732,53772,65700,0,36200,0,0,0
i,0x00000000,1716772345.125606,172.16.1.2,30595,172.16.3.2,5101,33867,37709,0,64256,65728,6,6,4,1460,2046,1,992,94,82732,53772,65700,0,37648,0,0,0
o,0x00000000,1716772345.125609,172.16.1.2,30595,172.16.3.2,5101,33867,37709,0,64256,65728,6,6,4,1460,2051,1,992,93,82732,50876,65700,0,34752,0,0,0
o,0x00000000,1716772345.125898,172.16.1.2,30595,172.16.3.2,5101,33867,37709,0,64256,65728,6,6,4,1460,2051,1,992,93,82732,50876,65700,0,36200,0,0,0
i,0x00000000,1716772345.125976,172.16.1.2,30595,172.16.3.2,5101,33867,37709,0,64256,65728,6,6,4,1460,2051,1,992,93,82732,50876,65700,0,37648,0,0,0
o,0x00000000,1716772345.125979,172.16.1.2,30595,172.16.3.2,5101,33867,37709,0,64256,65728,6,6,4,1460,2059,1,992,93,82732,47980,65700,0,34752,0,0,0
o,0x00000000,1716772345.126054,172.16.1.2,30595,172.16.3.2,5101,33867,37709,0,64256,65728,6,6,4,1460,2059,1,992,93,82732,47980,65700,0,36200,0,0,0
i,0x00000000,1716772345.754498,172.16.1.2,30595,172.16.3.2,5101,33867,37709,0,64256,65728,6,6,4,1460,2059,1,992,93,82732,82732,65700,0,37648,0,0,0
o,0x00000000,1716772345.754518,172.16.1.2,30595,172.16.3.2,5101,33867,37709,0,65728,65728,6,6,4,1460,2306,1,992,160,82732,81284,65700,0,36200,0,0,0
i,0x00000000,1716772345.784058,172.16.1.2,30595,172.16.3.2,5101,33867,37709,0,65728,65728,6,6,4,1460,2306,1,992,160,82732,81284,65700,0,37648,0,0,0
o,0x00000000,1716772345.784078,172.16.1.2,30595,172.16.3.2,5101,33867,37709,0,64256,65728,6,6,4,1460,2282,1,992,148,82732,78388,65700,0,34752,0,0,0
o,0x00000000,1716772345.784190,172.16.1.2,30595,172.16.3.2,5101,33867,37709,0,64256,65728,6,6,4,1460,2282,1,992,148,82732,78388,65700,0,36200,0,0,0
i,0x00000000,1716772345.784267,172.16.1.2,30595,172.16.3.2,5101,33867,37709,0,64256,65728,6,6,4,1460,2282,1,992,148,82732,78388,65700,0,37648,0,0,0
o,0x00000000,1716772345.784278,172.16.1.2,30595,172.16.3.2,5101,33867,37709,0,64256,65728,6,6,4,1460,2261,1,992,139,82732,75492,65700,0,34752,0,0,0
o,0x00000000,1716772345.784375,172.16.1.2,30595,172.16.3.2,5101,33867,37709,0,64256,65728,6,6,4,1460,2261,1,992,139,82732,75492,65700,0,36200,0,0,0
i,0x00000000,1716772345.784466,172.16.1.2,30595,172.16.3.2,5101,33867,37709,0,64256,65728,6,6,4,1460,2261,1,992,139,82732,75492,65700,0,37648,0,0,0
o,0x00000000,1716772345.784469,172.16.1.2,30595,172.16.3.2,5101,33867,37709,0,64256,65728,6,6,4,1460,2243,1,992,131,82732,72596,65700,0,34752,0,0,0
o,0x00000000,1716772345.784550,172.16.1.2,30595,172.16.3.2,5101,33867,37709,0,64256,65728,6,6,4,1460,2243,1,992,131,82732,72596,65700,0,36200,0,0,0
i,0x00000000,1716772345.784642,172.16.1.2,30595,172.16.3.2,5101,33867,37709,0,64256,65728,6,6,4,1460,2243,1,992,131,82732,72596,65700,0,37648,0,0,0
o,0x00000000,1716772345.784644,172.16.1.2,30595,172.16.3.2,5101,33867,37709,0,64256,65728,6,6,4,1460,2227,1,992,124,82732,69700,65700,0,34752,0,0,0
o,0x00000000,1716772345.784718,172.16.1.2,30595,172.16.3.2,5101,33867,37709,0,64256,65728,6,6,4,1460,2227,1,992,124,82732,69700,65700,0,36200,0,0,0
i,0x00000000,1716772345.785017,172.16.1.2,30595,172.16.3.2,5101,33867,37709,0,64256,65728,6,6,4,1460,2227,1,992,124,82732,69700,65700,0,37648,0,0,0
o,0x00000000,1716772345.785020,172.16.1.2,30595,172.16.3.2,5101,33867,37709,0,64256,65728,6,6,4,1460,2213,1,992,118,82732,66804,65700,0,34752,0,0,0
o,0x00000000,1716772345.785098,172.16.1.2,30595,172.16.3.2,5101,33867,37709,0,64256,65728,6,6,4,1460,2213,1,992,118,82732,66804,65700,0,36200,0,0,0
i,0x00000000,1716772345.785175,172.16.1.2,30595,172.16.3.2,5101,33867,37709,0,64256,65728,6,6,4,1460,2213,1,992,118,82732,66804,65700,0,37648,0,0,0
o,0x00000000,1716772345.785178,172.16.1.2,30595,172.16.3.2,5101,33867,39169,0,64256,65728,6,6,4,1460,2201,1,992,114,82732,63908,65700,0,34752,0,0,0
o,0x00000000,1716772345.785255,172.16.1.2,30595,172.16.3.2,5101,33867,39169,0,64256,65728,6,6,4,1460,2201,1,992,114,82732,63908,65700,0,36200,0,0,0
o,0x00000000,1716772345.785333,172.16.1.2,30595,172.16.3.2,5101,33867,39169,0,64256,65728,6,6,4,1460,2201,1,992,114,82732,63908,65700,0,37648,0,0,0
i,0x00000000,1716772345.785630,172.16.1.2,30595,172.16.3.2,5101,33867,39169,0,64256,65728,6,6,4,1460,2201,1,992,114,82732,63908,65700,0,39096,0,0,0
o,0x00000000,1716772345.785633,172.16.1.2,30595,172.16.3.2,5101,33867,39169,0,64256,65728,6,6,4,1460,2190,1,992,110,82732,61012,65700,0,36200,0,0,0
o,0x00000000,1716772345.785830,172.16.1.2,30595,172.16.3.2,5101,33867,39169,0,64256,65728,6,6,4,1460,2190,1,992,110,82732,61012,65700,0,37648,0,0,0
i,0x00000000,1716772345.785904,172.16.1.2,30595,172.16.3.2,5101,33867,39169,0,64256,65728,6,6,4,1460,2190,1,992,110,82732,61012,65700,0,39096,0,0,0
o,0x00000000,1716772345.785907,172.16.1.2,30595,172.16.3.2,5101,33867,39169,0,64256,65728,6,6,4,1460,2181,1,992,106,82732,58116,65700,0,36200,0,0,0
o,0x00000000,1716772345.785983,172.16.1.2,30595,172.16.3.2,5101,33867,39169,0,64256,65728,6,6,4,1460,2181,1,992,106,82732,58116,65700,0,37648,0,0,0
i,0x00000000,1716772345.786059,172.16.1.2,30595,172.16.3.2,5101,33867,39169,0,64256,65728,6,6,4,1460,2181,1,992,106,82732,58116,65700,0,39096,0,0,0
o,0x00000000,1716772345.786061,172.16.1.2,30595,172.16.3.2,5101,33867,39169,0,64256,65728,6,6,4,1460,2173,1,992,104,82732,55220,65700,0,36200,0,0,0
o,0x00000000,1716772345.786136,172.16.1.2,30595,172.16.3.2,5101,33867,39169,0,64256,65728,6,6,4,1460,2173,1,992,104,82732,55220,65700,0,37648,0,0,0
i,0x00000000,1716772345.786211,172.16.1.2,30595,172.16.3.2,5101,33867,39169,0,64256,65728,6,6,4,1460,2173,1,992,104,82732,55220,65700,0,39096,0,0,0
o,0x00000000,1716772345.786214,172.16.1.2,30595,172.16.3.2,5101,33867,39169,0,64256,65728,6,6,4,1460,2166,1,992,101,82732,52324,65700,0,36200,0,0,0
o,0x00000000,1716772345.786295,172.16.1.2,30595,172.16.3.2,5101,33867,39169,0,64256,65728,6,6,4,1460,2166,1,992,101,82732,52324,65700,0,37648,0,0,0
i,0x00000000,1716772345.786373,172.16.1.2,30595,172.16.3.2,5101,33867,39169,0,64256,65728,6,6,4,1460,2166,1,992,101,82732,52324,65700,0,39096,0,0,0
o,0x00000000,1716772345.786377,172.16.1.2,30595,172.16.3.2,5101,33867,39169,0,64256,65728,6,6,4,1460,2160,1,992,99,82732,49428,65700,0,36200,0,0,0
o,0x00000000,1716772345.786467,172.16.1.2,30595,172.16.3.2,5101,33867,39169,0,64256,65728,6,6,4,1460,2160,1,992,99,82732,49428,65700,0,37648,0,0,0
i,0x00000000,1716772345.786551,172.16.1.2,30595,172.16.3.2,5101,33867,39169,0,64256,65728,6,6,4,1460,2160,1,992,99,82732,49428,65700,0,39096,0,0,0
o,0x00000000,1716772345.786554,172.16.1.2,30595,172.16.3.2,5101,33867,39169,0,64256,65728,6,6,4,1460,2154,1,992,97,82732,46532,65700,0,36200,0,0,0
o,0x00000000,1716772345.786702,172.16.1.2,30595,172.16.3.2,5101,33867,39169,0,64256,65728,6,6,4,1460,2154,1,992,97,82732,46532,65700,0,37648,0,0,0
i,0x00000000,1716772346.424403,172.16.1.2,30595,172.16.3.2,5101,33867,39169,0,64256,65728,6,6,4,1460,2154,1,992,97,82732,82732,65700,0,39096,0,0,0
o,0x00000000,1716772346.424423,172.16.1.2,30595,172.16.3.2,5101,33867,39169,0,65728,65728,6,6,4,1460,2401,1,992,164,82732,81284,65700,0,37648,0,0,0
i,0x00000000,1716772346.454175,172.16.1.2,30595,172.16.3.2,5101,33867,39169,0,65728,65728,6,6,4,1460,2401,1,992,164,82732,81284,65700,0,39096,0,0,0
o,0x00000000,1716772346.454336,172.16.1.2,30595,172.16.3.2,5101,33867,39169,0,64256,65728,6,6,4,1460,2381,1,992,151,82732,78388,65700,0,36200,0,0,0
o,0x00000000,1716772346.454422,172.16.1.2,30595,172.16.3.2,5101,33867,39169,0,64256,65728,6,6,4,1460,2381,1,992,151,82732,78388,65700,0,37648,0,0,0
i,0x00000000,1716772346.454497,172.16.1.2,30595,172.16.3.2,5101,33867,39169,0,64256,65728,6,6,4,1460,2381,1,992,151,82732,78388,65700,0,39096,0,0,0
o,0x00000000,1716772346.454501,172.16.1.2,30595,172.16.3.2,5101,33867,39169,0,64256,65728,6,6,4,1460,2352,1,992,144,82732,75492,65700,0,36200,0,0,0
o,0x00000000,1716772346.454576,172.16.1.2,30595,172.16.3.2,5101,33867,39169,0,64256,65728,6,6,4,1460,2352,1,992,144,82732,75492,65700,0,37648,0,0,0
i,0x00000000,1716772346.454876,172.16.1.2,30595,172.16.3.2,5101,33867,39169,0,64256,65728,6,6,4,1460,2352,1,992,144,82732,75492,65700,0,39096,0,0,0
o,0x00000000,1716772346.454879,172.16.1.2,30595,172.16.3.2,5101,33867,39169,0,64256,65728,6,6,4,1460,2326,1,992,137,82732,72596,65700,0,36200,0,0,0
o,0x00000000,1716772346.454955,172.16.1.2,30595,172.16.3.2,5101,33867,39169,0,64256,65728,6,6,4,1460,2326,1,992,137,82732,72596,65700,0,37648,0,0,0
i,0x00000000,1716772346.455029,172.16.1.2,30595,172.16.3.2,5101,33867,39169,0,64256,65728,6,6,4,1460,2326,1,992,137,82732,72596,65700,0,39096,0,0,0
o,0x00000000,1716772346.455031,172.16.1.2,30595,172.16.3.2,5101,33867,39169,0,64256,65728,6,6,4,1460,2304,1,992,131,82732,69700,65700,0,36200,0,0,0
o,0x00000000,1716772346.455107,172.16.1.2,30595,172.16.3.2,5101,33867,39169,0,64256,65728,6,6,4,1460,2304,1,992,131,82732,69700,65700,0,37648,0,0,0
i,0x00000000,1716772346.455181,172.16.1.2,30595,172.16.3.2,5101,33867,39169,0,64256,65728,6,6,4,1460,2304,1,992,131,82732,69700,65700,0,39096,0,0,0
o,0x00000000,1716772346.455183,172.16.1.2,30595,172.16.3.2,5101,33867,39169,0,64256,65728,6,6,4,1460,2284,1,992,125,82732,66804,65700,0,36200,0,0,0
o,0x00000000,1716772346.455257,172.16.1.2,30595,172.16.3.2,5101,33867,39169,0,64256,65728,6,6,4,1460,2284,1,992,125,82732,66804,65700,0,37648,0,0,0
i,0x00000000,1716772346.455542,172.16.1.2,30595,172.16.3.2,5101,33867,39169,0,64256,65728,6,6,4,1460,2284,1,992,125,82732,66804,65700,0,39096,0,0,0
o,0x00000000,1716772346.455546,172.16.1.2,30595,172.16.3.2,5101,33867,39169,0,64256,65728,6,6,4,1460,2267,1,992,120,82732,63908,65700,0,36200,0,0,0
o,0x00000000,1716772346.455620,172.16.1.2,30595,172.16.3.2,5101,33867,39169,0,64256,65728,6,6,4,1460,2267,1,992,120,82732,63908,65700,0,37648,0,0,0
i,0x00000000,1716772346.455796,172.16.1.2,30595,172.16.3.2,5101,33867,39169,0,64256,65728,6,6,4,1460,2267,1,992,120,82732,63908,65700,0,39096,0,0,0
o,0x00000000,1716772346.455799,172.16.1.2,30595,172.16.3.2,5101,33867,40629,0,64256,65728,6,6,4,1460,2252,1,992,116,82732,61012,65700,0,36200,0,0,0
o,0x00000000,1716772346.455872,172.16.1.2,30595,172.16.3.2,5101,33867,40629,0,64256,65728,6,6,4,1460,2252,1,992,116,82732,61012,65700,0,37648,0,0,0
o,0x00000000,1716772346.455946,172.16.1.2,30595,172.16.3.2,5101,33867,40629,0,64256,65728,6,6,4,1460,2252,1,992,116,82732,61012,65700,0,39096,0,0,0
i,0x00000000,1716772346.456020,172.16.1.2,30595,172.16.3.2,5101,33867,40629,0,64256,65728,6,6,4,1460,2252,1,992,116,82732,61012,65700,0,40544,0,0,0
o,0x00000000,1716772346.456022,172.16.1.2,30595,172.16.3.2,5101,33867,40629,0,64256,65728,6,6,4,1460,2239,1,992,112,82732,58116,65700,0,37648,0,0,0
o,0x00000000,1716772346.456095,172.16.1.2,30595,172.16.3.2,5101,33867,40629,0,64256,65728,6,6,4,1460,2239,1,992,112,82732,58116,65700,0,39096,0,0,0
i,0x00000000,1716772346.456187,172.16.1.2,30595,172.16.3.2,5101,33867,40629,0,64256,65728,6,6,4,1460,2239,1,992,112,82732,58116,65700,0,40544,0,0,0
o,0x00000000,1716772346.456190,172.16.1.2,30595,172.16.3.2,5101,33867,40629,0,64256,65728,6,6,4,1460,2228,1,992,109,82732,55220,65700,0,37648,0,0,0
o,0x00000000,1716772346.456277,172.16.1.2,30595,172.16.3.2,5101,33867,40629,0,64256,65728,6,6,4,1460,2228,1,992,109,82732,55220,65700,0,39096,0,0,0
i,0x00000000,1716772346.456349,172.16.1.2,30595,172.16.3.2,5101,33867,40629,0,64256,65728,6,6,4,1460,2228,1,992,109,82732,55220,65700,0,40544,0,0,0
o,0x00000000,1716772346.456353,172.16.1.2,30595,172.16.3.2,5101,33867,40629,0,64256,65728,6,6,4,1460,2218,1,992,106,82732,52324,65700,0,37648,0,0,0
o,0x00000000,1716772346.456426,172.16.1.2,30595,172.16.3.2,5101,33867,40629,0,64256,65728,6,6,4,1460,2218,1,992,106,82732,52324,65700,0,39096,0,0,0
i,0x00000000,1716772346.456498,172.16.1.2,30595,172.16.3.2,5101,33867,40629,0,64256,65728,6,6,4,1460,2218,1,992,106,82732,52324,65700,0,40544,0,0,0
o,0x00000000,1716772346.456501,172.16.1.2,30595,172.16.3.2,5101,33867,40629,0,64256,65728,6,6,4,1460,2209,1,992,104,82732,49428,65700,0,37648,0,0,0
o,0x00000000,1716772346.456576,172.16.1.2,30595,172.16.3.2,5101,33867,40629,0,64256,65728,6,6,4,1460,2209,1,992,104,82732,49428,65700,0,39096,0,0,0
i,0x00000000,1716772346.456649,172.16.1.2,30595,172.16.3.2,5101,33867,40629,0,64256,65728,6,6,4,1460,2209,1,992,104,82732,49428,65700,0,40544,0,0,0
o,0x00000000,1716772346.456651,172.16.1.2,30595,172.16.3.2,5101,33867,40629,0,64256,65728,6,6,4,1460,2201,1,992,102,82732,46532,65700,0,37648,0,0,0
o,0x00000000,1716772346.456725,172.16.1.2,30595,172.16.3.2,5101,33867,40629,0,64256,65728,6,6,4,1460,2201,1,992,102,82732,46532,65700,0,39096,0,0,0
i,0x00000000,1716772346.484159,172.16.1.2,30595,172.16.3.2,5101,33867,40629,0,64256,65728,6,6,4,1460,2201,1,992,102,82732,82732,65700,0,40544,0,0,0
o,0x00000000,1716772346.484167,172.16.1.2,30595,172.16.3.2,5101,33867,40629,0,64256,65728,6,6,4,1460,2202,1,992,99,82732,79836,65700,0,37648,0,0,0
o,0x00000000,1716772346.484408,172.16.1.2,30595,172.16.3.2,5101,33867,40629,0,64256,65728,6,6,4,1460,2202,1,992,99,82732,79836,65700,0,39096,0,0,0
i,0x00000000,1716772347.173458,172.16.1.2,30595,172.16.3.2,5101,33867,40629,0,64256,65728,6,6,4,1460,2202,1,992,99,82732,82732,65700,0,40544,0,0,0
o,0x00000000,1716772347.173481,172.16.1.2,30595,172.16.3.2,5101,33867,40629,0,64256,65728,6,6,4,1460,2227,1,992,104,82732,79836,65700,0,37648,0,0,0
o,0x00000000,1716772347.173574,172.16.1.2,30595,172.16.3.2,5101,33867,40629,0,64256,65728,6,6,4,1460,2227,1,992,104,82732,79836,65700,0,39096,0,0,0
i,0x00000000,1716772347.173653,172.16.1.2,30595,172.16.3.2,5101,33867,40629,0,64256,65728,6,6,4,1460,2227,1,992,104,82732,79836,65700,0,40544,0,0,0
o,0x00000000,1716772347.173655,172.16.1.2,30595,172.16.3.2,5101,33867,40629,0,64256,65728,6,6,4,1460,2237,1,992,103,82732,76940,65700,0,37648,0,0,0
o,0x00000000,1716772347.173734,172.16.1.2,30595,172.16.3.2,5101,33867,40629,0,64256,65728,6,6,4,1460,2237,1,992,103,82732,76940,65700,0,39096,0,0,0
i,0x00000000,1716772347.173813,172.16.1.2,30595,172.16.3.2,5101,33867,40629,0,64256,65728,6,6,4,1460,2237,1,992,103,82732,76940,65700,0,40544,0,0,0
o,0x00000000,1716772347.173816,172.16.1.2,30595,172.16.3.2,5101,33867,40629,0,64256,65728,6,6,4,1460,2246,1,992,102,82732,74044,65700,0,37648,0,0,0
o,0x00000000,1716772347.173894,172.16.1.2,30595,172.16.3.2,5101,33867,40629,0,64256,65728,6,6,4,1460,2246,1,992,102,82732,74044,65700,0,39096,0,0,0
i,0x00000000,1716772347.174207,172.16.1.2,30595,172.16.3.2,5101,33867,40629,0,64256,65728,6,6,4,1460,2246,1,992,102,82732,74044,65700,0,40544,0,0,0
o,0x00000000,1716772347.174210,172.16.1.2,30595,172.16.3.2,5101,33867,40629,0,64256,65728,6,6,4,1460,2254,1,992,101,82732,71148,65700,0,37648,0,0,0
o,0x00000000,1716772347.174288,172.16.1.2,30595,172.16.3.2,5101,33867,40629,0,64256,65728,6,6,4,1460,2254,1,992,101,82732,71148,65700,0,39096,0,0,0
i,0x00000000,1716772347.174366,172.16.1.2,30595,172.16.3.2,5101,33867,40629,0,64256,65728,6,6,4,1460,2254,1,992,101,82732,71148,65700,0,40544,0,0,0
o,0x00000000,1716772347.174368,172.16.1.2,30595,172.16.3.2,5101,33867,40629,0,64256,65728,6,6,4,1460,2261,1,992,101,82732,68252,65700,0,37648,0,0,0
o,0x00000000,1716772347.174447,172.16.1.2,30595,172.16.3.2,5101,33867,40629,0,64256,65728,6,6,4,1460,2261,1,992,101,82732,68252,65700,0,39096,0,0,0
i,0x00000000,1716772347.174524,172.16.1.2,30595,172.16.3.2,5101,33867,40629,0,64256,65728,6,6,4,1460,2261,1,992,101,82732,68252,65700,0,40544,0,0,0
o,0x00000000,1716772347.174526,172.16.1.2,30595,172.16.3.2,5101,33867,40629,0,64256,65728,6,6,4,1460,2267,1,992,100,82732,65356,65700,0,37648,0,0,0
o,0x00000000,1716772347.174604,172.16.1.2,30595,172.16.3.2,5101,33867,40629,0,64256,65728,6,6,4,1460,2267,1,992,100,82732,65356,65700,0,39096,0,0,0
i,0x00000000,1716772347.174682,172.16.1.2,30595,172.16.3.2,5101,33867,40629,0,64256,65728,6,6,4,1460,2267,1,992,100,82732,65356,65700,0,40544,0,0,0
o,0x00000000,1716772347.174685,172.16.1.2,30595,172.16.3.2,5101,33867,40629,0,64256,65728,6,6,4,1460,2272,1,992,99,82732,62460,65700,0,37648,0,0,0
o,0x00000000,1716772347.174762,172.16.1.2,30595,172.16.3.2,5101,33867,40629,0,64256,65728,6,6,4,1460,2272,1,992,99,82732,62460,65700,0,39096,0,0,0
i,0x00000000,1716772347.174839,172.16.1.2,30595,172.16.3.2,5101,33867,40629,0,64256,65728,6,6,4,1460,2272,1,992,99,82732,62460,65700,0,40544,0,0,0
o,0x00000000,1716772347.174841,172.16.1.2,30595,172.16.3.2,5101,33867,42089,0,64256,65728,6,6,4,1460,2272,1,992,97,82732,59564,65700,0,37648,0,0,0
o,0x00000000,1716772347.174918,172.16.1.2,30595,172.16.3.2,5101,33867,42089,0,64256,65728,6,6,4,1460,2272,1,992,97,82732,59564,65700,0,39096,0,0,0
o,0x00000000,1716772347.174995,172.16.1.2,30595,172.16.3.2,5101,33867,42089,0,64256,65728,6,6,4,1460,2272,1,992,97,82732,59564,65700,0,40544,0,0,0
i,0x00000000,1716772347.175482,172.16.1.2,30595,172.16.3.2,5101,33867,42089,0,64256,65728,6,6,4,1460,2272,1,992,97,82732,59564,65700,0,41992,0,0,0
o,0x00000000,1716772347.175485,172.16.1.2,30595,172.16.3.2,5101,33867,42089,0,64256,65728,6,6,4,1460,2272,1,992,96,82732,56668,65700,0,39096,0,0,0
o,0x00000000,1716772347.175788,172.16.1.2,30595,172.16.3.2,5101,33867,42089,0,64256,65728,6,6,4,1460,2272,1,992,96,82732,56668,65700,0,40544,0,0,0
i,0x00000000,1716772347.175866,172.16.1.2,30595,172.16.3.2,5101,33867,42089,0,64256,65728,6,6,4,1460,2272,1,992,96,82732,56668,65700,0,41992,0,0,0
o,0x00000000,1716772347.175869,172.16.1.2,30595,172.16.3.2,5101,33867,42089,0,64256,65728,6,6,4,1460,2276,1,992,95,82732,53772,65700,0,39096,0,0,0
o,0x00000000,1716772347.175946,172.16.1.2,30595,172.16.3.2,5101,33867,42089,0,64256,65728,6,6,4,1460,2276,1,992,95,82732,53772,65700,0,40544,0,0,0
i,0x00000000,1716772347.176022,172.16.1.2,30595,172.16.3.2,5101,33867,42089,0,64256,65728,6,6,4,1460,2276,1,992,95,82732,53772,65700,0,41992,0,0,0
o,0x00000000,1716772347.176025,172.16.1.2,30595,172.16.3.2,5101,33867,42089,0,64256,65728,6,6,4,1460,2280,1,992,96,82732,50876,65700,0,39096,0,0,0
o,0x00000000,1716772347.176101,172.16.1.2,30595,172.16.3.2,5101,33867,42089,0,64256,65728,6,6,4,1460,2280,1,992,96,82732,50876,65700,0,40544,0,0,0
i,0x00000000,1716772347.176181,172.16.1.2,30595,172.16.3.2,5101,33867,42089,0,64256,65728,6,6,4,1460,2280,1,992,96,82732,50876,65700,0,41992,0,0,0
o,0x00000000,1716772347.176186,172.16.1.2,30595,172.16.3.2,5101,33867,42089,0,64256,65728,6,6,4,1460,2283,1,992,95,82732,47980,65700,0,39096,0,0,0
o,0x00000000,1716772347.176262,172.16.1.2,30595,172.16.3.2,5101,33867,42089,0,64256,65728,6,6,4,1460,2283,1,992,95,82732,47980,65700,0,40544,0,0,0
i,0x00000000,1716772347.176337,172.16.1.2,30595,172.16.3.2,5101,33867,42089,0,64256,65728,6,6,4,1460,2283,1,992,95,82732,47980,65700,0,41992,0,0,0
o,0x00000000,1716772347.176340,172.16.1.2,30595,172.16.3.2,5101,33867,42089,0,64256,65728,6,6,4,1460,2286,1,992,95,82732,45084,65700,0,39096,0,0,0
o,0x00000000,1716772347.176415,172.16.1.2,30595,172.16.3.2,5101,33867,42089,0,64256,65728,6,6,4,1460,2286,1,992,95,82732,45084,65700,0,40544,0,0,0
i,0x00000000,1716772347.203458,172.16.1.2,30595,172.16.3.2,5101,33867,42089,0,64256,65728,6,6,4,1460,2286,1,992,95,82732,82732,65700,0,41992,0,0,0
o,0x00000000,1716772347.203479,172.16.1.2,30595,172.16.3.2,5101,33867,42089,0,64256,65728,6,6,4,1460,2289,1,992,95,82732,79836,65700,0,39096,0,0,0
o,0x00000000,1716772347.203775,172.16.1.2,30595,172.16.3.2,5101,33867,42089,0,64256,65728,6,6,4,1460,2289,1,992,95,82732,79836,65700,0,40544,0,0,0
i,0x00000000,1716772347.924162,172.16.1.2,30595,172.16.3.2,5101,33867,42089,0,64256,65728,6,6,4,1460,2289,1,992,95,82732,82732,65700,0,41992,0,0,0
o,0x00000000,1716772347.924181,172.16.1.2,30595,172.16.3.2,5101,33867,42089,0,64256,65728,6,6,4,1460,2299,1,992,97,82732,79836,65700,0,39096,0,0,0
o,0x00000000,1716772347.924272,172.16.1.2,30595,172.16.3.2,5101,33867,42089,0,64256,65728,6,6,4,1460,2299,1,992,97,82732,79836,65700,0,40544,0,0,0
i,0x00000000,1716772347.924348,172.16.1.2,30595,172.16.3.2,5101,33867,42089,0,64256,65728,6,6,4,1460,2299,1,992,97,82732,79836,65700,0,41992,0,0,0
o,0x00000000,1716772347.924351,172.16.1.2,30595,172.16.3.2,5101,33867,42089,0,64256,65728,6,6,4,1460,2308,1,992,98,82732,76940,65700,0,39096,0,0,0
o,0x00000000,1716772347.924446,172.16.1.2,30595,172.16.3.2,5101,33867,42089,0,64256,65728,6,6,4,1460,2308,1,992,98,82732,76940,65700,0,40544,0,0,0
i,0x00000000,1716772347.924536,172.16.1.2,30595,172.16.3.2,5101,33867,42089,0,64256,65728,6,6,4,1460,2308,1,992,98,82732,76940,65700,0,41992,0,0,0
o,0x00000000,1716772347.924538,172.16.1.2,30595,172.16.3.2,5101,33867,42089,0,64256,65728,6,6,4,1460,2316,1,992,99,82732,74044,65700,0,39096,0,0,0
o,0x00000000,1716772347.924630,172.16.1.2,30595,172.16.3.2,5101,33867,42089,0,64256,65728,6,6,4,1460,2316,1,992,99,82732,74044,65700,0,40544,0,0,0
i,0x00000000,1716772347.924924,172.16.1.2,30595,172.16.3.2,5101,33867,42089,0,64256,65728,6,6,4,1460,2316,1,992,99,82732,74044,65700,0,41992,0,0,0
o,0x00000000,1716772347.924927,172.16.1.2,30595,172.16.3.2,5101,33867,42089,0,64256,65728,6,6,4,1460,2323,1,992,99,82732,71148,65700,0,39096,0,0,0
o,0x00000000,1716772347.925008,172.16.1.2,30595,172.16.3.2,5101,33867,42089,0,64256,65728,6,6,4,1460,2323,1,992,99,82732,71148,65700,0,40544,0,0,0
i,0x00000000,1716772347.925081,172.16.1.2,30595,172.16.3.2,5101,33867,42089,0,64256,65728,6,6,4,1460,2323,1,992,99,82732,71148,65700,0,41992,0,0,0
o,0x00000000,1716772347.925084,172.16.1.2,30595,172.16.3.2,5101,33867,42089,0,64256,65728,6,6,4,1460,2329,1,992,99,82732,68252,65700,0,39096,0,0,0
o,0x00000000,1716772347.925158,172.16.1.2,30595,172.16.3.2,5101,33867,42089,0,64256,65728,6,6,4,1460,2329,1,992,99,82732,68252,65700,0,40544,0,0,0
i,0x00000000,1716772347.925231,172.16.1.2,30595,172.16.3.2,5101,33867,42089,0,64256,65728,6,6,4,1460,2329,1,992,99,82732,68252,65700,0,41992,0,0,0
o,0x00000000,1716772347.925234,172.16.1.2,30595,172.16.3.2,5101,33867,42089,0,64256,65728,6,6,4,1460,2334,1,992,99,82732,65356,65700,0,39096,0,0,0
o,0x00000000,1716772347.925308,172.16.1.2,30595,172.16.3.2,5101,33867,42089,0,64256,65728,6,6,4,1460,2334,1,992,99,82732,65356,65700,0,40544,0,0,0
i,0x00000000,1716772347.925381,172.16.1.2,30595,172.16.3.2,5101,33867,42089,0,64256,65728,6,6,4,1460,2334,1,992,99,82732,65356,65700,0,41992,0,0,0
o,0x00000000,1716772347.925384,172.16.1.2,30595,172.16.3.2,5101,33867,42089,0,64256,65728,6,6,4,1460,2339,1,992,99,82732,62460,65700,0,39096,0,0,0
o,0x00000000,1716772347.925665,172.16.1.2,30595,172.16.3.2,5101,33867,42089,0,64256,65728,6,6,4,1460,2339,1,992,99,82732,62460,65700,0,40544,0,0,0
i,0x00000000,1716772347.925739,172.16.1.2,30595,172.16.3.2,5101,33867,42089,0,64256,65728,6,6,4,1460,2339,1,992,99,82732,62460,65700,0,41992,0,0,0
o,0x00000000,1716772347.925742,172.16.1.2,30595,172.16.3.2,5101,33867,43549,0,64256,65728,6,6,4,1460,2347,1,992,100,82732,59564,65700,0,39096,0,0,0
o,0x00000000,1716772347.925814,172.16.1.2,30595,172.16.3.2,5101,33867,43549,0,64256,65728,6,6,4,1460,2347,1,992,100,82732,59564,65700,0,40544,0,0,0
o,0x00000000,1716772347.925887,172.16.1.2,30595,172.16.3.2,5101,33867,43549,0,64256,65728,6,6,4,1460,2347,1,992,100,82732,59564,65700,0,41992,0,0,0
i,0x00000000,1716772347.925960,172.16.1.2,30595,172.16.3.2,5101,33867,43549,0,64256,65728,6,6,4,1460,2347,1,992,100,82732,59564,65700,0,43440,0,0,0
o,0x00000000,1716772347.925962,172.16.1.2,30595,172.16.3.2,5101,33867,43549,0,64256,65728,6,6,4,1460,2354,1,992,100,82732,56668,65700,0,40544,0,0,0
o,0x00000000,1716772347.926036,172.16.1.2,30595,172.16.3.2,5101,33867,43549,0,64256,65728,6,6,4,1460,2354,1,992,100,82732,56668,65700,0,41992,0,0,0
i,0x00000000,1716772347.926109,172.16.1.2,30595,172.16.3.2,5101,33867,43549,0,64256,65728,6,6,4,1460,2354,1,992,100,82732,56668,65700,0,43440,0,0,0
o,0x00000000,1716772347.926112,172.16.1.2,30595,172.16.3.2,5101,33867,43549,0,64256,65728,6,6,4,1460,2360,1,992,100,82732,53772,65700,0,40544,0,0,0
o,0x00000000,1716772347.926186,172.16.1.2,30595,172.16.3.2,5101,33867,43549,0,64256,65728,6,6,4,1460,2360,1,992,100,82732,53772,65700,0,41992,0,0,0
i,0x00000000,1716772347.926474,172.16.1.2,30595,172.16.3.2,5101,33867,43549,0,64256,65728,6,6,4,1460,2360,1,992,100,82732,53772,65700,0,43440,0,0,0
o,0x00000000,1716772347.926477,172.16.1.2,30595,172.16.3.2,5101,33867,43549,0,64256,65728,6,6,4,1460,2365,1,992,100,82732,50876,65700,0,40544,0,0,0
o,0x00000000,1716772347.926552,172.16.1.2,30595,172.16.3.2,5101,33867,43549,0,64256,65728,6,6,4,1460,2365,1,992,100,82732,50876,65700,0,41992,0,0,0
i,0x00000000,1716772347.926626,172.16.1.2,30595,172.16.3.2,5101,33867,43549,0,64256,65728,6,6,4,1460,2365,1,992,100,82732,50876,65700,0,43440,0,0,0
o,0x00000000,1716772347.926629,172.16.1.2,30595,172.16.3.2,5101,33867,43549,0,64256,65728,6,6,4,1460,2370,1,992,100,82732,47980,65700,0,40544,0,0,0
o,0x00000000,1716772347.926703,172.16.1.2,30595,172.16.3.2,5101,33867,43549,0,64256,65728,6,6,4,1460,2370,1,992,100,82732,47980,65700,0,41992,0,0,0
i,0x00000000,1716772347.926776,172.16.1.2,30595,172.16.3.2,5101,33867,43549,0,64256,65728,6,6,4,1460,2370,1,992,100,82732,47980,65700,0,43440,0,0,0
o,0x00000000,1716772347.926778,172.16.1.2,30595,172.16.3.2,5101,33867,43549,0,64256,65728,6,6,4,1460,2374,1,992,99,82732,45084,65700,0,40544,0,0,0
