enable_time_secs=1716771478	enable_time_usecs=231897	siftrver=1.2.4	hz=100	tcp_rtt_scale=32	sysname=FreeBSD	sysver=1301000	ipmode=4
o,0x00000000,1716771478.231981,10.0.2.15,22,10.0.2.2,52917,1073725440,17298,0,65535,65700,0,0,4,1460,1,0,4,24,33580,44,65700,0,0,0,0,0
o,0x00000000,1716771478.232123,10.0.2.15,22,10.0.2.2,52917,1073725440,17298,0,65535,65700,0,0,4,1460,1,0,4,24,33580,80,65700,0,44,0,0,0
i,0x00000000,1716771478.232937,10.0.2.15,22,10.0.2.2,52917,1073725440,17298,0,65535,65700,0,0,4,1460,1,0,4,24,33580,80,65700,0,80,0,0,0
i,0x00000000,1716771478.232942,10.0.2.15,22,10.0.2.2,52917,1073725440,17342,0,65535,65700,0,0,4,1460,1,0,4,24,33580,36,65700,0,36,0,0,0
o,0x00000000,1716771478.233024,10.0.2.15,22,10.0.2.2,52917,1073725440,17378,0,65535,65700,0,0,4,1460,1,0,4,24,33580,36,65700,0,0,0,0,0
i,0x00000000,1716771478.233461,10.0.2.15,22,10.0.2.2,52917,1073725440,17378,0,65535,65700,0,0,4,1460,1,0,4,24,33580,36,65700,0,36,0,0,0
o,0x00000000,1716771478.233680,10.0.2.15,22,10.0.2.2,52917,1073725440,17414,0,65535,65700,0,0,4,1460,1,0,4,24,33580,176,65700,0,0,0,0,0
i,0x00000000,1716771478.234093,10.0.2.15,22,10.0.2.2,52917,1073725440,17414,0,65535,65700,0,0,4,1460,1,0,4,24,33580,176,65700,0,176,0,0,0
i,0x00000000,1716771478.234925,10.0.2.15,22,10.0.2.2,52917,1073725440,17590,0,65535,65700,0,0,4,1460,1,0,4,24,33580,0,65700,0,0,0,0,0
i,0x00000000,1716771478.234929,10.0.2.15,22,10.0.2.2,52917,1073725440,17590,0,65535,65700,0,0,4,1460,1,0,4,24,33580,0,65700,36,0,0,0,0
o,0x00000000,1716771478.234931,10.0.2.15,22,10.0.2.2,52917,1073725440,17590,0,65535,65700,0,0,4,1460,1,0,5,24,33580,0,65700,96,0,0,0,0
i,0x00000000,1716771478.235025,10.0.2.15,22,10.0.2.2,52917,1073725440,17590,0,65535,65700,0,0,4,1460,1,0,4,24,33580,0,65700,96,0,0,0,0
o,0x00000000,1716771478.235028,10.0.2.15,22,10.0.2.2,52917,1073725440,17590,0,65535,65604,0,0,5,1460,1,0,7,24,33580,0,65700,96,0,0,0,0
o,0x00000000,1716771478.235736,10.0.2.15,22,10.0.2.2,52917,1073725440,17590,0,65535,65604,0,0,8,1460,1,0,4,24,33580,0,65700,0,0,0,0,0
i,0x00000000,1716771478.236439,10.0.2.15,22,10.0.2.2,52917,1073725440,17590,0,65535,65604,0,0,8,1460,1,0,20,24,33580,0,65700,0,1,0,0,0
i,0x00000000,1716771480.423245,10.0.2.15,22,10.0.2.2,52923,1073725440,14600,0,65535,65700,0,0,4,1460,1,0,0,27,33580,0,65700,0,0,0,0,0
o,0x00000000,1716771480.428854,10.0.2.15,22,10.0.2.2,52923,1073725440,14600,0,65535,65700,0,0,4,1460,1,0,0,27,33580,38,65700,41,0,0,0,0
i,0x00000000,1716771480.429754,10.0.2.15,22,10.0.2.2,52923,1073725440,14600,0,65535,65700,0,0,4,1460,1,0,0,27,33580,38,65700,0,38,0,0,0
i,0x00000000,1716771480.430400,10.0.2.15,22,10.0.2.2,52923,1073725440,14638,0,65535,65700,0,0,4,1460,1,0,0,24,33580,0,65700,0,0,0,0,0
i,0x00000000,1716771480.430403,10.0.2.15,22,10.0.2.2,52923,1073725440,14638,0,65535,65700,0,0,4,1460,1,0,0,24,33580,0,65700,1460,0,0,0,0
o,0x00000000,1716771480.430407,10.0.2.15,22,10.0.2.2,52923,1073725440,14638,0,65535,65700,0,0,4,1460,1,0,1,24,33580,0,65700,1536,0,0,0,0
o,0x00000000,1716771480.431087,10.0.2.15,22,10.0.2.2,52923,1073725440,14638,0,65535,65700,0,0,4,1460,1,0,0,24,33580,1056,65700,1536,0,0,0,0
i,0x00000000,1716771480.431839,10.0.2.15,22,10.0.2.2,52923,1073725440,14638,0,65535,65700,0,0,4,1460,1,0,0,24,33580,1056,65700,1536,1056,0,0,0
i,0x00000000,1716771480.435166,10.0.2.15,22,10.0.2.2,52923,1073725440,15694,0,65535,65700,0,0,4,1460,1,0,0,24,33580,0,65700,0,0,0,0,0
o,0x00000000,1716771480.437791,10.0.2.15,22,10.0.2.2,52923,1073725440,15694,0,65535,65700,0,0,4,1460,1,0,0,24,33580,484,65700,0,0,0,0,0
i,0x00000000,1716771480.438635,10.0.2.15,22,10.0.2.2,52923,1073725440,15694,0,65535,65700,0,0,4,1460,1,0,0,24,33580,484,65700,0,484,0,0,0
i,0x00000000,1716771480.449879,10.0.2.15,22,10.0.2.2,52923,1073725440,16178,0,65535,65700,0,0,4,1460,1,0,0,24,33580,0,65700,0,0,0,0,0
i,0x00000000,1716771480.461100,10.0.2.15,22,10.0.2.2,52923,1073725440,16178,0,65535,65700,0,0,4,1460,1,0,0,24,33580,0,65700,0,0,0,0,0
o,0x00000000,1716771480.461117,10.0.2.15,22,10.0.2.2,52923,1073725440,16178,0,65535,65700,0,0,4,1460,1,0,1,24,33580,0,65700,44,0,0,0,0
o,0x00000000,1716771480.461337,10.0.2.15,22,10.0.2.2,52923,1073725440,16178,0,65535,65700,0,0,4,1460,1,0,0,24,33580,44,65700,0,0,0,0,0
i,0x00000000,1716771480.461778,10.0.2.15,22,10.0.2.2,52923,1073725440,16178,0,65535,65700,0,0,4,1460,1,0,0,24,33580,44,65700,0,44,0,0,0
i,0x00000000,1716771480.462479,10.0.2.15,22,10.0.2.2,52923,1073725440,16222,0,65535,65700,0,0,4,1460,1,0,0,24,33580,0,65700,0,0,0,0,0
o,0x00000000,1716771480.471889,10.0.2.15,22,10.0.2.2,52923,1073725440,16222,0,65535,65700,0,0,4,1460,1,0,0,24,33580,68,65700,0,0,0,0,0
i,0x00000000,1716771480.472421,10.0.2.15,22,10.0.2.2,52923,1073725440,16222,0,65535,65700,0,0,4,1460,1,0,0,24,33580,68,65700,0,68,0,0,0
i,0x00000000,1716771480.474956,10.0.2.15,22,10.0.2.2,52923,1073725440,16290,0,65535,65700,0,0,4,1460,1,0,0,24,33580,0,65700,0,0,0,0,0
o,0x00000000,1716771480.484547,10.0.2.15,22,10.0.2.2,52923,1073725440,16290,0,65535,65700,0,0,4,1460,1,0,0,24,33580,28,65700,0,0,0,0,0
i,0x00000000,1716771480.485462,10.0.2.15,22,10.0.2.2,52923,1073725440,16290,0,65535,65700,0,0,4,1460,1,0,0,24,33580,28,65700,0,28,0,0,0
i,0x00000000,1716771480.485917,10.0.2.15,22,10.0.2.2,52923,1073725440,16318,0,65535,65700,0,0,4,1460,1,0,0,24,33580,0,65700,0,0,0,0,0
o,0x00000000,1716771480.488251,10.0.2.15,22,10.0.2.2,52923,1073725440,16318,0,65535,65700,0,0,4,1460,1,0,0,24,33580,768,65700,112,0,0,0,0
i,0x00000000,1716771480.489490,10.0.2.15,22,10.0.2.2,52923,1073725440,16318,0,65535,65700,0,0,4,1460,1,0,0,24,33580,768,65700,112,768,0,0,0
o,0x00000000,1716771480.489871,10.0.2.15,22,10.0.2.2,52923,1073725440,17086,0,65535,65700,0,0,4,1460,1,0,0,24,33580,44,65700,0,0,0,0,0
i,0x00000000,1716771480.490622,10.0.2.15,22,10.0.2.2,52923,1073725440,17086,0,65535,65700,0,0,4,1460,1,0,0,24,33580,44,65700,0,44,0,0,0
i,0x00000000,1716771480.491854,10.0.2.15,22,10.0.2.2,52923,1073725440,17130,0,65535,65700,0,0,4,1460,1,0,0,24,33580,0,65700,0,0,0,0,0
o,0x00000000,1716771480.493158,10.0.2.15,22,10.0.2.2,52923,1073725440,17130,0,65535,65700,0,0,4,1460,1,0,4,24,33580,72,65700,0,0,0,0,0
i,0x00000000,1716771480.494306,10.0.2.15,22,10.0.2.2,52923,1073725440,17130,0,65535,65700,0,0,4,1460,1,0,4,24,33580,72,65700,0,72,0,0,0
o,0x00000000,1716771480.499536,10.0.2.15,22,10.0.2.2,52923,1073725440,17202,0,65535,65700,0,0,4,1460,1,0,4,24,33580,44,65700,0,0,0,0,0
i,0x00000000,1716771480.500463,10.0.2.15,22,10.0.2.2,52923,1073725440,17202,0,65535,65700,0,0,4,1460,1,0,4,24,33580,44,65700,0,44,0,0,0
o,0x00000000,1716771480.500917,10.0.2.15,22,10.0.2.2,52923,1073725440,17246,0,65535,65700,0,0,4,1460,1,0,4,24,33580,44,65700,0,0,0,0,0
i,0x00000000,1716771480.501616,10.0.2.15,22,10.0.2.2,52923,1073725440,17246,0,65535,65700,0,0,4,1460,1,0,4,24,33580,44,65700,0,44,0,0,0
o,0x00000000,1716771480.509720,10.0.2.15,22,10.0.2.2,52923,1073725440,17290,0,65535,65700,0,0,4,1460,1,0,4,24,33580,176,65700,0,0,0,0,0
i,0x00000000,1716771480.510704,10.0.2.15,22,10.0.2.2,52923,1073725440,17290,0,65535,65700,0,0,4,1460,1,0,4,24,33580,176,65700,0,176,0,0,0
i,0x00000000,1716771480.517771,10.0.2.15,22,10.0.2.2,52923,1073725440,17466,0,65535,65700,0,0,4,1460,1,0,4,24,33580,0,65700,0,0,0,0,0
i,0x00000000,1716771480.517783,10.0.2.15,22,10.0.2.2,52923,1073725440,17466,0,65535,65700,0,0,4,1460,1,0,4,24,33580,0,65700,36,0,0,0,0
o,0x00000000,1716771480.517791,10.0.2.15,22,10.0.2.2,52923,1073725440,17466,0,65535,65700,0,0,4,1460,1,0,5,24,33580,0,65700,96,0,0,0,0
i,0x00000000,1716771480.519890,10.0.2.15,22,10.0.2.2,52923,1073725440,17466,0,65535,65700,0,0,4,1460,1,0,4,24,33580,0,65700,0,0,0,0,0
o,0x00000000,1716771480.519902,10.0.2.15,22,10.0.2.2,52923,1073725440,17466,0,65535,65700,0,0,5,1460,1,0,7,24,33580,0,65700,0,0,0,0,0
o,0x00000000,1716771480.520572,10.0.2.15,22,10.0.2.2,52923,1073725440,17466,0,65535,65700,0,0,8,1460,1,0,4,24,33580,0,65700,0,0,0,0,0
i,0x00000000,1716771480.521039,10.0.2.15,22,10.0.2.2,52923,1073725440,17466,0,65535,65700,0,0,8,1460,1,0,20,24,33580,0,65700,0,1,0,0,0
i,0x00000000,1716771480.532337,10.0.2.15,22,10.0.2.2,52924,1073725440,14600,0,65535,65700,0,0,4,1460,1,0,0,27,33580,0,65700,0,0,0,0,0
o,0x00000000,1716771480.541092,10.0.2.15,22,10.0.2.2,52924,1073725440,14600,0,65535,65700,0,0,4,1460,1,0,0,27,33580,38,65700,41,0,0,0,0
i,0x00000000,1716771480.542007,10.0.2.15,22,10.0.2.2,52924,1073725440,14600,0,65535,65700,0,0,4,1460,1,0,0,27,33580,38,65700,0,38,0,0,0
i,0x00000000,1716771480.543032,10.0.2.15,22,10.0.2.2,52924,1073725440,14638,0,65535,65700,0,0,4,1460,1,0,0,24,33580,0,65700,0,0,0,0,0
i,0x00000000,1716771480.543038,10.0.2.15,22,10.0.2.2,52924,1073725440,14638,0,65535,65700,0,0,4,1460,1,0,0,24,33580,0,65700,1460,0,0,0,0
o,0x00000000,1716771480.543044,10.0.2.15,22,10.0.2.2,52924,1073725440,14638,0,65535,65700,0,0,4,1460,1,0,1,24,33580,0,65700,1536,0,0,0,0
o,0x00000000,1716771480.543673,10.0.2.15,22,10.0.2.2,52924,1073725440,14638,0,65535,65700,0,0,4,1460,1,0,0,24,33580,1056,65700,1536,0,0,0,0
i,0x00000000,1716771480.544583,10.0.2.15,22,10.0.2.2,52924,1073725440,14638,0,65535,65700,0,0,4,1460,1,0,0,24,33580,1056,65700,1536,1056,0,0,0
i,0x00000000,1716771480.550220,10.0.2.15,22,10.0.2.2,52924,1073725440,15694,0,65535,65700,0,0,4,1460,1,0,0,24,33580,0,65700,0,0,0,0,0
o,0x00000000,1716771480.552896,10.0.2.15,22,10.0.2.2,52924,1073725440,15694,0,65535,65700,0,0,4,1460,1,0,0,24,33580,484,65700,0,0,0,0,0
i,0x00000000,1716771480.553543,10.0.2.15,22,10.0.2.2,52924,1073725440,15694,0,65535,65700,0,0,4,1460,1,0,0,24,33580,484,65700,0,484,0,0,0
i,0x00000000,1716771480.570397,10.0.2.15,22,10.0.2.2,52924,1073725440,16178,0,65535,65700,0,0,4,1460,1,0,0,24,33580,0,65700,0,0,0,0,0
i,0x00000000,1716771480.574403,10.0.2.15,22,10.0.2.2,52924,1073725440,16178,0,65535,65700,0,0,4,1460,1,0,0,24,33580,0,65700,0,0,0,0,0
o,0x00000000,1716771480.574423,10.0.2.15,22,10.0.2.2,52924,1073725440,16178,0,65535,65700,0,0,4,1460,1,0,1,24,33580,0,65700,44,0,0,0,0
o,0x00000000,1716771480.574672,10.0.2.15,22,10.0.2.2,52924,1073725440,16178,0,65535,65700,0,0,4,1460,1,0,0,24,33580,44,65700,0,0,0,0,0
i,0x00000000,1716771480.575099,10.0.2.15,22,10.0.2.2,52924,1073725440,16178,0,65535,65700,0,0,4,1460,1,0,0,24,33580,44,65700,0,44,0,0,0
i,0x00000000,1716771480.576543,10.0.2.15,22,10.0.2.2,52924,1073725440,16222,0,65535,65700,0,0,4,1460,1,0,0,24,33580,0,65700,0,0,0,0,0
o,0x00000000,1716771480.586182,10.0.2.15,22,10.0.2.2,52924,1073725440,16222,0,65535,65700,0,0,4,1460,1,0,0,24,33580,68,65700,0,0,0,0,0
i,0x00000000,1716771480.587079,10.0.2.15,22,10.0.2.2,52924,1073725440,16222,0,65535,65700,0,0,4,1460,1,0,0,24,33580,68,65700,0,68,0,0,0
i,0x00000000,1716771480.590705,10.0.2.15,22,10.0.2.2,52924,1073725440,16290,0,65535,65700,0,0,4,1460,1,0,0,24,33580,0,65700,0,0,0,0,0
o,0x00000000,1716771480.600372,10.0.2.15,22,10.0.2.2,52924,1073725440,16290,0,65535,65700,0,0,4,1460,1,0,0,24,33580,28,65700,0,0,0,0,0
i,0x00000000,1716771480.601296,10.0.2.15,22,10.0.2.2,52924,1073725440,16290,0,65535,65700,0,0,4,1460,1,0,0,24,33580,28,65700,0,28,0,0,0
i,0x00000000,1716771480.602899,10.0.2.15,22,10.0.2.2,52924,1073725440,16318,0,65535,65700,0,0,4,1460,1,0,0,24,33580,0,65700,0,0,0,0,0
o,0x00000000,1716771480.604593,10.0.2.15,22,10.0.2.2,52924,1073725440,16318,0,65535,65700,0,0,4,1460,1,0,0,24,33580,768,65700,112,0,0,0,0
i,0x00000000,1716771480.605392,10.0.2.15,22,10.0.2.2,52924,1073725440,16318,0,65535,65700,0,0,4,1460,1,0,0,24,33580,768,65700,112,768,0,0,0
o,0x00000000,1716771480.605620,10.0.2.15,22,10.0.2.2,52924,1073725440,17086,0,65535,65700,0,0,4,1460,1,0,0,24,33580,44,65700,0,0,0,0,0
i,0x00000000,1716771480.606171,10.0.2.15,22,10.0.2.2,52924,1073725440,17086,0,65535,65700,0,0,4,1460,1,0,0,24,33580,44,65700,0,44,0,0,0
i,0x00000000,1716771480.607016,10.0.2.15,22,10.0.2.2,52924,1073725440,17130,0,65535,65700,0,0,4,1460,1,0,0,24,33580,0,65700,0,0,0,0,0
o,0x00000000,1716771480.607671,10.0.2.15,22,10.0.2.2,52924,1073725440,17130,0,65535,65700,0,0,4,1460,1,0,4,24,33580,72,65700,0,0,0,0,0
i,0x00000000,1716771480.608441,10.0.2.15,22,10.0.2.2,52924,1073725440,17130,0,65535,65700,0,0,4,1460,1,0,4,24,33580,72,65700,0,72,0,0,0
i,0x00000000,1716771480.608972,10.0.2.15,22,10.0.2.2,52924,1073725440,17202,0,65535,65700,0,0,4,1460,1,0,4,24,33580,0,65700,0,0,0,0,0
o,0x00000000,1716771480.614718,172.16.1.2,55711,172.16.3.2,5101,1073725440,1073725440,0,0,0,0,0,2,536,0,1,672,100,32768,0,65536,0,0,0,0,0
o,0x00000000,1716771480.646935,10.0.2.15,22,10.0.2.2,52924,1073725440,17202,0,65535,65700,0,0,4,1460,1,0,5,24,33580,0,65700,0,0,0,0,0
i,0x00000000,1716771480.727662,172.16.1.2,55711,172.16.3.2,5101,1073725440,1073725440,0,0,0,0,0,2,536,0,1,672,100,32768,0,65536,0,1,0,0,0
o,0x00000000,1716771480.727684,172.16.1.2,55711,172.16.3.2,5101,19471,14480,0,65535,65700,6,6,4,1460,511,1,993,53,33580,0,65700,0,0,0,0,0
o,0x00000000,1716771480.728054,172.16.1.2,55711,172.16.3.2,5101,19471,14480,0,65535,65700,6,6,4,1460,511,1,996,53,33580,37,65700,0,0,0,0,0
i,0x00000000,1716771480.847179,172.16.1.2,55711,172.16.3.2,5101,19471,14480,0,65535,65700,6,6,4,1460,511,1,996,53,33580,37,65700,0,37,0,0,0
o,0x00000000,1716771480.847328,172.16.1.2,55711,172.16.3.2,5101,19471,14517,0,65728,65728,6,6,4,1460,492,1,996,53,33580,4,65700,0,0,0,0,0
o,0x00000000,1716771480.847690,172.16.1.2,55711,172.16.3.2,5101,19471,14517,0,65728,65728,6,6,4,1460,492,1,996,53,33580,128,65700,0,4,0,0,0
i,0x00000000,1716771480.967336,172.16.1.2,55711,172.16.3.2,5101,19471,14517,0,65728,65728,6,6,4,1460,492,1,996,53,33580,128,65700,0,128,0,0,0
i,0x00000000,1716771480.967353,172.16.1.2,55711,172.16.3.2,5101,19471,14645,0,65600,65728,6,6,4,1460,475,1,996,52,33580,0,65700,0,0,0,0,0
o,0x00000000,1716771480.967539,172.16.1.2,18194,172.16.3.2,5101,1073725440,1073725440,0,0,0,0,0,2,536,0,1,672,100,32768,0,65536,0,0,0,0,0
o,0x00000000,1716771481.007162,172.16.1.2,55711,172.16.3.2,5101,19471,14645,0,65728,65728,6,6,4,1460,475,1,997,52,33580,0,65700,0,0,0,0,0
i,0x00000000,1716771481.087610,172.16.1.2,18194,172.16.3.2,5101,1073725440,1073725440,0,0,0,0,0,2,536,0,1,672,100,32768,0,65536,0,1,0,0,0
o,0x00000000,1716771481.087649,172.16.1.2,18194,172.16.3.2,5101,19471,14480,0,65535,65700,6,6,4,1460,511,1,993,53,33580,0,65700,0,0,0,0,0
o,0x00000000,1716771481.087802,172.16.1.2,18194,172.16.3.2,5101,19471,14480,0,65535,65700,6,6,4,1460,511,1,992,53,33580,37,65700,0,0,0,0,0
i,0x00000000,1716771481.207839,172.16.1.2,55711,172.16.3.2,5101,19471,14645,0,65728,65728,6,6,4,1460,475,1,996,52,33580,0,65700,0,0,0,0,0
i,0x00000000,1716771481.207852,172.16.1.2,55711,172.16.3.2,5101,19471,14645,0,65728,65728,6,6,4,1460,475,1,996,52,33580,0,65700,1,0,0,0,0
o,0x00000000,1716771481.207859,172.16.1.2,55711,172.16.3.2,5101,19471,14645,0,65728,65728,6,6,4,1460,475,1,997,52,33580,0,65700,2,0,0,0,0
o,0x00000000,1716771481.208154,172.16.1.2,18194,172.16.3.2,5101,19471,14480,0,65535,65700,6,6,4,1460,511,1,992,53,33580,33580,65700,0,37,0,0,0
o,0x00000000,1716771481.208490,172.16.1.2,18194,172.16.3.2,5101,19471,14480,0,65535,65700,6,6,4,1460,511,1,992,53,33580,33580,65700,0,1485,0,0,0
o,0x00000000,1716771481.208809,172.16.1.2,18194,172.16.3.2,5101,19471,14480,0,65535,65700,6,6,4,1460,511,1,992,53,33580,33580,65700,0,2933,0,0,0
o,0x00000000,1716771481.209251,172.16.1.2,18194,172.16.3.2,5101,19471,14480,0,65535,65700,6,6,4,1460,511,1,992,53,33580,33580,65700,0,4381,0,0,0
o,0x00000000,1716771481.209571,172.16.1.2,18194,172.16.3.2,5101,19471,14480,0,65535,65700,6,6,4,1460,511,1,992,53,33580,33580,65700,0,5829,0,0,0
o,0x00000000,1716771481.209890,172.16.1.2,18194,172.16.3.2,5101,19471,14480,0,65535,65700,6,6,4,1460,511,1,992,53,33580,33580,65700,0,7277,0,0,0
o,0x00000000,1716771481.210235,172.16.1.2,18194,172.16.3.2,5101,19471,14480,0,65535,65700,6,6,4,1460,511,1,992,53,33580,33580,65700,0,8725,0,0,0
o,0x00000000,1716771481.210556,172.16.1.2,18194,172.16.3.2,5101,19471,14480,0,65535,65700,6,6,4,1460,511,1,992,53,33580,33580,65700,0,10173,0,0,0
o,0x00000000,1716771481.210876,172.16.1.2,18194,172.16.3.2,5101,19471,14480,0,65535,65700,6,6,4,1460,511,1,992,53,33580,33580,65700,0,11621,0,0,0
i,0x00000000,1716771481.237809,172.16.1.2,18194,172.16.3.2,5101,19471,14480,0,65535,65700,6,6,4,1460,511,1,992,53,33580,33580,65700,0,13069,0,0,0
o,0x00000000,1716771481.237820,172.16.1.2,18194,172.16.3.2,5101,19471,14517,0,65728,65728,6,6,4,1460,508,1,992,49,33580,33543,65700,0,13032,0,0,0
i,0x00000000,1716771481.507958,172.16.1.2,18194,172.16.3.2,5101,19471,14517,0,65728,65728,6,6,4,1460,508,1,992,49,33580,33543,65700,0,14480,0,0,0
o,0x00000000,1716771481.507979,172.16.1.2,18194,172.16.3.2,5101,19471,17413,0,64256,65728,6,6,4,1460,561,1,992,61,33580,30647,65700,0,11584,0,0,0
o,0x00000000,1716771481.508080,172.16.1.2,18194,172.16.3.2,5101,19471,17413,0,64256,65728,6,6,4,1460,561,1,992,61,33580,30647,65700,0,13032,0,0,0
o,0x00000000,1716771481.508291,172.16.1.2,18194,172.16.3.2,5101,19471,17413,0,64256,65728,6,6,4,1460,561,1,992,61,41772,30647,65700,0,14480,0,0,0
o,0x00000000,1716771481.508371,172.16.1.2,18194,172.16.3.2,5101,19471,17413,0,64256,65728,6,6,4,1460,561,1,992,61,41772,30647,65700,0,15928,0,0,0
i,0x00000000,1716771481.508450,172.16.1.2,18194,172.16.3.2,5101,19471,17413,0,64256,65728,6,6,4,1460,561,1,992,61,41772,30647,65700,0,17376,0,0,0
o,0x00000000,1716771481.508455,172.16.1.2,18194,172.16.3.2,5101,19471,20309,0,64256,65728,6,6,4,1460,607,1,992,68,41772,27751,65700,0,14480,0,0,0
o,0x00000000,1716771481.508543,172.16.1.2,18194,172.16.3.2,5101,19471,20309,0,64256,65728,6,6,4,1460,607,1,992,68,41772,27751,65700,0,15928,0,0,0
o,0x00000000,1716771481.508629,172.16.1.2,18194,172.16.3.2,5101,19471,20309,0,64256,65728,6,6,4,1460,607,1,992,68,41772,27751,65700,0,17376,0,0,0
o,0x00000000,1716771481.508720,172.16.1.2,18194,172.16.3.2,5101,19471,20309,0,64256,65728,6,6,4,1460,607,1,992,68,41772,27751,65700,0,18824,0,0,0
i,0x00000000,1716771481.508799,172.16.1.2,18194,172.16.3.2,5101,19471,20309,0,64256,65728,6,6,4,1460,607,1,992,68,41772,27751,65700,0,20272,0,0,0
o,0x00000000,1716771481.508802,172.16.1.2,18194,172.16.3.2,5101,19471,20309,0,64256,65728,6,6,4,1460,648,1,992,72,41772,24855,65700,0,17376,0,0,0
o,0x00000000,1716771481.508889,172.16.1.2,18194,172.16.3.2,5101,19471,20309,0,64256,65728,6,6,4,1460,648,1,992,72,41772,24855,65700,0,18824,0,0,0
i,0x00000000,1716771481.509218,172.16.1.2,18194,172.16.3.2,5101,19471,20309,0,64256,65728,6,6,4,1460,648,1,992,72,41772,24855,65700,0,20272,0,0,0
o,0x00000000,1716771481.509221,172.16.1.2,18194,172.16.3.2,5101,19471,20309,0,64256,65728,6,6,4,1460,683,1,992,74,41772,21959,65700,0,17376,0,0,0
o,0x00000000,1716771481.509298,172.16.1.2,18194,172.16.3.2,5101,19471,20309,0,64256,65728,6,6,4,1460,683,1,992,74,41772,21959,65700,0,18824,0,0,0
i,0x00000000,1716771481.536787,172.16.1.2,18194,172.16.3.2,5101,19471,20309,0,64256,65728,6,6,4,1460,683,1,992,74,41772,41772,65700,0,20272,0,0,0
o,0x00000000,1716771481.536809,172.16.1.2,18194,172.16.3.2,5101,19471,20309,0,64256,65728,6,6,4,1460,726,1,992,78,41772,38876,65700,0,17376,0,0,0
o,0x00000000,1716771481.537081,172.16.1.2,18194,172.16.3.2,5101,19471,20309,0,64256,65728,6,6,4,1460,726,1,992,78,49964,38876,65700,0,18824,0,0,0
i,0x00000000,1716771481.897654,172.16.1.2,18194,172.16.3.2,5101,19471,20309,0,64256,65728,6,6,4,1460,726,1,992,78,49964,49964,65700,0,20272,0,0,0
o,0x00000000,1716771481.897679,172.16.1.2,18194,172.16.3.2,5101,19471,20309,0,64256,65728,6,6,4,1460,792,1,992,88,49964,47068,65700,0,17376,0,0,0
o,0x00000000,1716771481.897804,172.16.1.2,18194,172.16.3.2,5101,19471,20309,0,64256,65728,6,6,4,1460,792,1,992,88,49964,47068,65700,0,18824,0,0,0
i,0x00000000,1716771481.897886,172.16.1.2,18194,172.16.3.2,5101,19471,20309,0,64256,65728,6,6,4,1460,792,1,992,88,49964,47068,65700,0,20272,0,0,0
o,0x00000000,1716771481.897888,172.16.1.2,18194,172.16.3.2,5101,19471,20309,0,64256,65728,6,6,4,1460,849,1,992,93,49964,44172,65700,0,17376,0,0,0
o,0x00000000,1716771481.897971,172.16.1.2,18194,172.16.3.2,5101,19471,20309,0,64256,65728,6,6,4,1460,849,1,992,93,49964,44172,65700,0,18824,0,0,0
i,0x00000000,1716771481.898045,172.16.1.2,18194,172.16.3.2,5101,19471,20309,0,64256,65728,6,6,4,1460,849,1,992,93,49964,44172,65700,0,20272,0,0,0
o,0x00000000,1716771481.898048,172.16.1.2,18194,172.16.3.2,5101,19471,20309,0,64256,65728,6,6,4,1460,899,1,992,95,49964,41276,65700,0,17376,0,0,0
o,0x00000000,1716771481.898122,172.16.1.2,18194,172.16.3.2,5101,19471,20309,0,64256,65728,6,6,4,1460,899,1,992,95,49964,41276,65700,0,18824,0,0,0
i,0x00000000,1716771481.898411,172.16.1.2,18194,172.16.3.2,5101,19471,20309,0,64256,65728,6,6,4,1460,899,1,992,95,49964,41276,65700,0,20272,0,0,0
o,0x00000000,1716771481.898413,172.16.1.2,18194,172.16.3.2,5101,19471,20309,0,64256,65728,6,6,4,1460,943,1,992,96,49964,38380,65700,0,17376,0,0,0
o,0x00000000,1716771481.898489,172.16.1.2,18194,172.16.3.2,5101,19471,20309,0,64256,65728,6,6,4,1460,943,1,992,96,49964,38380,65700,0,18824,0,0,0
i,0x00000000,1716771481.898563,172.16.1.2,18194,172.16.3.2,5101,19471,20309,0,64256,65728,6,6,4,1460,943,1,992,96,49964,38380,65700,0,20272,0,0,0
o,0x00000000,1716771481.898566,172.16.1.2,18194,172.16.3.2,5101,19471,21769,0,64256,65728,6,6,4,1460,982,1,992,95,49964,35484,65700,0,17376,0,0,0
o,0x00000000,1716771481.898639,172.16.1.2,18194,172.16.3.2,5101,19471,21769,0,64256,65728,6,6,4,1460,982,1,992,95,49964,35484,65700,0,18824,0,0,0
o,0x00000000,1716771481.898713,172.16.1.2,18194,172.16.3.2,5101,19471,21769,0,64256,65728,6,6,4,1460,982,1,992,95,49964,35484,65700,0,20272,0,0,0
i,0x00000000,1716771481.898787,172.16.1.2,18194,172.16.3.2,5101,19471,21769,0,64256,65728,6,6,4,1460,982,1,992,95,49964,35484,65700,0,21720,0,0,0
o,0x00000000,1716771481.898789,172.16.1.2,18194,172.16.3.2,5101,19471,21769,0,64256,65728,6,6,4,1460,1016,1,992,94,49964,32588,65700,0,18824,0,0,0
o,0x00000000,1716771481.898864,172.16.1.2,18194,172.16.3.2,5101,19471,21769,0,64256,65728,6,6,4,1460,1016,1,992,94,49964,32588,65700,0,20272,0,0,0
i,0x00000000,1716771481.926871,172.16.1.2,18194,172.16.3.2,5101,19471,21769,0,64256,65728,6,6,4,1460,1016,1,992,94,49964,49964,65700,0,21720,0,0,0
o,0x00000000,1716771481.926884,172.16.1.2,18194,172.16.3.2,5101,19471,21769,0,64256,65728,6,6,4,1460,1045,1,992,91,49964,47068,65700,0,18824,0,0,0
o,0x00000000,1716771481.927140,172.16.1.2,18194,172.16.3.2,5101,19471,21769,0,64256,65728,6,6,4,1460,1045,1,992,91,49964,47068,65700,0,20272,0,0,0
i,0x00000000,1716771482.318557,172.16.1.2,18194,172.16.3.2,5101,19471,21769,0,64256,65728,6,6,4,1460,1045,1,992,91,49964,49964,65700,0,21720,0,0,0
o,0x00000000,1716771482.318582,172.16.1.2,18194,172.16.3.2,5101,19471,21769,0,64256,65728,6,6,4,1460,1083,1,992,92,49964,47068,65700,0,18824,0,0,0
o,0x00000000,1716771482.318691,172.16.1.2,18194,172.16.3.2,5101,19471,21769,0,64256,65728,6,6,4,1460,1083,1,992,92,49964,47068,65700,0,20272,0,0,0
i,0x00000000,1716771482.318783,172.16.1.2,18194,172.16.3.2,5101,19471,21769,0,64256,65728,6,6,4,1460,1083,1,992,92,49964,47068,65700,0,21720,0,0,0
o,0x00000000,1716771482.318787,172.16.1.2,18194,172.16.3.2,5101,19471,21769,0,64256,65728,6,6,4,1460,1116,1,992,92,49964,44172,65700,0,18824,0,0,0
o,0x00000000,1716771482.318868,172.16.1.2,18194,172.16.3.2,5101,19471,21769,0,64256,65728,6,6,4,1460,1116,1,992,92,49964,44172,65700,0,20272,0,0,0
i,0x00000000,1716771482.319404,172.16.1.2,18194,172.16.3.2,5101,19471,21769,0,64256,65728,6,6,4,1460,1116,1,992,92,49964,44172,65700,0,21720,0,0,0
o,0x00000000,1716771482.319408,172.16.1.2,18194,172.16.3.2,5101,19471,21769,0,64256,65728,6,6,4,1460,1145,1,992,91,49964,41276,65700,0,18824,0,0,0
o,0x00000000,1716771482.319490,172.16.1.2,18194,172.16.3.2,5101,19471,21769,0,64256,65728,6,6,4,1460,1145,1,992,91,49964,41276,65700,0,20272,0,0,0
i,0x00000000,1716771482.319570,172.16.1.2,18194,172.16.3.2,5101,19471,21769,0,64256,65728,6,6,4,1460,1145,1,992,91,49964,41276,65700,0,21720,0,0,0
o,0x00000000,1716771482.319573,172.16.1.2,18194,172.16.3.2,5101,19471,21769,0,64256,65728,6,6,4,1460,1170,1,992,89,49964,38380,65700,0,18824,0,0,0
o,0x00000000,1716771482.319653,172.16.1.2,18194,172.16.3.2,5101,19471,21769,0,64256,65728,6,6,4,1460,1170,1,992,89,49964,38380,65700,0,20272,0,0,0
i,0x00000000,1716771482.319733,172.16.1.2,18194,172.16.3.2,5101,19471,21769,0,64256,65728,6,6,4,1460,1170,1,992,89,49964,38380,65700,0,21720,0,0,0
o,0x00000000,1716771482.319736,172.16.1.2,18194,172.16.3.2,5101,19471,23229,0,64256,65728,6,6,4,1460,1192,1,992,87,49964,35484,65700,0,18824,0,0,0
o,0x00000000,1716771482.319831,172.16.1.2,18194,172.16.3.2,5101,19471,23229,0,64256,65728,6,6,4,1460,1192,1,992,87,49964,35484,65700,0,20272,0,0,0
o,0x00000000,1716771482.319912,172.16.1.2,18194,172.16.3.2,5101,19471,23229,0,64256,65728,6,6,4,1460,1192,1,992,87,49964,35484,65700,0,21720,0,0,0
i,0x00000000,1716771482.319991,172.16.1.2,18194,172.16.3.2,5101,19471,23229,0,64256,65728,6,6,4,1460,1192,1,992,87,49964,35484,65700,0,23168,0,0,0
o,0x00000000,1716771482.319994,172.16.1.2,18194,172.16.3.2,5101,19471,23229,0,64256,65728,6,6,4,1460,1211,1,992,85,49964,32588,65700,0,20272,0,0,0
o,0x00000000,1716771482.320074,172.16.1.2,18194,172.16.3.2,5101,19471,23229,0,64256,65728,6,6,4,1460,1211,1,992,85,49964,32588,65700,0,21720,0,0,0
i,0x00000000,1716771482.320384,172.16.1.2,18194,172.16.3.2,5101,19471,23229,0,64256,65728,6,6,4,1460,1211,1,992,85,49964,32588,65700,0,23168,0,0,0
o,0x00000000,1716771482.320388,172.16.1.2,18194,172.16.3.2,5101,19471,23229,0,64256,65728,6,6,4,1460,1228,1,992,83,49964,29692,65700,0,20272,0,0,0
o,0x00000000,1716771482.320469,172.16.1.2,18194,172.16.3.2,5101,19471,23229,0,64256,65728,6,6,4,1460,1228,1,992,83,49964,29692,65700,0,21720,0,0,0
i,0x00000000,1716771482.707750,172.16.1.2,18194,172.16.3.2,5101,19471,23229,0,64256,65728,6,6,4,1460,1228,1,992,83,49964,49964,65700,0,23168,0,0,0
o,0x00000000,1716771482.707775,172.16.1.2,18194,172.16.3.2,5101,19471,23229,0,65728,65728,6,6,4,1460,1387,1,992,121,49964,48516,65700,0,21720,0,0,0
i,0x00000000,1716771482.738225,172.16.1.2,18194,172.16.3.2,5101,19471,23229,0,65728,65728,6,6,4,1460,1387,1,992,121,49964,48516,65700,0,23168,0,0,0
o,0x00000000,1716771482.738250,172.16.1.2,18194,172.16.3.2,5101,19471,23229,0,64256,65728,6,6,4,1460,1382,1,992,108,49964,45620,65700,0,20272,0,0,0
o,0x00000000,1716771482.738372,172.16.1.2,18194,172.16.3.2,5101,19471,23229,0,64256,65728,6,6,4,1460,1382,1,992,108,49964,45620,65700,0,21720,0,0,0
i,0x00000000,1716771482.738449,172.16.1.2,18194,172.16.3.2,5101,19471,23229,0,64256,65728,6,6,4,1460,1382,1,992,108,58156,45620,65700,0,23168,0,0,0
o,0x00000000,1716771482.738452,172.16.1.2,18194,172.16.3.2,5101,19471,23229,0,64256,65728,6,6,4,1460,1378,1,992,98,58156,42724,65700,0,20272,0,0,0
o,0x00000000,1716771482.738549,172.16.1.2,18194,172.16.3.2,5101,19471,23229,0,64256,65728,6,6,4,1460,1378,1,992,98,58156,42724,65700,0,21720,0,0,0
i,0x00000000,1716771482.738651,172.16.1.2,18194,172.16.3.2,5101,19471,23229,0,64256,65728,6,6,4,1460,1378,1,992,98,58156,42724,65700,0,23168,0,0,0
o,0x00000000,1716771482.738654,172.16.1.2,18194,172.16.3.2,5101,19471,23229,0,64256,65728,6,6,4,1460,1374,1,992,90,58156,39828,65700,0,20272,0,0,0
o,0x00000000,1716771482.738750,172.16.1.2,18194,172.16.3.2,5101,19471,23229,0,64256,65728,6,6,4,1460,1374,1,992,90,58156,39828,65700,0,21720,0,0,0
i,0x00000000,1716771482.738873,172.16.1.2,18194,172.16.3.2,5101,19471,23229,0,64256,65728,6,6,4,1460,1374,1,992,90,58156,39828,65700,0,23168,0,0,0
o,0x00000000,1716771482.738877,172.16.1.2,18194,172.16.3.2,5101,19471,23229,0,64256,65728,6,6,4,1460,1371,1,992,84,58156,36932,65700,0,20272,0,0,0
o,0x00000000,1716771482.739010,172.16.1.2,18194,172.16.3.2,5101,19471,23229,0,64256,65728,6,6,4,1460,1371,1,992,84,58156,36932,65700,0,21720,0,0,0
i,0x00000000,1716771482.739352,172.16.1.2,18194,172.16.3.2,5101,19471,23229,0,64256,65728,6,6,4,1460,1371,1,992,84,58156,36932,65700,0,23168,0,0,0
o,0x00000000,1716771482.739356,172.16.1.2,18194,172.16.3.2,5101,19471,23229,0,64256,65728,6,6,4,1460,1368,1,992,79,58156,34036,65700,0,20272,0,0,0
o,0x00000000,1716771482.739443,172.16.1.2,18194,172.16.3.2,5101,19471,23229,0,64256,65728,6,6,4,1460,1368,1,992,79,58156,34036,65700,0,21720,0,0,0
i,0x00000000,1716771482.739522,172.16.1.2,18194,172.16.3.2,5101,19471,23229,0,64256,65728,6,6,4,1460,1368,1,992,79,58156,34036,65700,0,23168,0,0,0
o,0x00000000,1716771482.739524,172.16.1.2,18194,172.16.3.2,5101,19471,24689,0,64256,65728,6,6,4,1460,1365,1,992,76,58156,31140,65700,0,20272,0,0,0
o,0x00000000,1716771482.739601,172.16.1.2,18194,172.16.3.2,5101,19471,24689,0,64256,65728,6,6,4,1460,1365,1,992,76,58156,31140,65700,0,21720,0,0,0
o,0x00000000,1716771482.739680,172.16.1.2,18194,172.16.3.2,5101,19471,24689,0,64256,65728,6,6,4,1460,1365,1,992,76,58156,31140,65700,0,23168,0,0,0
i,0x00000000,1716771482.739757,172.16.1.2,18194,172.16.3.2,5101,19471,24689,0,64256,65728,6,6,4,1460,1365,1,992,76,58156,31140,65700,0,24616,0,0,0
o,0x00000000,1716771482.739760,172.16.1.2,18194,172.16.3.2,5101,19471,24689,0,64256,65728,6,6,4,1460,1363,1,992,73,58156,28244,65700,0,21720,0,0,0
o,0x00000000,1716771482.739837,172.16.1.2,18194,172.16.3.2,5101,19471,24689,0,64256,65728,6,6,4,1460,1363,1,992,73,58156,28244,65700,0,23168,0,0,0
i,0x00000000,1716771483.138051,172.16.1.2,18194,172.16.3.2,5101,19471,24689,0,64256,65728,6,6,4,1460,1363,1,992,73,58156,58156,65700,0,24616,0,0,0
o,0x00000000,1716771483.138087,172.16.1.2,18194,172.16.3.2,5101,19471,24689,0,65728,65728,6,6,4,1460,1521,1,992,115,58156,56708,65700,0,23168,0,0,0
i,0x00000000,1716771483.167496,172.16.1.2,18194,172.16.3.2,5101,19471,24689,0,65728,65728,6,6,4,1460,1521,1,992,115,58156,56708,65700,0,24616,0,0,0
o,0x00000000,1716771483.167521,172.16.1.2,18194,172.16.3.2,5101,19471,24689,0,64256,65728,6,6,4,1460,1515,1,992,104,58156,53812,65700,0,21720,0,0,0
o,0x00000000,1716771483.167632,172.16.1.2,18194,172.16.3.2,5101,19471,24689,0,64256,65728,6,6,4,1460,1515,1,992,104,58156,53812,65700,0,23168,0,0,0
i,0x00000000,1716771483.167714,172.16.1.2,18194,172.16.3.2,5101,19471,24689,0,64256,65728,6,6,4,1460,1515,1,992,104,58156,53812,65700,0,24616,0,0,0
o,0x00000000,1716771483.167718,172.16.1.2,18194,172.16.3.2,5101,19471,24689,0,64256,65728,6,6,4,1460,1498,1,992,99,58156,50916,65700,0,21720,0,0,0
o,0x00000000,1716771483.167798,172.16.1.2,18194,172.16.3.2,5101,19471,24689,0,64256,65728,6,6,4,1460,1498,1,992,99,58156,50916,65700,0,23168,0,0,0
i,0x00000000,1716771483.167877,172.16.1.2,18194,172.16.3.2,5101,19471,24689,0,64256,65728,6,6,4,1460,1498,1,992,99,58156,50916,65700,0,24616,0,0,0
o,0x00000000,1716771483.167881,172.16.1.2,18194,172.16.3.2,5101,19471,24689,0,64256,65728,6,6,4,1460,1483,1,992,94,58156,48020,65700,0,21720,0,0,0
o,0x00000000,1716771483.167959,172.16.1.2,18194,172.16.3.2,5101,19471,24689,0,64256,65728,6,6,4,1460,1483,1,992,94,58156,48020,65700,0,23168,0,0,0
i,0x00000000,1716771483.168038,172.16.1.2,18194,172.16.3.2,5101,19471,24689,0,64256,65728,6,6,4,1460,1483,1,992,94,58156,48020,65700,0,24616,0,0,0
o,0x00000000,1716771483.168041,172.16.1.2,18194,172.16.3.2,5101,19471,24689,0,64256,65728,6,6,4,1460,1470,1,992,90,58156,45124,65700,0,21720,0,0,0
o,0x00000000,1716771483.168121,172.16.1.2,18194,172.16.3.2,5101,19471,24689,0,64256,65728,6,6,4,1460,1470,1,992,90,58156,45124,65700,0,23168,0,0,0
i,0x00000000,1716771483.168453,172.16.1.2,18194,172.16.3.2,5101,19471,24689,0,64256,65728,6,6,4,1460,1470,1,992,90,58156,45124,65700,0,24616,0,0,0
o,0x00000000,1716771483.168457,172.16.1.2,18194,172.16.3.2,5101,19471,24689,0,64256,65728,6,6,4,1460,1459,1,992,86,58156,42228,65700,0,21720,0,0,0
o,0x00000000,1716771483.168537,172.16.1.2,18194,172.16.3.2,5101,19471,24689,0,64256,65728,6,6,4,1460,1459,1,992,86,58156,42228,65700,0,23168,0,0,0
i,0x00000000,1716771483.168626,172.16.1.2,18194,172.16.3.2,5101,19471,24689,0,64256,65728,6,6,4,1460,1459,1,992,86,58156,42228,65700,0,24616,0,0,0
o,0x00000000,1716771483.168629,172.16.1.2,18194,172.16.3.2,5101,19471,24689,0,64256,65728,6,6,4,1460,1449,1,992,83,58156,39332,65700,0,21720,0,0,0
o,0x00000000,1716771483.168718,172.16.1.2,18194,172.16.3.2,5101,19471,24689,0,64256,65728,6,6,4,1460,1449,1,992,83,58156,39332,65700,0,23168,0,0,0
i,0x00000000,1716771483.169040,172.16.1.2,18194,172.16.3.2,5101,19471,24689,0,64256,65728,6,6,4,1460,1449,1,992,83,58156,39332,65700,0,24616,0,0,0
o,0x00000000,1716771483.169043,172.16.1.2,18194,172.16.3.2,5101,19471,26149,0,64256,65728,6,6,4,1460,1440,1,992,81,58156,36436,65700,0,21720,0,0,0
o,0x00000000,1716771483.169125,172.16.1.2,18194,172.16.3.2,5101,19471,26149,0,64256,65728,6,6,4,1460,1440,1,992,81,58156,36436,65700,0,23168,0,0,0
o,0x00000000,1716771483.169207,172.16.1.2,18194,172.16.3.2,5101,19471,26149,0,64256,65728,6,6,4,1460,1440,1,992,81,58156,36436,65700,0,24616,0,0,0
i,0x00000000,1716771483.199226,172.16.1.2,18194,172.16.3.2,5101,19471,26149,0,64256,65728,6,6,4,1460,1440,1,992,81,58156,58156,65700,0,26064,0,0,0
o,0x00000000,1716771483.199251,172.16.1.2,18194,172.16.3.2,5101,19471,26149,0,64256,65728,6,6,4,1460,1444,1,992,78,58156,55260,65700,0,23168,0,0,0
o,0x00000000,1716771483.199552,172.16.1.2,18194,172.16.3.2,5101,19471,26149,0,64256,65728,6,6,4,1460,1444,1,992,78,58156,55260,65700,0,24616,0,0,0
i,0x00000000,1716771483.647611,172.16.1.2,18194,172.16.3.2,5101,19471,26149,0,64256,65728,6,6,4,1460,1444,1,992,78,58156,58156,65700,0,26064,0,0,0
o,0x00000000,1716771483.647631,172.16.1.2,18194,172.16.3.2,5101,19471,26149,0,64256,65728,6,6,4,1460,1464,1,992,80,58156,55260,65700,0,23168,0,0,0
o,0x00000000,1716771483.647736,172.16.1.2,18194,172.16.3.2,5101,19471,26149,0,64256,65728,6,6,4,1460,1464,1,992,80,58156,55260,65700,0,24616,0,0,0
i,0x00000000,1716771483.647825,172.16.1.2,18194,172.16.3.2,5101,19471,26149,0,64256,65728,6,6,4,1460,1464,1,992,80,58156,55260,65700,0,26064,0,0,0
o,0x00000000,1716771483.647829,172.16.1.2,18194,172.16.3.2,5101,19471,26149,0,64256,65728,6,6,4,1460,1469,1,992,78,58156,52364,65700,0,23168,0,0,0
o,0x00000000,1716771483.647914,172.16.1.2,18194,172.16.3.2,5101,19471,26149,0,64256,65728,6,6,4,1460,1469,1,992,78,58156,52364,65700,0,24616,0,0,0
i,0x00000000,1716771483.648008,172.16.1.2,18194,172.16.3.2,5101,19471,26149,0,64256,65728,6,6,4,1460,1469,1,992,78,58156,52364,65700,0,26064,0,0,0
o,0x00000000,1716771483.648010,172.16.1.2,18194,172.16.3.2,5101,19471,26149,0,64256,65728,6,6,4,1460,1474,1,992,76,58156,49468,65700,0,23168,0,0,0
o,0x00000000,1716771483.648116,172.16.1.2,18194,172.16.3.2,5101,19471,26149,0,64256,65728,6,6,4,1460,1474,1,992,76,58156,49468,65700,0,24616,0,0,0
i,0x00000000,1716771483.648205,172.16.1.2,18194,172.16.3.2,5101,19471,26149,0,64256,65728,6,6,4,1460,1474,1,992,76,58156,49468,65700,0,26064,0,0,0
o,0x00000000,1716771483.648207,172.16.1.2,18194,172.16.3.2,5101,19471,26149,0,64256,65728,6,6,4,1460,1478,1,992,75,58156,46572,65700,0,23168,0,0,0
o,0x00000000,1716771483.648292,172.16.1.2,18194,172.16.3.2,5101,19471,26149,0,64256,65728,6,6,4,1460,1478,1,992,75,58156,46572,65700,0,24616,0,0,0
i,0x00000000,1716771483.648652,172.16.1.2,18194,172.16.3.2,5101,19471,26149,0,64256,65728,6,6,4,1460,1478,1,992,75,58156,46572,65700,0,26064,0,0,0
o,0x00000000,1716771483.648655,172.16.1.2,18194,172.16.3.2,5101,19471,26149,0,64256,65728,6,6,4,1460,1482,1,992,74,58156,43676,65700,0,23168,0,0,0
o,0x00000000,1716771483.648750,172.16.1.2,18194,172.16.3.2,5101,19471,26149,0,64256,65728,6,6,4,1460,1482,1,992,74,58156,43676,65700,0,24616,0,0,0
i,0x00000000,1716771483.648831,172.16.1.2,18194,172.16.3.2,5101,19471,26149,0,64256,65728,6,6,4,1460,1482,1,992,74,58156,43676,65700,0,26064,0,0,0
o,0x00000000,1716771483.648834,172.16.1.2,18194,172.16.3.2,5101,19471,26149,0,64256,65728,6,6,4,1460,1485,1,992,73,58156,40780,65700,0,23168,0,0,0
o,0x00000000,1716771483.648906,172.16.1.2,18194,172.16.3.2,5101,19471,26149,0,64256,65728,6,6,4,1460,1485,1,992,73,58156,40780,65700,0,24616,0,0,0
i,0x00000000,1716771483.648979,172.16.1.2,18194,172.16.3.2,5101,19471,26149,0,64256,65728,6,6,4,1460,1485,1,992,73,58156,40780,65700,0,26064,0,0,0
o,0x00000000,1716771483.648982,172.16.1.2,18194,172.16.3.2,5101,19471,26149,0,64256,65728,6,6,4,1460,1488,1,992,72,58156,37884,65700,0,23168,0,0,0
o,0x00000000,1716771483.649077,172.16.1.2,18194,172.16.3.2,5101,19471,26149,0,64256,65728,6,6,4,1460,1488,1,992,72,58156,37884,65700,0,24616,0,0,0
i,0x00000000,1716771483.649159,172.16.1.2,18194,172.16.3.2,5101,19471,26149,0,64256,65728,6,6,4,1460,1488,1,992,72,58156,37884,65700,0,26064,0,0,0
o,0x00000000,1716771483.649162,172.16.1.2,18194,172.16.3.2,5101,19471,27609,0,64256,65728,6,6,4,1460,1490,1,992,71,58156,34988,65700,0,23168,0,0,0
o,0x00000000,1716771483.649235,172.16.1.2,18194,172.16.3.2,5101,19471,27609,0,64256,65728,6,6,4,1460,1490,1,992,71,58156,34988,65700,0,24616,0,0,0
o,0x00000000,1716771483.649309,172.16.1.2,18194,172.16.3.2,5101,19471,27609,0,64256,65728,6,6,4,1460,1490,1,992,71,58156,34988,65700,0,26064,0,0,0
i,0x00000000,1716771483.678059,172.16.1.2,18194,172.16.3.2,5101,19471,27609,0,64256,65728,6,6,4,1460,1490,1,992,71,58156,58156,65700,0,27512,0,0,0
o,0x00000000,1716771483.678068,172.16.1.2,18194,172.16.3.2,5101,19471,27609,0,64256,65728,6,6,4,1460,1496,1,992,72,58156,55260,65700,0,24616,0,0,0
o,0x00000000,1716771483.678336,172.16.1.2,18194,172.16.3.2,5101,19471,27609,0,64256,65728,6,6,4,1460,1496,1,992,72,58156,55260,65700,0,26064,0,0,0
i,0x00000000,1716771484.147403,172.16.1.2,18194,172.16.3.2,5101,19471,27609,0,64256,65728,6,6,4,1460,1496,1,992,72,58156,58156,65700,0,27512,0,0,0
o,0x00000000,1716771484.147424,172.16.1.2,18194,172.16.3.2,5101,19471,27609,0,64256,65728,6,6,4,1460,1509,1,992,74,58156,55260,65700,0,24616,0,0,0
o,0x00000000,1716771484.147532,172.16.1.2,18194,172.16.3.2,5101,19471,27609,0,64256,65728,6,6,4,1460,1509,1,992,74,58156,55260,65700,0,26064,0,0,0
i,0x00000000,1716771484.147627,172.16.1.2,18194,172.16.3.2,5101,19471,27609,0,64256,65728,6,6,4,1460,1509,1,992,74,58156,55260,65700,0,27512,0,0,0
o,0x00000000,1716771484.147631,172.16.1.2,18194,172.16.3.2,5101,19471,27609,0,64256,65728,6,6,4,1460,1521,1,992,76,58156,52364,65700,0,24616,0,0,0
o,0x00000000,1716771484.147717,172.16.1.2,18194,172.16.3.2,5101,19471,27609,0,64256,65728,6,6,4,1460,1521,1,992,76,66348,52364,65700,0,26064,0,0,0
i,0x00000000,1716771484.147801,172.16.1.2,18194,172.16.3.2,5101,19471,27609,0,64256,65728,6,6,4,1460,1521,1,992,76,66348,52364,65700,0,27512,0,0,0
o,0x00000000,1716771484.147804,172.16.1.2,18194,172.16.3.2,5101,19471,27609,0,64256,65728,6,6,4,1460,1531,1,992,76,66348,49468,65700,0,24616,0,0,0
o,0x00000000,1716771484.147887,172.16.1.2,18194,172.16.3.2,5101,19471,27609,0,64256,65728,6,6,4,1460,1531,1,992,76,66348,49468,65700,0,26064,0,0,0
i,0x00000000,1716771484.148247,172.16.1.2,18194,172.16.3.2,5101,19471,27609,0,64256,65728,6,6,4,1460,1531,1,992,76,66348,49468,65700,0,27512,0,0,0
o,0x00000000,1716771484.148250,172.16.1.2,18194,172.16.3.2,5101,19471,27609,0,64256,65728,6,6,4,1460,1540,1,992,77,66348,46572,65700,0,24616,0,0,0
o,0x00000000,1716771484.148349,172.16.1.2,18194,172.16.3.2,5101,19471,27609,0,64256,65728,6,6,4,1460,1540,1,992,77,66348,46572,65700,0,26064,0,0,0
i,0x00000000,1716771484.148465,172.16.1.2,18194,172.16.3.2,5101,19471,27609,0,64256,65728,6,6,4,1460,1540,1,992,77,66348,46572,65700,0,27512,0,0,0
o,0x00000000,1716771484.148468,172.16.1.2,18194,172.16.3.2,5101,19471,27609,0,64256,65728,6,6,4,1460,1548,1,992,77,66348,43676,65700,0,24616,0,0,0
o,0x00000000,1716771484.148562,172.16.1.2,18194,172.16.3.2,5101,19471,27609,0,64256,65728,6,6,4,1460,1548,1,992,77,66348,43676,65700,0,26064,0,0,0
i,0x00000000,1716771484.148640,172.16.1.2,18194,172.16.3.2,5101,19471,27609,0,64256,65728,6,6,4,1460,1548,1,992,77,66348,43676,65700,0,27512,0,0,0
o,0x00000000,1716771484.148643,172.16.1.2,18194,172.16.3.2,5101,19471,27609,0,64256,65728,6,6,4,1460,1555,1,992,77,66348,40780,65700,0,24616,0,0,0
o,0x00000000,1716771484.148720,172.16.1.2,18194,172.16.3.2,5101,19471,27609,0,64256,65728,6,6,4,1460,1555,1,992,77,66348,40780,65700,0,26064,0,0,0
i,0x00000000,1716771484.148811,172.16.1.2,18194,172.16.3.2,5101,19471,27609,0,64256,65728,6,6,4,1460,1555,1,992,77,66348,40780,65700,0,27512,0,0,0
o,0x00000000,1716771484.148814,172.16.1.2,18194,172.16.3.2,5101,19471,27609,0,64256,65728,6,6,4,1460,1561,1,992,76,66348,37884,65700,0,24616,0,0,0
o,0x00000000,1716771484.148884,172.16.1.2,18194,172.16.3.2,5101,19471,27609,0,64256,65728,6,6,4,1460,1561,1,992,76,66348,37884,65700,0,26064,0,0,0
i,0x00000000,1716771484.148979,172.16.1.2,18194,172.16.3.2,5101,19471,27609,0,64256,65728,6,6,4,1460,1561,1,992,76,66348,37884,65700,0,27512,0,0,0
o,0x00000000,1716771484.148982,172.16.1.2,18194,172.16.3.2,5101,19471,29069,0,64256,65728,6,6,4,1460,1566,1,992,76,66348,34988,65700,0,24616,0,0,0
o,0x00000000,1716771484.149081,172.16.1.2,18194,172.16.3.2,5101,19471,29069,0,64256,65728,6,6,4,1460,1566,1,992,76,66348,34988,65700,0,26064,0,0,0
o,0x00000000,1716771484.149181,172.16.1.2,18194,172.16.3.2,5101,19471,29069,0,64256,65728,6,6,4,1460,1566,1,992,76,66348,34988,65700,0,27512,0,0,0
i,0x00000000,1716771484.177336,172.16.1.2,18194,172.16.3.2,5101,19471,29069,0,64256,65728,6,6,4,1460,1566,1,992,76,66348,66348,65700,0,28960,0,0,0
o,0x00000000,1716771484.177357,172.16.1.2,18194,172.16.3.2,5101,19471,29069,0,64256,65728,6,6,4,1460,1583,1,992,79,66348,63452,65700,0,26064,0,0,0
o,0x00000000,1716771484.177731,172.16.1.2,18194,172.16.3.2,5101,19471,29069,0,64256,65728,6,6,4,1460,1583,1,992,79,66348,63452,65700,0,27512,0,0,0
i,0x00000000,1716771484.607547,172.16.1.2,18194,172.16.3.2,5101,19471,29069,0,64256,65728,6,6,4,1460,1583,1,992,79,66348,66348,65700,0,28960,0,0,0
o,0x00000000,1716771484.607567,172.16.1.2,18194,172.16.3.2,5101,19471,29069,0,65728,65728,6,6,4,1460,1758,1,992,126,66348,64900,65700,0,27512,0,0,0
i,0x00000000,1716771484.648140,172.16.1.2,18194,172.16.3.2,5101,19471,29069,0,65728,65728,6,6,4,1460,1758,1,992,126,66348,64900,65700,0,28960,0,0,0
o,0x00000000,1716771484.648162,172.16.1.2,18194,172.16.3.2,5101,19471,29069,0,64256,65728,6,6,4,1460,1739,1,992,117,66348,62004,65700,0,26064,0,0,0
o,0x00000000,1716771484.648273,172.16.1.2,18194,172.16.3.2,5101,19471,29069,0,64256,65728,6,6,4,1460,1739,1,992,117,66348,62004,65700,0,27512,0,0,0
i,0x00000000,1716771484.648351,172.16.1.2,18194,172.16.3.2,5101,19471,29069,0,64256,65728,6,6,4,1460,1739,1,992,117,66348,62004,65700,0,28960,0,0,0
o,0x00000000,1716771484.648356,172.16.1.2,18194,172.16.3.2,5101,19471,29069,0,64256,65728,6,6,4,1460,1722,1,992,110,66348,59108,65700,0,26064,0,0,0
o,0x00000000,1716771484.648462,172.16.1.2,18194,172.16.3.2,5101,19471,29069,0,64256,65728,6,6,4,1460,1722,1,992,110,66348,59108,65700,0,27512,0,0,0
i,0x00000000,1716771484.648540,172.16.1.2,18194,172.16.3.2,5101,19471,29069,0,64256,65728,6,6,4,1460,1722,1,992,110,66348,59108,65700,0,28960,0,0,0
o,0x00000000,1716771484.648543,172.16.1.2,18194,172.16.3.2,5101,19471,29069,0,64256,65728,6,6,4,1460,1707,1,992,104,66348,56212,65700,0,26064,0,0,0
o,0x00000000,1716771484.648638,172.16.1.2,18194,172.16.3.2,5101,19471,29069,0,64256,65728,6,6,4,1460,1707,1,992,104,66348,56212,65700,0,27512,0,0,0
i,0x00000000,1716771484.648982,172.16.1.2,18194,172.16.3.2,5101,19471,29069,0,64256,65728,6,6,4,1460,1707,1,992,104,66348,56212,65700,0,28960,0,0,0
o,0x00000000,1716771484.648985,172.16.1.2,18194,172.16.3.2,5101,19471,29069,0,64256,65728,6,6,4,1460,1694,1,992,99,66348,53316,65700,0,26064,0,0,0
o,0x00000000,1716771484.649062,172.16.1.2,18194,172.16.3.2,5101,19471,29069,0,64256,65728,6,6,4,1460,1694,1,992,99,66348,53316,65700,0,27512,0,0,0
i,0x00000000,1716771484.649139,172.16.1.2,18194,172.16.3.2,5101,19471,29069,0,64256,65728,6,6,4,1460,1694,1,992,99,66348,53316,65700,0,28960,0,0,0
o,0x00000000,1716771484.649142,172.16.1.2,18194,172.16.3.2,5101,19471,29069,0,64256,65728,6,6,4,1460,1683,1,992,95,66348,50420,65700,0,26064,0,0,0
o,0x00000000,1716771484.649219,172.16.1.2,18194,172.16.3.2,5101,19471,29069,0,64256,65728,6,6,4,1460,1683,1,992,95,66348,50420,65700,0,27512,0,0,0
i,0x00000000,1716771484.649295,172.16.1.2,18194,172.16.3.2,5101,19471,29069,0,64256,65728,6,6,4,1460,1683,1,992,95,66348,50420,65700,0,28960,0,0,0
o,0x00000000,1716771484.649298,172.16.1.2,18194,172.16.3.2,5101,19471,29069,0,64256,65728,6,6,4,1460,1673,1,992,92,66348,47524,65700,0,26064,0,0,0
o,0x00000000,1716771484.649374,172.16.1.2,18194,172.16.3.2,5101,19471,29069,0,64256,65728,6,6,4,1460,1673,1,992,92,66348,47524,65700,0,27512,0,0,0
i,0x00000000,1716771484.667818,172.16.1.2,18194,172.16.3.2,5101,19471,29069,0,64256,65728,6,6,4,1460,1673,1,992,92,66348,66348,65700,0,28960,0,0,0
o,0x00000000,1716771484.667825,172.16.1.2,18194,172.16.3.2,5101,19471,29069,0,64256,65728,6,6,4,1460,1672,1,992,87,66348,63452,65700,0,26064,0,0,0
o,0x00000000,1716771484.668049,172.16.1.2,18194,172.16.3.2,5101,19471,29069,0,64256,65728,6,6,4,1460,1672,1,992,87,66348,63452,65700,0,27512,0,0,0
i,0x00000000,1716771484.668381,172.16.1.2,18194,172.16.3.2,5101,19471,29069,0,64256,65728,6,6,4,1460,1672,1,992,87,66348,63452,65700,0,28960,0,0,0
o,0x00000000,1716771484.668385,172.16.1.2,18194,172.16.3.2,5101,19471,29069,0,64256,65728,6,6,4,1460,1671,1,992,83,66348,60556,65700,0,26064,0,0,0
o,0x00000000,1716771484.668472,172.16.1.2,18194,172.16.3.2,5101,19471,29069,0,64256,65728,6,6,4,1460,1671,1,992,83,66348,60556,65700,0,27512,0,0,0
i,0x00000000,1716771484.677108,172.16.1.2,18194,172.16.3.2,5101,19471,29069,0,64256,65728,6,6,4,1460,1671,1,992,83,66348,66348,65700,0,28960,0,0,0
o,0x00000000,1716771484.677117,172.16.1.2,18194,172.16.3.2,5101,19471,30529,0,64256,65728,6,6,4,1460,1675,1,992,82,66348,63452,65700,0,26064,0,0,0
o,0x00000000,1716771484.677398,172.16.1.2,18194,172.16.3.2,5101,19471,30529,0,64256,65728,6,6,4,1460,1675,1,992,82,66348,63452,65700,0,27512,0,0,0
o,0x00000000,1716771484.677647,172.16.1.2,18194,172.16.3.2,5101,19471,30529,0,64256,65728,6,6,4,1460,1675,1,992,82,66348,63452,65700,0,28960,0,0,0
i,0x00000000,1716771485.046800,172.16.1.2,18194,172.16.3.2,5101,19471,30529,0,64256,65728,6,6,4,1460,1675,1,992,82,66348,66348,65700,0,30408,0,0,0
o,0x00000000,1716771485.046823,172.16.1.2,18194,172.16.3.2,5101,19471,30529,0,65728,65728,6,6,4,1460,1814,1,992,118,66348,64900,65700,0,28960,0,0,0
i,0x00000000,1716771485.137371,172.16.1.2,18194,172.16.3.2,5101,19471,30529,0,65728,65728,6,6,4,1460,1814,1,992,118,66348,64900,65700,0,30408,0,0,0
o,0x00000000,1716771485.137406,172.16.1.2,18194,172.16.3.2,5101,19471,30529,0,65728,65728,6,6,4,1460,1800,1,992,111,66348,63452,65700,0,28960,0,0,0
i,0x00000000,1716771485.168656,172.16.1.2,18194,172.16.3.2,5101,19471,30529,0,65728,65728,6,6,4,1460,1800,1,992,111,66348,66348,65700,0,30408,0,0,0
o,0x00000000,1716771485.168674,172.16.1.2,18194,172.16.3.2,5101,19471,30529,0,64256,65728,6,6,4,1460,1783,1,992,106,66348,63452,65700,0,27512,0,0,0
o,0x00000000,1716771485.168789,172.16.1.2,18194,172.16.3.2,5101,19471,30529,0,64256,65728,6,6,4,1460,1783,1,992,106,66348,63452,65700,0,28960,0,0,0
i,0x00000000,1716771485.168873,172.16.1.2,18194,172.16.3.2,5101,19471,30529,0,64256,65728,6,6,4,1460,1783,1,992,106,66348,63452,65700,0,30408,0,0,0
o,0x00000000,1716771485.168876,172.16.1.2,18194,172.16.3.2,5101,19471,30529,0,64256,65728,6,6,4,1460,1769,1,992,102,66348,60556,65700,0,27512,0,0,0
o,0x00000000,1716771485.168951,172.16.1.2,18194,172.16.3.2,5101,19471,30529,0,64256,65728,6,6,4,1460,1769,1,992,102,66348,60556,65700,0,28960,0,0,0
i,0x00000000,1716771485.169304,172.16.1.2,18194,172.16.3.2,5101,19471,30529,0,64256,65728,6,6,4,1460,1769,1,992,102,74540,60556,65700,0,30408,0,0,0
o,0x00000000,1716771485.169307,172.16.1.2,18194,172.16.3.2,5101,19471,30529,0,64256,65728,6,6,4,1460,1756,1,992,98,74540,57660,65700,0,27512,0,0,0
o,0x00000000,1716771485.169392,172.16.1.2,18194,172.16.3.2,5101,19471,30529,0,64256,65728,6,6,4,1460,1756,1,992,98,74540,57660,65700,0,28960,0,0,0
i,0x00000000,1716771485.169505,172.16.1.2,18194,172.16.3.2,5101,19471,30529,0,64256,65728,6,6,4,1460,1756,1,992,98,74540,57660,65700,0,30408,0,0,0
o,0x00000000,1716771485.169508,172.16.1.2,18194,172.16.3.2,5101,19471,30529,0,64256,65728,6,6,4,1460,1745,1,992,95,74540,54764,65700,0,27512,0,0,0
o,0x00000000,1716771485.169729,172.16.1.2,18194,172.16.3.2,5101,19471,30529,0,64256,65728,6,6,4,1460,1745,1,992,95,74540,54764,65700,0,28960,0,0,0
i,0x00000000,1716771485.169811,172.16.1.2,18194,172.16.3.2,5101,19471,30529,0,64256,65728,6,6,4,1460,1745,1,992,95,74540,54764,65700,0,30408,0,0,0
o,0x00000000,1716771485.169814,172.16.1.2,18194,172.16.3.2,5101,19471,30529,0,64256,65728,6,6,4,1460,1735,1,992,92,74540,51868,65700,0,27512,0,0,0
o,0x00000000,1716771485.169888,172.16.1.2,18194,172.16.3.2,5101,19471,30529,0,64256,65728,6,6,4,1460,1735,1,992,92,74540,51868,65700,0,28960,0,0,0
i,0x00000000,1716771485.169961,172.16.1.2,18194,172.16.3.2,5101,19471,30529,0,64256,65728,6,6,4,1460,1735,1,992,92,74540,51868,65700,0,30408,0,0,0
o,0x00000000,1716771485.169963,172.16.1.2,18194,172.16.3.2,5101,19471,30529,0,64256,65728,6,6,4,1460,1727,1,992,89,74540,48972,65700,0,27512,0,0,0
o,0x00000000,1716771485.170038,172.16.1.2,18194,172.16.3.2,5101,19471,30529,0,64256,65728,6,6,4,1460,1727,1,992,89,74540,48972,65700,0,28960,0,0,0
i,0x00000000,1716771485.187244,172.16.1.2,18194,172.16.3.2,5101,19471,30529,0,64256,65728,6,6,4,1460,1727,1,992,89,74540,74540,65700,0,30408,0,0,0
o,0x00000000,1716771485.187253,172.16.1.2,18194,172.16.3.2,5101,19471,30529,0,64256,65728,6,6,4,1460,1716,1,992,88,74540,71644,65700,0,27512,0,0,0
o,0x00000000,1716771485.187461,172.16.1.2,18194,172.16.3.2,5101,19471,30529,0,64256,65728,6,6,4,1460,1716,1,992,88,74540,71644,65700,0,28960,0,0,0
i,0x00000000,1716771485.187538,172.16.1.2,18194,172.16.3.2,5101,19471,30529,0,64256,65728,6,6,4,1460,1716,1,992,88,74540,71644,65700,0,30408,0,0,0
o,0x00000000,1716771485.187541,172.16.1.2,18194,172.16.3.2,5101,19471,30529,0,64256,65728,6,6,4,1460,1706,1,992,86,74540,68748,65700,0,27512,0,0,0
o,0x00000000,1716771485.187616,172.16.1.2,18194,172.16.3.2,5101,19471,30529,0,64256,65728,6,6,4,1460,1706,1,992,86,74540,68748,65700,0,28960,0,0,0
i,0x00000000,1716771485.187935,172.16.1.2,18194,172.16.3.2,5101,19471,30529,0,64256,65728,6,6,4,1460,1706,1,992,86,74540,68748,65700,0,30408,0,0,0
o,0x00000000,1716771485.187938,172.16.1.2,18194,172.16.3.2,5101,19471,31989,0,64256,65728,6,6,4,1460,1697,1,992,85,74540,65852,65700,0,27512,0,0,0
o,0x00000000,1716771485.188014,172.16.1.2,18194,172.16.3.2,5101,19471,31989,0,64256,65728,6,6,4,1460,1697,1,992,85,74540,65852,65700,0,28960,0,0,0
o,0x00000000,1716771485.188087,172.16.1.2,18194,172.16.3.2,5101,19471,31989,0,64256,65728,6,6,4,1460,1697,1,992,85,74540,65852,65700,0,30408,0,0,0
i,0x00000000,1716771485.577664,172.16.1.2,18194,172.16.3.2,5101,19471,31989,0,64256,65728,6,6,4,1460,1697,1,992,85,74540,74540,65700,0,31856,0,0,0
o,0x00000000,1716771485.577687,172.16.1.2,18194,172.16.3.2,5101,19471,31989,0,65728,65728,6,6,4,1460,1845,1,992,124,74540,73092,65700,0,30408,0,0,0
i,0x00000000,1716771485.657575,172.16.1.2,18194,172.16.3.2,5101,19471,31989,0,65728,65728,6,6,4,1460,1845,1,992,124,74540,73092,65700,0,31856,0,0,0
o,0x00000000,1716771485.657595,172.16.1.2,18194,172.16.3.2,5101,19471,31989,0,65728,65728,6,6,4,1460,1859,1,992,116,74540,71644,65700,0,30408,0,0,0
i,0x00000000,1716771485.677406,172.16.1.2,18194,172.16.3.2,5101,19471,31989,0,65728,65728,6,6,4,1460,1859,1,992,116,74540,74540,65700,0,31856,0,0,0
o,0x00000000,1716771485.677417,172.16.1.2,18194,172.16.3.2,5101,19471,31989,0,65728,65728,6,6,4,1460,1843,1,992,110,74540,73092,65700,0,30408,0,0,0
i,0x00000000,1716771485.677529,172.16.1.2,18194,172.16.3.2,5101,19471,31989,0,65728,65728,6,6,4,1460,1843,1,992,110,74540,73092,65700,0,31856,0,0,0
o,0x00000000,1716771485.677534,172.16.1.2,18194,172.16.3.2,5101,19471,31989,0,64256,65728,6,6,4,1460,1817,1,992,108,74540,70196,65700,0,28960,0,0,0
o,0x00000000,1716771485.677632,172.16.1.2,18194,172.16.3.2,5101,19471,31989,0,64256,65728,6,6,4,1460,1817,1,992,108,74540,70196,65700,0,30408,0,0,0
i,0x00000000,1716771485.677714,172.16.1.2,18194,172.16.3.2,5101,19471,31989,0,64256,65728,6,6,4,1460,1817,1,992,108,74540,70196,65700,0,31856,0,0,0
o,0x00000000,1716771485.677733,172.16.1.2,18194,172.16.3.2,5101,19471,31989,0,64256,65728,6,6,4,1460,1794,1,992,105,74540,67300,65700,0,28960,0,0,0
o,0x00000000,1716771485.677815,172.16.1.2,18194,172.16.3.2,5101,19471,31989,0,64256,65728,6,6,4,1460,1794,1,992,105,74540,67300,65700,0,30408,0,0,0
i,0x00000000,1716771485.678125,172.16.1.2,18194,172.16.3.2,5101,19471,31989,0,64256,65728,6,6,4,1460,1794,1,992,105,74540,67300,65700,0,31856,0,0,0
o,0x00000000,1716771485.678128,172.16.1.2,18194,172.16.3.2,5101,19471,31989,0,64256,65728,6,6,4,1460,1774,1,992,102,74540,64404,65700,0,28960,0,0,0
o,0x00000000,1716771485.678218,172.16.1.2,18194,172.16.3.2,5101,19471,31989,0,64256,65728,6,6,4,1460,1774,1,992,102,74540,64404,65700,0,30408,0,0,0
i,0x00000000,1716771485.678291,172.16.1.2,18194,172.16.3.2,5101,19471,31989,0,64256,65728,6,6,4,1460,1774,1,992,102,74540,64404,65700,0,31856,0,0,0
o,0x00000000,1716771485.678293,172.16.1.2,18194,172.16.3.2,5101,19471,31989,0,64256,65728,6,6,4,1460,1757,1,992,99,74540,61508,65700,0,28960,0,0,0
o,0x00000000,1716771485.678386,172.16.1.2,18194,172.16.3.2,5101,19471,31989,0,64256,65728,6,6,4,1460,1757,1,992,99,74540,61508,65700,0,30408,0,0,0
i,0x00000000,1716771485.678459,172.16.1.2,18194,172.16.3.2,5101,19471,31989,0,64256,65728,6,6,4,1460,1757,1,992,99,74540,61508,65700,0,31856,0,0,0
o,0x00000000,1716771485.678462,172.16.1.2,18194,172.16.3.2,5101,19471,31989,0,64256,65728,6,6,4,1460,1742,1,992,96,74540,58612,65700,0,28960,0,0,0
o,0x00000000,1716771485.678538,172.16.1.2,18194,172.16.3.2,5101,19471,31989,0,64256,65728,6,6,4,1460,1742,1,992,96,74540,58612,65700,0,30408,0,0,0
i,0x00000000,1716771485.687794,172.16.1.2,18194,172.16.3.2,5101,19471,31989,0,64256,65728,6,6,4,1460,1742,1,992,96,74540,74540,65700,0,31856,0,0,0
o,0x00000000,1716771485.687801,172.16.1.2,18194,172.16.3.2,5101,19471,31989,0,64256,65728,6,6,4,1460,1733,1,992,93,74540,71644,65700,0,28960,0,0,0
o,0x00000000,1716771485.688070,172.16.1.2,18194,172.16.3.2,5101,19471,31989,0,64256,65728,6,6,4,1460,1733,1,992,93,74540,71644,65700,0,30408,0,0,0
i,0x00000000,1716771485.718334,172.16.1.2,18194,172.16.3.2,5101,19471,31989,0,64256,65728,6,6,4,1460,1733,1,992,93,74540,74540,65700,0,31856,0,0,0
o,0x00000000,1716771485.718344,172.16.1.2,18194,172.16.3.2,5101,19471,31989,0,64256,65728,6,6,4,1460,1729,1,992,89,74540,71644,65700,0,28960,0,0,0
o,0x00000000,1716771485.718427,172.16.1.2,18194,172.16.3.2,5101,19471,31989,0,64256,65728,6,6,4,1460,1729,1,992,89,74540,71644,65700,0,30408,0,0,0
i,0x00000000,1716771485.718502,172.16.1.2,18194,172.16.3.2,5101,19471,31989,0,64256,65728,6,6,4,1460,1729,1,992,89,74540,71644,65700,0,31856,0,0,0
o,0x00000000,1716771485.718505,172.16.1.2,18194,172.16.3.2,5101,19471,31989,0,64256,65728,6,6,4,1460,1725,1,992,86,74540,68748,65700,0,28960,0,0,0
o,0x00000000,1716771485.718577,172.16.1.2,18194,172.16.3.2,5101,19471,31989,0,64256,65728,6,6,4,1460,1725,1,992,86,74540,68748,65700,0,30408,0,0,0
i,0x00000000,1716771485.718650,172.16.1.2,18194,172.16.3.2,5101,19471,31989,0,64256,65728,6,6,4,1460,1725,1,992,86,74540,68748,65700,0,31856,0,0,0
o,0x00000000,1716771485.718653,172.16.1.2,18194,172.16.3.2,5101,19471,31989,0,64256,65728,6,6,4,1460,1722,1,992,84,74540,65852,65700,0,28960,0,0,0
o,0x00000000,1716771485.718726,172.16.1.2,18194,172.16.3.2,5101,19471,31989,0,64256,65728,6,6,4,1460,1722,1,992,84,74540,65852,65700,0,30408,0,0,0
i,0x00000000,1716771486.117807,172.16.1.2,18194,172.16.3.2,5101,19471,31989,0,64256,65728,6,6,4,1460,1722,1,992,84,74540,74540,65700,0,31856,0,0,0
o,0x00000000,1716771486.117827,172.16.1.2,18194,172.16.3.2,5101,19471,33449,0,65728,65728,6,6,4,1460,1875,1,992,124,74540,73092,65700,0,30408,0,0,0
o,0x00000000,1716771486.118077,172.16.1.2,18194,172.16.3.2,5101,19471,33449,0,65728,65728,6,6,4,1460,1875,1,992,124,74540,73092,65700,0,31856,0,0,0
i,0x00000000,1716771486.186971,172.16.1.2,18194,172.16.3.2,5101,19471,33449,0,65728,65728,6,6,4,1460,1875,1,992,124,74540,73092,65700,0,33304,0,0,0
o,0x00000000,1716771486.186992,172.16.1.2,18194,172.16.3.2,5101,19471,33449,0,65728,65728,6,6,4,1460,1885,1,992,115,74540,71644,65700,0,31856,0,0,0
i,0x00000000,1716771486.187234,172.16.1.2,18194,172.16.3.2,5101,19471,33449,0,65728,65728,6,6,4,1460,1885,1,992,115,74540,71644,65700,0,33304,0,0,0
o,0x00000000,1716771486.187238,172.16.1.2,18194,172.16.3.2,5101,19471,33449,0,65728,65728,6,6,4,1460,1862,1,992,111,74540,70196,65700,0,31856,0,0,0
i,0x00000000,1716771486.217148,172.16.1.2,18194,172.16.3.2,5101,19471,33449,0,65728,65728,6,6,4,1460,1862,1,992,111,74540,74540,65700,0,33304,0,0,0
o,0x00000000,1716771486.217157,172.16.1.2,18194,172.16.3.2,5101,19471,33449,0,64256,65728,6,6,4,1460,1842,1,992,107,74540,71644,65700,0,30408,0,0,0
o,0x00000000,1716771486.217261,172.16.1.2,18194,172.16.3.2,5101,19471,33449,0,64256,65728,6,6,4,1460,1842,1,992,107,74540,71644,65700,0,31856,0,0,0
i,0x00000000,1716771486.217351,172.16.1.2,18194,172.16.3.2,5101,19471,33449,0,64256,65728,6,6,4,1460,1842,1,992,107,74540,71644,65700,0,33304,0,0,0
o,0x00000000,1716771486.217369,172.16.1.2,18194,172.16.3.2,5101,19471,33449,0,64256,65728,6,6,4,1460,1824,1,992,104,74540,68748,65700,0,30408,0,0,0
o,0x00000000,1716771486.217453,172.16.1.2,18194,172.16.3.2,5101,19471,33449,0,64256,65728,6,6,4,1460,1824,1,992,104,74540,68748,65700,0,31856,0,0,0
i,0x00000000,1716771486.217793,172.16.1.2,18194,172.16.3.2,5101,19471,33449,0,64256,65728,6,6,4,1460,1824,1,992,104,74540,68748,65700,0,33304,0,0,0
o,0x00000000,1716771486.217813,172.16.1.2,18194,172.16.3.2,5101,19471,33449,0,64256,65728,6,6,4,1460,1808,1,992,101,74540,65852,65700,0,30408,0,0,0
o,0x00000000,1716771486.217896,172.16.1.2,18194,172.16.3.2,5101,19471,33449,0,64256,65728,6,6,4,1460,1808,1,992,101,74540,65852,65700,0,31856,0,0,0
i,0x00000000,1716771486.217977,172.16.1.2,18194,172.16.3.2,5101,19471,33449,0,64256,65728,6,6,4,1460,1808,1,992,101,82732,65852,65700,0,33304,0,0,0
o,0x00000000,1716771486.217980,172.16.1.2,18194,172.16.3.2,5101,19471,33449,0,64256,65728,6,6,4,1460,1794,1,992,98,82732,62956,65700,0,30408,0,0,0
o,0x00000000,1716771486.218059,172.16.1.2,18194,172.16.3.2,5101,19471,33449,0,64256,65728,6,6,4,1460,1794,1,992,98,82732,62956,65700,0,31856,0,0,0
i,0x00000000,1716771486.218138,172.16.1.2,18194,172.16.3.2,5101,19471,33449,0,64256,65728,6,6,4,1460,1794,1,992,98,82732,62956,65700,0,33304,0,0,0
o,0x00000000,1716771486.218141,172.16.1.2,18194,172.16.3.2,5101,19471,33449,0,64256,65728,6,6,4,1460,1782,1,992,95,82732,60060,65700,0,30408,0,0,0
o,0x00000000,1716771486.218214,172.16.1.2,18194,172.16.3.2,5101,19471,33449,0,64256,65728,6,6,4,1460,1782,1,992,95,82732,60060,65700,0,31856,0,0,0
i,0x00000000,1716771486.218520,172.16.1.2,18194,172.16.3.2,5101,19471,33449,0,64256,65728,6,6,4,1460,1782,1,992,95,82732,60060,65700,0,33304,0,0,0
o,0x00000000,1716771486.218523,172.16.1.2,18194,172.16.3.2,5101,19471,33449,0,64256,65728,6,6,4,1460,1772,1,992,92,82732,57164,65700,0,30408,0,0,0
o,0x00000000,1716771486.218612,172.16.1.2,18194,172.16.3.2,5101,19471,33449,0,64256,65728,6,6,4,1460,1772,1,992,92,82732,57164,65700,0,31856,0,0,0
i,0x00000000,1716771486.267126,172.16.1.2,18194,172.16.3.2,5101,19471,33449,0,64256,65728,6,6,4,1460,1772,1,992,92,82732,82732,65700,0,33304,0,0,0
o,0x00000000,1716771486.267157,172.16.1.2,18194,172.16.3.2,5101,19471,33449,0,64256,65728,6,6,4,1460,1783,1,992,91,82732,79836,65700,0,30408,0,0,0
o,0x00000000,1716771486.267547,172.16.1.2,18194,172.16.3.2,5101,19471,33449,0,64256,65728,6,6,4,1460,1783,1,992,91,82732,79836,65700,0,31856,0,0,0
i,0x00000000,1716771486.267622,172.16.1.2,18194,172.16.3.2,5101,19471,33449,0,64256,65728,6,6,4,1460,1783,1,992,91,82732,79836,65700,0,33304,0,0,0
o,0x00000000,1716771486.267625,172.16.1.2,18194,172.16.3.2,5101,19471,33449,0,64256,65728,6,6,4,1460,1781,1,992,88,82732,76940,65700,0,30408,0,0,0
o,0x00000000,1716771486.267713,172.16.1.2,18194,172.16.3.2,5101,19471,33449,0,64256,65728,6,6,4,1460,1781,1,992,88,82732,76940,65700,0,31856,0,0,0
i,0x00000000,1716771486.267830,172.16.1.2,18194,172.16.3.2,5101,19471,33449,0,64256,65728,6,6,4,1460,1781,1,992,88,82732,76940,65700,0,33304,0,0,0
