enable_time_secs=1716772631	enable_time_usecs=480433	siftrver=1.2.4	hz=100	tcp_rtt_scale=32	sysname=FreeBSD	sysver=1301000	ipmode=4
o,0x00000000,1716772631.480467,10.0.2.15,22,10.0.2.2,54015,1073725440,17298,0,65535,65700,0,0,4,1460,1,0,4,24,33580,44,65700,0,0,0,0,0
o,0x00000000,1716772631.480570,10.0.2.15,22,10.0.2.2,54015,1073725440,17298,0,65535,65700,0,0,4,1460,1,0,4,24,33580,80,65700,0,44,0,0,0
i,0x00000000,1716772631.481007,10.0.2.15,22,10.0.2.2,54015,1073725440,17298,0,65535,65700,0,0,4,1460,1,0,4,24,33580,80,65700,0,80,0,0,0
i,0x00000000,1716772631.481010,10.0.2.15,22,10.0.2.2,54015,1073725440,17342,0,65535,65700,0,0,4,1460,1,0,4,24,33580,36,65700,0,36,0,0,0
o,0x00000000,1716772631.481074,10.0.2.15,22,10.0.2.2,54015,1073725440,17378,0,65535,65700,0,0,4,1460,1,0,4,24,33580,36,65700,0,0,0,0,0
i,0x00000000,1716772631.481483,10.0.2.15,22,10.0.2.2,54015,1073725440,17378,0,65535,65700,0,0,4,1460,1,0,4,24,33580,36,65700,0,36,0,0,0
o,0x00000000,1716772631.481687,10.0.2.15,22,10.0.2.2,54015,1073725440,17414,0,65535,65700,0,0,4,1460,1,0,4,24,33580,176,65700,0,0,0,0,0
i,0x00000000,1716772631.482110,10.0.2.15,22,10.0.2.2,54015,1073725440,17414,0,65535,65700,0,0,4,1460,1,0,4,24,33580,176,65700,0,176,0,0,0
i,0x00000000,1716772631.482837,10.0.2.15,22,10.0.2.2,54015,1073725440,17590,0,65535,65700,0,0,4,1460,1,0,4,24,33580,0,65700,0,0,0,0,0
i,0x00000000,1716772631.482840,10.0.2.15,22,10.0.2.2,54015,1073725440,17590,0,65535,65700,0,0,4,1460,1,0,4,24,33580,0,65700,96,0,0,0,0
o,0x00000000,1716772631.482843,10.0.2.15,22,10.0.2.2,54015,1073725440,17590,0,65535,65604,0,0,5,1460,1,0,5,24,33580,0,65700,96,0,0,0,0
o,0x00000000,1716772631.483182,10.0.2.15,22,10.0.2.2,54015,1073725440,17590,0,65535,65604,0,0,8,1460,1,0,4,24,33580,0,65700,0,0,0,0,0
i,0x00000000,1716772631.483676,10.0.2.15,22,10.0.2.2,54015,1073725440,17590,0,65535,65604,0,0,8,1460,1,0,20,24,33580,0,65700,0,1,0,0,0
i,0x00000000,1716772633.636850,10.0.2.15,22,10.0.2.2,54020,1073725440,14600,0,65535,65700,0,0,4,1460,1,0,0,27,33580,0,65700,0,0,0,0,0
o,0x00000000,1716772633.642445,10.0.2.15,22,10.0.2.2,54020,1073725440,14600,0,65535,65700,0,0,4,1460,1,0,0,27,33580,38,65700,41,0,0,0,0
i,0x00000000,1716772633.643313,10.0.2.15,22,10.0.2.2,54020,1073725440,14600,0,65535,65700,0,0,4,1460,1,0,0,27,33580,38,65700,41,38,0,0,0
i,0x00000000,1716772633.644298,10.0.2.15,22,10.0.2.2,54020,1073725440,14638,0,65535,65700,0,0,4,1460,1,0,0,24,33580,0,65700,0,0,0,0,0
i,0x00000000,1716772633.644302,10.0.2.15,22,10.0.2.2,54020,1073725440,14638,0,65535,65700,0,0,4,1460,1,0,0,24,33580,0,65700,1460,0,0,0,0
o,0x00000000,1716772633.644305,10.0.2.15,22,10.0.2.2,54020,1073725440,14638,0,65535,65700,0,0,4,1460,1,0,1,24,33580,0,65700,1536,0,0,0,0
o,0x00000000,1716772633.645141,10.0.2.15,22,10.0.2.2,54020,1073725440,14638,0,65535,65700,0,0,4,1460,1,0,0,24,33580,1056,65700,1536,0,0,0,0
i,0x00000000,1716772633.646017,10.0.2.15,22,10.0.2.2,54020,1073725440,14638,0,65535,65700,0,0,4,1460,1,0,0,24,33580,1056,65700,1536,1056,0,0,0
i,0x00000000,1716772633.647508,10.0.2.15,22,10.0.2.2,54020,1073725440,15694,0,65535,65700,0,0,4,1460,1,0,0,24,33580,0,65700,0,0,0,0,0
o,0x00000000,1716772633.650043,10.0.2.15,22,10.0.2.2,54020,1073725440,15694,0,65535,65700,0,0,4,1460,1,0,0,24,33580,484,65700,0,0,0,0,0
i,0x00000000,1716772633.650865,10.0.2.15,22,10.0.2.2,54020,1073725440,15694,0,65535,65700,0,0,4,1460,1,0,0,24,33580,484,65700,0,484,0,0,0
i,0x00000000,1716772633.655754,10.0.2.15,22,10.0.2.2,54020,1073725440,16178,0,65535,65700,0,0,4,1460,1,0,0,24,33580,0,65700,0,0,0,0,0
i,0x00000000,1716772633.660315,10.0.2.15,22,10.0.2.2,54020,1073725440,16178,0,65535,65700,0,0,4,1460,1,0,0,24,33580,0,65700,0,0,0,0,0
o,0x00000000,1716772633.660322,10.0.2.15,22,10.0.2.2,54020,1073725440,16178,0,65535,65700,0,0,4,1460,1,0,1,24,33580,0,65700,44,0,0,0,0
o,0x00000000,1716772633.660470,10.0.2.15,22,10.0.2.2,54020,1073725440,16178,0,65535,65700,0,0,4,1460,1,0,0,24,33580,44,65700,0,0,0,0,0
i,0x00000000,1716772633.660904,10.0.2.15,22,10.0.2.2,54020,1073725440,16178,0,65535,65700,0,0,4,1460,1,0,0,24,33580,44,65700,0,44,0,0,0
i,0x00000000,1716772633.661869,10.0.2.15,22,10.0.2.2,54020,1073725440,16222,0,65535,65700,0,0,4,1460,1,0,0,24,33580,0,65700,0,0,0,0,0
o,0x00000000,1716772633.671459,10.0.2.15,22,10.0.2.2,54020,1073725440,16222,0,65535,65700,0,0,4,1460,1,0,0,24,33580,68,65700,0,0,0,0,0
i,0x00000000,1716772633.671981,10.0.2.15,22,10.0.2.2,54020,1073725440,16222,0,65535,65700,0,0,4,1460,1,0,0,24,33580,68,65700,0,68,0,0,0
i,0x00000000,1716772633.674451,10.0.2.15,22,10.0.2.2,54020,1073725440,16290,0,65535,65700,0,0,4,1460,1,0,0,24,33580,0,65700,0,0,0,0,0
o,0x00000000,1716772633.683935,10.0.2.15,22,10.0.2.2,54020,1073725440,16290,0,65535,65700,0,0,4,1460,1,0,0,24,33580,28,65700,0,0,0,0,0
i,0x00000000,1716772633.684635,10.0.2.15,22,10.0.2.2,54020,1073725440,16290,0,65535,65700,0,0,4,1460,1,0,0,24,33580,28,65700,0,28,0,0,0
i,0x00000000,1716772633.685259,10.0.2.15,22,10.0.2.2,54020,1073725440,16318,0,65535,65700,0,0,4,1460,1,0,0,24,33580,0,65700,0,0,0,0,0
o,0x00000000,1716772633.685949,10.0.2.15,22,10.0.2.2,54020,1073725440,16318,0,65535,65700,0,0,4,1460,1,0,0,24,33580,768,65700,112,0,0,0,0
i,0x00000000,1716772633.686784,10.0.2.15,22,10.0.2.2,54020,1073725440,16318,0,65535,65700,0,0,4,1460,1,0,0,24,33580,768,65700,112,768,0,0,0
o,0x00000000,1716772633.686897,10.0.2.15,22,10.0.2.2,54020,1073725440,17086,0,65535,65700,0,0,4,1460,1,0,0,24,33580,44,65700,0,0,0,0,0
i,0x00000000,1716772633.687401,10.0.2.15,22,10.0.2.2,54020,1073725440,17086,0,65535,65700,0,0,4,1460,1,0,0,24,33580,44,65700,0,44,0,0,0
i,0x00000000,1716772633.688037,10.0.2.15,22,10.0.2.2,54020,1073725440,17130,0,65535,65700,0,0,4,1460,1,0,0,24,33580,0,65700,0,0,0,0,0
o,0x00000000,1716772633.688364,10.0.2.15,22,10.0.2.2,54020,1073725440,17130,0,65535,65700,0,0,4,1460,1,0,4,24,33580,72,65700,0,0,0,0,0
i,0x00000000,1716772633.689075,10.0.2.15,22,10.0.2.2,54020,1073725440,17130,0,65535,65700,0,0,4,1460,1,0,4,24,33580,72,65700,0,72,0,0,0
o,0x00000000,1716772633.691825,10.0.2.15,22,10.0.2.2,54020,1073725440,17202,0,65535,65700,0,0,4,1460,1,0,4,24,33580,44,65700,0,0,0,0,0
i,0x00000000,1716772633.692341,10.0.2.15,22,10.0.2.2,54020,1073725440,17202,0,65535,65700,0,0,4,1460,1,0,4,24,33580,44,65700,0,44,0,0,0
o,0x00000000,1716772633.692707,10.0.2.15,22,10.0.2.2,54020,1073725440,17246,0,65535,65700,0,0,4,1460,1,0,4,24,33580,44,65700,0,0,0,0,0
i,0x00000000,1716772633.693479,10.0.2.15,22,10.0.2.2,54020,1073725440,17246,0,65535,65700,0,0,4,1460,1,0,4,24,33580,44,65700,0,44,0,0,0
o,0x00000000,1716772633.696836,10.0.2.15,22,10.0.2.2,54020,1073725440,17290,0,65535,65700,0,0,4,1460,1,0,4,24,33580,176,65700,0,0,0,0,0
i,0x00000000,1716772633.698086,10.0.2.15,22,10.0.2.2,54020,1073725440,17290,0,65535,65700,0,0,4,1460,1,0,4,24,33580,176,65700,0,176,0,0,0
i,0x00000000,1716772633.698115,10.0.2.15,22,10.0.2.2,54020,1073725440,17466,0,65535,65700,0,0,4,1460,1,0,4,24,33580,0,65700,0,0,0,0,0
i,0x00000000,1716772633.698117,10.0.2.15,22,10.0.2.2,54020,1073725440,17466,0,65535,65700,0,0,4,1460,1,0,4,24,33580,0,65700,96,0,0,0,0
o,0x00000000,1716772633.698120,10.0.2.15,22,10.0.2.2,54020,1073725440,17466,0,65535,65604,0,0,5,1460,1,0,5,24,33580,0,65700,96,0,0,0,0
o,0x00000000,1716772633.703466,10.0.2.15,22,10.0.2.2,54020,1073725440,17466,0,65535,65604,0,0,8,1460,1,0,4,24,33580,0,65700,0,0,0,0,0
i,0x00000000,1716772633.704213,10.0.2.15,22,10.0.2.2,54020,1073725440,17466,0,65535,65604,0,0,8,1460,1,0,20,24,33580,0,65700,0,1,0,0,0
i,0x00000000,1716772633.706367,10.0.2.15,22,10.0.2.2,54021,1073725440,14600,0,65535,65700,0,0,4,1460,1,0,0,27,33580,0,65700,0,0,0,0,0
o,0x00000000,1716772633.712126,10.0.2.15,22,10.0.2.2,54021,1073725440,14600,0,65535,65700,0,0,4,1460,1,0,0,27,33580,38,65700,41,0,0,0,0
i,0x00000000,1716772633.712812,10.0.2.15,22,10.0.2.2,54021,1073725440,14600,0,65535,65700,0,0,4,1460,1,0,0,27,33580,38,65700,41,38,0,0,0
i,0x00000000,1716772633.713719,10.0.2.15,22,10.0.2.2,54021,1073725440,14638,0,65535,65700,0,0,4,1460,1,0,0,24,33580,0,65700,0,0,0,0,0
i,0x00000000,1716772633.713722,10.0.2.15,22,10.0.2.2,54021,1073725440,14638,0,65535,65700,0,0,4,1460,1,0,0,24,33580,0,65700,1460,0,0,0,0
o,0x00000000,1716772633.713725,10.0.2.15,22,10.0.2.2,54021,1073725440,14638,0,65535,65700,0,0,4,1460,1,0,1,24,33580,0,65700,1536,0,0,0,0
o,0x00000000,1716772633.713975,10.0.2.15,22,10.0.2.2,54021,1073725440,14638,0,65535,65700,0,0,4,1460,1,0,0,24,33580,1056,65700,1536,0,0,0,0
i,0x00000000,1716772633.714601,10.0.2.15,22,10.0.2.2,54021,1073725440,14638,0,65535,65700,0,0,4,1460,1,0,0,24,33580,1056,65700,1536,1056,0,0,0
i,0x00000000,1716772633.716105,10.0.2.15,22,10.0.2.2,54021,1073725440,15694,0,65535,65700,0,0,4,1460,1,0,0,24,33580,0,65700,0,0,0,0,0
o,0x00000000,1716772633.718525,10.0.2.15,22,10.0.2.2,54021,1073725440,15694,0,65535,65700,0,0,4,1460,1,0,0,24,33580,484,65700,0,0,0,0,0
i,0x00000000,1716772633.719139,10.0.2.15,22,10.0.2.2,54021,1073725440,15694,0,65535,65700,0,0,4,1460,1,0,0,24,33580,484,65700,0,484,0,0,0
i,0x00000000,1716772633.723547,10.0.2.15,22,10.0.2.2,54021,1073725440,16178,0,65535,65700,0,0,4,1460,1,0,0,24,33580,0,65700,0,0,0,0,0
i,0x00000000,1716772633.728880,10.0.2.15,22,10.0.2.2,54021,1073725440,16178,0,65535,65700,0,0,4,1460,1,0,0,24,33580,0,65700,0,0,0,0,0
o,0x00000000,1716772633.728885,10.0.2.15,22,10.0.2.2,54021,1073725440,16178,0,65535,65700,0,0,4,1460,1,0,1,24,33580,0,65700,44,0,0,0,0
o,0x00000000,1716772633.729060,10.0.2.15,22,10.0.2.2,54021,1073725440,16178,0,65535,65700,0,0,4,1460,1,0,0,24,33580,44,65700,0,0,0,0,0
i,0x00000000,1716772633.729752,10.0.2.15,22,10.0.2.2,54021,1073725440,16178,0,65535,65700,0,0,4,1460,1,0,0,24,33580,44,65700,0,44,0,0,0
i,0x00000000,1716772633.730409,10.0.2.15,22,10.0.2.2,54021,1073725440,16222,0,65535,65700,0,0,4,1460,1,0,0,24,33580,0,65700,0,0,0,0,0
o,0x00000000,1716772633.739703,10.0.2.15,22,10.0.2.2,54021,1073725440,16222,0,65535,65700,0,0,4,1460,1,0,0,24,33580,68,65700,0,0,0,0,0
i,0x00000000,1716772633.740214,10.0.2.15,22,10.0.2.2,54021,1073725440,16222,0,65535,65700,0,0,4,1460,1,0,0,24,33580,68,65700,0,68,0,0,0
i,0x00000000,1716772633.742710,10.0.2.15,22,10.0.2.2,54021,1073725440,16290,0,65535,65700,0,0,4,1460,1,0,0,24,33580,0,65700,0,0,0,0,0
o,0x00000000,1716772633.752451,10.0.2.15,22,10.0.2.2,54021,1073725440,16290,0,65535,65700,0,0,4,1460,1,0,0,24,33580,28,65700,0,0,0,0,0
i,0x00000000,1716772633.753177,10.0.2.15,22,10.0.2.2,54021,1073725440,16290,0,65535,65700,0,0,4,1460,1,0,0,24,33580,28,65700,0,28,0,0,0
i,0x00000000,1716772633.753919,10.0.2.15,22,10.0.2.2,54021,1073725440,16318,0,65535,65700,0,0,4,1460,1,0,0,24,33580,0,65700,0,0,0,0,0
o,0x00000000,1716772633.757877,10.0.2.15,22,10.0.2.2,54021,1073725440,16318,0,65535,65700,0,0,4,1460,1,0,0,24,33580,768,65700,112,0,0,0,0
i,0x00000000,1716772633.758696,10.0.2.15,22,10.0.2.2,54021,1073725440,16318,0,65535,65700,0,0,4,1460,1,0,0,24,33580,768,65700,112,768,0,0,0
o,0x00000000,1716772633.758901,10.0.2.15,22,10.0.2.2,54021,1073725440,17086,0,65535,65700,0,0,4,1460,1,0,0,24,33580,44,65700,0,0,0,0,0
i,0x00000000,1716772633.759591,10.0.2.15,22,10.0.2.2,54021,1073725440,17086,0,65535,65700,0,0,4,1460,1,0,0,24,33580,44,65700,0,44,0,0,0
i,0x00000000,1716772633.760191,10.0.2.15,22,10.0.2.2,54021,1073725440,17130,0,65535,65700,0,0,4,1460,1,0,0,24,33580,0,65700,0,0,0,0,0
o,0x00000000,1716772633.760517,10.0.2.15,22,10.0.2.2,54021,1073725440,17130,0,65535,65700,0,0,4,1460,1,0,4,24,33580,72,65700,0,0,0,0,0
i,0x00000000,1716772633.761175,10.0.2.15,22,10.0.2.2,54021,1073725440,17130,0,65535,65700,0,0,4,1460,1,0,4,24,33580,72,65700,0,72,0,0,0
i,0x00000000,1716772633.761582,10.0.2.15,22,10.0.2.2,54021,1073725440,17202,0,65535,65700,0,0,4,1460,1,0,4,24,33580,0,65700,0,0,0,0,0
o,0x00000000,1716772633.766570,172.16.1.2,59857,172.16.3.2,5101,1073725440,1073725440,0,0,0,0,0,2,536,0,1,672,100,32768,0,65536,0,0,0,0,0
o,0x00000000,1716772633.796404,10.0.2.15,22,10.0.2.2,54021,1073725440,17202,0,65535,65700,0,0,4,1460,1,0,5,24,33580,0,65700,0,0,0,0,0
i,0x00000000,1716772633.879590,172.16.1.2,59857,172.16.3.2,5101,1073725440,1073725440,0,0,0,0,0,2,536,0,1,672,100,32768,0,65536,0,1,0,0,0
o,0x00000000,1716772633.879611,172.16.1.2,59857,172.16.3.2,5101,31471,14480,0,65535,65700,6,6,4,1460,848,1,993,120,33580,0,65700,0,0,0,0,0
o,0x00000000,1716772633.879981,172.16.1.2,59857,172.16.3.2,5101,31471,14480,0,65535,65700,6,6,4,1460,848,1,996,120,33580,37,65700,0,0,0,0,0
i,0x00000000,1716772633.999861,172.16.1.2,59857,172.16.3.2,5101,31471,14480,0,65535,65700,6,6,4,1460,848,1,996,120,33580,37,65700,0,37,0,0,0
o,0x00000000,1716772634.000011,172.16.1.2,59857,172.16.3.2,5101,31471,14517,0,65728,65728,6,6,4,1460,790,1,996,114,33580,4,65700,0,0,0,0,0
o,0x00000000,1716772634.000383,172.16.1.2,59857,172.16.3.2,5101,31471,14517,0,65728,65728,6,6,4,1460,790,1,996,114,33580,128,65700,0,4,0,0,0
i,0x00000000,1716772634.119582,172.16.1.2,59857,172.16.3.2,5101,31471,14517,0,65728,65728,6,6,4,1460,790,1,996,114,33580,128,65700,0,128,0,0,0
i,0x00000000,1716772634.119597,172.16.1.2,59857,172.16.3.2,5101,31471,14645,0,65600,65728,6,6,4,1460,740,1,996,108,33580,0,65700,0,0,0,0,0
o,0x00000000,1716772634.119711,172.16.1.2,42596,172.16.3.2,5101,1073725440,1073725440,0,0,0,0,0,2,536,0,1,672,100,32768,0,65536,0,0,0,0,0
o,0x00000000,1716772634.157243,172.16.1.2,59857,172.16.3.2,5101,31471,14645,0,65728,65728,6,6,4,1460,740,1,997,108,33580,0,65700,0,0,0,0,0
i,0x00000000,1716772634.239552,172.16.1.2,42596,172.16.3.2,5101,1073725440,1073725440,0,0,0,0,0,2,536,0,1,672,100,32768,0,65536,0,1,0,0,0
o,0x00000000,1716772634.239576,172.16.1.2,42596,172.16.3.2,5101,31471,14480,0,65535,65700,6,6,4,1460,852,1,993,119,33580,0,65700,0,0,0,0,0
o,0x00000000,1716772634.239729,172.16.1.2,42596,172.16.3.2,5101,31471,14480,0,65535,65700,6,6,4,1460,852,1,992,119,33580,37,65700,0,0,0,0,0
i,0x00000000,1716772634.359759,172.16.1.2,59857,172.16.3.2,5101,31471,14645,0,65728,65728,6,6,4,1460,740,1,996,108,33580,0,65700,0,0,0,0,0
i,0x00000000,1716772634.359772,172.16.1.2,59857,172.16.3.2,5101,31471,14645,0,65728,65728,6,6,4,1460,740,1,996,108,33580,0,65700,1,0,0,0,0
o,0x00000000,1716772634.359780,172.16.1.2,59857,172.16.3.2,5101,31471,14645,0,65728,65728,6,6,4,1460,740,1,997,108,33580,0,65700,2,0,0,0,0
o,0x00000000,1716772634.360155,172.16.1.2,42596,172.16.3.2,5101,31471,14480,0,65535,65700,6,6,4,1460,852,1,992,119,33580,33580,65700,0,37,0,0,0
o,0x00000000,1716772634.360501,172.16.1.2,42596,172.16.3.2,5101,31471,14480,0,65535,65700,6,6,4,1460,852,1,992,119,33580,33580,65700,0,1485,0,0,0
o,0x00000000,1716772634.360856,172.16.1.2,42596,172.16.3.2,5101,31471,14480,0,65535,65700,6,6,4,1460,852,1,992,119,33580,33580,65700,0,2933,0,0,0
o,0x00000000,1716772634.361172,172.16.1.2,42596,172.16.3.2,5101,31471,14480,0,65535,65700,6,6,4,1460,852,1,992,119,33580,33580,65700,0,4381,0,0,0
o,0x00000000,1716772634.361497,172.16.1.2,42596,172.16.3.2,5101,31471,14480,0,65535,65700,6,6,4,1460,852,1,992,119,33580,33580,65700,0,5829,0,0,0
o,0x00000000,1716772634.361815,172.16.1.2,42596,172.16.3.2,5101,31471,14480,0,65535,65700,6,6,4,1460,852,1,992,119,33580,33580,65700,0,7277,0,0,0
o,0x00000000,1716772634.362131,172.16.1.2,42596,172.16.3.2,5101,31471,14480,0,65535,65700,6,6,4,1460,852,1,992,119,33580,33580,65700,0,8725,0,0,0
o,0x00000000,1716772634.362448,172.16.1.2,42596,172.16.3.2,5101,31471,14480,0,65535,65700,6,6,4,1460,852,1,992,119,33580,33580,65700,0,10173,0,0,0
o,0x00000000,1716772634.362805,172.16.1.2,42596,172.16.3.2,5101,31471,14480,0,65535,65700,6,6,4,1460,852,1,992,119,33580,33580,65700,0,11621,0,0,0
i,0x00000000,1716772634.389244,172.16.1.2,42596,172.16.3.2,5101,31471,14480,0,65535,65700,6,6,4,1460,852,1,992,119,33580,33580,65700,0,13069,0,0,0
o,0x00000000,1716772634.389254,172.16.1.2,42596,172.16.3.2,5101,31471,14517,0,65728,65728,6,6,4,1460,806,1,992,111,33580,33543,65700,0,13032,0,0,0
i,0x00000000,1716772634.660483,172.16.1.2,42596,172.16.3.2,5101,31471,14517,0,65728,65728,6,6,4,1460,806,1,992,111,33580,33543,65700,0,14480,0,0,0
o,0x00000000,1716772634.660504,172.16.1.2,42596,172.16.3.2,5101,31471,17413,0,64256,65728,6,6,4,1460,822,1,992,99,33580,30647,65700,0,11584,0,0,0
o,0x00000000,1716772634.660591,172.16.1.2,42596,172.16.3.2,5101,31471,17413,0,64256,65728,6,6,4,1460,822,1,992,99,33580,30647,65700,0,13032,0,0,0
o,0x00000000,1716772634.660665,172.16.1.2,42596,172.16.3.2,5101,31471,17413,0,64256,65728,6,6,4,1460,822,1,992,99,41772,30647,65700,0,14480,0,0,0
o,0x00000000,1716772634.660739,172.16.1.2,42596,172.16.3.2,5101,31471,17413,0,64256,65728,6,6,4,1460,822,1,992,99,41772,30647,65700,0,15928,0,0,0
i,0x00000000,1716772634.660841,172.16.1.2,42596,172.16.3.2,5101,31471,17413,0,64256,65728,6,6,4,1460,822,1,992,99,41772,30647,65700,0,17376,0,0,0
o,0x00000000,1716772634.660844,172.16.1.2,42596,172.16.3.2,5101,31471,20309,0,64256,65728,6,6,4,1460,836,1,992,90,41772,27751,65700,0,14480,0,0,0
o,0x00000000,1716772634.660931,172.16.1.2,42596,172.16.3.2,5101,31471,20309,0,64256,65728,6,6,4,1460,836,1,992,90,41772,27751,65700,0,15928,0,0,0
o,0x00000000,1716772634.661004,172.16.1.2,42596,172.16.3.2,5101,31471,20309,0,64256,65728,6,6,4,1460,836,1,992,90,41772,27751,65700,0,17376,0,0,0
o,0x00000000,1716772634.661078,172.16.1.2,42596,172.16.3.2,5101,31471,20309,0,64256,65728,6,6,4,1460,836,1,992,90,41772,27751,65700,0,18824,0,0,0
i,0x00000000,1716772634.661151,172.16.1.2,42596,172.16.3.2,5101,31471,20309,0,64256,65728,6,6,4,1460,836,1,992,90,41772,27751,65700,0,20272,0,0,0
o,0x00000000,1716772634.661155,172.16.1.2,42596,172.16.3.2,5101,31471,23205,0,64256,65728,6,6,4,1460,848,1,992,82,41772,24855,65700,0,17376,0,0,0
o,0x00000000,1716772634.661228,172.16.1.2,42596,172.16.3.2,5101,31471,23205,0,64256,65728,6,6,4,1460,848,1,992,82,41772,24855,65700,0,18824,0,0,0
o,0x00000000,1716772634.661325,172.16.1.2,42596,172.16.3.2,5101,31471,23205,0,64256,65728,6,6,4,1460,848,1,992,82,41772,24855,65700,0,20272,0,0,0
o,0x00000000,1716772634.661409,172.16.1.2,42596,172.16.3.2,5101,31471,23205,0,64256,65728,6,6,4,1460,848,1,992,82,41772,24855,65700,0,21720,0,0,0
i,0x00000000,1716772634.661487,172.16.1.2,42596,172.16.3.2,5101,31471,23205,0,64256,65728,6,6,4,1460,848,1,992,82,41772,24855,65700,0,23168,0,0,0
o,0x00000000,1716772634.661490,172.16.1.2,42596,172.16.3.2,5101,31471,26101,0,64256,65728,6,6,4,1460,858,1,992,76,41772,21959,65700,0,20272,0,0,0
o,0x00000000,1716772634.661849,172.16.1.2,42596,172.16.3.2,5101,31471,26101,0,64256,65728,6,6,4,1460,858,1,992,76,49964,41772,65700,0,21720,0,0,0
o,0x00000000,1716772634.662174,172.16.1.2,42596,172.16.3.2,5101,31471,26101,0,64256,65728,6,6,4,1460,858,1,992,76,49964,41772,65700,0,23168,0,0,0
o,0x00000000,1716772634.662546,172.16.1.2,42596,172.16.3.2,5101,31471,26101,0,64256,65728,6,6,4,1460,858,1,992,76,49964,41772,65700,0,24616,0,0,0
i,0x00000000,1716772634.689967,172.16.1.2,42596,172.16.3.2,5101,31471,26101,0,64256,65728,6,6,4,1460,858,1,992,76,58156,58156,65700,0,26064,0,0,0
o,0x00000000,1716772634.689979,172.16.1.2,42596,172.16.3.2,5101,31471,28997,0,64256,65728,6,6,4,1460,883,1,992,76,58156,55260,65700,0,23168,0,0,0
o,0x00000000,1716772634.690232,172.16.1.2,42596,172.16.3.2,5101,31471,28997,0,64256,65728,6,6,4,1460,883,1,992,76,58156,55260,65700,0,24616,0,0,0
o,0x00000000,1716772634.690504,172.16.1.2,42596,172.16.3.2,5101,31471,28997,0,64256,65728,6,6,4,1460,883,1,992,76,58156,55260,65700,0,26064,0,0,0
o,0x00000000,1716772634.690734,172.16.1.2,42596,172.16.3.2,5101,31471,28997,0,64256,65728,6,6,4,1460,883,1,992,76,66348,55260,65700,0,27512,0,0,0
i,0x00000000,1716772635.200169,172.16.1.2,42596,172.16.3.2,5101,31471,28997,0,64256,65728,6,6,4,1460,883,1,992,76,66348,66348,65700,0,28960,0,0,0
o,0x00000000,1716772635.200190,172.16.1.2,42596,172.16.3.2,5101,31471,31893,0,64256,65728,6,6,4,1460,989,1,992,98,66348,63452,65700,0,26064,0,0,0
o,0x00000000,1716772635.200286,172.16.1.2,42596,172.16.3.2,5101,31471,31893,0,64256,65728,6,6,4,1460,989,1,992,98,66348,63452,65700,0,27512,0,0,0
o,0x00000000,1716772635.200372,172.16.1.2,42596,172.16.3.2,5101,31471,31893,0,64256,65728,6,6,4,1460,989,1,992,98,66348,63452,65700,0,28960,0,0,0
o,0x00000000,1716772635.200451,172.16.1.2,42596,172.16.3.2,5101,31471,31893,0,64256,65728,6,6,4,1460,989,1,992,98,66348,63452,65700,0,30408,0,0,0
i,0x00000000,1716772635.200526,172.16.1.2,42596,172.16.3.2,5101,31471,31893,0,64256,65728,6,6,4,1460,989,1,992,98,74540,63452,65700,0,31856,0,0,0
o,0x00000000,1716772635.200529,172.16.1.2,42596,172.16.3.2,5101,31471,31893,0,64256,65728,6,6,4,1460,1082,1,992,113,74540,60556,65700,0,28960,0,0,0
o,0x00000000,1716772635.200606,172.16.1.2,42596,172.16.3.2,5101,31471,31893,0,64256,65728,6,6,4,1460,1082,1,992,113,74540,60556,65700,0,30408,0,0,0
i,0x00000000,1716772635.200695,172.16.1.2,42596,172.16.3.2,5101,31471,31893,0,64256,65728,6,6,4,1460,1082,1,992,113,74540,60556,65700,0,31856,0,0,0
o,0x00000000,1716772635.200698,172.16.1.2,42596,172.16.3.2,5101,31471,31893,0,64256,65728,6,6,4,1460,1163,1,992,121,74540,57660,65700,0,28960,0,0,0
o,0x00000000,1716772635.200795,172.16.1.2,42596,172.16.3.2,5101,31471,31893,0,64256,65728,6,6,4,1460,1163,1,992,121,74540,57660,65700,0,30408,0,0,0
i,0x00000000,1716772635.201270,172.16.1.2,42596,172.16.3.2,5101,31471,31893,0,64256,65728,6,6,4,1460,1163,1,992,121,74540,57660,65700,0,31856,0,0,0
o,0x00000000,1716772635.201273,172.16.1.2,42596,172.16.3.2,5101,31471,31893,0,64256,65728,6,6,4,1460,1234,1,992,125,74540,54764,65700,0,28960,0,0,0
o,0x00000000,1716772635.201351,172.16.1.2,42596,172.16.3.2,5101,31471,31893,0,64256,65728,6,6,4,1460,1234,1,992,125,74540,54764,65700,0,30408,0,0,0
i,0x00000000,1716772635.201428,172.16.1.2,42596,172.16.3.2,5101,31471,31893,0,64256,65728,6,6,4,1460,1234,1,992,125,74540,54764,65700,0,31856,0,0,0
o,0x00000000,1716772635.201431,172.16.1.2,42596,172.16.3.2,5101,31471,31893,0,64256,65728,6,6,4,1460,1296,1,992,126,74540,51868,65700,0,28960,0,0,0
o,0x00000000,1716772635.201507,172.16.1.2,42596,172.16.3.2,5101,31471,31893,0,64256,65728,6,6,4,1460,1296,1,992,126,74540,51868,65700,0,30408,0,0,0
i,0x00000000,1716772635.201601,172.16.1.2,42596,172.16.3.2,5101,31471,31893,0,64256,65728,6,6,4,1460,1296,1,992,126,74540,51868,65700,0,31856,0,0,0
o,0x00000000,1716772635.201604,172.16.1.2,42596,172.16.3.2,5101,31471,31893,0,64256,65728,6,6,4,1460,1350,1,992,124,74540,48972,65700,0,28960,0,0,0
o,0x00000000,1716772635.201681,172.16.1.2,42596,172.16.3.2,5101,31471,31893,0,64256,65728,6,6,4,1460,1350,1,992,124,74540,48972,65700,0,30408,0,0,0
i,0x00000000,1716772635.201770,172.16.1.2,42596,172.16.3.2,5101,31471,31893,0,64256,65728,6,6,4,1460,1350,1,992,124,74540,48972,65700,0,31856,0,0,0
o,0x00000000,1716772635.201773,172.16.1.2,42596,172.16.3.2,5101,31471,31893,0,64256,65728,6,6,4,1460,1398,1,992,122,74540,46076,65700,0,28960,0,0,0
o,0x00000000,1716772635.201870,172.16.1.2,42596,172.16.3.2,5101,31471,31893,0,64256,65728,6,6,4,1460,1398,1,992,122,74540,46076,65700,0,30408,0,0,0
i,0x00000000,1716772635.201959,172.16.1.2,42596,172.16.3.2,5101,31471,31893,0,64256,65728,6,6,4,1460,1398,1,992,122,74540,46076,65700,0,31856,0,0,0
o,0x00000000,1716772635.201961,172.16.1.2,42596,172.16.3.2,5101,31471,31893,0,64256,65728,6,6,4,1460,1440,1,992,120,74540,43180,65700,0,28960,0,0,0
o,0x00000000,1716772635.202056,172.16.1.2,42596,172.16.3.2,5101,31471,31893,0,64256,65728,6,6,4,1460,1440,1,992,120,74540,43180,65700,0,30408,0,0,0
i,0x00000000,1716772635.202153,172.16.1.2,42596,172.16.3.2,5101,31471,31893,0,64256,65728,6,6,4,1460,1440,1,992,120,74540,43180,65700,0,31856,0,0,0
o,0x00000000,1716772635.202156,172.16.1.2,42596,172.16.3.2,5101,31471,31893,0,64256,65728,6,6,4,1460,1464,1,992,113,74540,40284,65700,0,28960,0,0,0
o,0x00000000,1716772635.202236,172.16.1.2,42596,172.16.3.2,5101,31471,31893,0,64256,65728,6,6,4,1460,1464,1,992,113,74540,40284,65700,0,30408,0,0,0
i,0x00000000,1716772635.230098,172.16.1.2,42596,172.16.3.2,5101,31471,31893,0,64256,65728,6,6,4,1460,1464,1,992,113,74540,74540,65700,0,31856,0,0,0
o,0x00000000,1716772635.230113,172.16.1.2,42596,172.16.3.2,5101,31471,31893,0,64256,65728,6,6,4,1460,1497,1,992,110,74540,71644,65700,0,28960,0,0,0
o,0x00000000,1716772635.230361,172.16.1.2,42596,172.16.3.2,5101,31471,31893,0,64256,65728,6,6,4,1460,1497,1,992,110,74540,71644,65700,0,30408,0,0,0
i,0x00000000,1716772635.779633,172.16.1.2,42596,172.16.3.2,5101,31471,31893,0,64256,65728,6,6,4,1460,1497,1,992,110,74540,74540,65700,0,31856,0,0,0
o,0x00000000,1716772635.779655,172.16.1.2,42596,172.16.3.2,5101,31471,31893,0,64256,65728,6,6,4,1460,1538,1,992,111,74540,71644,65700,0,28960,0,0,0
o,0x00000000,1716772635.779755,172.16.1.2,42596,172.16.3.2,5101,31471,31893,0,64256,65728,6,6,4,1460,1538,1,992,111,74540,71644,65700,0,30408,0,0,0
i,0x00000000,1716772635.779878,172.16.1.2,42596,172.16.3.2,5101,31471,31893,0,64256,65728,6,6,4,1460,1538,1,992,111,74540,71644,65700,0,31856,0,0,0
o,0x00000000,1716772635.779881,172.16.1.2,42596,172.16.3.2,5101,31471,31893,0,64256,65728,6,6,4,1460,1574,1,992,110,74540,68748,65700,0,28960,0,0,0
o,0x00000000,1716772635.779970,172.16.1.2,42596,172.16.3.2,5101,31471,31893,0,64256,65728,6,6,4,1460,1574,1,992,110,74540,68748,65700,0,30408,0,0,0
i,0x00000000,1716772635.780046,172.16.1.2,42596,172.16.3.2,5101,31471,31893,0,64256,65728,6,6,4,1460,1574,1,992,110,74540,68748,65700,0,31856,0,0,0
o,0x00000000,1716772635.780049,172.16.1.2,42596,172.16.3.2,5101,31471,33353,0,64256,65728,6,6,4,1460,1606,1,992,109,74540,65852,65700,0,28960,0,0,0
o,0x00000000,1716772635.780124,172.16.1.2,42596,172.16.3.2,5101,31471,33353,0,64256,65728,6,6,4,1460,1606,1,992,109,74540,65852,65700,0,30408,0,0,0
o,0x00000000,1716772635.780206,172.16.1.2,42596,172.16.3.2,5101,31471,33353,0,64256,65728,6,6,4,1460,1606,1,992,109,74540,65852,65700,0,31856,0,0,0
i,0x00000000,1716772635.780558,172.16.1.2,42596,172.16.3.2,5101,31471,33353,0,64256,65728,6,6,4,1460,1606,1,992,109,82732,65852,65700,0,33304,0,0,0
o,0x00000000,1716772635.780561,172.16.1.2,42596,172.16.3.2,5101,31471,33353,0,64256,65728,6,6,4,1460,1634,1,992,107,82732,62956,65700,0,30408,0,0,0
o,0x00000000,1716772635.780636,172.16.1.2,42596,172.16.3.2,5101,31471,33353,0,64256,65728,6,6,4,1460,1634,1,992,107,82732,62956,65700,0,31856,0,0,0
i,0x00000000,1716772635.780709,172.16.1.2,42596,172.16.3.2,5101,31471,33353,0,64256,65728,6,6,4,1460,1634,1,992,107,82732,62956,65700,0,33304,0,0,0
o,0x00000000,1716772635.780711,172.16.1.2,42596,172.16.3.2,5101,31471,33353,0,64256,65728,6,6,4,1460,1658,1,992,105,82732,60060,65700,0,30408,0,0,0
o,0x00000000,1716772635.780785,172.16.1.2,42596,172.16.3.2,5101,31471,33353,0,64256,65728,6,6,4,1460,1658,1,992,105,82732,60060,65700,0,31856,0,0,0
i,0x00000000,1716772635.780859,172.16.1.2,42596,172.16.3.2,5101,31471,33353,0,64256,65728,6,6,4,1460,1658,1,992,105,82732,60060,65700,0,33304,0,0,0
o,0x00000000,1716772635.780861,172.16.1.2,42596,172.16.3.2,5101,31471,33353,0,64256,65728,6,6,4,1460,1679,1,992,102,82732,57164,65700,0,30408,0,0,0
o,0x00000000,1716772635.780934,172.16.1.2,42596,172.16.3.2,5101,31471,33353,0,64256,65728,6,6,4,1460,1679,1,992,102,82732,57164,65700,0,31856,0,0,0
i,0x00000000,1716772635.781008,172.16.1.2,42596,172.16.3.2,5101,31471,33353,0,64256,65728,6,6,4,1460,1679,1,992,102,82732,57164,65700,0,33304,0,0,0
o,0x00000000,1716772635.781010,172.16.1.2,42596,172.16.3.2,5101,31471,33353,0,64256,65728,6,6,4,1460,1698,1,992,100,82732,54268,65700,0,30408,0,0,0
o,0x00000000,1716772635.781084,172.16.1.2,42596,172.16.3.2,5101,31471,33353,0,64256,65728,6,6,4,1460,1698,1,992,100,82732,54268,65700,0,31856,0,0,0
i,0x00000000,1716772635.781157,172.16.1.2,42596,172.16.3.2,5101,31471,33353,0,64256,65728,6,6,4,1460,1698,1,992,100,82732,54268,65700,0,33304,0,0,0
o,0x00000000,1716772635.781159,172.16.1.2,42596,172.16.3.2,5101,31471,33353,0,64256,65728,6,6,4,1460,1714,1,992,98,82732,51372,65700,0,30408,0,0,0
o,0x00000000,1716772635.781233,172.16.1.2,42596,172.16.3.2,5101,31471,33353,0,64256,65728,6,6,4,1460,1714,1,992,98,82732,51372,65700,0,31856,0,0,0
i,0x00000000,1716772635.781307,172.16.1.2,42596,172.16.3.2,5101,31471,33353,0,64256,65728,6,6,4,1460,1714,1,992,98,82732,51372,65700,0,33304,0,0,0
o,0x00000000,1716772635.781309,172.16.1.2,42596,172.16.3.2,5101,31471,33353,0,64256,65728,6,6,4,1460,1728,1,992,96,82732,48476,65700,0,30408,0,0,0
o,0x00000000,1716772635.781396,172.16.1.2,42596,172.16.3.2,5101,31471,33353,0,64256,65728,6,6,4,1460,1728,1,992,96,82732,48476,65700,0,31856,0,0,0
i,0x00000000,1716772635.781475,172.16.1.2,42596,172.16.3.2,5101,31471,33353,0,64256,65728,6,6,4,1460,1728,1,992,96,82732,48476,65700,0,33304,0,0,0
o,0x00000000,1716772635.781478,172.16.1.2,42596,172.16.3.2,5101,31471,33353,0,64256,65728,6,6,4,1460,1740,1,992,94,82732,45580,65700,0,30408,0,0,0
o,0x00000000,1716772635.781551,172.16.1.2,42596,172.16.3.2,5101,31471,33353,0,64256,65728,6,6,4,1460,1740,1,992,94,82732,45580,65700,0,31856,0,0,0
i,0x00000000,1716772635.809555,172.16.1.2,42596,172.16.3.2,5101,31471,33353,0,64256,65728,6,6,4,1460,1740,1,992,94,82732,82732,65700,0,33304,0,0,0
o,0x00000000,1716772635.809564,172.16.1.2,42596,172.16.3.2,5101,31471,33353,0,64256,65728,6,6,4,1460,1755,1,992,93,82732,79836,65700,0,30408,0,0,0
o,0x00000000,1716772635.809809,172.16.1.2,42596,172.16.3.2,5101,31471,33353,0,64256,65728,6,6,4,1460,1755,1,992,93,82732,79836,65700,0,31856,0,0,0
i,0x00000000,1716772636.380161,172.16.1.2,42596,172.16.3.2,5101,31471,33353,0,64256,65728,6,6,4,1460,1755,1,992,93,82732,82732,65700,0,33304,0,0,0
o,0x00000000,1716772636.380181,172.16.1.2,42596,172.16.3.2,5101,31471,33353,0,64256,65728,6,6,4,1460,1776,1,992,95,82732,79836,65700,0,30408,0,0,0
o,0x00000000,1716772636.380294,172.16.1.2,42596,172.16.3.2,5101,31471,33353,0,64256,65728,6,6,4,1460,1776,1,992,95,82732,79836,65700,0,31856,0,0,0
i,0x00000000,1716772636.380370,172.16.1.2,42596,172.16.3.2,5101,31471,33353,0,64256,65728,6,6,4,1460,1776,1,992,95,82732,79836,65700,0,33304,0,0,0
o,0x00000000,1716772636.380373,172.16.1.2,42596,172.16.3.2,5101,31471,33353,0,64256,65728,6,6,4,1460,1794,1,992,95,82732,76940,65700,0,30408,0,0,0
o,0x00000000,1716772636.380466,172.16.1.2,42596,172.16.3.2,5101,31471,33353,0,64256,65728,6,6,4,1460,1794,1,992,95,82732,76940,65700,0,31856,0,0,0
i,0x00000000,1716772636.380569,172.16.1.2,42596,172.16.3.2,5101,31471,33353,0,64256,65728,6,6,4,1460,1794,1,992,95,82732,76940,65700,0,33304,0,0,0
o,0x00000000,1716772636.380572,172.16.1.2,42596,172.16.3.2,5101,31471,34813,0,64256,65728,6,6,4,1460,1810,1,992,95,82732,74044,65700,0,30408,0,0,0
o,0x00000000,1716772636.380675,172.16.1.2,42596,172.16.3.2,5101,31471,34813,0,64256,65728,6,6,4,1460,1810,1,992,95,82732,74044,65700,0,31856,0,0,0
o,0x00000000,1716772636.380759,172.16.1.2,42596,172.16.3.2,5101,31471,34813,0,64256,65728,6,6,4,1460,1810,1,992,95,82732,74044,65700,0,33304,0,0,0
i,0x00000000,1716772636.380865,172.16.1.2,42596,172.16.3.2,5101,31471,34813,0,64256,65728,6,6,4,1460,1810,1,992,95,82732,74044,65700,0,34752,0,0,0
o,0x00000000,1716772636.380868,172.16.1.2,42596,172.16.3.2,5101,31471,34813,0,64256,65728,6,6,4,1460,1824,1,992,94,82732,71148,65700,0,31856,0,0,0
o,0x00000000,1716772636.380976,172.16.1.2,42596,172.16.3.2,5101,31471,34813,0,64256,65728,6,6,4,1460,1824,1,992,94,82732,71148,65700,0,33304,0,0,0
i,0x00000000,1716772636.381090,172.16.1.2,42596,172.16.3.2,5101,31471,34813,0,64256,65728,6,6,4,1460,1824,1,992,94,82732,71148,65700,0,34752,0,0,0
o,0x00000000,1716772636.381093,172.16.1.2,42596,172.16.3.2,5101,31471,34813,0,64256,65728,6,6,4,1460,1836,1,992,93,82732,68252,65700,0,31856,0,0,0
o,0x00000000,1716772636.381181,172.16.1.2,42596,172.16.3.2,5101,31471,34813,0,64256,65728,6,6,4,1460,1836,1,992,93,82732,68252,65700,0,33304,0,0,0
i,0x00000000,1716772636.381490,172.16.1.2,42596,172.16.3.2,5101,31471,34813,0,64256,65728,6,6,4,1460,1836,1,992,93,82732,68252,65700,0,34752,0,0,0
o,0x00000000,1716772636.381493,172.16.1.2,42596,172.16.3.2,5101,31471,34813,0,64256,65728,6,6,4,1460,1847,1,992,92,82732,65356,65700,0,31856,0,0,0
o,0x00000000,1716772636.381569,172.16.1.2,42596,172.16.3.2,5101,31471,34813,0,64256,65728,6,6,4,1460,1847,1,992,92,82732,65356,65700,0,33304,0,0,0
i,0x00000000,1716772636.381648,172.16.1.2,42596,172.16.3.2,5101,31471,34813,0,64256,65728,6,6,4,1460,1847,1,992,92,82732,65356,65700,0,34752,0,0,0
o,0x00000000,1716772636.381651,172.16.1.2,42596,172.16.3.2,5101,31471,34813,0,64256,65728,6,6,4,1460,1857,1,992,91,82732,62460,65700,0,31856,0,0,0
o,0x00000000,1716772636.381732,172.16.1.2,42596,172.16.3.2,5101,31471,34813,0,64256,65728,6,6,4,1460,1857,1,992,91,82732,62460,65700,0,33304,0,0,0
i,0x00000000,1716772636.382133,172.16.1.2,42596,172.16.3.2,5101,31471,34813,0,64256,65728,6,6,4,1460,1857,1,992,91,82732,62460,65700,0,34752,0,0,0
o,0x00000000,1716772636.382137,172.16.1.2,42596,172.16.3.2,5101,31471,34813,0,64256,65728,6,6,4,1460,1865,1,992,90,82732,59564,65700,0,31856,0,0,0
o,0x00000000,1716772636.382312,172.16.1.2,42596,172.16.3.2,5101,31471,34813,0,64256,65728,6,6,4,1460,1865,1,992,90,82732,59564,65700,0,33304,0,0,0
i,0x00000000,1716772636.382385,172.16.1.2,42596,172.16.3.2,5101,31471,34813,0,64256,65728,6,6,4,1460,1865,1,992,90,82732,59564,65700,0,34752,0,0,0
o,0x00000000,1716772636.382388,172.16.1.2,42596,172.16.3.2,5101,31471,34813,0,64256,65728,6,6,4,1460,1872,1,992,89,82732,56668,65700,0,31856,0,0,0
o,0x00000000,1716772636.382461,172.16.1.2,42596,172.16.3.2,5101,31471,34813,0,64256,65728,6,6,4,1460,1872,1,992,89,82732,56668,65700,0,33304,0,0,0
i,0x00000000,1716772636.382534,172.16.1.2,42596,172.16.3.2,5101,31471,34813,0,64256,65728,6,6,4,1460,1872,1,992,89,82732,56668,65700,0,34752,0,0,0
o,0x00000000,1716772636.382536,172.16.1.2,42596,172.16.3.2,5101,31471,34813,0,64256,65728,6,6,4,1460,1878,1,992,88,82732,53772,65700,0,31856,0,0,0
o,0x00000000,1716772636.382609,172.16.1.2,42596,172.16.3.2,5101,31471,34813,0,64256,65728,6,6,4,1460,1878,1,992,88,82732,53772,65700,0,33304,0,0,0
i,0x00000000,1716772636.409992,172.16.1.2,42596,172.16.3.2,5101,31471,34813,0,64256,65728,6,6,4,1460,1878,1,992,88,82732,82732,65700,0,34752,0,0,0
o,0x00000000,1716772636.410009,172.16.1.2,42596,172.16.3.2,5101,31471,34813,0,64256,65728,6,6,4,1460,1896,1,992,91,82732,79836,65700,0,31856,0,0,0
o,0x00000000,1716772636.410274,172.16.1.2,42596,172.16.3.2,5101,31471,34813,0,64256,65728,6,6,4,1460,1896,1,992,91,82732,79836,65700,0,33304,0,0,0
i,0x00000000,1716772636.929665,172.16.1.2,42596,172.16.3.2,5101,31471,34813,0,64256,65728,6,6,4,1460,1896,1,992,91,82732,82732,65700,0,34752,0,0,0
o,0x00000000,1716772636.929704,172.16.1.2,42596,172.16.3.2,5101,31471,34813,0,65728,65728,6,6,4,1460,2107,1,992,147,82732,81284,65700,0,33304,0,0,0
i,0x00000000,1716772636.990385,172.16.1.2,42596,172.16.3.2,5101,31471,34813,0,65728,65728,6,6,4,1460,2107,1,992,147,82732,81284,65700,0,34752,0,0,0
o,0x00000000,1716772636.990401,172.16.1.2,42596,172.16.3.2,5101,31471,34813,0,64256,65728,6,6,4,1460,2088,1,992,136,82732,78388,65700,0,31856,0,0,0
o,0x00000000,1716772636.990488,172.16.1.2,42596,172.16.3.2,5101,31471,34813,0,64256,65728,6,6,4,1460,2088,1,992,136,82732,78388,65700,0,33304,0,0,0
i,0x00000000,1716772636.990575,172.16.1.2,42596,172.16.3.2,5101,31471,34813,0,64256,65728,6,6,4,1460,2088,1,992,136,82732,78388,65700,0,34752,0,0,0
o,0x00000000,1716772636.990594,172.16.1.2,42596,172.16.3.2,5101,31471,34813,0,64256,65728,6,6,4,1460,2071,1,992,127,82732,75492,65700,0,31856,0,0,0
o,0x00000000,1716772636.990673,172.16.1.2,42596,172.16.3.2,5101,31471,34813,0,64256,65728,6,6,4,1460,2071,1,992,127,82732,75492,65700,0,33304,0,0,0
i,0x00000000,1716772636.990793,172.16.1.2,42596,172.16.3.2,5101,31471,34813,0,64256,65728,6,6,4,1460,2071,1,992,127,82732,75492,65700,0,34752,0,0,0
o,0x00000000,1716772636.990796,172.16.1.2,42596,172.16.3.2,5101,31471,34813,0,64256,65728,6,6,4,1460,2057,1,992,120,82732,72596,65700,0,31856,0,0,0
o,0x00000000,1716772636.990878,172.16.1.2,42596,172.16.3.2,5101,31471,34813,0,64256,65728,6,6,4,1460,2057,1,992,120,82732,72596,65700,0,33304,0,0,0
i,0x00000000,1716772636.990974,172.16.1.2,42596,172.16.3.2,5101,31471,34813,0,64256,65728,6,6,4,1460,2057,1,992,120,82732,72596,65700,0,34752,0,0,0
o,0x00000000,1716772636.990976,172.16.1.2,42596,172.16.3.2,5101,31471,36273,0,64256,65728,6,6,4,1460,2044,1,992,114,82732,69700,65700,0,31856,0,0,0
o,0x00000000,1716772636.991047,172.16.1.2,42596,172.16.3.2,5101,31471,36273,0,64256,65728,6,6,4,1460,2044,1,992,114,82732,69700,65700,0,33304,0,0,0
o,0x00000000,1716772636.991118,172.16.1.2,42596,172.16.3.2,5101,31471,36273,0,64256,65728,6,6,4,1460,2044,1,992,114,82732,69700,65700,0,34752,0,0,0
i,0x00000000,1716772636.991403,172.16.1.2,42596,172.16.3.2,5101,31471,36273,0,64256,65728,6,6,4,1460,2044,1,992,114,82732,69700,65700,0,36200,0,0,0
o,0x00000000,1716772636.991406,172.16.1.2,42596,172.16.3.2,5101,31471,36273,0,64256,65728,6,6,4,1460,2033,1,992,109,82732,66804,65700,0,33304,0,0,0
o,0x00000000,1716772636.991479,172.16.1.2,42596,172.16.3.2,5101,31471,36273,0,64256,65728,6,6,4,1460,2033,1,992,109,82732,66804,65700,0,34752,0,0,0
i,0x00000000,1716772636.991558,172.16.1.2,42596,172.16.3.2,5101,31471,36273,0,64256,65728,6,6,4,1460,2033,1,992,109,82732,66804,65700,0,36200,0,0,0
o,0x00000000,1716772636.991561,172.16.1.2,42596,172.16.3.2,5101,31471,36273,0,64256,65728,6,6,4,1460,2023,1,992,104,82732,63908,65700,0,33304,0,0,0
o,0x00000000,1716772636.991658,172.16.1.2,42596,172.16.3.2,5101,31471,36273,0,64256,65728,6,6,4,1460,2023,1,992,104,82732,63908,65700,0,34752,0,0,0
i,0x00000000,1716772636.991755,172.16.1.2,42596,172.16.3.2,5101,31471,36273,0,64256,65728,6,6,4,1460,2023,1,992,104,82732,63908,65700,0,36200,0,0,0
o,0x00000000,1716772636.991758,172.16.1.2,42596,172.16.3.2,5101,31471,36273,0,64256,65728,6,6,4,1460,2015,1,992,101,82732,61012,65700,0,33304,0,0,0
o,0x00000000,1716772636.991838,172.16.1.2,42596,172.16.3.2,5101,31471,36273,0,64256,65728,6,6,4,1460,2015,1,992,101,82732,61012,65700,0,34752,0,0,0
i,0x00000000,1716772636.992121,172.16.1.2,42596,172.16.3.2,5101,31471,36273,0,64256,65728,6,6,4,1460,2015,1,992,101,82732,61012,65700,0,36200,0,0,0
o,0x00000000,1716772636.992124,172.16.1.2,42596,172.16.3.2,5101,31471,36273,0,64256,65728,6,6,4,1460,2008,1,992,98,82732,58116,65700,0,33304,0,0,0
o,0x00000000,1716772636.992199,172.16.1.2,42596,172.16.3.2,5101,31471,36273,0,64256,65728,6,6,4,1460,2008,1,992,98,82732,58116,65700,0,34752,0,0,0
i,0x00000000,1716772636.992272,172.16.1.2,42596,172.16.3.2,5101,31471,36273,0,64256,65728,6,6,4,1460,2008,1,992,98,82732,58116,65700,0,36200,0,0,0
o,0x00000000,1716772636.992274,172.16.1.2,42596,172.16.3.2,5101,31471,36273,0,64256,65728,6,6,4,1460,2001,1,992,96,82732,55220,65700,0,33304,0,0,0
o,0x00000000,1716772636.992346,172.16.1.2,42596,172.16.3.2,5101,31471,36273,0,64256,65728,6,6,4,1460,2001,1,992,96,82732,55220,65700,0,34752,0,0,0
i,0x00000000,1716772636.992420,172.16.1.2,42596,172.16.3.2,5101,31471,36273,0,64256,65728,6,6,4,1460,2001,1,992,96,82732,55220,65700,0,36200,0,0,0
o,0x00000000,1716772636.992423,172.16.1.2,42596,172.16.3.2,5101,31471,36273,0,64256,65728,6,6,4,1460,1995,1,992,94,82732,52324,65700,0,33304,0,0,0
o,0x00000000,1716772636.992495,172.16.1.2,42596,172.16.3.2,5101,31471,36273,0,64256,65728,6,6,4,1460,1995,1,992,94,82732,52324,65700,0,34752,0,0,0
i,0x00000000,1716772637.000233,172.16.1.2,42596,172.16.3.2,5101,31471,36273,0,64256,65728,6,6,4,1460,1995,1,992,94,82732,82732,65700,0,36200,0,0,0
o,0x00000000,1716772637.000239,172.16.1.2,42596,172.16.3.2,5101,31471,36273,0,64256,65728,6,6,4,1460,1994,1,992,91,82732,79836,65700,0,33304,0,0,0
o,0x00000000,1716772637.000483,172.16.1.2,42596,172.16.3.2,5101,31471,36273,0,64256,65728,6,6,4,1460,1994,1,992,91,82732,79836,65700,0,34752,0,0,0
i,0x00000000,1716772637.539763,172.16.1.2,42596,172.16.3.2,5101,31471,36273,0,64256,65728,6,6,4,1460,1994,1,992,91,82732,82732,65700,0,36200,0,0,0
o,0x00000000,1716772637.539783,172.16.1.2,42596,172.16.3.2,5101,31471,36273,0,65728,65728,6,6,4,1460,2197,1,992,146,82732,81284,65700,0,34752,0,0,0
i,0x00000000,1716772637.569757,172.16.1.2,42596,172.16.3.2,5101,31471,36273,0,65728,65728,6,6,4,1460,2197,1,992,146,82732,81284,65700,0,36200,0,0,0
o,0x00000000,1716772637.569765,172.16.1.2,42596,172.16.3.2,5101,31471,36273,0,65728,65728,6,6,4,1460,2179,1,992,136,82732,79836,65700,0,34752,0,0,0
i,0x00000000,1716772637.590719,172.16.1.2,42596,172.16.3.2,5101,31471,36273,0,65728,65728,6,6,4,1460,2179,1,992,136,82732,82732,65700,0,36200,0,0,0
o,0x00000000,1716772637.590747,172.16.1.2,42596,172.16.3.2,5101,31471,36273,0,64256,65728,6,6,4,1460,2147,1,992,131,82732,79836,65700,0,33304,0,0,0
o,0x00000000,1716772637.590838,172.16.1.2,42596,172.16.3.2,5101,31471,36273,0,64256,65728,6,6,4,1460,2147,1,992,131,82732,79836,65700,0,34752,0,0,0
i,0x00000000,1716772637.590949,172.16.1.2,42596,172.16.3.2,5101,31471,36273,0,64256,65728,6,6,4,1460,2147,1,992,131,82732,79836,65700,0,36200,0,0,0
o,0x00000000,1716772637.590952,172.16.1.2,42596,172.16.3.2,5101,31471,36273,0,64256,65728,6,6,4,1460,2119,1,992,126,82732,76940,65700,0,33304,0,0,0
o,0x00000000,1716772637.591038,172.16.1.2,42596,172.16.3.2,5101,31471,36273,0,64256,65728,6,6,4,1460,2119,1,992,126,82732,76940,65700,0,34752,0,0,0
i,0x00000000,1716772637.591126,172.16.1.2,42596,172.16.3.2,5101,31471,36273,0,64256,65728,6,6,4,1460,2119,1,992,126,82732,76940,65700,0,36200,0,0,0
o,0x00000000,1716772637.591129,172.16.1.2,42596,172.16.3.2,5101,31471,36273,0,64256,65728,6,6,4,1460,2095,1,992,121,82732,74044,65700,0,33304,0,0,0
o,0x00000000,1716772637.591224,172.16.1.2,42596,172.16.3.2,5101,31471,36273,0,64256,65728,6,6,4,1460,2095,1,992,121,82732,74044,65700,0,34752,0,0,0
i,0x00000000,1716772637.591550,172.16.1.2,42596,172.16.3.2,5101,31471,36273,0,64256,65728,6,6,4,1460,2095,1,992,121,82732,74044,65700,0,36200,0,0,0
o,0x00000000,1716772637.591553,172.16.1.2,42596,172.16.3.2,5101,31471,37733,0,64256,65728,6,6,4,1460,2074,1,992,117,82732,71148,65700,0,33304,0,0,0
o,0x00000000,1716772637.591641,172.16.1.2,42596,172.16.3.2,5101,31471,37733,0,64256,65728,6,6,4,1460,2074,1,992,117,82732,71148,65700,0,34752,0,0,0
o,0x00000000,1716772637.591731,172.16.1.2,42596,172.16.3.2,5101,31471,37733,0,64256,65728,6,6,4,1460,2074,1,992,117,82732,71148,65700,0,36200,0,0,0
i,0x00000000,1716772637.591812,172.16.1.2,42596,172.16.3.2,5101,31471,37733,0,64256,65728,6,6,4,1460,2074,1,992,117,82732,71148,65700,0,37648,0,0,0
o,0x00000000,1716772637.591814,172.16.1.2,42596,172.16.3.2,5101,31471,37733,0,64256,65728,6,6,4,1460,2055,1,992,113,82732,68252,65700,0,34752,0,0,0
o,0x00000000,1716772637.591903,172.16.1.2,42596,172.16.3.2,5101,31471,37733,0,64256,65728,6,6,4,1460,2055,1,992,113,82732,68252,65700,0,36200,0,0,0
i,0x00000000,1716772637.591989,172.16.1.2,42596,172.16.3.2,5101,31471,37733,0,64256,65728,6,6,4,1460,2055,1,992,113,82732,68252,65700,0,37648,0,0,0
o,0x00000000,1716772637.591998,172.16.1.2,42596,172.16.3.2,5101,31471,37733,0,64256,65728,6,6,4,1460,2039,1,992,109,82732,65356,65700,0,34752,0,0,0
o,0x00000000,1716772637.592081,172.16.1.2,42596,172.16.3.2,5101,31471,37733,0,64256,65728,6,6,4,1460,2039,1,992,109,82732,65356,65700,0,36200,0,0,0
i,0x00000000,1716772637.592166,172.16.1.2,42596,172.16.3.2,5101,31471,37733,0,64256,65728,6,6,4,1460,2039,1,992,109,82732,65356,65700,0,37648,0,0,0
o,0x00000000,1716772637.592168,172.16.1.2,42596,172.16.3.2,5101,31471,37733,0,64256,65728,6,6,4,1460,2025,1,992,106,82732,62460,65700,0,34752,0,0,0
o,0x00000000,1716772637.592249,172.16.1.2,42596,172.16.3.2,5101,31471,37733,0,64256,65728,6,6,4,1460,2025,1,992,106,82732,62460,65700,0,36200,0,0,0
i,0x00000000,1716772637.592336,172.16.1.2,42596,172.16.3.2,5101,31471,37733,0,64256,65728,6,6,4,1460,2025,1,992,106,82732,62460,65700,0,37648,0,0,0
o,0x00000000,1716772637.592338,172.16.1.2,42596,172.16.3.2,5101,31471,37733,0,64256,65728,6,6,4,1460,2012,1,992,103,82732,59564,65700,0,34752,0,0,0
o,0x00000000,1716772637.592419,172.16.1.2,42596,172.16.3.2,5101,31471,37733,0,64256,65728,6,6,4,1460,2012,1,992,103,82732,59564,65700,0,36200,0,0,0
i,0x00000000,1716772637.592494,172.16.1.2,42596,172.16.3.2,5101,31471,37733,0,64256,65728,6,6,4,1460,2012,1,992,103,82732,59564,65700,0,37648,0,0,0
o,0x00000000,1716772637.592496,172.16.1.2,42596,172.16.3.2,5101,31471,37733,0,64256,65728,6,6,4,1460,2001,1,992,100,82732,56668,65700,0,34752,0,0,0
o,0x00000000,1716772637.592571,172.16.1.2,42596,172.16.3.2,5101,31471,37733,0,64256,65728,6,6,4,1460,2001,1,992,100,82732,56668,65700,0,36200,0,0,0
i,0x00000000,1716772637.592657,172.16.1.2,42596,172.16.3.2,5101,31471,37733,0,64256,65728,6,6,4,1460,2001,1,992,100,82732,56668,65700,0,37648,0,0,0
o,0x00000000,1716772637.592659,172.16.1.2,42596,172.16.3.2,5101,31471,37733,0,64256,65728,6,6,4,1460,1991,1,992,98,82732,53772,65700,0,34752,0,0,0
o,0x00000000,1716772637.592737,172.16.1.2,42596,172.16.3.2,5101,31471,37733,0,64256,65728,6,6,4,1460,1991,1,992,98,82732,53772,65700,0,36200,0,0,0
i,0x00000000,1716772637.609630,172.16.1.2,42596,172.16.3.2,5101,31471,37733,0,64256,65728,6,6,4,1460,1991,1,992,98,82732,82732,65700,0,37648,0,0,0
o,0x00000000,1716772637.609646,172.16.1.2,42596,172.16.3.2,5101,31471,37733,0,64256,65728,6,6,4,1460,1987,1,992,95,82732,79836,65700,0,34752,0,0,0
o,0x00000000,1716772637.609893,172.16.1.2,42596,172.16.3.2,5101,31471,37733,0,64256,65728,6,6,4,1460,1987,1,992,95,82732,79836,65700,0,36200,0,0,0
i,0x00000000,1716772638.159654,172.16.1.2,42596,172.16.3.2,5101,31471,37733,0,64256,65728,6,6,4,1460,1987,1,992,95,82732,82732,65700,0,37648,0,0,0
o,0x00000000,1716772638.159675,172.16.1.2,42596,172.16.3.2,5101,31471,37733,0,65728,65728,6,6,4,1460,2203,1,992,152,82732,81284,65700,0,36200,0,0,0
i,0x00000000,1716772638.179696,172.16.1.2,42596,172.16.3.2,5101,31471,37733,0,65728,65728,6,6,4,1460,2203,1,992,152,82732,81284,65700,0,37648,0,0,0
o,0x00000000,1716772638.179705,172.16.1.2,42596,172.16.3.2,5101,31471,37733,0,65728,65728,6,6,4,1460,2184,1,992,141,82732,79836,65700,0,36200,0,0,0
i,0x00000000,1716772638.200250,172.16.1.2,42596,172.16.3.2,5101,31471,37733,0,65728,65728,6,6,4,1460,2184,1,992,141,82732,82732,65700,0,37648,0,0,0
o,0x00000000,1716772638.200258,172.16.1.2,42596,172.16.3.2,5101,31471,37733,0,64256,65728,6,6,4,1460,2163,1,992,132,82732,79836,65700,0,34752,0,0,0
o,0x00000000,1716772638.200378,172.16.1.2,42596,172.16.3.2,5101,31471,37733,0,64256,65728,6,6,4,1460,2163,1,992,132,82732,79836,65700,0,36200,0,0,0
i,0x00000000,1716772638.200466,172.16.1.2,42596,172.16.3.2,5101,31471,37733,0,64256,65728,6,6,4,1460,2163,1,992,132,82732,79836,65700,0,37648,0,0,0
o,0x00000000,1716772638.200478,172.16.1.2,42596,172.16.3.2,5101,31471,37733,0,64256,65728,6,6,4,1460,2133,1,992,127,82732,76940,65700,0,34752,0,0,0
o,0x00000000,1716772638.200551,172.16.1.2,42596,172.16.3.2,5101,31471,37733,0,64256,65728,6,6,4,1460,2133,1,992,127,82732,76940,65700,0,36200,0,0,0
i,0x00000000,1716772638.200647,172.16.1.2,42596,172.16.3.2,5101,31471,37733,0,64256,65728,6,6,4,1460,2133,1,992,127,82732,76940,65700,0,37648,0,0,0
o,0x00000000,1716772638.200650,172.16.1.2,42596,172.16.3.2,5101,31471,37733,0,64256,65728,6,6,4,1460,2107,1,992,123,82732,74044,65700,0,34752,0,0,0
o,0x00000000,1716772638.200731,172.16.1.2,42596,172.16.3.2,5101,31471,37733,0,64256,65728,6,6,4,1460,2107,1,992,123,82732,74044,65700,0,36200,0,0,0
i,0x00000000,1716772638.200939,172.16.1.2,42596,172.16.3.2,5101,31471,37733,0,64256,65728,6,6,4,1460,2107,1,992,123,82732,74044,65700,0,37648,0,0,0
o,0x00000000,1716772638.200943,172.16.1.2,42596,172.16.3.2,5101,31471,37733,0,64256,65728,6,6,4,1460,2084,1,992,119,82732,71148,65700,0,34752,0,0,0
o,0x00000000,1716772638.201023,172.16.1.2,42596,172.16.3.2,5101,31471,37733,0,64256,65728,6,6,4,1460,2084,1,992,119,82732,71148,65700,0,36200,0,0,0
i,0x00000000,1716772638.201472,172.16.1.2,42596,172.16.3.2,5101,31471,37733,0,64256,65728,6,6,4,1460,2084,1,992,119,82732,71148,65700,0,37648,0,0,0
o,0x00000000,1716772638.201476,172.16.1.2,42596,172.16.3.2,5101,31471,39193,0,64256,65728,6,6,4,1460,2064,1,992,115,82732,68252,65700,0,34752,0,0,0
o,0x00000000,1716772638.201563,172.16.1.2,42596,172.16.3.2,5101,31471,39193,0,64256,65728,6,6,4,1460,2064,1,992,115,82732,68252,65700,0,36200,0,0,0
o,0x00000000,1716772638.201640,172.16.1.2,42596,172.16.3.2,5101,31471,39193,0,64256,65728,6,6,4,1460,2064,1,992,115,82732,68252,65700,0,37648,0,0,0
i,0x00000000,1716772638.201728,172.16.1.2,42596,172.16.3.2,5101,31471,39193,0,64256,65728,6,6,4,1460,2064,1,992,115,82732,68252,65700,0,39096,0,0,0
o,0x00000000,1716772638.201730,172.16.1.2,42596,172.16.3.2,5101,31471,39193,0,64256,65728,6,6,4,1460,2046,1,992,111,82732,65356,65700,0,36200,0,0,0
o,0x00000000,1716772638.201806,172.16.1.2,42596,172.16.3.2,5101,31471,39193,0,64256,65728,6,6,4,1460,2046,1,992,111,82732,65356,65700,0,37648,0,0,0
i,0x00000000,1716772638.201887,172.16.1.2,42596,172.16.3.2,5101,31471,39193,0,64256,65728,6,6,4,1460,2046,1,992,111,82732,65356,65700,0,39096,0,0,0
o,0x00000000,1716772638.201889,172.16.1.2,42596,172.16.3.2,5101,31471,39193,0,64256,65728,6,6,4,1460,2031,1,992,107,82732,62460,65700,0,36200,0,0,0
o,0x00000000,1716772638.201965,172.16.1.2,42596,172.16.3.2,5101,31471,39193,0,64256,65728,6,6,4,1460,2031,1,992,107,82732,62460,65700,0,37648,0,0,0
i,0x00000000,1716772638.202253,172.16.1.2,42596,172.16.3.2,5101,31471,39193,0,64256,65728,6,6,4,1460,2031,1,992,107,82732,62460,65700,0,39096,0,0,0
o,0x00000000,1716772638.202255,172.16.1.2,42596,172.16.3.2,5101,31471,39193,0,64256,65728,6,6,4,1460,2018,1,992,104,82732,59564,65700,0,36200,0,0,0
o,0x00000000,1716772638.202346,172.16.1.2,42596,172.16.3.2,5101,31471,39193,0,64256,65728,6,6,4,1460,2018,1,992,104,82732,59564,65700,0,37648,0,0,0
i,0x00000000,1716772638.202422,172.16.1.2,42596,172.16.3.2,5101,31471,39193,0,64256,65728,6,6,4,1460,2018,1,992,104,82732,59564,65700,0,39096,0,0,0
o,0x00000000,1716772638.202424,172.16.1.2,42596,172.16.3.2,5101,31471,39193,0,64256,65728,6,6,4,1460,2006,1,992,102,82732,56668,65700,0,36200,0,0,0
o,0x00000000,1716772638.202498,172.16.1.2,42596,172.16.3.2,5101,31471,39193,0,64256,65728,6,6,4,1460,2006,1,992,102,82732,56668,65700,0,37648,0,0,0
i,0x00000000,1716772638.202572,172.16.1.2,42596,172.16.3.2,5101,31471,39193,0,64256,65728,6,6,4,1460,2006,1,992,102,82732,56668,65700,0,39096,0,0,0
o,0x00000000,1716772638.202575,172.16.1.2,42596,172.16.3.2,5101,31471,39193,0,64256,65728,6,6,4,1460,1996,1,992,99,82732,53772,65700,0,36200,0,0,0
o,0x00000000,1716772638.202656,172.16.1.2,42596,172.16.3.2,5101,31471,39193,0,64256,65728,6,6,4,1460,1996,1,992,99,82732,53772,65700,0,37648,0,0,0
i,0x00000000,1716772638.202731,172.16.1.2,42596,172.16.3.2,5101,31471,39193,0,64256,65728,6,6,4,1460,1996,1,992,99,82732,53772,65700,0,39096,0,0,0
o,0x00000000,1716772638.202734,172.16.1.2,42596,172.16.3.2,5101,31471,39193,0,64256,65728,6,6,4,1460,1987,1,992,97,82732,50876,65700,0,36200,0,0,0
o,0x00000000,1716772638.202809,172.16.1.2,42596,172.16.3.2,5101,31471,39193,0,64256,65728,6,6,4,1460,1987,1,992,97,82732,50876,65700,0,37648,0,0,0
i,0x00000000,1716772638.239088,172.16.1.2,42596,172.16.3.2,5101,31471,39193,0,64256,65728,6,6,4,1460,1987,1,992,97,82732,82732,65700,0,39096,0,0,0
o,0x00000000,1716772638.239096,172.16.1.2,42596,172.16.3.2,5101,31471,39193,0,64256,65728,6,6,4,1460,1991,1,992,94,82732,79836,65700,0,36200,0,0,0
o,0x00000000,1716772638.239389,172.16.1.2,42596,172.16.3.2,5101,31471,39193,0,64256,65728,6,6,4,1460,1991,1,992,94,82732,79836,65700,0,37648,0,0,0
i,0x00000000,1716772638.849412,172.16.1.2,42596,172.16.3.2,5101,31471,39193,0,64256,65728,6,6,4,1460,1991,1,992,94,82732,82732,65700,0,39096,0,0,0
o,0x00000000,1716772638.849432,172.16.1.2,42596,172.16.3.2,5101,31471,39193,0,65728,65728,6,6,4,1460,2015,1,992,98,82732,81284,65700,0,37648,0,0,0
i,0x00000000,1716772638.880568,172.16.1.2,42596,172.16.3.2,5101,31471,39193,0,65728,65728,6,6,4,1460,2015,1,992,98,82732,81284,65700,0,39096,0,0,0
o,0x00000000,1716772638.880607,172.16.1.2,42596,172.16.3.2,5101,31471,39193,0,64256,65728,6,6,4,1460,2040,1,992,101,82732,78388,65700,0,36200,0,0,0
o,0x00000000,1716772638.880725,172.16.1.2,42596,172.16.3.2,5101,31471,39193,0,64256,65728,6,6,4,1460,2040,1,992,101,82732,78388,65700,0,37648,0,0,0
i,0x00000000,1716772638.880816,172.16.1.2,42596,172.16.3.2,5101,31471,39193,0,64256,65728,6,6,4,1460,2040,1,992,101,82732,78388,65700,0,39096,0,0,0
o,0x00000000,1716772638.880820,172.16.1.2,42596,172.16.3.2,5101,31471,39193,0,64256,65728,6,6,4,1460,2053,1,992,100,82732,75492,65700,0,36200,0,0,0
o,0x00000000,1716772638.880921,172.16.1.2,42596,172.16.3.2,5101,31471,39193,0,64256,65728,6,6,4,1460,2053,1,992,100,82732,75492,65700,0,37648,0,0,0
i,0x00000000,1716772638.880996,172.16.1.2,42596,172.16.3.2,5101,31471,39193,0,64256,65728,6,6,4,1460,2053,1,992,100,82732,75492,65700,0,39096,0,0,0
o,0x00000000,1716772638.880999,172.16.1.2,42596,172.16.3.2,5101,31471,39193,0,64256,65728,6,6,4,1460,2065,1,992,100,82732,72596,65700,0,36200,0,0,0
o,0x00000000,1716772638.881099,172.16.1.2,42596,172.16.3.2,5101,31471,39193,0,64256,65728,6,6,4,1460,2065,1,992,100,82732,72596,65700,0,37648,0,0,0
i,0x00000000,1716772638.881540,172.16.1.2,42596,172.16.3.2,5101,31471,39193,0,64256,65728,6,6,4,1460,2065,1,992,100,82732,72596,65700,0,39096,0,0,0
o,0x00000000,1716772638.881543,172.16.1.2,42596,172.16.3.2,5101,31471,39193,0,64256,65728,6,6,4,1460,2075,1,992,99,82732,69700,65700,0,36200,0,0,0
o,0x00000000,1716772638.881619,172.16.1.2,42596,172.16.3.2,5101,31471,39193,0,64256,65728,6,6,4,1460,2075,1,992,99,82732,69700,65700,0,37648,0,0,0
i,0x00000000,1716772638.881693,172.16.1.2,42596,172.16.3.2,5101,31471,39193,0,64256,65728,6,6,4,1460,2075,1,992,99,82732,69700,65700,0,39096,0,0,0
o,0x00000000,1716772638.881696,172.16.1.2,42596,172.16.3.2,5101,31471,39193,0,64256,65728,6,6,4,1460,2084,1,992,98,82732,66804,65700,0,36200,0,0,0
o,0x00000000,1716772638.881770,172.16.1.2,42596,172.16.3.2,5101,31471,39193,0,64256,65728,6,6,4,1460,2084,1,992,98,82732,66804,65700,0,37648,0,0,0
i,0x00000000,1716772638.881844,172.16.1.2,42596,172.16.3.2,5101,31471,39193,0,64256,65728,6,6,4,1460,2084,1,992,98,82732,66804,65700,0,39096,0,0,0
o,0x00000000,1716772638.881847,172.16.1.2,42596,172.16.3.2,5101,31471,40653,0,64256,65728,6,6,4,1460,2092,1,992,97,82732,63908,65700,0,36200,0,0,0
o,0x00000000,1716772638.881921,172.16.1.2,42596,172.16.3.2,5101,31471,40653,0,64256,65728,6,6,4,1460,2092,1,992,97,82732,63908,65700,0,37648,0,0,0
o,0x00000000,1716772638.881995,172.16.1.2,42596,172.16.3.2,5101,31471,40653,0,64256,65728,6,6,4,1460,2092,1,992,97,82732,63908,65700,0,39096,0,0,0
i,0x00000000,1716772638.882069,172.16.1.2,42596,172.16.3.2,5101,31471,40653,0,64256,65728,6,6,4,1460,2092,1,992,97,82732,63908,65700,0,40544,0,0,0
o,0x00000000,1716772638.882071,172.16.1.2,42596,172.16.3.2,5101,31471,40653,0,64256,65728,6,6,4,1460,2099,1,992,96,82732,61012,65700,0,37648,0,0,0
o,0x00000000,1716772638.882165,172.16.1.2,42596,172.16.3.2,5101,31471,40653,0,64256,65728,6,6,4,1460,2099,1,992,96,82732,61012,65700,0,39096,0,0,0
i,0x00000000,1716772638.882251,172.16.1.2,42596,172.16.3.2,5101,31471,40653,0,64256,65728,6,6,4,1460,2099,1,992,96,82732,61012,65700,0,40544,0,0,0
o,0x00000000,1716772638.882254,172.16.1.2,42596,172.16.3.2,5101,31471,40653,0,64256,65728,6,6,4,1460,2105,1,992,95,82732,58116,65700,0,37648,0,0,0
o,0x00000000,1716772638.882343,172.16.1.2,42596,172.16.3.2,5101,31471,40653,0,64256,65728,6,6,4,1460,2105,1,992,95,82732,58116,65700,0,39096,0,0,0
i,0x00000000,1716772638.882416,172.16.1.2,42596,172.16.3.2,5101,31471,40653,0,64256,65728,6,6,4,1460,2105,1,992,95,82732,58116,65700,0,40544,0,0,0
o,0x00000000,1716772638.882419,172.16.1.2,42596,172.16.3.2,5101,31471,40653,0,64256,65728,6,6,4,1460,2110,1,992,94,82732,55220,65700,0,37648,0,0,0
o,0x00000000,1716772638.882501,172.16.1.2,42596,172.16.3.2,5101,31471,40653,0,64256,65728,6,6,4,1460,2110,1,992,94,82732,55220,65700,0,39096,0,0,0
i,0x00000000,1716772638.882575,172.16.1.2,42596,172.16.3.2,5101,31471,40653,0,64256,65728,6,6,4,1460,2110,1,992,94,82732,55220,65700,0,40544,0,0,0
o,0x00000000,1716772638.882577,172.16.1.2,42596,172.16.3.2,5101,31471,40653,0,64256,65728,6,6,4,1460,2115,1,992,94,82732,52324,65700,0,37648,0,0,0
o,0x00000000,1716772638.882651,172.16.1.2,42596,172.16.3.2,5101,31471,40653,0,64256,65728,6,6,4,1460,2115,1,992,94,82732,52324,65700,0,39096,0,0,0
i,0x00000000,1716772638.882726,172.16.1.2,42596,172.16.3.2,5101,31471,40653,0,64256,65728,6,6,4,1460,2115,1,992,94,82732,52324,65700,0,40544,0,0,0
o,0x00000000,1716772638.882729,172.16.1.2,42596,172.16.3.2,5101,31471,40653,0,64256,65728,6,6,4,1460,2119,1,992,93,82732,49428,65700,0,37648,0,0,0
o,0x00000000,1716772638.882803,172.16.1.2,42596,172.16.3.2,5101,31471,40653,0,64256,65728,6,6,4,1460,2119,1,992,93,82732,49428,65700,0,39096,0,0,0
i,0x00000000,1716772638.889556,172.16.1.2,42596,172.16.3.2,5101,31471,40653,0,64256,65728,6,6,4,1460,2119,1,992,93,82732,82732,65700,0,40544,0,0,0
o,0x00000000,1716772638.889562,172.16.1.2,42596,172.16.3.2,5101,31471,40653,0,64256,65728,6,6,4,1460,2131,1,992,94,82732,79836,65700,0,37648,0,0,0
o,0x00000000,1716772638.889809,172.16.1.2,42596,172.16.3.2,5101,31471,40653,0,64256,65728,6,6,4,1460,2131,1,992,94,82732,79836,65700,0,39096,0,0,0
i,0x00000000,1716772638.910237,172.16.1.2,42596,172.16.3.2,5101,31471,40653,0,64256,65728,6,6,4,1460,2131,1,992,94,82732,82732,65700,0,40544,0,0,0
o,0x00000000,1716772638.910245,172.16.1.2,42596,172.16.3.2,5101,31471,40653,0,64256,65728,6,6,4,1460,2133,1,992,93,82732,79836,65700,0,37648,0,0,0
o,0x00000000,1716772638.910510,172.16.1.2,42596,172.16.3.2,5101,31471,40653,0,64256,65728,6,6,4,1460,2133,1,992,93,82732,79836,65700,0,39096,0,0,0
i,0x00000000,1716772639.569176,172.16.1.2,42596,172.16.3.2,5101,31471,40653,0,64256,65728,6,6,4,1460,2133,1,992,93,82732,82732,65700,0,40544,0,0,0
o,0x00000000,1716772639.569197,172.16.1.2,42596,172.16.3.2,5101,31471,40653,0,65728,65728,6,6,4,1460,2155,1,992,98,82732,81284,65700,0,39096,0,0,0
i,0x00000000,1716772639.599521,172.16.1.2,42596,172.16.3.2,5101,31471,40653,0,65728,65728,6,6,4,1460,2155,1,992,98,82732,81284,65700,0,40544,0,0,0
o,0x00000000,1716772639.599537,172.16.1.2,42596,172.16.3.2,5101,31471,40653,0,64256,65728,6,6,4,1460,2174,1,992,100,82732,78388,65700,0,37648,0,0,0
o,0x00000000,1716772639.599623,172.16.1.2,42596,172.16.3.2,5101,31471,40653,0,64256,65728,6,6,4,1460,2174,1,992,100,82732,78388,65700,0,39096,0,0,0
i,0x00000000,1716772639.599697,172.16.1.2,42596,172.16.3.2,5101,31471,40653,0,64256,65728,6,6,4,1460,2174,1,992,100,82732,78388,65700,0,40544,0,0,0
o,0x00000000,1716772639.599701,172.16.1.2,42596,172.16.3.2,5101,31471,40653,0,64256,65728,6,6,4,1460,2191,1,992,102,82732,75492,65700,0,37648,0,0,0
o,0x00000000,1716772639.599787,172.16.1.2,42596,172.16.3.2,5101,31471,40653,0,64256,65728,6,6,4,1460,2191,1,992,102,82732,75492,65700,0,39096,0,0,0
i,0x00000000,1716772639.599866,172.16.1.2,42596,172.16.3.2,5101,31471,40653,0,64256,65728,6,6,4,1460,2191,1,992,102,82732,75492,65700,0,40544,0,0,0
o,0x00000000,1716772639.599869,172.16.1.2,42596,172.16.3.2,5101,31471,40653,0,64256,65728,6,6,4,1460,2206,1,992,103,82732,72596,65700,0,37648,0,0,0
o,0x00000000,1716772639.599964,172.16.1.2,42596,172.16.3.2,5101,31471,40653,0,64256,65728,6,6,4,1460,2206,1,992,103,82732,72596,65700,0,39096,0,0,0
i,0x00000000,1716772639.600305,172.16.1.2,42596,172.16.3.2,5101,31471,40653,0,64256,65728,6,6,4,1460,2206,1,992,103,82732,72596,65700,0,40544,0,0,0
o,0x00000000,1716772639.600308,172.16.1.2,42596,172.16.3.2,5101,31471,40653,0,64256,65728,6,6,4,1460,2219,1,992,103,82732,69700,65700,0,37648,0,0,0
o,0x00000000,1716772639.600383,172.16.1.2,42596,172.16.3.2,5101,31471,40653,0,64256,65728,6,6,4,1460,2219,1,992,103,82732,69700,65700,0,39096,0,0,0
i,0x00000000,1716772639.600462,172.16.1.2,42596,172.16.3.2,5101,31471,40653,0,64256,65728,6,6,4,1460,2219,1,992,103,82732,69700,65700,0,40544,0,0,0
o,0x00000000,1716772639.600464,172.16.1.2,42596,172.16.3.2,5101,31471,40653,0,64256,65728,6,6,4,1460,2230,1,992,102,82732,66804,65700,0,37648,0,0,0
o,0x00000000,1716772639.600537,172.16.1.2,42596,172.16.3.2,5101,31471,40653,0,64256,65728,6,6,4,1460,2230,1,992,102,82732,66804,65700,0,39096,0,0,0
