enable_time_secs=1716771767	enable_time_usecs=925402	siftrver=1.2.4	hz=100	tcp_rtt_scale=32	sysname=FreeBSD	sysver=1301000	ipmode=4
o,0x00000000,1716771767.925436,10.0.2.15,22,10.0.2.2,53212,1073725440,17298,0,65535,65700,0,0,4,1460,1,0,4,24,33580,44,65700,0,0,0,0,0
o,0x00000000,1716771767.925549,10.0.2.15,22,10.0.2.2,53212,1073725440,17298,0,65535,65700,0,0,4,1460,1,0,4,24,33580,80,65700,0,44,0,0,0
i,0x00000000,1716771767.926182,10.0.2.15,22,10.0.2.2,53212,1073725440,17298,0,65535,65700,0,0,4,1460,1,0,4,24,33580,80,65700,0,80,0,0,0
i,0x00000000,1716771767.926186,10.0.2.15,22,10.0.2.2,53212,1073725440,17342,0,65535,65700,0,0,4,1460,1,0,4,23,33580,36,65700,0,36,0,0,0
o,0x00000000,1716771767.926267,10.0.2.15,22,10.0.2.2,53212,1073725440,17378,0,65535,65700,0,0,4,1460,1,0,4,23,33580,36,65700,0,0,0,0,0
i,0x00000000,1716771767.926825,10.0.2.15,22,10.0.2.2,53212,1073725440,17378,0,65535,65700,0,0,4,1460,1,0,4,23,33580,36,65700,0,36,0,0,0
o,0x00000000,1716771767.926900,10.0.2.15,22,10.0.2.2,53212,1073725440,17414,0,65535,65700,0,0,4,1460,1,0,4,23,33580,36,65700,0,0,0,0,0
i,0x00000000,1716771767.927587,10.0.2.15,22,10.0.2.2,53212,1073725440,17414,0,65535,65700,0,0,4,1460,1,0,4,23,33580,36,65700,0,36,0,0,0
o,0x00000000,1716771767.927680,10.0.2.15,22,10.0.2.2,53212,1073725440,17450,0,65535,65700,0,0,4,1460,1,0,4,23,33580,140,65700,0,0,0,0,0
i,0x00000000,1716771767.928354,10.0.2.15,22,10.0.2.2,53212,1073725440,17450,0,65535,65700,0,0,4,1460,1,0,4,23,33580,140,65700,0,140,0,0,0
i,0x00000000,1716771767.928942,10.0.2.15,22,10.0.2.2,53212,1073725440,17590,0,65535,65700,0,0,4,1460,1,0,4,23,33580,0,65700,0,0,0,0,0
i,0x00000000,1716771767.928946,10.0.2.15,22,10.0.2.2,53212,1073725440,17590,0,65535,65700,0,0,4,1460,1,0,4,23,33580,0,65700,96,0,0,0,0
o,0x00000000,1716771767.928950,10.0.2.15,22,10.0.2.2,53212,1073725440,17590,0,65535,65604,0,0,5,1460,1,0,5,23,33580,0,65700,96,0,0,0,0
o,0x00000000,1716771767.929312,10.0.2.15,22,10.0.2.2,53212,1073725440,17590,0,65535,65604,0,0,8,1460,1,0,4,23,33580,0,65700,0,0,0,0,0
i,0x00000000,1716771767.929986,10.0.2.15,22,10.0.2.2,53212,1073725440,17590,0,65535,65604,0,0,8,1460,1,0,20,23,33580,0,65700,0,1,0,0,0
i,0x00000000,1716771770.089419,10.0.2.15,22,10.0.2.2,53217,1073725440,14600,0,65535,65700,0,0,4,1460,1,0,0,27,33580,0,65700,0,0,0,0,0
o,0x00000000,1716771770.096783,10.0.2.15,22,10.0.2.2,53217,1073725440,14600,0,65535,65700,0,0,4,1460,1,0,0,27,33580,38,65700,41,0,0,0,0
i,0x00000000,1716771770.097711,10.0.2.15,22,10.0.2.2,53217,1073725440,14600,0,65535,65700,0,0,4,1460,1,0,0,27,33580,38,65700,41,38,0,0,0
i,0x00000000,1716771770.098760,10.0.2.15,22,10.0.2.2,53217,1073725440,14638,0,65535,65700,0,0,4,1460,1,0,0,24,33580,0,65700,0,0,0,0,0
i,0x00000000,1716771770.098764,10.0.2.15,22,10.0.2.2,53217,1073725440,14638,0,65535,65700,0,0,4,1460,1,0,0,24,33580,0,65700,1460,0,0,0,0
o,0x00000000,1716771770.098768,10.0.2.15,22,10.0.2.2,53217,1073725440,14638,0,65535,65700,0,0,4,1460,1,0,1,24,33580,0,65700,1536,0,0,0,0
o,0x00000000,1716771770.102419,10.0.2.15,22,10.0.2.2,53217,1073725440,14638,0,65535,65700,0,0,4,1460,1,0,0,24,33580,1056,65700,1536,0,0,0,0
i,0x00000000,1716771770.103126,10.0.2.15,22,10.0.2.2,53217,1073725440,14638,0,65535,65700,0,0,4,1460,1,0,0,24,33580,1056,65700,1536,1056,0,0,0
i,0x00000000,1716771770.104472,10.0.2.15,22,10.0.2.2,53217,1073725440,15694,0,65535,65700,0,0,4,1460,1,0,0,24,33580,0,65700,0,0,0,0,0
o,0x00000000,1716771770.106955,10.0.2.15,22,10.0.2.2,53217,1073725440,15694,0,65535,65700,0,0,4,1460,1,0,0,24,33580,484,65700,0,0,0,0,0
i,0x00000000,1716771770.107528,10.0.2.15,22,10.0.2.2,53217,1073725440,15694,0,65535,65700,0,0,4,1460,1,0,0,24,33580,484,65700,0,484,0,0,0
i,0x00000000,1716771770.112562,10.0.2.15,22,10.0.2.2,53217,1073725440,16178,0,65535,65700,0,0,4,1460,1,0,0,24,33580,0,65700,0,0,0,0,0
i,0x00000000,1716771770.117362,10.0.2.15,22,10.0.2.2,53217,1073725440,16178,0,65535,65700,0,0,4,1460,1,0,0,24,33580,0,65700,0,0,0,0,0
o,0x00000000,1716771770.117368,10.0.2.15,22,10.0.2.2,53217,1073725440,16178,0,65535,65700,0,0,4,1460,1,0,1,24,33580,0,65700,44,0,0,0,0
o,0x00000000,1716771770.117512,10.0.2.15,22,10.0.2.2,53217,1073725440,16178,0,65535,65700,0,0,4,1460,1,0,0,24,33580,44,65700,0,0,0,0,0
i,0x00000000,1716771770.117918,10.0.2.15,22,10.0.2.2,53217,1073725440,16178,0,65535,65700,0,0,4,1460,1,0,0,24,33580,44,65700,0,44,0,0,0
i,0x00000000,1716771770.118582,10.0.2.15,22,10.0.2.2,53217,1073725440,16222,0,65535,65700,0,0,4,1460,1,0,0,24,33580,0,65700,0,0,0,0,0
o,0x00000000,1716771770.128294,10.0.2.15,22,10.0.2.2,53217,1073725440,16222,0,65535,65700,0,0,4,1460,1,0,0,24,33580,68,65700,0,0,0,0,0
i,0x00000000,1716771770.128979,10.0.2.15,22,10.0.2.2,53217,1073725440,16222,0,65535,65700,0,0,4,1460,1,0,0,24,33580,68,65700,0,68,0,0,0
i,0x00000000,1716771770.131256,10.0.2.15,22,10.0.2.2,53217,1073725440,16290,0,65535,65700,0,0,4,1460,1,0,0,24,33580,0,65700,0,0,0,0,0
o,0x00000000,1716771770.140848,10.0.2.15,22,10.0.2.2,53217,1073725440,16290,0,65535,65700,0,0,4,1460,1,0,0,24,33580,28,65700,0,0,0,0,0
i,0x00000000,1716771770.141619,10.0.2.15,22,10.0.2.2,53217,1073725440,16290,0,65535,65700,0,0,4,1460,1,0,0,24,33580,28,65700,0,28,0,0,0
i,0x00000000,1716771770.142072,10.0.2.15,22,10.0.2.2,53217,1073725440,16318,0,65535,65700,0,0,4,1460,1,0,0,24,33580,0,65700,0,0,0,0,0
o,0x00000000,1716771770.143264,10.0.2.15,22,10.0.2.2,53217,1073725440,16318,0,65535,65700,0,0,4,1460,1,0,0,24,33580,768,65700,112,0,0,0,0
i,0x00000000,1716771770.143945,10.0.2.15,22,10.0.2.2,53217,1073725440,16318,0,65535,65700,0,0,4,1460,1,0,0,24,33580,768,65700,112,768,0,0,0
o,0x00000000,1716771770.144120,10.0.2.15,22,10.0.2.2,53217,1073725440,17086,0,65535,65700,0,0,4,1460,1,0,0,24,33580,44,65700,0,0,0,0,0
i,0x00000000,1716771770.144617,10.0.2.15,22,10.0.2.2,53217,1073725440,17086,0,65535,65700,0,0,4,1460,1,0,0,24,33580,44,65700,0,44,0,0,0
i,0x00000000,1716771770.145442,10.0.2.15,22,10.0.2.2,53217,1073725440,17130,0,65535,65700,0,0,4,1460,1,0,0,24,33580,0,65700,0,0,0,0,0
o,0x00000000,1716771770.145985,10.0.2.15,22,10.0.2.2,53217,1073725440,17130,0,65535,65700,0,0,4,1460,1,0,4,24,33580,72,65700,0,0,0,0,0
i,0x00000000,1716771770.146775,10.0.2.15,22,10.0.2.2,53217,1073725440,17130,0,65535,65700,0,0,4,1460,1,0,4,24,33580,72,65700,0,72,0,0,0
o,0x00000000,1716771770.150198,10.0.2.15,22,10.0.2.2,53217,1073725440,17202,0,65535,65700,0,0,4,1460,1,0,4,24,33580,44,65700,0,0,0,0,0
i,0x00000000,1716771770.150642,10.0.2.15,22,10.0.2.2,53217,1073725440,17202,0,65535,65700,0,0,4,1460,1,0,4,24,33580,44,65700,0,44,0,0,0
o,0x00000000,1716771770.151087,10.0.2.15,22,10.0.2.2,53217,1073725440,17246,0,65535,65700,0,0,4,1460,1,0,4,24,33580,44,65700,0,0,0,0,0
i,0x00000000,1716771770.151507,10.0.2.15,22,10.0.2.2,53217,1073725440,17246,0,65535,65700,0,0,4,1460,1,0,4,24,33580,44,65700,0,44,0,0,0
o,0x00000000,1716771770.155545,10.0.2.15,22,10.0.2.2,53217,1073725440,17290,0,65535,65700,0,0,4,1460,1,0,4,24,33580,176,65700,0,0,0,0,0
i,0x00000000,1716771770.156341,10.0.2.15,22,10.0.2.2,53217,1073725440,17290,0,65535,65700,0,0,4,1460,1,0,4,24,33580,176,65700,0,176,0,0,0
i,0x00000000,1716771770.157202,10.0.2.15,22,10.0.2.2,53217,1073725440,17466,0,65535,65700,0,0,4,1460,1,0,4,24,33580,0,65700,0,0,0,0,0
i,0x00000000,1716771770.157251,10.0.2.15,22,10.0.2.2,53217,1073725440,17466,0,65535,65700,0,0,4,1460,1,0,4,24,33580,0,65700,36,0,0,0,0
o,0x00000000,1716771770.157254,10.0.2.15,22,10.0.2.2,53217,1073725440,17466,0,65535,65700,0,0,4,1460,1,0,5,24,33580,0,65700,96,0,0,0,0
i,0x00000000,1716771770.157333,10.0.2.15,22,10.0.2.2,53217,1073725440,17466,0,65535,65700,0,0,4,1460,1,0,4,24,33580,0,65700,96,0,0,0,0
o,0x00000000,1716771770.157336,10.0.2.15,22,10.0.2.2,53217,1073725440,17466,0,65535,65604,0,0,5,1460,1,0,7,24,33580,0,65700,96,0,0,0,0
o,0x00000000,1716771770.163178,10.0.2.15,22,10.0.2.2,53217,1073725440,17466,0,65535,65604,0,0,8,1460,1,0,4,24,33580,0,65700,0,0,0,0,0
i,0x00000000,1716771770.164062,10.0.2.15,22,10.0.2.2,53217,1073725440,17466,0,65535,65604,0,0,8,1460,1,0,20,24,33580,0,65700,0,1,0,0,0
i,0x00000000,1716771770.164151,10.0.2.15,22,10.0.2.2,53218,1073725440,14600,0,65535,65700,0,0,4,1460,1,0,0,27,33580,0,65700,0,0,0,0,0
o,0x00000000,1716771770.171765,10.0.2.15,22,10.0.2.2,53218,1073725440,14600,0,65535,65700,0,0,4,1460,1,0,0,27,33580,38,65700,41,0,0,0,0
i,0x00000000,1716771770.172345,10.0.2.15,22,10.0.2.2,53218,1073725440,14600,0,65535,65700,0,0,4,1460,1,0,0,27,33580,38,65700,0,38,0,0,0
i,0x00000000,1716771770.173050,10.0.2.15,22,10.0.2.2,53218,1073725440,14638,0,65535,65700,0,0,4,1460,1,0,0,24,33580,0,65700,0,0,0,0,0
i,0x00000000,1716771770.173053,10.0.2.15,22,10.0.2.2,53218,1073725440,14638,0,65535,65700,0,0,4,1460,1,0,0,24,33580,0,65700,1460,0,0,0,0
o,0x00000000,1716771770.173056,10.0.2.15,22,10.0.2.2,53218,1073725440,14638,0,65535,65700,0,0,4,1460,1,0,1,24,33580,0,65700,1536,0,0,0,0
o,0x00000000,1716771770.174416,10.0.2.15,22,10.0.2.2,53218,1073725440,14638,0,65535,65700,0,0,4,1460,1,0,0,24,33580,1056,65700,1536,0,0,0,0
i,0x00000000,1716771770.174837,10.0.2.15,22,10.0.2.2,53218,1073725440,14638,0,65535,65700,0,0,4,1460,1,0,0,24,33580,1056,65700,1536,1056,0,0,0
i,0x00000000,1716771770.176486,10.0.2.15,22,10.0.2.2,53218,1073725440,15694,0,65535,65700,0,0,4,1460,1,0,0,24,33580,0,65700,0,0,0,0,0
o,0x00000000,1716771770.181257,10.0.2.15,22,10.0.2.2,53218,1073725440,15694,0,65535,65700,0,0,4,1460,1,0,0,24,33580,484,65700,0,0,0,0,0
i,0x00000000,1716771770.182057,10.0.2.15,22,10.0.2.2,53218,1073725440,15694,0,65535,65700,0,0,4,1460,1,0,0,24,33580,484,65700,0,484,0,0,0
i,0x00000000,1716771770.186916,10.0.2.15,22,10.0.2.2,53218,1073725440,16178,0,65535,65700,0,0,4,1460,1,0,0,24,33580,0,65700,0,0,0,0,0
i,0x00000000,1716771770.190856,10.0.2.15,22,10.0.2.2,53218,1073725440,16178,0,65535,65700,0,0,4,1460,1,0,0,24,33580,0,65700,0,0,0,0,0
o,0x00000000,1716771770.190861,10.0.2.15,22,10.0.2.2,53218,1073725440,16178,0,65535,65700,0,0,4,1460,1,0,1,24,33580,0,65700,44,0,0,0,0
o,0x00000000,1716771770.191009,10.0.2.15,22,10.0.2.2,53218,1073725440,16178,0,65535,65700,0,0,4,1460,1,0,0,24,33580,44,65700,0,0,0,0,0
i,0x00000000,1716771770.191691,10.0.2.15,22,10.0.2.2,53218,1073725440,16178,0,65535,65700,0,0,4,1460,1,0,0,24,33580,44,65700,0,44,0,0,0
i,0x00000000,1716771770.192035,10.0.2.15,22,10.0.2.2,53218,1073725440,16222,0,65535,65700,0,0,4,1460,1,0,0,24,33580,0,65700,0,0,0,0,0
o,0x00000000,1716771770.201169,10.0.2.15,22,10.0.2.2,53218,1073725440,16222,0,65535,65700,0,0,4,1460,1,0,0,24,33580,68,65700,0,0,0,0,0
i,0x00000000,1716771770.201657,10.0.2.15,22,10.0.2.2,53218,1073725440,16222,0,65535,65700,0,0,4,1460,1,0,0,24,33580,68,65700,0,68,0,0,0
i,0x00000000,1716771770.204108,10.0.2.15,22,10.0.2.2,53218,1073725440,16290,0,65535,65700,0,0,4,1460,1,0,0,24,33580,0,65700,0,0,0,0,0
o,0x00000000,1716771770.213680,10.0.2.15,22,10.0.2.2,53218,1073725440,16290,0,65535,65700,0,0,4,1460,1,0,0,24,33580,28,65700,0,0,0,0,0
i,0x00000000,1716771770.214372,10.0.2.15,22,10.0.2.2,53218,1073725440,16290,0,65535,65700,0,0,4,1460,1,0,0,24,33580,28,65700,0,28,0,0,0
o,0x00000000,1716771770.215184,10.0.2.15,22,10.0.2.2,53218,1073725440,16318,0,65535,65700,0,0,4,1460,1,0,0,24,33580,768,65700,0,0,0,0,0
i,0x00000000,1716771770.217350,10.0.2.15,22,10.0.2.2,53218,1073725440,16318,0,65535,65700,0,0,4,1460,1,0,0,24,33580,768,65700,0,768,0,0,0
i,0x00000000,1716771770.217355,10.0.2.15,22,10.0.2.2,53218,1073725440,16318,0,65535,65700,0,0,4,1460,1,0,0,24,33580,768,65700,112,768,0,0,0
o,0x00000000,1716771770.217445,10.0.2.15,22,10.0.2.2,53218,1073725440,17086,0,65535,65700,0,0,4,1460,1,0,0,24,33580,44,65700,0,0,0,0,0
i,0x00000000,1716771770.217966,10.0.2.15,22,10.0.2.2,53218,1073725440,17086,0,65535,65700,0,0,4,1460,1,0,0,24,33580,44,65700,0,44,0,0,0
i,0x00000000,1716771770.220879,10.0.2.15,22,10.0.2.2,53218,1073725440,17130,0,65535,65700,0,0,4,1460,1,0,0,24,33580,0,65700,0,0,0,0,0
o,0x00000000,1716771770.221208,10.0.2.15,22,10.0.2.2,53218,1073725440,17130,0,65535,65700,0,0,4,1460,1,0,4,24,33580,72,65700,0,0,0,0,0
i,0x00000000,1716771770.221867,10.0.2.15,22,10.0.2.2,53218,1073725440,17130,0,65535,65700,0,0,4,1460,1,0,4,24,33580,72,65700,0,72,0,0,0
i,0x00000000,1716771770.222212,10.0.2.15,22,10.0.2.2,53218,1073725440,17202,0,65535,65700,0,0,4,1460,1,0,4,24,33580,0,65700,0,0,0,0,0
o,0x00000000,1716771770.226949,172.16.1.2,14279,172.16.3.2,5101,1073725440,1073725440,0,0,0,0,0,2,536,0,1,672,100,32768,0,65536,0,0,0,0,0
o,0x00000000,1716771770.256036,10.0.2.15,22,10.0.2.2,53218,1073725440,17202,0,65535,65700,0,0,4,1460,1,0,5,24,33580,0,65700,0,0,0,0,0
i,0x00000000,1716771770.343448,172.16.1.2,14279,172.16.3.2,5101,1073725440,1073725440,0,0,0,0,0,2,536,0,1,672,100,32768,0,65536,0,1,0,0,0
o,0x00000000,1716771770.343465,172.16.1.2,14279,172.16.3.2,5101,35296,14480,0,65535,65700,6,6,4,1460,747,1,993,98,33580,0,65700,0,0,0,0,0
o,0x00000000,1716771770.343843,172.16.1.2,14279,172.16.3.2,5101,35296,14480,0,65535,65700,6,6,4,1460,747,1,996,98,33580,37,65700,0,0,0,0,0
i,0x00000000,1716771770.463122,172.16.1.2,14279,172.16.3.2,5101,35296,14480,0,65535,65700,6,6,4,1460,747,1,996,98,33580,37,65700,0,37,0,0,0
o,0x00000000,1716771770.463275,172.16.1.2,14279,172.16.3.2,5101,35296,14517,0,65728,65728,6,6,4,1460,702,1,996,94,33580,4,65700,0,0,0,0,0
o,0x00000000,1716771770.463642,172.16.1.2,14279,172.16.3.2,5101,35296,14517,0,65728,65728,6,6,4,1460,702,1,996,94,33580,128,65700,0,4,0,0,0
i,0x00000000,1716771770.582395,172.16.1.2,14279,172.16.3.2,5101,35296,14517,0,65728,65728,6,6,4,1460,702,1,996,94,33580,128,65700,0,128,0,0,0
i,0x00000000,1716771770.582409,172.16.1.2,14279,172.16.3.2,5101,35296,14645,0,65600,65728,6,6,4,1460,663,1,996,90,33580,0,65700,0,0,0,0,0
o,0x00000000,1716771770.582524,172.16.1.2,58704,172.16.3.2,5101,1073725440,1073725440,0,0,0,0,0,2,536,0,1,672,100,32768,0,65536,0,0,0,0,0
o,0x00000000,1716771770.616992,172.16.1.2,14279,172.16.3.2,5101,35296,14645,0,65728,65728,6,6,4,1460,663,1,997,90,33580,0,65700,0,0,0,0,0
i,0x00000000,1716771770.703665,172.16.1.2,58704,172.16.3.2,5101,1073725440,1073725440,0,0,0,0,0,2,536,0,1,672,100,32768,0,65536,0,1,0,0,0
o,0x00000000,1716771770.703683,172.16.1.2,58704,172.16.3.2,5101,35296,14480,0,65535,65700,6,6,4,1460,751,1,993,97,33580,0,65700,0,0,0,0,0
o,0x00000000,1716771770.703834,172.16.1.2,58704,172.16.3.2,5101,35296,14480,0,65535,65700,6,6,4,1460,751,1,992,97,33580,37,65700,0,0,0,0,0
i,0x00000000,1716771770.823211,172.16.1.2,14279,172.16.3.2,5101,35296,14645,0,65728,65728,6,6,4,1460,663,1,996,90,33580,0,65700,0,0,0,0,0
i,0x00000000,1716771770.823224,172.16.1.2,14279,172.16.3.2,5101,35296,14645,0,65728,65728,6,6,4,1460,663,1,996,90,33580,0,65700,1,0,0,0,0
o,0x00000000,1716771770.823232,172.16.1.2,14279,172.16.3.2,5101,35296,14645,0,65728,65728,6,6,4,1460,663,1,997,90,33580,0,65700,2,0,0,0,0
o,0x00000000,1716771770.823557,172.16.1.2,58704,172.16.3.2,5101,35296,14480,0,65535,65700,6,6,4,1460,751,1,992,97,33580,33580,65700,0,37,0,0,0
o,0x00000000,1716771770.823892,172.16.1.2,58704,172.16.3.2,5101,35296,14480,0,65535,65700,6,6,4,1460,751,1,992,97,33580,33580,65700,0,1485,0,0,0
o,0x00000000,1716771770.824209,172.16.1.2,58704,172.16.3.2,5101,35296,14480,0,65535,65700,6,6,4,1460,751,1,992,97,33580,33580,65700,0,2933,0,0,0
o,0x00000000,1716771770.824604,172.16.1.2,58704,172.16.3.2,5101,35296,14480,0,65535,65700,6,6,4,1460,751,1,992,97,33580,33580,65700,0,4381,0,0,0
o,0x00000000,1716771770.824968,172.16.1.2,58704,172.16.3.2,5101,35296,14480,0,65535,65700,6,6,4,1460,751,1,992,97,33580,33580,65700,0,5829,0,0,0
o,0x00000000,1716771770.825286,172.16.1.2,58704,172.16.3.2,5101,35296,14480,0,65535,65700,6,6,4,1460,751,1,992,97,33580,33580,65700,0,7277,0,0,0
o,0x00000000,1716771770.825621,172.16.1.2,58704,172.16.3.2,5101,35296,14480,0,65535,65700,6,6,4,1460,751,1,992,97,33580,33580,65700,0,8725,0,0,0
o,0x00000000,1716771770.826131,172.16.1.2,58704,172.16.3.2,5101,35296,14480,0,65535,65700,6,6,4,1460,751,1,992,97,33580,33580,65700,0,10173,0,0,0
o,0x00000000,1716771770.826472,172.16.1.2,58704,172.16.3.2,5101,35296,14480,0,65535,65700,6,6,4,1460,751,1,992,97,33580,33580,65700,0,11621,0,0,0
i,0x00000000,1716771770.853014,172.16.1.2,58704,172.16.3.2,5101,35296,14480,0,65535,65700,6,6,4,1460,751,1,992,97,33580,33580,65700,0,13069,0,0,0
o,0x00000000,1716771770.853025,172.16.1.2,58704,172.16.3.2,5101,35296,14517,0,65728,65728,6,6,4,1460,718,1,992,91,33580,33543,65700,0,13032,0,0,0
i,0x00000000,1716771771.123191,172.16.1.2,58704,172.16.3.2,5101,35296,14517,0,65728,65728,6,6,4,1460,718,1,992,91,33580,33543,65700,0,14480,0,0,0
o,0x00000000,1716771771.123210,172.16.1.2,58704,172.16.3.2,5101,35296,17413,0,64256,65728,6,6,4,1460,745,1,992,87,33580,30647,65700,0,11584,0,0,0
o,0x00000000,1716771771.123310,172.16.1.2,58704,172.16.3.2,5101,35296,17413,0,64256,65728,6,6,4,1460,745,1,992,87,33580,30647,65700,0,13032,0,0,0
o,0x00000000,1716771771.123401,172.16.1.2,58704,172.16.3.2,5101,35296,17413,0,64256,65728,6,6,4,1460,745,1,992,87,41772,30647,65700,0,14480,0,0,0
o,0x00000000,1716771771.123493,172.16.1.2,58704,172.16.3.2,5101,35296,17413,0,64256,65728,6,6,4,1460,745,1,992,87,41772,30647,65700,0,15928,0,0,0
i,0x00000000,1716771771.123578,172.16.1.2,58704,172.16.3.2,5101,35296,17413,0,64256,65728,6,6,4,1460,745,1,992,87,41772,30647,65700,0,17376,0,0,0
o,0x00000000,1716771771.123582,172.16.1.2,58704,172.16.3.2,5101,35296,20309,0,64256,65728,6,6,4,1460,768,1,992,82,41772,27751,65700,0,14480,0,0,0
o,0x00000000,1716771771.123679,172.16.1.2,58704,172.16.3.2,5101,35296,20309,0,64256,65728,6,6,4,1460,768,1,992,82,41772,27751,65700,0,15928,0,0,0
o,0x00000000,1716771771.123753,172.16.1.2,58704,172.16.3.2,5101,35296,20309,0,64256,65728,6,6,4,1460,768,1,992,82,41772,27751,65700,0,17376,0,0,0
o,0x00000000,1716771771.123829,172.16.1.2,58704,172.16.3.2,5101,35296,20309,0,64256,65728,6,6,4,1460,768,1,992,82,41772,27751,65700,0,18824,0,0,0
i,0x00000000,1716771771.123905,172.16.1.2,58704,172.16.3.2,5101,35296,20309,0,64256,65728,6,6,4,1460,768,1,992,82,41772,27751,65700,0,20272,0,0,0
o,0x00000000,1716771771.123907,172.16.1.2,58704,172.16.3.2,5101,35296,23205,0,64256,65728,6,6,4,1460,788,1,992,78,41772,24855,65700,0,17376,0,0,0
o,0x00000000,1716771771.123983,172.16.1.2,58704,172.16.3.2,5101,35296,23205,0,64256,65728,6,6,4,1460,788,1,992,78,41772,24855,65700,0,18824,0,0,0
o,0x00000000,1716771771.124059,172.16.1.2,58704,172.16.3.2,5101,35296,23205,0,64256,65728,6,6,4,1460,788,1,992,78,41772,24855,65700,0,20272,0,0,0
o,0x00000000,1716771771.124138,172.16.1.2,58704,172.16.3.2,5101,35296,23205,0,64256,65728,6,6,4,1460,788,1,992,78,41772,24855,65700,0,21720,0,0,0
i,0x00000000,1716771771.124219,172.16.1.2,58704,172.16.3.2,5101,35296,23205,0,64256,65728,6,6,4,1460,788,1,992,78,41772,24855,65700,0,23168,0,0,0
o,0x00000000,1716771771.124222,172.16.1.2,58704,172.16.3.2,5101,35296,26101,0,64256,65728,6,6,4,1460,806,1,992,75,41772,21959,65700,0,20272,0,0,0
o,0x00000000,1716771771.124707,172.16.1.2,58704,172.16.3.2,5101,35296,26101,0,64256,65728,6,6,4,1460,806,1,992,75,49964,41772,65700,0,21720,0,0,0
o,0x00000000,1716771771.125054,172.16.1.2,58704,172.16.3.2,5101,35296,26101,0,64256,65728,6,6,4,1460,806,1,992,75,49964,41772,65700,0,23168,0,0,0
o,0x00000000,1716771771.125388,172.16.1.2,58704,172.16.3.2,5101,35296,26101,0,64256,65728,6,6,4,1460,806,1,992,75,49964,41772,65700,0,24616,0,0,0
i,0x00000000,1716771771.153079,172.16.1.2,58704,172.16.3.2,5101,35296,26101,0,64256,65728,6,6,4,1460,806,1,992,75,58156,58156,65700,0,26064,0,0,0
o,0x00000000,1716771771.153096,172.16.1.2,58704,172.16.3.2,5101,35296,28997,0,64256,65728,6,6,4,1460,834,1,992,75,58156,55260,65700,0,23168,0,0,0
o,0x00000000,1716771771.153345,172.16.1.2,58704,172.16.3.2,5101,35296,28997,0,64256,65728,6,6,4,1460,834,1,992,75,58156,55260,65700,0,24616,0,0,0
o,0x00000000,1716771771.153596,172.16.1.2,58704,172.16.3.2,5101,35296,28997,0,64256,65728,6,6,4,1460,834,1,992,75,58156,55260,65700,0,26064,0,0,0
o,0x00000000,1716771771.153956,172.16.1.2,58704,172.16.3.2,5101,35296,28997,0,64256,65728,6,6,4,1460,834,1,992,75,66348,55260,65700,0,27512,0,0,0
i,0x00000000,1716771771.663292,172.16.1.2,58704,172.16.3.2,5101,35296,28997,0,64256,65728,6,6,4,1460,834,1,992,75,66348,66348,65700,0,28960,0,0,0
o,0x00000000,1716771771.663313,172.16.1.2,58704,172.16.3.2,5101,35296,31893,0,64256,65728,6,6,4,1460,946,1,992,100,66348,63452,65700,0,26064,0,0,0
o,0x00000000,1716771771.663405,172.16.1.2,58704,172.16.3.2,5101,35296,31893,0,64256,65728,6,6,4,1460,946,1,992,100,66348,63452,65700,0,27512,0,0,0
o,0x00000000,1716771771.663478,172.16.1.2,58704,172.16.3.2,5101,35296,31893,0,64256,65728,6,6,4,1460,946,1,992,100,66348,63452,65700,0,28960,0,0,0
o,0x00000000,1716771771.663553,172.16.1.2,58704,172.16.3.2,5101,35296,31893,0,64256,65728,6,6,4,1460,946,1,992,100,66348,63452,65700,0,30408,0,0,0
i,0x00000000,1716771771.663627,172.16.1.2,58704,172.16.3.2,5101,35296,31893,0,64256,65728,6,6,4,1460,946,1,992,100,74540,63452,65700,0,31856,0,0,0
o,0x00000000,1716771771.663630,172.16.1.2,58704,172.16.3.2,5101,35296,34789,0,64256,65728,6,6,4,1460,1044,1,992,115,74540,60556,65700,0,28960,0,0,0
o,0x00000000,1716771771.663703,172.16.1.2,58704,172.16.3.2,5101,35296,34789,0,64256,65728,6,6,4,1460,1044,1,992,115,74540,60556,65700,0,30408,0,0,0
o,0x00000000,1716771771.663777,172.16.1.2,58704,172.16.3.2,5101,35296,34789,0,64256,65728,6,6,4,1460,1044,1,992,115,74540,60556,65700,0,31856,0,0,0
o,0x00000000,1716771771.663851,172.16.1.2,58704,172.16.3.2,5101,35296,34789,0,64256,65728,6,6,4,1460,1044,1,992,115,74540,60556,65700,0,33304,0,0,0
i,0x00000000,1716771771.664144,172.16.1.2,58704,172.16.3.2,5101,35296,34789,0,64256,65728,6,6,4,1460,1044,1,992,115,74540,60556,65700,0,34752,0,0,0
o,0x00000000,1716771771.664147,172.16.1.2,58704,172.16.3.2,5101,35296,37685,0,64256,65728,6,6,4,1460,1130,1,992,123,74540,57660,65700,0,31856,0,0,0
o,0x00000000,1716771771.664221,172.16.1.2,58704,172.16.3.2,5101,35296,37685,0,64256,65728,6,6,4,1460,1130,1,992,123,74540,57660,65700,0,33304,0,0,0
o,0x00000000,1716771771.664296,172.16.1.2,58704,172.16.3.2,5101,35296,37685,0,64256,65728,6,6,4,1460,1130,1,992,123,74540,57660,65700,0,34752,0,0,0
o,0x00000000,1716771771.664369,172.16.1.2,58704,172.16.3.2,5101,35296,37685,0,64256,65728,6,6,4,1460,1130,1,992,123,74540,57660,65700,0,36200,0,0,0
i,0x00000000,1716771771.664442,172.16.1.2,58704,172.16.3.2,5101,35296,37685,0,64256,65728,6,6,4,1460,1130,1,992,123,74540,57660,65700,0,37648,0,0,0
o,0x00000000,1716771771.664445,172.16.1.2,58704,172.16.3.2,5101,35296,37685,0,64256,65728,6,6,4,1460,1205,1,992,127,74540,54764,65700,0,34752,0,0,0
o,0x00000000,1716771771.664518,172.16.1.2,58704,172.16.3.2,5101,35296,37685,0,64256,65728,6,6,4,1460,1205,1,992,127,74540,54764,65700,0,36200,0,0,0
i,0x00000000,1716771771.664804,172.16.1.2,58704,172.16.3.2,5101,35296,37685,0,64256,65728,6,6,4,1460,1205,1,992,127,74540,54764,65700,0,37648,0,0,0
o,0x00000000,1716771771.664806,172.16.1.2,58704,172.16.3.2,5101,35296,37685,0,64256,65728,6,6,4,1460,1271,1,992,128,74540,51868,65700,0,34752,0,0,0
o,0x00000000,1716771771.664880,172.16.1.2,58704,172.16.3.2,5101,35296,37685,0,64256,65728,6,6,4,1460,1271,1,992,128,74540,51868,65700,0,36200,0,0,0
i,0x00000000,1716771771.664953,172.16.1.2,58704,172.16.3.2,5101,35296,37685,0,64256,65728,6,6,4,1460,1271,1,992,128,74540,51868,65700,0,37648,0,0,0
o,0x00000000,1716771771.664955,172.16.1.2,58704,172.16.3.2,5101,35296,37685,0,64256,65728,6,6,4,1460,1329,1,992,128,74540,48972,65700,0,34752,0,0,0
o,0x00000000,1716771771.665029,172.16.1.2,58704,172.16.3.2,5101,35296,37685,0,64256,65728,6,6,4,1460,1329,1,992,128,74540,48972,65700,0,36200,0,0,0
i,0x00000000,1716771771.665101,172.16.1.2,58704,172.16.3.2,5101,35296,37685,0,64256,65728,6,6,4,1460,1329,1,992,128,74540,48972,65700,0,37648,0,0,0
o,0x00000000,1716771771.665104,172.16.1.2,58704,172.16.3.2,5101,35296,37685,0,64256,65728,6,6,4,1460,1379,1,992,125,74540,46076,65700,0,34752,0,0,0
o,0x00000000,1716771771.665177,172.16.1.2,58704,172.16.3.2,5101,35296,37685,0,64256,65728,6,6,4,1460,1379,1,992,125,74540,46076,65700,0,36200,0,0,0
i,0x00000000,1716771771.665249,172.16.1.2,58704,172.16.3.2,5101,35296,37685,0,64256,65728,6,6,4,1460,1379,1,992,125,74540,46076,65700,0,37648,0,0,0
o,0x00000000,1716771771.665252,172.16.1.2,58704,172.16.3.2,5101,35296,37685,0,64256,65728,6,6,4,1460,1423,1,992,122,74540,43180,65700,0,34752,0,0,0
o,0x00000000,1716771771.665325,172.16.1.2,58704,172.16.3.2,5101,35296,37685,0,64256,65728,6,6,4,1460,1423,1,992,122,74540,43180,65700,0,36200,0,0,0
i,0x00000000,1716771771.665405,172.16.1.2,58704,172.16.3.2,5101,35296,37685,0,64256,65728,6,6,4,1460,1423,1,992,122,74540,43180,65700,0,37648,0,0,0
o,0x00000000,1716771771.665407,172.16.1.2,58704,172.16.3.2,5101,35296,37685,0,64256,65728,6,6,4,1460,1450,1,992,115,74540,40284,65700,0,34752,0,0,0
o,0x00000000,1716771771.665681,172.16.1.2,58704,172.16.3.2,5101,35296,37685,0,64256,65728,6,6,4,1460,1450,1,992,115,74540,40284,65700,0,36200,0,0,0
i,0x00000000,1716771771.693194,172.16.1.2,58704,172.16.3.2,5101,35296,37685,0,64256,65728,6,6,4,1460,1450,1,992,115,82732,82732,65700,0,37648,0,0,0
o,0x00000000,1716771771.693230,172.16.1.2,58704,172.16.3.2,5101,35296,37685,0,64256,65728,6,6,4,1460,1485,1,992,112,82732,79836,65700,0,34752,0,0,0
o,0x00000000,1716771771.693550,172.16.1.2,58704,172.16.3.2,5101,35296,37685,0,64256,65728,6,6,4,1460,1485,1,992,112,82732,79836,65700,0,36200,0,0,0
i,0x00000000,1716771772.343128,172.16.1.2,58704,172.16.3.2,5101,35296,37685,0,64256,65728,6,6,4,1460,1485,1,992,112,82732,82732,65700,0,37648,0,0,0
o,0x00000000,1716771772.343148,172.16.1.2,58704,172.16.3.2,5101,35296,37685,0,64256,65728,6,6,4,1460,1568,1,992,124,82732,79836,65700,0,34752,0,0,0
o,0x00000000,1716771772.343240,172.16.1.2,58704,172.16.3.2,5101,35296,37685,0,64256,65728,6,6,4,1460,1568,1,992,124,82732,79836,65700,0,36200,0,0,0
i,0x00000000,1716771772.343316,172.16.1.2,58704,172.16.3.2,5101,35296,37685,0,64256,65728,6,6,4,1460,1568,1,992,124,82732,79836,65700,0,37648,0,0,0
o,0x00000000,1716771772.343319,172.16.1.2,58704,172.16.3.2,5101,35296,37685,0,64256,65728,6,6,4,1460,1640,1,992,131,82732,76940,65700,0,34752,0,0,0
o,0x00000000,1716771772.343395,172.16.1.2,58704,172.16.3.2,5101,35296,37685,0,64256,65728,6,6,4,1460,1640,1,992,131,82732,76940,65700,0,36200,0,0,0
i,0x00000000,1716771772.343471,172.16.1.2,58704,172.16.3.2,5101,35296,37685,0,64256,65728,6,6,4,1460,1640,1,992,131,82732,76940,65700,0,37648,0,0,0
o,0x00000000,1716771772.343474,172.16.1.2,58704,172.16.3.2,5101,35296,37685,0,64256,65728,6,6,4,1460,1703,1,992,133,82732,74044,65700,0,34752,0,0,0
o,0x00000000,1716771772.343548,172.16.1.2,58704,172.16.3.2,5101,35296,37685,0,64256,65728,6,6,4,1460,1703,1,992,133,82732,74044,65700,0,36200,0,0,0
i,0x00000000,1716771772.343844,172.16.1.2,58704,172.16.3.2,5101,35296,37685,0,64256,65728,6,6,4,1460,1703,1,992,133,82732,74044,65700,0,37648,0,0,0
o,0x00000000,1716771772.343847,172.16.1.2,58704,172.16.3.2,5101,35296,37685,0,64256,65728,6,6,4,1460,1759,1,992,134,82732,71148,65700,0,34752,0,0,0
o,0x00000000,1716771772.343922,172.16.1.2,58704,172.16.3.2,5101,35296,37685,0,64256,65728,6,6,4,1460,1759,1,992,134,82732,71148,65700,0,36200,0,0,0
i,0x00000000,1716771772.344021,172.16.1.2,58704,172.16.3.2,5101,35296,37685,0,64256,65728,6,6,4,1460,1759,1,992,134,82732,71148,65700,0,37648,0,0,0
o,0x00000000,1716771772.344025,172.16.1.2,58704,172.16.3.2,5101,35296,37685,0,64256,65728,6,6,4,1460,1808,1,992,133,82732,68252,65700,0,34752,0,0,0
o,0x00000000,1716771772.344101,172.16.1.2,58704,172.16.3.2,5101,35296,37685,0,64256,65728,6,6,4,1460,1808,1,992,133,82732,68252,65700,0,36200,0,0,0
i,0x00000000,1716771772.344177,172.16.1.2,58704,172.16.3.2,5101,35296,37685,0,64256,65728,6,6,4,1460,1808,1,992,133,82732,68252,65700,0,37648,0,0,0
o,0x00000000,1716771772.344180,172.16.1.2,58704,172.16.3.2,5101,35296,37685,0,64256,65728,6,6,4,1460,1850,1,992,131,82732,65356,65700,0,34752,0,0,0
o,0x00000000,1716771772.344254,172.16.1.2,58704,172.16.3.2,5101,35296,37685,0,64256,65728,6,6,4,1460,1850,1,992,131,82732,65356,65700,0,36200,0,0,0
i,0x00000000,1716771772.344330,172.16.1.2,58704,172.16.3.2,5101,35296,37685,0,64256,65728,6,6,4,1460,1850,1,992,131,82732,65356,65700,0,37648,0,0,0
o,0x00000000,1716771772.344333,172.16.1.2,58704,172.16.3.2,5101,35296,39145,0,64256,65728,6,6,4,1460,1887,1,992,128,82732,62460,65700,0,34752,0,0,0
o,0x00000000,1716771772.344408,172.16.1.2,58704,172.16.3.2,5101,35296,39145,0,64256,65728,6,6,4,1460,1887,1,992,128,82732,62460,65700,0,36200,0,0,0
o,0x00000000,1716771772.344482,172.16.1.2,58704,172.16.3.2,5101,35296,39145,0,64256,65728,6,6,4,1460,1887,1,992,128,82732,62460,65700,0,37648,0,0,0
i,0x00000000,1716771772.344558,172.16.1.2,58704,172.16.3.2,5101,35296,39145,0,64256,65728,6,6,4,1460,1887,1,992,128,82732,62460,65700,0,39096,0,0,0
o,0x00000000,1716771772.344561,172.16.1.2,58704,172.16.3.2,5101,35296,39145,0,64256,65728,6,6,4,1460,1920,1,992,125,82732,59564,65700,0,36200,0,0,0
o,0x00000000,1716771772.344636,172.16.1.2,58704,172.16.3.2,5101,35296,39145,0,64256,65728,6,6,4,1460,1920,1,992,125,82732,59564,65700,0,37648,0,0,0
i,0x00000000,1716771772.344711,172.16.1.2,58704,172.16.3.2,5101,35296,39145,0,64256,65728,6,6,4,1460,1920,1,992,125,82732,59564,65700,0,39096,0,0,0
o,0x00000000,1716771772.344713,172.16.1.2,58704,172.16.3.2,5101,35296,39145,0,64256,65728,6,6,4,1460,1948,1,992,122,82732,56668,65700,0,36200,0,0,0
o,0x00000000,1716771772.344788,172.16.1.2,58704,172.16.3.2,5101,35296,39145,0,64256,65728,6,6,4,1460,1948,1,992,122,82732,56668,65700,0,37648,0,0,0
i,0x00000000,1716771772.344862,172.16.1.2,58704,172.16.3.2,5101,35296,39145,0,64256,65728,6,6,4,1460,1948,1,992,122,82732,56668,65700,0,39096,0,0,0
o,0x00000000,1716771772.344865,172.16.1.2,58704,172.16.3.2,5101,35296,39145,0,64256,65728,6,6,4,1460,1973,1,992,118,82732,53772,65700,0,36200,0,0,0
o,0x00000000,1716771772.344941,172.16.1.2,58704,172.16.3.2,5101,35296,39145,0,64256,65728,6,6,4,1460,1973,1,992,118,82732,53772,65700,0,37648,0,0,0
i,0x00000000,1716771772.345015,172.16.1.2,58704,172.16.3.2,5101,35296,39145,0,64256,65728,6,6,4,1460,1973,1,992,118,82732,53772,65700,0,39096,0,0,0
o,0x00000000,1716771772.345017,172.16.1.2,58704,172.16.3.2,5101,35296,39145,0,64256,65728,6,6,4,1460,1995,1,992,115,82732,50876,65700,0,36200,0,0,0
o,0x00000000,1716771772.345091,172.16.1.2,58704,172.16.3.2,5101,35296,39145,0,64256,65728,6,6,4,1460,1995,1,992,115,82732,50876,65700,0,37648,0,0,0
i,0x00000000,1716771772.345389,172.16.1.2,58704,172.16.3.2,5101,35296,39145,0,64256,65728,6,6,4,1460,1995,1,992,115,82732,50876,65700,0,39096,0,0,0
o,0x00000000,1716771772.345393,172.16.1.2,58704,172.16.3.2,5101,35296,39145,0,64256,65728,6,6,4,1460,2014,1,992,112,82732,47980,65700,0,36200,0,0,0
o,0x00000000,1716771772.345473,172.16.1.2,58704,172.16.3.2,5101,35296,39145,0,64256,65728,6,6,4,1460,2014,1,992,112,82732,47980,65700,0,37648,0,0,0
i,0x00000000,1716771772.372521,172.16.1.2,58704,172.16.3.2,5101,35296,39145,0,64256,65728,6,6,4,1460,2014,1,992,112,82732,82732,65700,0,39096,0,0,0
o,0x00000000,1716771772.372528,172.16.1.2,58704,172.16.3.2,5101,35296,39145,0,64256,65728,6,6,4,1460,2035,1,992,111,82732,79836,65700,0,36200,0,0,0
o,0x00000000,1716771772.372773,172.16.1.2,58704,172.16.3.2,5101,35296,39145,0,64256,65728,6,6,4,1460,2035,1,992,111,82732,79836,65700,0,37648,0,0,0
i,0x00000000,1716771773.042272,172.16.1.2,58704,172.16.3.2,5101,35296,39145,0,64256,65728,6,6,4,1460,2035,1,992,111,82732,82732,65700,0,39096,0,0,0
o,0x00000000,1716771773.042292,172.16.1.2,58704,172.16.3.2,5101,35296,39145,0,64256,65728,6,6,4,1460,2061,1,992,111,82732,79836,65700,0,36200,0,0,0
o,0x00000000,1716771773.042380,172.16.1.2,58704,172.16.3.2,5101,35296,39145,0,64256,65728,6,6,4,1460,2061,1,992,111,82732,79836,65700,0,37648,0,0,0
i,0x00000000,1716771773.042455,172.16.1.2,58704,172.16.3.2,5101,35296,39145,0,64256,65728,6,6,4,1460,2061,1,992,111,82732,79836,65700,0,39096,0,0,0
o,0x00000000,1716771773.042458,172.16.1.2,58704,172.16.3.2,5101,35296,39145,0,64256,65728,6,6,4,1460,2084,1,992,111,82732,76940,65700,0,36200,0,0,0
o,0x00000000,1716771773.042554,172.16.1.2,58704,172.16.3.2,5101,35296,39145,0,64256,65728,6,6,4,1460,2084,1,992,111,82732,76940,65700,0,37648,0,0,0
i,0x00000000,1716771773.042655,172.16.1.2,58704,172.16.3.2,5101,35296,39145,0,64256,65728,6,6,4,1460,2084,1,992,111,82732,76940,65700,0,39096,0,0,0
o,0x00000000,1716771773.042658,172.16.1.2,58704,172.16.3.2,5101,35296,39145,0,64256,65728,6,6,4,1460,2104,1,992,110,82732,74044,65700,0,36200,0,0,0
o,0x00000000,1716771773.042773,172.16.1.2,58704,172.16.3.2,5101,35296,39145,0,64256,65728,6,6,4,1460,2104,1,992,110,82732,74044,65700,0,37648,0,0,0
i,0x00000000,1716771773.043094,172.16.1.2,58704,172.16.3.2,5101,35296,39145,0,64256,65728,6,6,4,1460,2104,1,992,110,82732,74044,65700,0,39096,0,0,0
o,0x00000000,1716771773.043096,172.16.1.2,58704,172.16.3.2,5101,35296,39145,0,64256,65728,6,6,4,1460,2121,1,992,109,82732,71148,65700,0,36200,0,0,0
o,0x00000000,1716771773.043173,172.16.1.2,58704,172.16.3.2,5101,35296,39145,0,64256,65728,6,6,4,1460,2121,1,992,109,82732,71148,65700,0,37648,0,0,0
i,0x00000000,1716771773.043248,172.16.1.2,58704,172.16.3.2,5101,35296,39145,0,64256,65728,6,6,4,1460,2121,1,992,109,82732,71148,65700,0,39096,0,0,0
o,0x00000000,1716771773.043251,172.16.1.2,58704,172.16.3.2,5101,35296,39145,0,64256,65728,6,6,4,1460,2136,1,992,107,82732,68252,65700,0,36200,0,0,0
o,0x00000000,1716771773.043324,172.16.1.2,58704,172.16.3.2,5101,35296,39145,0,64256,65728,6,6,4,1460,2136,1,992,107,82732,68252,65700,0,37648,0,0,0
i,0x00000000,1716771773.043791,172.16.1.2,58704,172.16.3.2,5101,35296,39145,0,64256,65728,6,6,4,1460,2136,1,992,107,82732,68252,65700,0,39096,0,0,0
o,0x00000000,1716771773.043795,172.16.1.2,58704,172.16.3.2,5101,35296,39145,0,64256,65728,6,6,4,1460,2149,1,992,106,82732,65356,65700,0,36200,0,0,0
o,0x00000000,1716771773.043881,172.16.1.2,58704,172.16.3.2,5101,35296,39145,0,64256,65728,6,6,4,1460,2149,1,992,106,82732,65356,65700,0,37648,0,0,0
i,0x00000000,1716771773.043960,172.16.1.2,58704,172.16.3.2,5101,35296,39145,0,64256,65728,6,6,4,1460,2149,1,992,106,82732,65356,65700,0,39096,0,0,0
o,0x00000000,1716771773.043963,172.16.1.2,58704,172.16.3.2,5101,35296,40605,0,64256,65728,6,6,4,1460,2161,1,992,104,82732,62460,65700,0,36200,0,0,0
o,0x00000000,1716771773.044049,172.16.1.2,58704,172.16.3.2,5101,35296,40605,0,64256,65728,6,6,4,1460,2161,1,992,104,82732,62460,65700,0,37648,0,0,0
o,0x00000000,1716771773.044136,172.16.1.2,58704,172.16.3.2,5101,35296,40605,0,64256,65728,6,6,4,1460,2161,1,992,104,82732,62460,65700,0,39096,0,0,0
i,0x00000000,1716771773.044212,172.16.1.2,58704,172.16.3.2,5101,35296,40605,0,64256,65728,6,6,4,1460,2161,1,992,104,82732,62460,65700,0,40544,0,0,0
o,0x00000000,1716771773.044215,172.16.1.2,58704,172.16.3.2,5101,35296,40605,0,64256,65728,6,6,4,1460,2171,1,992,103,82732,59564,65700,0,37648,0,0,0
o,0x00000000,1716771773.044308,172.16.1.2,58704,172.16.3.2,5101,35296,40605,0,64256,65728,6,6,4,1460,2171,1,992,103,82732,59564,65700,0,39096,0,0,0
i,0x00000000,1716771773.044397,172.16.1.2,58704,172.16.3.2,5101,35296,40605,0,64256,65728,6,6,4,1460,2171,1,992,103,82732,59564,65700,0,40544,0,0,0
o,0x00000000,1716771773.044399,172.16.1.2,58704,172.16.3.2,5101,35296,40605,0,64256,65728,6,6,4,1460,2180,1,992,102,82732,56668,65700,0,37648,0,0,0
o,0x00000000,1716771773.044513,172.16.1.2,58704,172.16.3.2,5101,35296,40605,0,64256,65728,6,6,4,1460,2180,1,992,102,82732,56668,65700,0,39096,0,0,0
i,0x00000000,1716771773.044598,172.16.1.2,58704,172.16.3.2,5101,35296,40605,0,64256,65728,6,6,4,1460,2180,1,992,102,82732,56668,65700,0,40544,0,0,0
o,0x00000000,1716771773.044601,172.16.1.2,58704,172.16.3.2,5101,35296,40605,0,64256,65728,6,6,4,1460,2188,1,992,100,82732,53772,65700,0,37648,0,0,0
o,0x00000000,1716771773.044677,172.16.1.2,58704,172.16.3.2,5101,35296,40605,0,64256,65728,6,6,4,1460,2188,1,992,100,82732,53772,65700,0,39096,0,0,0
i,0x00000000,1716771773.044996,172.16.1.2,58704,172.16.3.2,5101,35296,40605,0,64256,65728,6,6,4,1460,2188,1,992,100,82732,53772,65700,0,40544,0,0,0
o,0x00000000,1716771773.044999,172.16.1.2,58704,172.16.3.2,5101,35296,40605,0,64256,65728,6,6,4,1460,2195,1,992,99,82732,50876,65700,0,37648,0,0,0
o,0x00000000,1716771773.045078,172.16.1.2,58704,172.16.3.2,5101,35296,40605,0,64256,65728,6,6,4,1460,2195,1,992,99,82732,50876,65700,0,39096,0,0,0
i,0x00000000,1716771773.045152,172.16.1.2,58704,172.16.3.2,5101,35296,40605,0,64256,65728,6,6,4,1460,2195,1,992,99,82732,50876,65700,0,40544,0,0,0
o,0x00000000,1716771773.045155,172.16.1.2,58704,172.16.3.2,5101,35296,40605,0,64256,65728,6,6,4,1460,2201,1,992,98,82732,47980,65700,0,37648,0,0,0
o,0x00000000,1716771773.045231,172.16.1.2,58704,172.16.3.2,5101,35296,40605,0,64256,65728,6,6,4,1460,2201,1,992,98,82732,47980,65700,0,39096,0,0,0
i,0x00000000,1716771773.045310,172.16.1.2,58704,172.16.3.2,5101,35296,40605,0,64256,65728,6,6,4,1460,2201,1,992,98,82732,47980,65700,0,40544,0,0,0
o,0x00000000,1716771773.045313,172.16.1.2,58704,172.16.3.2,5101,35296,40605,0,64256,65728,6,6,4,1460,2206,1,992,97,82732,45084,65700,0,37648,0,0,0
o,0x00000000,1716771773.045389,172.16.1.2,58704,172.16.3.2,5101,35296,40605,0,64256,65728,6,6,4,1460,2206,1,992,97,82732,45084,65700,0,39096,0,0,0
i,0x00000000,1716771773.713584,172.16.1.2,58704,172.16.3.2,5101,35296,40605,0,64256,65728,6,6,4,1460,2206,1,992,97,82732,82732,65700,0,40544,0,0,0
o,0x00000000,1716771773.713605,172.16.1.2,58704,172.16.3.2,5101,35296,40605,0,65728,65728,6,6,4,1460,2467,1,992,169,82732,81284,65700,0,39096,0,0,0
i,0x00000000,1716771773.743587,172.16.1.2,58704,172.16.3.2,5101,35296,40605,0,65728,65728,6,6,4,1460,2467,1,992,169,82732,81284,65700,0,40544,0,0,0
o,0x00000000,1716771773.743597,172.16.1.2,58704,172.16.3.2,5101,35296,40605,0,64256,65728,6,6,4,1460,2435,1,992,158,82732,78388,65700,0,37648,0,0,0
o,0x00000000,1716771773.743843,172.16.1.2,58704,172.16.3.2,5101,35296,40605,0,64256,65728,6,6,4,1460,2435,1,992,158,82732,78388,65700,0,39096,0,0,0
i,0x00000000,1716771773.744126,172.16.1.2,58704,172.16.3.2,5101,35296,40605,0,64256,65728,6,6,4,1460,2435,1,992,158,82732,78388,65700,0,40544,0,0,0
o,0x00000000,1716771773.744130,172.16.1.2,58704,172.16.3.2,5101,35296,40605,0,64256,65728,6,6,4,1460,2407,1,992,148,82732,75492,65700,0,37648,0,0,0
o,0x00000000,1716771773.744569,172.16.1.2,58704,172.16.3.2,5101,35296,40605,0,64256,65728,6,6,4,1460,2407,1,992,148,82732,75492,65700,0,39096,0,0,0
i,0x00000000,1716771773.752504,172.16.1.2,58704,172.16.3.2,5101,35296,40605,0,64256,65728,6,6,4,1460,2407,1,992,148,82732,82732,65700,0,40544,0,0,0
o,0x00000000,1716771773.752510,172.16.1.2,58704,172.16.3.2,5101,35296,40605,0,64256,65728,6,6,4,1460,2387,1,992,139,82732,79836,65700,0,37648,0,0,0
o,0x00000000,1716771773.752593,172.16.1.2,58704,172.16.3.2,5101,35296,40605,0,64256,65728,6,6,4,1460,2387,1,992,139,82732,79836,65700,0,39096,0,0,0
i,0x00000000,1716771773.752675,172.16.1.2,58704,172.16.3.2,5101,35296,40605,0,64256,65728,6,6,4,1460,2387,1,992,139,82732,79836,65700,0,40544,0,0,0
o,0x00000000,1716771773.752678,172.16.1.2,58704,172.16.3.2,5101,35296,40605,0,64256,65728,6,6,4,1460,2369,1,992,132,82732,76940,65700,0,37648,0,0,0
o,0x00000000,1716771773.752752,172.16.1.2,58704,172.16.3.2,5101,35296,40605,0,64256,65728,6,6,4,1460,2369,1,992,132,82732,76940,65700,0,39096,0,0,0
i,0x00000000,1716771773.752825,172.16.1.2,58704,172.16.3.2,5101,35296,40605,0,64256,65728,6,6,4,1460,2369,1,992,132,82732,76940,65700,0,40544,0,0,0
o,0x00000000,1716771773.752828,172.16.1.2,58704,172.16.3.2,5101,35296,40605,0,64256,65728,6,6,4,1460,2353,1,992,126,82732,74044,65700,0,37648,0,0,0
o,0x00000000,1716771773.752902,172.16.1.2,58704,172.16.3.2,5101,35296,40605,0,64256,65728,6,6,4,1460,2353,1,992,126,82732,74044,65700,0,39096,0,0,0
i,0x00000000,1716771773.753191,172.16.1.2,58704,172.16.3.2,5101,35296,40605,0,64256,65728,6,6,4,1460,2353,1,992,126,82732,74044,65700,0,40544,0,0,0
o,0x00000000,1716771773.753193,172.16.1.2,58704,172.16.3.2,5101,35296,40605,0,64256,65728,6,6,4,1460,2339,1,992,121,82732,71148,65700,0,37648,0,0,0
o,0x00000000,1716771773.753268,172.16.1.2,58704,172.16.3.2,5101,35296,40605,0,64256,65728,6,6,4,1460,2339,1,992,121,82732,71148,65700,0,39096,0,0,0
i,0x00000000,1716771773.753574,172.16.1.2,58704,172.16.3.2,5101,35296,40605,0,64256,65728,6,6,4,1460,2339,1,992,121,82732,71148,65700,0,40544,0,0,0
o,0x00000000,1716771773.753578,172.16.1.2,58704,172.16.3.2,5101,35296,40605,0,64256,65728,6,6,4,1460,2327,1,992,116,82732,68252,65700,0,37648,0,0,0
o,0x00000000,1716771773.753672,172.16.1.2,58704,172.16.3.2,5101,35296,40605,0,64256,65728,6,6,4,1460,2327,1,992,116,82732,68252,65700,0,39096,0,0,0
i,0x00000000,1716771773.753753,172.16.1.2,58704,172.16.3.2,5101,35296,40605,0,64256,65728,6,6,4,1460,2327,1,992,116,82732,68252,65700,0,40544,0,0,0
o,0x00000000,1716771773.753755,172.16.1.2,58704,172.16.3.2,5101,35296,42065,0,64256,65728,6,6,4,1460,2317,1,992,113,82732,65356,65700,0,37648,0,0,0
o,0x00000000,1716771773.753830,172.16.1.2,58704,172.16.3.2,5101,35296,42065,0,64256,65728,6,6,4,1460,2317,1,992,113,82732,65356,65700,0,39096,0,0,0
o,0x00000000,1716771773.753903,172.16.1.2,58704,172.16.3.2,5101,35296,42065,0,64256,65728,6,6,4,1460,2317,1,992,113,82732,65356,65700,0,40544,0,0,0
i,0x00000000,1716771773.753977,172.16.1.2,58704,172.16.3.2,5101,35296,42065,0,64256,65728,6,6,4,1460,2317,1,992,113,82732,65356,65700,0,41992,0,0,0
o,0x00000000,1716771773.753980,172.16.1.2,58704,172.16.3.2,5101,35296,42065,0,64256,65728,6,6,4,1460,2308,1,992,110,82732,62460,65700,0,39096,0,0,0
o,0x00000000,1716771773.754060,172.16.1.2,58704,172.16.3.2,5101,35296,42065,0,64256,65728,6,6,4,1460,2308,1,992,110,82732,62460,65700,0,40544,0,0,0
i,0x00000000,1716771773.754356,172.16.1.2,58704,172.16.3.2,5101,35296,42065,0,64256,65728,6,6,4,1460,2308,1,992,110,82732,62460,65700,0,41992,0,0,0
o,0x00000000,1716771773.754359,172.16.1.2,58704,172.16.3.2,5101,35296,42065,0,64256,65728,6,6,4,1460,2300,1,992,107,82732,59564,65700,0,39096,0,0,0
o,0x00000000,1716771773.754439,172.16.1.2,58704,172.16.3.2,5101,35296,42065,0,64256,65728,6,6,4,1460,2300,1,992,107,82732,59564,65700,0,40544,0,0,0
i,0x00000000,1716771773.754512,172.16.1.2,58704,172.16.3.2,5101,35296,42065,0,64256,65728,6,6,4,1460,2300,1,992,107,82732,59564,65700,0,41992,0,0,0
o,0x00000000,1716771773.754515,172.16.1.2,58704,172.16.3.2,5101,35296,42065,0,64256,65728,6,6,4,1460,2293,1,992,105,82732,56668,65700,0,39096,0,0,0
o,0x00000000,1716771773.754589,172.16.1.2,58704,172.16.3.2,5101,35296,42065,0,64256,65728,6,6,4,1460,2293,1,992,105,82732,56668,65700,0,40544,0,0,0
i,0x00000000,1716771773.754662,172.16.1.2,58704,172.16.3.2,5101,35296,42065,0,64256,65728,6,6,4,1460,2293,1,992,105,82732,56668,65700,0,41992,0,0,0
o,0x00000000,1716771773.754664,172.16.1.2,58704,172.16.3.2,5101,35296,42065,0,64256,65728,6,6,4,1460,2287,1,992,103,82732,53772,65700,0,39096,0,0,0
o,0x00000000,1716771773.754739,172.16.1.2,58704,172.16.3.2,5101,35296,42065,0,64256,65728,6,6,4,1460,2287,1,992,103,82732,53772,65700,0,40544,0,0,0
i,0x00000000,1716771773.754812,172.16.1.2,58704,172.16.3.2,5101,35296,42065,0,64256,65728,6,6,4,1460,2287,1,992,103,82732,53772,65700,0,41992,0,0,0
o,0x00000000,1716771773.754815,172.16.1.2,58704,172.16.3.2,5101,35296,42065,0,64256,65728,6,6,4,1460,2282,1,992,101,82732,50876,65700,0,39096,0,0,0
o,0x00000000,1716771773.754889,172.16.1.2,58704,172.16.3.2,5101,35296,42065,0,64256,65728,6,6,4,1460,2282,1,992,101,82732,50876,65700,0,40544,0,0,0
i,0x00000000,1716771774.152908,172.16.1.2,58704,172.16.3.2,5101,35296,42065,0,64256,65728,6,6,4,1460,2282,1,992,101,82732,82732,65700,0,41992,0,0,0
o,0x00000000,1716771774.152928,172.16.1.2,58704,172.16.3.2,5101,35296,42065,0,65728,65728,6,6,4,1460,2441,1,992,143,82732,81284,65700,0,40544,0,0,0
i,0x00000000,1716771774.442906,172.16.1.2,58704,172.16.3.2,5101,35296,42065,0,65728,65728,6,6,4,1460,2441,1,992,143,82732,81284,65700,0,41992,0,0,0
o,0x00000000,1716771774.442929,172.16.1.2,58704,172.16.3.2,5101,35296,42065,0,65728,65728,6,6,4,1460,2428,1,992,134,82732,79836,65700,0,40544,0,0,0
i,0x00000000,1716771774.463728,172.16.1.2,58704,172.16.3.2,5101,35296,42065,0,65728,65728,6,6,4,1460,2428,1,992,134,82732,82732,65700,0,41992,0,0,0
o,0x00000000,1716771774.463743,172.16.1.2,58704,172.16.3.2,5101,35296,42065,0,64256,65728,6,6,4,1460,2413,1,992,128,82732,79836,65700,0,39096,0,0,0
o,0x00000000,1716771774.463832,172.16.1.2,58704,172.16.3.2,5101,35296,42065,0,64256,65728,6,6,4,1460,2413,1,992,128,82732,79836,65700,0,40544,0,0,0
i,0x00000000,1716771774.463913,172.16.1.2,58704,172.16.3.2,5101,35296,42065,0,64256,65728,6,6,4,1460,2413,1,992,128,82732,79836,65700,0,41992,0,0,0
o,0x00000000,1716771774.463917,172.16.1.2,58704,172.16.3.2,5101,35296,42065,0,64256,65728,6,6,4,1460,2400,1,992,123,82732,76940,65700,0,39096,0,0,0
o,0x00000000,1716771774.463993,172.16.1.2,58704,172.16.3.2,5101,35296,42065,0,64256,65728,6,6,4,1460,2400,1,992,123,82732,76940,65700,0,40544,0,0,0
i,0x00000000,1716771774.472852,172.16.1.2,58704,172.16.3.2,5101,35296,42065,0,64256,65728,6,6,4,1460,2400,1,992,123,82732,82732,65700,0,41992,0,0,0
o,0x00000000,1716771774.472858,172.16.1.2,58704,172.16.3.2,5101,35296,42065,0,64256,65728,6,6,4,1460,2388,1,992,118,82732,79836,65700,0,39096,0,0,0
o,0x00000000,1716771774.472952,172.16.1.2,58704,172.16.3.2,5101,35296,42065,0,64256,65728,6,6,4,1460,2388,1,992,118,82732,79836,65700,0,40544,0,0,0
i,0x00000000,1716771774.473026,172.16.1.2,58704,172.16.3.2,5101,35296,42065,0,64256,65728,6,6,4,1460,2388,1,992,118,82732,79836,65700,0,41992,0,0,0
o,0x00000000,1716771774.473030,172.16.1.2,58704,172.16.3.2,5101,35296,42065,0,64256,65728,6,6,4,1460,2378,1,992,114,82732,76940,65700,0,39096,0,0,0
o,0x00000000,1716771774.473105,172.16.1.2,58704,172.16.3.2,5101,35296,42065,0,64256,65728,6,6,4,1460,2378,1,992,114,82732,76940,65700,0,40544,0,0,0
i,0x00000000,1716771774.473205,172.16.1.2,58704,172.16.3.2,5101,35296,42065,0,64256,65728,6,6,4,1460,2378,1,992,114,82732,76940,65700,0,41992,0,0,0
o,0x00000000,1716771774.473208,172.16.1.2,58704,172.16.3.2,5101,35296,42065,0,64256,65728,6,6,4,1460,2369,1,992,111,82732,74044,65700,0,39096,0,0,0
o,0x00000000,1716771774.473292,172.16.1.2,58704,172.16.3.2,5101,35296,42065,0,64256,65728,6,6,4,1460,2369,1,992,111,82732,74044,65700,0,40544,0,0,0
i,0x00000000,1716771774.473381,172.16.1.2,58704,172.16.3.2,5101,35296,42065,0,64256,65728,6,6,4,1460,2369,1,992,111,82732,74044,65700,0,41992,0,0,0
o,0x00000000,1716771774.473384,172.16.1.2,58704,172.16.3.2,5101,35296,42065,0,64256,65728,6,6,4,1460,2361,1,992,109,82732,71148,65700,0,39096,0,0,0
o,0x00000000,1716771774.473466,172.16.1.2,58704,172.16.3.2,5101,35296,42065,0,64256,65728,6,6,4,1460,2361,1,992,109,82732,71148,65700,0,40544,0,0,0
i,0x00000000,1716771774.473758,172.16.1.2,58704,172.16.3.2,5101,35296,42065,0,64256,65728,6,6,4,1460,2361,1,992,109,82732,71148,65700,0,41992,0,0,0
o,0x00000000,1716771774.473762,172.16.1.2,58704,172.16.3.2,5101,35296,42065,0,64256,65728,6,6,4,1460,2354,1,992,107,82732,68252,65700,0,39096,0,0,0
o,0x00000000,1716771774.473838,172.16.1.2,58704,172.16.3.2,5101,35296,42065,0,64256,65728,6,6,4,1460,2354,1,992,107,82732,68252,65700,0,40544,0,0,0
i,0x00000000,1716771774.473913,172.16.1.2,58704,172.16.3.2,5101,35296,42065,0,64256,65728,6,6,4,1460,2354,1,992,107,82732,68252,65700,0,41992,0,0,0
o,0x00000000,1716771774.473916,172.16.1.2,58704,172.16.3.2,5101,35296,43525,0,64256,65728,6,6,4,1460,2348,1,992,105,82732,65356,65700,0,39096,0,0,0
o,0x00000000,1716771774.473998,172.16.1.2,58704,172.16.3.2,5101,35296,43525,0,64256,65728,6,6,4,1460,2348,1,992,105,82732,65356,65700,0,40544,0,0,0
o,0x00000000,1716771774.474079,172.16.1.2,58704,172.16.3.2,5101,35296,43525,0,64256,65728,6,6,4,1460,2348,1,992,105,82732,65356,65700,0,41992,0,0,0
i,0x00000000,1716771774.474157,172.16.1.2,58704,172.16.3.2,5101,35296,43525,0,64256,65728,6,6,4,1460,2348,1,992,105,82732,65356,65700,0,43440,0,0,0
o,0x00000000,1716771774.474159,172.16.1.2,58704,172.16.3.2,5101,35296,43525,0,64256,65728,6,6,4,1460,2343,1,992,103,82732,62460,65700,0,40544,0,0,0
o,0x00000000,1716771774.474248,172.16.1.2,58704,172.16.3.2,5101,35296,43525,0,64256,65728,6,6,4,1460,2343,1,992,103,82732,62460,65700,0,41992,0,0,0
i,0x00000000,1716771774.474332,172.16.1.2,58704,172.16.3.2,5101,35296,43525,0,64256,65728,6,6,4,1460,2343,1,992,103,82732,62460,65700,0,43440,0,0,0
o,0x00000000,1716771774.474335,172.16.1.2,58704,172.16.3.2,5101,35296,43525,0,64256,65728,6,6,4,1460,2339,1,992,101,82732,59564,65700,0,40544,0,0,0
o,0x00000000,1716771774.474407,172.16.1.2,58704,172.16.3.2,5101,35296,43525,0,64256,65728,6,6,4,1460,2339,1,992,101,82732,59564,65700,0,41992,0,0,0
i,0x00000000,1716771774.474480,172.16.1.2,58704,172.16.3.2,5101,35296,43525,0,64256,65728,6,6,4,1460,2339,1,992,101,82732,59564,65700,0,43440,0,0,0
o,0x00000000,1716771774.474482,172.16.1.2,58704,172.16.3.2,5101,35296,43525,0,64256,65728,6,6,4,1460,2335,1,992,100,82732,56668,65700,0,40544,0,0,0
o,0x00000000,1716771774.474556,172.16.1.2,58704,172.16.3.2,5101,35296,43525,0,64256,65728,6,6,4,1460,2335,1,992,100,82732,56668,65700,0,41992,0,0,0
i,0x00000000,1716771774.474629,172.16.1.2,58704,172.16.3.2,5101,35296,43525,0,64256,65728,6,6,4,1460,2335,1,992,100,82732,56668,65700,0,43440,0,0,0
o,0x00000000,1716771774.474631,172.16.1.2,58704,172.16.3.2,5101,35296,43525,0,64256,65728,6,6,4,1460,2332,1,992,99,82732,53772,65700,0,40544,0,0,0
o,0x00000000,1716771774.474705,172.16.1.2,58704,172.16.3.2,5101,35296,43525,0,64256,65728,6,6,4,1460,2332,1,992,99,82732,53772,65700,0,41992,0,0,0
i,0x00000000,1716771774.474778,172.16.1.2,58704,172.16.3.2,5101,35296,43525,0,64256,65728,6,6,4,1460,2332,1,992,99,82732,53772,65700,0,43440,0,0,0
o,0x00000000,1716771774.474780,172.16.1.2,58704,172.16.3.2,5101,35296,43525,0,64256,65728,6,6,4,1460,2329,1,992,98,82732,50876,65700,0,40544,0,0,0
o,0x00000000,1716771774.474853,172.16.1.2,58704,172.16.3.2,5101,35296,43525,0,64256,65728,6,6,4,1460,2329,1,992,98,82732,50876,65700,0,41992,0,0,0
i,0x00000000,1716771774.873318,172.16.1.2,58704,172.16.3.2,5101,35296,43525,0,64256,65728,6,6,4,1460,2329,1,992,98,82732,82732,65700,0,43440,0,0,0
o,0x00000000,1716771774.873339,172.16.1.2,58704,172.16.3.2,5101,35296,43525,0,65728,65728,6,6,4,1460,2486,1,992,141,82732,81284,65700,0,41992,0,0,0
i,0x00000000,1716771775.153386,172.16.1.2,58704,172.16.3.2,5101,35296,43525,0,65728,65728,6,6,4,1460,2486,1,992,141,82732,81284,65700,0,43440,0,0,0
o,0x00000000,1716771775.153407,172.16.1.2,58704,172.16.3.2,5101,35296,43525,0,65728,65728,6,6,4,1460,2576,1,992,156,82732,79836,65700,0,41992,0,0,0
i,0x00000000,1716771775.183397,172.16.1.2,58704,172.16.3.2,5101,35296,43525,0,65728,65728,6,6,4,1460,2576,1,992,156,82732,82732,65700,0,43440,0,0,0
o,0x00000000,1716771775.183417,172.16.1.2,58704,172.16.3.2,5101,35296,43525,0,64256,65728,6,6,4,1460,2550,1,992,147,82732,79836,65700,0,40544,0,0,0
o,0x00000000,1716771775.183685,172.16.1.2,58704,172.16.3.2,5101,35296,43525,0,64256,65728,6,6,4,1460,2550,1,992,147,82732,79836,65700,0,41992,0,0,0
i,0x00000000,1716771775.183922,172.16.1.2,58704,172.16.3.2,5101,35296,43525,0,64256,65728,6,6,4,1460,2550,1,992,147,82732,79836,65700,0,43440,0,0,0
o,0x00000000,1716771775.183926,172.16.1.2,58704,172.16.3.2,5101,35296,43525,0,64256,65728,6,6,4,1460,2520,1,992,142,82732,76940,65700,0,40544,0,0,0
o,0x00000000,1716771775.184170,172.16.1.2,58704,172.16.3.2,5101,35296,43525,0,64256,65728,6,6,4,1460,2520,1,992,142,82732,76940,65700,0,41992,0,0,0
i,0x00000000,1716771775.203491,172.16.1.2,58704,172.16.3.2,5101,35296,43525,0,64256,65728,6,6,4,1460,2520,1,992,142,82732,82732,65700,0,43440,0,0,0
o,0x00000000,1716771775.203502,172.16.1.2,58704,172.16.3.2,5101,35296,43525,0,64256,65728,6,6,4,1460,2501,1,992,135,82732,79836,65700,0,40544,0,0,0
o,0x00000000,1716771775.203609,172.16.1.2,58704,172.16.3.2,5101,35296,43525,0,64256,65728,6,6,4,1460,2501,1,992,135,82732,79836,65700,0,41992,0,0,0
i,0x00000000,1716771775.203691,172.16.1.2,58704,172.16.3.2,5101,35296,43525,0,64256,65728,6,6,4,1460,2501,1,992,135,82732,79836,65700,0,43440,0,0,0
o,0x00000000,1716771775.203694,172.16.1.2,58704,172.16.3.2,5101,35296,43525,0,64256,65728,6,6,4,1460,2481,1,992,131,82732,76940,65700,0,40544,0,0,0
o,0x00000000,1716771775.203768,172.16.1.2,58704,172.16.3.2,5101,35296,43525,0,64256,65728,6,6,4,1460,2481,1,992,131,82732,76940,65700,0,41992,0,0,0
i,0x00000000,1716771775.203841,172.16.1.2,58704,172.16.3.2,5101,35296,43525,0,64256,65728,6,6,4,1460,2481,1,992,131,82732,76940,65700,0,43440,0,0,0
o,0x00000000,1716771775.203844,172.16.1.2,58704,172.16.3.2,5101,35296,43525,0,64256,65728,6,6,4,1460,2463,1,992,126,82732,74044,65700,0,40544,0,0,0
o,0x00000000,1716771775.203918,172.16.1.2,58704,172.16.3.2,5101,35296,43525,0,64256,65728,6,6,4,1460,2463,1,992,126,82732,74044,65700,0,41992,0,0,0
i,0x00000000,1716771775.203991,172.16.1.2,58704,172.16.3.2,5101,35296,43525,0,64256,65728,6,6,4,1460,2463,1,992,126,82732,74044,65700,0,43440,0,0,0
o,0x00000000,1716771775.203994,172.16.1.2,58704,172.16.3.2,5101,35296,43525,0,64256,65728,6,6,4,1460,2448,1,992,122,82732,71148,65700,0,40544,0,0,0
o,0x00000000,1716771775.204067,172.16.1.2,58704,172.16.3.2,5101,35296,43525,0,64256,65728,6,6,4,1460,2448,1,992,122,82732,71148,65700,0,41992,0,0,0
i,0x00000000,1716771775.204596,172.16.1.2,58704,172.16.3.2,5101,35296,43525,0,64256,65728,6,6,4,1460,2448,1,992,122,82732,71148,65700,0,43440,0,0,0
o,0x00000000,1716771775.204599,172.16.1.2,58704,172.16.3.2,5101,35296,43525,0,64256,65728,6,6,4,1460,2434,1,992,119,82732,68252,65700,0,40544,0,0,0
o,0x00000000,1716771775.204847,172.16.1.2,58704,172.16.3.2,5101,35296,43525,0,64256,65728,6,6,4,1460,2434,1,992,119,82732,68252,65700,0,41992,0,0,0
i,0x00000000,1716771775.204920,172.16.1.2,58704,172.16.3.2,5101,35296,43525,0,64256,65728,6,6,4,1460,2434,1,992,119,82732,68252,65700,0,43440,0,0,0
o,0x00000000,1716771775.204923,172.16.1.2,58704,172.16.3.2,5101,35296,43525,0,64256,65728,6,6,4,1460,2422,1,992,116,82732,65356,65700,0,40544,0,0,0
o,0x00000000,1716771775.204997,172.16.1.2,58704,172.16.3.2,5101,35296,43525,0,64256,65728,6,6,4,1460,2422,1,992,116,82732,65356,65700,0,41992,0,0,0
i,0x00000000,1716771775.205284,172.16.1.2,58704,172.16.3.2,5101,35296,43525,0,64256,65728,6,6,4,1460,2422,1,992,116,82732,65356,65700,0,43440,0,0,0
o,0x00000000,1716771775.205286,172.16.1.2,58704,172.16.3.2,5101,35296,44985,0,64256,65728,6,6,4,1460,2412,1,992,113,82732,62460,65700,0,40544,0,0,0
o,0x00000000,1716771775.205362,172.16.1.2,58704,172.16.3.2,5101,35296,44985,0,64256,65728,6,6,4,1460,2412,1,992,113,82732,62460,65700,0,41992,0,0,0
o,0x00000000,1716771775.205436,172.16.1.2,58704,172.16.3.2,5101,35296,44985,0,64256,65728,6,6,4,1460,2412,1,992,113,82732,62460,65700,0,43440,0,0,0
i,0x00000000,1716771775.205509,172.16.1.2,58704,172.16.3.2,5101,35296,44985,0,64256,65728,6,6,4,1460,2412,1,992,113,82732,62460,65700,0,44888,0,0,0
o,0x00000000,1716771775.205512,172.16.1.2,58704,172.16.3.2,5101,35296,44985,0,64256,65728,6,6,4,1460,2403,1,992,110,82732,59564,65700,0,41992,0,0,0
o,0x00000000,1716771775.205602,172.16.1.2,58704,172.16.3.2,5101,35296,44985,0,64256,65728,6,6,4,1460,2403,1,992,110,82732,59564,65700,0,43440,0,0,0
i,0x00000000,1716771775.205810,172.16.1.2,58704,172.16.3.2,5101,35296,44985,0,64256,65728,6,6,4,1460,2403,1,992,110,82732,59564,65700,0,44888,0,0,0
o,0x00000000,1716771775.205813,172.16.1.2,58704,172.16.3.2,5101,35296,44985,0,64256,65728,6,6,4,1460,2395,1,992,108,82732,56668,65700,0,41992,0,0,0
o,0x00000000,1716771775.205890,172.16.1.2,58704,172.16.3.2,5101,35296,44985,0,64256,65728,6,6,4,1460,2395,1,992,108,82732,56668,65700,0,43440,0,0,0
i,0x00000000,1716771775.205978,172.16.1.2,58704,172.16.3.2,5101,35296,44985,0,64256,65728,6,6,4,1460,2395,1,992,108,82732,56668,65700,0,44888,0,0,0
o,0x00000000,1716771775.205981,172.16.1.2,58704,172.16.3.2,5101,35296,44985,0,64256,65728,6,6,4,1460,2388,1,992,106,82732,53772,65700,0,41992,0,0,0
o,0x00000000,1716771775.206066,172.16.1.2,58704,172.16.3.2,5101,35296,44985,0,64256,65728,6,6,4,1460,2388,1,992,106,82732,53772,65700,0,43440,0,0,0
i,0x00000000,1716771775.206161,172.16.1.2,58704,172.16.3.2,5101,35296,44985,0,64256,65728,6,6,4,1460,2388,1,992,106,82732,53772,65700,0,44888,0,0,0
o,0x00000000,1716771775.206165,172.16.1.2,58704,172.16.3.2,5101,35296,44985,0,64256,65728,6,6,4,1460,2382,1,992,105,82732,50876,65700,0,41992,0,0,0
o,0x00000000,1716771775.206271,172.16.1.2,58704,172.16.3.2,5101,35296,44985,0,64256,65728,6,6,4,1460,2382,1,992,105,82732,50876,65700,0,43440,0,0,0
i,0x00000000,1716771775.212680,172.16.1.2,58704,172.16.3.2,5101,35296,44985,0,64256,65728,6,6,4,1460,2382,1,992,105,82732,82732,65700,0,44888,0,0,0
o,0x00000000,1716771775.212687,172.16.1.2,58704,172.16.3.2,5101,35296,44985,0,64256,65728,6,6,4,1460,2377,1,992,103,82732,79836,65700,0,41992,0,0,0
o,0x00000000,1716771775.212925,172.16.1.2,58704,172.16.3.2,5101,35296,44985,0,64256,65728,6,6,4,1460,2377,1,992,103,82732,79836,65700,0,43440,0,0,0
i,0x00000000,1716771775.913163,172.16.1.2,58704,172.16.3.2,5101,35296,44985,0,64256,65728,6,6,4,1460,2377,1,992,103,82732,82732,65700,0,44888,0,0,0
o,0x00000000,1716771775.913184,172.16.1.2,58704,172.16.3.2,5101,35296,44985,0,65728,65728,6,6,4,1460,2496,1,992,135,82732,81284,65700,0,43440,0,0,0
i,0x00000000,1716771775.923117,172.16.1.2,58704,172.16.3.2,5101,35296,44985,0,65728,65728,6,6,4,1460,2496,1,992,135,82732,81284,65700,0,44888,0,0,0
o,0x00000000,1716771775.923125,172.16.1.2,58704,172.16.3.2,5101,35296,44985,0,65728,65728,6,6,4,1460,2488,1,992,127,82732,79836,65700,0,43440,0,0,0
i,0x00000000,1716771775.942963,172.16.1.2,58704,172.16.3.2,5101,35296,44985,0,65728,65728,6,6,4,1460,2488,1,992,127,82732,82732,65700,0,44888,0,0,0
o,0x00000000,1716771775.942982,172.16.1.2,58704,172.16.3.2,5101,35296,44985,0,64256,65728,6,6,4,1460,2477,1,992,122,82732,79836,65700,0,41992,0,0,0
o,0x00000000,1716771775.943255,172.16.1.2,58704,172.16.3.2,5101,35296,44985,0,64256,65728,6,6,4,1460,2477,1,992,122,82732,79836,65700,0,43440,0,0,0
i,0x00000000,1716771775.953340,172.16.1.2,58704,172.16.3.2,5101,35296,44985,0,64256,65728,6,6,4,1460,2477,1,992,122,82732,82732,65700,0,44888,0,0,0
o,0x00000000,1716771775.953348,172.16.1.2,58704,172.16.3.2,5101,35296,44985,0,64256,65728,6,6,4,1460,2472,1,992,117,82732,79836,65700,0,41992,0,0,0
o,0x00000000,1716771775.953431,172.16.1.2,58704,172.16.3.2,5101,35296,44985,0,64256,65728,6,6,4,1460,2472,1,992,117,82732,79836,65700,0,43440,0,0,0
i,0x00000000,1716771775.953517,172.16.1.2,58704,172.16.3.2,5101,35296,44985,0,64256,65728,6,6,4,1460,2472,1,992,117,82732,79836,65700,0,44888,0,0,0
o,0x00000000,1716771775.953520,172.16.1.2,58704,172.16.3.2,5101,35296,44985,0,64256,65728,6,6,4,1460,2463,1,992,114,82732,76940,65700,0,41992,0,0,0
o,0x00000000,1716771775.953610,172.16.1.2,58704,172.16.3.2,5101,35296,44985,0,64256,65728,6,6,4,1460,2463,1,992,114,82732,76940,65700,0,43440,0,0,0
i,0x00000000,1716771775.953691,172.16.1.2,58704,172.16.3.2,5101,35296,44985,0,64256,65728,6,6,4,1460,2463,1,992,114,82732,76940,65700,0,44888,0,0,0
o,0x00000000,1716771775.953694,172.16.1.2,58704,172.16.3.2,5101,35296,44985,0,64256,65728,6,6,4,1460,2456,1,992,111,82732,74044,65700,0,41992,0,0,0
o,0x00000000,1716771775.953768,172.16.1.2,58704,172.16.3.2,5101,35296,44985,0,64256,65728,6,6,4,1460,2456,1,992,111,82732,74044,65700,0,43440,0,0,0
i,0x00000000,1716771775.954053,172.16.1.2,58704,172.16.3.2,5101,35296,44985,0,64256,65728,6,6,4,1460,2456,1,992,111,82732,74044,65700,0,44888,0,0,0
o,0x00000000,1716771775.954056,172.16.1.2,58704,172.16.3.2,5101,35296,44985,0,64256,65728,6,6,4,1460,2449,1,992,109,82732,71148,65700,0,41992,0,0,0
o,0x00000000,1716771775.954132,172.16.1.2,58704,172.16.3.2,5101,35296,44985,0,64256,65728,6,6,4,1460,2449,1,992,109,82732,71148,65700,0,43440,0,0,0
i,0x00000000,1716771775.954413,172.16.1.2,58704,172.16.3.2,5101,35296,44985,0,64256,65728,6,6,4,1460,2449,1,992,109,82732,71148,65700,0,44888,0,0,0
o,0x00000000,1716771775.954416,172.16.1.2,58704,172.16.3.2,5101,35296,44985,0,64256,65728,6,6,4,1460,2443,1,992,107,82732,68252,65700,0,41992,0,0,0
