enable_time_secs=1723651090	enable_time_usecs=443913	siftrver=1.3.0	sysname=FreeBSD	sysver=1401000	ipmode=4
o,1723651090.444283,10.0.2.15,22,10.0.2.2,50504,1073725440,17746,1026,65535,65700,0,0,4,1460,312,0,16777220,240000,33580,172,65700,0,0,0,463913510,63
i,1723651090.445244,10.0.2.15,22,10.0.2.2,50504,1073725440,17746,1026,65535,65700,0,0,4,1460,312,0,16777220,240000,33580,172,65700,0,172,0,463913510,63
o,1723651090.445258,10.0.2.15,22,10.0.2.2,50504,1073725440,17746,1026,65535,65700,0,0,4,1460,312,0,16777220,240000,33580,244,65700,0,172,0,463913510,63
i,1723651090.446030,10.0.2.15,22,10.0.2.2,50504,1073725440,17918,1026,65535,65700,0,0,4,1460,312,0,4,240000,33580,72,65700,0,72,0,463913510,63
i,1723651090.446048,10.0.2.15,22,10.0.2.2,50504,1073725440,17990,1026,65535,65700,0,0,4,1460,312,0,4,240000,33580,0,65700,0,0,0,463913510,63
i,1723651090.446064,10.0.2.15,22,10.0.2.2,50504,1073725440,17990,1026,65535,65700,0,0,4,1460,312,0,4,240000,33580,0,65700,96,0,0,463913510,63
o,1723651090.446082,10.0.2.15,22,10.0.2.2,50504,1073725440,17990,1026,65535,65604,0,0,5,1460,312,0,5,240000,33580,0,65700,96,0,0,463913510,63
o,1723651090.446632,10.0.2.15,22,10.0.2.2,50504,1073725440,17990,1026,65535,65604,0,0,8,1460,312,0,4,240000,33580,0,65700,0,0,0,463913510,63
i,1723651090.447354,10.0.2.15,22,10.0.2.2,50504,1073725440,17990,1026,65535,65604,0,0,8,1460,312,0,67108884,240000,33580,0,65700,0,1,0,463913510,63
i,1723651092.740728,10.0.2.15,22,10.0.2.2,50522,1073725440,14600,0,65535,65700,0,0,4,1460,312,0,16777216,270000,33580,0,65700,0,0,0,2706587063,63
o,1723651092.751351,10.0.2.15,22,10.0.2.2,50522,1073725440,14600,1026,65535,65700,0,0,4,1460,312,0,16777216,270000,33580,38,65700,42,0,0,2706587063,63
i,1723651092.752258,10.0.2.15,22,10.0.2.2,50522,1073725440,14600,1026,65535,65700,0,0,4,1460,312,0,16777216,270000,33580,38,65700,0,38,0,2706587063,63
o,1723651092.753250,10.0.2.15,22,10.0.2.2,50522,1073725440,14638,1026,65535,65700,0,0,4,1460,312,0,16777216,230000,33580,1120,65700,0,0,0,2706587063,63
i,1723651092.755057,10.0.2.15,22,10.0.2.2,50522,1073725440,14638,1026,65535,65700,0,0,4,1460,312,0,16777216,230000,33580,1120,65700,0,1120,0,2706587063,63
i,1723651092.755075,10.0.2.15,22,10.0.2.2,50522,1073725440,14638,1026,65535,65700,0,0,4,1460,312,0,16777216,230000,33580,1120,65700,1460,1120,0,2706587063,63
o,1723651092.755091,10.0.2.15,22,10.0.2.2,50522,1073725440,14638,1026,65535,65700,0,0,4,1460,312,0,16777217,230000,33580,1120,65700,1536,1120,0,2706587063,63
i,1723651092.755185,10.0.2.15,22,10.0.2.2,50522,1073725440,14638,1026,65535,65700,0,0,4,1460,312,0,16777216,230000,33580,1120,65700,0,1120,0,2706587063,63
i,1723651092.756360,10.0.2.15,22,10.0.2.2,50522,1073725440,15758,1026,65535,65700,0,0,4,1460,312,0,0,230000,33580,0,65700,0,0,0,2706587063,63
o,1723651092.758897,10.0.2.15,22,10.0.2.2,50522,1073725440,15758,1026,65535,65700,0,0,4,1460,312,0,16777216,230000,33580,492,65700,0,0,0,2706587063,63
i,1723651092.759853,10.0.2.15,22,10.0.2.2,50522,1073725440,15758,1026,65535,65700,0,0,4,1460,312,0,16777216,230000,33580,492,65700,0,492,0,2706587063,63
i,1723651092.764297,10.0.2.15,22,10.0.2.2,50522,1073725440,16250,1026,65535,65700,0,0,4,1460,312,0,0,230000,33580,0,65700,0,0,0,2706587063,63
i,1723651092.764331,10.0.2.15,22,10.0.2.2,50522,1073725440,16250,1026,65535,65700,0,0,4,1460,312,0,0,230000,33580,0,65700,16,0,0,2706587063,63
o,1723651092.764360,10.0.2.15,22,10.0.2.2,50522,1073725440,16250,1026,65535,65700,0,0,4,1460,312,0,1,230000,33580,0,65700,60,0,0,2706587063,63
o,1723651092.764554,10.0.2.15,22,10.0.2.2,50522,1073725440,16250,1026,65535,65700,0,0,4,1460,312,0,16777216,230000,33580,44,65700,0,0,0,2706587063,63
i,1723651092.765622,10.0.2.15,22,10.0.2.2,50522,1073725440,16250,1026,65535,65700,0,0,4,1460,312,0,16777216,230000,33580,44,65700,0,44,0,2706587063,63
i,1723651092.765638,10.0.2.15,22,10.0.2.2,50522,1073725440,16294,1026,65535,65700,0,0,4,1460,312,0,0,230000,33580,0,65700,0,0,0,2706587063,63
o,1723651092.766800,10.0.2.15,22,10.0.2.2,50522,1073725440,16294,1026,65535,65700,0,0,4,1460,312,0,16777216,230000,33580,68,65700,0,0,0,2706587063,63
i,1723651092.767520,10.0.2.15,22,10.0.2.2,50522,1073725440,16294,1026,65535,65700,0,0,4,1460,312,0,16777216,230000,33580,68,65700,0,68,0,2706587063,63
i,1723651092.767538,10.0.2.15,22,10.0.2.2,50522,1073725440,16362,1026,65535,65700,0,0,4,1460,312,0,0,240000,33580,0,65700,0,0,0,2706587063,63
o,1723651092.768619,10.0.2.15,22,10.0.2.2,50522,1073725440,16362,1026,65535,65700,0,0,4,1460,312,0,16777216,240000,33580,332,65700,0,0,0,2706587063,63
i,1723651092.769409,10.0.2.15,22,10.0.2.2,50522,1073725440,16362,1026,65535,65700,0,0,4,1460,312,0,16777216,240000,33580,332,65700,0,332,0,2706587063,63
i,1723651092.770778,10.0.2.15,22,10.0.2.2,50522,1073725440,16694,1026,65535,65700,0,0,4,1460,312,0,0,240000,33580,0,65700,0,0,0,2706587063,63
o,1723651092.789737,10.0.2.15,22,10.0.2.2,50522,1073725440,16694,1026,65535,65700,0,0,4,1460,312,0,16777216,240000,33580,28,65700,0,0,0,2706587063,63
i,1723651092.790434,10.0.2.15,22,10.0.2.2,50522,1073725440,16694,1026,65535,65700,0,0,4,1460,312,0,16777216,240000,33580,28,65700,0,28,0,2706587063,63
i,1723651092.791112,10.0.2.15,22,10.0.2.2,50522,1073725440,16722,1026,65535,65700,0,0,4,1460,312,0,0,240000,33580,0,65700,0,0,0,2706587063,63
o,1723651092.792372,10.0.2.15,22,10.0.2.2,50522,1073725440,16722,1026,65535,65700,0,0,4,1460,312,0,16777216,240000,33580,768,65700,112,0,0,2706587063,63
i,1723651092.792717,10.0.2.15,22,10.0.2.2,50522,1073725440,16722,1026,65535,65700,0,0,4,1460,312,0,16777216,240000,33580,908,65700,0,768,0,2706587063,63
o,1723651092.792733,10.0.2.15,22,10.0.2.2,50522,1073725440,17490,1026,65535,65700,0,0,4,1460,312,0,16777216,240000,33580,140,65700,0,0,0,2706587063,63
i,1723651092.793539,10.0.2.15,22,10.0.2.2,50522,1073725440,17490,1026,65535,65700,0,0,4,1460,312,0,16777216,240000,33580,184,65700,0,140,0,2706587063,63
o,1723651092.793556,10.0.2.15,22,10.0.2.2,50522,1073725440,17630,1026,65535,65700,0,0,4,1460,312,0,16777216,240000,33580,44,65700,0,0,0,2706587063,63
i,1723651092.794167,10.0.2.15,22,10.0.2.2,50522,1073725440,17630,1026,65535,65700,0,0,4,1460,312,0,16777216,240000,33580,44,65700,0,44,0,2706587063,63
i,1723651092.794185,10.0.2.15,22,10.0.2.2,50522,1073725440,17674,1026,65535,65700,0,0,4,1460,312,0,0,240000,33580,0,65700,0,0,0,2706587063,63
o,1723651092.794631,10.0.2.15,22,10.0.2.2,50522,1073725440,17674,1026,65535,65700,0,0,4,1460,312,0,16777220,240000,33580,72,65700,0,0,0,2706587063,63
i,1723651092.795043,10.0.2.15,22,10.0.2.2,50522,1073725440,17674,1026,65535,65700,0,0,4,1460,312,0,16777220,240000,33580,72,65700,0,72,0,2706587063,63
o,1723651092.797582,10.0.2.15,22,10.0.2.2,50522,1073725440,17746,1026,65535,65700,0,0,4,1460,312,0,16777220,240000,33580,104,65700,0,0,0,2706587063,63
i,1723651092.798148,10.0.2.15,22,10.0.2.2,50522,1073725440,17746,1026,65535,65700,0,0,4,1460,312,0,16777220,240000,33580,104,65700,0,104,0,2706587063,63
o,1723651092.798423,10.0.2.15,22,10.0.2.2,50522,1073725440,17850,1026,65535,65700,0,0,4,1460,312,0,16777220,240000,33580,72,65700,0,0,0,2706587063,63
i,1723651092.799451,10.0.2.15,22,10.0.2.2,50522,1073725440,17850,1026,65535,65700,0,0,4,1460,312,0,16777220,240000,33580,72,65700,0,72,0,2706587063,63
i,1723651092.799495,10.0.2.15,22,10.0.2.2,50522,1073725440,17922,1026,65535,65700,0,0,4,1460,312,0,4,240000,33580,0,65700,0,0,0,2706587063,63
i,1723651092.799561,10.0.2.15,22,10.0.2.2,50522,1073725440,17922,1026,65535,65700,0,0,4,1460,312,0,4,240000,33580,0,65700,96,0,0,2706587063,63
o,1723651092.799578,10.0.2.15,22,10.0.2.2,50522,1073725440,17922,1026,65535,65604,0,0,5,1460,312,0,5,240000,33580,0,65700,96,0,0,2706587063,63
o,1723651092.804915,10.0.2.15,22,10.0.2.2,50522,1073725440,17922,1026,65535,65604,0,0,8,1460,312,0,4,240000,33580,0,65700,0,0,0,2706587063,63
i,1723651092.807143,10.0.2.15,22,10.0.2.2,50522,1073725440,17922,1026,65535,65604,0,0,8,1460,312,0,67108884,240000,33580,0,65700,0,1,0,2706587063,63
i,1723651094.955645,10.0.2.15,22,10.0.2.2,50526,1073725440,18862,1026,65535,65700,0,0,4,1460,0,0,4,230000,33580,0,65700,0,0,0,153570369,63
i,1723651094.992316,10.0.2.15,22,10.0.2.2,50526,1073725440,14600,0,65535,65700,0,0,4,1460,312,0,16777216,270000,33580,0,65700,0,0,0,153570369,63
o,1723651095.002670,10.0.2.15,22,10.0.2.2,50526,1073725440,14600,1026,65535,65700,0,0,4,1460,312,0,16777216,270000,33580,38,65700,42,0,0,153570369,63
i,1723651095.003775,10.0.2.15,22,10.0.2.2,50526,1073725440,14600,1026,65535,65700,0,0,4,1460,312,0,16777216,270000,33580,38,65700,0,38,0,153570369,63
i,1723651095.003797,10.0.2.15,22,10.0.2.2,50526,1073725440,14638,1026,65535,65700,0,0,4,1460,312,0,0,240000,33580,0,65700,0,0,0,153570369,63
i,1723651095.003820,10.0.2.15,22,10.0.2.2,50526,1073725440,14638,1026,65535,65700,0,0,4,1460,312,0,0,240000,33580,0,65700,1460,0,0,153570369,63
o,1723651095.003837,10.0.2.15,22,10.0.2.2,50526,1073725440,14638,1026,65535,65700,0,0,4,1460,312,0,1,240000,33580,0,65700,1536,0,0,153570369,63
o,1723651095.005006,10.0.2.15,22,10.0.2.2,50526,1073725440,14638,1026,65535,65700,0,0,4,1460,312,0,16777216,240000,33580,1120,65700,1536,0,0,153570369,63
i,1723651095.005658,10.0.2.15,22,10.0.2.2,50526,1073725440,14638,1026,65535,65700,0,0,4,1460,312,0,16777216,240000,33580,1120,65700,0,1120,0,153570369,63
i,1723651095.006687,10.0.2.15,22,10.0.2.2,50526,1073725440,15758,1026,65535,65700,0,0,4,1460,312,0,0,240000,33580,0,65700,0,0,0,153570369,63
o,1723651095.010146,10.0.2.15,22,10.0.2.2,50526,1073725440,15758,1026,65535,65700,0,0,4,1460,312,0,16777216,240000,33580,492,65700,0,0,0,153570369,63
i,1723651095.010975,10.0.2.15,22,10.0.2.2,50526,1073725440,15758,1026,65535,65700,0,0,4,1460,312,0,16777216,240000,33580,492,65700,0,492,0,153570369,63
i,1723651095.015193,10.0.2.15,22,10.0.2.2,50526,1073725440,16250,1026,65535,65700,0,0,4,1460,312,0,0,240000,33580,0,65700,0,0,0,153570369,63
i,1723651095.015243,10.0.2.15,22,10.0.2.2,50526,1073725440,16250,1026,65535,65700,0,0,4,1460,312,0,0,240000,33580,0,65700,16,0,0,153570369,63
o,1723651095.015288,10.0.2.15,22,10.0.2.2,50526,1073725440,16250,1026,65535,65700,0,0,4,1460,312,0,1,240000,33580,0,65700,60,0,0,153570369,63
o,1723651095.015516,10.0.2.15,22,10.0.2.2,50526,1073725440,16250,1026,65535,65700,0,0,4,1460,312,0,16777216,240000,33580,44,65700,0,0,0,153570369,63
i,1723651095.016541,10.0.2.15,22,10.0.2.2,50526,1073725440,16250,1026,65535,65700,0,0,4,1460,312,0,16777216,240000,33580,44,65700,0,44,0,153570369,63
i,1723651095.016565,10.0.2.15,22,10.0.2.2,50526,1073725440,16294,1026,65535,65700,0,0,4,1460,312,0,0,240000,33580,0,65700,0,0,0,153570369,63
o,1723651095.018646,10.0.2.15,22,10.0.2.2,50526,1073725440,16294,1026,65535,65700,0,0,4,1460,312,0,16777216,240000,33580,68,65700,0,0,0,153570369,63
i,1723651095.019353,10.0.2.15,22,10.0.2.2,50526,1073725440,16294,1026,65535,65700,0,0,4,1460,312,0,16777216,240000,33580,68,65700,0,68,0,153570369,63
i,1723651095.019370,10.0.2.15,22,10.0.2.2,50526,1073725440,16362,1026,65535,65700,0,0,4,1460,312,0,0,240000,33580,0,65700,0,0,0,153570369,63
o,1723651095.021166,10.0.2.15,22,10.0.2.2,50526,1073725440,16362,1026,65535,65700,0,0,4,1460,312,0,16777216,240000,33580,332,65700,0,0,0,153570369,63
i,1723651095.021507,10.0.2.15,22,10.0.2.2,50526,1073725440,16362,1026,65535,65700,0,0,4,1460,312,0,16777216,240000,33580,332,65700,0,332,0,153570369,63
i,1723651095.023124,10.0.2.15,22,10.0.2.2,50526,1073725440,16694,1026,65535,65700,0,0,4,1460,312,0,0,240000,33580,0,65700,0,0,0,153570369,63
o,1723651095.041127,10.0.2.15,22,10.0.2.2,50526,1073725440,16694,1026,65535,65700,0,0,4,1460,312,0,16777216,240000,33580,28,65700,0,0,0,153570369,63
i,1723651095.041966,10.0.2.15,22,10.0.2.2,50526,1073725440,16694,1026,65535,65700,0,0,4,1460,312,0,16777216,240000,33580,28,65700,0,28,0,153570369,63
i,1723651095.041995,10.0.2.15,22,10.0.2.2,50526,1073725440,16722,1026,65535,65700,0,0,4,1460,312,0,0,240000,33580,0,65700,0,0,0,153570369,63
o,1723651095.045259,10.0.2.15,22,10.0.2.2,50526,1073725440,16722,1026,65535,65700,0,0,4,1460,312,0,16777216,240000,33580,768,65700,112,0,0,153570369,63
i,1723651095.046254,10.0.2.15,22,10.0.2.2,50526,1073725440,16722,1026,65535,65700,0,0,4,1460,312,0,16777216,240000,33580,908,65700,112,768,0,153570369,63
o,1723651095.046297,10.0.2.15,22,10.0.2.2,50526,1073725440,17490,1026,65535,65700,0,0,4,1460,312,0,16777216,240000,33580,140,65700,112,0,0,153570369,63
i,1723651095.046726,10.0.2.15,22,10.0.2.2,50526,1073725440,17490,1026,65535,65700,0,0,4,1460,312,0,16777216,240000,33580,140,65700,112,140,0,153570369,63
o,1723651095.047068,10.0.2.15,22,10.0.2.2,50526,1073725440,17630,1026,65535,65700,0,0,4,1460,312,0,16777216,240000,33580,44,65700,0,0,0,153570369,63
i,1723651095.047813,10.0.2.15,22,10.0.2.2,50526,1073725440,17630,1026,65535,65700,0,0,4,1460,312,0,16777216,240000,33580,44,65700,0,44,0,153570369,63
i,1723651095.047829,10.0.2.15,22,10.0.2.2,50526,1073725440,17674,1026,65535,65700,0,0,4,1460,312,0,0,240000,33580,0,65700,0,0,0,153570369,63
o,1723651095.048703,10.0.2.15,22,10.0.2.2,50526,1073725440,17674,1026,65535,65700,0,0,4,1460,312,0,16777220,240000,33580,72,65700,0,0,0,153570369,63
i,1723651095.048921,10.0.2.15,22,10.0.2.2,50526,1073725440,17674,1026,65535,65700,0,0,4,1460,312,0,16777220,240000,33580,72,65700,0,72,0,153570369,63
i,1723651095.048921,10.0.2.15,22,10.0.2.2,50526,1073725440,17746,1026,65535,65700,0,0,4,1460,312,0,4,240000,33580,0,65700,0,0,0,153570369,63
o,1723651095.084006,10.0.2.15,22,10.0.2.2,50526,1073725440,17746,1026,65535,65700,0,0,4,1460,312,0,5,240000,33580,0,65700,0,0,0,153570369,63
o,1723651095.168242,172.16.3.2,14462,172.16.1.2,5101,24843,14480,34,65535,65700,6,6,4,1460,237187,1,16778209,800000,33580,0,65700,0,0,0,1711883887,63
o,1723651095.168472,172.16.3.2,14462,172.16.1.2,5101,24843,14480,34,65535,65700,6,6,4,1460,237187,1,16778212,800000,33580,37,65700,0,0,0,1711883887,63
i,1723651095.287727,172.16.3.2,14462,172.16.1.2,5101,24843,14480,34,65535,65700,6,6,4,1460,237187,1,16778212,800000,33580,37,65700,0,37,0,1711883887,63
o,1723651095.288269,172.16.3.2,14462,172.16.1.2,5101,24843,14517,1058,65728,65728,6,6,4,1460,222812,1,16778212,810000,33580,4,65700,0,0,0,1711883887,63
o,1723651095.288522,172.16.3.2,14462,172.16.1.2,5101,24843,14517,1058,65728,65728,6,6,4,1460,222812,1,16778212,810000,33580,130,65700,0,4,0,1711883887,63
i,1723651095.412948,172.16.3.2,14462,172.16.1.2,5101,24843,14517,1058,65728,65728,6,6,4,1460,222812,1,16778212,810000,33580,130,65700,0,130,0,1711883887,63
i,1723651095.412989,172.16.3.2,14462,172.16.1.2,5101,24843,14647,1058,65600,65728,6,6,4,1460,210000,1,996,800000,33580,0,65700,0,0,0,1711883887,63
o,1723651095.455787,172.16.3.2,14462,172.16.1.2,5101,24843,14647,1058,65728,65728,6,6,4,1460,210000,1,997,800000,33580,0,65700,0,0,0,1711883887,63
o,1723651095.519823,172.16.3.2,11044,172.16.1.2,5101,24843,14480,34,65535,65700,6,6,4,1460,235937,1,16778209,810000,33580,0,65700,0,0,0,3407129148,63
o,1723651095.520376,172.16.3.2,11044,172.16.1.2,5101,24843,14480,34,65535,65700,6,6,4,1460,235937,1,16778208,810000,33580,37,65700,0,0,0,3407129148,63
i,1723651095.644614,172.16.3.2,14462,172.16.1.2,5101,24843,14647,1058,65728,65728,6,6,4,1460,210000,1,996,800000,33580,0,65700,0,0,0,1711883887,63
i,1723651095.644706,172.16.3.2,14462,172.16.1.2,5101,24843,14647,1058,65728,65728,6,6,4,1460,210000,1,996,800000,33580,0,65700,1,0,0,1711883887,63
o,1723651095.644729,172.16.3.2,14462,172.16.1.2,5101,24843,14647,1058,65728,65728,6,6,4,1460,210000,1,997,800000,33580,0,65700,2,0,0,1711883887,63
o,1723651095.645396,172.16.3.2,11044,172.16.1.2,5101,24843,14480,38,65535,65700,6,6,4,1460,235937,1,16778208,810000,33580,33580,65700,0,37,0,3407129148,63
i,1723651095.700747,172.16.3.2,11044,172.16.1.2,5101,24843,14480,38,65535,65700,6,6,4,1460,235937,1,16778208,810000,33580,33580,65700,0,13069,0,3407129148,63
o,1723651095.700836,172.16.3.2,11044,172.16.1.2,5101,24843,14517,38,65728,65728,6,6,4,1460,227812,1,16778208,770000,33580,33543,65700,0,13032,0,3407129148,63
i,1723651095.965934,172.16.3.2,11044,172.16.1.2,5101,24843,14517,38,65728,65728,6,6,4,1460,227812,1,16778208,770000,33580,33543,65700,0,14480,0,3407129148,63
o,1723651095.966029,172.16.3.2,11044,172.16.1.2,5101,7240,13032,34,64256,65728,6,6,4,1460,239375,1,553649120,790000,33580,30647,65700,0,11584,0,3407129148,63
i,1723651096.037862,172.16.3.2,11044,172.16.1.2,5101,7240,13032,34,64256,65728,6,6,4,1460,239375,1,553649120,790000,33580,33580,65700,0,13032,0,3407129148,63
o,1723651096.038194,172.16.3.2,11044,172.16.1.2,5101,7240,11584,34,64256,65728,6,6,4,1460,258437,1,553649120,870000,33580,30684,65700,0,10136,0,3407129148,63
i,1723651096.089310,172.16.3.2,11044,172.16.1.2,5101,7240,11584,34,64256,65728,6,6,4,1460,258437,1,553649120,870000,33580,33580,65700,0,11584,0,3407129148,63
o,1723651096.089563,172.16.3.2,11044,172.16.1.2,5101,7240,10136,34,64256,65728,6,6,4,1460,281250,1,553649120,970000,33580,30684,65700,0,8688,0,3407129148,63
i,1723651096.139903,172.16.3.2,11044,172.16.1.2,5101,7240,10136,34,64256,65728,6,6,4,1460,281250,1,553649120,970000,33580,33580,65700,0,10136,0,3407129148,63
o,1723651096.140039,172.16.3.2,11044,172.16.1.2,5101,7240,8688,34,64256,65728,6,6,4,1460,306250,1,553649120,1080000,33580,30684,65700,0,7240,0,3407129148,63
i,1723651096.188450,172.16.3.2,11044,172.16.1.2,5101,7240,8688,34,64256,65728,6,6,4,1460,306250,1,553649120,1080000,33580,33580,65700,0,8688,0,3407129148,63
o,1723651096.188576,172.16.3.2,11044,172.16.1.2,5101,7240,7240,34,64256,65728,6,6,4,1460,334375,1,553649120,1190000,33580,30684,65700,0,5792,0,3407129148,63
i,1723651096.308394,172.16.3.2,11044,172.16.1.2,5101,7240,7240,34,64256,65728,6,6,4,1460,334375,1,553649120,1190000,33580,33580,65700,0,7240,0,3407129148,63
i,1723651096.367743,172.16.3.2,11044,172.16.1.2,5101,2896,5792,98,65728,65728,6,6,4,1460,334062,1,553649120,1030000,33580,32132,65700,0,5792,0,3407129148,63
i,1723651096.398880,172.16.3.2,11044,172.16.1.2,5101,2896,4344,98,65728,65728,6,6,4,1460,332500,1,553649120,920000,33580,33580,65700,0,4344,0,3407129148,63
i,1723651096.458066,172.16.3.2,11044,172.16.1.2,5101,2896,1448,98,64256,65728,6,6,4,1460,328437,1,553649120,850000,33580,33580,65700,0,1448,0,3407129148,63
o,1723651096.458173,172.16.3.2,11044,172.16.1.2,5101,2896,1448,34,65728,65728,6,6,4,1460,321250,1,553649120,820000,33580,32132,65700,0,0,0,3407129148,63
i,1723651096.608285,172.16.3.2,11044,172.16.1.2,5101,2896,1448,34,65728,65728,6,6,4,1460,321250,1,553649120,820000,33580,32132,65700,0,1448,0,3407129148,63
o,1723651096.608405,172.16.3.2,11044,172.16.1.2,5101,2896,1448,34,65728,65728,6,6,4,1460,300000,1,16778208,890000,33580,30684,65700,0,0,0,3407129148,63
i,1723651096.826521,172.16.3.2,11044,172.16.1.2,5101,2896,1448,34,65728,65728,6,6,4,1460,300000,1,16778208,890000,33580,33580,65700,0,1448,0,3407129148,63
o,1723651096.826651,172.16.3.2,11044,172.16.1.2,5101,2896,2896,38,65728,65728,6,6,4,1460,290000,1,16778208,870000,33580,32132,65700,0,0,0,3407129148,63
o,1723651096.826793,172.16.3.2,11044,172.16.1.2,5101,2896,2896,34,65728,65728,6,6,4,1460,290000,1,16778208,870000,33580,32132,65700,0,1448,0,3407129148,63
i,1723651096.988653,172.16.3.2,11044,172.16.1.2,5101,2896,2896,34,65728,65728,6,6,4,1460,290000,1,16778208,870000,33580,32132,65700,0,2896,0,3407129148,63
o,1723651096.988700,172.16.3.2,11044,172.16.1.2,5101,2896,5792,38,64256,65728,6,6,4,1460,273750,1,16778208,880000,33580,29236,65700,0,0,0,3407129148,63
o,1723651096.988908,172.16.3.2,11044,172.16.1.2,5101,2896,5792,38,64256,65728,6,6,4,1460,273750,1,16778208,880000,33580,29236,65700,0,1448,0,3407129148,63
i,1723651097.220356,172.16.3.2,11044,172.16.1.2,5101,2896,5792,38,64256,65728,6,6,4,1460,273750,1,16778208,880000,33580,33580,65700,0,5792,0,3407129148,63
o,1723651097.220524,172.16.3.2,11044,172.16.1.2,5101,2896,4344,34,64256,65728,6,6,4,1460,268437,1,553649120,820000,33580,30684,65700,0,2896,0,3407129148,63
i,1723651097.271983,172.16.3.2,11044,172.16.1.2,5101,2896,4344,34,64256,65728,6,6,4,1460,268437,1,553649120,820000,33580,33580,65700,0,4344,0,3407129148,63
i,1723651097.349188,172.16.3.2,11044,172.16.1.2,5101,2896,1448,34,64256,65728,6,6,4,1460,270000,1,553649120,750000,33580,33580,65700,0,1448,0,3407129148,63
o,1723651097.349297,172.16.3.2,11044,172.16.1.2,5101,2896,1448,34,65728,65728,6,6,4,1460,252500,1,16778208,800000,33580,32132,65700,0,0,0,3407129148,63
i,1723651097.527675,172.16.3.2,11044,172.16.1.2,5101,2896,1448,34,65728,65728,6,6,4,1460,252500,1,16778208,800000,33580,32132,65700,0,1448,0,3407129148,63
o,1723651097.527950,172.16.3.2,11044,172.16.1.2,5101,2896,2896,38,65728,65728,6,6,4,1460,243437,1,16778208,770000,33580,30684,65700,0,0,0,3407129148,63
o,1723651097.528621,172.16.3.2,11044,172.16.1.2,5101,2896,2896,34,65728,65728,6,6,4,1460,243437,1,16778208,770000,33580,30684,65700,0,1448,0,3407129148,63
i,1723651097.688186,172.16.3.2,11044,172.16.1.2,5101,2896,2896,34,65728,65728,6,6,4,1460,243437,1,16778208,770000,33580,33580,65700,0,2896,0,3407129148,63
o,1723651097.688267,172.16.3.2,11044,172.16.1.2,5101,2896,5792,38,64256,65728,6,6,4,1460,231875,1,16778208,770000,33580,30684,65700,0,0,0,3407129148,63
o,1723651097.688402,172.16.3.2,11044,172.16.1.2,5101,2896,5792,38,64256,65728,6,6,4,1460,231875,1,16778208,770000,33580,30684,65700,0,1448,0,3407129148,63
i,1723651097.919244,172.16.3.2,11044,172.16.1.2,5101,2896,5792,38,64256,65728,6,6,4,1460,231875,1,16778208,770000,33580,33580,65700,0,5792,0,3407129148,63
o,1723651097.919391,172.16.3.2,11044,172.16.1.2,5101,2896,5792,38,64256,65728,6,6,4,1460,231875,1,16778208,690000,33580,30684,65700,0,2896,0,3407129148,63
o,1723651097.919551,172.16.3.2,11044,172.16.1.2,5101,2896,5792,34,64256,65728,6,6,4,1460,231875,1,16778208,690000,33580,30684,65700,0,4344,0,3407129148,63
i,1723651097.988647,172.16.3.2,11044,172.16.1.2,5101,2896,5792,34,64256,65728,6,6,4,1460,231875,1,16778208,690000,33580,33580,65700,0,5792,0,3407129148,63
o,1723651097.988719,172.16.3.2,11044,172.16.1.2,5101,2896,7252,38,64256,65728,6,6,4,1460,240625,1,16778208,700000,33580,30684,65700,0,2896,0,3407129148,63
i,1723651098.099907,172.16.3.2,11044,172.16.1.2,5101,2896,7252,38,64256,65728,6,6,4,1460,240625,1,16778208,700000,33580,33580,65700,0,7240,0,3407129148,63
o,1723651098.100053,172.16.3.2,11044,172.16.1.2,5101,2896,7252,38,64256,65728,6,6,4,1460,233125,1,16778208,690000,33580,30684,65700,0,4344,0,3407129148,63
o,1723651098.100270,172.16.3.2,11044,172.16.1.2,5101,2896,7252,38,64256,65728,6,6,4,1460,233125,1,16778208,690000,33580,30684,65700,0,5792,0,3407129148,63
i,1723651098.224845,172.16.3.2,11044,172.16.1.2,5101,2896,7252,38,64256,65728,6,6,4,1460,233125,1,16778208,690000,33580,33580,65700,0,7240,0,3407129148,63
o,1723651098.224885,172.16.3.2,11044,172.16.1.2,5101,2896,7252,38,64256,65728,6,6,4,1460,234062,1,16778208,630000,33580,30684,65700,0,4344,0,3407129148,63
i,1723651098.318975,172.16.3.2,11044,172.16.1.2,5101,2896,7252,38,64256,65728,6,6,4,1460,234062,1,16778208,630000,33580,33580,65700,0,7240,0,3407129148,63
o,1723651098.319121,172.16.3.2,11044,172.16.1.2,5101,2896,8712,38,64256,65728,6,6,4,1460,246250,1,16778208,690000,33580,30684,65700,0,4344,0,3407129148,63
o,1723651098.319452,172.16.3.2,11044,172.16.1.2,5101,2896,8712,38,64256,65728,6,6,4,1460,246250,1,16778208,690000,33580,30684,65700,0,5792,0,3407129148,63
i,1723651098.368975,172.16.3.2,11044,172.16.1.2,5101,2896,8712,38,64256,65728,6,6,4,1460,246250,1,16778208,690000,33580,33580,65700,0,8688,0,3407129148,63
o,1723651098.369153,172.16.3.2,11044,172.16.1.2,5101,2896,8712,38,65728,65728,6,6,4,1460,249375,1,16778208,660000,33580,32132,65700,0,7240,0,3407129148,63
i,1723651098.462531,172.16.3.2,11044,172.16.1.2,5101,2896,8712,38,65728,65728,6,6,4,1460,249375,1,16778208,660000,33580,32132,65700,0,8688,0,3407129148,63
o,1723651098.462566,172.16.3.2,11044,172.16.1.2,5101,2896,8712,38,65728,65728,6,6,4,1460,247187,1,16778208,620000,33580,30684,65700,0,7240,0,3407129148,63
i,1723651098.538241,172.16.3.2,11044,172.16.1.2,5101,2896,8712,38,65728,65728,6,6,4,1460,247187,1,16778208,620000,33580,33580,65700,0,8688,0,3407129148,63
o,1723651098.538369,172.16.3.2,11044,172.16.1.2,5101,2896,8712,38,65728,65728,6,6,4,1460,254062,1,16778208,640000,33580,32132,65700,0,7240,0,3407129148,63
i,1723651098.587896,172.16.3.2,11044,172.16.1.2,5101,2896,8712,38,65728,65728,6,6,4,1460,254062,1,16778208,640000,33580,32132,65700,0,8688,0,3407129148,63
o,1723651098.587995,172.16.3.2,11044,172.16.1.2,5101,4344,7240,34,64256,65728,6,6,4,1460,255000,1,553649120,600000,33580,29236,65700,0,5792,0,3407129148,63
i,1723651098.639042,172.16.3.2,11044,172.16.1.2,5101,4344,7240,34,64256,65728,6,6,4,1460,255000,1,553649120,600000,33580,33580,65700,0,7240,0,3407129148,63
i,1723651098.687870,172.16.3.2,11044,172.16.1.2,5101,4344,5792,34,65728,65728,6,6,4,1460,261875,1,553649120,620000,33580,32132,65700,0,5792,0,3407129148,63
o,1723651098.687961,172.16.3.2,11044,172.16.1.2,5101,4344,5792,34,65728,65728,6,6,4,1460,269375,1,553649120,650000,33580,30684,65700,0,4344,0,3407129148,63
i,1723651098.738475,172.16.3.2,11044,172.16.1.2,5101,4344,5792,34,65728,65728,6,6,4,1460,269375,1,553649120,650000,33580,33580,65700,0,5792,0,3407129148,63
i,1723651098.804052,172.16.3.2,11044,172.16.1.2,5101,4344,4344,34,65728,65728,6,6,4,1460,269687,1,553649120,610000,33580,32132,65700,0,4344,0,3407129148,63
o,1723651098.804163,172.16.3.2,11044,172.16.1.2,5101,4344,4344,38,64256,65728,6,6,4,1460,270000,1,16778208,580000,33580,29236,65700,0,1448,0,3407129148,63
o,1723651098.804397,172.16.3.2,11044,172.16.1.2,5101,4344,4344,34,64256,65728,6,6,4,1460,270000,1,16778208,580000,33580,29236,65700,0,2896,0,3407129148,63
i,1723651098.914950,172.16.3.2,11044,172.16.1.2,5101,4344,4344,34,64256,65728,6,6,4,1460,270000,1,16778208,580000,33580,33580,65700,0,4344,0,3407129148,63
o,1723651098.915080,172.16.3.2,11044,172.16.1.2,5101,4344,5792,38,65728,65728,6,6,4,1460,265000,1,16778208,590000,33580,32132,65700,0,2896,0,3407129148,63
i,1723651098.968837,172.16.3.2,11044,172.16.1.2,5101,4344,5792,38,65728,65728,6,6,4,1460,265000,1,16778208,590000,33580,32132,65700,0,5792,0,3407129148,63
o,1723651098.968997,172.16.3.2,11044,172.16.1.2,5101,4344,5792,38,64256,65728,6,6,4,1460,251875,1,16778208,650000,33580,29236,65700,0,2896,0,3407129148,63
o,1723651098.969306,172.16.3.2,11044,172.16.1.2,5101,4344,5792,34,64256,65728,6,6,4,1460,251875,1,16778208,650000,33580,29236,65700,0,4344,0,3407129148,63
i,1723651099.078664,172.16.3.2,11044,172.16.1.2,5101,4344,5792,34,64256,65728,6,6,4,1460,251875,1,16778208,650000,33580,33580,65700,0,5792,0,3407129148,63
o,1723651099.078764,172.16.3.2,11044,172.16.1.2,5101,4344,7252,38,64256,65728,6,6,4,1460,239375,1,16778208,680000,33580,30684,65700,0,2896,0,3407129148,63
i,1723651099.160083,172.16.3.2,11044,172.16.1.2,5101,4344,7252,38,64256,65728,6,6,4,1460,239375,1,16778208,680000,33580,33580,65700,0,7240,0,3407129148,63
o,1723651099.160222,172.16.3.2,11044,172.16.1.2,5101,4344,7252,38,64256,65728,6,6,4,1460,233437,1,16778208,660000,33580,30684,65700,0,4344,0,3407129148,63
o,1723651099.160856,172.16.3.2,11044,172.16.1.2,5101,4344,7252,38,64256,65728,6,6,4,1460,233437,1,16778208,660000,33580,30684,65700,0,5792,0,3407129148,63
i,1723651099.288263,172.16.3.2,11044,172.16.1.2,5101,4344,7252,38,64256,65728,6,6,4,1460,233437,1,16778208,660000,33580,33580,65700,0,7240,0,3407129148,63
o,1723651099.288356,172.16.3.2,11044,172.16.1.2,5101,4344,7252,38,64256,65728,6,6,4,1460,230625,1,16778208,630000,33580,30684,65700,0,4344,0,3407129148,63
i,1723651099.379759,172.16.3.2,11044,172.16.1.2,5101,4344,7252,38,64256,65728,6,6,4,1460,230625,1,16778208,630000,33580,33580,65700,0,7240,0,3407129148,63
o,1723651099.379856,172.16.3.2,11044,172.16.1.2,5101,4344,8712,38,64256,65728,6,6,4,1460,239375,1,16778208,650000,33580,30684,65700,0,4344,0,3407129148,63
o,1723651099.380025,172.16.3.2,11044,172.16.1.2,5101,4344,8712,38,64256,65728,6,6,4,1460,239375,1,16778208,650000,33580,30684,65700,0,5792,0,3407129148,63
i,1723651099.455813,172.16.3.2,11044,172.16.1.2,5101,4344,8712,38,64256,65728,6,6,4,1460,239375,1,16778208,650000,33580,33580,65700,0,8688,0,3407129148,63
o,1723651099.456042,172.16.3.2,11044,172.16.1.2,5101,4344,8712,38,65728,65728,6,6,4,1460,247187,1,16778208,670000,33580,32132,65700,0,7240,0,3407129148,63
i,1723651099.519496,172.16.3.2,11044,172.16.1.2,5101,4344,8712,38,65728,65728,6,6,4,1460,247187,1,16778208,670000,33580,32132,65700,0,8688,0,3407129148,63
o,1723651099.519530,172.16.3.2,11044,172.16.1.2,5101,4344,8712,38,65728,65728,6,6,4,1460,245312,1,16778208,630000,33580,30684,65700,0,7240,0,3407129148,63
i,1723651099.607518,172.16.3.2,11044,172.16.1.2,5101,4344,8712,38,65728,65728,6,6,4,1460,245312,1,16778208,630000,33580,33580,65700,0,8688,0,3407129148,63
o,1723651099.607606,172.16.3.2,11044,172.16.1.2,5101,4344,7240,34,64256,65728,6,6,4,1460,254687,1,553649120,670000,33580,30684,65700,0,5792,0,3407129148,63
i,1723651099.678707,172.16.3.2,11044,172.16.1.2,5101,4344,7240,34,64256,65728,6,6,4,1460,254687,1,553649120,670000,33580,33580,65700,0,7240,0,3407129148,63
o,1723651099.678804,172.16.3.2,11044,172.16.1.2,5101,4344,5792,34,64256,65728,6,6,4,1460,260625,1,553649120,670000,33580,30684,65700,0,4344,0,3407129148,63
i,1723651099.762942,172.16.3.2,11044,172.16.1.2,5101,4344,5792,34,64256,65728,6,6,4,1460,260625,1,553649120,670000,33580,33580,65700,0,5792,0,3407129148,63
i,1723651099.828483,172.16.3.2,11044,172.16.1.2,5101,4344,4344,34,65728,65728,6,6,4,1460,265625,1,553649120,660000,33580,32132,65700,0,4344,0,3407129148,63
i,1723651099.828537,172.16.3.2,11044,172.16.1.2,5101,4344,2896,34,65728,65728,6,6,4,1460,270000,1,553649120,650000,33580,30684,65700,0,2896,0,3407129148,63
o,1723651099.828570,172.16.3.2,11044,172.16.1.2,5101,4344,2896,34,65728,65728,6,6,4,1460,263750,1,16778208,650000,33580,29236,65700,0,1448,0,3407129148,63
i,1723651099.877195,172.16.3.2,11044,172.16.1.2,5101,4344,2896,34,65728,65728,6,6,4,1460,263750,1,16778208,650000,33580,33580,65700,0,2896,0,3407129148,63
o,1723651099.879352,172.16.3.2,11044,172.16.1.2,5101,4344,4344,38,65728,65728,6,6,4,1460,255937,1,16778208,660000,33580,32132,65700,0,1448,0,3407129148,63
i,1723651100.017352,172.16.3.2,11044,172.16.1.2,5101,4344,4344,38,65728,65728,6,6,4,1460,255937,1,16778208,660000,33580,32608,65700,0,4344,0,3407129148,63
o,1723651100.017594,172.16.3.2,11044,172.16.1.2,5101,4344,5792,38,65728,65728,6,6,4,1460,247812,1,16778208,660000,33580,31160,65700,0,2896,0,3407129148,63
o,1723651100.017989,172.16.3.2,11044,172.16.1.2,5101,4344,5792,34,65728,65728,6,6,4,1460,247812,1,16778208,660000,33580,31160,65700,0,4344,0,3407129148,63
i,1723651100.080898,172.16.3.2,11044,172.16.1.2,5101,4344,5792,34,65728,65728,6,6,4,1460,247812,1,16778208,660000,33580,33580,65700,0,5792,0,3407129148,63
o,1723651100.081048,172.16.3.2,11044,172.16.1.2,5101,4344,5792,38,64256,65728,6,6,4,1460,241875,1,16778208,650000,33580,30684,65700,0,2896,0,3407129148,63
i,1723651100.202992,172.16.3.2,11044,172.16.1.2,5101,4344,5792,38,64256,65728,6,6,4,1460,241875,1,16778208,650000,33580,33580,65700,0,5792,0,3407129148,63
o,1723651100.203027,172.16.3.2,11044,172.16.1.2,5101,4344,7252,38,64256,65728,6,6,4,1460,235625,1,16778208,640000,33580,30684,65700,0,2896,0,3407129148,63
o,1723651100.203163,172.16.3.2,11044,172.16.1.2,5101,4344,7252,38,64256,65728,6,6,4,1460,235625,1,16778208,640000,33580,30684,65700,0,4344,0,3407129148,63
i,1723651100.268148,172.16.3.2,11044,172.16.1.2,5101,4344,7252,38,64256,65728,6,6,4,1460,235625,1,16778208,640000,33580,33580,65700,0,7240,0,3407129148,63
o,1723651100.268238,172.16.3.2,11044,172.16.1.2,5101,4344,7252,38,64256,65728,6,6,4,1460,230000,1,16778208,630000,33580,30684,65700,0,4344,0,3407129148,63
i,1723651100.409438,172.16.3.2,11044,172.16.1.2,5101,4344,7252,38,64256,65728,6,6,4,1460,230000,1,16778208,630000,33580,33580,65700,0,7240,0,3407129148,63
o,1723651100.409519,172.16.3.2,11044,172.16.1.2,5101,4344,7252,38,64256,65728,6,6,4,1460,226250,1,16778208,600000,33580,30684,65700,0,4344,0,3407129148,63
o,1723651100.409810,172.16.3.2,11044,172.16.1.2,5101,4344,7252,38,64256,65728,6,6,4,1460,226250,1,16778208,600000,33580,30684,65700,0,5792,0,3407129148,63
i,1723651100.508963,172.16.3.2,11044,172.16.1.2,5101,4344,7252,38,64256,65728,6,6,4,1460,226250,1,16778208,600000,33580,33580,65700,0,7240,0,3407129148,63
o,1723651100.508998,172.16.3.2,11044,172.16.1.2,5101,4344,8712,38,64256,65728,6,6,4,1460,235625,1,16778208,640000,33580,30684,65700,0,4344,0,3407129148,63
i,1723651100.559179,172.16.3.2,11044,172.16.1.2,5101,4344,8712,38,64256,65728,6,6,4,1460,235625,1,16778208,640000,33580,33580,65700,0,8688,0,3407129148,63
o,1723651100.559179,172.16.3.2,11044,172.16.1.2,5101,4344,8712,38,65728,65728,6,6,4,1460,241250,1,16778208,640000,33580,32132,65700,0,7240,0,3407129148,63
i,1723651100.648089,172.16.3.2,11044,172.16.1.2,5101,4344,8712,38,65728,65728,6,6,4,1460,241250,1,16778208,640000,33580,32132,65700,0,8688,0,3407129148,63
o,1723651100.648263,172.16.3.2,11044,172.16.1.2,5101,4344,8712,38,64256,65728,6,6,4,1460,241250,1,16778208,590000,33580,29236,65700,0,5792,0,3407129148,63
o,1723651100.648612,172.16.3.2,11044,172.16.1.2,5101,4344,8712,38,64256,65728,6,6,4,1460,241250,1,16778208,590000,33580,29236,65700,0,7240,0,3407129148,63
i,1723651100.788595,172.16.3.2,11044,172.16.1.2,5101,4344,8712,38,64256,65728,6,6,4,1460,241250,1,16778208,590000,33580,33580,65700,0,8688,0,3407129148,63
o,1723651100.788676,172.16.3.2,11044,172.16.1.2,5101,4344,8712,38,65728,65728,6,6,4,1460,246250,1,16778208,600000,33580,32132,65700,0,7240,0,3407129148,63
i,1723651100.808500,172.16.3.2,11044,172.16.1.2,5101,4344,8712,38,65728,65728,6,6,4,1460,246250,1,16778208,600000,33580,32132,65700,0,8688,0,3407129148,63
o,1723651100.808606,172.16.3.2,11044,172.16.1.2,5101,4344,7240,34,64256,65728,6,6,4,1460,253125,1,553649120,620000,33580,29236,65700,0,5792,0,3407129148,63
i,1723651100.918598,172.16.3.2,11044,172.16.1.2,5101,4344,7240,34,64256,65728,6,6,4,1460,253125,1,553649120,620000,33580,33580,65700,0,7240,0,3407129148,63
o,1723651100.918686,172.16.3.2,11044,172.16.1.2,5101,4344,5792,34,64256,65728,6,6,4,1460,266562,1,553649120,700000,33580,30684,65700,0,4344,0,3407129148,63
i,1723651100.999880,172.16.3.2,11044,172.16.1.2,5101,4344,5792,34,64256,65728,6,6,4,1460,266562,1,553649120,700000,33580,33580,65700,0,5792,0,3407129148,63
i,1723651101.028062,172.16.3.2,11044,172.16.1.2,5101,4344,4344,34,65728,65728,6,6,4,1460,275937,1,553649120,730000,33580,32132,65700,0,4344,0,3407129148,63
o,1723651101.028202,172.16.3.2,11044,172.16.1.2,5101,4344,4344,38,64256,65728,6,6,4,1460,270312,1,16778208,700000,33580,29236,65700,0,1448,0,3407129148,63
i,1723651101.168759,172.16.3.2,11044,172.16.1.2,5101,4344,4344,38,64256,65728,6,6,4,1460,270312,1,16778208,700000,33580,33580,65700,0,4344,0,3407129148,63
o,1723651101.168858,172.16.3.2,11044,172.16.1.2,5101,4344,5792,38,65728,65728,6,6,4,1460,266562,1,16778208,670000,33580,32132,65700,0,2896,0,3407129148,63
o,1723651101.169016,172.16.3.2,11044,172.16.1.2,5101,4344,5792,34,65728,65728,6,6,4,1460,266562,1,16778208,670000,33580,32132,65700,0,4344,0,3407129148,63
i,1723651101.199854,172.16.3.2,11044,172.16.1.2,5101,4344,5792,34,65728,65728,6,6,4,1460,266562,1,16778208,670000,33580,32132,65700,0,5792,0,3407129148,63
o,1723651101.199966,172.16.3.2,11044,172.16.1.2,5101,4344,5792,38,64256,65728,6,6,4,1460,254687,1,16778208,700000,33580,29236,65700,0,2896,0,3407129148,63
i,1723651101.399002,172.16.3.2,11044,172.16.1.2,5101,4344,5792,38,64256,65728,6,6,4,1460,254687,1,16778208,700000,33580,33580,65700,0,5792,0,3407129148,63
o,1723651101.399117,172.16.3.2,11044,172.16.1.2,5101,2896,4344,34,64256,65728,6,6,4,1460,250625,1,553649120,670000,33580,30684,65700,0,2896,0,3407129148,63
i,1723651101.459171,172.16.3.2,11044,172.16.1.2,5101,2896,4344,34,64256,65728,6,6,4,1460,250625,1,553649120,670000,33580,33580,65700,0,4344,0,3407129148,63
i,1723651101.538722,172.16.3.2,11044,172.16.1.2,5101,2896,1448,34,64256,65728,6,6,4,1460,251875,1,553649120,620000,33580,33580,65700,0,1448,0,3407129148,63
o,1723651101.538803,172.16.3.2,11044,172.16.1.2,5101,2896,1448,34,65728,65728,6,6,4,1460,238125,1,16778208,680000,33580,32132,65700,0,0,0,3407129148,63
i,1723651101.738383,172.16.3.2,11044,172.16.1.2,5101,2896,1448,34,65728,65728,6,6,4,1460,238125,1,16778208,680000,33580,32132,65700,0,1448,0,3407129148,63
o,1723651101.738525,172.16.3.2,11044,172.16.1.2,5101,2896,2896,38,65728,65728,6,6,4,1460,233437,1,16778208,650000,33580,30684,65700,0,0,0,3407129148,63
o,1723651101.738760,172.16.3.2,11044,172.16.1.2,5101,2896,2896,34,65728,65728,6,6,4,1460,233437,1,16778208,650000,33580,30684,65700,0,1448,0,3407129148,63
i,1723651101.911579,172.16.3.2,11044,172.16.1.2,5101,2896,2896,34,65728,65728,6,6,4,1460,233437,1,16778208,650000,33580,33580,65700,0,2896,0,3407129148,63
o,1723651101.911658,172.16.3.2,11044,172.16.1.2,5101,2896,5792,38,64256,65728,6,6,4,1460,225625,1,16778208,650000,33580,30684,65700,0,0,0,3407129148,63
o,1723651101.911774,172.16.3.2,11044,172.16.1.2,5101,2896,5792,38,64256,65728,6,6,4,1460,225625,1,16778208,650000,33580,30684,65700,0,1448,0,3407129148,63
i,1723651102.128695,172.16.3.2,11044,172.16.1.2,5101,2896,5792,38,64256,65728,6,6,4,1460,225625,1,16778208,650000,33580,33580,65700,0,5792,0,3407129148,63
o,1723651102.128782,172.16.3.2,11044,172.16.1.2,5101,2896,5792,34,65728,65728,6,6,4,1460,225000,1,16778208,600000,33580,32132,65700,0,4344,0,3407129148,63
i,1723651102.160011,172.16.3.2,11044,172.16.1.2,5101,2896,5792,34,65728,65728,6,6,4,1460,225000,1,16778208,600000,33580,32132,65700,0,5792,0,3407129148,63
o,1723651102.160185,172.16.3.2,11044,172.16.1.2,5101,2896,4344,34,64256,65728,6,6,4,1460,228125,1,553649120,580000,33580,29236,65700,0,2896,0,3407129148,63
i,1723651102.242817,172.16.3.2,11044,172.16.1.2,5101,2896,4344,34,64256,65728,6,6,4,1460,228125,1,553649120,580000,33580,33580,65700,0,4344,0,3407129148,63
i,1723651102.315715,172.16.3.2,11044,172.16.1.2,5101,2896,2896,34,65728,65728,6,6,4,1460,240937,1,553649120,660000,33580,32132,65700,0,2896,0,3407129148,63
o,1723651102.315750,172.16.3.2,11044,172.16.1.2,5101,2896,2896,38,64256,65728,6,6,4,1460,234687,1,16778208,650000,33580,29236,65700,0,0,0,3407129148,63
o,1723651102.315869,172.16.3.2,11044,172.16.1.2,5101,2896,2896,34,64256,65728,6,6,4,1460,234687,1,16778208,650000,33580,29236,65700,0,1448,0,3407129148,63
i,1723651102.502281,172.16.3.2,11044,172.16.1.2,5101,2896,2896,34,64256,65728,6,6,4,1460,234687,1,16778208,650000,33580,33580,65700,0,2896,0,3407129148,63
o,1723651102.502360,172.16.3.2,11044,172.16.1.2,5101,2896,5792,38,64256,65728,6,6,4,1460,228125,1,16778208,640000,33580,30684,65700,0,0,0,3407129148,63
o,1723651102.502479,172.16.3.2,11044,172.16.1.2,5101,2896,5792,38,64256,65728,6,6,4,1460,228125,1,16778208,640000,33580,30684,65700,0,1448,0,3407129148,63
i,1723651102.719925,172.16.3.2,11044,172.16.1.2,5101,2896,5792,38,64256,65728,6,6,4,1460,228125,1,16778208,640000,33580,33580,65700,0,5792,0,3407129148,63
o,1723651102.719962,172.16.3.2,11044,172.16.1.2,5101,2896,4344,34,64256,65728,6,6,4,1460,225937,1,553649120,600000,33580,30684,65700,0,2896,0,3407129148,63
i,1723651102.770086,172.16.3.2,11044,172.16.1.2,5101,2896,4344,34,64256,65728,6,6,4,1460,225937,1,553649120,600000,33580,33580,65700,0,4344,0,3407129148,63
i,1723651102.859802,172.16.3.2,11044,172.16.1.2,5101,2896,1448,34,64256,65728,6,6,4,1460,230312,1,553649120,600000,33580,33580,65700,0,1448,0,3407129148,63
o,1723651102.859939,172.16.3.2,11044,172.16.1.2,5101,2896,1448,34,65728,65728,6,6,4,1460,219062,1,16778208,630000,33580,32132,65700,0,0,0,3407129148,63
i,1723651103.038587,172.16.3.2,11044,172.16.1.2,5101,2896,1448,34,65728,65728,6,6,4,1460,219062,1,16778208,630000,33580,32132,65700,0,1448,0,3407129148,63
o,1723651103.038704,172.16.3.2,11044,172.16.1.2,5101,2896,2896,38,65728,65728,6,6,4,1460,214375,1,16778208,610000,33580,30684,65700,0,0,0,3407129148,63
o,1723651103.038865,172.16.3.2,11044,172.16.1.2,5101,2896,2896,34,65728,65728,6,6,4,1460,214375,1,16778208,610000,33580,30684,65700,0,1448,0,3407129148,63
i,1723651103.204870,172.16.3.2,11044,172.16.1.2,5101,2896,2896,34,65728,65728,6,6,4,1460,214375,1,16778208,610000,33580,33580,65700,0,2896,0,3407129148,63
o,1723651103.205006,172.16.3.2,11044,172.16.1.2,5101,2896,5792,38,64256,65728,6,6,4,1460,207812,1,16778208,610000,33580,30684,65700,0,0,0,3407129148,63
o,1723651103.205239,172.16.3.2,11044,172.16.1.2,5101,2896,5792,38,64256,65728,6,6,4,1460,207812,1,16778208,610000,33580,30684,65700,0,1448,0,3407129148,63
i,1723651103.397683,172.16.3.2,11044,172.16.1.2,5101,2896,5792,38,64256,65728,6,6,4,1460,207812,1,16778208,610000,33580,33580,65700,0,5792,0,3407129148,63
o,1723651103.397747,172.16.3.2,11044,172.16.1.2,5101,2896,5792,38,64256,65728,6,6,4,1460,205625,1,16778208,570000,33580,30684,65700,0,2896,0,3407129148,63
o,1723651103.397931,172.16.3.2,11044,172.16.1.2,5101,2896,5792,34,64256,65728,6,6,4,1460,205625,1,16778208,570000,33580,30684,65700,0,4344,0,3407129148,63
i,1723651103.450997,172.16.3.2,11044,172.16.1.2,5101,2896,5792,34,64256,65728,6,6,4,1460,205625,1,16778208,570000,33580,33580,65700,0,5792,0,3407129148,63
o,1723651103.451113,172.16.3.2,11044,172.16.1.2,5101,2896,7252,38,64256,65728,6,6,4,1460,210000,1,16778208,570000,33580,30684,65700,0,2896,0,3407129148,63
i,1723651103.559224,172.16.3.2,11044,172.16.1.2,5101,2896,7252,38,64256,65728,6,6,4,1460,210000,1,16778208,570000,33580,33580,65700,0,7240,0,3407129148,63
o,1723651103.559260,172.16.3.2,11044,172.16.1.2,5101,2896,7252,38,64256,65728,6,6,4,1460,203750,1,16778208,570000,33580,30684,65700,0,4344,0,3407129148,63
o,1723651103.559438,172.16.3.2,11044,172.16.1.2,5101,2896,7252,38,64256,65728,6,6,4,1460,203750,1,16778208,570000,33580,30684,65700,0,5792,0,3407129148,63
i,1723651103.668644,172.16.3.2,11044,172.16.1.2,5101,2896,7252,38,64256,65728,6,6,4,1460,203750,1,16778208,570000,33580,33580,65700,0,7240,0,3407129148,63
o,1723651103.668779,172.16.3.2,11044,172.16.1.2,5101,2896,7252,38,64256,65728,6,6,4,1460,204687,1,16778208,540000,33580,30684,65700,0,4344,0,3407129148,63
i,1723651103.718959,172.16.3.2,11044,172.16.1.2,5101,2896,7252,38,64256,65728,6,6,4,1460,204687,1,16778208,540000,33580,33580,65700,0,7240,0,3407129148,63
o,1723651103.719094,172.16.3.2,11044,172.16.1.2,5101,2896,7252,38,65728,65728,6,6,4,1460,213125,1,16778208,580000,33580,32132,65700,0,5792,0,3407129148,63
i,1723651103.778479,172.16.3.2,11044,172.16.1.2,5101,2896,7252,38,65728,65728,6,6,4,1460,213125,1,16778208,580000,33580,32132,65700,0,7240,0,3407129148,63
o,1723651103.778967,172.16.3.2,11044,172.16.1.2,5101,2896,8712,38,64256,65728,6,6,4,1460,214062,1,16778208,550000,33580,29236,65700,0,4344,0,3407129148,63
o,1723651103.779446,172.16.3.2,11044,172.16.1.2,5101,2896,8712,38,64256,65728,6,6,4,1460,214062,1,16778208,550000,33580,29236,65700,0,5792,0,3407129148,63
i,1723651103.914601,172.16.3.2,11044,172.16.1.2,5101,2896,8712,38,64256,65728,6,6,4,1460,214062,1,16778208,550000,33580,33580,65700,0,8688,0,3407129148,63
o,1723651103.914699,172.16.3.2,11044,172.16.1.2,5101,2896,8712,38,64256,65728,6,6,4,1460,218750,1,16778208,560000,33580,30684,65700,0,5792,0,3407129148,63
i,1723651104.028642,172.16.3.2,11044,172.16.1.2,5101,2896,8712,38,64256,65728,6,6,4,1460,218750,1,16778208,560000,33580,33580,65700,0,8688,0,3407129148,63
o,1723651104.028734,172.16.3.2,11044,172.16.1.2,5101,2896,8712,38,64256,65728,6,6,4,1460,229062,1,16778208,610000,33580,30684,65700,0,5792,0,3407129148,63
o,1723651104.028870,172.16.3.2,11044,172.16.1.2,5101,2896,8712,38,64256,65728,6,6,4,1460,229062,1,16778208,610000,33580,30684,65700,0,7240,0,3407129148,63
i,1723651104.079056,172.16.3.2,11044,172.16.1.2,5101,2896,8712,38,64256,65728,6,6,4,1460,229062,1,16778208,610000,33580,33580,65700,0,8688,0,3407129148,63
o,1723651104.079166,172.16.3.2,11044,172.16.1.2,5101,2896,10172,38,65728,65728,6,6,4,1460,236875,1,16778208,640000,33580,32132,65700,0,7240,0,3407129148,63
i,1723651104.160387,172.16.3.2,11044,172.16.1.2,5101,2896,10172,38,65728,65728,6,6,4,1460,236875,1,16778208,640000,33580,32132,65700,0,10136,0,3407129148,63
o,1723651104.160481,172.16.3.2,11044,172.16.1.2,5101,4344,8688,34,64256,65728,6,6,4,1460,253750,1,553649120,740000,33580,29236,65700,0,7240,0,3407129148,63
i,1723651104.257832,172.16.3.2,11044,172.16.1.2,5101,4344,8688,34,64256,65728,6,6,4,1460,253750,1,553649120,740000,33580,33580,65700,0,8688,0,3407129148,63
i,1723651104.319700,172.16.3.2,11044,172.16.1.2,5101,4344,7240,34,65728,65728,6,6,4,1460,263437,1,553649120,750000,33580,32132,65700,0,7240,0,3407129148,63
o,1723651104.319818,172.16.3.2,11044,172.16.1.2,5101,4344,5792,34,64256,65728,6,6,4,1460,266875,1,553649120,710000,33580,29236,65700,0,4344,0,3407129148,63
i,1723651104.398696,172.16.3.2,11044,172.16.1.2,5101,4344,5792,34,64256,65728,6,6,4,1460,266875,1,553649120,710000,33580,33580,65700,0,5792,0,3407129148,63
o,1723651104.398752,172.16.3.2,11044,172.16.1.2,5101,4344,4344,34,64256,65728,6,6,4,1460,273750,1,553649120,710000,33580,30684,65700,0,2896,0,3407129148,63
i,1723651104.451434,172.16.3.2,11044,172.16.1.2,5101,4344,4344,34,64256,65728,6,6,4,1460,273750,1,553649120,710000,33580,33580,65700,0,4344,0,3407129148,63
o,1723651104.451534,172.16.3.2,11044,172.16.1.2,5101,4344,4344,34,65728,65728,6,6,4,1460,275937,1,16778208,670000,33580,32132,65700,0,2896,0,3407129148,63
i,1723651104.548122,172.16.3.2,11044,172.16.1.2,5101,4344,4344,34,65728,65728,6,6,4,1460,275937,1,16778208,670000,33580,32132,65700,0,4344,0,3407129148,63
o,1723651104.548203,172.16.3.2,11044,172.16.1.2,5101,4344,5792,38,65728,65728,6,6,4,1460,270312,1,16778208,660000,33580,30684,65700,0,2896,0,3407129148,63
o,1723651104.548316,172.16.3.2,11044,172.16.1.2,5101,4344,5792,34,65728,65728,6,6,4,1460,270312,1,16778208,660000,33580,30684,65700,0,4344,0,3407129148,63
i,1723651104.579132,172.16.3.2,11044,172.16.1.2,5101,4344,5792,34,65728,65728,6,6,4,1460,270312,1,16778208,660000,33580,33580,65700,0,5792,0,3407129148,63
o,1723651104.579170,172.16.3.2,11044,172.16.1.2,5101,4344,5792,34,65728,65728,6,6,4,1460,259062,1,16778208,690000,33580,32132,65700,0,4344,0,3407129148,63
i,1723651104.610577,172.16.3.2,11044,172.16.1.2,5101,4344,5792,34,65728,65728,6,6,4,1460,259062,1,16778208,690000,33580,32132,65700,0,5792,0,3407129148,63
o,1723651104.610654,172.16.3.2,11044,172.16.1.2,5101,4344,5792,34,65728,65728,6,6,4,1460,246875,1,16778208,720000,33580,30684,65700,0,4344,0,3407129148,63
i,1723651104.738652,172.16.3.2,11044,172.16.1.2,5101,4344,5792,34,65728,65728,6,6,4,1460,246875,1,16778208,720000,33580,33580,65700,0,5792,0,3407129148,63
o,1723651104.738756,172.16.3.2,11044,172.16.1.2,5101,4344,7252,38,64256,65728,6,6,4,1460,240000,1,16778208,700000,33580,30684,65700,0,2896,0,3407129148,63
o,1723651104.738907,172.16.3.2,11044,172.16.1.2,5101,4344,7252,38,64256,65728,6,6,4,1460,240000,1,16778208,700000,33580,30684,65700,0,4344,0,3407129148,63
i,1723651104.807715,172.16.3.2,11044,172.16.1.2,5101,4344,7252,38,64256,65728,6,6,4,1460,240000,1,16778208,700000,33580,33580,65700,0,7240,0,3407129148,63
o,1723651104.807814,172.16.3.2,11044,172.16.1.2,5101,4344,7252,38,64256,65728,6,6,4,1460,237500,1,16778208,650000,33580,30684,65700,0,4344,0,3407129148,63
i,1723651104.918385,172.16.3.2,11044,172.16.1.2,5101,4344,7252,38,64256,65728,6,6,4,1460,237500,1,16778208,650000,33580,33580,65700,0,7240,0,3407129148,63
o,1723651104.918486,172.16.3.2,11044,172.16.1.2,5101,4344,7252,38,64256,65728,6,6,4,1460,229062,1,16778208,660000,33580,30684,65700,0,4344,0,3407129148,63
o,1723651104.918642,172.16.3.2,11044,172.16.1.2,5101,4344,7252,38,64256,65728,6,6,4,1460,229062,1,16778208,660000,33580,30684,65700,0,5792,0,3407129148,63
i,1723651104.988424,172.16.3.2,11044,172.16.1.2,5101,4344,7252,38,64256,65728,6,6,4,1460,229062,1,16778208,660000,33580,33580,65700,0,7240,0,3407129148,63
o,1723651104.988505,172.16.3.2,11044,172.16.1.2,5101,4344,7252,38,65728,65728,6,6,4,1460,230625,1,16778208,610000,33580,32132,65700,0,5792,0,3407129148,63
i,1723651105.052654,172.16.3.2,11044,172.16.1.2,5101,4344,7252,38,65728,65728,6,6,4,1460,230625,1,16778208,610000,33580,32132,65700,0,7240,0,3407129148,63
o,1723651105.052796,172.16.3.2,11044,172.16.1.2,5101,4344,8712,38,65728,65728,6,6,4,1460,233125,1,16778208,590000,33580,30684,65700,0,5792,0,3407129148,63
i,1723651105.140504,172.16.3.2,11044,172.16.1.2,5101,4344,8712,38,65728,65728,6,6,4,1460,233125,1,16778208,590000,33580,33580,65700,0,8688,0,3407129148,63
o,1723651105.140589,172.16.3.2,11044,172.16.1.2,5101,4344,8712,38,64256,65728,6,6,4,1460,245312,1,16778208,660000,33580,30684,65700,0,5792,0,3407129148,63
o,1723651105.140711,172.16.3.2,11044,172.16.1.2,5101,4344,8712,38,64256,65728,6,6,4,1460,245312,1,16778208,660000,33580,30684,65700,0,7240,0,3407129148,63
i,1723651105.209769,172.16.3.2,11044,172.16.1.2,5101,4344,8712,38,64256,65728,6,6,4,1460,245312,1,16778208,660000,33580,33580,65700,0,8688,0,3407129148,63
o,1723651105.209805,172.16.3.2,11044,172.16.1.2,5101,4344,8712,38,65728,65728,6,6,4,1460,250937,1,16778208,660000,33580,32132,65700,0,7240,0,3407129148,63
i,1723651105.275202,172.16.3.2,11044,172.16.1.2,5101,4344,8712,38,65728,65728,6,6,4,1460,250937,1,16778208,660000,33580,32132,65700,0,8688,0,3407129148,63
o,1723651105.275382,172.16.3.2,11044,172.16.1.2,5101,4344,8712,38,64256,65728,6,6,4,1460,255937,1,16778208,650000,33580,29236,65700,0,5792,0,3407129148,63
i,1723651105.368531,172.16.3.2,11044,172.16.1.2,5101,4344,8712,38,64256,65728,6,6,4,1460,255937,1,16778208,650000,33580,33580,65700,0,8688,0,3407129148,63
o,1723651105.368670,172.16.3.2,11044,172.16.1.2,5101,4344,8688,34,65728,65728,6,6,4,1460,262812,1,553649120,660000,33580,32132,65700,0,7240,0,3407129148,63
i,1723651105.400019,172.16.3.2,11044,172.16.1.2,5101,4344,8688,34,65728,65728,6,6,4,1460,262812,1,553649120,660000,33580,33360,65700,0,8688,0,3407129148,63
i,1723651105.498611,172.16.3.2,11044,172.16.1.2,5101,4344,5792,34,64256,65728,6,6,4,1460,262500,1,536871904,620000,33580,33580,65700,0,5792,0,3407129148,63
o,1723651105.498729,172.16.3.2,11044,172.16.1.2,5101,4344,4344,34,64256,65728,6,6,4,1460,265937,1,553649120,610000,33580,30684,65700,0,2896,0,3407129148,63
i,1723651105.588346,172.16.3.2,11044,172.16.1.2,5101,4344,4344,34,64256,65728,6,6,4,1460,265937,1,553649120,610000,33580,33580,65700,0,4344,0,3407129148,63
o,1723651105.588581,172.16.3.2,11044,172.16.1.2,5101,4344,4344,38,64256,65728,6,6,4,1460,271562,1,16778208,620000,33580,30684,65700,0,1448,0,3407129148,63
i,1723651105.699133,172.16.3.2,11044,172.16.1.2,5101,4344,4344,38,64256,65728,6,6,4,1460,271562,1,16778208,620000,33580,33580,65700,0,4344,0,3407129148,63
o,1723651105.699270,172.16.3.2,11044,172.16.1.2,5101,4344,5792,38,65728,65728,6,6,4,1460,262812,1,16778208,650000,33580,32132,65700,0,2896,0,3407129148,63
o,1723651105.699438,172.16.3.2,11044,172.16.1.2,5101,4344,5792,34,65728,65728,6,6,4,1460,262812,1,16778208,650000,33580,32132,65700,0,4344,0,3407129148,63
i,1723651105.774446,172.16.3.2,11044,172.16.1.2,5101,4344,5792,34,65728,65728,6,6,4,1460,262812,1,16778208,650000,33580,32132,65700,0,5792,0,3407129148,63
o,1723651105.774589,172.16.3.2,11044,172.16.1.2,5101,4344,5792,38,64256,65728,6,6,4,1460,252500,1,16778208,670000,33580,29236,65700,0,2896,0,3407129148,63
i,1723651105.886554,172.16.3.2,11044,172.16.1.2,5101,4344,5792,38,64256,65728,6,6,4,1460,252500,1,16778208,670000,33580,33580,65700,0,5792,0,3407129148,63
o,1723651105.886820,172.16.3.2,11044,172.16.1.2,5101,4344,7252,38,64256,65728,6,6,4,1460,244687,1,16778208,670000,33580,30684,65700,0,2896,0,3407129148,63
o,1723651105.887357,172.16.3.2,11044,172.16.1.2,5101,4344,7252,38,64256,65728,6,6,4,1460,244687,1,16778208,670000,33580,30684,65700,0,4344,0,3407129148,63
i,1723651105.966954,172.16.3.2,11044,172.16.1.2,5101,4344,7252,38,64256,65728,6,6,4,1460,244687,1,16778208,670000,33580,33580,65700,0,7240,0,3407129148,63
o,1723651105.967388,172.16.3.2,11044,172.16.1.2,5101,4344,7252,38,64256,65728,6,6,4,1460,238125,1,16778208,660000,33580,30684,65700,0,4344,0,3407129148,63
i,1723651106.098260,172.16.3.2,11044,172.16.1.2,5101,4344,7252,38,64256,65728,6,6,4,1460,238125,1,16778208,660000,33580,33580,65700,0,7240,0,3407129148,63
o,1723651106.098407,172.16.3.2,11044,172.16.1.2,5101,4344,7252,38,64256,65728,6,6,4,1460,233437,1,16778208,640000,33580,30684,65700,0,4344,0,3407129148,63
o,1723651106.098559,172.16.3.2,11044,172.16.1.2,5101,4344,7252,38,64256,65728,6,6,4,1460,233437,1,16778208,640000,33580,30684,65700,0,5792,0,3407129148,63
i,1723651106.187939,172.16.3.2,11044,172.16.1.2,5101,4344,7252,38,64256,65728,6,6,4,1460,233437,1,16778208,640000,33580,33580,65700,0,7240,0,3407129148,63
o,1723651106.187950,172.16.3.2,11044,172.16.1.2,5101,4344,8712,38,64256,65728,6,6,4,1460,240625,1,16778208,650000,33580,30684,65700,0,4344,0,3407129148,63
i,1723651106.242924,172.16.3.2,11044,172.16.1.2,5101,4344,8712,38,64256,65728,6,6,4,1460,240625,1,16778208,650000,33580,33580,65700,0,8688,0,3407129148,63
o,1723651106.242965,172.16.3.2,11044,172.16.1.2,5101,4344,8712,38,65728,65728,6,6,4,1460,244375,1,16778208,630000,33580,32132,65700,0,7240,0,3407129148,63
i,1723651106.326169,172.16.3.2,11044,172.16.1.2,5101,4344,8712,38,65728,65728,6,6,4,1460,244375,1,16778208,630000,33580,32132,65700,0,8688,0,3407129148,63
o,1723651106.326263,172.16.3.2,11044,172.16.1.2,5101,4344,8712,38,65728,65728,6,6,4,1460,242812,1,16778208,600000,33580,30684,65700,0,7240,0,3407129148,63
i,1723651106.428893,172.16.3.2,11044,172.16.1.2,5101,4344,8712,38,65728,65728,6,6,4,1460,242812,1,16778208,600000,33580,33580,65700,0,8688,0,3407129148,63
o,1723651106.428977,172.16.3.2,11044,172.16.1.2,5101,4344,8712,38,65728,65728,6,6,4,1460,253750,1,16778208,660000,33580,32132,65700,0,7240,0,3407129148,63
i,1723651106.457421,172.16.3.2,11044,172.16.1.2,5101,4344,8712,38,65728,65728,6,6,4,1460,253750,1,16778208,660000,33580,32132,65700,0,8688,0,3407129148,63
o,1723651106.457671,172.16.3.2,11044,172.16.1.2,5101,4344,8712,38,65728,65728,6,6,4,1460,255937,1,16778208,630000,33580,30684,65700,0,7240,0,3407129148,63
i,1723651106.478691,172.16.3.2,11044,172.16.1.2,5101,4344,8712,38,65728,65728,6,6,4,1460,255937,1,16778208,630000,33580,33580,65700,0,8688,0,3407129148,63
o,1723651106.478765,172.16.3.2,11044,172.16.1.2,5101,4344,10172,38,64256,65728,6,6,4,1460,260312,1,16778208,620000,33580,30684,65700,0,5792,0,3407129148,63
i,1723651106.559840,172.16.3.2,11044,172.16.1.2,5101,4344,10172,38,64256,65728,6,6,4,1460,260312,1,16778208,620000,33580,33580,65700,0,10136,0,3407129148,63
o,1723651106.559939,172.16.3.2,11044,172.16.1.2,5101,4344,10136,34,65728,65728,6,6,4,1460,266562,1,553649120,640000,33580,32132,65700,0,8688,0,3407129148,63
i,1723651106.616549,172.16.3.2,11044,172.16.1.2,5101,4344,10136,34,65728,65728,6,6,4,1460,266562,1,553649120,640000,33580,32132,65700,0,10136,0,3407129148,63
i,1723651106.741647,172.16.3.2,11044,172.16.1.2,5101,4344,8688,34,65728,65728,6,6,4,1460,269687,1,536871904,620000,33580,33580,65700,0,8688,0,3407129148,63
o,1723651106.741759,172.16.3.2,11044,172.16.1.2,5101,4344,7240,34,64256,65728,6,6,4,1460,275000,1,553649120,630000,33580,30684,65700,0,5792,0,3407129148,63
i,1723651106.797854,172.16.3.2,11044,172.16.1.2,5101,4344,7240,34,64256,65728,6,6,4,1460,275000,1,553649120,630000,33580,33580,65700,0,7240,0,3407129148,63
i,1723651106.869183,172.16.3.2,11044,172.16.1.2,5101,4344,4344,34,64256,65728,6,6,4,1460,280625,1,553649120,640000,33580,33580,65700,0,4344,0,3407129148,63
o,1723651106.869274,172.16.3.2,11044,172.16.1.2,5101,4344,4344,38,64256,65728,6,6,4,1460,294375,1,16778208,730000,33580,30684,65700,0,1448,0,3407129148,63
i,1723651106.988443,172.16.3.2,11044,172.16.1.2,5101,4344,4344,38,64256,65728,6,6,4,1460,294375,1,16778208,730000,33580,33580,65700,0,4344,0,3407129148,63
o,1723651106.988479,172.16.3.2,11044,172.16.1.2,5101,4344,5792,38,65728,65728,6,6,4,1460,289062,1,16778208,710000,33580,32132,65700,0,2896,0,3407129148,63
o,1723651106.988595,172.16.3.2,11044,172.16.1.2,5101,4344,5792,34,65728,65728,6,6,4,1460,289062,1,16778208,710000,33580,32132,65700,0,4344,0,3407129148,63
i,1723651107.049404,172.16.3.2,11044,172.16.1.2,5101,4344,5792,34,65728,65728,6,6,4,1460,289062,1,16778208,710000,33580,32132,65700,0,5792,0,3407129148,63
o,1723651107.049536,172.16.3.2,11044,172.16.1.2,5101,4344,5792,38,64256,65728,6,6,4,1460,274375,1,16778208,750000,33580,29236,65700,0,2896,0,3407129148,63
i,1723651107.168919,172.16.3.2,11044,172.16.1.2,5101,4344,5792,38,64256,65728,6,6,4,1460,274375,1,16778208,750000,33580,33580,65700,0,5792,0,3407129148,63
o,1723651107.169040,172.16.3.2,11044,172.16.1.2,5101,4344,7252,38,64256,65728,6,6,4,1460,262812,1,16778208,770000,33580,30684,65700,0,2896,0,3407129148,63
o,1723651107.169194,172.16.3.2,11044,172.16.1.2,5101,4344,7252,38,64256,65728,6,6,4,1460,262812,1,16778208,770000,33580,30684,65700,0,4344,0,3407129148,63
i,1723651107.251996,172.16.3.2,11044,172.16.1.2,5101,4344,7252,38,64256,65728,6,6,4,1460,262812,1,16778208,770000,33580,33580,65700,0,7240,0,3407129148,63
o,1723651107.252179,172.16.3.2,11044,172.16.1.2,5101,4344,7252,38,64256,65728,6,6,4,1460,255000,1,16778208,750000,33580,30684,65700,0,4344,0,3407129148,63
i,1723651107.386673,172.16.3.2,11044,172.16.1.2,5101,4344,7252,38,64256,65728,6,6,4,1460,255000,1,16778208,750000,33580,33580,65700,0,7240,0,3407129148,63
o,1723651107.386836,172.16.3.2,11044,172.16.1.2,5101,4344,7252,38,64256,65728,6,6,4,1460,249375,1,16778208,710000,33580,30684,65700,0,4344,0,3407129148,63
o,1723651107.387134,172.16.3.2,11044,172.16.1.2,5101,4344,7252,38,64256,65728,6,6,4,1460,249375,1,16778208,710000,33580,30684,65700,0,5792,0,3407129148,63
i,1723651107.476901,172.16.3.2,11044,172.16.1.2,5101,4344,7252,38,64256,65728,6,6,4,1460,249375,1,16778208,710000,33580,33580,65700,0,7240,0,3407129148,63
o,1723651107.477269,172.16.3.2,11044,172.16.1.2,5101,4344,8712,38,64256,65728,6,6,4,1460,257187,1,16778208,720000,33580,30684,65700,0,4344,0,3407129148,63
i,1723651107.533929,172.16.3.2,11044,172.16.1.2,5101,4344,8712,38,64256,65728,6,6,4,1460,257187,1,16778208,720000,33580,33580,65700,0,8688,0,3407129148,63
o,1723651107.534138,172.16.3.2,11044,172.16.1.2,5101,4344,8712,38,65728,65728,6,6,4,1460,260312,1,16778208,680000,33580,32132,65700,0,7240,0,3407129148,63
i,1723651107.608761,172.16.3.2,11044,172.16.1.2,5101,4344,8712,38,65728,65728,6,6,4,1460,260312,1,16778208,680000,33580,32132,65700,0,8688,0,3407129148,63
o,1723651107.608801,172.16.3.2,11044,172.16.1.2,5101,4344,8712,38,65728,65728,6,6,4,1460,255312,1,16778208,660000,33580,30684,65700,0,7240,0,3407129148,63
i,1723651107.709353,172.16.3.2,11044,172.16.1.2,5101,4344,8712,38,65728,65728,6,6,4,1460,255312,1,16778208,660000,33580,33580,65700,0,8688,0,3407129148,63
o,1723651107.709471,172.16.3.2,11044,172.16.1.2,5101,4344,8712,38,65728,65728,6,6,4,1460,263437,1,16778208,680000,33580,32132,65700,0,7240,0,3407129148,63
i,1723651107.759356,172.16.3.2,11044,172.16.1.2,5101,4344,8712,38,65728,65728,6,6,4,1460,263437,1,16778208,680000,33580,32132,65700,0,8688,0,3407129148,63
o,1723651107.759437,172.16.3.2,11044,172.16.1.2,5101,4344,8712,38,64256,65728,6,6,4,1460,264375,1,16778208,630000,33580,29236,65700,0,5792,0,3407129148,63
i,1723651107.823701,172.16.3.2,11044,172.16.1.2,5101,4344,8712,38,64256,65728,6,6,4,1460,264375,1,16778208,630000,33580,33580,65700,0,8688,0,3407129148,63
o,1723651107.823789,172.16.3.2,11044,172.16.1.2,5101,4344,10172,38,65728,65728,6,6,4,1460,274062,1,16778208,680000,33580,32132,65700,0,7240,0,3407129148,63
i,1723651107.849071,172.16.3.2,11044,172.16.1.2,5101,4344,10172,38,65728,65728,6,6,4,1460,274062,1,16778208,680000,33580,32132,65700,0,10136,0,3407129148,63
o,1723651107.849155,172.16.3.2,11044,172.16.1.2,5101,4344,10136,34,65728,65728,6,6,4,1460,278750,1,553649120,670000,33580,30684,65700,0,8688,0,3407129148,63
i,1723651107.899677,172.16.3.2,11044,172.16.1.2,5101,4344,10136,34,65728,65728,6,6,4,1460,278750,1,553649120,670000,33580,33580,65700,0,10136,0,3407129148,63
