enable_time_secs=1723651264	enable_time_usecs=449744	siftrver=1.3.0	sysname=FreeBSD	sysver=1401000	ipmode=4
o,1723651264.450291,10.0.2.15,22,10.0.2.2,50546,1073725440,17746,1026,65535,65700,0,0,4,1460,312,0,16777220,240000,33580,172,65700,0,0,0,2154269554,63
o,1723651264.450448,10.0.2.15,22,10.0.2.2,50546,1073725440,17746,1026,65535,65700,0,0,4,1460,312,0,16777220,240000,33580,244,65700,0,172,0,2154269554,63
i,1723651264.450764,10.0.2.15,22,10.0.2.2,50546,1073725440,17746,1026,65535,65700,0,0,4,1460,312,0,16777220,240000,33580,244,65700,0,244,0,2154269554,63
i,1723651264.450782,10.0.2.15,22,10.0.2.2,50546,1073725440,17918,1026,65535,65700,0,0,4,1460,312,0,4,240000,33580,72,65700,0,72,0,2154269554,63
i,1723651264.450796,10.0.2.15,22,10.0.2.2,50546,1073725440,17990,1026,65535,65700,0,0,4,1460,312,0,4,240000,33580,0,65700,0,0,0,2154269554,63
i,1723651264.450812,10.0.2.15,22,10.0.2.2,50546,1073725440,17990,1026,65535,65700,0,0,4,1460,312,0,4,240000,33580,0,65700,96,0,0,2154269554,63
o,1723651264.450828,10.0.2.15,22,10.0.2.2,50546,1073725440,17990,1026,65535,65604,0,0,5,1460,312,0,5,240000,33580,0,65700,96,0,0,2154269554,63
o,1723651264.451337,10.0.2.15,22,10.0.2.2,50546,1073725440,17990,1026,65535,65604,0,0,8,1460,312,0,4,240000,33580,0,65700,0,0,0,2154269554,63
i,1723651264.451754,10.0.2.15,22,10.0.2.2,50546,1073725440,17990,1026,65535,65604,0,0,8,1460,312,0,67108884,240000,33580,0,65700,0,1,0,2154269554,63
i,1723651266.714911,10.0.2.15,22,10.0.2.2,50570,1073725440,14600,0,65535,65700,0,0,4,1460,312,0,16777216,270000,33580,0,65700,0,0,0,210421082,63
o,1723651266.724878,10.0.2.15,22,10.0.2.2,50570,1073725440,14600,1026,65535,65700,0,0,4,1460,312,0,16777216,270000,33580,38,65700,42,0,0,210421082,63
i,1723651266.725595,10.0.2.15,22,10.0.2.2,50570,1073725440,14600,1026,65535,65700,0,0,4,1460,312,0,16777216,270000,33580,38,65700,0,38,0,210421082,63
i,1723651266.725623,10.0.2.15,22,10.0.2.2,50570,1073725440,14638,1026,65535,65700,0,0,4,1460,312,0,0,240000,33580,0,65700,0,0,0,210421082,63
i,1723651266.725643,10.0.2.15,22,10.0.2.2,50570,1073725440,14638,1026,65535,65700,0,0,4,1460,312,0,0,240000,33580,0,65700,1460,0,0,210421082,63
o,1723651266.725670,10.0.2.15,22,10.0.2.2,50570,1073725440,14638,1026,65535,65700,0,0,4,1460,312,0,1,240000,33580,0,65700,1536,0,0,210421082,63
o,1723651266.726459,10.0.2.15,22,10.0.2.2,50570,1073725440,14638,1026,65535,65700,0,0,4,1460,312,0,16777216,240000,33580,1120,65700,1536,0,0,210421082,63
i,1723651266.726871,10.0.2.15,22,10.0.2.2,50570,1073725440,14638,1026,65535,65700,0,0,4,1460,312,0,16777216,240000,33580,1120,65700,0,1120,0,210421082,63
i,1723651266.728202,10.0.2.15,22,10.0.2.2,50570,1073725440,15758,1026,65535,65700,0,0,4,1460,312,0,0,240000,33580,0,65700,0,0,0,210421082,63
o,1723651266.731156,10.0.2.15,22,10.0.2.2,50570,1073725440,15758,1026,65535,65700,0,0,4,1460,312,0,16777216,240000,33580,492,65700,0,0,0,210421082,63
i,1723651266.731567,10.0.2.15,22,10.0.2.2,50570,1073725440,15758,1026,65535,65700,0,0,4,1460,312,0,16777216,240000,33580,492,65700,0,492,0,210421082,63
i,1723651266.736083,10.0.2.15,22,10.0.2.2,50570,1073725440,16250,1026,65535,65700,0,0,4,1460,312,0,0,240000,33580,0,65700,0,0,0,210421082,63
i,1723651266.736105,10.0.2.15,22,10.0.2.2,50570,1073725440,16250,1026,65535,65700,0,0,4,1460,312,0,0,240000,33580,0,65700,16,0,0,210421082,63
o,1723651266.736126,10.0.2.15,22,10.0.2.2,50570,1073725440,16250,1026,65535,65700,0,0,4,1460,312,0,1,240000,33580,0,65700,60,0,0,210421082,63
o,1723651266.736312,10.0.2.15,22,10.0.2.2,50570,1073725440,16250,1026,65535,65700,0,0,4,1460,312,0,16777216,240000,33580,44,65700,0,0,0,210421082,63
i,1723651266.736798,10.0.2.15,22,10.0.2.2,50570,1073725440,16250,1026,65535,65700,0,0,4,1460,312,0,16777216,240000,33580,44,65700,0,44,0,210421082,63
i,1723651266.736816,10.0.2.15,22,10.0.2.2,50570,1073725440,16294,1026,65535,65700,0,0,4,1460,312,0,0,240000,33580,0,65700,0,0,0,210421082,63
o,1723651266.737869,10.0.2.15,22,10.0.2.2,50570,1073725440,16294,1026,65535,65700,0,0,4,1460,312,0,16777216,240000,33580,68,65700,0,0,0,210421082,63
i,1723651266.738461,10.0.2.15,22,10.0.2.2,50570,1073725440,16294,1026,65535,65700,0,0,4,1460,312,0,16777216,240000,33580,68,65700,0,68,0,210421082,63
i,1723651266.738476,10.0.2.15,22,10.0.2.2,50570,1073725440,16362,1026,65535,65700,0,0,4,1460,312,0,0,240000,33580,0,65700,0,0,0,210421082,63
o,1723651266.739344,10.0.2.15,22,10.0.2.2,50570,1073725440,16362,1026,65535,65700,0,0,4,1460,312,0,16777216,240000,33580,332,65700,0,0,0,210421082,63
i,1723651266.740289,10.0.2.15,22,10.0.2.2,50570,1073725440,16362,1026,65535,65700,0,0,4,1460,312,0,16777216,240000,33580,332,65700,0,332,0,210421082,63
i,1723651266.741192,10.0.2.15,22,10.0.2.2,50570,1073725440,16694,1026,65535,65700,0,0,4,1460,312,0,0,240000,33580,0,65700,0,0,0,210421082,63
o,1723651266.759957,10.0.2.15,22,10.0.2.2,50570,1073725440,16694,1026,65535,65700,0,0,4,1460,312,0,16777216,240000,33580,28,65700,0,0,0,210421082,63
i,1723651266.760514,10.0.2.15,22,10.0.2.2,50570,1073725440,16694,1026,65535,65700,0,0,4,1460,312,0,16777216,240000,33580,28,65700,0,28,0,210421082,63
i,1723651266.761087,10.0.2.15,22,10.0.2.2,50570,1073725440,16722,1026,65535,65700,0,0,4,1460,312,0,0,240000,33580,0,65700,0,0,0,210421082,63
o,1723651266.761923,10.0.2.15,22,10.0.2.2,50570,1073725440,16722,1026,65535,65700,0,0,4,1460,312,0,16777216,240000,33580,768,65700,112,0,0,210421082,63
i,1723651266.762469,10.0.2.15,22,10.0.2.2,50570,1073725440,16722,1026,65535,65700,0,0,4,1460,312,0,16777216,240000,33580,908,65700,112,768,0,210421082,63
o,1723651266.762486,10.0.2.15,22,10.0.2.2,50570,1073725440,17490,1026,65535,65700,0,0,4,1460,312,0,16777216,240000,33580,140,65700,112,0,0,210421082,63
i,1723651266.763455,10.0.2.15,22,10.0.2.2,50570,1073725440,17490,1026,65535,65700,0,0,4,1460,312,0,16777216,240000,33580,184,65700,0,140,0,210421082,63
o,1723651266.763472,10.0.2.15,22,10.0.2.2,50570,1073725440,17630,1026,65535,65700,0,0,4,1460,312,0,16777216,240000,33580,44,65700,0,0,0,210421082,63
i,1723651266.764047,10.0.2.15,22,10.0.2.2,50570,1073725440,17630,1026,65535,65700,0,0,4,1460,312,0,16777216,240000,33580,44,65700,0,44,0,210421082,63
i,1723651266.764063,10.0.2.15,22,10.0.2.2,50570,1073725440,17674,1026,65535,65700,0,0,4,1460,312,0,0,240000,33580,0,65700,0,0,0,210421082,63
o,1723651266.764480,10.0.2.15,22,10.0.2.2,50570,1073725440,17674,1026,65535,65700,0,0,4,1460,312,0,16777220,240000,33580,72,65700,0,0,0,210421082,63
o,1723651266.767005,10.0.2.15,22,10.0.2.2,50570,1073725440,17674,1026,65535,65700,0,0,4,1460,312,0,16777220,240000,33580,176,65700,0,72,0,210421082,63
i,1723651266.767187,10.0.2.15,22,10.0.2.2,50570,1073725440,17674,1026,65535,65700,0,0,4,1460,312,0,16777220,240000,33580,176,65700,0,176,0,210421082,63
i,1723651266.767203,10.0.2.15,22,10.0.2.2,50570,1073725440,17746,1026,65535,65700,0,0,4,1460,312,0,4,240000,33580,104,65700,0,104,0,210421082,63
o,1723651266.767728,10.0.2.15,22,10.0.2.2,50570,1073725440,17850,1026,65535,65700,0,0,4,1460,312,0,16777220,240000,33580,72,65700,0,0,0,210421082,63
i,1723651266.768709,10.0.2.15,22,10.0.2.2,50570,1073725440,17850,1026,65535,65700,0,0,4,1460,312,0,16777220,240000,33580,72,65700,0,72,0,210421082,63
i,1723651266.768756,10.0.2.15,22,10.0.2.2,50570,1073725440,17922,1026,65535,65700,0,0,4,1460,312,0,4,240000,33580,0,65700,0,0,0,210421082,63
i,1723651266.768813,10.0.2.15,22,10.0.2.2,50570,1073725440,17922,1026,65535,65700,0,0,4,1460,312,0,4,240000,33580,0,65700,96,0,0,210421082,63
o,1723651266.768838,10.0.2.15,22,10.0.2.2,50570,1073725440,17922,1026,65535,65604,0,0,5,1460,312,0,5,240000,33580,0,65700,96,0,0,210421082,63
o,1723651266.776857,10.0.2.15,22,10.0.2.2,50570,1073725440,17922,1026,65535,65604,0,0,8,1460,312,0,4,240000,33580,0,65700,0,0,0,210421082,63
i,1723651266.779048,10.0.2.15,22,10.0.2.2,50570,1073725440,17922,1026,65535,65604,0,0,8,1460,312,0,67108884,240000,33580,0,65700,0,1,0,210421082,63
i,1723651268.926658,10.0.2.15,22,10.0.2.2,50576,1073725440,14600,0,65535,65700,0,0,4,1460,312,0,16777216,270000,33580,0,65700,0,0,0,1648689712,63
o,1723651268.936942,10.0.2.15,22,10.0.2.2,50576,1073725440,14600,1026,65535,65700,0,0,4,1460,312,0,16777216,270000,33580,38,65700,42,0,0,1648689712,63
i,1723651268.937979,10.0.2.15,22,10.0.2.2,50576,1073725440,14600,1026,65535,65700,0,0,4,1460,312,0,16777216,270000,33580,38,65700,0,38,0,1648689712,63
i,1723651268.938760,10.0.2.15,22,10.0.2.2,50576,1073725440,14638,1026,65535,65700,0,0,4,1460,312,0,0,240000,33580,0,65700,0,0,0,1648689712,63
i,1723651268.938782,10.0.2.15,22,10.0.2.2,50576,1073725440,14638,1026,65535,65700,0,0,4,1460,312,0,0,240000,33580,0,65700,1460,0,0,1648689712,63
o,1723651268.938807,10.0.2.15,22,10.0.2.2,50576,1073725440,14638,1026,65535,65700,0,0,4,1460,312,0,1,240000,33580,0,65700,1536,0,0,1648689712,63
o,1723651268.940110,10.0.2.15,22,10.0.2.2,50576,1073725440,14638,1026,65535,65700,0,0,4,1460,312,0,16777216,240000,33580,1120,65700,1536,0,0,1648689712,63
i,1723651268.940750,10.0.2.15,22,10.0.2.2,50576,1073725440,14638,1026,65535,65700,0,0,4,1460,312,0,16777216,240000,33580,1120,65700,0,1120,0,1648689712,63
i,1723651268.942200,10.0.2.15,22,10.0.2.2,50576,1073725440,15758,1026,65535,65700,0,0,4,1460,312,0,0,240000,33580,0,65700,0,0,0,1648689712,63
o,1723651268.945222,10.0.2.15,22,10.0.2.2,50576,1073725440,15758,1026,65535,65700,0,0,4,1460,312,0,16777216,240000,33580,492,65700,0,0,0,1648689712,63
i,1723651268.945649,10.0.2.15,22,10.0.2.2,50576,1073725440,15758,1026,65535,65700,0,0,4,1460,312,0,16777216,240000,33580,492,65700,0,492,0,1648689712,63
i,1723651268.950134,10.0.2.15,22,10.0.2.2,50576,1073725440,16250,1026,65535,65700,0,0,4,1460,312,0,0,240000,33580,0,65700,0,0,0,1648689712,63
i,1723651268.950155,10.0.2.15,22,10.0.2.2,50576,1073725440,16250,1026,65535,65700,0,0,4,1460,312,0,0,240000,33580,0,65700,16,0,0,1648689712,63
o,1723651268.950172,10.0.2.15,22,10.0.2.2,50576,1073725440,16250,1026,65535,65700,0,0,4,1460,312,0,1,240000,33580,0,65700,60,0,0,1648689712,63
o,1723651268.950365,10.0.2.15,22,10.0.2.2,50576,1073725440,16250,1026,65535,65700,0,0,4,1460,312,0,16777216,240000,33580,44,65700,0,0,0,1648689712,63
i,1723651268.951190,10.0.2.15,22,10.0.2.2,50576,1073725440,16250,1026,65535,65700,0,0,4,1460,312,0,16777216,240000,33580,44,65700,0,44,0,1648689712,63
i,1723651268.951210,10.0.2.15,22,10.0.2.2,50576,1073725440,16294,1026,65535,65700,0,0,4,1460,312,0,0,240000,33580,0,65700,0,0,0,1648689712,63
o,1723651268.953523,10.0.2.15,22,10.0.2.2,50576,1073725440,16294,1026,65535,65700,0,0,4,1460,312,0,16777216,240000,33580,68,65700,0,0,0,1648689712,63
i,1723651268.953729,10.0.2.15,22,10.0.2.2,50576,1073725440,16294,1026,65535,65700,0,0,4,1460,312,0,16777216,240000,33580,68,65700,0,68,0,1648689712,63
i,1723651268.953729,10.0.2.15,22,10.0.2.2,50576,1073725440,16362,1026,65535,65700,0,0,4,1460,312,0,0,240000,33580,0,65700,0,0,0,1648689712,63
o,1723651268.955903,10.0.2.15,22,10.0.2.2,50576,1073725440,16362,1026,65535,65700,0,0,4,1460,312,0,16777216,240000,33580,332,65700,0,0,0,1648689712,63
i,1723651268.956820,10.0.2.15,22,10.0.2.2,50576,1073725440,16362,1026,65535,65700,0,0,4,1460,312,0,16777216,240000,33580,332,65700,0,332,0,1648689712,63
i,1723651268.958310,10.0.2.15,22,10.0.2.2,50576,1073725440,16694,1026,65535,65700,0,0,4,1460,312,0,0,240000,33580,0,65700,0,0,0,1648689712,63
o,1723651268.980583,10.0.2.15,22,10.0.2.2,50576,1073725440,16694,1026,65535,65700,0,0,4,1460,312,0,16777216,240000,33580,28,65700,0,0,0,1648689712,63
i,1723651268.983103,10.0.2.15,22,10.0.2.2,50576,1073725440,16694,1026,65535,65700,0,0,4,1460,312,0,16777216,240000,33580,28,65700,0,28,0,1648689712,63
i,1723651268.983188,10.0.2.15,22,10.0.2.2,50576,1073725440,16722,1026,65535,65700,0,0,4,1460,312,0,0,230000,33580,0,65700,0,0,0,1648689712,63
o,1723651268.985646,10.0.2.15,22,10.0.2.2,50576,1073725440,16722,1026,65535,65700,0,0,4,1460,312,0,16777216,230000,33580,768,65700,112,0,0,1648689712,63
i,1723651268.986611,10.0.2.15,22,10.0.2.2,50576,1073725440,16722,1026,65535,65700,0,0,4,1460,312,0,16777216,230000,33580,908,65700,112,768,0,1648689712,63
o,1723651268.986633,10.0.2.15,22,10.0.2.2,50576,1073725440,17490,1026,65535,65700,0,0,4,1460,312,0,16777216,230000,33580,140,65700,112,0,0,1648689712,63
i,1723651268.986955,10.0.2.15,22,10.0.2.2,50576,1073725440,17490,1026,65535,65700,0,0,4,1460,312,0,16777216,230000,33580,140,65700,0,140,0,1648689712,63
o,1723651268.987109,10.0.2.15,22,10.0.2.2,50576,1073725440,17630,1026,65535,65700,0,0,4,1460,312,0,16777216,230000,33580,44,65700,0,0,0,1648689712,63
i,1723651268.987743,10.0.2.15,22,10.0.2.2,50576,1073725440,17630,1026,65535,65700,0,0,4,1460,312,0,16777216,230000,33580,44,65700,0,44,0,1648689712,63
i,1723651268.987767,10.0.2.15,22,10.0.2.2,50576,1073725440,17674,1026,65535,65700,0,0,4,1460,312,0,0,230000,33580,0,65700,0,0,0,1648689712,63
o,1723651268.988834,10.0.2.15,22,10.0.2.2,50576,1073725440,17674,1026,65535,65700,0,0,4,1460,312,0,16777220,230000,33580,72,65700,0,0,0,1648689712,63
i,1723651268.989190,10.0.2.15,22,10.0.2.2,50576,1073725440,17674,1026,65535,65700,0,0,4,1460,312,0,16777220,230000,33580,72,65700,0,72,0,1648689712,63
i,1723651268.989255,10.0.2.15,22,10.0.2.2,50576,1073725440,17746,1026,65535,65700,0,0,4,1460,312,0,4,240000,33580,0,65700,0,0,0,1648689712,63
o,1723651269.093125,10.0.2.15,22,10.0.2.2,50576,1073725440,17746,1026,65535,65700,0,0,4,1460,312,0,5,240000,33580,0,65700,0,0,0,1648689712,63
o,1723651269.117223,172.16.3.2,35559,172.16.1.2,5101,14671,14480,34,65535,65700,6,6,4,1460,202812,1,16778209,710000,33580,0,65700,0,0,0,3468899240,63
o,1723651269.117630,172.16.3.2,35559,172.16.1.2,5101,14671,14480,34,65535,65700,6,6,4,1460,202812,1,16778212,710000,33580,37,65700,0,0,0,3468899240,63
i,1723651269.226794,172.16.3.2,35559,172.16.1.2,5101,14671,14480,34,65535,65700,6,6,4,1460,202812,1,16778212,710000,33580,37,65700,0,37,0,3468899240,63
o,1723651269.227888,172.16.3.2,35559,172.16.1.2,5101,14671,14517,1058,65728,65728,6,6,4,1460,191250,1,16778212,710000,33580,4,65700,0,0,0,3468899240,63
o,1723651269.228551,172.16.3.2,35559,172.16.1.2,5101,14671,14517,1058,65728,65728,6,6,4,1460,191250,1,16778212,710000,33580,130,65700,0,4,0,3468899240,63
i,1723651269.350719,172.16.3.2,35559,172.16.1.2,5101,14671,14517,1058,65728,65728,6,6,4,1460,191250,1,16778212,710000,33580,130,65700,0,130,0,3468899240,63
i,1723651269.350761,172.16.3.2,35559,172.16.1.2,5101,14671,14647,1058,65600,65728,6,6,4,1460,182500,1,996,690000,33580,0,65700,0,0,0,3468899240,63
o,1723651269.384723,172.16.3.2,35559,172.16.1.2,5101,14671,14647,1058,65728,65728,6,6,4,1460,182500,1,997,690000,33580,0,65700,0,0,0,3468899240,63
o,1723651269.469309,172.16.3.2,33454,172.16.1.2,5101,14671,14480,34,65535,65700,6,6,4,1460,201562,1,16778209,710000,33580,0,65700,0,0,0,4130762512,63
o,1723651269.469527,172.16.3.2,33454,172.16.1.2,5101,14671,14480,34,65535,65700,6,6,4,1460,201562,1,16778208,710000,33580,37,65700,0,0,0,4130762512,63
i,1723651269.592566,172.16.3.2,35559,172.16.1.2,5101,14671,14647,1058,65728,65728,6,6,4,1460,182500,1,996,690000,33580,0,65700,0,0,0,3468899240,63
i,1723651269.592692,172.16.3.2,35559,172.16.1.2,5101,14671,14647,1058,65728,65728,6,6,4,1460,182500,1,996,690000,33580,0,65700,0,0,0,3468899240,63
o,1723651269.592746,172.16.3.2,35559,172.16.1.2,5101,14671,14647,1058,65728,65728,6,6,4,1460,182500,1,997,690000,33580,0,65700,0,0,0,3468899240,63
o,1723651269.593298,172.16.3.2,33454,172.16.1.2,5101,14671,14480,38,65535,65700,6,6,4,1460,201562,1,16778208,710000,33580,33580,65700,0,37,0,4130762512,63
i,1723651269.623642,172.16.3.2,33454,172.16.1.2,5101,14671,14480,38,65535,65700,6,6,4,1460,201562,1,16778208,710000,33580,33580,65700,0,13069,0,4130762512,63
o,1723651269.623677,172.16.3.2,33454,172.16.1.2,5101,14671,14517,38,65728,65728,6,6,4,1460,196562,1,16778208,670000,33580,33543,65700,0,13032,0,4130762512,63
i,1723651269.681503,172.16.3.2,33454,172.16.1.2,5101,14671,14517,38,65728,65728,6,6,4,1460,196562,1,16778208,670000,33580,33543,65700,0,14480,0,4130762512,63
o,1723651269.681645,172.16.3.2,33454,172.16.1.2,5101,14671,17413,38,64256,65728,6,6,4,1460,182187,1,16778208,700000,33580,30647,65700,0,11584,0,4130762512,63
i,1723651269.710578,172.16.3.2,33454,172.16.1.2,5101,14671,17413,38,64256,65728,6,6,4,1460,182187,1,16778208,700000,41772,41772,65700,0,17376,0,4130762512,63
o,1723651269.710692,172.16.3.2,33454,172.16.1.2,5101,14671,17413,38,64256,65728,6,6,4,1460,173437,1,16778208,680000,41772,38876,65700,0,14480,0,4130762512,63
i,1723651269.711550,172.16.3.2,33454,172.16.1.2,5101,14671,17413,38,64256,65728,6,6,4,1460,173437,1,16778208,680000,41772,41772,65700,0,17376,0,4130762512,63
o,1723651269.711571,172.16.3.2,33454,172.16.1.2,5101,14671,17413,38,64256,65728,6,6,4,1460,165625,1,16778208,660000,41772,38876,65700,0,14480,0,4130762512,63
i,1723651269.711764,172.16.3.2,33454,172.16.1.2,5101,14671,17413,38,64256,65728,6,6,4,1460,165625,1,16778208,660000,41772,38876,65700,0,17376,0,4130762512,63
o,1723651269.711783,172.16.3.2,33454,172.16.1.2,5101,14671,17413,38,62848,65728,6,6,4,1460,158750,1,16778208,630000,41772,35980,65700,0,14480,0,4130762512,63
i,1723651269.747348,172.16.3.2,33454,172.16.1.2,5101,14671,17413,38,62848,65728,6,6,4,1460,158750,1,16778208,630000,41772,41772,65700,0,17376,0,4130762512,63
o,1723651269.747404,172.16.3.2,33454,172.16.1.2,5101,14671,17413,38,64256,65728,6,6,4,1460,157812,1,16778208,570000,41772,38876,65700,0,14480,0,4130762512,63
o,1723651269.747585,172.16.3.2,33454,172.16.1.2,5101,14671,17413,38,64256,65728,6,6,4,1460,157812,1,16778208,570000,41772,38876,65700,0,15928,0,4130762512,63
i,1723651269.789731,172.16.3.2,33454,172.16.1.2,5101,14671,17413,38,64256,65728,6,6,4,1460,157812,1,16778208,570000,41772,41772,65700,0,17376,0,4130762512,63
o,1723651269.789766,172.16.3.2,33454,172.16.1.2,5101,14671,17413,38,64256,65728,6,6,4,1460,151875,1,16778208,560000,41772,38876,65700,0,14480,0,4130762512,63
i,1723651269.789939,172.16.3.2,33454,172.16.1.2,5101,14671,17413,38,64256,65728,6,6,4,1460,151875,1,16778208,560000,41772,38876,65700,0,17376,0,4130762512,63
o,1723651269.789957,172.16.3.2,33454,172.16.1.2,5101,14671,17413,38,62848,65728,6,6,4,1460,146875,1,16778208,540000,41772,35980,65700,0,14480,0,4130762512,63
i,1723651269.819707,172.16.3.2,33454,172.16.1.2,5101,14671,17413,38,62848,65728,6,6,4,1460,146875,1,16778208,540000,41772,41772,65700,0,17376,0,4130762512,63
o,1723651269.819751,172.16.3.2,33454,172.16.1.2,5101,14671,18873,38,62848,65728,6,6,4,1460,141250,1,16778208,530000,41772,38876,65700,0,14480,0,4130762512,63
i,1723651269.819912,172.16.3.2,33454,172.16.1.2,5101,14671,18873,38,62848,65728,6,6,4,1460,141250,1,16778208,530000,41772,38876,65700,0,18824,0,4130762512,63
o,1723651269.819928,172.16.3.2,33454,172.16.1.2,5101,14671,18873,38,62848,65728,6,6,4,1460,136250,1,16778208,520000,41772,35980,65700,0,15928,0,4130762512,63
i,1723651269.848745,172.16.3.2,33454,172.16.1.2,5101,14671,18873,38,62848,65728,6,6,4,1460,136250,1,16778208,520000,41772,41772,65700,0,18824,0,4130762512,63
o,1723651269.848818,172.16.3.2,33454,172.16.1.2,5101,14671,18873,38,62848,65728,6,6,4,1460,136875,1,16778208,480000,41772,38876,65700,0,15928,0,4130762512,63
i,1723651269.850424,172.16.3.2,33454,172.16.1.2,5101,14671,18873,38,62848,65728,6,6,4,1460,136875,1,16778208,480000,41772,41772,65700,0,18824,0,4130762512,63
o,1723651269.850461,172.16.3.2,33454,172.16.1.2,5101,14671,18873,38,59968,65728,6,6,4,1460,132500,1,16778208,480000,41772,38876,65700,0,15928,0,4130762512,63
o,1723651269.850653,172.16.3.2,33454,172.16.1.2,5101,14671,18873,38,59968,65728,6,6,4,1460,132500,1,16778208,480000,41772,38876,65700,0,17376,0,4130762512,63
i,1723651269.898824,172.16.3.2,33454,172.16.1.2,5101,14671,18873,38,59968,65728,6,6,4,1460,132500,1,16778208,480000,41772,41772,65700,0,18824,0,4130762512,63
o,1723651269.898916,172.16.3.2,33454,172.16.1.2,5101,14671,18873,38,62848,65728,6,6,4,1460,129687,1,16778208,460000,41772,38876,65700,0,15928,0,4130762512,63
i,1723651269.900386,172.16.3.2,33454,172.16.1.2,5101,14671,18873,38,62848,65728,6,6,4,1460,129687,1,16778208,460000,41772,41772,65700,0,18824,0,4130762512,63
o,1723651269.900408,172.16.3.2,33454,172.16.1.2,5101,14671,18873,38,64256,65728,6,6,4,1460,127500,1,16778208,440000,41772,38876,65700,0,15928,0,4130762512,63
i,1723651269.927887,172.16.3.2,33454,172.16.1.2,5101,14671,18873,38,64256,65728,6,6,4,1460,127500,1,16778208,440000,41772,41772,65700,0,18824,0,4130762512,63
o,1723651269.928105,172.16.3.2,33454,172.16.1.2,5101,14671,20333,38,64256,65728,6,6,4,1460,125312,1,16778208,430000,41772,38876,65700,0,15928,0,4130762512,63
i,1723651269.928797,172.16.3.2,33454,172.16.1.2,5101,14671,20333,38,64256,65728,6,6,4,1460,125312,1,16778208,430000,49964,38876,65700,0,20272,0,4130762512,63
o,1723651269.928939,172.16.3.2,33454,172.16.1.2,5101,14671,20333,38,64256,65728,6,6,4,1460,123437,1,16778208,420000,49964,35980,65700,0,17376,0,4130762512,63
i,1723651269.964546,172.16.3.2,33454,172.16.1.2,5101,14671,20333,38,64256,65728,6,6,4,1460,123437,1,16778208,420000,49964,49964,65700,0,20272,0,4130762512,63
o,1723651269.964598,172.16.3.2,33454,172.16.1.2,5101,14671,20333,38,64256,65728,6,6,4,1460,126875,1,16778208,420000,49964,47068,65700,0,17376,0,4130762512,63
i,1723651269.964800,172.16.3.2,33454,172.16.1.2,5101,14671,20333,38,64256,65728,6,6,4,1460,126875,1,16778208,420000,49964,47068,65700,0,20272,0,4130762512,63
o,1723651269.964834,172.16.3.2,33454,172.16.1.2,5101,14671,20333,38,62848,65728,6,6,4,1460,125000,1,16778208,410000,49964,44172,65700,0,17376,0,4130762512,63
o,1723651269.965002,172.16.3.2,33454,172.16.1.2,5101,14671,20333,38,62848,65728,6,6,4,1460,125000,1,16778208,410000,49964,44172,65700,0,18824,0,4130762512,63
i,1723651269.978530,172.16.3.2,33454,172.16.1.2,5101,14671,20333,38,62848,65728,6,6,4,1460,125000,1,16778208,410000,49964,49964,65700,0,20272,0,4130762512,63
o,1723651269.978608,172.16.3.2,33454,172.16.1.2,5101,14671,20333,38,65728,65728,6,6,4,1460,124375,1,16778208,390000,49964,48516,65700,0,18824,0,4130762512,63
i,1723651269.999830,172.16.3.2,33454,172.16.1.2,5101,14671,20333,38,65728,65728,6,6,4,1460,124375,1,16778208,390000,49964,48516,65700,0,20272,0,4130762512,63
o,1723651269.999866,172.16.3.2,33454,172.16.1.2,5101,14671,20333,38,62848,65728,6,6,4,1460,120312,1,16778208,410000,49964,45620,65700,0,17376,0,4130762512,63
i,1723651270.028029,172.16.3.2,33454,172.16.1.2,5101,14671,20333,38,62848,65728,6,6,4,1460,120312,1,16778208,410000,49964,49964,65700,0,20272,0,4130762512,63
o,1723651270.028583,172.16.3.2,33454,172.16.1.2,5101,14671,20333,38,62848,65728,6,6,4,1460,120312,1,16778208,380000,49964,47068,65700,0,17376,0,4130762512,63
i,1723651270.030642,172.16.3.2,33454,172.16.1.2,5101,14671,20333,38,62848,65728,6,6,4,1460,120312,1,16778208,380000,49964,49964,65700,0,20272,0,4130762512,63
o,1723651270.030755,172.16.3.2,33454,172.16.1.2,5101,14671,20333,38,62848,65728,6,6,4,1460,116562,1,16778208,390000,49964,47068,65700,0,17376,0,4130762512,63
i,1723651270.031095,172.16.3.2,33454,172.16.1.2,5101,14671,20333,38,62848,65728,6,6,4,1460,116562,1,16778208,390000,49964,47068,65700,0,20272,0,4130762512,63
o,1723651270.031124,172.16.3.2,33454,172.16.1.2,5101,14671,21793,38,59968,65728,6,6,4,1460,113437,1,16778208,400000,49964,44172,65700,0,17376,0,4130762512,63
i,1723651270.062514,172.16.3.2,33454,172.16.1.2,5101,14671,21793,38,59968,65728,6,6,4,1460,113437,1,16778208,400000,49964,49964,65700,0,21720,0,4130762512,63
o,1723651270.062586,172.16.3.2,33454,172.16.1.2,5101,14671,21793,38,62848,65728,6,6,4,1460,115625,1,16778208,400000,49964,47068,65700,0,18824,0,4130762512,63
i,1723651270.062744,172.16.3.2,33454,172.16.1.2,5101,14671,21793,38,62848,65728,6,6,4,1460,115625,1,16778208,400000,49964,47068,65700,0,21720,0,4130762512,63
o,1723651270.062761,172.16.3.2,33454,172.16.1.2,5101,14671,21793,38,59968,65728,6,6,4,1460,113750,1,16778208,390000,49964,44172,65700,0,18824,0,4130762512,63
o,1723651270.062881,172.16.3.2,33454,172.16.1.2,5101,14671,21793,38,59968,65728,6,6,4,1460,113750,1,16778208,390000,49964,44172,65700,0,20272,0,4130762512,63
i,1723651270.077842,172.16.3.2,33454,172.16.1.2,5101,14671,21793,38,59968,65728,6,6,4,1460,113750,1,16778208,390000,49964,49964,65700,0,21720,0,4130762512,63
o,1723651270.077869,172.16.3.2,33454,172.16.1.2,5101,14671,21793,38,64256,65728,6,6,4,1460,113437,1,16778208,370000,49964,47068,65700,0,18824,0,4130762512,63
i,1723651270.119930,172.16.3.2,33454,172.16.1.2,5101,14671,21793,38,64256,65728,6,6,4,1460,113437,1,16778208,370000,49964,49964,65700,0,21720,0,4130762512,63
o,1723651270.120068,172.16.3.2,33454,172.16.1.2,5101,14671,21793,38,62848,65728,6,6,4,1460,114375,1,16778208,360000,49964,47068,65700,0,18824,0,4130762512,63
i,1723651270.128738,172.16.3.2,33454,172.16.1.2,5101,14671,21793,38,62848,65728,6,6,4,1460,114375,1,16778208,360000,49964,49964,65700,0,21720,0,4130762512,63
o,1723651270.128830,172.16.3.2,33454,172.16.1.2,5101,14671,21793,38,64256,65728,6,6,4,1460,112812,1,16778208,360000,49964,47068,65700,0,18824,0,4130762512,63
i,1723651270.148108,172.16.3.2,33454,172.16.1.2,5101,14671,21793,38,64256,65728,6,6,4,1460,112812,1,16778208,360000,49964,49964,65700,0,21720,0,4130762512,63
o,1723651270.148133,172.16.3.2,33454,172.16.1.2,5101,14671,21793,38,62848,65728,6,6,4,1460,113750,1,16778208,360000,49964,47068,65700,0,18824,0,4130762512,63
i,1723651270.148560,172.16.3.2,33454,172.16.1.2,5101,14671,21793,38,62848,65728,6,6,4,1460,113750,1,16778208,360000,49964,47068,65700,0,21720,0,4130762512,63
o,1723651270.148579,172.16.3.2,33454,172.16.1.2,5101,14671,23253,38,64256,65728,6,6,4,1460,114687,1,16778208,350000,49964,44172,65700,0,18824,0,4130762512,63
i,1723651270.148747,172.16.3.2,33454,172.16.1.2,5101,14671,23253,38,64256,65728,6,6,4,1460,114687,1,16778208,350000,58156,44172,65700,0,23168,0,4130762512,63
o,1723651270.148776,172.16.3.2,33454,172.16.1.2,5101,14671,23253,38,64256,65728,6,6,4,1460,115625,1,16778208,350000,58156,41276,65700,0,20272,0,4130762512,63
i,1723651270.180478,172.16.3.2,33454,172.16.1.2,5101,14671,23253,38,64256,65728,6,6,4,1460,115625,1,16778208,350000,58156,58156,65700,0,23168,0,4130762512,63
o,1723651270.180622,172.16.3.2,33454,172.16.1.2,5101,14671,23253,38,62848,65728,6,6,4,1460,115000,1,16778208,350000,58156,55260,65700,0,20272,0,4130762512,63
o,1723651270.181049,172.16.3.2,33454,172.16.1.2,5101,14671,23253,38,62848,65728,6,6,4,1460,115000,1,16778208,350000,58156,55260,65700,0,21720,0,4130762512,63
i,1723651270.181442,172.16.3.2,33454,172.16.1.2,5101,14671,23253,38,62848,65728,6,6,4,1460,115000,1,16778208,350000,58156,55260,65700,0,23168,0,4130762512,63
o,1723651270.181519,172.16.3.2,33454,172.16.1.2,5101,14671,23253,38,64256,65728,6,6,4,1460,114375,1,16778208,340000,58156,52364,65700,0,20272,0,4130762512,63
i,1723651270.209177,172.16.3.2,33454,172.16.1.2,5101,14671,23253,38,64256,65728,6,6,4,1460,114375,1,16778208,340000,58156,58156,65700,0,23168,0,4130762512,63
o,1723651270.209246,172.16.3.2,33454,172.16.1.2,5101,14671,23253,38,65728,65728,6,6,4,1460,116562,1,16778208,360000,58156,56708,65700,0,21720,0,4130762512,63
i,1723651270.239501,172.16.3.2,33454,172.16.1.2,5101,14671,23253,38,65728,65728,6,6,4,1460,116562,1,16778208,360000,58156,56708,65700,0,23168,0,4130762512,63
o,1723651270.239542,172.16.3.2,33454,172.16.1.2,5101,14671,23253,38,64256,65728,6,6,4,1460,115937,1,16778208,350000,58156,53812,65700,0,20272,0,4130762512,63
i,1723651270.240952,172.16.3.2,33454,172.16.1.2,5101,14671,23253,38,64256,65728,6,6,4,1460,115937,1,16778208,350000,58156,58156,65700,0,23168,0,4130762512,63
o,1723651270.240974,172.16.3.2,33454,172.16.1.2,5101,14671,23253,38,62848,65728,6,6,4,1460,115312,1,16778208,350000,58156,55260,65700,0,20272,0,4130762512,63
i,1723651270.273115,172.16.3.2,33454,172.16.1.2,5101,14671,23253,38,62848,65728,6,6,4,1460,115312,1,16778208,350000,58156,58156,65700,0,23168,0,4130762512,63
o,1723651270.273135,172.16.3.2,33454,172.16.1.2,5101,14671,23253,38,62848,65728,6,6,4,1460,115937,1,16778208,340000,58156,55260,65700,0,20272,0,4130762512,63
i,1723651270.273310,172.16.3.2,33454,172.16.1.2,5101,14671,23253,38,62848,65728,6,6,4,1460,115937,1,16778208,340000,58156,55260,65700,0,23168,0,4130762512,63
o,1723651270.273340,172.16.3.2,33454,172.16.1.2,5101,14671,23253,38,64256,65728,6,6,4,1460,116562,1,16778208,340000,58156,52364,65700,0,20272,0,4130762512,63
i,1723651270.273500,172.16.3.2,33454,172.16.1.2,5101,14671,23253,38,64256,65728,6,6,4,1460,116562,1,16778208,340000,58156,52364,65700,0,23168,0,4130762512,63
o,1723651270.273527,172.16.3.2,33454,172.16.1.2,5101,14671,24713,38,62848,65728,6,6,4,1460,117187,1,16778208,340000,58156,49468,65700,0,20272,0,4130762512,63
i,1723651270.273764,172.16.3.2,33454,172.16.1.2,5101,14671,24713,38,62848,65728,6,6,4,1460,117187,1,16778208,340000,58156,49468,65700,0,24616,0,4130762512,63
o,1723651270.273781,172.16.3.2,33454,172.16.1.2,5101,14671,24713,38,59968,65728,6,6,4,1460,117812,1,16778208,340000,58156,46572,65700,0,21720,0,4130762512,63
o,1723651270.273898,172.16.3.2,33454,172.16.1.2,5101,14671,24713,38,59968,65728,6,6,4,1460,117812,1,16778208,340000,58156,46572,65700,0,23168,0,4130762512,63
i,1723651270.275885,172.16.3.2,33454,172.16.1.2,5101,14671,24713,38,59968,65728,6,6,4,1460,117812,1,16778208,340000,58156,58156,65700,0,24616,0,4130762512,63
o,1723651270.275905,172.16.3.2,33454,172.16.1.2,5101,14671,24713,38,57088,65728,6,6,4,1460,114375,1,16778208,360000,58156,55260,65700,0,21720,0,4130762512,63
i,1723651270.309093,172.16.3.2,33454,172.16.1.2,5101,14671,24713,38,57088,65728,6,6,4,1460,114375,1,16778208,360000,58156,58156,65700,0,24616,0,4130762512,63
o,1723651270.309177,172.16.3.2,33454,172.16.1.2,5101,14671,24713,38,65728,65728,6,6,4,1460,115312,1,16778208,360000,58156,56708,65700,0,23168,0,4130762512,63
i,1723651270.369386,172.16.3.2,33454,172.16.1.2,5101,14671,24713,38,65728,65728,6,6,4,1460,115312,1,16778208,360000,58156,56708,65700,0,24616,0,4130762512,63
o,1723651270.369415,172.16.3.2,33454,172.16.1.2,5101,14671,24713,38,65728,65728,6,6,4,1460,120937,1,16778208,400000,58156,55260,65700,0,23168,0,4130762512,63
i,1723651270.369803,172.16.3.2,33454,172.16.1.2,5101,14671,24713,38,65728,65728,6,6,4,1460,120937,1,16778208,400000,58156,58156,65700,0,24616,0,4130762512,63
o,1723651270.369830,172.16.3.2,33454,172.16.1.2,5101,14671,24713,38,62848,65728,6,6,4,1460,122187,1,16778208,390000,58156,55260,65700,0,21720,0,4130762512,63
i,1723651270.371264,172.16.3.2,33454,172.16.1.2,5101,14671,24713,38,62848,65728,6,6,4,1460,122187,1,16778208,390000,58156,58156,65700,0,24616,0,4130762512,63
o,1723651270.371284,172.16.3.2,33454,172.16.1.2,5101,14671,24713,38,64256,65728,6,6,4,1460,123437,1,16778208,380000,58156,55260,65700,0,21720,0,4130762512,63
i,1723651270.372215,172.16.3.2,33454,172.16.1.2,5101,14671,24713,38,64256,65728,6,6,4,1460,123437,1,16778208,380000,58156,58156,65700,0,24616,0,4130762512,63
o,1723651270.372282,172.16.3.2,33454,172.16.1.2,5101,14671,24713,38,64256,65728,6,6,4,1460,119375,1,16778208,390000,58156,55260,65700,0,21720,0,4130762512,63
i,1723651270.398422,172.16.3.2,33454,172.16.1.2,5101,14671,24713,38,64256,65728,6,6,4,1460,119375,1,16778208,390000,58156,58156,65700,0,24616,0,4130762512,63
o,1723651270.398446,172.16.3.2,33454,172.16.1.2,5101,14671,24713,38,64256,65728,6,6,4,1460,118437,1,16778208,380000,58156,55260,65700,0,21720,0,4130762512,63
i,1723651270.398576,172.16.3.2,33454,172.16.1.2,5101,14671,24713,38,64256,65728,6,6,4,1460,118437,1,16778208,380000,58156,55260,65700,0,24616,0,4130762512,63
o,1723651270.398592,172.16.3.2,33454,172.16.1.2,5101,14671,26173,38,61376,65728,6,6,4,1460,117500,1,16778208,370000,58156,52364,65700,0,21720,0,4130762512,63
i,1723651270.398743,172.16.3.2,33454,172.16.1.2,5101,14671,26173,38,61376,65728,6,6,4,1460,117500,1,16778208,370000,58156,52364,65700,0,26064,0,4130762512,63
o,1723651270.398759,172.16.3.2,33454,172.16.1.2,5101,14671,26173,38,64256,65728,6,6,4,1460,116562,1,16778208,360000,58156,49468,65700,0,23168,0,4130762512,63
o,1723651270.398871,172.16.3.2,33454,172.16.1.2,5101,14671,26173,38,64256,65728,6,6,4,1460,116562,1,16778208,360000,58156,49468,65700,0,24616,0,4130762512,63
i,1723651270.398981,172.16.3.2,33454,172.16.1.2,5101,14671,26173,38,64256,65728,6,6,4,1460,116562,1,16778208,360000,58156,49468,65700,0,26064,0,4130762512,63
o,1723651270.398996,172.16.3.2,33454,172.16.1.2,5101,14671,26173,38,64256,65728,6,6,4,1460,115937,1,16778208,360000,58156,46572,65700,0,23168,0,4130762512,63
i,1723651270.420752,172.16.3.2,33454,172.16.1.2,5101,14671,26173,38,64256,65728,6,6,4,1460,115937,1,16778208,360000,58156,58156,65700,0,26064,0,4130762512,63
o,1723651270.420815,172.16.3.2,33454,172.16.1.2,5101,14671,26173,38,64256,65728,6,6,4,1460,119062,1,16778208,370000,58156,55260,65700,0,23168,0,4130762512,63
i,1723651270.513506,172.16.3.2,33454,172.16.1.2,5101,14671,26173,38,64256,65728,6,6,4,1460,119062,1,16778208,370000,58156,58156,65700,0,26064,0,4130762512,63
o,1723651270.513604,172.16.3.2,33454,172.16.1.2,5101,14671,26173,38,62848,65728,6,6,4,1460,121875,1,16778208,380000,58156,55260,65700,0,23168,0,4130762512,63
i,1723651270.513805,172.16.3.2,33454,172.16.1.2,5101,14671,26173,38,62848,65728,6,6,4,1460,121875,1,16778208,380000,58156,55260,65700,0,26064,0,4130762512,63
o,1723651270.513840,172.16.3.2,33454,172.16.1.2,5101,14671,26173,38,64256,65728,6,6,4,1460,124375,1,16778208,390000,58156,52364,65700,0,23168,0,4130762512,63
i,1723651270.514979,172.16.3.2,33454,172.16.1.2,5101,14671,26173,38,64256,65728,6,6,4,1460,124375,1,16778208,390000,58156,58156,65700,0,26064,0,4130762512,63
o,1723651270.515008,172.16.3.2,33454,172.16.1.2,5101,14671,26173,38,64256,65728,6,6,4,1460,126562,1,16778208,390000,58156,55260,65700,0,23168,0,4130762512,63
i,1723651270.515193,172.16.3.2,33454,172.16.1.2,5101,14671,26173,38,64256,65728,6,6,4,1460,126562,1,16778208,390000,58156,55260,65700,0,26064,0,4130762512,63
o,1723651270.515217,172.16.3.2,33454,172.16.1.2,5101,14671,26173,38,64256,65728,6,6,4,1460,128437,1,16778208,390000,58156,52364,65700,0,23168,0,4130762512,63
i,1723651270.515393,172.16.3.2,33454,172.16.1.2,5101,14671,26173,38,64256,65728,6,6,4,1460,128437,1,16778208,390000,58156,52364,65700,0,26064,0,4130762512,63
o,1723651270.515421,172.16.3.2,33454,172.16.1.2,5101,14671,26173,38,61376,65728,6,6,4,1460,127500,1,16778208,380000,58156,49468,65700,0,23168,0,4130762512,63
i,1723651270.539026,172.16.3.2,33454,172.16.1.2,5101,14671,26173,38,61376,65728,6,6,4,1460,127500,1,16778208,380000,58156,58156,65700,0,26064,0,4130762512,63
o,1723651270.539053,172.16.3.2,33454,172.16.1.2,5101,14671,27633,38,62848,65728,6,6,4,1460,129062,1,16778208,380000,58156,55260,65700,0,23168,0,4130762512,63
i,1723651270.539218,172.16.3.2,33454,172.16.1.2,5101,14671,27633,38,62848,65728,6,6,4,1460,129062,1,16778208,380000,58156,55260,65700,0,27512,0,4130762512,63
o,1723651270.539235,172.16.3.2,33454,172.16.1.2,5101,14671,27633,38,64256,65728,6,6,4,1460,130625,1,16778208,380000,58156,52364,65700,0,24616,0,4130762512,63
o,1723651270.539413,172.16.3.2,33454,172.16.1.2,5101,14671,27633,38,64256,65728,6,6,4,1460,130625,1,16778208,380000,66348,52364,65700,0,26064,0,4130762512,63
i,1723651270.539582,172.16.3.2,33454,172.16.1.2,5101,14671,27633,38,64256,65728,6,6,4,1460,130625,1,16778208,380000,66348,52364,65700,0,27512,0,4130762512,63
o,1723651270.539616,172.16.3.2,33454,172.16.1.2,5101,14671,27633,38,62848,65728,6,6,4,1460,131875,1,16778208,380000,66348,49468,65700,0,24616,0,4130762512,63
i,1723651270.558921,172.16.3.2,33454,172.16.1.2,5101,14671,27633,38,62848,65728,6,6,4,1460,131875,1,16778208,380000,66348,66348,65700,0,27512,0,4130762512,63
o,1723651270.558945,172.16.3.2,33454,172.16.1.2,5101,14671,27633,38,64256,65728,6,6,4,1460,133125,1,16778208,380000,66348,63452,65700,0,24616,0,4130762512,63
i,1723651270.618526,172.16.3.2,33454,172.16.1.2,5101,14671,27633,38,64256,65728,6,6,4,1460,133125,1,16778208,380000,66348,66348,65700,0,27512,0,4130762512,63
o,1723651270.618576,172.16.3.2,33454,172.16.1.2,5101,14671,27633,38,62848,65728,6,6,4,1460,129062,1,16778208,400000,66348,63452,65700,0,24616,0,4130762512,63
i,1723651270.618845,172.16.3.2,33454,172.16.1.2,5101,14671,27633,38,62848,65728,6,6,4,1460,129062,1,16778208,400000,66348,63452,65700,0,27512,0,4130762512,63
o,1723651270.618875,172.16.3.2,33454,172.16.1.2,5101,14671,27633,38,62848,65728,6,6,4,1460,125625,1,16778208,400000,66348,60556,65700,0,24616,0,4130762512,63
i,1723651270.638646,172.16.3.2,33454,172.16.1.2,5101,14671,27633,38,62848,65728,6,6,4,1460,125625,1,16778208,400000,66348,66348,65700,0,27512,0,4130762512,63
o,1723651270.638679,172.16.3.2,33454,172.16.1.2,5101,14671,27633,38,64256,65728,6,6,4,1460,125000,1,16778208,390000,66348,63452,65700,0,24616,0,4130762512,63
i,1723651270.638860,172.16.3.2,33454,172.16.1.2,5101,14671,27633,38,64256,65728,6,6,4,1460,125000,1,16778208,390000,66348,63452,65700,0,27512,0,4130762512,63
o,1723651270.639007,172.16.3.2,33454,172.16.1.2,5101,14671,27633,38,64256,65728,6,6,4,1460,124375,1,16778208,380000,66348,60556,65700,0,24616,0,4130762512,63
i,1723651270.640008,172.16.3.2,33454,172.16.1.2,5101,14671,27633,38,64256,65728,6,6,4,1460,124375,1,16778208,380000,66348,66348,65700,0,27512,0,4130762512,63
o,1723651270.640028,172.16.3.2,33454,172.16.1.2,5101,14671,27633,38,62848,65728,6,6,4,1460,124062,1,16778208,370000,66348,63452,65700,0,24616,0,4130762512,63
i,1723651270.658839,172.16.3.2,33454,172.16.1.2,5101,14671,27633,38,62848,65728,6,6,4,1460,124062,1,16778208,370000,66348,66348,65700,0,27512,0,4130762512,63
o,1723651270.658859,172.16.3.2,33454,172.16.1.2,5101,14671,27633,38,62848,65728,6,6,4,1460,123750,1,16778208,360000,66348,63452,65700,0,24616,0,4130762512,63
i,1723651270.659033,172.16.3.2,33454,172.16.1.2,5101,14671,27633,38,62848,65728,6,6,4,1460,123750,1,16778208,360000,66348,63452,65700,0,27512,0,4130762512,63
o,1723651270.659051,172.16.3.2,33454,172.16.1.2,5101,14671,29093,38,59968,65728,6,6,4,1460,123437,1,16778208,350000,66348,60556,65700,0,24616,0,4130762512,63
o,1723651270.659206,172.16.3.2,33454,172.16.1.2,5101,14671,29093,38,59968,65728,6,6,4,1460,123437,1,16778208,350000,66348,60556,65700,0,26064,0,4130762512,63
i,1723651270.659350,172.16.3.2,33454,172.16.1.2,5101,14671,29093,38,59968,65728,6,6,4,1460,123437,1,16778208,350000,66348,60556,65700,0,28960,0,4130762512,63
o,1723651270.659386,172.16.3.2,33454,172.16.1.2,5101,14671,29093,38,57088,65728,6,6,4,1460,123125,1,16778208,350000,66348,57660,65700,0,26064,0,4130762512,63
i,1723651270.678830,172.16.3.2,33454,172.16.1.2,5101,14671,29093,38,57088,65728,6,6,4,1460,123125,1,16778208,350000,66348,66348,65700,0,28960,0,4130762512,63
o,1723651270.678930,172.16.3.2,33454,172.16.1.2,5101,14671,29093,38,64256,65728,6,6,4,1460,125312,1,16778208,360000,66348,63452,65700,0,26064,0,4130762512,63
i,1723651270.719134,172.16.3.2,33454,172.16.1.2,5101,14671,29093,38,64256,65728,6,6,4,1460,125312,1,16778208,360000,66348,66348,65700,0,28960,0,4130762512,63
o,1723651270.719167,172.16.3.2,33454,172.16.1.2,5101,14671,29093,38,64256,65728,6,6,4,1460,129687,1,16778208,390000,66348,63452,65700,0,26064,0,4130762512,63
i,1723651270.719329,172.16.3.2,33454,172.16.1.2,5101,14671,29093,38,64256,65728,6,6,4,1460,129687,1,16778208,390000,66348,63452,65700,0,28960,0,4130762512,63
o,1723651270.719363,172.16.3.2,33454,172.16.1.2,5101,14671,29093,38,62848,65728,6,6,4,1460,126250,1,16778208,400000,66348,60556,65700,0,26064,0,4130762512,63
i,1723651270.741088,172.16.3.2,33454,172.16.1.2,5101,14671,29093,38,62848,65728,6,6,4,1460,126250,1,16778208,400000,66348,65216,65700,0,28960,0,4130762512,63
o,1723651270.741176,172.16.3.2,33454,172.16.1.2,5101,14671,29093,38,64256,65728,6,6,4,1460,125625,1,16778208,390000,66348,62320,65700,0,26064,0,4130762512,63
i,1723651270.767332,172.16.3.2,33454,172.16.1.2,5101,14671,29093,38,64256,65728,6,6,4,1460,125625,1,16778208,390000,66348,66348,65700,0,28960,0,4130762512,63
o,1723651270.767352,172.16.3.2,33454,172.16.1.2,5101,14671,29093,38,64256,65728,6,6,4,1460,126250,1,16778208,380000,66348,63452,65700,0,26064,0,4130762512,63
i,1723651270.767519,172.16.3.2,33454,172.16.1.2,5101,14671,29093,38,64256,65728,6,6,4,1460,126250,1,16778208,380000,66348,63452,65700,0,28960,0,4130762512,63
o,1723651270.767535,172.16.3.2,33454,172.16.1.2,5101,14671,29093,38,61376,65728,6,6,4,1460,126875,1,16778208,370000,66348,60556,65700,0,26064,0,4130762512,63
i,1723651270.767673,172.16.3.2,33454,172.16.1.2,5101,14671,29093,38,61376,65728,6,6,4,1460,126875,1,16778208,370000,66348,60556,65700,0,28960,0,4130762512,63
o,1723651270.767688,172.16.3.2,33454,172.16.1.2,5101,14671,29093,38,64256,65728,6,6,4,1460,127500,1,16778208,370000,66348,57660,65700,0,26064,0,4130762512,63
i,1723651270.767881,172.16.3.2,33454,172.16.1.2,5101,14671,29093,38,64256,65728,6,6,4,1460,127500,1,16778208,370000,66348,57660,65700,0,28960,0,4130762512,63
o,1723651270.767897,172.16.3.2,33454,172.16.1.2,5101,14671,29093,38,64256,65728,6,6,4,1460,124062,1,16778208,380000,66348,54764,65700,0,26064,0,4130762512,63
o,1723651270.768046,172.16.3.2,33454,172.16.1.2,5101,14671,29093,38,64256,65728,6,6,4,1460,124062,1,16778208,380000,66348,54764,65700,0,27512,0,4130762512,63
i,1723651270.779071,172.16.3.2,33454,172.16.1.2,5101,14671,29093,38,64256,65728,6,6,4,1460,124062,1,16778208,380000,66348,66348,65700,0,28960,0,4130762512,63
o,1723651270.779091,172.16.3.2,33454,172.16.1.2,5101,14671,30553,38,64256,65728,6,6,4,1460,123750,1,16778208,370000,66348,63452,65700,0,26064,0,4130762512,63
i,1723651270.779230,172.16.3.2,33454,172.16.1.2,5101,14671,30553,38,64256,65728,6,6,4,1460,123750,1,16778208,370000,66348,63452,65700,0,30408,0,4130762512,63
o,1723651270.779246,172.16.3.2,33454,172.16.1.2,5101,14671,30553,38,61376,65728,6,6,4,1460,123437,1,16778208,360000,66348,60556,65700,0,27512,0,4130762512,63
i,1723651270.788372,172.16.3.2,33454,172.16.1.2,5101,14671,30553,38,61376,65728,6,6,4,1460,123437,1,16778208,360000,74540,74540,65700,0,30408,0,4130762512,63
o,1723651270.788393,172.16.3.2,33454,172.16.1.2,5101,14671,30553,38,62848,65728,6,6,4,1460,120625,1,16778208,370000,74540,71644,65700,0,27512,0,4130762512,63
i,1723651270.828441,172.16.3.2,33454,172.16.1.2,5101,14671,30553,38,62848,65728,6,6,4,1460,120625,1,16778208,370000,74540,74540,65700,0,30408,0,4130762512,63
o,1723651270.828465,172.16.3.2,33454,172.16.1.2,5101,14671,30553,38,62848,65728,6,6,4,1460,119375,1,16778208,360000,74540,71644,65700,0,27512,0,4130762512,63
i,1723651270.839595,172.16.3.2,33454,172.16.1.2,5101,14671,30553,38,62848,65728,6,6,4,1460,119375,1,16778208,360000,74540,74540,65700,0,30408,0,4130762512,63
o,1723651270.839615,172.16.3.2,33454,172.16.1.2,5101,14671,30553,38,62848,65728,6,6,4,1460,119687,1,16778208,350000,74540,71644,65700,0,27512,0,4130762512,63
i,1723651270.858686,172.16.3.2,33454,172.16.1.2,5101,14671,30553,38,62848,65728,6,6,4,1460,119687,1,16778208,350000,74540,74540,65700,0,30408,0,4130762512,63
o,1723651270.858756,172.16.3.2,33454,172.16.1.2,5101,14671,30553,38,62848,65728,6,6,4,1460,120000,1,16778208,350000,74540,71644,65700,0,27512,0,4130762512,63
i,1723651270.879120,172.16.3.2,33454,172.16.1.2,5101,14671,30553,38,62848,65728,6,6,4,1460,120000,1,16778208,350000,74540,74540,65700,0,30408,0,4130762512,63
o,1723651270.879194,172.16.3.2,33454,172.16.1.2,5101,14671,30553,38,64256,65728,6,6,4,1460,118750,1,16778208,350000,74540,71644,65700,0,27512,0,4130762512,63
i,1723651270.888335,172.16.3.2,33454,172.16.1.2,5101,14671,30553,38,64256,65728,6,6,4,1460,118750,1,16778208,350000,74540,74540,65700,0,30408,0,4130762512,63
o,1723651270.888356,172.16.3.2,33454,172.16.1.2,5101,14671,30553,38,64256,65728,6,6,4,1460,119062,1,16778208,340000,74540,71644,65700,0,27512,0,4130762512,63
i,1723651270.888508,172.16.3.2,33454,172.16.1.2,5101,14671,30553,38,64256,65728,6,6,4,1460,119062,1,16778208,340000,74540,71644,65700,0,30408,0,4130762512,63
o,1723651270.888524,172.16.3.2,33454,172.16.1.2,5101,14671,30553,38,64256,65728,6,6,4,1460,119375,1,16778208,340000,74540,68748,65700,0,27512,0,4130762512,63
i,1723651270.888660,172.16.3.2,33454,172.16.1.2,5101,14671,30553,38,64256,65728,6,6,4,1460,119375,1,16778208,340000,74540,68748,65700,0,30408,0,4130762512,63
o,1723651270.888675,172.16.3.2,33454,172.16.1.2,5101,14671,30553,38,64256,65728,6,6,4,1460,119687,1,16778208,340000,74540,65852,65700,0,27512,0,4130762512,63
o,1723651270.888806,172.16.3.2,33454,172.16.1.2,5101,14671,30553,38,64256,65728,6,6,4,1460,119687,1,16778208,340000,74540,65852,65700,0,28960,0,4130762512,63
i,1723651270.897958,172.16.3.2,33454,172.16.1.2,5101,14671,30553,38,64256,65728,6,6,4,1460,119687,1,16778208,340000,74540,74540,65700,0,30408,0,4130762512,63
o,1723651270.897978,172.16.3.2,33454,172.16.1.2,5101,14671,32013,38,64256,65728,6,6,4,1460,120000,1,16778208,340000,74540,71644,65700,0,27512,0,4130762512,63
i,1723651270.898095,172.16.3.2,33454,172.16.1.2,5101,14671,32013,38,64256,65728,6,6,4,1460,120000,1,16778208,340000,74540,71644,65700,0,31856,0,4130762512,63
o,1723651270.898111,172.16.3.2,33454,172.16.1.2,5101,14671,32013,38,61376,65728,6,6,4,1460,120000,1,16778208,330000,74540,68748,65700,0,28960,0,4130762512,63
i,1723651270.909160,172.16.3.2,33454,172.16.1.2,5101,14671,32013,38,61376,65728,6,6,4,1460,120000,1,16778208,330000,74540,74540,65700,0,31856,0,4130762512,63
o,1723651270.909188,172.16.3.2,33454,172.16.1.2,5101,14671,32013,38,64256,65728,6,6,4,1460,121250,1,16778208,340000,74540,71644,65700,0,28960,0,4130762512,63
i,1723651270.937852,172.16.3.2,33454,172.16.1.2,5101,14671,32013,38,64256,65728,6,6,4,1460,121250,1,16778208,340000,74540,74540,65700,0,31856,0,4130762512,63
o,1723651270.937872,172.16.3.2,33454,172.16.1.2,5101,14671,32013,38,64256,65728,6,6,4,1460,125000,1,16778208,370000,74540,71644,65700,0,28960,0,4130762512,63
i,1723651270.938029,172.16.3.2,33454,172.16.1.2,5101,14671,32013,38,64256,65728,6,6,4,1460,125000,1,16778208,370000,74540,71644,65700,0,31856,0,4130762512,63
o,1723651270.938046,172.16.3.2,33454,172.16.1.2,5101,14671,32013,38,97152,65728,6,6,4,1460,121875,1,16778208,380000,74540,68748,65700,0,28960,0,4130762512,63
i,1723651270.958331,172.16.3.2,33454,172.16.1.2,5101,14671,32013,38,97152,65728,6,6,4,1460,121875,1,16778208,380000,74540,74540,65700,0,31856,0,4130762512,63
o,1723651270.958429,172.16.3.2,33454,172.16.1.2,5101,14671,32013,38,97152,65728,6,6,4,1460,120625,1,16778208,370000,74540,71644,65700,0,28960,0,4130762512,63
i,1723651270.989257,172.16.3.2,33454,172.16.1.2,5101,14671,32013,38,97152,65728,6,6,4,1460,120625,1,16778208,370000,74540,74540,65700,0,31856,0,4130762512,63
o,1723651270.989334,172.16.3.2,33454,172.16.1.2,5101,14671,32013,38,97152,65728,6,6,4,1460,121875,1,16778208,370000,74540,71644,65700,0,28960,0,4130762512,63
i,1723651270.999171,172.16.3.2,33454,172.16.1.2,5101,14671,32013,38,97152,65728,6,6,4,1460,121875,1,16778208,370000,74540,74540,65700,0,31856,0,4130762512,63
o,1723651270.999194,172.16.3.2,33454,172.16.1.2,5101,14671,32013,38,97152,65728,6,6,4,1460,121875,1,16778208,360000,74540,71644,65700,0,28960,0,4130762512,63
i,1723651270.999359,172.16.3.2,33454,172.16.1.2,5101,14671,32013,38,97152,65728,6,6,4,1460,121875,1,16778208,360000,74540,71644,65700,0,31856,0,4130762512,63
o,1723651270.999376,172.16.3.2,33454,172.16.1.2,5101,14671,32013,38,97152,65728,6,6,4,1460,120625,1,16778208,360000,74540,68748,65700,0,28960,0,4130762512,63
i,1723651271.017861,172.16.3.2,33454,172.16.1.2,5101,14671,32013,38,97152,65728,6,6,4,1460,120625,1,16778208,360000,74540,74540,65700,0,31856,0,4130762512,63
o,1723651271.017883,172.16.3.2,33454,172.16.1.2,5101,14671,32013,38,95680,65728,6,6,4,1460,121875,1,16778208,360000,74540,71644,65700,0,28960,0,4130762512,63
o,1723651271.017992,172.16.3.2,33454,172.16.1.2,5101,14671,32013,38,95680,65728,6,6,4,1460,121875,1,16778208,360000,74540,71644,65700,0,30408,0,4130762512,63
i,1723651271.018114,172.16.3.2,33454,172.16.1.2,5101,14671,32013,38,95680,65728,6,6,4,1460,121875,1,16778208,360000,74540,71644,65700,0,31856,0,4130762512,63
o,1723651271.018130,172.16.3.2,33454,172.16.1.2,5101,14671,32013,38,97152,65728,6,6,4,1460,123125,1,16778208,360000,74540,68748,65700,0,28960,0,4130762512,63
i,1723651271.027969,172.16.3.2,33454,172.16.1.2,5101,14671,32013,38,97152,65728,6,6,4,1460,123125,1,16778208,360000,74540,74540,65700,0,31856,0,4130762512,63
o,1723651271.027988,172.16.3.2,33454,172.16.1.2,5101,14671,33473,38,97152,65728,6,6,4,1460,122812,1,16778208,350000,74540,71644,65700,0,28960,0,4130762512,63
i,1723651271.028126,172.16.3.2,33454,172.16.1.2,5101,14671,33473,38,97152,65728,6,6,4,1460,122812,1,16778208,350000,74540,71644,65700,0,33304,0,4130762512,63
o,1723651271.028143,172.16.3.2,33454,172.16.1.2,5101,14671,33473,38,95680,65728,6,6,4,1460,122500,1,16778208,350000,74540,68748,65700,0,30408,0,4130762512,63
i,1723651271.028369,172.16.3.2,33454,172.16.1.2,5101,14671,33473,38,95680,65728,6,6,4,1460,122500,1,16778208,350000,74540,68748,65700,0,33304,0,4130762512,63
o,1723651271.028407,172.16.3.2,33454,172.16.1.2,5101,14671,33473,38,92800,65728,6,6,4,1460,120937,1,16778208,350000,74540,65852,65700,0,30408,0,4130762512,63
i,1723651271.058210,172.16.3.2,33454,172.16.1.2,5101,14671,33473,38,92800,65728,6,6,4,1460,120937,1,16778208,350000,82732,82732,65700,0,33304,0,4130762512,63
o,1723651271.058235,172.16.3.2,33454,172.16.1.2,5101,14671,33473,38,97152,65728,6,6,4,1460,120937,1,16778208,340000,82732,79836,65700,0,30408,0,4130762512,63
i,1723651271.058438,172.16.3.2,33454,172.16.1.2,5101,14671,33473,38,97152,65728,6,6,4,1460,120937,1,16778208,340000,82732,79836,65700,0,33304,0,4130762512,63
o,1723651271.058454,172.16.3.2,33454,172.16.1.2,5101,14671,33473,38,97152,65728,6,6,4,1460,120937,1,16778208,340000,82732,76940,65700,0,30408,0,4130762512,63
i,1723651271.078245,172.16.3.2,33454,172.16.1.2,5101,14671,33473,38,97152,65728,6,6,4,1460,120937,1,16778208,340000,82732,82732,65700,0,33304,0,4130762512,63
o,1723651271.078304,172.16.3.2,33454,172.16.1.2,5101,14671,33473,38,95680,65728,6,6,4,1460,120937,1,16778208,330000,82732,79836,65700,0,30408,0,4130762512,63
i,1723651271.101142,172.16.3.2,33454,172.16.1.2,5101,14671,33473,38,95680,65728,6,6,4,1460,120937,1,16778208,330000,82732,82732,65700,0,33304,0,4130762512,63
o,1723651271.101215,172.16.3.2,33454,172.16.1.2,5101,14671,33473,38,95680,65728,6,6,4,1460,118437,1,16778208,350000,82732,79836,65700,0,30408,0,4130762512,63
i,1723651271.108369,172.16.3.2,33454,172.16.1.2,5101,14671,33473,38,95680,65728,6,6,4,1460,118437,1,16778208,350000,82732,82732,65700,0,33304,0,4130762512,63
o,1723651271.108389,172.16.3.2,33454,172.16.1.2,5101,14671,33473,38,95680,65728,6,6,4,1460,117500,1,16778208,350000,82732,79836,65700,0,30408,0,4130762512,63
i,1723651271.142994,172.16.3.2,33454,172.16.1.2,5101,14671,33473,38,95680,65728,6,6,4,1460,117500,1,16778208,350000,82732,82732,65700,0,33304,0,4130762512,63
o,1723651271.143018,172.16.3.2,33454,172.16.1.2,5101,14671,33473,38,97152,65728,6,6,4,1460,121562,1,16778208,380000,82732,79836,65700,0,30408,0,4130762512,63
i,1723651271.143169,172.16.3.2,33454,172.16.1.2,5101,14671,33473,38,97152,65728,6,6,4,1460,121562,1,16778208,380000,82732,79836,65700,0,33304,0,4130762512,63
o,1723651271.143187,172.16.3.2,33454,172.16.1.2,5101,14671,33473,38,95680,65728,6,6,4,1460,122812,1,16778208,370000,82732,76940,65700,0,30408,0,4130762512,63
o,1723651271.143325,172.16.3.2,33454,172.16.1.2,5101,14671,33473,38,95680,65728,6,6,4,1460,122812,1,16778208,370000,82732,76940,65700,0,31856,0,4130762512,63
i,1723651271.143436,172.16.3.2,33454,172.16.1.2,5101,14671,33473,38,95680,65728,6,6,4,1460,122812,1,16778208,370000,82732,76940,65700,0,33304,0,4130762512,63
o,1723651271.143451,172.16.3.2,33454,172.16.1.2,5101,14671,33473,38,92800,65728,6,6,4,1460,123750,1,16778208,370000,82732,74044,65700,0,30408,0,4130762512,63
i,1723651271.147980,172.16.3.2,33454,172.16.1.2,5101,14671,33473,38,92800,65728,6,6,4,1460,123750,1,16778208,370000,82732,82732,65700,0,33304,0,4130762512,63
o,1723651271.148005,172.16.3.2,33454,172.16.1.2,5101,14671,33473,38,95680,65728,6,6,4,1460,123437,1,16778208,360000,82732,79836,65700,0,30408,0,4130762512,63
i,1723651271.148153,172.16.3.2,33454,172.16.1.2,5101,14671,33473,38,95680,65728,6,6,4,1460,123437,1,16778208,360000,82732,79836,65700,0,33304,0,4130762512,63
o,1723651271.148170,172.16.3.2,33454,172.16.1.2,5101,14671,34933,38,97152,65728,6,6,4,1460,123125,1,16778208,350000,82732,76940,65700,0,30408,0,4130762512,63
i,1723651271.148334,172.16.3.2,33454,172.16.1.2,5101,14671,34933,38,97152,65728,6,6,4,1460,123125,1,16778208,350000,82732,76940,65700,0,34752,0,4130762512,63
o,1723651271.148349,172.16.3.2,33454,172.16.1.2,5101,14671,34933,38,97152,65728,6,6,4,1460,122812,1,16778208,350000,82732,74044,65700,0,31856,0,4130762512,63
i,1723651271.158979,172.16.3.2,33454,172.16.1.2,5101,14671,34933,38,97152,65728,6,6,4,1460,122812,1,16778208,350000,82732,82732,65700,0,34752,0,4130762512,63
o,1723651271.159044,172.16.3.2,33454,172.16.1.2,5101,14671,34933,38,97152,65728,6,6,4,1460,123750,1,16778208,350000,82732,79836,65700,0,31856,0,4130762512,63
i,1723651271.159164,172.16.3.2,33454,172.16.1.2,5101,14671,34933,38,97152,65728,6,6,4,1460,123750,1,16778208,350000,82732,79836,65700,0,34752,0,4130762512,63
o,1723651271.159180,172.16.3.2,33454,172.16.1.2,5101,14671,34933,38,94272,65728,6,6,4,1460,120937,1,16778208,360000,82732,76940,65700,0,31856,0,4130762512,63
i,1723651271.198477,172.16.3.2,33454,172.16.1.2,5101,14671,34933,38,94272,65728,6,6,4,1460,120937,1,16778208,360000,82732,82732,65700,0,34752,0,4130762512,63
o,1723651271.198477,172.16.3.2,33454,172.16.1.2,5101,14671,34933,38,97152,65728,6,6,4,1460,123437,1,16778208,370000,82732,79836,65700,0,31856,0,4130762512,63
i,1723651271.207696,172.16.3.2,33454,172.16.1.2,5101,14671,34933,38,97152,65728,6,6,4,1460,123437,1,16778208,370000,82732,82732,65700,0,34752,0,4130762512,63
o,1723651271.207775,172.16.3.2,33454,172.16.1.2,5101,14671,34933,38,97152,65728,6,6,4,1460,124375,1,16778208,370000,82732,79836,65700,0,31856,0,4130762512,63
i,1723651271.219836,172.16.3.2,33454,172.16.1.2,5101,14671,34933,38,97152,65728,6,6,4,1460,124375,1,16778208,370000,82732,82732,65700,0,34752,0,4130762512,63
o,1723651271.219858,172.16.3.2,33454,172.16.1.2,5101,14671,34933,38,97152,65728,6,6,4,1460,124062,1,16778208,360000,82732,79836,65700,0,31856,0,4130762512,63
i,1723651271.248239,172.16.3.2,33454,172.16.1.2,5101,14671,34933,38,97152,65728,6,6,4,1460,124062,1,16778208,360000,82732,82732,65700,0,34752,0,4130762512,63
o,1723651271.248361,172.16.3.2,33454,172.16.1.2,5101,14671,34933,38,98560,65728,6,6,4,1460,126250,1,16778208,370000,82732,81284,65700,0,33304,0,4130762512,63
i,1723651271.258717,172.16.3.2,33454,172.16.1.2,5101,14671,34933,38,98560,65728,6,6,4,1460,126250,1,16778208,370000,82732,81284,65700,0,34752,0,4130762512,63
o,1723651271.258745,172.16.3.2,33454,172.16.1.2,5101,14671,34933,38,95680,65728,6,6,4,1460,124375,1,16778208,370000,82732,78388,65700,0,31856,0,4130762512,63
i,1723651271.258871,172.16.3.2,33454,172.16.1.2,5101,14671,34933,38,95680,65728,6,6,4,1460,124375,1,16778208,370000,82732,78388,65700,0,34752,0,4130762512,63
o,1723651271.258887,172.16.3.2,33454,172.16.1.2,5101,14671,34933,38,92800,65728,6,6,4,1460,122812,1,16778208,370000,82732,75492,65700,0,31856,0,4130762512,63
o,1723651271.259012,172.16.3.2,33454,172.16.1.2,5101,14671,34933,38,92800,65728,6,6,4,1460,122812,1,16778208,370000,82732,75492,65700,0,33304,0,4130762512,63
i,1723651271.259186,172.16.3.2,33454,172.16.1.2,5101,14671,34933,38,92800,65728,6,6,4,1460,122812,1,16778208,370000,82732,75492,65700,0,34752,0,4130762512,63
o,1723651271.259203,172.16.3.2,33454,172.16.1.2,5101,14671,34933,38,95680,65728,6,6,4,1460,121250,1,16778208,370000,82732,72596,65700,0,31856,0,4130762512,63
i,1723651271.269078,172.16.3.2,33454,172.16.1.2,5101,14671,34933,38,95680,65728,6,6,4,1460,121250,1,16778208,370000,82732,82732,65700,0,34752,0,4130762512,63
o,1723651271.269100,172.16.3.2,33454,172.16.1.2,5101,14671,34933,38,97152,65728,6,6,4,1460,121250,1,16778208,360000,82732,79836,65700,0,31856,0,4130762512,63
i,1723651271.269248,172.16.3.2,33454,172.16.1.2,5101,14671,34933,38,97152,65728,6,6,4,1460,121250,1,16778208,360000,82732,79836,65700,0,34752,0,4130762512,63
o,1723651271.269265,172.16.3.2,33454,172.16.1.2,5101,14671,36393,38,94272,65728,6,6,4,1460,121250,1,16778208,350000,82732,76940,65700,0,31856,0,4130762512,63
i,1723651271.278059,172.16.3.2,33454,172.16.1.2,5101,14671,36393,38,94272,65728,6,6,4,1460,121250,1,16778208,350000,82732,82732,65700,0,36200,0,4130762512,63
o,1723651271.278082,172.16.3.2,33454,172.16.1.2,5101,14671,36393,38,97152,65728,6,6,4,1460,122500,1,16778208,350000,82732,79836,65700,0,33304,0,4130762512,63
i,1723651271.278281,172.16.3.2,33454,172.16.1.2,5101,14671,36393,38,97152,65728,6,6,4,1460,122500,1,16778208,350000,82732,79836,65700,0,36200,0,4130762512,63
o,1723651271.278299,172.16.3.2,33454,172.16.1.2,5101,14671,36393,38,95680,65728,6,6,4,1460,123437,1,16778208,350000,82732,76940,65700,0,33304,0,4130762512,63
i,1723651271.278657,172.16.3.2,33454,172.16.1.2,5101,14671,36393,38,95680,65728,6,6,4,1460,123437,1,16778208,350000,82732,82732,65700,0,36200,0,4130762512,63
o,1723651271.278674,172.16.3.2,33454,172.16.1.2,5101,14671,36393,38,95680,65728,6,6,4,1460,121875,1,16778208,350000,82732,79836,65700,0,33304,0,4130762512,63
i,1723651271.307835,172.16.3.2,33454,172.16.1.2,5101,14671,36393,38,95680,65728,6,6,4,1460,121875,1,16778208,350000,82732,82732,65700,0,36200,0,4130762512,63
o,1723651271.307914,172.16.3.2,33454,172.16.1.2,5101,14671,36393,38,97152,65728,6,6,4,1460,124375,1,16778208,370000,82732,79836,65700,0,33304,0,4130762512,63
i,1723651271.317911,172.16.3.2,33454,172.16.1.2,5101,14671,36393,38,97152,65728,6,6,4,1460,124375,1,16778208,370000,82732,82732,65700,0,36200,0,4130762512,63
o,1723651271.317937,172.16.3.2,33454,172.16.1.2,5101,14671,36393,38,97152,65728,6,6,4,1460,124062,1,16778208,360000,82732,79836,65700,0,33304,0,4130762512,63
i,1723651271.329154,172.16.3.2,33454,172.16.1.2,5101,14671,36393,38,97152,65728,6,6,4,1460,124062,1,16778208,360000,82732,82732,65700,0,36200,0,4130762512,63
o,1723651271.329250,172.16.3.2,33454,172.16.1.2,5101,14671,36393,38,97152,65728,6,6,4,1460,123750,1,16778208,350000,82732,79836,65700,0,33304,0,4130762512,63
i,1723651271.348379,172.16.3.2,33454,172.16.1.2,5101,14671,36393,38,97152,65728,6,6,4,1460,123750,1,16778208,350000,82732,82732,65700,0,36200,0,4130762512,63
o,1723651271.348461,172.16.3.2,33454,172.16.1.2,5101,14671,36393,38,98560,65728,6,6,4,1460,123437,1,16778208,350000,82732,81284,65700,0,34752,0,4130762512,63
i,1723651271.378034,172.16.3.2,33454,172.16.1.2,5101,14671,36393,38,98560,65728,6,6,4,1460,123437,1,16778208,350000,82732,81284,65700,0,36200,0,4130762512,63
o,1723651271.378072,172.16.3.2,33454,172.16.1.2,5101,14671,36393,38,95680,65728,6,6,4,1460,124375,1,16778208,350000,82732,78388,65700,0,33304,0,4130762512,63
i,1723651271.378310,172.16.3.2,33454,172.16.1.2,5101,14671,36393,38,95680,65728,6,6,4,1460,124375,1,16778208,350000,82732,78388,65700,0,36200,0,4130762512,63
o,1723651271.378338,172.16.3.2,33454,172.16.1.2,5101,14671,36393,38,97152,65728,6,6,4,1460,124062,1,16778208,340000,82732,75492,65700,0,33304,0,4130762512,63
o,1723651271.378505,172.16.3.2,33454,172.16.1.2,5101,14671,36393,38,97152,65728,6,6,4,1460,124062,1,16778208,340000,82732,75492,65700,0,34752,0,4130762512,63
i,1723651271.388838,172.16.3.2,33454,172.16.1.2,5101,14671,36393,38,97152,65728,6,6,4,1460,124062,1,16778208,340000,82732,82732,65700,0,36200,0,4130762512,63
o,1723651271.388864,172.16.3.2,33454,172.16.1.2,5101,14671,36393,38,97152,65728,6,6,4,1460,125000,1,16778208,350000,82732,79836,65700,0,33304,0,4130762512,63
i,1723651271.389045,172.16.3.2,33454,172.16.1.2,5101,14671,36393,38,97152,65728,6,6,4,1460,125000,1,16778208,350000,82732,79836,65700,0,36200,0,4130762512,63
o,1723651271.389063,172.16.3.2,33454,172.16.1.2,5101,14671,36393,38,94272,65728,6,6,4,1460,125625,1,16778208,350000,82732,76940,65700,0,33304,0,4130762512,63
