enable_time_secs=1723651612	enable_time_usecs=257925	siftrver=1.3.0	sysname=FreeBSD	sysver=1401000	ipmode=4
o,1723651612.258456,10.0.2.15,22,10.0.2.2,50594,1073725440,17746,1026,65535,65700,0,0,4,1460,312,0,16777220,230000,33580,172,65700,0,0,0,767456159,63
i,1723651612.259800,10.0.2.15,22,10.0.2.2,50594,1073725440,17746,1026,65535,65700,0,0,4,1460,312,0,16777220,230000,33580,172,65700,0,172,0,767456159,63
o,1723651612.259836,10.0.2.15,22,10.0.2.2,50594,1073725440,17918,1026,65535,65700,0,0,4,1460,312,0,16777220,240000,33580,72,65700,0,0,0,767456159,63
i,1723651612.260586,10.0.2.15,22,10.0.2.2,50594,1073725440,17918,1026,65535,65700,0,0,4,1460,312,0,16777220,240000,33580,72,65700,0,72,0,767456159,63
i,1723651612.260629,10.0.2.15,22,10.0.2.2,50594,1073725440,17990,1026,65535,65700,0,0,4,1460,312,0,4,240000,33580,0,65700,0,0,0,767456159,63
i,1723651612.260655,10.0.2.15,22,10.0.2.2,50594,1073725440,17990,1026,65535,65700,0,0,4,1460,312,0,4,240000,33580,0,65700,96,0,0,767456159,63
o,1723651612.260679,10.0.2.15,22,10.0.2.2,50594,1073725440,17990,1026,65535,65604,0,0,5,1460,312,0,5,240000,33580,0,65700,96,0,0,767456159,63
o,1723651612.261524,10.0.2.15,22,10.0.2.2,50594,1073725440,17990,1026,65535,65604,0,0,8,1460,312,0,4,240000,33580,0,65700,0,0,0,767456159,63
i,1723651612.262215,10.0.2.15,22,10.0.2.2,50594,1073725440,17990,1026,65535,65604,0,0,8,1460,312,0,67108884,240000,33580,0,65700,0,1,0,767456159,63
i,1723651614.521056,10.0.2.15,22,10.0.2.2,50508,1073725440,14600,0,65535,65700,0,0,4,1460,312,0,16777216,260000,33580,0,65700,0,0,0,3016930256,63
o,1723651614.531723,10.0.2.15,22,10.0.2.2,50508,1073725440,14600,1026,65535,65700,0,0,4,1460,312,0,16777216,260000,33580,38,65700,42,0,0,3016930256,63
i,1723651614.533849,10.0.2.15,22,10.0.2.2,50508,1073725440,14600,1026,65535,65700,0,0,4,1460,312,0,16777216,260000,33580,38,65700,0,38,0,3016930256,63
i,1723651614.533870,10.0.2.15,22,10.0.2.2,50508,1073725440,14638,1026,65535,65700,0,0,4,1460,312,0,0,230000,33580,0,65700,0,0,0,3016930256,63
i,1723651614.533884,10.0.2.15,22,10.0.2.2,50508,1073725440,14638,1026,65535,65700,0,0,4,1460,312,0,0,230000,33580,0,65700,1460,0,0,3016930256,63
o,1723651614.533900,10.0.2.15,22,10.0.2.2,50508,1073725440,14638,1026,65535,65700,0,0,4,1460,312,0,1,230000,33580,0,65700,1536,0,0,3016930256,63
o,1723651614.534653,10.0.2.15,22,10.0.2.2,50508,1073725440,14638,1026,65535,65700,0,0,4,1460,312,0,16777216,230000,33580,1120,65700,1536,0,0,3016930256,63
i,1723651614.535160,10.0.2.15,22,10.0.2.2,50508,1073725440,14638,1026,65535,65700,0,0,4,1460,312,0,16777216,230000,33580,1120,65700,0,1120,0,3016930256,63
i,1723651614.536650,10.0.2.15,22,10.0.2.2,50508,1073725440,15758,1026,65535,65700,0,0,4,1460,312,0,0,230000,33580,0,65700,0,0,0,3016930256,63
o,1723651614.539711,10.0.2.15,22,10.0.2.2,50508,1073725440,15758,1026,65535,65700,0,0,4,1460,312,0,16777216,230000,33580,492,65700,0,0,0,3016930256,63
i,1723651614.540596,10.0.2.15,22,10.0.2.2,50508,1073725440,15758,1026,65535,65700,0,0,4,1460,312,0,16777216,230000,33580,492,65700,0,492,0,3016930256,63
i,1723651614.544346,10.0.2.15,22,10.0.2.2,50508,1073725440,16250,1026,65535,65700,0,0,4,1460,312,0,0,230000,33580,0,65700,0,0,0,3016930256,63
i,1723651614.544364,10.0.2.15,22,10.0.2.2,50508,1073725440,16250,1026,65535,65700,0,0,4,1460,312,0,0,230000,33580,0,65700,16,0,0,3016930256,63
o,1723651614.544372,10.0.2.15,22,10.0.2.2,50508,1073725440,16250,1026,65535,65700,0,0,4,1460,312,0,1,230000,33580,0,65700,60,0,0,3016930256,63
o,1723651614.544639,10.0.2.15,22,10.0.2.2,50508,1073725440,16250,1026,65535,65700,0,0,4,1460,312,0,16777216,230000,33580,44,65700,0,0,0,3016930256,63
i,1723651614.545396,10.0.2.15,22,10.0.2.2,50508,1073725440,16250,1026,65535,65700,0,0,4,1460,312,0,16777216,230000,33580,44,65700,0,44,0,3016930256,63
i,1723651614.545413,10.0.2.15,22,10.0.2.2,50508,1073725440,16294,1026,65535,65700,0,0,4,1460,312,0,0,230000,33580,0,65700,0,0,0,3016930256,63
o,1723651614.546787,10.0.2.15,22,10.0.2.2,50508,1073725440,16294,1026,65535,65700,0,0,4,1460,312,0,16777216,230000,33580,68,65700,0,0,0,3016930256,63
i,1723651614.547216,10.0.2.15,22,10.0.2.2,50508,1073725440,16294,1026,65535,65700,0,0,4,1460,312,0,16777216,230000,33580,68,65700,0,68,0,3016930256,63
i,1723651614.549501,10.0.2.15,22,10.0.2.2,50508,1073725440,16362,1026,65535,65700,0,0,4,1460,312,0,0,230000,33580,0,65700,0,0,0,3016930256,63
o,1723651614.550143,10.0.2.15,22,10.0.2.2,50508,1073725440,16362,1026,65535,65700,0,0,4,1460,312,0,16777216,230000,33580,332,65700,0,0,0,3016930256,63
i,1723651614.550390,10.0.2.15,22,10.0.2.2,50508,1073725440,16362,1026,65535,65700,0,0,4,1460,312,0,16777216,230000,33580,332,65700,0,332,0,3016930256,63
i,1723651614.552381,10.0.2.15,22,10.0.2.2,50508,1073725440,16694,1026,65535,65700,0,0,4,1460,312,0,0,240000,33580,0,65700,0,0,0,3016930256,63
o,1723651614.570680,10.0.2.15,22,10.0.2.2,50508,1073725440,16694,1026,65535,65700,0,0,4,1460,312,0,16777216,240000,33580,28,65700,0,0,0,3016930256,63
i,1723651614.571242,10.0.2.15,22,10.0.2.2,50508,1073725440,16694,1026,65535,65700,0,0,4,1460,312,0,16777216,240000,33580,28,65700,0,28,0,3016930256,63
i,1723651614.571274,10.0.2.15,22,10.0.2.2,50508,1073725440,16722,1026,65535,65700,0,0,4,1460,312,0,0,240000,33580,0,65700,0,0,0,3016930256,63
o,1723651614.572375,10.0.2.15,22,10.0.2.2,50508,1073725440,16722,1026,65535,65700,0,0,4,1460,312,0,16777216,240000,33580,768,65700,112,0,0,3016930256,63
i,1723651614.573223,10.0.2.15,22,10.0.2.2,50508,1073725440,16722,1026,65535,65700,0,0,4,1460,312,0,16777216,240000,33580,908,65700,112,768,0,3016930256,63
o,1723651614.573241,10.0.2.15,22,10.0.2.2,50508,1073725440,17490,1026,65535,65700,0,0,4,1460,312,0,16777216,240000,33580,140,65700,112,0,0,3016930256,63
i,1723651614.573568,10.0.2.15,22,10.0.2.2,50508,1073725440,17490,1026,65535,65700,0,0,4,1460,312,0,16777216,240000,33580,140,65700,112,140,0,3016930256,63
o,1723651614.573793,10.0.2.15,22,10.0.2.2,50508,1073725440,17630,1026,65535,65700,0,0,4,1460,312,0,16777216,240000,33580,44,65700,0,0,0,3016930256,63
i,1723651614.574291,10.0.2.15,22,10.0.2.2,50508,1073725440,17630,1026,65535,65700,0,0,4,1460,312,0,16777216,240000,33580,44,65700,0,44,0,3016930256,63
i,1723651614.574310,10.0.2.15,22,10.0.2.2,50508,1073725440,17674,1026,65535,65700,0,0,4,1460,312,0,0,240000,33580,0,65700,0,0,0,3016930256,63
o,1723651614.574798,10.0.2.15,22,10.0.2.2,50508,1073725440,17674,1026,65535,65700,0,0,4,1460,312,0,16777220,240000,33580,72,65700,0,0,0,3016930256,63
i,1723651614.575077,10.0.2.15,22,10.0.2.2,50508,1073725440,17674,1026,65535,65700,0,0,4,1460,312,0,16777220,240000,33580,72,65700,0,72,0,3016930256,63
o,1723651614.577555,10.0.2.15,22,10.0.2.2,50508,1073725440,17746,1026,65535,65700,0,0,4,1460,312,0,16777220,240000,33580,104,65700,0,0,0,3016930256,63
o,1723651614.577881,10.0.2.15,22,10.0.2.2,50508,1073725440,17746,1026,65535,65700,0,0,4,1460,312,0,16777220,240000,33580,176,65700,0,104,0,3016930256,63
i,1723651614.578051,10.0.2.15,22,10.0.2.2,50508,1073725440,17746,1026,65535,65700,0,0,4,1460,312,0,16777220,240000,33580,176,65700,0,176,0,3016930256,63
i,1723651614.578067,10.0.2.15,22,10.0.2.2,50508,1073725440,17850,1026,65535,65700,0,0,4,1460,312,0,4,240000,33580,72,65700,0,72,0,3016930256,63
i,1723651614.578552,10.0.2.15,22,10.0.2.2,50508,1073725440,17922,1026,65535,65700,0,0,4,1460,312,0,4,240000,33580,0,65700,0,0,0,3016930256,63
i,1723651614.578569,10.0.2.15,22,10.0.2.2,50508,1073725440,17922,1026,65535,65700,0,0,4,1460,312,0,4,240000,33580,0,65700,96,0,0,3016930256,63
o,1723651614.578585,10.0.2.15,22,10.0.2.2,50508,1073725440,17922,1026,65535,65604,0,0,5,1460,312,0,5,240000,33580,0,65700,96,0,0,3016930256,63
o,1723651614.579224,10.0.2.15,22,10.0.2.2,50508,1073725440,17922,1026,65535,65604,0,0,8,1460,312,0,4,240000,33580,0,65700,0,0,0,3016930256,63
i,1723651614.579818,10.0.2.15,22,10.0.2.2,50508,1073725440,17922,1026,65535,65604,0,0,8,1460,312,0,67108884,240000,33580,0,65700,0,1,0,3016930256,63
i,1723651616.739377,10.0.2.15,22,10.0.2.2,50596,1073725440,14600,0,65535,65700,0,0,4,1460,312,0,16777216,270000,33580,0,65700,0,0,0,3575832965,63
o,1723651616.751489,10.0.2.15,22,10.0.2.2,50596,1073725440,14600,1026,65535,65700,0,0,4,1460,312,0,16777216,270000,33580,38,65700,42,0,0,3575832965,63
i,1723651616.751896,10.0.2.15,22,10.0.2.2,50596,1073725440,14600,1026,65535,65700,0,0,4,1460,312,0,16777216,270000,33580,38,65700,0,38,0,3575832965,63
i,1723651616.752281,10.0.2.15,22,10.0.2.2,50596,1073725440,14638,1026,65535,65700,0,0,4,1460,312,0,0,230000,33580,0,65700,0,0,0,3575832965,63
i,1723651616.752281,10.0.2.15,22,10.0.2.2,50596,1073725440,14638,1026,65535,65700,0,0,4,1460,312,0,0,230000,33580,0,65700,1460,0,0,3575832965,63
o,1723651616.752281,10.0.2.15,22,10.0.2.2,50596,1073725440,14638,1026,65535,65700,0,0,4,1460,312,0,1,230000,33580,0,65700,1536,0,0,3575832965,63
o,1723651616.752281,10.0.2.15,22,10.0.2.2,50596,1073725440,14638,1026,65535,65700,0,0,4,1460,312,0,16777216,230000,33580,1120,65700,1536,0,0,3575832965,63
i,1723651616.754004,10.0.2.15,22,10.0.2.2,50596,1073725440,14638,1026,65535,65700,0,0,4,1460,312,0,16777216,230000,33580,1120,65700,0,1120,0,3575832965,63
i,1723651616.755069,10.0.2.15,22,10.0.2.2,50596,1073725440,15758,1026,65535,65700,0,0,4,1460,312,0,0,240000,33580,0,65700,0,0,0,3575832965,63
o,1723651616.758146,10.0.2.15,22,10.0.2.2,50596,1073725440,15758,1026,65535,65700,0,0,4,1460,312,0,16777216,240000,33580,492,65700,0,0,0,3575832965,63
i,1723651616.759429,10.0.2.15,22,10.0.2.2,50596,1073725440,15758,1026,65535,65700,0,0,4,1460,312,0,16777216,240000,33580,492,65700,0,492,0,3575832965,63
i,1723651616.763472,10.0.2.15,22,10.0.2.2,50596,1073725440,16250,1026,65535,65700,0,0,4,1460,312,0,0,240000,33580,0,65700,0,0,0,3575832965,63
i,1723651616.763507,10.0.2.15,22,10.0.2.2,50596,1073725440,16250,1026,65535,65700,0,0,4,1460,312,0,0,240000,33580,0,65700,16,0,0,3575832965,63
o,1723651616.763535,10.0.2.15,22,10.0.2.2,50596,1073725440,16250,1026,65535,65700,0,0,4,1460,312,0,1,240000,33580,0,65700,44,0,0,3575832965,63
o,1723651616.763752,10.0.2.15,22,10.0.2.2,50596,1073725440,16250,1026,65535,65700,0,0,4,1460,312,0,16777216,240000,33580,44,65700,0,0,0,3575832965,63
i,1723651616.766121,10.0.2.15,22,10.0.2.2,50596,1073725440,16250,1026,65535,65700,0,0,4,1460,312,0,16777216,240000,33580,44,65700,0,44,0,3575832965,63
i,1723651616.766146,10.0.2.15,22,10.0.2.2,50596,1073725440,16294,1026,65535,65700,0,0,4,1460,312,0,0,240000,33580,0,65700,0,0,0,3575832965,63
o,1723651616.768194,10.0.2.15,22,10.0.2.2,50596,1073725440,16294,1026,65535,65700,0,0,4,1460,312,0,16777216,240000,33580,68,65700,0,0,0,3575832965,63
i,1723651616.768721,10.0.2.15,22,10.0.2.2,50596,1073725440,16294,1026,65535,65700,0,0,4,1460,312,0,16777216,240000,33580,68,65700,0,68,0,3575832965,63
i,1723651616.768738,10.0.2.15,22,10.0.2.2,50596,1073725440,16362,1026,65535,65700,0,0,4,1460,312,0,0,240000,33580,0,65700,0,0,0,3575832965,63
o,1723651616.769780,10.0.2.15,22,10.0.2.2,50596,1073725440,16362,1026,65535,65700,0,0,4,1460,312,0,16777216,240000,33580,332,65700,0,0,0,3575832965,63
i,1723651616.770703,10.0.2.15,22,10.0.2.2,50596,1073725440,16362,1026,65535,65700,0,0,4,1460,312,0,16777216,240000,33580,332,65700,0,332,0,3575832965,63
i,1723651616.772033,10.0.2.15,22,10.0.2.2,50596,1073725440,16694,1026,65535,65700,0,0,4,1460,312,0,0,240000,33580,0,65700,0,0,0,3575832965,63
o,1723651616.789652,10.0.2.15,22,10.0.2.2,50596,1073725440,16694,1026,65535,65700,0,0,4,1460,312,0,16777216,240000,33580,28,65700,0,0,0,3575832965,63
i,1723651616.790291,10.0.2.15,22,10.0.2.2,50596,1073725440,16694,1026,65535,65700,0,0,4,1460,312,0,16777216,240000,33580,28,65700,0,28,0,3575832965,63
i,1723651616.790816,10.0.2.15,22,10.0.2.2,50596,1073725440,16722,1026,65535,65700,0,0,4,1460,312,0,0,240000,33580,0,65700,0,0,0,3575832965,63
o,1723651616.791696,10.0.2.15,22,10.0.2.2,50596,1073725440,16722,1026,65535,65700,0,0,4,1460,312,0,16777216,240000,33580,768,65700,112,0,0,3575832965,63
i,1723651616.792518,10.0.2.15,22,10.0.2.2,50596,1073725440,16722,1026,65535,65700,0,0,4,1460,312,0,16777216,240000,33580,952,65700,0,768,0,3575832965,63
o,1723651616.792551,10.0.2.15,22,10.0.2.2,50596,1073725440,17490,1026,65535,65700,0,0,4,1460,312,0,16777216,230000,33580,184,65700,0,0,0,3575832965,63
i,1723651616.793454,10.0.2.15,22,10.0.2.2,50596,1073725440,17490,1026,65535,65700,0,0,4,1460,312,0,16777216,230000,33580,184,65700,0,184,0,3575832965,63
i,1723651616.793469,10.0.2.15,22,10.0.2.2,50596,1073725440,17674,1026,65535,65700,0,0,4,1460,312,0,0,230000,33580,0,65700,0,0,0,3575832965,63
o,1723651616.794133,10.0.2.15,22,10.0.2.2,50596,1073725440,17674,1026,65535,65700,0,0,4,1460,312,0,16777220,230000,33580,72,65700,0,0,0,3575832965,63
i,1723651616.794716,10.0.2.15,22,10.0.2.2,50596,1073725440,17674,1026,65535,65700,0,0,4,1460,312,0,16777220,230000,33580,72,65700,0,72,0,3575832965,63
i,1723651616.794734,10.0.2.15,22,10.0.2.2,50596,1073725440,17746,1026,65535,65700,0,0,4,1460,312,0,4,230000,33580,0,65700,0,0,0,3575832965,63
o,1723651616.833717,10.0.2.15,22,10.0.2.2,50596,1073725440,17746,1026,65535,65700,0,0,4,1460,312,0,5,230000,33580,0,65700,0,0,0,3575832965,63
o,1723651616.918068,172.16.3.2,52095,172.16.1.2,5101,9896,14480,34,65535,65700,6,6,4,1460,220625,1,16778209,700000,33580,0,65700,0,0,0,3552633879,63
o,1723651616.919313,172.16.3.2,52095,172.16.1.2,5101,9896,14480,34,65535,65700,6,6,4,1460,220625,1,16778212,700000,33580,37,65700,0,0,0,3552633879,63
i,1723651617.044252,172.16.3.2,52095,172.16.1.2,5101,9896,14480,34,65535,65700,6,6,4,1460,220625,1,16778212,700000,33580,37,65700,0,37,0,3552633879,63
o,1723651617.044627,172.16.3.2,52095,172.16.1.2,5101,9896,14480,1058,65728,65728,6,6,4,1460,208125,1,16778212,720000,33580,4,65700,0,0,0,3552633879,63
o,1723651617.045082,172.16.3.2,52095,172.16.1.2,5101,9896,14480,1058,65728,65728,6,6,4,1460,208125,1,16778212,720000,33580,130,65700,0,4,0,3552633879,63
i,1723651617.159448,172.16.3.2,52095,172.16.1.2,5101,9896,14480,1058,65728,65728,6,6,4,1460,208125,1,16778212,720000,33580,130,65700,0,130,0,3552633879,63
i,1723651617.159498,172.16.3.2,52095,172.16.1.2,5101,9896,14480,1058,65600,65728,6,6,4,1460,195937,1,996,730000,33580,0,65700,0,0,0,3552633879,63
o,1723651617.219005,172.16.3.2,52095,172.16.1.2,5101,9896,14480,1058,65728,65728,6,6,4,1460,195937,1,997,730000,33580,0,65700,0,0,0,3552633879,63
o,1723651617.279217,172.16.3.2,61595,172.16.1.2,5101,9896,14480,34,65535,65700,6,6,4,1460,220625,1,16778209,700000,33580,0,65700,0,0,0,4027629971,63
o,1723651617.279390,172.16.3.2,61595,172.16.1.2,5101,9896,14480,34,65535,65700,6,6,4,1460,220625,1,16778208,700000,33580,37,65700,0,0,0,4027629971,63
i,1723651617.399572,172.16.3.2,52095,172.16.1.2,5101,9896,14480,1058,65728,65728,6,6,4,1460,195937,1,996,730000,33580,0,65700,0,0,0,3552633879,63
i,1723651617.399678,172.16.3.2,52095,172.16.1.2,5101,9896,14480,1058,65728,65728,6,6,4,1460,195937,1,996,730000,33580,0,65700,1,0,0,3552633879,63
o,1723651617.399702,172.16.3.2,52095,172.16.1.2,5101,9896,14480,1058,65728,65728,6,6,4,1460,195937,1,997,730000,33580,0,65700,2,0,0,3552633879,63
o,1723651617.400161,172.16.3.2,61595,172.16.1.2,5101,9896,14480,38,65535,65700,6,6,4,1460,220625,1,16778208,700000,33580,33580,65700,0,37,0,4027629971,63
i,1723651617.428942,172.16.3.2,61595,172.16.1.2,5101,9896,14480,38,65535,65700,6,6,4,1460,220625,1,16778208,700000,33580,33580,65700,0,13069,0,4027629971,63
o,1723651617.428942,172.16.3.2,61595,172.16.1.2,5101,9896,14480,34,65728,65728,6,6,4,1460,211875,1,16778208,690000,33580,33543,65700,0,13032,0,4027629971,63
i,1723651617.492879,172.16.3.2,61595,172.16.1.2,5101,9896,14480,34,65728,65728,6,6,4,1460,211875,1,16778208,690000,33580,33543,65700,0,14480,0,4027629971,63
o,1723651617.492914,172.16.3.2,61595,172.16.1.2,5101,9896,14480,38,62848,65728,6,6,4,1460,198125,1,16778208,720000,33580,30647,65700,0,11584,0,4027629971,63
i,1723651617.523658,172.16.3.2,61595,172.16.1.2,5101,9896,14480,38,62848,65728,6,6,4,1460,198125,1,16778208,720000,33580,33580,65700,0,14480,0,4027629971,63
o,1723651617.523683,172.16.3.2,61595,172.16.1.2,5101,9896,14480,38,64256,65728,6,6,4,1460,189687,1,16778208,700000,33580,30684,65700,0,11584,0,4027629971,63
i,1723651617.523852,172.16.3.2,61595,172.16.1.2,5101,9896,14480,38,64256,65728,6,6,4,1460,189687,1,16778208,700000,33580,30684,65700,0,14480,0,4027629971,63
o,1723651617.523869,172.16.3.2,61595,172.16.1.2,5101,9896,14480,38,61376,65728,6,6,4,1460,182500,1,16778208,670000,33580,27788,65700,0,11584,0,4027629971,63
i,1723651617.524020,172.16.3.2,61595,172.16.1.2,5101,9896,14480,38,61376,65728,6,6,4,1460,182500,1,16778208,670000,33580,27788,65700,0,14480,0,4027629971,63
o,1723651617.524036,172.16.3.2,61595,172.16.1.2,5101,9896,14480,38,64256,65728,6,6,4,1460,175937,1,16778208,640000,33580,24892,65700,0,11584,0,4027629971,63
i,1723651617.548450,172.16.3.2,61595,172.16.1.2,5101,9896,14480,38,64256,65728,6,6,4,1460,175937,1,16778208,640000,33580,33580,65700,0,14480,0,4027629971,63
o,1723651617.548475,172.16.3.2,61595,172.16.1.2,5101,9896,15940,38,64256,65728,6,6,4,1460,172812,1,16778208,600000,33580,30684,65700,0,11584,0,4027629971,63
o,1723651617.548608,172.16.3.2,61595,172.16.1.2,5101,9896,15940,38,64256,65728,6,6,4,1460,172812,1,16778208,600000,33580,30684,65700,0,13032,0,4027629971,63
i,1723651617.609185,172.16.3.2,61595,172.16.1.2,5101,9896,15940,38,64256,65728,6,6,4,1460,172812,1,16778208,600000,41772,41772,65700,0,15928,0,4027629971,63
o,1723651617.609251,172.16.3.2,61595,172.16.1.2,5101,9896,15940,38,62848,65728,6,6,4,1460,165000,1,16778208,600000,41772,38876,65700,0,13032,0,4027629971,63
i,1723651617.630893,172.16.3.2,61595,172.16.1.2,5101,9896,15940,38,62848,65728,6,6,4,1460,165000,1,16778208,600000,41772,41772,65700,0,15928,0,4027629971,63
o,1723651617.630985,172.16.3.2,61595,172.16.1.2,5101,9896,15940,38,62848,65728,6,6,4,1460,156875,1,16778208,590000,41772,38876,65700,0,13032,0,4027629971,63
i,1723651617.631289,172.16.3.2,61595,172.16.1.2,5101,9896,15940,38,62848,65728,6,6,4,1460,156875,1,16778208,590000,41772,38876,65700,0,15928,0,4027629971,63
o,1723651617.631314,172.16.3.2,61595,172.16.1.2,5101,9896,15940,38,62848,65728,6,6,4,1460,150000,1,16778208,580000,41772,35980,65700,0,13032,0,4027629971,63
i,1723651617.659294,172.16.3.2,61595,172.16.1.2,5101,9896,15940,38,62848,65728,6,6,4,1460,150000,1,16778208,580000,41772,41772,65700,0,15928,0,4027629971,63
o,1723651617.659334,172.16.3.2,61595,172.16.1.2,5101,9896,15940,38,64256,65728,6,6,4,1460,147500,1,16778208,540000,41772,38876,65700,0,13032,0,4027629971,63
i,1723651617.659532,172.16.3.2,61595,172.16.1.2,5101,9896,15940,38,64256,65728,6,6,4,1460,147500,1,16778208,540000,41772,38876,65700,0,15928,0,4027629971,63
o,1723651617.659568,172.16.3.2,61595,172.16.1.2,5101,9896,15940,38,64256,65728,6,6,4,1460,142812,1,16778208,530000,41772,35980,65700,0,13032,0,4027629971,63
o,1723651617.659754,172.16.3.2,61595,172.16.1.2,5101,9896,15940,38,64256,65728,6,6,4,1460,142812,1,16778208,530000,41772,35980,65700,0,14480,0,4027629971,63
i,1723651617.697890,172.16.3.2,61595,172.16.1.2,5101,9896,15940,38,64256,65728,6,6,4,1460,142812,1,16778208,530000,41772,41772,65700,0,15928,0,4027629971,63
o,1723651617.697890,172.16.3.2,61595,172.16.1.2,5101,9896,17400,38,65728,65728,6,6,4,1460,142500,1,16778208,480000,41772,40324,65700,0,14480,0,4027629971,63
i,1723651617.721519,172.16.3.2,61595,172.16.1.2,5101,9896,17400,38,65728,65728,6,6,4,1460,142500,1,16778208,480000,41772,40324,65700,0,17376,0,4027629971,63
o,1723651617.721549,172.16.3.2,61595,172.16.1.2,5101,9896,17400,38,62848,65728,6,6,4,1460,138437,1,16778208,480000,41772,37428,65700,0,14480,0,4027629971,63
i,1723651617.950662,172.16.3.2,61595,172.16.1.2,5101,9896,17400,38,62848,65728,6,6,4,1460,138437,1,16778208,480000,41772,41772,65700,0,17376,0,4027629971,63
o,1723651617.950880,172.16.3.2,61595,172.16.1.2,5101,9896,17400,38,64256,65728,6,6,4,1460,161250,1,16778208,650000,41772,38876,65700,0,14480,0,4027629971,63
i,1723651617.952332,172.16.3.2,61595,172.16.1.2,5101,9896,17400,38,64256,65728,6,6,4,1460,161250,1,16778208,650000,41772,41772,65700,0,17376,0,4027629971,63
o,1723651617.952361,172.16.3.2,61595,172.16.1.2,5101,9896,17400,38,62848,65728,6,6,4,1460,181250,1,16778208,750000,41772,38876,65700,0,14480,0,4027629971,63
i,1723651617.959324,172.16.3.2,61595,172.16.1.2,5101,9896,17400,38,62848,65728,6,6,4,1460,181250,1,16778208,750000,41772,41772,65700,0,17376,0,4027629971,63
o,1723651617.959450,172.16.3.2,61595,172.16.1.2,5101,9896,17400,38,62848,65728,6,6,4,1460,195000,1,16778208,790000,41772,38876,65700,0,14480,0,4027629971,63
i,1723651617.979828,172.16.3.2,61595,172.16.1.2,5101,9896,17400,38,62848,65728,6,6,4,1460,195000,1,16778208,790000,41772,41772,65700,0,17376,0,4027629971,63
o,1723651617.979852,172.16.3.2,61595,172.16.1.2,5101,9896,17400,38,62848,65728,6,6,4,1460,209375,1,16778208,820000,41772,38876,65700,0,14480,0,4027629971,63
o,1723651617.979980,172.16.3.2,61595,172.16.1.2,5101,9896,17400,38,62848,65728,6,6,4,1460,209375,1,16778208,820000,41772,38876,65700,0,15928,0,4027629971,63
i,1723651618.008290,172.16.3.2,61595,172.16.1.2,5101,9896,17400,38,62848,65728,6,6,4,1460,209375,1,16778208,820000,41772,41772,65700,0,17376,0,4027629971,63
o,1723651618.008315,172.16.3.2,61595,172.16.1.2,5101,9896,18860,38,62848,65728,6,6,4,1460,222187,1,16778208,830000,41772,38876,65700,0,14480,0,4027629971,63
i,1723651618.045757,172.16.3.2,61595,172.16.1.2,5101,9896,18860,38,62848,65728,6,6,4,1460,222187,1,16778208,830000,41772,41772,65700,0,18824,0,4027629971,63
o,1723651618.045826,172.16.3.2,61595,172.16.1.2,5101,9896,18860,38,62848,65728,6,6,4,1460,235937,1,16778208,850000,41772,38876,65700,0,15928,0,4027629971,63
i,1723651618.072947,172.16.3.2,61595,172.16.1.2,5101,9896,18860,38,62848,65728,6,6,4,1460,235937,1,16778208,850000,41772,41772,65700,0,18824,0,4027629971,63
o,1723651618.073025,172.16.3.2,61595,172.16.1.2,5101,9896,18860,38,62848,65728,6,6,4,1460,221562,1,16778208,850000,41772,38876,65700,0,15928,0,4027629971,63
i,1723651618.073549,172.16.3.2,61595,172.16.1.2,5101,9896,18860,38,62848,65728,6,6,4,1460,221562,1,16778208,850000,41772,38876,65700,0,18824,0,4027629971,63
o,1723651618.073566,172.16.3.2,61595,172.16.1.2,5101,9896,18860,38,62848,65728,6,6,4,1460,209062,1,16778208,830000,41772,35980,65700,0,15928,0,4027629971,63
i,1723651618.074489,172.16.3.2,61595,172.16.1.2,5101,9896,18860,38,62848,65728,6,6,4,1460,209062,1,16778208,830000,41772,41772,65700,0,18824,0,4027629971,63
o,1723651618.074507,172.16.3.2,61595,172.16.1.2,5101,9896,18860,38,64256,65728,6,6,4,1460,198125,1,16778208,800000,41772,38876,65700,0,15928,0,4027629971,63
i,1723651618.104704,172.16.3.2,61595,172.16.1.2,5101,9896,18860,38,64256,65728,6,6,4,1460,198125,1,16778208,800000,41772,41772,65700,0,18824,0,4027629971,63
o,1723651618.104732,172.16.3.2,61595,172.16.1.2,5101,9896,18860,38,62848,65728,6,6,4,1460,189687,1,16778208,760000,41772,38876,65700,0,15928,0,4027629971,63
o,1723651618.104887,172.16.3.2,61595,172.16.1.2,5101,9896,18860,38,62848,65728,6,6,4,1460,189687,1,16778208,760000,41772,38876,65700,0,17376,0,4027629971,63
i,1723651618.136486,172.16.3.2,61595,172.16.1.2,5101,9896,18860,38,62848,65728,6,6,4,1460,189687,1,16778208,760000,41772,41772,65700,0,18824,0,4027629971,63
o,1723651618.136519,172.16.3.2,61595,172.16.1.2,5101,9896,18860,38,62848,65728,6,6,4,1460,182500,1,16778208,720000,41772,38876,65700,0,15928,0,4027629971,63
i,1723651618.159237,172.16.3.2,61595,172.16.1.2,5101,9896,18860,38,62848,65728,6,6,4,1460,182500,1,16778208,720000,41772,41772,65700,0,18824,0,4027629971,63
o,1723651618.159256,172.16.3.2,61595,172.16.1.2,5101,9896,20320,38,64256,65728,6,6,4,1460,178437,1,16778208,660000,41772,38876,65700,0,15928,0,4027629971,63
i,1723651618.189521,172.16.3.2,61595,172.16.1.2,5101,9896,20320,38,64256,65728,6,6,4,1460,178437,1,16778208,660000,49964,49964,65700,0,20272,0,4027629971,63
o,1723651618.189611,172.16.3.2,61595,172.16.1.2,5101,9896,20320,38,64256,65728,6,6,4,1460,172500,1,16778208,630000,49964,47068,65700,0,17376,0,4027629971,63
i,1723651618.190250,172.16.3.2,61595,172.16.1.2,5101,9896,20320,38,64256,65728,6,6,4,1460,172500,1,16778208,630000,49964,47068,65700,0,20272,0,4027629971,63
o,1723651618.190279,172.16.3.2,61595,172.16.1.2,5101,9896,20320,38,64256,65728,6,6,4,1460,164687,1,16778208,620000,49964,44172,65700,0,17376,0,4027629971,63
i,1723651618.199514,172.16.3.2,61595,172.16.1.2,5101,9896,20320,38,64256,65728,6,6,4,1460,164687,1,16778208,620000,49964,49964,65700,0,20272,0,4027629971,63
o,1723651618.199578,172.16.3.2,61595,172.16.1.2,5101,9896,20320,38,64256,65728,6,6,4,1460,159375,1,16778208,590000,49964,47068,65700,0,17376,0,4027629971,63
i,1723651618.220861,172.16.3.2,61595,172.16.1.2,5101,9896,20320,38,64256,65728,6,6,4,1460,159375,1,16778208,590000,49964,49964,65700,0,20272,0,4027629971,63
o,1723651618.220928,172.16.3.2,61595,172.16.1.2,5101,9896,20320,38,64256,65728,6,6,4,1460,157187,1,16778208,550000,49964,47068,65700,0,17376,0,4027629971,63
o,1723651618.221063,172.16.3.2,61595,172.16.1.2,5101,9896,20320,38,64256,65728,6,6,4,1460,157187,1,16778208,550000,49964,47068,65700,0,18824,0,4027629971,63
i,1723651618.258900,172.16.3.2,61595,172.16.1.2,5101,9896,20320,38,64256,65728,6,6,4,1460,157187,1,16778208,550000,49964,49964,65700,0,20272,0,4027629971,63
o,1723651618.259083,172.16.3.2,61595,172.16.1.2,5101,9896,20320,38,64256,65728,6,6,4,1460,156562,1,16778208,510000,49964,47068,65700,0,17376,0,4027629971,63
i,1723651618.280652,172.16.3.2,61595,172.16.1.2,5101,9896,20320,38,64256,65728,6,6,4,1460,156562,1,16778208,510000,49964,48536,65700,0,20272,0,4027629971,63
o,1723651618.280747,172.16.3.2,61595,172.16.1.2,5101,9896,20320,38,64256,65728,6,6,4,1460,153437,1,16778208,490000,49964,45640,65700,0,17376,0,4027629971,63
i,1723651618.288101,172.16.3.2,61595,172.16.1.2,5101,9896,20320,38,64256,65728,6,6,4,1460,153437,1,16778208,490000,49964,49964,65700,0,20272,0,4027629971,63
o,1723651618.288168,172.16.3.2,61595,172.16.1.2,5101,9896,21780,38,64256,65728,6,6,4,1460,150625,1,16778208,480000,49964,47068,65700,0,17376,0,4027629971,63
i,1723651618.317797,172.16.3.2,61595,172.16.1.2,5101,9896,21780,38,64256,65728,6,6,4,1460,150625,1,16778208,480000,49964,49964,65700,0,21720,0,4027629971,63
o,1723651618.318010,172.16.3.2,61595,172.16.1.2,5101,9896,21780,38,64256,65728,6,6,4,1460,148125,1,16778208,460000,49964,47068,65700,0,18824,0,4027629971,63
i,1723651618.318756,172.16.3.2,61595,172.16.1.2,5101,9896,21780,38,64256,65728,6,6,4,1460,148125,1,16778208,460000,49964,47068,65700,0,21720,0,4027629971,63
o,1723651618.318984,172.16.3.2,61595,172.16.1.2,5101,9896,21780,38,64256,65728,6,6,4,1460,145937,1,16778208,450000,49964,44172,65700,0,18824,0,4027629971,63
i,1723651618.319373,172.16.3.2,61595,172.16.1.2,5101,9896,21780,38,64256,65728,6,6,4,1460,145937,1,16778208,450000,49964,44172,65700,0,21720,0,4027629971,63
o,1723651618.319454,172.16.3.2,61595,172.16.1.2,5101,9896,21780,38,64256,65728,6,6,4,1460,142812,1,16778208,450000,49964,41276,65700,0,18824,0,4027629971,63
i,1723651618.339807,172.16.3.2,61595,172.16.1.2,5101,9896,21780,38,64256,65728,6,6,4,1460,142812,1,16778208,450000,49964,49964,65700,0,21720,0,4027629971,63
o,1723651618.339890,172.16.3.2,61595,172.16.1.2,5101,9896,21780,38,62848,65728,6,6,4,1460,140000,1,16778208,440000,49964,47068,65700,0,18824,0,4027629971,63
o,1723651618.340025,172.16.3.2,61595,172.16.1.2,5101,9896,21780,38,62848,65728,6,6,4,1460,140000,1,16778208,440000,49964,47068,65700,0,20272,0,4027629971,63
i,1723651618.384319,172.16.3.2,61595,172.16.1.2,5101,9896,21780,38,62848,65728,6,6,4,1460,140000,1,16778208,440000,49964,49964,65700,0,21720,0,4027629971,63
o,1723651618.384430,172.16.3.2,61595,172.16.1.2,5101,9896,21780,38,64256,65728,6,6,4,1460,137500,1,16778208,430000,49964,47068,65700,0,18824,0,4027629971,63
i,1723651618.389009,172.16.3.2,61595,172.16.1.2,5101,9896,21780,38,64256,65728,6,6,4,1460,137500,1,16778208,430000,49964,49964,65700,0,21720,0,4027629971,63
o,1723651618.389030,172.16.3.2,61595,172.16.1.2,5101,9896,21780,38,62848,65728,6,6,4,1460,134062,1,16778208,430000,49964,47068,65700,0,18824,0,4027629971,63
i,1723651618.389247,172.16.3.2,61595,172.16.1.2,5101,9896,21780,38,62848,65728,6,6,4,1460,134062,1,16778208,430000,49964,47068,65700,0,21720,0,4027629971,63
o,1723651618.389269,172.16.3.2,61595,172.16.1.2,5101,9896,21780,38,62848,65728,6,6,4,1460,130000,1,16778208,440000,49964,44172,65700,0,18824,0,4027629971,63
i,1723651618.447452,172.16.3.2,61595,172.16.1.2,5101,9896,21780,38,62848,65728,6,6,4,1460,130000,1,16778208,440000,49964,49964,65700,0,21720,0,4027629971,63
o,1723651618.447477,172.16.3.2,61595,172.16.1.2,5101,9896,23240,38,65728,65728,6,6,4,1460,133750,1,16778208,440000,49964,48516,65700,0,20272,0,4027629971,63
i,1723651618.447673,172.16.3.2,61595,172.16.1.2,5101,9896,23240,38,65728,65728,6,6,4,1460,133750,1,16778208,440000,49964,48516,65700,0,23168,0,4027629971,63
o,1723651618.447692,172.16.3.2,61595,172.16.1.2,5101,9896,23240,38,62848,65728,6,6,4,1460,132187,1,16778208,420000,49964,45620,65700,0,20272,0,4027629971,63
i,1723651618.447820,172.16.3.2,61595,172.16.1.2,5101,9896,23240,38,62848,65728,6,6,4,1460,132187,1,16778208,420000,58156,45620,65700,0,23168,0,4027629971,63
o,1723651618.447849,172.16.3.2,61595,172.16.1.2,5101,9896,23240,38,64256,65728,6,6,4,1460,130937,1,16778208,410000,58156,42724,65700,0,20272,0,4027629971,63
i,1723651618.458395,172.16.3.2,61595,172.16.1.2,5101,9896,23240,38,64256,65728,6,6,4,1460,130937,1,16778208,410000,58156,58156,65700,0,23168,0,4027629971,63
o,1723651618.458467,172.16.3.2,61595,172.16.1.2,5101,9896,23240,38,64256,65728,6,6,4,1460,130937,1,16778208,390000,58156,55260,65700,0,20272,0,4027629971,63
i,1723651618.458619,172.16.3.2,61595,172.16.1.2,5101,9896,23240,38,64256,65728,6,6,4,1460,130937,1,16778208,390000,58156,55260,65700,0,23168,0,4027629971,63
o,1723651618.458637,172.16.3.2,61595,172.16.1.2,5101,9896,23240,38,62848,65728,6,6,4,1460,129687,1,16778208,380000,58156,52364,65700,0,20272,0,4027629971,63
o,1723651618.458765,172.16.3.2,61595,172.16.1.2,5101,9896,23240,38,62848,65728,6,6,4,1460,129687,1,16778208,380000,58156,52364,65700,0,21720,0,4027629971,63
i,1723651618.521801,172.16.3.2,61595,172.16.1.2,5101,9896,23240,38,62848,65728,6,6,4,1460,129687,1,16778208,380000,58156,58156,65700,0,23168,0,4027629971,63
o,1723651618.521855,172.16.3.2,61595,172.16.1.2,5101,9896,23240,38,62848,65728,6,6,4,1460,130000,1,16778208,370000,58156,55260,65700,0,20272,0,4027629971,63
i,1723651618.522037,172.16.3.2,61595,172.16.1.2,5101,9896,23240,38,62848,65728,6,6,4,1460,130000,1,16778208,370000,58156,55260,65700,0,23168,0,4027629971,63
o,1723651618.522242,172.16.3.2,61595,172.16.1.2,5101,9896,23240,38,59968,65728,6,6,4,1460,130000,1,16778208,360000,58156,52364,65700,0,20272,0,4027629971,63
i,1723651618.522423,172.16.3.2,61595,172.16.1.2,5101,9896,23240,38,59968,65728,6,6,4,1460,130000,1,16778208,360000,58156,52364,65700,0,23168,0,4027629971,63
o,1723651618.522439,172.16.3.2,61595,172.16.1.2,5101,9896,23240,38,62848,65728,6,6,4,1460,130000,1,16778208,360000,58156,49468,65700,0,20272,0,4027629971,63
i,1723651618.583526,172.16.3.2,61595,172.16.1.2,5101,9896,23240,38,62848,65728,6,6,4,1460,130000,1,16778208,360000,58156,58156,65700,0,23168,0,4027629971,63
o,1723651618.583763,172.16.3.2,61595,172.16.1.2,5101,9896,24700,38,62848,65728,6,6,4,1460,131250,1,16778208,360000,58156,55260,65700,0,20272,0,4027629971,63
i,1723651618.584707,172.16.3.2,61595,172.16.1.2,5101,9896,24700,38,62848,65728,6,6,4,1460,131250,1,16778208,360000,58156,55260,65700,0,24616,0,4027629971,63
o,1723651618.584763,172.16.3.2,61595,172.16.1.2,5101,9896,24700,38,64256,65728,6,6,4,1460,132500,1,16778208,360000,58156,52364,65700,0,21720,0,4027629971,63
i,1723651618.604028,172.16.3.2,61595,172.16.1.2,5101,9896,24700,38,64256,65728,6,6,4,1460,132500,1,16778208,360000,58156,58156,65700,0,24616,0,4027629971,63
o,1723651618.604237,172.16.3.2,61595,172.16.1.2,5101,9896,24700,38,62848,65728,6,6,4,1460,135937,1,16778208,390000,58156,55260,65700,0,21720,0,4027629971,63
i,1723651618.604721,172.16.3.2,61595,172.16.1.2,5101,9896,24700,38,62848,65728,6,6,4,1460,135937,1,16778208,390000,58156,55260,65700,0,24616,0,4027629971,63
o,1723651618.604770,172.16.3.2,61595,172.16.1.2,5101,9896,24700,38,62848,65728,6,6,4,1460,137812,1,16778208,390000,58156,52364,65700,0,21720,0,4027629971,63
i,1723651618.605149,172.16.3.2,61595,172.16.1.2,5101,9896,24700,38,62848,65728,6,6,4,1460,137812,1,16778208,390000,58156,52364,65700,0,24616,0,4027629971,63
o,1723651618.605201,172.16.3.2,61595,172.16.1.2,5101,9896,24700,38,59968,65728,6,6,4,1460,139375,1,16778208,390000,58156,49468,65700,0,21720,0,4027629971,63
o,1723651618.605529,172.16.3.2,61595,172.16.1.2,5101,9896,24700,38,59968,65728,6,6,4,1460,139375,1,16778208,390000,58156,49468,65700,0,23168,0,4027629971,63
i,1723651618.660479,172.16.3.2,61595,172.16.1.2,5101,9896,24700,38,59968,65728,6,6,4,1460,139375,1,16778208,390000,58156,58156,65700,0,24616,0,4027629971,63
o,1723651618.660501,172.16.3.2,61595,172.16.1.2,5101,9896,24700,38,64256,65728,6,6,4,1460,139687,1,16778208,380000,58156,55260,65700,0,21720,0,4027629971,63
i,1723651618.660629,172.16.3.2,61595,172.16.1.2,5101,9896,24700,38,64256,65728,6,6,4,1460,139687,1,16778208,380000,58156,55260,65700,0,24616,0,4027629971,63
o,1723651618.660646,172.16.3.2,61595,172.16.1.2,5101,9896,24700,38,64256,65728,6,6,4,1460,138750,1,16778208,380000,58156,52364,65700,0,21720,0,4027629971,63
i,1723651618.662819,172.16.3.2,61595,172.16.1.2,5101,9896,24700,38,64256,65728,6,6,4,1460,138750,1,16778208,380000,58156,58156,65700,0,24616,0,4027629971,63
o,1723651618.662839,172.16.3.2,61595,172.16.1.2,5101,9896,24700,38,64256,65728,6,6,4,1460,139062,1,16778208,370000,58156,55260,65700,0,21720,0,4027629971,63
i,1723651618.725977,172.16.3.2,61595,172.16.1.2,5101,9896,24700,38,64256,65728,6,6,4,1460,139062,1,16778208,370000,58156,58156,65700,0,24616,0,4027629971,63
o,1723651618.726049,172.16.3.2,61595,172.16.1.2,5101,9896,24700,38,64256,65728,6,6,4,1460,139375,1,16778208,370000,58156,55260,65700,0,21720,0,4027629971,63
i,1723651618.726413,172.16.3.2,61595,172.16.1.2,5101,9896,24700,38,64256,65728,6,6,4,1460,139375,1,16778208,370000,58156,55260,65700,0,24616,0,4027629971,63
o,1723651618.726443,172.16.3.2,61595,172.16.1.2,5101,9896,26160,38,62848,65728,6,6,4,1460,139687,1,16778208,360000,58156,52364,65700,0,21720,0,4027629971,63
i,1723651618.726718,172.16.3.2,61595,172.16.1.2,5101,9896,26160,38,62848,65728,6,6,4,1460,139687,1,16778208,360000,58156,52364,65700,0,26064,0,4027629971,63
o,1723651618.726739,172.16.3.2,61595,172.16.1.2,5101,9896,26160,38,64256,65728,6,6,4,1460,140000,1,16778208,360000,58156,49468,65700,0,23168,0,4027629971,63
i,1723651618.726931,172.16.3.2,61595,172.16.1.2,5101,9896,26160,38,64256,65728,6,6,4,1460,140000,1,16778208,360000,58156,49468,65700,0,26064,0,4027629971,63
o,1723651618.726953,172.16.3.2,61595,172.16.1.2,5101,9896,26160,38,62848,65728,6,6,4,1460,137500,1,16778208,370000,58156,46572,65700,0,23168,0,4027629971,63
i,1723651618.727394,172.16.3.2,61595,172.16.1.2,5101,9896,26160,38,62848,65728,6,6,4,1460,137500,1,16778208,370000,58156,46572,65700,0,26064,0,4027629971,63
o,1723651618.727415,172.16.3.2,61595,172.16.1.2,5101,9896,26160,38,62848,65728,6,6,4,1460,135312,1,16778208,380000,58156,43676,65700,0,23168,0,4027629971,63
o,1723651618.727560,172.16.3.2,61595,172.16.1.2,5101,9896,26160,38,62848,65728,6,6,4,1460,135312,1,16778208,380000,58156,43676,65700,0,24616,0,4027629971,63
i,1723651618.758093,172.16.3.2,61595,172.16.1.2,5101,9896,26160,38,62848,65728,6,6,4,1460,135312,1,16778208,380000,58156,58156,65700,0,26064,0,4027629971,63
o,1723651618.758375,172.16.3.2,61595,172.16.1.2,5101,9896,26160,38,64256,65728,6,6,4,1460,137187,1,16778208,380000,58156,55260,65700,0,23168,0,4027629971,63
i,1723651618.779330,172.16.3.2,61595,172.16.1.2,5101,9896,26160,38,64256,65728,6,6,4,1460,137187,1,16778208,380000,58156,58156,65700,0,26064,0,4027629971,63
o,1723651618.779363,172.16.3.2,61595,172.16.1.2,5101,9896,26160,38,62848,65728,6,6,4,1460,134062,1,16778208,390000,58156,55260,65700,0,23168,0,4027629971,63
i,1723651618.780111,172.16.3.2,61595,172.16.1.2,5101,9896,26160,38,62848,65728,6,6,4,1460,134062,1,16778208,390000,58156,58156,65700,0,26064,0,4027629971,63
o,1723651618.780131,172.16.3.2,61595,172.16.1.2,5101,9896,26160,38,64256,65728,6,6,4,1460,131250,1,16778208,400000,58156,55260,65700,0,23168,0,4027629971,63
i,1723651618.818527,172.16.3.2,61595,172.16.1.2,5101,9896,26160,38,64256,65728,6,6,4,1460,131250,1,16778208,400000,58156,58156,65700,0,26064,0,4027629971,63
o,1723651618.818620,172.16.3.2,61595,172.16.1.2,5101,9896,26160,38,65728,65728,6,6,4,1460,133750,1,16778208,400000,58156,56708,65700,0,24616,0,4027629971,63
i,1723651618.828627,172.16.3.2,61595,172.16.1.2,5101,9896,26160,38,65728,65728,6,6,4,1460,133750,1,16778208,400000,58156,56708,65700,0,26064,0,4027629971,63
o,1723651618.828650,172.16.3.2,61595,172.16.1.2,5101,9896,26160,38,64256,65728,6,6,4,1460,128437,1,16778208,420000,58156,53812,65700,0,23168,0,4027629971,63
i,1723651618.837607,172.16.3.2,61595,172.16.1.2,5101,9896,26160,38,64256,65728,6,6,4,1460,128437,1,16778208,420000,58156,58156,65700,0,26064,0,4027629971,63
o,1723651618.837630,172.16.3.2,61595,172.16.1.2,5101,9896,27620,38,64256,65728,6,6,4,1460,125000,1,16778208,420000,58156,55260,65700,0,23168,0,4027629971,63
i,1723651618.837783,172.16.3.2,61595,172.16.1.2,5101,9896,27620,38,64256,65728,6,6,4,1460,125000,1,16778208,420000,58156,55260,65700,0,27512,0,4027629971,63
o,1723651618.837799,172.16.3.2,61595,172.16.1.2,5101,9896,27620,38,64256,65728,6,6,4,1460,121875,1,16778208,420000,58156,52364,65700,0,24616,0,4027629971,63
i,1723651618.862866,172.16.3.2,61595,172.16.1.2,5101,9896,27620,38,64256,65728,6,6,4,1460,121875,1,16778208,420000,66348,66348,65700,0,27512,0,4027629971,63
o,1723651618.862906,172.16.3.2,61595,172.16.1.2,5101,9896,27620,38,64256,65728,6,6,4,1460,123125,1,16778208,410000,66348,63452,65700,0,24616,0,4027629971,63
i,1723651618.863052,172.16.3.2,61595,172.16.1.2,5101,9896,27620,38,64256,65728,6,6,4,1460,123125,1,16778208,410000,66348,63452,65700,0,27512,0,4027629971,63
o,1723651618.863068,172.16.3.2,61595,172.16.1.2,5101,9896,27620,38,64256,65728,6,6,4,1460,124062,1,16778208,390000,66348,60556,65700,0,24616,0,4027629971,63
o,1723651618.863209,172.16.3.2,61595,172.16.1.2,5101,9896,27620,38,64256,65728,6,6,4,1460,124062,1,16778208,390000,66348,60556,65700,0,26064,0,4027629971,63
i,1723651618.895717,172.16.3.2,61595,172.16.1.2,5101,9896,27620,38,64256,65728,6,6,4,1460,124062,1,16778208,390000,66348,66348,65700,0,27512,0,4027629971,63
o,1723651618.895951,172.16.3.2,61595,172.16.1.2,5101,9896,27620,38,64256,65728,6,6,4,1460,130000,1,16778208,430000,66348,63452,65700,0,24616,0,4027629971,63
i,1723651618.896430,172.16.3.2,61595,172.16.1.2,5101,9896,27620,38,64256,65728,6,6,4,1460,130000,1,16778208,430000,66348,66348,65700,0,27512,0,4027629971,63
o,1723651618.896616,172.16.3.2,61595,172.16.1.2,5101,9896,27620,38,62848,65728,6,6,4,1460,131250,1,16778208,420000,66348,63452,65700,0,24616,0,4027629971,63
i,1723651618.899090,172.16.3.2,61595,172.16.1.2,5101,9896,27620,38,62848,65728,6,6,4,1460,131250,1,16778208,420000,66348,66348,65700,0,27512,0,4027629971,63
o,1723651618.899162,172.16.3.2,61595,172.16.1.2,5101,9896,27620,38,64256,65728,6,6,4,1460,130000,1,16778208,400000,66348,63452,65700,0,24616,0,4027629971,63
i,1723651618.935551,172.16.3.2,61595,172.16.1.2,5101,9896,27620,38,64256,65728,6,6,4,1460,130000,1,16778208,400000,66348,66348,65700,0,27512,0,4027629971,63
o,1723651618.935734,172.16.3.2,61595,172.16.1.2,5101,9896,27620,38,64256,65728,6,6,4,1460,133750,1,16778208,420000,66348,63452,65700,0,24616,0,4027629971,63
i,1723651618.969157,172.16.3.2,61595,172.16.1.2,5101,9896,27620,38,64256,65728,6,6,4,1460,133750,1,16778208,420000,66348,66348,65700,0,27512,0,4027629971,63
o,1723651618.969199,172.16.3.2,61595,172.16.1.2,5101,9896,27620,38,64256,65728,6,6,4,1460,134687,1,16778208,400000,66348,63452,65700,0,24616,0,4027629971,63
i,1723651618.969389,172.16.3.2,61595,172.16.1.2,5101,9896,27620,38,64256,65728,6,6,4,1460,134687,1,16778208,400000,66348,63452,65700,0,27512,0,4027629971,63
o,1723651618.969414,172.16.3.2,61595,172.16.1.2,5101,9896,27620,38,64256,65728,6,6,4,1460,134375,1,16778208,390000,66348,60556,65700,0,24616,0,4027629971,63
i,1723651618.970646,172.16.3.2,61595,172.16.1.2,5101,9896,27620,38,64256,65728,6,6,4,1460,134375,1,16778208,390000,66348,66348,65700,0,27512,0,4027629971,63
o,1723651618.970716,172.16.3.2,61595,172.16.1.2,5101,9896,29080,38,62848,65728,6,6,4,1460,134062,1,16778208,380000,66348,63452,65700,0,24616,0,4027629971,63
i,1723651618.994230,172.16.3.2,61595,172.16.1.2,5101,9896,29080,38,62848,65728,6,6,4,1460,134062,1,16778208,380000,66348,66348,65700,0,28960,0,4027629971,63
o,1723651618.994304,172.16.3.2,61595,172.16.1.2,5101,9896,29080,38,64256,65728,6,6,4,1460,137500,1,16778208,400000,66348,63452,65700,0,26064,0,4027629971,63
i,1723651618.994447,172.16.3.2,61595,172.16.1.2,5101,9896,29080,38,64256,65728,6,6,4,1460,137500,1,16778208,400000,66348,63452,65700,0,28960,0,4027629971,63
o,1723651618.994482,172.16.3.2,61595,172.16.1.2,5101,9896,29080,38,62848,65728,6,6,4,1460,136562,1,16778208,390000,66348,60556,65700,0,26064,0,4027629971,63
o,1723651618.994646,172.16.3.2,61595,172.16.1.2,5101,9896,29080,38,62848,65728,6,6,4,1460,136562,1,16778208,390000,66348,60556,65700,0,27512,0,4027629971,63
i,1723651619.008330,172.16.3.2,61595,172.16.1.2,5101,9896,29080,38,62848,65728,6,6,4,1460,136562,1,16778208,390000,66348,66348,65700,0,28960,0,4027629971,63
o,1723651619.008353,172.16.3.2,61595,172.16.1.2,5101,9896,29080,38,64256,65728,6,6,4,1460,137187,1,16778208,380000,66348,63452,65700,0,26064,0,4027629971,63
i,1723651619.008538,172.16.3.2,61595,172.16.1.2,5101,9896,29080,38,64256,65728,6,6,4,1460,137187,1,16778208,380000,66348,63452,65700,0,28960,0,4027629971,63
o,1723651619.008562,172.16.3.2,61595,172.16.1.2,5101,9896,29080,38,64256,65728,6,6,4,1460,134062,1,16778208,390000,66348,60556,65700,0,26064,0,4027629971,63
i,1723651619.008715,172.16.3.2,61595,172.16.1.2,5101,9896,29080,38,64256,65728,6,6,4,1460,134062,1,16778208,390000,66348,60556,65700,0,28960,0,4027629971,63
o,1723651619.008731,172.16.3.2,61595,172.16.1.2,5101,9896,29080,38,64256,65728,6,6,4,1460,131250,1,16778208,400000,66348,57660,65700,0,26064,0,4027629971,63
i,1723651619.060523,172.16.3.2,61595,172.16.1.2,5101,9896,29080,38,64256,65728,6,6,4,1460,131250,1,16778208,400000,66348,66348,65700,0,28960,0,4027629971,63
o,1723651619.060616,172.16.3.2,61595,172.16.1.2,5101,9896,29080,38,64256,65728,6,6,4,1460,135000,1,16778208,410000,66348,63452,65700,0,26064,0,4027629971,63
i,1723651619.070477,172.16.3.2,61595,172.16.1.2,5101,9896,29080,38,64256,65728,6,6,4,1460,135000,1,16778208,410000,66348,66348,65700,0,28960,0,4027629971,63
o,1723651619.070516,172.16.3.2,61595,172.16.1.2,5101,9896,29080,38,64256,65728,6,6,4,1460,134375,1,16778208,400000,66348,63452,65700,0,26064,0,4027629971,63
i,1723651619.088361,172.16.3.2,61595,172.16.1.2,5101,9896,29080,38,64256,65728,6,6,4,1460,134375,1,16778208,400000,66348,66348,65700,0,28960,0,4027629971,63
o,1723651619.088379,172.16.3.2,61595,172.16.1.2,5101,9896,29080,38,62848,65728,6,6,4,1460,132812,1,16778208,390000,66348,63452,65700,0,26064,0,4027629971,63
i,1723651619.088498,172.16.3.2,61595,172.16.1.2,5101,9896,29080,38,62848,65728,6,6,4,1460,132812,1,16778208,390000,66348,63452,65700,0,28960,0,4027629971,63
o,1723651619.088513,172.16.3.2,61595,172.16.1.2,5101,9896,29080,38,62848,65728,6,6,4,1460,131250,1,16778208,390000,66348,60556,65700,0,26064,0,4027629971,63
i,1723651619.088746,172.16.3.2,61595,172.16.1.2,5101,9896,29080,38,62848,65728,6,6,4,1460,131250,1,16778208,390000,66348,60556,65700,0,28960,0,4027629971,63
o,1723651619.088762,172.16.3.2,61595,172.16.1.2,5101,9896,30540,38,59968,65728,6,6,4,1460,130000,1,16778208,380000,66348,57660,65700,0,26064,0,4027629971,63
i,1723651619.111603,172.16.3.2,61595,172.16.1.2,5101,9896,30540,38,59968,65728,6,6,4,1460,130000,1,16778208,380000,66348,66348,65700,0,30408,0,4027629971,63
o,1723651619.111631,172.16.3.2,61595,172.16.1.2,5101,9896,30540,38,64256,65728,6,6,4,1460,127500,1,16778208,390000,66348,63452,65700,0,27512,0,4027629971,63
i,1723651619.111839,172.16.3.2,61595,172.16.1.2,5101,9896,30540,38,64256,65728,6,6,4,1460,127500,1,16778208,390000,66348,63452,65700,0,30408,0,4027629971,63
o,1723651619.111860,172.16.3.2,61595,172.16.1.2,5101,9896,30540,38,64256,65728,6,6,4,1460,125312,1,16778208,390000,66348,60556,65700,0,27512,0,4027629971,63
o,1723651619.112003,172.16.3.2,61595,172.16.1.2,5101,9896,30540,38,64256,65728,6,6,4,1460,125312,1,16778208,390000,66348,60556,65700,0,28960,0,4027629971,63
i,1723651619.115018,172.16.3.2,61595,172.16.1.2,5101,9896,30540,38,64256,65728,6,6,4,1460,125312,1,16778208,390000,74540,74540,65700,0,30408,0,4027629971,63
o,1723651619.115205,172.16.3.2,61595,172.16.1.2,5101,9896,30540,38,64256,65728,6,6,4,1460,122187,1,16778208,390000,74540,71644,65700,0,27512,0,4027629971,63
i,1723651619.119721,172.16.3.2,61595,172.16.1.2,5101,9896,30540,38,64256,65728,6,6,4,1460,122187,1,16778208,390000,74540,74540,65700,0,30408,0,4027629971,63
o,1723651619.119741,172.16.3.2,61595,172.16.1.2,5101,9896,30540,38,61376,65728,6,6,4,1460,119687,1,16778208,390000,74540,71644,65700,0,27512,0,4027629971,63
i,1723651619.121615,172.16.3.2,61595,172.16.1.2,5101,9896,30540,38,61376,65728,6,6,4,1460,119687,1,16778208,390000,74540,74540,65700,0,30408,0,4027629971,63
o,1723651619.121632,172.16.3.2,61595,172.16.1.2,5101,9896,30540,38,62848,65728,6,6,4,1460,117500,1,16778208,390000,74540,71644,65700,0,27512,0,4027629971,63
i,1723651619.152737,172.16.3.2,61595,172.16.1.2,5101,9896,30540,38,62848,65728,6,6,4,1460,117500,1,16778208,390000,74540,74540,65700,0,30408,0,4027629971,63
o,1723651619.152821,172.16.3.2,61595,172.16.1.2,5101,9896,30540,38,62848,65728,6,6,4,1460,114062,1,16778208,400000,74540,71644,65700,0,27512,0,4027629971,63
i,1723651619.178666,172.16.3.2,61595,172.16.1.2,5101,9896,30540,38,62848,65728,6,6,4,1460,114062,1,16778208,400000,74540,74540,65700,0,30408,0,4027629971,63
o,1723651619.178715,172.16.3.2,61595,172.16.1.2,5101,9896,30540,38,62848,65728,6,6,4,1460,113750,1,16778208,380000,74540,71644,65700,0,27512,0,4027629971,63
i,1723651619.180871,172.16.3.2,61595,172.16.1.2,5101,9896,30540,38,62848,65728,6,6,4,1460,113750,1,16778208,380000,74540,74540,65700,0,30408,0,4027629971,63
o,1723651619.180936,172.16.3.2,61595,172.16.1.2,5101,9896,30540,38,62848,65728,6,6,4,1460,110937,1,16778208,380000,74540,71644,65700,0,27512,0,4027629971,63
i,1723651619.181035,172.16.3.2,61595,172.16.1.2,5101,9896,30540,38,62848,65728,6,6,4,1460,110937,1,16778208,380000,74540,71644,65700,0,30408,0,4027629971,63
o,1723651619.181041,172.16.3.2,61595,172.16.1.2,5101,9896,30540,38,64256,65728,6,6,4,1460,108437,1,16778208,380000,74540,68748,65700,0,27512,0,4027629971,63
i,1723651619.198785,172.16.3.2,61595,172.16.1.2,5101,9896,30540,38,64256,65728,6,6,4,1460,108437,1,16778208,380000,74540,74540,65700,0,30408,0,4027629971,63
o,1723651619.198844,172.16.3.2,61595,172.16.1.2,5101,9896,32000,38,64256,65728,6,6,4,1460,108750,1,16778208,370000,74540,71644,65700,0,27512,0,4027629971,63
i,1723651619.236683,172.16.3.2,61595,172.16.1.2,5101,9896,32000,38,64256,65728,6,6,4,1460,108750,1,16778208,370000,74540,74540,65700,0,31856,0,4027629971,63
o,1723651619.236719,172.16.3.2,61595,172.16.1.2,5101,9896,32000,38,97152,65728,6,6,4,1460,114062,1,16778208,400000,74540,71644,65700,0,28960,0,4027629971,63
i,1723651619.236878,172.16.3.2,61595,172.16.1.2,5101,9896,32000,38,97152,65728,6,6,4,1460,114062,1,16778208,400000,74540,71644,65700,0,31856,0,4027629971,63
o,1723651619.236895,172.16.3.2,61595,172.16.1.2,5101,9896,32000,38,95680,65728,6,6,4,1460,116250,1,16778208,400000,74540,68748,65700,0,28960,0,4027629971,63
o,1723651619.237026,172.16.3.2,61595,172.16.1.2,5101,9896,32000,38,95680,65728,6,6,4,1460,116250,1,16778208,400000,74540,68748,65700,0,30408,0,4027629971,63
i,1723651619.237148,172.16.3.2,61595,172.16.1.2,5101,9896,32000,38,95680,65728,6,6,4,1460,116250,1,16778208,400000,74540,68748,65700,0,31856,0,4027629971,63
o,1723651619.237165,172.16.3.2,61595,172.16.1.2,5101,9896,32000,38,95680,65728,6,6,4,1460,118125,1,16778208,390000,74540,65852,65700,0,28960,0,4027629971,63
i,1723651619.237541,172.16.3.2,61595,172.16.1.2,5101,9896,32000,38,95680,65728,6,6,4,1460,118125,1,16778208,390000,74540,65852,65700,0,31856,0,4027629971,63
o,1723651619.237559,172.16.3.2,61595,172.16.1.2,5101,9896,32000,38,97152,65728,6,6,4,1460,118437,1,16778208,380000,74540,62956,65700,0,28960,0,4027629971,63
i,1723651619.251487,172.16.3.2,61595,172.16.1.2,5101,9896,32000,38,97152,65728,6,6,4,1460,118437,1,16778208,380000,74540,74540,65700,0,31856,0,4027629971,63
o,1723651619.251544,172.16.3.2,61595,172.16.1.2,5101,9896,32000,38,97152,65728,6,6,4,1460,120000,1,16778208,380000,74540,71644,65700,0,28960,0,4027629971,63
i,1723651619.251758,172.16.3.2,61595,172.16.1.2,5101,9896,32000,38,97152,65728,6,6,4,1460,120000,1,16778208,380000,74540,71644,65700,0,31856,0,4027629971,63
o,1723651619.251776,172.16.3.2,61595,172.16.1.2,5101,9896,32000,38,97152,65728,6,6,4,1460,121250,1,16778208,370000,74540,68748,65700,0,28960,0,4027629971,63
i,1723651619.269604,172.16.3.2,61595,172.16.1.2,5101,9896,32000,38,97152,65728,6,6,4,1460,121250,1,16778208,370000,74540,74540,65700,0,31856,0,4027629971,63
o,1723651619.269633,172.16.3.2,61595,172.16.1.2,5101,9896,32000,38,98560,65728,6,6,4,1460,120000,1,16778208,370000,74540,73092,65700,0,30408,0,4027629971,63
i,1723651619.299241,172.16.3.2,61595,172.16.1.2,5101,9896,32000,38,98560,65728,6,6,4,1460,120000,1,16778208,370000,74540,73092,65700,0,31856,0,4027629971,63
o,1723651619.299297,172.16.3.2,61595,172.16.1.2,5101,9896,32000,38,95680,65728,6,6,4,1460,120000,1,16778208,360000,74540,70196,65700,0,28960,0,4027629971,63
i,1723651619.299497,172.16.3.2,61595,172.16.1.2,5101,9896,32000,38,95680,65728,6,6,4,1460,120000,1,16778208,360000,74540,70196,65700,0,31856,0,4027629971,63
o,1723651619.299518,172.16.3.2,61595,172.16.1.2,5101,9896,32000,38,95680,65728,6,6,4,1460,120000,1,16778208,350000,74540,67300,65700,0,28960,0,4027629971,63
i,1723651619.299692,172.16.3.2,61595,172.16.1.2,5101,9896,32000,38,95680,65728,6,6,4,1460,120000,1,16778208,350000,74540,67300,65700,0,31856,0,4027629971,63
o,1723651619.299711,172.16.3.2,61595,172.16.1.2,5101,9896,32000,38,97152,65728,6,6,4,1460,120000,1,16778208,340000,74540,64404,65700,0,28960,0,4027629971,63
i,1723651619.309117,172.16.3.2,61595,172.16.1.2,5101,9896,32000,38,97152,65728,6,6,4,1460,120000,1,16778208,340000,74540,74540,65700,0,31856,0,4027629971,63
o,1723651619.309225,172.16.3.2,61595,172.16.1.2,5101,9896,32000,38,95680,65728,6,6,4,1460,117500,1,16778208,350000,74540,71644,65700,0,28960,0,4027629971,63
i,1723651619.329223,172.16.3.2,61595,172.16.1.2,5101,9896,32000,38,95680,65728,6,6,4,1460,117500,1,16778208,350000,74540,74540,65700,0,31856,0,4027629971,63
o,1723651619.329244,172.16.3.2,61595,172.16.1.2,5101,9896,33460,38,97152,65728,6,6,4,1460,117812,1,16778208,350000,74540,71644,65700,0,28960,0,4027629971,63
i,1723651619.329374,172.16.3.2,61595,172.16.1.2,5101,9896,33460,38,97152,65728,6,6,4,1460,117812,1,16778208,350000,74540,71644,65700,0,33304,0,4027629971,63
o,1723651619.329389,172.16.3.2,61595,172.16.1.2,5101,9896,33460,38,94272,65728,6,6,4,1460,114375,1,16778208,360000,74540,68748,65700,0,30408,0,4027629971,63
o,1723651619.329505,172.16.3.2,61595,172.16.1.2,5101,9896,33460,38,94272,65728,6,6,4,1460,114375,1,16778208,360000,74540,68748,65700,0,31856,0,4027629971,63
i,1723651619.339268,172.16.3.2,61595,172.16.1.2,5101,9896,33460,38,94272,65728,6,6,4,1460,114375,1,16778208,360000,74540,74540,65700,0,33304,0,4027629971,63
o,1723651619.339299,172.16.3.2,61595,172.16.1.2,5101,9896,33460,38,97152,65728,6,6,4,1460,112812,1,16778208,360000,74540,71644,65700,0,30408,0,4027629971,63
i,1723651619.339443,172.16.3.2,61595,172.16.1.2,5101,9896,33460,38,97152,65728,6,6,4,1460,112812,1,16778208,360000,74540,71644,65700,0,33304,0,4027629971,63
o,1723651619.339458,172.16.3.2,61595,172.16.1.2,5101,9896,33460,38,97152,65728,6,6,4,1460,111250,1,16778208,360000,74540,68748,65700,0,30408,0,4027629971,63
i,1723651619.358566,172.16.3.2,61595,172.16.1.2,5101,9896,33460,38,97152,65728,6,6,4,1460,111250,1,16778208,360000,74540,74540,65700,0,33304,0,4027629971,63
o,1723651619.358658,172.16.3.2,61595,172.16.1.2,5101,9896,33460,38,97152,65728,6,6,4,1460,112500,1,16778208,360000,74540,71644,65700,0,30408,0,4027629971,63
i,1723651619.370905,172.16.3.2,61595,172.16.1.2,5101,9896,33460,38,97152,65728,6,6,4,1460,112500,1,16778208,360000,74540,74540,65700,0,33304,0,4027629971,63
o,1723651619.370931,172.16.3.2,61595,172.16.1.2,5101,9896,33460,38,97152,65728,6,6,4,1460,113437,1,16778208,350000,74540,71644,65700,0,30408,0,4027629971,63
i,1723651619.371097,172.16.3.2,61595,172.16.1.2,5101,9896,33460,38,97152,65728,6,6,4,1460,113437,1,16778208,350000,74540,71644,65700,0,33304,0,4027629971,63
o,1723651619.371116,172.16.3.2,61595,172.16.1.2,5101,9896,33460,38,94272,65728,6,6,4,1460,114375,1,16778208,350000,74540,68748,65700,0,30408,0,4027629971,63
i,1723651619.405865,172.16.3.2,61595,172.16.1.2,5101,9896,33460,38,94272,65728,6,6,4,1460,114375,1,16778208,350000,74540,74540,65700,0,33304,0,4027629971,63
o,1723651619.405865,172.16.3.2,61595,172.16.1.2,5101,9896,33460,38,97152,65728,6,6,4,1460,114062,1,16778208,340000,74540,71644,65700,0,30408,0,4027629971,63
i,1723651619.419345,172.16.3.2,61595,172.16.1.2,5101,9896,33460,38,97152,65728,6,6,4,1460,114062,1,16778208,340000,74540,74540,65700,0,33304,0,4027629971,63
o,1723651619.419390,172.16.3.2,61595,172.16.1.2,5101,9896,33460,38,97152,65728,6,6,4,1460,115000,1,16778208,350000,74540,71644,65700,0,30408,0,4027629971,63
i,1723651619.419523,172.16.3.2,61595,172.16.1.2,5101,9896,33460,38,97152,65728,6,6,4,1460,115000,1,16778208,350000,74540,71644,65700,0,33304,0,4027629971,63
o,1723651619.419538,172.16.3.2,61595,172.16.1.2,5101,9896,33460,38,97152,65728,6,6,4,1460,115625,1,16778208,340000,74540,68748,65700,0,30408,0,4027629971,63
i,1723651619.422841,172.16.3.2,61595,172.16.1.2,5101,9896,33460,38,97152,65728,6,6,4,1460,115625,1,16778208,340000,74540,74540,65700,0,33304,0,4027629971,63
o,1723651619.422860,172.16.3.2,61595,172.16.1.2,5101,9896,33460,38,95680,65728,6,6,4,1460,116250,1,16778208,340000,74540,71644,65700,0,30408,0,4027629971,63
i,1723651619.438725,172.16.3.2,61595,172.16.1.2,5101,9896,33460,38,95680,65728,6,6,4,1460,116250,1,16778208,340000,74540,74540,65700,0,33304,0,4027629971,63
o,1723651619.438801,172.16.3.2,61595,172.16.1.2,5101,9896,34920,38,95680,65728,6,6,4,1460,115625,1,16778208,340000,74540,71644,65700,0,30408,0,4027629971,63
i,1723651619.440116,172.16.3.2,61595,172.16.1.2,5101,9896,34920,38,95680,65728,6,6,4,1460,115625,1,16778208,340000,74540,74540,65700,0,34752,0,4027629971,63
o,1723651619.440136,172.16.3.2,61595,172.16.1.2,5101,9896,34920,38,95680,65728,6,6,4,1460,115000,1,16778208,340000,74540,71644,65700,0,31856,0,4027629971,63
o,1723651619.440260,172.16.3.2,61595,172.16.1.2,5101,9896,34920,38,95680,65728,6,6,4,1460,115000,1,16778208,340000,74540,71644,65700,0,33304,0,4027629971,63
i,1723651619.440767,172.16.3.2,61595,172.16.1.2,5101,9896,34920,38,95680,65728,6,6,4,1460,115000,1,16778208,340000,74540,74540,65700,0,34752,0,4027629971,63
o,1723651619.440824,172.16.3.2,61595,172.16.1.2,5101,9896,34920,38,95680,65728,6,6,4,1460,114375,1,16778208,340000,74540,71644,65700,0,31856,0,4027629971,63
i,1723651619.448697,172.16.3.2,61595,172.16.1.2,5101,9896,34920,38,95680,65728,6,6,4,1460,114375,1,16778208,340000,74540,74540,65700,0,34752,0,4027629971,63
o,1723651619.448797,172.16.3.2,61595,172.16.1.2,5101,9896,34920,38,97152,65728,6,6,4,1460,112812,1,16778208,340000,74540,71644,65700,0,31856,0,4027629971,63
i,1723651619.488403,172.16.3.2,61595,172.16.1.2,5101,9896,34920,38,97152,65728,6,6,4,1460,112812,1,16778208,340000,74540,74540,65700,0,34752,0,4027629971,63
o,1723651619.488448,172.16.3.2,61595,172.16.1.2,5101,9896,34920,38,97152,65728,6,6,4,1460,116250,1,16778208,370000,74540,71644,65700,0,31856,0,4027629971,63
i,1723651619.488693,172.16.3.2,61595,172.16.1.2,5101,9896,34920,38,97152,65728,6,6,4,1460,116250,1,16778208,370000,74540,71644,65700,0,34752,0,4027629971,63
o,1723651619.488714,172.16.3.2,61595,172.16.1.2,5101,9896,34920,38,97152,65728,6,6,4,1460,116875,1,16778208,360000,74540,68748,65700,0,31856,0,4027629971,63
i,1723651619.516238,172.16.3.2,61595,172.16.1.2,5101,9896,34920,38,97152,65728,6,6,4,1460,116875,1,16778208,360000,82732,82732,65700,0,34752,0,4027629971,63
o,1723651619.516325,172.16.3.2,61595,172.16.1.2,5101,9896,34920,38,95680,65728,6,6,4,1460,121250,1,16778208,390000,82732,79836,65700,0,31856,0,4027629971,63
i,1723651619.530268,172.16.3.2,61595,172.16.1.2,5101,9896,34920,38,95680,65728,6,6,4,1460,121250,1,16778208,390000,82732,82732,65700,0,34752,0,4027629971,63
o,1723651619.530303,172.16.3.2,61595,172.16.1.2,5101,9896,34920,38,98560,65728,6,6,4,1460,126250,1,16778208,420000,82732,81284,65700,0,33304,0,4027629971,63
i,1723651619.530463,172.16.3.2,61595,172.16.1.2,5101,9896,34920,38,98560,65728,6,6,4,1460,126250,1,16778208,420000,82732,81284,65700,0,34752,0,4027629971,63
o,1723651619.530489,172.16.3.2,61595,172.16.1.2,5101,9896,34920,38,95680,65728,6,6,4,1460,125625,1,16778208,400000,82732,78388,65700,0,31856,0,4027629971,63
i,1723651619.530689,172.16.3.2,61595,172.16.1.2,5101,9896,34920,38,95680,65728,6,6,4,1460,125625,1,16778208,400000,82732,78388,65700,0,34752,0,4027629971,63
o,1723651619.530706,172.16.3.2,61595,172.16.1.2,5101,9896,34920,38,95680,65728,6,6,4,1460,123750,1,16778208,390000,82732,75492,65700,0,31856,0,4027629971,63
i,1723651619.560286,172.16.3.2,61595,172.16.1.2,5101,9896,34920,38,95680,65728,6,6,4,1460,123750,1,16778208,390000,82732,82732,65700,0,34752,0,4027629971,63
o,1723651619.560320,172.16.3.2,61595,172.16.1.2,5101,9896,34920,38,97152,65728,6,6,4,1460,125937,1,16778208,400000,82732,79836,65700,0,31856,0,4027629971,63
i,1723651619.560487,172.16.3.2,61595,172.16.1.2,5101,9896,34920,38,97152,65728,6,6,4,1460,125937,1,16778208,400000,82732,79836,65700,0,34752,0,4027629971,63
o,1723651619.560503,172.16.3.2,61595,172.16.1.2,5101,9896,34920,38,97152,65728,6,6,4,1460,126562,1,16778208,380000,82732,76940,65700,0,31856,0,4027629971,63
i,1723651619.579766,172.16.3.2,61595,172.16.1.2,5101,9896,34920,38,97152,65728,6,6,4,1460,126562,1,16778208,380000,82732,82732,65700,0,34752,0,4027629971,63
o,1723651619.579868,172.16.3.2,61595,172.16.1.2,5101,9896,34920,38,95680,65728,6,6,4,1460,128437,1,16778208,390000,82732,79836,65700,0,31856,0,4027629971,63
i,1723651619.582020,172.16.3.2,61595,172.16.1.2,5101,9896,34920,38,95680,65728,6,6,4,1460,128437,1,16778208,390000,82732,82732,65700,0,34752,0,4027629971,63
o,1723651619.582181,172.16.3.2,61595,172.16.1.2,5101,9896,36380,38,95680,65728,6,6,4,1460,130000,1,16778208,390000,82732,79836,65700,0,31856,0,4027629971,63
o,1723651619.582302,172.16.3.2,61595,172.16.1.2,5101,9896,36380,38,95680,65728,6,6,4,1460,130000,1,16778208,390000,82732,79836,65700,0,33304,0,4027629971,63
i,1723651619.582468,172.16.3.2,61595,172.16.1.2,5101,9896,36380,38,95680,65728,6,6,4,1460,130000,1,16778208,390000,82732,79836,65700,0,36200,0,4027629971,63
o,1723651619.582485,172.16.3.2,61595,172.16.1.2,5101,9896,36380,38,92800,65728,6,6,4,1460,131250,1,16778208,380000,82732,76940,65700,0,33304,0,4027629971,63
i,1723651619.582659,172.16.3.2,61595,172.16.1.2,5101,9896,36380,38,92800,65728,6,6,4,1460,131250,1,16778208,380000,82732,76940,65700,0,36200,0,4027629971,63
o,1723651619.582678,172.16.3.2,61595,172.16.1.2,5101,9896,36380,38,97152,65728,6,6,4,1460,132500,1,16778208,380000,82732,74044,65700,0,33304,0,4027629971,63
i,1723651619.614050,172.16.3.2,61595,172.16.1.2,5101,9896,36380,38,97152,65728,6,6,4,1460,132500,1,16778208,380000,82732,82732,65700,0,36200,0,4027629971,63
