enable_time_secs=1723651438	enable_time_usecs=348060	siftrver=1.3.0	sysname=FreeBSD	sysver=1401000	ipmode=4
o,1723651438.348547,10.0.2.15,22,10.0.2.2,50532,1073725440,17746,1026,65535,65700,0,0,4,1460,312,0,16777220,240000,33580,172,65700,0,0,0,2464548117,63
o,1723651438.348790,10.0.2.15,22,10.0.2.2,50532,1073725440,17746,1026,65535,65700,0,0,4,1460,312,0,16777220,240000,33580,244,65700,0,172,0,2464548117,63
i,1723651438.349037,10.0.2.15,22,10.0.2.2,50532,1073725440,17746,1026,65535,65700,0,0,4,1460,312,0,16777220,240000,33580,244,65700,0,244,0,2464548117,63
i,1723651438.349063,10.0.2.15,22,10.0.2.2,50532,1073725440,17918,1026,65535,65700,0,0,4,1460,312,0,4,240000,33580,72,65700,0,72,0,2464548117,63
i,1723651438.349658,10.0.2.15,22,10.0.2.2,50532,1073725440,17990,1026,65535,65700,0,0,4,1460,312,0,4,240000,33580,0,65700,0,0,0,2464548117,63
i,1723651438.349690,10.0.2.15,22,10.0.2.2,50532,1073725440,17990,1026,65535,65700,0,0,4,1460,312,0,4,240000,33580,0,65700,96,0,0,2464548117,63
o,1723651438.349714,10.0.2.15,22,10.0.2.2,50532,1073725440,17990,1026,65535,65604,0,0,5,1460,312,0,5,240000,33580,0,65700,96,0,0,2464548117,63
o,1723651438.350884,10.0.2.15,22,10.0.2.2,50532,1073725440,17990,1026,65535,65604,0,0,8,1460,312,0,4,240000,33580,0,65700,0,0,0,2464548117,63
i,1723651438.351580,10.0.2.15,22,10.0.2.2,50532,1073725440,17990,1026,65535,65604,0,0,8,1460,312,0,67108884,240000,33580,0,65700,0,1,0,2464548117,63
i,1723651440.602753,10.0.2.15,22,10.0.2.2,50538,1073725440,14600,0,65535,65700,0,0,4,1460,312,0,16777216,270000,33580,0,65700,0,0,0,3191910388,63
o,1723651440.611965,10.0.2.15,22,10.0.2.2,50538,1073725440,14600,1026,65535,65700,0,0,4,1460,312,0,16777216,270000,33580,38,65700,42,0,0,3191910388,63
i,1723651440.613170,10.0.2.15,22,10.0.2.2,50538,1073725440,14600,1026,65535,65700,0,0,4,1460,312,0,16777216,270000,33580,38,65700,0,38,0,3191910388,63
i,1723651440.613519,10.0.2.15,22,10.0.2.2,50538,1073725440,14638,1026,65535,65700,0,0,4,1460,312,0,0,240000,33580,0,65700,0,0,0,3191910388,63
i,1723651440.613535,10.0.2.15,22,10.0.2.2,50538,1073725440,14638,1026,65535,65700,0,0,4,1460,312,0,0,240000,33580,0,65700,1460,0,0,3191910388,63
o,1723651440.613552,10.0.2.15,22,10.0.2.2,50538,1073725440,14638,1026,65535,65700,0,0,4,1460,312,0,1,240000,33580,0,65700,1536,0,0,3191910388,63
o,1723651440.614317,10.0.2.15,22,10.0.2.2,50538,1073725440,14638,1026,65535,65700,0,0,4,1460,312,0,16777216,240000,33580,1120,65700,1536,0,0,3191910388,63
i,1723651440.615134,10.0.2.15,22,10.0.2.2,50538,1073725440,14638,1026,65535,65700,0,0,4,1460,312,0,16777216,240000,33580,1120,65700,0,1120,0,3191910388,63
i,1723651440.616187,10.0.2.15,22,10.0.2.2,50538,1073725440,15758,1026,65535,65700,0,0,4,1460,312,0,0,240000,33580,0,65700,0,0,0,3191910388,63
o,1723651440.619106,10.0.2.15,22,10.0.2.2,50538,1073725440,15758,1026,65535,65700,0,0,4,1460,312,0,16777216,240000,33580,492,65700,0,0,0,3191910388,63
i,1723651440.619958,10.0.2.15,22,10.0.2.2,50538,1073725440,15758,1026,65535,65700,0,0,4,1460,312,0,16777216,240000,33580,492,65700,0,492,0,3191910388,63
i,1723651440.623920,10.0.2.15,22,10.0.2.2,50538,1073725440,16250,1026,65535,65700,0,0,4,1460,312,0,0,240000,33580,0,65700,0,0,0,3191910388,63
o,1723651440.623920,10.0.2.15,22,10.0.2.2,50538,1073725440,16250,1026,65535,65700,0,0,4,1460,312,0,16777216,240000,33580,44,65700,0,0,0,3191910388,63
i,1723651440.624623,10.0.2.15,22,10.0.2.2,50538,1073725440,16250,1026,65535,65700,0,0,4,1460,312,0,16777216,240000,33580,44,65700,0,44,0,3191910388,63
i,1723651440.624640,10.0.2.15,22,10.0.2.2,50538,1073725440,16294,1026,65535,65700,0,0,4,1460,312,0,0,240000,33580,0,65700,0,0,0,3191910388,63
o,1723651440.625578,10.0.2.15,22,10.0.2.2,50538,1073725440,16294,1026,65535,65700,0,0,4,1460,312,0,16777216,240000,33580,68,65700,0,0,0,3191910388,63
i,1723651440.626366,10.0.2.15,22,10.0.2.2,50538,1073725440,16294,1026,65535,65700,0,0,4,1460,312,0,16777216,240000,33580,68,65700,0,68,0,3191910388,63
i,1723651440.626411,10.0.2.15,22,10.0.2.2,50538,1073725440,16362,1026,65535,65700,0,0,4,1460,312,0,0,240000,33580,0,65700,0,0,0,3191910388,63
o,1723651440.627324,10.0.2.15,22,10.0.2.2,50538,1073725440,16362,1026,65535,65700,0,0,4,1460,312,0,16777216,240000,33580,332,65700,0,0,0,3191910388,63
i,1723651440.628080,10.0.2.15,22,10.0.2.2,50538,1073725440,16362,1026,65535,65700,0,0,4,1460,312,0,16777216,240000,33580,332,65700,0,332,0,3191910388,63
i,1723651440.629317,10.0.2.15,22,10.0.2.2,50538,1073725440,16694,1026,65535,65700,0,0,4,1460,312,0,0,240000,33580,0,65700,0,0,0,3191910388,63
o,1723651440.647969,10.0.2.15,22,10.0.2.2,50538,1073725440,16694,1026,65535,65700,0,0,4,1460,312,0,16777216,240000,33580,28,65700,0,0,0,3191910388,63
i,1723651440.648614,10.0.2.15,22,10.0.2.2,50538,1073725440,16694,1026,65535,65700,0,0,4,1460,312,0,16777216,240000,33580,28,65700,0,28,0,3191910388,63
i,1723651440.648639,10.0.2.15,22,10.0.2.2,50538,1073725440,16722,1026,65535,65700,0,0,4,1460,312,0,0,240000,33580,0,65700,0,0,0,3191910388,63
o,1723651440.649679,10.0.2.15,22,10.0.2.2,50538,1073725440,16722,1026,65535,65700,0,0,4,1460,312,0,16777216,240000,33580,768,65700,112,0,0,3191910388,63
i,1723651440.650515,10.0.2.15,22,10.0.2.2,50538,1073725440,16722,1026,65535,65700,0,0,4,1460,312,0,16777216,240000,33580,908,65700,112,768,0,3191910388,63
o,1723651440.650533,10.0.2.15,22,10.0.2.2,50538,1073725440,17490,1026,65535,65700,0,0,4,1460,312,0,16777216,240000,33580,140,65700,112,0,0,3191910388,63
i,1723651440.650870,10.0.2.15,22,10.0.2.2,50538,1073725440,17490,1026,65535,65700,0,0,4,1460,312,0,16777216,240000,33580,140,65700,112,140,0,3191910388,63
o,1723651440.651140,10.0.2.15,22,10.0.2.2,50538,1073725440,17630,1026,65535,65700,0,0,4,1460,312,0,16777216,240000,33580,44,65700,0,0,0,3191910388,63
i,1723651440.651680,10.0.2.15,22,10.0.2.2,50538,1073725440,17630,1026,65535,65700,0,0,4,1460,312,0,16777216,240000,33580,44,65700,0,44,0,3191910388,63
i,1723651440.651697,10.0.2.15,22,10.0.2.2,50538,1073725440,17674,1026,65535,65700,0,0,4,1460,312,0,0,240000,33580,0,65700,0,0,0,3191910388,63
o,1723651440.652369,10.0.2.15,22,10.0.2.2,50538,1073725440,17674,1026,65535,65700,0,0,4,1460,312,0,16777220,240000,33580,72,65700,0,0,0,3191910388,63
i,1723651440.653162,10.0.2.15,22,10.0.2.2,50538,1073725440,17674,1026,65535,65700,0,0,4,1460,312,0,16777220,240000,33580,72,65700,0,72,0,3191910388,63
o,1723651440.655152,10.0.2.15,22,10.0.2.2,50538,1073725440,17746,1026,65535,65700,0,0,4,1460,312,0,16777220,240000,33580,104,65700,0,0,0,3191910388,63
i,1723651440.655852,10.0.2.15,22,10.0.2.2,50538,1073725440,17746,1026,65535,65700,0,0,4,1460,312,0,16777220,240000,33580,104,65700,0,104,0,3191910388,63
o,1723651440.656159,10.0.2.15,22,10.0.2.2,50538,1073725440,17850,1026,65535,65700,0,0,4,1460,312,0,16777220,240000,33580,72,65700,0,0,0,3191910388,63
i,1723651440.657017,10.0.2.15,22,10.0.2.2,50538,1073725440,17850,1026,65535,65700,0,0,4,1460,312,0,16777220,240000,33580,72,65700,0,72,0,3191910388,63
i,1723651440.657034,10.0.2.15,22,10.0.2.2,50538,1073725440,17922,1026,65535,65700,0,0,4,1460,312,0,4,240000,33580,0,65700,0,0,0,3191910388,63
i,1723651440.657091,10.0.2.15,22,10.0.2.2,50538,1073725440,17922,1026,65535,65700,0,0,4,1460,312,0,4,240000,33580,0,65700,96,0,0,3191910388,63
o,1723651440.657108,10.0.2.15,22,10.0.2.2,50538,1073725440,17922,1026,65535,65604,0,0,5,1460,312,0,5,240000,33580,0,65700,96,0,0,3191910388,63
o,1723651440.672983,10.0.2.15,22,10.0.2.2,50538,1073725440,17922,1026,65535,65604,0,0,8,1460,312,0,4,240000,33580,0,65700,0,0,0,3191910388,63
i,1723651440.674430,10.0.2.15,22,10.0.2.2,50538,1073725440,17922,1026,65535,65604,0,0,8,1460,312,0,67108884,240000,33580,0,65700,0,1,0,3191910388,63
i,1723651442.817571,10.0.2.15,22,10.0.2.2,50544,1073725440,14600,0,65535,65700,0,0,4,1460,312,0,16777216,270000,33580,0,65700,0,0,0,3499059358,63
o,1723651442.830399,10.0.2.15,22,10.0.2.2,50544,1073725440,14600,1026,65535,65700,0,0,4,1460,312,0,16777216,270000,33580,38,65700,42,0,0,3499059358,63
i,1723651442.831400,10.0.2.15,22,10.0.2.2,50544,1073725440,14600,1026,65535,65700,0,0,4,1460,312,0,16777216,270000,33580,38,65700,0,38,0,3499059358,63
i,1723651442.831427,10.0.2.15,22,10.0.2.2,50544,1073725440,14638,1026,65535,65700,0,0,4,1460,312,0,0,240000,33580,0,65700,0,0,0,3499059358,63
i,1723651442.831445,10.0.2.15,22,10.0.2.2,50544,1073725440,14638,1026,65535,65700,0,0,4,1460,312,0,0,240000,33580,0,65700,1460,0,0,3499059358,63
o,1723651442.831465,10.0.2.15,22,10.0.2.2,50544,1073725440,14638,1026,65535,65700,0,0,4,1460,312,0,1,240000,33580,0,65700,1536,0,0,3499059358,63
o,1723651442.832042,10.0.2.15,22,10.0.2.2,50544,1073725440,14638,1026,65535,65700,0,0,4,1460,312,0,16777216,240000,33580,1120,65700,1536,0,0,3499059358,63
i,1723651442.833452,10.0.2.15,22,10.0.2.2,50544,1073725440,14638,1026,65535,65700,0,0,4,1460,312,0,16777216,240000,33580,1120,65700,0,1120,0,3499059358,63
i,1723651442.835109,10.0.2.15,22,10.0.2.2,50544,1073725440,15758,1026,65535,65700,0,0,4,1460,312,0,0,240000,33580,0,65700,0,0,0,3499059358,63
o,1723651442.838821,10.0.2.15,22,10.0.2.2,50544,1073725440,15758,1026,65535,65700,0,0,4,1460,312,0,16777216,240000,33580,492,65700,0,0,0,3499059358,63
i,1723651442.839509,10.0.2.15,22,10.0.2.2,50544,1073725440,15758,1026,65535,65700,0,0,4,1460,312,0,16777216,240000,33580,492,65700,0,492,0,3499059358,63
i,1723651442.843375,10.0.2.15,22,10.0.2.2,50544,1073725440,16250,1026,65535,65700,0,0,4,1460,312,0,0,240000,33580,0,65700,0,0,0,3499059358,63
i,1723651442.843392,10.0.2.15,22,10.0.2.2,50544,1073725440,16250,1026,65535,65700,0,0,4,1460,312,0,0,240000,33580,0,65700,16,0,0,3499059358,63
o,1723651442.843408,10.0.2.15,22,10.0.2.2,50544,1073725440,16250,1026,65535,65700,0,0,4,1460,312,0,1,240000,33580,0,65700,60,0,0,3499059358,63
o,1723651442.843583,10.0.2.15,22,10.0.2.2,50544,1073725440,16250,1026,65535,65700,0,0,4,1460,312,0,16777216,240000,33580,44,65700,0,0,0,3499059358,63
i,1723651442.844504,10.0.2.15,22,10.0.2.2,50544,1073725440,16250,1026,65535,65700,0,0,4,1460,312,0,16777216,240000,33580,44,65700,0,44,0,3499059358,63
i,1723651442.844544,10.0.2.15,22,10.0.2.2,50544,1073725440,16294,1026,65535,65700,0,0,4,1460,312,0,0,240000,33580,0,65700,0,0,0,3499059358,63
o,1723651442.846362,10.0.2.15,22,10.0.2.2,50544,1073725440,16294,1026,65535,65700,0,0,4,1460,312,0,16777216,240000,33580,68,65700,0,0,0,3499059358,63
i,1723651442.846913,10.0.2.15,22,10.0.2.2,50544,1073725440,16294,1026,65535,65700,0,0,4,1460,312,0,16777216,240000,33580,68,65700,0,68,0,3499059358,63
i,1723651442.846937,10.0.2.15,22,10.0.2.2,50544,1073725440,16362,1026,65535,65700,0,0,4,1460,312,0,0,240000,33580,0,65700,0,0,0,3499059358,63
o,1723651442.849422,10.0.2.15,22,10.0.2.2,50544,1073725440,16362,1026,65535,65700,0,0,4,1460,312,0,16777216,240000,33580,332,65700,0,0,0,3499059358,63
i,1723651442.850228,10.0.2.15,22,10.0.2.2,50544,1073725440,16362,1026,65535,65700,0,0,4,1460,312,0,16777216,240000,33580,332,65700,0,332,0,3499059358,63
i,1723651442.851552,10.0.2.15,22,10.0.2.2,50544,1073725440,16694,1026,65535,65700,0,0,4,1460,312,0,0,240000,33580,0,65700,0,0,0,3499059358,63
o,1723651442.871217,10.0.2.15,22,10.0.2.2,50544,1073725440,16694,1026,65535,65700,0,0,4,1460,312,0,16777216,240000,33580,28,65700,0,0,0,3499059358,63
i,1723651442.872228,10.0.2.15,22,10.0.2.2,50544,1073725440,16694,1026,65535,65700,0,0,4,1460,312,0,16777216,240000,33580,28,65700,0,28,0,3499059358,63
i,1723651442.872261,10.0.2.15,22,10.0.2.2,50544,1073725440,16722,1026,65535,65700,0,0,4,1460,312,0,0,230000,33580,0,65700,0,0,0,3499059358,63
o,1723651442.873947,10.0.2.15,22,10.0.2.2,50544,1073725440,16722,1026,65535,65700,0,0,4,1460,312,0,16777216,230000,33580,768,65700,112,0,0,3499059358,63
i,1723651442.874817,10.0.2.15,22,10.0.2.2,50544,1073725440,16722,1026,65535,65700,0,0,4,1460,312,0,16777216,230000,33580,908,65700,112,768,0,3499059358,63
o,1723651442.874835,10.0.2.15,22,10.0.2.2,50544,1073725440,17490,1026,65535,65700,0,0,4,1460,312,0,16777216,230000,33580,140,65700,112,0,0,3499059358,63
i,1723651442.875629,10.0.2.15,22,10.0.2.2,50544,1073725440,17490,1026,65535,65700,0,0,4,1460,312,0,16777216,230000,33580,140,65700,112,140,0,3499059358,63
o,1723651442.876557,10.0.2.15,22,10.0.2.2,50544,1073725440,17630,1026,65535,65700,0,0,4,1460,312,0,16777216,230000,33580,44,65700,0,0,0,3499059358,63
i,1723651442.877081,10.0.2.15,22,10.0.2.2,50544,1073725440,17630,1026,65535,65700,0,0,4,1460,312,0,16777216,230000,33580,44,65700,0,44,0,3499059358,63
i,1723651442.879849,10.0.2.15,22,10.0.2.2,50544,1073725440,17674,1026,65535,65700,0,0,4,1460,312,0,0,230000,33580,0,65700,0,0,0,3499059358,63
o,1723651442.880519,10.0.2.15,22,10.0.2.2,50544,1073725440,17674,1026,65535,65700,0,0,4,1460,312,0,16777220,230000,33580,72,65700,0,0,0,3499059358,63
i,1723651442.881717,10.0.2.15,22,10.0.2.2,50544,1073725440,17674,1026,65535,65700,0,0,4,1460,312,0,16777220,230000,33580,72,65700,0,72,0,3499059358,63
i,1723651442.881761,10.0.2.15,22,10.0.2.2,50544,1073725440,17746,1026,65535,65700,0,0,4,1460,312,0,4,240000,33580,0,65700,0,0,0,3499059358,63
o,1723651442.916637,10.0.2.15,22,10.0.2.2,50544,1073725440,17746,1026,65535,65700,0,0,4,1460,312,0,5,240000,33580,0,65700,0,0,0,3499059358,63
o,1723651443.000369,172.16.3.2,14385,172.16.1.2,5101,16792,14480,34,65535,65700,6,6,4,1460,160937,1,16778209,570000,33580,0,65700,0,0,0,1701228959,63
o,1723651443.001924,172.16.3.2,14385,172.16.1.2,5101,16792,14480,34,65535,65700,6,6,4,1460,160937,1,16778212,570000,33580,37,65700,0,0,0,1701228959,63
i,1723651443.119308,172.16.3.2,14385,172.16.1.2,5101,16792,14480,34,65535,65700,6,6,4,1460,160937,1,16778212,570000,33580,37,65700,0,37,0,1701228959,63
o,1723651443.119659,172.16.3.2,14385,172.16.1.2,5101,16792,14517,1058,65728,65728,6,6,4,1460,155937,1,16778212,560000,33580,4,65700,0,0,0,1701228959,63
o,1723651443.120151,172.16.3.2,14385,172.16.1.2,5101,16792,14517,1058,65728,65728,6,6,4,1460,155937,1,16778212,560000,33580,130,65700,0,4,0,1701228959,63
i,1723651443.238542,172.16.3.2,14385,172.16.1.2,5101,16792,14517,1058,65728,65728,6,6,4,1460,155937,1,16778212,560000,33580,130,65700,0,130,0,1701228959,63
i,1723651443.238780,172.16.3.2,14385,172.16.1.2,5101,16792,14647,1058,65600,65728,6,6,4,1460,151562,1,996,540000,33580,0,65700,0,0,0,1701228959,63
o,1723651443.274131,172.16.3.2,14385,172.16.1.2,5101,16792,14647,1058,65728,65728,6,6,4,1460,151562,1,997,540000,33580,0,65700,0,0,0,1701228959,63
o,1723651443.367168,172.16.3.2,11492,172.16.1.2,5101,16792,14480,34,65535,65700,6,6,4,1460,162187,1,16778209,560000,33580,0,65700,0,0,0,2764348321,63
o,1723651443.367302,172.16.3.2,11492,172.16.1.2,5101,16792,14480,34,65535,65700,6,6,4,1460,162187,1,16778208,560000,33580,37,65700,0,0,0,2764348321,63
i,1723651443.479263,172.16.3.2,14385,172.16.1.2,5101,16792,14647,1058,65728,65728,6,6,4,1460,151562,1,996,540000,33580,0,65700,0,0,0,1701228959,63
i,1723651443.479481,172.16.3.2,14385,172.16.1.2,5101,16792,14647,1058,65728,65728,6,6,4,1460,151562,1,996,540000,33580,0,65700,1,0,0,1701228959,63
o,1723651443.479560,172.16.3.2,14385,172.16.1.2,5101,16792,14647,1058,65728,65728,6,6,4,1460,151562,1,997,540000,33580,0,65700,2,0,0,1701228959,63
o,1723651443.480843,172.16.3.2,11492,172.16.1.2,5101,16792,14480,38,65535,65700,6,6,4,1460,162187,1,16778208,560000,33580,33580,65700,0,37,0,2764348321,63
i,1723651443.510747,172.16.3.2,11492,172.16.1.2,5101,16792,14480,38,65535,65700,6,6,4,1460,162187,1,16778208,560000,33580,33580,65700,0,13069,0,2764348321,63
o,1723651443.510838,172.16.3.2,11492,172.16.1.2,5101,16792,14517,38,65728,65728,6,6,4,1460,159687,1,16778208,530000,33580,33543,65700,0,13032,0,2764348321,63
i,1723651443.863711,172.16.3.2,11492,172.16.1.2,5101,16792,14517,38,65728,65728,6,6,4,1460,159687,1,16778208,530000,33580,33543,65700,0,14480,0,2764348321,63
o,1723651443.863855,172.16.3.2,11492,172.16.1.2,5101,16792,15965,38,65728,65728,6,6,4,1460,187500,1,16778208,740000,33580,32095,65700,0,13032,0,2764348321,63
i,1723651443.888077,172.16.3.2,11492,172.16.1.2,5101,16792,15965,38,65728,65728,6,6,4,1460,187500,1,16778208,740000,33580,32095,65700,0,15928,0,2764348321,63
o,1723651443.888184,172.16.3.2,11492,172.16.1.2,5101,16792,18861,38,64256,65728,6,6,4,1460,214062,1,16778208,890000,33580,29199,65700,0,13032,0,2764348321,63
i,1723651443.938970,172.16.3.2,11492,172.16.1.2,5101,16792,18861,38,64256,65728,6,6,4,1460,214062,1,16778208,890000,41772,41772,65700,0,18824,0,2764348321,63
o,1723651443.939100,172.16.3.2,11492,172.16.1.2,5101,16792,18861,38,64256,65728,6,6,4,1460,245000,1,16778208,1050000,41772,38876,65700,0,15928,0,2764348321,63
i,1723651443.987222,172.16.3.2,11492,172.16.1.2,5101,16792,18861,38,64256,65728,6,6,4,1460,245000,1,16778208,1050000,41772,41772,65700,0,18824,0,2764348321,63
o,1723651443.987423,172.16.3.2,11492,172.16.1.2,5101,16792,18861,38,64256,65728,6,6,4,1460,278125,1,16778208,1200000,41772,38876,65700,0,15928,0,2764348321,63
i,1723651444.047489,172.16.3.2,11492,172.16.1.2,5101,16792,18861,38,64256,65728,6,6,4,1460,278125,1,16778208,1200000,41772,41772,65700,0,18824,0,2764348321,63
o,1723651444.047587,172.16.3.2,11492,172.16.1.2,5101,16792,18861,38,65728,65728,6,6,4,1460,313437,1,16778208,1330000,41772,40324,65700,0,17376,0,2764348321,63
i,1723651444.069256,172.16.3.2,11492,172.16.1.2,5101,16792,18861,38,65728,65728,6,6,4,1460,313437,1,16778208,1330000,41772,40324,65700,0,18824,0,2764348321,63
o,1723651444.069336,172.16.3.2,11492,172.16.1.2,5101,16792,18861,38,64256,65728,6,6,4,1460,346875,1,16778208,1430000,41772,37428,65700,0,15928,0,2764348321,63
o,1723651444.069449,172.16.3.2,11492,172.16.1.2,5101,16792,18861,38,64256,65728,6,6,4,1460,346875,1,16778208,1430000,41772,37428,65700,0,17376,0,2764348321,63
i,1723651444.303624,172.16.3.2,11492,172.16.1.2,5101,16792,18861,38,64256,65728,6,6,4,1460,346875,1,16778208,1430000,49964,49964,65700,0,18824,0,2764348321,63
o,1723651444.303657,172.16.3.2,11492,172.16.1.2,5101,16792,20272,34,64256,65728,6,6,4,1460,346875,1,16778208,1430000,49964,49964,65700,0,18824,0,2764348321,63
i,1723651444.360890,172.16.3.2,11492,172.16.1.2,5101,16792,18861,34,64256,65728,6,6,4,1460,346875,1,16778208,1430000,49964,49964,65700,0,20272,0,2764348321,63
o,1723651444.360925,172.16.3.2,11492,172.16.1.2,5101,16792,21720,34,64256,65728,6,6,4,1460,346875,1,16778208,1430000,49964,49964,65700,0,20272,0,2764348321,63
i,1723651444.401962,172.16.3.2,11492,172.16.1.2,5101,16792,18861,34,64256,65728,6,6,4,1460,346875,1,16778208,1430000,49964,49964,65700,0,21720,0,2764348321,63
o,1723651444.401995,172.16.3.2,11492,172.16.1.2,5101,8688,1448,98,64256,65728,6,6,4,1460,346875,1,554697696,1430000,49964,49964,65700,0,21720,0,2764348321,63
i,1723651444.402354,172.16.3.2,11492,172.16.1.2,5101,8688,1448,98,64256,65728,6,6,4,1460,346875,1,554697696,1430000,49964,49964,65700,0,21720,0,2764348321,63
i,1723651444.428486,172.16.3.2,11492,172.16.1.2,5101,8688,1448,98,64256,65728,6,6,4,1460,346875,1,554697696,1430000,49964,49964,65700,0,21720,0,2764348321,63
o,1723651444.428605,172.16.3.2,11492,172.16.1.2,5101,8688,2896,98,64256,65728,6,6,4,1460,346875,1,554697696,1430000,49964,49964,65700,0,21720,0,2764348321,63
i,1723651444.454504,172.16.3.2,11492,172.16.1.2,5101,8688,2896,98,64256,65728,6,6,4,1460,346875,1,554697696,1430000,49964,49964,65700,0,21720,0,2764348321,63
i,1723651444.487757,172.16.3.2,11492,172.16.1.2,5101,8688,2896,98,64256,65728,6,6,4,1460,346875,1,537920480,1430000,49964,49964,65700,0,21720,0,2764348321,63
i,1723651444.587799,172.16.3.2,11492,172.16.1.2,5101,8688,2896,98,64256,65728,6,6,4,1460,346875,1,537920480,1430000,49964,49964,65700,0,21720,0,2764348321,63
o,1723651444.587932,172.16.3.2,11492,172.16.1.2,5101,8688,4344,98,64256,65728,6,6,4,1460,346875,1,554697696,1430000,49964,49964,65700,0,21720,0,2764348321,63
i,1723651444.644339,172.16.3.2,11492,172.16.1.2,5101,8688,4344,98,64256,65728,6,6,4,1460,346875,1,554697696,1430000,49964,49964,65700,0,21720,0,2764348321,63
i,1723651444.644825,172.16.3.2,11492,172.16.1.2,5101,8688,4344,98,64256,65728,6,6,4,1460,346875,1,554697696,1430000,49964,49964,65700,0,21720,0,2764348321,63
o,1723651444.644960,172.16.3.2,11492,172.16.1.2,5101,8688,4344,98,64256,65728,6,6,4,1460,346875,1,554697696,1430000,49964,49964,65700,0,21720,0,2764348321,63
i,1723651444.768858,172.16.3.2,11492,172.16.1.2,5101,8688,4344,98,64256,65728,6,6,4,1460,346875,1,554697696,1430000,49964,49964,65700,0,21720,0,2764348321,63
i,1723651444.798601,172.16.3.2,11492,172.16.1.2,5101,8688,2896,98,64256,65728,6,6,4,1460,346875,1,537920480,1430000,49964,49964,65700,0,21720,0,2764348321,63
o,1723651444.798634,172.16.3.2,11492,172.16.1.2,5101,8688,4344,102,64256,65728,6,6,4,1460,346875,1,554697696,1430000,49964,49964,65700,0,21720,0,2764348321,63
o,1723651444.798762,172.16.3.2,11492,172.16.1.2,5101,8688,4344,98,64256,65728,6,6,4,1460,346875,1,554697696,1430000,49964,49964,65700,0,21720,0,2764348321,63
i,1723651444.918354,172.16.3.2,11492,172.16.1.2,5101,8688,4344,98,64256,65728,6,6,4,1460,346875,1,554697696,1430000,49964,49964,65700,0,21720,0,2764348321,63
o,1723651444.918385,172.16.3.2,11492,172.16.1.2,5101,8688,5792,38,64256,65728,6,6,4,1460,346875,1,554697696,1430000,49964,49964,65700,0,21720,0,2764348321,63
o,1723651444.918505,172.16.3.2,11492,172.16.1.2,5101,8688,5792,34,64256,65728,6,6,4,1460,346875,1,554697696,1430000,49964,49964,65700,0,23168,0,2764348321,63
i,1723651444.918633,172.16.3.2,11492,172.16.1.2,5101,8688,5792,34,64256,65728,6,6,4,1460,346875,1,554697696,1430000,49964,49964,65700,0,24616,0,2764348321,63
o,1723651444.918667,172.16.3.2,11492,172.16.1.2,5101,8688,7240,38,64256,65728,6,6,4,1460,346875,1,554697696,1430000,49964,49964,65700,0,24616,0,2764348321,63
i,1723651445.107868,172.16.3.2,11492,172.16.1.2,5101,8688,7240,38,64256,65728,6,6,4,1460,346875,1,554697696,1430000,49964,49964,65700,0,27512,0,2764348321,63
o,1723651445.107902,172.16.3.2,11492,172.16.1.2,5101,8688,8688,34,64256,65728,6,6,4,1460,346875,1,554697696,1430000,49964,49964,65700,0,27512,0,2764348321,63
i,1723651445.147849,172.16.3.2,11492,172.16.1.2,5101,8688,8688,34,64256,65728,6,6,4,1460,346875,1,554697696,1430000,49964,49964,65700,0,28960,0,2764348321,63
o,1723651445.147882,172.16.3.2,11492,172.16.1.2,5101,8688,10136,34,64256,65728,6,6,4,1460,346875,1,554697696,1430000,49964,49964,65700,0,28960,0,2764348321,63
i,1723651445.148014,172.16.3.2,11492,172.16.1.2,5101,8688,10136,34,64256,65728,6,6,4,1460,346875,1,554697696,1430000,49964,49964,65700,0,30408,0,2764348321,63
o,1723651445.148030,172.16.3.2,11492,172.16.1.2,5101,8688,11584,34,64256,65728,6,6,4,1460,346875,1,554697696,1430000,49964,49964,65700,0,30408,0,2764348321,63
i,1723651445.179418,172.16.3.2,11492,172.16.1.2,5101,8688,11584,34,64256,65728,6,6,4,1460,346875,1,554697696,1430000,49964,49964,65700,0,31856,0,2764348321,63
o,1723651445.179451,172.16.3.2,11492,172.16.1.2,5101,8688,13032,34,64256,65728,6,6,4,1460,346875,1,554697696,1430000,49964,49964,65700,0,31856,0,2764348321,63
i,1723651445.293318,172.16.3.2,11492,172.16.1.2,5101,8688,13032,34,64256,65728,6,6,4,1460,346875,1,554697696,1430000,49964,49964,65700,0,33304,0,2764348321,63
o,1723651445.293364,172.16.3.2,11492,172.16.1.2,5101,8688,14480,34,64256,65728,6,6,4,1460,346875,1,554697696,1430000,49964,49964,65700,0,33304,0,2764348321,63
i,1723651445.338266,172.16.3.2,11492,172.16.1.2,5101,8688,14480,34,64256,65728,6,6,4,1460,346875,1,554697696,1430000,49964,49964,65700,0,34752,0,2764348321,63
o,1723651445.338301,172.16.3.2,11492,172.16.1.2,5101,8688,15928,34,64256,65728,6,6,4,1460,346875,1,554697696,1430000,58156,49964,65700,0,34752,0,2764348321,63
i,1723651445.364992,172.16.3.2,11492,172.16.1.2,5101,8688,15928,34,64256,65728,6,6,4,1460,346875,1,554697696,1430000,58156,49964,65700,0,36200,0,2764348321,63
o,1723651445.365038,172.16.3.2,11492,172.16.1.2,5101,8688,17376,34,64256,65728,6,6,4,1460,346875,1,554697696,1430000,58156,49964,65700,0,36200,0,2764348321,63
i,1723651445.398433,172.16.3.2,11492,172.16.1.2,5101,8688,17376,34,64256,65728,6,6,4,1460,346875,1,554697696,1430000,58156,49964,65700,0,37648,0,2764348321,63
o,1723651445.398472,172.16.3.2,11492,172.16.1.2,5101,8688,18824,34,64256,65728,6,6,4,1460,346875,1,554697696,1430000,58156,49964,65700,0,37648,0,2764348321,63
i,1723651445.446501,172.16.3.2,11492,172.16.1.2,5101,8688,18824,34,64256,65728,6,6,4,1460,346875,1,554697696,1430000,58156,49964,65700,0,39096,0,2764348321,63
o,1723651445.446692,172.16.3.2,11492,172.16.1.2,5101,8688,20272,34,64256,65728,6,6,4,1460,346875,1,554697696,1430000,58156,49964,65700,0,39096,0,2764348321,63
i,1723651445.521613,172.16.3.2,11492,172.16.1.2,5101,8688,20272,34,64256,65728,6,6,4,1460,346875,1,554697696,1430000,58156,49964,65700,0,40544,0,2764348321,63
o,1723651445.521647,172.16.3.2,11492,172.16.1.2,5101,8688,21720,34,64256,65728,6,6,4,1460,346875,1,554697696,1430000,58156,49964,65700,0,40544,0,2764348321,63
i,1723651445.572027,172.16.3.2,11492,172.16.1.2,5101,8688,21720,34,64256,65728,6,6,4,1460,346875,1,554697696,1430000,58156,49964,65700,0,41992,0,2764348321,63
o,1723651445.572070,172.16.3.2,11492,172.16.1.2,5101,8688,23168,34,64256,65728,6,6,4,1460,346875,1,554697696,1430000,58156,49964,65700,0,41992,0,2764348321,63
i,1723651445.613629,172.16.3.2,11492,172.16.1.2,5101,8688,23168,34,64256,65728,6,6,4,1460,346875,1,554697696,1430000,58156,49964,65700,0,43440,0,2764348321,63
o,1723651445.613731,172.16.3.2,11492,172.16.1.2,5101,8688,24616,34,64256,65728,6,6,4,1460,346875,1,554697696,1430000,58156,49964,65700,0,43440,0,2764348321,63
i,1723651445.644860,172.16.3.2,11492,172.16.1.2,5101,8688,24616,34,64256,65728,6,6,4,1460,346875,1,554697696,1430000,58156,49964,65700,0,44888,0,2764348321,63
o,1723651445.644908,172.16.3.2,11492,172.16.1.2,5101,8688,26064,34,64256,65728,6,6,4,1460,346875,1,554697696,1430000,58156,49964,65700,0,44888,0,2764348321,63
i,1723651445.716989,172.16.3.2,11492,172.16.1.2,5101,8688,26064,34,64256,65728,6,6,4,1460,346875,1,554697696,1430000,58156,49964,65700,0,46336,0,2764348321,63
o,1723651445.717070,172.16.3.2,11492,172.16.1.2,5101,8688,27512,34,64256,65728,6,6,4,1460,346875,1,554697696,1430000,58156,49964,65700,0,46336,0,2764348321,63
i,1723651445.760061,172.16.3.2,11492,172.16.1.2,5101,8688,27512,34,64256,65728,6,6,4,1460,346875,1,554697696,1430000,58156,49964,65700,0,47784,0,2764348321,63
o,1723651445.760150,172.16.3.2,11492,172.16.1.2,5101,8688,28960,34,64256,65728,6,6,4,1460,346875,1,554697696,1430000,58156,49964,65700,0,47784,0,2764348321,63
i,1723651445.810401,172.16.3.2,11492,172.16.1.2,5101,8688,28960,34,64256,65728,6,6,4,1460,346875,1,554697696,1430000,58156,49964,65700,0,49232,0,2764348321,63
i,1723651445.850174,172.16.3.2,11492,172.16.1.2,5101,8688,30408,34,64256,65728,6,6,4,1460,346875,1,554697696,1430000,58156,49964,65700,0,49232,0,2764348321,63
o,1723651445.850220,172.16.3.2,11492,172.16.1.2,5101,14480,1448,98,64256,65728,6,6,4,1460,346875,1,1092625377,2660000,58156,49964,65700,0,49232,0,2764348321,63
o,1723651445.850557,172.16.3.2,11492,172.16.1.2,5101,8688,31856,98,64256,65728,6,6,4,1460,346875,1,1630536672,2660000,58156,49964,65700,0,49232,0,2764348321,63
i,1723651445.878238,172.16.3.2,11492,172.16.1.2,5101,8688,31856,98,64256,65728,6,6,4,1460,346875,1,1630536672,2660000,58156,49964,65700,0,49232,0,2764348321,63
i,1723651445.902922,172.16.3.2,11492,172.16.1.2,5101,8688,33304,98,64256,65728,6,6,4,1460,346875,1,1630536672,2660000,58156,49964,65700,0,49232,0,2764348321,63
i,1723651445.997236,172.16.3.2,11492,172.16.1.2,5101,8688,34752,98,64256,65728,6,6,4,1460,346875,1,1630536672,2660000,58156,49964,65700,0,49232,0,2764348321,63
o,1723651445.997283,172.16.3.2,11492,172.16.1.2,5101,8688,2920,34,16512,65728,6,6,4,1460,321250,1,1092617184,1390000,58156,732,65700,0,0,0,2764348321,63
i,1723651445.997480,172.16.3.2,11492,172.16.1.2,5101,8688,2920,34,16512,65728,6,6,4,1460,321250,1,1092617184,1390000,58156,732,65700,0,732,0,2764348321,63
i,1723651445.997511,172.16.3.2,11492,172.16.1.2,5101,8688,2920,34,16512,65728,6,6,4,1460,321250,1,1092617184,1390000,58156,732,65700,0,732,0,2764348321,63
o,1723651445.997620,172.16.3.2,11492,172.16.1.2,5101,8688,2920,38,65728,65728,6,6,4,1460,321250,1,1092617184,1390000,58156,58156,65700,0,732,0,2764348321,63
i,1723651446.119568,172.16.3.2,11492,172.16.1.2,5101,8688,2920,38,65728,65728,6,6,4,1460,321250,1,1092617184,1390000,58156,58156,65700,0,2180,0,2764348321,63
o,1723651446.119663,172.16.3.2,11492,172.16.1.2,5101,8688,3652,38,65728,65728,6,6,4,1460,296250,1,1092617184,1350000,58156,57424,65700,0,1448,0,2764348321,63
i,1723651446.214264,172.16.3.2,11492,172.16.1.2,5101,8688,3652,38,65728,65728,6,6,4,1460,296250,1,1092617184,1350000,58156,57424,65700,0,2896,0,2764348321,63
o,1723651446.214401,172.16.3.2,11492,172.16.1.2,5101,8688,5100,38,65728,65728,6,6,4,1460,286875,1,1092617184,1200000,58156,55976,65700,0,1448,0,2764348321,63
i,1723651446.321045,172.16.3.2,11492,172.16.1.2,5101,8688,5100,38,65728,65728,6,6,4,1460,286875,1,1092617184,1200000,58156,58156,65700,0,4344,0,2764348321,63
o,1723651446.321230,172.16.3.2,11492,172.16.1.2,5101,8688,6548,38,65728,65728,6,6,4,1460,276250,1,1092617184,1100000,58156,56708,65700,0,2896,0,2764348321,63
o,1723651446.321504,172.16.3.2,11492,172.16.1.2,5101,8688,6548,38,65728,65728,6,6,4,1460,276250,1,1092617184,1100000,58156,56708,65700,0,4344,0,2764348321,63
i,1723651446.401159,172.16.3.2,11492,172.16.1.2,5101,8688,6548,38,65728,65728,6,6,4,1460,276250,1,1092617184,1100000,58156,56708,65700,0,5792,0,2764348321,63
o,1723651446.401280,172.16.3.2,11492,172.16.1.2,5101,8688,9444,38,64256,65728,6,6,4,1460,264375,1,1092617184,1020000,58156,53812,65700,0,2896,0,2764348321,63
i,1723651446.500504,172.16.3.2,11492,172.16.1.2,5101,8688,9444,38,64256,65728,6,6,4,1460,264375,1,1092617184,1020000,58156,58156,65700,0,8688,0,2764348321,63
o,1723651446.500540,172.16.3.2,11492,172.16.1.2,5101,8688,9444,38,64256,65728,6,6,4,1460,252812,1,1092617184,970000,58156,55260,65700,0,5792,0,2764348321,63
o,1723651446.500668,172.16.3.2,11492,172.16.1.2,5101,8688,9444,38,64256,65728,6,6,4,1460,252812,1,1092617184,970000,58156,55260,65700,0,7240,0,2764348321,63
i,1723651446.670226,172.16.3.2,11492,172.16.1.2,5101,8688,9444,38,64256,65728,6,6,4,1460,252812,1,1092617184,970000,58156,57940,65700,0,8688,0,2764348321,63
o,1723651446.670263,172.16.3.2,11492,172.16.1.2,5101,8688,9444,38,65728,65728,6,6,4,1460,255000,1,1092617184,860000,58156,56492,65700,0,7240,0,2764348321,63
i,1723651446.701194,172.16.3.2,11492,172.16.1.2,5101,8688,9444,38,65728,65728,6,6,4,1460,255000,1,1092617184,860000,58156,56492,65700,0,8688,0,2764348321,63
o,1723651446.701240,172.16.3.2,11492,172.16.1.2,5101,8688,9444,38,65728,65728,6,6,4,1460,260625,1,1092617184,810000,58156,55044,65700,0,7240,0,2764348321,63
i,1723651446.748416,172.16.3.2,11492,172.16.1.2,5101,8688,9444,38,65728,65728,6,6,4,1460,260625,1,1092617184,810000,58156,58156,65700,0,8688,0,2764348321,63
o,1723651446.748551,172.16.3.2,11492,172.16.1.2,5101,8688,9444,38,64256,65728,6,6,4,1460,271875,1,1092617184,820000,58156,55260,65700,0,5792,0,2764348321,63
i,1723651446.788467,172.16.3.2,11492,172.16.1.2,5101,8688,9444,38,64256,65728,6,6,4,1460,271875,1,1092617184,820000,58156,58156,65700,0,8688,0,2764348321,63
o,1723651446.788481,172.16.3.2,11492,172.16.1.2,5101,8688,10904,38,65728,65728,6,6,4,1460,274375,1,1092617184,760000,58156,56708,65700,0,7240,0,2764348321,63
o,1723651446.788761,172.16.3.2,11492,172.16.1.2,5101,8688,10904,38,65728,65728,6,6,4,1460,274375,1,1092617184,760000,58156,56708,65700,0,8688,0,2764348321,63
i,1723651446.839215,172.16.3.2,11492,172.16.1.2,5101,8688,10904,38,65728,65728,6,6,4,1460,274375,1,1092617184,760000,58156,56708,65700,0,10136,0,2764348321,63
o,1723651446.839259,172.16.3.2,11492,172.16.1.2,5101,8688,10904,38,65728,65728,6,6,4,1460,282812,1,1092617184,760000,58156,55260,65700,0,8688,0,2764348321,63
i,1723651446.959707,172.16.3.2,11492,172.16.1.2,5101,8688,10904,38,65728,65728,6,6,4,1460,282812,1,1092617184,760000,58156,58156,65700,0,10136,0,2764348321,63
o,1723651446.959789,172.16.3.2,11492,172.16.1.2,5101,8688,10904,38,64256,65728,6,6,4,1460,283750,1,1092617184,700000,58156,55260,65700,0,7240,0,2764348321,63
i,1723651447.042422,172.16.3.2,11492,172.16.1.2,5101,8688,10904,38,64256,65728,6,6,4,1460,283750,1,1092617184,700000,58156,58156,65700,0,10136,0,2764348321,63
o,1723651447.042458,172.16.3.2,11492,172.16.1.2,5101,8688,10904,38,64256,65728,6,6,4,1460,284687,1,1092617184,650000,58156,55260,65700,0,7240,0,2764348321,63
i,1723651447.118819,172.16.3.2,11492,172.16.1.2,5101,8688,10904,38,64256,65728,6,6,4,1460,284687,1,1092617184,650000,58156,58156,65700,0,10136,0,2764348321,63
o,1723651447.118897,172.16.3.2,11492,172.16.1.2,5101,8688,10904,38,64256,65728,6,6,4,1460,290625,1,1092617184,670000,58156,55260,65700,0,7240,0,2764348321,63
o,1723651447.119018,172.16.3.2,11492,172.16.1.2,5101,8688,10904,38,64256,65728,6,6,4,1460,290625,1,1092617184,670000,58156,55260,65700,0,8688,0,2764348321,63
i,1723651447.229048,172.16.3.2,11492,172.16.1.2,5101,8688,10904,38,64256,65728,6,6,4,1460,290625,1,1092617184,670000,58156,58156,65700,0,10136,0,2764348321,63
o,1723651447.229129,172.16.3.2,11492,172.16.1.2,5101,8688,12364,38,65728,65728,6,6,4,1460,301875,1,1092617184,720000,58156,56708,65700,0,8688,0,2764348321,63
i,1723651447.302193,172.16.3.2,11492,172.16.1.2,5101,8688,12364,38,65728,65728,6,6,4,1460,301875,1,1092617184,720000,58156,56708,65700,0,11584,0,2764348321,63
o,1723651447.302234,172.16.3.2,11492,172.16.1.2,5101,8688,12364,38,64256,65728,6,6,4,1460,306875,1,1092617184,710000,58156,53812,65700,0,8688,0,2764348321,63
i,1723651447.389343,172.16.3.2,11492,172.16.1.2,5101,8688,12364,38,64256,65728,6,6,4,1460,306875,1,1092617184,710000,58156,58156,65700,0,11584,0,2764348321,63
o,1723651447.389429,172.16.3.2,11492,172.16.1.2,5101,8688,12364,38,64256,65728,6,6,4,1460,311250,1,1092617184,700000,58156,55260,65700,0,8688,0,2764348321,63
i,1723651447.489175,172.16.3.2,11492,172.16.1.2,5101,8688,12364,38,64256,65728,6,6,4,1460,311250,1,1092617184,700000,58156,58156,65700,0,11584,0,2764348321,63
o,1723651447.489255,172.16.3.2,11492,172.16.1.2,5101,8688,12364,38,64256,65728,6,6,4,1460,318750,1,1092617184,720000,58156,55260,65700,0,8688,0,2764348321,63
o,1723651447.489513,172.16.3.2,11492,172.16.1.2,5101,8688,12364,38,64256,65728,6,6,4,1460,318750,1,1092617184,720000,58156,55260,65700,0,10136,0,2764348321,63
i,1723651447.608095,172.16.3.2,11492,172.16.1.2,5101,8688,12364,38,64256,65728,6,6,4,1460,318750,1,1092617184,720000,58156,58156,65700,0,11584,0,2764348321,63
o,1723651447.608141,172.16.3.2,11492,172.16.1.2,5101,8688,13824,38,64256,65728,6,6,4,1460,326562,1,1092617184,740000,58156,55260,65700,0,8688,0,2764348321,63
i,1723651447.688527,172.16.3.2,11492,172.16.1.2,5101,8688,13824,38,64256,65728,6,6,4,1460,326562,1,1092617184,740000,58156,58156,65700,0,13032,0,2764348321,63
o,1723651447.688611,172.16.3.2,11492,172.16.1.2,5101,8688,13824,38,64256,65728,6,6,4,1460,333437,1,1092617184,750000,58156,55260,65700,0,10136,0,2764348321,63
i,1723651447.718599,172.16.3.2,11492,172.16.1.2,5101,8688,13824,38,64256,65728,6,6,4,1460,333437,1,1092617184,750000,58156,58156,65700,0,13032,0,2764348321,63
o,1723651447.718627,172.16.3.2,11492,172.16.1.2,5101,8688,14480,34,64256,65728,6,6,4,1460,333437,1,1092617184,750000,58156,58156,65700,0,13032,0,2764348321,63
i,1723651447.786978,172.16.3.2,11492,172.16.1.2,5101,8688,13824,34,64256,65728,6,6,4,1460,333437,1,1092617184,750000,58156,58156,65700,0,14480,0,2764348321,63
o,1723651447.787260,172.16.3.2,11492,172.16.1.2,5101,8688,15928,34,64256,65728,6,6,4,1460,333437,1,1092617184,750000,58156,58156,65700,0,14480,0,2764348321,63
i,1723651447.799226,172.16.3.2,11492,172.16.1.2,5101,8688,13824,34,64256,65728,6,6,4,1460,333437,1,1092617184,750000,58156,58156,65700,0,15928,0,2764348321,63
o,1723651447.799260,172.16.3.2,11492,172.16.1.2,5101,5792,1448,98,64256,65728,6,6,4,1460,333437,1,1630536672,750000,58156,58156,65700,0,15928,0,2764348321,63
i,1723651447.829948,172.16.3.2,11492,172.16.1.2,5101,5792,1448,98,64256,65728,6,6,4,1460,333437,1,1630536672,750000,58156,58156,65700,0,15928,0,2764348321,63
i,1723651447.860673,172.16.3.2,11492,172.16.1.2,5101,5792,1448,98,64256,65728,6,6,4,1460,333437,1,1630536672,750000,58156,58156,65700,0,15928,0,2764348321,63
o,1723651447.860743,172.16.3.2,11492,172.16.1.2,5101,5792,2896,98,64256,65728,6,6,4,1460,333437,1,1630536672,750000,58156,58156,65700,0,15928,0,2764348321,63
i,1723651447.902394,172.16.3.2,11492,172.16.1.2,5101,5792,2896,98,64256,65728,6,6,4,1460,333437,1,1630536672,750000,58156,58156,65700,0,15928,0,2764348321,63
i,1723651447.902436,172.16.3.2,11492,172.16.1.2,5101,5792,2896,98,64256,65728,6,6,4,1460,333437,1,1630536672,750000,58156,58156,65700,0,15928,0,2764348321,63
i,1723651447.948712,172.16.3.2,11492,172.16.1.2,5101,5792,2896,98,64256,65728,6,6,4,1460,333437,1,1630536672,750000,58156,58156,65700,0,15928,0,2764348321,63
o,1723651447.948747,172.16.3.2,11492,172.16.1.2,5101,5792,4344,34,64256,65728,6,6,4,1460,333437,1,1630536672,750000,58156,58156,65700,0,15928,0,2764348321,63
i,1723651447.979929,172.16.3.2,11492,172.16.1.2,5101,5792,4344,34,64256,65728,6,6,4,1460,333437,1,1630536672,750000,58156,58156,65700,0,17376,0,2764348321,63
i,1723651447.979976,172.16.3.2,11492,172.16.1.2,5101,5792,4344,34,64256,65728,6,6,4,1460,333437,1,1613759456,750000,58156,58156,65700,0,17376,0,2764348321,63
o,1723651447.979997,172.16.3.2,11492,172.16.1.2,5101,5792,2896,34,64256,65728,6,6,4,1460,333437,1,1613759457,750000,58156,58156,65700,0,17376,0,2764348321,63
i,1723651448.088678,172.16.3.2,11492,172.16.1.2,5101,5792,2896,34,59968,65728,6,6,4,1460,314375,1,1613759456,830000,58156,58156,65700,0,11584,0,2764348321,63
o,1723651448.088716,172.16.3.2,11492,172.16.1.2,5101,5792,5792,38,59968,65728,6,6,4,1460,314375,1,1630536672,830000,58156,58156,65700,0,11584,0,2764348321,63
o,1723651448.088877,172.16.3.2,11492,172.16.1.2,5101,5792,5792,34,59968,65728,6,6,4,1460,314375,1,1630536672,830000,58156,58156,65700,0,13032,0,2764348321,63
i,1723651448.228295,172.16.3.2,11492,172.16.1.2,5101,5792,5792,34,59968,65728,6,6,4,1460,314375,1,1630536672,830000,58156,58156,65700,0,14480,0,2764348321,63
o,1723651448.228336,172.16.3.2,11492,172.16.1.2,5101,5792,7240,34,59968,65728,6,6,4,1460,314375,1,1630536672,830000,58156,58156,65700,0,14480,0,2764348321,63
i,1723651448.228548,172.16.3.2,11492,172.16.1.2,5101,5792,7240,34,59968,65728,6,6,4,1460,314375,1,1630536672,830000,58156,58156,65700,0,15928,0,2764348321,63
o,1723651448.228569,172.16.3.2,11492,172.16.1.2,5101,5792,8688,34,59968,65728,6,6,4,1460,314375,1,1630536672,830000,58156,58156,65700,0,15928,0,2764348321,63
i,1723651448.369081,172.16.3.2,11492,172.16.1.2,5101,5792,8688,34,59968,65728,6,6,4,1460,314375,1,1630536672,830000,58156,58156,65700,0,17376,0,2764348321,63
o,1723651448.369154,172.16.3.2,11492,172.16.1.2,5101,5792,10136,34,59968,65728,6,6,4,1460,314375,1,1630536672,830000,58156,58156,65700,0,17376,0,2764348321,63
i,1723651448.379113,172.16.3.2,11492,172.16.1.2,5101,5792,10136,34,59968,65728,6,6,4,1460,314375,1,1630536672,830000,58156,58156,65700,0,18824,0,2764348321,63
o,1723651448.379550,172.16.3.2,11492,172.16.1.2,5101,5792,11584,34,59968,65728,6,6,4,1460,314375,1,1630536672,830000,58156,58156,65700,0,18824,0,2764348321,63
i,1723651448.533918,172.16.3.2,11492,172.16.1.2,5101,5792,11584,34,59968,65728,6,6,4,1460,314375,1,1630536672,830000,58156,58156,65700,0,20272,0,2764348321,63
o,1723651448.533962,172.16.3.2,11492,172.16.1.2,5101,5792,13032,34,59968,65728,6,6,4,1460,314375,1,1630536672,830000,58156,58156,65700,0,20272,0,2764348321,63
i,1723651448.538783,172.16.3.2,11492,172.16.1.2,5101,5792,13032,34,59968,65728,6,6,4,1460,314375,1,1630536672,830000,58156,58156,65700,0,21720,0,2764348321,63
o,1723651448.538805,172.16.3.2,11492,172.16.1.2,5101,5792,14480,34,59968,65728,6,6,4,1460,314375,1,1630536672,830000,58156,58156,65700,0,21720,0,2764348321,63
i,1723651448.688789,172.16.3.2,11492,172.16.1.2,5101,5792,14480,34,59968,65728,6,6,4,1460,314375,1,1630536672,830000,58156,58156,65700,0,23168,0,2764348321,63
o,1723651448.688820,172.16.3.2,11492,172.16.1.2,5101,5792,15928,34,59968,65728,6,6,4,1460,314375,1,1630536672,830000,58156,58156,65700,0,23168,0,2764348321,63
i,1723651448.698753,172.16.3.2,11492,172.16.1.2,5101,5792,15928,34,59968,65728,6,6,4,1460,314375,1,1630536672,830000,58156,58156,65700,0,24616,0,2764348321,63
o,1723651448.698787,172.16.3.2,11492,172.16.1.2,5101,5792,17376,34,59968,65728,6,6,4,1460,314375,1,1630536672,830000,58156,58156,65700,0,24616,0,2764348321,63
o,1723651448.854112,172.16.3.2,11492,172.16.1.2,5101,8688,1448,98,59968,65728,6,6,4,1460,314375,1,1092625377,1460000,58156,58156,65700,0,26064,0,2764348321,63
i,1723651448.855705,172.16.3.2,11492,172.16.1.2,5101,8688,1448,98,59968,65728,6,6,4,1460,314375,1,1092625376,1460000,58156,58156,65700,0,26064,0,2764348321,63
o,1723651448.855733,172.16.3.2,11492,172.16.1.2,5101,5792,18824,98,59968,65728,6,6,4,1460,314375,1,1630536672,1460000,58156,58156,65700,0,26064,0,2764348321,63
o,1723651448.858933,172.16.3.2,11492,172.16.1.2,5101,5792,18824,34,59968,65728,6,6,4,1460,314375,1,1630536672,1460000,58156,58156,65700,0,26064,0,2764348321,63
i,1723651448.869749,172.16.3.2,11492,172.16.1.2,5101,5792,18824,34,59968,65728,6,6,4,1460,314375,1,1630536672,1460000,58156,58156,65700,0,27512,0,2764348321,63
o,1723651448.869784,172.16.3.2,11492,172.16.1.2,5101,5792,20272,34,59968,65728,6,6,4,1460,314375,1,1630536672,1460000,58156,58156,65700,0,27512,0,2764348321,63
i,1723651449.028239,172.16.3.2,11492,172.16.1.2,5101,5792,20272,34,59968,65728,6,6,4,1460,314375,1,1630536672,1460000,58156,58156,65700,0,28960,0,2764348321,63
o,1723651449.028299,172.16.3.2,11492,172.16.1.2,5101,5792,4356,38,39680,65728,6,6,4,1460,296562,1,1092617184,870000,58156,32092,65700,0,2896,0,2764348321,63
i,1723651449.028488,172.16.3.2,11492,172.16.1.2,5101,5792,4356,38,39680,65728,6,6,4,1460,296562,1,1092617184,870000,58156,32092,65700,0,4344,0,2764348321,63
o,1723651449.028519,172.16.3.2,11492,172.16.1.2,5101,5792,5792,34,39680,65728,6,6,4,1460,296562,1,1092617184,870000,58156,32092,65700,0,4344,0,2764348321,63
i,1723651449.051866,172.16.3.2,11492,172.16.1.2,5101,5792,4356,34,39680,65728,6,6,4,1460,296562,1,1092617184,870000,58156,58156,65700,0,5792,0,2764348321,63
i,1723651449.082903,172.16.3.2,11492,172.16.1.2,5101,5792,4356,34,65728,65728,6,6,4,1460,296562,1,1092617184,870000,58156,58156,65700,0,5792,0,2764348321,63
o,1723651449.082952,172.16.3.2,11492,172.16.1.2,5101,5792,5804,38,65728,65728,6,6,4,1460,288437,1,1092617184,840000,58156,56708,65700,0,4344,0,2764348321,63
i,1723651449.128539,172.16.3.2,11492,172.16.1.2,5101,5792,5804,38,65728,65728,6,6,4,1460,288437,1,1092617184,840000,58156,56708,65700,0,5792,0,2764348321,63
o,1723651449.128622,172.16.3.2,11492,172.16.1.2,5101,5792,5804,38,65728,65728,6,6,4,1460,285000,1,1092617184,770000,58156,55260,65700,0,4344,0,2764348321,63
i,1723651449.196563,172.16.3.2,11492,172.16.1.2,5101,5792,5804,38,65728,65728,6,6,4,1460,285000,1,1092617184,770000,58156,58156,65700,0,5792,0,2764348321,63
o,1723651449.196596,172.16.3.2,11492,172.16.1.2,5101,5792,5804,38,64256,65728,6,6,4,1460,270625,1,1092617184,800000,58156,55260,65700,0,2896,0,2764348321,63
o,1723651449.196730,172.16.3.2,11492,172.16.1.2,5101,5792,5804,38,64256,65728,6,6,4,1460,270625,1,1092617184,800000,58156,55260,65700,0,4344,0,2764348321,63
i,1723651449.291075,172.16.3.2,11492,172.16.1.2,5101,5792,5804,38,64256,65728,6,6,4,1460,270625,1,1092617184,800000,58156,58156,65700,0,5792,0,2764348321,63
o,1723651449.291269,172.16.3.2,11492,172.16.1.2,5101,5792,5804,38,65728,65728,6,6,4,1460,261875,1,1092617184,780000,58156,56708,65700,0,4344,0,2764348321,63
i,1723651449.318399,172.16.3.2,11492,172.16.1.2,5101,5792,5804,38,65728,65728,6,6,4,1460,261875,1,1092617184,780000,58156,56708,65700,0,5792,0,2764348321,63
o,1723651449.318481,172.16.3.2,11492,172.16.1.2,5101,5792,7264,38,65728,65728,6,6,4,1460,253125,1,1092617184,760000,58156,55260,65700,0,4344,0,2764348321,63
i,1723651449.351788,172.16.3.2,11492,172.16.1.2,5101,5792,7264,38,65728,65728,6,6,4,1460,253125,1,1092617184,760000,58156,58156,65700,0,7240,0,2764348321,63
o,1723651449.351829,172.16.3.2,11492,172.16.1.2,5101,5792,7264,38,64256,65728,6,6,4,1460,240312,1,1092617184,770000,58156,55260,65700,0,4344,0,2764348321,63
o,1723651449.351959,172.16.3.2,11492,172.16.1.2,5101,5792,7264,38,64256,65728,6,6,4,1460,240312,1,1092617184,770000,58156,55260,65700,0,5792,0,2764348321,63
i,1723651449.489018,172.16.3.2,11492,172.16.1.2,5101,5792,7264,38,64256,65728,6,6,4,1460,240312,1,1092617184,770000,58156,58156,65700,0,7240,0,2764348321,63
o,1723651449.489133,172.16.3.2,11492,172.16.1.2,5101,5792,7264,38,65728,65728,6,6,4,1460,235312,1,1092617184,730000,58156,56708,65700,0,5792,0,2764348321,63
i,1723651449.569150,172.16.3.2,11492,172.16.1.2,5101,5792,7264,38,65728,65728,6,6,4,1460,235312,1,1092617184,730000,58156,56708,65700,0,7240,0,2764348321,63
o,1723651449.569190,172.16.3.2,11492,172.16.1.2,5101,5792,8724,38,64256,65728,6,6,4,1460,235937,1,1092617184,660000,58156,53812,65700,0,4344,0,2764348321,63
i,1723651449.662340,172.16.3.2,11492,172.16.1.2,5101,5792,8724,38,64256,65728,6,6,4,1460,235937,1,1092617184,660000,58156,58156,65700,0,8688,0,2764348321,63
o,1723651449.662419,172.16.3.2,11492,172.16.1.2,5101,5792,8724,38,64256,65728,6,6,4,1460,245312,1,1092617184,690000,58156,55260,65700,0,5792,0,2764348321,63
o,1723651449.662631,172.16.3.2,11492,172.16.1.2,5101,5792,8724,38,64256,65728,6,6,4,1460,245312,1,1092617184,690000,58156,55260,65700,0,7240,0,2764348321,63
i,1723651449.737902,172.16.3.2,11492,172.16.1.2,5101,5792,8724,38,64256,65728,6,6,4,1460,245312,1,1092617184,690000,58156,58156,65700,0,8688,0,2764348321,63
o,1723651449.737974,172.16.3.2,11492,172.16.1.2,5101,5792,8724,38,65728,65728,6,6,4,1460,245937,1,1092617184,630000,58156,56708,65700,0,7240,0,2764348321,63
i,1723651449.764447,172.16.3.2,11492,172.16.1.2,5101,5792,8724,38,65728,65728,6,6,4,1460,245937,1,1092617184,630000,58156,56708,65700,0,8688,0,2764348321,63
o,1723651449.764569,172.16.3.2,11492,172.16.1.2,5101,5792,8724,38,65728,65728,6,6,4,1460,240312,1,1092617184,630000,58156,55260,65700,0,7240,0,2764348321,63
i,1723651449.807580,172.16.3.2,11492,172.16.1.2,5101,5792,8724,38,65728,65728,6,6,4,1460,240312,1,1092617184,630000,58156,58156,65700,0,8688,0,2764348321,63
o,1723651449.807663,172.16.3.2,11492,172.16.1.2,5101,5792,10184,38,64256,65728,6,6,4,1460,240312,1,1092617184,580000,58156,55260,65700,0,5792,0,2764348321,63
i,1723651449.918464,172.16.3.2,11492,172.16.1.2,5101,5792,10184,38,64256,65728,6,6,4,1460,240312,1,1092617184,580000,58156,58156,65700,0,10136,0,2764348321,63
o,1723651449.918497,172.16.3.2,11492,172.16.1.2,5101,5792,10184,38,65728,65728,6,6,4,1460,241562,1,1092617184,550000,58156,56708,65700,0,8688,0,2764348321,63
i,1723651449.969418,172.16.3.2,11492,172.16.1.2,5101,5792,10184,38,65728,65728,6,6,4,1460,241562,1,1092617184,550000,58156,56708,65700,0,10136,0,2764348321,63
o,1723651449.969502,172.16.3.2,11492,172.16.1.2,5101,5792,10184,38,64256,65728,6,6,4,1460,249062,1,1092617184,590000,58156,53812,65700,0,7240,0,2764348321,63
i,1723651450.098466,172.16.3.2,11492,172.16.1.2,5101,5792,10184,38,64256,65728,6,6,4,1460,249062,1,1092617184,590000,58156,58156,65700,0,10136,0,2764348321,63
o,1723651450.098466,172.16.3.2,11492,172.16.1.2,5101,5792,10184,38,65728,65728,6,6,4,1460,259375,1,1092617184,650000,58156,56708,65700,0,8688,0,2764348321,63
i,1723651450.139398,172.16.3.2,11492,172.16.1.2,5101,5792,10184,38,65728,65728,6,6,4,1460,259375,1,1092617184,650000,58156,56708,65700,0,10136,0,2764348321,63
o,1723651450.139447,172.16.3.2,11492,172.16.1.2,5101,5792,10184,38,64256,65728,6,6,4,1460,268437,1,1092617184,680000,58156,53812,65700,0,7240,0,2764348321,63
i,1723651450.188106,172.16.3.2,11492,172.16.1.2,5101,5792,10184,38,64256,65728,6,6,4,1460,268437,1,1092617184,680000,58156,58156,65700,0,10136,0,2764348321,63
o,1723651450.188211,172.16.3.2,11492,172.16.1.2,5101,5792,11644,38,64256,65728,6,6,4,1460,282500,1,1092617184,760000,58156,55260,65700,0,7240,0,2764348321,63
o,1723651450.188441,172.16.3.2,11492,172.16.1.2,5101,5792,11644,38,64256,65728,6,6,4,1460,282500,1,1092617184,760000,58156,55260,65700,0,8688,0,2764348321,63
i,1723651450.274220,172.16.3.2,11492,172.16.1.2,5101,5792,11644,38,64256,65728,6,6,4,1460,282500,1,1092617184,760000,58156,58156,65700,0,11584,0,2764348321,63
o,1723651450.274346,172.16.3.2,11492,172.16.1.2,5101,5792,11644,38,64256,65728,6,6,4,1460,285937,1,1092617184,720000,58156,55260,65700,0,8688,0,2764348321,63
i,1723651450.464141,172.16.3.2,11492,172.16.1.2,5101,5792,11644,38,64256,65728,6,6,4,1460,285937,1,1092617184,720000,58156,58156,65700,0,11584,0,2764348321,63
o,1723651450.464526,172.16.3.2,11492,172.16.1.2,5101,5792,11644,38,64256,65728,6,6,4,1460,295312,1,1092617184,750000,58156,55260,65700,0,8688,0,2764348321,63
i,1723651450.497831,172.16.3.2,11492,172.16.1.2,5101,5792,11644,38,64256,65728,6,6,4,1460,295312,1,1092617184,750000,58156,58156,65700,0,11584,0,2764348321,63
o,1723651450.497915,172.16.3.2,11492,172.16.1.2,5101,5792,11644,38,64256,65728,6,6,4,1460,303437,1,1092617184,760000,58156,55260,65700,0,8688,0,2764348321,63
o,1723651450.498102,172.16.3.2,11492,172.16.1.2,5101,5792,11644,38,64256,65728,6,6,4,1460,303437,1,1092617184,760000,58156,55260,65700,0,10136,0,2764348321,63
i,1723651450.579898,172.16.3.2,11492,172.16.1.2,5101,5792,11644,38,64256,65728,6,6,4,1460,303437,1,1092617184,760000,58156,58156,65700,0,11584,0,2764348321,63
o,1723651450.580093,172.16.3.2,11492,172.16.1.2,5101,5792,13104,38,65728,65728,6,6,4,1460,314375,1,1092617184,790000,58156,56708,65700,0,10136,0,2764348321,63
i,1723651450.616034,172.16.3.2,11492,172.16.1.2,5101,5792,13104,38,65728,65728,6,6,4,1460,314375,1,1092617184,790000,58156,56708,65700,0,13032,0,2764348321,63
o,1723651450.616124,172.16.3.2,11492,172.16.1.2,5101,5792,13104,38,64256,65728,6,6,4,1460,329062,1,1092617184,850000,58156,53812,65700,0,10136,0,2764348321,63
i,1723651450.689018,172.16.3.2,11492,172.16.1.2,5101,5792,13104,38,64256,65728,6,6,4,1460,329062,1,1092617184,850000,58156,58156,65700,0,13032,0,2764348321,63
o,1723651450.689076,172.16.3.2,11492,172.16.1.2,5101,5792,13104,38,65728,65728,6,6,4,1460,339375,1,1092617184,860000,58156,56708,65700,0,11584,0,2764348321,63
i,1723651450.798566,172.16.3.2,11492,172.16.1.2,5101,5792,13104,38,65728,65728,6,6,4,1460,339375,1,1092617184,860000,58156,56708,65700,0,13032,0,2764348321,63
o,1723651450.798679,172.16.3.2,11492,172.16.1.2,5101,5792,13104,38,64256,65728,6,6,4,1460,338437,1,1092617184,790000,58156,53812,65700,0,10136,0,2764348321,63
i,1723651450.838182,172.16.3.2,11492,172.16.1.2,5101,5792,13104,38,64256,65728,6,6,4,1460,338437,1,1092617184,790000,58156,58156,65700,0,13032,0,2764348321,63
o,1723651450.838254,172.16.3.2,11492,172.16.1.2,5101,5792,13104,38,62848,65728,6,6,4,1460,337500,1,1092617184,730000,58156,55260,65700,0,10136,0,2764348321,63
o,1723651450.838417,172.16.3.2,11492,172.16.1.2,5101,5792,13104,38,62848,65728,6,6,4,1460,337500,1,1092617184,730000,58156,55260,65700,0,11584,0,2764348321,63
i,1723651450.907949,172.16.3.2,11492,172.16.1.2,5101,5792,13104,38,62848,65728,6,6,4,1460,337500,1,1092617184,730000,58156,58156,65700,0,13032,0,2764348321,63
o,1723651450.907978,172.16.3.2,11492,172.16.1.2,5101,5792,14480,34,62848,65728,6,6,4,1460,337500,1,1092617184,730000,58156,58156,65700,0,13032,0,2764348321,63
i,1723651450.937640,172.16.3.2,11492,172.16.1.2,5101,5792,13104,34,62848,65728,6,6,4,1460,337500,1,1092617184,730000,58156,58156,65700,0,14480,0,2764348321,63
o,1723651450.937679,172.16.3.2,11492,172.16.1.2,5101,5792,15928,34,62848,65728,6,6,4,1460,337500,1,1092617184,730000,58156,58156,65700,0,14480,0,2764348321,63
i,1723651450.988163,172.16.3.2,11492,172.16.1.2,5101,5792,13104,34,62848,65728,6,6,4,1460,337500,1,1092617184,730000,58156,58156,65700,0,15928,0,2764348321,63
o,1723651450.988192,172.16.3.2,11492,172.16.1.2,5101,5792,1448,98,62848,65728,6,6,4,1460,337500,1,1630536672,730000,58156,58156,65700,0,15928,0,2764348321,63
i,1723651451.019837,172.16.3.2,11492,172.16.1.2,5101,5792,1448,98,62848,65728,6,6,4,1460,337500,1,1630536672,730000,58156,58156,65700,0,15928,0,2764348321,63
i,1723651451.073773,172.16.3.2,11492,172.16.1.2,5101,5792,1448,98,62848,65728,6,6,4,1460,337500,1,1630536672,730000,58156,58156,65700,0,15928,0,2764348321,63
o,1723651451.073826,172.16.3.2,11492,172.16.1.2,5101,5792,2896,98,62848,65728,6,6,4,1460,337500,1,1630536672,730000,58156,58156,65700,0,15928,0,2764348321,63
i,1723651451.107681,172.16.3.2,11492,172.16.1.2,5101,5792,2896,98,62848,65728,6,6,4,1460,337500,1,1630536672,730000,58156,58156,65700,0,15928,0,2764348321,63
i,1723651451.165278,172.16.3.2,11492,172.16.1.2,5101,5792,2896,98,62848,65728,6,6,4,1460,337500,1,1613759456,730000,58156,58156,65700,0,15928,0,2764348321,63
i,1723651451.233333,172.16.3.2,11492,172.16.1.2,5101,5792,2896,98,62848,65728,6,6,4,1460,337500,1,1613759456,730000,58156,58156,65700,0,15928,0,2764348321,63
o,1723651451.233370,172.16.3.2,11492,172.16.1.2,5101,5792,4344,98,62848,65728,6,6,4,1460,337500,1,1630536672,730000,58156,58156,65700,0,15928,0,2764348321,63
i,1723651451.290866,172.16.3.2,11492,172.16.1.2,5101,5792,4344,98,62848,65728,6,6,4,1460,337500,1,1630536672,730000,58156,58156,65700,0,15928,0,2764348321,63
o,1723651451.291051,172.16.3.2,11492,172.16.1.2,5101,5792,2896,98,62848,65728,6,6,4,1460,337500,1,1630536673,730000,58156,58156,65700,0,15928,0,2764348321,63
i,1723651451.310139,172.16.3.2,11492,172.16.1.2,5101,5792,2896,98,61440,65728,6,6,4,1460,332812,1,1630536672,720000,58156,58156,65700,0,11584,0,2764348321,63
o,1723651451.310171,172.16.3.2,11492,172.16.1.2,5101,5792,1448,98,61440,65728,6,6,4,1460,332812,1,1630536673,720000,58156,58156,65700,0,11584,0,2764348321,63
i,1723651451.372148,172.16.3.2,11492,172.16.1.2,5101,5792,1448,98,57024,65728,6,6,4,1460,320000,1,1630536672,760000,58156,58156,65700,0,2896,0,2764348321,63
o,1723651451.372194,172.16.3.2,11492,172.16.1.2,5101,5792,2920,38,62848,65728,6,6,4,1460,296250,1,1092617184,870000,58156,55260,65700,0,0,0,2764348321,63
o,1723651451.372339,172.16.3.2,11492,172.16.1.2,5101,5792,2920,38,62848,65728,6,6,4,1460,296250,1,1092617184,870000,58156,55260,65700,0,1448,0,2764348321,63
i,1723651451.517047,172.16.3.2,11492,172.16.1.2,5101,5792,2920,38,62848,65728,6,6,4,1460,296250,1,1092617184,870000,58156,58156,65700,0,2896,0,2764348321,63
o,1723651451.517139,172.16.3.2,11492,172.16.1.2,5101,5792,4368,38,65728,65728,6,6,4,1460,276875,1,1092617184,910000,58156,56708,65700,0,1448,0,2764348321,63
o,1723651451.517295,172.16.3.2,11492,172.16.1.2,5101,5792,4368,38,65728,65728,6,6,4,1460,276875,1,1092617184,910000,58156,56708,65700,0,2896,0,2764348321,63
i,1723651451.618176,172.16.3.2,11492,172.16.1.2,5101,5792,4368,38,65728,65728,6,6,4,1460,276875,1,1092617184,910000,58156,56708,65700,0,4344,0,2764348321,63
o,1723651451.618406,172.16.3.2,11492,172.16.1.2,5101,5792,5816,38,65728,65728,6,6,4,1460,272500,1,1092617184,830000,58156,55260,65700,0,2896,0,2764348321,63
i,1723651451.688156,172.16.3.2,11492,172.16.1.2,5101,5792,5816,38,65728,65728,6,6,4,1460,272500,1,1092617184,830000,58156,58156,65700,0,5792,0,2764348321,63
o,1723651451.688156,172.16.3.2,11492,172.16.1.2,5101,5792,5816,38,64256,65728,6,6,4,1460,259687,1,1092617184,830000,58156,55260,65700,0,2896,0,2764348321,63
o,1723651451.688782,172.16.3.2,11492,172.16.1.2,5101,5792,5816,38,64256,65728,6,6,4,1460,259687,1,1092617184,830000,58156,55260,65700,0,4344,0,2764348321,63
i,1723651451.792772,172.16.3.2,11492,172.16.1.2,5101,5792,5816,38,64256,65728,6,6,4,1460,259687,1,1092617184,830000,58156,58156,65700,0,5792,0,2764348321,63
o,1723651451.792876,172.16.3.2,11492,172.16.1.2,5101,5792,5816,38,64256,65728,6,6,4,1460,248750,1,1092617184,820000,58156,55260,65700,0,2896,0,2764348321,63
i,1723651451.848128,172.16.3.2,11492,172.16.1.2,5101,5792,5816,38,64256,65728,6,6,4,1460,248750,1,1092617184,820000,58156,58156,65700,0,5792,0,2764348321,63
o,1723651451.848219,172.16.3.2,11492,172.16.1.2,5101,5792,7276,38,64256,65728,6,6,4,1460,236562,1,1092617184,810000,58156,55260,65700,0,2896,0,2764348321,63
o,1723651451.848362,172.16.3.2,11492,172.16.1.2,5101,5792,7276,38,64256,65728,6,6,4,1460,236562,1,1092617184,810000,58156,55260,65700,0,4344,0,2764348321,63
i,1723651451.942411,172.16.3.2,11492,172.16.1.2,5101,5792,7276,38,64256,65728,6,6,4,1460,236562,1,1092617184,810000,58156,58156,65700,0,7240,0,2764348321,63
o,1723651451.942449,172.16.3.2,11492,172.16.1.2,5101,5792,7276,38,64256,65728,6,6,4,1460,224687,1,1092617184,800000,58156,55260,65700,0,4344,0,2764348321,63
i,1723651452.028708,172.16.3.2,11492,172.16.1.2,5101,5792,7276,38,64256,65728,6,6,4,1460,224687,1,1092617184,800000,58156,58156,65700,0,7240,0,2764348321,63
o,1723651452.028804,172.16.3.2,11492,172.16.1.2,5101,5792,8736,38,64256,65728,6,6,4,1460,219375,1,1092617184,740000,58156,55260,65700,0,4344,0,2764348321,63
o,1723651452.028954,172.16.3.2,11492,172.16.1.2,5101,5792,8736,38,64256,65728,6,6,4,1460,219375,1,1092617184,740000,58156,55260,65700,0,5792,0,2764348321,63
i,1723651452.104272,172.16.3.2,11492,172.16.1.2,5101,5792,8736,38,64256,65728,6,6,4,1460,219375,1,1092617184,740000,58156,58156,65700,0,8688,0,2764348321,63
o,1723651452.104358,172.16.3.2,11492,172.16.1.2,5101,5792,8736,38,65728,65728,6,6,4,1460,224687,1,1092617184,710000,58156,56708,65700,0,7240,0,2764348321,63
i,1723651452.148952,172.16.3.2,11492,172.16.1.2,5101,5792,8736,38,65728,65728,6,6,4,1460,224687,1,1092617184,710000,58156,56708,65700,0,8688,0,2764348321,63
o,1723651452.149110,172.16.3.2,11492,172.16.1.2,5101,5792,8736,38,65728,65728,6,6,4,1460,221875,1,1092617184,660000,58156,55260,65700,0,7240,0,2764348321,63
i,1723651452.259577,172.16.3.2,11492,172.16.1.2,5101,5792,8736,38,65728,65728,6,6,4,1460,221875,1,1092617184,660000,58156,58156,65700,0,8688,0,2764348321,63
o,1723651452.259656,172.16.3.2,11492,172.16.1.2,5101,5792,8736,38,64256,65728,6,6,4,1460,233125,1,1092617184,700000,58156,55260,65700,0,5792,0,2764348321,63
o,1723651452.259789,172.16.3.2,11492,172.16.1.2,5101,5792,8736,38,64256,65728,6,6,4,1460,233125,1,1092617184,700000,58156,55260,65700,0,7240,0,2764348321,63
i,1723651452.329688,172.16.3.2,11492,172.16.1.2,5101,5792,8736,38,64256,65728,6,6,4,1460,233125,1,1092617184,700000,58156,58156,65700,0,8688,0,2764348321,63
o,1723651452.329723,172.16.3.2,11492,172.16.1.2,5101,5792,10196,38,64256,65728,6,6,4,1460,241562,1,1092617184,710000,58156,55260,65700,0,5792,0,2764348321,63
i,1723651452.408815,172.16.3.2,11492,172.16.1.2,5101,5792,10196,38,64256,65728,6,6,4,1460,241562,1,1092617184,710000,58156,58156,65700,0,10136,0,2764348321,63
o,1723651452.408862,172.16.3.2,11492,172.16.1.2,5101,5792,10196,38,65728,65728,6,6,4,1460,249062,1,1092617184,710000,58156,56708,65700,0,8688,0,2764348321,63
i,1723651452.490289,172.16.3.2,11492,172.16.1.2,5101,5792,10196,38,65728,65728,6,6,4,1460,249062,1,1092617184,710000,58156,56708,65700,0,10136,0,2764348321,63
o,1723651452.490332,172.16.3.2,11492,172.16.1.2,5101,5792,10196,38,65728,65728,6,6,4,1460,260625,1,1092617184,750000,58156,55260,65700,0,8688,0,2764348321,63
i,1723651452.573790,172.16.3.2,11492,172.16.1.2,5101,5792,10196,38,65728,65728,6,6,4,1460,260625,1,1092617184,750000,58156,58156,65700,0,10136,0,2764348321,63
o,1723651452.573828,172.16.3.2,11492,172.16.1.2,5101,5792,10196,38,64256,65728,6,6,4,1460,268125,1,1092617184,740000,58156,55260,65700,0,7240,0,2764348321,63
o,1723651452.573965,172.16.3.2,11492,172.16.1.2,5101,5792,10196,38,64256,65728,6,6,4,1460,268125,1,1092617184,740000,58156,55260,65700,0,8688,0,2764348321,63
i,1723651452.645212,172.16.3.2,11492,172.16.1.2,5101,5792,10196,38,64256,65728,6,6,4,1460,268125,1,1092617184,740000,58156,58156,65700,0,10136,0,2764348321,63
o,1723651452.645267,172.16.3.2,11492,172.16.1.2,5101,5792,10196,38,64256,65728,6,6,4,1460,273437,1,1092617184,720000,58156,55260,65700,0,7240,0,2764348321,63
