enable_time_secs=1723651960	enable_time_usecs=771285	siftrver=1.3.0	sysname=FreeBSD	sysver=1401000	ipmode=4
o,1723651960.771647,10.0.2.15,22,10.0.2.2,50588,1073725440,17746,1026,65535,65700,0,0,4,1460,312,0,16777220,240000,33580,172,65700,0,0,0,504056637,63
i,1723651960.772562,10.0.2.15,22,10.0.2.2,50588,1073725440,17746,1026,65535,65700,0,0,4,1460,312,0,16777220,240000,33580,172,65700,0,172,0,504056637,63
o,1723651960.772571,10.0.2.15,22,10.0.2.2,50588,1073725440,17746,1026,65535,65700,0,0,4,1460,312,0,16777220,240000,33580,244,65700,0,172,0,504056637,63
i,1723651960.773146,10.0.2.15,22,10.0.2.2,50588,1073725440,17918,1026,65535,65700,0,0,4,1460,312,0,4,240000,33580,72,65700,0,72,0,504056637,63
i,1723651960.773162,10.0.2.15,22,10.0.2.2,50588,1073725440,17990,1026,65535,65700,0,0,4,1460,312,0,4,240000,33580,0,65700,0,0,0,504056637,63
i,1723651960.773178,10.0.2.15,22,10.0.2.2,50588,1073725440,17990,1026,65535,65700,0,0,4,1460,312,0,4,240000,33580,0,65700,96,0,0,504056637,63
o,1723651960.773195,10.0.2.15,22,10.0.2.2,50588,1073725440,17990,1026,65535,65604,0,0,5,1460,312,0,5,240000,33580,0,65700,96,0,0,504056637,63
o,1723651960.773948,10.0.2.15,22,10.0.2.2,50588,1073725440,17990,1026,65535,65604,0,0,8,1460,312,0,4,240000,33580,0,65700,0,0,0,504056637,63
i,1723651960.774503,10.0.2.15,22,10.0.2.2,50588,1073725440,17990,1026,65535,65604,0,0,8,1460,312,0,67108884,240000,33580,0,65700,0,1,0,504056637,63
i,1723651963.033102,10.0.2.15,22,10.0.2.2,50596,1073725440,14600,0,65535,65700,0,0,4,1460,312,0,16777216,270000,33580,0,65700,0,0,0,3575832965,63
o,1723651963.043391,10.0.2.15,22,10.0.2.2,50596,1073725440,14600,1026,65535,65700,0,0,4,1460,312,0,16777216,270000,33580,38,65700,42,0,0,3575832965,63
i,1723651963.044037,10.0.2.15,22,10.0.2.2,50596,1073725440,14600,1026,65535,65700,0,0,4,1460,312,0,16777216,270000,33580,38,65700,0,38,0,3575832965,63
i,1723651963.044089,10.0.2.15,22,10.0.2.2,50596,1073725440,14638,1026,65535,65700,0,0,4,1460,312,0,0,240000,33580,0,65700,0,0,0,3575832965,63
i,1723651963.044105,10.0.2.15,22,10.0.2.2,50596,1073725440,14638,1026,65535,65700,0,0,4,1460,312,0,0,240000,33580,0,65700,1460,0,0,3575832965,63
o,1723651963.044122,10.0.2.15,22,10.0.2.2,50596,1073725440,14638,1026,65535,65700,0,0,4,1460,312,0,1,240000,33580,0,65700,1536,0,0,3575832965,63
o,1723651963.045016,10.0.2.15,22,10.0.2.2,50596,1073725440,14638,1026,65535,65700,0,0,4,1460,312,0,16777216,240000,33580,1120,65700,1536,0,0,3575832965,63
i,1723651963.045352,10.0.2.15,22,10.0.2.2,50596,1073725440,14638,1026,65535,65700,0,0,4,1460,312,0,16777216,240000,33580,1120,65700,0,1120,0,3575832965,63
i,1723651963.046760,10.0.2.15,22,10.0.2.2,50596,1073725440,15758,1026,65535,65700,0,0,4,1460,312,0,0,240000,33580,0,65700,0,0,0,3575832965,63
o,1723651963.049833,10.0.2.15,22,10.0.2.2,50596,1073725440,15758,1026,65535,65700,0,0,4,1460,312,0,16777216,240000,33580,492,65700,0,0,0,3575832965,63
i,1723651963.050622,10.0.2.15,22,10.0.2.2,50596,1073725440,15758,1026,65535,65700,0,0,4,1460,312,0,16777216,240000,33580,492,65700,0,492,0,3575832965,63
i,1723651963.054573,10.0.2.15,22,10.0.2.2,50596,1073725440,16250,1026,65535,65700,0,0,4,1460,312,0,0,240000,33580,0,65700,0,0,0,3575832965,63
i,1723651963.054592,10.0.2.15,22,10.0.2.2,50596,1073725440,16250,1026,65535,65700,0,0,4,1460,312,0,0,240000,33580,0,65700,16,0,0,3575832965,63
o,1723651963.054609,10.0.2.15,22,10.0.2.2,50596,1073725440,16250,1026,65535,65700,0,0,4,1460,312,0,1,240000,33580,0,65700,60,0,0,3575832965,63
o,1723651963.054757,10.0.2.15,22,10.0.2.2,50596,1073725440,16250,1026,65535,65700,0,0,4,1460,312,0,16777216,240000,33580,44,65700,0,0,0,3575832965,63
i,1723651963.055508,10.0.2.15,22,10.0.2.2,50596,1073725440,16250,1026,65535,65700,0,0,4,1460,312,0,16777216,240000,33580,44,65700,0,44,0,3575832965,63
i,1723651963.055525,10.0.2.15,22,10.0.2.2,50596,1073725440,16294,1026,65535,65700,0,0,4,1460,312,0,0,240000,33580,0,65700,0,0,0,3575832965,63
o,1723651963.056781,10.0.2.15,22,10.0.2.2,50596,1073725440,16294,1026,65535,65700,0,0,4,1460,312,0,16777216,240000,33580,68,65700,0,0,0,3575832965,63
i,1723651963.057195,10.0.2.15,22,10.0.2.2,50596,1073725440,16294,1026,65535,65700,0,0,4,1460,312,0,16777216,240000,33580,68,65700,0,68,0,3575832965,63
i,1723651963.057212,10.0.2.15,22,10.0.2.2,50596,1073725440,16362,1026,65535,65700,0,0,4,1460,312,0,0,240000,33580,0,65700,0,0,0,3575832965,63
o,1723651963.058207,10.0.2.15,22,10.0.2.2,50596,1073725440,16362,1026,65535,65700,0,0,4,1460,312,0,16777216,240000,33580,332,65700,0,0,0,3575832965,63
i,1723651963.059034,10.0.2.15,22,10.0.2.2,50596,1073725440,16362,1026,65535,65700,0,0,4,1460,312,0,16777216,240000,33580,332,65700,0,332,0,3575832965,63
i,1723651963.060252,10.0.2.15,22,10.0.2.2,50596,1073725440,16694,1026,65535,65700,0,0,4,1460,312,0,0,240000,33580,0,65700,0,0,0,3575832965,63
o,1723651963.084947,10.0.2.15,22,10.0.2.2,50596,1073725440,16694,1026,65535,65700,0,0,4,1460,312,0,16777216,240000,33580,28,65700,0,0,0,3575832965,63
i,1723651963.086069,10.0.2.15,22,10.0.2.2,50596,1073725440,16694,1026,65535,65700,0,0,4,1460,312,0,16777216,240000,33580,28,65700,0,28,0,3575832965,63
i,1723651963.086144,10.0.2.15,22,10.0.2.2,50596,1073725440,16722,1026,65535,65700,0,0,4,1460,312,0,0,240000,33580,0,65700,0,0,0,3575832965,63
o,1723651963.087534,10.0.2.15,22,10.0.2.2,50596,1073725440,16722,1026,65535,65700,0,0,4,1460,312,0,16777216,240000,33580,768,65700,112,0,0,3575832965,63
i,1723651963.088380,10.0.2.15,22,10.0.2.2,50596,1073725440,16722,1026,65535,65700,0,0,4,1460,312,0,16777216,240000,33580,908,65700,112,768,0,3575832965,63
o,1723651963.088400,10.0.2.15,22,10.0.2.2,50596,1073725440,17490,1026,65535,65700,0,0,4,1460,312,0,16777216,240000,33580,140,65700,112,0,0,3575832965,63
i,1723651963.088826,10.0.2.15,22,10.0.2.2,50596,1073725440,17490,1026,65535,65700,0,0,4,1460,312,0,16777216,240000,33580,140,65700,112,140,0,3575832965,63
o,1723651963.089023,10.0.2.15,22,10.0.2.2,50596,1073725440,17630,1026,65535,65700,0,0,4,1460,312,0,16777216,240000,33580,44,65700,0,0,0,3575832965,63
i,1723651963.089561,10.0.2.15,22,10.0.2.2,50596,1073725440,17630,1026,65535,65700,0,0,4,1460,312,0,16777216,240000,33580,44,65700,0,44,0,3575832965,63
i,1723651963.089580,10.0.2.15,22,10.0.2.2,50596,1073725440,17674,1026,65535,65700,0,0,4,1460,312,0,0,240000,33580,0,65700,0,0,0,3575832965,63
o,1723651963.090078,10.0.2.15,22,10.0.2.2,50596,1073725440,17674,1026,65535,65700,0,0,4,1460,312,0,16777220,240000,33580,72,65700,0,0,0,3575832965,63
i,1723651963.090533,10.0.2.15,22,10.0.2.2,50596,1073725440,17674,1026,65535,65700,0,0,4,1460,312,0,16777220,240000,33580,72,65700,0,72,0,3575832965,63
o,1723651963.093156,10.0.2.15,22,10.0.2.2,50596,1073725440,17746,1026,65535,65700,0,0,4,1460,312,0,16777220,240000,33580,104,65700,0,0,0,3575832965,63
i,1723651963.093644,10.0.2.15,22,10.0.2.2,50596,1073725440,17746,1026,65535,65700,0,0,4,1460,312,0,16777220,240000,33580,104,65700,0,104,0,3575832965,63
o,1723651963.094196,10.0.2.15,22,10.0.2.2,50596,1073725440,17850,1026,65535,65700,0,0,4,1460,312,0,16777220,240000,33580,72,65700,0,0,0,3575832965,63
i,1723651963.094898,10.0.2.15,22,10.0.2.2,50596,1073725440,17850,1026,65535,65700,0,0,4,1460,312,0,16777220,240000,33580,72,65700,0,72,0,3575832965,63
i,1723651963.094945,10.0.2.15,22,10.0.2.2,50596,1073725440,17922,1026,65535,65700,0,0,4,1460,312,0,4,240000,33580,0,65700,0,0,0,3575832965,63
i,1723651963.094960,10.0.2.15,22,10.0.2.2,50596,1073725440,17922,1026,65535,65700,0,0,4,1460,312,0,4,240000,33580,0,65700,96,0,0,3575832965,63
o,1723651963.094977,10.0.2.15,22,10.0.2.2,50596,1073725440,17922,1026,65535,65604,0,0,5,1460,312,0,5,240000,33580,0,65700,96,0,0,3575832965,63
o,1723651963.102555,10.0.2.15,22,10.0.2.2,50596,1073725440,17922,1026,65535,65604,0,0,8,1460,312,0,4,240000,33580,0,65700,0,0,0,3575832965,63
i,1723651963.104012,10.0.2.15,22,10.0.2.2,50596,1073725440,17922,1026,65535,65604,0,0,8,1460,312,0,67108884,240000,33580,0,65700,0,1,0,3575832965,63
i,1723651965.274473,10.0.2.15,22,10.0.2.2,50504,1073725440,14600,0,65535,65700,0,0,4,1460,312,0,16777216,270000,33580,0,65700,0,0,0,463913510,63
o,1723651965.286690,10.0.2.15,22,10.0.2.2,50504,1073725440,14600,1026,65535,65700,0,0,4,1460,312,0,16777216,270000,33580,38,65700,42,0,0,463913510,63
i,1723651965.287817,10.0.2.15,22,10.0.2.2,50504,1073725440,14600,1026,65535,65700,0,0,4,1460,312,0,16777216,270000,33580,38,65700,0,38,0,463913510,63
i,1723651965.288361,10.0.2.15,22,10.0.2.2,50504,1073725440,14638,1026,65535,65700,0,0,4,1460,312,0,0,240000,33580,0,65700,0,0,0,463913510,63
i,1723651965.288387,10.0.2.15,22,10.0.2.2,50504,1073725440,14638,1026,65535,65700,0,0,4,1460,312,0,0,240000,33580,0,65700,1460,0,0,463913510,63
o,1723651965.288413,10.0.2.15,22,10.0.2.2,50504,1073725440,14638,1026,65535,65700,0,0,4,1460,312,0,1,240000,33580,0,65700,1536,0,0,463913510,63
o,1723651965.289927,10.0.2.15,22,10.0.2.2,50504,1073725440,14638,1026,65535,65700,0,0,4,1460,312,0,16777216,240000,33580,1120,65700,1536,0,0,463913510,63
i,1723651965.290419,10.0.2.15,22,10.0.2.2,50504,1073725440,14638,1026,65535,65700,0,0,4,1460,312,0,16777216,240000,33580,1120,65700,0,1120,0,463913510,63
i,1723651965.292405,10.0.2.15,22,10.0.2.2,50504,1073725440,15758,1026,65535,65700,0,0,4,1460,312,0,0,240000,33580,0,65700,0,0,0,463913510,63
o,1723651965.295985,10.0.2.15,22,10.0.2.2,50504,1073725440,15758,1026,65535,65700,0,0,4,1460,312,0,16777216,240000,33580,492,65700,0,0,0,463913510,63
i,1723651965.297001,10.0.2.15,22,10.0.2.2,50504,1073725440,15758,1026,65535,65700,0,0,4,1460,312,0,16777216,240000,33580,492,65700,0,492,0,463913510,63
i,1723651965.301637,10.0.2.15,22,10.0.2.2,50504,1073725440,16250,1026,65535,65700,0,0,4,1460,312,0,0,240000,33580,0,65700,0,0,0,463913510,63
i,1723651965.301671,10.0.2.15,22,10.0.2.2,50504,1073725440,16250,1026,65535,65700,0,0,4,1460,312,0,0,240000,33580,0,65700,16,0,0,463913510,63
o,1723651965.301692,10.0.2.15,22,10.0.2.2,50504,1073725440,16250,1026,65535,65700,0,0,4,1460,312,0,1,240000,33580,0,65700,44,0,0,463913510,63
o,1723651965.301901,10.0.2.15,22,10.0.2.2,50504,1073725440,16250,1026,65535,65700,0,0,4,1460,312,0,16777216,240000,33580,44,65700,0,0,0,463913510,63
i,1723651965.302988,10.0.2.15,22,10.0.2.2,50504,1073725440,16250,1026,65535,65700,0,0,4,1460,312,0,16777216,240000,33580,44,65700,0,44,0,463913510,63
i,1723651965.303017,10.0.2.15,22,10.0.2.2,50504,1073725440,16294,1026,65535,65700,0,0,4,1460,312,0,0,240000,33580,0,65700,0,0,0,463913510,63
o,1723651965.305343,10.0.2.15,22,10.0.2.2,50504,1073725440,16294,1026,65535,65700,0,0,4,1460,312,0,16777216,240000,33580,68,65700,0,0,0,463913510,63
i,1723651965.306052,10.0.2.15,22,10.0.2.2,50504,1073725440,16294,1026,65535,65700,0,0,4,1460,312,0,16777216,240000,33580,68,65700,0,68,0,463913510,63
i,1723651965.306540,10.0.2.15,22,10.0.2.2,50504,1073725440,16362,1026,65535,65700,0,0,4,1460,312,0,0,240000,33580,0,65700,0,0,0,463913510,63
o,1723651965.308422,10.0.2.15,22,10.0.2.2,50504,1073725440,16362,1026,65535,65700,0,0,4,1460,312,0,16777216,240000,33580,332,65700,0,0,0,463913510,63
i,1723651965.308804,10.0.2.15,22,10.0.2.2,50504,1073725440,16362,1026,65535,65700,0,0,4,1460,312,0,16777216,240000,33580,332,65700,0,332,0,463913510,63
i,1723651965.311876,10.0.2.15,22,10.0.2.2,50504,1073725440,16694,1026,65535,65700,0,0,4,1460,312,0,0,240000,33580,0,65700,0,0,0,463913510,63
o,1723651965.327355,10.0.2.15,22,10.0.2.2,50504,1073725440,16694,1026,65535,65700,0,0,4,1460,312,0,16777216,240000,33580,28,65700,0,0,0,463913510,63
i,1723651965.328028,10.0.2.15,22,10.0.2.2,50504,1073725440,16694,1026,65535,65700,0,0,4,1460,312,0,16777216,240000,33580,28,65700,0,28,0,463913510,63
i,1723651965.328353,10.0.2.15,22,10.0.2.2,50504,1073725440,16722,1026,65535,65700,0,0,4,1460,312,0,0,240000,33580,0,65700,0,0,0,463913510,63
o,1723651965.329539,10.0.2.15,22,10.0.2.2,50504,1073725440,16722,1026,65535,65700,0,0,4,1460,312,0,16777216,240000,33580,768,65700,112,0,0,463913510,63
i,1723651965.330427,10.0.2.15,22,10.0.2.2,50504,1073725440,16722,1026,65535,65700,0,0,4,1460,312,0,16777216,240000,33580,908,65700,112,768,0,463913510,63
o,1723651965.330451,10.0.2.15,22,10.0.2.2,50504,1073725440,17490,1026,65535,65700,0,0,4,1460,312,0,16777216,240000,33580,140,65700,112,0,0,463913510,63
i,1723651965.330842,10.0.2.15,22,10.0.2.2,50504,1073725440,17490,1026,65535,65700,0,0,4,1460,312,0,16777216,240000,33580,140,65700,112,140,0,463913510,63
o,1723651965.331213,10.0.2.15,22,10.0.2.2,50504,1073725440,17630,1026,65535,65700,0,0,4,1460,312,0,16777216,240000,33580,44,65700,0,0,0,463913510,63
i,1723651965.331658,10.0.2.15,22,10.0.2.2,50504,1073725440,17630,1026,65535,65700,0,0,4,1460,312,0,16777216,240000,33580,44,65700,0,44,0,463913510,63
i,1723651965.331678,10.0.2.15,22,10.0.2.2,50504,1073725440,17674,1026,65535,65700,0,0,4,1460,312,0,0,240000,33580,0,65700,0,0,0,463913510,63
o,1723651965.332782,10.0.2.15,22,10.0.2.2,50504,1073725440,17674,1026,65535,65700,0,0,4,1460,312,0,16777220,240000,33580,72,65700,0,0,0,463913510,63
i,1723651965.334457,10.0.2.15,22,10.0.2.2,50504,1073725440,17674,1026,65535,65700,0,0,4,1460,312,0,16777220,240000,33580,72,65700,0,72,0,463913510,63
i,1723651965.334478,10.0.2.15,22,10.0.2.2,50504,1073725440,17746,1026,65535,65700,0,0,4,1460,312,0,4,240000,33580,0,65700,0,0,0,463913510,63
o,1723651965.372946,10.0.2.15,22,10.0.2.2,50504,1073725440,17746,1026,65535,65700,0,0,4,1460,312,0,5,240000,33580,0,65700,0,0,0,463913510,63
o,1723651965.460271,172.16.3.2,62120,172.16.1.2,5101,14362,14480,34,65535,65700,6,6,4,1460,268125,1,16778209,860000,33580,0,65700,0,0,0,1471504617,63
o,1723651965.460574,172.16.3.2,62120,172.16.1.2,5101,14362,14480,34,65535,65700,6,6,4,1460,268125,1,16778212,860000,33580,37,65700,0,0,0,1471504617,63
i,1723651965.589738,172.16.3.2,62120,172.16.1.2,5101,14362,14480,34,65535,65700,6,6,4,1460,268125,1,16778212,860000,33580,37,65700,0,37,0,1471504617,63
o,1723651965.590288,172.16.3.2,62120,172.16.1.2,5101,14362,14480,1058,65728,65728,6,6,4,1460,249687,1,16778212,890000,33580,4,65700,0,0,0,1471504617,63
o,1723651965.590445,172.16.3.2,62120,172.16.1.2,5101,14362,14480,1058,65728,65728,6,6,4,1460,249687,1,16778212,890000,33580,130,65700,0,4,0,1471504617,63
i,1723651965.728355,172.16.3.2,62120,172.16.1.2,5101,14362,14480,1058,65728,65728,6,6,4,1460,249687,1,16778212,890000,33580,130,65700,0,130,0,1471504617,63
i,1723651965.728926,172.16.3.2,62120,172.16.1.2,5101,14362,14480,1058,65600,65728,6,6,4,1460,236250,1,996,880000,33580,0,65700,0,0,0,1471504617,63
o,1723651965.793906,172.16.3.2,62120,172.16.1.2,5101,14362,14480,1058,65728,65728,6,6,4,1460,236250,1,997,880000,33580,0,65700,0,0,0,1471504617,63
o,1723651965.839103,172.16.3.2,30848,172.16.1.2,5101,14362,14480,34,65535,65700,6,6,4,1460,266875,1,16778209,870000,33580,0,65700,0,0,0,3081664612,63
o,1723651965.839229,172.16.3.2,30848,172.16.1.2,5101,14362,14480,34,65535,65700,6,6,4,1460,266875,1,16778208,870000,33580,37,65700,0,0,0,3081664612,63
i,1723651965.959750,172.16.3.2,62120,172.16.1.2,5101,14362,14480,1058,65728,65728,6,6,4,1460,236250,1,996,880000,33580,0,65700,0,0,0,1471504617,63
i,1723651965.959809,172.16.3.2,62120,172.16.1.2,5101,14362,14480,1058,65728,65728,6,6,4,1460,236250,1,996,880000,33580,0,65700,1,0,0,1471504617,63
o,1723651965.959835,172.16.3.2,62120,172.16.1.2,5101,14362,14480,1058,65728,65728,6,6,4,1460,236250,1,997,880000,33580,0,65700,2,0,0,1471504617,63
o,1723651965.960322,172.16.3.2,30848,172.16.1.2,5101,14362,14480,38,65535,65700,6,6,4,1460,266875,1,16778208,870000,33580,33580,65700,0,37,0,3081664612,63
i,1723651965.994034,172.16.3.2,30848,172.16.1.2,5101,14362,14480,38,65535,65700,6,6,4,1460,266875,1,16778208,870000,33580,33580,65700,0,13069,0,3081664612,63
o,1723651965.994151,172.16.3.2,30848,172.16.1.2,5101,14362,14480,34,65728,65728,6,6,4,1460,253750,1,16778208,860000,33580,33543,65700,0,13032,0,3081664612,63
i,1723651966.048440,172.16.3.2,30848,172.16.1.2,5101,14362,14480,34,65728,65728,6,6,4,1460,253750,1,16778208,860000,33580,33543,65700,0,14480,0,3081664612,63
o,1723651966.048479,172.16.3.2,30848,172.16.1.2,5101,14362,14480,38,62848,65728,6,6,4,1460,233437,1,16778208,900000,33580,30647,65700,0,11584,0,3081664612,63
i,1723651966.082002,172.16.3.2,30848,172.16.1.2,5101,14362,14480,38,62848,65728,6,6,4,1460,233437,1,16778208,900000,33580,33580,65700,0,14480,0,3081664612,63
o,1723651966.082262,172.16.3.2,30848,172.16.1.2,5101,14362,14480,38,64256,65728,6,6,4,1460,219375,1,16778208,880000,33580,30684,65700,0,11584,0,3081664612,63
i,1723651966.083702,172.16.3.2,30848,172.16.1.2,5101,14362,14480,38,64256,65728,6,6,4,1460,219375,1,16778208,880000,33580,30684,65700,0,14480,0,3081664612,63
o,1723651966.083809,172.16.3.2,30848,172.16.1.2,5101,14362,14480,38,64256,65728,6,6,4,1460,208437,1,16778208,840000,33580,27788,65700,0,11584,0,3081664612,63
i,1723651966.084224,172.16.3.2,30848,172.16.1.2,5101,14362,14480,38,64256,65728,6,6,4,1460,208437,1,16778208,840000,33580,27788,65700,0,14480,0,3081664612,63
o,1723651966.084298,172.16.3.2,30848,172.16.1.2,5101,14362,14480,38,62848,65728,6,6,4,1460,198750,1,16778208,800000,33580,24892,65700,0,11584,0,3081664612,63
i,1723651966.118768,172.16.3.2,30848,172.16.1.2,5101,14362,14480,38,62848,65728,6,6,4,1460,198750,1,16778208,800000,33580,33580,65700,0,14480,0,3081664612,63
o,1723651966.118895,172.16.3.2,30848,172.16.1.2,5101,14362,15940,38,64256,65728,6,6,4,1460,194062,1,16778208,730000,33580,30684,65700,0,11584,0,3081664612,63
o,1723651966.119165,172.16.3.2,30848,172.16.1.2,5101,14362,15940,38,64256,65728,6,6,4,1460,194062,1,16778208,730000,33580,30684,65700,0,13032,0,3081664612,63
i,1723651966.178901,172.16.3.2,30848,172.16.1.2,5101,14362,15940,38,64256,65728,6,6,4,1460,194062,1,16778208,730000,41772,41772,65700,0,15928,0,3081664612,63
o,1723651966.178939,172.16.3.2,30848,172.16.1.2,5101,14362,15940,38,62848,65728,6,6,4,1460,186250,1,16778208,700000,41772,38876,65700,0,13032,0,3081664612,63
i,1723651966.180749,172.16.3.2,30848,172.16.1.2,5101,14362,15940,38,62848,65728,6,6,4,1460,186250,1,16778208,700000,41772,41772,65700,0,15928,0,3081664612,63
o,1723651966.180847,172.16.3.2,30848,172.16.1.2,5101,14362,15940,38,62848,65728,6,6,4,1460,174375,1,16778208,710000,41772,38876,65700,0,13032,0,3081664612,63
i,1723651966.209907,172.16.3.2,30848,172.16.1.2,5101,14362,15940,38,62848,65728,6,6,4,1460,174375,1,16778208,710000,41772,41772,65700,0,15928,0,3081664612,63
o,1723651966.209996,172.16.3.2,30848,172.16.1.2,5101,14362,15940,38,64256,65728,6,6,4,1460,167812,1,16778208,670000,41772,38876,65700,0,13032,0,3081664612,63
i,1723651966.221029,172.16.3.2,30848,172.16.1.2,5101,14362,15940,38,64256,65728,6,6,4,1460,167812,1,16778208,670000,41772,41772,65700,0,15928,0,3081664612,63
o,1723651966.221067,172.16.3.2,30848,172.16.1.2,5101,14362,15940,38,62848,65728,6,6,4,1460,163125,1,16778208,630000,41772,38876,65700,0,13032,0,3081664612,63
i,1723651966.250105,172.16.3.2,30848,172.16.1.2,5101,14362,15940,38,62848,65728,6,6,4,1460,163125,1,16778208,630000,41772,41772,65700,0,15928,0,3081664612,63
o,1723651966.250193,172.16.3.2,30848,172.16.1.2,5101,14362,15940,38,64256,65728,6,6,4,1460,159062,1,16778208,590000,41772,38876,65700,0,13032,0,3081664612,63
o,1723651966.250359,172.16.3.2,30848,172.16.1.2,5101,14362,15940,38,64256,65728,6,6,4,1460,159062,1,16778208,590000,41772,38876,65700,0,14480,0,3081664612,63
i,1723651966.278832,172.16.3.2,30848,172.16.1.2,5101,14362,15940,38,64256,65728,6,6,4,1460,159062,1,16778208,590000,41772,41772,65700,0,15928,0,3081664612,63
o,1723651966.278954,172.16.3.2,30848,172.16.1.2,5101,14362,17400,38,65728,65728,6,6,4,1460,159375,1,16778208,530000,41772,40324,65700,0,14480,0,3081664612,63
i,1723651966.311014,172.16.3.2,30848,172.16.1.2,5101,14362,17400,38,65728,65728,6,6,4,1460,159375,1,16778208,530000,41772,40324,65700,0,17376,0,3081664612,63
o,1723651966.311137,172.16.3.2,30848,172.16.1.2,5101,14362,17400,38,64256,65728,6,6,4,1460,155937,1,16778208,510000,41772,37428,65700,0,14480,0,3081664612,63
i,1723651966.312904,172.16.3.2,30848,172.16.1.2,5101,14362,17400,38,64256,65728,6,6,4,1460,155937,1,16778208,510000,41772,41772,65700,0,17376,0,3081664612,63
o,1723651966.312975,172.16.3.2,30848,172.16.1.2,5101,14362,17400,38,62848,65728,6,6,4,1460,154062,1,16778208,490000,41772,38876,65700,0,14480,0,3081664612,63
i,1723651966.338117,172.16.3.2,30848,172.16.1.2,5101,14362,17400,38,62848,65728,6,6,4,1460,154062,1,16778208,490000,41772,41772,65700,0,17376,0,3081664612,63
o,1723651966.338149,172.16.3.2,30848,172.16.1.2,5101,14362,17400,38,62848,65728,6,6,4,1460,151250,1,16778208,470000,41772,38876,65700,0,14480,0,3081664612,63
i,1723651966.339560,172.16.3.2,30848,172.16.1.2,5101,14362,17400,38,62848,65728,6,6,4,1460,151250,1,16778208,470000,41772,41772,65700,0,17376,0,3081664612,63
o,1723651966.339595,172.16.3.2,30848,172.16.1.2,5101,14362,17400,38,62848,65728,6,6,4,1460,147500,1,16778208,470000,41772,38876,65700,0,14480,0,3081664612,63
i,1723651966.380720,172.16.3.2,30848,172.16.1.2,5101,14362,17400,38,62848,65728,6,6,4,1460,147500,1,16778208,470000,41772,41772,65700,0,17376,0,3081664612,63
o,1723651966.380808,172.16.3.2,30848,172.16.1.2,5101,14362,17400,38,64256,65728,6,6,4,1460,144062,1,16778208,460000,41772,38876,65700,0,14480,0,3081664612,63
o,1723651966.381022,172.16.3.2,30848,172.16.1.2,5101,14362,17400,38,64256,65728,6,6,4,1460,144062,1,16778208,460000,41772,38876,65700,0,15928,0,3081664612,63
i,1723651966.400004,172.16.3.2,30848,172.16.1.2,5101,14362,17400,38,64256,65728,6,6,4,1460,144062,1,16778208,460000,41772,41772,65700,0,17376,0,3081664612,63
o,1723651966.400038,172.16.3.2,30848,172.16.1.2,5101,14362,18860,38,64256,65728,6,6,4,1460,140000,1,16778208,460000,41772,38876,65700,0,14480,0,3081664612,63
i,1723651966.434934,172.16.3.2,30848,172.16.1.2,5101,14362,18860,38,64256,65728,6,6,4,1460,140000,1,16778208,460000,41772,41772,65700,0,18824,0,3081664612,63
o,1723651966.435088,172.16.3.2,30848,172.16.1.2,5101,14362,18860,38,62848,65728,6,6,4,1460,138750,1,16778208,440000,41772,38876,65700,0,15928,0,3081664612,63
i,1723651966.437956,172.16.3.2,30848,172.16.1.2,5101,14362,18860,38,62848,65728,6,6,4,1460,138750,1,16778208,440000,41772,41772,65700,0,18824,0,3081664612,63
o,1723651966.437990,172.16.3.2,30848,172.16.1.2,5101,14362,18860,38,62848,65728,6,6,4,1460,136562,1,16778208,430000,41772,38876,65700,0,15928,0,3081664612,63
i,1723651966.465933,172.16.3.2,30848,172.16.1.2,5101,14362,18860,38,62848,65728,6,6,4,1460,136562,1,16778208,430000,41772,41772,65700,0,18824,0,3081664612,63
o,1723651966.466030,172.16.3.2,30848,172.16.1.2,5101,14362,18860,38,62848,65728,6,6,4,1460,134687,1,16778208,420000,41772,38876,65700,0,15928,0,3081664612,63
i,1723651966.467656,172.16.3.2,30848,172.16.1.2,5101,14362,18860,38,62848,65728,6,6,4,1460,134687,1,16778208,420000,41772,41772,65700,0,18824,0,3081664612,63
o,1723651966.467677,172.16.3.2,30848,172.16.1.2,5101,14362,18860,38,64256,65728,6,6,4,1460,133125,1,16778208,410000,41772,38876,65700,0,15928,0,3081664612,63
i,1723651966.499165,172.16.3.2,30848,172.16.1.2,5101,14362,18860,38,64256,65728,6,6,4,1460,133125,1,16778208,410000,41772,41772,65700,0,18824,0,3081664612,63
o,1723651966.499252,172.16.3.2,30848,172.16.1.2,5101,14362,18860,38,62848,65728,6,6,4,1460,131562,1,16778208,400000,41772,38876,65700,0,15928,0,3081664612,63
o,1723651966.499405,172.16.3.2,30848,172.16.1.2,5101,14362,18860,38,62848,65728,6,6,4,1460,131562,1,16778208,400000,41772,38876,65700,0,17376,0,3081664612,63
i,1723651966.528225,172.16.3.2,30848,172.16.1.2,5101,14362,18860,38,62848,65728,6,6,4,1460,131562,1,16778208,400000,41772,41772,65700,0,18824,0,3081664612,63
o,1723651966.528350,172.16.3.2,30848,172.16.1.2,5101,14362,18860,38,62848,65728,6,6,4,1460,131562,1,16778208,380000,41772,38876,65700,0,15928,0,3081664612,63
i,1723651966.558751,172.16.3.2,30848,172.16.1.2,5101,14362,18860,38,62848,65728,6,6,4,1460,131562,1,16778208,380000,41772,41772,65700,0,18824,0,3081664612,63
o,1723651966.558799,172.16.3.2,30848,172.16.1.2,5101,14362,20320,38,64256,65728,6,6,4,1460,135312,1,16778208,400000,41772,38876,65700,0,15928,0,3081664612,63
i,1723651966.558977,172.16.3.2,30848,172.16.1.2,5101,14362,20320,38,64256,65728,6,6,4,1460,135312,1,16778208,400000,49964,38876,65700,0,20272,0,3081664612,63
o,1723651966.559003,172.16.3.2,30848,172.16.1.2,5101,14362,20320,38,64256,65728,6,6,4,1460,133437,1,16778208,400000,49964,35980,65700,0,17376,0,3081664612,63
i,1723651966.578646,172.16.3.2,30848,172.16.1.2,5101,14362,20320,38,64256,65728,6,6,4,1460,133437,1,16778208,400000,49964,49964,65700,0,20272,0,3081664612,63
o,1723651966.578682,172.16.3.2,30848,172.16.1.2,5101,14362,20320,38,64256,65728,6,6,4,1460,134375,1,16778208,390000,49964,47068,65700,0,17376,0,3081664612,63
i,1723651966.579793,172.16.3.2,30848,172.16.1.2,5101,14362,20320,38,64256,65728,6,6,4,1460,134375,1,16778208,390000,49964,49964,65700,0,20272,0,3081664612,63
o,1723651966.579819,172.16.3.2,30848,172.16.1.2,5101,14362,20320,38,64256,65728,6,6,4,1460,131562,1,16778208,390000,49964,47068,65700,0,17376,0,3081664612,63
i,1723651966.628719,172.16.3.2,30848,172.16.1.2,5101,14362,20320,38,64256,65728,6,6,4,1460,131562,1,16778208,390000,49964,49964,65700,0,20272,0,3081664612,63
o,1723651966.628757,172.16.3.2,30848,172.16.1.2,5101,14362,20320,38,64256,65728,6,6,4,1460,135312,1,16778208,410000,49964,47068,65700,0,17376,0,3081664612,63
o,1723651966.628918,172.16.3.2,30848,172.16.1.2,5101,14362,20320,38,64256,65728,6,6,4,1460,135312,1,16778208,410000,49964,47068,65700,0,18824,0,3081664612,63
i,1723651966.630161,172.16.3.2,30848,172.16.1.2,5101,14362,20320,38,64256,65728,6,6,4,1460,135312,1,16778208,410000,49964,49964,65700,0,20272,0,3081664612,63
o,1723651966.630190,172.16.3.2,30848,172.16.1.2,5101,14362,20320,38,64256,65728,6,6,4,1460,134687,1,16778208,400000,49964,47068,65700,0,17376,0,3081664612,63
i,1723651966.661367,172.16.3.2,30848,172.16.1.2,5101,14362,20320,38,64256,65728,6,6,4,1460,134687,1,16778208,400000,49964,48536,65700,0,20272,0,3081664612,63
o,1723651966.661402,172.16.3.2,30848,172.16.1.2,5101,14362,20320,38,65728,65728,6,6,4,1460,134375,1,16778208,380000,49964,47088,65700,0,18824,0,3081664612,63
i,1723651966.662623,172.16.3.2,30848,172.16.1.2,5101,14362,20320,38,65728,65728,6,6,4,1460,134375,1,16778208,380000,49964,49964,65700,0,20272,0,3081664612,63
o,1723651966.662647,172.16.3.2,30848,172.16.1.2,5101,14362,20320,38,62848,65728,6,6,4,1460,131562,1,16778208,390000,49964,47068,65700,0,17376,0,3081664612,63
i,1723651966.692433,172.16.3.2,30848,172.16.1.2,5101,14362,20320,38,62848,65728,6,6,4,1460,131562,1,16778208,390000,49964,49964,65700,0,20272,0,3081664612,63
o,1723651966.692474,172.16.3.2,30848,172.16.1.2,5101,14362,21780,38,64256,65728,6,6,4,1460,131562,1,16778208,380000,49964,47068,65700,0,17376,0,3081664612,63
i,1723651966.694306,172.16.3.2,30848,172.16.1.2,5101,14362,21780,38,64256,65728,6,6,4,1460,131562,1,16778208,380000,49964,49964,65700,0,21720,0,3081664612,63
o,1723651966.694329,172.16.3.2,30848,172.16.1.2,5101,14362,21780,38,64256,65728,6,6,4,1460,131562,1,16778208,360000,49964,47068,65700,0,18824,0,3081664612,63
i,1723651966.698204,172.16.3.2,30848,172.16.1.2,5101,14362,21780,38,64256,65728,6,6,4,1460,131562,1,16778208,360000,49964,49964,65700,0,21720,0,3081664612,63
o,1723651966.698224,172.16.3.2,30848,172.16.1.2,5101,14362,21780,38,62848,65728,6,6,4,1460,129062,1,16778208,370000,49964,47068,65700,0,18824,0,3081664612,63
i,1723651966.728133,172.16.3.2,30848,172.16.1.2,5101,14362,21780,38,62848,65728,6,6,4,1460,129062,1,16778208,370000,49964,49964,65700,0,21720,0,3081664612,63
o,1723651966.728415,172.16.3.2,30848,172.16.1.2,5101,14362,21780,38,65728,65728,6,6,4,1460,131875,1,16778208,390000,49964,48516,65700,0,20272,0,3081664612,63
i,1723651966.739545,172.16.3.2,30848,172.16.1.2,5101,14362,21780,38,65728,65728,6,6,4,1460,131875,1,16778208,390000,49964,48516,65700,0,21720,0,3081664612,63
o,1723651966.739588,172.16.3.2,30848,172.16.1.2,5101,14362,21780,38,62848,65728,6,6,4,1460,128125,1,16778208,400000,49964,45620,65700,0,18824,0,3081664612,63
o,1723651966.739734,172.16.3.2,30848,172.16.1.2,5101,14362,21780,38,62848,65728,6,6,4,1460,128125,1,16778208,400000,49964,45620,65700,0,20272,0,3081664612,63
i,1723651966.740858,172.16.3.2,30848,172.16.1.2,5101,14362,21780,38,62848,65728,6,6,4,1460,128125,1,16778208,400000,49964,49964,65700,0,21720,0,3081664612,63
o,1723651966.740946,172.16.3.2,30848,172.16.1.2,5101,14362,21780,38,64256,65728,6,6,4,1460,124687,1,16778208,400000,49964,47068,65700,0,18824,0,3081664612,63
i,1723651966.768730,172.16.3.2,30848,172.16.1.2,5101,14362,21780,38,64256,65728,6,6,4,1460,124687,1,16778208,400000,49964,49964,65700,0,21720,0,3081664612,63
o,1723651966.768875,172.16.3.2,30848,172.16.1.2,5101,14362,21780,38,64256,65728,6,6,4,1460,123125,1,16778208,400000,49964,47068,65700,0,18824,0,3081664612,63
i,1723651966.789072,172.16.3.2,30848,172.16.1.2,5101,14362,21780,38,64256,65728,6,6,4,1460,123125,1,16778208,400000,49964,49964,65700,0,21720,0,3081664612,63
o,1723651966.789126,172.16.3.2,30848,172.16.1.2,5101,14362,21780,38,64256,65728,6,6,4,1460,122812,1,16778208,380000,49964,47068,65700,0,18824,0,3081664612,63
i,1723651966.789327,172.16.3.2,30848,172.16.1.2,5101,14362,21780,38,64256,65728,6,6,4,1460,122812,1,16778208,380000,49964,47068,65700,0,21720,0,3081664612,63
o,1723651966.789351,172.16.3.2,30848,172.16.1.2,5101,14362,23240,38,64256,65728,6,6,4,1460,118750,1,16778208,390000,49964,44172,65700,0,18824,0,3081664612,63
i,1723651966.808730,172.16.3.2,30848,172.16.1.2,5101,14362,23240,38,64256,65728,6,6,4,1460,118750,1,16778208,390000,58156,58156,65700,0,23168,0,3081664612,63
o,1723651966.808769,172.16.3.2,30848,172.16.1.2,5101,14362,23240,38,64256,65728,6,6,4,1460,117812,1,16778208,380000,58156,55260,65700,0,20272,0,3081664612,63
i,1723651966.837115,172.16.3.2,30848,172.16.1.2,5101,14362,23240,38,64256,65728,6,6,4,1460,117812,1,16778208,380000,58156,58156,65700,0,23168,0,3081664612,63
o,1723651966.837166,172.16.3.2,30848,172.16.1.2,5101,14362,23240,38,62848,65728,6,6,4,1460,120625,1,16778208,390000,58156,55260,65700,0,20272,0,3081664612,63
i,1723651966.868087,172.16.3.2,30848,172.16.1.2,5101,14362,23240,38,62848,65728,6,6,4,1460,120625,1,16778208,390000,58156,58156,65700,0,23168,0,3081664612,63
o,1723651966.868261,172.16.3.2,30848,172.16.1.2,5101,14362,23240,38,64256,65728,6,6,4,1460,121875,1,16778208,380000,58156,55260,65700,0,20272,0,3081664612,63
o,1723651966.868399,172.16.3.2,30848,172.16.1.2,5101,14362,23240,38,64256,65728,6,6,4,1460,121875,1,16778208,380000,58156,55260,65700,0,21720,0,3081664612,63
i,1723651966.878771,172.16.3.2,30848,172.16.1.2,5101,14362,23240,38,64256,65728,6,6,4,1460,121875,1,16778208,380000,58156,58156,65700,0,23168,0,3081664612,63
o,1723651966.878803,172.16.3.2,30848,172.16.1.2,5101,14362,23240,38,64256,65728,6,6,4,1460,124375,1,16778208,390000,58156,55260,65700,0,20272,0,3081664612,63
i,1723651966.899610,172.16.3.2,30848,172.16.1.2,5101,14362,23240,38,64256,65728,6,6,4,1460,124375,1,16778208,390000,58156,58156,65700,0,23168,0,3081664612,63
o,1723651966.899656,172.16.3.2,30848,172.16.1.2,5101,14362,23240,38,65728,65728,6,6,4,1460,129062,1,16778208,420000,58156,56708,65700,0,21720,0,3081664612,63
i,1723651966.900599,172.16.3.2,30848,172.16.1.2,5101,14362,23240,38,65728,65728,6,6,4,1460,129062,1,16778208,420000,58156,56708,65700,0,23168,0,3081664612,63
o,1723651966.900664,172.16.3.2,30848,172.16.1.2,5101,14362,23240,38,62848,65728,6,6,4,1460,128125,1,16778208,400000,58156,53812,65700,0,20272,0,3081664612,63
i,1723651966.928843,172.16.3.2,30848,172.16.1.2,5101,14362,23240,38,62848,65728,6,6,4,1460,128125,1,16778208,400000,58156,58156,65700,0,23168,0,3081664612,63
o,1723651966.928883,172.16.3.2,30848,172.16.1.2,5101,14362,23240,38,62848,65728,6,6,4,1460,129687,1,16778208,400000,58156,55260,65700,0,20272,0,3081664612,63
i,1723651966.929696,172.16.3.2,30848,172.16.1.2,5101,14362,23240,38,62848,65728,6,6,4,1460,129687,1,16778208,400000,58156,58156,65700,0,23168,0,3081664612,63
o,1723651966.929717,172.16.3.2,30848,172.16.1.2,5101,14362,24700,38,59968,65728,6,6,4,1460,131250,1,16778208,390000,58156,55260,65700,0,20272,0,3081664612,63
i,1723651966.946283,172.16.3.2,30848,172.16.1.2,5101,14362,24700,38,59968,65728,6,6,4,1460,131250,1,16778208,390000,58156,58156,65700,0,24616,0,3081664612,63
o,1723651966.946322,172.16.3.2,30848,172.16.1.2,5101,14362,24700,38,57088,65728,6,6,4,1460,135000,1,16778208,410000,58156,55260,65700,0,21720,0,3081664612,63
i,1723651966.971024,172.16.3.2,30848,172.16.1.2,5101,14362,24700,38,57088,65728,6,6,4,1460,135000,1,16778208,410000,58156,58156,65700,0,24616,0,3081664612,63
o,1723651966.971072,172.16.3.2,30848,172.16.1.2,5101,14362,24700,38,64256,65728,6,6,4,1460,138125,1,16778208,420000,58156,55260,65700,0,21720,0,3081664612,63
i,1723651967.018430,172.16.3.2,30848,172.16.1.2,5101,14362,24700,38,64256,65728,6,6,4,1460,138125,1,16778208,420000,58156,58156,65700,0,24616,0,3081664612,63
o,1723651967.018548,172.16.3.2,30848,172.16.1.2,5101,14362,24700,38,64256,65728,6,6,4,1460,142187,1,16778208,440000,58156,55260,65700,0,21720,0,3081664612,63
o,1723651967.018792,172.16.3.2,30848,172.16.1.2,5101,14362,24700,38,64256,65728,6,6,4,1460,142187,1,16778208,440000,58156,55260,65700,0,23168,0,3081664612,63
i,1723651967.021095,172.16.3.2,30848,172.16.1.2,5101,14362,24700,38,64256,65728,6,6,4,1460,142187,1,16778208,440000,58156,58156,65700,0,24616,0,3081664612,63
o,1723651967.021141,172.16.3.2,30848,172.16.1.2,5101,14362,24700,38,64256,65728,6,6,4,1460,143437,1,16778208,420000,58156,55260,65700,0,21720,0,3081664612,63
i,1723651967.053451,172.16.3.2,30848,172.16.1.2,5101,14362,24700,38,64256,65728,6,6,4,1460,143437,1,16778208,420000,58156,58156,65700,0,24616,0,3081664612,63
o,1723651967.053485,172.16.3.2,30848,172.16.1.2,5101,14362,24700,38,64256,65728,6,6,4,1460,146875,1,16778208,430000,58156,55260,65700,0,21720,0,3081664612,63
i,1723651967.058195,172.16.3.2,30848,172.16.1.2,5101,14362,24700,38,64256,65728,6,6,4,1460,146875,1,16778208,430000,58156,58156,65700,0,24616,0,3081664612,63
o,1723651967.058225,172.16.3.2,30848,172.16.1.2,5101,14362,24700,38,64256,65728,6,6,4,1460,148750,1,16778208,430000,58156,55260,65700,0,21720,0,3081664612,63
i,1723651967.058394,172.16.3.2,30848,172.16.1.2,5101,14362,24700,38,64256,65728,6,6,4,1460,148750,1,16778208,430000,58156,55260,65700,0,24616,0,3081664612,63
o,1723651967.058412,172.16.3.2,30848,172.16.1.2,5101,14362,24700,38,62848,65728,6,6,4,1460,146562,1,16778208,420000,58156,52364,65700,0,21720,0,3081664612,63
i,1723651967.059770,172.16.3.2,30848,172.16.1.2,5101,14362,24700,38,62848,65728,6,6,4,1460,146562,1,16778208,420000,58156,58156,65700,0,24616,0,3081664612,63
o,1723651967.059857,172.16.3.2,30848,172.16.1.2,5101,14362,24700,38,64256,65728,6,6,4,1460,144687,1,16778208,420000,58156,55260,65700,0,21720,0,3081664612,63
i,1723651967.091021,172.16.3.2,30848,172.16.1.2,5101,14362,24700,38,64256,65728,6,6,4,1460,144687,1,16778208,420000,58156,58156,65700,0,24616,0,3081664612,63
o,1723651967.091070,172.16.3.2,30848,172.16.1.2,5101,14362,26160,38,64256,65728,6,6,4,1460,146875,1,16778208,420000,58156,55260,65700,0,21720,0,3081664612,63
i,1723651967.108185,172.16.3.2,30848,172.16.1.2,5101,14362,26160,38,64256,65728,6,6,4,1460,146875,1,16778208,420000,58156,58156,65700,0,26064,0,3081664612,63
o,1723651967.108337,172.16.3.2,30848,172.16.1.2,5101,14362,26160,38,65728,65728,6,6,4,1460,148750,1,16778208,420000,58156,56708,65700,0,24616,0,3081664612,63
i,1723651967.108578,172.16.3.2,30848,172.16.1.2,5101,14362,26160,38,65728,65728,6,6,4,1460,148750,1,16778208,420000,58156,56708,65700,0,26064,0,3081664612,63
o,1723651967.108629,172.16.3.2,30848,172.16.1.2,5101,14362,26160,38,64256,65728,6,6,4,1460,146562,1,16778208,420000,58156,53812,65700,0,23168,0,3081664612,63
i,1723651967.139162,172.16.3.2,30848,172.16.1.2,5101,14362,26160,38,64256,65728,6,6,4,1460,146562,1,16778208,420000,58156,58156,65700,0,26064,0,3081664612,63
o,1723651967.139341,172.16.3.2,30848,172.16.1.2,5101,14362,26160,38,62848,65728,6,6,4,1460,143437,1,16778208,420000,58156,55260,65700,0,23168,0,3081664612,63
o,1723651967.139527,172.16.3.2,30848,172.16.1.2,5101,14362,26160,38,62848,65728,6,6,4,1460,143437,1,16778208,420000,58156,55260,65700,0,24616,0,3081664612,63
i,1723651967.147903,172.16.3.2,30848,172.16.1.2,5101,14362,26160,38,62848,65728,6,6,4,1460,143437,1,16778208,420000,58156,58156,65700,0,26064,0,3081664612,63
o,1723651967.147938,172.16.3.2,30848,172.16.1.2,5101,14362,26160,38,62848,65728,6,6,4,1460,141875,1,16778208,410000,58156,55260,65700,0,23168,0,3081664612,63
i,1723651967.167536,172.16.3.2,30848,172.16.1.2,5101,14362,26160,38,62848,65728,6,6,4,1460,141875,1,16778208,410000,58156,58156,65700,0,26064,0,3081664612,63
o,1723651967.167585,172.16.3.2,30848,172.16.1.2,5101,14362,26160,38,62848,65728,6,6,4,1460,138125,1,16778208,420000,58156,55260,65700,0,23168,0,3081664612,63
i,1723651967.168564,172.16.3.2,30848,172.16.1.2,5101,14362,26160,38,62848,65728,6,6,4,1460,138125,1,16778208,420000,58156,58156,65700,0,26064,0,3081664612,63
o,1723651967.168590,172.16.3.2,30848,172.16.1.2,5101,14362,26160,38,62848,65728,6,6,4,1460,134687,1,16778208,420000,58156,55260,65700,0,23168,0,3081664612,63
i,1723651967.196601,172.16.3.2,30848,172.16.1.2,5101,14362,26160,38,62848,65728,6,6,4,1460,134687,1,16778208,420000,58156,58156,65700,0,26064,0,3081664612,63
o,1723651967.196759,172.16.3.2,30848,172.16.1.2,5101,14362,26160,38,64256,65728,6,6,4,1460,135625,1,16778208,410000,58156,55260,65700,0,23168,0,3081664612,63
i,1723651967.197192,172.16.3.2,30848,172.16.1.2,5101,14362,26160,38,64256,65728,6,6,4,1460,135625,1,16778208,410000,58156,55260,65700,0,26064,0,3081664612,63
o,1723651967.197285,172.16.3.2,30848,172.16.1.2,5101,14362,26160,38,64256,65728,6,6,4,1460,136250,1,16778208,400000,58156,52364,65700,0,23168,0,3081664612,63
i,1723651967.208172,172.16.3.2,30848,172.16.1.2,5101,14362,26160,38,64256,65728,6,6,4,1460,136250,1,16778208,400000,58156,58156,65700,0,26064,0,3081664612,63
o,1723651967.208218,172.16.3.2,30848,172.16.1.2,5101,14362,27620,38,62848,65728,6,6,4,1460,134375,1,16778208,390000,58156,55260,65700,0,23168,0,3081664612,63
i,1723651967.229853,172.16.3.2,30848,172.16.1.2,5101,14362,27620,38,62848,65728,6,6,4,1460,134375,1,16778208,390000,58156,58156,65700,0,27512,0,3081664612,63
o,1723651967.229946,172.16.3.2,30848,172.16.1.2,5101,14362,27620,38,64256,65728,6,6,4,1460,135312,1,16778208,390000,58156,55260,65700,0,24616,0,3081664612,63
i,1723651967.230131,172.16.3.2,30848,172.16.1.2,5101,14362,27620,38,64256,65728,6,6,4,1460,135312,1,16778208,390000,58156,55260,65700,0,27512,0,3081664612,63
o,1723651967.230149,172.16.3.2,30848,172.16.1.2,5101,14362,27620,38,62848,65728,6,6,4,1460,133437,1,16778208,390000,58156,52364,65700,0,24616,0,3081664612,63
i,1723651967.257975,172.16.3.2,30848,172.16.1.2,5101,14362,27620,38,62848,65728,6,6,4,1460,133437,1,16778208,390000,66348,66348,65700,0,27512,0,3081664612,63
o,1723651967.258058,172.16.3.2,30848,172.16.1.2,5101,14362,27620,38,64256,65728,6,6,4,1460,131875,1,16778208,380000,66348,63452,65700,0,24616,0,3081664612,63
o,1723651967.259028,172.16.3.2,30848,172.16.1.2,5101,14362,27620,38,64256,65728,6,6,4,1460,131875,1,16778208,380000,66348,63452,65700,0,26064,0,3081664612,63
i,1723651967.280273,172.16.3.2,30848,172.16.1.2,5101,14362,27620,38,64256,65728,6,6,4,1460,131875,1,16778208,380000,66348,66348,65700,0,27512,0,3081664612,63
o,1723651967.280343,172.16.3.2,30848,172.16.1.2,5101,14362,27620,38,64256,65728,6,6,4,1460,131875,1,16778208,370000,66348,63452,65700,0,24616,0,3081664612,63
i,1723651967.282877,172.16.3.2,30848,172.16.1.2,5101,14362,27620,38,64256,65728,6,6,4,1460,131875,1,16778208,370000,66348,66348,65700,0,27512,0,3081664612,63
o,1723651967.282909,172.16.3.2,30848,172.16.1.2,5101,14362,27620,38,62848,65728,6,6,4,1460,130625,1,16778208,370000,66348,63452,65700,0,24616,0,3081664612,63
i,1723651967.283857,172.16.3.2,30848,172.16.1.2,5101,14362,27620,38,62848,65728,6,6,4,1460,130625,1,16778208,370000,66348,66348,65700,0,27512,0,3081664612,63
o,1723651967.283945,172.16.3.2,30848,172.16.1.2,5101,14362,27620,38,59968,65728,6,6,4,1460,129375,1,16778208,370000,66348,63452,65700,0,24616,0,3081664612,63
i,1723651967.288628,172.16.3.2,30848,172.16.1.2,5101,14362,27620,38,59968,65728,6,6,4,1460,129375,1,16778208,370000,66348,66348,65700,0,27512,0,3081664612,63
o,1723651967.288658,172.16.3.2,30848,172.16.1.2,5101,14362,27620,38,62848,65728,6,6,4,1460,123437,1,16778208,400000,66348,63452,65700,0,24616,0,3081664612,63
i,1723651967.319743,172.16.3.2,30848,172.16.1.2,5101,14362,27620,38,62848,65728,6,6,4,1460,123437,1,16778208,400000,66348,66348,65700,0,27512,0,3081664612,63
o,1723651967.320056,172.16.3.2,30848,172.16.1.2,5101,14362,27620,38,62848,65728,6,6,4,1460,123125,1,16778208,380000,66348,63452,65700,0,24616,0,3081664612,63
i,1723651967.329571,172.16.3.2,30848,172.16.1.2,5101,14362,27620,38,62848,65728,6,6,4,1460,123125,1,16778208,380000,66348,66348,65700,0,27512,0,3081664612,63
o,1723651967.329605,172.16.3.2,30848,172.16.1.2,5101,14362,27620,38,64256,65728,6,6,4,1460,122812,1,16778208,370000,66348,63452,65700,0,24616,0,3081664612,63
i,1723651967.352584,172.16.3.2,30848,172.16.1.2,5101,14362,27620,38,64256,65728,6,6,4,1460,122812,1,16778208,370000,66348,66348,65700,0,27512,0,3081664612,63
o,1723651967.352621,172.16.3.2,30848,172.16.1.2,5101,14362,29080,38,64256,65728,6,6,4,1460,126250,1,16778208,390000,66348,63452,65700,0,24616,0,3081664612,63
i,1723651967.352769,172.16.3.2,30848,172.16.1.2,5101,14362,29080,38,64256,65728,6,6,4,1460,126250,1,16778208,390000,66348,63452,65700,0,28960,0,3081664612,63
o,1723651967.352786,172.16.3.2,30848,172.16.1.2,5101,14362,29080,38,64256,65728,6,6,4,1460,126875,1,16778208,380000,66348,60556,65700,0,26064,0,3081664612,63
i,1723651967.404578,172.16.3.2,30848,172.16.1.2,5101,14362,29080,38,64256,65728,6,6,4,1460,126875,1,16778208,380000,66348,66348,65700,0,28960,0,3081664612,63
o,1723651967.404726,172.16.3.2,30848,172.16.1.2,5101,14362,29080,38,65728,65728,6,6,4,1460,133750,1,16778208,430000,66348,64900,65700,0,27512,0,3081664612,63
i,1723651967.406294,172.16.3.2,30848,172.16.1.2,5101,14362,29080,38,65728,65728,6,6,4,1460,133750,1,16778208,430000,66348,64900,65700,0,28960,0,3081664612,63
o,1723651967.406331,172.16.3.2,30848,172.16.1.2,5101,14362,29080,38,62848,65728,6,6,4,1460,134687,1,16778208,410000,66348,62004,65700,0,26064,0,3081664612,63
o,1723651967.406504,172.16.3.2,30848,172.16.1.2,5101,14362,29080,38,62848,65728,6,6,4,1460,134687,1,16778208,410000,66348,62004,65700,0,27512,0,3081664612,63
i,1723651967.408043,172.16.3.2,30848,172.16.1.2,5101,14362,29080,38,62848,65728,6,6,4,1460,134687,1,16778208,410000,66348,66348,65700,0,28960,0,3081664612,63
o,1723651967.408064,172.16.3.2,30848,172.16.1.2,5101,14362,29080,38,62848,65728,6,6,4,1460,134375,1,16778208,390000,66348,63452,65700,0,26064,0,3081664612,63
i,1723651967.418324,172.16.3.2,30848,172.16.1.2,5101,14362,29080,38,62848,65728,6,6,4,1460,134375,1,16778208,390000,66348,66348,65700,0,28960,0,3081664612,63
o,1723651967.418370,172.16.3.2,30848,172.16.1.2,5101,14362,29080,38,64256,65728,6,6,4,1460,134062,1,16778208,380000,66348,63452,65700,0,26064,0,3081664612,63
i,1723651967.418656,172.16.3.2,30848,172.16.1.2,5101,14362,29080,38,64256,65728,6,6,4,1460,134062,1,16778208,380000,66348,63452,65700,0,28960,0,3081664612,63
o,1723651967.418677,172.16.3.2,30848,172.16.1.2,5101,14362,29080,38,61376,65728,6,6,4,1460,133750,1,16778208,370000,66348,60556,65700,0,26064,0,3081664612,63
i,1723651967.420438,172.16.3.2,30848,172.16.1.2,5101,14362,29080,38,61376,65728,6,6,4,1460,133750,1,16778208,370000,66348,66348,65700,0,28960,0,3081664612,63
o,1723651967.420463,172.16.3.2,30848,172.16.1.2,5101,14362,29080,38,64256,65728,6,6,4,1460,133437,1,16778208,360000,66348,63452,65700,0,26064,0,3081664612,63
i,1723651967.444891,172.16.3.2,30848,172.16.1.2,5101,14362,29080,38,64256,65728,6,6,4,1460,133437,1,16778208,360000,66348,66348,65700,0,28960,0,3081664612,63
o,1723651967.444949,172.16.3.2,30848,172.16.1.2,5101,14362,29080,38,62848,65728,6,6,4,1460,131875,1,16778208,370000,66348,63452,65700,0,26064,0,3081664612,63
i,1723651967.458121,172.16.3.2,30848,172.16.1.2,5101,14362,29080,38,62848,65728,6,6,4,1460,131875,1,16778208,370000,66348,66348,65700,0,28960,0,3081664612,63
o,1723651967.458162,172.16.3.2,30848,172.16.1.2,5101,14362,29080,38,64256,65728,6,6,4,1460,131875,1,16778208,360000,66348,63452,65700,0,26064,0,3081664612,63
i,1723651967.459985,172.16.3.2,30848,172.16.1.2,5101,14362,29080,38,64256,65728,6,6,4,1460,131875,1,16778208,360000,66348,66348,65700,0,28960,0,3081664612,63
o,1723651967.460008,172.16.3.2,30848,172.16.1.2,5101,14362,30540,38,62848,65728,6,6,4,1460,128125,1,16778208,380000,66348,63452,65700,0,26064,0,3081664612,63
i,1723651967.460190,172.16.3.2,30848,172.16.1.2,5101,14362,30540,38,62848,65728,6,6,4,1460,128125,1,16778208,380000,66348,63452,65700,0,30408,0,3081664612,63
o,1723651967.460208,172.16.3.2,30848,172.16.1.2,5101,14362,30540,38,64256,65728,6,6,4,1460,124687,1,16778208,390000,66348,60556,65700,0,27512,0,3081664612,63
i,1723651967.499426,172.16.3.2,30848,172.16.1.2,5101,14362,30540,38,64256,65728,6,6,4,1460,124687,1,16778208,390000,74540,74540,65700,0,30408,0,3081664612,63
o,1723651967.499580,172.16.3.2,30848,172.16.1.2,5101,14362,30540,38,64256,65728,6,6,4,1460,126875,1,16778208,390000,74540,71644,65700,0,27512,0,3081664612,63
i,1723651967.499925,172.16.3.2,30848,172.16.1.2,5101,14362,30540,38,64256,65728,6,6,4,1460,126875,1,16778208,390000,74540,71644,65700,0,30408,0,3081664612,63
o,1723651967.499956,172.16.3.2,30848,172.16.1.2,5101,14362,30540,38,64256,65728,6,6,4,1460,122500,1,16778208,410000,74540,68748,65700,0,27512,0,3081664612,63
o,1723651967.500101,172.16.3.2,30848,172.16.1.2,5101,14362,30540,38,64256,65728,6,6,4,1460,122500,1,16778208,410000,74540,68748,65700,0,28960,0,3081664612,63
i,1723651967.527755,172.16.3.2,30848,172.16.1.2,5101,14362,30540,38,64256,65728,6,6,4,1460,122500,1,16778208,410000,74540,74540,65700,0,30408,0,3081664612,63
o,1723651967.527963,172.16.3.2,30848,172.16.1.2,5101,14362,30540,38,64256,65728,6,6,4,1460,122187,1,16778208,390000,74540,71644,65700,0,27512,0,3081664612,63
i,1723651967.537615,172.16.3.2,30848,172.16.1.2,5101,14362,30540,38,64256,65728,6,6,4,1460,122187,1,16778208,390000,74540,74540,65700,0,30408,0,3081664612,63
o,1723651967.537665,172.16.3.2,30848,172.16.1.2,5101,14362,30540,38,62848,65728,6,6,4,1460,122187,1,16778208,370000,74540,71644,65700,0,27512,0,3081664612,63
i,1723651967.537852,172.16.3.2,30848,172.16.1.2,5101,14362,30540,38,62848,65728,6,6,4,1460,122187,1,16778208,370000,74540,71644,65700,0,30408,0,3081664612,63
o,1723651967.537879,172.16.3.2,30848,172.16.1.2,5101,14362,30540,38,62848,65728,6,6,4,1460,122187,1,16778208,360000,74540,68748,65700,0,27512,0,3081664612,63
i,1723651967.539594,172.16.3.2,30848,172.16.1.2,5101,14362,30540,38,62848,65728,6,6,4,1460,122187,1,16778208,360000,74540,74540,65700,0,30408,0,3081664612,63
o,1723651967.539629,172.16.3.2,30848,172.16.1.2,5101,14362,30540,38,62848,65728,6,6,4,1460,122187,1,16778208,350000,74540,71644,65700,0,27512,0,3081664612,63
i,1723651967.570436,172.16.3.2,30848,172.16.1.2,5101,14362,30540,38,62848,65728,6,6,4,1460,122187,1,16778208,350000,74540,74540,65700,0,30408,0,3081664612,63
o,1723651967.570667,172.16.3.2,30848,172.16.1.2,5101,14362,30540,38,62848,65728,6,6,4,1460,120937,1,16778208,350000,74540,71644,65700,0,27512,0,3081664612,63
i,1723651967.601903,172.16.3.2,30848,172.16.1.2,5101,14362,30540,38,62848,65728,6,6,4,1460,120937,1,16778208,350000,74540,74540,65700,0,30408,0,3081664612,63
o,1723651967.602004,172.16.3.2,30848,172.16.1.2,5101,14362,30540,38,64256,65728,6,6,4,1460,123437,1,16778208,360000,74540,71644,65700,0,27512,0,3081664612,63
i,1723651967.603470,172.16.3.2,30848,172.16.1.2,5101,14362,30540,38,64256,65728,6,6,4,1460,123437,1,16778208,360000,74540,74540,65700,0,30408,0,3081664612,63
o,1723651967.603501,172.16.3.2,30848,172.16.1.2,5101,14362,30540,38,61376,65728,6,6,4,1460,125625,1,16778208,370000,74540,71644,65700,0,27512,0,3081664612,63
i,1723651967.603713,172.16.3.2,30848,172.16.1.2,5101,14362,30540,38,61376,65728,6,6,4,1460,125625,1,16778208,370000,74540,71644,65700,0,30408,0,3081664612,63
o,1723651967.603734,172.16.3.2,30848,172.16.1.2,5101,14362,32000,38,64256,65728,6,6,4,1460,127500,1,16778208,380000,74540,68748,65700,0,27512,0,3081664612,63
i,1723651967.646321,172.16.3.2,30848,172.16.1.2,5101,14362,32000,38,64256,65728,6,6,4,1460,127500,1,16778208,380000,74540,74540,65700,0,31856,0,3081664612,63
o,1723651967.646544,172.16.3.2,30848,172.16.1.2,5101,14362,32000,38,65728,65728,6,6,4,1460,135312,1,16778208,440000,74540,73092,65700,0,30408,0,3081664612,63
i,1723651967.647472,172.16.3.2,30848,172.16.1.2,5101,14362,32000,38,65728,65728,6,6,4,1460,135312,1,16778208,440000,74540,73092,65700,0,31856,0,3081664612,63
o,1723651967.647660,172.16.3.2,30848,172.16.1.2,5101,14362,32000,38,64256,65728,6,6,4,1460,135937,1,16778208,420000,74540,70196,65700,0,28960,0,3081664612,63
i,1723651967.648064,172.16.3.2,30848,172.16.1.2,5101,14362,32000,38,64256,65728,6,6,4,1460,135937,1,16778208,420000,74540,70196,65700,0,31856,0,3081664612,63
o,1723651967.648174,172.16.3.2,30848,172.16.1.2,5101,14362,32000,38,61376,65728,6,6,4,1460,136562,1,16778208,400000,74540,67300,65700,0,28960,0,3081664612,63
o,1723651967.648400,172.16.3.2,30848,172.16.1.2,5101,14362,32000,38,61376,65728,6,6,4,1460,136562,1,16778208,400000,74540,67300,65700,0,30408,0,3081664612,63
i,1723651967.648655,172.16.3.2,30848,172.16.1.2,5101,14362,32000,38,61376,65728,6,6,4,1460,136562,1,16778208,400000,74540,67300,65700,0,31856,0,3081664612,63
o,1723651967.648695,172.16.3.2,30848,172.16.1.2,5101,14362,32000,38,62848,65728,6,6,4,1460,133437,1,16778208,410000,74540,64404,65700,0,28960,0,3081664612,63
i,1723651967.672864,172.16.3.2,30848,172.16.1.2,5101,14362,32000,38,62848,65728,6,6,4,1460,133437,1,16778208,410000,74540,74540,65700,0,31856,0,3081664612,63
o,1723651967.672924,172.16.3.2,30848,172.16.1.2,5101,14362,32000,38,64256,65728,6,6,4,1460,133125,1,16778208,390000,74540,71644,65700,0,28960,0,3081664612,63
i,1723651967.673066,172.16.3.2,30848,172.16.1.2,5101,14362,32000,38,64256,65728,6,6,4,1460,133125,1,16778208,390000,74540,71644,65700,0,31856,0,3081664612,63
o,1723651967.673085,172.16.3.2,30848,172.16.1.2,5101,14362,32000,38,64256,65728,6,6,4,1460,132812,1,16778208,380000,74540,68748,65700,0,28960,0,3081664612,63
i,1723651967.674135,172.16.3.2,30848,172.16.1.2,5101,14362,32000,38,64256,65728,6,6,4,1460,132812,1,16778208,380000,74540,74540,65700,0,31856,0,3081664612,63
o,1723651967.674165,172.16.3.2,30848,172.16.1.2,5101,14362,32000,38,61376,65728,6,6,4,1460,132500,1,16778208,370000,74540,71644,65700,0,28960,0,3081664612,63
i,1723651967.720310,172.16.3.2,30848,172.16.1.2,5101,14362,32000,38,61376,65728,6,6,4,1460,132500,1,16778208,370000,74540,74540,65700,0,31856,0,3081664612,63
o,1723651967.720348,172.16.3.2,30848,172.16.1.2,5101,14362,32000,38,64256,65728,6,6,4,1460,134687,1,16778208,380000,74540,71644,65700,0,28960,0,3081664612,63
i,1723651967.720481,172.16.3.2,30848,172.16.1.2,5101,14362,32000,38,64256,65728,6,6,4,1460,134687,1,16778208,380000,74540,71644,65700,0,31856,0,3081664612,63
o,1723651967.720498,172.16.3.2,30848,172.16.1.2,5101,14362,32000,38,62848,65728,6,6,4,1460,133125,1,16778208,380000,74540,68748,65700,0,28960,0,3081664612,63
i,1723651967.734747,172.16.3.2,30848,172.16.1.2,5101,14362,32000,38,62848,65728,6,6,4,1460,133125,1,16778208,380000,74540,74540,65700,0,31856,0,3081664612,63
o,1723651967.734806,172.16.3.2,30848,172.16.1.2,5101,14362,32000,38,62848,65728,6,6,4,1460,132812,1,16778208,370000,74540,71644,65700,0,28960,0,3081664612,63
i,1723651967.735015,172.16.3.2,30848,172.16.1.2,5101,14362,32000,38,62848,65728,6,6,4,1460,132812,1,16778208,370000,74540,71644,65700,0,31856,0,3081664612,63
o,1723651967.735041,172.16.3.2,30848,172.16.1.2,5101,14362,33460,38,59968,65728,6,6,4,1460,132500,1,16778208,360000,74540,68748,65700,0,28960,0,3081664612,63
i,1723651967.786781,172.16.3.2,30848,172.16.1.2,5101,14362,33460,38,59968,65728,6,6,4,1460,132500,1,16778208,360000,74540,74540,65700,0,33304,0,3081664612,63
o,1723651967.786822,172.16.3.2,30848,172.16.1.2,5101,14362,33460,38,65728,65728,6,6,4,1460,138437,1,16778208,410000,74540,73092,65700,0,31856,0,3081664612,63
i,1723651967.787011,172.16.3.2,30848,172.16.1.2,5101,14362,33460,38,65728,65728,6,6,4,1460,138437,1,16778208,410000,74540,73092,65700,0,33304,0,3081664612,63
o,1723651967.787043,172.16.3.2,30848,172.16.1.2,5101,14362,33460,38,95680,65728,6,6,4,1460,138750,1,16778208,390000,74540,70196,65700,0,30408,0,3081664612,63
i,1723651967.787210,172.16.3.2,30848,172.16.1.2,5101,14362,33460,38,95680,65728,6,6,4,1460,138750,1,16778208,390000,74540,70196,65700,0,33304,0,3081664612,63
o,1723651967.787228,172.16.3.2,30848,172.16.1.2,5101,14362,33460,38,92800,65728,6,6,4,1460,139062,1,16778208,380000,74540,67300,65700,0,30408,0,3081664612,63
o,1723651967.787338,172.16.3.2,30848,172.16.1.2,5101,14362,33460,38,92800,65728,6,6,4,1460,139062,1,16778208,380000,74540,67300,65700,0,31856,0,3081664612,63
i,1723651967.790476,172.16.3.2,30848,172.16.1.2,5101,14362,33460,38,92800,65728,6,6,4,1460,139062,1,16778208,380000,74540,74540,65700,0,33304,0,3081664612,63
o,1723651967.790501,172.16.3.2,30848,172.16.1.2,5101,14362,33460,38,97152,65728,6,6,4,1460,139375,1,16778208,370000,74540,71644,65700,0,30408,0,3081664612,63
i,1723651967.790655,172.16.3.2,30848,172.16.1.2,5101,14362,33460,38,97152,65728,6,6,4,1460,139375,1,16778208,370000,74540,71644,65700,0,33304,0,3081664612,63
o,1723651967.790671,172.16.3.2,30848,172.16.1.2,5101,14362,33460,38,97152,65728,6,6,4,1460,139687,1,16778208,370000,74540,68748,65700,0,30408,0,3081664612,63
i,1723651967.830879,172.16.3.2,30848,172.16.1.2,5101,14362,33460,38,97152,65728,6,6,4,1460,139687,1,16778208,370000,74540,74540,65700,0,33304,0,3081664612,63
o,1723651967.830937,172.16.3.2,30848,172.16.1.2,5101,14362,33460,38,95680,65728,6,6,4,1460,141250,1,16778208,370000,74540,71644,65700,0,30408,0,3081664612,63
i,1723651967.831147,172.16.3.2,30848,172.16.1.2,5101,14362,33460,38,95680,65728,6,6,4,1460,141250,1,16778208,370000,74540,71644,65700,0,33304,0,3081664612,63
o,1723651967.831171,172.16.3.2,30848,172.16.1.2,5101,14362,33460,38,95680,65728,6,6,4,1460,142500,1,16778208,380000,74540,68748,65700,0,30408,0,3081664612,63
i,1723651967.862574,172.16.3.2,30848,172.16.1.2,5101,14362,33460,38,95680,65728,6,6,4,1460,142500,1,16778208,380000,74540,74540,65700,0,33304,0,3081664612,63
o,1723651967.862637,172.16.3.2,30848,172.16.1.2,5101,14362,33460,38,97152,65728,6,6,4,1460,148437,1,16778208,420000,74540,71644,65700,0,30408,0,3081664612,63
i,1723651967.862826,172.16.3.2,30848,172.16.1.2,5101,14362,33460,38,97152,65728,6,6,4,1460,148437,1,16778208,420000,74540,71644,65700,0,33304,0,3081664612,63
o,1723651967.862846,172.16.3.2,30848,172.16.1.2,5101,14362,33460,38,95680,65728,6,6,4,1460,147500,1,16778208,410000,74540,68748,65700,0,30408,0,3081664612,63
i,1723651967.871715,172.16.3.2,30848,172.16.1.2,5101,14362,33460,38,95680,65728,6,6,4,1460,147500,1,16778208,410000,74540,74540,65700,0,33304,0,3081664612,63
o,1723651967.871757,172.16.3.2,30848,172.16.1.2,5101,14362,33460,38,97152,65728,6,6,4,1460,146562,1,16778208,400000,74540,71644,65700,0,30408,0,3081664612,63
i,1723651967.871912,172.16.3.2,30848,172.16.1.2,5101,14362,33460,38,97152,65728,6,6,4,1460,146562,1,16778208,400000,74540,71644,65700,0,33304,0,3081664612,63
o,1723651967.871931,172.16.3.2,30848,172.16.1.2,5101,14362,33460,38,97152,65728,6,6,4,1460,143437,1,16778208,410000,74540,68748,65700,0,30408,0,3081664612,63
i,1723651967.872166,172.16.3.2,30848,172.16.1.2,5101,14362,33460,38,97152,65728,6,6,4,1460,143437,1,16778208,410000,74540,68748,65700,0,33304,0,3081664612,63
o,1723651967.872183,172.16.3.2,30848,172.16.1.2,5101,14362,34920,38,95680,65728,6,6,4,1460,141875,1,16778208,400000,74540,65852,65700,0,30408,0,3081664612,63
i,1723651967.907878,172.16.3.2,30848,172.16.1.2,5101,14362,34920,38,95680,65728,6,6,4,1460,141875,1,16778208,400000,82732,82732,65700,0,34752,0,3081664612,63
o,1723651967.907928,172.16.3.2,30848,172.16.1.2,5101,14362,34920,38,95680,65728,6,6,4,1460,139375,1,16778208,400000,82732,79836,65700,0,31856,0,3081664612,63
i,1723651967.908800,172.16.3.2,30848,172.16.1.2,5101,14362,34920,38,95680,65728,6,6,4,1460,139375,1,16778208,400000,82732,82732,65700,0,34752,0,3081664612,63
o,1723651967.908825,172.16.3.2,30848,172.16.1.2,5101,14362,34920,38,95680,65728,6,6,4,1460,137187,1,16778208,400000,82732,79836,65700,0,31856,0,3081664612,63
o,1723651967.908948,172.16.3.2,30848,172.16.1.2,5101,14362,34920,38,95680,65728,6,6,4,1460,137187,1,16778208,400000,82732,79836,65700,0,33304,0,3081664612,63
i,1723651967.930886,172.16.3.2,30848,172.16.1.2,5101,14362,34920,38,95680,65728,6,6,4,1460,137187,1,16778208,400000,82732,82732,65700,0,34752,0,3081664612,63
o,1723651967.930972,172.16.3.2,30848,172.16.1.2,5101,14362,34920,38,97152,65728,6,6,4,1460,137812,1,16778208,390000,82732,79836,65700,0,31856,0,3081664612,63
i,1723651967.931149,172.16.3.2,30848,172.16.1.2,5101,14362,34920,38,97152,65728,6,6,4,1460,137812,1,16778208,390000,82732,79836,65700,0,34752,0,3081664612,63
o,1723651967.931168,172.16.3.2,30848,172.16.1.2,5101,14362,34920,38,97152,65728,6,6,4,1460,138125,1,16778208,380000,82732,76940,65700,0,31856,0,3081664612,63
i,1723651967.948020,172.16.3.2,30848,172.16.1.2,5101,14362,34920,38,97152,65728,6,6,4,1460,138125,1,16778208,380000,82732,82732,65700,0,34752,0,3081664612,63
o,1723651967.948118,172.16.3.2,30848,172.16.1.2,5101,14362,34920,38,97152,65728,6,6,4,1460,140937,1,16778208,400000,82732,79836,65700,0,31856,0,3081664612,63
i,1723651967.958486,172.16.3.2,30848,172.16.1.2,5101,14362,34920,38,97152,65728,6,6,4,1460,140937,1,16778208,400000,82732,82732,65700,0,34752,0,3081664612,63
o,1723651967.958587,172.16.3.2,30848,172.16.1.2,5101,14362,34920,38,97152,65728,6,6,4,1460,139687,1,16778208,390000,82732,79836,65700,0,31856,0,3081664612,63
i,1723651967.982391,172.16.3.2,30848,172.16.1.2,5101,14362,34920,38,97152,65728,6,6,4,1460,139687,1,16778208,390000,82732,82732,65700,0,34752,0,3081664612,63
o,1723651967.982436,172.16.3.2,30848,172.16.1.2,5101,14362,34920,38,97152,65728,6,6,4,1460,141250,1,16778208,390000,82732,79836,65700,0,31856,0,3081664612,63
i,1723651967.983607,172.16.3.2,30848,172.16.1.2,5101,14362,34920,38,97152,65728,6,6,4,1460,141250,1,16778208,390000,82732,82732,65700,0,34752,0,3081664612,63
o,1723651967.983631,172.16.3.2,30848,172.16.1.2,5101,14362,34920,38,97152,65728,6,6,4,1460,137500,1,16778208,410000,82732,79836,65700,0,31856,0,3081664612,63
i,1723651968.002298,172.16.3.2,30848,172.16.1.2,5101,14362,34920,38,97152,65728,6,6,4,1460,137500,1,16778208,410000,82732,82732,65700,0,34752,0,3081664612,63
o,1723651968.002369,172.16.3.2,30848,172.16.1.2,5101,14362,34920,38,97152,65728,6,6,4,1460,136562,1,16778208,390000,82732,79836,65700,0,31856,0,3081664612,63
i,1723651968.002552,172.16.3.2,30848,172.16.1.2,5101,14362,34920,38,97152,65728,6,6,4,1460,136562,1,16778208,390000,82732,79836,65700,0,34752,0,3081664612,63
o,1723651968.002571,172.16.3.2,30848,172.16.1.2,5101,14362,34920,38,95680,65728,6,6,4,1460,135937,1,16778208,380000,82732,76940,65700,0,31856,0,3081664612,63
i,1723651968.002740,172.16.3.2,30848,172.16.1.2,5101,14362,34920,38,95680,65728,6,6,4,1460,135937,1,16778208,380000,82732,76940,65700,0,34752,0,3081664612,63
o,1723651968.002756,172.16.3.2,30848,172.16.1.2,5101,14362,34920,38,95680,65728,6,6,4,1460,135312,1,16778208,380000,82732,74044,65700,0,31856,0,3081664612,63
i,1723651968.008698,172.16.3.2,30848,172.16.1.2,5101,14362,34920,38,95680,65728,6,6,4,1460,135312,1,16778208,380000,82732,82732,65700,0,34752,0,3081664612,63
o,1723651968.008723,172.16.3.2,30848,172.16.1.2,5101,14362,36380,38,95680,65728,6,6,4,1460,134687,1,16778208,370000,82732,79836,65700,0,31856,0,3081664612,63
