enable_time_secs=1723651786	enable_time_usecs=155279	siftrver=1.3.0	sysname=FreeBSD	sysver=1401000	ipmode=4
o,1723651786.155643,10.0.2.15,22,10.0.2.2,50542,1073725440,17746,1026,65535,65700,0,0,4,1460,312,0,16777220,240000,33580,172,65700,0,0,0,372563458,63
o,1723651786.156192,10.0.2.15,22,10.0.2.2,50542,1073725440,17746,1026,65535,65700,0,0,4,1460,312,0,16777220,240000,33580,244,65700,0,172,0,372563458,63
i,1723651786.157193,10.0.2.15,22,10.0.2.2,50542,1073725440,17746,1026,65535,65700,0,0,4,1460,312,0,16777220,240000,33580,244,65700,0,244,0,372563458,63
i,1723651786.157211,10.0.2.15,22,10.0.2.2,50542,1073725440,17918,1026,65535,65700,0,0,4,1460,312,0,4,240000,33580,72,65700,0,72,0,372563458,63
i,1723651786.157230,10.0.2.15,22,10.0.2.2,50542,1073725440,17990,1026,65535,65700,0,0,4,1460,312,0,4,240000,33580,0,65700,0,0,0,372563458,63
i,1723651786.157284,10.0.2.15,22,10.0.2.2,50542,1073725440,17990,1026,65535,65700,0,0,4,1460,312,0,4,240000,33580,0,65700,96,0,0,372563458,63
o,1723651786.157327,10.0.2.15,22,10.0.2.2,50542,1073725440,17990,1026,65535,65604,0,0,5,1460,312,0,5,240000,33580,0,65700,96,0,0,372563458,63
o,1723651786.158173,10.0.2.15,22,10.0.2.2,50542,1073725440,17990,1026,65535,65604,0,0,8,1460,312,0,4,240000,33580,0,65700,0,0,0,372563458,63
i,1723651786.158614,10.0.2.15,22,10.0.2.2,50542,1073725440,17990,1026,65535,65604,0,0,8,1460,312,0,67108884,240000,33580,0,65700,0,1,0,372563458,63
i,1723651788.417116,10.0.2.15,22,10.0.2.2,50528,1073725440,14600,0,65535,65700,0,0,4,1460,312,0,16777216,270000,33580,0,65700,0,0,0,982676707,63
o,1723651788.431485,10.0.2.15,22,10.0.2.2,50528,1073725440,14600,1026,65535,65700,0,0,4,1460,312,0,16777216,270000,33580,38,65700,42,0,0,982676707,63
i,1723651788.432233,10.0.2.15,22,10.0.2.2,50528,1073725440,14600,1026,65535,65700,0,0,4,1460,312,0,16777216,270000,33580,38,65700,0,38,0,982676707,63
i,1723651788.432689,10.0.2.15,22,10.0.2.2,50528,1073725440,14638,1026,65535,65700,0,0,4,1460,312,0,0,230000,33580,0,65700,0,0,0,982676707,63
i,1723651788.432707,10.0.2.15,22,10.0.2.2,50528,1073725440,14638,1026,65535,65700,0,0,4,1460,312,0,0,230000,33580,0,65700,1460,0,0,982676707,63
o,1723651788.432726,10.0.2.15,22,10.0.2.2,50528,1073725440,14638,1026,65535,65700,0,0,4,1460,312,0,1,230000,33580,0,65700,1536,0,0,982676707,63
o,1723651788.433204,10.0.2.15,22,10.0.2.2,50528,1073725440,14638,1026,65535,65700,0,0,4,1460,312,0,16777216,230000,33580,1120,65700,1536,0,0,982676707,63
i,1723651788.433711,10.0.2.15,22,10.0.2.2,50528,1073725440,14638,1026,65535,65700,0,0,4,1460,312,0,16777216,230000,33580,1120,65700,0,1120,0,982676707,63
i,1723651788.434986,10.0.2.15,22,10.0.2.2,50528,1073725440,15758,1026,65535,65700,0,0,4,1460,312,0,0,230000,33580,0,65700,0,0,0,982676707,63
o,1723651788.437820,10.0.2.15,22,10.0.2.2,50528,1073725440,15758,1026,65535,65700,0,0,4,1460,312,0,16777216,230000,33580,492,65700,0,0,0,982676707,63
i,1723651788.438191,10.0.2.15,22,10.0.2.2,50528,1073725440,15758,1026,65535,65700,0,0,4,1460,312,0,16777216,230000,33580,492,65700,0,492,0,982676707,63
i,1723651788.442690,10.0.2.15,22,10.0.2.2,50528,1073725440,16250,1026,65535,65700,0,0,4,1460,312,0,0,230000,33580,0,65700,0,0,0,982676707,63
o,1723651788.442848,10.0.2.15,22,10.0.2.2,50528,1073725440,16250,1026,65535,65700,0,0,4,1460,312,0,16777216,230000,33580,44,65700,0,0,0,982676707,63
i,1723651788.443502,10.0.2.15,22,10.0.2.2,50528,1073725440,16250,1026,65535,65700,0,0,4,1460,312,0,16777216,230000,33580,44,65700,0,44,0,982676707,63
i,1723651788.443518,10.0.2.15,22,10.0.2.2,50528,1073725440,16294,1026,65535,65700,0,0,4,1460,312,0,0,230000,33580,0,65700,0,0,0,982676707,63
o,1723651788.444850,10.0.2.15,22,10.0.2.2,50528,1073725440,16294,1026,65535,65700,0,0,4,1460,312,0,16777216,230000,33580,68,65700,0,0,0,982676707,63
i,1723651788.446042,10.0.2.15,22,10.0.2.2,50528,1073725440,16294,1026,65535,65700,0,0,4,1460,312,0,16777216,230000,33580,68,65700,0,68,0,982676707,63
i,1723651788.446061,10.0.2.15,22,10.0.2.2,50528,1073725440,16362,1026,65535,65700,0,0,4,1460,312,0,0,240000,33580,0,65700,0,0,0,982676707,63
o,1723651788.446825,10.0.2.15,22,10.0.2.2,50528,1073725440,16362,1026,65535,65700,0,0,4,1460,312,0,16777216,240000,33580,332,65700,0,0,0,982676707,63
i,1723651788.447581,10.0.2.15,22,10.0.2.2,50528,1073725440,16362,1026,65535,65700,0,0,4,1460,312,0,16777216,240000,33580,332,65700,0,332,0,982676707,63
i,1723651788.448954,10.0.2.15,22,10.0.2.2,50528,1073725440,16694,1026,65535,65700,0,0,4,1460,312,0,0,240000,33580,0,65700,0,0,0,982676707,63
o,1723651788.467665,10.0.2.15,22,10.0.2.2,50528,1073725440,16694,1026,65535,65700,0,0,4,1460,312,0,16777216,240000,33580,28,65700,0,0,0,982676707,63
i,1723651788.468353,10.0.2.15,22,10.0.2.2,50528,1073725440,16694,1026,65535,65700,0,0,4,1460,312,0,16777216,240000,33580,28,65700,0,28,0,982676707,63
i,1723651788.468750,10.0.2.15,22,10.0.2.2,50528,1073725440,16722,1026,65535,65700,0,0,4,1460,312,0,0,240000,33580,0,65700,0,0,0,982676707,63
o,1723651788.469851,10.0.2.15,22,10.0.2.2,50528,1073725440,16722,1026,65535,65700,0,0,4,1460,312,0,16777216,240000,33580,768,65700,112,0,0,982676707,63
i,1723651788.470165,10.0.2.15,22,10.0.2.2,50528,1073725440,16722,1026,65535,65700,0,0,4,1460,312,0,16777216,240000,33580,908,65700,112,768,0,982676707,63
o,1723651788.470183,10.0.2.15,22,10.0.2.2,50528,1073725440,17490,1026,65535,65700,0,0,4,1460,312,0,16777216,240000,33580,140,65700,112,0,0,982676707,63
i,1723651788.470542,10.0.2.15,22,10.0.2.2,50528,1073725440,17490,1026,65535,65700,0,0,4,1460,312,0,16777216,240000,33580,140,65700,0,140,0,982676707,63
o,1723651788.470670,10.0.2.15,22,10.0.2.2,50528,1073725440,17630,1026,65535,65700,0,0,4,1460,312,0,16777216,240000,33580,44,65700,0,0,0,982676707,63
i,1723651788.471196,10.0.2.15,22,10.0.2.2,50528,1073725440,17630,1026,65535,65700,0,0,4,1460,312,0,16777216,240000,33580,44,65700,0,44,0,982676707,63
i,1723651788.471212,10.0.2.15,22,10.0.2.2,50528,1073725440,17674,1026,65535,65700,0,0,4,1460,312,0,0,240000,33580,0,65700,0,0,0,982676707,63
o,1723651788.471673,10.0.2.15,22,10.0.2.2,50528,1073725440,17674,1026,65535,65700,0,0,4,1460,312,0,16777220,240000,33580,72,65700,0,0,0,982676707,63
i,1723651788.472152,10.0.2.15,22,10.0.2.2,50528,1073725440,17674,1026,65535,65700,0,0,4,1460,312,0,16777220,240000,33580,72,65700,0,72,0,982676707,63
o,1723651788.475188,10.0.2.15,22,10.0.2.2,50528,1073725440,17746,1026,65535,65700,0,0,4,1460,312,0,16777220,230000,33580,104,65700,0,0,0,982676707,63
i,1723651788.475656,10.0.2.15,22,10.0.2.2,50528,1073725440,17746,1026,65535,65700,0,0,4,1460,312,0,16777220,230000,33580,104,65700,0,104,0,982676707,63
o,1723651788.475874,10.0.2.15,22,10.0.2.2,50528,1073725440,17850,1026,65535,65700,0,0,4,1460,312,0,16777220,230000,33580,72,65700,0,0,0,982676707,63
i,1723651788.476668,10.0.2.15,22,10.0.2.2,50528,1073725440,17850,1026,65535,65700,0,0,4,1460,312,0,16777220,230000,33580,72,65700,0,72,0,982676707,63
i,1723651788.476712,10.0.2.15,22,10.0.2.2,50528,1073725440,17922,1026,65535,65700,0,0,4,1460,312,0,4,230000,33580,0,65700,0,0,0,982676707,63
i,1723651788.476768,10.0.2.15,22,10.0.2.2,50528,1073725440,17922,1026,65535,65700,0,0,4,1460,312,0,4,230000,33580,0,65700,96,0,0,982676707,63
o,1723651788.476786,10.0.2.15,22,10.0.2.2,50528,1073725440,17922,1026,65535,65604,0,0,5,1460,312,0,5,230000,33580,0,65700,96,0,0,982676707,63
o,1723651788.504444,10.0.2.15,22,10.0.2.2,50528,1073725440,17922,1026,65535,65604,0,0,8,1460,312,0,4,230000,33580,0,65700,0,0,0,982676707,63
i,1723651788.505430,10.0.2.15,22,10.0.2.2,50528,1073725440,17922,1026,65535,65604,0,0,8,1460,312,0,67108884,230000,33580,0,65700,0,1,0,982676707,63
i,1723651790.623256,10.0.2.15,22,10.0.2.2,50538,1073725440,14600,0,65535,65700,0,0,4,1460,312,0,16777216,270000,33580,0,65700,0,0,0,3191910388,63
o,1723651790.633088,10.0.2.15,22,10.0.2.2,50538,1073725440,14600,1026,65535,65700,0,0,4,1460,312,0,16777216,270000,33580,38,65700,42,0,0,3191910388,63
i,1723651790.633543,10.0.2.15,22,10.0.2.2,50538,1073725440,14600,1026,65535,65700,0,0,4,1460,312,0,16777216,270000,33580,38,65700,0,38,0,3191910388,63
i,1723651790.633844,10.0.2.15,22,10.0.2.2,50538,1073725440,14638,1026,65535,65700,0,0,4,1460,312,0,0,240000,33580,0,65700,0,0,0,3191910388,63
i,1723651790.633861,10.0.2.15,22,10.0.2.2,50538,1073725440,14638,1026,65535,65700,0,0,4,1460,312,0,0,240000,33580,0,65700,1460,0,0,3191910388,63
o,1723651790.633879,10.0.2.15,22,10.0.2.2,50538,1073725440,14638,1026,65535,65700,0,0,4,1460,312,0,1,240000,33580,0,65700,1536,0,0,3191910388,63
o,1723651790.634541,10.0.2.15,22,10.0.2.2,50538,1073725440,14638,1026,65535,65700,0,0,4,1460,312,0,16777216,240000,33580,1120,65700,1536,0,0,3191910388,63
i,1723651790.636230,10.0.2.15,22,10.0.2.2,50538,1073725440,14638,1026,65535,65700,0,0,4,1460,312,0,16777216,240000,33580,1120,65700,0,1120,0,3191910388,63
i,1723651790.637952,10.0.2.15,22,10.0.2.2,50538,1073725440,15758,1026,65535,65700,0,0,4,1460,312,0,0,240000,33580,0,65700,0,0,0,3191910388,63
o,1723651790.641072,10.0.2.15,22,10.0.2.2,50538,1073725440,15758,1026,65535,65700,0,0,4,1460,312,0,16777216,240000,33580,492,65700,0,0,0,3191910388,63
i,1723651790.641651,10.0.2.15,22,10.0.2.2,50538,1073725440,15758,1026,65535,65700,0,0,4,1460,312,0,16777216,240000,33580,492,65700,0,492,0,3191910388,63
i,1723651790.646371,10.0.2.15,22,10.0.2.2,50538,1073725440,16250,1026,65535,65700,0,0,4,1460,312,0,0,240000,33580,0,65700,0,0,0,3191910388,63
i,1723651790.646389,10.0.2.15,22,10.0.2.2,50538,1073725440,16250,1026,65535,65700,0,0,4,1460,312,0,0,240000,33580,0,65700,16,0,0,3191910388,63
o,1723651790.646406,10.0.2.15,22,10.0.2.2,50538,1073725440,16250,1026,65535,65700,0,0,4,1460,312,0,1,240000,33580,0,65700,60,0,0,3191910388,63
o,1723651790.646634,10.0.2.15,22,10.0.2.2,50538,1073725440,16250,1026,65535,65700,0,0,4,1460,312,0,16777216,240000,33580,44,65700,0,0,0,3191910388,63
i,1723651790.647127,10.0.2.15,22,10.0.2.2,50538,1073725440,16250,1026,65535,65700,0,0,4,1460,312,0,16777216,240000,33580,44,65700,0,44,0,3191910388,63
i,1723651790.647146,10.0.2.15,22,10.0.2.2,50538,1073725440,16294,1026,65535,65700,0,0,4,1460,312,0,0,240000,33580,0,65700,0,0,0,3191910388,63
o,1723651790.654607,10.0.2.15,22,10.0.2.2,50538,1073725440,16294,1026,65535,65700,0,0,4,1460,312,0,16777216,240000,33580,68,65700,0,0,0,3191910388,63
i,1723651790.656703,10.0.2.15,22,10.0.2.2,50538,1073725440,16294,1026,65535,65700,0,0,4,1460,312,0,16777216,240000,33580,68,65700,0,68,0,3191910388,63
i,1723651790.657398,10.0.2.15,22,10.0.2.2,50538,1073725440,16362,1026,65535,65700,0,0,4,1460,312,0,0,240000,33580,0,65700,0,0,0,3191910388,63
o,1723651790.658459,10.0.2.15,22,10.0.2.2,50538,1073725440,16362,1026,65535,65700,0,0,4,1460,312,0,16777216,240000,33580,332,65700,0,0,0,3191910388,63
i,1723651790.659258,10.0.2.15,22,10.0.2.2,50538,1073725440,16362,1026,65535,65700,0,0,4,1460,312,0,16777216,240000,33580,332,65700,0,332,0,3191910388,63
i,1723651790.660591,10.0.2.15,22,10.0.2.2,50538,1073725440,16694,1026,65535,65700,0,0,4,1460,312,0,0,240000,33580,0,65700,0,0,0,3191910388,63
o,1723651790.689179,10.0.2.15,22,10.0.2.2,50538,1073725440,16694,1026,65535,65700,0,0,4,1460,312,0,16777216,240000,33580,28,65700,0,0,0,3191910388,63
i,1723651790.689829,10.0.2.15,22,10.0.2.2,50538,1073725440,16694,1026,65535,65700,0,0,4,1460,312,0,16777216,240000,33580,28,65700,0,28,0,3191910388,63
i,1723651790.690404,10.0.2.15,22,10.0.2.2,50538,1073725440,16722,1026,65535,65700,0,0,4,1460,312,0,0,240000,33580,0,65700,0,0,0,3191910388,63
o,1723651790.691483,10.0.2.15,22,10.0.2.2,50538,1073725440,16722,1026,65535,65700,0,0,4,1460,312,0,16777216,240000,33580,768,65700,112,0,0,3191910388,63
i,1723651790.691793,10.0.2.15,22,10.0.2.2,50538,1073725440,16722,1026,65535,65700,0,0,4,1460,312,0,16777216,240000,33580,908,65700,112,768,0,3191910388,63
o,1723651790.691812,10.0.2.15,22,10.0.2.2,50538,1073725440,17490,1026,65535,65700,0,0,4,1460,312,0,16777216,240000,33580,140,65700,112,0,0,3191910388,63
i,1723651790.692257,10.0.2.15,22,10.0.2.2,50538,1073725440,17490,1026,65535,65700,0,0,4,1460,312,0,16777216,240000,33580,140,65700,112,140,0,3191910388,63
o,1723651790.692530,10.0.2.15,22,10.0.2.2,50538,1073725440,17630,1026,65535,65700,0,0,4,1460,312,0,16777216,230000,33580,44,65700,0,0,0,3191910388,63
i,1723651790.693065,10.0.2.15,22,10.0.2.2,50538,1073725440,17630,1026,65535,65700,0,0,4,1460,312,0,16777216,230000,33580,44,65700,0,44,0,3191910388,63
i,1723651790.693083,10.0.2.15,22,10.0.2.2,50538,1073725440,17674,1026,65535,65700,0,0,4,1460,312,0,0,230000,33580,0,65700,0,0,0,3191910388,63
o,1723651790.693575,10.0.2.15,22,10.0.2.2,50538,1073725440,17674,1026,65535,65700,0,0,4,1460,312,0,16777220,230000,33580,72,65700,0,0,0,3191910388,63
i,1723651790.693928,10.0.2.15,22,10.0.2.2,50538,1073725440,17674,1026,65535,65700,0,0,4,1460,312,0,16777220,230000,33580,72,65700,0,72,0,3191910388,63
i,1723651790.694122,10.0.2.15,22,10.0.2.2,50538,1073725440,17746,1026,65535,65700,0,0,4,1460,312,0,4,230000,33580,0,65700,0,0,0,3191910388,63
o,1723651790.734813,10.0.2.15,22,10.0.2.2,50538,1073725440,17746,1026,65535,65700,0,0,4,1460,312,0,5,230000,33580,0,65700,0,0,0,3191910388,63
o,1723651790.822324,172.16.3.2,29161,172.16.1.2,5101,18224,14480,34,65535,65700,6,6,4,1460,186250,1,16778209,620000,33580,0,65700,0,0,0,2690469747,63
o,1723651790.822768,172.16.3.2,29161,172.16.1.2,5101,18224,14480,34,65535,65700,6,6,4,1460,186250,1,16778212,620000,33580,37,65700,0,0,0,2690469747,63
i,1723651790.939097,172.16.3.2,29161,172.16.1.2,5101,18224,14480,34,65535,65700,6,6,4,1460,186250,1,16778212,620000,33580,37,65700,0,37,0,2690469747,63
o,1723651790.939671,172.16.3.2,29161,172.16.1.2,5101,18224,14517,1058,65728,65728,6,6,4,1460,176875,1,16778212,620000,33580,4,65700,0,0,0,2690469747,63
o,1723651790.940154,172.16.3.2,29161,172.16.1.2,5101,18224,14517,1058,65728,65728,6,6,4,1460,176875,1,16778212,620000,33580,130,65700,0,4,0,2690469747,63
i,1723651791.062270,172.16.3.2,29161,172.16.1.2,5101,18224,14517,1058,65728,65728,6,6,4,1460,176875,1,16778212,620000,33580,130,65700,0,130,0,2690469747,63
i,1723651791.062473,172.16.3.2,29161,172.16.1.2,5101,18224,14647,1058,65600,65728,6,6,4,1460,170000,1,996,610000,33580,0,65700,0,0,0,2690469747,63
o,1723651791.103349,172.16.3.2,29161,172.16.1.2,5101,18224,14647,1058,65728,65728,6,6,4,1460,170000,1,997,610000,33580,0,65700,0,0,0,2690469747,63
o,1723651791.177691,172.16.3.2,64034,172.16.1.2,5101,18224,14480,34,65535,65700,6,6,4,1460,183750,1,16778209,630000,33580,0,65700,0,0,0,2650704556,63
o,1723651791.178241,172.16.3.2,64034,172.16.1.2,5101,18224,14480,34,65535,65700,6,6,4,1460,183750,1,16778208,630000,33580,37,65700,0,0,0,2650704556,63
i,1723651791.298643,172.16.3.2,29161,172.16.1.2,5101,18224,14647,1058,65728,65728,6,6,4,1460,170000,1,996,610000,33580,0,65700,0,0,0,2690469747,63
i,1723651791.298727,172.16.3.2,29161,172.16.1.2,5101,18224,14647,1058,65728,65728,6,6,4,1460,170000,1,996,610000,33580,0,65700,1,0,0,2690469747,63
o,1723651791.298750,172.16.3.2,29161,172.16.1.2,5101,18224,14647,1058,65728,65728,6,6,4,1460,170000,1,997,610000,33580,0,65700,2,0,0,2690469747,63
o,1723651791.300278,172.16.3.2,64034,172.16.1.2,5101,18224,14480,38,65535,65700,6,6,4,1460,183750,1,16778208,630000,33580,33580,65700,0,37,0,2650704556,63
i,1723651791.541142,172.16.3.2,64034,172.16.1.2,5101,18224,14480,38,65535,65700,6,6,4,1460,183750,1,16778208,630000,33580,33580,65700,0,13069,0,2650704556,63
o,1723651791.541246,172.16.3.2,64034,172.16.1.2,5101,18224,14517,38,65728,65728,6,6,4,1460,204687,1,16778208,760000,33580,33543,65700,0,13032,0,2650704556,63
i,1723651791.817608,172.16.3.2,64034,172.16.1.2,5101,18224,14517,38,65728,65728,6,6,4,1460,204687,1,16778208,760000,33580,33543,65700,0,14480,0,2650704556,63
o,1723651791.817664,172.16.3.2,64034,172.16.1.2,5101,18224,17413,38,64256,65728,6,6,4,1460,244375,1,16778208,1030000,33580,30647,65700,0,11584,0,2650704556,63
i,1723651791.829494,172.16.3.2,64034,172.16.1.2,5101,18224,17413,38,64256,65728,6,6,4,1460,244375,1,16778208,1030000,41772,41772,65700,0,17376,0,2650704556,63
o,1723651791.829538,172.16.3.2,64034,172.16.1.2,5101,18224,20309,38,64256,65728,6,6,4,1460,279062,1,16778208,1190000,41772,38876,65700,0,14480,0,2650704556,63
i,1723651791.829722,172.16.3.2,64034,172.16.1.2,5101,18224,20309,38,64256,65728,6,6,4,1460,279062,1,16778208,1190000,49964,38876,65700,0,20272,0,2650704556,63
o,1723651791.829738,172.16.3.2,64034,172.16.1.2,5101,18224,20309,38,64256,65728,6,6,4,1460,309375,1,16778208,1290000,49964,35980,65700,0,17376,0,2650704556,63
i,1723651791.829874,172.16.3.2,64034,172.16.1.2,5101,18224,20309,38,64256,65728,6,6,4,1460,309375,1,16778208,1290000,49964,35980,65700,0,20272,0,2650704556,63
o,1723651791.829889,172.16.3.2,64034,172.16.1.2,5101,18224,20309,38,64256,65728,6,6,4,1460,335937,1,16778208,1330000,49964,33084,65700,0,17376,0,2650704556,63
i,1723651791.830573,172.16.3.2,64034,172.16.1.2,5101,18224,20309,38,64256,65728,6,6,4,1460,335937,1,16778208,1330000,49964,49964,65700,0,20272,0,2650704556,63
o,1723651791.830592,172.16.3.2,64034,172.16.1.2,5101,18224,20309,38,65728,65728,6,6,4,1460,359062,1,16778208,1340000,49964,48516,65700,0,18824,0,2650704556,63
i,1723651792.405619,172.16.3.2,64034,172.16.1.2,5101,18224,20309,38,65728,65728,6,6,4,1460,359062,1,16778208,1340000,49964,48516,65700,0,20272,0,2650704556,63
o,1723651792.405706,172.16.3.2,64034,172.16.1.2,5101,18224,20309,38,65728,65728,6,6,4,1460,423125,1,16778208,1720000,49964,47068,65700,0,18824,0,2650704556,63
i,1723651792.432267,172.16.3.2,64034,172.16.1.2,5101,18224,20309,38,65728,65728,6,6,4,1460,423125,1,16778208,1720000,49964,49964,65700,0,20272,0,2650704556,63
o,1723651792.432318,172.16.3.2,64034,172.16.1.2,5101,18224,20309,38,65728,65728,6,6,4,1460,446562,1,16778208,1660000,49964,48516,65700,0,18824,0,2650704556,63
i,1723651792.432508,172.16.3.2,64034,172.16.1.2,5101,18224,20309,38,65728,65728,6,6,4,1460,446562,1,16778208,1660000,49964,48516,65700,0,20272,0,2650704556,63
o,1723651792.432590,172.16.3.2,64034,172.16.1.2,5101,18224,20309,38,64256,65728,6,6,4,1460,467187,1,16778208,1590000,49964,45620,65700,0,17376,0,2650704556,63
i,1723651792.434151,172.16.3.2,64034,172.16.1.2,5101,18224,20309,38,64256,65728,6,6,4,1460,467187,1,16778208,1590000,49964,49964,65700,0,20272,0,2650704556,63
o,1723651792.434588,172.16.3.2,64034,172.16.1.2,5101,18224,20309,38,64256,65728,6,6,4,1460,484062,1,16778208,1510000,49964,44172,65700,0,14480,0,2650704556,63
i,1723651792.434811,172.16.3.2,64034,172.16.1.2,5101,18224,20309,38,64256,65728,6,6,4,1460,484062,1,16778208,1510000,49964,44172,65700,0,20272,0,2650704556,63
o,1723651792.434845,172.16.3.2,64034,172.16.1.2,5101,18224,21769,38,64256,65728,6,6,4,1460,498750,1,16778208,1440000,49964,41276,65700,0,17376,0,2650704556,63
i,1723651792.435123,172.16.3.2,64034,172.16.1.2,5101,18224,21769,38,64256,65728,6,6,4,1460,498750,1,16778208,1440000,49964,41276,65700,0,21720,0,2650704556,63
o,1723651792.435147,172.16.3.2,64034,172.16.1.2,5101,18224,21769,38,64256,65728,6,6,4,1460,511562,1,16778208,1370000,49964,38380,65700,0,18824,0,2650704556,63
i,1723651792.458335,172.16.3.2,64034,172.16.1.2,5101,18224,21769,38,64256,65728,6,6,4,1460,511562,1,16778208,1370000,49964,49964,65700,0,21720,0,2650704556,63
o,1723651792.458435,172.16.3.2,64034,172.16.1.2,5101,18224,21769,38,64256,65728,6,6,4,1460,526562,1,16778208,1340000,49964,47068,65700,0,18824,0,2650704556,63
i,1723651792.980190,172.16.3.2,64034,172.16.1.2,5101,18224,21769,38,64256,65728,6,6,4,1460,526562,1,16778208,1340000,49964,49964,65700,0,21720,0,2650704556,63
o,1723651792.980281,172.16.3.2,64034,172.16.1.2,5101,18224,21769,38,65728,65728,6,6,4,1460,532187,1,16778208,1230000,49964,48516,65700,0,20272,0,2650704556,63
i,1723651792.980480,172.16.3.2,64034,172.16.1.2,5101,18224,21769,38,65728,65728,6,6,4,1460,532187,1,16778208,1230000,49964,48516,65700,0,21720,0,2650704556,63
o,1723651792.980500,172.16.3.2,64034,172.16.1.2,5101,18224,21769,38,64256,65728,6,6,4,1460,533437,1,16778208,1120000,49964,45620,65700,0,18824,0,2650704556,63
i,1723651792.980694,172.16.3.2,64034,172.16.1.2,5101,18224,21769,38,64256,65728,6,6,4,1460,533437,1,16778208,1120000,49964,45620,65700,0,21720,0,2650704556,63
o,1723651792.980712,172.16.3.2,64034,172.16.1.2,5101,18224,21769,38,64256,65728,6,6,4,1460,534375,1,16778208,1030000,49964,42724,65700,0,18824,0,2650704556,63
i,1723651792.980875,172.16.3.2,64034,172.16.1.2,5101,18224,21769,38,64256,65728,6,6,4,1460,534375,1,16778208,1030000,49964,42724,65700,0,21720,0,2650704556,63
o,1723651792.980892,172.16.3.2,64034,172.16.1.2,5101,18224,21769,38,64256,65728,6,6,4,1460,535312,1,16778208,970000,49964,39828,65700,0,18824,0,2650704556,63
i,1723651792.981032,172.16.3.2,64034,172.16.1.2,5101,18224,21769,38,64256,65728,6,6,4,1460,535312,1,16778208,970000,49964,39828,65700,0,21720,0,2650704556,63
o,1723651792.981047,172.16.3.2,64034,172.16.1.2,5101,18224,21769,38,64256,65728,6,6,4,1460,535937,1,16778208,910000,49964,36932,65700,0,18824,0,2650704556,63
i,1723651792.981909,172.16.3.2,64034,172.16.1.2,5101,18224,21769,38,64256,65728,6,6,4,1460,535937,1,16778208,910000,49964,49964,65700,0,21720,0,2650704556,63
o,1723651792.981928,172.16.3.2,64034,172.16.1.2,5101,18224,23229,38,64256,65728,6,6,4,1460,536562,1,16778208,870000,49964,47068,65700,0,18824,0,2650704556,63
i,1723651792.982262,172.16.3.2,64034,172.16.1.2,5101,18224,23229,38,64256,65728,6,6,4,1460,536562,1,16778208,870000,49964,47068,65700,0,23168,0,2650704556,63
o,1723651792.982279,172.16.3.2,64034,172.16.1.2,5101,18224,23229,38,64256,65728,6,6,4,1460,538437,1,16778208,860000,49964,44172,65700,0,20272,0,2650704556,63
i,1723651793.206362,172.16.3.2,64034,172.16.1.2,5101,18224,23229,38,64256,65728,6,6,4,1460,538437,1,16778208,860000,58156,58156,65700,0,23168,0,2650704556,63
o,1723651793.206444,172.16.3.2,64034,172.16.1.2,5101,18224,23229,38,64256,65728,6,6,4,1460,563750,1,16778208,1050000,58156,55260,65700,0,20272,0,2650704556,63
i,1723651793.680803,172.16.3.2,64034,172.16.1.2,5101,18224,23229,38,64256,65728,6,6,4,1460,563750,1,16778208,1050000,58156,58156,65700,0,23168,0,2650704556,63
o,1723651793.680855,172.16.3.2,64034,172.16.1.2,5101,18224,23229,38,64256,65728,6,6,4,1460,580937,1,16778208,1140000,58156,55260,65700,0,20272,0,2650704556,63
o,1723651793.681026,172.16.3.2,64034,172.16.1.2,5101,18224,23229,38,64256,65728,6,6,4,1460,580937,1,16778208,1140000,58156,55260,65700,0,21720,0,2650704556,63
i,1723651793.681211,172.16.3.2,64034,172.16.1.2,5101,18224,23229,38,64256,65728,6,6,4,1460,580937,1,16778208,1140000,58156,55260,65700,0,23168,0,2650704556,63
o,1723651793.681232,172.16.3.2,64034,172.16.1.2,5101,18224,23229,38,64256,65728,6,6,4,1460,595937,1,16778208,1180000,58156,52364,65700,0,20272,0,2650704556,63
i,1723651793.681399,172.16.3.2,64034,172.16.1.2,5101,18224,23229,38,64256,65728,6,6,4,1460,595937,1,16778208,1180000,58156,52364,65700,0,23168,0,2650704556,63
o,1723651793.681419,172.16.3.2,64034,172.16.1.2,5101,18224,23229,38,64256,65728,6,6,4,1460,609062,1,16778208,1200000,58156,49468,65700,0,20272,0,2650704556,63
i,1723651793.681571,172.16.3.2,64034,172.16.1.2,5101,18224,23229,38,64256,65728,6,6,4,1460,609062,1,16778208,1200000,58156,49468,65700,0,23168,0,2650704556,63
o,1723651793.681591,172.16.3.2,64034,172.16.1.2,5101,18224,23229,38,64256,65728,6,6,4,1460,620625,1,16778208,1210000,58156,46572,65700,0,20272,0,2650704556,63
i,1723651793.687969,172.16.3.2,64034,172.16.1.2,5101,18224,23229,38,64256,65728,6,6,4,1460,620625,1,16778208,1210000,58156,58156,65700,0,23168,0,2650704556,63
o,1723651793.688005,172.16.3.2,64034,172.16.1.2,5101,18224,23229,38,65728,65728,6,6,4,1460,630625,1,16778208,1200000,58156,56708,65700,0,21720,0,2650704556,63
i,1723651793.688142,172.16.3.2,64034,172.16.1.2,5101,18224,23229,38,65728,65728,6,6,4,1460,630625,1,16778208,1200000,58156,56708,65700,0,23168,0,2650704556,63
o,1723651793.688173,172.16.3.2,64034,172.16.1.2,5101,18224,24689,38,64256,65728,6,6,4,1460,639375,1,16778208,1190000,58156,50916,65700,0,17376,0,2650704556,63
i,1723651793.688295,172.16.3.2,64034,172.16.1.2,5101,18224,24689,38,64256,65728,6,6,4,1460,639375,1,16778208,1190000,58156,50916,65700,0,24616,0,2650704556,63
o,1723651793.688326,172.16.3.2,64034,172.16.1.2,5101,11584,23168,34,64256,65728,6,6,4,1460,647187,1,553649120,1170000,58156,48020,65700,0,21720,0,2650704556,63
i,1723651794.240048,172.16.3.2,64034,172.16.1.2,5101,11584,23168,34,64256,65728,6,6,4,1460,647187,1,553649120,1170000,58156,58156,65700,0,23168,0,2650704556,63
o,1723651794.240268,172.16.3.2,64034,172.16.1.2,5101,11584,23168,34,65728,65728,6,6,4,1460,695312,1,553649120,1520000,58156,56708,65700,0,21720,0,2650704556,63
i,1723651794.378486,172.16.3.2,64034,172.16.1.2,5101,11584,23168,34,65728,65728,6,6,4,1460,695312,1,553649120,1520000,58156,56708,65700,0,23168,0,2650704556,63
o,1723651794.378608,172.16.3.2,64034,172.16.1.2,5101,11584,20272,38,64256,65728,6,6,4,1460,694687,1,553649120,1370000,58156,50916,65700,0,17376,0,2650704556,63
o,1723651794.378773,172.16.3.2,64034,172.16.1.2,5101,11584,20272,34,64256,65728,6,6,4,1460,694687,1,553649120,1370000,58156,50916,65700,0,18824,0,2650704556,63
i,1723651794.397575,172.16.3.2,64034,172.16.1.2,5101,11584,20272,34,64256,65728,6,6,4,1460,694687,1,553649120,1370000,58156,58156,65700,0,20272,0,2650704556,63
o,1723651794.397619,172.16.3.2,64034,172.16.1.2,5101,11584,15928,38,64256,65728,6,6,4,1460,696875,1,553649120,1270000,58156,49468,65700,0,11584,0,2650704556,63
i,1723651794.397854,172.16.3.2,64034,172.16.1.2,5101,11584,15928,38,64256,65728,6,6,4,1460,696875,1,553649120,1270000,58156,49468,65700,0,15928,0,2650704556,63
o,1723651794.397874,172.16.3.2,64034,172.16.1.2,5101,11584,11584,34,64256,65728,6,6,4,1460,698750,1,553649120,1190000,58156,43676,65700,0,10136,0,2650704556,63
i,1723651794.408014,172.16.3.2,64034,172.16.1.2,5101,11584,11584,34,64256,65728,6,6,4,1460,698750,1,553649120,1190000,58156,58156,65700,0,11584,0,2650704556,63
o,1723651794.408041,172.16.3.2,64034,172.16.1.2,5101,11584,11584,34,65728,65728,6,6,4,1460,701562,1,16778208,1140000,58156,56708,65700,0,10136,0,2650704556,63
i,1723651794.739458,172.16.3.2,64034,172.16.1.2,5101,11584,11584,34,65728,65728,6,6,4,1460,701562,1,16778208,1140000,58156,56708,65700,0,11584,0,2650704556,63
o,1723651794.739497,172.16.3.2,64034,172.16.1.2,5101,11584,13032,38,65728,65728,6,6,4,1460,675312,1,16778208,1270000,58156,55260,65700,0,10136,0,2650704556,63
i,1723651794.770921,172.16.3.2,64034,172.16.1.2,5101,11584,13032,38,65728,65728,6,6,4,1460,675312,1,16778208,1270000,58156,58156,65700,0,13032,0,2650704556,63
o,1723651794.771005,172.16.3.2,64034,172.16.1.2,5101,11584,13032,38,64256,65728,6,6,4,1460,639687,1,16778208,1420000,58156,55260,65700,0,10136,0,2650704556,63
o,1723651794.771138,172.16.3.2,64034,172.16.1.2,5101,11584,13032,34,64256,65728,6,6,4,1460,639687,1,16778208,1420000,58156,55260,65700,0,11584,0,2650704556,63
i,1723651794.798583,172.16.3.2,64034,172.16.1.2,5101,11584,13032,34,64256,65728,6,6,4,1460,639687,1,16778208,1420000,58156,58156,65700,0,13032,0,2650704556,63
o,1723651794.798665,172.16.3.2,64034,172.16.1.2,5101,11584,13032,38,64256,65728,6,6,4,1460,610000,1,16778208,1480000,58156,55260,65700,0,10136,0,2650704556,63
i,1723651794.812233,172.16.3.2,64034,172.16.1.2,5101,11584,13032,38,64256,65728,6,6,4,1460,610000,1,16778208,1480000,58156,58156,65700,0,13032,0,2650704556,63
o,1723651794.812268,172.16.3.2,64034,172.16.1.2,5101,11584,13032,34,65728,65728,6,6,4,1460,585000,1,16778208,1490000,58156,56708,65700,0,11584,0,2650704556,63
i,1723651794.812425,172.16.3.2,64034,172.16.1.2,5101,11584,13032,34,65728,65728,6,6,4,1460,585000,1,16778208,1490000,58156,56708,65700,0,13032,0,2650704556,63
o,1723651794.812442,172.16.3.2,64034,172.16.1.2,5101,11584,13032,38,64256,65728,6,6,4,1460,563125,1,16778208,1470000,58156,53812,65700,0,10136,0,2650704556,63
i,1723651795.185981,172.16.3.2,64034,172.16.1.2,5101,11584,13032,38,64256,65728,6,6,4,1460,563125,1,16778208,1470000,58156,58156,65700,0,13032,0,2650704556,63
o,1723651795.186019,172.16.3.2,64034,172.16.1.2,5101,11584,14492,38,64256,65728,6,6,4,1460,549062,1,16778208,1390000,58156,55260,65700,0,10136,0,2650704556,63
i,1723651795.219131,172.16.3.2,64034,172.16.1.2,5101,11584,14492,38,64256,65728,6,6,4,1460,549062,1,16778208,1390000,58156,58156,65700,0,14480,0,2650704556,63
o,1723651795.219228,172.16.3.2,64034,172.16.1.2,5101,11584,14492,38,64256,65728,6,6,4,1460,536875,1,16778208,1310000,58156,55260,65700,0,11584,0,2650704556,63
o,1723651795.219374,172.16.3.2,64034,172.16.1.2,5101,11584,14492,38,64256,65728,6,6,4,1460,536875,1,16778208,1310000,58156,55260,65700,0,13032,0,2650704556,63
i,1723651795.219514,172.16.3.2,64034,172.16.1.2,5101,11584,14492,38,64256,65728,6,6,4,1460,536875,1,16778208,1310000,58156,55260,65700,0,14480,0,2650704556,63
o,1723651795.219534,172.16.3.2,64034,172.16.1.2,5101,11584,14492,38,64256,65728,6,6,4,1460,522500,1,16778208,1270000,58156,52364,65700,0,11584,0,2650704556,63
i,1723651795.280723,172.16.3.2,64034,172.16.1.2,5101,11584,14492,38,64256,65728,6,6,4,1460,522500,1,16778208,1270000,58156,58156,65700,0,14480,0,2650704556,63
o,1723651795.280909,172.16.3.2,64034,172.16.1.2,5101,11584,14492,38,64256,65728,6,6,4,1460,514687,1,16778208,1190000,58156,55260,65700,0,11584,0,2650704556,63
i,1723651795.287635,172.16.3.2,64034,172.16.1.2,5101,11584,14492,38,64256,65728,6,6,4,1460,514687,1,16778208,1190000,58156,58156,65700,0,14480,0,2650704556,63
o,1723651795.288532,172.16.3.2,64034,172.16.1.2,5101,11584,14492,38,65728,65728,6,6,4,1460,509375,1,16778208,1110000,58156,56708,65700,0,13032,0,2650704556,63
i,1723651795.748156,172.16.3.2,64034,172.16.1.2,5101,11584,14492,38,65728,65728,6,6,4,1460,509375,1,16778208,1110000,58156,56708,65700,0,14480,0,2650704556,63
o,1723651795.748206,172.16.3.2,64034,172.16.1.2,5101,11584,14492,38,65728,65728,6,6,4,1460,515937,1,16778208,1070000,58156,55260,65700,0,13032,0,2650704556,63
i,1723651795.748338,172.16.3.2,64034,172.16.1.2,5101,11584,14492,38,65728,65728,6,6,4,1460,515937,1,16778208,1070000,58156,55260,65700,0,14480,0,2650704556,63
o,1723651795.748356,172.16.3.2,64034,172.16.1.2,5101,11584,14492,38,64256,65728,6,6,4,1460,521562,1,16778208,1030000,58156,52364,65700,0,11584,0,2650704556,63
i,1723651795.778958,172.16.3.2,64034,172.16.1.2,5101,11584,14492,38,64256,65728,6,6,4,1460,521562,1,16778208,1030000,58156,58156,65700,0,14480,0,2650704556,63
o,1723651795.779085,172.16.3.2,64034,172.16.1.2,5101,11584,15952,38,64256,65728,6,6,4,1460,525312,1,16778208,990000,58156,53812,65700,0,10136,0,2650704556,63
o,1723651795.779248,172.16.3.2,64034,172.16.1.2,5101,11584,15952,38,64256,65728,6,6,4,1460,525312,1,16778208,990000,58156,53812,65700,0,11584,0,2650704556,63
i,1723651795.779455,172.16.3.2,64034,172.16.1.2,5101,11584,15952,38,64256,65728,6,6,4,1460,525312,1,16778208,990000,58156,53812,65700,0,15928,0,2650704556,63
o,1723651795.779475,172.16.3.2,64034,172.16.1.2,5101,11584,15952,38,64256,65728,6,6,4,1460,528437,1,16778208,950000,58156,50916,65700,0,13032,0,2650704556,63
i,1723651795.780544,172.16.3.2,64034,172.16.1.2,5101,11584,15952,38,64256,65728,6,6,4,1460,528437,1,16778208,950000,58156,58156,65700,0,15928,0,2650704556,63
o,1723651795.780570,172.16.3.2,64034,172.16.1.2,5101,11584,15952,38,64256,65728,6,6,4,1460,525000,1,16778208,920000,58156,55260,65700,0,13032,0,2650704556,63
i,1723651796.216404,172.16.3.2,64034,172.16.1.2,5101,11584,15952,38,64256,65728,6,6,4,1460,525000,1,16778208,920000,58156,58156,65700,0,15928,0,2650704556,63
o,1723651796.216496,172.16.3.2,64034,172.16.1.2,5101,11584,15952,38,64256,65728,6,6,4,1460,518125,1,16778208,920000,58156,55260,65700,0,13032,0,2650704556,63
i,1723651796.239160,172.16.3.2,64034,172.16.1.2,5101,11584,15952,38,64256,65728,6,6,4,1460,518125,1,16778208,920000,58156,58156,65700,0,15928,0,2650704556,63
o,1723651796.239195,172.16.3.2,64034,172.16.1.2,5101,11584,15952,38,64256,65728,6,6,4,1460,514687,1,16778208,890000,58156,55260,65700,0,13032,0,2650704556,63
o,1723651796.239370,172.16.3.2,64034,172.16.1.2,5101,11584,15952,38,64256,65728,6,6,4,1460,514687,1,16778208,890000,58156,55260,65700,0,14480,0,2650704556,63
i,1723651796.239560,172.16.3.2,64034,172.16.1.2,5101,11584,15952,38,64256,65728,6,6,4,1460,514687,1,16778208,890000,58156,55260,65700,0,15928,0,2650704556,63
o,1723651796.239583,172.16.3.2,64034,172.16.1.2,5101,11584,17412,38,64256,65728,6,6,4,1460,508125,1,16778208,890000,58156,52364,65700,0,13032,0,2650704556,63
i,1723651796.239764,172.16.3.2,64034,172.16.1.2,5101,11584,17412,38,64256,65728,6,6,4,1460,508125,1,16778208,890000,58156,52364,65700,0,17376,0,2650704556,63
o,1723651796.239794,172.16.3.2,64034,172.16.1.2,5101,11584,17412,38,64256,65728,6,6,4,1460,502187,1,16778208,890000,58156,49468,65700,0,14480,0,2650704556,63
i,1723651796.249651,172.16.3.2,64034,172.16.1.2,5101,11584,17412,38,64256,65728,6,6,4,1460,502187,1,16778208,890000,58156,58156,65700,0,17376,0,2650704556,63
o,1723651796.249726,172.16.3.2,64034,172.16.1.2,5101,11584,17412,38,64256,65728,6,6,4,1460,498437,1,16778208,870000,58156,55260,65700,0,14480,0,2650704556,63
i,1723651796.308327,172.16.3.2,64034,172.16.1.2,5101,11584,17412,38,64256,65728,6,6,4,1460,498437,1,16778208,870000,58156,58156,65700,0,17376,0,2650704556,63
o,1723651796.308369,172.16.3.2,64034,172.16.1.2,5101,11584,17412,38,65728,65728,6,6,4,1460,502500,1,16778208,860000,58156,56708,65700,0,15928,0,2650704556,63
i,1723651796.620872,172.16.3.2,64034,172.16.1.2,5101,11584,17412,38,65728,65728,6,6,4,1460,502500,1,16778208,860000,58156,56708,65700,0,17376,0,2650704556,63
o,1723651796.620962,172.16.3.2,64034,172.16.1.2,5101,11584,17412,38,64256,65728,6,6,4,1460,489687,1,16778208,910000,58156,53812,65700,0,14480,0,2650704556,63
i,1723651796.642325,172.16.3.2,64034,172.16.1.2,5101,11584,17412,38,64256,65728,6,6,4,1460,489687,1,16778208,910000,58156,58156,65700,0,17376,0,2650704556,63
o,1723651796.642458,172.16.3.2,64034,172.16.1.2,5101,11584,17412,38,64256,65728,6,6,4,1460,478750,1,16778208,930000,58156,55260,65700,0,14480,0,2650704556,63
o,1723651796.642648,172.16.3.2,64034,172.16.1.2,5101,11584,17412,38,64256,65728,6,6,4,1460,478750,1,16778208,930000,58156,55260,65700,0,15928,0,2650704556,63
i,1723651796.642810,172.16.3.2,64034,172.16.1.2,5101,11584,17412,38,64256,65728,6,6,4,1460,478750,1,16778208,930000,58156,55260,65700,0,17376,0,2650704556,63
o,1723651796.642833,172.16.3.2,64034,172.16.1.2,5101,11584,18872,38,64256,65728,6,6,4,1460,469062,1,16778208,940000,58156,52364,65700,0,14480,0,2650704556,63
i,1723651796.643085,172.16.3.2,64034,172.16.1.2,5101,11584,18872,38,64256,65728,6,6,4,1460,469062,1,16778208,940000,58156,52364,65700,0,18824,0,2650704556,63
o,1723651796.643101,172.16.3.2,64034,172.16.1.2,5101,11584,18872,38,64256,65728,6,6,4,1460,460625,1,16778208,930000,58156,49468,65700,0,15928,0,2650704556,63
i,1723651796.643286,172.16.3.2,64034,172.16.1.2,5101,11584,18872,38,64256,65728,6,6,4,1460,460625,1,16778208,930000,58156,49468,65700,0,18824,0,2650704556,63
o,1723651796.643305,172.16.3.2,64034,172.16.1.2,5101,11584,18872,38,64256,65728,6,6,4,1460,453125,1,16778208,910000,58156,46572,65700,0,15928,0,2650704556,63
i,1723651796.683126,172.16.3.2,64034,172.16.1.2,5101,11584,18872,38,64256,65728,6,6,4,1460,453125,1,16778208,910000,58156,58156,65700,0,18824,0,2650704556,63
o,1723651796.683253,172.16.3.2,64034,172.16.1.2,5101,11584,18872,38,64256,65728,6,6,4,1460,451562,1,16778208,860000,58156,55260,65700,0,15928,0,2650704556,63
i,1723651797.048079,172.16.3.2,64034,172.16.1.2,5101,11584,18872,38,64256,65728,6,6,4,1460,451562,1,16778208,860000,58156,58156,65700,0,18824,0,2650704556,63
o,1723651797.048119,172.16.3.2,64034,172.16.1.2,5101,11584,18872,38,64256,65728,6,6,4,1460,449062,1,16778208,820000,58156,55260,65700,0,15928,0,2650704556,63
i,1723651797.048539,172.16.3.2,64034,172.16.1.2,5101,11584,18872,38,64256,65728,6,6,4,1460,449062,1,16778208,820000,58156,55260,65700,0,18824,0,2650704556,63
o,1723651797.048554,172.16.3.2,64034,172.16.1.2,5101,11584,18872,38,64256,65728,6,6,4,1460,443125,1,16778208,820000,58156,52364,65700,0,15928,0,2650704556,63
o,1723651797.048554,172.16.3.2,64034,172.16.1.2,5101,11584,18872,38,64256,65728,6,6,4,1460,443125,1,16778208,820000,58156,52364,65700,0,17376,0,2650704556,63
i,1723651797.048554,172.16.3.2,64034,172.16.1.2,5101,11584,18872,38,64256,65728,6,6,4,1460,443125,1,16778208,820000,58156,52364,65700,0,18824,0,2650704556,63
o,1723651797.048554,172.16.3.2,64034,172.16.1.2,5101,11584,18872,38,64256,65728,6,6,4,1460,437812,1,16778208,810000,58156,49468,65700,0,15928,0,2650704556,63
i,1723651797.048554,172.16.3.2,64034,172.16.1.2,5101,11584,18872,38,64256,65728,6,6,4,1460,437812,1,16778208,810000,58156,49468,65700,0,18824,0,2650704556,63
o,1723651797.048554,172.16.3.2,64034,172.16.1.2,5101,11584,20332,38,64256,65728,6,6,4,1460,433125,1,16778208,800000,58156,46572,65700,0,15928,0,2650704556,63
i,1723651797.079727,172.16.3.2,64034,172.16.1.2,5101,11584,20332,38,64256,65728,6,6,4,1460,433125,1,16778208,800000,58156,58156,65700,0,20272,0,2650704556,63
o,1723651797.079815,172.16.3.2,64034,172.16.1.2,5101,11584,20332,38,64256,65728,6,6,4,1460,432812,1,16778208,760000,58156,52364,65700,0,14480,0,2650704556,63
i,1723651797.408845,172.16.3.2,64034,172.16.1.2,5101,11584,20332,38,64256,65728,6,6,4,1460,432812,1,16778208,760000,58156,58156,65700,0,20272,0,2650704556,63
o,1723651797.408933,172.16.3.2,64034,172.16.1.2,5101,11584,20332,38,65728,65728,6,6,4,1460,468750,1,16778208,1050000,58156,56708,65700,0,18824,0,2650704556,63
i,1723651797.487028,172.16.3.2,64034,172.16.1.2,5101,11584,20332,38,65728,65728,6,6,4,1460,468750,1,16778208,1050000,58156,56708,65700,0,20272,0,2650704556,63
o,1723651797.487295,172.16.3.2,64034,172.16.1.2,5101,11584,20332,38,64256,65728,6,6,4,1460,465312,1,16778208,980000,58156,50916,65700,0,14480,0,2650704556,63
o,1723651797.487850,172.16.3.2,64034,172.16.1.2,5101,11584,20332,38,64256,65728,6,6,4,1460,465312,1,16778208,980000,58156,50916,65700,0,15928,0,2650704556,63
i,1723651797.488478,172.16.3.2,64034,172.16.1.2,5101,11584,20332,38,64256,65728,6,6,4,1460,465312,1,16778208,980000,58156,50916,65700,0,20272,0,2650704556,63
o,1723651797.488827,172.16.3.2,64034,172.16.1.2,5101,11584,20332,38,64256,65728,6,6,4,1460,462187,1,16778208,920000,58156,48020,65700,0,17376,0,2650704556,63
i,1723651797.489275,172.16.3.2,64034,172.16.1.2,5101,11584,20332,38,64256,65728,6,6,4,1460,462187,1,16778208,920000,58156,48020,65700,0,20272,0,2650704556,63
o,1723651797.489367,172.16.3.2,64034,172.16.1.2,5101,11584,21792,38,64256,65728,6,6,4,1460,459687,1,16778208,870000,58156,45124,65700,0,17376,0,2650704556,63
i,1723651797.540483,172.16.3.2,64034,172.16.1.2,5101,11584,21792,38,64256,65728,6,6,4,1460,459687,1,16778208,870000,58156,58156,65700,0,21720,0,2650704556,63
o,1723651797.540519,172.16.3.2,64034,172.16.1.2,5101,11584,21792,38,64256,65728,6,6,4,1460,463750,1,16778208,860000,58156,55260,65700,0,18824,0,2650704556,63
i,1723651797.548351,172.16.3.2,64034,172.16.1.2,5101,11584,21792,38,64256,65728,6,6,4,1460,463750,1,16778208,860000,58156,56528,65700,0,21720,0,2650704556,63
o,1723651797.548428,172.16.3.2,64034,172.16.1.2,5101,11584,21792,38,64256,65728,6,6,4,1460,463437,1,16778208,810000,58156,53632,65700,0,18824,0,2650704556,63
i,1723651797.860605,172.16.3.2,64034,172.16.1.2,5101,11584,21792,38,64256,65728,6,6,4,1460,463437,1,16778208,810000,58156,58156,65700,0,21720,0,2650704556,63
o,1723651797.860640,172.16.3.2,64034,172.16.1.2,5101,11584,21792,38,65728,65728,6,6,4,1460,501875,1,16778208,1120000,58156,56708,65700,0,20272,0,2650704556,63
i,1723651797.908156,172.16.3.2,64034,172.16.1.2,5101,11584,21792,38,65728,65728,6,6,4,1460,501875,1,16778208,1120000,58156,56708,65700,0,21720,0,2650704556,63
o,1723651797.908215,172.16.3.2,64034,172.16.1.2,5101,11584,21792,38,65728,65728,6,6,4,1460,501875,1,16778208,1010000,58156,55260,65700,0,20272,0,2650704556,63
i,1723651797.930121,172.16.3.2,64034,172.16.1.2,5101,11584,21792,38,65728,65728,6,6,4,1460,501875,1,16778208,1010000,58156,58156,65700,0,21720,0,2650704556,63
o,1723651797.930165,172.16.3.2,64034,172.16.1.2,5101,11584,21792,38,65728,65728,6,6,4,1460,493125,1,16778208,1000000,58156,56708,65700,0,20272,0,2650704556,63
i,1723651797.937985,172.16.3.2,64034,172.16.1.2,5101,11584,21792,38,65728,65728,6,6,4,1460,493125,1,16778208,1000000,58156,56708,65700,0,21720,0,2650704556,63
o,1723651797.938082,172.16.3.2,64034,172.16.1.2,5101,11584,21792,38,64256,65728,6,6,4,1460,486562,1,16778208,970000,58156,53812,65700,0,18824,0,2650704556,63
i,1723651797.957008,172.16.3.2,64034,172.16.1.2,5101,11584,21792,38,64256,65728,6,6,4,1460,486562,1,16778208,970000,58156,58156,65700,0,21720,0,2650704556,63
o,1723651797.957120,172.16.3.2,64034,172.16.1.2,5101,11584,21792,38,64256,65728,6,6,4,1460,483437,1,16778208,920000,58156,55260,65700,0,18824,0,2650704556,63
i,1723651797.957279,172.16.3.2,64034,172.16.1.2,5101,11584,21792,38,64256,65728,6,6,4,1460,483437,1,16778208,920000,58156,55260,65700,0,21720,0,2650704556,63
o,1723651797.957296,172.16.3.2,64034,172.16.1.2,5101,11584,21792,38,64256,65728,6,6,4,1460,480625,1,16778208,880000,58156,52364,65700,0,18824,0,2650704556,63
i,1723651797.958215,172.16.3.2,64034,172.16.1.2,5101,11584,21792,38,64256,65728,6,6,4,1460,480625,1,16778208,880000,58156,58156,65700,0,21720,0,2650704556,63
o,1723651797.958281,172.16.3.2,64034,172.16.1.2,5101,11584,23252,38,64256,65728,6,6,4,1460,478125,1,16778208,850000,58156,55260,65700,0,18824,0,2650704556,63
i,1723651797.981578,172.16.3.2,64034,172.16.1.2,5101,11584,23252,38,64256,65728,6,6,4,1460,478125,1,16778208,850000,58156,58156,65700,0,23168,0,2650704556,63
o,1723651797.981608,172.16.3.2,64034,172.16.1.2,5101,11584,23252,38,64256,65728,6,6,4,1460,473437,1,16778208,840000,58156,55260,65700,0,20272,0,2650704556,63
i,1723651797.981740,172.16.3.2,64034,172.16.1.2,5101,11584,23252,38,64256,65728,6,6,4,1460,473437,1,16778208,840000,58156,55260,65700,0,23168,0,2650704556,63
o,1723651797.981776,172.16.3.2,64034,172.16.1.2,5101,11584,23252,38,64256,65728,6,6,4,1460,468125,1,16778208,830000,58156,52364,65700,0,20272,0,2650704556,63
i,1723651798.387149,172.16.3.2,64034,172.16.1.2,5101,11584,23252,38,64256,65728,6,6,4,1460,468125,1,16778208,830000,58156,58156,65700,0,23168,0,2650704556,63
o,1723651798.387474,172.16.3.2,64034,172.16.1.2,5101,11584,23252,38,65728,65728,6,6,4,1460,475937,1,16778208,860000,58156,56708,65700,0,21720,0,2650704556,63
i,1723651798.388817,172.16.3.2,64034,172.16.1.2,5101,11584,23252,38,65728,65728,6,6,4,1460,475937,1,16778208,860000,58156,56708,65700,0,23168,0,2650704556,63
o,1723651798.388909,172.16.3.2,64034,172.16.1.2,5101,11584,23252,38,65728,65728,6,6,4,1460,476562,1,16778208,820000,58156,55260,65700,0,21720,0,2650704556,63
i,1723651798.428315,172.16.3.2,64034,172.16.1.2,5101,11584,23252,38,65728,65728,6,6,4,1460,476562,1,16778208,820000,58156,58156,65700,0,23168,0,2650704556,63
o,1723651798.428370,172.16.3.2,64034,172.16.1.2,5101,11584,23252,38,64256,65728,6,6,4,1460,478437,1,16778208,800000,58156,55260,65700,0,20272,0,2650704556,63
o,1723651798.428511,172.16.3.2,64034,172.16.1.2,5101,11584,23252,38,64256,65728,6,6,4,1460,478437,1,16778208,800000,58156,55260,65700,0,21720,0,2650704556,63
i,1723651798.428691,172.16.3.2,64034,172.16.1.2,5101,11584,23252,38,64256,65728,6,6,4,1460,478437,1,16778208,800000,58156,55260,65700,0,23168,0,2650704556,63
o,1723651798.428707,172.16.3.2,64034,172.16.1.2,5101,11584,23252,38,64256,65728,6,6,4,1460,480000,1,16778208,790000,58156,52364,65700,0,20272,0,2650704556,63
i,1723651798.428827,172.16.3.2,64034,172.16.1.2,5101,11584,23252,38,64256,65728,6,6,4,1460,480000,1,16778208,790000,58156,52364,65700,0,23168,0,2650704556,63
o,1723651798.428843,172.16.3.2,64034,172.16.1.2,5101,11584,23252,38,64256,65728,6,6,4,1460,477500,1,16778208,780000,58156,49468,65700,0,20272,0,2650704556,63
i,1723651798.429006,172.16.3.2,64034,172.16.1.2,5101,11584,23252,38,64256,65728,6,6,4,1460,477500,1,16778208,780000,58156,49468,65700,0,23168,0,2650704556,63
o,1723651798.429021,172.16.3.2,64034,172.16.1.2,5101,11584,23252,38,64256,65728,6,6,4,1460,475312,1,16778208,770000,58156,46572,65700,0,20272,0,2650704556,63
i,1723651798.488213,172.16.3.2,64034,172.16.1.2,5101,11584,23252,38,64256,65728,6,6,4,1460,475312,1,16778208,770000,58156,58156,65700,0,23168,0,2650704556,63
o,1723651798.488261,172.16.3.2,64034,172.16.1.2,5101,11584,23252,38,65728,65728,6,6,4,1460,480937,1,16778208,790000,58156,56708,65700,0,21720,0,2650704556,63
i,1723651798.488882,172.16.3.2,64034,172.16.1.2,5101,11584,23252,38,65728,65728,6,6,4,1460,480937,1,16778208,790000,58156,56708,65700,0,23168,0,2650704556,63
o,1723651798.488920,172.16.3.2,64034,172.16.1.2,5101,11584,24712,38,64256,65728,6,6,4,1460,484687,1,16778208,800000,58156,50916,65700,0,17376,0,2650704556,63
i,1723651798.698961,172.16.3.2,64034,172.16.1.2,5101,11584,24712,38,64256,65728,6,6,4,1460,484687,1,16778208,800000,58156,58156,65700,0,24616,0,2650704556,63
o,1723651798.699048,172.16.3.2,64034,172.16.1.2,5101,11584,24712,38,65728,65728,6,6,4,1460,514375,1,16778208,1040000,58156,56708,65700,0,23168,0,2650704556,63
i,1723651799.003040,172.16.3.2,64034,172.16.1.2,5101,11584,24712,38,65728,65728,6,6,4,1460,514375,1,16778208,1040000,58156,56708,65700,0,24616,0,2650704556,63
o,1723651799.003095,172.16.3.2,64034,172.16.1.2,5101,11584,24712,38,65728,65728,6,6,4,1460,526562,1,16778208,1070000,58156,55260,65700,0,23168,0,2650704556,63
i,1723651799.031213,172.16.3.2,64034,172.16.1.2,5101,11584,24712,38,65728,65728,6,6,4,1460,526562,1,16778208,1070000,58156,58156,65700,0,24616,0,2650704556,63
o,1723651799.031257,172.16.3.2,64034,172.16.1.2,5101,11584,24712,38,65728,65728,6,6,4,1460,539687,1,16778208,1100000,58156,56708,65700,0,23168,0,2650704556,63
i,1723651799.031389,172.16.3.2,64034,172.16.1.2,5101,11584,24712,38,65728,65728,6,6,4,1460,539687,1,16778208,1100000,58156,56708,65700,0,24616,0,2650704556,63
o,1723651799.031424,172.16.3.2,64034,172.16.1.2,5101,11584,24712,38,64256,65728,6,6,4,1460,547500,1,16778208,1080000,58156,53812,65700,0,21720,0,2650704556,63
o,1723651799.031532,172.16.3.2,64034,172.16.1.2,5101,11584,24712,38,64256,65728,6,6,4,1460,547500,1,16778208,1080000,58156,53812,65700,0,23168,0,2650704556,63
i,1723651799.059280,172.16.3.2,64034,172.16.1.2,5101,11584,24712,38,64256,65728,6,6,4,1460,547500,1,16778208,1080000,58156,58156,65700,0,24616,0,2650704556,63
o,1723651799.059314,172.16.3.2,64034,172.16.1.2,5101,11584,24712,38,64256,65728,6,6,4,1460,557812,1,16778208,1090000,58156,55260,65700,0,21720,0,2650704556,63
i,1723651799.074852,172.16.3.2,64034,172.16.1.2,5101,11584,24712,38,64256,65728,6,6,4,1460,557812,1,16778208,1090000,58156,58156,65700,0,24616,0,2650704556,63
o,1723651799.074884,172.16.3.2,64034,172.16.1.2,5101,11584,24712,38,62848,65728,6,6,4,1460,569375,1,16778208,1110000,58156,55260,65700,0,21720,0,2650704556,63
i,1723651799.075093,172.16.3.2,64034,172.16.1.2,5101,11584,24712,38,62848,65728,6,6,4,1460,569375,1,16778208,1110000,58156,55260,65700,0,24616,0,2650704556,63
o,1723651799.075110,172.16.3.2,64034,172.16.1.2,5101,11584,24712,38,64256,65728,6,6,4,1460,579687,1,16778208,1120000,58156,52364,65700,0,21720,0,2650704556,63
i,1723651799.075250,172.16.3.2,64034,172.16.1.2,5101,11584,24712,38,64256,65728,6,6,4,1460,579687,1,16778208,1120000,58156,52364,65700,0,24616,0,2650704556,63
o,1723651799.075278,172.16.3.2,64034,172.16.1.2,5101,11584,24712,38,64256,65728,6,6,4,1460,581250,1,16778208,1050000,58156,49468,65700,0,21720,0,2650704556,63
i,1723651799.075403,172.16.3.2,64034,172.16.1.2,5101,11584,24712,38,64256,65728,6,6,4,1460,581250,1,16778208,1050000,58156,49468,65700,0,24616,0,2650704556,63
o,1723651799.075434,172.16.3.2,64034,172.16.1.2,5101,11584,26172,38,64256,65728,6,6,4,1460,582500,1,16778208,990000,58156,46572,65700,0,21720,0,2650704556,63
i,1723651799.075616,172.16.3.2,64034,172.16.1.2,5101,11584,26172,38,64256,65728,6,6,4,1460,582500,1,16778208,990000,58156,46572,65700,0,26064,0,2650704556,63
o,1723651799.075633,172.16.3.2,64034,172.16.1.2,5101,13032,26064,38,64256,65728,6,6,4,1460,583437,1,553649120,950000,58156,43676,65700,0,23168,0,2650704556,63
i,1723651799.468801,172.16.3.2,64034,172.16.1.2,5101,13032,26064,38,64256,65728,6,6,4,1460,583437,1,553649120,950000,58156,58156,65700,0,26064,0,2650704556,63
i,1723651799.638363,172.16.3.2,64034,172.16.1.2,5101,13032,24616,38,65728,65728,6,6,4,1460,605625,1,553649120,1110000,58156,56708,65700,0,24616,0,2650704556,63
o,1723651799.638412,172.16.3.2,64034,172.16.1.2,5101,13032,24616,34,65728,65728,6,6,4,1460,608750,1,553649120,1060000,58156,55260,65700,0,23168,0,2650704556,63
i,1723651799.638574,172.16.3.2,64034,172.16.1.2,5101,13032,24616,34,65728,65728,6,6,4,1460,608750,1,553649120,1060000,58156,55260,65700,0,24616,0,2650704556,63
i,1723651799.669523,172.16.3.2,64034,172.16.1.2,5101,13032,23168,34,65728,65728,6,6,4,1460,609062,1,553649120,1000000,58156,58156,65700,0,23168,0,2650704556,63
o,1723651799.669561,172.16.3.2,64034,172.16.1.2,5101,13032,21720,34,64256,65728,6,6,4,1460,613125,1,553649120,990000,58156,55260,65700,0,20272,0,2650704556,63
i,1723651799.669749,172.16.3.2,64034,172.16.1.2,5101,13032,21720,34,64256,65728,6,6,4,1460,613125,1,553649120,990000,58156,55260,65700,0,21720,0,2650704556,63
o,1723651799.669766,172.16.3.2,64034,172.16.1.2,5101,13032,20272,34,64256,65728,6,6,4,1460,611562,1,553649120,950000,58156,52364,65700,0,18824,0,2650704556,63
i,1723651799.669934,172.16.3.2,64034,172.16.1.2,5101,13032,20272,34,64256,65728,6,6,4,1460,611562,1,553649120,950000,58156,52364,65700,0,20272,0,2650704556,63
o,1723651799.669951,172.16.3.2,64034,172.16.1.2,5101,13032,18824,34,64256,65728,6,6,4,1460,609062,1,553649120,940000,58156,49468,65700,0,17376,0,2650704556,63
i,1723651799.678153,172.16.3.2,64034,172.16.1.2,5101,13032,18824,34,64256,65728,6,6,4,1460,609062,1,553649120,940000,58156,58156,65700,0,18824,0,2650704556,63
o,1723651799.678201,172.16.3.2,64034,172.16.1.2,5101,13032,17376,34,64256,65728,6,6,4,1460,608125,1,553649120,910000,58156,55260,65700,0,15928,0,2650704556,63
i,1723651799.699941,172.16.3.2,64034,172.16.1.2,5101,13032,17376,34,64256,65728,6,6,4,1460,608125,1,553649120,910000,58156,58156,65700,0,17376,0,2650704556,63
o,1723651799.700004,172.16.3.2,64034,172.16.1.2,5101,13032,15928,34,64256,65728,6,6,4,1460,609687,1,553649120,900000,58156,55260,65700,0,14480,0,2650704556,63
i,1723651799.700184,172.16.3.2,64034,172.16.1.2,5101,13032,15928,34,64256,65728,6,6,4,1460,609687,1,553649120,900000,58156,55260,65700,0,15928,0,2650704556,63
o,1723651799.700206,172.16.3.2,64034,172.16.1.2,5101,13032,14480,34,64256,65728,6,6,4,1460,611250,1,553649120,890000,58156,52364,65700,0,13032,0,2650704556,63
i,1723651799.700334,172.16.3.2,64034,172.16.1.2,5101,13032,14480,34,64256,65728,6,6,4,1460,611250,1,553649120,890000,58156,52364,65700,0,14480,0,2650704556,63
o,1723651799.700353,172.16.3.2,64034,172.16.1.2,5101,13032,14480,38,64256,65728,6,6,4,1460,612500,1,16778208,880000,58156,49468,65700,0,11584,0,2650704556,63
i,1723651799.700532,172.16.3.2,64034,172.16.1.2,5101,13032,14480,38,64256,65728,6,6,4,1460,612500,1,16778208,880000,58156,49468,65700,0,14480,0,2650704556,63
o,1723651799.700550,172.16.3.2,64034,172.16.1.2,5101,7240,14480,34,65728,65728,6,6,4,1460,613437,1,553649120,870000,58156,48020,65700,0,13032,0,2650704556,63
i,1723651800.116691,172.16.3.2,64034,172.16.1.2,5101,7240,14480,34,65728,65728,6,6,4,1460,613437,1,553649120,870000,58156,58156,65700,0,14480,0,2650704556,63
i,1723651800.137996,172.16.3.2,64034,172.16.1.2,5101,7240,13032,34,65728,65728,6,6,4,1460,596875,1,553649120,970000,58156,56708,65700,0,13032,0,2650704556,63
o,1723651800.138097,172.16.3.2,64034,172.16.1.2,5101,7240,11584,34,64256,65728,6,6,4,1460,581250,1,553649120,1040000,58156,53812,65700,0,10136,0,2650704556,63
i,1723651800.138270,172.16.3.2,64034,172.16.1.2,5101,7240,11584,34,64256,65728,6,6,4,1460,581250,1,553649120,1040000,58156,53812,65700,0,11584,0,2650704556,63
i,1723651800.138325,172.16.3.2,64034,172.16.1.2,5101,7240,8688,34,64256,65728,6,6,4,1460,567500,1,553649120,1070000,58156,50916,65700,0,8688,0,2650704556,63
o,1723651800.138342,172.16.3.2,64034,172.16.1.2,5101,7240,4344,34,64256,65728,6,6,4,1460,551562,1,553649120,1110000,58156,45124,65700,0,2896,0,2650704556,63
i,1723651800.178239,172.16.3.2,64034,172.16.1.2,5101,7240,4344,34,64256,65728,6,6,4,1460,551562,1,553649120,1110000,58156,58156,65700,0,4344,0,2650704556,63
o,1723651800.178308,172.16.3.2,64034,172.16.1.2,5101,7240,4344,34,65728,65728,6,6,4,1460,542812,1,16778208,1080000,58156,56708,65700,0,2896,0,2650704556,63
i,1723651800.369752,172.16.3.2,64034,172.16.1.2,5101,7240,4344,34,65728,65728,6,6,4,1460,542812,1,16778208,1080000,58156,56708,65700,0,4344,0,2650704556,63
o,1723651800.369975,172.16.3.2,64034,172.16.1.2,5101,7240,5792,38,65728,65728,6,6,4,1460,503750,1,16778208,1270000,58156,55260,65700,0,2896,0,2650704556,63
o,1723651800.370477,172.16.3.2,64034,172.16.1.2,5101,7240,5792,34,65728,65728,6,6,4,1460,503750,1,16778208,1270000,58156,55260,65700,0,4344,0,2650704556,63
i,1723651800.381044,172.16.3.2,64034,172.16.1.2,5101,7240,5792,34,65728,65728,6,6,4,1460,503750,1,16778208,1270000,58156,58156,65700,0,5792,0,2650704556,63
o,1723651800.381091,172.16.3.2,64034,172.16.1.2,5101,7240,8688,38,64256,65728,6,6,4,1460,470937,1,16778208,1360000,58156,55260,65700,0,2896,0,2650704556,63
i,1723651800.688758,172.16.3.2,64034,172.16.1.2,5101,7240,8688,38,64256,65728,6,6,4,1460,470937,1,16778208,1360000,58156,58156,65700,0,8688,0,2650704556,63
o,1723651800.688842,172.16.3.2,64034,172.16.1.2,5101,7240,8688,38,64256,65728,6,6,4,1460,450937,1,16778208,1320000,58156,55260,65700,0,5792,0,2650704556,63
o,1723651800.688968,172.16.3.2,64034,172.16.1.2,5101,7240,8688,34,64256,65728,6,6,4,1460,450937,1,16778208,1320000,58156,55260,65700,0,7240,0,2650704556,63
i,1723651800.727863,172.16.3.2,64034,172.16.1.2,5101,7240,8688,34,64256,65728,6,6,4,1460,450937,1,16778208,1320000,58156,58156,65700,0,8688,0,2650704556,63
o,1723651800.727943,172.16.3.2,64034,172.16.1.2,5101,7240,8688,38,64256,65728,6,6,4,1460,438437,1,16778208,1240000,58156,55260,65700,0,5792,0,2650704556,63
i,1723651800.728083,172.16.3.2,64034,172.16.1.2,5101,7240,8688,38,64256,65728,6,6,4,1460,438437,1,16778208,1240000,58156,55260,65700,0,8688,0,2650704556,63
o,1723651800.728101,172.16.3.2,64034,172.16.1.2,5101,7240,10148,38,64256,65728,6,6,4,1460,427500,1,16778208,1170000,58156,52364,65700,0,5792,0,2650704556,63
i,1723651801.109361,172.16.3.2,64034,172.16.1.2,5101,7240,10148,38,64256,65728,6,6,4,1460,427500,1,16778208,1170000,58156,58156,65700,0,10136,0,2650704556,63
o,1723651801.109397,172.16.3.2,64034,172.16.1.2,5101,7240,10148,38,64256,65728,6,6,4,1460,425312,1,16778208,1050000,58156,55260,65700,0,7240,0,2650704556,63
o,1723651801.109583,172.16.3.2,64034,172.16.1.2,5101,7240,10148,38,64256,65728,6,6,4,1460,425312,1,16778208,1050000,58156,55260,65700,0,8688,0,2650704556,63
i,1723651801.109726,172.16.3.2,64034,172.16.1.2,5101,7240,10148,38,64256,65728,6,6,4,1460,425312,1,16778208,1050000,58156,55260,65700,0,10136,0,2650704556,63
o,1723651801.109743,172.16.3.2,64034,172.16.1.2,5101,7240,10148,38,64256,65728,6,6,4,1460,419687,1,16778208,980000,58156,52364,65700,0,7240,0,2650704556,63
i,1723651801.109897,172.16.3.2,64034,172.16.1.2,5101,7240,10148,38,64256,65728,6,6,4,1460,419687,1,16778208,980000,58156,52364,65700,0,10136,0,2650704556,63
o,1723651801.109913,172.16.3.2,64034,172.16.1.2,5101,7240,10148,38,64256,65728,6,6,4,1460,415000,1,16778208,930000,58156,49468,65700,0,7240,0,2650704556,63
i,1723651801.147692,172.16.3.2,64034,172.16.1.2,5101,7240,10148,38,64256,65728,6,6,4,1460,415000,1,16778208,930000,58156,58156,65700,0,10136,0,2650704556,63
o,1723651801.147810,172.16.3.2,64034,172.16.1.2,5101,7240,10148,38,65728,65728,6,6,4,1460,415625,1,16778208,850000,58156,56708,65700,0,8688,0,2650704556,63
i,1723651801.509041,172.16.3.2,64034,172.16.1.2,5101,7240,10148,38,65728,65728,6,6,4,1460,415625,1,16778208,850000,58156,56708,65700,0,10136,0,2650704556,63
o,1723651801.509334,172.16.3.2,64034,172.16.1.2,5101,7240,11608,38,64256,65728,6,6,4,1460,413750,1,16778208,810000,58156,53812,65700,0,7240,0,2650704556,63
o,1723651801.509716,172.16.3.2,64034,172.16.1.2,5101,7240,11608,38,64256,65728,6,6,4,1460,413750,1,16778208,810000,58156,53812,65700,0,8688,0,2650704556,63
i,1723651801.510115,172.16.3.2,64034,172.16.1.2,5101,7240,11608,38,64256,65728,6,6,4,1460,413750,1,16778208,810000,58156,53812,65700,0,11584,0,2650704556,63
o,1723651801.510206,172.16.3.2,64034,172.16.1.2,5101,7240,11608,38,64256,65728,6,6,4,1460,412187,1,16778208,770000,58156,50916,65700,0,8688,0,2650704556,63
i,1723651801.510564,172.16.3.2,64034,172.16.1.2,5101,7240,11608,38,64256,65728,6,6,4,1460,412187,1,16778208,770000,58156,50916,65700,0,11584,0,2650704556,63
o,1723651801.510651,172.16.3.2,64034,172.16.1.2,5101,7240,11608,38,64256,65728,6,6,4,1460,410937,1,16778208,740000,58156,48020,65700,0,8688,0,2650704556,63
i,1723651801.694301,172.16.3.2,64034,172.16.1.2,5101,7240,11608,38,64256,65728,6,6,4,1460,410937,1,16778208,740000,58156,58156,65700,0,11584,0,2650704556,63
o,1723651801.694409,172.16.3.2,64034,172.16.1.2,5101,7240,11608,38,65728,65728,6,6,4,1460,428437,1,16778208,860000,58156,56708,65700,0,10136,0,2650704556,63
i,1723651801.968918,172.16.3.2,64034,172.16.1.2,5101,7240,11608,38,65728,65728,6,6,4,1460,428437,1,16778208,860000,58156,56708,65700,0,11584,0,2650704556,63
o,1723651801.968990,172.16.3.2,64034,172.16.1.2,5101,7240,13068,38,64256,65728,6,6,4,1460,431250,1,16778208,830000,58156,53812,65700,0,8688,0,2650704556,63
o,1723651801.969188,172.16.3.2,64034,172.16.1.2,5101,7240,13068,38,64256,65728,6,6,4,1460,431250,1,16778208,830000,58156,53812,65700,0,10136,0,2650704556,63
i,1723651801.969390,172.16.3.2,64034,172.16.1.2,5101,7240,13068,38,64256,65728,6,6,4,1460,431250,1,16778208,830000,58156,53812,65700,0,13032,0,2650704556,63
o,1723651801.969417,172.16.3.2,64034,172.16.1.2,5101,7240,13068,38,64256,65728,6,6,4,1460,433750,1,16778208,800000,58156,50916,65700,0,10136,0,2650704556,63
i,1723651801.970671,172.16.3.2,64034,172.16.1.2,5101,7240,13068,38,64256,65728,6,6,4,1460,433750,1,16778208,800000,58156,58156,65700,0,13032,0,2650704556,63
o,1723651801.970691,172.16.3.2,64034,172.16.1.2,5101,7240,13068,38,65728,65728,6,6,4,1460,435937,1,16778208,780000,58156,56708,65700,0,11584,0,2650704556,63
i,1723651801.970869,172.16.3.2,64034,172.16.1.2,5101,7240,13068,38,65728,65728,6,6,4,1460,435937,1,16778208,780000,58156,56708,65700,0,13032,0,2650704556,63
o,1723651801.970885,172.16.3.2,64034,172.16.1.2,5101,7240,13068,38,64256,65728,6,6,4,1460,437812,1,16778208,760000,58156,53812,65700,0,10136,0,2650704556,63
i,1723651802.173208,172.16.3.2,64034,172.16.1.2,5101,7240,13068,38,64256,65728,6,6,4,1460,437812,1,16778208,760000,58156,58156,65700,0,13032,0,2650704556,63
o,1723651802.173298,172.16.3.2,64034,172.16.1.2,5101,7240,13068,38,65728,65728,6,6,4,1460,443125,1,16778208,780000,58156,56708,65700,0,11584,0,2650704556,63
i,1723651802.331724,172.16.3.2,64034,172.16.1.2,5101,7240,13068,38,65728,65728,6,6,4,1460,443125,1,16778208,780000,58156,56708,65700,0,13032,0,2650704556,63
o,1723651802.331931,172.16.3.2,64034,172.16.1.2,5101,7240,13068,38,64256,65728,6,6,4,1460,432812,1,16778208,820000,58156,53812,65700,0,10136,0,2650704556,63
o,1723651802.332714,172.16.3.2,64034,172.16.1.2,5101,7240,13068,38,64256,65728,6,6,4,1460,432812,1,16778208,820000,58156,53812,65700,0,11584,0,2650704556,63
i,1723651802.357830,172.16.3.2,64034,172.16.1.2,5101,7240,13068,38,64256,65728,6,6,4,1460,432812,1,16778208,820000,58156,58156,65700,0,13032,0,2650704556,63
o,1723651802.357858,172.16.3.2,64034,172.16.1.2,5101,7240,14528,38,64256,65728,6,6,4,1460,427500,1,16778208,810000,58156,55260,65700,0,10136,0,2650704556,63
i,1723651802.357979,172.16.3.2,64034,172.16.1.2,5101,7240,14528,38,64256,65728,6,6,4,1460,427500,1,16778208,810000,58156,55260,65700,0,14480,0,2650704556,63
o,1723651802.358011,172.16.3.2,64034,172.16.1.2,5101,7240,14528,38,64256,65728,6,6,4,1460,422812,1,16778208,800000,58156,52364,65700,0,11584,0,2650704556,63
