enable_time_secs=1723651264	enable_time_usecs=010421	siftrver=1.3.0	sysname=FreeBSD	sysver=1401000	ipmode=4
o,1723651264.010828,10.0.2.15,22,10.0.2.2,50510,1073725440,17746,1026,65535,65700,0,0,4,1460,312,0,16777220,240000,33580,172,65700,0,0,0,3812249660,63
o,1723651264.011018,10.0.2.15,22,10.0.2.2,50510,1073725440,17746,1026,65535,65700,0,0,4,1460,312,0,16777220,240000,33580,244,65700,0,172,0,3812249660,63
i,1723651264.011496,10.0.2.15,22,10.0.2.2,50510,1073725440,17746,1026,65535,65700,0,0,4,1460,312,0,16777220,240000,33580,244,65700,0,244,0,3812249660,63
i,1723651264.011533,10.0.2.15,22,10.0.2.2,50510,1073725440,17918,1026,65535,65700,0,0,4,1460,312,0,4,240000,33580,72,65700,0,72,0,3812249660,63
i,1723651264.011582,10.0.2.15,22,10.0.2.2,50510,1073725440,17990,1026,65535,65700,0,0,4,1460,312,0,4,240000,33580,0,65700,0,0,0,3812249660,63
i,1723651264.011598,10.0.2.15,22,10.0.2.2,50510,1073725440,17990,1026,65535,65700,0,0,4,1460,312,0,4,240000,33580,0,65700,96,0,0,3812249660,63
o,1723651264.011656,10.0.2.15,22,10.0.2.2,50510,1073725440,17990,1026,65535,65604,0,0,5,1460,312,0,5,240000,33580,0,65700,96,0,0,3812249660,63
o,1723651264.012242,10.0.2.15,22,10.0.2.2,50510,1073725440,17990,1026,65535,65604,0,0,8,1460,312,0,4,240000,33580,0,65700,0,0,0,3812249660,63
i,1723651264.012754,10.0.2.15,22,10.0.2.2,50510,1073725440,17990,1026,65535,65604,0,0,8,1460,312,0,67108884,240000,33580,0,65700,0,1,0,3812249660,63
i,1723651267.209445,10.0.2.15,22,10.0.2.2,50556,1073725440,14600,0,65535,65700,0,0,4,1460,312,0,16777216,270000,33580,0,65700,0,0,0,2898338195,63
o,1723651267.218546,10.0.2.15,22,10.0.2.2,50556,1073725440,14600,1026,65535,65700,0,0,4,1460,312,0,16777216,270000,33580,38,65700,42,0,0,2898338195,63
i,1723651267.219121,10.0.2.15,22,10.0.2.2,50556,1073725440,14600,1026,65535,65700,0,0,4,1460,312,0,16777216,270000,33580,38,65700,0,38,0,2898338195,63
i,1723651267.219557,10.0.2.15,22,10.0.2.2,50556,1073725440,14638,1026,65535,65700,0,0,4,1460,312,0,0,240000,33580,0,65700,0,0,0,2898338195,63
i,1723651267.219573,10.0.2.15,22,10.0.2.2,50556,1073725440,14638,1026,65535,65700,0,0,4,1460,312,0,0,240000,33580,0,65700,1460,0,0,2898338195,63
o,1723651267.219590,10.0.2.15,22,10.0.2.2,50556,1073725440,14638,1026,65535,65700,0,0,4,1460,312,0,1,240000,33580,0,65700,1536,0,0,2898338195,63
o,1723651267.220511,10.0.2.15,22,10.0.2.2,50556,1073725440,14638,1026,65535,65700,0,0,4,1460,312,0,16777216,240000,33580,1120,65700,1536,0,0,2898338195,63
i,1723651267.221520,10.0.2.15,22,10.0.2.2,50556,1073725440,14638,1026,65535,65700,0,0,4,1460,312,0,16777216,240000,33580,1120,65700,0,1120,0,2898338195,63
i,1723651267.222508,10.0.2.15,22,10.0.2.2,50556,1073725440,15758,1026,65535,65700,0,0,4,1460,312,0,0,240000,33580,0,65700,0,0,0,2898338195,63
o,1723651267.226012,10.0.2.15,22,10.0.2.2,50556,1073725440,15758,1026,65535,65700,0,0,4,1460,312,0,16777216,240000,33580,492,65700,0,0,0,2898338195,63
i,1723651267.226511,10.0.2.15,22,10.0.2.2,50556,1073725440,15758,1026,65535,65700,0,0,4,1460,312,0,16777216,240000,33580,492,65700,0,492,0,2898338195,63
i,1723651267.230389,10.0.2.15,22,10.0.2.2,50556,1073725440,16250,1026,65535,65700,0,0,4,1460,312,0,0,240000,33580,0,65700,0,0,0,2898338195,63
i,1723651267.230407,10.0.2.15,22,10.0.2.2,50556,1073725440,16250,1026,65535,65700,0,0,4,1460,312,0,0,240000,33580,0,65700,16,0,0,2898338195,63
o,1723651267.230423,10.0.2.15,22,10.0.2.2,50556,1073725440,16250,1026,65535,65700,0,0,4,1460,312,0,1,240000,33580,0,65700,60,0,0,2898338195,63
o,1723651267.230621,10.0.2.15,22,10.0.2.2,50556,1073725440,16250,1026,65535,65700,0,0,4,1460,312,0,16777216,240000,33580,44,65700,0,0,0,2898338195,63
i,1723651267.231285,10.0.2.15,22,10.0.2.2,50556,1073725440,16250,1026,65535,65700,0,0,4,1460,312,0,16777216,240000,33580,44,65700,0,44,0,2898338195,63
i,1723651267.231302,10.0.2.15,22,10.0.2.2,50556,1073725440,16294,1026,65535,65700,0,0,4,1460,312,0,0,240000,33580,0,65700,0,0,0,2898338195,63
o,1723651267.232222,10.0.2.15,22,10.0.2.2,50556,1073725440,16294,1026,65535,65700,0,0,4,1460,312,0,16777216,240000,33580,68,65700,0,0,0,2898338195,63
i,1723651267.232684,10.0.2.15,22,10.0.2.2,50556,1073725440,16294,1026,65535,65700,0,0,4,1460,312,0,16777216,240000,33580,68,65700,0,68,0,2898338195,63
i,1723651267.232702,10.0.2.15,22,10.0.2.2,50556,1073725440,16362,1026,65535,65700,0,0,4,1460,312,0,0,240000,33580,0,65700,0,0,0,2898338195,63
o,1723651267.233788,10.0.2.15,22,10.0.2.2,50556,1073725440,16362,1026,65535,65700,0,0,4,1460,312,0,16777216,240000,33580,332,65700,0,0,0,2898338195,63
i,1723651267.234613,10.0.2.15,22,10.0.2.2,50556,1073725440,16362,1026,65535,65700,0,0,4,1460,312,0,16777216,240000,33580,332,65700,0,332,0,2898338195,63
i,1723651267.235881,10.0.2.15,22,10.0.2.2,50556,1073725440,16694,1026,65535,65700,0,0,4,1460,312,0,0,240000,33580,0,65700,0,0,0,2898338195,63
o,1723651267.257612,10.0.2.15,22,10.0.2.2,50556,1073725440,16694,1026,65535,65700,0,0,4,1460,312,0,16777216,240000,33580,28,65700,0,0,0,2898338195,63
i,1723651267.260160,10.0.2.15,22,10.0.2.2,50556,1073725440,16694,1026,65535,65700,0,0,4,1460,312,0,16777216,240000,33580,28,65700,0,28,0,2898338195,63
i,1723651267.260231,10.0.2.15,22,10.0.2.2,50556,1073725440,16722,1026,65535,65700,0,0,4,1460,312,0,0,240000,33580,0,65700,0,0,0,2898338195,63
o,1723651267.261263,10.0.2.15,22,10.0.2.2,50556,1073725440,16722,1026,65535,65700,0,0,4,1460,312,0,16777216,240000,33580,768,65700,112,0,0,2898338195,63
i,1723651267.261583,10.0.2.15,22,10.0.2.2,50556,1073725440,16722,1026,65535,65700,0,0,4,1460,312,0,16777216,240000,33580,908,65700,112,768,0,2898338195,63
o,1723651267.261607,10.0.2.15,22,10.0.2.2,50556,1073725440,17490,1026,65535,65700,0,0,4,1460,312,0,16777216,240000,33580,140,65700,112,0,0,2898338195,63
i,1723651267.261986,10.0.2.15,22,10.0.2.2,50556,1073725440,17490,1026,65535,65700,0,0,4,1460,312,0,16777216,240000,33580,140,65700,0,140,0,2898338195,63
o,1723651267.262079,10.0.2.15,22,10.0.2.2,50556,1073725440,17630,1026,65535,65700,0,0,4,1460,312,0,16777216,240000,33580,44,65700,0,0,0,2898338195,63
i,1723651267.262617,10.0.2.15,22,10.0.2.2,50556,1073725440,17630,1026,65535,65700,0,0,4,1460,312,0,16777216,240000,33580,44,65700,0,44,0,2898338195,63
i,1723651267.262634,10.0.2.15,22,10.0.2.2,50556,1073725440,17674,1026,65535,65700,0,0,4,1460,312,0,0,240000,33580,0,65700,0,0,0,2898338195,63
o,1723651267.263205,10.0.2.15,22,10.0.2.2,50556,1073725440,17674,1026,65535,65700,0,0,4,1460,312,0,16777220,240000,33580,72,65700,0,0,0,2898338195,63
i,1723651267.263693,10.0.2.15,22,10.0.2.2,50556,1073725440,17674,1026,65535,65700,0,0,4,1460,312,0,16777220,240000,33580,72,65700,0,72,0,2898338195,63
o,1723651267.265838,10.0.2.15,22,10.0.2.2,50556,1073725440,17746,1026,65535,65700,0,0,4,1460,312,0,16777220,240000,33580,104,65700,0,0,0,2898338195,63
i,1723651267.266221,10.0.2.15,22,10.0.2.2,50556,1073725440,17746,1026,65535,65700,0,0,4,1460,312,0,16777220,240000,33580,104,65700,0,104,0,2898338195,63
o,1723651267.267797,10.0.2.15,22,10.0.2.2,50556,1073725440,17850,1026,65535,65700,0,0,4,1460,312,0,16777220,240000,33580,72,65700,0,0,0,2898338195,63
i,1723651267.269229,10.0.2.15,22,10.0.2.2,50556,1073725440,17850,1026,65535,65700,0,0,4,1460,312,0,16777220,240000,33580,72,65700,0,72,0,2898338195,63
i,1723651267.269245,10.0.2.15,22,10.0.2.2,50556,1073725440,17922,1026,65535,65700,0,0,4,1460,312,0,4,240000,33580,0,65700,0,0,0,2898338195,63
i,1723651267.269261,10.0.2.15,22,10.0.2.2,50556,1073725440,17922,1026,65535,65700,0,0,4,1460,312,0,4,240000,33580,0,65700,96,0,0,2898338195,63
o,1723651267.269277,10.0.2.15,22,10.0.2.2,50556,1073725440,17922,1026,65535,65604,0,0,5,1460,312,0,5,240000,33580,0,65700,96,0,0,2898338195,63
o,1723651267.280449,10.0.2.15,22,10.0.2.2,50556,1073725440,17922,1026,65535,65604,0,0,8,1460,312,0,4,240000,33580,0,65700,0,0,0,2898338195,63
i,1723651267.280786,10.0.2.15,22,10.0.2.2,50556,1073725440,17922,1026,65535,65604,0,0,8,1460,312,0,67108884,240000,33580,0,65700,0,1,0,2898338195,63
i,1723651268.361043,10.0.2.15,22,10.0.2.2,50558,1073725440,14600,0,65535,65700,0,0,4,1460,312,0,16777216,270000,33580,0,65700,0,0,0,4230595199,63
o,1723651268.373723,10.0.2.15,22,10.0.2.2,50558,1073725440,14600,1026,65535,65700,0,0,4,1460,312,0,16777216,270000,33580,38,65700,42,0,0,4230595199,63
i,1723651268.374123,10.0.2.15,22,10.0.2.2,50558,1073725440,14600,1026,65535,65700,0,0,4,1460,312,0,16777216,270000,33580,38,65700,0,38,0,4230595199,63
i,1723651268.374762,10.0.2.15,22,10.0.2.2,50558,1073725440,14638,1026,65535,65700,0,0,4,1460,312,0,0,240000,33580,0,65700,0,0,0,4230595199,63
i,1723651268.374781,10.0.2.15,22,10.0.2.2,50558,1073725440,14638,1026,65535,65700,0,0,4,1460,312,0,0,240000,33580,0,65700,1460,0,0,4230595199,63
o,1723651268.374799,10.0.2.15,22,10.0.2.2,50558,1073725440,14638,1026,65535,65700,0,0,4,1460,312,0,1,240000,33580,0,65700,1536,0,0,4230595199,63
o,1723651268.375968,10.0.2.15,22,10.0.2.2,50558,1073725440,14638,1026,65535,65700,0,0,4,1460,312,0,16777216,240000,33580,1120,65700,1536,0,0,4230595199,63
i,1723651268.376797,10.0.2.15,22,10.0.2.2,50558,1073725440,14638,1026,65535,65700,0,0,4,1460,312,0,16777216,240000,33580,1120,65700,0,1120,0,4230595199,63
i,1723651268.377893,10.0.2.15,22,10.0.2.2,50558,1073725440,15758,1026,65535,65700,0,0,4,1460,312,0,0,240000,33580,0,65700,0,0,0,4230595199,63
o,1723651268.381038,10.0.2.15,22,10.0.2.2,50558,1073725440,15758,1026,65535,65700,0,0,4,1460,312,0,16777216,240000,33580,492,65700,0,0,0,4230595199,63
i,1723651268.381931,10.0.2.15,22,10.0.2.2,50558,1073725440,15758,1026,65535,65700,0,0,4,1460,312,0,16777216,240000,33580,492,65700,0,492,0,4230595199,63
i,1723651268.386153,10.0.2.15,22,10.0.2.2,50558,1073725440,16250,1026,65535,65700,0,0,4,1460,312,0,0,240000,33580,0,65700,0,0,0,4230595199,63
i,1723651268.386179,10.0.2.15,22,10.0.2.2,50558,1073725440,16250,1026,65535,65700,0,0,4,1460,312,0,0,240000,33580,0,65700,16,0,0,4230595199,63
o,1723651268.386205,10.0.2.15,22,10.0.2.2,50558,1073725440,16250,1026,65535,65700,0,0,4,1460,312,0,1,240000,33580,0,65700,60,0,0,4230595199,63
o,1723651268.386458,10.0.2.15,22,10.0.2.2,50558,1073725440,16250,1026,65535,65700,0,0,4,1460,312,0,16777216,240000,33580,44,65700,0,0,0,4230595199,63
i,1723651268.387216,10.0.2.15,22,10.0.2.2,50558,1073725440,16250,1026,65535,65700,0,0,4,1460,312,0,16777216,240000,33580,44,65700,0,44,0,4230595199,63
i,1723651268.387216,10.0.2.15,22,10.0.2.2,50558,1073725440,16294,1026,65535,65700,0,0,4,1460,312,0,0,240000,33580,0,65700,0,0,0,4230595199,63
o,1723651268.389072,10.0.2.15,22,10.0.2.2,50558,1073725440,16294,1026,65535,65700,0,0,4,1460,312,0,16777216,240000,33580,68,65700,0,0,0,4230595199,63
i,1723651268.389830,10.0.2.15,22,10.0.2.2,50558,1073725440,16294,1026,65535,65700,0,0,4,1460,312,0,16777216,240000,33580,68,65700,0,68,0,4230595199,63
i,1723651268.389870,10.0.2.15,22,10.0.2.2,50558,1073725440,16362,1026,65535,65700,0,0,4,1460,312,0,0,240000,33580,0,65700,0,0,0,4230595199,63
o,1723651268.391666,10.0.2.15,22,10.0.2.2,50558,1073725440,16362,1026,65535,65700,0,0,4,1460,312,0,16777216,240000,33580,332,65700,0,0,0,4230595199,63
i,1723651268.392499,10.0.2.15,22,10.0.2.2,50558,1073725440,16362,1026,65535,65700,0,0,4,1460,312,0,16777216,240000,33580,332,65700,0,332,0,4230595199,63
i,1723651268.393938,10.0.2.15,22,10.0.2.2,50558,1073725440,16694,1026,65535,65700,0,0,4,1460,312,0,0,240000,33580,0,65700,0,0,0,4230595199,63
o,1723651268.415642,10.0.2.15,22,10.0.2.2,50558,1073725440,16694,1026,65535,65700,0,0,4,1460,312,0,16777216,240000,33580,28,65700,0,0,0,4230595199,63
i,1723651268.416619,10.0.2.15,22,10.0.2.2,50558,1073725440,16694,1026,65535,65700,0,0,4,1460,312,0,16777216,240000,33580,28,65700,0,28,0,4230595199,63
i,1723651268.416722,10.0.2.15,22,10.0.2.2,50558,1073725440,16722,1026,65535,65700,0,0,4,1460,312,0,0,240000,33580,0,65700,0,0,0,4230595199,63
o,1723651268.419603,10.0.2.15,22,10.0.2.2,50558,1073725440,16722,1026,65535,65700,0,0,4,1460,312,0,16777216,240000,33580,768,65700,112,0,0,4230595199,63
i,1723651268.419993,10.0.2.15,22,10.0.2.2,50558,1073725440,16722,1026,65535,65700,0,0,4,1460,312,0,16777216,240000,33580,908,65700,112,768,0,4230595199,63
o,1723651268.420014,10.0.2.15,22,10.0.2.2,50558,1073725440,17490,1026,65535,65700,0,0,4,1460,312,0,16777216,240000,33580,140,65700,112,0,0,4230595199,63
i,1723651268.420531,10.0.2.15,22,10.0.2.2,50558,1073725440,17490,1026,65535,65700,0,0,4,1460,312,0,16777216,240000,33580,140,65700,112,140,0,4230595199,63
o,1723651268.420770,10.0.2.15,22,10.0.2.2,50558,1073725440,17630,1026,65535,65700,0,0,4,1460,312,0,16777216,240000,33580,44,65700,0,0,0,4230595199,63
i,1723651268.421459,10.0.2.15,22,10.0.2.2,50558,1073725440,17630,1026,65535,65700,0,0,4,1460,312,0,16777216,240000,33580,44,65700,0,44,0,4230595199,63
i,1723651268.422601,10.0.2.15,22,10.0.2.2,50558,1073725440,17674,1026,65535,65700,0,0,4,1460,312,0,0,240000,33580,0,65700,0,0,0,4230595199,63
o,1723651268.423352,10.0.2.15,22,10.0.2.2,50558,1073725440,17674,1026,65535,65700,0,0,4,1460,312,0,16777220,240000,33580,72,65700,0,0,0,4230595199,63
i,1723651268.423967,10.0.2.15,22,10.0.2.2,50558,1073725440,17674,1026,65535,65700,0,0,4,1460,312,0,16777220,240000,33580,72,65700,0,72,0,4230595199,63
o,1723651268.550778,172.16.5.2,42286,172.16.1.2,5102,14365,14480,2082,65535,65700,6,6,4,1460,210625,1,16778209,740000,33580,0,65700,0,0,0,3468978537,63
o,1723651268.551174,172.16.5.2,42286,172.16.1.2,5102,14365,14480,2082,65535,65700,6,6,4,1460,210625,1,16778212,740000,33580,37,65700,0,0,0,3468978537,63
i,1723651268.661802,172.16.5.2,42286,172.16.1.2,5102,14365,14480,2082,65535,65700,6,6,4,1460,210625,1,16778212,740000,33580,37,65700,0,37,0,3468978537,63
o,1723651268.662203,172.16.5.2,42286,172.16.1.2,5102,14365,14480,3106,65728,65728,6,6,4,1460,196875,1,16778212,750000,33580,4,65700,0,0,0,3468978537,63
o,1723651268.662680,172.16.5.2,42286,172.16.1.2,5102,14365,14480,3106,65728,65728,6,6,4,1460,196875,1,16778212,750000,33580,130,65700,0,4,0,3468978537,63
i,1723651268.783724,172.16.5.2,42286,172.16.1.2,5102,14365,14480,3106,65728,65728,6,6,4,1460,196875,1,16778212,750000,33580,130,65700,0,130,0,3468978537,63
i,1723651268.783947,172.16.5.2,42286,172.16.1.2,5102,14365,14480,3106,65600,65728,6,6,4,1460,187500,1,996,730000,33580,0,65700,0,0,0,3468978537,63
o,1723651268.827491,172.16.5.2,42286,172.16.1.2,5102,14365,14480,3106,65728,65728,6,6,4,1460,187500,1,997,730000,33580,0,65700,0,0,0,3468978537,63
o,1723651268.902141,172.16.5.2,58399,172.16.1.2,5102,14365,14480,2082,65535,65700,6,6,4,1460,209375,1,16778209,740000,33580,0,65700,0,0,0,3367699312,63
o,1723651268.902380,172.16.5.2,58399,172.16.1.2,5102,14365,14480,2082,65535,65700,6,6,4,1460,209375,1,16778208,740000,33580,37,65700,0,0,0,3367699312,63
i,1723651269.026561,172.16.5.2,42286,172.16.1.2,5102,14365,14480,3106,65728,65728,6,6,4,1460,187500,1,996,730000,33580,0,65700,0,0,0,3468978537,63
i,1723651269.026612,172.16.5.2,42286,172.16.1.2,5102,14365,14480,3106,65728,65728,6,6,4,1460,187500,1,996,730000,33580,0,65700,1,0,0,3468978537,63
o,1723651269.026636,172.16.5.2,42286,172.16.1.2,5102,14365,14480,3106,65728,65728,6,6,4,1460,187500,1,997,730000,33580,0,65700,2,0,0,3468978537,63
o,1723651269.027163,172.16.5.2,58399,172.16.1.2,5102,14365,14480,2086,65535,65700,6,6,4,1460,209375,1,16778208,740000,33580,33580,65700,0,37,0,3367699312,63
i,1723651269.056422,172.16.5.2,58399,172.16.1.2,5102,14365,14480,2086,65535,65700,6,6,4,1460,209375,1,16778208,740000,33580,33580,65700,0,13069,0,3367699312,63
o,1723651269.056454,172.16.5.2,58399,172.16.1.2,5102,14365,14480,2082,65728,65728,6,6,4,1460,202187,1,16778208,710000,33580,33543,65700,0,13032,0,3367699312,63
i,1723651269.114832,172.16.5.2,58399,172.16.1.2,5102,14365,14480,2082,65728,65728,6,6,4,1460,202187,1,16778208,710000,33580,33543,65700,0,14480,0,3367699312,63
o,1723651269.114890,172.16.5.2,58399,172.16.1.2,5102,14365,14480,2086,62848,65728,6,6,4,1460,188437,1,16778208,730000,33580,30647,65700,0,11584,0,3367699312,63
i,1723651269.141894,172.16.5.2,58399,172.16.1.2,5102,14365,14480,2086,62848,65728,6,6,4,1460,188437,1,16778208,730000,33580,33580,65700,0,14480,0,3367699312,63
o,1723651269.141985,172.16.5.2,58399,172.16.1.2,5102,14365,14480,2086,64256,65728,6,6,4,1460,180000,1,16778208,700000,33580,30684,65700,0,11584,0,3367699312,63
i,1723651269.142153,172.16.5.2,58399,172.16.1.2,5102,14365,14480,2086,64256,65728,6,6,4,1460,180000,1,16778208,700000,33580,30684,65700,0,14480,0,3367699312,63
o,1723651269.142171,172.16.5.2,58399,172.16.1.2,5102,14365,14480,2086,64256,65728,6,6,4,1460,172500,1,16778208,680000,33580,27788,65700,0,11584,0,3367699312,63
i,1723651269.143066,172.16.5.2,58399,172.16.1.2,5102,14365,14480,2086,64256,65728,6,6,4,1460,172500,1,16778208,680000,33580,33580,65700,0,14480,0,3367699312,63
o,1723651269.143086,172.16.5.2,58399,172.16.1.2,5102,14365,14480,2086,64256,65728,6,6,4,1460,165937,1,16778208,650000,33580,30684,65700,0,11584,0,3367699312,63
i,1723651269.180412,172.16.5.2,58399,172.16.1.2,5102,14365,14480,2086,64256,65728,6,6,4,1460,165937,1,16778208,650000,33580,33580,65700,0,14480,0,3367699312,63
o,1723651269.180444,172.16.5.2,58399,172.16.1.2,5102,14365,15940,2086,64256,65728,6,6,4,1460,165312,1,16778208,580000,33580,30684,65700,0,11584,0,3367699312,63
o,1723651269.180578,172.16.5.2,58399,172.16.1.2,5102,14365,15940,2086,64256,65728,6,6,4,1460,165312,1,16778208,580000,33580,30684,65700,0,13032,0,3367699312,63
i,1723651269.223621,172.16.5.2,58399,172.16.1.2,5102,14365,15940,2086,64256,65728,6,6,4,1460,165312,1,16778208,580000,41772,41772,65700,0,15928,0,3367699312,63
o,1723651269.223658,172.16.5.2,58399,172.16.1.2,5102,14365,15940,2086,62848,65728,6,6,4,1460,158437,1,16778208,570000,41772,38876,65700,0,13032,0,3367699312,63
i,1723651269.253327,172.16.5.2,58399,172.16.1.2,5102,14365,15940,2086,62848,65728,6,6,4,1460,158437,1,16778208,570000,41772,41772,65700,0,15928,0,3367699312,63
o,1723651269.253350,172.16.5.2,58399,172.16.1.2,5102,14365,15940,2086,62848,65728,6,6,4,1460,152500,1,16778208,560000,41772,38876,65700,0,13032,0,3367699312,63
i,1723651269.253531,172.16.5.2,58399,172.16.1.2,5102,14365,15940,2086,62848,65728,6,6,4,1460,152500,1,16778208,560000,41772,38876,65700,0,15928,0,3367699312,63
o,1723651269.253558,172.16.5.2,58399,172.16.1.2,5102,14365,15940,2086,64256,65728,6,6,4,1460,147187,1,16778208,540000,41772,35980,65700,0,13032,0,3367699312,63
i,1723651269.253734,172.16.5.2,58399,172.16.1.2,5102,14365,15940,2086,64256,65728,6,6,4,1460,147187,1,16778208,540000,41772,35980,65700,0,15928,0,3367699312,63
o,1723651269.253749,172.16.5.2,58399,172.16.1.2,5102,14365,15940,2086,61376,65728,6,6,4,1460,142812,1,16778208,530000,41772,33084,65700,0,13032,0,3367699312,63
i,1723651269.281910,172.16.5.2,58399,172.16.1.2,5102,14365,15940,2086,61376,65728,6,6,4,1460,142812,1,16778208,530000,41772,41772,65700,0,15928,0,3367699312,63
o,1723651269.281948,172.16.5.2,58399,172.16.1.2,5102,14365,15940,2086,62848,65728,6,6,4,1460,137500,1,16778208,520000,41772,38876,65700,0,13032,0,3367699312,63
o,1723651269.282125,172.16.5.2,58399,172.16.1.2,5102,14365,15940,2086,62848,65728,6,6,4,1460,137500,1,16778208,520000,41772,38876,65700,0,14480,0,3367699312,63
i,1723651269.312249,172.16.5.2,58399,172.16.1.2,5102,14365,15940,2086,62848,65728,6,6,4,1460,137500,1,16778208,520000,41772,41772,65700,0,15928,0,3367699312,63
o,1723651269.312352,172.16.5.2,58399,172.16.1.2,5102,14365,17400,2086,65728,65728,6,6,4,1460,136562,1,16778208,480000,41772,40324,65700,0,14480,0,3367699312,63
i,1723651269.332679,172.16.5.2,58399,172.16.1.2,5102,14365,17400,2086,65728,65728,6,6,4,1460,136562,1,16778208,480000,41772,40324,65700,0,17376,0,3367699312,63
o,1723651269.332704,172.16.5.2,58399,172.16.1.2,5102,14365,17400,2086,64256,65728,6,6,4,1460,133437,1,16778208,470000,41772,37428,65700,0,14480,0,3367699312,63
i,1723651269.362636,172.16.5.2,58399,172.16.1.2,5102,14365,17400,2086,64256,65728,6,6,4,1460,133437,1,16778208,470000,41772,41772,65700,0,17376,0,3367699312,63
o,1723651269.362659,172.16.5.2,58399,172.16.1.2,5102,14365,17400,2086,64256,65728,6,6,4,1460,130625,1,16778208,450000,41772,38876,65700,0,14480,0,3367699312,63
i,1723651269.363770,172.16.5.2,58399,172.16.1.2,5102,14365,17400,2086,64256,65728,6,6,4,1460,130625,1,16778208,450000,41772,41772,65700,0,17376,0,3367699312,63
o,1723651269.363789,172.16.5.2,58399,172.16.1.2,5102,14365,17400,2086,64256,65728,6,6,4,1460,128125,1,16778208,440000,41772,38876,65700,0,14480,0,3367699312,63
i,1723651269.363949,172.16.5.2,58399,172.16.1.2,5102,14365,17400,2086,64256,65728,6,6,4,1460,128125,1,16778208,440000,41772,38876,65700,0,17376,0,3367699312,63
o,1723651269.363965,172.16.5.2,58399,172.16.1.2,5102,14365,17400,2086,64256,65728,6,6,4,1460,125937,1,16778208,430000,41772,35980,65700,0,14480,0,3367699312,63
i,1723651269.398453,172.16.5.2,58399,172.16.1.2,5102,14365,17400,2086,64256,65728,6,6,4,1460,125937,1,16778208,430000,41772,41772,65700,0,17376,0,3367699312,63
o,1723651269.398475,172.16.5.2,58399,172.16.1.2,5102,14365,17400,2086,62848,65728,6,6,4,1460,125312,1,16778208,410000,41772,38876,65700,0,14480,0,3367699312,63
o,1723651269.398599,172.16.5.2,58399,172.16.1.2,5102,14365,17400,2086,62848,65728,6,6,4,1460,125312,1,16778208,410000,41772,38876,65700,0,15928,0,3367699312,63
i,1723651269.412077,172.16.5.2,58399,172.16.1.2,5102,14365,17400,2086,62848,65728,6,6,4,1460,125312,1,16778208,410000,41772,41772,65700,0,17376,0,3367699312,63
o,1723651269.412146,172.16.5.2,58399,172.16.1.2,5102,14365,18860,2086,62848,65728,6,6,4,1460,120937,1,16778208,420000,41772,38876,65700,0,14480,0,3367699312,63
i,1723651269.440752,172.16.5.2,58399,172.16.1.2,5102,14365,18860,2086,62848,65728,6,6,4,1460,120937,1,16778208,420000,41772,41772,65700,0,18824,0,3367699312,63
o,1723651269.440787,172.16.5.2,58399,172.16.1.2,5102,14365,18860,2086,62848,65728,6,6,4,1460,118437,1,16778208,410000,41772,38876,65700,0,15928,0,3367699312,63
i,1723651269.462868,172.16.5.2,58399,172.16.1.2,5102,14365,18860,2086,62848,65728,6,6,4,1460,118437,1,16778208,410000,41772,41772,65700,0,18824,0,3367699312,63
o,1723651269.462966,172.16.5.2,58399,172.16.1.2,5102,14365,18860,2086,64256,65728,6,6,4,1460,115000,1,16778208,410000,41772,38876,65700,0,15928,0,3367699312,63
i,1723651269.463303,172.16.5.2,58399,172.16.1.2,5102,14365,18860,2086,64256,65728,6,6,4,1460,115000,1,16778208,410000,41772,38876,65700,0,18824,0,3367699312,63
o,1723651269.463353,172.16.5.2,58399,172.16.1.2,5102,14365,18860,2086,62848,65728,6,6,4,1460,111875,1,16778208,410000,41772,35980,65700,0,15928,0,3367699312,63
i,1723651269.465034,172.16.5.2,58399,172.16.1.2,5102,14365,18860,2086,62848,65728,6,6,4,1460,111875,1,16778208,410000,41772,41772,65700,0,18824,0,3367699312,63
o,1723651269.465133,172.16.5.2,58399,172.16.1.2,5102,14365,18860,2086,59968,65728,6,6,4,1460,109375,1,16778208,400000,41772,38876,65700,0,15928,0,3367699312,63
i,1723651269.497058,172.16.5.2,58399,172.16.1.2,5102,14365,18860,2086,59968,65728,6,6,4,1460,109375,1,16778208,400000,41772,41772,65700,0,18824,0,3367699312,63
o,1723651269.497136,172.16.5.2,58399,172.16.1.2,5102,14365,18860,2086,62848,65728,6,6,4,1460,107187,1,16778208,390000,41772,38876,65700,0,15928,0,3367699312,63
o,1723651269.497298,172.16.5.2,58399,172.16.1.2,5102,14365,18860,2086,62848,65728,6,6,4,1460,107187,1,16778208,390000,41772,38876,65700,0,17376,0,3367699312,63
i,1723651269.511425,172.16.5.2,58399,172.16.1.2,5102,14365,18860,2086,62848,65728,6,6,4,1460,107187,1,16778208,390000,41772,41772,65700,0,18824,0,3367699312,63
o,1723651269.511504,172.16.5.2,58399,172.16.1.2,5102,14365,18860,2086,64256,65728,6,6,4,1460,106562,1,16778208,380000,41772,38876,65700,0,15928,0,3367699312,63
i,1723651269.532812,172.16.5.2,58399,172.16.1.2,5102,14365,18860,2086,64256,65728,6,6,4,1460,106562,1,16778208,380000,41772,41772,65700,0,18824,0,3367699312,63
o,1723651269.532835,172.16.5.2,58399,172.16.1.2,5102,14365,18860,2086,65728,65728,6,6,4,1460,108437,1,16778208,380000,41772,40324,65700,0,17376,0,3367699312,63
i,1723651269.554546,172.16.5.2,58399,172.16.1.2,5102,14365,18860,2086,65728,65728,6,6,4,1460,108437,1,16778208,380000,41772,40324,65700,0,18824,0,3367699312,63
o,1723651269.554619,172.16.5.2,58399,172.16.1.2,5102,14365,20320,2086,62848,65728,6,6,4,1460,108750,1,16778208,360000,41772,37428,65700,0,15928,0,3367699312,63
i,1723651269.561967,172.16.5.2,58399,172.16.1.2,5102,14365,20320,2086,62848,65728,6,6,4,1460,108750,1,16778208,360000,49964,49964,65700,0,20272,0,3367699312,63
o,1723651269.562038,172.16.5.2,58399,172.16.1.2,5102,14365,20320,2086,62848,65728,6,6,4,1460,107812,1,16778208,360000,49964,47068,65700,0,17376,0,3367699312,63
i,1723651269.562181,172.16.5.2,58399,172.16.1.2,5102,14365,20320,2086,62848,65728,6,6,4,1460,107812,1,16778208,360000,49964,47068,65700,0,20272,0,3367699312,63
o,1723651269.562198,172.16.5.2,58399,172.16.1.2,5102,14365,20320,2086,64256,65728,6,6,4,1460,106875,1,16778208,350000,49964,44172,65700,0,17376,0,3367699312,63
i,1723651269.582570,172.16.5.2,58399,172.16.1.2,5102,14365,20320,2086,64256,65728,6,6,4,1460,106875,1,16778208,350000,49964,49964,65700,0,20272,0,3367699312,63
o,1723651269.582590,172.16.5.2,58399,172.16.1.2,5102,14365,20320,2086,64256,65728,6,6,4,1460,108750,1,16778208,360000,49964,47068,65700,0,17376,0,3367699312,63
i,1723651269.615636,172.16.5.2,58399,172.16.1.2,5102,14365,20320,2086,64256,65728,6,6,4,1460,108750,1,16778208,360000,49964,49964,65700,0,20272,0,3367699312,63
o,1723651269.615656,172.16.5.2,58399,172.16.1.2,5102,14365,20320,2086,62848,65728,6,6,4,1460,110312,1,16778208,360000,49964,47068,65700,0,17376,0,3367699312,63
o,1723651269.615868,172.16.5.2,58399,172.16.1.2,5102,14365,20320,2086,62848,65728,6,6,4,1460,110312,1,16778208,360000,49964,47068,65700,0,18824,0,3367699312,63
i,1723651269.616001,172.16.5.2,58399,172.16.1.2,5102,14365,20320,2086,62848,65728,6,6,4,1460,110312,1,16778208,360000,49964,47068,65700,0,20272,0,3367699312,63
o,1723651269.616028,172.16.5.2,58399,172.16.1.2,5102,14365,20320,2086,64256,65728,6,6,4,1460,109062,1,16778208,350000,49964,44172,65700,0,17376,0,3367699312,63
i,1723651269.672015,172.16.5.2,58399,172.16.1.2,5102,14365,20320,2086,64256,65728,6,6,4,1460,109062,1,16778208,350000,49964,49964,65700,0,20272,0,3367699312,63
o,1723651269.672061,172.16.5.2,58399,172.16.1.2,5102,14365,20320,2086,65728,65728,6,6,4,1460,113125,1,16778208,380000,49964,48516,65700,0,18824,0,3367699312,63
i,1723651269.672350,172.16.5.2,58399,172.16.1.2,5102,14365,20320,2086,65728,65728,6,6,4,1460,113125,1,16778208,380000,49964,48516,65700,0,20272,0,3367699312,63
o,1723651269.672367,172.16.5.2,58399,172.16.1.2,5102,14365,21780,2086,62848,65728,6,6,4,1460,114062,1,16778208,370000,49964,45620,65700,0,17376,0,3367699312,63
i,1723651269.672538,172.16.5.2,58399,172.16.1.2,5102,14365,21780,2086,62848,65728,6,6,4,1460,114062,1,16778208,370000,49964,45620,65700,0,21720,0,3367699312,63
o,1723651269.672555,172.16.5.2,58399,172.16.1.2,5102,14365,21780,2086,59968,65728,6,6,4,1460,115000,1,16778208,360000,49964,42724,65700,0,18824,0,3367699312,63
i,1723651269.674190,172.16.5.2,58399,172.16.1.2,5102,14365,21780,2086,59968,65728,6,6,4,1460,115000,1,16778208,360000,49964,49964,65700,0,21720,0,3367699312,63
o,1723651269.674265,172.16.5.2,58399,172.16.1.2,5102,14365,21780,2086,62848,65728,6,6,4,1460,114375,1,16778208,350000,49964,47068,65700,0,18824,0,3367699312,63
i,1723651269.706506,172.16.5.2,58399,172.16.1.2,5102,14365,21780,2086,62848,65728,6,6,4,1460,114375,1,16778208,350000,49964,49964,65700,0,21720,0,3367699312,63
o,1723651269.706570,172.16.5.2,58399,172.16.1.2,5102,14365,21780,2086,64256,65728,6,6,4,1460,117812,1,16778208,380000,49964,47068,65700,0,18824,0,3367699312,63
i,1723651269.733479,172.16.5.2,58399,172.16.1.2,5102,14365,21780,2086,64256,65728,6,6,4,1460,117812,1,16778208,380000,49964,49964,65700,0,21720,0,3367699312,63
o,1723651269.733500,172.16.5.2,58399,172.16.1.2,5102,14365,21780,2086,64256,65728,6,6,4,1460,120625,1,16778208,390000,49964,47068,65700,0,18824,0,3367699312,63
o,1723651269.733691,172.16.5.2,58399,172.16.1.2,5102,14365,21780,2086,64256,65728,6,6,4,1460,120625,1,16778208,390000,49964,47068,65700,0,20272,0,3367699312,63
i,1723651269.733864,172.16.5.2,58399,172.16.1.2,5102,14365,21780,2086,64256,65728,6,6,4,1460,120625,1,16778208,390000,49964,47068,65700,0,21720,0,3367699312,63
o,1723651269.733883,172.16.5.2,58399,172.16.1.2,5102,14365,21780,2086,64256,65728,6,6,4,1460,119375,1,16778208,380000,49964,44172,65700,0,18824,0,3367699312,63
i,1723651269.761793,172.16.5.2,58399,172.16.1.2,5102,14365,21780,2086,64256,65728,6,6,4,1460,119375,1,16778208,380000,49964,49964,65700,0,21720,0,3367699312,63
o,1723651269.761906,172.16.5.2,58399,172.16.1.2,5102,14365,21780,2086,65728,65728,6,6,4,1460,122187,1,16778208,390000,49964,48516,65700,0,20272,0,3367699312,63
i,1723651269.781727,172.16.5.2,58399,172.16.1.2,5102,14365,21780,2086,65728,65728,6,6,4,1460,122187,1,16778208,390000,49964,48516,65700,0,21720,0,3367699312,63
o,1723651269.781812,172.16.5.2,58399,172.16.1.2,5102,14365,21780,2086,64256,65728,6,6,4,1460,120937,1,16778208,380000,49964,45620,65700,0,18824,0,3367699312,63
i,1723651269.802482,172.16.5.2,58399,172.16.1.2,5102,14365,21780,2086,64256,65728,6,6,4,1460,120937,1,16778208,380000,49964,49964,65700,0,21720,0,3367699312,63
o,1723651269.802504,172.16.5.2,58399,172.16.1.2,5102,14365,23240,2086,62848,65728,6,6,4,1460,122187,1,16778208,370000,49964,47068,65700,0,18824,0,3367699312,63
i,1723651269.802697,172.16.5.2,58399,172.16.1.2,5102,14365,23240,2086,62848,65728,6,6,4,1460,122187,1,16778208,370000,49964,47068,65700,0,23168,0,3367699312,63
o,1723651269.802715,172.16.5.2,58399,172.16.1.2,5102,14365,23240,2086,64256,65728,6,6,4,1460,123437,1,16778208,370000,49964,44172,65700,0,20272,0,3367699312,63
i,1723651269.802875,172.16.5.2,58399,172.16.1.2,5102,14365,23240,2086,64256,65728,6,6,4,1460,123437,1,16778208,370000,58156,44172,65700,0,23168,0,3367699312,63
o,1723651269.802891,172.16.5.2,58399,172.16.1.2,5102,14365,23240,2086,62848,65728,6,6,4,1460,124375,1,16778208,370000,58156,41276,65700,0,20272,0,3367699312,63
i,1723651269.805094,172.16.5.2,58399,172.16.1.2,5102,14365,23240,2086,62848,65728,6,6,4,1460,124375,1,16778208,370000,58156,58156,65700,0,23168,0,3367699312,63
o,1723651269.805184,172.16.5.2,58399,172.16.1.2,5102,14365,23240,2086,62848,65728,6,6,4,1460,121562,1,16778208,380000,58156,55260,65700,0,20272,0,3367699312,63
i,1723651269.833465,172.16.5.2,58399,172.16.1.2,5102,14365,23240,2086,62848,65728,6,6,4,1460,121562,1,16778208,380000,58156,58156,65700,0,23168,0,3367699312,63
o,1723651269.833504,172.16.5.2,58399,172.16.1.2,5102,14365,23240,2086,62848,65728,6,6,4,1460,119062,1,16778208,380000,58156,55260,65700,0,20272,0,3367699312,63
o,1723651269.833695,172.16.5.2,58399,172.16.1.2,5102,14365,23240,2086,62848,65728,6,6,4,1460,119062,1,16778208,380000,58156,55260,65700,0,21720,0,3367699312,63
i,1723651269.854464,172.16.5.2,58399,172.16.1.2,5102,14365,23240,2086,62848,65728,6,6,4,1460,119062,1,16778208,380000,58156,58156,65700,0,23168,0,3367699312,63
o,1723651269.854550,172.16.5.2,58399,172.16.1.2,5102,14365,23240,2086,64256,65728,6,6,4,1460,119375,1,16778208,370000,58156,55260,65700,0,20272,0,3367699312,63
i,1723651269.914395,172.16.5.2,58399,172.16.1.2,5102,14365,23240,2086,64256,65728,6,6,4,1460,119375,1,16778208,370000,58156,58156,65700,0,23168,0,3367699312,63
o,1723651269.914491,172.16.5.2,58399,172.16.1.2,5102,14365,23240,2086,64256,65728,6,6,4,1460,123437,1,16778208,390000,58156,55260,65700,0,20272,0,3367699312,63
i,1723651269.946100,172.16.5.2,58399,172.16.1.2,5102,14365,23240,2086,64256,65728,6,6,4,1460,123437,1,16778208,390000,58156,58156,65700,0,23168,0,3367699312,63
o,1723651269.946139,172.16.5.2,58399,172.16.1.2,5102,14365,23240,2086,64256,65728,6,6,4,1460,126875,1,16778208,400000,58156,55260,65700,0,20272,0,3367699312,63
i,1723651269.946375,172.16.5.2,58399,172.16.1.2,5102,14365,23240,2086,64256,65728,6,6,4,1460,126875,1,16778208,400000,58156,55260,65700,0,23168,0,3367699312,63
o,1723651269.946398,172.16.5.2,58399,172.16.1.2,5102,14365,24700,2086,61376,65728,6,6,4,1460,127500,1,16778208,390000,58156,52364,65700,0,20272,0,3367699312,63
i,1723651269.946537,172.16.5.2,58399,172.16.1.2,5102,14365,24700,2086,61376,65728,6,6,4,1460,127500,1,16778208,390000,58156,52364,65700,0,24616,0,3367699312,63
o,1723651269.946556,172.16.5.2,58399,172.16.1.2,5102,14365,24700,2086,64256,65728,6,6,4,1460,127812,1,16778208,380000,58156,49468,65700,0,21720,0,3367699312,63
i,1723651269.946751,172.16.5.2,58399,172.16.1.2,5102,14365,24700,2086,64256,65728,6,6,4,1460,127812,1,16778208,380000,58156,49468,65700,0,24616,0,3367699312,63
o,1723651269.946768,172.16.5.2,58399,172.16.1.2,5102,14365,24700,2086,64256,65728,6,6,4,1460,128125,1,16778208,370000,58156,46572,65700,0,21720,0,3367699312,63
i,1723651269.946950,172.16.5.2,58399,172.16.1.2,5102,14365,24700,2086,64256,65728,6,6,4,1460,128125,1,16778208,370000,58156,46572,65700,0,24616,0,3367699312,63
o,1723651269.946970,172.16.5.2,58399,172.16.1.2,5102,14365,24700,2086,64256,65728,6,6,4,1460,128437,1,16778208,360000,58156,43676,65700,0,21720,0,3367699312,63
i,1723651269.972155,172.16.5.2,58399,172.16.1.2,5102,14365,24700,2086,64256,65728,6,6,4,1460,128437,1,16778208,360000,58156,58156,65700,0,24616,0,3367699312,63
o,1723651269.972202,172.16.5.2,58399,172.16.1.2,5102,14365,24700,2086,64256,65728,6,6,4,1460,130000,1,16778208,370000,58156,55260,65700,0,21720,0,3367699312,63
o,1723651269.972349,172.16.5.2,58399,172.16.1.2,5102,14365,24700,2086,64256,65728,6,6,4,1460,130000,1,16778208,370000,58156,55260,65700,0,23168,0,3367699312,63
i,1723651269.992056,172.16.5.2,58399,172.16.1.2,5102,14365,24700,2086,64256,65728,6,6,4,1460,130000,1,16778208,370000,58156,58156,65700,0,24616,0,3367699312,63
o,1723651269.992145,172.16.5.2,58399,172.16.1.2,5102,14365,24700,2086,64256,65728,6,6,4,1460,131250,1,16778208,370000,58156,55260,65700,0,21720,0,3367699312,63
i,1723651270.042645,172.16.5.2,58399,172.16.1.2,5102,14365,24700,2086,64256,65728,6,6,4,1460,131250,1,16778208,370000,58156,58156,65700,0,24616,0,3367699312,63
o,1723651270.042720,172.16.5.2,58399,172.16.1.2,5102,14365,24700,2086,64256,65728,6,6,4,1460,131250,1,16778208,360000,58156,55260,65700,0,21720,0,3367699312,63
i,1723651270.052466,172.16.5.2,58399,172.16.1.2,5102,14365,24700,2086,64256,65728,6,6,4,1460,131250,1,16778208,360000,58156,58156,65700,0,24616,0,3367699312,63
o,1723651270.052502,172.16.5.2,58399,172.16.1.2,5102,14365,24700,2086,64256,65728,6,6,4,1460,128750,1,16778208,370000,58156,55260,65700,0,21720,0,3367699312,63
i,1723651270.070451,172.16.5.2,58399,172.16.1.2,5102,14365,24700,2086,64256,65728,6,6,4,1460,128750,1,16778208,370000,58156,58156,65700,0,24616,0,3367699312,63
o,1723651270.070517,172.16.5.2,58399,172.16.1.2,5102,14365,24700,2086,64256,65728,6,6,4,1460,129062,1,16778208,360000,58156,55260,65700,0,21720,0,3367699312,63
i,1723651270.070676,172.16.5.2,58399,172.16.1.2,5102,14365,24700,2086,64256,65728,6,6,4,1460,129062,1,16778208,360000,58156,55260,65700,0,24616,0,3367699312,63
o,1723651270.070696,172.16.5.2,58399,172.16.1.2,5102,14365,26160,2086,61376,65728,6,6,4,1460,129375,1,16778208,360000,58156,52364,65700,0,21720,0,3367699312,63
i,1723651270.071981,172.16.5.2,58399,172.16.1.2,5102,14365,26160,2086,61376,65728,6,6,4,1460,129375,1,16778208,360000,58156,58156,65700,0,26064,0,3367699312,63
o,1723651270.072043,172.16.5.2,58399,172.16.1.2,5102,14365,26160,2086,64256,65728,6,6,4,1460,129687,1,16778208,350000,58156,55260,65700,0,23168,0,3367699312,63
i,1723651270.072174,172.16.5.2,58399,172.16.1.2,5102,14365,26160,2086,64256,65728,6,6,4,1460,129687,1,16778208,350000,58156,55260,65700,0,26064,0,3367699312,63
o,1723651270.072190,172.16.5.2,58399,172.16.1.2,5102,14365,26160,2086,64256,65728,6,6,4,1460,130000,1,16778208,350000,58156,52364,65700,0,23168,0,3367699312,63
i,1723651270.072341,172.16.5.2,58399,172.16.1.2,5102,14365,26160,2086,64256,65728,6,6,4,1460,130000,1,16778208,350000,58156,52364,65700,0,26064,0,3367699312,63
o,1723651270.072356,172.16.5.2,58399,172.16.1.2,5102,14365,26160,2086,64256,65728,6,6,4,1460,130000,1,16778208,350000,58156,49468,65700,0,23168,0,3367699312,63
o,1723651270.072498,172.16.5.2,58399,172.16.1.2,5102,14365,26160,2086,64256,65728,6,6,4,1460,130000,1,16778208,350000,58156,49468,65700,0,24616,0,3367699312,63
i,1723651270.102643,172.16.5.2,58399,172.16.1.2,5102,14365,26160,2086,64256,65728,6,6,4,1460,130000,1,16778208,350000,58156,58156,65700,0,26064,0,3367699312,63
o,1723651270.102729,172.16.5.2,58399,172.16.1.2,5102,14365,26160,2086,64256,65728,6,6,4,1460,130000,1,16778208,340000,58156,55260,65700,0,23168,0,3367699312,63
i,1723651270.141866,172.16.5.2,58399,172.16.1.2,5102,14365,26160,2086,64256,65728,6,6,4,1460,130000,1,16778208,340000,58156,58156,65700,0,26064,0,3367699312,63
o,1723651270.142023,172.16.5.2,58399,172.16.1.2,5102,14365,26160,2086,65728,65728,6,6,4,1460,132500,1,16778208,360000,58156,56708,65700,0,24616,0,3367699312,63
i,1723651270.143843,172.16.5.2,58399,172.16.1.2,5102,14365,26160,2086,65728,65728,6,6,4,1460,132500,1,16778208,360000,58156,56708,65700,0,26064,0,3367699312,63
o,1723651270.143922,172.16.5.2,58399,172.16.1.2,5102,14365,26160,2086,62848,65728,6,6,4,1460,128437,1,16778208,380000,58156,53812,65700,0,23168,0,3367699312,63
i,1723651270.173060,172.16.5.2,58399,172.16.1.2,5102,14365,26160,2086,62848,65728,6,6,4,1460,128437,1,16778208,380000,58156,58156,65700,0,26064,0,3367699312,63
o,1723651270.173100,172.16.5.2,58399,172.16.1.2,5102,14365,26160,2086,62848,65728,6,6,4,1460,127500,1,16778208,380000,58156,55260,65700,0,23168,0,3367699312,63
i,1723651270.173274,172.16.5.2,58399,172.16.1.2,5102,14365,26160,2086,62848,65728,6,6,4,1460,127500,1,16778208,380000,58156,55260,65700,0,26064,0,3367699312,63
o,1723651270.173303,172.16.5.2,58399,172.16.1.2,5102,14365,26160,2086,64256,65728,6,6,4,1460,122812,1,16778208,400000,58156,52364,65700,0,23168,0,3367699312,63
i,1723651270.173496,172.16.5.2,58399,172.16.1.2,5102,14365,26160,2086,64256,65728,6,6,4,1460,122812,1,16778208,400000,58156,52364,65700,0,26064,0,3367699312,63
o,1723651270.173522,172.16.5.2,58399,172.16.1.2,5102,14365,27620,2086,62848,65728,6,6,4,1460,118750,1,16778208,410000,58156,49468,65700,0,23168,0,3367699312,63
i,1723651270.173720,172.16.5.2,58399,172.16.1.2,5102,14365,27620,2086,62848,65728,6,6,4,1460,118750,1,16778208,410000,58156,49468,65700,0,27512,0,3367699312,63
o,1723651270.173743,172.16.5.2,58399,172.16.1.2,5102,14365,27620,2086,59968,65728,6,6,4,1460,115312,1,16778208,410000,58156,46572,65700,0,24616,0,3367699312,63
i,1723651270.174463,172.16.5.2,58399,172.16.1.2,5102,14365,27620,2086,59968,65728,6,6,4,1460,115312,1,16778208,410000,58156,58156,65700,0,27512,0,3367699312,63
o,1723651270.174490,172.16.5.2,58399,172.16.1.2,5102,14365,27620,2086,62848,65728,6,6,4,1460,112187,1,16778208,410000,58156,55260,65700,0,24616,0,3367699312,63
i,1723651270.174665,172.16.5.2,58399,172.16.1.2,5102,14365,27620,2086,62848,65728,6,6,4,1460,112187,1,16778208,410000,58156,55260,65700,0,27512,0,3367699312,63
o,1723651270.174686,172.16.5.2,58399,172.16.1.2,5102,14365,27620,2086,62848,65728,6,6,4,1460,109687,1,16778208,400000,58156,52364,65700,0,24616,0,3367699312,63
o,1723651270.174828,172.16.5.2,58399,172.16.1.2,5102,14365,27620,2086,62848,65728,6,6,4,1460,109687,1,16778208,400000,66348,52364,65700,0,26064,0,3367699312,63
i,1723651270.204064,172.16.5.2,58399,172.16.1.2,5102,14365,27620,2086,62848,65728,6,6,4,1460,109687,1,16778208,400000,66348,66348,65700,0,27512,0,3367699312,63
o,1723651270.204209,172.16.5.2,58399,172.16.1.2,5102,14365,27620,2086,64256,65728,6,6,4,1460,112500,1,16778208,400000,66348,63452,65700,0,24616,0,3367699312,63
i,1723651270.252085,172.16.5.2,58399,172.16.1.2,5102,14365,27620,2086,64256,65728,6,6,4,1460,112500,1,16778208,400000,66348,66348,65700,0,27512,0,3367699312,63
o,1723651270.252206,172.16.5.2,58399,172.16.1.2,5102,14365,27620,2086,65728,65728,6,6,4,1460,115937,1,16778208,410000,66348,64900,65700,0,26064,0,3367699312,63
i,1723651270.261900,172.16.5.2,58399,172.16.1.2,5102,14365,27620,2086,65728,65728,6,6,4,1460,115937,1,16778208,410000,66348,65216,65700,0,27512,0,3367699312,63
o,1723651270.261920,172.16.5.2,58399,172.16.1.2,5102,14365,27620,2086,64256,65728,6,6,4,1460,115312,1,16778208,390000,66348,62320,65700,0,24616,0,3367699312,63
i,1723651270.282807,172.16.5.2,58399,172.16.1.2,5102,14365,27620,2086,64256,65728,6,6,4,1460,115312,1,16778208,390000,66348,66348,65700,0,27512,0,3367699312,63
o,1723651270.282827,172.16.5.2,58399,172.16.1.2,5102,14365,27620,2086,64256,65728,6,6,4,1460,117187,1,16778208,390000,66348,63452,65700,0,24616,0,3367699312,63
i,1723651270.292191,172.16.5.2,58399,172.16.1.2,5102,14365,27620,2086,64256,65728,6,6,4,1460,117187,1,16778208,390000,66348,66348,65700,0,27512,0,3367699312,63
o,1723651270.292210,172.16.5.2,58399,172.16.1.2,5102,14365,27620,2086,62848,65728,6,6,4,1460,117812,1,16778208,380000,66348,63452,65700,0,24616,0,3367699312,63
i,1723651270.292349,172.16.5.2,58399,172.16.1.2,5102,14365,27620,2086,62848,65728,6,6,4,1460,117812,1,16778208,380000,66348,63452,65700,0,27512,0,3367699312,63
o,1723651270.292366,172.16.5.2,58399,172.16.1.2,5102,14365,27620,2086,59968,65728,6,6,4,1460,118125,1,16778208,360000,66348,60556,65700,0,24616,0,3367699312,63
i,1723651270.292496,172.16.5.2,58399,172.16.1.2,5102,14365,27620,2086,59968,65728,6,6,4,1460,118125,1,16778208,360000,66348,60556,65700,0,27512,0,3367699312,63
o,1723651270.292533,172.16.5.2,58399,172.16.1.2,5102,14365,29080,2086,64256,65728,6,6,4,1460,118437,1,16778208,350000,66348,57660,65700,0,24616,0,3367699312,63
i,1723651270.312152,172.16.5.2,58399,172.16.1.2,5102,14365,29080,2086,64256,65728,6,6,4,1460,118437,1,16778208,350000,66348,66348,65700,0,28960,0,3367699312,63
o,1723651270.312179,172.16.5.2,58399,172.16.1.2,5102,14365,29080,2086,64256,65728,6,6,4,1460,121250,1,16778208,370000,66348,63452,65700,0,26064,0,3367699312,63
i,1723651270.312389,172.16.5.2,58399,172.16.1.2,5102,14365,29080,2086,64256,65728,6,6,4,1460,121250,1,16778208,370000,66348,63452,65700,0,28960,0,3367699312,63
o,1723651270.312407,172.16.5.2,58399,172.16.1.2,5102,14365,29080,2086,64256,65728,6,6,4,1460,123750,1,16778208,380000,66348,60556,65700,0,26064,0,3367699312,63
i,1723651270.314261,172.16.5.2,58399,172.16.1.2,5102,14365,29080,2086,64256,65728,6,6,4,1460,123750,1,16778208,380000,66348,66348,65700,0,28960,0,3367699312,63
o,1723651270.314284,172.16.5.2,58399,172.16.1.2,5102,14365,29080,2086,64256,65728,6,6,4,1460,125937,1,16778208,380000,66348,63452,65700,0,26064,0,3367699312,63
o,1723651270.314403,172.16.5.2,58399,172.16.1.2,5102,14365,29080,2086,64256,65728,6,6,4,1460,125937,1,16778208,380000,66348,63452,65700,0,27512,0,3367699312,63
i,1723651270.314543,172.16.5.2,58399,172.16.1.2,5102,14365,29080,2086,64256,65728,6,6,4,1460,125937,1,16778208,380000,66348,63452,65700,0,28960,0,3367699312,63
o,1723651270.314576,172.16.5.2,58399,172.16.1.2,5102,14365,29080,2086,64256,65728,6,6,4,1460,122812,1,16778208,390000,66348,60556,65700,0,26064,0,3367699312,63
i,1723651270.362051,172.16.5.2,58399,172.16.1.2,5102,14365,29080,2086,64256,65728,6,6,4,1460,122812,1,16778208,390000,66348,66348,65700,0,28960,0,3367699312,63
o,1723651270.362076,172.16.5.2,58399,172.16.1.2,5102,14365,29080,2086,62848,65728,6,6,4,1460,121250,1,16778208,380000,66348,63452,65700,0,26064,0,3367699312,63
i,1723651270.391992,172.16.5.2,58399,172.16.1.2,5102,14365,29080,2086,62848,65728,6,6,4,1460,121250,1,16778208,380000,66348,66348,65700,0,28960,0,3367699312,63
o,1723651270.392093,172.16.5.2,58399,172.16.1.2,5102,14365,29080,2086,64256,65728,6,6,4,1460,122500,1,16778208,380000,66348,63452,65700,0,26064,0,3367699312,63
i,1723651270.392335,172.16.5.2,58399,172.16.1.2,5102,14365,29080,2086,64256,65728,6,6,4,1460,122500,1,16778208,380000,66348,63452,65700,0,28960,0,3367699312,63
o,1723651270.392375,172.16.5.2,58399,172.16.1.2,5102,14365,29080,2086,64256,65728,6,6,4,1460,120937,1,16778208,380000,66348,60556,65700,0,26064,0,3367699312,63
i,1723651270.401961,172.16.5.2,58399,172.16.1.2,5102,14365,29080,2086,64256,65728,6,6,4,1460,120937,1,16778208,380000,66348,66348,65700,0,28960,0,3367699312,63
o,1723651270.402057,172.16.5.2,58399,172.16.1.2,5102,14365,29080,2086,62848,65728,6,6,4,1460,119687,1,16778208,370000,66348,63452,65700,0,26064,0,3367699312,63
i,1723651270.402293,172.16.5.2,58399,172.16.1.2,5102,14365,29080,2086,62848,65728,6,6,4,1460,119687,1,16778208,370000,66348,63452,65700,0,28960,0,3367699312,63
o,1723651270.402329,172.16.5.2,58399,172.16.1.2,5102,14365,29080,2086,62848,65728,6,6,4,1460,118750,1,16778208,360000,66348,60556,65700,0,26064,0,3367699312,63
i,1723651270.421751,172.16.5.2,58399,172.16.1.2,5102,14365,29080,2086,62848,65728,6,6,4,1460,118750,1,16778208,360000,66348,66348,65700,0,28960,0,3367699312,63
o,1723651270.421770,172.16.5.2,58399,172.16.1.2,5102,14365,30540,2086,62848,65728,6,6,4,1460,120312,1,16778208,370000,66348,63452,65700,0,26064,0,3367699312,63
i,1723651270.421985,172.16.5.2,58399,172.16.1.2,5102,14365,30540,2086,62848,65728,6,6,4,1460,120312,1,16778208,370000,66348,63452,65700,0,30408,0,3367699312,63
o,1723651270.422009,172.16.5.2,58399,172.16.1.2,5102,14365,30540,2086,62848,65728,6,6,4,1460,119062,1,16778208,360000,66348,60556,65700,0,27512,0,3367699312,63
i,1723651270.422133,172.16.5.2,58399,172.16.1.2,5102,14365,30540,2086,62848,65728,6,6,4,1460,119062,1,16778208,360000,74540,60556,65700,0,30408,0,3367699312,63
o,1723651270.422169,172.16.5.2,58399,172.16.1.2,5102,14365,30540,2086,64256,65728,6,6,4,1460,118125,1,16778208,360000,74540,57660,65700,0,27512,0,3367699312,63
i,1723651270.432404,172.16.5.2,58399,172.16.1.2,5102,14365,30540,2086,64256,65728,6,6,4,1460,118125,1,16778208,360000,74540,74540,65700,0,30408,0,3367699312,63
o,1723651270.432426,172.16.5.2,58399,172.16.1.2,5102,14365,30540,2086,64256,65728,6,6,4,1460,118437,1,16778208,350000,74540,71644,65700,0,27512,0,3367699312,63
o,1723651270.432624,172.16.5.2,58399,172.16.1.2,5102,14365,30540,2086,64256,65728,6,6,4,1460,118437,1,16778208,350000,74540,71644,65700,0,28960,0,3367699312,63
i,1723651270.432748,172.16.5.2,58399,172.16.1.2,5102,14365,30540,2086,64256,65728,6,6,4,1460,118437,1,16778208,350000,74540,71644,65700,0,30408,0,3367699312,63
o,1723651270.432764,172.16.5.2,58399,172.16.1.2,5102,14365,30540,2086,64256,65728,6,6,4,1460,118750,1,16778208,350000,74540,68748,65700,0,27512,0,3367699312,63
i,1723651270.482779,172.16.5.2,58399,172.16.1.2,5102,14365,30540,2086,64256,65728,6,6,4,1460,118750,1,16778208,350000,74540,74540,65700,0,30408,0,3367699312,63
o,1723651270.482857,172.16.5.2,58399,172.16.1.2,5102,14365,30540,2086,62848,65728,6,6,4,1460,117812,1,16778208,350000,74540,71644,65700,0,27512,0,3367699312,63
i,1723651270.532931,172.16.5.2,58399,172.16.1.2,5102,14365,30540,2086,62848,65728,6,6,4,1460,117812,1,16778208,350000,74540,74540,65700,0,30408,0,3367699312,63
o,1723651270.532961,172.16.5.2,58399,172.16.1.2,5102,14365,30540,2086,64256,65728,6,6,4,1460,120625,1,16778208,360000,74540,71644,65700,0,27512,0,3367699312,63
i,1723651270.533150,172.16.5.2,58399,172.16.1.2,5102,14365,30540,2086,64256,65728,6,6,4,1460,120625,1,16778208,360000,74540,71644,65700,0,30408,0,3367699312,63
o,1723651270.533167,172.16.5.2,58399,172.16.1.2,5102,14365,30540,2086,61376,65728,6,6,4,1460,123125,1,16778208,380000,74540,68748,65700,0,27512,0,3367699312,63
i,1723651270.534720,172.16.5.2,58399,172.16.1.2,5102,14365,30540,2086,61376,65728,6,6,4,1460,123125,1,16778208,380000,74540,74540,65700,0,30408,0,3367699312,63
o,1723651270.534743,172.16.5.2,58399,172.16.1.2,5102,14365,30540,2086,64256,65728,6,6,4,1460,124062,1,16778208,370000,74540,71644,65700,0,27512,0,3367699312,63
i,1723651270.534875,172.16.5.2,58399,172.16.1.2,5102,14365,30540,2086,64256,65728,6,6,4,1460,124062,1,16778208,370000,74540,71644,65700,0,30408,0,3367699312,63
o,1723651270.534902,172.16.5.2,58399,172.16.1.2,5102,14365,30540,2086,64256,65728,6,6,4,1460,125000,1,16778208,370000,74540,68748,65700,0,27512,0,3367699312,63
i,1723651270.541245,172.16.5.2,58399,172.16.1.2,5102,14365,30540,2086,64256,65728,6,6,4,1460,125000,1,16778208,370000,74540,74540,65700,0,30408,0,3367699312,63
o,1723651270.541270,172.16.5.2,58399,172.16.1.2,5102,14365,30540,2086,62848,65728,6,6,4,1460,124375,1,16778208,360000,74540,71644,65700,0,27512,0,3367699312,63
i,1723651270.541429,172.16.5.2,58399,172.16.1.2,5102,14365,30540,2086,62848,65728,6,6,4,1460,124375,1,16778208,360000,74540,71644,65700,0,30408,0,3367699312,63
o,1723651270.541446,172.16.5.2,58399,172.16.1.2,5102,14365,32000,2086,62848,65728,6,6,4,1460,124062,1,16778208,350000,74540,68748,65700,0,27512,0,3367699312,63
i,1723651270.565243,172.16.5.2,58399,172.16.1.2,5102,14365,32000,2086,62848,65728,6,6,4,1460,124062,1,16778208,350000,74540,74540,65700,0,31856,0,3367699312,63
o,1723651270.565263,172.16.5.2,58399,172.16.1.2,5102,14365,32000,2086,64256,65728,6,6,4,1460,126250,1,16778208,370000,74540,71644,65700,0,28960,0,3367699312,63
i,1723651270.565449,172.16.5.2,58399,172.16.1.2,5102,14365,32000,2086,64256,65728,6,6,4,1460,126250,1,16778208,370000,74540,71644,65700,0,31856,0,3367699312,63
o,1723651270.565466,172.16.5.2,58399,172.16.1.2,5102,14365,32000,2086,61376,65728,6,6,4,1460,128125,1,16778208,370000,74540,68748,65700,0,28960,0,3367699312,63
o,1723651270.565598,172.16.5.2,58399,172.16.1.2,5102,14365,32000,2086,61376,65728,6,6,4,1460,128125,1,16778208,370000,74540,68748,65700,0,30408,0,3367699312,63
i,1723651270.575857,172.16.5.2,58399,172.16.1.2,5102,14365,32000,2086,61376,65728,6,6,4,1460,128125,1,16778208,370000,74540,74540,65700,0,31856,0,3367699312,63
o,1723651270.575941,172.16.5.2,58399,172.16.1.2,5102,14365,32000,2086,97152,65728,6,6,4,1460,128437,1,16778208,360000,74540,71644,65700,0,28960,0,3367699312,63
i,1723651270.580564,172.16.5.2,58399,172.16.1.2,5102,14365,32000,2086,97152,65728,6,6,4,1460,128437,1,16778208,360000,74540,74540,65700,0,31856,0,3367699312,63
o,1723651270.580651,172.16.5.2,58399,172.16.1.2,5102,14365,32000,2086,97152,65728,6,6,4,1460,130000,1,16778208,370000,74540,71644,65700,0,28960,0,3367699312,63
i,1723651270.621643,172.16.5.2,58399,172.16.1.2,5102,14365,32000,2086,97152,65728,6,6,4,1460,130000,1,16778208,370000,74540,74540,65700,0,31856,0,3367699312,63
o,1723651270.621714,172.16.5.2,58399,172.16.1.2,5102,14365,32000,2086,98560,65728,6,6,4,1460,131250,1,16778208,370000,74540,73092,65700,0,30408,0,3367699312,63
i,1723651270.640669,172.16.5.2,58399,172.16.1.2,5102,14365,32000,2086,98560,65728,6,6,4,1460,131250,1,16778208,370000,74540,73092,65700,0,31856,0,3367699312,63
o,1723651270.640705,172.16.5.2,58399,172.16.1.2,5102,14365,32000,2086,95680,65728,6,6,4,1460,127500,1,16778208,390000,74540,70196,65700,0,28960,0,3367699312,63
i,1723651270.652111,172.16.5.2,58399,172.16.1.2,5102,14365,32000,2086,95680,65728,6,6,4,1460,127500,1,16778208,390000,74540,74540,65700,0,31856,0,3367699312,63
o,1723651270.652205,172.16.5.2,58399,172.16.1.2,5102,14365,32000,2086,97152,65728,6,6,4,1460,126562,1,16778208,380000,74540,71644,65700,0,28960,0,3367699312,63
i,1723651270.652371,172.16.5.2,58399,172.16.1.2,5102,14365,32000,2086,97152,65728,6,6,4,1460,126562,1,16778208,380000,74540,71644,65700,0,31856,0,3367699312,63
o,1723651270.652388,172.16.5.2,58399,172.16.1.2,5102,14365,32000,2086,94272,65728,6,6,4,1460,125937,1,16778208,370000,74540,68748,65700,0,28960,0,3367699312,63
i,1723651270.654196,172.16.5.2,58399,172.16.1.2,5102,14365,32000,2086,94272,65728,6,6,4,1460,125937,1,16778208,370000,74540,74540,65700,0,31856,0,3367699312,63
o,1723651270.654295,172.16.5.2,58399,172.16.1.2,5102,14365,32000,2086,97152,65728,6,6,4,1460,125312,1,16778208,360000,74540,71644,65700,0,28960,0,3367699312,63
i,1723651270.654482,172.16.5.2,58399,172.16.1.2,5102,14365,32000,2086,97152,65728,6,6,4,1460,125312,1,16778208,360000,74540,71644,65700,0,31856,0,3367699312,63
o,1723651270.654515,172.16.5.2,58399,172.16.1.2,5102,14365,32000,2086,94272,65728,6,6,4,1460,123437,1,16778208,370000,74540,68748,65700,0,28960,0,3367699312,63
i,1723651270.663005,172.16.5.2,58399,172.16.1.2,5102,14365,32000,2086,94272,65728,6,6,4,1460,123437,1,16778208,370000,74540,74540,65700,0,31856,0,3367699312,63
o,1723651270.663081,172.16.5.2,58399,172.16.1.2,5102,14365,33460,2086,95680,65728,6,6,4,1460,123125,1,16778208,360000,74540,71644,65700,0,28960,0,3367699312,63
i,1723651270.671745,172.16.5.2,58399,172.16.1.2,5102,14365,33460,2086,95680,65728,6,6,4,1460,123125,1,16778208,360000,74540,74540,65700,0,33304,0,3367699312,63
o,1723651270.671812,172.16.5.2,58399,172.16.1.2,5102,14365,33460,2086,97152,65728,6,6,4,1460,124062,1,16778208,360000,74540,71644,65700,0,30408,0,3367699312,63
i,1723651270.681636,172.16.5.2,58399,172.16.1.2,5102,14365,33460,2086,97152,65728,6,6,4,1460,124062,1,16778208,360000,74540,74540,65700,0,33304,0,3367699312,63
o,1723651270.681710,172.16.5.2,58399,172.16.1.2,5102,14365,33460,2086,97152,65728,6,6,4,1460,123750,1,16778208,350000,74540,71644,65700,0,30408,0,3367699312,63
o,1723651270.681855,172.16.5.2,58399,172.16.1.2,5102,14365,33460,2086,97152,65728,6,6,4,1460,123750,1,16778208,350000,74540,71644,65700,0,31856,0,3367699312,63
i,1723651270.682018,172.16.5.2,58399,172.16.1.2,5102,14365,33460,2086,97152,65728,6,6,4,1460,123750,1,16778208,350000,74540,71644,65700,0,33304,0,3367699312,63
o,1723651270.682035,172.16.5.2,58399,172.16.1.2,5102,14365,33460,2086,94272,65728,6,6,4,1460,123437,1,16778208,350000,74540,68748,65700,0,30408,0,3367699312,63
i,1723651270.692968,172.16.5.2,58399,172.16.1.2,5102,14365,33460,2086,94272,65728,6,6,4,1460,123437,1,16778208,350000,74540,74540,65700,0,33304,0,3367699312,63
o,1723651270.692993,172.16.5.2,58399,172.16.1.2,5102,14365,33460,2086,97152,65728,6,6,4,1460,123125,1,16778208,340000,74540,71644,65700,0,30408,0,3367699312,63
i,1723651270.731267,172.16.5.2,58399,172.16.1.2,5102,14365,33460,2086,97152,65728,6,6,4,1460,123125,1,16778208,340000,74540,74540,65700,0,33304,0,3367699312,63
o,1723651270.731414,172.16.5.2,58399,172.16.1.2,5102,14365,33460,2086,97152,65728,6,6,4,1460,126562,1,16778208,370000,74540,71644,65700,0,30408,0,3367699312,63
i,1723651270.751996,172.16.5.2,58399,172.16.1.2,5102,14365,33460,2086,97152,65728,6,6,4,1460,126562,1,16778208,370000,74540,74540,65700,0,33304,0,3367699312,63
o,1723651270.752025,172.16.5.2,58399,172.16.1.2,5102,14365,33460,2086,95680,65728,6,6,4,1460,124687,1,16778208,370000,74540,71644,65700,0,30408,0,3367699312,63
i,1723651270.762386,172.16.5.2,58399,172.16.1.2,5102,14365,33460,2086,95680,65728,6,6,4,1460,124687,1,16778208,370000,74540,73208,65700,0,33304,0,3367699312,63
o,1723651270.762419,172.16.5.2,58399,172.16.1.2,5102,14365,33460,2086,97152,65728,6,6,4,1460,121875,1,16778208,380000,74540,70312,65700,0,30408,0,3367699312,63
i,1723651270.762597,172.16.5.2,58399,172.16.1.2,5102,14365,33460,2086,97152,65728,6,6,4,1460,121875,1,16778208,380000,74540,70312,65700,0,33304,0,3367699312,63
o,1723651270.762613,172.16.5.2,58399,172.16.1.2,5102,14365,33460,2086,97152,65728,6,6,4,1460,119375,1,16778208,380000,74540,67416,65700,0,30408,0,3367699312,63
i,1723651270.771626,172.16.5.2,58399,172.16.1.2,5102,14365,33460,2086,97152,65728,6,6,4,1460,119375,1,16778208,380000,74540,74540,65700,0,33304,0,3367699312,63
o,1723651270.771649,172.16.5.2,58399,172.16.1.2,5102,14365,33460,2086,97152,65728,6,6,4,1460,118437,1,16778208,370000,74540,71644,65700,0,30408,0,3367699312,63
i,1723651270.771846,172.16.5.2,58399,172.16.1.2,5102,14365,33460,2086,97152,65728,6,6,4,1460,118437,1,16778208,370000,74540,71644,65700,0,33304,0,3367699312,63
o,1723651270.771863,172.16.5.2,58399,172.16.1.2,5102,14365,33460,2086,97152,65728,6,6,4,1460,117500,1,16778208,370000,74540,68748,65700,0,30408,0,3367699312,63
i,1723651270.773449,172.16.5.2,58399,172.16.1.2,5102,14365,33460,2086,97152,65728,6,6,4,1460,117500,1,16778208,370000,74540,74540,65700,0,33304,0,3367699312,63
o,1723651270.773467,172.16.5.2,58399,172.16.1.2,5102,14365,33460,2086,97152,65728,6,6,4,1460,116562,1,16778208,360000,74540,71644,65700,0,30408,0,3367699312,63
i,1723651270.781424,172.16.5.2,58399,172.16.1.2,5102,14365,33460,2086,97152,65728,6,6,4,1460,116562,1,16778208,360000,74540,74540,65700,0,33304,0,3367699312,63
o,1723651270.781445,172.16.5.2,58399,172.16.1.2,5102,14365,34920,2086,97152,65728,6,6,4,1460,117187,1,16778208,350000,74540,71644,65700,0,30408,0,3367699312,63
i,1723651270.792427,172.16.5.2,58399,172.16.1.2,5102,14365,34920,2086,97152,65728,6,6,4,1460,117187,1,16778208,350000,74540,74540,65700,0,34752,0,3367699312,63
o,1723651270.792448,172.16.5.2,58399,172.16.1.2,5102,14365,34920,2086,97152,65728,6,6,4,1460,117812,1,16778208,350000,74540,71644,65700,0,31856,0,3367699312,63
o,1723651270.792612,172.16.5.2,58399,172.16.1.2,5102,14365,34920,2086,97152,65728,6,6,4,1460,117812,1,16778208,350000,74540,71644,65700,0,33304,0,3367699312,63
i,1723651270.792730,172.16.5.2,58399,172.16.1.2,5102,14365,34920,2086,97152,65728,6,6,4,1460,117812,1,16778208,350000,74540,71644,65700,0,34752,0,3367699312,63
o,1723651270.792746,172.16.5.2,58399,172.16.1.2,5102,14365,34920,2086,97152,65728,6,6,4,1460,116875,1,16778208,350000,74540,68748,65700,0,31856,0,3367699312,63
i,1723651270.811021,172.16.5.2,58399,172.16.1.2,5102,14365,34920,2086,97152,65728,6,6,4,1460,116875,1,16778208,350000,82732,82732,65700,0,34752,0,3367699312,63
o,1723651270.811119,172.16.5.2,58399,172.16.1.2,5102,14365,34920,2086,97152,65728,6,6,4,1460,117500,1,16778208,350000,82732,79836,65700,0,31856,0,3367699312,63
i,1723651270.836350,172.16.5.2,58399,172.16.1.2,5102,14365,34920,2086,97152,65728,6,6,4,1460,117500,1,16778208,350000,82732,82732,65700,0,34752,0,3367699312,63
o,1723651270.836435,172.16.5.2,58399,172.16.1.2,5102,14365,34920,2086,97152,65728,6,6,4,1460,120312,1,16778208,370000,82732,79836,65700,0,31856,0,3367699312,63
i,1723651270.861748,172.16.5.2,58399,172.16.1.2,5102,14365,34920,2086,97152,65728,6,6,4,1460,120312,1,16778208,370000,82732,82732,65700,0,34752,0,3367699312,63
o,1723651270.861778,172.16.5.2,58399,172.16.1.2,5102,14365,34920,2086,97152,65728,6,6,4,1460,121562,1,16778208,360000,82732,79836,65700,0,31856,0,3367699312,63
i,1723651270.871330,172.16.5.2,58399,172.16.1.2,5102,14365,34920,2086,97152,65728,6,6,4,1460,121562,1,16778208,360000,82732,82732,65700,0,34752,0,3367699312,63
o,1723651270.871425,172.16.5.2,58399,172.16.1.2,5102,14365,34920,2086,97152,65728,6,6,4,1460,120312,1,16778208,360000,82732,79836,65700,0,31856,0,3367699312,63
i,1723651270.882288,172.16.5.2,58399,172.16.1.2,5102,14365,34920,2086,97152,65728,6,6,4,1460,120312,1,16778208,360000,82732,82732,65700,0,34752,0,3367699312,63
o,1723651270.882312,172.16.5.2,58399,172.16.1.2,5102,14365,34920,2086,97152,65728,6,6,4,1460,120312,1,16778208,350000,82732,79836,65700,0,31856,0,3367699312,63
i,1723651270.882505,172.16.5.2,58399,172.16.1.2,5102,14365,34920,2086,97152,65728,6,6,4,1460,120312,1,16778208,350000,82732,79836,65700,0,34752,0,3367699312,63
o,1723651270.882542,172.16.5.2,58399,172.16.1.2,5102,14365,34920,2086,95680,65728,6,6,4,1460,120312,1,16778208,350000,82732,76940,65700,0,31856,0,3367699312,63
i,1723651270.892174,172.16.5.2,58399,172.16.1.2,5102,14365,34920,2086,95680,65728,6,6,4,1460,120312,1,16778208,350000,82732,82732,65700,0,34752,0,3367699312,63
o,1723651270.892195,172.16.5.2,58399,172.16.1.2,5102,14365,34920,2086,95680,65728,6,6,4,1460,120312,1,16778208,340000,82732,79836,65700,0,31856,0,3367699312,63
i,1723651270.892348,172.16.5.2,58399,172.16.1.2,5102,14365,34920,2086,95680,65728,6,6,4,1460,120312,1,16778208,340000,82732,79836,65700,0,34752,0,3367699312,63
o,1723651270.892364,172.16.5.2,58399,172.16.1.2,5102,14365,34920,2086,95680,65728,6,6,4,1460,120312,1,16778208,330000,82732,76940,65700,0,31856,0,3367699312,63
i,1723651270.901576,172.16.5.2,58399,172.16.1.2,5102,14365,34920,2086,95680,65728,6,6,4,1460,120312,1,16778208,330000,82732,82732,65700,0,34752,0,3367699312,63
o,1723651270.901596,172.16.5.2,58399,172.16.1.2,5102,14365,34920,2086,97152,65728,6,6,4,1460,121562,1,16778208,340000,82732,79836,65700,0,31856,0,3367699312,63
