enable_time_secs=1723651090	enable_time_usecs=021560	siftrver=1.3.0	sysname=FreeBSD	sysver=1401000	ipmode=4
o,1723651090.022017,10.0.2.15,22,10.0.2.2,50520,1073725440,17746,1026,65535,65700,0,0,4,1460,312,0,16777220,240000,33580,172,65700,0,0,0,4055621211,63
o,1723651090.022219,10.0.2.15,22,10.0.2.2,50520,1073725440,17746,1026,65535,65700,0,0,4,1460,312,0,16777220,240000,33580,244,65700,0,172,0,4055621211,63
i,1723651090.022396,10.0.2.15,22,10.0.2.2,50520,1073725440,17746,1026,65535,65700,0,0,4,1460,312,0,16777220,240000,33580,244,65700,0,244,0,4055621211,63
i,1723651090.022442,10.0.2.15,22,10.0.2.2,50520,1073725440,17918,1026,65535,65700,0,0,4,1460,312,0,4,240000,33580,72,65700,0,72,0,4055621211,63
i,1723651090.022711,10.0.2.15,22,10.0.2.2,50520,1073725440,17990,1026,65535,65700,0,0,4,1460,312,0,4,240000,33580,0,65700,0,0,0,4055621211,63
i,1723651090.022728,10.0.2.15,22,10.0.2.2,50520,1073725440,17990,1026,65535,65700,0,0,4,1460,312,0,4,240000,33580,0,65700,96,0,0,4055621211,63
o,1723651090.022745,10.0.2.15,22,10.0.2.2,50520,1073725440,17990,1026,65535,65604,0,0,5,1460,312,0,5,240000,33580,0,65700,96,0,0,4055621211,63
o,1723651090.023404,10.0.2.15,22,10.0.2.2,50520,1073725440,17990,1026,65535,65604,0,0,8,1460,312,0,4,240000,33580,0,65700,0,0,0,4055621211,63
i,1723651090.023952,10.0.2.15,22,10.0.2.2,50520,1073725440,17990,1026,65535,65604,0,0,8,1460,312,0,67108884,240000,33580,0,65700,0,1,0,4055621211,63
i,1723651093.238683,10.0.2.15,22,10.0.2.2,50524,1073725440,14600,0,65535,65700,0,0,4,1460,312,0,16777216,270000,33580,0,65700,0,0,0,1506783149,63
o,1723651093.250229,10.0.2.15,22,10.0.2.2,50524,1073725440,14600,1026,65535,65700,0,0,4,1460,312,0,16777216,270000,33580,38,65700,42,0,0,1506783149,63
i,1723651093.250924,10.0.2.15,22,10.0.2.2,50524,1073725440,14600,1026,65535,65700,0,0,4,1460,312,0,16777216,270000,33580,38,65700,0,38,0,1506783149,63
i,1723651093.251321,10.0.2.15,22,10.0.2.2,50524,1073725440,14638,1026,65535,65700,0,0,4,1460,312,0,0,230000,33580,0,65700,0,0,0,1506783149,63
i,1723651093.251341,10.0.2.15,22,10.0.2.2,50524,1073725440,14638,1026,65535,65700,0,0,4,1460,312,0,0,230000,33580,0,65700,1460,0,0,1506783149,63
o,1723651093.251370,10.0.2.15,22,10.0.2.2,50524,1073725440,14638,1026,65535,65700,0,0,4,1460,312,0,1,230000,33580,0,65700,1536,0,0,1506783149,63
o,1723651093.252141,10.0.2.15,22,10.0.2.2,50524,1073725440,14638,1026,65535,65700,0,0,4,1460,312,0,16777216,230000,33580,1120,65700,1536,0,0,1506783149,63
i,1723651093.252687,10.0.2.15,22,10.0.2.2,50524,1073725440,14638,1026,65535,65700,0,0,4,1460,312,0,16777216,230000,33580,1120,65700,0,1120,0,1506783149,63
i,1723651093.253979,10.0.2.15,22,10.0.2.2,50524,1073725440,15758,1026,65535,65700,0,0,4,1460,312,0,0,240000,33580,0,65700,0,0,0,1506783149,63
o,1723651093.256851,10.0.2.15,22,10.0.2.2,50524,1073725440,15758,1026,65535,65700,0,0,4,1460,312,0,16777216,240000,33580,492,65700,0,0,0,1506783149,63
i,1723651093.257866,10.0.2.15,22,10.0.2.2,50524,1073725440,15758,1026,65535,65700,0,0,4,1460,312,0,16777216,240000,33580,492,65700,0,492,0,1506783149,63
i,1723651093.261744,10.0.2.15,22,10.0.2.2,50524,1073725440,16250,1026,65535,65700,0,0,4,1460,312,0,0,240000,33580,0,65700,0,0,0,1506783149,63
i,1723651093.261762,10.0.2.15,22,10.0.2.2,50524,1073725440,16250,1026,65535,65700,0,0,4,1460,312,0,0,240000,33580,0,65700,16,0,0,1506783149,63
o,1723651093.261777,10.0.2.15,22,10.0.2.2,50524,1073725440,16250,1026,65535,65700,0,0,4,1460,312,0,1,240000,33580,0,65700,60,0,0,1506783149,63
o,1723651093.261976,10.0.2.15,22,10.0.2.2,50524,1073725440,16250,1026,65535,65700,0,0,4,1460,312,0,16777216,240000,33580,44,65700,0,0,0,1506783149,63
i,1723651093.262532,10.0.2.15,22,10.0.2.2,50524,1073725440,16250,1026,65535,65700,0,0,4,1460,312,0,16777216,240000,33580,44,65700,0,44,0,1506783149,63
i,1723651093.262551,10.0.2.15,22,10.0.2.2,50524,1073725440,16294,1026,65535,65700,0,0,4,1460,312,0,0,240000,33580,0,65700,0,0,0,1506783149,63
o,1723651093.264175,10.0.2.15,22,10.0.2.2,50524,1073725440,16294,1026,65535,65700,0,0,4,1460,312,0,16777216,240000,33580,68,65700,0,0,0,1506783149,63
i,1723651093.264740,10.0.2.15,22,10.0.2.2,50524,1073725440,16294,1026,65535,65700,0,0,4,1460,312,0,16777216,240000,33580,68,65700,0,68,0,1506783149,63
i,1723651093.264757,10.0.2.15,22,10.0.2.2,50524,1073725440,16362,1026,65535,65700,0,0,4,1460,312,0,0,240000,33580,0,65700,0,0,0,1506783149,63
o,1723651093.265994,10.0.2.15,22,10.0.2.2,50524,1073725440,16362,1026,65535,65700,0,0,4,1460,312,0,16777216,240000,33580,332,65700,0,0,0,1506783149,63
i,1723651093.266747,10.0.2.15,22,10.0.2.2,50524,1073725440,16362,1026,65535,65700,0,0,4,1460,312,0,16777216,240000,33580,332,65700,0,332,0,1506783149,63
i,1723651093.267950,10.0.2.15,22,10.0.2.2,50524,1073725440,16694,1026,65535,65700,0,0,4,1460,312,0,0,240000,33580,0,65700,0,0,0,1506783149,63
o,1723651093.287501,10.0.2.15,22,10.0.2.2,50524,1073725440,16694,1026,65535,65700,0,0,4,1460,312,0,16777216,240000,33580,28,65700,0,0,0,1506783149,63
i,1723651093.288062,10.0.2.15,22,10.0.2.2,50524,1073725440,16694,1026,65535,65700,0,0,4,1460,312,0,16777216,240000,33580,28,65700,0,28,0,1506783149,63
i,1723651093.288415,10.0.2.15,22,10.0.2.2,50524,1073725440,16722,1026,65535,65700,0,0,4,1460,312,0,0,240000,33580,0,65700,0,0,0,1506783149,63
o,1723651093.289420,10.0.2.15,22,10.0.2.2,50524,1073725440,16722,1026,65535,65700,0,0,4,1460,312,0,16777216,240000,33580,768,65700,112,0,0,1506783149,63
i,1723651093.289897,10.0.2.15,22,10.0.2.2,50524,1073725440,16722,1026,65535,65700,0,0,4,1460,312,0,16777216,240000,33580,908,65700,112,768,0,1506783149,63
o,1723651093.289897,10.0.2.15,22,10.0.2.2,50524,1073725440,17490,1026,65535,65700,0,0,4,1460,312,0,16777216,240000,33580,140,65700,112,0,0,1506783149,63
i,1723651093.290533,10.0.2.15,22,10.0.2.2,50524,1073725440,17490,1026,65535,65700,0,0,4,1460,312,0,16777216,240000,33580,140,65700,112,140,0,1506783149,63
o,1723651093.290915,10.0.2.15,22,10.0.2.2,50524,1073725440,17630,1026,65535,65700,0,0,4,1460,312,0,16777216,240000,33580,44,65700,0,0,0,1506783149,63
i,1723651093.291601,10.0.2.15,22,10.0.2.2,50524,1073725440,17630,1026,65535,65700,0,0,4,1460,312,0,16777216,240000,33580,44,65700,0,44,0,1506783149,63
i,1723651093.291617,10.0.2.15,22,10.0.2.2,50524,1073725440,17674,1026,65535,65700,0,0,4,1460,312,0,0,240000,33580,0,65700,0,0,0,1506783149,63
o,1723651093.292117,10.0.2.15,22,10.0.2.2,50524,1073725440,17674,1026,65535,65700,0,0,4,1460,312,0,16777220,240000,33580,72,65700,0,0,0,1506783149,63
i,1723651093.292519,10.0.2.15,22,10.0.2.2,50524,1073725440,17674,1026,65535,65700,0,0,4,1460,312,0,16777220,240000,33580,72,65700,0,72,0,1506783149,63
o,1723651093.295938,10.0.2.15,22,10.0.2.2,50524,1073725440,17746,1026,65535,65700,0,0,4,1460,312,0,16777220,240000,33580,104,65700,0,0,0,1506783149,63
i,1723651093.296504,10.0.2.15,22,10.0.2.2,50524,1073725440,17746,1026,65535,65700,0,0,4,1460,312,0,16777220,240000,33580,104,65700,0,104,0,1506783149,63
o,1723651093.319703,10.0.2.15,22,10.0.2.2,50524,1073725440,17850,1026,65535,65700,0,0,4,1460,312,0,16777220,240000,33580,72,65700,0,0,0,1506783149,63
i,1723651093.320996,10.0.2.15,22,10.0.2.2,50524,1073725440,17850,1026,65535,65700,0,0,4,1460,312,0,16777220,240000,33580,72,65700,0,72,0,1506783149,63
i,1723651093.321040,10.0.2.15,22,10.0.2.2,50524,1073725440,17922,1026,65535,65700,0,0,4,1460,312,0,4,240000,33580,0,65700,0,0,0,1506783149,63
i,1723651093.321117,10.0.2.15,22,10.0.2.2,50524,1073725440,17922,1026,65535,65700,0,0,4,1460,312,0,4,240000,33580,0,65700,96,0,0,1506783149,63
o,1723651093.321151,10.0.2.15,22,10.0.2.2,50524,1073725440,17922,1026,65535,65604,0,0,5,1460,312,0,5,240000,33580,0,65700,96,0,0,1506783149,63
o,1723651093.323276,10.0.2.15,22,10.0.2.2,50524,1073725440,17922,1026,65535,65604,0,0,8,1460,312,0,4,240000,33580,0,65700,0,0,0,1506783149,63
i,1723651093.323944,10.0.2.15,22,10.0.2.2,50524,1073725440,17922,1026,65535,65604,0,0,8,1460,312,0,67108884,240000,33580,0,65700,0,1,0,1506783149,63
i,1723651094.390277,10.0.2.15,22,10.0.2.2,50540,1073725440,14600,0,65535,65700,0,0,4,1460,312,0,16777216,270000,33580,0,65700,0,0,0,1188838894,63
o,1723651094.401518,10.0.2.15,22,10.0.2.2,50540,1073725440,14600,1026,65535,65700,0,0,4,1460,312,0,16777216,270000,33580,38,65700,42,0,0,1188838894,63
i,1723651094.402283,10.0.2.15,22,10.0.2.2,50540,1073725440,14600,1026,65535,65700,0,0,4,1460,312,0,16777216,270000,33580,38,65700,0,38,0,1188838894,63
i,1723651094.402307,10.0.2.15,22,10.0.2.2,50540,1073725440,14638,1026,65535,65700,0,0,4,1460,312,0,0,240000,33580,0,65700,0,0,0,1188838894,63
i,1723651094.402467,10.0.2.15,22,10.0.2.2,50540,1073725440,14638,1026,65535,65700,0,0,4,1460,312,0,0,240000,33580,0,65700,1460,0,0,1188838894,63
o,1723651094.402496,10.0.2.15,22,10.0.2.2,50540,1073725440,14638,1026,65535,65700,0,0,4,1460,312,0,1,240000,33580,0,65700,1536,0,0,1188838894,63
o,1723651094.403395,10.0.2.15,22,10.0.2.2,50540,1073725440,14638,1026,65535,65700,0,0,4,1460,312,0,16777216,240000,33580,1120,65700,1536,0,0,1188838894,63
i,1723651094.403720,10.0.2.15,22,10.0.2.2,50540,1073725440,14638,1026,65535,65700,0,0,4,1460,312,0,16777216,240000,33580,1120,65700,0,1120,0,1188838894,63
i,1723651094.406739,10.0.2.15,22,10.0.2.2,50540,1073725440,15758,1026,65535,65700,0,0,4,1460,312,0,0,240000,33580,0,65700,0,0,0,1188838894,63
o,1723651094.410094,10.0.2.15,22,10.0.2.2,50540,1073725440,15758,1026,65535,65700,0,0,4,1460,312,0,16777216,240000,33580,492,65700,0,0,0,1188838894,63
i,1723651094.411238,10.0.2.15,22,10.0.2.2,50540,1073725440,15758,1026,65535,65700,0,0,4,1460,312,0,16777216,240000,33580,492,65700,0,492,0,1188838894,63
i,1723651094.415807,10.0.2.15,22,10.0.2.2,50540,1073725440,16250,1026,65535,65700,0,0,4,1460,312,0,0,240000,33580,0,65700,0,0,0,1188838894,63
i,1723651094.415845,10.0.2.15,22,10.0.2.2,50540,1073725440,16250,1026,65535,65700,0,0,4,1460,312,0,0,240000,33580,0,65700,16,0,0,1188838894,63
o,1723651094.415863,10.0.2.15,22,10.0.2.2,50540,1073725440,16250,1026,65535,65700,0,0,4,1460,312,0,1,240000,33580,0,65700,60,0,0,1188838894,63
o,1723651094.416146,10.0.2.15,22,10.0.2.2,50540,1073725440,16250,1026,65535,65700,0,0,4,1460,312,0,16777216,240000,33580,44,65700,0,0,0,1188838894,63
i,1723651094.416890,10.0.2.15,22,10.0.2.2,50540,1073725440,16250,1026,65535,65700,0,0,4,1460,312,0,16777216,240000,33580,44,65700,0,44,0,1188838894,63
i,1723651094.416939,10.0.2.15,22,10.0.2.2,50540,1073725440,16294,1026,65535,65700,0,0,4,1460,312,0,0,240000,33580,0,65700,0,0,0,1188838894,63
o,1723651094.417972,10.0.2.15,22,10.0.2.2,50540,1073725440,16294,1026,65535,65700,0,0,4,1460,312,0,16777216,240000,33580,68,65700,0,0,0,1188838894,63
i,1723651094.418436,10.0.2.15,22,10.0.2.2,50540,1073725440,16294,1026,65535,65700,0,0,4,1460,312,0,16777216,240000,33580,68,65700,0,68,0,1188838894,63
i,1723651094.418453,10.0.2.15,22,10.0.2.2,50540,1073725440,16362,1026,65535,65700,0,0,4,1460,312,0,0,240000,33580,0,65700,0,0,0,1188838894,63
o,1723651094.419564,10.0.2.15,22,10.0.2.2,50540,1073725440,16362,1026,65535,65700,0,0,4,1460,312,0,16777216,240000,33580,332,65700,0,0,0,1188838894,63
i,1723651094.420502,10.0.2.15,22,10.0.2.2,50540,1073725440,16362,1026,65535,65700,0,0,4,1460,312,0,16777216,240000,33580,332,65700,0,332,0,1188838894,63
i,1723651094.421996,10.0.2.15,22,10.0.2.2,50540,1073725440,16694,1026,65535,65700,0,0,4,1460,312,0,0,240000,33580,0,65700,0,0,0,1188838894,63
o,1723651094.438666,10.0.2.15,22,10.0.2.2,50540,1073725440,16694,1026,65535,65700,0,0,4,1460,312,0,16777216,240000,33580,28,65700,0,0,0,1188838894,63
i,1723651094.439426,10.0.2.15,22,10.0.2.2,50540,1073725440,16694,1026,65535,65700,0,0,4,1460,312,0,16777216,240000,33580,28,65700,0,28,0,1188838894,63
i,1723651094.439448,10.0.2.15,22,10.0.2.2,50540,1073725440,16722,1026,65535,65700,0,0,4,1460,312,0,0,240000,33580,0,65700,0,0,0,1188838894,63
o,1723651094.441001,10.0.2.15,22,10.0.2.2,50540,1073725440,16722,1026,65535,65700,0,0,4,1460,312,0,16777216,240000,33580,768,65700,112,0,0,1188838894,63
i,1723651094.442100,10.0.2.15,22,10.0.2.2,50540,1073725440,16722,1026,65535,65700,0,0,4,1460,312,0,16777216,240000,33580,908,65700,112,768,0,1188838894,63
o,1723651094.442134,10.0.2.15,22,10.0.2.2,50540,1073725440,17490,1026,65535,65700,0,0,4,1460,312,0,16777216,240000,33580,140,65700,112,0,0,1188838894,63
i,1723651094.442578,10.0.2.15,22,10.0.2.2,50540,1073725440,17490,1026,65535,65700,0,0,4,1460,312,0,16777216,240000,33580,140,65700,112,140,0,1188838894,63
o,1723651094.443115,10.0.2.15,22,10.0.2.2,50540,1073725440,17630,1026,65535,65700,0,0,4,1460,312,0,16777216,240000,33580,44,65700,0,0,0,1188838894,63
i,1723651094.443657,10.0.2.15,22,10.0.2.2,50540,1073725440,17630,1026,65535,65700,0,0,4,1460,312,0,16777216,240000,33580,44,65700,0,44,0,1188838894,63
i,1723651094.443676,10.0.2.15,22,10.0.2.2,50540,1073725440,17674,1026,65535,65700,0,0,4,1460,312,0,0,240000,33580,0,65700,0,0,0,1188838894,63
o,1723651094.444414,10.0.2.15,22,10.0.2.2,50540,1073725440,17674,1026,65535,65700,0,0,4,1460,312,0,16777220,240000,33580,72,65700,0,0,0,1188838894,63
i,1723651094.444793,10.0.2.15,22,10.0.2.2,50540,1073725440,17674,1026,65535,65700,0,0,4,1460,312,0,16777220,240000,33580,72,65700,0,72,0,1188838894,63
o,1723651094.580354,172.16.5.2,41897,172.16.1.2,5102,19731,14480,2082,65535,65700,6,6,4,1460,230937,1,16778209,840000,33580,0,65700,0,0,0,1673192863,63
o,1723651094.580801,172.16.5.2,41897,172.16.1.2,5102,19731,14480,2082,65535,65700,6,6,4,1460,230937,1,16778212,840000,33580,37,65700,0,0,0,1673192863,63
i,1723651094.693832,172.16.5.2,41897,172.16.1.2,5102,19731,14480,2082,65535,65700,6,6,4,1460,230937,1,16778212,840000,33580,37,65700,0,37,0,1673192863,63
o,1723651094.694188,172.16.5.2,41897,172.16.1.2,5102,19731,14517,3106,65728,65728,6,6,4,1460,215937,1,16778212,850000,33580,4,65700,0,0,0,1673192863,63
o,1723651094.694612,172.16.5.2,41897,172.16.1.2,5102,19731,14517,3106,65728,65728,6,6,4,1460,215937,1,16778212,850000,33580,130,65700,0,4,0,1673192863,63
i,1723651094.811781,172.16.5.2,41897,172.16.1.2,5102,19731,14517,3106,65728,65728,6,6,4,1460,215937,1,16778212,850000,33580,130,65700,0,130,0,1673192863,63
i,1723651094.811823,172.16.5.2,41897,172.16.1.2,5102,19731,14647,3106,65600,65728,6,6,4,1460,204062,1,996,820000,33580,0,65700,0,0,0,1673192863,63
o,1723651094.921800,172.16.5.2,38936,172.16.1.2,5102,19731,14480,2082,65535,65700,6,6,4,1460,228437,1,16778209,860000,33580,0,65700,0,0,0,3241171236,63
o,1723651094.922481,172.16.5.2,38936,172.16.1.2,5102,19731,14480,2082,65535,65700,6,6,4,1460,228437,1,16778208,860000,33580,37,65700,0,0,0,3241171236,63
o,1723651094.928447,172.16.5.2,41897,172.16.1.2,5102,19731,14647,3106,65728,65728,6,6,4,1460,204062,1,997,820000,33580,0,65700,0,0,0,1673192863,63
i,1723651095.042036,172.16.5.2,41897,172.16.1.2,5102,19731,14647,3106,65728,65728,6,6,4,1460,204062,1,996,820000,33580,0,65700,0,0,0,1673192863,63
i,1723651095.042075,172.16.5.2,41897,172.16.1.2,5102,19731,14647,3106,65728,65728,6,6,4,1460,204062,1,996,820000,33580,0,65700,1,0,0,1673192863,63
o,1723651095.042093,172.16.5.2,41897,172.16.1.2,5102,19731,14647,3106,65728,65728,6,6,4,1460,204062,1,997,820000,33580,0,65700,2,0,0,1673192863,63
o,1723651095.042769,172.16.5.2,38936,172.16.1.2,5102,19731,14480,2086,65535,65700,6,6,4,1460,228437,1,16778208,860000,33580,33580,65700,0,37,0,3241171236,63
i,1723651095.077962,172.16.5.2,38936,172.16.1.2,5102,19731,14480,2086,65535,65700,6,6,4,1460,228437,1,16778208,860000,33580,33580,65700,0,13069,0,3241171236,63
o,1723651095.078005,172.16.5.2,38936,172.16.1.2,5102,19731,14517,2086,65728,65728,6,6,4,1460,220000,1,16778208,810000,33580,33543,65700,0,13032,0,3241171236,63
i,1723651095.411111,172.16.5.2,38936,172.16.1.2,5102,19731,14517,2086,65728,65728,6,6,4,1460,220000,1,16778208,810000,33580,33543,65700,0,14480,0,3241171236,63
o,1723651095.411412,172.16.5.2,38936,172.16.1.2,5102,7713,14480,2086,64256,65728,6,6,4,1460,238750,1,553649120,880000,33580,30647,65700,0,11584,0,3241171236,63
i,1723651095.461683,172.16.5.2,38936,172.16.1.2,5102,7713,14480,2086,64256,65728,6,6,4,1460,238750,1,553649120,880000,33580,33580,65700,0,14480,0,3241171236,63
o,1723651095.461785,172.16.5.2,38936,172.16.1.2,5102,7713,13032,2082,64256,65728,6,6,4,1460,261562,1,553649120,980000,33580,30684,65700,0,11584,0,3241171236,63
i,1723651095.511911,172.16.5.2,38936,172.16.1.2,5102,7713,13032,2082,64256,65728,6,6,4,1460,261562,1,553649120,980000,33580,33580,65700,0,13032,0,3241171236,63
o,1723651095.511993,172.16.5.2,38936,172.16.1.2,5102,7713,11584,2082,64256,65728,6,6,4,1460,287812,1,553649120,1080000,33580,30684,65700,0,10136,0,3241171236,63
i,1723651095.551656,172.16.5.2,38936,172.16.1.2,5102,7713,11584,2082,64256,65728,6,6,4,1460,287812,1,553649120,1080000,33580,33580,65700,0,11584,0,3241171236,63
o,1723651095.551796,172.16.5.2,38936,172.16.1.2,5102,7713,11596,2086,64256,65728,6,6,4,1460,315625,1,553649120,1180000,33580,30684,65700,0,8688,0,3241171236,63
i,1723651095.605634,172.16.5.2,38936,172.16.1.2,5102,7713,11596,2086,64256,65728,6,6,4,1460,315625,1,553649120,1180000,33580,33580,65700,0,11584,0,3241171236,63
i,1723651095.782134,172.16.5.2,38936,172.16.1.2,5102,7713,8688,2086,64256,65728,6,6,4,1460,346250,1,536871904,1290000,33580,33580,65700,0,8688,0,3241171236,63
i,1723651095.813601,172.16.5.2,38936,172.16.1.2,5102,4629,7240,2150,65728,65728,6,6,4,1460,348125,1,536871904,1120000,33580,32132,65700,0,7240,0,3241171236,63
o,1723651095.813709,172.16.5.2,38936,172.16.1.2,5102,4629,7252,2086,65728,65728,6,6,4,1460,353437,1,553649120,1030000,33580,30684,65700,0,5792,0,3241171236,63
i,1723651095.865161,172.16.5.2,38936,172.16.1.2,5102,4629,7252,2086,65728,65728,6,6,4,1460,353437,1,553649120,1030000,33580,33580,65700,0,7240,0,3241171236,63
o,1723651095.865247,172.16.5.2,38936,172.16.1.2,5102,4629,7240,2086,64256,65728,6,6,4,1460,359375,1,553649120,960000,33580,30684,65700,0,4344,0,3241171236,63
i,1723651095.871698,172.16.5.2,38936,172.16.1.2,5102,4629,7240,2086,64256,65728,6,6,4,1460,359375,1,553649120,960000,33580,33580,65700,0,7240,0,3241171236,63
o,1723651095.871742,172.16.5.2,38936,172.16.1.2,5102,4629,7240,2086,64256,65728,6,6,4,1460,354687,1,553649120,890000,33580,30684,65700,0,4344,0,3241171236,63
i,1723651095.952945,172.16.5.2,38936,172.16.1.2,5102,4629,7240,2086,64256,65728,6,6,4,1460,354687,1,553649120,890000,33580,33580,65700,0,7240,0,3241171236,63
o,1723651095.953055,172.16.5.2,38936,172.16.1.2,5102,4629,7240,2082,65728,65728,6,6,4,1460,328125,1,16778208,1000000,33580,32132,65700,0,5792,0,3241171236,63
i,1723651096.041722,172.16.5.2,38936,172.16.1.2,5102,4629,7240,2082,65728,65728,6,6,4,1460,328125,1,16778208,1000000,33580,32132,65700,0,7240,0,3241171236,63
o,1723651096.041759,172.16.5.2,38936,172.16.1.2,5102,4629,7240,2086,64256,65728,6,6,4,1460,308437,1,16778208,1020000,33580,29236,65700,0,4344,0,3241171236,63
i,1723651096.073466,172.16.5.2,38936,172.16.1.2,5102,4629,7240,2086,64256,65728,6,6,4,1460,308437,1,16778208,1020000,33580,33580,65700,0,7240,0,3241171236,63
o,1723651096.073560,172.16.5.2,38936,172.16.1.2,5102,4629,7240,2086,64256,65728,6,6,4,1460,295000,1,16778208,980000,33580,30684,65700,0,4344,0,3241171236,63
i,1723651096.164362,172.16.5.2,38936,172.16.1.2,5102,4629,7240,2086,64256,65728,6,6,4,1460,295000,1,16778208,980000,33580,33580,65700,0,7240,0,3241171236,63
o,1723651096.164400,172.16.5.2,38936,172.16.1.2,5102,4629,8700,2086,65728,65728,6,6,4,1460,284375,1,16778208,930000,33580,32132,65700,0,5792,0,3241171236,63
o,1723651096.164555,172.16.5.2,38936,172.16.1.2,5102,4629,8700,2086,65728,65728,6,6,4,1460,284375,1,16778208,930000,33580,32132,65700,0,7240,0,3241171236,63
i,1723651096.212549,172.16.5.2,38936,172.16.1.2,5102,4629,8700,2086,65728,65728,6,6,4,1460,284375,1,16778208,930000,33580,32132,65700,0,8688,0,3241171236,63
o,1723651096.212663,172.16.5.2,38936,172.16.1.2,5102,4629,8700,2086,64256,65728,6,6,4,1460,270312,1,16778208,920000,33580,29236,65700,0,5792,0,3241171236,63
i,1723651096.260176,172.16.5.2,38936,172.16.1.2,5102,4629,8700,2086,64256,65728,6,6,4,1460,270312,1,16778208,920000,33580,33580,65700,0,8688,0,3241171236,63
o,1723651096.260214,172.16.5.2,38936,172.16.1.2,5102,4629,8700,2086,64256,65728,6,6,4,1460,260312,1,16778208,880000,33580,30684,65700,0,5792,0,3241171236,63
i,1723651096.321709,172.16.5.2,38936,172.16.1.2,5102,4629,8700,2086,64256,65728,6,6,4,1460,260312,1,16778208,880000,33580,33580,65700,0,8688,0,3241171236,63
o,1723651096.321830,172.16.5.2,38936,172.16.1.2,5102,4629,8700,2086,64256,65728,6,6,4,1460,247812,1,16778208,860000,33580,30684,65700,0,5792,0,3241171236,63
o,1723651096.322022,172.16.5.2,38936,172.16.1.2,5102,4629,8700,2086,64256,65728,6,6,4,1460,247812,1,16778208,860000,33580,30684,65700,0,7240,0,3241171236,63
i,1723651096.411702,172.16.5.2,38936,172.16.1.2,5102,4629,8700,2086,64256,65728,6,6,4,1460,247812,1,16778208,860000,33580,33580,65700,0,8688,0,3241171236,63
o,1723651096.411798,172.16.5.2,38936,172.16.1.2,5102,4629,10160,2086,64256,65728,6,6,4,1460,241875,1,16778208,800000,33580,30684,65700,0,5792,0,3241171236,63
i,1723651096.467028,172.16.5.2,38936,172.16.1.2,5102,4629,10160,2086,64256,65728,6,6,4,1460,241875,1,16778208,800000,33580,33580,65700,0,10136,0,3241171236,63
o,1723651096.467109,172.16.5.2,38936,172.16.1.2,5102,4629,10160,2086,64256,65728,6,6,4,1460,235625,1,16778208,750000,33580,30684,65700,0,7240,0,3241171236,63
i,1723651096.569030,172.16.5.2,38936,172.16.1.2,5102,4629,10160,2086,64256,65728,6,6,4,1460,235625,1,16778208,750000,33580,33580,65700,0,10136,0,3241171236,63
o,1723651096.569131,172.16.5.2,38936,172.16.1.2,5102,4629,10160,2086,65728,65728,6,6,4,1460,236250,1,16778208,680000,33580,32132,65700,0,8688,0,3241171236,63
i,1723651096.633057,172.16.5.2,38936,172.16.1.2,5102,4629,10160,2086,65728,65728,6,6,4,1460,236250,1,16778208,680000,33580,32132,65700,0,10136,0,3241171236,63
o,1723651096.633138,172.16.5.2,38936,172.16.1.2,5102,6504,10148,2086,64256,65728,6,6,4,1460,245625,1,553649120,700000,33580,29236,65700,0,7240,0,3241171236,63
i,1723651096.722675,172.16.5.2,38936,172.16.1.2,5102,6504,10148,2086,64256,65728,6,6,4,1460,245625,1,553649120,700000,33580,33580,65700,0,10136,0,3241171236,63
i,1723651096.762287,172.16.5.2,38936,172.16.1.2,5102,6504,7240,2086,64256,65728,6,6,4,1460,252500,1,553649120,700000,33580,33580,65700,0,7240,0,3241171236,63
o,1723651096.762368,172.16.5.2,38936,172.16.1.2,5102,6504,8688,2086,64256,65728,6,6,4,1460,258437,1,553649120,690000,33580,30684,65700,0,4344,0,3241171236,63
i,1723651096.812123,172.16.5.2,38936,172.16.1.2,5102,6504,8688,2086,64256,65728,6,6,4,1460,258437,1,553649120,690000,33580,33580,65700,0,8688,0,3241171236,63
i,1723651096.843500,172.16.5.2,38936,172.16.1.2,5102,5562,5792,2150,64256,65728,6,6,4,1460,256250,1,536871904,650000,33580,33580,65700,0,5792,0,3241171236,63
o,1723651096.843577,172.16.5.2,38936,172.16.1.2,5102,5562,5792,2082,65728,65728,6,6,4,1460,250625,1,553649120,640000,33580,32132,65700,0,4344,0,3241171236,63
i,1723651096.922942,172.16.5.2,38936,172.16.1.2,5102,5562,5792,2082,65728,65728,6,6,4,1460,250625,1,553649120,640000,33580,32132,65700,0,5792,0,3241171236,63
o,1723651096.923045,172.16.5.2,38936,172.16.1.2,5102,5562,5792,2086,64256,65728,6,6,4,1460,239375,1,553649120,670000,33580,29236,65700,0,2896,0,3241171236,63
i,1723651096.943135,172.16.5.2,38936,172.16.1.2,5102,5562,5792,2086,64256,65728,6,6,4,1460,239375,1,553649120,670000,33580,33580,65700,0,5792,0,3241171236,63
o,1723651096.943212,172.16.5.2,38936,172.16.1.2,5102,5562,5792,2082,65728,65728,6,6,4,1460,232187,1,553649120,660000,33580,32132,65700,0,4344,0,3241171236,63
i,1723651096.963775,172.16.5.2,38936,172.16.1.2,5102,5562,5792,2082,65728,65728,6,6,4,1460,232187,1,553649120,660000,33580,32132,65700,0,5792,0,3241171236,63
o,1723651096.963775,172.16.5.2,38936,172.16.1.2,5102,5562,5792,2082,65728,65728,6,6,4,1460,217187,1,16778208,710000,33580,30684,65700,0,4344,0,3241171236,63
i,1723651097.078489,172.16.5.2,38936,172.16.1.2,5102,5562,5792,2082,65728,65728,6,6,4,1460,217187,1,16778208,710000,33580,33580,65700,0,5792,0,3241171236,63
o,1723651097.078547,172.16.5.2,38936,172.16.1.2,5102,5562,5792,2086,64256,65728,6,6,4,1460,210312,1,16778208,690000,33580,30684,65700,0,2896,0,3241171236,63
i,1723651097.166251,172.16.5.2,38936,172.16.1.2,5102,5562,5792,2086,64256,65728,6,6,4,1460,210312,1,16778208,690000,33580,33580,65700,0,5792,0,3241171236,63
o,1723651097.166348,172.16.5.2,38936,172.16.1.2,5102,5562,7252,2086,64256,65728,6,6,4,1460,211562,1,16778208,630000,33580,30684,65700,0,2896,0,3241171236,63
o,1723651097.166495,172.16.5.2,38936,172.16.1.2,5102,5562,7252,2086,64256,65728,6,6,4,1460,211562,1,16778208,630000,33580,30684,65700,0,4344,0,3241171236,63
i,1723651097.233158,172.16.5.2,38936,172.16.1.2,5102,5562,7252,2086,64256,65728,6,6,4,1460,211562,1,16778208,630000,33580,33580,65700,0,7240,0,3241171236,63
o,1723651097.233239,172.16.5.2,38936,172.16.1.2,5102,5562,7252,2086,64256,65728,6,6,4,1460,204062,1,16778208,620000,33580,30684,65700,0,4344,0,3241171236,63
i,1723651097.352079,172.16.5.2,38936,172.16.1.2,5102,5562,7252,2086,64256,65728,6,6,4,1460,204062,1,16778208,620000,33580,33580,65700,0,7240,0,3241171236,63
o,1723651097.352195,172.16.5.2,38936,172.16.1.2,5102,5562,7252,2086,64256,65728,6,6,4,1460,202500,1,16778208,580000,33580,30684,65700,0,4344,0,3241171236,63
o,1723651097.352341,172.16.5.2,38936,172.16.1.2,5102,5562,7252,2086,64256,65728,6,6,4,1460,202500,1,16778208,580000,33580,30684,65700,0,5792,0,3241171236,63
i,1723651097.421345,172.16.5.2,38936,172.16.1.2,5102,5562,7252,2086,64256,65728,6,6,4,1460,202500,1,16778208,580000,33580,33580,65700,0,7240,0,3241171236,63
o,1723651097.421436,172.16.5.2,38936,172.16.1.2,5102,5562,7252,2086,65728,65728,6,6,4,1460,209687,1,16778208,600000,33580,32132,65700,0,5792,0,3241171236,63
i,1723651097.451987,172.16.5.2,38936,172.16.1.2,5102,5562,7252,2086,65728,65728,6,6,4,1460,209687,1,16778208,600000,33580,32132,65700,0,7240,0,3241171236,63
o,1723651097.452178,172.16.5.2,38936,172.16.1.2,5102,5562,8712,2086,64256,65728,6,6,4,1460,211250,1,16778208,570000,33580,29236,65700,0,4344,0,3241171236,63
i,1723651097.541892,172.16.5.2,38936,172.16.1.2,5102,5562,8712,2086,64256,65728,6,6,4,1460,211250,1,16778208,570000,33580,33580,65700,0,8688,0,3241171236,63
o,1723651097.542028,172.16.5.2,38936,172.16.1.2,5102,5562,8712,2086,65728,65728,6,6,4,1460,208750,1,16778208,540000,33580,32132,65700,0,7240,0,3241171236,63
i,1723651097.595600,172.16.5.2,38936,172.16.1.2,5102,5562,8712,2086,65728,65728,6,6,4,1460,208750,1,16778208,540000,33580,32132,65700,0,8688,0,3241171236,63
o,1723651097.595760,172.16.5.2,38936,172.16.1.2,5102,5562,8712,2086,65728,65728,6,6,4,1460,212812,1,16778208,550000,33580,30684,65700,0,7240,0,3241171236,63
i,1723651097.689188,172.16.5.2,38936,172.16.1.2,5102,5562,8712,2086,65728,65728,6,6,4,1460,212812,1,16778208,550000,33580,33580,65700,0,8688,0,3241171236,63
o,1723651097.689272,172.16.5.2,38936,172.16.1.2,5102,6407,8700,2086,64256,65728,6,6,4,1460,220000,1,553649120,580000,33580,30684,65700,0,5792,0,3241171236,63
i,1723651097.761689,172.16.5.2,38936,172.16.1.2,5102,6407,8700,2086,64256,65728,6,6,4,1460,220000,1,553649120,580000,33580,33580,65700,0,8688,0,3241171236,63
i,1723651097.803044,172.16.5.2,38936,172.16.1.2,5102,6407,7240,2086,65728,65728,6,6,4,1460,231250,1,553649120,640000,33580,32132,65700,0,7240,0,3241171236,63
o,1723651097.803323,172.16.5.2,38936,172.16.1.2,5102,6407,7240,2082,65728,65728,6,6,4,1460,246250,1,553649120,720000,33580,30684,65700,0,5792,0,3241171236,63
i,1723651097.844743,172.16.5.2,38936,172.16.1.2,5102,6407,7240,2082,65728,65728,6,6,4,1460,246250,1,553649120,720000,33580,33580,65700,0,7240,0,3241171236,63
o,1723651097.844879,172.16.5.2,38936,172.16.1.2,5102,6407,7240,2082,65728,65728,6,6,4,1460,253125,1,553649120,710000,33580,32132,65700,0,5792,0,3241171236,63
i,1723651097.911283,172.16.5.2,38936,172.16.1.2,5102,6407,7240,2082,65728,65728,6,6,4,1460,253125,1,553649120,710000,33580,32132,65700,0,7240,0,3241171236,63
o,1723651097.911418,172.16.5.2,38936,172.16.1.2,5102,6407,7240,2086,64256,65728,6,6,4,1460,260312,1,16778208,710000,33580,29236,65700,0,4344,0,3241171236,63
i,1723651097.942137,172.16.5.2,38936,172.16.1.2,5102,6407,7240,2086,64256,65728,6,6,4,1460,260312,1,16778208,710000,33580,33580,65700,0,7240,0,3241171236,63
o,1723651097.942178,172.16.5.2,38936,172.16.1.2,5102,6407,7240,2082,65728,65728,6,6,4,1460,257812,1,16778208,670000,33580,32132,65700,0,5792,0,3241171236,63
i,1723651098.031801,172.16.5.2,38936,172.16.1.2,5102,6407,7240,2082,65728,65728,6,6,4,1460,257812,1,16778208,670000,33580,32132,65700,0,7240,0,3241171236,63
o,1723651098.031912,172.16.5.2,38936,172.16.1.2,5102,6407,7240,2082,65728,65728,6,6,4,1460,253125,1,16778208,650000,33580,30684,65700,0,5792,0,3241171236,63
i,1723651098.121274,172.16.5.2,38936,172.16.1.2,5102,6407,7240,2082,65728,65728,6,6,4,1460,253125,1,16778208,650000,33580,32608,65700,0,7240,0,3241171236,63
o,1723651098.121382,172.16.5.2,38936,172.16.1.2,5102,6407,7240,2082,65728,65728,6,6,4,1460,255312,1,16778208,620000,33580,31160,65700,0,5792,0,3241171236,63
i,1723651098.151952,172.16.5.2,38936,172.16.1.2,5102,6407,7240,2082,65728,65728,6,6,4,1460,255312,1,16778208,620000,33580,33580,65700,0,7240,0,3241171236,63
o,1723651098.152045,172.16.5.2,38936,172.16.1.2,5102,6407,8700,2086,64256,65728,6,6,4,1460,253437,1,16778208,590000,33580,30684,65700,0,4344,0,3241171236,63
i,1723651098.236990,172.16.5.2,38936,172.16.1.2,5102,6407,8700,2086,64256,65728,6,6,4,1460,253437,1,16778208,590000,33580,33580,65700,0,8688,0,3241171236,63
o,1723651098.237736,172.16.5.2,38936,172.16.1.2,5102,6407,8700,2086,64256,65728,6,6,4,1460,258125,1,16778208,600000,33580,30684,65700,0,5792,0,3241171236,63
i,1723651098.348006,172.16.5.2,38936,172.16.1.2,5102,6407,8700,2086,64256,65728,6,6,4,1460,258125,1,16778208,600000,33580,33580,65700,0,8688,0,3241171236,63
o,1723651098.348068,172.16.5.2,38936,172.16.1.2,5102,6407,8700,2086,64256,65728,6,6,4,1460,254687,1,16778208,590000,33580,30684,65700,0,5792,0,3241171236,63
o,1723651098.348217,172.16.5.2,38936,172.16.1.2,5102,6407,8700,2086,64256,65728,6,6,4,1460,254687,1,16778208,590000,33580,30684,65700,0,7240,0,3241171236,63
i,1723651098.402041,172.16.5.2,38936,172.16.1.2,5102,6407,8700,2086,64256,65728,6,6,4,1460,254687,1,16778208,590000,33580,33580,65700,0,8688,0,3241171236,63
o,1723651098.402228,172.16.5.2,38936,172.16.1.2,5102,6407,8700,2086,65728,65728,6,6,4,1460,254375,1,16778208,560000,33580,32132,65700,0,7240,0,3241171236,63
i,1723651098.455281,172.16.5.2,38936,172.16.1.2,5102,6407,8700,2086,65728,65728,6,6,4,1460,254375,1,16778208,560000,33580,32132,65700,0,8688,0,3241171236,63
o,1723651098.455390,172.16.5.2,38936,172.16.1.2,5102,6407,10160,2086,64256,65728,6,6,4,1460,260312,1,16778208,590000,33580,29236,65700,0,5792,0,3241171236,63
i,1723651098.579460,172.16.5.2,38936,172.16.1.2,5102,6407,10160,2086,64256,65728,6,6,4,1460,260312,1,16778208,590000,33580,33580,65700,0,10136,0,3241171236,63
o,1723651098.579560,172.16.5.2,38936,172.16.1.2,5102,6407,10160,2086,65728,65728,6,6,4,1460,270312,1,16778208,640000,33580,32132,65700,0,8688,0,3241171236,63
i,1723651098.611382,172.16.5.2,38936,172.16.1.2,5102,6407,10160,2086,65728,65728,6,6,4,1460,270312,1,16778208,640000,33580,32132,65700,0,10136,0,3241171236,63
o,1723651098.611463,172.16.5.2,38936,172.16.1.2,5102,6407,10160,2086,64256,65728,6,6,4,1460,269062,1,16778208,610000,33580,29236,65700,0,7240,0,3241171236,63
o,1723651098.611577,172.16.5.2,38936,172.16.1.2,5102,6407,10160,2086,64256,65728,6,6,4,1460,269062,1,16778208,610000,33580,29236,65700,0,8688,0,3241171236,63
i,1723651098.732257,172.16.5.2,38936,172.16.1.2,5102,6407,10160,2086,64256,65728,6,6,4,1460,269062,1,16778208,610000,33580,33580,65700,0,10136,0,3241171236,63
o,1723651098.732388,172.16.5.2,38936,172.16.1.2,5102,7913,10136,2086,64256,65728,6,6,4,1460,275625,1,553649120,630000,33580,30684,65700,0,7240,0,3241171236,63
i,1723651098.811929,172.16.5.2,38936,172.16.1.2,5102,7913,10136,2086,64256,65728,6,6,4,1460,275625,1,553649120,630000,33580,33580,65700,0,10136,0,3241171236,63
o,1723651098.812280,172.16.5.2,38936,172.16.1.2,5102,7913,10148,2086,65728,65728,6,6,4,1460,286250,1,553649120,690000,33580,32132,65700,0,8688,0,3241171236,63
i,1723651098.890047,172.16.5.2,38936,172.16.1.2,5102,7913,10148,2086,65728,65728,6,6,4,1460,286250,1,553649120,690000,33580,32132,65700,0,10136,0,3241171236,63
o,1723651098.890228,172.16.5.2,38936,172.16.1.2,5102,7913,10136,2086,64256,65728,6,6,4,1460,305625,1,553649120,810000,33580,29236,65700,0,7240,0,3241171236,63
i,1723651098.972330,172.16.5.2,38936,172.16.1.2,5102,7913,10136,2086,64256,65728,6,6,4,1460,305625,1,553649120,810000,33580,33580,65700,0,10136,0,3241171236,63
o,1723651098.972409,172.16.5.2,38936,172.16.1.2,5102,7913,10136,2086,64256,65728,6,6,4,1460,312500,1,553649120,800000,33580,30684,65700,0,7240,0,3241171236,63
o,1723651098.972577,172.16.5.2,38936,172.16.1.2,5102,7913,10136,2082,64256,65728,6,6,4,1460,312500,1,553649120,800000,33580,30684,65700,0,8688,0,3241171236,63
i,1723651099.022161,172.16.5.2,38936,172.16.1.2,5102,7913,10136,2082,64256,65728,6,6,4,1460,312500,1,553649120,800000,33580,33580,65700,0,10136,0,3241171236,63
o,1723651099.022260,172.16.5.2,38936,172.16.1.2,5102,7913,10136,2082,65728,65728,6,6,4,1460,309687,1,16778208,740000,33580,32132,65700,0,8688,0,3241171236,63
i,1723651099.052127,172.16.5.2,38936,172.16.1.2,5102,7913,10136,2082,65728,65728,6,6,4,1460,309687,1,16778208,740000,33580,32132,65700,0,10136,0,3241171236,63
o,1723651099.052219,172.16.5.2,38936,172.16.1.2,5102,7909,10136,2082,65728,65728,6,6,4,1460,311250,1,553649120,700000,33580,30684,65700,0,8688,0,3241171236,63
i,1723651099.160166,172.16.5.2,38936,172.16.1.2,5102,7909,10136,2082,65728,65728,6,6,4,1460,311250,1,553649120,700000,33580,33580,65700,0,10136,0,3241171236,63
o,1723651099.160285,172.16.5.2,38936,172.16.1.2,5102,7909,10136,2082,65728,65728,6,6,4,1460,315000,1,553649120,690000,33580,32132,65700,0,8688,0,3241171236,63
i,1723651099.232166,172.16.5.2,38936,172.16.1.2,5102,7909,10136,2082,65728,65728,6,6,4,1460,315000,1,553649120,690000,33580,32132,65700,0,10136,0,3241171236,63
i,1723651099.271790,172.16.5.2,38936,172.16.1.2,5102,7909,8688,2082,65728,65728,6,6,4,1460,318125,1,553649120,670000,33580,33580,65700,0,8688,0,3241171236,63
o,1723651099.271884,172.16.5.2,38936,172.16.1.2,5102,7909,8688,2082,65728,65728,6,6,4,1460,325937,1,553649120,700000,33580,32132,65700,0,7240,0,3241171236,63
i,1723651099.313949,172.16.5.2,38936,172.16.1.2,5102,7909,8688,2082,65728,65728,6,6,4,1460,325937,1,553649120,700000,33580,32132,65700,0,8688,0,3241171236,63
o,1723651099.314100,172.16.5.2,38936,172.16.1.2,5102,7909,10136,2086,64256,65728,6,6,4,1460,327812,1,553649120,680000,33580,29236,65700,0,5792,0,3241171236,63
o,1723651099.314261,172.16.5.2,38936,172.16.1.2,5102,7909,10136,2086,64256,65728,6,6,4,1460,327812,1,553649120,680000,33580,29236,65700,0,7240,0,3241171236,63
i,1723651099.361717,172.16.5.2,38936,172.16.1.2,5102,7909,10136,2086,64256,65728,6,6,4,1460,327812,1,553649120,680000,33580,33580,65700,0,10136,0,3241171236,63
o,1723651099.361752,172.16.5.2,38936,172.16.1.2,5102,7909,10136,2086,64256,65728,6,6,4,1460,329375,1,553649120,650000,33580,30684,65700,0,7240,0,3241171236,63
i,1723651099.401998,172.16.5.2,38936,172.16.1.2,5102,7909,10136,2086,64256,65728,6,6,4,1460,329375,1,553649120,650000,33580,33580,65700,0,10136,0,3241171236,63
i,1723651099.573921,172.16.5.2,38936,172.16.1.2,5102,7909,8688,2086,65728,65728,6,6,4,1460,317187,1,553649120,710000,33580,32132,65700,0,8688,0,3241171236,63
o,1723651099.574002,172.16.5.2,38936,172.16.1.2,5102,7909,8688,2082,65728,65728,6,6,4,1460,315312,1,553649120,670000,33580,30684,65700,0,7240,0,3241171236,63
i,1723651099.636348,172.16.5.2,38936,172.16.1.2,5102,7909,8688,2082,65728,65728,6,6,4,1460,315312,1,553649120,670000,33580,33580,65700,0,8688,0,3241171236,63
o,1723651099.636418,172.16.5.2,38936,172.16.1.2,5102,7909,8688,2082,65728,65728,6,6,4,1460,314687,1,553649120,640000,33580,32132,65700,0,7240,0,3241171236,63
i,1723651099.636562,172.16.5.2,38936,172.16.1.2,5102,7909,8688,2082,65728,65728,6,6,4,1460,314687,1,553649120,640000,33580,32132,65700,0,8688,0,3241171236,63
o,1723651099.636581,172.16.5.2,38936,172.16.1.2,5102,7909,8688,2086,64256,65728,6,6,4,1460,314375,1,553649120,610000,33580,29236,65700,0,5792,0,3241171236,63
i,1723651099.662170,172.16.5.2,38936,172.16.1.2,5102,7909,8688,2086,64256,65728,6,6,4,1460,314375,1,553649120,610000,33580,33580,65700,0,8688,0,3241171236,63
o,1723651099.662380,172.16.5.2,38936,172.16.1.2,5102,7909,8688,2082,65728,65728,6,6,4,1460,312812,1,16778208,600000,33580,32132,65700,0,7240,0,3241171236,63
i,1723651099.662895,172.16.5.2,38936,172.16.1.2,5102,7909,8688,2082,65728,65728,6,6,4,1460,312812,1,16778208,600000,33580,32132,65700,0,8688,0,3241171236,63
o,1723651099.662984,172.16.5.2,38936,172.16.1.2,5102,6661,8688,2082,65728,65728,6,6,4,1460,311250,1,553649120,590000,33580,30684,65700,0,7240,0,3241171236,63
i,1723651099.843187,172.16.5.2,38936,172.16.1.2,5102,6661,8688,2082,65728,65728,6,6,4,1460,311250,1,553649120,590000,33580,33580,65700,0,8688,0,3241171236,63
i,1723651099.902075,172.16.5.2,38936,172.16.1.2,5102,6661,7240,2082,65728,65728,6,6,4,1460,305000,1,553649120,610000,33580,32132,65700,0,7240,0,3241171236,63
o,1723651099.902185,172.16.5.2,38936,172.16.1.2,5102,6661,8688,2086,64256,65728,6,6,4,1460,300625,1,553649120,610000,33580,29236,65700,0,4344,0,3241171236,63
o,1723651099.902353,172.16.5.2,38936,172.16.1.2,5102,6661,8688,2086,64256,65728,6,6,4,1460,300625,1,553649120,610000,33580,29236,65700,0,5792,0,3241171236,63
i,1723651099.967094,172.16.5.2,38936,172.16.1.2,5102,6661,8688,2086,64256,65728,6,6,4,1460,300625,1,553649120,610000,33580,33580,65700,0,8688,0,3241171236,63
o,1723651099.967176,172.16.5.2,38936,172.16.1.2,5102,6661,8688,2086,64256,65728,6,6,4,1460,304375,1,553649120,620000,33580,30684,65700,0,5792,0,3241171236,63
i,1723651099.992150,172.16.5.2,38936,172.16.1.2,5102,6661,8688,2086,64256,65728,6,6,4,1460,304375,1,553649120,620000,33580,33580,65700,0,8688,0,3241171236,63
i,1723651100.082141,172.16.5.2,38936,172.16.1.2,5102,6512,7240,2150,65728,65728,6,6,4,1460,306562,1,553649120,610000,33580,32132,65700,0,7240,0,3241171236,63
o,1723651100.082224,172.16.5.2,38936,172.16.1.2,5102,6512,7240,2086,64256,65728,6,6,4,1460,290937,1,553649120,690000,33580,29236,65700,0,4344,0,3241171236,63
o,1723651100.082426,172.16.5.2,38936,172.16.1.2,5102,6512,7240,2082,64256,65728,6,6,4,1460,290937,1,553649120,690000,33580,29236,65700,0,5792,0,3241171236,63
i,1723651100.191917,172.16.5.2,38936,172.16.1.2,5102,6512,7240,2082,64256,65728,6,6,4,1460,290937,1,553649120,690000,33580,33580,65700,0,7240,0,3241171236,63
o,1723651100.191953,172.16.5.2,38936,172.16.1.2,5102,6512,7240,2086,64256,65728,6,6,4,1460,290937,1,553649120,640000,33580,30684,65700,0,4344,0,3241171236,63
i,1723651100.240998,172.16.5.2,38936,172.16.1.2,5102,6512,7240,2086,64256,65728,6,6,4,1460,290937,1,553649120,640000,33580,33580,65700,0,7240,0,3241171236,63
o,1723651100.241124,172.16.5.2,38936,172.16.1.2,5102,6512,7240,2082,65728,65728,6,6,4,1460,289687,1,553649120,610000,33580,32132,65700,0,5792,0,3241171236,63
i,1723651100.291461,172.16.5.2,38936,172.16.1.2,5102,6512,7240,2082,65728,65728,6,6,4,1460,289687,1,553649120,610000,33580,32132,65700,0,7240,0,3241171236,63
o,1723651100.291565,172.16.5.2,38936,172.16.1.2,5102,6512,7240,2082,65728,65728,6,6,4,1460,278750,1,16778208,660000,33580,30684,65700,0,5792,0,3241171236,63
i,1723651100.340328,172.16.5.2,38936,172.16.1.2,5102,6512,7240,2082,65728,65728,6,6,4,1460,278750,1,16778208,660000,33580,33580,65700,0,7240,0,3241171236,63
o,1723651100.340429,172.16.5.2,38936,172.16.1.2,5102,6512,7240,2082,65728,65728,6,6,4,1460,276562,1,16778208,630000,33580,32132,65700,0,5792,0,3241171236,63
i,1723651100.432883,172.16.5.2,38936,172.16.1.2,5102,6512,7240,2082,65728,65728,6,6,4,1460,276562,1,16778208,630000,33580,32132,65700,0,7240,0,3241171236,63
o,1723651100.432883,172.16.5.2,38936,172.16.1.2,5102,6512,7240,2082,65728,65728,6,6,4,1460,272187,1,16778208,620000,33580,30684,65700,0,5792,0,3241171236,63
i,1723651100.491778,172.16.5.2,38936,172.16.1.2,5102,6512,7240,2082,65728,65728,6,6,4,1460,272187,1,16778208,620000,33580,33580,65700,0,7240,0,3241171236,63
o,1723651100.491812,172.16.5.2,38936,172.16.1.2,5102,6512,7240,2086,64256,65728,6,6,4,1460,275937,1,16778208,620000,33580,30684,65700,0,4344,0,3241171236,63
i,1723651100.601884,172.16.5.2,38936,172.16.1.2,5102,6512,7240,2086,64256,65728,6,6,4,1460,275937,1,16778208,620000,33580,33580,65700,0,7240,0,3241171236,63
o,1723651100.602041,172.16.5.2,38936,172.16.1.2,5102,6512,8700,2086,65728,65728,6,6,4,1460,280312,1,16778208,620000,33580,32132,65700,0,5792,0,3241171236,63
o,1723651100.602190,172.16.5.2,38936,172.16.1.2,5102,6512,8700,2086,65728,65728,6,6,4,1460,280312,1,16778208,620000,33580,32132,65700,0,7240,0,3241171236,63
i,1723651100.602320,172.16.5.2,38936,172.16.1.2,5102,6512,8700,2086,65728,65728,6,6,4,1460,280312,1,16778208,620000,33580,32132,65700,0,8688,0,3241171236,63
o,1723651100.602337,172.16.5.2,38936,172.16.1.2,5102,6512,8700,2086,65728,65728,6,6,4,1460,277812,1,16778208,610000,33580,30684,65700,0,7240,0,3241171236,63
i,1723651100.632774,172.16.5.2,38936,172.16.1.2,5102,6512,8700,2086,65728,65728,6,6,4,1460,277812,1,16778208,610000,33580,33580,65700,0,8688,0,3241171236,63
o,1723651100.632981,172.16.5.2,38936,172.16.1.2,5102,6512,8700,2086,65728,65728,6,6,4,1460,268125,1,16778208,640000,33580,32132,65700,0,7240,0,3241171236,63
i,1723651100.681379,172.16.5.2,38936,172.16.1.2,5102,6512,8700,2086,65728,65728,6,6,4,1460,268125,1,16778208,640000,33580,32132,65700,0,8688,0,3241171236,63
o,1723651100.681536,172.16.5.2,38936,172.16.1.2,5102,6512,8700,2086,64256,65728,6,6,4,1460,258437,1,16778208,670000,33580,29236,65700,0,5792,0,3241171236,63
i,1723651100.832257,172.16.5.2,38936,172.16.1.2,5102,6512,8700,2086,64256,65728,6,6,4,1460,258437,1,16778208,670000,33580,33580,65700,0,8688,0,3241171236,63
o,1723651100.832360,172.16.5.2,38936,172.16.1.2,5102,6512,8700,2086,64256,65728,6,6,4,1460,253750,1,16778208,650000,33580,30684,65700,0,5792,0,3241171236,63
o,1723651100.832515,172.16.5.2,38936,172.16.1.2,5102,6512,8700,2086,64256,65728,6,6,4,1460,253750,1,16778208,650000,33580,30684,65700,0,7240,0,3241171236,63
i,1723651100.921840,172.16.5.2,38936,172.16.1.2,5102,6512,8700,2086,64256,65728,6,6,4,1460,253750,1,16778208,650000,33580,33580,65700,0,8688,0,3241171236,63
o,1723651100.921932,172.16.5.2,38936,172.16.1.2,5102,6512,10160,2086,64256,65728,6,6,4,1460,260937,1,16778208,660000,33580,30684,65700,0,5792,0,3241171236,63
i,1723651100.942993,172.16.5.2,38936,172.16.1.2,5102,6512,10160,2086,64256,65728,6,6,4,1460,260937,1,16778208,660000,33580,33580,65700,0,10136,0,3241171236,63
o,1723651100.943044,172.16.5.2,38936,172.16.1.2,5102,7784,10136,2086,64256,65728,6,6,4,1460,260937,1,553649120,610000,33580,30684,65700,0,7240,0,3241171236,63
i,1723651101.003095,172.16.5.2,38936,172.16.1.2,5102,7784,10136,2086,64256,65728,6,6,4,1460,260937,1,553649120,610000,33580,33580,65700,0,10136,0,3241171236,63
o,1723651101.003192,172.16.5.2,38936,172.16.1.2,5102,7784,8688,2082,64256,65728,6,6,4,1460,249687,1,553649120,650000,33580,30684,65700,0,7240,0,3241171236,63
i,1723651101.101942,172.16.5.2,38936,172.16.1.2,5102,7784,8688,2082,64256,65728,6,6,4,1460,249687,1,553649120,650000,33580,33580,65700,0,8688,0,3241171236,63
o,1723651101.102031,172.16.5.2,38936,172.16.1.2,5102,7784,10136,2086,64256,65728,6,6,4,1460,241250,1,553649120,660000,33580,30684,65700,0,5792,0,3241171236,63
i,1723651101.148327,172.16.5.2,38936,172.16.1.2,5102,7784,10136,2086,64256,65728,6,6,4,1460,241250,1,553649120,660000,33580,33580,65700,0,10136,0,3241171236,63
i,1723651101.148371,172.16.5.2,38936,172.16.1.2,5102,7784,8688,2086,65728,65728,6,6,4,1460,240000,1,553649120,620000,33580,32132,65700,0,8688,0,3241171236,63
o,1723651101.148392,172.16.5.2,38936,172.16.1.2,5102,7784,8688,2082,65728,65728,6,6,4,1460,235000,1,16778208,610000,33580,30684,65700,0,7240,0,3241171236,63
i,1723651101.151358,172.16.5.2,38936,172.16.1.2,5102,7784,8688,2082,65728,65728,6,6,4,1460,235000,1,16778208,610000,33580,33580,65700,0,8688,0,3241171236,63
o,1723651101.151430,172.16.5.2,38936,172.16.1.2,5102,7784,8688,2082,65728,65728,6,6,4,1460,230625,1,16778208,590000,33580,32132,65700,0,7240,0,3241171236,63
i,1723651101.234969,172.16.5.2,38936,172.16.1.2,5102,7784,8688,2082,65728,65728,6,6,4,1460,230625,1,16778208,590000,33580,32132,65700,0,8688,0,3241171236,63
o,1723651101.235090,172.16.5.2,38936,172.16.1.2,5102,7784,8688,2082,65728,65728,6,6,4,1460,230625,1,16778208,550000,33580,30684,65700,0,7240,0,3241171236,63
i,1723651101.282063,172.16.5.2,38936,172.16.1.2,5102,7784,8688,2082,65728,65728,6,6,4,1460,230625,1,16778208,550000,33580,33580,65700,0,8688,0,3241171236,63
o,1723651101.282146,172.16.5.2,38936,172.16.1.2,5102,7784,8688,2086,64256,65728,6,6,4,1460,224375,1,16778208,570000,33580,30684,65700,0,5792,0,3241171236,63
i,1723651101.351916,172.16.5.2,38936,172.16.1.2,5102,7784,8688,2086,64256,65728,6,6,4,1460,224375,1,16778208,570000,33580,33580,65700,0,8688,0,3241171236,63
o,1723651101.352035,172.16.5.2,38936,172.16.1.2,5102,7784,10148,2086,64256,65728,6,6,4,1460,227812,1,16778208,560000,33580,30684,65700,0,5792,0,3241171236,63
i,1723651101.438403,172.16.5.2,38936,172.16.1.2,5102,7784,10148,2086,64256,65728,6,6,4,1460,227812,1,16778208,560000,33580,33580,65700,0,10136,0,3241171236,63
o,1723651101.438453,172.16.5.2,38936,172.16.1.2,5102,7784,10148,2086,65728,65728,6,6,4,1460,235625,1,16778208,600000,33580,32132,65700,0,8688,0,3241171236,63
i,1723651101.438580,172.16.5.2,38936,172.16.1.2,5102,7784,10148,2086,65728,65728,6,6,4,1460,235625,1,16778208,600000,33580,32132,65700,0,10136,0,3241171236,63
o,1723651101.438595,172.16.5.2,38936,172.16.1.2,5102,7784,10148,2086,64256,65728,6,6,4,1460,232500,1,16778208,580000,33580,29236,65700,0,7240,0,3241171236,63
o,1723651101.438696,172.16.5.2,38936,172.16.1.2,5102,7784,10148,2086,64256,65728,6,6,4,1460,232500,1,16778208,580000,33580,29236,65700,0,8688,0,3241171236,63
i,1723651101.461953,172.16.5.2,38936,172.16.1.2,5102,7784,10148,2086,64256,65728,6,6,4,1460,232500,1,16778208,580000,33580,33580,65700,0,10136,0,3241171236,63
o,1723651101.462032,172.16.5.2,38936,172.16.1.2,5102,7784,10148,2086,65728,65728,6,6,4,1460,225937,1,16778208,590000,33580,32132,65700,0,8688,0,3241171236,63
i,1723651101.573036,172.16.5.2,38936,172.16.1.2,5102,7784,10148,2086,65728,65728,6,6,4,1460,225937,1,16778208,590000,33580,32132,65700,0,10136,0,3241171236,63
o,1723651101.573111,172.16.5.2,38936,172.16.1.2,5102,7784,10148,2086,65728,65728,6,6,4,1460,225312,1,16778208,550000,33580,30684,65700,0,8688,0,3241171236,63
i,1723651101.611790,172.16.5.2,38936,172.16.1.2,5102,7784,10148,2086,65728,65728,6,6,4,1460,225312,1,16778208,550000,33580,33580,65700,0,10136,0,3241171236,63
o,1723651101.611837,172.16.5.2,38936,172.16.1.2,5102,7784,10148,2086,65728,65728,6,6,4,1460,229687,1,16778208,560000,33580,32132,65700,0,8688,0,3241171236,63
i,1723651101.709020,172.16.5.2,38936,172.16.1.2,5102,7784,10148,2086,65728,65728,6,6,4,1460,229687,1,16778208,560000,33580,32132,65700,0,10136,0,3241171236,63
o,1723651101.709167,172.16.5.2,38936,172.16.1.2,5102,7973,11596,2086,65728,65728,6,6,4,1460,246250,1,553649120,680000,33580,30684,65700,0,8688,0,3241171236,63
i,1723651101.711700,172.16.5.2,38936,172.16.1.2,5102,7973,11596,2086,65728,65728,6,6,4,1460,246250,1,553649120,680000,33580,33580,65700,0,11584,0,3241171236,63
i,1723651101.774329,172.16.5.2,38936,172.16.1.2,5102,7973,8688,2086,64256,65728,6,6,4,1460,249375,1,536871904,650000,33580,33580,65700,0,8688,0,3241171236,63
o,1723651101.774422,172.16.5.2,38936,172.16.1.2,5102,7973,10136,2086,64256,65728,6,6,4,1460,259687,1,553649120,690000,33580,30684,65700,0,5792,0,3241171236,63
o,1723651101.774684,172.16.5.2,38936,172.16.1.2,5102,7973,10136,2086,64256,65728,6,6,4,1460,259687,1,553649120,690000,33580,30684,65700,0,7240,0,3241171236,63
i,1723651101.843250,172.16.5.2,38936,172.16.1.2,5102,7973,10136,2086,64256,65728,6,6,4,1460,259687,1,553649120,690000,33580,33580,65700,0,10136,0,3241171236,63
i,1723651101.884065,172.16.5.2,38936,172.16.1.2,5102,7973,8688,2086,65728,65728,6,6,4,1460,261250,1,553649120,650000,33580,32132,65700,0,8688,0,3241171236,63
o,1723651101.884164,172.16.5.2,38936,172.16.1.2,5102,7973,8688,2086,64256,65728,6,6,4,1460,261250,1,16778208,600000,33580,29236,65700,0,5792,0,3241171236,63
i,1723651101.884295,172.16.5.2,38936,172.16.1.2,5102,7973,8688,2086,64256,65728,6,6,4,1460,261250,1,16778208,600000,33580,29236,65700,0,8688,0,3241171236,63
o,1723651101.884317,172.16.5.2,38936,172.16.1.2,5102,7973,8688,2082,65728,65728,6,6,4,1460,250000,1,16778208,640000,33580,27788,65700,0,7240,0,3241171236,63
i,1723651101.962020,172.16.5.2,38936,172.16.1.2,5102,7973,8688,2082,65728,65728,6,6,4,1460,250000,1,16778208,640000,33580,33360,65700,0,8688,0,3241171236,63
o,1723651101.962102,172.16.5.2,38936,172.16.1.2,5102,7973,8688,2086,64256,65728,6,6,4,1460,241250,1,16778208,660000,33580,30464,65700,0,5792,0,3241171236,63
o,1723651101.962218,172.16.5.2,38936,172.16.1.2,5102,7973,8688,2082,64256,65728,6,6,4,1460,241250,1,16778208,660000,33580,30464,65700,0,7240,0,3241171236,63
i,1723651102.042405,172.16.5.2,38936,172.16.1.2,5102,7973,8688,2082,64256,65728,6,6,4,1460,241250,1,16778208,660000,33580,33580,65700,0,8688,0,3241171236,63
o,1723651102.042466,172.16.5.2,38936,172.16.1.2,5102,7973,8688,2082,65728,65728,6,6,4,1460,243750,1,16778208,620000,33580,32132,65700,0,7240,0,3241171236,63
i,1723651102.051236,172.16.5.2,38936,172.16.1.2,5102,7973,8688,2082,65728,65728,6,6,4,1460,243750,1,16778208,620000,33580,32132,65700,0,8688,0,3241171236,63
o,1723651102.051316,172.16.5.2,38936,172.16.1.2,5102,7973,8688,2082,65728,65728,6,6,4,1460,234687,1,16778208,640000,33580,30684,65700,0,7240,0,3241171236,63
i,1723651102.092018,172.16.5.2,38936,172.16.1.2,5102,7973,8688,2082,65728,65728,6,6,4,1460,234687,1,16778208,640000,33580,33580,65700,0,8688,0,3241171236,63
o,1723651102.092187,172.16.5.2,38936,172.16.1.2,5102,7973,10148,2086,64256,65728,6,6,4,1460,231875,1,16778208,610000,33580,30684,65700,0,5792,0,3241171236,63
i,1723651102.232177,172.16.5.2,38936,172.16.1.2,5102,7973,10148,2086,64256,65728,6,6,4,1460,231875,1,16778208,610000,33580,33580,65700,0,10136,0,3241171236,63
o,1723651102.232283,172.16.5.2,38936,172.16.1.2,5102,7973,10148,2086,65728,65728,6,6,4,1460,236875,1,16778208,610000,33580,32132,65700,0,8688,0,3241171236,63
i,1723651102.267712,172.16.5.2,38936,172.16.1.2,5102,7973,10148,2086,65728,65728,6,6,4,1460,236875,1,16778208,610000,33580,32132,65700,0,10136,0,3241171236,63
o,1723651102.267795,172.16.5.2,38936,172.16.1.2,5102,7973,10148,2086,65728,65728,6,6,4,1460,245000,1,16778208,640000,33580,30684,65700,0,8688,0,3241171236,63
i,1723651102.312130,172.16.5.2,38936,172.16.1.2,5102,7973,10148,2086,65728,65728,6,6,4,1460,245000,1,16778208,640000,33580,33580,65700,0,10136,0,3241171236,63
o,1723651102.312226,172.16.5.2,38936,172.16.1.2,5102,7973,10148,2086,64256,65728,6,6,4,1460,246875,1,16778208,610000,33580,30684,65700,0,7240,0,3241171236,63
i,1723651102.361703,172.16.5.2,38936,172.16.1.2,5102,7973,10148,2086,64256,65728,6,6,4,1460,246875,1,16778208,610000,33580,33580,65700,0,10136,0,3241171236,63
o,1723651102.361815,172.16.5.2,38936,172.16.1.2,5102,7973,10148,2086,64256,65728,6,6,4,1460,250000,1,16778208,600000,33580,30684,65700,0,7240,0,3241171236,63
i,1723651102.393028,172.16.5.2,38936,172.16.1.2,5102,7973,10148,2086,64256,65728,6,6,4,1460,250000,1,16778208,600000,33580,33580,65700,0,10136,0,3241171236,63
o,1723651102.393112,172.16.5.2,38936,172.16.1.2,5102,8102,11596,2086,65728,65728,6,6,4,1460,256250,1,553649120,610000,33580,32132,65700,0,8688,0,3241171236,63
i,1723651102.421577,172.16.5.2,38936,172.16.1.2,5102,8102,11596,2086,65728,65728,6,6,4,1460,256250,1,553649120,610000,33580,32132,65700,0,11584,0,3241171236,63
i,1723651102.482583,172.16.5.2,38936,172.16.1.2,5102,8102,8688,2086,64256,65728,6,6,4,1460,248125,1,536871904,630000,33580,33580,65700,0,8688,0,3241171236,63
o,1723651102.482691,172.16.5.2,38936,172.16.1.2,5102,8102,8688,2082,65728,65728,6,6,4,1460,238437,1,553649120,650000,33580,32132,65700,0,7240,0,3241171236,63
i,1723651102.537517,172.16.5.2,38936,172.16.1.2,5102,8102,8688,2082,65728,65728,6,6,4,1460,238437,1,553649120,650000,33580,32132,65700,0,8688,0,3241171236,63
o,1723651102.537551,172.16.5.2,38936,172.16.1.2,5102,8102,8688,2082,65728,65728,6,6,4,1460,236250,1,553649120,610000,33580,30684,65700,0,7240,0,3241171236,63
i,1723651102.573959,172.16.5.2,38936,172.16.1.2,5102,8102,8688,2082,65728,65728,6,6,4,1460,236250,1,553649120,610000,33580,33580,65700,0,8688,0,3241171236,63
o,1723651102.574318,172.16.5.2,38936,172.16.1.2,5102,8102,8688,2086,64256,65728,6,6,4,1460,233125,1,553649120,590000,33580,30684,65700,0,5792,0,3241171236,63
i,1723651102.574654,172.16.5.2,38936,172.16.1.2,5102,8102,8688,2086,64256,65728,6,6,4,1460,233125,1,553649120,590000,33580,30684,65700,0,8688,0,3241171236,63
o,1723651102.574684,172.16.5.2,38936,172.16.1.2,5102,8102,8688,2082,65728,65728,6,6,4,1460,226562,1,16778208,600000,33580,29236,65700,0,7240,0,3241171236,63
i,1723651102.574827,172.16.5.2,38936,172.16.1.2,5102,8102,8688,2082,65728,65728,6,6,4,1460,226562,1,16778208,600000,33580,29236,65700,0,8688,0,3241171236,63
o,1723651102.574843,172.16.5.2,38936,172.16.1.2,5102,8102,8688,2082,65728,65728,6,6,4,1460,220937,1,16778208,590000,33580,27788,65700,0,7240,0,3241171236,63
i,1723651102.693443,172.16.5.2,38936,172.16.1.2,5102,8102,8688,2082,65728,65728,6,6,4,1460,220937,1,16778208,590000,33580,33580,65700,0,8688,0,3241171236,63
o,1723651102.693562,172.16.5.2,38936,172.16.1.2,5102,8102,8688,2082,65728,65728,6,6,4,1460,219687,1,16778208,560000,33580,32132,65700,0,7240,0,3241171236,63
i,1723651102.722146,172.16.5.2,38936,172.16.1.2,5102,8102,8688,2082,65728,65728,6,6,4,1460,219687,1,16778208,560000,33580,32132,65700,0,8688,0,3241171236,63
o,1723651102.722228,172.16.5.2,38936,172.16.1.2,5102,8102,8688,2086,64256,65728,6,6,4,1460,215000,1,16778208,560000,33580,29236,65700,0,5792,0,3241171236,63
i,1723651102.802780,172.16.5.2,38936,172.16.1.2,5102,8102,8688,2086,64256,65728,6,6,4,1460,215000,1,16778208,560000,33580,33580,65700,0,8688,0,3241171236,63
o,1723651102.802861,172.16.5.2,38936,172.16.1.2,5102,8102,8688,2082,65728,65728,6,6,4,1460,215625,1,16778208,530000,33580,32132,65700,0,7240,0,3241171236,63
i,1723651102.831099,172.16.5.2,38936,172.16.1.2,5102,8102,8688,2082,65728,65728,6,6,4,1460,215625,1,16778208,530000,33580,32132,65700,0,8688,0,3241171236,63
o,1723651102.831206,172.16.5.2,38936,172.16.1.2,5102,8102,10148,2086,64256,65728,6,6,4,1460,221250,1,16778208,550000,33580,29236,65700,0,5792,0,3241171236,63
i,1723651102.963586,172.16.5.2,38936,172.16.1.2,5102,8102,10148,2086,64256,65728,6,6,4,1460,221250,1,16778208,550000,33580,33580,65700,0,10136,0,3241171236,63
o,1723651102.963621,172.16.5.2,38936,172.16.1.2,5102,8102,10148,2086,65728,65728,6,6,4,1460,227500,1,16778208,580000,33580,32132,65700,0,8688,0,3241171236,63
i,1723651103.012158,172.16.5.2,38936,172.16.1.2,5102,8102,10148,2086,65728,65728,6,6,4,1460,227500,1,16778208,580000,33580,32132,65700,0,10136,0,3241171236,63
o,1723651103.012241,172.16.5.2,38936,172.16.1.2,5102,8102,10148,2086,64256,65728,6,6,4,1460,235312,1,16778208,610000,33580,29236,65700,0,7240,0,3241171236,63
i,1723651103.131537,172.16.5.2,38936,172.16.1.2,5102,8102,10148,2086,64256,65728,6,6,4,1460,235312,1,16778208,610000,33580,33580,65700,0,10136,0,3241171236,63
o,1723651103.131623,172.16.5.2,38936,172.16.1.2,5102,8102,10148,2086,65728,65728,6,6,4,1460,247187,1,16778208,670000,33580,32132,65700,0,8688,0,3241171236,63
i,1723651103.191485,172.16.5.2,38936,172.16.1.2,5102,8102,10148,2086,65728,65728,6,6,4,1460,247187,1,16778208,670000,33580,32132,65700,0,10136,0,3241171236,63
o,1723651103.191670,172.16.5.2,38936,172.16.1.2,5102,8048,11596,2086,64256,65728,6,6,4,1460,260312,1,553649120,730000,33580,29236,65700,0,7240,0,3241171236,63
i,1723651103.281870,172.16.5.2,38936,172.16.1.2,5102,8048,11596,2086,64256,65728,6,6,4,1460,260312,1,553649120,730000,33580,33580,65700,0,11584,0,3241171236,63
i,1723651103.351518,172.16.5.2,38936,172.16.1.2,5102,8048,8688,2086,64256,65728,6,6,4,1460,282812,1,536871904,870000,33580,33580,65700,0,8688,0,3241171236,63
o,1723651103.351646,172.16.5.2,38936,172.16.1.2,5102,8048,10136,2086,64256,65728,6,6,4,1460,290000,1,553649120,840000,33580,30684,65700,0,5792,0,3241171236,63
o,1723651103.351820,172.16.5.2,38936,172.16.1.2,5102,8048,10136,2086,64256,65728,6,6,4,1460,290000,1,553649120,840000,33580,30684,65700,0,7240,0,3241171236,63
i,1723651103.482568,172.16.5.2,38936,172.16.1.2,5102,8048,10136,2086,64256,65728,6,6,4,1460,290000,1,553649120,840000,33580,33580,65700,0,10136,0,3241171236,63
o,1723651103.482666,172.16.5.2,38936,172.16.1.2,5102,8117,10136,2086,64256,65728,6,6,4,1460,297500,1,553649120,820000,33580,30684,65700,0,7240,0,3241171236,63
i,1723651103.502327,172.16.5.2,38936,172.16.1.2,5102,8117,10136,2086,64256,65728,6,6,4,1460,297500,1,553649120,820000,33580,33580,65700,0,10136,0,3241171236,63
i,1723651103.594075,172.16.5.2,38936,172.16.1.2,5102,8117,8688,2086,65728,65728,6,6,4,1460,297812,1,553649120,740000,33580,32132,65700,0,8688,0,3241171236,63
o,1723651103.594173,172.16.5.2,38936,172.16.1.2,5102,8117,8688,2082,65728,65728,6,6,4,1460,310625,1,553649120,790000,33580,30684,65700,0,7240,0,3241171236,63
i,1723651103.641453,172.16.5.2,38936,172.16.1.2,5102,8117,8688,2082,65728,65728,6,6,4,1460,310625,1,553649120,790000,33580,33580,65700,0,8688,0,3241171236,63
o,1723651103.641532,172.16.5.2,38936,172.16.1.2,5102,8117,8688,2086,64256,65728,6,6,4,1460,308125,1,553649120,740000,33580,30684,65700,0,5792,0,3241171236,63
o,1723651103.641645,172.16.5.2,38936,172.16.1.2,5102,8117,8688,2082,64256,65728,6,6,4,1460,308125,1,553649120,740000,33580,30684,65700,0,7240,0,3241171236,63
i,1723651103.752549,172.16.5.2,38936,172.16.1.2,5102,8117,8688,2082,64256,65728,6,6,4,1460,308125,1,553649120,740000,33580,33580,65700,0,8688,0,3241171236,63
o,1723651103.752723,172.16.5.2,38936,172.16.1.2,5102,8117,8688,2082,65728,65728,6,6,4,1460,319687,1,553649120,790000,33580,32132,65700,0,7240,0,3241171236,63
i,1723651103.773722,172.16.5.2,38936,172.16.1.2,5102,8117,8688,2082,65728,65728,6,6,4,1460,319687,1,553649120,790000,33580,32132,65700,0,8688,0,3241171236,63
i,1723651103.802111,172.16.5.2,38936,172.16.1.2,5102,6792,7240,2146,65728,65728,6,6,4,1460,316250,1,553649120,740000,33580,33580,65700,0,7240,0,3241171236,63
o,1723651103.802189,172.16.5.2,38936,172.16.1.2,5102,6792,7240,2082,65728,65728,6,6,4,1460,316875,1,553649120,690000,33580,32132,65700,0,5792,0,3241171236,63
i,1723651103.931799,172.16.5.2,38936,172.16.1.2,5102,6792,7240,2082,65728,65728,6,6,4,1460,316875,1,553649120,690000,33580,32132,65700,0,7240,0,3241171236,63
o,1723651103.931879,172.16.5.2,38936,172.16.1.2,5102,6792,7240,2086,64256,65728,6,6,4,1460,318750,1,553649120,660000,33580,29236,65700,0,4344,0,3241171236,63
o,1723651103.932162,172.16.5.2,38936,172.16.1.2,5102,6792,7240,2082,64256,65728,6,6,4,1460,318750,1,553649120,660000,33580,29236,65700,0,5792,0,3241171236,63
i,1723651103.952338,172.16.5.2,38936,172.16.1.2,5102,6792,7240,2082,64256,65728,6,6,4,1460,318750,1,553649120,660000,33580,33580,65700,0,7240,0,3241171236,63
o,1723651103.952368,172.16.5.2,38936,172.16.1.2,5102,6792,7240,2082,65728,65728,6,6,4,1460,317812,1,553649120,630000,33580,32132,65700,0,5792,0,3241171236,63
i,1723651104.012463,172.16.5.2,38936,172.16.1.2,5102,6792,7240,2082,65728,65728,6,6,4,1460,317812,1,553649120,630000,33580,32132,65700,0,7240,0,3241171236,63
o,1723651104.012623,172.16.5.2,38936,172.16.1.2,5102,6792,7240,2086,64256,65728,6,6,4,1460,310625,1,16778208,650000,33580,29236,65700,0,4344,0,3241171236,63
i,1723651104.074543,172.16.5.2,38936,172.16.1.2,5102,6792,7240,2086,64256,65728,6,6,4,1460,310625,1,16778208,650000,33580,33580,65700,0,7240,0,3241171236,63
