enable_time_secs=1723651437	enable_time_usecs=906309	siftrver=1.3.0	sysname=FreeBSD	sysver=1401000	ipmode=4
o,1723651437.906688,10.0.2.15,22,10.0.2.2,50548,1073725440,17746,1026,65535,65700,0,0,4,1460,312,0,16777220,240000,33580,172,65700,0,0,0,2029721960,63
i,1723651437.907608,10.0.2.15,22,10.0.2.2,50548,1073725440,17746,1026,65535,65700,0,0,4,1460,312,0,16777220,240000,33580,172,65700,0,172,0,2029721960,63
o,1723651437.907665,10.0.2.15,22,10.0.2.2,50548,1073725440,17918,1026,65535,65700,0,0,4,1460,312,0,16777220,230000,33580,72,65700,0,0,0,2029721960,63
i,1723651437.908063,10.0.2.15,22,10.0.2.2,50548,1073725440,17918,1026,65535,65700,0,0,4,1460,312,0,16777220,230000,33580,72,65700,0,72,0,2029721960,63
i,1723651437.908080,10.0.2.15,22,10.0.2.2,50548,1073725440,17990,1026,65535,65700,0,0,4,1460,312,0,4,230000,33580,0,65700,0,0,0,2029721960,63
i,1723651437.908120,10.0.2.15,22,10.0.2.2,50548,1073725440,17990,1026,65535,65700,0,0,4,1460,312,0,4,230000,33580,0,65700,96,0,0,2029721960,63
o,1723651437.908139,10.0.2.15,22,10.0.2.2,50548,1073725440,17990,1026,65535,65604,0,0,5,1460,312,0,5,230000,33580,0,65700,96,0,0,2029721960,63
o,1723651437.908877,10.0.2.15,22,10.0.2.2,50548,1073725440,17990,1026,65535,65604,0,0,8,1460,312,0,4,230000,33580,0,65700,0,0,0,2029721960,63
i,1723651437.909106,10.0.2.15,22,10.0.2.2,50548,1073725440,17990,1026,65535,65604,0,0,8,1460,312,0,67108884,230000,33580,0,65700,0,1,0,2029721960,63
i,1723651441.097546,10.0.2.15,22,10.0.2.2,50552,1073725440,14600,0,65535,65700,0,0,4,1460,312,0,16777216,270000,33580,0,65700,0,0,0,78991461,63
o,1723651441.106391,10.0.2.15,22,10.0.2.2,50552,1073725440,14600,1026,65535,65700,0,0,4,1460,312,0,16777216,270000,33580,38,65700,42,0,0,78991461,63
i,1723651441.107165,10.0.2.15,22,10.0.2.2,50552,1073725440,14600,1026,65535,65700,0,0,4,1460,312,0,16777216,270000,33580,38,65700,0,38,0,78991461,63
i,1723651441.107209,10.0.2.15,22,10.0.2.2,50552,1073725440,14638,1026,65535,65700,0,0,4,1460,312,0,0,240000,33580,0,65700,0,0,0,78991461,63
i,1723651441.107224,10.0.2.15,22,10.0.2.2,50552,1073725440,14638,1026,65535,65700,0,0,4,1460,312,0,0,240000,33580,0,65700,1460,0,0,78991461,63
o,1723651441.107246,10.0.2.15,22,10.0.2.2,50552,1073725440,14638,1026,65535,65700,0,0,4,1460,312,0,1,240000,33580,0,65700,1536,0,0,78991461,63
o,1723651441.108191,10.0.2.15,22,10.0.2.2,50552,1073725440,14638,1026,65535,65700,0,0,4,1460,312,0,16777216,240000,33580,1120,65700,1536,0,0,78991461,63
i,1723651441.108656,10.0.2.15,22,10.0.2.2,50552,1073725440,14638,1026,65535,65700,0,0,4,1460,312,0,16777216,240000,33580,1120,65700,0,1120,0,78991461,63
i,1723651441.110154,10.0.2.15,22,10.0.2.2,50552,1073725440,15758,1026,65535,65700,0,0,4,1460,312,0,0,240000,33580,0,65700,0,0,0,78991461,63
o,1723651441.113023,10.0.2.15,22,10.0.2.2,50552,1073725440,15758,1026,65535,65700,0,0,4,1460,312,0,16777216,240000,33580,492,65700,0,0,0,78991461,63
i,1723651441.113784,10.0.2.15,22,10.0.2.2,50552,1073725440,15758,1026,65535,65700,0,0,4,1460,312,0,16777216,240000,33580,492,65700,0,492,0,78991461,63
i,1723651441.117704,10.0.2.15,22,10.0.2.2,50552,1073725440,16250,1026,65535,65700,0,0,4,1460,312,0,0,240000,33580,0,65700,0,0,0,78991461,63
i,1723651441.117720,10.0.2.15,22,10.0.2.2,50552,1073725440,16250,1026,65535,65700,0,0,4,1460,312,0,0,240000,33580,0,65700,16,0,0,78991461,63
o,1723651441.117734,10.0.2.15,22,10.0.2.2,50552,1073725440,16250,1026,65535,65700,0,0,4,1460,312,0,1,240000,33580,0,65700,60,0,0,78991461,63
o,1723651441.117893,10.0.2.15,22,10.0.2.2,50552,1073725440,16250,1026,65535,65700,0,0,4,1460,312,0,16777216,240000,33580,44,65700,0,0,0,78991461,63
i,1723651441.118728,10.0.2.15,22,10.0.2.2,50552,1073725440,16250,1026,65535,65700,0,0,4,1460,312,0,16777216,240000,33580,44,65700,0,44,0,78991461,63
i,1723651441.121468,10.0.2.15,22,10.0.2.2,50552,1073725440,16294,1026,65535,65700,0,0,4,1460,312,0,0,240000,33580,0,65700,0,0,0,78991461,63
o,1723651441.122516,10.0.2.15,22,10.0.2.2,50552,1073725440,16294,1026,65535,65700,0,0,4,1460,312,0,16777216,240000,33580,68,65700,0,0,0,78991461,63
i,1723651441.122979,10.0.2.15,22,10.0.2.2,50552,1073725440,16294,1026,65535,65700,0,0,4,1460,312,0,16777216,240000,33580,68,65700,0,68,0,78991461,63
i,1723651441.122996,10.0.2.15,22,10.0.2.2,50552,1073725440,16362,1026,65535,65700,0,0,4,1460,312,0,0,240000,33580,0,65700,0,0,0,78991461,63
o,1723651441.124379,10.0.2.15,22,10.0.2.2,50552,1073725440,16362,1026,65535,65700,0,0,4,1460,312,0,16777216,240000,33580,332,65700,0,0,0,78991461,63
i,1723651441.125202,10.0.2.15,22,10.0.2.2,50552,1073725440,16362,1026,65535,65700,0,0,4,1460,312,0,16777216,240000,33580,332,65700,0,332,0,78991461,63
i,1723651441.126637,10.0.2.15,22,10.0.2.2,50552,1073725440,16694,1026,65535,65700,0,0,4,1460,312,0,0,240000,33580,0,65700,0,0,0,78991461,63
o,1723651441.144296,10.0.2.15,22,10.0.2.2,50552,1073725440,16694,1026,65535,65700,0,0,4,1460,312,0,16777216,240000,33580,28,65700,0,0,0,78991461,63
i,1723651441.145126,10.0.2.15,22,10.0.2.2,50552,1073725440,16694,1026,65535,65700,0,0,4,1460,312,0,16777216,240000,33580,28,65700,0,28,0,78991461,63
i,1723651441.145143,10.0.2.15,22,10.0.2.2,50552,1073725440,16722,1026,65535,65700,0,0,4,1460,312,0,0,240000,33580,0,65700,0,0,0,78991461,63
o,1723651441.146240,10.0.2.15,22,10.0.2.2,50552,1073725440,16722,1026,65535,65700,0,0,4,1460,312,0,16777216,240000,33580,768,65700,112,0,0,78991461,63
i,1723651441.146530,10.0.2.15,22,10.0.2.2,50552,1073725440,16722,1026,65535,65700,0,0,4,1460,312,0,16777216,240000,33580,908,65700,112,768,0,78991461,63
o,1723651441.146558,10.0.2.15,22,10.0.2.2,50552,1073725440,17490,1026,65535,65700,0,0,4,1460,312,0,16777216,240000,33580,140,65700,112,0,0,78991461,63
i,1723651441.147195,10.0.2.15,22,10.0.2.2,50552,1073725440,17490,1026,65535,65700,0,0,4,1460,312,0,16777216,240000,33580,184,65700,0,140,0,78991461,63
o,1723651441.147212,10.0.2.15,22,10.0.2.2,50552,1073725440,17630,1026,65535,65700,0,0,4,1460,312,0,16777216,240000,33580,44,65700,0,0,0,78991461,63
i,1723651441.147653,10.0.2.15,22,10.0.2.2,50552,1073725440,17630,1026,65535,65700,0,0,4,1460,312,0,16777216,240000,33580,44,65700,0,44,0,78991461,63
i,1723651441.147670,10.0.2.15,22,10.0.2.2,50552,1073725440,17674,1026,65535,65700,0,0,4,1460,312,0,0,230000,33580,0,65700,0,0,0,78991461,63
o,1723651441.148156,10.0.2.15,22,10.0.2.2,50552,1073725440,17674,1026,65535,65700,0,0,4,1460,312,0,16777220,230000,33580,72,65700,0,0,0,78991461,63
i,1723651441.148505,10.0.2.15,22,10.0.2.2,50552,1073725440,17674,1026,65535,65700,0,0,4,1460,312,0,16777220,230000,33580,72,65700,0,72,0,78991461,63
o,1723651441.150539,10.0.2.15,22,10.0.2.2,50552,1073725440,17746,1026,65535,65700,0,0,4,1460,312,0,16777220,230000,33580,104,65700,0,0,0,78991461,63
i,1723651441.150941,10.0.2.15,22,10.0.2.2,50552,1073725440,17746,1026,65535,65700,0,0,4,1460,312,0,16777220,230000,33580,104,65700,0,104,0,78991461,63
o,1723651441.165589,10.0.2.15,22,10.0.2.2,50552,1073725440,17850,1026,65535,65700,0,0,4,1460,312,0,16777220,230000,33580,72,65700,0,0,0,78991461,63
i,1723651441.167501,10.0.2.15,22,10.0.2.2,50552,1073725440,17850,1026,65535,65700,0,0,4,1460,312,0,16777220,230000,33580,72,65700,0,72,0,78991461,63
i,1723651441.167587,10.0.2.15,22,10.0.2.2,50552,1073725440,17922,1026,65535,65700,0,0,4,1460,312,0,4,230000,33580,0,65700,0,0,0,78991461,63
i,1723651441.167662,10.0.2.15,22,10.0.2.2,50552,1073725440,17922,1026,65535,65700,0,0,4,1460,312,0,4,230000,33580,0,65700,96,0,0,78991461,63
o,1723651441.167732,10.0.2.15,22,10.0.2.2,50552,1073725440,17922,1026,65535,65604,0,0,5,1460,312,0,5,230000,33580,0,65700,96,0,0,78991461,63
o,1723651441.169179,10.0.2.15,22,10.0.2.2,50552,1073725440,17922,1026,65535,65604,0,0,8,1460,312,0,4,230000,33580,0,65700,0,0,0,78991461,63
i,1723651441.169755,10.0.2.15,22,10.0.2.2,50552,1073725440,17922,1026,65535,65604,0,0,8,1460,312,0,67108884,230000,33580,0,65700,0,1,0,78991461,63
i,1723651442.254040,10.0.2.15,22,10.0.2.2,50560,1073725440,14600,0,65535,65700,0,0,4,1460,312,0,16777216,270000,33580,0,65700,0,0,0,2287476301,63
o,1723651442.264548,10.0.2.15,22,10.0.2.2,50560,1073725440,14600,1026,65535,65700,0,0,4,1460,312,0,16777216,270000,33580,38,65700,42,0,0,2287476301,63
i,1723651442.265024,10.0.2.15,22,10.0.2.2,50560,1073725440,14600,1026,65535,65700,0,0,4,1460,312,0,16777216,270000,33580,38,65700,0,38,0,2287476301,63
i,1723651442.265074,10.0.2.15,22,10.0.2.2,50560,1073725440,14638,1026,65535,65700,0,0,4,1460,312,0,0,240000,33580,0,65700,0,0,0,2287476301,63
i,1723651442.265089,10.0.2.15,22,10.0.2.2,50560,1073725440,14638,1026,65535,65700,0,0,4,1460,312,0,0,240000,33580,0,65700,1460,0,0,2287476301,63
o,1723651442.265107,10.0.2.15,22,10.0.2.2,50560,1073725440,14638,1026,65535,65700,0,0,4,1460,312,0,1,240000,33580,0,65700,1536,0,0,2287476301,63
o,1723651442.266170,10.0.2.15,22,10.0.2.2,50560,1073725440,14638,1026,65535,65700,0,0,4,1460,312,0,16777216,240000,33580,1120,65700,1536,0,0,2287476301,63
i,1723651442.266748,10.0.2.15,22,10.0.2.2,50560,1073725440,14638,1026,65535,65700,0,0,4,1460,312,0,16777216,240000,33580,1120,65700,0,1120,0,2287476301,63
i,1723651442.268003,10.0.2.15,22,10.0.2.2,50560,1073725440,15758,1026,65535,65700,0,0,4,1460,312,0,0,240000,33580,0,65700,0,0,0,2287476301,63
o,1723651442.271266,10.0.2.15,22,10.0.2.2,50560,1073725440,15758,1026,65535,65700,0,0,4,1460,312,0,16777216,240000,33580,492,65700,0,0,0,2287476301,63
i,1723651442.271768,10.0.2.15,22,10.0.2.2,50560,1073725440,15758,1026,65535,65700,0,0,4,1460,312,0,16777216,240000,33580,492,65700,0,492,0,2287476301,63
i,1723651442.276499,10.0.2.15,22,10.0.2.2,50560,1073725440,16250,1026,65535,65700,0,0,4,1460,312,0,0,240000,33580,0,65700,0,0,0,2287476301,63
i,1723651442.276536,10.0.2.15,22,10.0.2.2,50560,1073725440,16250,1026,65535,65700,0,0,4,1460,312,0,0,240000,33580,0,65700,16,0,0,2287476301,63
o,1723651442.276553,10.0.2.15,22,10.0.2.2,50560,1073725440,16250,1026,65535,65700,0,0,4,1460,312,0,1,240000,33580,0,65700,60,0,0,2287476301,63
o,1723651442.276751,10.0.2.15,22,10.0.2.2,50560,1073725440,16250,1026,65535,65700,0,0,4,1460,312,0,16777216,240000,33580,44,65700,0,0,0,2287476301,63
i,1723651442.277584,10.0.2.15,22,10.0.2.2,50560,1073725440,16250,1026,65535,65700,0,0,4,1460,312,0,16777216,240000,33580,44,65700,0,44,0,2287476301,63
i,1723651442.277602,10.0.2.15,22,10.0.2.2,50560,1073725440,16294,1026,65535,65700,0,0,4,1460,312,0,0,230000,33580,0,65700,0,0,0,2287476301,63
o,1723651442.279061,10.0.2.15,22,10.0.2.2,50560,1073725440,16294,1026,65535,65700,0,0,4,1460,312,0,16777216,230000,33580,68,65700,0,0,0,2287476301,63
i,1723651442.279560,10.0.2.15,22,10.0.2.2,50560,1073725440,16294,1026,65535,65700,0,0,4,1460,312,0,16777216,230000,33580,68,65700,0,68,0,2287476301,63
i,1723651442.279577,10.0.2.15,22,10.0.2.2,50560,1073725440,16362,1026,65535,65700,0,0,4,1460,312,0,0,230000,33580,0,65700,0,0,0,2287476301,63
o,1723651442.281020,10.0.2.15,22,10.0.2.2,50560,1073725440,16362,1026,65535,65700,0,0,4,1460,312,0,16777216,230000,33580,332,65700,0,0,0,2287476301,63
i,1723651442.281952,10.0.2.15,22,10.0.2.2,50560,1073725440,16362,1026,65535,65700,0,0,4,1460,312,0,16777216,230000,33580,332,65700,0,332,0,2287476301,63
i,1723651442.282979,10.0.2.15,22,10.0.2.2,50560,1073725440,16694,1026,65535,65700,0,0,4,1460,312,0,0,230000,33580,0,65700,0,0,0,2287476301,63
o,1723651442.300573,10.0.2.15,22,10.0.2.2,50560,1073725440,16694,1026,65535,65700,0,0,4,1460,312,0,16777216,230000,33580,28,65700,0,0,0,2287476301,63
i,1723651442.301285,10.0.2.15,22,10.0.2.2,50560,1073725440,16694,1026,65535,65700,0,0,4,1460,312,0,16777216,230000,33580,28,65700,0,28,0,2287476301,63
i,1723651442.301701,10.0.2.15,22,10.0.2.2,50560,1073725440,16722,1026,65535,65700,0,0,4,1460,312,0,0,230000,33580,0,65700,0,0,0,2287476301,63
o,1723651442.303491,10.0.2.15,22,10.0.2.2,50560,1073725440,16722,1026,65535,65700,0,0,4,1460,312,0,16777216,230000,33580,768,65700,112,0,0,2287476301,63
i,1723651442.304348,10.0.2.15,22,10.0.2.2,50560,1073725440,16722,1026,65535,65700,0,0,4,1460,312,0,16777216,230000,33580,908,65700,112,768,0,2287476301,63
o,1723651442.304376,10.0.2.15,22,10.0.2.2,50560,1073725440,17490,1026,65535,65700,0,0,4,1460,312,0,16777216,240000,33580,140,65700,112,0,0,2287476301,63
i,1723651442.304779,10.0.2.15,22,10.0.2.2,50560,1073725440,17490,1026,65535,65700,0,0,4,1460,312,0,16777216,240000,33580,140,65700,112,140,0,2287476301,63
o,1723651442.305518,10.0.2.15,22,10.0.2.2,50560,1073725440,17630,1026,65535,65700,0,0,4,1460,312,0,16777216,240000,33580,44,65700,0,0,0,2287476301,63
i,1723651442.306235,10.0.2.15,22,10.0.2.2,50560,1073725440,17630,1026,65535,65700,0,0,4,1460,312,0,16777216,240000,33580,44,65700,0,44,0,2287476301,63
i,1723651442.306253,10.0.2.15,22,10.0.2.2,50560,1073725440,17674,1026,65535,65700,0,0,4,1460,312,0,0,240000,33580,0,65700,0,0,0,2287476301,63
o,1723651442.306794,10.0.2.15,22,10.0.2.2,50560,1073725440,17674,1026,65535,65700,0,0,4,1460,312,0,16777220,240000,33580,72,65700,0,0,0,2287476301,63
i,1723651442.307243,10.0.2.15,22,10.0.2.2,50560,1073725440,17674,1026,65535,65700,0,0,4,1460,312,0,16777220,240000,33580,72,65700,0,72,0,2287476301,63
o,1723651442.433793,172.16.5.2,55874,172.16.1.2,5102,21216,14480,2082,65535,65700,6,6,4,1460,166562,1,16778209,570000,33580,0,65700,0,0,0,1447577670,63
o,1723651442.434029,172.16.5.2,55874,172.16.1.2,5102,21216,14480,2082,65535,65700,6,6,4,1460,166562,1,16778212,570000,33580,37,65700,0,0,0,1447577670,63
i,1723651442.552737,172.16.5.2,55874,172.16.1.2,5102,21216,14480,2082,65535,65700,6,6,4,1460,166562,1,16778212,570000,33580,37,65700,0,37,0,1447577670,63
o,1723651442.553093,172.16.5.2,55874,172.16.1.2,5102,21216,14517,3106,65728,65728,6,6,4,1460,159687,1,16778212,570000,33580,4,65700,0,0,0,1447577670,63
o,1723651442.553312,172.16.5.2,55874,172.16.1.2,5102,21216,14517,3106,65728,65728,6,6,4,1460,159687,1,16778212,570000,33580,130,65700,0,4,0,1447577670,63
i,1723651442.672239,172.16.5.2,55874,172.16.1.2,5102,21216,14517,3106,65728,65728,6,6,4,1460,159687,1,16778212,570000,33580,130,65700,0,130,0,1447577670,63
i,1723651442.672281,172.16.5.2,55874,172.16.1.2,5102,21216,14647,3106,65600,65728,6,6,4,1460,155000,1,996,550000,33580,0,65700,0,0,0,1447577670,63
o,1723651442.774326,172.16.5.2,55874,172.16.1.2,5102,21216,14647,3106,65728,65728,6,6,4,1460,155000,1,997,550000,33580,0,65700,0,0,0,1447577670,63
o,1723651442.800278,172.16.5.2,28963,172.16.1.2,5102,21216,14480,2082,65535,65700,6,6,4,1460,167812,1,16778209,570000,33580,0,65700,0,0,0,786060787,63
o,1723651442.800595,172.16.5.2,28963,172.16.1.2,5102,21216,14480,2082,65535,65700,6,6,4,1460,167812,1,16778208,570000,33580,37,65700,0,0,0,786060787,63
i,1723651442.912563,172.16.5.2,55874,172.16.1.2,5102,21216,14647,3106,65728,65728,6,6,4,1460,155000,1,996,550000,33580,0,65700,0,0,0,1447577670,63
i,1723651442.912709,172.16.5.2,55874,172.16.1.2,5102,21216,14647,3106,65728,65728,6,6,4,1460,155000,1,996,550000,33580,0,65700,1,0,0,1447577670,63
o,1723651442.912754,172.16.5.2,55874,172.16.1.2,5102,21216,14647,3106,65728,65728,6,6,4,1460,155000,1,997,550000,33580,0,65700,2,0,0,1447577670,63
o,1723651442.913392,172.16.5.2,28963,172.16.1.2,5102,21216,14480,2086,65535,65700,6,6,4,1460,167812,1,16778208,570000,33580,33580,65700,0,37,0,786060787,63
i,1723651442.944426,172.16.5.2,28963,172.16.1.2,5102,21216,14480,2086,65535,65700,6,6,4,1460,167812,1,16778208,570000,33580,33580,65700,0,13069,0,786060787,63
o,1723651442.944504,172.16.5.2,28963,172.16.1.2,5102,21216,14517,2086,65728,65728,6,6,4,1460,164375,1,16778208,540000,33580,33543,65700,0,13032,0,786060787,63
i,1723651443.275960,172.16.5.2,28963,172.16.1.2,5102,21216,14517,2086,65728,65728,6,6,4,1460,164375,1,16778208,540000,33580,33543,65700,0,14480,0,786060787,63
o,1723651443.276058,172.16.5.2,28963,172.16.1.2,5102,21216,17413,2086,64256,65728,6,6,4,1460,189062,1,16778208,720000,33580,30647,65700,0,11584,0,786060787,63
i,1723651443.322206,172.16.5.2,28963,172.16.1.2,5102,21216,17413,2086,64256,65728,6,6,4,1460,189062,1,16778208,720000,41772,41772,65700,0,17376,0,786060787,63
o,1723651443.322301,172.16.5.2,28963,172.16.1.2,5102,21216,20309,2086,64256,65728,6,6,4,1460,216875,1,16778208,880000,41772,38876,65700,0,14480,0,786060787,63
i,1723651443.372446,172.16.5.2,28963,172.16.1.2,5102,21216,20309,2086,64256,65728,6,6,4,1460,216875,1,16778208,880000,49964,49964,65700,0,20272,0,786060787,63
o,1723651443.372568,172.16.5.2,28963,172.16.1.2,5102,21216,23205,2086,64256,65728,6,6,4,1460,247500,1,16778208,1040000,49964,47068,65700,0,17376,0,786060787,63
i,1723651443.421862,172.16.5.2,28963,172.16.1.2,5102,21216,23205,2086,64256,65728,6,6,4,1460,247500,1,16778208,1040000,49964,49964,65700,0,23168,0,786060787,63
o,1723651443.421943,172.16.5.2,28963,172.16.1.2,5102,21216,23205,2086,64256,65728,6,6,4,1460,280312,1,16778208,1190000,49964,47068,65700,0,20272,0,786060787,63
i,1723651443.481022,172.16.5.2,28963,172.16.1.2,5102,21216,23205,2086,64256,65728,6,6,4,1460,280312,1,16778208,1190000,49964,49964,65700,0,23168,0,786060787,63
o,1723651443.481136,172.16.5.2,28963,172.16.1.2,5102,21216,23205,2086,64256,65728,6,6,4,1460,316562,1,16778208,1340000,49964,47068,65700,0,20272,0,786060787,63
o,1723651443.481280,172.16.5.2,28963,172.16.1.2,5102,21216,23205,2086,64256,65728,6,6,4,1460,316562,1,16778208,1340000,49964,47068,65700,0,21720,0,786060787,63
i,1723651443.836255,172.16.5.2,28963,172.16.1.2,5102,21216,23205,2086,64256,65728,6,6,4,1460,316562,1,16778208,1340000,49964,49964,65700,0,23168,0,786060787,63
o,1723651443.836402,172.16.5.2,28963,172.16.1.2,5102,21216,23205,2086,64256,65728,6,6,4,1460,347187,1,16778208,1410000,49964,47068,65700,0,20272,0,786060787,63
i,1723651443.918272,172.16.5.2,28963,172.16.1.2,5102,21216,23205,2086,64256,65728,6,6,4,1460,347187,1,16778208,1410000,49964,49964,65700,0,23168,0,786060787,63
o,1723651443.918305,172.16.5.2,28963,172.16.1.2,5102,21216,24616,2082,64256,65728,6,6,4,1460,347187,1,16778208,1410000,49964,49964,65700,0,23168,0,786060787,63
i,1723651443.931902,172.16.5.2,28963,172.16.1.2,5102,21216,23205,2082,64256,65728,6,6,4,1460,347187,1,16778208,1410000,49964,49964,65700,0,24616,0,786060787,63
o,1723651443.931931,172.16.5.2,28963,172.16.1.2,5102,21216,26064,2082,64256,65728,6,6,4,1460,347187,1,16778208,1410000,58156,49964,65700,0,24616,0,786060787,63
i,1723651443.978261,172.16.5.2,28963,172.16.1.2,5102,21216,23205,2082,64256,65728,6,6,4,1460,347187,1,16778208,1410000,58156,49964,65700,0,26064,0,786060787,63
o,1723651443.978291,172.16.5.2,28963,172.16.1.2,5102,11602,1448,2146,64256,65728,6,6,4,1460,347187,1,554697696,1410000,58156,49964,65700,0,26064,0,786060787,63
i,1723651443.978459,172.16.5.2,28963,172.16.1.2,5102,11602,1448,2146,64256,65728,6,6,4,1460,347187,1,554697696,1410000,58156,49964,65700,0,26064,0,786060787,63
i,1723651444.002183,172.16.5.2,28963,172.16.1.2,5102,11602,1448,2146,64256,65728,6,6,4,1460,347187,1,554697696,1410000,58156,49964,65700,0,26064,0,786060787,63
o,1723651444.002293,172.16.5.2,28963,172.16.1.2,5102,11602,2896,2146,64256,65728,6,6,4,1460,347187,1,554697696,1410000,58156,49964,65700,0,26064,0,786060787,63
i,1723651444.022186,172.16.5.2,28963,172.16.1.2,5102,11602,2896,2146,64256,65728,6,6,4,1460,347187,1,554697696,1410000,58156,49964,65700,0,26064,0,786060787,63
i,1723651444.079259,172.16.5.2,28963,172.16.1.2,5102,11602,2896,2146,64256,65728,6,6,4,1460,347187,1,554697696,1410000,58156,49964,65700,0,26064,0,786060787,63
o,1723651444.079302,172.16.5.2,28963,172.16.1.2,5102,11602,4344,2146,64256,65728,6,6,4,1460,347187,1,554697696,1410000,58156,49964,65700,0,26064,0,786060787,63
i,1723651444.125594,172.16.5.2,28963,172.16.1.2,5102,11602,4344,2146,64256,65728,6,6,4,1460,347187,1,554697696,1410000,58156,49964,65700,0,26064,0,786060787,63
i,1723651444.171956,172.16.5.2,28963,172.16.1.2,5102,11602,4344,2146,64256,65728,6,6,4,1460,347187,1,537920480,1410000,58156,49964,65700,0,26064,0,786060787,63
o,1723651444.172001,172.16.5.2,28963,172.16.1.2,5102,11602,5792,2146,64256,65728,6,6,4,1460,347187,1,554697696,1410000,58156,49964,65700,0,26064,0,786060787,63
i,1723651444.182146,172.16.5.2,28963,172.16.1.2,5102,11602,5792,2146,64256,65728,6,6,4,1460,347187,1,554697696,1410000,58156,49964,65700,0,26064,0,786060787,63
i,1723651444.202654,172.16.5.2,28963,172.16.1.2,5102,11602,5792,2146,64256,65728,6,6,4,1460,347187,1,554697696,1410000,58156,49964,65700,0,26064,0,786060787,63
o,1723651444.202684,172.16.5.2,28963,172.16.1.2,5102,11602,7240,2146,64256,65728,6,6,4,1460,347187,1,554697696,1410000,58156,49964,65700,0,26064,0,786060787,63
i,1723651444.260418,172.16.5.2,28963,172.16.1.2,5102,11602,7240,2146,64256,65728,6,6,4,1460,347187,1,554697696,1410000,58156,49964,65700,0,26064,0,786060787,63
i,1723651444.260460,172.16.5.2,28963,172.16.1.2,5102,11602,5792,2146,64256,65728,6,6,4,1460,347187,1,537920480,1410000,58156,49964,65700,0,26064,0,786060787,63
i,1723651444.311920,172.16.5.2,28963,172.16.1.2,5102,11602,4344,2146,64256,65728,6,6,4,1460,347187,1,537920480,1410000,58156,49964,65700,0,26064,0,786060787,63
o,1723651444.311951,172.16.5.2,28963,172.16.1.2,5102,11602,5792,2146,64256,65728,6,6,4,1460,347187,1,554697696,1410000,58156,49964,65700,0,26064,0,786060787,63
o,1723651444.312094,172.16.5.2,28963,172.16.1.2,5102,11602,5792,2146,64256,65728,6,6,4,1460,347187,1,554697696,1410000,58156,49964,65700,0,26064,0,786060787,63
i,1723651444.332602,172.16.5.2,28963,172.16.1.2,5102,11602,5792,2146,64256,65728,6,6,4,1460,347187,1,554697696,1410000,58156,49964,65700,0,26064,0,786060787,63
o,1723651444.332632,172.16.5.2,28963,172.16.1.2,5102,11602,7240,2086,64256,65728,6,6,4,1460,347187,1,554697696,1410000,58156,49964,65700,0,26064,0,786060787,63
o,1723651444.332780,172.16.5.2,28963,172.16.1.2,5102,11602,7240,2082,64256,65728,6,6,4,1460,347187,1,554697696,1410000,58156,49964,65700,0,27512,0,786060787,63
i,1723651444.470767,172.16.5.2,28963,172.16.1.2,5102,11602,7240,2082,64256,65728,6,6,4,1460,347187,1,554697696,1410000,58156,49964,65700,0,28960,0,786060787,63
o,1723651444.471080,172.16.5.2,28963,172.16.1.2,5102,11602,8688,2086,64256,65728,6,6,4,1460,347187,1,554697696,1410000,58156,49964,65700,0,28960,0,786060787,63
i,1723651444.501827,172.16.5.2,28963,172.16.1.2,5102,11602,8688,2086,64256,65728,6,6,4,1460,347187,1,554697696,1410000,58156,49964,65700,0,31856,0,786060787,63
o,1723651444.501924,172.16.5.2,28963,172.16.1.2,5102,11602,10136,2086,64256,65728,6,6,4,1460,347187,1,554697696,1410000,58156,49964,65700,0,31856,0,786060787,63
i,1723651444.529339,172.16.5.2,28963,172.16.1.2,5102,11602,10136,2086,64256,65728,6,6,4,1460,347187,1,554697696,1410000,58156,49964,65700,0,34752,0,786060787,63
o,1723651444.529404,172.16.5.2,28963,172.16.1.2,5102,11602,11584,2082,64256,65728,6,6,4,1460,347187,1,554697696,1410000,58156,49964,65700,0,34752,0,786060787,63
i,1723651444.560380,172.16.5.2,28963,172.16.1.2,5102,11602,11584,2082,64256,65728,6,6,4,1460,347187,1,554697696,1410000,58156,49964,65700,0,36200,0,786060787,63
o,1723651444.560443,172.16.5.2,28963,172.16.1.2,5102,11602,13032,2082,64256,65728,6,6,4,1460,347187,1,554697696,1410000,58156,49964,65700,0,36200,0,786060787,63
i,1723651444.671853,172.16.5.2,28963,172.16.1.2,5102,11602,13032,2082,64256,65728,6,6,4,1460,347187,1,554697696,1410000,58156,49964,65700,0,37648,0,786060787,63
o,1723651444.671904,172.16.5.2,28963,172.16.1.2,5102,11602,14480,2082,64256,65728,6,6,4,1460,347187,1,554697696,1410000,58156,49964,65700,0,37648,0,786060787,63
i,1723651444.727125,172.16.5.2,28963,172.16.1.2,5102,11602,14480,2082,64256,65728,6,6,4,1460,347187,1,554697696,1410000,58156,49964,65700,0,39096,0,786060787,63
o,1723651444.727174,172.16.5.2,28963,172.16.1.2,5102,11602,15928,2082,64256,65728,6,6,4,1460,347187,1,554697696,1410000,58156,49964,65700,0,39096,0,786060787,63
i,1723651444.751930,172.16.5.2,28963,172.16.1.2,5102,11602,15928,2082,64256,65728,6,6,4,1460,347187,1,554697696,1410000,58156,49964,65700,0,40544,0,786060787,63
o,1723651444.751961,172.16.5.2,28963,172.16.1.2,5102,11602,17376,2082,64256,65728,6,6,4,1460,347187,1,554697696,1410000,58156,49964,65700,0,40544,0,786060787,63
i,1723651444.831267,172.16.5.2,28963,172.16.1.2,5102,11602,17376,2082,64256,65728,6,6,4,1460,347187,1,554697696,1410000,58156,49964,65700,0,41992,0,786060787,63
o,1723651444.831314,172.16.5.2,28963,172.16.1.2,5102,11602,18824,2082,64256,65728,6,6,4,1460,347187,1,554697696,1410000,58156,49964,65700,0,41992,0,786060787,63
i,1723651444.831550,172.16.5.2,28963,172.16.1.2,5102,11602,18824,2082,64256,65728,6,6,4,1460,347187,1,554697696,1410000,58156,49964,65700,0,43440,0,786060787,63
o,1723651444.831575,172.16.5.2,28963,172.16.1.2,5102,11602,20272,2082,64256,65728,6,6,4,1460,347187,1,554697696,1410000,58156,49964,65700,0,43440,0,786060787,63
i,1723651444.870741,172.16.5.2,28963,172.16.1.2,5102,11602,20272,2082,64256,65728,6,6,4,1460,347187,1,554697696,1410000,58156,49964,65700,0,44888,0,786060787,63
o,1723651444.870772,172.16.5.2,28963,172.16.1.2,5102,11602,21720,2082,64256,65728,6,6,4,1460,347187,1,554697696,1410000,58156,49964,65700,0,44888,0,786060787,63
i,1723651444.995730,172.16.5.2,28963,172.16.1.2,5102,11602,21720,2082,64256,65728,6,6,4,1460,347187,1,554697696,1410000,58156,49964,65700,0,46336,0,786060787,63
o,1723651444.995759,172.16.5.2,28963,172.16.1.2,5102,11602,23168,2082,64256,65728,6,6,4,1460,347187,1,554697696,1410000,58156,49964,65700,0,46336,0,786060787,63
i,1723651445.047343,172.16.5.2,28963,172.16.1.2,5102,11602,23168,2082,64256,65728,6,6,4,1460,347187,1,554697696,1410000,58156,49964,65700,0,47784,0,786060787,63
o,1723651445.047385,172.16.5.2,28963,172.16.1.2,5102,11602,24616,2082,64256,65728,6,6,4,1460,347187,1,554697696,1410000,58156,49964,65700,0,47784,0,786060787,63
i,1723651445.098224,172.16.5.2,28963,172.16.1.2,5102,11602,24616,2082,64256,65728,6,6,4,1460,347187,1,554697696,1410000,58156,49964,65700,0,49232,0,786060787,63
i,1723651445.129670,172.16.5.2,28963,172.16.1.2,5102,11602,26064,2082,64256,65728,6,6,4,1460,347187,1,554697696,1410000,58156,49964,65700,0,49232,0,786060787,63
i,1723651445.152018,172.16.5.2,28963,172.16.1.2,5102,11602,27512,2082,64256,65728,6,6,4,1460,347187,1,554697696,1410000,58156,49964,65700,0,49232,0,786060787,63
i,1723651445.223994,172.16.5.2,28963,172.16.1.2,5102,11602,28960,2082,64256,65728,6,6,4,1460,347187,1,537920480,1410000,58156,49964,65700,0,49232,0,786060787,63
i,1723651445.254924,172.16.5.2,28963,172.16.1.2,5102,11602,30408,2082,64256,65728,6,6,4,1460,347187,1,537920480,1410000,58156,49964,65700,0,49232,0,786060787,63
i,1723651445.283702,172.16.5.2,28963,172.16.1.2,5102,11602,31856,2082,64256,65728,6,6,4,1460,347187,1,537920480,1410000,58156,49964,65700,0,49232,0,786060787,63
o,1723651445.389471,172.16.5.2,28963,172.16.1.2,5102,15928,1448,2146,64256,65728,6,6,4,1460,347187,1,1092625377,2620000,58156,49964,65700,0,49232,0,786060787,63
i,1723651445.523791,172.16.5.2,28963,172.16.1.2,5102,15928,1448,2146,64256,65728,6,6,4,1460,347187,1,1092625376,2620000,58156,49964,65700,0,49232,0,786060787,63
o,1723651445.523875,172.16.5.2,28963,172.16.1.2,5102,15928,2908,2082,16512,65728,6,6,4,1460,319062,1,1092625376,1390000,58156,732,65700,0,0,0,786060787,63
i,1723651445.524026,172.16.5.2,28963,172.16.1.2,5102,15928,2908,2082,16512,65728,6,6,4,1460,319062,1,1092625376,1390000,58156,732,65700,0,732,0,786060787,63
o,1723651445.524294,172.16.5.2,28963,172.16.1.2,5102,15928,2908,2086,16512,65728,6,6,4,1460,319062,1,1092625376,1390000,58156,58156,65700,0,732,0,786060787,63
i,1723651445.647868,172.16.5.2,28963,172.16.1.2,5102,15928,2908,2086,16512,65728,6,6,4,1460,319062,1,1092625376,1390000,58156,58156,65700,0,2180,0,786060787,63
o,1723651445.647999,172.16.5.2,28963,172.16.1.2,5102,15928,3640,2086,65728,65728,6,6,4,1460,295625,1,1092625376,1340000,58156,57424,65700,0,1448,0,786060787,63
i,1723651445.754142,172.16.5.2,28963,172.16.1.2,5102,15928,3640,2086,65728,65728,6,6,4,1460,295625,1,1092625376,1340000,58156,57424,65700,0,2896,0,786060787,63
o,1723651445.754233,172.16.5.2,28963,172.16.1.2,5102,15928,5088,2086,65728,65728,6,6,4,1460,287500,1,1092625376,1180000,58156,55976,65700,0,1448,0,786060787,63
i,1723651445.834644,172.16.5.2,28963,172.16.1.2,5102,15928,5088,2086,65728,65728,6,6,4,1460,287500,1,1092625376,1180000,58156,58156,65700,0,4344,0,786060787,63
o,1723651445.834679,172.16.5.2,28963,172.16.1.2,5102,15928,6536,2086,65728,65728,6,6,4,1460,274062,1,1092625376,1100000,58156,56708,65700,0,2896,0,786060787,63
o,1723651445.834822,172.16.5.2,28963,172.16.1.2,5102,15928,6536,2086,65728,65728,6,6,4,1460,274062,1,1092625376,1100000,58156,56708,65700,0,4344,0,786060787,63
i,1723651445.933609,172.16.5.2,28963,172.16.1.2,5102,15928,6536,2086,65728,65728,6,6,4,1460,274062,1,1092625376,1100000,58156,56708,65700,0,5792,0,786060787,63
o,1723651445.933705,172.16.5.2,28963,172.16.1.2,5102,15928,9432,2086,64256,65728,6,6,4,1460,262500,1,1092625376,1030000,58156,53812,65700,0,2896,0,786060787,63
i,1723651446.012172,172.16.5.2,28963,172.16.1.2,5102,15928,9432,2086,64256,65728,6,6,4,1460,262500,1,1092625376,1030000,58156,57940,65700,0,8688,0,786060787,63
o,1723651446.012260,172.16.5.2,28963,172.16.1.2,5102,15928,10880,2086,65728,65728,6,6,4,1460,252187,1,1092625376,960000,58156,56492,65700,0,7240,0,786060787,63
o,1723651446.012391,172.16.5.2,28963,172.16.1.2,5102,15928,10880,2086,65728,65728,6,6,4,1460,252187,1,1092625376,960000,58156,56492,65700,0,8688,0,786060787,63
i,1723651446.066898,172.16.5.2,28963,172.16.1.2,5102,15928,10880,2086,65728,65728,6,6,4,1460,252187,1,1092625376,960000,58156,56492,65700,0,10136,0,786060787,63
o,1723651446.066932,172.16.5.2,28963,172.16.1.2,5102,15928,12328,2086,65728,65728,6,6,4,1460,249687,1,1092625376,850000,58156,55044,65700,0,8688,0,786060787,63
i,1723651446.176646,172.16.5.2,28963,172.16.1.2,5102,15928,12328,2086,65728,65728,6,6,4,1460,249687,1,1092625376,850000,58156,58156,65700,0,11584,0,786060787,63
o,1723651446.176726,172.16.5.2,28963,172.16.1.2,5102,15928,15224,2086,64256,65728,6,6,4,1460,248750,1,1092625376,750000,58156,55260,65700,0,8688,0,786060787,63
i,1723651446.271924,172.16.5.2,28963,172.16.1.2,5102,15928,15224,2086,64256,65728,6,6,4,1460,248750,1,1092625376,750000,58156,58156,65700,0,14480,0,786060787,63
o,1723651446.271976,172.16.5.2,28963,172.16.1.2,5102,15928,18120,2086,64256,65728,6,6,4,1460,260312,1,1092625376,780000,58156,55260,65700,0,11584,0,786060787,63
i,1723651446.392841,172.16.5.2,28963,172.16.1.2,5102,15928,18120,2086,64256,65728,6,6,4,1460,260312,1,1092625376,780000,58156,58156,65700,0,17376,0,786060787,63
o,1723651446.392922,172.16.5.2,28963,172.16.1.2,5102,15928,18120,2086,64256,65728,6,6,4,1460,274062,1,1092625376,820000,58156,55260,65700,0,14480,0,786060787,63
o,1723651446.393045,172.16.5.2,28963,172.16.1.2,5102,15928,18120,2086,64256,65728,6,6,4,1460,274062,1,1092625376,820000,58156,55260,65700,0,15928,0,786060787,63
i,1723651446.513918,172.16.5.2,28963,172.16.1.2,5102,15928,18120,2086,64256,65728,6,6,4,1460,274062,1,1092625376,820000,58156,58156,65700,0,17376,0,786060787,63
o,1723651446.513952,172.16.5.2,28963,172.16.1.2,5102,15928,18120,2086,64256,65728,6,6,4,1460,295000,1,1092625376,930000,58156,55260,65700,0,14480,0,786060787,63
i,1723651446.662763,172.16.5.2,28963,172.16.1.2,5102,15928,18120,2086,64256,65728,6,6,4,1460,295000,1,1092625376,930000,58156,58156,65700,0,17376,0,786060787,63
o,1723651446.662808,172.16.5.2,28963,172.16.1.2,5102,15928,18120,2086,64256,65728,6,6,4,1460,318125,1,1092625376,1030000,58156,55260,65700,0,14480,0,786060787,63
i,1723651446.735911,172.16.5.2,28963,172.16.1.2,5102,15928,18120,2086,64256,65728,6,6,4,1460,318125,1,1092625376,1030000,58156,58156,65700,0,17376,0,786060787,63
o,1723651446.735948,172.16.5.2,28963,172.16.1.2,5102,15928,18120,2086,65728,65728,6,6,4,1460,348437,1,1092625376,1170000,58156,56708,65700,0,15928,0,786060787,63
i,1723651446.762642,172.16.5.2,28963,172.16.1.2,5102,15928,18120,2086,65728,65728,6,6,4,1460,348437,1,1092625376,1170000,58156,56708,65700,0,17376,0,786060787,63
o,1723651446.762674,172.16.5.2,28963,172.16.1.2,5102,15928,18824,2082,65728,65728,6,6,4,1460,348437,1,1092625376,1170000,58156,56708,65700,0,17376,0,786060787,63
i,1723651446.792885,172.16.5.2,28963,172.16.1.2,5102,15928,18120,2082,65728,65728,6,6,4,1460,348437,1,1092625376,1170000,58156,56708,65700,0,18824,0,786060787,63
o,1723651446.792917,172.16.5.2,28963,172.16.1.2,5102,15928,20272,2082,65728,65728,6,6,4,1460,348437,1,1092625376,1170000,58156,56708,65700,0,18824,0,786060787,63
i,1723651446.832207,172.16.5.2,28963,172.16.1.2,5102,15928,18120,2082,65728,65728,6,6,4,1460,348437,1,1092625376,1170000,58156,56708,65700,0,20272,0,786060787,63
o,1723651446.832283,172.16.5.2,28963,172.16.1.2,5102,9060,1448,2146,65728,65728,6,6,4,1460,348437,1,1630544864,1170000,58156,56708,65700,0,20272,0,786060787,63
i,1723651446.855561,172.16.5.2,28963,172.16.1.2,5102,9060,1448,2146,65728,65728,6,6,4,1460,348437,1,1630544864,1170000,58156,56708,65700,0,20272,0,786060787,63
i,1723651446.881630,172.16.5.2,28963,172.16.1.2,5102,9060,1448,2146,65728,65728,6,6,4,1460,348437,1,1630544864,1170000,58156,56708,65700,0,20272,0,786060787,63
i,1723651446.932088,172.16.5.2,28963,172.16.1.2,5102,9060,1448,2146,65728,65728,6,6,4,1460,348437,1,1613767648,1170000,58156,56708,65700,0,20272,0,786060787,63
i,1723651446.991541,172.16.5.2,28963,172.16.1.2,5102,9060,1448,2146,65728,65728,6,6,4,1460,348437,1,1613767648,1170000,58156,56708,65700,0,20272,0,786060787,63
i,1723651447.083387,172.16.5.2,28963,172.16.1.2,5102,9060,1448,2146,65728,65728,6,6,4,1460,348437,1,1613767648,1170000,58156,56708,65700,0,20272,0,786060787,63
i,1723651447.108008,172.16.5.2,28963,172.16.1.2,5102,9060,1448,2146,65728,65728,6,6,4,1460,348437,1,1613767648,1170000,58156,56708,65700,0,20272,0,786060787,63
i,1723651447.118457,172.16.5.2,28963,172.16.1.2,5102,9060,1448,2146,65728,65728,6,6,4,1460,348437,1,1613767648,1170000,58156,56708,65700,0,20272,0,786060787,63
o,1723651447.118480,172.16.5.2,28963,172.16.1.2,5102,9060,1448,2146,65728,65728,6,6,4,1460,348437,1,1630544865,1170000,58156,56708,65700,0,20272,0,786060787,63
i,1723651447.271827,172.16.5.2,28963,172.16.1.2,5102,9060,1448,2146,54144,65728,6,6,4,1460,341250,1,1630544864,1070000,58156,58156,65700,0,8688,0,786060787,63
o,1723651447.271858,172.16.5.2,28963,172.16.1.2,5102,9060,2896,2150,54144,65728,6,6,4,1460,341250,1,1630544865,1070000,58156,58156,65700,0,8688,0,786060787,63
o,1723651447.271989,172.16.5.2,28963,172.16.1.2,5102,9060,2896,2146,54144,65728,6,6,4,1460,341250,1,1630544864,1070000,58156,58156,65700,0,8688,0,786060787,63
i,1723651447.413272,172.16.5.2,28963,172.16.1.2,5102,9060,2896,2146,64256,65728,6,6,4,1460,317500,1,1630544864,1100000,58156,56708,65700,0,7240,0,786060787,63
o,1723651447.413345,172.16.5.2,28963,172.16.1.2,5102,9060,4344,2146,64256,65728,6,6,4,1460,317500,1,1630544865,1100000,58156,56708,65700,0,7240,0,786060787,63
o,1723651447.413489,172.16.5.2,28963,172.16.1.2,5102,9060,4344,2082,64256,65728,6,6,4,1460,317500,1,1630544864,1100000,58156,56708,65700,0,7240,0,786060787,63
i,1723651447.441259,172.16.5.2,28963,172.16.1.2,5102,9060,4344,2082,64256,65728,6,6,4,1460,295312,1,1630544864,1110000,58156,58156,65700,0,7240,0,786060787,63
o,1723651447.441306,172.16.5.2,28963,172.16.1.2,5102,9060,4344,2082,64256,65728,6,6,4,1460,295312,1,1630544865,1110000,58156,58156,65700,0,7240,0,786060787,63
i,1723651447.543301,172.16.5.2,28963,172.16.1.2,5102,9060,4344,2082,62848,65728,6,6,4,1460,279687,1,1630544864,1060000,58156,58156,65700,0,5792,0,786060787,63
o,1723651447.543381,172.16.5.2,28963,172.16.1.2,5102,9060,4356,2086,62848,65728,6,6,4,1460,261250,1,1092625376,1050000,58156,55260,65700,0,2896,0,786060787,63
i,1723651447.563818,172.16.5.2,28963,172.16.1.2,5102,9060,4356,2086,62848,65728,6,6,4,1460,261250,1,1092625376,1050000,58156,58156,65700,0,4344,0,786060787,63
o,1723651447.563883,172.16.5.2,28963,172.16.1.2,5102,9060,5804,2086,65728,65728,6,6,4,1460,247500,1,1092625376,1000000,58156,56708,65700,0,2896,0,786060787,63
i,1723651447.645325,172.16.5.2,28963,172.16.1.2,5102,9060,5804,2086,65728,65728,6,6,4,1460,247500,1,1092625376,1000000,58156,56708,65700,0,5792,0,786060787,63
o,1723651447.645694,172.16.5.2,28963,172.16.1.2,5102,9060,7252,2086,65728,65728,6,6,4,1460,241562,1,1092625376,900000,58156,55260,65700,0,4344,0,786060787,63
i,1723651447.729365,172.16.5.2,28963,172.16.1.2,5102,9060,7252,2086,65728,65728,6,6,4,1460,241562,1,1092625376,900000,58156,58156,65700,0,7240,0,786060787,63
o,1723651447.729521,172.16.5.2,28963,172.16.1.2,5102,9060,10148,2086,64256,65728,6,6,4,1460,235312,1,1092625376,830000,58156,55260,65700,0,4344,0,786060787,63
o,1723651447.729754,172.16.5.2,28963,172.16.1.2,5102,9060,10148,2086,64256,65728,6,6,4,1460,235312,1,1092625376,830000,58156,55260,65700,0,5792,0,786060787,63
i,1723651447.751881,172.16.5.2,28963,172.16.1.2,5102,9060,10148,2086,64256,65728,6,6,4,1460,235312,1,1092625376,830000,58156,58156,65700,0,10136,0,786060787,63
o,1723651447.751976,172.16.5.2,28963,172.16.1.2,5102,9060,10148,2086,65728,65728,6,6,4,1460,229687,1,1092625376,770000,58156,56708,65700,0,8688,0,786060787,63
i,1723651447.787314,172.16.5.2,28963,172.16.1.2,5102,9060,10148,2086,65728,65728,6,6,4,1460,229687,1,1092625376,770000,58156,56708,65700,0,10136,0,786060787,63
o,1723651447.787396,172.16.5.2,28963,172.16.1.2,5102,9060,10148,2086,64256,65728,6,6,4,1460,217500,1,1092625376,770000,58156,53812,65700,0,7240,0,786060787,63
i,1723651447.915638,172.16.5.2,28963,172.16.1.2,5102,9060,10148,2086,64256,65728,6,6,4,1460,217500,1,1092625376,770000,58156,58156,65700,0,10136,0,786060787,63
o,1723651447.915816,172.16.5.2,28963,172.16.1.2,5102,9060,10148,2086,64256,65728,6,6,4,1460,212812,1,1092625376,720000,58156,55260,65700,0,7240,0,786060787,63
o,1723651447.916058,172.16.5.2,28963,172.16.1.2,5102,9060,10148,2086,64256,65728,6,6,4,1460,212812,1,1092625376,720000,58156,55260,65700,0,8688,0,786060787,63
i,1723651447.971232,172.16.5.2,28963,172.16.1.2,5102,9060,10148,2086,64256,65728,6,6,4,1460,212812,1,1092625376,720000,58156,58156,65700,0,10136,0,786060787,63
o,1723651447.971560,172.16.5.2,28963,172.16.1.2,5102,9060,10148,2086,65728,65728,6,6,4,1460,216250,1,1092625376,670000,58156,56708,65700,0,8688,0,786060787,63
i,1723651448.023838,172.16.5.2,28963,172.16.1.2,5102,9060,10148,2086,65728,65728,6,6,4,1460,216250,1,1092625376,670000,58156,56708,65700,0,10136,0,786060787,63
o,1723651448.023925,172.16.5.2,28963,172.16.1.2,5102,9060,11608,2086,64256,65728,6,6,4,1460,225625,1,1092625376,690000,58156,53812,65700,0,7240,0,786060787,63
i,1723651448.071906,172.16.5.2,28963,172.16.1.2,5102,9060,11608,2086,64256,65728,6,6,4,1460,225625,1,1092625376,690000,58156,58156,65700,0,11584,0,786060787,63
o,1723651448.071951,172.16.5.2,28963,172.16.1.2,5102,9060,11608,2086,64256,65728,6,6,4,1460,233750,1,1092625376,700000,58156,55260,65700,0,8688,0,786060787,63
i,1723651448.122193,172.16.5.2,28963,172.16.1.2,5102,9060,11608,2086,64256,65728,6,6,4,1460,233750,1,1092625376,700000,58156,58156,65700,0,11584,0,786060787,63
o,1723651448.122322,172.16.5.2,28963,172.16.1.2,5102,9060,11608,2086,65728,65728,6,6,4,1460,230937,1,1092625376,650000,58156,56708,65700,0,10136,0,786060787,63
i,1723651448.184533,172.16.5.2,28963,172.16.1.2,5102,9060,11608,2086,65728,65728,6,6,4,1460,230937,1,1092625376,650000,58156,56708,65700,0,11584,0,786060787,63
o,1723651448.184568,172.16.5.2,28963,172.16.1.2,5102,9060,11608,2086,65728,65728,6,6,4,1460,235937,1,1092625376,640000,58156,55260,65700,0,10136,0,786060787,63
i,1723651448.231905,172.16.5.2,28963,172.16.1.2,5102,9060,11608,2086,65728,65728,6,6,4,1460,235937,1,1092625376,640000,58156,58156,65700,0,11584,0,786060787,63
o,1723651448.231939,172.16.5.2,28963,172.16.1.2,5102,9060,11608,2086,65728,65728,6,6,4,1460,237812,1,1092625376,610000,58156,56708,65700,0,10136,0,786060787,63
i,1723651448.267931,172.16.5.2,28963,172.16.1.2,5102,9060,11608,2086,65728,65728,6,6,4,1460,237812,1,1092625376,610000,58156,56708,65700,0,11584,0,786060787,63
o,1723651448.267966,172.16.5.2,28963,172.16.1.2,5102,9060,11608,2086,64256,65728,6,6,4,1460,239375,1,1092625376,580000,58156,53812,65700,0,8688,0,786060787,63
i,1723651448.331350,172.16.5.2,28963,172.16.1.2,5102,9060,11608,2086,64256,65728,6,6,4,1460,239375,1,1092625376,580000,58156,58156,65700,0,11584,0,786060787,63
o,1723651448.331435,172.16.5.2,28963,172.16.1.2,5102,9060,13068,2086,64256,65728,6,6,4,1460,248437,1,1092625376,620000,58156,55260,65700,0,8688,0,786060787,63
i,1723651448.392281,172.16.5.2,28963,172.16.1.2,5102,9060,13068,2086,64256,65728,6,6,4,1460,248437,1,1092625376,620000,58156,58156,65700,0,13032,0,786060787,63
o,1723651448.392419,172.16.5.2,28963,172.16.1.2,5102,9060,13068,2086,65728,65728,6,6,4,1460,257500,1,1092625376,660000,58156,56708,65700,0,11584,0,786060787,63
i,1723651448.421031,172.16.5.2,28963,172.16.1.2,5102,9060,13068,2086,65728,65728,6,6,4,1460,257500,1,1092625376,660000,58156,56708,65700,0,13032,0,786060787,63
o,1723651448.421117,172.16.5.2,28963,172.16.1.2,5102,9060,13068,2086,65728,65728,6,6,4,1460,261562,1,1092625376,650000,58156,55260,65700,0,11584,0,786060787,63
i,1723651448.516259,172.16.5.2,28963,172.16.1.2,5102,9060,13068,2086,65728,65728,6,6,4,1460,261562,1,1092625376,650000,58156,58156,65700,0,13032,0,786060787,63
o,1723651448.516357,172.16.5.2,28963,172.16.1.2,5102,9060,13068,2086,65728,65728,6,6,4,1460,270312,1,1092625376,680000,58156,56708,65700,0,11584,0,786060787,63
i,1723651448.562570,172.16.5.2,28963,172.16.1.2,5102,9060,13068,2086,65728,65728,6,6,4,1460,270312,1,1092625376,680000,58156,56708,65700,0,13032,0,786060787,63
o,1723651448.562636,172.16.5.2,28963,172.16.1.2,5102,9060,13068,2086,65728,65728,6,6,4,1460,277812,1,1092625376,690000,58156,55260,65700,0,11584,0,786060787,63
i,1723651448.685582,172.16.5.2,28963,172.16.1.2,5102,9060,13068,2086,65728,65728,6,6,4,1460,277812,1,1092625376,690000,58156,58156,65700,0,13032,0,786060787,63
o,1723651448.685673,172.16.5.2,28963,172.16.1.2,5102,9060,13068,2086,65728,65728,6,6,4,1460,294375,1,1092625376,790000,58156,56708,65700,0,11584,0,786060787,63
i,1723651448.725047,172.16.5.2,28963,172.16.1.2,5102,9060,13068,2086,65728,65728,6,6,4,1460,294375,1,1092625376,790000,58156,56708,65700,0,13032,0,786060787,63
o,1723651448.725170,172.16.5.2,28963,172.16.1.2,5102,9060,13068,2086,64256,65728,6,6,4,1460,314062,1,1092625376,890000,58156,53812,65700,0,10136,0,786060787,63
i,1723651448.815780,172.16.5.2,28963,172.16.1.2,5102,9060,13068,2086,64256,65728,6,6,4,1460,314062,1,1092625376,890000,58156,58156,65700,0,13032,0,786060787,63
o,1723651448.815816,172.16.5.2,28963,172.16.1.2,5102,9060,14528,2086,65728,65728,6,6,4,1460,335000,1,1092625376,990000,58156,56708,65700,0,11584,0,786060787,63
i,1723651448.857435,172.16.5.2,28963,172.16.1.2,5102,9060,14528,2086,65728,65728,6,6,4,1460,335000,1,1092625376,990000,58156,56708,65700,0,14480,0,786060787,63
o,1723651448.857658,172.16.5.2,28963,172.16.1.2,5102,9060,14528,2086,65728,65728,6,6,4,1460,358125,1,1092625376,1080000,58156,55260,65700,0,13032,0,786060787,63
i,1723651448.881736,172.16.5.2,28963,172.16.1.2,5102,9060,14528,2086,65728,65728,6,6,4,1460,358125,1,1092625376,1080000,58156,58156,65700,0,14480,0,786060787,63
o,1723651448.881823,172.16.5.2,28963,172.16.1.2,5102,9060,14528,2086,65728,65728,6,6,4,1460,373437,1,1092625376,1090000,58156,56708,65700,0,13032,0,786060787,63
i,1723651448.951113,172.16.5.2,28963,172.16.1.2,5102,9060,14528,2086,65728,65728,6,6,4,1460,373437,1,1092625376,1090000,58156,56708,65700,0,14480,0,786060787,63
o,1723651448.951205,172.16.5.2,28963,172.16.1.2,5102,9060,14528,2086,65728,65728,6,6,4,1460,393125,1,1092625376,1140000,58156,55260,65700,0,13032,0,786060787,63
i,1723651449.071349,172.16.5.2,28963,172.16.1.2,5102,9060,14528,2086,65728,65728,6,6,4,1460,393125,1,1092625376,1140000,58156,58156,65700,0,14480,0,786060787,63
o,1723651449.071466,172.16.5.2,28963,172.16.1.2,5102,9060,14528,2086,64256,65728,6,6,4,1460,414062,1,1092625376,1190000,58156,55260,65700,0,11584,0,786060787,63
i,1723651449.171469,172.16.5.2,28963,172.16.1.2,5102,9060,14528,2086,64256,65728,6,6,4,1460,414062,1,1092625376,1190000,58156,58156,65700,0,14480,0,786060787,63
o,1723651449.171588,172.16.5.2,28963,172.16.1.2,5102,9060,14528,2086,65728,65728,6,6,4,1460,423750,1,1092625376,1130000,58156,56708,65700,0,13032,0,786060787,63
i,1723651449.241292,172.16.5.2,28963,172.16.1.2,5102,9060,14528,2086,65728,65728,6,6,4,1460,423750,1,1092625376,1130000,58156,56708,65700,0,14480,0,786060787,63
i,1723651449.241427,172.16.5.2,28963,172.16.1.2,5102,9060,14528,2086,65728,65728,6,6,4,1460,423750,1,1092625376,1130000,58156,56708,65700,0,14480,0,786060787,63
o,1723651449.241479,172.16.5.2,28963,172.16.1.2,5102,7264,1448,2146,65728,65728,6,6,4,1460,423750,1,1630544864,1130000,58156,56708,65700,0,14480,0,786060787,63
i,1723651449.334437,172.16.5.2,28963,172.16.1.2,5102,7264,1448,2146,65728,65728,6,6,4,1460,423750,1,1630544864,1130000,58156,56708,65700,0,14480,0,786060787,63
o,1723651449.334483,172.16.5.2,28963,172.16.1.2,5102,7264,2896,2146,65728,65728,6,6,4,1460,423750,1,1630544864,1130000,58156,56708,65700,0,14480,0,786060787,63
i,1723651449.341718,172.16.5.2,28963,172.16.1.2,5102,7264,2896,2146,65728,65728,6,6,4,1460,423750,1,1630544864,1130000,58156,56708,65700,0,14480,0,786060787,63
i,1723651449.397241,172.16.5.2,28963,172.16.1.2,5102,7264,2896,2146,65728,65728,6,6,4,1460,423750,1,1613767648,1130000,58156,56708,65700,0,14480,0,786060787,63
o,1723651449.397262,172.16.5.2,28963,172.16.1.2,5102,7264,4344,2082,65728,65728,6,6,4,1460,423750,1,1630544864,1130000,58156,56708,65700,0,14480,0,786060787,63
i,1723651449.437617,172.16.5.2,28963,172.16.1.2,5102,7264,4344,2082,65728,65728,6,6,4,1460,423750,1,1630544864,1130000,58156,56708,65700,0,15928,0,786060787,63
i,1723651449.437652,172.16.5.2,28963,172.16.1.2,5102,7264,4344,2082,65728,65728,6,6,4,1460,423750,1,1630544864,1130000,58156,56708,65700,0,15928,0,786060787,63
i,1723651449.531757,172.16.5.2,28963,172.16.1.2,5102,7264,4344,2082,65728,65728,6,6,4,1460,423750,1,1630544864,1130000,58156,56708,65700,0,15928,0,786060787,63
o,1723651449.531820,172.16.5.2,28963,172.16.1.2,5102,7264,5792,2086,65728,65728,6,6,4,1460,423750,1,1630544864,1130000,58156,56708,65700,0,15928,0,786060787,63
i,1723651449.572643,172.16.5.2,28963,172.16.1.2,5102,7264,5792,2086,65728,65728,6,6,4,1460,423750,1,1630544864,1130000,58156,56708,65700,0,18824,0,786060787,63
o,1723651449.572685,172.16.5.2,28963,172.16.1.2,5102,7264,7240,2082,65728,65728,6,6,4,1460,423750,1,1630544864,1130000,58156,56708,65700,0,18824,0,786060787,63
i,1723651449.682114,172.16.5.2,28963,172.16.1.2,5102,7264,7240,2082,65728,65728,6,6,4,1460,423750,1,1630544864,1130000,58156,56708,65700,0,20272,0,786060787,63
o,1723651449.682146,172.16.5.2,28963,172.16.1.2,5102,7264,8688,2082,65728,65728,6,6,4,1460,423750,1,1630544864,1130000,58156,56708,65700,0,20272,0,786060787,63
i,1723651449.682309,172.16.5.2,28963,172.16.1.2,5102,7264,8688,2082,65728,65728,6,6,4,1460,423750,1,1630544864,1130000,58156,56708,65700,0,21720,0,786060787,63
o,1723651449.682326,172.16.5.2,28963,172.16.1.2,5102,7264,10136,2082,65728,65728,6,6,4,1460,423750,1,1630544864,1130000,58156,56708,65700,0,21720,0,786060787,63
i,1723651449.731780,172.16.5.2,28963,172.16.1.2,5102,7264,10136,2082,65728,65728,6,6,4,1460,423750,1,1630544864,1130000,58156,56708,65700,0,23168,0,786060787,63
o,1723651449.731812,172.16.5.2,28963,172.16.1.2,5102,7264,11584,2082,65728,65728,6,6,4,1460,423750,1,1630544864,1130000,58156,56708,65700,0,23168,0,786060787,63
i,1723651449.821757,172.16.5.2,28963,172.16.1.2,5102,7264,11584,2082,65728,65728,6,6,4,1460,423750,1,1630544864,1130000,58156,56708,65700,0,24616,0,786060787,63
o,1723651449.821757,172.16.5.2,28963,172.16.1.2,5102,7264,13032,2082,65728,65728,6,6,4,1460,423750,1,1630544864,1130000,58156,56708,65700,0,24616,0,786060787,63
i,1723651449.843565,172.16.5.2,28963,172.16.1.2,5102,7264,13032,2082,65728,65728,6,6,4,1460,423750,1,1630544864,1130000,58156,56708,65700,0,26064,0,786060787,63
o,1723651449.843593,172.16.5.2,28963,172.16.1.2,5102,7264,14480,2082,65728,65728,6,6,4,1460,423750,1,1630544864,1130000,58156,56708,65700,0,26064,0,786060787,63
i,1723651449.900183,172.16.5.2,28963,172.16.1.2,5102,7264,14480,2082,65728,65728,6,6,4,1460,423750,1,1630544864,1130000,58156,56708,65700,0,27512,0,786060787,63
o,1723651449.900210,172.16.5.2,28963,172.16.1.2,5102,7264,15928,2082,65728,65728,6,6,4,1460,423750,1,1630544864,1130000,58156,56708,65700,0,27512,0,786060787,63
i,1723651449.992869,172.16.5.2,28963,172.16.1.2,5102,7264,15928,2082,65728,65728,6,6,4,1460,423750,1,1630544864,1130000,58156,56708,65700,0,28960,0,786060787,63
o,1723651449.992917,172.16.5.2,28963,172.16.1.2,5102,7264,17376,2082,65728,65728,6,6,4,1460,423750,1,1630544864,1130000,58156,56708,65700,0,28960,0,786060787,63
i,1723651449.993110,172.16.5.2,28963,172.16.1.2,5102,7264,17376,2082,65728,65728,6,6,4,1460,423750,1,1630544864,1130000,58156,56708,65700,0,30408,0,786060787,63
o,1723651449.993142,172.16.5.2,28963,172.16.1.2,5102,7264,18824,2082,65728,65728,6,6,4,1460,423750,1,1630544864,1130000,58156,56708,65700,0,30408,0,786060787,63
i,1723651450.049698,172.16.5.2,28963,172.16.1.2,5102,7264,18824,2082,65728,65728,6,6,4,1460,423750,1,1630544864,1130000,58156,56708,65700,0,31856,0,786060787,63
o,1723651450.049731,172.16.5.2,28963,172.16.1.2,5102,7264,20272,2082,65728,65728,6,6,4,1460,423750,1,1630544864,1130000,58156,56708,65700,0,31856,0,786060787,63
i,1723651450.172177,172.16.5.2,28963,172.16.1.2,5102,7264,20272,2082,65728,65728,6,6,4,1460,423750,1,1630544864,1130000,58156,56708,65700,0,33304,0,786060787,63
o,1723651450.172316,172.16.5.2,28963,172.16.1.2,5102,7264,21720,2082,65728,65728,6,6,4,1460,423750,1,1630544864,1130000,58156,56708,65700,0,33304,0,786060787,63
i,1723651450.172711,172.16.5.2,28963,172.16.1.2,5102,7264,21720,2082,65728,65728,6,6,4,1460,423750,1,1630544864,1130000,58156,56708,65700,0,34752,0,786060787,63
o,1723651450.172797,172.16.5.2,28963,172.16.1.2,5102,7264,23168,2082,65728,65728,6,6,4,1460,423750,1,1630544864,1130000,66348,56708,65700,0,34752,0,786060787,63
i,1723651450.205473,172.16.5.2,28963,172.16.1.2,5102,7264,23168,2082,65728,65728,6,6,4,1460,423750,1,1630544864,1130000,66348,56708,65700,0,36200,0,786060787,63
o,1723651450.205499,172.16.5.2,28963,172.16.1.2,5102,7264,24616,2082,65728,65728,6,6,4,1460,423750,1,1630544864,1130000,66348,56708,65700,0,36200,0,786060787,63
i,1723651450.334955,172.16.5.2,28963,172.16.1.2,5102,7264,24616,2082,65728,65728,6,6,4,1460,423750,1,1630544864,1130000,66348,56708,65700,0,37648,0,786060787,63
o,1723651450.334994,172.16.5.2,28963,172.16.1.2,5102,7264,26064,2082,65728,65728,6,6,4,1460,423750,1,1630544864,1130000,66348,56708,65700,0,37648,0,786060787,63
i,1723651450.361754,172.16.5.2,28963,172.16.1.2,5102,7264,26064,2082,65728,65728,6,6,4,1460,423750,1,1630544864,1130000,66348,56708,65700,0,39096,0,786060787,63
o,1723651450.361774,172.16.5.2,28963,172.16.1.2,5102,7264,27512,2082,65728,65728,6,6,4,1460,423750,1,1630544864,1130000,66348,56708,65700,0,39096,0,786060787,63
o,1723651450.370040,172.16.5.2,28963,172.16.1.2,5102,13032,1448,2146,65728,65728,6,6,4,1460,423750,1,1092625377,2060000,66348,56708,65700,0,40544,0,786060787,63
i,1723651450.371316,172.16.5.2,28963,172.16.1.2,5102,13032,1448,2146,65728,65728,6,6,4,1460,423750,1,1092625376,2060000,66348,56708,65700,0,40544,0,786060787,63
o,1723651450.371348,172.16.5.2,28963,172.16.1.2,5102,7264,28960,2146,65728,65728,6,6,4,1460,423750,1,1630536672,2060000,66348,56708,65700,0,40544,0,786060787,63
o,1723651450.371475,172.16.5.2,28963,172.16.1.2,5102,7264,28960,2082,65728,65728,6,6,4,1460,423750,1,1630536672,2060000,66348,56708,65700,0,40544,0,786060787,63
i,1723651450.506437,172.16.5.2,28963,172.16.1.2,5102,7264,28960,2082,65728,65728,6,6,4,1460,423750,1,1630536672,2060000,66348,56708,65700,0,41992,0,786060787,63
o,1723651450.506606,172.16.5.2,28963,172.16.1.2,5102,7264,30408,2082,65728,65728,6,6,4,1460,423750,1,1630536672,2060000,66348,56708,65700,0,41992,0,786060787,63
i,1723651450.567205,172.16.5.2,28963,172.16.1.2,5102,7264,30408,2082,65728,65728,6,6,4,1460,423750,1,1630536672,2060000,66348,56708,65700,0,43440,0,786060787,63
o,1723651450.567236,172.16.5.2,28963,172.16.1.2,5102,7264,31856,2082,65728,65728,6,6,4,1460,423750,1,1630536672,2060000,66348,56708,65700,0,43440,0,786060787,63
i,1723651450.598475,172.16.5.2,28963,172.16.1.2,5102,7264,31856,2082,65728,65728,6,6,4,1460,423750,1,1630536672,2060000,66348,56708,65700,0,44888,0,786060787,63
o,1723651450.598512,172.16.5.2,28963,172.16.1.2,5102,7264,5804,2086,25216,65728,6,6,4,1460,398437,1,1092617184,1180000,66348,16164,65700,0,4344,0,786060787,63
i,1723651450.598639,172.16.5.2,28963,172.16.1.2,5102,7264,5804,2086,25216,65728,6,6,4,1460,398437,1,1092617184,1180000,66348,16164,65700,0,5792,0,786060787,63
o,1723651450.598654,172.16.5.2,28963,172.16.1.2,5102,7264,7240,2082,25216,65728,6,6,4,1460,398437,1,1092617184,1180000,66348,16164,65700,0,5792,0,786060787,63
i,1723651450.612961,172.16.5.2,28963,172.16.1.2,5102,7264,5804,2082,25216,65728,6,6,4,1460,398437,1,1092617184,1180000,66348,66348,65700,0,7240,0,786060787,63
i,1723651450.666842,172.16.5.2,28963,172.16.1.2,5102,7264,5804,2082,65728,65728,6,6,4,1460,398437,1,1092617184,1180000,66348,66348,65700,0,7240,0,786060787,63
o,1723651450.666875,172.16.5.2,28963,172.16.1.2,5102,7264,7252,2086,65728,65728,6,6,4,1460,383750,1,1092617184,1140000,66348,64900,65700,0,5792,0,786060787,63
i,1723651450.782479,172.16.5.2,28963,172.16.1.2,5102,7264,7252,2086,65728,65728,6,6,4,1460,383750,1,1092617184,1140000,66348,64900,65700,0,7240,0,786060787,63
o,1723651450.782515,172.16.5.2,28963,172.16.1.2,5102,7264,10148,2086,64256,65728,6,6,4,1460,369687,1,1092617184,1100000,66348,62004,65700,0,4344,0,786060787,63
i,1723651450.834624,172.16.5.2,28963,172.16.1.2,5102,7264,10148,2086,64256,65728,6,6,4,1460,369687,1,1092617184,1100000,66348,66348,65700,0,10136,0,786060787,63
o,1723651450.834739,172.16.5.2,28963,172.16.1.2,5102,7264,10148,2086,64256,65728,6,6,4,1460,351250,1,1092617184,1090000,66348,63452,65700,0,7240,0,786060787,63
o,1723651450.834891,172.16.5.2,28963,172.16.1.2,5102,7264,10148,2086,64256,65728,6,6,4,1460,351250,1,1092617184,1090000,66348,63452,65700,0,8688,0,786060787,63
i,1723651450.913725,172.16.5.2,28963,172.16.1.2,5102,7264,10148,2086,64256,65728,6,6,4,1460,351250,1,1092617184,1090000,66348,66348,65700,0,10136,0,786060787,63
o,1723651450.913857,172.16.5.2,28963,172.16.1.2,5102,7264,10148,2086,65728,65728,6,6,4,1460,338750,1,1092617184,1050000,66348,64900,65700,0,8688,0,786060787,63
i,1723651451.000004,172.16.5.2,28963,172.16.1.2,5102,7264,10148,2086,65728,65728,6,6,4,1460,338750,1,1092617184,1050000,66348,64900,65700,0,10136,0,786060787,63
o,1723651451.000060,172.16.5.2,28963,172.16.1.2,5102,7264,10148,2086,64256,65728,6,6,4,1460,324062,1,1092617184,1020000,66348,62004,65700,0,7240,0,786060787,63
i,1723651451.052697,172.16.5.2,28963,172.16.1.2,5102,7264,10148,2086,64256,65728,6,6,4,1460,324062,1,1092617184,1020000,66348,66348,65700,0,10136,0,786060787,63
o,1723651451.052735,172.16.5.2,28963,172.16.1.2,5102,7264,10148,2086,65728,65728,6,6,4,1460,317500,1,1092617184,940000,66348,64900,65700,0,8688,0,786060787,63
i,1723651451.084836,172.16.5.2,28963,172.16.1.2,5102,7264,10148,2086,65728,65728,6,6,4,1460,317500,1,1092617184,940000,66348,64900,65700,0,10136,0,786060787,63
o,1723651451.084928,172.16.5.2,28963,172.16.1.2,5102,7264,10148,2086,65728,65728,6,6,4,1460,315312,1,1092617184,850000,66348,63452,65700,0,8688,0,786060787,63
i,1723651451.116409,172.16.5.2,28963,172.16.1.2,5102,7264,10148,2086,65728,65728,6,6,4,1460,315312,1,1092617184,850000,66348,66348,65700,0,10136,0,786060787,63
o,1723651451.116489,172.16.5.2,28963,172.16.1.2,5102,7264,11608,2086,64256,65728,6,6,4,1460,310937,1,1092617184,800000,66348,63452,65700,0,7240,0,786060787,63
o,1723651451.116642,172.16.5.2,28963,172.16.1.2,5102,7264,11608,2086,64256,65728,6,6,4,1460,310937,1,1092617184,800000,66348,63452,65700,0,8688,0,786060787,63
i,1723651451.189470,172.16.5.2,28963,172.16.1.2,5102,7264,11608,2086,64256,65728,6,6,4,1460,310937,1,1092617184,800000,66348,66348,65700,0,11584,0,786060787,63
o,1723651451.189501,172.16.5.2,28963,172.16.1.2,5102,7264,11608,2086,65728,65728,6,6,4,1460,307187,1,1092617184,750000,66348,64900,65700,0,10136,0,786060787,63
i,1723651451.281268,172.16.5.2,28963,172.16.1.2,5102,7264,11608,2086,65728,65728,6,6,4,1460,307187,1,1092617184,750000,66348,64900,65700,0,11584,0,786060787,63
o,1723651451.281361,172.16.5.2,28963,172.16.1.2,5102,7264,11608,2086,65728,65728,6,6,4,1460,302812,1,1092617184,720000,66348,63452,65700,0,10136,0,786060787,63
i,1723651451.375548,172.16.5.2,28963,172.16.1.2,5102,7264,11608,2086,65728,65728,6,6,4,1460,302812,1,1092617184,720000,66348,66348,65700,0,11584,0,786060787,63
o,1723651451.375583,172.16.5.2,28963,172.16.1.2,5102,7264,11608,2086,65728,65728,6,6,4,1460,311250,1,1092617184,740000,66348,64900,65700,0,10136,0,786060787,63
i,1723651451.472462,172.16.5.2,28963,172.16.1.2,5102,7264,11608,2086,65728,65728,6,6,4,1460,311250,1,1092617184,740000,66348,64900,65700,0,11584,0,786060787,63
o,1723651451.472494,172.16.5.2,28963,172.16.1.2,5102,7264,11608,2086,65728,65728,6,6,4,1460,325000,1,1092617184,810000,66348,63452,65700,0,10136,0,786060787,63
i,1723651451.502338,172.16.5.2,28963,172.16.1.2,5102,7264,11608,2086,65728,65728,6,6,4,1460,325000,1,1092617184,810000,66348,66348,65700,0,11584,0,786060787,63
o,1723651451.502414,172.16.5.2,28963,172.16.1.2,5102,7264,11608,2086,64256,65728,6,6,4,1460,336875,1,1092617184,840000,66348,63452,65700,0,8688,0,786060787,63
o,1723651451.502527,172.16.5.2,28963,172.16.1.2,5102,7264,11608,2086,64256,65728,6,6,4,1460,336875,1,1092617184,840000,66348,63452,65700,0,10136,0,786060787,63
i,1723651451.552342,172.16.5.2,28963,172.16.1.2,5102,7264,11608,2086,64256,65728,6,6,4,1460,336875,1,1092617184,840000,66348,66348,65700,0,11584,0,786060787,63
o,1723651451.552423,172.16.5.2,28963,172.16.1.2,5102,7264,13068,2086,65728,65728,6,6,4,1460,350000,1,1092617184,890000,66348,64900,65700,0,10136,0,786060787,63
i,1723651451.603633,172.16.5.2,28963,172.16.1.2,5102,7264,13068,2086,65728,65728,6,6,4,1460,350000,1,1092617184,890000,66348,64900,65700,0,13032,0,786060787,63
o,1723651451.603712,172.16.5.2,28963,172.16.1.2,5102,7264,13068,2086,65728,65728,6,6,4,1460,366250,1,1092617184,950000,66348,63452,65700,0,11584,0,786060787,63
i,1723651451.665781,172.16.5.2,28963,172.16.1.2,5102,7264,13068,2086,65728,65728,6,6,4,1460,366250,1,1092617184,950000,66348,66348,65700,0,13032,0,786060787,63
o,1723651451.665828,172.16.5.2,28963,172.16.1.2,5102,7264,13068,2086,65728,65728,6,6,4,1460,379375,1,1092617184,970000,66348,64900,65700,0,11584,0,786060787,63
i,1723651451.727604,172.16.5.2,28963,172.16.1.2,5102,7264,13068,2086,65728,65728,6,6,4,1460,379375,1,1092617184,970000,66348,64900,65700,0,13032,0,786060787,63
o,1723651451.727634,172.16.5.2,28963,172.16.1.2,5102,7264,14480,2082,65728,65728,6,6,4,1460,379375,1,1092617184,970000,66348,64900,65700,0,13032,0,786060787,63
i,1723651451.792110,172.16.5.2,28963,172.16.1.2,5102,7264,13068,2082,65728,65728,6,6,4,1460,379375,1,1092617184,970000,66348,64900,65700,0,14480,0,786060787,63
o,1723651451.792141,172.16.5.2,28963,172.16.1.2,5102,7264,15928,2082,65728,65728,6,6,4,1460,379375,1,1092617184,970000,66348,64900,65700,0,14480,0,786060787,63
i,1723651451.842168,172.16.5.2,28963,172.16.1.2,5102,7264,13068,2082,65728,65728,6,6,4,1460,379375,1,1092617184,970000,66348,64900,65700,0,15928,0,786060787,63
o,1723651451.842277,172.16.5.2,28963,172.16.1.2,5102,6534,1448,2146,65728,65728,6,6,4,1460,379375,1,1630536672,970000,66348,64900,65700,0,15928,0,786060787,63
i,1723651451.903083,172.16.5.2,28963,172.16.1.2,5102,6534,1448,2146,65728,65728,6,6,4,1460,379375,1,1630536672,970000,66348,64900,65700,0,15928,0,786060787,63
i,1723651451.924291,172.16.5.2,28963,172.16.1.2,5102,6534,1448,2146,65728,65728,6,6,4,1460,379375,1,1613759456,970000,66348,64900,65700,0,15928,0,786060787,63
