enable_time_secs=1723651611	enable_time_usecs=816977	siftrver=1.3.0	sysname=FreeBSD	sysver=1401000	ipmode=4
o,1723651611.817337,10.0.2.15,22,10.0.2.2,50572,1073725440,17746,1026,65535,65700,0,0,4,1460,312,0,16777220,240000,33580,172,65700,0,0,0,4095104832,63
i,1723651611.817752,10.0.2.15,22,10.0.2.2,50572,1073725440,17746,1026,65535,65700,0,0,4,1460,312,0,16777220,240000,33580,172,65700,0,172,0,4095104832,63
o,1723651611.817939,10.0.2.15,22,10.0.2.2,50572,1073725440,17918,1026,65535,65700,0,0,4,1460,312,0,16777220,240000,33580,72,65700,0,0,0,4095104832,63
i,1723651611.818482,10.0.2.15,22,10.0.2.2,50572,1073725440,17918,1026,65535,65700,0,0,4,1460,312,0,16777220,240000,33580,72,65700,0,72,0,4095104832,63
i,1723651611.818513,10.0.2.15,22,10.0.2.2,50572,1073725440,17990,1026,65535,65700,0,0,4,1460,312,0,4,240000,33580,0,65700,0,0,0,4095104832,63
i,1723651611.818528,10.0.2.15,22,10.0.2.2,50572,1073725440,17990,1026,65535,65700,0,0,4,1460,312,0,4,240000,33580,0,65700,96,0,0,4095104832,63
o,1723651611.818544,10.0.2.15,22,10.0.2.2,50572,1073725440,17990,1026,65535,65604,0,0,5,1460,312,0,5,240000,33580,0,65700,96,0,0,4095104832,63
o,1723651611.819091,10.0.2.15,22,10.0.2.2,50572,1073725440,17990,1026,65535,65604,0,0,8,1460,312,0,4,240000,33580,0,65700,0,0,0,4095104832,63
i,1723651611.819613,10.0.2.15,22,10.0.2.2,50572,1073725440,17990,1026,65535,65604,0,0,8,1460,312,0,67108884,240000,33580,0,65700,0,1,0,4095104832,63
i,1723651615.018053,10.0.2.15,22,10.0.2.2,50586,1073725440,14600,0,65535,65700,0,0,4,1460,312,0,16777216,270000,33580,0,65700,0,0,0,3868711207,63
o,1723651615.027749,10.0.2.15,22,10.0.2.2,50586,1073725440,14600,1026,65535,65700,0,0,4,1460,312,0,16777216,270000,33580,38,65700,42,0,0,3868711207,63
i,1723651615.028379,10.0.2.15,22,10.0.2.2,50586,1073725440,14600,1026,65535,65700,0,0,4,1460,312,0,16777216,270000,33580,38,65700,0,38,0,3868711207,63
i,1723651615.028983,10.0.2.15,22,10.0.2.2,50586,1073725440,14638,1026,65535,65700,0,0,4,1460,312,0,0,240000,33580,0,65700,0,0,0,3868711207,63
i,1723651615.029000,10.0.2.15,22,10.0.2.2,50586,1073725440,14638,1026,65535,65700,0,0,4,1460,312,0,0,240000,33580,0,65700,1460,0,0,3868711207,63
o,1723651615.029018,10.0.2.15,22,10.0.2.2,50586,1073725440,14638,1026,65535,65700,0,0,4,1460,312,0,1,240000,33580,0,65700,1536,0,0,3868711207,63
o,1723651615.029832,10.0.2.15,22,10.0.2.2,50586,1073725440,14638,1026,65535,65700,0,0,4,1460,312,0,16777216,240000,33580,1120,65700,1536,0,0,3868711207,63
i,1723651615.030669,10.0.2.15,22,10.0.2.2,50586,1073725440,14638,1026,65535,65700,0,0,4,1460,312,0,16777216,240000,33580,1120,65700,0,1120,0,3868711207,63
i,1723651615.031569,10.0.2.15,22,10.0.2.2,50586,1073725440,15758,1026,65535,65700,0,0,4,1460,312,0,0,240000,33580,0,65700,0,0,0,3868711207,63
o,1723651615.034131,10.0.2.15,22,10.0.2.2,50586,1073725440,15758,1026,65535,65700,0,0,4,1460,312,0,16777216,240000,33580,492,65700,0,0,0,3868711207,63
i,1723651615.034795,10.0.2.15,22,10.0.2.2,50586,1073725440,15758,1026,65535,65700,0,0,4,1460,312,0,16777216,240000,33580,492,65700,0,492,0,3868711207,63
i,1723651615.039096,10.0.2.15,22,10.0.2.2,50586,1073725440,16250,1026,65535,65700,0,0,4,1460,312,0,0,240000,33580,0,65700,0,0,0,3868711207,63
i,1723651615.039129,10.0.2.15,22,10.0.2.2,50586,1073725440,16250,1026,65535,65700,0,0,4,1460,312,0,0,240000,33580,0,65700,16,0,0,3868711207,63
o,1723651615.039173,10.0.2.15,22,10.0.2.2,50586,1073725440,16250,1026,65535,65700,0,0,4,1460,312,0,1,240000,33580,0,65700,60,0,0,3868711207,63
o,1723651615.039400,10.0.2.15,22,10.0.2.2,50586,1073725440,16250,1026,65535,65700,0,0,4,1460,312,0,16777216,240000,33580,44,65700,0,0,0,3868711207,63
i,1723651615.040047,10.0.2.15,22,10.0.2.2,50586,1073725440,16250,1026,65535,65700,0,0,4,1460,312,0,16777216,240000,33580,44,65700,0,44,0,3868711207,63
i,1723651615.040075,10.0.2.15,22,10.0.2.2,50586,1073725440,16294,1026,65535,65700,0,0,4,1460,312,0,0,240000,33580,0,65700,0,0,0,3868711207,63
o,1723651615.041416,10.0.2.15,22,10.0.2.2,50586,1073725440,16294,1026,65535,65700,0,0,4,1460,312,0,16777216,240000,33580,68,65700,0,0,0,3868711207,63
i,1723651615.041843,10.0.2.15,22,10.0.2.2,50586,1073725440,16294,1026,65535,65700,0,0,4,1460,312,0,16777216,240000,33580,68,65700,0,68,0,3868711207,63
i,1723651615.041861,10.0.2.15,22,10.0.2.2,50586,1073725440,16362,1026,65535,65700,0,0,4,1460,312,0,0,240000,33580,0,65700,0,0,0,3868711207,63
o,1723651615.043027,10.0.2.15,22,10.0.2.2,50586,1073725440,16362,1026,65535,65700,0,0,4,1460,312,0,16777216,240000,33580,332,65700,0,0,0,3868711207,63
i,1723651615.043589,10.0.2.15,22,10.0.2.2,50586,1073725440,16362,1026,65535,65700,0,0,4,1460,312,0,16777216,240000,33580,332,65700,0,332,0,3868711207,63
i,1723651615.045051,10.0.2.15,22,10.0.2.2,50586,1073725440,16694,1026,65535,65700,0,0,4,1460,312,0,0,240000,33580,0,65700,0,0,0,3868711207,63
o,1723651615.064173,10.0.2.15,22,10.0.2.2,50586,1073725440,16694,1026,65535,65700,0,0,4,1460,312,0,16777216,240000,33580,28,65700,0,0,0,3868711207,63
i,1723651615.064938,10.0.2.15,22,10.0.2.2,50586,1073725440,16694,1026,65535,65700,0,0,4,1460,312,0,16777216,240000,33580,28,65700,0,28,0,3868711207,63
i,1723651615.065019,10.0.2.15,22,10.0.2.2,50586,1073725440,16722,1026,65535,65700,0,0,4,1460,312,0,0,240000,33580,0,65700,0,0,0,3868711207,63
o,1723651615.066466,10.0.2.15,22,10.0.2.2,50586,1073725440,16722,1026,65535,65700,0,0,4,1460,312,0,16777216,240000,33580,768,65700,112,0,0,3868711207,63
i,1723651615.067295,10.0.2.15,22,10.0.2.2,50586,1073725440,16722,1026,65535,65700,0,0,4,1460,312,0,16777216,240000,33580,908,65700,112,768,0,3868711207,63
o,1723651615.067314,10.0.2.15,22,10.0.2.2,50586,1073725440,17490,1026,65535,65700,0,0,4,1460,312,0,16777216,240000,33580,140,65700,112,0,0,3868711207,63
i,1723651615.067791,10.0.2.15,22,10.0.2.2,50586,1073725440,17490,1026,65535,65700,0,0,4,1460,312,0,16777216,240000,33580,140,65700,112,140,0,3868711207,63
o,1723651615.068025,10.0.2.15,22,10.0.2.2,50586,1073725440,17630,1026,65535,65700,0,0,4,1460,312,0,16777216,240000,33580,44,65700,0,0,0,3868711207,63
i,1723651615.068597,10.0.2.15,22,10.0.2.2,50586,1073725440,17630,1026,65535,65700,0,0,4,1460,312,0,16777216,240000,33580,44,65700,0,44,0,3868711207,63
i,1723651615.068613,10.0.2.15,22,10.0.2.2,50586,1073725440,17674,1026,65535,65700,0,0,4,1460,312,0,0,240000,33580,0,65700,0,0,0,3868711207,63
o,1723651615.069082,10.0.2.15,22,10.0.2.2,50586,1073725440,17674,1026,65535,65700,0,0,4,1460,312,0,16777220,240000,33580,72,65700,0,0,0,3868711207,63
i,1723651615.069469,10.0.2.15,22,10.0.2.2,50586,1073725440,17674,1026,65535,65700,0,0,4,1460,312,0,16777220,240000,33580,72,65700,0,72,0,3868711207,63
o,1723651615.071728,10.0.2.15,22,10.0.2.2,50586,1073725440,17746,1026,65535,65700,0,0,4,1460,312,0,16777220,240000,33580,104,65700,0,0,0,3868711207,63
i,1723651615.072122,10.0.2.15,22,10.0.2.2,50586,1073725440,17746,1026,65535,65700,0,0,4,1460,312,0,16777220,240000,33580,104,65700,0,104,0,3868711207,63
o,1723651615.081190,10.0.2.15,22,10.0.2.2,50586,1073725440,17850,1026,65535,65700,0,0,4,1460,312,0,16777220,240000,33580,72,65700,0,0,0,3868711207,63
i,1723651615.081555,10.0.2.15,22,10.0.2.2,50586,1073725440,17850,1026,65535,65700,0,0,4,1460,312,0,16777220,240000,33580,72,65700,0,72,0,3868711207,63
i,1723651615.082257,10.0.2.15,22,10.0.2.2,50586,1073725440,17922,1026,65535,65700,0,0,4,1460,312,0,4,240000,33580,0,65700,0,0,0,3868711207,63
i,1723651615.082273,10.0.2.15,22,10.0.2.2,50586,1073725440,17922,1026,65535,65700,0,0,4,1460,312,0,4,240000,33580,0,65700,96,0,0,3868711207,63
o,1723651615.082289,10.0.2.15,22,10.0.2.2,50586,1073725440,17922,1026,65535,65604,0,0,5,1460,312,0,5,240000,33580,0,65700,96,0,0,3868711207,63
o,1723651615.090658,10.0.2.15,22,10.0.2.2,50586,1073725440,17922,1026,65535,65604,0,0,8,1460,312,0,4,240000,33580,0,65700,0,0,0,3868711207,63
i,1723651615.091786,10.0.2.15,22,10.0.2.2,50586,1073725440,17922,1026,65535,65604,0,0,8,1460,312,0,67108884,240000,33580,0,65700,0,1,0,3868711207,63
i,1723651616.172746,10.0.2.15,22,10.0.2.2,50558,1073725440,14600,0,65535,65700,0,0,4,1460,312,0,16777216,270000,33580,0,65700,0,0,0,4230595199,63
o,1723651616.185107,10.0.2.15,22,10.0.2.2,50558,1073725440,14600,1026,65535,65700,0,0,4,1460,312,0,16777216,270000,33580,38,65700,42,0,0,4230595199,63
i,1723651616.185686,10.0.2.15,22,10.0.2.2,50558,1073725440,14600,1026,65535,65700,0,0,4,1460,312,0,16777216,270000,33580,38,65700,0,38,0,4230595199,63
i,1723651616.185786,10.0.2.15,22,10.0.2.2,50558,1073725440,14638,1026,65535,65700,0,0,4,1460,312,0,0,240000,33580,0,65700,0,0,0,4230595199,63
i,1723651616.185786,10.0.2.15,22,10.0.2.2,50558,1073725440,14638,1026,65535,65700,0,0,4,1460,312,0,0,240000,33580,0,65700,1460,0,0,4230595199,63
o,1723651616.185786,10.0.2.15,22,10.0.2.2,50558,1073725440,14638,1026,65535,65700,0,0,4,1460,312,0,1,240000,33580,0,65700,1536,0,0,4230595199,63
o,1723651616.185786,10.0.2.15,22,10.0.2.2,50558,1073725440,14638,1026,65535,65700,0,0,4,1460,312,0,16777216,240000,33580,1120,65700,1536,0,0,4230595199,63
i,1723651616.187860,10.0.2.15,22,10.0.2.2,50558,1073725440,14638,1026,65535,65700,0,0,4,1460,312,0,16777216,240000,33580,1120,65700,0,1120,0,4230595199,63
i,1723651616.188858,10.0.2.15,22,10.0.2.2,50558,1073725440,15758,1026,65535,65700,0,0,4,1460,312,0,0,230000,33580,0,65700,0,0,0,4230595199,63
o,1723651616.191948,10.0.2.15,22,10.0.2.2,50558,1073725440,15758,1026,65535,65700,0,0,4,1460,312,0,16777216,230000,33580,492,65700,0,0,0,4230595199,63
i,1723651616.192920,10.0.2.15,22,10.0.2.2,50558,1073725440,15758,1026,65535,65700,0,0,4,1460,312,0,16777216,230000,33580,492,65700,0,492,0,4230595199,63
i,1723651616.197041,10.0.2.15,22,10.0.2.2,50558,1073725440,16250,1026,65535,65700,0,0,4,1460,312,0,0,230000,33580,0,65700,0,0,0,4230595199,63
i,1723651616.197060,10.0.2.15,22,10.0.2.2,50558,1073725440,16250,1026,65535,65700,0,0,4,1460,312,0,0,230000,33580,0,65700,16,0,0,4230595199,63
o,1723651616.197077,10.0.2.15,22,10.0.2.2,50558,1073725440,16250,1026,65535,65700,0,0,4,1460,312,0,1,230000,33580,0,65700,60,0,0,4230595199,63
o,1723651616.197302,10.0.2.15,22,10.0.2.2,50558,1073725440,16250,1026,65535,65700,0,0,4,1460,312,0,16777216,230000,33580,44,65700,0,0,0,4230595199,63
i,1723651616.197653,10.0.2.15,22,10.0.2.2,50558,1073725440,16250,1026,65535,65700,0,0,4,1460,312,0,16777216,230000,33580,44,65700,0,44,0,4230595199,63
i,1723651616.197670,10.0.2.15,22,10.0.2.2,50558,1073725440,16294,1026,65535,65700,0,0,4,1460,312,0,0,230000,33580,0,65700,0,0,0,4230595199,63
o,1723651616.198705,10.0.2.15,22,10.0.2.2,50558,1073725440,16294,1026,65535,65700,0,0,4,1460,312,0,16777216,230000,33580,68,65700,0,0,0,4230595199,63
i,1723651616.199120,10.0.2.15,22,10.0.2.2,50558,1073725440,16294,1026,65535,65700,0,0,4,1460,312,0,16777216,230000,33580,68,65700,0,68,0,4230595199,63
i,1723651616.199139,10.0.2.15,22,10.0.2.2,50558,1073725440,16362,1026,65535,65700,0,0,4,1460,312,0,0,230000,33580,0,65700,0,0,0,4230595199,63
o,1723651616.200440,10.0.2.15,22,10.0.2.2,50558,1073725440,16362,1026,65535,65700,0,0,4,1460,312,0,16777216,230000,33580,332,65700,0,0,0,4230595199,63
i,1723651616.200896,10.0.2.15,22,10.0.2.2,50558,1073725440,16362,1026,65535,65700,0,0,4,1460,312,0,16777216,230000,33580,332,65700,0,332,0,4230595199,63
i,1723651616.202758,10.0.2.15,22,10.0.2.2,50558,1073725440,16694,1026,65535,65700,0,0,4,1460,312,0,0,240000,33580,0,65700,0,0,0,4230595199,63
o,1723651616.225737,10.0.2.15,22,10.0.2.2,50558,1073725440,16694,1026,65535,65700,0,0,4,1460,312,0,16777216,240000,33580,28,65700,0,0,0,4230595199,63
i,1723651616.227623,10.0.2.15,22,10.0.2.2,50558,1073725440,16694,1026,65535,65700,0,0,4,1460,312,0,16777216,240000,33580,28,65700,0,28,0,4230595199,63
i,1723651616.227643,10.0.2.15,22,10.0.2.2,50558,1073725440,16722,1026,65535,65700,0,0,4,1460,312,0,0,230000,33580,0,65700,0,0,0,4230595199,63
o,1723651616.228442,10.0.2.15,22,10.0.2.2,50558,1073725440,16722,1026,65535,65700,0,0,4,1460,312,0,16777216,230000,33580,768,65700,112,0,0,4230595199,63
i,1723651616.228785,10.0.2.15,22,10.0.2.2,50558,1073725440,16722,1026,65535,65700,0,0,4,1460,312,0,16777216,230000,33580,908,65700,112,768,0,4230595199,63
o,1723651616.228802,10.0.2.15,22,10.0.2.2,50558,1073725440,17490,1026,65535,65700,0,0,4,1460,312,0,16777216,230000,33580,140,65700,112,0,0,4230595199,63
i,1723651616.229166,10.0.2.15,22,10.0.2.2,50558,1073725440,17490,1026,65535,65700,0,0,4,1460,312,0,16777216,230000,33580,140,65700,0,140,0,4230595199,63
o,1723651616.229275,10.0.2.15,22,10.0.2.2,50558,1073725440,17630,1026,65535,65700,0,0,4,1460,312,0,16777216,230000,33580,44,65700,0,0,0,4230595199,63
i,1723651616.229789,10.0.2.15,22,10.0.2.2,50558,1073725440,17630,1026,65535,65700,0,0,4,1460,312,0,16777216,230000,33580,44,65700,0,44,0,4230595199,63
i,1723651616.230434,10.0.2.15,22,10.0.2.2,50558,1073725440,17674,1026,65535,65700,0,0,4,1460,312,0,0,230000,33580,0,65700,0,0,0,4230595199,63
o,1723651616.231108,10.0.2.15,22,10.0.2.2,50558,1073725440,17674,1026,65535,65700,0,0,4,1460,312,0,16777220,230000,33580,72,65700,0,0,0,4230595199,63
i,1723651616.232010,10.0.2.15,22,10.0.2.2,50558,1073725440,17674,1026,65535,65700,0,0,4,1460,312,0,16777220,230000,33580,72,65700,0,72,0,4230595199,63
o,1723651616.352870,172.16.5.2,44174,172.16.1.2,5102,12108,14480,2082,65535,65700,6,6,4,1460,165312,1,16778209,520000,33580,0,65700,0,0,0,2425711697,63
o,1723651616.353064,172.16.5.2,44174,172.16.1.2,5102,12108,14480,2082,65535,65700,6,6,4,1460,165312,1,16778212,520000,33580,37,65700,0,0,0,2425711697,63
i,1723651616.478239,172.16.5.2,44174,172.16.1.2,5102,12108,14480,2082,65535,65700,6,6,4,1460,165312,1,16778212,520000,33580,37,65700,0,37,0,2425711697,63
o,1723651616.478593,172.16.5.2,44174,172.16.1.2,5102,12108,14480,3106,65728,65728,6,6,4,1460,159687,1,16778212,520000,33580,4,65700,0,0,0,2425711697,63
o,1723651616.478726,172.16.5.2,44174,172.16.1.2,5102,12108,14480,3106,65728,65728,6,6,4,1460,159687,1,16778212,520000,33580,130,65700,0,4,0,2425711697,63
i,1723651616.593226,172.16.5.2,44174,172.16.1.2,5102,12108,14480,3106,65728,65728,6,6,4,1460,159687,1,16778212,520000,33580,130,65700,0,130,0,2425711697,63
i,1723651616.593285,172.16.5.2,44174,172.16.1.2,5102,12108,14480,3106,65600,65728,6,6,4,1460,153750,1,996,520000,33580,0,65700,0,0,0,2425711697,63
o,1723651616.688407,172.16.5.2,44174,172.16.1.2,5102,12108,14480,3106,65728,65728,6,6,4,1460,153750,1,997,520000,33580,0,65700,0,0,0,2425711697,63
o,1723651616.713276,172.16.5.2,38312,172.16.1.2,5102,12108,14480,2082,65535,65700,6,6,4,1460,165312,1,16778209,520000,33580,0,65700,0,0,0,2326532521,63
o,1723651616.713460,172.16.5.2,38312,172.16.1.2,5102,12108,14480,2082,65535,65700,6,6,4,1460,165312,1,16778208,520000,33580,37,65700,0,0,0,2326532521,63
i,1723651616.834616,172.16.5.2,44174,172.16.1.2,5102,12108,14480,3106,65728,65728,6,6,4,1460,153750,1,996,520000,33580,0,65700,0,0,0,2425711697,63
i,1723651616.834657,172.16.5.2,44174,172.16.1.2,5102,12108,14480,3106,65728,65728,6,6,4,1460,153750,1,996,520000,33580,0,65700,1,0,0,2425711697,63
o,1723651616.834675,172.16.5.2,44174,172.16.1.2,5102,12108,14480,3106,65728,65728,6,6,4,1460,153750,1,997,520000,33580,0,65700,2,0,0,2425711697,63
o,1723651616.835183,172.16.5.2,38312,172.16.1.2,5102,12108,14480,2086,65535,65700,6,6,4,1460,165312,1,16778208,520000,33580,33580,65700,0,37,0,2326532521,63
i,1723651616.862112,172.16.5.2,38312,172.16.1.2,5102,12108,14480,2086,65535,65700,6,6,4,1460,165312,1,16778208,520000,33580,33580,65700,0,13069,0,2326532521,63
o,1723651616.862197,172.16.5.2,38312,172.16.1.2,5102,12108,14480,2082,65728,65728,6,6,4,1460,163437,1,16778208,500000,33580,33543,65700,0,13032,0,2326532521,63
i,1723651616.926582,172.16.5.2,38312,172.16.1.2,5102,12108,14480,2082,65728,65728,6,6,4,1460,163437,1,16778208,500000,33580,33543,65700,0,14480,0,2326532521,63
o,1723651616.926657,172.16.5.2,38312,172.16.1.2,5102,12108,14480,2086,62848,65728,6,6,4,1460,154375,1,16778208,530000,33580,30647,65700,0,11584,0,2326532521,63
i,1723651616.957858,172.16.5.2,38312,172.16.1.2,5102,12108,14480,2086,62848,65728,6,6,4,1460,154375,1,16778208,530000,33580,33580,65700,0,14480,0,2326532521,63
o,1723651616.957883,172.16.5.2,38312,172.16.1.2,5102,12108,14480,2086,64256,65728,6,6,4,1460,151562,1,16778208,500000,33580,30684,65700,0,11584,0,2326532521,63
i,1723651616.958050,172.16.5.2,38312,172.16.1.2,5102,12108,14480,2086,64256,65728,6,6,4,1460,151562,1,16778208,500000,33580,30684,65700,0,14480,0,2326532521,63
o,1723651616.958073,172.16.5.2,38312,172.16.1.2,5102,12108,14480,2086,61376,65728,6,6,4,1460,149062,1,16778208,480000,33580,27788,65700,0,11584,0,2326532521,63
i,1723651616.959452,172.16.5.2,38312,172.16.1.2,5102,12108,14480,2086,61376,65728,6,6,4,1460,149062,1,16778208,480000,33580,27788,65700,0,14480,0,2326532521,63
o,1723651616.959469,172.16.5.2,38312,172.16.1.2,5102,12108,14480,2086,62848,65728,6,6,4,1460,146875,1,16778208,460000,33580,24892,65700,0,11584,0,2326532521,63
i,1723651616.982069,172.16.5.2,38312,172.16.1.2,5102,12108,14480,2086,62848,65728,6,6,4,1460,146875,1,16778208,460000,33580,33580,65700,0,14480,0,2326532521,63
o,1723651616.982157,172.16.5.2,38312,172.16.1.2,5102,12108,15940,2086,64256,65728,6,6,4,1460,147500,1,16778208,440000,33580,30684,65700,0,11584,0,2326532521,63
o,1723651616.982286,172.16.5.2,38312,172.16.1.2,5102,12108,15940,2086,64256,65728,6,6,4,1460,147500,1,16778208,440000,33580,30684,65700,0,13032,0,2326532521,63
i,1723651617.042117,172.16.5.2,38312,172.16.1.2,5102,12108,15940,2086,64256,65728,6,6,4,1460,147500,1,16778208,440000,41772,41772,65700,0,15928,0,2326532521,63
o,1723651617.042251,172.16.5.2,38312,172.16.1.2,5102,12108,15940,2086,62848,65728,6,6,4,1460,144062,1,16778208,440000,41772,38876,65700,0,13032,0,2326532521,63
i,1723651617.064719,172.16.5.2,38312,172.16.1.2,5102,12108,15940,2086,62848,65728,6,6,4,1460,144062,1,16778208,440000,41772,41772,65700,0,15928,0,2326532521,63
o,1723651617.064740,172.16.5.2,38312,172.16.1.2,5102,12108,15940,2086,62848,65728,6,6,4,1460,138750,1,16778208,450000,41772,38876,65700,0,13032,0,2326532521,63
i,1723651617.064918,172.16.5.2,38312,172.16.1.2,5102,12108,15940,2086,62848,65728,6,6,4,1460,138750,1,16778208,450000,41772,38876,65700,0,15928,0,2326532521,63
o,1723651617.064935,172.16.5.2,38312,172.16.1.2,5102,12108,15940,2086,59968,65728,6,6,4,1460,134062,1,16778208,460000,41772,35980,65700,0,13032,0,2326532521,63
i,1723651617.093340,172.16.5.2,38312,172.16.1.2,5102,12108,15940,2086,59968,65728,6,6,4,1460,134062,1,16778208,460000,41772,41772,65700,0,15928,0,2326532521,63
o,1723651617.093365,172.16.5.2,38312,172.16.1.2,5102,12108,15940,2086,64256,65728,6,6,4,1460,133750,1,16778208,430000,41772,38876,65700,0,13032,0,2326532521,63
i,1723651617.093546,172.16.5.2,38312,172.16.1.2,5102,12108,15940,2086,64256,65728,6,6,4,1460,133750,1,16778208,430000,41772,38876,65700,0,15928,0,2326532521,63
o,1723651617.093562,172.16.5.2,38312,172.16.1.2,5102,12108,15940,2086,61376,65728,6,6,4,1460,130937,1,16778208,420000,41772,35980,65700,0,13032,0,2326532521,63
o,1723651617.093688,172.16.5.2,38312,172.16.1.2,5102,12108,15940,2086,61376,65728,6,6,4,1460,130937,1,16778208,420000,41772,35980,65700,0,14480,0,2326532521,63
i,1723651617.131158,172.16.5.2,38312,172.16.1.2,5102,12108,15940,2086,61376,65728,6,6,4,1460,130937,1,16778208,420000,41772,41772,65700,0,15928,0,2326532521,63
o,1723651617.131207,172.16.5.2,38312,172.16.1.2,5102,12108,17400,2086,65728,65728,6,6,4,1460,133437,1,16778208,420000,41772,40324,65700,0,14480,0,2326532521,63
i,1723651617.155125,172.16.5.2,38312,172.16.1.2,5102,12108,17400,2086,65728,65728,6,6,4,1460,133437,1,16778208,420000,41772,40324,65700,0,17376,0,2326532521,63
o,1723651617.155209,172.16.5.2,38312,172.16.1.2,5102,12108,17400,2086,64256,65728,6,6,4,1460,130625,1,16778208,420000,41772,37428,65700,0,14480,0,2326532521,63
i,1723651617.386033,172.16.5.2,38312,172.16.1.2,5102,12108,17400,2086,64256,65728,6,6,4,1460,130625,1,16778208,420000,41772,41772,65700,0,17376,0,2326532521,63
o,1723651617.386069,172.16.5.2,38312,172.16.1.2,5102,12108,17400,2086,62848,65728,6,6,4,1460,154375,1,16778208,610000,41772,38876,65700,0,14480,0,2326532521,63
i,1723651617.386849,172.16.5.2,38312,172.16.1.2,5102,12108,17400,2086,62848,65728,6,6,4,1460,154375,1,16778208,610000,41772,38876,65700,0,17376,0,2326532521,63
o,1723651617.386868,172.16.5.2,38312,172.16.1.2,5102,12108,17400,2086,62848,65728,6,6,4,1460,175312,1,16778208,740000,41772,35980,65700,0,14480,0,2326532521,63
i,1723651617.413473,172.16.5.2,38312,172.16.1.2,5102,12108,17400,2086,62848,65728,6,6,4,1460,175312,1,16778208,740000,41772,41772,65700,0,17376,0,2326532521,63
o,1723651617.413502,172.16.5.2,38312,172.16.1.2,5102,12108,17400,2086,62848,65728,6,6,4,1460,192187,1,16778208,800000,41772,38876,65700,0,14480,0,2326532521,63
i,1723651617.413721,172.16.5.2,38312,172.16.1.2,5102,12108,17400,2086,62848,65728,6,6,4,1460,192187,1,16778208,800000,41772,38876,65700,0,17376,0,2326532521,63
o,1723651617.413739,172.16.5.2,38312,172.16.1.2,5102,12108,17400,2086,64256,65728,6,6,4,1460,207187,1,16778208,830000,41772,35980,65700,0,14480,0,2326532521,63
o,1723651617.413850,172.16.5.2,38312,172.16.1.2,5102,12108,17400,2086,64256,65728,6,6,4,1460,207187,1,16778208,830000,41772,35980,65700,0,15928,0,2326532521,63
i,1723651617.442056,172.16.5.2,38312,172.16.1.2,5102,12108,17400,2086,64256,65728,6,6,4,1460,207187,1,16778208,830000,41772,41772,65700,0,17376,0,2326532521,63
o,1723651617.442129,172.16.5.2,38312,172.16.1.2,5102,12108,18860,2086,62848,65728,6,6,4,1460,220312,1,16778208,840000,41772,38876,65700,0,14480,0,2326532521,63
i,1723651617.479830,172.16.5.2,38312,172.16.1.2,5102,12108,18860,2086,62848,65728,6,6,4,1460,220312,1,16778208,840000,41772,41772,65700,0,18824,0,2326532521,63
o,1723651617.479902,172.16.5.2,38312,172.16.1.2,5102,12108,18860,2086,62848,65728,6,6,4,1460,234062,1,16778208,860000,41772,38876,65700,0,15928,0,2326532521,63
i,1723651617.508824,172.16.5.2,38312,172.16.1.2,5102,12108,18860,2086,62848,65728,6,6,4,1460,234062,1,16778208,860000,41772,41772,65700,0,18824,0,2326532521,63
o,1723651617.508845,172.16.5.2,38312,172.16.1.2,5102,12108,18860,2086,62848,65728,6,6,4,1460,220000,1,16778208,850000,41772,38876,65700,0,15928,0,2326532521,63
i,1723651617.509034,172.16.5.2,38312,172.16.1.2,5102,12108,18860,2086,62848,65728,6,6,4,1460,220000,1,16778208,850000,41772,38876,65700,0,18824,0,2326532521,63
o,1723651617.509054,172.16.5.2,38312,172.16.1.2,5102,12108,18860,2086,62848,65728,6,6,4,1460,207500,1,16778208,830000,41772,35980,65700,0,15928,0,2326532521,63
i,1723651617.539800,172.16.5.2,38312,172.16.1.2,5102,12108,18860,2086,62848,65728,6,6,4,1460,207500,1,16778208,830000,41772,41772,65700,0,18824,0,2326532521,63
o,1723651617.539820,172.16.5.2,38312,172.16.1.2,5102,12108,18860,2086,62848,65728,6,6,4,1460,197812,1,16778208,790000,41772,38876,65700,0,15928,0,2326532521,63
i,1723651617.541071,172.16.5.2,38312,172.16.1.2,5102,12108,18860,2086,62848,65728,6,6,4,1460,197812,1,16778208,790000,41772,41772,65700,0,18824,0,2326532521,63
o,1723651617.541089,172.16.5.2,38312,172.16.1.2,5102,12108,18860,2086,62848,65728,6,6,4,1460,189375,1,16778208,750000,41772,38876,65700,0,15928,0,2326532521,63
o,1723651617.541198,172.16.5.2,38312,172.16.1.2,5102,12108,18860,2086,62848,65728,6,6,4,1460,189375,1,16778208,750000,41772,38876,65700,0,17376,0,2326532521,63
i,1723651617.583354,172.16.5.2,38312,172.16.1.2,5102,12108,18860,2086,62848,65728,6,6,4,1460,189375,1,16778208,750000,41772,41772,65700,0,18824,0,2326532521,63
o,1723651617.583375,172.16.5.2,38312,172.16.1.2,5102,12108,18860,2086,64256,65728,6,6,4,1460,183437,1,16778208,700000,41772,38876,65700,0,15928,0,2326532521,63
i,1723651617.602391,172.16.5.2,38312,172.16.1.2,5102,12108,18860,2086,64256,65728,6,6,4,1460,183437,1,16778208,700000,41772,41772,65700,0,18824,0,2326532521,63
o,1723651617.602497,172.16.5.2,38312,172.16.1.2,5102,12108,20320,2086,64256,65728,6,6,4,1460,180625,1,16778208,640000,41772,38876,65700,0,15928,0,2326532521,63
i,1723651617.623128,172.16.5.2,38312,172.16.1.2,5102,12108,20320,2086,64256,65728,6,6,4,1460,180625,1,16778208,640000,49964,49964,65700,0,20272,0,2326532521,63
o,1723651617.623183,172.16.5.2,38312,172.16.1.2,5102,12108,20320,2086,64256,65728,6,6,4,1460,174375,1,16778208,620000,49964,47068,65700,0,17376,0,2326532521,63
i,1723651617.625002,172.16.5.2,38312,172.16.1.2,5102,12108,20320,2086,64256,65728,6,6,4,1460,174375,1,16778208,620000,49964,49964,65700,0,20272,0,2326532521,63
o,1723651617.625039,172.16.5.2,38312,172.16.1.2,5102,12108,20320,2086,64256,65728,6,6,4,1460,166562,1,16778208,610000,49964,47068,65700,0,17376,0,2326532521,63
i,1723651617.654728,172.16.5.2,38312,172.16.1.2,5102,12108,20320,2086,64256,65728,6,6,4,1460,166562,1,16778208,610000,49964,49964,65700,0,20272,0,2326532521,63
o,1723651617.654799,172.16.5.2,38312,172.16.1.2,5102,12108,20320,2086,64256,65728,6,6,4,1460,163437,1,16778208,570000,49964,47068,65700,0,17376,0,2326532521,63
i,1723651617.656988,172.16.5.2,38312,172.16.1.2,5102,12108,20320,2086,64256,65728,6,6,4,1460,163437,1,16778208,570000,49964,49964,65700,0,20272,0,2326532521,63
o,1723651617.657064,172.16.5.2,38312,172.16.1.2,5102,12108,20320,2086,61376,65728,6,6,4,1460,156875,1,16778208,570000,49964,47068,65700,0,17376,0,2326532521,63
o,1723651617.657181,172.16.5.2,38312,172.16.1.2,5102,12108,20320,2086,61376,65728,6,6,4,1460,156875,1,16778208,570000,49964,47068,65700,0,18824,0,2326532521,63
i,1723651617.694638,172.16.5.2,38312,172.16.1.2,5102,12108,20320,2086,61376,65728,6,6,4,1460,156875,1,16778208,570000,49964,49964,65700,0,20272,0,2326532521,63
o,1723651617.694737,172.16.5.2,38312,172.16.1.2,5102,12108,20320,2086,64256,65728,6,6,4,1460,156250,1,16778208,520000,49964,47068,65700,0,17376,0,2326532521,63
i,1723651617.722312,172.16.5.2,38312,172.16.1.2,5102,12108,20320,2086,64256,65728,6,6,4,1460,156250,1,16778208,520000,49964,48536,65700,0,20272,0,2326532521,63
o,1723651617.722394,172.16.5.2,38312,172.16.1.2,5102,12108,20320,2086,64256,65728,6,6,4,1460,154375,1,16778208,490000,49964,45640,65700,0,17376,0,2326532521,63
i,1723651617.724055,172.16.5.2,38312,172.16.1.2,5102,12108,20320,2086,64256,65728,6,6,4,1460,154375,1,16778208,490000,49964,49964,65700,0,20272,0,2326532521,63
o,1723651617.724135,172.16.5.2,38312,172.16.1.2,5102,12108,21780,2086,64256,65728,6,6,4,1460,149062,1,16778208,490000,49964,47068,65700,0,17376,0,2326532521,63
i,1723651617.745673,172.16.5.2,38312,172.16.1.2,5102,12108,21780,2086,64256,65728,6,6,4,1460,149062,1,16778208,490000,49964,49964,65700,0,21720,0,2326532521,63
o,1723651617.745742,172.16.5.2,38312,172.16.1.2,5102,12108,21780,2086,62848,65728,6,6,4,1460,145625,1,16778208,480000,49964,47068,65700,0,18824,0,2326532521,63
i,1723651617.752770,172.16.5.2,38312,172.16.1.2,5102,12108,21780,2086,62848,65728,6,6,4,1460,145625,1,16778208,480000,49964,49964,65700,0,21720,0,2326532521,63
o,1723651617.752789,172.16.5.2,38312,172.16.1.2,5102,12108,21780,2086,64256,65728,6,6,4,1460,143750,1,16778208,460000,49964,47068,65700,0,18824,0,2326532521,63
i,1723651617.781455,172.16.5.2,38312,172.16.1.2,5102,12108,21780,2086,64256,65728,6,6,4,1460,143750,1,16778208,460000,49964,49964,65700,0,21720,0,2326532521,63
o,1723651617.781546,172.16.5.2,38312,172.16.1.2,5102,12108,21780,2086,62848,65728,6,6,4,1460,142187,1,16778208,440000,49964,47068,65700,0,18824,0,2326532521,63
i,1723651617.781702,172.16.5.2,38312,172.16.1.2,5102,12108,21780,2086,62848,65728,6,6,4,1460,142187,1,16778208,440000,49964,47068,65700,0,21720,0,2326532521,63
o,1723651617.781719,172.16.5.2,38312,172.16.1.2,5102,12108,21780,2086,64256,65728,6,6,4,1460,140937,1,16778208,420000,49964,44172,65700,0,18824,0,2326532521,63
o,1723651617.781830,172.16.5.2,38312,172.16.1.2,5102,12108,21780,2086,64256,65728,6,6,4,1460,140937,1,16778208,420000,49964,44172,65700,0,20272,0,2326532521,63
i,1723651617.817933,172.16.5.2,38312,172.16.1.2,5102,12108,21780,2086,64256,65728,6,6,4,1460,140937,1,16778208,420000,49964,49964,65700,0,21720,0,2326532521,63
o,1723651617.817966,172.16.5.2,38312,172.16.1.2,5102,12108,21780,2086,64256,65728,6,6,4,1460,138437,1,16778208,420000,49964,47068,65700,0,18824,0,2326532521,63
i,1723651617.822843,172.16.5.2,38312,172.16.1.2,5102,12108,21780,2086,64256,65728,6,6,4,1460,138437,1,16778208,420000,49964,49964,65700,0,21720,0,2326532521,63
o,1723651617.822925,172.16.5.2,38312,172.16.1.2,5102,12108,21780,2086,62848,65728,6,6,4,1460,133750,1,16778208,430000,49964,47068,65700,0,18824,0,2326532521,63
i,1723651617.841887,172.16.5.2,38312,172.16.1.2,5102,12108,21780,2086,62848,65728,6,6,4,1460,133750,1,16778208,430000,49964,49964,65700,0,21720,0,2326532521,63
o,1723651617.841967,172.16.5.2,38312,172.16.1.2,5102,12108,21780,2086,62848,65728,6,6,4,1460,132187,1,16778208,420000,49964,47068,65700,0,18824,0,2326532521,63
i,1723651617.851784,172.16.5.2,38312,172.16.1.2,5102,12108,21780,2086,62848,65728,6,6,4,1460,132187,1,16778208,420000,49964,49964,65700,0,21720,0,2326532521,63
o,1723651617.851848,172.16.5.2,38312,172.16.1.2,5102,12108,23240,2086,64256,65728,6,6,4,1460,132187,1,16778208,400000,49964,47068,65700,0,18824,0,2326532521,63
i,1723651617.880522,172.16.5.2,38312,172.16.1.2,5102,12108,23240,2086,64256,65728,6,6,4,1460,132187,1,16778208,400000,49964,49964,65700,0,23168,0,2326532521,63
o,1723651617.880633,172.16.5.2,38312,172.16.1.2,5102,12108,23240,2086,64256,65728,6,6,4,1460,133437,1,16778208,390000,49964,47068,65700,0,20272,0,2326532521,63
i,1723651617.911121,172.16.5.2,38312,172.16.1.2,5102,12108,23240,2086,64256,65728,6,6,4,1460,133437,1,16778208,390000,49964,49964,65700,0,23168,0,2326532521,63
o,1723651617.911260,172.16.5.2,38312,172.16.1.2,5102,12108,23240,2086,64256,65728,6,6,4,1460,136875,1,16778208,410000,49964,47068,65700,0,20272,0,2326532521,63
i,1723651617.913228,172.16.5.2,38312,172.16.1.2,5102,12108,23240,2086,64256,65728,6,6,4,1460,136875,1,16778208,410000,49964,49964,65700,0,23168,0,2326532521,63
o,1723651617.913329,172.16.5.2,38312,172.16.1.2,5102,12108,23240,2086,61376,65728,6,6,4,1460,135000,1,16778208,400000,49964,47068,65700,0,20272,0,2326532521,63
o,1723651617.913462,172.16.5.2,38312,172.16.1.2,5102,12108,23240,2086,61376,65728,6,6,4,1460,135000,1,16778208,400000,49964,47068,65700,0,21720,0,2326532521,63
i,1723651617.952224,172.16.5.2,38312,172.16.1.2,5102,12108,23240,2086,61376,65728,6,6,4,1460,135000,1,16778208,400000,49964,49964,65700,0,23168,0,2326532521,63
o,1723651617.952374,172.16.5.2,38312,172.16.1.2,5102,12108,23240,2086,65728,65728,6,6,4,1460,139375,1,16778208,420000,49964,48516,65700,0,21720,0,2326532521,63
i,1723651617.953017,172.16.5.2,38312,172.16.1.2,5102,12108,23240,2086,65728,65728,6,6,4,1460,139375,1,16778208,420000,49964,48516,65700,0,23168,0,2326532521,63
o,1723651617.953104,172.16.5.2,38312,172.16.1.2,5102,12108,23240,2086,62848,65728,6,6,4,1460,138437,1,16778208,410000,49964,45620,65700,0,20272,0,2326532521,63
i,1723651617.953430,172.16.5.2,38312,172.16.1.2,5102,12108,23240,2086,62848,65728,6,6,4,1460,138437,1,16778208,410000,58156,45620,65700,0,23168,0,2326532521,63
o,1723651617.953487,172.16.5.2,38312,172.16.1.2,5102,12108,23240,2086,62848,65728,6,6,4,1460,137500,1,16778208,400000,58156,42724,65700,0,20272,0,2326532521,63
i,1723651617.971610,172.16.5.2,38312,172.16.1.2,5102,12108,23240,2086,62848,65728,6,6,4,1460,137500,1,16778208,400000,58156,58156,65700,0,23168,0,2326532521,63
o,1723651617.971674,172.16.5.2,38312,172.16.1.2,5102,12108,23240,2086,62848,65728,6,6,4,1460,136562,1,16778208,390000,58156,55260,65700,0,20272,0,2326532521,63
i,1723651617.981751,172.16.5.2,38312,172.16.1.2,5102,12108,23240,2086,62848,65728,6,6,4,1460,136562,1,16778208,390000,58156,58156,65700,0,23168,0,2326532521,63
o,1723651617.981813,172.16.5.2,38312,172.16.1.2,5102,12108,24700,2086,59968,65728,6,6,4,1460,135937,1,16778208,380000,58156,55260,65700,0,20272,0,2326532521,63
i,1723651618.015792,172.16.5.2,38312,172.16.1.2,5102,12108,24700,2086,59968,65728,6,6,4,1460,135937,1,16778208,380000,58156,58156,65700,0,24616,0,2326532521,63
o,1723651618.015902,172.16.5.2,38312,172.16.1.2,5102,12108,24700,2086,64256,65728,6,6,4,1460,139062,1,16778208,400000,58156,55260,65700,0,21720,0,2326532521,63
i,1723651618.035395,172.16.5.2,38312,172.16.1.2,5102,12108,24700,2086,64256,65728,6,6,4,1460,139062,1,16778208,400000,58156,58156,65700,0,24616,0,2326532521,63
o,1723651618.035499,172.16.5.2,38312,172.16.1.2,5102,12108,24700,2086,64256,65728,6,6,4,1460,140625,1,16778208,400000,58156,55260,65700,0,21720,0,2326532521,63
i,1723651618.052265,172.16.5.2,38312,172.16.1.2,5102,12108,24700,2086,64256,65728,6,6,4,1460,140625,1,16778208,400000,58156,58156,65700,0,24616,0,2326532521,63
o,1723651618.052286,172.16.5.2,38312,172.16.1.2,5102,12108,24700,2086,64256,65728,6,6,4,1460,140625,1,16778208,380000,58156,55260,65700,0,21720,0,2326532521,63
o,1723651618.052413,172.16.5.2,38312,172.16.1.2,5102,12108,24700,2086,64256,65728,6,6,4,1460,140625,1,16778208,380000,58156,55260,65700,0,23168,0,2326532521,63
i,1723651618.088220,172.16.5.2,38312,172.16.1.2,5102,12108,24700,2086,64256,65728,6,6,4,1460,140625,1,16778208,380000,58156,58156,65700,0,24616,0,2326532521,63
o,1723651618.088239,172.16.5.2,38312,172.16.1.2,5102,12108,24700,2086,65728,65728,6,6,4,1460,145625,1,16778208,420000,58156,56708,65700,0,23168,0,2326532521,63
i,1723651618.089616,172.16.5.2,38312,172.16.1.2,5102,12108,24700,2086,65728,65728,6,6,4,1460,145625,1,16778208,420000,58156,56708,65700,0,24616,0,2326532521,63
o,1723651618.089634,172.16.5.2,38312,172.16.1.2,5102,12108,24700,2086,64256,65728,6,6,4,1460,143750,1,16778208,410000,58156,53812,65700,0,21720,0,2326532521,63
i,1723651618.089758,172.16.5.2,38312,172.16.1.2,5102,12108,24700,2086,64256,65728,6,6,4,1460,143750,1,16778208,410000,58156,53812,65700,0,24616,0,2326532521,63
o,1723651618.089774,172.16.5.2,38312,172.16.1.2,5102,12108,24700,2086,64256,65728,6,6,4,1460,142187,1,16778208,400000,58156,50916,65700,0,21720,0,2326532521,63
i,1723651618.089904,172.16.5.2,38312,172.16.1.2,5102,12108,24700,2086,64256,65728,6,6,4,1460,142187,1,16778208,400000,58156,50916,65700,0,24616,0,2326532521,63
o,1723651618.089919,172.16.5.2,38312,172.16.1.2,5102,12108,24700,2086,64256,65728,6,6,4,1460,140937,1,16778208,400000,58156,48020,65700,0,21720,0,2326532521,63
i,1723651618.104365,172.16.5.2,38312,172.16.1.2,5102,12108,24700,2086,64256,65728,6,6,4,1460,140937,1,16778208,400000,58156,58156,65700,0,24616,0,2326532521,63
o,1723651618.104434,172.16.5.2,38312,172.16.1.2,5102,12108,24700,2086,64256,65728,6,6,4,1460,139687,1,16778208,390000,58156,55260,65700,0,21720,0,2326532521,63
i,1723651618.104607,172.16.5.2,38312,172.16.1.2,5102,12108,24700,2086,64256,65728,6,6,4,1460,139687,1,16778208,390000,58156,55260,65700,0,24616,0,2326532521,63
o,1723651618.104623,172.16.5.2,38312,172.16.1.2,5102,12108,26160,2086,61376,65728,6,6,4,1460,137500,1,16778208,400000,58156,52364,65700,0,21720,0,2326532521,63
i,1723651618.163360,172.16.5.2,38312,172.16.1.2,5102,12108,26160,2086,61376,65728,6,6,4,1460,137500,1,16778208,400000,58156,58156,65700,0,26064,0,2326532521,63
o,1723651618.163479,172.16.5.2,38312,172.16.1.2,5102,12108,26160,2086,64256,65728,6,6,4,1460,137812,1,16778208,380000,58156,55260,65700,0,23168,0,2326532521,63
i,1723651618.163653,172.16.5.2,38312,172.16.1.2,5102,12108,26160,2086,64256,65728,6,6,4,1460,137812,1,16778208,380000,58156,55260,65700,0,26064,0,2326532521,63
o,1723651618.163684,172.16.5.2,38312,172.16.1.2,5102,12108,26160,2086,64256,65728,6,6,4,1460,135625,1,16778208,390000,58156,52364,65700,0,23168,0,2326532521,63
i,1723651618.182371,172.16.5.2,38312,172.16.1.2,5102,12108,26160,2086,64256,65728,6,6,4,1460,135625,1,16778208,390000,58156,58156,65700,0,26064,0,2326532521,63
o,1723651618.182472,172.16.5.2,38312,172.16.1.2,5102,12108,26160,2086,62848,65728,6,6,4,1460,133750,1,16778208,390000,58156,55260,65700,0,23168,0,2326532521,63
o,1723651618.182613,172.16.5.2,38312,172.16.1.2,5102,12108,26160,2086,62848,65728,6,6,4,1460,133750,1,16778208,390000,58156,55260,65700,0,24616,0,2326532521,63
i,1723651618.192099,172.16.5.2,38312,172.16.1.2,5102,12108,26160,2086,62848,65728,6,6,4,1460,133750,1,16778208,390000,58156,58156,65700,0,26064,0,2326532521,63
o,1723651618.192120,172.16.5.2,38312,172.16.1.2,5102,12108,26160,2086,59968,65728,6,6,4,1460,129687,1,16778208,400000,58156,55260,65700,0,23168,0,2326532521,63
i,1723651618.192343,172.16.5.2,38312,172.16.1.2,5102,12108,26160,2086,59968,65728,6,6,4,1460,129687,1,16778208,400000,58156,55260,65700,0,26064,0,2326532521,63
o,1723651618.192360,172.16.5.2,38312,172.16.1.2,5102,12108,26160,2086,57088,65728,6,6,4,1460,126250,1,16778208,410000,58156,52364,65700,0,23168,0,2326532521,63
i,1723651618.192491,172.16.5.2,38312,172.16.1.2,5102,12108,26160,2086,57088,65728,6,6,4,1460,126250,1,16778208,410000,58156,52364,65700,0,26064,0,2326532521,63
o,1723651618.192507,172.16.5.2,38312,172.16.1.2,5102,12108,26160,2086,54208,65728,6,6,4,1460,123125,1,16778208,410000,58156,49468,65700,0,23168,0,2326532521,63
i,1723651618.192687,172.16.5.2,38312,172.16.1.2,5102,12108,26160,2086,54208,65728,6,6,4,1460,123125,1,16778208,410000,58156,49468,65700,0,26064,0,2326532521,63
o,1723651618.192703,172.16.5.2,38312,172.16.1.2,5102,12108,26160,2086,65728,65728,6,6,4,1460,120312,1,16778208,410000,58156,48020,65700,0,24616,0,2326532521,63
i,1723651618.212220,172.16.5.2,38312,172.16.1.2,5102,12108,26160,2086,65728,65728,6,6,4,1460,120312,1,16778208,410000,58156,58156,65700,0,26064,0,2326532521,63
o,1723651618.212318,172.16.5.2,38312,172.16.1.2,5102,12108,26160,2086,62848,65728,6,6,4,1460,117812,1,16778208,400000,58156,55260,65700,0,23168,0,2326532521,63
i,1723651618.222009,172.16.5.2,38312,172.16.1.2,5102,12108,26160,2086,62848,65728,6,6,4,1460,117812,1,16778208,400000,58156,58156,65700,0,26064,0,2326532521,63
o,1723651618.222097,172.16.5.2,38312,172.16.1.2,5102,12108,26160,2086,62848,65728,6,6,4,1460,118125,1,16778208,380000,58156,55260,65700,0,23168,0,2326532521,63
i,1723651618.253679,172.16.5.2,38312,172.16.1.2,5102,12108,26160,2086,62848,65728,6,6,4,1460,118125,1,16778208,380000,58156,58156,65700,0,26064,0,2326532521,63
o,1723651618.253703,172.16.5.2,38312,172.16.1.2,5102,12108,27620,2086,65728,65728,6,6,4,1460,120937,1,16778208,390000,58156,56708,65700,0,24616,0,2326532521,63
i,1723651618.263322,172.16.5.2,38312,172.16.1.2,5102,12108,27620,2086,65728,65728,6,6,4,1460,120937,1,16778208,390000,58156,56708,65700,0,27512,0,2326532521,63
o,1723651618.263401,172.16.5.2,38312,172.16.1.2,5102,12108,27620,2086,62848,65728,6,6,4,1460,118437,1,16778208,390000,58156,53812,65700,0,24616,0,2326532521,63
i,1723651618.272289,172.16.5.2,38312,172.16.1.2,5102,12108,27620,2086,62848,65728,6,6,4,1460,118437,1,16778208,390000,66348,66348,65700,0,27512,0,2326532521,63
o,1723651618.272309,172.16.5.2,38312,172.16.1.2,5102,12108,27620,2086,64256,65728,6,6,4,1460,117500,1,16778208,380000,66348,63452,65700,0,24616,0,2326532521,63
i,1723651618.297363,172.16.5.2,38312,172.16.1.2,5102,12108,27620,2086,64256,65728,6,6,4,1460,117500,1,16778208,380000,66348,66348,65700,0,27512,0,2326532521,63
o,1723651618.297547,172.16.5.2,38312,172.16.1.2,5102,12108,27620,2086,64256,65728,6,6,4,1460,116562,1,16778208,370000,66348,63452,65700,0,24616,0,2326532521,63
o,1723651618.297687,172.16.5.2,38312,172.16.1.2,5102,12108,27620,2086,64256,65728,6,6,4,1460,116562,1,16778208,370000,66348,63452,65700,0,26064,0,2326532521,63
i,1723651618.302168,172.16.5.2,38312,172.16.1.2,5102,12108,27620,2086,64256,65728,6,6,4,1460,116562,1,16778208,370000,66348,66348,65700,0,27512,0,2326532521,63
o,1723651618.302230,172.16.5.2,38312,172.16.1.2,5102,12108,27620,2086,62848,65728,6,6,4,1460,114687,1,16778208,370000,66348,63452,65700,0,24616,0,2326532521,63
i,1723651618.302248,172.16.5.2,38312,172.16.1.2,5102,12108,27620,2086,62848,65728,6,6,4,1460,114687,1,16778208,370000,66348,63452,65700,0,27512,0,2326532521,63
o,1723651618.302248,172.16.5.2,38312,172.16.1.2,5102,12108,27620,2086,64256,65728,6,6,4,1460,113125,1,16778208,370000,66348,60556,65700,0,24616,0,2326532521,63
i,1723651618.332527,172.16.5.2,38312,172.16.1.2,5102,12108,27620,2086,64256,65728,6,6,4,1460,113125,1,16778208,370000,66348,66348,65700,0,27512,0,2326532521,63
o,1723651618.332547,172.16.5.2,38312,172.16.1.2,5102,12108,27620,2086,64256,65728,6,6,4,1460,115312,1,16778208,370000,66348,63452,65700,0,24616,0,2326532521,63
i,1723651618.332679,172.16.5.2,38312,172.16.1.2,5102,12108,27620,2086,64256,65728,6,6,4,1460,115312,1,16778208,370000,66348,63452,65700,0,27512,0,2326532521,63
o,1723651618.332695,172.16.5.2,38312,172.16.1.2,5102,12108,27620,2086,64256,65728,6,6,4,1460,117187,1,16778208,370000,66348,60556,65700,0,24616,0,2326532521,63
i,1723651618.341238,172.16.5.2,38312,172.16.1.2,5102,12108,27620,2086,64256,65728,6,6,4,1460,117187,1,16778208,370000,66348,66348,65700,0,27512,0,2326532521,63
o,1723651618.341318,172.16.5.2,38312,172.16.1.2,5102,12108,27620,2086,64256,65728,6,6,4,1460,119062,1,16778208,380000,66348,63452,65700,0,24616,0,2326532521,63
i,1723651618.369177,172.16.5.2,38312,172.16.1.2,5102,12108,27620,2086,64256,65728,6,6,4,1460,119062,1,16778208,380000,66348,66348,65700,0,27512,0,2326532521,63
o,1723651618.369216,172.16.5.2,38312,172.16.1.2,5102,12108,27620,2086,64256,65728,6,6,4,1460,123125,1,16778208,400000,66348,63452,65700,0,24616,0,2326532521,63
i,1723651618.402105,172.16.5.2,38312,172.16.1.2,5102,12108,27620,2086,64256,65728,6,6,4,1460,123125,1,16778208,400000,66348,66348,65700,0,27512,0,2326532521,63
o,1723651618.402189,172.16.5.2,38312,172.16.1.2,5102,12108,29080,2086,65728,65728,6,6,4,1460,126562,1,16778208,410000,66348,64900,65700,0,26064,0,2326532521,63
i,1723651618.402372,172.16.5.2,38312,172.16.1.2,5102,12108,29080,2086,65728,65728,6,6,4,1460,126562,1,16778208,410000,66348,64900,65700,0,28960,0,2326532521,63
o,1723651618.402399,172.16.5.2,38312,172.16.1.2,5102,12108,29080,2086,64256,65728,6,6,4,1460,128437,1,16778208,410000,66348,62004,65700,0,26064,0,2326532521,63
i,1723651618.404829,172.16.5.2,38312,172.16.1.2,5102,12108,29080,2086,64256,65728,6,6,4,1460,128437,1,16778208,410000,66348,66348,65700,0,28960,0,2326532521,63
o,1723651618.404910,172.16.5.2,38312,172.16.1.2,5102,12108,29080,2086,62848,65728,6,6,4,1460,127500,1,16778208,390000,66348,63452,65700,0,26064,0,2326532521,63
i,1723651618.427371,172.16.5.2,38312,172.16.1.2,5102,12108,29080,2086,62848,65728,6,6,4,1460,127500,1,16778208,390000,66348,66348,65700,0,28960,0,2326532521,63
o,1723651618.427380,172.16.5.2,38312,172.16.1.2,5102,12108,29080,2086,62848,65728,6,6,4,1460,126562,1,16778208,380000,66348,63452,65700,0,26064,0,2326532521,63
o,1723651618.428020,172.16.5.2,38312,172.16.1.2,5102,12108,29080,2086,62848,65728,6,6,4,1460,126562,1,16778208,380000,66348,63452,65700,0,27512,0,2326532521,63
i,1723651618.428331,172.16.5.2,38312,172.16.1.2,5102,12108,29080,2086,62848,65728,6,6,4,1460,126562,1,16778208,380000,66348,63452,65700,0,28960,0,2326532521,63
o,1723651618.428350,172.16.5.2,38312,172.16.1.2,5102,12108,29080,2086,64256,65728,6,6,4,1460,127187,1,16778208,370000,66348,60556,65700,0,26064,0,2326532521,63
i,1723651618.428491,172.16.5.2,38312,172.16.1.2,5102,12108,29080,2086,64256,65728,6,6,4,1460,127187,1,16778208,370000,66348,60556,65700,0,28960,0,2326532521,63
o,1723651618.428507,172.16.5.2,38312,172.16.1.2,5102,12108,29080,2086,64256,65728,6,6,4,1460,127812,1,16778208,370000,66348,57660,65700,0,26064,0,2326532521,63
i,1723651618.442644,172.16.5.2,38312,172.16.1.2,5102,12108,29080,2086,64256,65728,6,6,4,1460,127812,1,16778208,370000,66348,66348,65700,0,28960,0,2326532521,63
o,1723651618.442751,172.16.5.2,38312,172.16.1.2,5102,12108,29080,2086,62848,65728,6,6,4,1460,125625,1,16778208,370000,66348,63452,65700,0,26064,0,2326532521,63
i,1723651618.461728,172.16.5.2,38312,172.16.1.2,5102,12108,29080,2086,62848,65728,6,6,4,1460,125625,1,16778208,370000,66348,66348,65700,0,28960,0,2326532521,63
o,1723651618.461752,172.16.5.2,38312,172.16.1.2,5102,12108,29080,2086,62848,65728,6,6,4,1460,126250,1,16778208,360000,66348,63452,65700,0,26064,0,2326532521,63
i,1723651618.461882,172.16.5.2,38312,172.16.1.2,5102,12108,29080,2086,62848,65728,6,6,4,1460,126250,1,16778208,360000,66348,63452,65700,0,28960,0,2326532521,63
o,1723651618.461898,172.16.5.2,38312,172.16.1.2,5102,12108,29080,2086,62848,65728,6,6,4,1460,125625,1,16778208,360000,66348,60556,65700,0,26064,0,2326532521,63
i,1723651618.493875,172.16.5.2,38312,172.16.1.2,5102,12108,29080,2086,62848,65728,6,6,4,1460,125625,1,16778208,360000,66348,66348,65700,0,28960,0,2326532521,63
o,1723651618.493896,172.16.5.2,38312,172.16.1.2,5102,12108,29080,2086,62848,65728,6,6,4,1460,125000,1,16778208,360000,66348,63452,65700,0,26064,0,2326532521,63
i,1723651618.502989,172.16.5.2,38312,172.16.1.2,5102,12108,29080,2086,62848,65728,6,6,4,1460,125000,1,16778208,360000,66348,66348,65700,0,28960,0,2326532521,63
o,1723651618.503037,172.16.5.2,38312,172.16.1.2,5102,12108,30540,2086,62848,65728,6,6,4,1460,121875,1,16778208,370000,66348,63452,65700,0,26064,0,2326532521,63
i,1723651618.504291,172.16.5.2,38312,172.16.1.2,5102,12108,30540,2086,62848,65728,6,6,4,1460,121875,1,16778208,370000,66348,66348,65700,0,30408,0,2326532521,63
o,1723651618.504316,172.16.5.2,38312,172.16.1.2,5102,12108,30540,2086,62848,65728,6,6,4,1460,119375,1,16778208,370000,66348,63452,65700,0,27512,0,2326532521,63
i,1723651618.522745,172.16.5.2,38312,172.16.1.2,5102,12108,30540,2086,62848,65728,6,6,4,1460,119375,1,16778208,370000,66348,66348,65700,0,30408,0,2326532521,63
o,1723651618.523368,172.16.5.2,38312,172.16.1.2,5102,12108,30540,2086,64256,65728,6,6,4,1460,119687,1,16778208,360000,66348,63452,65700,0,27512,0,2326532521,63
i,1723651618.523675,172.16.5.2,38312,172.16.1.2,5102,12108,30540,2086,64256,65728,6,6,4,1460,119687,1,16778208,360000,66348,63452,65700,0,30408,0,2326532521,63
o,1723651618.523705,172.16.5.2,38312,172.16.1.2,5102,12108,30540,2086,64256,65728,6,6,4,1460,117500,1,16778208,370000,66348,60556,65700,0,27512,0,2326532521,63
o,1723651618.523848,172.16.5.2,38312,172.16.1.2,5102,12108,30540,2086,64256,65728,6,6,4,1460,117500,1,16778208,370000,66348,60556,65700,0,28960,0,2326532521,63
i,1723651618.545363,172.16.5.2,38312,172.16.1.2,5102,12108,30540,2086,64256,65728,6,6,4,1460,117500,1,16778208,370000,74540,74540,65700,0,30408,0,2326532521,63
o,1723651618.545478,172.16.5.2,38312,172.16.1.2,5102,12108,30540,2086,64256,65728,6,6,4,1460,116562,1,16778208,360000,74540,71644,65700,0,27512,0,2326532521,63
i,1723651618.545682,172.16.5.2,38312,172.16.1.2,5102,12108,30540,2086,64256,65728,6,6,4,1460,116562,1,16778208,360000,74540,71644,65700,0,30408,0,2326532521,63
o,1723651618.545707,172.16.5.2,38312,172.16.1.2,5102,12108,30540,2086,64256,65728,6,6,4,1460,115937,1,16778208,350000,74540,68748,65700,0,27512,0,2326532521,63
i,1723651618.547546,172.16.5.2,38312,172.16.1.2,5102,12108,30540,2086,64256,65728,6,6,4,1460,115937,1,16778208,350000,74540,74540,65700,0,30408,0,2326532521,63
o,1723651618.547566,172.16.5.2,38312,172.16.1.2,5102,12108,30540,2086,62848,65728,6,6,4,1460,114062,1,16778208,360000,74540,71644,65700,0,27512,0,2326532521,63
i,1723651618.573134,172.16.5.2,38312,172.16.1.2,5102,12108,30540,2086,62848,65728,6,6,4,1460,114062,1,16778208,360000,74540,74540,65700,0,30408,0,2326532521,63
o,1723651618.573202,172.16.5.2,38312,172.16.1.2,5102,12108,30540,2086,62848,65728,6,6,4,1460,113750,1,16778208,350000,74540,71644,65700,0,27512,0,2326532521,63
i,1723651618.586207,172.16.5.2,38312,172.16.1.2,5102,12108,30540,2086,62848,65728,6,6,4,1460,113750,1,16778208,350000,74540,74540,65700,0,30408,0,2326532521,63
o,1723651618.586279,172.16.5.2,38312,172.16.1.2,5102,12108,30540,2086,64256,65728,6,6,4,1460,114687,1,16778208,350000,74540,71644,65700,0,27512,0,2326532521,63
i,1723651618.596871,172.16.5.2,38312,172.16.1.2,5102,12108,30540,2086,64256,65728,6,6,4,1460,114687,1,16778208,350000,74540,74540,65700,0,30408,0,2326532521,63
o,1723651618.596992,172.16.5.2,38312,172.16.1.2,5102,12108,30540,2086,64256,65728,6,6,4,1460,111875,1,16778208,360000,74540,71644,65700,0,27512,0,2326532521,63
i,1723651618.612221,172.16.5.2,38312,172.16.1.2,5102,12108,30540,2086,64256,65728,6,6,4,1460,111875,1,16778208,360000,74540,74540,65700,0,30408,0,2326532521,63
o,1723651618.612313,172.16.5.2,38312,172.16.1.2,5102,12108,30540,2086,64256,65728,6,6,4,1460,111875,1,16778208,350000,74540,71644,65700,0,27512,0,2326532521,63
i,1723651618.613680,172.16.5.2,38312,172.16.1.2,5102,12108,30540,2086,64256,65728,6,6,4,1460,111875,1,16778208,350000,74540,74540,65700,0,30408,0,2326532521,63
o,1723651618.613748,172.16.5.2,38312,172.16.1.2,5102,12108,32000,2086,64256,65728,6,6,4,1460,111875,1,16778208,340000,74540,71644,65700,0,27512,0,2326532521,63
i,1723651618.633460,172.16.5.2,38312,172.16.1.2,5102,12108,32000,2086,64256,65728,6,6,4,1460,111875,1,16778208,340000,74540,74540,65700,0,31856,0,2326532521,63
o,1723651618.633501,172.16.5.2,38312,172.16.1.2,5102,12108,32000,2086,64256,65728,6,6,4,1460,114375,1,16778208,350000,74540,71644,65700,0,28960,0,2326532521,63
i,1723651618.670776,172.16.5.2,38312,172.16.1.2,5102,12108,32000,2086,64256,65728,6,6,4,1460,114375,1,16778208,350000,74540,74540,65700,0,31856,0,2326532521,63
o,1723651618.670815,172.16.5.2,38312,172.16.1.2,5102,12108,32000,2086,64256,65728,6,6,4,1460,119062,1,16778208,380000,74540,71644,65700,0,28960,0,2326532521,63
o,1723651618.671004,172.16.5.2,38312,172.16.1.2,5102,12108,32000,2086,64256,65728,6,6,4,1460,119062,1,16778208,380000,74540,71644,65700,0,30408,0,2326532521,63
i,1723651618.671139,172.16.5.2,38312,172.16.1.2,5102,12108,32000,2086,64256,65728,6,6,4,1460,119062,1,16778208,380000,74540,71644,65700,0,31856,0,2326532521,63
o,1723651618.671157,172.16.5.2,38312,172.16.1.2,5102,12108,32000,2086,61376,65728,6,6,4,1460,123125,1,16778208,400000,74540,68748,65700,0,28960,0,2326532521,63
i,1723651618.671280,172.16.5.2,38312,172.16.1.2,5102,12108,32000,2086,61376,65728,6,6,4,1460,123125,1,16778208,400000,74540,68748,65700,0,31856,0,2326532521,63
o,1723651618.671297,172.16.5.2,38312,172.16.1.2,5102,12108,32000,2086,64256,65728,6,6,4,1460,124062,1,16778208,390000,74540,65852,65700,0,28960,0,2326532521,63
i,1723651618.671484,172.16.5.2,38312,172.16.1.2,5102,12108,32000,2086,64256,65728,6,6,4,1460,124062,1,16778208,390000,74540,65852,65700,0,31856,0,2326532521,63
o,1723651618.671500,172.16.5.2,38312,172.16.1.2,5102,12108,32000,2086,64256,65728,6,6,4,1460,125000,1,16778208,380000,74540,62956,65700,0,28960,0,2326532521,63
i,1723651618.683804,172.16.5.2,38312,172.16.1.2,5102,12108,32000,2086,64256,65728,6,6,4,1460,125000,1,16778208,380000,74540,74540,65700,0,31856,0,2326532521,63
o,1723651618.683845,172.16.5.2,38312,172.16.1.2,5102,12108,32000,2086,64256,65728,6,6,4,1460,125625,1,16778208,370000,74540,71644,65700,0,28960,0,2326532521,63
i,1723651618.684044,172.16.5.2,38312,172.16.1.2,5102,12108,32000,2086,64256,65728,6,6,4,1460,125625,1,16778208,370000,74540,71644,65700,0,31856,0,2326532521,63
o,1723651618.684068,172.16.5.2,38312,172.16.1.2,5102,12108,32000,2086,62848,65728,6,6,4,1460,123750,1,16778208,370000,74540,68748,65700,0,28960,0,2326532521,63
i,1723651618.703790,172.16.5.2,38312,172.16.1.2,5102,12108,32000,2086,62848,65728,6,6,4,1460,123750,1,16778208,370000,74540,74540,65700,0,31856,0,2326532521,63
o,1723651618.703870,172.16.5.2,38312,172.16.1.2,5102,12108,32000,2086,65728,65728,6,6,4,1460,123437,1,16778208,360000,74540,73092,65700,0,30408,0,2326532521,63
i,1723651618.712205,172.16.5.2,38312,172.16.1.2,5102,12108,32000,2086,65728,65728,6,6,4,1460,123437,1,16778208,360000,74540,73092,65700,0,31856,0,2326532521,63
o,1723651618.712225,172.16.5.2,38312,172.16.1.2,5102,12108,32000,2086,62848,65728,6,6,4,1460,123125,1,16778208,360000,74540,70196,65700,0,28960,0,2326532521,63
i,1723651618.722481,172.16.5.2,38312,172.16.1.2,5102,12108,32000,2086,62848,65728,6,6,4,1460,123125,1,16778208,360000,74540,74540,65700,0,31856,0,2326532521,63
o,1723651618.722505,172.16.5.2,38312,172.16.1.2,5102,12108,32000,2086,64256,65728,6,6,4,1460,120312,1,16778208,370000,74540,71644,65700,0,28960,0,2326532521,63
i,1723651618.733151,172.16.5.2,38312,172.16.1.2,5102,12108,32000,2086,64256,65728,6,6,4,1460,120312,1,16778208,370000,74540,74540,65700,0,31856,0,2326532521,63
o,1723651618.733195,172.16.5.2,38312,172.16.1.2,5102,12108,33460,2086,62848,65728,6,6,4,1460,119062,1,16778208,360000,74540,71644,65700,0,28960,0,2326532521,63
i,1723651618.751748,172.16.5.2,38312,172.16.1.2,5102,12108,33460,2086,62848,65728,6,6,4,1460,119062,1,16778208,360000,74540,74540,65700,0,33304,0,2326532521,63
o,1723651618.751769,172.16.5.2,38312,172.16.1.2,5102,12108,33460,2086,64256,65728,6,6,4,1460,120625,1,16778208,370000,74540,71644,65700,0,30408,0,2326532521,63
i,1723651618.773649,172.16.5.2,38312,172.16.1.2,5102,12108,33460,2086,64256,65728,6,6,4,1460,120625,1,16778208,370000,74540,74540,65700,0,33304,0,2326532521,63
o,1723651618.773740,172.16.5.2,38312,172.16.1.2,5102,12108,33460,2086,64256,65728,6,6,4,1460,123125,1,16778208,380000,74540,71644,65700,0,30408,0,2326532521,63
o,1723651618.773874,172.16.5.2,38312,172.16.1.2,5102,12108,33460,2086,64256,65728,6,6,4,1460,123125,1,16778208,380000,74540,71644,65700,0,31856,0,2326532521,63
i,1723651618.774061,172.16.5.2,38312,172.16.1.2,5102,12108,33460,2086,64256,65728,6,6,4,1460,123125,1,16778208,380000,74540,71644,65700,0,33304,0,2326532521,63
o,1723651618.774077,172.16.5.2,38312,172.16.1.2,5102,12108,33460,2086,64256,65728,6,6,4,1460,119062,1,16778208,390000,74540,68748,65700,0,30408,0,2326532521,63
i,1723651618.774760,172.16.5.2,38312,172.16.1.2,5102,12108,33460,2086,64256,65728,6,6,4,1460,119062,1,16778208,390000,74540,74540,65700,0,33304,0,2326532521,63
o,1723651618.774760,172.16.5.2,38312,172.16.1.2,5102,12108,33460,2086,62848,65728,6,6,4,1460,115625,1,16778208,400000,74540,71644,65700,0,30408,0,2326532521,63
i,1723651618.781229,172.16.5.2,38312,172.16.1.2,5102,12108,33460,2086,62848,65728,6,6,4,1460,115625,1,16778208,400000,74540,74540,65700,0,33304,0,2326532521,63
o,1723651618.781304,172.16.5.2,38312,172.16.1.2,5102,12108,33460,2086,62848,65728,6,6,4,1460,113750,1,16778208,390000,74540,71644,65700,0,30408,0,2326532521,63
i,1723651618.782525,172.16.5.2,38312,172.16.1.2,5102,12108,33460,2086,62848,65728,6,6,4,1460,113750,1,16778208,390000,74540,74540,65700,0,33304,0,2326532521,63
o,1723651618.782567,172.16.5.2,38312,172.16.1.2,5102,12108,33460,2086,59968,65728,6,6,4,1460,112187,1,16778208,380000,74540,71644,65700,0,30408,0,2326532521,63
i,1723651618.792478,172.16.5.2,38312,172.16.1.2,5102,12108,33460,2086,59968,65728,6,6,4,1460,112187,1,16778208,380000,74540,73208,65700,0,33304,0,2326532521,63
o,1723651618.792498,172.16.5.2,38312,172.16.1.2,5102,12108,33460,2086,62848,65728,6,6,4,1460,112187,1,16778208,360000,74540,70312,65700,0,30408,0,2326532521,63
i,1723651618.823470,172.16.5.2,38312,172.16.1.2,5102,12108,33460,2086,62848,65728,6,6,4,1460,112187,1,16778208,360000,74540,74540,65700,0,33304,0,2326532521,63
o,1723651618.823500,172.16.5.2,38312,172.16.1.2,5102,12108,33460,2086,97152,65728,6,6,4,1460,115937,1,16778208,390000,74540,71644,65700,0,30408,0,2326532521,63
i,1723651618.823658,172.16.5.2,38312,172.16.1.2,5102,12108,33460,2086,97152,65728,6,6,4,1460,115937,1,16778208,390000,74540,71644,65700,0,33304,0,2326532521,63
o,1723651618.823675,172.16.5.2,38312,172.16.1.2,5102,12108,33460,2086,94272,65728,6,6,4,1460,114062,1,16778208,380000,74540,68748,65700,0,30408,0,2326532521,63
i,1723651618.839157,172.16.5.2,38312,172.16.1.2,5102,12108,33460,2086,94272,65728,6,6,4,1460,114062,1,16778208,380000,74540,74540,65700,0,33304,0,2326532521,63
o,1723651618.839181,172.16.5.2,38312,172.16.1.2,5102,12108,33460,2086,97152,65728,6,6,4,1460,115000,1,16778208,370000,74540,71644,65700,0,30408,0,2326532521,63
i,1723651618.853365,172.16.5.2,38312,172.16.1.2,5102,12108,33460,2086,97152,65728,6,6,4,1460,115000,1,16778208,370000,74540,74540,65700,0,33304,0,2326532521,63
o,1723651618.853387,172.16.5.2,38312,172.16.1.2,5102,12108,33460,2086,95680,65728,6,6,4,1460,115625,1,16778208,360000,74540,71644,65700,0,30408,0,2326532521,63
i,1723651618.872136,172.16.5.2,38312,172.16.1.2,5102,12108,33460,2086,95680,65728,6,6,4,1460,115625,1,16778208,360000,74540,74540,65700,0,33304,0,2326532521,63
o,1723651618.872214,172.16.5.2,38312,172.16.1.2,5102,12108,34920,2086,98560,65728,6,6,4,1460,118750,1,16778208,380000,74540,73092,65700,0,31856,0,2326532521,63
i,1723651618.872397,172.16.5.2,38312,172.16.1.2,5102,12108,34920,2086,98560,65728,6,6,4,1460,118750,1,16778208,380000,74540,73092,65700,0,34752,0,2326532521,63
o,1723651618.872414,172.16.5.2,38312,172.16.1.2,5102,12108,34920,2086,95680,65728,6,6,4,1460,119062,1,16778208,370000,74540,70196,65700,0,31856,0,2326532521,63
i,1723651618.909757,172.16.5.2,38312,172.16.1.2,5102,12108,34920,2086,95680,65728,6,6,4,1460,119062,1,16778208,370000,74540,74540,65700,0,34752,0,2326532521,63
o,1723651618.909804,172.16.5.2,38312,172.16.1.2,5102,12108,34920,2086,97152,65728,6,6,4,1460,121875,1,16778208,380000,74540,71644,65700,0,31856,0,2326532521,63
o,1723651618.909991,172.16.5.2,38312,172.16.1.2,5102,12108,34920,2086,97152,65728,6,6,4,1460,121875,1,16778208,380000,74540,71644,65700,0,33304,0,2326532521,63
i,1723651618.910211,172.16.5.2,38312,172.16.1.2,5102,12108,34920,2086,97152,65728,6,6,4,1460,121875,1,16778208,380000,74540,71644,65700,0,34752,0,2326532521,63
o,1723651618.910245,172.16.5.2,38312,172.16.1.2,5102,12108,34920,2086,97152,65728,6,6,4,1460,124375,1,16778208,390000,74540,68748,65700,0,31856,0,2326532521,63
i,1723651618.912685,172.16.5.2,38312,172.16.1.2,5102,12108,34920,2086,97152,65728,6,6,4,1460,124375,1,16778208,390000,82732,82732,65700,0,34752,0,2326532521,63
o,1723651618.912726,172.16.5.2,38312,172.16.1.2,5102,12108,34920,2086,97152,65728,6,6,4,1460,126562,1,16778208,390000,82732,79836,65700,0,31856,0,2326532521,63
i,1723651618.912908,172.16.5.2,38312,172.16.1.2,5102,12108,34920,2086,97152,65728,6,6,4,1460,126562,1,16778208,390000,82732,79836,65700,0,34752,0,2326532521,63
o,1723651618.912929,172.16.5.2,38312,172.16.1.2,5102,12108,34920,2086,94272,65728,6,6,4,1460,127187,1,16778208,380000,82732,76940,65700,0,31856,0,2326532521,63
i,1723651618.913078,172.16.5.2,38312,172.16.1.2,5102,12108,34920,2086,94272,65728,6,6,4,1460,127187,1,16778208,380000,82732,76940,65700,0,34752,0,2326532521,63
o,1723651618.913110,172.16.5.2,38312,172.16.1.2,5102,12108,34920,2086,95680,65728,6,6,4,1460,127812,1,16778208,370000,82732,74044,65700,0,31856,0,2326532521,63
i,1723651618.922527,172.16.5.2,38312,172.16.1.2,5102,12108,34920,2086,95680,65728,6,6,4,1460,127812,1,16778208,370000,82732,82732,65700,0,34752,0,2326532521,63
o,1723651618.922655,172.16.5.2,38312,172.16.1.2,5102,12108,34920,2086,95680,65728,6,6,4,1460,126875,1,16778208,370000,82732,79836,65700,0,31856,0,2326532521,63
i,1723651618.950210,172.16.5.2,38312,172.16.1.2,5102,12108,34920,2086,95680,65728,6,6,4,1460,126875,1,16778208,370000,82732,82732,65700,0,34752,0,2326532521,63
o,1723651618.950309,172.16.5.2,38312,172.16.1.2,5102,12108,34920,2086,95680,65728,6,6,4,1460,127500,1,16778208,360000,82732,79836,65700,0,31856,0,2326532521,63
i,1723651618.950547,172.16.5.2,38312,172.16.1.2,5102,12108,34920,2086,95680,65728,6,6,4,1460,127500,1,16778208,360000,82732,79836,65700,0,34752,0,2326532521,63
o,1723651618.950581,172.16.5.2,38312,172.16.1.2,5102,12108,34920,2086,95680,65728,6,6,4,1460,127812,1,16778208,360000,82732,76940,65700,0,31856,0,2326532521,63
i,1723651618.964999,172.16.5.2,38312,172.16.1.2,5102,12108,34920,2086,95680,65728,6,6,4,1460,127812,1,16778208,360000,82732,82732,65700,0,34752,0,2326532521,63
o,1723651618.965018,172.16.5.2,38312,172.16.1.2,5102,12108,34920,2086,95680,65728,6,6,4,1460,125625,1,16778208,360000,82732,79836,65700,0,31856,0,2326532521,63
i,1723651618.965154,172.16.5.2,38312,172.16.1.2,5102,12108,34920,2086,95680,65728,6,6,4,1460,125625,1,16778208,360000,82732,79836,65700,0,34752,0,2326532521,63
o,1723651618.965171,172.16.5.2,38312,172.16.1.2,5102,12108,34920,2086,97152,65728,6,6,4,1460,123750,1,16778208,370000,82732,76940,65700,0,31856,0,2326532521,63
