enable_time_secs=1723651960	enable_time_usecs=330120	siftrver=1.3.0	sysname=FreeBSD	sysver=1401000	ipmode=4
o,1723651960.330528,10.0.2.15,22,10.0.2.2,50568,1073725440,17746,1026,65535,65700,0,0,4,1460,312,0,16777220,240000,33580,172,65700,0,0,0,1549936310,63
o,1723651960.331158,10.0.2.15,22,10.0.2.2,50568,1073725440,17746,1026,65535,65700,0,0,4,1460,312,0,16777220,240000,33580,244,65700,0,172,0,1549936310,63
i,1723651960.331263,10.0.2.15,22,10.0.2.2,50568,1073725440,17746,1026,65535,65700,0,0,4,1460,312,0,16777220,240000,33580,244,65700,0,244,0,1549936310,63
i,1723651960.331319,10.0.2.15,22,10.0.2.2,50568,1073725440,17918,1026,65535,65700,0,0,4,1460,312,0,4,240000,33580,72,65700,0,72,0,1549936310,63
i,1723651960.332104,10.0.2.15,22,10.0.2.2,50568,1073725440,17990,1026,65535,65700,0,0,4,1460,312,0,4,240000,33580,0,65700,0,0,0,1549936310,63
i,1723651960.332121,10.0.2.15,22,10.0.2.2,50568,1073725440,17990,1026,65535,65700,0,0,4,1460,312,0,4,240000,33580,0,65700,96,0,0,1549936310,63
o,1723651960.332157,10.0.2.15,22,10.0.2.2,50568,1073725440,17990,1026,65535,65604,0,0,5,1460,312,0,5,240000,33580,0,65700,96,0,0,1549936310,63
o,1723651960.333040,10.0.2.15,22,10.0.2.2,50568,1073725440,17990,1026,65535,65604,0,0,8,1460,312,0,4,240000,33580,0,65700,0,0,0,1549936310,63
i,1723651960.333295,10.0.2.15,22,10.0.2.2,50568,1073725440,17990,1026,65535,65604,0,0,8,1460,312,0,67108884,240000,33580,0,65700,0,1,0,1549936310,63
i,1723651963.538476,10.0.2.15,22,10.0.2.2,50578,1073725440,14600,0,65535,65700,0,0,4,1460,312,0,16777216,270000,33580,0,65700,0,0,0,850256348,63
o,1723651963.551563,10.0.2.15,22,10.0.2.2,50578,1073725440,14600,1026,65535,65700,0,0,4,1460,312,0,16777216,270000,33580,38,65700,42,0,0,850256348,63
i,1723651963.552405,10.0.2.15,22,10.0.2.2,50578,1073725440,14600,1026,65535,65700,0,0,4,1460,312,0,16777216,270000,33580,38,65700,0,38,0,850256348,63
i,1723651963.553071,10.0.2.15,22,10.0.2.2,50578,1073725440,14638,1026,65535,65700,0,0,4,1460,312,0,0,240000,33580,0,65700,0,0,0,850256348,63
i,1723651963.553088,10.0.2.15,22,10.0.2.2,50578,1073725440,14638,1026,65535,65700,0,0,4,1460,312,0,0,240000,33580,0,65700,1460,0,0,850256348,63
o,1723651963.553105,10.0.2.15,22,10.0.2.2,50578,1073725440,14638,1026,65535,65700,0,0,4,1460,312,0,1,240000,33580,0,65700,1536,0,0,850256348,63
o,1723651963.553948,10.0.2.15,22,10.0.2.2,50578,1073725440,14638,1026,65535,65700,0,0,4,1460,312,0,16777216,240000,33580,1120,65700,1536,0,0,850256348,63
i,1723651963.554777,10.0.2.15,22,10.0.2.2,50578,1073725440,14638,1026,65535,65700,0,0,4,1460,312,0,16777216,240000,33580,1120,65700,0,1120,0,850256348,63
i,1723651963.555726,10.0.2.15,22,10.0.2.2,50578,1073725440,15758,1026,65535,65700,0,0,4,1460,312,0,0,240000,33580,0,65700,0,0,0,850256348,63
o,1723651963.558332,10.0.2.15,22,10.0.2.2,50578,1073725440,15758,1026,65535,65700,0,0,4,1460,312,0,16777216,240000,33580,492,65700,0,0,0,850256348,63
i,1723651963.559273,10.0.2.15,22,10.0.2.2,50578,1073725440,15758,1026,65535,65700,0,0,4,1460,312,0,16777216,240000,33580,492,65700,0,492,0,850256348,63
i,1723651963.563902,10.0.2.15,22,10.0.2.2,50578,1073725440,16250,1026,65535,65700,0,0,4,1460,312,0,0,240000,33580,0,65700,0,0,0,850256348,63
i,1723651963.563933,10.0.2.15,22,10.0.2.2,50578,1073725440,16250,1026,65535,65700,0,0,4,1460,312,0,0,240000,33580,0,65700,16,0,0,850256348,63
o,1723651963.563957,10.0.2.15,22,10.0.2.2,50578,1073725440,16250,1026,65535,65700,0,0,4,1460,312,0,1,240000,33580,0,65700,60,0,0,850256348,63
o,1723651963.564268,10.0.2.15,22,10.0.2.2,50578,1073725440,16250,1026,65535,65700,0,0,4,1460,312,0,16777216,240000,33580,44,65700,0,0,0,850256348,63
i,1723651963.565321,10.0.2.15,22,10.0.2.2,50578,1073725440,16250,1026,65535,65700,0,0,4,1460,312,0,16777216,240000,33580,44,65700,0,44,0,850256348,63
i,1723651963.565402,10.0.2.15,22,10.0.2.2,50578,1073725440,16294,1026,65535,65700,0,0,4,1460,312,0,0,240000,33580,0,65700,0,0,0,850256348,63
o,1723651963.567942,10.0.2.15,22,10.0.2.2,50578,1073725440,16294,1026,65535,65700,0,0,4,1460,312,0,16777216,240000,33580,68,65700,0,0,0,850256348,63
i,1723651963.568688,10.0.2.15,22,10.0.2.2,50578,1073725440,16294,1026,65535,65700,0,0,4,1460,312,0,16777216,240000,33580,68,65700,0,68,0,850256348,63
i,1723651963.569164,10.0.2.15,22,10.0.2.2,50578,1073725440,16362,1026,65535,65700,0,0,4,1460,312,0,0,240000,33580,0,65700,0,0,0,850256348,63
o,1723651963.570635,10.0.2.15,22,10.0.2.2,50578,1073725440,16362,1026,65535,65700,0,0,4,1460,312,0,16777216,240000,33580,332,65700,0,0,0,850256348,63
i,1723651963.571139,10.0.2.15,22,10.0.2.2,50578,1073725440,16362,1026,65535,65700,0,0,4,1460,312,0,16777216,240000,33580,332,65700,0,332,0,850256348,63
i,1723651963.572975,10.0.2.15,22,10.0.2.2,50578,1073725440,16694,1026,65535,65700,0,0,4,1460,312,0,0,240000,33580,0,65700,0,0,0,850256348,63
o,1723651963.592660,10.0.2.15,22,10.0.2.2,50578,1073725440,16694,1026,65535,65700,0,0,4,1460,312,0,16777216,240000,33580,28,65700,0,0,0,850256348,63
i,1723651963.593338,10.0.2.15,22,10.0.2.2,50578,1073725440,16694,1026,65535,65700,0,0,4,1460,312,0,16777216,240000,33580,28,65700,0,28,0,850256348,63
i,1723651963.593559,10.0.2.15,22,10.0.2.2,50578,1073725440,16722,1026,65535,65700,0,0,4,1460,312,0,0,240000,33580,0,65700,0,0,0,850256348,63
o,1723651963.595691,10.0.2.15,22,10.0.2.2,50578,1073725440,16722,1026,65535,65700,0,0,4,1460,312,0,16777216,240000,33580,768,65700,112,0,0,850256348,63
i,1723651963.596948,10.0.2.15,22,10.0.2.2,50578,1073725440,16722,1026,65535,65700,0,0,4,1460,312,0,16777216,240000,33580,908,65700,112,768,0,850256348,63
o,1723651963.597015,10.0.2.15,22,10.0.2.2,50578,1073725440,17490,1026,65535,65700,0,0,4,1460,312,0,16777216,240000,33580,140,65700,112,0,0,850256348,63
i,1723651963.598077,10.0.2.15,22,10.0.2.2,50578,1073725440,17490,1026,65535,65700,0,0,4,1460,312,0,16777216,240000,33580,140,65700,112,140,0,850256348,63
o,1723651963.598351,10.0.2.15,22,10.0.2.2,50578,1073725440,17630,1026,65535,65700,0,0,4,1460,312,0,16777216,230000,33580,44,65700,0,0,0,850256348,63
i,1723651963.598960,10.0.2.15,22,10.0.2.2,50578,1073725440,17630,1026,65535,65700,0,0,4,1460,312,0,16777216,230000,33580,44,65700,0,44,0,850256348,63
i,1723651963.598979,10.0.2.15,22,10.0.2.2,50578,1073725440,17674,1026,65535,65700,0,0,4,1460,312,0,0,230000,33580,0,65700,0,0,0,850256348,63
o,1723651963.599919,10.0.2.15,22,10.0.2.2,50578,1073725440,17674,1026,65535,65700,0,0,4,1460,312,0,16777220,230000,33580,72,65700,0,0,0,850256348,63
i,1723651963.600376,10.0.2.15,22,10.0.2.2,50578,1073725440,17674,1026,65535,65700,0,0,4,1460,312,0,16777220,230000,33580,72,65700,0,72,0,850256348,63
o,1723651963.602999,10.0.2.15,22,10.0.2.2,50578,1073725440,17746,1026,65535,65700,0,0,4,1460,312,0,16777220,230000,33580,104,65700,0,0,0,850256348,63
i,1723651963.603418,10.0.2.15,22,10.0.2.2,50578,1073725440,17746,1026,65535,65700,0,0,4,1460,312,0,16777220,230000,33580,104,65700,0,104,0,850256348,63
o,1723651963.635538,10.0.2.15,22,10.0.2.2,50578,1073725440,17850,1026,65535,65700,0,0,4,1460,312,0,16777220,230000,33580,72,65700,0,0,0,850256348,63
i,1723651963.636974,10.0.2.15,22,10.0.2.2,50578,1073725440,17850,1026,65535,65700,0,0,4,1460,312,0,16777220,230000,33580,72,65700,0,72,0,850256348,63
i,1723651963.636997,10.0.2.15,22,10.0.2.2,50578,1073725440,17922,1026,65535,65700,0,0,4,1460,312,0,4,240000,33580,0,65700,0,0,0,850256348,63
i,1723651963.637078,10.0.2.15,22,10.0.2.2,50578,1073725440,17922,1026,65535,65700,0,0,4,1460,312,0,4,240000,33580,0,65700,96,0,0,850256348,63
o,1723651963.637108,10.0.2.15,22,10.0.2.2,50578,1073725440,17922,1026,65535,65604,0,0,5,1460,312,0,5,240000,33580,0,65700,96,0,0,850256348,63
o,1723651963.638960,10.0.2.15,22,10.0.2.2,50578,1073725440,17922,1026,65535,65604,0,0,8,1460,312,0,4,240000,33580,0,65700,0,0,0,850256348,63
i,1723651963.640082,10.0.2.15,22,10.0.2.2,50578,1073725440,17922,1026,65535,65604,0,0,8,1460,312,0,67108884,240000,33580,0,65700,0,1,0,850256348,63
i,1723651964.709610,10.0.2.15,22,10.0.2.2,50580,1073725440,14600,0,65535,65700,0,0,4,1460,312,0,16777216,270000,33580,0,65700,0,0,0,3392238534,63
o,1723651964.721156,10.0.2.15,22,10.0.2.2,50580,1073725440,14600,1026,65535,65700,0,0,4,1460,312,0,16777216,270000,33580,38,65700,42,0,0,3392238534,63
i,1723651964.721710,10.0.2.15,22,10.0.2.2,50580,1073725440,14600,1026,65535,65700,0,0,4,1460,312,0,16777216,270000,33580,38,65700,0,38,0,3392238534,63
i,1723651964.722153,10.0.2.15,22,10.0.2.2,50580,1073725440,14638,1026,65535,65700,0,0,4,1460,312,0,0,240000,33580,0,65700,0,0,0,3392238534,63
i,1723651964.722175,10.0.2.15,22,10.0.2.2,50580,1073725440,14638,1026,65535,65700,0,0,4,1460,312,0,0,240000,33580,0,65700,1460,0,0,3392238534,63
o,1723651964.722198,10.0.2.15,22,10.0.2.2,50580,1073725440,14638,1026,65535,65700,0,0,4,1460,312,0,1,240000,33580,0,65700,1536,0,0,3392238534,63
o,1723651964.723434,10.0.2.15,22,10.0.2.2,50580,1073725440,14638,1026,65535,65700,0,0,4,1460,312,0,16777216,240000,33580,1120,65700,1536,0,0,3392238534,63
i,1723651964.723957,10.0.2.15,22,10.0.2.2,50580,1073725440,14638,1026,65535,65700,0,0,4,1460,312,0,16777216,240000,33580,1120,65700,0,1120,0,3392238534,63
i,1723651964.725571,10.0.2.15,22,10.0.2.2,50580,1073725440,15758,1026,65535,65700,0,0,4,1460,312,0,0,240000,33580,0,65700,0,0,0,3392238534,63
o,1723651964.729115,10.0.2.15,22,10.0.2.2,50580,1073725440,15758,1026,65535,65700,0,0,4,1460,312,0,16777216,240000,33580,492,65700,0,0,0,3392238534,63
i,1723651964.729949,10.0.2.15,22,10.0.2.2,50580,1073725440,15758,1026,65535,65700,0,0,4,1460,312,0,16777216,240000,33580,492,65700,0,492,0,3392238534,63
i,1723651964.735208,10.0.2.15,22,10.0.2.2,50580,1073725440,16250,1026,65535,65700,0,0,4,1460,312,0,0,240000,33580,0,65700,0,0,0,3392238534,63
i,1723651964.735243,10.0.2.15,22,10.0.2.2,50580,1073725440,16250,1026,65535,65700,0,0,4,1460,312,0,0,240000,33580,0,65700,16,0,0,3392238534,63
o,1723651964.735269,10.0.2.15,22,10.0.2.2,50580,1073725440,16250,1026,65535,65700,0,0,4,1460,312,0,1,240000,33580,0,65700,60,0,0,3392238534,63
o,1723651964.735578,10.0.2.15,22,10.0.2.2,50580,1073725440,16250,1026,65535,65700,0,0,4,1460,312,0,16777216,240000,33580,44,65700,0,0,0,3392238534,63
i,1723651964.736562,10.0.2.15,22,10.0.2.2,50580,1073725440,16250,1026,65535,65700,0,0,4,1460,312,0,16777216,240000,33580,44,65700,0,44,0,3392238534,63
i,1723651964.736622,10.0.2.15,22,10.0.2.2,50580,1073725440,16294,1026,65535,65700,0,0,4,1460,312,0,0,240000,33580,0,65700,0,0,0,3392238534,63
o,1723651964.739041,10.0.2.15,22,10.0.2.2,50580,1073725440,16294,1026,65535,65700,0,0,4,1460,312,0,16777216,240000,33580,68,65700,0,0,0,3392238534,63
i,1723651964.739893,10.0.2.15,22,10.0.2.2,50580,1073725440,16294,1026,65535,65700,0,0,4,1460,312,0,16777216,240000,33580,68,65700,0,68,0,3392238534,63
i,1723651964.740420,10.0.2.15,22,10.0.2.2,50580,1073725440,16362,1026,65535,65700,0,0,4,1460,312,0,0,240000,33580,0,65700,0,0,0,3392238534,63
o,1723651964.741946,10.0.2.15,22,10.0.2.2,50580,1073725440,16362,1026,65535,65700,0,0,4,1460,312,0,16777216,240000,33580,332,65700,0,0,0,3392238534,63
i,1723651964.742843,10.0.2.15,22,10.0.2.2,50580,1073725440,16362,1026,65535,65700,0,0,4,1460,312,0,16777216,240000,33580,332,65700,0,332,0,3392238534,63
i,1723651964.744532,10.0.2.15,22,10.0.2.2,50580,1073725440,16694,1026,65535,65700,0,0,4,1460,312,0,0,240000,33580,0,65700,0,0,0,3392238534,63
o,1723651964.763794,10.0.2.15,22,10.0.2.2,50580,1073725440,16694,1026,65535,65700,0,0,4,1460,312,0,16777216,240000,33580,28,65700,0,0,0,3392238534,63
i,1723651964.764366,10.0.2.15,22,10.0.2.2,50580,1073725440,16694,1026,65535,65700,0,0,4,1460,312,0,16777216,240000,33580,28,65700,0,28,0,3392238534,63
i,1723651964.764388,10.0.2.15,22,10.0.2.2,50580,1073725440,16722,1026,65535,65700,0,0,4,1460,312,0,0,240000,33580,0,65700,0,0,0,3392238534,63
o,1723651964.765620,10.0.2.15,22,10.0.2.2,50580,1073725440,16722,1026,65535,65700,0,0,4,1460,312,0,16777216,240000,33580,768,65700,112,0,0,3392238534,63
i,1723651964.766394,10.0.2.15,22,10.0.2.2,50580,1073725440,16722,1026,65535,65700,0,0,4,1460,312,0,16777216,240000,33580,908,65700,112,768,0,3392238534,63
o,1723651964.766413,10.0.2.15,22,10.0.2.2,50580,1073725440,17490,1026,65535,65700,0,0,4,1460,312,0,16777216,240000,33580,140,65700,112,0,0,3392238534,63
i,1723651964.766780,10.0.2.15,22,10.0.2.2,50580,1073725440,17490,1026,65535,65700,0,0,4,1460,312,0,16777216,240000,33580,140,65700,112,140,0,3392238534,63
o,1723651964.767106,10.0.2.15,22,10.0.2.2,50580,1073725440,17630,1026,65535,65700,0,0,4,1460,312,0,16777216,240000,33580,44,65700,0,0,0,3392238534,63
i,1723651964.767615,10.0.2.15,22,10.0.2.2,50580,1073725440,17630,1026,65535,65700,0,0,4,1460,312,0,16777216,240000,33580,44,65700,0,44,0,3392238534,63
i,1723651964.770095,10.0.2.15,22,10.0.2.2,50580,1073725440,17674,1026,65535,65700,0,0,4,1460,312,0,0,230000,33580,0,65700,0,0,0,3392238534,63
o,1723651964.770816,10.0.2.15,22,10.0.2.2,50580,1073725440,17674,1026,65535,65700,0,0,4,1460,312,0,16777220,230000,33580,72,65700,0,0,0,3392238534,63
i,1723651964.771121,10.0.2.15,22,10.0.2.2,50580,1073725440,17674,1026,65535,65700,0,0,4,1460,312,0,16777220,230000,33580,72,65700,0,72,0,3392238534,63
o,1723651964.894058,172.16.5.2,24462,172.16.1.2,5102,9944,14480,2082,65535,65700,6,6,4,1460,261250,1,16778209,860000,33580,0,65700,0,0,0,3082973176,63
o,1723651964.894556,172.16.5.2,24462,172.16.1.2,5102,9944,14480,2082,65535,65700,6,6,4,1460,261250,1,16778212,860000,33580,37,65700,0,0,0,3082973176,63
i,1723651965.022455,172.16.5.2,24462,172.16.1.2,5102,9944,14480,2082,65535,65700,6,6,4,1460,261250,1,16778212,860000,33580,37,65700,0,37,0,3082973176,63
o,1723651965.023000,172.16.5.2,24462,172.16.1.2,5102,9944,14480,3106,65728,65728,6,6,4,1460,245000,1,16778212,880000,33580,4,65700,0,0,0,3082973176,63
o,1723651965.023473,172.16.5.2,24462,172.16.1.2,5102,9944,14480,3106,65728,65728,6,6,4,1460,245000,1,16778212,880000,33580,130,65700,0,4,0,3082973176,63
i,1723651965.161867,172.16.5.2,24462,172.16.1.2,5102,9944,14480,3106,65728,65728,6,6,4,1460,245000,1,16778212,880000,33580,130,65700,0,130,0,3082973176,63
i,1723651965.161908,172.16.5.2,24462,172.16.1.2,5102,9944,14480,3106,65600,65728,6,6,4,1460,230625,1,996,870000,33580,0,65700,0,0,0,3082973176,63
o,1723651965.248628,172.16.5.2,24462,172.16.1.2,5102,9944,14480,3106,65728,65728,6,6,4,1460,230625,1,997,870000,33580,0,65700,0,0,0,3082973176,63
o,1723651965.272666,172.16.5.2,33917,172.16.1.2,5102,9944,14480,2082,65535,65700,6,6,4,1460,260000,1,16778209,870000,33580,0,65700,0,0,0,3564634782,63
o,1723651965.272790,172.16.5.2,33917,172.16.1.2,5102,9944,14480,2082,65535,65700,6,6,4,1460,260000,1,16778208,870000,33580,37,65700,0,0,0,3564634782,63
i,1723651965.393568,172.16.5.2,24462,172.16.1.2,5102,9944,14480,3106,65728,65728,6,6,4,1460,230625,1,996,870000,33580,0,65700,0,0,0,3082973176,63
i,1723651965.394059,172.16.5.2,24462,172.16.1.2,5102,9944,14480,3106,65728,65728,6,6,4,1460,230625,1,996,870000,33580,0,65700,0,0,0,3082973176,63
o,1723651965.394081,172.16.5.2,24462,172.16.1.2,5102,9944,14480,3106,65728,65728,6,6,4,1460,230625,1,997,870000,33580,0,65700,1,0,0,3082973176,63
o,1723651965.394446,172.16.5.2,33917,172.16.1.2,5102,9944,14480,2086,65535,65700,6,6,4,1460,260000,1,16778208,870000,33580,33580,65700,0,37,0,3564634782,63
i,1723651965.427607,172.16.5.2,33917,172.16.1.2,5102,9944,14480,2086,65535,65700,6,6,4,1460,260000,1,16778208,870000,33580,33580,65700,0,13069,0,3564634782,63
o,1723651965.427641,172.16.5.2,33917,172.16.1.2,5102,9944,14480,2082,65728,65728,6,6,4,1460,246250,1,16778208,870000,33580,33543,65700,0,13032,0,3564634782,63
i,1723651965.482187,172.16.5.2,33917,172.16.1.2,5102,9944,14480,2082,65728,65728,6,6,4,1460,246250,1,16778208,870000,33580,33543,65700,0,14480,0,3564634782,63
o,1723651965.482244,172.16.5.2,33917,172.16.1.2,5102,9944,14480,2086,62848,65728,6,6,4,1460,226875,1,16778208,900000,33580,30647,65700,0,11584,0,3564634782,63
i,1723651965.516523,172.16.5.2,33917,172.16.1.2,5102,9944,14480,2086,62848,65728,6,6,4,1460,226875,1,16778208,900000,33580,33580,65700,0,14480,0,3564634782,63
o,1723651965.516635,172.16.5.2,33917,172.16.1.2,5102,9944,14480,2086,64256,65728,6,6,4,1460,213750,1,16778208,870000,33580,30684,65700,0,11584,0,3564634782,63
i,1723651965.516830,172.16.5.2,33917,172.16.1.2,5102,9944,14480,2086,64256,65728,6,6,4,1460,213750,1,16778208,870000,33580,30684,65700,0,14480,0,3564634782,63
o,1723651965.516855,172.16.5.2,33917,172.16.1.2,5102,9944,14480,2086,64256,65728,6,6,4,1460,202187,1,16778208,840000,33580,27788,65700,0,11584,0,3564634782,63
i,1723651965.519006,172.16.5.2,33917,172.16.1.2,5102,9944,14480,2086,64256,65728,6,6,4,1460,202187,1,16778208,840000,33580,33580,65700,0,14480,0,3564634782,63
o,1723651965.519040,172.16.5.2,33917,172.16.1.2,5102,9944,14480,2086,64256,65728,6,6,4,1460,193437,1,16778208,790000,33580,30684,65700,0,11584,0,3564634782,63
i,1723651965.552213,172.16.5.2,33917,172.16.1.2,5102,9944,14480,2086,64256,65728,6,6,4,1460,193437,1,16778208,790000,33580,33580,65700,0,14480,0,3564634782,63
o,1723651965.552252,172.16.5.2,33917,172.16.1.2,5102,9944,15940,2086,64256,65728,6,6,4,1460,189375,1,16778208,720000,33580,30684,65700,0,11584,0,3564634782,63
o,1723651965.552401,172.16.5.2,33917,172.16.1.2,5102,9944,15940,2086,64256,65728,6,6,4,1460,189375,1,16778208,720000,33580,30684,65700,0,13032,0,3564634782,63
i,1723651965.612012,172.16.5.2,33917,172.16.1.2,5102,9944,15940,2086,64256,65728,6,6,4,1460,189375,1,16778208,720000,41772,41772,65700,0,15928,0,3564634782,63
o,1723651965.612066,172.16.5.2,33917,172.16.1.2,5102,9944,15940,2086,62848,65728,6,6,4,1460,182187,1,16778208,680000,41772,38876,65700,0,13032,0,3564634782,63
i,1723651965.613956,172.16.5.2,33917,172.16.1.2,5102,9944,15940,2086,62848,65728,6,6,4,1460,182187,1,16778208,680000,41772,41772,65700,0,15928,0,3564634782,63
o,1723651965.613989,172.16.5.2,33917,172.16.1.2,5102,9944,15940,2086,62848,65728,6,6,4,1460,172187,1,16778208,680000,41772,38876,65700,0,13032,0,3564634782,63
i,1723651965.614831,172.16.5.2,33917,172.16.1.2,5102,9944,15940,2086,62848,65728,6,6,4,1460,172187,1,16778208,680000,41772,41772,65700,0,15928,0,3564634782,63
o,1723651965.614851,172.16.5.2,33917,172.16.1.2,5102,9944,15940,2086,59968,65728,6,6,4,1460,163437,1,16778208,660000,41772,38876,65700,0,13032,0,3564634782,63
i,1723651965.655193,172.16.5.2,33917,172.16.1.2,5102,9944,15940,2086,59968,65728,6,6,4,1460,163437,1,16778208,660000,41772,41772,65700,0,15928,0,3564634782,63
o,1723651965.655292,172.16.5.2,33917,172.16.1.2,5102,9944,15940,2086,62848,65728,6,6,4,1460,159375,1,16778208,620000,41772,38876,65700,0,13032,0,3564634782,63
i,1723651965.683542,172.16.5.2,33917,172.16.1.2,5102,9944,15940,2086,62848,65728,6,6,4,1460,159375,1,16778208,620000,41772,41772,65700,0,15928,0,3564634782,63
o,1723651965.683663,172.16.5.2,33917,172.16.1.2,5102,9944,15940,2086,62848,65728,6,6,4,1460,155937,1,16778208,580000,41772,38876,65700,0,13032,0,3564634782,63
o,1723651965.683808,172.16.5.2,33917,172.16.1.2,5102,9944,15940,2086,62848,65728,6,6,4,1460,155937,1,16778208,580000,41772,38876,65700,0,14480,0,3564634782,63
i,1723651965.713016,172.16.5.2,33917,172.16.1.2,5102,9944,15940,2086,62848,65728,6,6,4,1460,155937,1,16778208,580000,41772,41772,65700,0,15928,0,3564634782,63
o,1723651965.713046,172.16.5.2,33917,172.16.1.2,5102,9944,17400,2086,65728,65728,6,6,4,1460,156562,1,16778208,530000,41772,40324,65700,0,14480,0,3564634782,63
i,1723651965.744817,172.16.5.2,33917,172.16.1.2,5102,9944,17400,2086,65728,65728,6,6,4,1460,156562,1,16778208,530000,41772,40324,65700,0,17376,0,3564634782,63
o,1723651965.744861,172.16.5.2,33917,172.16.1.2,5102,9944,17400,2086,62848,65728,6,6,4,1460,152187,1,16778208,510000,41772,37428,65700,0,14480,0,3564634782,63
i,1723651965.745047,172.16.5.2,33917,172.16.1.2,5102,9944,17400,2086,62848,65728,6,6,4,1460,152187,1,16778208,510000,41772,37428,65700,0,17376,0,3564634782,63
o,1723651965.745064,172.16.5.2,33917,172.16.1.2,5102,9944,17400,2086,64256,65728,6,6,4,1460,148437,1,16778208,500000,41772,34532,65700,0,14480,0,3564634782,63
i,1723651965.746597,172.16.5.2,33917,172.16.1.2,5102,9944,17400,2086,64256,65728,6,6,4,1460,148437,1,16778208,500000,41772,41772,65700,0,17376,0,3564634782,63
o,1723651965.746618,172.16.5.2,33917,172.16.1.2,5102,9944,17400,2086,64256,65728,6,6,4,1460,145000,1,16778208,490000,41772,38876,65700,0,14480,0,3564634782,63
i,1723651965.771911,172.16.5.2,33917,172.16.1.2,5102,9944,17400,2086,64256,65728,6,6,4,1460,145000,1,16778208,490000,41772,41772,65700,0,17376,0,3564634782,63
o,1723651965.772014,172.16.5.2,33917,172.16.1.2,5102,9944,17400,2086,62848,65728,6,6,4,1460,141875,1,16778208,470000,41772,38876,65700,0,14480,0,3564634782,63
i,1723651965.812189,172.16.5.2,33917,172.16.1.2,5102,9944,17400,2086,62848,65728,6,6,4,1460,141875,1,16778208,470000,41772,41772,65700,0,17376,0,3564634782,63
o,1723651965.812483,172.16.5.2,33917,172.16.1.2,5102,9944,17400,2086,62848,65728,6,6,4,1460,140625,1,16778208,450000,41772,38876,65700,0,14480,0,3564634782,63
o,1723651965.813191,172.16.5.2,33917,172.16.1.2,5102,9944,17400,2086,62848,65728,6,6,4,1460,140625,1,16778208,450000,41772,38876,65700,0,15928,0,3564634782,63
i,1723651965.833545,172.16.5.2,33917,172.16.1.2,5102,9944,17400,2086,62848,65728,6,6,4,1460,140625,1,16778208,450000,41772,41772,65700,0,17376,0,3564634782,63
o,1723651965.833627,172.16.5.2,33917,172.16.1.2,5102,9944,18860,2086,62848,65728,6,6,4,1460,136875,1,16778208,450000,41772,38876,65700,0,14480,0,3564634782,63
i,1723651965.868625,172.16.5.2,33917,172.16.1.2,5102,9944,18860,2086,62848,65728,6,6,4,1460,136875,1,16778208,450000,41772,41772,65700,0,18824,0,3564634782,63
o,1723651965.868819,172.16.5.2,33917,172.16.1.2,5102,9944,18860,2086,62848,65728,6,6,4,1460,136250,1,16778208,430000,41772,38876,65700,0,15928,0,3564634782,63
i,1723651965.869130,172.16.5.2,33917,172.16.1.2,5102,9944,18860,2086,62848,65728,6,6,4,1460,136250,1,16778208,430000,41772,38876,65700,0,18824,0,3564634782,63
o,1723651965.869148,172.16.5.2,33917,172.16.1.2,5102,9944,18860,2086,62848,65728,6,6,4,1460,135625,1,16778208,410000,41772,35980,65700,0,15928,0,3564634782,63
i,1723651965.869310,172.16.5.2,33917,172.16.1.2,5102,9944,18860,2086,62848,65728,6,6,4,1460,135625,1,16778208,410000,41772,35980,65700,0,18824,0,3564634782,63
o,1723651965.869332,172.16.5.2,33917,172.16.1.2,5102,9944,18860,2086,59968,65728,6,6,4,1460,135000,1,16778208,400000,41772,33084,65700,0,15928,0,3564634782,63
i,1723651965.899060,172.16.5.2,33917,172.16.1.2,5102,9944,18860,2086,59968,65728,6,6,4,1460,135000,1,16778208,400000,41772,41772,65700,0,18824,0,3564634782,63
o,1723651965.899151,172.16.5.2,33917,172.16.1.2,5102,9944,18860,2086,64256,65728,6,6,4,1460,133125,1,16778208,390000,41772,38876,65700,0,15928,0,3564634782,63
i,1723651965.932359,172.16.5.2,33917,172.16.1.2,5102,9944,18860,2086,64256,65728,6,6,4,1460,133125,1,16778208,390000,41772,41772,65700,0,18824,0,3564634782,63
o,1723651965.932484,172.16.5.2,33917,172.16.1.2,5102,9944,18860,2086,64256,65728,6,6,4,1460,130312,1,16778208,400000,41772,38876,65700,0,15928,0,3564634782,63
o,1723651965.932692,172.16.5.2,33917,172.16.1.2,5102,9944,18860,2086,64256,65728,6,6,4,1460,130312,1,16778208,400000,41772,38876,65700,0,17376,0,3564634782,63
i,1723651965.961481,172.16.5.2,33917,172.16.1.2,5102,9944,18860,2086,64256,65728,6,6,4,1460,130312,1,16778208,400000,41772,41772,65700,0,18824,0,3564634782,63
o,1723651965.961529,172.16.5.2,33917,172.16.1.2,5102,9944,18860,2086,62848,65728,6,6,4,1460,130312,1,16778208,380000,41772,38876,65700,0,15928,0,3564634782,63
i,1723651965.991640,172.16.5.2,33917,172.16.1.2,5102,9944,18860,2086,62848,65728,6,6,4,1460,130312,1,16778208,380000,41772,41772,65700,0,18824,0,3564634782,63
o,1723651965.991742,172.16.5.2,33917,172.16.1.2,5102,9944,20320,2086,64256,65728,6,6,4,1460,134062,1,16778208,400000,41772,38876,65700,0,15928,0,3564634782,63
i,1723651965.991921,172.16.5.2,33917,172.16.1.2,5102,9944,20320,2086,64256,65728,6,6,4,1460,134062,1,16778208,400000,49964,38876,65700,0,20272,0,3564634782,63
o,1723651965.991938,172.16.5.2,33917,172.16.1.2,5102,9944,20320,2086,62848,65728,6,6,4,1460,132500,1,16778208,400000,49964,35980,65700,0,17376,0,3564634782,63
i,1723651965.992898,172.16.5.2,33917,172.16.1.2,5102,9944,20320,2086,62848,65728,6,6,4,1460,132500,1,16778208,400000,49964,49964,65700,0,20272,0,3564634782,63
o,1723651965.992981,172.16.5.2,33917,172.16.1.2,5102,9944,20320,2086,62848,65728,6,6,4,1460,130937,1,16778208,390000,49964,47068,65700,0,17376,0,3564634782,63
i,1723651966.011888,172.16.5.2,33917,172.16.1.2,5102,9944,20320,2086,62848,65728,6,6,4,1460,130937,1,16778208,390000,49964,49964,65700,0,20272,0,3564634782,63
o,1723651966.011975,172.16.5.2,33917,172.16.1.2,5102,9944,20320,2086,64256,65728,6,6,4,1460,132187,1,16778208,390000,49964,47068,65700,0,17376,0,3564634782,63
i,1723651966.043807,172.16.5.2,33917,172.16.1.2,5102,9944,20320,2086,64256,65728,6,6,4,1460,132187,1,16778208,390000,49964,49964,65700,0,20272,0,3564634782,63
o,1723651966.043843,172.16.5.2,33917,172.16.1.2,5102,9944,20320,2086,64256,65728,6,6,4,1460,133437,1,16778208,380000,49964,47068,65700,0,17376,0,3564634782,63
o,1723651966.043976,172.16.5.2,33917,172.16.1.2,5102,9944,20320,2086,64256,65728,6,6,4,1460,133437,1,16778208,380000,49964,47068,65700,0,18824,0,3564634782,63
i,1723651966.063640,172.16.5.2,33917,172.16.1.2,5102,9944,20320,2086,64256,65728,6,6,4,1460,133437,1,16778208,380000,49964,49964,65700,0,20272,0,3564634782,63
o,1723651966.063673,172.16.5.2,33917,172.16.1.2,5102,9944,20320,2086,64256,65728,6,6,4,1460,133125,1,16778208,370000,49964,47068,65700,0,17376,0,3564634782,63
i,1723651966.095216,172.16.5.2,33917,172.16.1.2,5102,9944,20320,2086,64256,65728,6,6,4,1460,133125,1,16778208,370000,49964,48536,65700,0,20272,0,3564634782,63
o,1723651966.095247,172.16.5.2,33917,172.16.1.2,5102,9944,20320,2086,64256,65728,6,6,4,1460,132812,1,16778208,370000,49964,45640,65700,0,17376,0,3564634782,63
i,1723651966.095418,172.16.5.2,33917,172.16.1.2,5102,9944,20320,2086,64256,65728,6,6,4,1460,132812,1,16778208,370000,49964,45640,65700,0,20272,0,3564634782,63
o,1723651966.095437,172.16.5.2,33917,172.16.1.2,5102,9944,21780,2086,61376,65728,6,6,4,1460,128750,1,16778208,390000,49964,42744,65700,0,17376,0,3564634782,63
i,1723651966.095572,172.16.5.2,33917,172.16.1.2,5102,9944,21780,2086,61376,65728,6,6,4,1460,128750,1,16778208,390000,49964,42744,65700,0,21720,0,3564634782,63
o,1723651966.095588,172.16.5.2,33917,172.16.1.2,5102,9944,21780,2086,62848,65728,6,6,4,1460,125312,1,16778208,400000,49964,39848,65700,0,18824,0,3564634782,63
i,1723651966.101401,172.16.5.2,33917,172.16.1.2,5102,9944,21780,2086,62848,65728,6,6,4,1460,125312,1,16778208,400000,49964,49964,65700,0,21720,0,3564634782,63
o,1723651966.101401,172.16.5.2,33917,172.16.1.2,5102,9944,21780,2086,59968,65728,6,6,4,1460,123437,1,16778208,390000,49964,47068,65700,0,18824,0,3564634782,63
i,1723651966.127526,172.16.5.2,33917,172.16.1.2,5102,9944,21780,2086,59968,65728,6,6,4,1460,123437,1,16778208,390000,49964,49964,65700,0,21720,0,3564634782,63
o,1723651966.127555,172.16.5.2,33917,172.16.1.2,5102,9944,21780,2086,62848,65728,6,6,4,1460,121875,1,16778208,380000,49964,47068,65700,0,18824,0,3564634782,63
i,1723651966.156581,172.16.5.2,33917,172.16.1.2,5102,9944,21780,2086,62848,65728,6,6,4,1460,121875,1,16778208,380000,49964,49964,65700,0,21720,0,3564634782,63
o,1723651966.156712,172.16.5.2,33917,172.16.1.2,5102,9944,21780,2086,64256,65728,6,6,4,1460,120625,1,16778208,380000,49964,47068,65700,0,18824,0,3564634782,63
o,1723651966.156856,172.16.5.2,33917,172.16.1.2,5102,9944,21780,2086,64256,65728,6,6,4,1460,120625,1,16778208,380000,49964,47068,65700,0,20272,0,3564634782,63
i,1723651966.171674,172.16.5.2,33917,172.16.1.2,5102,9944,21780,2086,64256,65728,6,6,4,1460,120625,1,16778208,380000,49964,49964,65700,0,21720,0,3564634782,63
o,1723651966.171703,172.16.5.2,33917,172.16.1.2,5102,9944,21780,2086,62848,65728,6,6,4,1460,119375,1,16778208,370000,49964,47068,65700,0,18824,0,3564634782,63
i,1723651966.193883,172.16.5.2,33917,172.16.1.2,5102,9944,21780,2086,62848,65728,6,6,4,1460,119375,1,16778208,370000,49964,49964,65700,0,21720,0,3564634782,63
o,1723651966.193927,172.16.5.2,33917,172.16.1.2,5102,9944,21780,2086,64256,65728,6,6,4,1460,117187,1,16778208,370000,49964,47068,65700,0,18824,0,3564634782,63
i,1723651966.194079,172.16.5.2,33917,172.16.1.2,5102,9944,21780,2086,64256,65728,6,6,4,1460,117187,1,16778208,370000,49964,47068,65700,0,21720,0,3564634782,63
o,1723651966.194096,172.16.5.2,33917,172.16.1.2,5102,9944,21780,2086,61376,65728,6,6,4,1460,115312,1,16778208,370000,49964,44172,65700,0,18824,0,3564634782,63
i,1723651966.221589,172.16.5.2,33917,172.16.1.2,5102,9944,21780,2086,61376,65728,6,6,4,1460,115312,1,16778208,370000,49964,49964,65700,0,21720,0,3564634782,63
o,1723651966.221673,172.16.5.2,33917,172.16.1.2,5102,9944,23240,2086,64256,65728,6,6,4,1460,117187,1,16778208,370000,49964,47068,65700,0,18824,0,3564634782,63
i,1723651966.221845,172.16.5.2,33917,172.16.1.2,5102,9944,23240,2086,64256,65728,6,6,4,1460,117187,1,16778208,370000,49964,47068,65700,0,23168,0,3564634782,63
o,1723651966.221874,172.16.5.2,33917,172.16.1.2,5102,9944,23240,2086,61376,65728,6,6,4,1460,119062,1,16778208,380000,49964,44172,65700,0,20272,0,3564634782,63
i,1723651966.223078,172.16.5.2,33917,172.16.1.2,5102,9944,23240,2086,61376,65728,6,6,4,1460,119062,1,16778208,380000,58156,58156,65700,0,23168,0,3564634782,63
o,1723651966.223108,172.16.5.2,33917,172.16.1.2,5102,9944,23240,2086,64256,65728,6,6,4,1460,119375,1,16778208,360000,58156,55260,65700,0,20272,0,3564634782,63
i,1723651966.269952,172.16.5.2,33917,172.16.1.2,5102,9944,23240,2086,64256,65728,6,6,4,1460,119375,1,16778208,360000,58156,58156,65700,0,23168,0,3564634782,63
o,1723651966.270110,172.16.5.2,33917,172.16.1.2,5102,9944,23240,2086,64256,65728,6,6,4,1460,122187,1,16778208,380000,58156,55260,65700,0,20272,0,3564634782,63
o,1723651966.270347,172.16.5.2,33917,172.16.1.2,5102,9944,23240,2086,64256,65728,6,6,4,1460,122187,1,16778208,380000,58156,55260,65700,0,21720,0,3564634782,63
i,1723651966.301661,172.16.5.2,33917,172.16.1.2,5102,9944,23240,2086,64256,65728,6,6,4,1460,122187,1,16778208,380000,58156,58156,65700,0,23168,0,3564634782,63
o,1723651966.301823,172.16.5.2,33917,172.16.1.2,5102,9944,23240,2086,64256,65728,6,6,4,1460,125937,1,16778208,400000,58156,55260,65700,0,20272,0,3564634782,63
i,1723651966.312115,172.16.5.2,33917,172.16.1.2,5102,9944,23240,2086,64256,65728,6,6,4,1460,125937,1,16778208,400000,58156,58156,65700,0,23168,0,3564634782,63
o,1723651966.312162,172.16.5.2,33917,172.16.1.2,5102,9944,23240,2086,64256,65728,6,6,4,1460,126562,1,16778208,380000,58156,55260,65700,0,20272,0,3564634782,63
i,1723651966.332645,172.16.5.2,33917,172.16.1.2,5102,9944,23240,2086,64256,65728,6,6,4,1460,126562,1,16778208,380000,58156,58156,65700,0,23168,0,3564634782,63
o,1723651966.332689,172.16.5.2,33917,172.16.1.2,5102,9944,23240,2086,62848,65728,6,6,4,1460,127187,1,16778208,370000,58156,55260,65700,0,20272,0,3564634782,63
i,1723651966.342041,172.16.5.2,33917,172.16.1.2,5102,9944,23240,2086,62848,65728,6,6,4,1460,127187,1,16778208,370000,58156,58156,65700,0,23168,0,3564634782,63
o,1723651966.342078,172.16.5.2,33917,172.16.1.2,5102,9944,23240,2086,64256,65728,6,6,4,1460,129062,1,16778208,380000,58156,55260,65700,0,20272,0,3564634782,63
i,1723651966.362154,172.16.5.2,33917,172.16.1.2,5102,9944,23240,2086,64256,65728,6,6,4,1460,129062,1,16778208,380000,58156,58156,65700,0,23168,0,3564634782,63
o,1723651966.362180,172.16.5.2,33917,172.16.1.2,5102,9944,24700,2086,62848,65728,6,6,4,1460,129375,1,16778208,370000,58156,55260,65700,0,20272,0,3564634782,63
i,1723651966.362384,172.16.5.2,33917,172.16.1.2,5102,9944,24700,2086,62848,65728,6,6,4,1460,129375,1,16778208,370000,58156,55260,65700,0,24616,0,3564634782,63
o,1723651966.362405,172.16.5.2,33917,172.16.1.2,5102,9944,24700,2086,59968,65728,6,6,4,1460,129687,1,16778208,360000,58156,52364,65700,0,21720,0,3564634782,63
i,1723651966.378626,172.16.5.2,33917,172.16.1.2,5102,9944,24700,2086,59968,65728,6,6,4,1460,129687,1,16778208,360000,58156,58156,65700,0,24616,0,3564634782,63
o,1723651966.378732,172.16.5.2,33917,172.16.1.2,5102,9944,24700,2086,57088,65728,6,6,4,1460,132500,1,16778208,380000,58156,55260,65700,0,21720,0,3564634782,63
i,1723651966.404178,172.16.5.2,33917,172.16.1.2,5102,9944,24700,2086,57088,65728,6,6,4,1460,132500,1,16778208,380000,58156,58156,65700,0,24616,0,3564634782,63
o,1723651966.404288,172.16.5.2,33917,172.16.1.2,5102,9944,24700,2086,62848,65728,6,6,4,1460,132187,1,16778208,370000,58156,55260,65700,0,21720,0,3564634782,63
o,1723651966.404569,172.16.5.2,33917,172.16.1.2,5102,9944,24700,2086,62848,65728,6,6,4,1460,132187,1,16778208,370000,58156,55260,65700,0,23168,0,3564634782,63
i,1723651966.451339,172.16.5.2,33917,172.16.1.2,5102,9944,24700,2086,62848,65728,6,6,4,1460,132187,1,16778208,370000,58156,58156,65700,0,24616,0,3564634782,63
o,1723651966.451565,172.16.5.2,33917,172.16.1.2,5102,9944,24700,2086,62848,65728,6,6,4,1460,134687,1,16778208,380000,58156,55260,65700,0,21720,0,3564634782,63
i,1723651966.454182,172.16.5.2,33917,172.16.1.2,5102,9944,24700,2086,62848,65728,6,6,4,1460,134687,1,16778208,380000,58156,58156,65700,0,24616,0,3564634782,63
o,1723651966.454247,172.16.5.2,33917,172.16.1.2,5102,9944,24700,2086,62848,65728,6,6,4,1460,135625,1,16778208,380000,58156,55260,65700,0,21720,0,3564634782,63
i,1723651966.487707,172.16.5.2,33917,172.16.1.2,5102,9944,24700,2086,62848,65728,6,6,4,1460,135625,1,16778208,380000,58156,58156,65700,0,24616,0,3564634782,63
o,1723651966.487742,172.16.5.2,33917,172.16.1.2,5102,9944,24700,2086,64256,65728,6,6,4,1460,137500,1,16778208,390000,58156,55260,65700,0,21720,0,3564634782,63
i,1723651966.492014,172.16.5.2,33917,172.16.1.2,5102,9944,24700,2086,64256,65728,6,6,4,1460,137500,1,16778208,390000,58156,58156,65700,0,24616,0,3564634782,63
o,1723651966.492058,172.16.5.2,33917,172.16.1.2,5102,9944,24700,2086,62848,65728,6,6,4,1460,137812,1,16778208,380000,58156,55260,65700,0,21720,0,3564634782,63
i,1723651966.492212,172.16.5.2,33917,172.16.1.2,5102,9944,24700,2086,62848,65728,6,6,4,1460,137812,1,16778208,380000,58156,55260,65700,0,24616,0,3564634782,63
o,1723651966.492229,172.16.5.2,33917,172.16.1.2,5102,9944,26160,2086,62848,65728,6,6,4,1460,135625,1,16778208,380000,58156,52364,65700,0,21720,0,3564634782,63
i,1723651966.493141,172.16.5.2,33917,172.16.1.2,5102,9944,26160,2086,62848,65728,6,6,4,1460,135625,1,16778208,380000,58156,58156,65700,0,26064,0,3564634782,63
o,1723651966.493163,172.16.5.2,33917,172.16.1.2,5102,9944,26160,2086,64256,65728,6,6,4,1460,133750,1,16778208,380000,58156,55260,65700,0,23168,0,3564634782,63
i,1723651966.517239,172.16.5.2,33917,172.16.1.2,5102,9944,26160,2086,64256,65728,6,6,4,1460,133750,1,16778208,380000,58156,58156,65700,0,26064,0,3564634782,63
o,1723651966.517326,172.16.5.2,33917,172.16.1.2,5102,9944,26160,2086,64256,65728,6,6,4,1460,135937,1,16778208,390000,58156,55260,65700,0,23168,0,3564634782,63
i,1723651966.541931,172.16.5.2,33917,172.16.1.2,5102,9944,26160,2086,64256,65728,6,6,4,1460,135937,1,16778208,390000,58156,58156,65700,0,26064,0,3564634782,63
o,1723651966.541985,172.16.5.2,33917,172.16.1.2,5102,9944,26160,2086,65728,65728,6,6,4,1460,139062,1,16778208,400000,58156,56708,65700,0,24616,0,3564634782,63
i,1723651966.542196,172.16.5.2,33917,172.16.1.2,5102,9944,26160,2086,65728,65728,6,6,4,1460,139062,1,16778208,400000,58156,56708,65700,0,26064,0,3564634782,63
o,1723651966.542213,172.16.5.2,33917,172.16.1.2,5102,9944,26160,2086,64256,65728,6,6,4,1460,138125,1,16778208,390000,58156,53812,65700,0,23168,0,3564634782,63
o,1723651966.542329,172.16.5.2,33917,172.16.1.2,5102,9944,26160,2086,64256,65728,6,6,4,1460,138125,1,16778208,390000,58156,53812,65700,0,24616,0,3564634782,63
i,1723651966.571809,172.16.5.2,33917,172.16.1.2,5102,9944,26160,2086,64256,65728,6,6,4,1460,138125,1,16778208,390000,58156,58156,65700,0,26064,0,3564634782,63
o,1723651966.571904,172.16.5.2,33917,172.16.1.2,5102,9944,26160,2086,62848,65728,6,6,4,1460,134687,1,16778208,400000,58156,55260,65700,0,23168,0,3564634782,63
i,1723651966.581274,172.16.5.2,33917,172.16.1.2,5102,9944,26160,2086,62848,65728,6,6,4,1460,134687,1,16778208,400000,58156,58156,65700,0,26064,0,3564634782,63
o,1723651966.581323,172.16.5.2,33917,172.16.1.2,5102,9944,26160,2086,64256,65728,6,6,4,1460,133125,1,16778208,400000,58156,55260,65700,0,23168,0,3564634782,63
i,1723651966.601536,172.16.5.2,33917,172.16.1.2,5102,9944,26160,2086,64256,65728,6,6,4,1460,133125,1,16778208,400000,58156,58156,65700,0,26064,0,3564634782,63
o,1723651966.601605,172.16.5.2,33917,172.16.1.2,5102,9944,26160,2086,62848,65728,6,6,4,1460,130312,1,16778208,400000,58156,55260,65700,0,23168,0,3564634782,63
i,1723651966.602767,172.16.5.2,33917,172.16.1.2,5102,9944,26160,2086,62848,65728,6,6,4,1460,130312,1,16778208,400000,58156,58156,65700,0,26064,0,3564634782,63
o,1723651966.602813,172.16.5.2,33917,172.16.1.2,5102,9944,26160,2086,64256,65728,6,6,4,1460,127812,1,16778208,400000,58156,55260,65700,0,23168,0,3564634782,63
i,1723651966.630553,172.16.5.2,33917,172.16.1.2,5102,9944,26160,2086,64256,65728,6,6,4,1460,127812,1,16778208,400000,58156,58156,65700,0,26064,0,3564634782,63
o,1723651966.630593,172.16.5.2,33917,172.16.1.2,5102,9944,26160,2086,62848,65728,6,6,4,1460,129375,1,16778208,400000,58156,55260,65700,0,23168,0,3564634782,63
i,1723651966.630761,172.16.5.2,33917,172.16.1.2,5102,9944,26160,2086,62848,65728,6,6,4,1460,129375,1,16778208,400000,58156,55260,65700,0,26064,0,3564634782,63
o,1723651966.630781,172.16.5.2,33917,172.16.1.2,5102,9944,27620,2086,62848,65728,6,6,4,1460,130937,1,16778208,390000,58156,52364,65700,0,23168,0,3564634782,63
i,1723651966.632068,172.16.5.2,33917,172.16.1.2,5102,9944,27620,2086,62848,65728,6,6,4,1460,130937,1,16778208,390000,66348,66348,65700,0,27512,0,3564634782,63
o,1723651966.632142,172.16.5.2,33917,172.16.1.2,5102,9944,27620,2086,64256,65728,6,6,4,1460,132187,1,16778208,390000,66348,63452,65700,0,24616,0,3564634782,63
i,1723651966.663911,172.16.5.2,33917,172.16.1.2,5102,9944,27620,2086,64256,65728,6,6,4,1460,132187,1,16778208,390000,66348,66348,65700,0,27512,0,3564634782,63
o,1723651966.663967,172.16.5.2,33917,172.16.1.2,5102,9944,27620,2086,64256,65728,6,6,4,1460,134687,1,16778208,400000,66348,63452,65700,0,24616,0,3564634782,63
i,1723651966.664946,172.16.5.2,33917,172.16.1.2,5102,9944,27620,2086,64256,65728,6,6,4,1460,134687,1,16778208,400000,66348,66348,65700,0,27512,0,3564634782,63
o,1723651966.665031,172.16.5.2,33917,172.16.1.2,5102,9944,27620,2086,64256,65728,6,6,4,1460,133125,1,16778208,390000,66348,63452,65700,0,24616,0,3564634782,63
o,1723651966.665149,172.16.5.2,33917,172.16.1.2,5102,9944,27620,2086,64256,65728,6,6,4,1460,133125,1,16778208,390000,66348,63452,65700,0,26064,0,3564634782,63
i,1723651966.692792,172.16.5.2,33917,172.16.1.2,5102,9944,27620,2086,64256,65728,6,6,4,1460,133125,1,16778208,390000,66348,66348,65700,0,27512,0,3564634782,63
o,1723651966.692829,172.16.5.2,33917,172.16.1.2,5102,9944,27620,2086,64256,65728,6,6,4,1460,131562,1,16778208,390000,66348,63452,65700,0,24616,0,3564634782,63
i,1723651966.713517,172.16.5.2,33917,172.16.1.2,5102,9944,27620,2086,64256,65728,6,6,4,1460,131562,1,16778208,390000,66348,65216,65700,0,27512,0,3564634782,63
o,1723651966.713592,172.16.5.2,33917,172.16.1.2,5102,9944,27620,2086,62848,65728,6,6,4,1460,131562,1,16778208,370000,66348,62320,65700,0,24616,0,3564634782,63
i,1723651966.713812,172.16.5.2,33917,172.16.1.2,5102,9944,27620,2086,62848,65728,6,6,4,1460,131562,1,16778208,370000,66348,62320,65700,0,27512,0,3564634782,63
o,1723651966.713835,172.16.5.2,33917,172.16.1.2,5102,9944,27620,2086,64256,65728,6,6,4,1460,129062,1,16778208,380000,66348,59424,65700,0,24616,0,3564634782,63
i,1723651966.716882,172.16.5.2,33917,172.16.1.2,5102,9944,27620,2086,64256,65728,6,6,4,1460,129062,1,16778208,380000,66348,66348,65700,0,27512,0,3564634782,63
o,1723651966.716914,172.16.5.2,33917,172.16.1.2,5102,9944,27620,2086,64256,65728,6,6,4,1460,126875,1,16778208,380000,66348,63452,65700,0,24616,0,3564634782,63
i,1723651966.721518,172.16.5.2,33917,172.16.1.2,5102,9944,27620,2086,64256,65728,6,6,4,1460,126875,1,16778208,380000,66348,66348,65700,0,27512,0,3564634782,63
o,1723651966.721549,172.16.5.2,33917,172.16.1.2,5102,9944,27620,2086,62848,65728,6,6,4,1460,122500,1,16778208,400000,66348,63452,65700,0,24616,0,3564634782,63
i,1723651966.721692,172.16.5.2,33917,172.16.1.2,5102,9944,27620,2086,62848,65728,6,6,4,1460,122500,1,16778208,400000,66348,63452,65700,0,27512,0,3564634782,63
o,1723651966.721709,172.16.5.2,33917,172.16.1.2,5102,9944,29080,2086,62848,65728,6,6,4,1460,118437,1,16778208,410000,66348,60556,65700,0,24616,0,3564634782,63
i,1723651966.754650,172.16.5.2,33917,172.16.1.2,5102,9944,29080,2086,62848,65728,6,6,4,1460,118437,1,16778208,410000,66348,66348,65700,0,28960,0,3564634782,63
o,1723651966.754783,172.16.5.2,33917,172.16.1.2,5102,9944,29080,2086,64256,65728,6,6,4,1460,118750,1,16778208,390000,66348,63452,65700,0,26064,0,3564634782,63
i,1723651966.787037,172.16.5.2,33917,172.16.1.2,5102,9944,29080,2086,64256,65728,6,6,4,1460,118750,1,16778208,390000,66348,66348,65700,0,28960,0,3564634782,63
o,1723651966.787128,172.16.5.2,33917,172.16.1.2,5102,9944,29080,2086,64256,65728,6,6,4,1460,122812,1,16778208,410000,66348,63452,65700,0,26064,0,3564634782,63
i,1723651966.788795,172.16.5.2,33917,172.16.1.2,5102,9944,29080,2086,64256,65728,6,6,4,1460,122812,1,16778208,410000,66348,66348,65700,0,28960,0,3564634782,63
o,1723651966.788795,172.16.5.2,33917,172.16.1.2,5102,9944,29080,2086,64256,65728,6,6,4,1460,122500,1,16778208,390000,66348,63452,65700,0,26064,0,3564634782,63
o,1723651966.788795,172.16.5.2,33917,172.16.1.2,5102,9944,29080,2086,64256,65728,6,6,4,1460,122500,1,16778208,390000,66348,63452,65700,0,27512,0,3564634782,63
i,1723651966.837958,172.16.5.2,33917,172.16.1.2,5102,9944,29080,2086,64256,65728,6,6,4,1460,122500,1,16778208,390000,66348,66348,65700,0,28960,0,3564634782,63
o,1723651966.838020,172.16.5.2,33917,172.16.1.2,5102,9944,29080,2086,65728,65728,6,6,4,1460,129687,1,16778208,430000,66348,64900,65700,0,27512,0,3564634782,63
i,1723651966.838234,172.16.5.2,33917,172.16.1.2,5102,9944,29080,2086,65728,65728,6,6,4,1460,129687,1,16778208,430000,66348,64900,65700,0,28960,0,3564634782,63
o,1723651966.838253,172.16.5.2,33917,172.16.1.2,5102,9944,29080,2086,62848,65728,6,6,4,1460,132500,1,16778208,430000,66348,62004,65700,0,26064,0,3564634782,63
i,1723651966.840907,172.16.5.2,33917,172.16.1.2,5102,9944,29080,2086,62848,65728,6,6,4,1460,132500,1,16778208,430000,66348,66348,65700,0,28960,0,3564634782,63
o,1723651966.840932,172.16.5.2,33917,172.16.1.2,5102,9944,29080,2086,64256,65728,6,6,4,1460,130937,1,16778208,420000,66348,63452,65700,0,26064,0,3564634782,63
i,1723651966.842144,172.16.5.2,33917,172.16.1.2,5102,9944,29080,2086,64256,65728,6,6,4,1460,130937,1,16778208,420000,66348,66348,65700,0,28960,0,3564634782,63
o,1723651966.842149,172.16.5.2,33917,172.16.1.2,5102,9944,29080,2086,64256,65728,6,6,4,1460,129687,1,16778208,400000,66348,63452,65700,0,26064,0,3564634782,63
i,1723651966.852016,172.16.5.2,33917,172.16.1.2,5102,9944,29080,2086,64256,65728,6,6,4,1460,129687,1,16778208,400000,66348,66348,65700,0,28960,0,3564634782,63
o,1723651966.852110,172.16.5.2,33917,172.16.1.2,5102,9944,29080,2086,64256,65728,6,6,4,1460,130000,1,16778208,390000,66348,63452,65700,0,26064,0,3564634782,63
i,1723651966.853339,172.16.5.2,33917,172.16.1.2,5102,9944,29080,2086,64256,65728,6,6,4,1460,130000,1,16778208,390000,66348,66348,65700,0,28960,0,3564634782,63
o,1723651966.853363,172.16.5.2,33917,172.16.1.2,5102,9944,29080,2086,64256,65728,6,6,4,1460,130000,1,16778208,370000,66348,63452,65700,0,26064,0,3564634782,63
i,1723651966.853522,172.16.5.2,33917,172.16.1.2,5102,9944,29080,2086,64256,65728,6,6,4,1460,130000,1,16778208,370000,66348,63452,65700,0,28960,0,3564634782,63
o,1723651966.853555,172.16.5.2,33917,172.16.1.2,5102,9944,29080,2086,62848,65728,6,6,4,1460,130000,1,16778208,360000,66348,60556,65700,0,26064,0,3564634782,63
i,1723651966.878281,172.16.5.2,33917,172.16.1.2,5102,9944,29080,2086,62848,65728,6,6,4,1460,130000,1,16778208,360000,66348,66348,65700,0,28960,0,3564634782,63
o,1723651966.878383,172.16.5.2,33917,172.16.1.2,5102,9944,30540,2086,64256,65728,6,6,4,1460,133750,1,16778208,390000,66348,63452,65700,0,26064,0,3564634782,63
i,1723651966.893751,172.16.5.2,33917,172.16.1.2,5102,9944,30540,2086,64256,65728,6,6,4,1460,133750,1,16778208,390000,66348,66348,65700,0,30408,0,3564634782,63
o,1723651966.893803,172.16.5.2,33917,172.16.1.2,5102,9944,30540,2086,64256,65728,6,6,4,1460,134687,1,16778208,380000,66348,63452,65700,0,27512,0,3564634782,63
i,1723651966.894815,172.16.5.2,33917,172.16.1.2,5102,9944,30540,2086,64256,65728,6,6,4,1460,134687,1,16778208,380000,66348,66348,65700,0,30408,0,3564634782,63
o,1723651966.894848,172.16.5.2,33917,172.16.1.2,5102,9944,30540,2086,64256,65728,6,6,4,1460,131875,1,16778208,390000,66348,63452,65700,0,27512,0,3564634782,63
o,1723651966.894970,172.16.5.2,33917,172.16.1.2,5102,9944,30540,2086,64256,65728,6,6,4,1460,131875,1,16778208,390000,66348,63452,65700,0,28960,0,3564634782,63
i,1723651966.932154,172.16.5.2,33917,172.16.1.2,5102,9944,30540,2086,64256,65728,6,6,4,1460,131875,1,16778208,390000,66348,66348,65700,0,30408,0,3564634782,63
o,1723651966.932192,172.16.5.2,33917,172.16.1.2,5102,9944,30540,2086,64256,65728,6,6,4,1460,133125,1,16778208,390000,66348,63452,65700,0,27512,0,3564634782,63
i,1723651966.932375,172.16.5.2,33917,172.16.1.2,5102,9944,30540,2086,64256,65728,6,6,4,1460,133125,1,16778208,390000,66348,63452,65700,0,30408,0,3564634782,63
o,1723651966.932394,172.16.5.2,33917,172.16.1.2,5102,9944,30540,2086,64256,65728,6,6,4,1460,127812,1,16778208,410000,66348,60556,65700,0,27512,0,3564634782,63
i,1723651966.961443,172.16.5.2,33917,172.16.1.2,5102,9944,30540,2086,64256,65728,6,6,4,1460,127812,1,16778208,410000,74540,74540,65700,0,30408,0,3564634782,63
o,1723651966.961480,172.16.5.2,33917,172.16.1.2,5102,9944,30540,2086,64256,65728,6,6,4,1460,126875,1,16778208,400000,74540,71644,65700,0,27512,0,3564634782,63
i,1723651966.961620,172.16.5.2,33917,172.16.1.2,5102,9944,30540,2086,64256,65728,6,6,4,1460,126875,1,16778208,400000,74540,71644,65700,0,30408,0,3564634782,63
o,1723651966.961638,172.16.5.2,33917,172.16.1.2,5102,9944,30540,2086,62848,65728,6,6,4,1460,126250,1,16778208,380000,74540,68748,65700,0,27512,0,3564634782,63
i,1723651966.972282,172.16.5.2,33917,172.16.1.2,5102,9944,30540,2086,62848,65728,6,6,4,1460,126250,1,16778208,380000,74540,74540,65700,0,30408,0,3564634782,63
o,1723651966.972318,172.16.5.2,33917,172.16.1.2,5102,9944,30540,2086,62848,65728,6,6,4,1460,125625,1,16778208,370000,74540,71644,65700,0,27512,0,3564634782,63
i,1723651966.973318,172.16.5.2,33917,172.16.1.2,5102,9944,30540,2086,62848,65728,6,6,4,1460,125625,1,16778208,370000,74540,74540,65700,0,30408,0,3564634782,63
o,1723651966.973340,172.16.5.2,33917,172.16.1.2,5102,9944,30540,2086,62848,65728,6,6,4,1460,125000,1,16778208,370000,74540,71644,65700,0,27512,0,3564634782,63
i,1723651966.973464,172.16.5.2,33917,172.16.1.2,5102,9944,30540,2086,62848,65728,6,6,4,1460,125000,1,16778208,370000,74540,71644,65700,0,30408,0,3564634782,63
o,1723651966.973482,172.16.5.2,33917,172.16.1.2,5102,9944,30540,2086,64256,65728,6,6,4,1460,124375,1,16778208,360000,74540,68748,65700,0,27512,0,3564634782,63
i,1723651967.003179,172.16.5.2,33917,172.16.1.2,5102,9944,30540,2086,64256,65728,6,6,4,1460,124375,1,16778208,360000,74540,74540,65700,0,30408,0,3564634782,63
o,1723651967.003322,172.16.5.2,33917,172.16.1.2,5102,9944,32000,2086,62848,65728,6,6,4,1460,124062,1,16778208,350000,74540,71644,65700,0,27512,0,3564634782,63
i,1723651967.035838,172.16.5.2,33917,172.16.1.2,5102,9944,32000,2086,62848,65728,6,6,4,1460,124062,1,16778208,350000,74540,74540,65700,0,31856,0,3564634782,63
o,1723651967.035892,172.16.5.2,33917,172.16.1.2,5102,9944,32000,2086,64256,65728,6,6,4,1460,127500,1,16778208,380000,74540,71644,65700,0,28960,0,3564634782,63
i,1723651967.036136,172.16.5.2,33917,172.16.1.2,5102,9944,32000,2086,64256,65728,6,6,4,1460,127500,1,16778208,380000,74540,71644,65700,0,31856,0,3564634782,63
o,1723651967.036160,172.16.5.2,33917,172.16.1.2,5102,9944,32000,2086,61376,65728,6,6,4,1460,129062,1,16778208,380000,74540,68748,65700,0,28960,0,3564634782,63
o,1723651967.036293,172.16.5.2,33917,172.16.1.2,5102,9944,32000,2086,61376,65728,6,6,4,1460,129062,1,16778208,380000,74540,68748,65700,0,30408,0,3564634782,63
i,1723651967.055463,172.16.5.2,33917,172.16.1.2,5102,9944,32000,2086,61376,65728,6,6,4,1460,129062,1,16778208,380000,74540,74540,65700,0,31856,0,3564634782,63
o,1723651967.055575,172.16.5.2,33917,172.16.1.2,5102,9944,32000,2086,65728,65728,6,6,4,1460,133125,1,16778208,400000,74540,73092,65700,0,30408,0,3564634782,63
i,1723651967.071325,172.16.5.2,33917,172.16.1.2,5102,9944,32000,2086,65728,65728,6,6,4,1460,133125,1,16778208,400000,74540,73092,65700,0,31856,0,3564634782,63
o,1723651967.071407,172.16.5.2,33917,172.16.1.2,5102,9944,32000,2086,62848,65728,6,6,4,1460,134062,1,16778208,390000,74540,70196,65700,0,28960,0,3564634782,63
i,1723651967.080810,172.16.5.2,33917,172.16.1.2,5102,9944,32000,2086,62848,65728,6,6,4,1460,134062,1,16778208,390000,74540,74540,65700,0,31856,0,3564634782,63
o,1723651967.080841,172.16.5.2,33917,172.16.1.2,5102,9944,32000,2086,64256,65728,6,6,4,1460,136250,1,16778208,400000,74540,71644,65700,0,28960,0,3564634782,63
i,1723651967.081064,172.16.5.2,33917,172.16.1.2,5102,9944,32000,2086,64256,65728,6,6,4,1460,136250,1,16778208,400000,74540,71644,65700,0,31856,0,3564634782,63
o,1723651967.081086,172.16.5.2,33917,172.16.1.2,5102,9944,32000,2086,64256,65728,6,6,4,1460,134375,1,16778208,390000,74540,68748,65700,0,28960,0,3564634782,63
i,1723651967.081272,172.16.5.2,33917,172.16.1.2,5102,9944,32000,2086,64256,65728,6,6,4,1460,134375,1,16778208,390000,74540,68748,65700,0,31856,0,3564634782,63
o,1723651967.081292,172.16.5.2,33917,172.16.1.2,5102,9944,32000,2086,64256,65728,6,6,4,1460,132812,1,16778208,390000,74540,65852,65700,0,28960,0,3564634782,63
i,1723651967.106066,172.16.5.2,33917,172.16.1.2,5102,9944,32000,2086,64256,65728,6,6,4,1460,132812,1,16778208,390000,74540,74540,65700,0,31856,0,3564634782,63
o,1723651967.106147,172.16.5.2,33917,172.16.1.2,5102,9944,32000,2086,62848,65728,6,6,4,1460,132500,1,16778208,380000,74540,71644,65700,0,28960,0,3564634782,63
i,1723651967.106359,172.16.5.2,33917,172.16.1.2,5102,9944,32000,2086,62848,65728,6,6,4,1460,132500,1,16778208,380000,74540,71644,65700,0,31856,0,3564634782,63
o,1723651967.106377,172.16.5.2,33917,172.16.1.2,5102,9944,32000,2086,62848,65728,6,6,4,1460,132187,1,16778208,370000,74540,68748,65700,0,28960,0,3564634782,63
i,1723651967.132006,172.16.5.2,33917,172.16.1.2,5102,9944,32000,2086,62848,65728,6,6,4,1460,132187,1,16778208,370000,74540,74540,65700,0,31856,0,3564634782,63
o,1723651967.132103,172.16.5.2,33917,172.16.1.2,5102,9944,32000,2086,64256,65728,6,6,4,1460,135937,1,16778208,390000,74540,71644,65700,0,28960,0,3564634782,63
i,1723651967.153605,172.16.5.2,33917,172.16.1.2,5102,9944,32000,2086,64256,65728,6,6,4,1460,135937,1,16778208,390000,74540,74540,65700,0,31856,0,3564634782,63
o,1723651967.153641,172.16.5.2,33917,172.16.1.2,5102,9944,32000,2086,64256,65728,6,6,4,1460,137812,1,16778208,390000,74540,71644,65700,0,28960,0,3564634782,63
i,1723651967.153842,172.16.5.2,33917,172.16.1.2,5102,9944,32000,2086,64256,65728,6,6,4,1460,137812,1,16778208,390000,74540,71644,65700,0,31856,0,3564634782,63
o,1723651967.153860,172.16.5.2,33917,172.16.1.2,5102,9944,33460,2086,64256,65728,6,6,4,1460,139375,1,16778208,390000,74540,68748,65700,0,28960,0,3564634782,63
i,1723651967.167641,172.16.5.2,33917,172.16.1.2,5102,9944,33460,2086,64256,65728,6,6,4,1460,139375,1,16778208,390000,74540,74540,65700,0,33304,0,3564634782,63
o,1723651967.167675,172.16.5.2,33917,172.16.1.2,5102,9944,33460,2086,97152,65728,6,6,4,1460,138437,1,16778208,390000,74540,71644,65700,0,30408,0,3564634782,63
o,1723651967.167798,172.16.5.2,33917,172.16.1.2,5102,9944,33460,2086,97152,65728,6,6,4,1460,138437,1,16778208,390000,74540,71644,65700,0,31856,0,3564634782,63
i,1723651967.220059,172.16.5.2,33917,172.16.1.2,5102,9944,33460,2086,97152,65728,6,6,4,1460,138437,1,16778208,390000,74540,74540,65700,0,33304,0,3564634782,63
o,1723651967.220232,172.16.5.2,33917,172.16.1.2,5102,9944,33460,2086,97152,65728,6,6,4,1460,145000,1,16778208,430000,74540,71644,65700,0,30408,0,3564634782,63
i,1723651967.220447,172.16.5.2,33917,172.16.1.2,5102,9944,33460,2086,97152,65728,6,6,4,1460,145000,1,16778208,430000,74540,71644,65700,0,33304,0,3564634782,63
o,1723651967.220477,172.16.5.2,33917,172.16.1.2,5102,9944,33460,2086,94272,65728,6,6,4,1460,145625,1,16778208,420000,74540,68748,65700,0,30408,0,3564634782,63
i,1723651967.220722,172.16.5.2,33917,172.16.1.2,5102,9944,33460,2086,94272,65728,6,6,4,1460,145625,1,16778208,420000,74540,68748,65700,0,33304,0,3564634782,63
o,1723651967.220747,172.16.5.2,33917,172.16.1.2,5102,9944,33460,2086,95680,65728,6,6,4,1460,145000,1,16778208,400000,74540,65852,65700,0,30408,0,3564634782,63
i,1723651967.222142,172.16.5.2,33917,172.16.1.2,5102,9944,33460,2086,95680,65728,6,6,4,1460,145000,1,16778208,400000,82732,82732,65700,0,33304,0,3564634782,63
o,1723651967.222172,172.16.5.2,33917,172.16.1.2,5102,9944,33460,2086,92800,65728,6,6,4,1460,144375,1,16778208,390000,82732,79836,65700,0,30408,0,3564634782,63
i,1723651967.224561,172.16.5.2,33917,172.16.1.2,5102,9944,33460,2086,92800,65728,6,6,4,1460,144375,1,16778208,390000,82732,82732,65700,0,33304,0,3564634782,63
o,1723651967.224649,172.16.5.2,33917,172.16.1.2,5102,9944,33460,2086,97152,65728,6,6,4,1460,144062,1,16778208,380000,82732,79836,65700,0,30408,0,3564634782,63
i,1723651967.264710,172.16.5.2,33917,172.16.1.2,5102,9944,33460,2086,97152,65728,6,6,4,1460,144062,1,16778208,380000,82732,82732,65700,0,33304,0,3564634782,63
o,1723651967.264831,172.16.5.2,33917,172.16.1.2,5102,9944,33460,2086,97152,65728,6,6,4,1460,145000,1,16778208,380000,82732,79836,65700,0,30408,0,3564634782,63
i,1723651967.271083,172.16.5.2,33917,172.16.1.2,5102,9944,33460,2086,97152,65728,6,6,4,1460,145000,1,16778208,380000,82732,82732,65700,0,33304,0,3564634782,63
o,1723651967.271139,172.16.5.2,33917,172.16.1.2,5102,9944,33460,2086,97152,65728,6,6,4,1460,146875,1,16778208,390000,82732,79836,65700,0,30408,0,3564634782,63
i,1723651967.271343,172.16.5.2,33917,172.16.1.2,5102,9944,33460,2086,97152,65728,6,6,4,1460,146875,1,16778208,390000,82732,79836,65700,0,33304,0,3564634782,63
o,1723651967.271380,172.16.5.2,33917,172.16.1.2,5102,9944,33460,2086,95680,65728,6,6,4,1460,145000,1,16778208,390000,82732,76940,65700,0,30408,0,3564634782,63
i,1723651967.295542,172.16.5.2,33917,172.16.1.2,5102,9944,33460,2086,95680,65728,6,6,4,1460,145000,1,16778208,390000,82732,82732,65700,0,33304,0,3564634782,63
o,1723651967.295577,172.16.5.2,33917,172.16.1.2,5102,9944,33460,2086,95680,65728,6,6,4,1460,144375,1,16778208,380000,82732,79836,65700,0,30408,0,3564634782,63
i,1723651967.295774,172.16.5.2,33917,172.16.1.2,5102,9944,33460,2086,95680,65728,6,6,4,1460,144375,1,16778208,380000,82732,79836,65700,0,33304,0,3564634782,63
o,1723651967.295791,172.16.5.2,33917,172.16.1.2,5102,9944,34920,2086,97152,65728,6,6,4,1460,144062,1,16778208,370000,82732,76940,65700,0,30408,0,3564634782,63
i,1723651967.301968,172.16.5.2,33917,172.16.1.2,5102,9944,34920,2086,97152,65728,6,6,4,1460,144062,1,16778208,370000,82732,82732,65700,0,34752,0,3564634782,63
o,1723651967.302215,172.16.5.2,33917,172.16.1.2,5102,9944,34920,2086,97152,65728,6,6,4,1460,143750,1,16778208,370000,82732,79836,65700,0,31856,0,3564634782,63
o,1723651967.302464,172.16.5.2,33917,172.16.1.2,5102,9944,34920,2086,97152,65728,6,6,4,1460,143750,1,16778208,370000,82732,79836,65700,0,33304,0,3564634782,63
i,1723651967.333022,172.16.5.2,33917,172.16.1.2,5102,9944,34920,2086,97152,65728,6,6,4,1460,143750,1,16778208,370000,82732,82732,65700,0,34752,0,3564634782,63
o,1723651967.333117,172.16.5.2,33917,172.16.1.2,5102,9944,34920,2086,97152,65728,6,6,4,1460,145937,1,16778208,380000,82732,79836,65700,0,31856,0,3564634782,63
i,1723651967.333413,172.16.5.2,33917,172.16.1.2,5102,9944,34920,2086,97152,65728,6,6,4,1460,145937,1,16778208,380000,82732,79836,65700,0,34752,0,3564634782,63
o,1723651967.333446,172.16.5.2,33917,172.16.1.2,5102,9944,34920,2086,94272,65728,6,6,4,1460,141562,1,16778208,400000,82732,76940,65700,0,31856,0,3564634782,63
i,1723651967.333765,172.16.5.2,33917,172.16.1.2,5102,9944,34920,2086,94272,65728,6,6,4,1460,141562,1,16778208,400000,82732,76940,65700,0,34752,0,3564634782,63
o,1723651967.333790,172.16.5.2,33917,172.16.1.2,5102,9944,34920,2086,91392,65728,6,6,4,1460,137812,1,16778208,410000,82732,74044,65700,0,31856,0,3564634782,63
i,1723651967.341807,172.16.5.2,33917,172.16.1.2,5102,9944,34920,2086,91392,65728,6,6,4,1460,137812,1,16778208,410000,82732,82732,65700,0,34752,0,3564634782,63
o,1723651967.341907,172.16.5.2,33917,172.16.1.2,5102,9944,34920,2086,97152,65728,6,6,4,1460,134375,1,16778208,420000,82732,79836,65700,0,31856,0,3564634782,63
i,1723651967.342075,172.16.5.2,33917,172.16.1.2,5102,9944,34920,2086,97152,65728,6,6,4,1460,134375,1,16778208,420000,82732,79836,65700,0,34752,0,3564634782,63
o,1723651967.342092,172.16.5.2,33917,172.16.1.2,5102,9944,34920,2086,94272,65728,6,6,4,1460,131562,1,16778208,420000,82732,76940,65700,0,31856,0,3564634782,63
i,1723651967.391502,172.16.5.2,33917,172.16.1.2,5102,9944,34920,2086,94272,65728,6,6,4,1460,131562,1,16778208,420000,82732,82732,65700,0,34752,0,3564634782,63
o,1723651967.391620,172.16.5.2,33917,172.16.1.2,5102,9944,34920,2086,97152,65728,6,6,4,1460,135312,1,16778208,430000,82732,79836,65700,0,31856,0,3564634782,63
i,1723651967.392049,172.16.5.2,33917,172.16.1.2,5102,9944,34920,2086,97152,65728,6,6,4,1460,135312,1,16778208,430000,82732,79836,65700,0,34752,0,3564634782,63
o,1723651967.392117,172.16.5.2,33917,172.16.1.2,5102,9944,34920,2086,97152,65728,6,6,4,1460,134687,1,16778208,410000,82732,76940,65700,0,31856,0,3564634782,63
i,1723651967.403382,172.16.5.2,33917,172.16.1.2,5102,9944,34920,2086,97152,65728,6,6,4,1460,134687,1,16778208,410000,82732,82732,65700,0,34752,0,3564634782,63
o,1723651967.403473,172.16.5.2,33917,172.16.1.2,5102,9944,34920,2086,97152,65728,6,6,4,1460,134375,1,16778208,390000,82732,79836,65700,0,31856,0,3564634782,63
i,1723651967.404427,172.16.5.2,33917,172.16.1.2,5102,9944,34920,2086,97152,65728,6,6,4,1460,134375,1,16778208,390000,82732,82732,65700,0,34752,0,3564634782,63
o,1723651967.404448,172.16.5.2,33917,172.16.1.2,5102,9944,34920,2086,97152,65728,6,6,4,1460,134062,1,16778208,380000,82732,79836,65700,0,31856,0,3564634782,63
i,1723651967.416269,172.16.5.2,33917,172.16.1.2,5102,9944,34920,2086,97152,65728,6,6,4,1460,134062,1,16778208,380000,82732,82732,65700,0,34752,0,3564634782,63
o,1723651967.416343,172.16.5.2,33917,172.16.1.2,5102,9944,34920,2086,97152,65728,6,6,4,1460,132500,1,16778208,380000,82732,79836,65700,0,31856,0,3564634782,63
i,1723651967.416472,172.16.5.2,33917,172.16.1.2,5102,9944,34920,2086,97152,65728,6,6,4,1460,132500,1,16778208,380000,82732,79836,65700,0,34752,0,3564634782,63
o,1723651967.416491,172.16.5.2,33917,172.16.1.2,5102,9944,36380,2086,95680,65728,6,6,4,1460,130937,1,16778208,380000,82732,76940,65700,0,31856,0,3564634782,63
i,1723651967.436068,172.16.5.2,33917,172.16.1.2,5102,9944,36380,2086,95680,65728,6,6,4,1460,130937,1,16778208,380000,82732,82732,65700,0,36200,0,3564634782,63
o,1723651967.436176,172.16.5.2,33917,172.16.1.2,5102,9944,36380,2086,97152,65728,6,6,4,1460,130937,1,16778208,360000,82732,79836,65700,0,33304,0,3564634782,63
o,1723651967.436335,172.16.5.2,33917,172.16.1.2,5102,9944,36380,2086,97152,65728,6,6,4,1460,130937,1,16778208,360000,82732,79836,65700,0,34752,0,3564634782,63
i,1723651967.461694,172.16.5.2,33917,172.16.1.2,5102,9944,36380,2086,97152,65728,6,6,4,1460,130937,1,16778208,360000,82732,82732,65700,0,36200,0,3564634782,63
