enable_time_secs=1723651785	enable_time_usecs=710597	siftrver=1.3.0	sysname=FreeBSD	sysver=1401000	ipmode=4
o,1723651785.710963,10.0.2.15,22,10.0.2.2,50514,1073725440,17746,1026,65535,65700,0,0,4,1460,312,0,16777220,240000,33580,172,65700,0,0,0,1969816908,63
o,1723651785.711927,10.0.2.15,22,10.0.2.2,50514,1073725440,17746,1026,65535,65700,0,0,4,1460,312,0,16777220,240000,33580,244,65700,0,172,0,1969816908,63
i,1723651785.712038,10.0.2.15,22,10.0.2.2,50514,1073725440,17746,1026,65535,65700,0,0,4,1460,312,0,16777220,240000,33580,244,65700,0,244,0,1969816908,63
i,1723651785.712101,10.0.2.15,22,10.0.2.2,50514,1073725440,17918,1026,65535,65700,0,0,4,1460,312,0,4,240000,33580,72,65700,0,72,0,1969816908,63
i,1723651785.712823,10.0.2.15,22,10.0.2.2,50514,1073725440,17990,1026,65535,65700,0,0,4,1460,312,0,4,240000,33580,0,65700,0,0,0,1969816908,63
i,1723651785.712855,10.0.2.15,22,10.0.2.2,50514,1073725440,17990,1026,65535,65700,0,0,4,1460,312,0,4,240000,33580,0,65700,96,0,0,1969816908,63
o,1723651785.712872,10.0.2.15,22,10.0.2.2,50514,1073725440,17990,1026,65535,65604,0,0,5,1460,312,0,5,240000,33580,0,65700,96,0,0,1969816908,63
o,1723651785.713601,10.0.2.15,22,10.0.2.2,50514,1073725440,17990,1026,65535,65604,0,0,8,1460,312,0,4,240000,33580,0,65700,0,0,0,1969816908,63
i,1723651785.714097,10.0.2.15,22,10.0.2.2,50514,1073725440,17990,1026,65535,65604,0,0,8,1460,312,0,67108884,240000,33580,0,65700,0,1,0,1969816908,63
i,1723651788.916437,10.0.2.15,22,10.0.2.2,50534,1073725440,14600,0,65535,65700,0,0,4,1460,312,0,16777216,270000,33580,0,65700,0,0,0,3255756537,63
o,1723651788.925339,10.0.2.15,22,10.0.2.2,50534,1073725440,14600,1026,65535,65700,0,0,4,1460,312,0,16777216,270000,33580,38,65700,42,0,0,3255756537,63
i,1723651788.926223,10.0.2.15,22,10.0.2.2,50534,1073725440,14600,1026,65535,65700,0,0,4,1460,312,0,16777216,270000,33580,38,65700,0,38,0,3255756537,63
i,1723651788.926281,10.0.2.15,22,10.0.2.2,50534,1073725440,14638,1026,65535,65700,0,0,4,1460,312,0,0,240000,33580,0,65700,0,0,0,3255756537,63
i,1723651788.926297,10.0.2.15,22,10.0.2.2,50534,1073725440,14638,1026,65535,65700,0,0,4,1460,312,0,0,240000,33580,0,65700,1460,0,0,3255756537,63
o,1723651788.926314,10.0.2.15,22,10.0.2.2,50534,1073725440,14638,1026,65535,65700,0,0,4,1460,312,0,1,240000,33580,0,65700,1536,0,0,3255756537,63
o,1723651788.927045,10.0.2.15,22,10.0.2.2,50534,1073725440,14638,1026,65535,65700,0,0,4,1460,312,0,16777216,240000,33580,1120,65700,1536,0,0,3255756537,63
i,1723651788.927522,10.0.2.15,22,10.0.2.2,50534,1073725440,14638,1026,65535,65700,0,0,4,1460,312,0,16777216,240000,33580,1120,65700,0,1120,0,3255756537,63
i,1723651788.928943,10.0.2.15,22,10.0.2.2,50534,1073725440,15758,1026,65535,65700,0,0,4,1460,312,0,0,230000,33580,0,65700,0,0,0,3255756537,63
o,1723651788.932844,10.0.2.15,22,10.0.2.2,50534,1073725440,15758,1026,65535,65700,0,0,4,1460,312,0,16777216,230000,33580,492,65700,0,0,0,3255756537,63
i,1723651788.933610,10.0.2.15,22,10.0.2.2,50534,1073725440,15758,1026,65535,65700,0,0,4,1460,312,0,16777216,230000,33580,492,65700,0,492,0,3255756537,63
i,1723651788.937865,10.0.2.15,22,10.0.2.2,50534,1073725440,16250,1026,65535,65700,0,0,4,1460,312,0,0,230000,33580,0,65700,0,0,0,3255756537,63
i,1723651788.937883,10.0.2.15,22,10.0.2.2,50534,1073725440,16250,1026,65535,65700,0,0,4,1460,312,0,0,230000,33580,0,65700,16,0,0,3255756537,63
o,1723651788.937898,10.0.2.15,22,10.0.2.2,50534,1073725440,16250,1026,65535,65700,0,0,4,1460,312,0,1,230000,33580,0,65700,60,0,0,3255756537,63
o,1723651788.938045,10.0.2.15,22,10.0.2.2,50534,1073725440,16250,1026,65535,65700,0,0,4,1460,312,0,16777216,230000,33580,44,65700,0,0,0,3255756537,63
i,1723651788.938810,10.0.2.15,22,10.0.2.2,50534,1073725440,16250,1026,65535,65700,0,0,4,1460,312,0,16777216,230000,33580,44,65700,0,44,0,3255756537,63
i,1723651788.938827,10.0.2.15,22,10.0.2.2,50534,1073725440,16294,1026,65535,65700,0,0,4,1460,312,0,0,230000,33580,0,65700,0,0,0,3255756537,63
o,1723651788.939952,10.0.2.15,22,10.0.2.2,50534,1073725440,16294,1026,65535,65700,0,0,4,1460,312,0,16777216,230000,33580,68,65700,0,0,0,3255756537,63
i,1723651788.940382,10.0.2.15,22,10.0.2.2,50534,1073725440,16294,1026,65535,65700,0,0,4,1460,312,0,16777216,230000,33580,68,65700,0,68,0,3255756537,63
i,1723651788.940399,10.0.2.15,22,10.0.2.2,50534,1073725440,16362,1026,65535,65700,0,0,4,1460,312,0,0,230000,33580,0,65700,0,0,0,3255756537,63
o,1723651788.941361,10.0.2.15,22,10.0.2.2,50534,1073725440,16362,1026,65535,65700,0,0,4,1460,312,0,16777216,230000,33580,332,65700,0,0,0,3255756537,63
i,1723651788.941816,10.0.2.15,22,10.0.2.2,50534,1073725440,16362,1026,65535,65700,0,0,4,1460,312,0,16777216,230000,33580,332,65700,0,332,0,3255756537,63
i,1723651788.943511,10.0.2.15,22,10.0.2.2,50534,1073725440,16694,1026,65535,65700,0,0,4,1460,312,0,0,240000,33580,0,65700,0,0,0,3255756537,63
o,1723651788.961686,10.0.2.15,22,10.0.2.2,50534,1073725440,16694,1026,65535,65700,0,0,4,1460,312,0,16777216,240000,33580,28,65700,0,0,0,3255756537,63
i,1723651788.962206,10.0.2.15,22,10.0.2.2,50534,1073725440,16694,1026,65535,65700,0,0,4,1460,312,0,16777216,240000,33580,28,65700,0,28,0,3255756537,63
i,1723651788.962266,10.0.2.15,22,10.0.2.2,50534,1073725440,16722,1026,65535,65700,0,0,4,1460,312,0,0,240000,33580,0,65700,0,0,0,3255756537,63
o,1723651788.963412,10.0.2.15,22,10.0.2.2,50534,1073725440,16722,1026,65535,65700,0,0,4,1460,312,0,16777216,240000,33580,768,65700,112,0,0,3255756537,63
i,1723651788.965002,10.0.2.15,22,10.0.2.2,50534,1073725440,16722,1026,65535,65700,0,0,4,1460,312,0,16777216,240000,33580,908,65700,112,768,0,3255756537,63
o,1723651788.965020,10.0.2.15,22,10.0.2.2,50534,1073725440,17490,1026,65535,65700,0,0,4,1460,312,0,16777216,240000,33580,140,65700,112,0,0,3255756537,63
i,1723651788.965328,10.0.2.15,22,10.0.2.2,50534,1073725440,17490,1026,65535,65700,0,0,4,1460,312,0,16777216,240000,33580,140,65700,112,140,0,3255756537,63
o,1723651788.965572,10.0.2.15,22,10.0.2.2,50534,1073725440,17630,1026,65535,65700,0,0,4,1460,312,0,16777216,240000,33580,44,65700,0,0,0,3255756537,63
i,1723651788.966419,10.0.2.15,22,10.0.2.2,50534,1073725440,17630,1026,65535,65700,0,0,4,1460,312,0,16777216,240000,33580,44,65700,0,44,0,3255756537,63
i,1723651788.966435,10.0.2.15,22,10.0.2.2,50534,1073725440,17674,1026,65535,65700,0,0,4,1460,312,0,0,240000,33580,0,65700,0,0,0,3255756537,63
o,1723651788.967001,10.0.2.15,22,10.0.2.2,50534,1073725440,17674,1026,65535,65700,0,0,4,1460,312,0,16777220,240000,33580,72,65700,0,0,0,3255756537,63
i,1723651788.967571,10.0.2.15,22,10.0.2.2,50534,1073725440,17674,1026,65535,65700,0,0,4,1460,312,0,16777220,240000,33580,72,65700,0,72,0,3255756537,63
o,1723651788.970215,10.0.2.15,22,10.0.2.2,50534,1073725440,17746,1026,65535,65700,0,0,4,1460,312,0,16777220,230000,33580,104,65700,0,0,0,3255756537,63
i,1723651788.970672,10.0.2.15,22,10.0.2.2,50534,1073725440,17746,1026,65535,65700,0,0,4,1460,312,0,16777220,230000,33580,104,65700,0,104,0,3255756537,63
o,1723651788.985399,10.0.2.15,22,10.0.2.2,50534,1073725440,17850,1026,65535,65700,0,0,4,1460,312,0,16777220,230000,33580,72,65700,0,0,0,3255756537,63
i,1723651788.987404,10.0.2.15,22,10.0.2.2,50534,1073725440,17850,1026,65535,65700,0,0,4,1460,312,0,16777220,230000,33580,72,65700,0,72,0,3255756537,63
i,1723651788.988136,10.0.2.15,22,10.0.2.2,50534,1073725440,17922,1026,65535,65700,0,0,4,1460,312,0,4,230000,33580,0,65700,0,0,0,3255756537,63
i,1723651788.988253,10.0.2.15,22,10.0.2.2,50534,1073725440,17922,1026,65535,65700,0,0,4,1460,312,0,4,230000,33580,0,65700,96,0,0,3255756537,63
o,1723651788.988327,10.0.2.15,22,10.0.2.2,50534,1073725440,17922,1026,65535,65604,0,0,5,1460,312,0,5,230000,33580,0,65700,96,0,0,3255756537,63
o,1723651789.006099,10.0.2.15,22,10.0.2.2,50534,1073725440,17922,1026,65535,65604,0,0,8,1460,312,0,4,230000,33580,0,65700,0,0,0,3255756537,63
i,1723651789.007732,10.0.2.15,22,10.0.2.2,50534,1073725440,17922,1026,65535,65604,0,0,8,1460,312,0,67108884,230000,33580,0,65700,0,1,0,3255756537,63
i,1723651790.056656,10.0.2.15,22,10.0.2.2,50540,1073725440,14600,0,65535,65700,0,0,4,1460,312,0,16777216,250000,33580,0,65700,0,0,0,1188838894,63
o,1723651790.066708,10.0.2.15,22,10.0.2.2,50540,1073725440,14600,1026,65535,65700,0,0,4,1460,312,0,16777216,250000,33580,38,65700,42,0,0,1188838894,63
i,1723651790.067068,10.0.2.15,22,10.0.2.2,50540,1073725440,14600,1026,65535,65700,0,0,4,1460,312,0,16777216,250000,33580,38,65700,0,38,0,1188838894,63
i,1723651790.067529,10.0.2.15,22,10.0.2.2,50540,1073725440,14638,1026,65535,65700,0,0,4,1460,312,0,0,230000,33580,0,65700,0,0,0,1188838894,63
i,1723651790.067547,10.0.2.15,22,10.0.2.2,50540,1073725440,14638,1026,65535,65700,0,0,4,1460,312,0,0,230000,33580,0,65700,1460,0,0,1188838894,63
o,1723651790.067565,10.0.2.15,22,10.0.2.2,50540,1073725440,14638,1026,65535,65700,0,0,4,1460,312,0,1,230000,33580,0,65700,1536,0,0,1188838894,63
o,1723651790.068231,10.0.2.15,22,10.0.2.2,50540,1073725440,14638,1026,65535,65700,0,0,4,1460,312,0,16777216,230000,33580,1120,65700,1536,0,0,1188838894,63
i,1723651790.068919,10.0.2.15,22,10.0.2.2,50540,1073725440,14638,1026,65535,65700,0,0,4,1460,312,0,16777216,230000,33580,1120,65700,0,1120,0,1188838894,63
i,1723651790.070114,10.0.2.15,22,10.0.2.2,50540,1073725440,15758,1026,65535,65700,0,0,4,1460,312,0,0,230000,33580,0,65700,0,0,0,1188838894,63
o,1723651790.073479,10.0.2.15,22,10.0.2.2,50540,1073725440,15758,1026,65535,65700,0,0,4,1460,312,0,16777216,230000,33580,492,65700,0,0,0,1188838894,63
i,1723651790.074101,10.0.2.15,22,10.0.2.2,50540,1073725440,15758,1026,65535,65700,0,0,4,1460,312,0,16777216,230000,33580,492,65700,0,492,0,1188838894,63
i,1723651790.078657,10.0.2.15,22,10.0.2.2,50540,1073725440,16250,1026,65535,65700,0,0,4,1460,312,0,0,230000,33580,0,65700,0,0,0,1188838894,63
i,1723651790.078678,10.0.2.15,22,10.0.2.2,50540,1073725440,16250,1026,65535,65700,0,0,4,1460,312,0,0,230000,33580,0,65700,16,0,0,1188838894,63
o,1723651790.078695,10.0.2.15,22,10.0.2.2,50540,1073725440,16250,1026,65535,65700,0,0,4,1460,312,0,1,230000,33580,0,65700,60,0,0,1188838894,63
o,1723651790.078944,10.0.2.15,22,10.0.2.2,50540,1073725440,16250,1026,65535,65700,0,0,4,1460,312,0,16777216,230000,33580,44,65700,0,0,0,1188838894,63
i,1723651790.079432,10.0.2.15,22,10.0.2.2,50540,1073725440,16250,1026,65535,65700,0,0,4,1460,312,0,16777216,230000,33580,44,65700,0,44,0,1188838894,63
i,1723651790.079452,10.0.2.15,22,10.0.2.2,50540,1073725440,16294,1026,65535,65700,0,0,4,1460,312,0,0,240000,33580,0,65700,0,0,0,1188838894,63
o,1723651790.080524,10.0.2.15,22,10.0.2.2,50540,1073725440,16294,1026,65535,65700,0,0,4,1460,312,0,16777216,240000,33580,68,65700,0,0,0,1188838894,63
i,1723651790.080931,10.0.2.15,22,10.0.2.2,50540,1073725440,16294,1026,65535,65700,0,0,4,1460,312,0,16777216,240000,33580,68,65700,0,68,0,1188838894,63
i,1723651790.080948,10.0.2.15,22,10.0.2.2,50540,1073725440,16362,1026,65535,65700,0,0,4,1460,312,0,0,240000,33580,0,65700,0,0,0,1188838894,63
o,1723651790.082147,10.0.2.15,22,10.0.2.2,50540,1073725440,16362,1026,65535,65700,0,0,4,1460,312,0,16777216,240000,33580,332,65700,0,0,0,1188838894,63
i,1723651790.082904,10.0.2.15,22,10.0.2.2,50540,1073725440,16362,1026,65535,65700,0,0,4,1460,312,0,16777216,240000,33580,332,65700,0,332,0,1188838894,63
i,1723651790.084144,10.0.2.15,22,10.0.2.2,50540,1073725440,16694,1026,65535,65700,0,0,4,1460,312,0,0,240000,33580,0,65700,0,0,0,1188838894,63
o,1723651790.103503,10.0.2.15,22,10.0.2.2,50540,1073725440,16694,1026,65535,65700,0,0,4,1460,312,0,16777216,240000,33580,28,65700,0,0,0,1188838894,63
i,1723651790.104146,10.0.2.15,22,10.0.2.2,50540,1073725440,16694,1026,65535,65700,0,0,4,1460,312,0,16777216,240000,33580,28,65700,0,28,0,1188838894,63
i,1723651790.104714,10.0.2.15,22,10.0.2.2,50540,1073725440,16722,1026,65535,65700,0,0,4,1460,312,0,0,240000,33580,0,65700,0,0,0,1188838894,63
o,1723651790.106055,10.0.2.15,22,10.0.2.2,50540,1073725440,16722,1026,65535,65700,0,0,4,1460,312,0,16777216,240000,33580,768,65700,112,0,0,1188838894,63
i,1723651790.106384,10.0.2.15,22,10.0.2.2,50540,1073725440,16722,1026,65535,65700,0,0,4,1460,312,0,16777216,240000,33580,908,65700,112,768,0,1188838894,63
o,1723651790.106402,10.0.2.15,22,10.0.2.2,50540,1073725440,17490,1026,65535,65700,0,0,4,1460,312,0,16777216,240000,33580,140,65700,112,0,0,1188838894,63
i,1723651790.106791,10.0.2.15,22,10.0.2.2,50540,1073725440,17490,1026,65535,65700,0,0,4,1460,312,0,16777216,240000,33580,140,65700,112,140,0,1188838894,63
o,1723651790.107242,10.0.2.15,22,10.0.2.2,50540,1073725440,17630,1026,65535,65700,0,0,4,1460,312,0,16777216,240000,33580,44,65700,0,0,0,1188838894,63
i,1723651790.109463,10.0.2.15,22,10.0.2.2,50540,1073725440,17630,1026,65535,65700,0,0,4,1460,312,0,16777216,240000,33580,44,65700,0,44,0,1188838894,63
i,1723651790.109481,10.0.2.15,22,10.0.2.2,50540,1073725440,17674,1026,65535,65700,0,0,4,1460,312,0,0,230000,33580,0,65700,0,0,0,1188838894,63
o,1723651790.110226,10.0.2.15,22,10.0.2.2,50540,1073725440,17674,1026,65535,65700,0,0,4,1460,312,0,16777220,230000,33580,72,65700,0,0,0,1188838894,63
i,1723651790.110639,10.0.2.15,22,10.0.2.2,50540,1073725440,17674,1026,65535,65700,0,0,4,1460,312,0,16777220,230000,33580,72,65700,0,72,0,1188838894,63
o,1723651790.221731,172.16.5.2,25081,172.16.1.2,5102,9777,14480,2082,65535,65700,6,6,4,1460,142187,1,16778209,460000,33580,0,65700,0,0,0,247026962,63
o,1723651790.221882,172.16.5.2,25081,172.16.1.2,5102,9777,14480,2082,65535,65700,6,6,4,1460,142187,1,16778212,460000,33580,37,65700,0,0,0,247026962,63
i,1723651790.341110,172.16.5.2,25081,172.16.1.2,5102,9777,14480,2082,65535,65700,6,6,4,1460,142187,1,16778212,460000,33580,37,65700,0,37,0,247026962,63
o,1723651790.341377,172.16.5.2,25081,172.16.1.2,5102,9777,14480,3106,65728,65728,6,6,4,1460,139687,1,16778212,450000,33580,4,65700,0,0,0,247026962,63
o,1723651790.341601,172.16.5.2,25081,172.16.1.2,5102,9777,14480,3106,65728,65728,6,6,4,1460,139687,1,16778212,450000,33580,130,65700,0,4,0,247026962,63
i,1723651790.462665,172.16.5.2,25081,172.16.1.2,5102,9777,14480,3106,65728,65728,6,6,4,1460,139687,1,16778212,450000,33580,130,65700,0,130,0,247026962,63
i,1723651790.462706,172.16.5.2,25081,172.16.1.2,5102,9777,14480,3106,65600,65728,6,6,4,1460,137500,1,996,440000,33580,0,65700,0,0,0,247026962,63
o,1723651790.528867,172.16.5.2,25081,172.16.1.2,5102,9777,14480,3106,65728,65728,6,6,4,1460,137500,1,997,440000,33580,0,65700,0,0,0,247026962,63
o,1723651790.582835,172.16.5.2,37164,172.16.1.2,5102,9777,14480,2082,65535,65700,6,6,4,1460,143437,1,16778209,450000,33580,0,65700,0,0,0,634004278,63
o,1723651790.582974,172.16.5.2,37164,172.16.1.2,5102,9777,14480,2082,65535,65700,6,6,4,1460,143437,1,16778208,450000,33580,37,65700,0,0,0,634004278,63
i,1723651790.706011,172.16.5.2,25081,172.16.1.2,5102,9777,14480,3106,65728,65728,6,6,4,1460,137500,1,996,440000,33580,0,65700,0,0,0,247026962,63
i,1723651790.706069,172.16.5.2,25081,172.16.1.2,5102,9777,14480,3106,65728,65728,6,6,4,1460,137500,1,996,440000,33580,0,65700,1,0,0,247026962,63
o,1723651790.706088,172.16.5.2,25081,172.16.1.2,5102,9777,14480,3106,65728,65728,6,6,4,1460,137500,1,997,440000,33580,0,65700,2,0,0,247026962,63
o,1723651790.706548,172.16.5.2,37164,172.16.1.2,5102,9777,14480,2086,65535,65700,6,6,4,1460,143437,1,16778208,450000,33580,33580,65700,0,37,0,634004278,63
i,1723651790.731671,172.16.5.2,37164,172.16.1.2,5102,9777,14480,2086,65535,65700,6,6,4,1460,143437,1,16778208,450000,33580,33580,65700,0,13069,0,634004278,63
o,1723651790.731781,172.16.5.2,37164,172.16.1.2,5102,9777,14480,2082,65728,65728,6,6,4,1460,144375,1,16778208,430000,33580,33543,65700,0,13032,0,634004278,63
o,1723651791.158447,172.16.5.2,37164,172.16.1.2,5102,7240,1448,2146,65728,65728,6,6,4,1460,144375,1,16786401,660000,33580,33543,65700,0,14480,0,634004278,63
i,1723651791.250917,172.16.5.2,37164,172.16.1.2,5102,7240,1448,2146,65728,65728,6,6,4,1460,144375,1,16786400,660000,33580,33543,65700,0,14480,0,634004278,63
o,1723651791.251015,172.16.5.2,37164,172.16.1.2,5102,9777,14480,2086,64256,65728,6,6,4,1460,195312,1,16778208,870000,33580,30647,65700,0,11584,0,634004278,63
i,1723651791.262086,172.16.5.2,37164,172.16.1.2,5102,9777,14480,2086,64256,65728,6,6,4,1460,195312,1,16778208,870000,33580,33580,65700,0,14480,0,634004278,63
o,1723651791.262173,172.16.5.2,37164,172.16.1.2,5102,9777,14480,2086,64256,65728,6,6,4,1460,240937,1,16778208,1160000,33580,30684,65700,0,11584,0,634004278,63
i,1723651791.262376,172.16.5.2,37164,172.16.1.2,5102,9777,14480,2086,64256,65728,6,6,4,1460,240937,1,16778208,1160000,33580,30684,65700,0,14480,0,634004278,63
o,1723651791.262394,172.16.5.2,37164,172.16.1.2,5102,9777,14480,2086,64256,65728,6,6,4,1460,280937,1,16778208,1340000,33580,27788,65700,0,11584,0,634004278,63
i,1723651791.368164,172.16.5.2,37164,172.16.1.2,5102,9777,14480,2086,64256,65728,6,6,4,1460,280937,1,16778208,1340000,33580,33580,65700,0,14480,0,634004278,63
o,1723651791.368197,172.16.5.2,37164,172.16.1.2,5102,9777,15940,2086,64256,65728,6,6,4,1460,329687,1,16778208,1560000,33580,27788,65700,0,8688,0,634004278,63
o,1723651791.368348,172.16.5.2,37164,172.16.1.2,5102,9777,15940,2086,64256,65728,6,6,4,1460,329687,1,16778208,1560000,33580,27788,65700,0,10136,0,634004278,63
i,1723651791.839671,172.16.5.2,37164,172.16.1.2,5102,9777,15940,2086,64256,65728,6,6,4,1460,329687,1,16778208,1560000,33580,33580,65700,0,15928,0,634004278,63
o,1723651791.839706,172.16.5.2,37164,172.16.1.2,5102,9777,15940,2086,65728,65728,6,6,4,1460,361250,1,16778208,1590000,33580,32132,65700,0,14480,0,634004278,63
i,1723651791.839844,172.16.5.2,37164,172.16.1.2,5102,9777,15940,2086,65728,65728,6,6,4,1460,361250,1,16778208,1590000,33580,32132,65700,0,15928,0,634004278,63
o,1723651791.839860,172.16.5.2,37164,172.16.1.2,5102,9777,15940,2086,65728,65728,6,6,4,1460,388750,1,16778208,1580000,33580,30684,65700,0,14480,0,634004278,63
i,1723651791.840016,172.16.5.2,37164,172.16.1.2,5102,9777,15940,2086,65728,65728,6,6,4,1460,388750,1,16778208,1580000,41772,30684,65700,0,15928,0,634004278,63
o,1723651791.840033,172.16.5.2,37164,172.16.1.2,5102,9777,15940,2086,64256,65728,6,6,4,1460,412812,1,16778208,1550000,41772,27788,65700,0,13032,0,634004278,63
i,1723651791.866510,172.16.5.2,37164,172.16.1.2,5102,9777,15940,2086,64256,65728,6,6,4,1460,412812,1,16778208,1550000,41772,41772,65700,0,15928,0,634004278,63
o,1723651791.866616,172.16.5.2,37164,172.16.1.2,5102,9777,15940,2086,64256,65728,6,6,4,1460,436250,1,16778208,1520000,41772,38876,65700,0,13032,0,634004278,63
i,1723651791.867870,172.16.5.2,37164,172.16.1.2,5102,9777,15940,2086,64256,65728,6,6,4,1460,436250,1,16778208,1520000,41772,41772,65700,0,15928,0,634004278,63
o,1723651791.867899,172.16.5.2,37164,172.16.1.2,5102,9777,15940,2086,65728,65728,6,6,4,1460,444375,1,16778208,1370000,41772,40324,65700,0,14480,0,634004278,63
i,1723651792.391875,172.16.5.2,37164,172.16.1.2,5102,9777,15940,2086,65728,65728,6,6,4,1460,444375,1,16778208,1370000,41772,40324,65700,0,15928,0,634004278,63
o,1723651792.391912,172.16.5.2,37164,172.16.1.2,5102,9777,17400,2086,64256,65728,6,6,4,1460,457812,1,16778208,1310000,41772,28740,65700,0,4344,0,634004278,63
i,1723651792.413544,172.16.5.2,37164,172.16.1.2,5102,9777,17400,2086,64256,65728,6,6,4,1460,457812,1,16778208,1310000,41772,41772,65700,0,17376,0,634004278,63
o,1723651792.413648,172.16.5.2,37164,172.16.1.2,5102,9777,17400,2086,65728,65728,6,6,4,1460,468125,1,16778208,1240000,41772,37428,65700,0,13032,0,634004278,63
o,1723651792.413788,172.16.5.2,37164,172.16.1.2,5102,9777,17400,2086,65728,65728,6,6,4,1460,468125,1,16778208,1240000,41772,37428,65700,0,14480,0,634004278,63
i,1723651793.113866,172.16.5.2,37164,172.16.1.2,5102,9777,17400,2086,65728,65728,6,6,4,1460,468125,1,16778208,1240000,41772,41772,65700,0,17376,0,634004278,63
o,1723651793.113911,172.16.5.2,37164,172.16.1.2,5102,9777,17400,2086,64256,65728,6,6,4,1460,499687,1,16778208,1380000,41772,35980,65700,0,11584,0,634004278,63
i,1723651793.114080,172.16.5.2,37164,172.16.1.2,5102,9777,17400,2086,64256,65728,6,6,4,1460,499687,1,16778208,1380000,41772,35980,65700,0,17376,0,634004278,63
o,1723651793.114105,172.16.5.2,37164,172.16.1.2,5102,9777,18860,2086,64256,65728,6,6,4,1460,527500,1,16778208,1460000,41772,33084,65700,0,14480,0,634004278,63
i,1723651793.114264,172.16.5.2,37164,172.16.1.2,5102,9777,18860,2086,64256,65728,6,6,4,1460,527500,1,16778208,1460000,41772,33084,65700,0,18824,0,634004278,63
o,1723651793.114286,172.16.5.2,37164,172.16.1.2,5102,9777,18860,2086,64256,65728,6,6,4,1460,551562,1,16778208,1490000,41772,27292,65700,0,13032,0,634004278,63
o,1723651793.114447,172.16.5.2,37164,172.16.1.2,5102,9777,18860,2086,64256,65728,6,6,4,1460,551562,1,16778208,1490000,41772,27292,65700,0,14480,0,634004278,63
i,1723651793.114671,172.16.5.2,37164,172.16.1.2,5102,9777,18860,2086,64256,65728,6,6,4,1460,551562,1,16778208,1490000,41772,27292,65700,0,18824,0,634004278,63
o,1723651793.114692,172.16.5.2,37164,172.16.1.2,5102,9777,18860,2086,64256,65728,6,6,4,1460,570312,1,16778208,1480000,41772,24396,65700,0,15928,0,634004278,63
i,1723651793.810943,172.16.5.2,37164,172.16.1.2,5102,9777,18860,2086,64256,65728,6,6,4,1460,570312,1,16778208,1480000,41772,41772,65700,0,18824,0,634004278,63
o,1723651793.811001,172.16.5.2,37164,172.16.1.2,5102,9777,18860,2086,64256,65728,6,6,4,1460,586562,1,16778208,1450000,41772,35980,65700,0,13032,0,634004278,63
i,1723651793.811167,172.16.5.2,37164,172.16.1.2,5102,9777,18860,2086,64256,65728,6,6,4,1460,586562,1,16778208,1450000,41772,35980,65700,0,18824,0,634004278,63
o,1723651793.811190,172.16.5.2,37164,172.16.1.2,5102,9777,18860,2086,64256,65728,6,6,4,1460,600937,1,16778208,1410000,41772,33084,65700,0,15928,0,634004278,63
i,1723651793.811318,172.16.5.2,37164,172.16.1.2,5102,9777,18860,2086,64256,65728,6,6,4,1460,600937,1,16778208,1410000,41772,33084,65700,0,18824,0,634004278,63
o,1723651793.811348,172.16.5.2,37164,172.16.1.2,5102,9777,20320,2086,64256,65728,6,6,4,1460,613437,1,16778208,1370000,41772,30188,65700,0,15928,0,634004278,63
o,1723651793.811480,172.16.5.2,37164,172.16.1.2,5102,9777,20320,2086,64256,65728,6,6,4,1460,613437,1,16778208,1370000,41772,30188,65700,0,17376,0,634004278,63
i,1723651793.811679,172.16.5.2,37164,172.16.1.2,5102,9777,20320,2086,64256,65728,6,6,4,1460,613437,1,16778208,1370000,41772,30188,65700,0,20272,0,634004278,63
o,1723651793.811696,172.16.5.2,37164,172.16.1.2,5102,9777,20320,2086,64256,65728,6,6,4,1460,624375,1,16778208,1330000,41772,27292,65700,0,17376,0,634004278,63
i,1723651793.830638,172.16.5.2,37164,172.16.1.2,5102,9777,20320,2086,64256,65728,6,6,4,1460,624375,1,16778208,1330000,41772,41772,65700,0,20272,0,634004278,63
o,1723651793.830683,172.16.5.2,37164,172.16.1.2,5102,9777,20320,2086,64256,65728,6,6,4,1460,636562,1,16778208,1310000,41772,38876,65700,0,17376,0,634004278,63
i,1723651793.830912,172.16.5.2,37164,172.16.1.2,5102,9777,20320,2086,64256,65728,6,6,4,1460,636562,1,16778208,1310000,49964,38876,65700,0,20272,0,634004278,63
o,1723651793.830931,172.16.5.2,37164,172.16.1.2,5102,9777,20320,2086,65728,65728,6,6,4,1460,647187,1,16778208,1290000,49964,37428,65700,0,18824,0,634004278,63
i,1723651794.492186,172.16.5.2,37164,172.16.1.2,5102,9777,20320,2086,65728,65728,6,6,4,1460,647187,1,16778208,1290000,49964,49964,65700,0,20272,0,634004278,63
o,1723651794.492287,172.16.5.2,37164,172.16.1.2,5102,9777,20320,2086,64256,65728,6,6,4,1460,651562,1,16778208,1220000,49964,47068,65700,0,17376,0,634004278,63
i,1723651794.602202,172.16.5.2,37164,172.16.1.2,5102,9777,20320,2086,64256,65728,6,6,4,1460,651562,1,16778208,1220000,49964,49964,65700,0,20272,0,634004278,63
o,1723651794.602548,172.16.5.2,37164,172.16.1.2,5102,9777,20320,2086,65728,65728,6,6,4,1460,669062,1,16778208,1280000,49964,48516,65700,0,18824,0,634004278,63
i,1723651794.619464,172.16.5.2,37164,172.16.1.2,5102,9777,20320,2086,65728,65728,6,6,4,1460,669062,1,16778208,1280000,49964,48516,65700,0,20272,0,634004278,63
o,1723651794.619552,172.16.5.2,37164,172.16.1.2,5102,9777,20320,2086,64256,65728,6,6,4,1460,686875,1,16778208,1340000,49964,45620,65700,0,17376,0,634004278,63
i,1723651794.619745,172.16.5.2,37164,172.16.1.2,5102,9777,20320,2086,64256,65728,6,6,4,1460,686875,1,16778208,1340000,49964,45620,65700,0,20272,0,634004278,63
o,1723651794.619765,172.16.5.2,37164,172.16.1.2,5102,9777,20320,2086,64256,65728,6,6,4,1460,702500,1,16778208,1370000,49964,42724,65700,0,17376,0,634004278,63
o,1723651794.619885,172.16.5.2,37164,172.16.1.2,5102,9777,20320,2086,64256,65728,6,6,4,1460,702500,1,16778208,1370000,49964,42724,65700,0,18824,0,634004278,63
i,1723651794.620013,172.16.5.2,37164,172.16.1.2,5102,9777,20320,2086,64256,65728,6,6,4,1460,702500,1,16778208,1370000,49964,42724,65700,0,20272,0,634004278,63
o,1723651794.620031,172.16.5.2,37164,172.16.1.2,5102,9777,21780,2086,64256,65728,6,6,4,1460,715937,1,16778208,1370000,49964,39828,65700,0,17376,0,634004278,63
i,1723651794.620195,172.16.5.2,37164,172.16.1.2,5102,9777,21780,2086,64256,65728,6,6,4,1460,715937,1,16778208,1370000,49964,39828,65700,0,21720,0,634004278,63
o,1723651794.620213,172.16.5.2,37164,172.16.1.2,5102,9777,21780,2086,65728,65728,6,6,4,1460,727812,1,16778208,1360000,49964,38380,65700,0,20272,0,634004278,63
i,1723651794.632274,172.16.5.2,37164,172.16.1.2,5102,9777,21780,2086,65728,65728,6,6,4,1460,727812,1,16778208,1360000,49964,49964,65700,0,21720,0,634004278,63
o,1723651794.632307,172.16.5.2,37164,172.16.1.2,5102,9777,21780,2086,64256,65728,6,6,4,1460,739375,1,16778208,1360000,49964,47068,65700,0,18824,0,634004278,63
i,1723651794.632476,172.16.5.2,37164,172.16.1.2,5102,9777,21780,2086,64256,65728,6,6,4,1460,739375,1,16778208,1360000,49964,47068,65700,0,21720,0,634004278,63
o,1723651794.632496,172.16.5.2,37164,172.16.1.2,5102,9777,23168,2082,64256,65728,6,6,4,1460,739375,1,16778208,1360000,49964,47068,65700,0,21720,0,634004278,63
i,1723651794.720777,172.16.5.2,37164,172.16.1.2,5102,9777,21780,2082,64256,65728,6,6,4,1460,739375,1,16778208,1360000,49964,49964,65700,0,23168,0,634004278,63
o,1723651794.720777,172.16.5.2,37164,172.16.1.2,5102,9777,24616,2082,64256,65728,6,6,4,1460,739375,1,16778208,1360000,49964,49964,65700,0,23168,0,634004278,63
i,1723651794.720777,172.16.5.2,37164,172.16.1.2,5102,9777,21780,2082,64256,65728,6,6,4,1460,739375,1,16778208,1360000,49964,49964,65700,0,24616,0,634004278,63
o,1723651794.720777,172.16.5.2,37164,172.16.1.2,5102,10890,1448,2146,64256,65728,6,6,4,1460,739375,1,554697696,1360000,49964,49964,65700,0,24616,0,634004278,63
i,1723651795.181712,172.16.5.2,37164,172.16.1.2,5102,10890,1448,2146,64256,65728,6,6,4,1460,739375,1,554697696,1360000,49964,49964,65700,0,24616,0,634004278,63
i,1723651795.181779,172.16.5.2,37164,172.16.1.2,5102,10890,1448,2146,64256,65728,6,6,4,1460,739375,1,554697696,1360000,49964,49964,65700,0,24616,0,634004278,63
o,1723651795.181798,172.16.5.2,37164,172.16.1.2,5102,10890,2896,2082,64256,65728,6,6,4,1460,739375,1,554697696,1360000,49964,49964,65700,0,24616,0,634004278,63
i,1723651795.181950,172.16.5.2,37164,172.16.1.2,5102,10890,2896,2082,64256,65728,6,6,4,1460,739375,1,554697696,1360000,49964,49964,65700,0,26064,0,634004278,63
i,1723651795.212591,172.16.5.2,37164,172.16.1.2,5102,10890,2896,2082,64256,65728,6,6,4,1460,739375,1,554697696,1360000,49964,49964,65700,0,26064,0,634004278,63
o,1723651795.212634,172.16.5.2,37164,172.16.1.2,5102,10890,4344,2082,64256,65728,6,6,4,1460,739375,1,554697696,1360000,49964,49964,65700,0,26064,0,634004278,63
i,1723651795.212798,172.16.5.2,37164,172.16.1.2,5102,10890,4344,2082,64256,65728,6,6,4,1460,739375,1,554697696,1360000,49964,49964,65700,0,27512,0,634004278,63
i,1723651795.212866,172.16.5.2,37164,172.16.1.2,5102,10890,4344,2082,64256,65728,6,6,4,1460,739375,1,554697696,1360000,49964,49964,65700,0,27512,0,634004278,63
o,1723651795.212885,172.16.5.2,37164,172.16.1.2,5102,10890,5792,2082,64256,65728,6,6,4,1460,739375,1,554697696,1360000,49964,49964,65700,0,27512,0,634004278,63
i,1723651795.214036,172.16.5.2,37164,172.16.1.2,5102,10890,5792,2082,64256,65728,6,6,4,1460,739375,1,554697696,1360000,49964,49964,65700,0,28960,0,634004278,63
i,1723651795.214569,172.16.5.2,37164,172.16.1.2,5102,10890,5792,2082,64256,65728,6,6,4,1460,739375,1,554697696,1360000,49964,49964,65700,0,28960,0,634004278,63
o,1723651795.214605,172.16.5.2,37164,172.16.1.2,5102,10890,7240,2082,64256,65728,6,6,4,1460,739375,1,554697696,1360000,49964,49964,65700,0,28960,0,634004278,63
i,1723651795.214731,172.16.5.2,37164,172.16.1.2,5102,10890,7240,2082,64256,65728,6,6,4,1460,739375,1,554697696,1360000,49964,49964,65700,0,30408,0,634004278,63
i,1723651795.271981,172.16.5.2,37164,172.16.1.2,5102,10890,7240,2082,64256,65728,6,6,4,1460,739375,1,554697696,1360000,49964,49964,65700,0,30408,0,634004278,63
o,1723651795.272013,172.16.5.2,37164,172.16.1.2,5102,10890,8688,2082,64256,65728,6,6,4,1460,739375,1,554697697,1360000,49964,49964,65700,0,30408,0,634004278,63
o,1723651795.272135,172.16.5.2,37164,172.16.1.2,5102,10890,8688,2082,64256,65728,6,6,4,1460,739375,1,554697696,1360000,49964,49964,65700,0,30408,0,634004278,63
i,1723651795.272285,172.16.5.2,37164,172.16.1.2,5102,10890,8688,2082,45504,65728,6,6,4,1460,715937,1,554697696,1420000,49964,29692,65700,0,11584,0,634004278,63
i,1723651795.272313,172.16.5.2,37164,172.16.1.2,5102,10890,8688,2082,65728,65728,6,6,4,1460,715937,1,554697696,1420000,49964,29692,65700,0,11584,0,634004278,63
i,1723651795.502287,172.16.5.2,37164,172.16.1.2,5102,10890,8688,2082,65728,65728,6,6,4,1460,715937,1,554697696,1420000,49964,49964,65700,0,11584,0,634004278,63
i,1723651795.502435,172.16.5.2,37164,172.16.1.2,5102,10890,8688,2082,65728,65728,6,6,4,1460,715937,1,554697696,1420000,49964,49964,65700,0,11584,0,634004278,63
o,1723651795.502502,172.16.5.2,37164,172.16.1.2,5102,10890,8688,2086,65728,65728,6,6,4,1460,715937,1,554697696,1420000,49964,49964,65700,0,11584,0,634004278,63
o,1723651795.502717,172.16.5.2,37164,172.16.1.2,5102,10890,8688,2082,65728,65728,6,6,4,1460,715937,1,554697696,1420000,49964,49964,65700,0,11584,0,634004278,63
i,1723651795.649021,172.16.5.2,37164,172.16.1.2,5102,10890,8688,2082,65728,65728,6,6,4,1460,715937,1,554697696,1420000,49964,49964,65700,0,11584,0,634004278,63
i,1723651795.649265,172.16.5.2,37164,172.16.1.2,5102,10890,11584,2082,65728,65728,6,6,4,1460,715937,1,554697696,1420000,49964,49964,65700,0,11584,0,634004278,63
i,1723651795.649318,172.16.5.2,37164,172.16.1.2,5102,10890,11584,2082,65728,65728,6,6,4,1460,715937,1,537920480,1420000,49964,49964,65700,0,11584,0,634004278,63
o,1723651795.649338,172.16.5.2,37164,172.16.1.2,5102,10890,13032,2082,65728,65728,6,6,4,1460,715937,1,554697696,1420000,49964,49964,65700,0,11584,0,634004278,63
i,1723651795.649528,172.16.5.2,37164,172.16.1.2,5102,10890,13032,2082,65728,65728,6,6,4,1460,715937,1,554697696,1420000,49964,49964,65700,0,13032,0,634004278,63
o,1723651795.649560,172.16.5.2,37164,172.16.1.2,5102,10890,14480,2082,65728,65728,6,6,4,1460,715937,1,554697696,1420000,49964,49964,65700,0,13032,0,634004278,63
i,1723651795.741337,172.16.5.2,37164,172.16.1.2,5102,10890,14480,2082,65728,65728,6,6,4,1460,715937,1,554697696,1420000,49964,49964,65700,0,14480,0,634004278,63
i,1723651795.872965,172.16.5.2,37164,172.16.1.2,5102,10890,14480,2082,65728,65728,6,6,4,1460,715937,1,554697696,1420000,49964,49964,65700,0,14480,0,634004278,63
o,1723651795.872997,172.16.5.2,37164,172.16.1.2,5102,10890,14480,2082,65728,65728,6,6,4,1460,715937,1,554697697,1420000,49964,49964,65700,0,14480,0,634004278,63
i,1723651796.011500,172.16.5.2,37164,172.16.1.2,5102,10890,14480,2082,64320,65728,6,6,4,1460,671562,1,554697696,1600000,49964,48516,65700,0,14480,0,634004278,63
o,1723651796.011643,172.16.5.2,37164,172.16.1.2,5102,10890,17376,2086,64320,65728,6,6,4,1460,671562,1,554697696,1600000,49964,48516,65700,0,14480,0,634004278,63
o,1723651796.011961,172.16.5.2,37164,172.16.1.2,5102,10890,17376,2082,64320,65728,6,6,4,1460,671562,1,554697696,1600000,49964,48516,65700,0,15928,0,634004278,63
i,1723651796.012362,172.16.5.2,37164,172.16.1.2,5102,10890,17376,2082,64320,65728,6,6,4,1460,671562,1,554697696,1600000,49964,48516,65700,0,17376,0,634004278,63
o,1723651796.012445,172.16.5.2,37164,172.16.1.2,5102,10890,18824,2082,64320,65728,6,6,4,1460,671562,1,554697696,1600000,49964,48516,65700,0,17376,0,634004278,63
i,1723651796.075590,172.16.5.2,37164,172.16.1.2,5102,10890,18824,2082,64320,65728,6,6,4,1460,671562,1,554697696,1600000,49964,48516,65700,0,18824,0,634004278,63
o,1723651796.075745,172.16.5.2,37164,172.16.1.2,5102,10890,20272,2082,64320,65728,6,6,4,1460,671562,1,554697696,1600000,49964,48516,65700,0,18824,0,634004278,63
i,1723651796.462817,172.16.5.2,37164,172.16.1.2,5102,10890,20272,2082,64320,65728,6,6,4,1460,671562,1,554697696,1600000,49964,48516,65700,0,20272,0,634004278,63
o,1723651796.462851,172.16.5.2,37164,172.16.1.2,5102,10890,21720,2082,64320,65728,6,6,4,1460,671562,1,554697696,1600000,49964,48516,65700,0,20272,0,634004278,63
i,1723651796.462982,172.16.5.2,37164,172.16.1.2,5102,10890,21720,2082,64320,65728,6,6,4,1460,671562,1,554697696,1600000,49964,48516,65700,0,21720,0,634004278,63
o,1723651796.462998,172.16.5.2,37164,172.16.1.2,5102,10890,23168,2082,64320,65728,6,6,4,1460,671562,1,554697696,1600000,49964,48516,65700,0,21720,0,634004278,63
i,1723651796.463120,172.16.5.2,37164,172.16.1.2,5102,10890,23168,2082,64320,65728,6,6,4,1460,671562,1,554697696,1600000,49964,48516,65700,0,23168,0,634004278,63
o,1723651796.463136,172.16.5.2,37164,172.16.1.2,5102,10890,24616,2082,64320,65728,6,6,4,1460,671562,1,554697696,1600000,49964,48516,65700,0,23168,0,634004278,63
i,1723651796.473739,172.16.5.2,37164,172.16.1.2,5102,10890,24616,2082,64320,65728,6,6,4,1460,671562,1,554697696,1600000,49964,48516,65700,0,24616,0,634004278,63
o,1723651796.473789,172.16.5.2,37164,172.16.1.2,5102,10890,26064,2082,64320,65728,6,6,4,1460,671562,1,554697696,1600000,58156,48516,65700,0,24616,0,634004278,63
i,1723651796.892119,172.16.5.2,37164,172.16.1.2,5102,10890,26064,2082,64320,65728,6,6,4,1460,671562,1,554697696,1600000,58156,48516,65700,0,26064,0,634004278,63
o,1723651796.892151,172.16.5.2,37164,172.16.1.2,5102,10890,27512,2082,64320,65728,6,6,4,1460,671562,1,554697696,1600000,58156,48516,65700,0,26064,0,634004278,63
i,1723651796.892289,172.16.5.2,37164,172.16.1.2,5102,10890,27512,2082,64320,65728,6,6,4,1460,671562,1,554697696,1600000,58156,48516,65700,0,27512,0,634004278,63
o,1723651796.892314,172.16.5.2,37164,172.16.1.2,5102,10890,28960,2082,64320,65728,6,6,4,1460,671562,1,554697696,1600000,58156,48516,65700,0,27512,0,634004278,63
i,1723651796.892429,172.16.5.2,37164,172.16.1.2,5102,10890,28960,2082,64320,65728,6,6,4,1460,671562,1,554697696,1600000,58156,48516,65700,0,28960,0,634004278,63
o,1723651796.892444,172.16.5.2,37164,172.16.1.2,5102,10890,30408,2082,64320,65728,6,6,4,1460,671562,1,554697696,1600000,58156,48516,65700,0,28960,0,634004278,63
i,1723651796.892557,172.16.5.2,37164,172.16.1.2,5102,10890,30408,2082,64320,65728,6,6,4,1460,671562,1,554697696,1600000,58156,48516,65700,0,30408,0,634004278,63
o,1723651796.892691,172.16.5.2,37164,172.16.1.2,5102,10890,31856,2082,64320,65728,6,6,4,1460,671562,1,554697696,1600000,58156,48516,65700,0,30408,0,634004278,63
i,1723651797.341793,172.16.5.2,37164,172.16.1.2,5102,10890,31856,2082,64320,65728,6,6,4,1460,671562,1,554697696,1600000,58156,48516,65700,0,31856,0,634004278,63
o,1723651797.341842,172.16.5.2,37164,172.16.1.2,5102,10890,33304,2082,64320,65728,6,6,4,1460,671562,1,554697696,1600000,58156,48516,65700,0,31856,0,634004278,63
i,1723651797.342025,172.16.5.2,37164,172.16.1.2,5102,10890,33304,2082,64320,65728,6,6,4,1460,671562,1,554697696,1600000,58156,48516,65700,0,33304,0,634004278,63
o,1723651797.342054,172.16.5.2,37164,172.16.1.2,5102,10890,34752,2082,64320,65728,6,6,4,1460,671562,1,554697696,1600000,58156,48516,65700,0,33304,0,634004278,63
i,1723651797.342621,172.16.5.2,37164,172.16.1.2,5102,10890,34752,2082,64320,65728,6,6,4,1460,671562,1,554697696,1600000,58156,48516,65700,0,34752,0,634004278,63
o,1723651797.342650,172.16.5.2,37164,172.16.1.2,5102,10890,36200,2082,64320,65728,6,6,4,1460,671562,1,554697696,1600000,58156,48516,65700,0,34752,0,634004278,63
o,1723651797.564079,172.16.5.2,37164,172.16.1.2,5102,17376,1448,2146,64320,65728,6,6,4,1460,671562,1,1092625377,3000000,58156,48516,65700,0,36200,0,634004278,63
i,1723651797.821397,172.16.5.2,37164,172.16.1.2,5102,17376,1448,2146,64320,65728,6,6,4,1460,671562,1,1092625376,3000000,58156,48516,65700,0,36200,0,634004278,63
o,1723651797.821521,172.16.5.2,37164,172.16.1.2,5102,10890,39096,2146,64320,65728,6,6,4,1460,671562,1,1630536672,3000000,58156,48516,65700,0,36200,0,634004278,63
o,1723651797.821835,172.16.5.2,37164,172.16.1.2,5102,10890,39096,2086,64320,65728,6,6,4,1460,671562,1,1630536672,3000000,58156,48516,65700,0,36200,0,634004278,63
i,1723651797.822332,172.16.5.2,37164,172.16.1.2,5102,10890,39096,2086,64320,65728,6,6,4,1460,671562,1,1630536672,3000000,58156,48516,65700,0,40544,0,634004278,63
o,1723651797.822349,172.16.5.2,37164,172.16.1.2,5102,10890,40544,2082,64320,65728,6,6,4,1460,671562,1,1630536672,3000000,58156,48516,65700,0,40544,0,634004278,63
i,1723651797.822473,172.16.5.2,37164,172.16.1.2,5102,10890,40544,2082,64320,65728,6,6,4,1460,671562,1,1630536672,3000000,58156,48516,65700,0,41992,0,634004278,63
o,1723651797.822489,172.16.5.2,37164,172.16.1.2,5102,10890,41992,2082,64320,65728,6,6,4,1460,671562,1,1630536672,3000000,58156,48516,65700,0,41992,0,634004278,63
i,1723651798.132061,172.16.5.2,37164,172.16.1.2,5102,10890,41992,2082,64320,65728,6,6,4,1460,671562,1,1630536672,3000000,58156,48516,65700,0,43440,0,634004278,63
o,1723651798.132155,172.16.5.2,37164,172.16.1.2,5102,10890,8700,2086,29568,65728,6,6,4,1460,659062,1,1092617184,1510000,58156,12316,65700,0,7240,0,634004278,63
i,1723651798.132299,172.16.5.2,37164,172.16.1.2,5102,10890,8700,2086,29568,65728,6,6,4,1460,659062,1,1092617184,1510000,58156,12316,65700,0,8688,0,634004278,63
o,1723651798.132316,172.16.5.2,37164,172.16.1.2,5102,10890,10136,2082,29568,65728,6,6,4,1460,659062,1,1092617184,1510000,58156,12316,65700,0,8688,0,634004278,63
i,1723651798.436766,172.16.5.2,37164,172.16.1.2,5102,10890,8700,2082,29568,65728,6,6,4,1460,659062,1,1092617184,1510000,58156,58156,65700,0,10136,0,634004278,63
i,1723651798.436838,172.16.5.2,37164,172.16.1.2,5102,10890,8700,2082,65728,65728,6,6,4,1460,659062,1,1092617184,1510000,58156,58156,65700,0,10136,0,634004278,63
o,1723651798.436932,172.16.5.2,37164,172.16.1.2,5102,10890,10148,2086,65728,65728,6,6,4,1460,651875,1,1092617184,1390000,58156,56708,65700,0,8688,0,634004278,63
i,1723651798.437166,172.16.5.2,37164,172.16.1.2,5102,10890,10148,2086,65728,65728,6,6,4,1460,651875,1,1092617184,1390000,58156,56708,65700,0,10136,0,634004278,63
o,1723651798.437190,172.16.5.2,37164,172.16.1.2,5102,10890,11596,2086,65728,65728,6,6,4,1460,645625,1,1092617184,1300000,58156,55260,65700,0,8688,0,634004278,63
i,1723651798.438437,172.16.5.2,37164,172.16.1.2,5102,10890,11596,2086,65728,65728,6,6,4,1460,645625,1,1092617184,1300000,58156,58156,65700,0,11584,0,634004278,63
o,1723651798.438468,172.16.5.2,37164,172.16.1.2,5102,10890,11596,2086,64256,65728,6,6,4,1460,641250,1,1092617184,1220000,58156,53812,65700,0,7240,0,634004278,63
i,1723651798.464184,172.16.5.2,37164,172.16.1.2,5102,10890,11596,2086,64256,65728,6,6,4,1460,641250,1,1092617184,1220000,58156,58156,65700,0,11584,0,634004278,63
o,1723651798.464281,172.16.5.2,37164,172.16.1.2,5102,10890,11596,2086,64256,65728,6,6,4,1460,601250,1,1092617184,1400000,58156,55260,65700,0,8688,0,634004278,63
o,1723651798.464398,172.16.5.2,37164,172.16.1.2,5102,10890,11596,2086,64256,65728,6,6,4,1460,601250,1,1092617184,1400000,58156,55260,65700,0,10136,0,634004278,63
i,1723651799.072057,172.16.5.2,37164,172.16.1.2,5102,10890,11596,2086,64256,65728,6,6,4,1460,601250,1,1092617184,1400000,58156,58156,65700,0,11584,0,634004278,63
o,1723651799.072145,172.16.5.2,37164,172.16.1.2,5102,10890,11596,2086,64256,65728,6,6,4,1460,606250,1,1092617184,1300000,58156,55260,65700,0,8688,0,634004278,63
i,1723651799.072504,172.16.5.2,37164,172.16.1.2,5102,10890,11596,2086,64256,65728,6,6,4,1460,606250,1,1092617184,1300000,58156,58156,65700,0,11584,0,634004278,63
o,1723651799.072521,172.16.5.2,37164,172.16.1.2,5102,10890,13056,2086,64256,65728,6,6,4,1460,609375,1,1092617184,1200000,58156,53812,65700,0,7240,0,634004278,63
i,1723651799.072731,172.16.5.2,37164,172.16.1.2,5102,10890,13056,2086,64256,65728,6,6,4,1460,609375,1,1092617184,1200000,58156,53812,65700,0,13032,0,634004278,63
o,1723651799.072748,172.16.5.2,37164,172.16.1.2,5102,10890,13056,2086,64256,65728,6,6,4,1460,612187,1,1092617184,1130000,58156,50916,65700,0,10136,0,634004278,63
o,1723651799.072855,172.16.5.2,37164,172.16.1.2,5102,10890,13056,2086,64256,65728,6,6,4,1460,612187,1,1092617184,1130000,58156,50916,65700,0,11584,0,634004278,63
i,1723651799.073425,172.16.5.2,37164,172.16.1.2,5102,10890,13056,2086,64256,65728,6,6,4,1460,612187,1,1092617184,1130000,58156,58156,65700,0,13032,0,634004278,63
o,1723651799.073501,172.16.5.2,37164,172.16.1.2,5102,10890,13056,2086,65728,65728,6,6,4,1460,612187,1,1092617184,1050000,58156,56708,65700,0,11584,0,634004278,63
i,1723651799.571186,172.16.5.2,37164,172.16.1.2,5102,10890,13056,2086,65728,65728,6,6,4,1460,612187,1,1092617184,1050000,58156,56708,65700,0,13032,0,634004278,63
o,1723651799.571291,172.16.5.2,37164,172.16.1.2,5102,10890,13056,2086,64256,65728,6,6,4,1460,598437,1,1092617184,1090000,58156,53812,65700,0,10136,0,634004278,63
i,1723651799.571686,172.16.5.2,37164,172.16.1.2,5102,10890,13056,2086,64256,65728,6,6,4,1460,598437,1,1092617184,1090000,58156,53812,65700,0,13032,0,634004278,63
o,1723651799.571753,172.16.5.2,37164,172.16.1.2,5102,10890,13056,2086,64256,65728,6,6,4,1460,586250,1,1092617184,1100000,58156,50916,65700,0,10136,0,634004278,63
i,1723651799.572030,172.16.5.2,37164,172.16.1.2,5102,10890,13056,2086,64256,65728,6,6,4,1460,586250,1,1092617184,1100000,58156,50916,65700,0,13032,0,634004278,63
o,1723651799.572073,172.16.5.2,37164,172.16.1.2,5102,10890,14516,2086,64256,65728,6,6,4,1460,575625,1,1092617184,1100000,58156,48020,65700,0,10136,0,634004278,63
i,1723651799.572325,172.16.5.2,37164,172.16.1.2,5102,10890,14516,2086,64256,65728,6,6,4,1460,575625,1,1092617184,1100000,58156,48020,65700,0,14480,0,634004278,63
o,1723651799.572359,172.16.5.2,37164,172.16.1.2,5102,10890,14516,2086,64256,65728,6,6,4,1460,566250,1,1092617184,1080000,58156,45124,65700,0,11584,0,634004278,63
o,1723651799.572501,172.16.5.2,37164,172.16.1.2,5102,10890,14516,2086,64256,65728,6,6,4,1460,566250,1,1092617184,1080000,58156,45124,65700,0,13032,0,634004278,63
i,1723651799.607220,172.16.5.2,37164,172.16.1.2,5102,10890,14516,2086,64256,65728,6,6,4,1460,566250,1,1092617184,1080000,58156,58156,65700,0,14480,0,634004278,63
o,1723651799.607255,172.16.5.2,37164,172.16.1.2,5102,10890,14516,2086,65728,65728,6,6,4,1460,561875,1,1092617184,1030000,58156,56708,65700,0,13032,0,634004278,63
i,1723651799.991218,172.16.5.2,37164,172.16.1.2,5102,10890,14516,2086,65728,65728,6,6,4,1460,561875,1,1092617184,1030000,58156,56708,65700,0,14480,0,634004278,63
o,1723651799.991295,172.16.5.2,37164,172.16.1.2,5102,10890,14516,2086,64256,65728,6,6,4,1460,543125,1,1092617184,1100000,58156,53812,65700,0,11584,0,634004278,63
i,1723651800.106413,172.16.5.2,37164,172.16.1.2,5102,10890,14516,2086,64256,65728,6,6,4,1460,543125,1,1092617184,1100000,58156,58156,65700,0,14480,0,634004278,63
o,1723651800.106756,172.16.5.2,37164,172.16.1.2,5102,10890,14516,2086,65728,65728,6,6,4,1460,541562,1,1092617184,1020000,58156,56708,65700,0,13032,0,634004278,63
i,1723651800.110881,172.16.5.2,37164,172.16.1.2,5102,10890,14516,2086,65728,65728,6,6,4,1460,541562,1,1092617184,1020000,58156,56708,65700,0,14480,0,634004278,63
o,1723651800.110898,172.16.5.2,37164,172.16.1.2,5102,10890,14516,2086,64256,65728,6,6,4,1460,540312,1,1092617184,960000,58156,53812,65700,0,11584,0,634004278,63
i,1723651800.121863,172.16.5.2,37164,172.16.1.2,5102,10890,14516,2086,64256,65728,6,6,4,1460,540312,1,1092617184,960000,58156,58156,65700,0,14480,0,634004278,63
o,1723651800.121906,172.16.5.2,37164,172.16.1.2,5102,10890,15976,2086,64256,65728,6,6,4,1460,540312,1,1092617184,900000,58156,55260,65700,0,11584,0,634004278,63
i,1723651800.122098,172.16.5.2,37164,172.16.1.2,5102,10890,15976,2086,64256,65728,6,6,4,1460,540312,1,1092617184,900000,58156,55260,65700,0,15928,0,634004278,63
o,1723651800.122125,172.16.5.2,37164,172.16.1.2,5102,10890,15976,2086,64256,65728,6,6,4,1460,540312,1,1092617184,860000,58156,52364,65700,0,13032,0,634004278,63
o,1723651800.122245,172.16.5.2,37164,172.16.1.2,5102,10890,15976,2086,64256,65728,6,6,4,1460,540312,1,1092617184,860000,58156,52364,65700,0,14480,0,634004278,63
i,1723651800.161453,172.16.5.2,37164,172.16.1.2,5102,10890,15976,2086,64256,65728,6,6,4,1460,540312,1,1092617184,860000,58156,58156,65700,0,15928,0,634004278,63
o,1723651800.161491,172.16.5.2,37164,172.16.1.2,5102,10890,15976,2086,65728,65728,6,6,4,1460,541562,1,1092617184,840000,58156,56708,65700,0,14480,0,634004278,63
i,1723651800.161692,172.16.5.2,37164,172.16.1.2,5102,10890,15976,2086,65728,65728,6,6,4,1460,541562,1,1092617184,840000,58156,56708,65700,0,15928,0,634004278,63
o,1723651800.161710,172.16.5.2,37164,172.16.1.2,5102,10890,15976,2086,64256,65728,6,6,4,1460,495312,1,1092617184,1140000,58156,53812,65700,0,13032,0,634004278,63
i,1723651800.542775,172.16.5.2,37164,172.16.1.2,5102,10890,15976,2086,64256,65728,6,6,4,1460,495312,1,1092617184,1140000,58156,57976,65700,0,15928,0,634004278,63
o,1723651800.542887,172.16.5.2,37164,172.16.1.2,5102,10890,15976,2086,64256,65728,6,6,4,1460,488437,1,1092617184,1080000,58156,55080,65700,0,13032,0,634004278,63
i,1723651800.543113,172.16.5.2,37164,172.16.1.2,5102,10890,15976,2086,64256,65728,6,6,4,1460,488437,1,1092617184,1080000,58156,55080,65700,0,15928,0,634004278,63
o,1723651800.543140,172.16.5.2,37164,172.16.1.2,5102,10890,15976,2086,64256,65728,6,6,4,1460,481250,1,1092617184,1030000,58156,52184,65700,0,13032,0,634004278,63
i,1723651800.692192,172.16.5.2,37164,172.16.1.2,5102,10890,15976,2086,64256,65728,6,6,4,1460,481250,1,1092617184,1030000,58156,58156,65700,0,15928,0,634004278,63
o,1723651800.692288,172.16.5.2,37164,172.16.1.2,5102,10890,17436,2086,64256,65728,6,6,4,1460,492500,1,1092617184,1050000,58156,55260,65700,0,13032,0,634004278,63
i,1723651800.712231,172.16.5.2,37164,172.16.1.2,5102,10890,17436,2086,64256,65728,6,6,4,1460,492500,1,1092617184,1050000,58156,58156,65700,0,17376,0,634004278,63
o,1723651800.712260,172.16.5.2,37164,172.16.1.2,5102,10890,17436,2086,64256,65728,6,6,4,1460,504687,1,1092617184,1070000,58156,55260,65700,0,14480,0,634004278,63
o,1723651800.712407,172.16.5.2,37164,172.16.1.2,5102,10890,17436,2086,64256,65728,6,6,4,1460,504687,1,1092617184,1070000,58156,55260,65700,0,15928,0,634004278,63
i,1723651800.881685,172.16.5.2,37164,172.16.1.2,5102,10890,17436,2086,64256,65728,6,6,4,1460,504687,1,1092617184,1070000,58156,58156,65700,0,17376,0,634004278,63
o,1723651800.881797,172.16.5.2,37164,172.16.1.2,5102,10890,17436,2086,64256,65728,6,6,4,1460,531875,1,1092617184,1220000,58156,55260,65700,0,14480,0,634004278,63
i,1723651800.901595,172.16.5.2,37164,172.16.1.2,5102,10890,17436,2086,64256,65728,6,6,4,1460,531875,1,1092617184,1220000,58156,58156,65700,0,17376,0,634004278,63
o,1723651800.901624,172.16.5.2,37164,172.16.1.2,5102,10890,17436,2086,65728,65728,6,6,4,1460,558125,1,1092617184,1340000,58156,56708,65700,0,15928,0,634004278,63
i,1723651800.943411,172.16.5.2,37164,172.16.1.2,5102,10890,17436,2086,65728,65728,6,6,4,1460,558125,1,1092617184,1340000,58156,56708,65700,0,17376,0,634004278,63
o,1723651800.943443,172.16.5.2,37164,172.16.1.2,5102,10890,17436,2086,64256,65728,6,6,4,1460,537187,1,1092617184,1340000,58156,53812,65700,0,14480,0,634004278,63
i,1723651800.943684,172.16.5.2,37164,172.16.1.2,5102,10890,17436,2086,64256,65728,6,6,4,1460,537187,1,1092617184,1340000,58156,53812,65700,0,17376,0,634004278,63
o,1723651800.943710,172.16.5.2,37164,172.16.1.2,5102,10890,17436,2086,64256,65728,6,6,4,1460,519062,1,1092617184,1310000,58156,50916,65700,0,14480,0,634004278,63
i,1723651801.128240,172.16.5.2,37164,172.16.1.2,5102,10890,17436,2086,64256,65728,6,6,4,1460,519062,1,1092617184,1310000,58156,58156,65700,0,17376,0,634004278,63
o,1723651801.128270,172.16.5.2,37164,172.16.1.2,5102,10890,18824,2082,64256,65728,6,6,4,1460,519062,1,1092617184,1310000,58156,58156,65700,0,17376,0,634004278,63
i,1723651801.128438,172.16.5.2,37164,172.16.1.2,5102,10890,17436,2082,64256,65728,6,6,4,1460,519062,1,1092617184,1310000,58156,58156,65700,0,18824,0,634004278,63
o,1723651801.128453,172.16.5.2,37164,172.16.1.2,5102,10890,20272,2082,64256,65728,6,6,4,1460,519062,1,1092617184,1310000,58156,58156,65700,0,18824,0,634004278,63
i,1723651801.131897,172.16.5.2,37164,172.16.1.2,5102,10890,17436,2082,64256,65728,6,6,4,1460,519062,1,1092617184,1310000,58156,58156,65700,0,20272,0,634004278,63
o,1723651801.131933,172.16.5.2,37164,172.16.1.2,5102,8718,1448,2146,64256,65728,6,6,4,1460,519062,1,1630536672,1310000,58156,58156,65700,0,20272,0,634004278,63
i,1723651801.347860,172.16.5.2,37164,172.16.1.2,5102,8718,1448,2146,64256,65728,6,6,4,1460,519062,1,1630536672,1310000,58156,58156,65700,0,20272,0,634004278,63
i,1723651801.401881,172.16.5.2,37164,172.16.1.2,5102,8718,1448,2146,64256,65728,6,6,4,1460,519062,1,1630536672,1310000,58156,58156,65700,0,20272,0,634004278,63
o,1723651801.401943,172.16.5.2,37164,172.16.1.2,5102,8718,2896,2082,64256,65728,6,6,4,1460,519062,1,1630536672,1310000,58156,58156,65700,0,20272,0,634004278,63
i,1723651801.402166,172.16.5.2,37164,172.16.1.2,5102,8718,2896,2082,64256,65728,6,6,4,1460,519062,1,1630536672,1310000,58156,58156,65700,0,21720,0,634004278,63
i,1723651801.402193,172.16.5.2,37164,172.16.1.2,5102,8718,2896,2082,64256,65728,6,6,4,1460,519062,1,1630536672,1310000,58156,58156,65700,0,21720,0,634004278,63
o,1723651801.402208,172.16.5.2,37164,172.16.1.2,5102,8718,4344,2082,64256,65728,6,6,4,1460,519062,1,1630536672,1310000,58156,58156,65700,0,21720,0,634004278,63
i,1723651801.403008,172.16.5.2,37164,172.16.1.2,5102,8718,4344,2082,64256,65728,6,6,4,1460,519062,1,1630536672,1310000,58156,58156,65700,0,23168,0,634004278,63
i,1723651801.403047,172.16.5.2,37164,172.16.1.2,5102,8718,4344,2082,64256,65728,6,6,4,1460,519062,1,1630536672,1310000,58156,58156,65700,0,23168,0,634004278,63
o,1723651801.403062,172.16.5.2,37164,172.16.1.2,5102,8718,5792,2082,64256,65728,6,6,4,1460,519062,1,1630536672,1310000,58156,58156,65700,0,23168,0,634004278,63
i,1723651801.403951,172.16.5.2,37164,172.16.1.2,5102,8718,5792,2082,64256,65728,6,6,4,1460,519062,1,1630536672,1310000,58156,58156,65700,0,24616,0,634004278,63
i,1723651801.403980,172.16.5.2,37164,172.16.1.2,5102,8718,5792,2082,64256,65728,6,6,4,1460,519062,1,1630536672,1310000,58156,58156,65700,0,24616,0,634004278,63
i,1723651801.551215,172.16.5.2,37164,172.16.1.2,5102,8718,5792,2082,64256,65728,6,6,4,1460,519062,1,1630536672,1310000,58156,58156,65700,0,24616,0,634004278,63
i,1723651801.551523,172.16.5.2,37164,172.16.1.2,5102,8718,5792,2082,64256,65728,6,6,4,1460,519062,1,1630536672,1310000,58156,58156,65700,0,24616,0,634004278,63
o,1723651801.551655,172.16.5.2,37164,172.16.1.2,5102,8718,7240,2082,64256,65728,6,6,4,1460,519062,1,1630536673,1310000,58156,58156,65700,0,24616,0,634004278,63
o,1723651801.552451,172.16.5.2,37164,172.16.1.2,5102,8718,7240,2082,64256,65728,6,6,4,1460,519062,1,1630536672,1310000,58156,58156,65700,0,24616,0,634004278,63
i,1723651801.552892,172.16.5.2,37164,172.16.1.2,5102,8718,7240,2082,46912,65728,6,6,4,1460,506875,1,1630536672,1250000,58156,39332,65700,0,7240,0,634004278,63
i,1723651801.722317,172.16.5.2,37164,172.16.1.2,5102,8718,7240,2082,65728,65728,6,6,4,1460,506875,1,1630536672,1250000,58156,58156,65700,0,7240,0,634004278,63
i,1723651801.732010,172.16.5.2,37164,172.16.1.2,5102,8718,5804,2082,65728,65728,6,6,4,1460,517500,1,1092617184,1210000,58156,56708,65700,0,5792,0,634004278,63
o,1723651801.732099,172.16.5.2,37164,172.16.1.2,5102,8718,7252,2086,65728,65728,6,6,4,1460,494062,1,1092617184,1250000,58156,55260,65700,0,4344,0,634004278,63
o,1723651801.732238,172.16.5.2,37164,172.16.1.2,5102,8718,7252,2086,65728,65728,6,6,4,1460,494062,1,1092617184,1250000,58156,55260,65700,0,5792,0,634004278,63
i,1723651801.732358,172.16.5.2,37164,172.16.1.2,5102,8718,7252,2086,65728,65728,6,6,4,1460,494062,1,1092617184,1250000,58156,55260,65700,0,7240,0,634004278,63
o,1723651801.732376,172.16.5.2,37164,172.16.1.2,5102,8718,10148,2086,64256,65728,6,6,4,1460,473750,1,1092617184,1250000,58156,52364,65700,0,4344,0,634004278,63
i,1723651801.791260,172.16.5.2,37164,172.16.1.2,5102,8718,10148,2086,64256,65728,6,6,4,1460,473750,1,1092617184,1250000,58156,58156,65700,0,10136,0,634004278,63
o,1723651801.791294,172.16.5.2,37164,172.16.1.2,5102,8718,10148,2086,65728,65728,6,6,4,1460,443437,1,1092617184,1320000,58156,56708,65700,0,8688,0,634004278,63
i,1723651801.834679,172.16.5.2,37164,172.16.1.2,5102,8718,10148,2086,65728,65728,6,6,4,1460,443437,1,1092617184,1320000,58156,56708,65700,0,10136,0,634004278,63
i,1723651802.156208,172.16.5.2,37164,172.16.1.2,5102,8718,10148,2086,65728,65728,6,6,4,1460,443437,1,1092617184,1320000,58156,56708,65700,0,10136,0,634004278,63
o,1723651802.156301,172.16.5.2,37164,172.16.1.2,5102,8718,10148,2086,64256,65728,6,6,4,1460,440625,1,1092617184,1170000,58156,53812,65700,0,7240,0,634004278,63
o,1723651802.156471,172.16.5.2,37164,172.16.1.2,5102,8718,10148,2086,64256,65728,6,6,4,1460,440625,1,1092617184,1170000,58156,53812,65700,0,8688,0,634004278,63
i,1723651802.182566,172.16.5.2,37164,172.16.1.2,5102,8718,10148,2086,64256,65728,6,6,4,1460,440625,1,1092617184,1170000,58156,58156,65700,0,10136,0,634004278,63
o,1723651802.182611,172.16.5.2,37164,172.16.1.2,5102,8718,10148,2086,64256,65728,6,6,4,1460,440625,1,1092617184,1040000,58156,55260,65700,0,7240,0,634004278,63
i,1723651802.182806,172.16.5.2,37164,172.16.1.2,5102,8718,10148,2086,64256,65728,6,6,4,1460,440625,1,1092617184,1040000,58156,55260,65700,0,10136,0,634004278,63
o,1723651802.182822,172.16.5.2,37164,172.16.1.2,5102,8718,10148,2086,64256,65728,6,6,4,1460,440625,1,1092617184,940000,58156,52364,65700,0,7240,0,634004278,63
i,1723651802.185316,172.16.5.2,37164,172.16.1.2,5102,8718,10148,2086,64256,65728,6,6,4,1460,440625,1,1092617184,940000,58156,58156,65700,0,10136,0,634004278,63
o,1723651802.185353,172.16.5.2,37164,172.16.1.2,5102,8718,11608,2086,65728,65728,6,6,4,1460,434375,1,1092617184,910000,58156,56708,65700,0,8688,0,634004278,63
i,1723651802.648259,172.16.5.2,37164,172.16.1.2,5102,8718,11608,2086,65728,65728,6,6,4,1460,434375,1,1092617184,910000,58156,56708,65700,0,11584,0,634004278,63
o,1723651802.648399,172.16.5.2,37164,172.16.1.2,5102,8718,11608,2086,64256,65728,6,6,4,1460,441562,1,1092617184,900000,58156,53812,65700,0,8688,0,634004278,63
o,1723651802.648709,172.16.5.2,37164,172.16.1.2,5102,8718,11608,2086,64256,65728,6,6,4,1460,441562,1,1092617184,900000,58156,53812,65700,0,10136,0,634004278,63
i,1723651802.653157,172.16.5.2,37164,172.16.1.2,5102,8718,11608,2086,64256,65728,6,6,4,1460,441562,1,1092617184,900000,58156,58156,65700,0,11584,0,634004278,63
o,1723651802.653224,172.16.5.2,37164,172.16.1.2,5102,8718,11608,2086,64256,65728,6,6,4,1460,444062,1,1092617184,860000,58156,55260,65700,0,8688,0,634004278,63
i,1723651802.673265,172.16.5.2,37164,172.16.1.2,5102,8718,11608,2086,64256,65728,6,6,4,1460,444062,1,1092617184,860000,58156,58156,65700,0,11584,0,634004278,63
o,1723651802.673293,172.16.5.2,37164,172.16.1.2,5102,8718,11608,2086,64256,65728,6,6,4,1460,450000,1,1092617184,860000,58156,55260,65700,0,8688,0,634004278,63
i,1723651802.673423,172.16.5.2,37164,172.16.1.2,5102,8718,11608,2086,64256,65728,6,6,4,1460,450000,1,1092617184,860000,58156,55260,65700,0,11584,0,634004278,63
o,1723651802.673439,172.16.5.2,37164,172.16.1.2,5102,8718,13068,2086,64256,65728,6,6,4,1460,455000,1,1092617184,850000,58156,52364,65700,0,8688,0,634004278,63
i,1723651803.122458,172.16.5.2,37164,172.16.1.2,5102,8718,13068,2086,64256,65728,6,6,4,1460,455000,1,1092617184,850000,58156,58156,65700,0,13032,0,634004278,63
o,1723651803.122581,172.16.5.2,37164,172.16.1.2,5102,8718,13068,2086,64256,65728,6,6,4,1460,456875,1,1092617184,820000,58156,55260,65700,0,10136,0,634004278,63
o,1723651803.122772,172.16.5.2,37164,172.16.1.2,5102,8718,13068,2086,64256,65728,6,6,4,1460,456875,1,1092617184,820000,58156,55260,65700,0,11584,0,634004278,63
i,1723651803.192461,172.16.5.2,37164,172.16.1.2,5102,8718,13068,2086,64256,65728,6,6,4,1460,456875,1,1092617184,820000,58156,58156,65700,0,13032,0,634004278,63
o,1723651803.192553,172.16.5.2,37164,172.16.1.2,5102,8718,13068,2086,64256,65728,6,6,4,1460,467500,1,1092617184,880000,58156,55260,65700,0,10136,0,634004278,63
i,1723651803.192729,172.16.5.2,37164,172.16.1.2,5102,8718,13068,2086,64256,65728,6,6,4,1460,467500,1,1092617184,880000,58156,55260,65700,0,13032,0,634004278,63
o,1723651803.192750,172.16.5.2,37164,172.16.1.2,5102,8718,13068,2086,64256,65728,6,6,4,1460,474062,1,1092617184,880000,58156,52364,65700,0,10136,0,634004278,63
i,1723651803.192949,172.16.5.2,37164,172.16.1.2,5102,8718,13068,2086,64256,65728,6,6,4,1460,474062,1,1092617184,880000,58156,52364,65700,0,13032,0,634004278,63
o,1723651803.192967,172.16.5.2,37164,172.16.1.2,5102,8718,13068,2086,65728,65728,6,6,4,1460,480000,1,1092617184,880000,58156,50916,65700,0,11584,0,634004278,63
i,1723651803.193111,172.16.5.2,37164,172.16.1.2,5102,8718,13068,2086,65728,65728,6,6,4,1460,480000,1,1092617184,880000,58156,50916,65700,0,13032,0,634004278,63
o,1723651803.193135,172.16.5.2,37164,172.16.1.2,5102,8718,14528,2086,64256,65728,6,6,4,1460,485000,1,1092617184,880000,58156,48020,65700,0,10136,0,634004278,63
i,1723651803.636806,172.16.5.2,37164,172.16.1.2,5102,8718,14528,2086,64256,65728,6,6,4,1460,485000,1,1092617184,880000,58156,58156,65700,0,14480,0,634004278,63
o,1723651803.636894,172.16.5.2,37164,172.16.1.2,5102,8718,14528,2086,64256,65728,6,6,4,1460,488125,1,1092617184,860000,58156,55260,65700,0,11584,0,634004278,63
o,1723651803.637022,172.16.5.2,37164,172.16.1.2,5102,8718,14528,2086,64256,65728,6,6,4,1460,488125,1,1092617184,860000,58156,55260,65700,0,13032,0,634004278,63
i,1723651803.699950,172.16.5.2,37164,172.16.1.2,5102,8718,14528,2086,64256,65728,6,6,4,1460,488125,1,1092617184,860000,58156,58156,65700,0,14480,0,634004278,63
o,1723651803.699983,172.16.5.2,37164,172.16.1.2,5102,8718,14528,2086,64256,65728,6,6,4,1460,490937,1,1092617184,840000,58156,55260,65700,0,11584,0,634004278,63
i,1723651803.781796,172.16.5.2,37164,172.16.1.2,5102,8718,14528,2086,64256,65728,6,6,4,1460,490937,1,1092617184,840000,58156,58156,65700,0,14480,0,634004278,63
o,1723651803.781838,172.16.5.2,37164,172.16.1.2,5102,8718,14528,2086,64256,65728,6,6,4,1460,502187,1,1092617184,900000,58156,55260,65700,0,11584,0,634004278,63
i,1723651803.782041,172.16.5.2,37164,172.16.1.2,5102,8718,14528,2086,64256,65728,6,6,4,1460,502187,1,1092617184,900000,58156,55260,65700,0,14480,0,634004278,63
o,1723651803.782059,172.16.5.2,37164,172.16.1.2,5102,8718,14528,2086,64256,65728,6,6,4,1460,512187,1,1092617184,940000,58156,52364,65700,0,11584,0,634004278,63
i,1723651803.782228,172.16.5.2,37164,172.16.1.2,5102,8718,14528,2086,64256,65728,6,6,4,1460,512187,1,1092617184,940000,58156,52364,65700,0,14480,0,634004278,63
o,1723651803.782244,172.16.5.2,37164,172.16.1.2,5102,8718,15988,2086,64256,65728,6,6,4,1460,520937,1,1092617184,970000,58156,49468,65700,0,11584,0,634004278,63
i,1723651804.082305,172.16.5.2,37164,172.16.1.2,5102,8718,15988,2086,64256,65728,6,6,4,1460,520937,1,1092617184,970000,58156,58156,65700,0,15928,0,634004278,63
o,1723651804.082396,172.16.5.2,37164,172.16.1.2,5102,8718,15988,2086,64256,65728,6,6,4,1460,512187,1,1092617184,960000,58156,55260,65700,0,13032,0,634004278,63
o,1723651804.082643,172.16.5.2,37164,172.16.1.2,5102,8718,15988,2086,64256,65728,6,6,4,1460,512187,1,1092617184,960000,58156,55260,65700,0,14480,0,634004278,63
i,1723651804.321658,172.16.5.2,37164,172.16.1.2,5102,8718,15988,2086,64256,65728,6,6,4,1460,512187,1,1092617184,960000,58156,58156,65700,0,15928,0,634004278,63
