enable_time_secs=1716793085	enable_time_usecs=267316	siftrver=1.2.4	hz=100	tcp_rtt_scale=32	sysname=FreeBSD	sysver=1301000	ipmode=4
o,0x00000000,1716793085.267358,10.0.2.15,22,10.0.2.2,56872,1073725440,17298,0,65535,65700,0,0,4,1460,1,0,4,24,33580,44,65700,0,0,0,0,0
o,0x00000000,1716793085.267482,10.0.2.15,22,10.0.2.2,56872,1073725440,17298,0,65535,65700,0,0,4,1460,1,0,4,24,33580,80,65700,0,44,0,0,0
i,0x00000000,1716793085.268485,10.0.2.15,22,10.0.2.2,56872,1073725440,17298,0,65535,65700,0,0,4,1460,1,0,4,24,33580,80,65700,0,80,0,0,0
i,0x00000000,1716793085.268490,10.0.2.15,22,10.0.2.2,56872,1073725440,17342,0,65535,65700,0,0,4,1460,1,0,4,23,33580,36,65700,0,36,0,0,0
o,0x00000000,1716793085.268623,10.0.2.15,22,10.0.2.2,56872,1073725440,17378,0,65535,65700,0,0,4,1460,1,0,4,23,33580,36,65700,0,0,0,0,0
i,0x00000000,1716793085.269062,10.0.2.15,22,10.0.2.2,56872,1073725440,17378,0,65535,65700,0,0,4,1460,1,0,4,23,33580,36,65700,0,36,0,0,0
o,0x00000000,1716793085.269326,10.0.2.15,22,10.0.2.2,56872,1073725440,17414,0,65535,65700,0,0,4,1460,1,0,4,23,33580,176,65700,0,0,0,0,0
i,0x00000000,1716793085.269782,10.0.2.15,22,10.0.2.2,56872,1073725440,17414,0,65535,65700,0,0,4,1460,1,0,4,23,33580,176,65700,0,176,0,0,0
i,0x00000000,1716793085.270891,10.0.2.15,22,10.0.2.2,56872,1073725440,17590,0,65535,65700,0,0,4,1460,1,0,4,23,33580,0,65700,0,0,0,0,0
i,0x00000000,1716793085.270895,10.0.2.15,22,10.0.2.2,56872,1073725440,17590,0,65535,65700,0,0,4,1460,1,0,4,23,33580,0,65700,36,0,0,0,0
o,0x00000000,1716793085.270897,10.0.2.15,22,10.0.2.2,56872,1073725440,17590,0,65535,65700,0,0,4,1460,1,0,5,23,33580,0,65700,96,0,0,0,0
i,0x00000000,1716793085.271364,10.0.2.15,22,10.0.2.2,56872,1073725440,17590,0,65535,65700,0,0,4,1460,1,0,4,23,33580,0,65700,0,0,0,0,0
o,0x00000000,1716793085.271368,10.0.2.15,22,10.0.2.2,56872,1073725440,17590,0,65535,65700,0,0,5,1460,1,0,7,23,33580,0,65700,0,0,0,0,0
o,0x00000000,1716793085.272059,10.0.2.15,22,10.0.2.2,56872,1073725440,17590,0,65535,65700,0,0,8,1460,1,0,4,23,33580,0,65700,0,0,0,0,0
i,0x00000000,1716793085.272645,10.0.2.15,22,10.0.2.2,56872,1073725440,17590,0,65535,65700,0,0,8,1460,1,0,20,23,33580,0,65700,0,1,0,0,0
i,0x00000000,1716793087.360307,10.0.2.15,22,10.0.2.2,56876,1073725440,14600,0,65535,65700,0,0,4,1460,1,0,0,27,33580,0,65700,0,0,0,0,0
o,0x00000000,1716793087.366615,10.0.2.15,22,10.0.2.2,56876,1073725440,14600,0,65535,65700,0,0,4,1460,1,0,0,27,33580,38,65700,41,0,0,0,0
i,0x00000000,1716793087.367130,10.0.2.15,22,10.0.2.2,56876,1073725440,14600,0,65535,65700,0,0,4,1460,1,0,0,27,33580,38,65700,0,38,0,0,0
i,0x00000000,1716793087.368323,10.0.2.15,22,10.0.2.2,56876,1073725440,14638,0,65535,65700,0,0,4,1460,1,0,0,24,33580,0,65700,0,0,0,0,0
i,0x00000000,1716793087.368327,10.0.2.15,22,10.0.2.2,56876,1073725440,14638,0,65535,65700,0,0,4,1460,1,0,0,24,33580,0,65700,1460,0,0,0,0
o,0x00000000,1716793087.368330,10.0.2.15,22,10.0.2.2,56876,1073725440,14638,0,65535,65700,0,0,4,1460,1,0,1,24,33580,0,65700,1536,0,0,0,0
o,0x00000000,1716793087.369175,10.0.2.15,22,10.0.2.2,56876,1073725440,14638,0,65535,65700,0,0,4,1460,1,0,0,24,33580,1056,65700,1536,0,0,0,0
i,0x00000000,1716793087.371044,10.0.2.15,22,10.0.2.2,56876,1073725440,14638,0,65535,65700,0,0,4,1460,1,0,0,24,33580,1056,65700,0,1056,0,0,0
i,0x00000000,1716793087.373020,10.0.2.15,22,10.0.2.2,56876,1073725440,15694,0,65535,65700,0,0,4,1460,1,0,0,24,33580,0,65700,0,0,0,0,0
o,0x00000000,1716793087.375735,10.0.2.15,22,10.0.2.2,56876,1073725440,15694,0,65535,65700,0,0,4,1460,1,0,0,24,33580,484,65700,0,0,0,0,0
i,0x00000000,1716793087.376675,10.0.2.15,22,10.0.2.2,56876,1073725440,15694,0,65535,65700,0,0,4,1460,1,0,0,24,33580,484,65700,0,484,0,0,0
i,0x00000000,1716793087.381133,10.0.2.15,22,10.0.2.2,56876,1073725440,16178,0,65535,65700,0,0,4,1460,1,0,0,24,33580,0,65700,0,0,0,0,0
i,0x00000000,1716793087.386116,10.0.2.15,22,10.0.2.2,56876,1073725440,16178,0,65535,65700,0,0,4,1460,1,0,0,24,33580,0,65700,0,0,0,0,0
o,0x00000000,1716793087.386122,10.0.2.15,22,10.0.2.2,56876,1073725440,16178,0,65535,65700,0,0,4,1460,1,0,1,24,33580,0,65700,44,0,0,0,0
o,0x00000000,1716793087.386264,10.0.2.15,22,10.0.2.2,56876,1073725440,16178,0,65535,65700,0,0,4,1460,1,0,0,24,33580,44,65700,0,0,0,0,0
i,0x00000000,1716793087.386921,10.0.2.15,22,10.0.2.2,56876,1073725440,16178,0,65535,65700,0,0,4,1460,1,0,0,24,33580,44,65700,0,44,0,0,0
i,0x00000000,1716793087.387448,10.0.2.15,22,10.0.2.2,56876,1073725440,16222,0,65535,65700,0,0,4,1460,1,0,0,24,33580,0,65700,0,0,0,0,0
o,0x00000000,1716793087.397057,10.0.2.15,22,10.0.2.2,56876,1073725440,16222,0,65535,65700,0,0,4,1460,1,0,0,24,33580,68,65700,0,0,0,0,0
i,0x00000000,1716793087.397699,10.0.2.15,22,10.0.2.2,56876,1073725440,16222,0,65535,65700,0,0,4,1460,1,0,0,24,33580,68,65700,0,68,0,0,0
i,0x00000000,1716793087.400084,10.0.2.15,22,10.0.2.2,56876,1073725440,16290,0,65535,65700,0,0,4,1460,1,0,0,24,33580,0,65700,0,0,0,0,0
o,0x00000000,1716793087.409773,10.0.2.15,22,10.0.2.2,56876,1073725440,16290,0,65535,65700,0,0,4,1460,1,0,0,24,33580,28,65700,0,0,0,0,0
i,0x00000000,1716793087.410427,10.0.2.15,22,10.0.2.2,56876,1073725440,16290,0,65535,65700,0,0,4,1460,1,0,0,24,33580,28,65700,0,28,0,0,0
i,0x00000000,1716793087.410755,10.0.2.15,22,10.0.2.2,56876,1073725440,16318,0,65535,65700,0,0,4,1460,1,0,0,24,33580,0,65700,0,0,0,0,0
o,0x00000000,1716793087.411596,10.0.2.15,22,10.0.2.2,56876,1073725440,16318,0,65535,65700,0,0,4,1460,1,0,0,24,33580,768,65700,112,0,0,0,0
i,0x00000000,1716793087.412235,10.0.2.15,22,10.0.2.2,56876,1073725440,16318,0,65535,65700,0,0,4,1460,1,0,0,24,33580,768,65700,112,768,0,0,0
o,0x00000000,1716793087.412341,10.0.2.15,22,10.0.2.2,56876,1073725440,17086,0,65535,65700,0,0,4,1460,1,0,0,24,33580,44,65700,0,0,0,0,0
i,0x00000000,1716793087.412897,10.0.2.15,22,10.0.2.2,56876,1073725440,17086,0,65535,65700,0,0,4,1460,1,0,0,24,33580,44,65700,0,44,0,0,0
i,0x00000000,1716793087.413570,10.0.2.15,22,10.0.2.2,56876,1073725440,17130,0,65535,65700,0,0,4,1460,1,0,0,24,33580,0,65700,0,0,0,0,0
o,0x00000000,1716793087.413909,10.0.2.15,22,10.0.2.2,56876,1073725440,17130,0,65535,65700,0,0,4,1460,1,0,4,24,33580,72,65700,0,0,0,0,0
i,0x00000000,1716793087.414585,10.0.2.15,22,10.0.2.2,56876,1073725440,17130,0,65535,65700,0,0,4,1460,1,0,4,24,33580,72,65700,0,72,0,0,0
o,0x00000000,1716793087.418376,10.0.2.15,22,10.0.2.2,56876,1073725440,17202,0,65535,65700,0,0,4,1460,1,0,4,24,33580,44,65700,0,0,0,0,0
i,0x00000000,1716793087.418972,10.0.2.15,22,10.0.2.2,56876,1073725440,17202,0,65535,65700,0,0,4,1460,1,0,4,24,33580,44,65700,0,44,0,0,0
o,0x00000000,1716793087.419445,10.0.2.15,22,10.0.2.2,56876,1073725440,17246,0,65535,65700,0,0,4,1460,1,0,4,24,33580,104,65700,0,0,0,0,0
i,0x00000000,1716793087.420089,10.0.2.15,22,10.0.2.2,56876,1073725440,17246,0,65535,65700,0,0,4,1460,1,0,4,24,33580,104,65700,0,104,0,0,0
o,0x00000000,1716793087.420191,10.0.2.15,22,10.0.2.2,56876,1073725440,17350,0,65535,65700,0,0,4,1460,1,0,4,24,33580,44,65700,0,0,0,0,0
i,0x00000000,1716793087.420607,10.0.2.15,22,10.0.2.2,56876,1073725440,17350,0,65535,65700,0,0,4,1460,1,0,4,24,33580,44,65700,0,44,0,0,0
o,0x00000000,1716793087.428011,10.0.2.15,22,10.0.2.2,56876,1073725440,17394,0,65535,65700,0,0,4,1460,1,0,4,24,33580,72,65700,0,0,0,0,0
i,0x00000000,1716793087.429041,10.0.2.15,22,10.0.2.2,56876,1073725440,17394,0,65535,65700,0,0,4,1460,1,0,4,24,33580,72,65700,0,72,0,0,0
i,0x00000000,1716793087.429664,10.0.2.15,22,10.0.2.2,56876,1073725440,17466,0,65535,65700,0,0,4,1460,1,0,4,24,33580,0,65700,0,0,0,0,0
i,0x00000000,1716793087.429668,10.0.2.15,22,10.0.2.2,56876,1073725440,17466,0,65535,65700,0,0,4,1460,1,0,4,24,33580,0,65700,36,0,0,0,0
o,0x00000000,1716793087.429670,10.0.2.15,22,10.0.2.2,56876,1073725440,17466,0,65535,65700,0,0,4,1460,1,0,5,24,33580,0,65700,96,0,0,0,0
i,0x00000000,1716793087.429763,10.0.2.15,22,10.0.2.2,56876,1073725440,17466,0,65535,65700,0,0,4,1460,1,0,4,24,33580,0,65700,96,0,0,0,0
o,0x00000000,1716793087.429768,10.0.2.15,22,10.0.2.2,56876,1073725440,17466,0,65535,65604,0,0,5,1460,1,0,7,24,33580,0,65700,96,0,0,0,0
o,0x00000000,1716793087.440091,10.0.2.15,22,10.0.2.2,56876,1073725440,17466,0,65535,65604,0,0,8,1460,1,0,4,24,33580,0,65700,0,0,0,0,0
i,0x00000000,1716793087.440859,10.0.2.15,22,10.0.2.2,56876,1073725440,17466,0,65535,65604,0,0,8,1460,1,0,20,24,33580,0,65700,0,1,0,0,0
i,0x00000000,1716793087.693426,172.16.3.2,5101,172.16.1.2,65075,10498,14480,0,65728,65700,6,6,4,1460,865,1,992,138,33580,0,65700,0,0,0,0,0
o,0x00000000,1716793087.693516,172.16.3.2,5101,172.16.1.2,65075,10498,14480,0,65728,65700,6,6,4,1460,865,1,996,138,33580,1,65700,0,0,0,0,0
i,0x00000000,1716793087.813027,172.16.3.2,5101,172.16.1.2,65075,10498,14480,0,65728,65700,6,6,4,1460,865,1,996,138,33580,1,65700,0,1,0,0,0
i,0x00000000,1716793087.813044,172.16.3.2,5101,172.16.1.2,65075,10498,14480,0,65728,65728,6,6,4,1460,805,1,996,128,33580,0,65700,4,0,0,0,0
o,0x00000000,1716793087.813052,172.16.3.2,5101,172.16.1.2,65075,10498,14480,0,65728,65728,6,6,4,1460,805,1,997,128,33580,0,65700,128,0,0,0,0
o,0x00000000,1716793087.813246,172.16.3.2,5101,172.16.1.2,65075,10498,14480,0,65728,65728,6,6,4,1460,805,1,996,128,33580,1,65700,0,0,0,0,0
o,0x00000000,1716793087.813707,10.0.2.15,22,10.0.2.2,60131,1073725440,14600,0,65535,65700,0,0,4,1460,1,0,4,24,33580,84,65700,0,0,0,0,0
i,0x00000000,1716793087.814411,10.0.2.15,22,10.0.2.2,60131,1073725440,14600,0,65535,65700,0,0,4,1460,1,0,4,24,33580,84,65700,0,84,0,0,0
i,0x00000000,1716793087.963745,172.16.3.2,5101,172.16.1.2,65075,10498,14480,0,65728,65728,6,6,4,1460,805,1,996,128,33580,1,65700,0,1,0,0,0
i,0x00000000,1716793088.054227,172.16.3.2,5101,172.16.1.2,46717,10498,14480,0,65728,65700,6,6,4,1460,865,1,992,138,33580,0,65700,0,0,0,0,0
o,0x00000000,1716793088.056421,172.16.3.2,5101,172.16.1.2,65075,10498,14480,0,65728,65728,6,6,4,1460,765,1,996,116,33580,1,65700,0,0,0,0,0
o,0x00000000,1716793088.056793,172.16.3.2,5101,172.16.1.2,65075,10498,14480,0,65728,65728,6,6,4,1460,765,1,996,116,33580,2,65700,0,1,0,0,0
o,0x00000000,1716793088.056951,10.0.2.15,22,10.0.2.2,60131,1073725440,14600,0,65535,65700,0,0,4,1460,1,0,4,24,33580,108,65700,0,0,0,0,0
i,0x00000000,1716793088.057683,10.0.2.15,22,10.0.2.2,60131,1073725440,14600,0,65535,65700,0,0,4,1460,1,0,4,24,33580,108,65700,0,108,0,0,0
o,0x00000000,1716793088.090373,172.16.3.2,5101,172.16.1.2,46717,10498,14480,0,65728,65700,6,6,4,1460,865,1,993,138,33580,0,65700,0,0,0,0,0
i,0x00000000,1716793088.244534,172.16.3.2,5101,172.16.1.2,65075,10498,14480,0,65728,65728,6,6,4,1460,765,1,996,116,33580,2,65700,0,2,0,0,0
i,0x00000000,1716793088.273906,172.16.3.2,5101,172.16.1.2,46717,10498,14480,0,65728,65700,6,6,4,1460,865,1,992,138,33580,0,65700,0,0,0,0,0
i,0x00000000,1716793088.283412,172.16.3.2,5101,172.16.1.2,46717,10498,14480,0,65728,65700,6,6,4,1460,865,1,992,138,33580,0,65700,0,0,0,0,0
o,0x00000000,1716793088.283430,172.16.3.2,5101,172.16.1.2,46717,10498,14480,0,65728,65700,6,6,4,1460,865,1,993,138,33580,0,65700,1448,0,0,0,0
i,0x00000000,1716793088.294434,172.16.3.2,5101,172.16.1.2,46717,10498,14480,0,65728,65700,6,6,4,1460,865,1,992,138,33580,0,65700,0,0,0,0,0
i,0x00000000,1716793088.304405,172.16.3.2,5101,172.16.1.2,46717,10498,14480,0,65728,65700,6,6,4,1460,865,1,992,138,33580,0,65700,0,0,0,0,0
o,0x00000000,1716793088.304416,172.16.3.2,5101,172.16.1.2,46717,10498,14480,0,65728,65700,6,6,4,1460,865,1,993,138,33580,0,65700,1448,0,0,0,0
i,0x00000000,1716793088.324370,172.16.3.2,5101,172.16.1.2,46717,10498,14480,0,65728,65700,6,6,4,1460,865,1,992,138,33580,0,65700,0,0,0,0,0
i,0x00000000,1716793088.333668,172.16.3.2,5101,172.16.1.2,46717,10498,14480,0,65728,65700,6,6,4,1460,865,1,992,138,33580,0,65700,0,0,0,0,0
o,0x00000000,1716793088.333681,172.16.3.2,5101,172.16.1.2,46717,10498,14480,0,65728,65700,6,6,4,1460,865,1,993,138,33580,0,65700,1448,0,0,0,0
i,0x00000000,1716793088.345940,172.16.3.2,5101,172.16.1.2,46717,10498,14480,0,65728,65700,6,6,4,1460,865,1,992,138,33580,0,65700,0,0,0,0,0
i,0x00000000,1716793088.353732,172.16.3.2,5101,172.16.1.2,46717,10498,14480,0,65728,65700,6,6,4,1460,865,1,992,138,33580,0,65700,0,0,0,0,0
o,0x00000000,1716793088.353738,172.16.3.2,5101,172.16.1.2,46717,10498,14480,0,65728,65700,6,6,4,1460,865,1,993,138,33580,0,65700,1448,0,0,0,0
i,0x00000000,1716793088.364269,172.16.3.2,5101,172.16.1.2,46717,10498,14480,0,65728,65700,6,6,4,1460,865,1,992,138,33580,0,65700,0,0,0,0,0
i,0x00000000,1716793088.384282,172.16.3.2,5101,172.16.1.2,46717,10498,14480,0,65728,65700,6,6,4,1460,865,1,992,138,33580,0,65700,0,0,0,0,0
o,0x00000000,1716793088.384293,172.16.3.2,5101,172.16.1.2,46717,10498,14480,0,65728,65700,6,6,4,1460,865,1,993,138,33580,0,65700,1448,0,0,0,0
i,0x00000000,1716793088.644107,172.16.3.2,5101,172.16.1.2,46717,10498,14480,0,65728,65700,6,6,4,1460,865,1,992,138,33580,0,65700,0,0,0,0,0
i,0x00000000,1716793088.654590,172.16.3.2,5101,172.16.1.2,46717,10498,14480,0,65728,65700,6,6,4,1460,865,1,992,138,33580,0,65700,0,0,0,0,0
o,0x00000000,1716793088.654603,172.16.3.2,5101,172.16.1.2,46717,10498,14480,0,65728,65700,6,6,4,1460,865,1,993,138,33580,0,65700,1448,0,0,0,0
i,0x00000000,1716793088.664151,172.16.3.2,5101,172.16.1.2,46717,10498,14480,0,65728,65700,6,6,4,1460,865,1,992,138,33580,0,65700,0,0,0,0,0
i,0x00000000,1716793088.683867,172.16.3.2,5101,172.16.1.2,46717,10498,14480,0,65728,65700,6,6,4,1460,865,1,992,138,33580,0,65700,0,0,0,0,0
o,0x00000000,1716793088.683890,172.16.3.2,5101,172.16.1.2,46717,10498,14480,0,65728,65700,6,6,4,1460,865,1,993,138,33580,0,65700,1448,0,0,0,0
i,0x00000000,1716793088.694113,172.16.3.2,5101,172.16.1.2,46717,10498,14480,0,65728,65700,6,6,4,1460,865,1,992,138,33580,0,65700,0,0,0,0,0
i,0x00000000,1716793088.704774,172.16.3.2,5101,172.16.1.2,46717,10498,14480,0,65728,65700,6,6,4,1460,865,1,992,138,33580,0,65700,0,0,0,0,0
o,0x00000000,1716793088.704790,172.16.3.2,5101,172.16.1.2,46717,10498,14480,0,65728,65700,6,6,4,1460,865,1,993,138,33580,0,65700,1448,0,0,0,0
i,0x00000000,1716793088.715271,172.16.3.2,5101,172.16.1.2,46717,10498,14480,0,65728,65700,6,6,4,1460,865,1,992,138,33580,0,65700,0,0,0,0,0
i,0x00000000,1716793088.725906,172.16.3.2,5101,172.16.1.2,46717,10498,14480,0,65728,65700,6,6,4,1460,865,1,992,138,33580,0,65700,0,0,0,0,0
o,0x00000000,1716793088.725926,172.16.3.2,5101,172.16.1.2,46717,10498,14480,0,65728,65700,6,6,4,1460,865,1,993,138,33580,0,65700,1448,0,0,0,0
i,0x00000000,1716793088.744437,172.16.3.2,5101,172.16.1.2,46717,10498,14480,0,65728,65700,6,6,4,1460,865,1,992,138,33580,0,65700,0,0,0,0,0
i,0x00000000,1716793088.754677,172.16.3.2,5101,172.16.1.2,46717,10498,14480,0,65728,65700,6,6,4,1460,865,1,992,138,33580,0,65700,0,0,0,0,0
o,0x00000000,1716793088.754697,172.16.3.2,5101,172.16.1.2,46717,10498,14480,0,65728,65700,6,6,4,1460,865,1,993,138,33580,0,65700,1448,0,0,0,0
i,0x00000000,1716793088.765402,172.16.3.2,5101,172.16.1.2,46717,10498,14480,0,65728,65700,6,6,4,1460,865,1,992,138,33580,0,65700,0,0,0,0,0
i,0x00000000,1716793088.774091,172.16.3.2,5101,172.16.1.2,46717,10498,14480,0,65728,65700,6,6,4,1460,865,1,992,138,33580,0,65700,0,0,0,0,0
o,0x00000000,1716793088.774101,172.16.3.2,5101,172.16.1.2,46717,10498,14480,0,65728,65700,6,6,4,1460,865,1,993,138,33580,0,65700,1448,0,0,0,0
i,0x00000000,1716793088.784529,172.16.3.2,5101,172.16.1.2,46717,10498,14480,0,65728,65700,6,6,4,1460,865,1,992,138,33580,0,65700,0,0,0,0,0
i,0x00000000,1716793088.804190,172.16.3.2,5101,172.16.1.2,46717,10498,14480,0,65728,65700,6,6,4,1460,865,1,992,138,33580,0,65700,0,0,0,0,0
o,0x00000000,1716793088.804203,172.16.3.2,5101,172.16.1.2,46717,10498,14480,0,65728,65700,6,6,4,1460,865,1,993,138,33580,0,65700,1448,0,0,0,0
i,0x00000000,1716793088.814083,172.16.3.2,5101,172.16.1.2,46717,10498,14480,0,65728,65700,6,6,4,1460,865,1,992,138,33580,0,65700,0,0,0,0,0
i,0x00000000,1716793088.823700,172.16.3.2,5101,172.16.1.2,46717,10498,14480,0,65728,65700,6,6,4,1460,865,1,992,138,33580,0,65700,0,0,0,0,0
o,0x00000000,1716793088.823708,172.16.3.2,5101,172.16.1.2,46717,10498,14480,0,65728,65700,6,6,4,1460,865,1,993,138,33580,0,65700,1448,0,0,0,0
o,0x00000000,1716793089.069870,10.0.2.15,22,10.0.2.2,60131,1073725440,14600,0,65535,65700,0,0,4,1460,1,0,4,24,33580,156,65700,0,0,0,0,0
i,0x00000000,1716793089.070782,10.0.2.15,22,10.0.2.2,60131,1073725440,14600,0,65535,65700,0,0,4,1460,1,0,4,24,33580,156,65700,0,156,0,0,0
i,0x00000000,1716793089.095516,172.16.3.2,5101,172.16.1.2,46717,10498,14480,0,65728,65700,6,6,4,1460,865,1,992,138,33580,0,65700,0,0,0,0,0
i,0x00000000,1716793089.105823,172.16.3.2,5101,172.16.1.2,46717,10498,14480,0,65728,65700,6,6,4,1460,865,1,992,138,33580,0,65700,0,0,0,0,0
o,0x00000000,1716793089.105980,172.16.3.2,5101,172.16.1.2,46717,10498,14480,0,65728,65700,6,6,4,1460,865,1,993,138,33580,0,65700,1448,0,0,0,0
i,0x00000000,1716793089.124341,172.16.3.2,5101,172.16.1.2,46717,10498,14480,0,65728,65700,6,6,4,1460,865,1,992,138,33580,0,65700,0,0,0,0,0
i,0x00000000,1716793089.135083,172.16.3.2,5101,172.16.1.2,46717,10498,14480,0,65728,65700,6,6,4,1460,865,1,992,138,33580,0,65700,0,0,0,0,0
o,0x00000000,1716793089.135211,172.16.3.2,5101,172.16.1.2,46717,10498,14480,0,65728,65700,6,6,4,1460,865,1,993,138,33580,0,65700,1448,0,0,0,0
i,0x00000000,1716793089.145176,172.16.3.2,5101,172.16.1.2,46717,10498,14480,0,65728,65700,6,6,4,1460,865,1,992,138,33580,0,65700,0,0,0,0,0
i,0x00000000,1716793089.155457,172.16.3.2,5101,172.16.1.2,46717,10498,14480,0,65728,65700,6,6,4,1460,865,1,992,138,33580,0,65700,0,0,0,0,0
o,0x00000000,1716793089.155477,172.16.3.2,5101,172.16.1.2,46717,10498,14480,0,65728,65700,6,6,4,1460,865,1,993,138,33580,0,65700,1448,0,0,0,0
i,0x00000000,1716793089.165989,172.16.3.2,5101,172.16.1.2,46717,10498,14480,0,65728,65700,6,6,4,1460,865,1,992,138,33580,0,65700,0,0,0,0,0
i,0x00000000,1716793089.185728,172.16.3.2,5101,172.16.1.2,46717,10498,14480,0,65728,65700,6,6,4,1460,865,1,992,138,33580,0,65700,0,0,0,0,0
o,0x00000000,1716793089.185771,172.16.3.2,5101,172.16.1.2,46717,10498,14480,0,65728,65700,6,6,4,1460,865,1,993,138,33580,0,65700,1448,0,0,0,0
i,0x00000000,1716793089.195692,172.16.3.2,5101,172.16.1.2,46717,10498,14480,0,65728,65700,6,6,4,1460,865,1,992,138,33580,0,65700,0,0,0,0,0
i,0x00000000,1716793089.205890,172.16.3.2,5101,172.16.1.2,46717,10498,14480,0,65728,65700,6,6,4,1460,865,1,992,138,33580,0,65700,0,0,0,0,0
o,0x00000000,1716793089.205905,172.16.3.2,5101,172.16.1.2,46717,10498,14480,0,65728,65700,6,6,4,1460,865,1,993,138,33580,0,65700,1448,0,0,0,0
i,0x00000000,1716793089.215245,172.16.3.2,5101,172.16.1.2,46717,10498,14480,0,65728,65700,6,6,4,1460,865,1,992,138,33580,0,65700,0,0,0,0,0
i,0x00000000,1716793089.225467,172.16.3.2,5101,172.16.1.2,46717,10498,14480,0,65728,65700,6,6,4,1460,865,1,992,138,33580,0,65700,0,0,0,0,0
o,0x00000000,1716793089.225502,172.16.3.2,5101,172.16.1.2,46717,10498,14480,0,65728,65700,6,6,4,1460,865,1,993,138,33580,0,65700,1448,0,0,0,0
i,0x00000000,1716793089.244758,172.16.3.2,5101,172.16.1.2,46717,10498,14480,0,65728,65700,6,6,4,1460,865,1,992,138,33580,0,65700,0,0,0,0,0
i,0x00000000,1716793089.255340,172.16.3.2,5101,172.16.1.2,46717,10498,14480,0,65728,65700,6,6,4,1460,865,1,992,138,33580,0,65700,0,0,0,0,0
o,0x00000000,1716793089.255370,172.16.3.2,5101,172.16.1.2,46717,10498,14480,0,65728,65700,6,6,4,1460,865,1,993,138,33580,0,65700,1448,0,0,0,0
i,0x00000000,1716793089.264713,172.16.3.2,5101,172.16.1.2,46717,10498,14480,0,65728,65700,6,6,4,1460,865,1,992,138,33580,0,65700,0,0,0,0,0
i,0x00000000,1716793089.275203,172.16.3.2,5101,172.16.1.2,46717,10498,14480,0,65728,65700,6,6,4,1460,865,1,992,138,33580,0,65700,0,0,0,0,0
o,0x00000000,1716793089.275218,172.16.3.2,5101,172.16.1.2,46717,10498,14480,0,65728,65700,6,6,4,1460,865,1,993,138,33580,0,65700,1448,0,0,0,0
i,0x00000000,1716793089.285558,172.16.3.2,5101,172.16.1.2,46717,10498,14480,0,65728,65700,6,6,4,1460,865,1,992,138,33580,0,65700,0,0,0,0,0
o,0x00000000,1716793089.320378,172.16.3.2,5101,172.16.1.2,46717,10498,14480,0,65728,65700,6,6,4,1460,865,1,993,138,33580,0,65700,0,0,0,0,0
i,0x00000000,1716793089.556287,172.16.3.2,5101,172.16.1.2,46717,10498,14480,0,65728,65700,6,6,4,1460,865,1,992,138,33580,0,65700,0,0,0,0,0
i,0x00000000,1716793089.564674,172.16.3.2,5101,172.16.1.2,46717,10498,14480,0,65728,65700,6,6,4,1460,865,1,992,138,33580,0,65700,0,0,0,0,0
o,0x00000000,1716793089.564692,172.16.3.2,5101,172.16.1.2,46717,10498,14480,0,65728,65700,6,6,4,1460,865,1,993,138,33580,0,65700,1448,0,0,0,0
i,0x00000000,1716793089.585540,172.16.3.2,5101,172.16.1.2,46717,10498,14480,0,65728,65700,6,6,4,1460,865,1,992,138,33580,0,65700,0,0,0,0,0
i,0x00000000,1716793089.595105,172.16.3.2,5101,172.16.1.2,46717,10498,14480,0,65728,65700,6,6,4,1460,865,1,992,138,33580,0,65700,0,0,0,0,0
o,0x00000000,1716793089.595121,172.16.3.2,5101,172.16.1.2,46717,10498,14480,0,65728,65700,6,6,4,1460,865,1,993,138,33580,0,65700,1448,0,0,0,0
i,0x00000000,1716793089.605544,172.16.3.2,5101,172.16.1.2,46717,10498,14480,0,65728,65700,6,6,4,1460,865,1,992,138,33580,0,65700,0,0,0,0,0
i,0x00000000,1716793089.615027,172.16.3.2,5101,172.16.1.2,46717,10498,14480,0,65728,65700,6,6,4,1460,865,1,992,138,33580,0,65700,0,0,0,0,0
o,0x00000000,1716793089.615039,172.16.3.2,5101,172.16.1.2,46717,10498,14480,0,65728,65700,6,6,4,1460,865,1,993,138,33580,0,65700,1448,0,0,0,0
i,0x00000000,1716793089.624491,172.16.3.2,5101,172.16.1.2,46717,10498,14480,0,65728,65700,6,6,4,1460,865,1,992,138,33580,0,65700,0,0,0,0,0
i,0x00000000,1716793089.644402,172.16.3.2,5101,172.16.1.2,46717,10498,14480,0,65728,65700,6,6,4,1460,865,1,992,138,33580,0,65700,0,0,0,0,0
o,0x00000000,1716793089.644417,172.16.3.2,5101,172.16.1.2,46717,10498,14480,0,65728,65700,6,6,4,1460,865,1,993,138,33580,0,65700,1448,0,0,0,0
i,0x00000000,1716793089.655664,172.16.3.2,5101,172.16.1.2,46717,10498,14480,0,65728,65700,6,6,4,1460,865,1,992,138,33580,0,65700,0,0,0,0,0
i,0x00000000,1716793089.665406,172.16.3.2,5101,172.16.1.2,46717,10498,14480,0,65728,65700,6,6,4,1460,865,1,992,138,33580,0,65700,0,0,0,0,0
o,0x00000000,1716793089.665416,172.16.3.2,5101,172.16.1.2,46717,10498,14480,0,65728,65700,6,6,4,1460,865,1,993,138,33580,0,65700,1448,0,0,0,0
i,0x00000000,1716793089.675382,172.16.3.2,5101,172.16.1.2,46717,10498,14480,0,65728,65700,6,6,4,1460,865,1,992,138,33580,0,65700,0,0,0,0,0
i,0x00000000,1716793089.685308,172.16.3.2,5101,172.16.1.2,46717,10498,14480,0,65728,65700,6,6,4,1460,865,1,992,138,33580,0,65700,0,0,0,0,0
o,0x00000000,1716793089.685326,172.16.3.2,5101,172.16.1.2,46717,10498,14480,0,65728,65700,6,6,4,1460,865,1,993,138,33580,0,65700,1448,0,0,0,0
i,0x00000000,1716793089.704830,172.16.3.2,5101,172.16.1.2,46717,10498,14480,0,65728,65700,6,6,4,1460,865,1,992,138,33580,0,65700,0,0,0,0,0
i,0x00000000,1716793089.715813,172.16.3.2,5101,172.16.1.2,46717,10498,14480,0,65728,65700,6,6,4,1460,865,1,992,138,33580,0,65700,0,0,0,0,0
o,0x00000000,1716793089.715863,172.16.3.2,5101,172.16.1.2,46717,10498,14480,0,65728,65700,6,6,4,1460,865,1,993,138,33580,0,65700,1448,0,0,0,0
i,0x00000000,1716793089.724838,172.16.3.2,5101,172.16.1.2,46717,10498,14480,0,65728,65700,6,6,4,1460,865,1,992,138,33580,0,65700,0,0,0,0,0
i,0x00000000,1716793089.735171,172.16.3.2,5101,172.16.1.2,46717,10498,14480,0,65728,65700,6,6,4,1460,865,1,992,138,33580,0,65700,0,0,0,0,0
o,0x00000000,1716793089.735194,172.16.3.2,5101,172.16.1.2,46717,10498,14480,0,65728,65700,6,6,4,1460,865,1,993,138,33580,0,65700,1448,0,0,0,0
i,0x00000000,1716793089.744861,172.16.3.2,5101,172.16.1.2,46717,10498,14480,0,65728,65700,6,6,4,1460,865,1,992,138,33580,0,65700,0,0,0,0,0
o,0x00000000,1716793089.779738,172.16.3.2,5101,172.16.1.2,46717,10498,14480,0,65728,65700,6,6,4,1460,865,1,993,138,33580,0,65700,0,0,0,0,0
i,0x00000000,1716793089.865366,172.16.3.2,5101,172.16.1.2,46717,10498,14480,0,65728,65700,6,6,4,1460,865,1,992,138,33580,0,65700,0,0,0,0,0
o,0x00000000,1716793089.899787,172.16.3.2,5101,172.16.1.2,46717,10498,14480,0,65728,65700,6,6,4,1460,865,1,993,138,33580,0,65700,0,0,0,0,0
i,0x00000000,1716793090.026071,172.16.3.2,5101,172.16.1.2,46717,10498,14480,0,65728,65700,6,6,4,1460,865,1,992,138,33580,0,65700,0,0,0,0,0
i,0x00000000,1716793090.045946,172.16.3.2,5101,172.16.1.2,46717,10498,14480,0,65728,65700,6,6,4,1460,865,1,992,138,33580,0,65700,0,0,0,0,0
o,0x00000000,1716793090.045966,172.16.3.2,5101,172.16.1.2,46717,10498,14480,0,65728,65700,6,6,4,1460,865,1,993,138,33580,0,65700,1448,0,0,0,0
i,0x00000000,1716793090.055115,172.16.3.2,5101,172.16.1.2,46717,10498,14480,0,65728,65700,6,6,4,1460,865,1,992,138,33580,0,65700,0,0,0,0,0
i,0x00000000,1716793090.065714,172.16.3.2,5101,172.16.1.2,46717,10498,14480,0,65728,65700,6,6,4,1460,865,1,992,138,33580,0,65700,0,0,0,0,0
o,0x00000000,1716793090.065730,172.16.3.2,5101,172.16.1.2,46717,10498,14480,0,65728,65700,6,6,4,1460,865,1,993,138,33580,0,65700,1448,0,0,0,0
o,0x00000000,1716793090.069184,10.0.2.15,22,10.0.2.2,60131,1073725440,14600,0,65535,65700,0,0,4,1460,1,0,4,24,33580,108,65700,0,0,0,0,0
i,0x00000000,1716793090.069861,10.0.2.15,22,10.0.2.2,60131,1073725440,14600,0,65535,65700,0,0,4,1460,1,0,4,24,33580,108,65700,0,108,0,0,0
i,0x00000000,1716793090.074950,172.16.3.2,5101,172.16.1.2,46717,10498,14480,0,65728,65700,6,6,4,1460,865,1,992,138,33580,0,65700,0,0,0,0,0
i,0x00000000,1716793090.085333,172.16.3.2,5101,172.16.1.2,46717,10498,14480,0,65728,65700,6,6,4,1460,865,1,992,138,33580,0,65700,0,0,0,0,0
o,0x00000000,1716793090.085350,172.16.3.2,5101,172.16.1.2,46717,10498,14480,0,65728,65700,6,6,4,1460,865,1,993,138,33580,0,65700,1448,0,0,0,0
i,0x00000000,1716793090.107156,172.16.3.2,5101,172.16.1.2,46717,10498,14480,0,65728,65700,6,6,4,1460,865,1,992,138,33580,0,65700,0,0,0,0,0
i,0x00000000,1716793090.114874,172.16.3.2,5101,172.16.1.2,46717,10498,14480,0,65728,65700,6,6,4,1460,865,1,992,138,33580,0,65700,0,0,0,0,0
o,0x00000000,1716793090.114888,172.16.3.2,5101,172.16.1.2,46717,10498,14480,0,65728,65700,6,6,4,1460,865,1,993,138,33580,0,65700,1448,0,0,0,0
i,0x00000000,1716793090.125556,172.16.3.2,5101,172.16.1.2,46717,10498,14480,0,65728,65700,6,6,4,1460,865,1,992,138,33580,0,65700,0,0,0,0,0
i,0x00000000,1716793090.134805,172.16.3.2,5101,172.16.1.2,46717,10498,14480,0,65728,65700,6,6,4,1460,865,1,992,138,33580,0,65700,0,0,0,0,0
o,0x00000000,1716793090.134819,172.16.3.2,5101,172.16.1.2,46717,10498,14480,0,65728,65700,6,6,4,1460,865,1,993,138,33580,0,65700,1448,0,0,0,0
i,0x00000000,1716793090.145468,172.16.3.2,5101,172.16.1.2,46717,10498,14480,0,65728,65700,6,6,4,1460,865,1,992,138,33580,0,65700,0,0,0,0,0
i,0x00000000,1716793090.166440,172.16.3.2,5101,172.16.1.2,46717,10498,14480,0,65728,65700,6,6,4,1460,865,1,992,138,33580,0,65700,0,0,0,0,0
o,0x00000000,1716793090.166462,172.16.3.2,5101,172.16.1.2,46717,10498,14480,0,65728,65700,6,6,4,1460,865,1,993,138,33580,0,65700,1448,0,0,0,0
i,0x00000000,1716793090.175586,172.16.3.2,5101,172.16.1.2,46717,10498,14480,0,65728,65700,6,6,4,1460,865,1,992,138,33580,0,65700,0,0,0,0,0
i,0x00000000,1716793090.186099,172.16.3.2,5101,172.16.1.2,46717,10498,14480,0,65728,65700,6,6,4,1460,865,1,992,138,33580,0,65700,0,0,0,0,0
o,0x00000000,1716793090.186116,172.16.3.2,5101,172.16.1.2,46717,10498,14480,0,65728,65700,6,6,4,1460,865,1,993,138,33580,0,65700,1448,0,0,0,0
i,0x00000000,1716793090.196261,172.16.3.2,5101,172.16.1.2,46717,10498,14480,0,65728,65700,6,6,4,1460,865,1,992,138,33580,0,65700,0,0,0,0,0
i,0x00000000,1716793090.205866,172.16.3.2,5101,172.16.1.2,46717,10498,14480,0,65728,65700,6,6,4,1460,865,1,992,138,33580,0,65700,0,0,0,0,0
o,0x00000000,1716793090.205875,172.16.3.2,5101,172.16.1.2,46717,10498,14480,0,65728,65700,6,6,4,1460,865,1,993,138,33580,0,65700,1448,0,0,0,0
i,0x00000000,1716793090.224686,172.16.3.2,5101,172.16.1.2,46717,10498,14480,0,65728,65700,6,6,4,1460,865,1,992,138,33580,0,65700,0,0,0,0,0
o,0x00000000,1716793090.259470,172.16.3.2,5101,172.16.1.2,46717,10498,14480,0,65728,65700,6,6,4,1460,865,1,993,138,33580,0,65700,0,0,0,0,0
i,0x00000000,1716793090.266854,172.16.3.2,5101,172.16.1.2,46717,10498,14480,0,65728,65700,6,6,4,1460,865,1,992,138,33580,0,65700,0,0,0,0,0
o,0x00000000,1716793090.298402,172.16.3.2,5101,172.16.1.2,46717,10498,14480,0,65728,65700,6,6,4,1460,865,1,993,138,33580,0,65700,0,0,0,0,0
i,0x00000000,1716793090.494877,172.16.3.2,5101,172.16.1.2,46717,10498,14480,0,65728,65700,6,6,4,1460,865,1,992,138,33580,0,65700,0,0,0,0,0
i,0x00000000,1716793090.505355,172.16.3.2,5101,172.16.1.2,46717,10498,14480,0,65728,65700,6,6,4,1460,865,1,992,138,33580,0,65700,0,0,0,0,0
o,0x00000000,1716793090.505373,172.16.3.2,5101,172.16.1.2,46717,10498,14480,0,65728,65700,6,6,4,1460,865,1,993,138,33580,0,65700,1448,0,0,0,0
i,0x00000000,1716793090.515791,172.16.3.2,5101,172.16.1.2,46717,10498,14480,0,65728,65700,6,6,4,1460,865,1,992,138,33580,0,65700,0,0,0,0,0
i,0x00000000,1716793090.535666,172.16.3.2,5101,172.16.1.2,46717,10498,14480,0,65728,65700,6,6,4,1460,865,1,992,138,33580,0,65700,0,0,0,0,0
o,0x00000000,1716793090.535685,172.16.3.2,5101,172.16.1.2,46717,10498,14480,0,65728,65700,6,6,4,1460,865,1,993,138,33580,0,65700,1448,0,0,0,0
i,0x00000000,1716793090.546059,172.16.3.2,5101,172.16.1.2,46717,10498,14480,0,65728,65700,6,6,4,1460,865,1,992,138,33580,0,65700,0,0,0,0,0
i,0x00000000,1716793090.556497,172.16.3.2,5101,172.16.1.2,46717,10498,14480,0,65728,65700,6,6,4,1460,865,1,992,138,33580,0,65700,0,0,0,0,0
o,0x00000000,1716793090.556509,172.16.3.2,5101,172.16.1.2,46717,10498,14480,0,65728,65700,6,6,4,1460,865,1,993,138,33580,0,65700,1448,0,0,0,0
i,0x00000000,1716793090.565418,172.16.3.2,5101,172.16.1.2,46717,10498,14480,0,65728,65700,6,6,4,1460,865,1,992,138,33580,0,65700,0,0,0,0,0
i,0x00000000,1716793090.575881,172.16.3.2,5101,172.16.1.2,46717,10498,14480,0,65728,65700,6,6,4,1460,865,1,992,138,33580,0,65700,0,0,0,0,0
o,0x00000000,1716793090.575892,172.16.3.2,5101,172.16.1.2,46717,10498,14480,0,65728,65700,6,6,4,1460,865,1,993,138,33580,0,65700,1448,0,0,0,0
i,0x00000000,1716793090.596773,172.16.3.2,5101,172.16.1.2,46717,10498,14480,0,65728,65700,6,6,4,1460,865,1,992,138,33580,0,65700,0,0,0,0,0
i,0x00000000,1716793090.605338,172.16.3.2,5101,172.16.1.2,46717,10498,14480,0,65728,65700,6,6,4,1460,865,1,992,138,33580,0,65700,0,0,0,0,0
o,0x00000000,1716793090.605354,172.16.3.2,5101,172.16.1.2,46717,10498,14480,0,65728,65700,6,6,4,1460,865,1,993,138,33580,0,65700,1448,0,0,0,0
i,0x00000000,1716793090.616949,172.16.3.2,5101,172.16.1.2,46717,10498,14480,0,65728,65700,6,6,4,1460,865,1,992,138,33580,0,65700,0,0,0,0,0
i,0x00000000,1716793090.625872,172.16.3.2,5101,172.16.1.2,46717,10498,14480,0,65728,65700,6,6,4,1460,865,1,992,138,33580,0,65700,0,0,0,0,0
o,0x00000000,1716793090.625886,172.16.3.2,5101,172.16.1.2,46717,10498,14480,0,65728,65700,6,6,4,1460,865,1,993,138,33580,0,65700,1448,0,0,0,0
i,0x00000000,1716793090.635764,172.16.3.2,5101,172.16.1.2,46717,10498,14480,0,65728,65700,6,6,4,1460,865,1,992,138,33580,0,65700,0,0,0,0,0
i,0x00000000,1716793090.656328,172.16.3.2,5101,172.16.1.2,46717,10498,14480,0,65728,65700,6,6,4,1460,865,1,992,138,33580,0,65700,0,0,0,0,0
o,0x00000000,1716793090.656344,172.16.3.2,5101,172.16.1.2,46717,10498,14480,0,65728,65700,6,6,4,1460,865,1,993,138,33580,0,65700,1448,0,0,0,0
i,0x00000000,1716793090.665756,172.16.3.2,5101,172.16.1.2,46717,10498,14480,0,65728,65700,6,6,4,1460,865,1,992,138,33580,0,65700,0,0,0,0,0
i,0x00000000,1716793090.676031,172.16.3.2,5101,172.16.1.2,46717,10498,14480,0,65728,65700,6,6,4,1460,865,1,992,138,33580,0,65700,0,0,0,0,0
o,0x00000000,1716793090.676045,172.16.3.2,5101,172.16.1.2,46717,10498,14480,0,65728,65700,6,6,4,1460,865,1,993,138,33580,0,65700,1448,0,0,0,0
i,0x00000000,1716793090.687211,172.16.3.2,5101,172.16.1.2,46717,10498,14480,0,65728,65700,6,6,4,1460,865,1,992,138,33580,0,65700,0,0,0,0,0
i,0x00000000,1716793090.695857,172.16.3.2,5101,172.16.1.2,46717,10498,14480,0,65728,65700,6,6,4,1460,865,1,992,138,33580,0,65700,0,0,0,0,0
o,0x00000000,1716793090.695875,172.16.3.2,5101,172.16.1.2,46717,10498,14480,0,65728,65700,6,6,4,1460,865,1,993,138,33580,0,65700,1448,0,0,0,0
i,0x00000000,1716793090.757394,172.16.3.2,5101,172.16.1.2,46717,10498,14480,0,65728,65700,6,6,4,1460,865,1,992,138,33580,0,65700,0,0,0,0,0
o,0x00000000,1716793090.788377,172.16.3.2,5101,172.16.1.2,46717,10498,14480,0,65728,65700,6,6,4,1460,865,1,993,138,33580,0,65700,0,0,0,0,0
i,0x00000000,1716793090.817259,172.16.3.2,5101,172.16.1.2,46717,10498,14480,0,65728,65700,6,6,4,1460,865,1,992,138,33580,0,65700,0,0,0,0,0
o,0x00000000,1716793090.849034,172.16.3.2,5101,172.16.1.2,46717,10498,14480,0,65728,65700,6,6,4,1460,865,1,993,138,33580,0,65700,0,0,0,0,0
i,0x00000000,1716793091.005954,172.16.3.2,5101,172.16.1.2,46717,10498,14480,0,65728,65700,6,6,4,1460,865,1,992,138,33580,0,65700,0,0,0,0,0
i,0x00000000,1716793091.017056,172.16.3.2,5101,172.16.1.2,46717,10498,14480,0,65728,65700,6,6,4,1460,865,1,992,138,33580,0,65700,0,0,0,0,0
o,0x00000000,1716793091.017076,172.16.3.2,5101,172.16.1.2,46717,10498,14480,0,65728,65700,6,6,4,1460,865,1,993,138,33580,0,65700,1448,0,0,0,0
i,0x00000000,1716793091.037353,172.16.3.2,5101,172.16.1.2,46717,10498,14480,0,65728,65700,6,6,4,1460,865,1,992,138,33580,0,65700,0,0,0,0,0
i,0x00000000,1716793091.046805,172.16.3.2,5101,172.16.1.2,46717,10498,14480,0,65728,65700,6,6,4,1460,865,1,992,138,33580,0,65700,0,0,0,0,0
o,0x00000000,1716793091.046838,172.16.3.2,5101,172.16.1.2,46717,10498,14480,0,65728,65700,6,6,4,1460,865,1,993,138,33580,0,65700,1448,0,0,0,0
i,0x00000000,1716793091.055615,172.16.3.2,5101,172.16.1.2,46717,10498,14480,0,65728,65700,6,6,4,1460,865,1,992,138,33580,0,65700,0,0,0,0,0
i,0x00000000,1716793091.067012,172.16.3.2,5101,172.16.1.2,46717,10498,14480,0,65728,65700,6,6,4,1460,865,1,992,138,33580,0,65700,0,0,0,0,0
o,0x00000000,1716793091.067028,172.16.3.2,5101,172.16.1.2,46717,10498,14480,0,65728,65700,6,6,4,1460,865,1,993,138,33580,0,65700,1448,0,0,0,0
o,0x00000000,1716793091.069133,10.0.2.15,22,10.0.2.2,60131,1073725440,14600,0,65535,65700,0,0,4,1460,1,0,4,24,33580,108,65700,0,0,0,0,0
i,0x00000000,1716793091.070024,10.0.2.15,22,10.0.2.2,60131,1073725440,14600,0,65535,65700,0,0,4,1460,1,0,4,24,33580,108,65700,0,108,0,0,0
i,0x00000000,1716793091.076964,172.16.3.2,5101,172.16.1.2,46717,10498,14480,0,65728,65700,6,6,4,1460,865,1,992,138,33580,0,65700,0,0,0,0,0
i,0x00000000,1716793091.097533,172.16.3.2,5101,172.16.1.2,46717,10498,14480,0,65728,65700,6,6,4,1460,865,1,992,138,33580,0,65700,0,0,0,0,0
o,0x00000000,1716793091.097624,172.16.3.2,5101,172.16.1.2,46717,10498,14480,0,65728,65700,6,6,4,1460,865,1,993,138,33580,0,65700,1448,0,0,0,0
i,0x00000000,1716793091.106750,172.16.3.2,5101,172.16.1.2,46717,10498,14480,0,65728,65700,6,6,4,1460,865,1,992,138,33580,0,65700,0,0,0,0,0
i,0x00000000,1716793091.116157,172.16.3.2,5101,172.16.1.2,46717,10498,14480,0,65728,65700,6,6,4,1460,865,1,992,138,33580,0,65700,0,0,0,0,0
o,0x00000000,1716793091.116177,172.16.3.2,5101,172.16.1.2,46717,10498,14480,0,65728,65700,6,6,4,1460,865,1,993,138,33580,0,65700,1448,0,0,0,0
i,0x00000000,1716793091.127073,172.16.3.2,5101,172.16.1.2,46717,10498,14480,0,65728,65700,6,6,4,1460,865,1,992,138,33580,0,65700,0,0,0,0,0
i,0x00000000,1716793091.136008,172.16.3.2,5101,172.16.1.2,46717,10498,14480,0,65728,65700,6,6,4,1460,865,1,992,138,33580,0,65700,0,0,0,0,0
o,0x00000000,1716793091.136024,172.16.3.2,5101,172.16.1.2,46717,10498,14480,0,65728,65700,6,6,4,1460,865,1,993,138,33580,0,65700,1448,0,0,0,0
i,0x00000000,1716793091.157504,172.16.3.2,5101,172.16.1.2,46717,10498,14480,0,65728,65700,6,6,4,1460,865,1,992,138,33580,0,65700,0,0,0,0,0
i,0x00000000,1716793091.166206,172.16.3.2,5101,172.16.1.2,46717,10498,14480,0,65728,65700,6,6,4,1460,865,1,992,138,33580,0,65700,0,0,0,0,0
o,0x00000000,1716793091.166224,172.16.3.2,5101,172.16.1.2,46717,10498,14480,0,65728,65700,6,6,4,1460,865,1,993,138,33580,0,65700,1448,0,0,0,0
i,0x00000000,1716793091.176851,172.16.3.2,5101,172.16.1.2,46717,10498,14480,0,65728,65700,6,6,4,1460,865,1,992,138,33580,0,65700,0,0,0,0,0
i,0x00000000,1716793091.186447,172.16.3.2,5101,172.16.1.2,46717,10498,14480,0,65728,65700,6,6,4,1460,865,1,992,138,33580,0,65700,0,0,0,0,0
o,0x00000000,1716793091.186462,172.16.3.2,5101,172.16.1.2,46717,10498,14480,0,65728,65700,6,6,4,1460,865,1,993,138,33580,0,65700,1448,0,0,0,0
i,0x00000000,1716793091.196970,172.16.3.2,5101,172.16.1.2,46717,10498,14480,0,65728,65700,6,6,4,1460,865,1,992,138,33580,0,65700,0,0,0,0,0
i,0x00000000,1716793091.216341,172.16.3.2,5101,172.16.1.2,46717,10498,14480,0,65728,65700,6,6,4,1460,865,1,992,138,33580,0,65700,0,0,0,0,0
o,0x00000000,1716793091.216352,172.16.3.2,5101,172.16.1.2,46717,10498,14480,0,65728,65700,6,6,4,1460,865,1,993,138,33580,0,65700,1448,0,0,0,0
i,0x00000000,1716793091.227514,172.16.3.2,5101,172.16.1.2,46717,10498,14480,0,65728,65700,6,6,4,1460,865,1,992,138,33580,0,65700,0,0,0,0,0
o,0x00000000,1716793091.259647,172.16.3.2,5101,172.16.1.2,46717,10498,14480,0,65728,65700,6,6,4,1460,865,1,993,138,33580,0,65700,0,0,0,0,0
i,0x00000000,1716793091.477340,172.16.3.2,5101,172.16.1.2,46717,10498,14480,0,65728,65700,6,6,4,1460,865,1,992,138,33580,0,65700,0,0,0,0,0
i,0x00000000,1716793091.486241,172.16.3.2,5101,172.16.1.2,46717,10498,14480,0,65728,65700,6,6,4,1460,865,1,992,138,33580,0,65700,0,0,0,0,0
o,0x00000000,1716793091.486258,172.16.3.2,5101,172.16.1.2,46717,10498,14480,0,65728,65700,6,6,4,1460,865,1,993,138,33580,0,65700,1448,0,0,0,0
i,0x00000000,1716793091.526497,172.16.3.2,5101,172.16.1.2,46717,10498,14480,0,65728,65700,6,6,4,1460,865,1,992,138,33580,0,65700,0,0,0,0,0
i,0x00000000,1716793091.536908,172.16.3.2,5101,172.16.1.2,46717,10498,14480,0,65728,65700,6,6,4,1460,865,1,992,138,33580,0,65700,0,0,0,0,0
o,0x00000000,1716793091.536927,172.16.3.2,5101,172.16.1.2,46717,10498,14480,0,65728,65700,6,6,4,1460,865,1,993,138,33580,0,65700,1448,0,0,0,0
i,0x00000000,1716793091.546592,172.16.3.2,5101,172.16.1.2,46717,10498,14480,0,65728,65700,6,6,4,1460,865,1,992,138,33580,0,65700,0,0,0,0,0
i,0x00000000,1716793091.557190,172.16.3.2,5101,172.16.1.2,46717,10498,14480,0,65728,65700,6,6,4,1460,865,1,992,138,33580,0,65700,0,0,0,0,0
o,0x00000000,1716793091.557209,172.16.3.2,5101,172.16.1.2,46717,10498,14480,0,65728,65700,6,6,4,1460,865,1,993,138,33580,0,65700,1448,0,0,0,0
i,0x00000000,1716793091.566123,172.16.3.2,5101,172.16.1.2,46717,10498,14480,0,65728,65700,6,6,4,1460,865,1,992,138,33580,0,65700,0,0,0,0,0
i,0x00000000,1716793091.587600,172.16.3.2,5101,172.16.1.2,46717,10498,14480,0,65728,65700,6,6,4,1460,865,1,992,138,33580,0,65700,0,0,0,0,0
o,0x00000000,1716793091.587614,172.16.3.2,5101,172.16.1.2,46717,10498,14480,0,65728,65700,6,6,4,1460,865,1,993,138,33580,0,65700,1448,0,0,0,0
i,0x00000000,1716793091.597678,172.16.3.2,5101,172.16.1.2,46717,10498,14480,0,65728,65700,6,6,4,1460,865,1,992,138,33580,0,65700,0,0,0,0,0
i,0x00000000,1716793091.606053,172.16.3.2,5101,172.16.1.2,46717,10498,14480,0,65728,65700,6,6,4,1460,865,1,992,138,33580,0,65700,0,0,0,0,0
o,0x00000000,1716793091.606061,172.16.3.2,5101,172.16.1.2,46717,10498,14480,0,65728,65700,6,6,4,1460,865,1,993,138,33580,0,65700,1448,0,0,0,0
i,0x00000000,1716793091.616591,172.16.3.2,5101,172.16.1.2,46717,10498,14480,0,65728,65700,6,6,4,1460,865,1,992,138,33580,0,65700,0,0,0,0,0
i,0x00000000,1716793091.627492,172.16.3.2,5101,172.16.1.2,46717,10498,14480,0,65728,65700,6,6,4,1460,865,1,992,138,33580,0,65700,0,0,0,0,0
o,0x00000000,1716793091.627506,172.16.3.2,5101,172.16.1.2,46717,10498,14480,0,65728,65700,6,6,4,1460,865,1,993,138,33580,0,65700,1448,0,0,0,0
i,0x00000000,1716793091.646615,172.16.3.2,5101,172.16.1.2,46717,10498,14480,0,65728,65700,6,6,4,1460,865,1,992,138,33580,0,65700,0,0,0,0,0
i,0x00000000,1716793091.656911,172.16.3.2,5101,172.16.1.2,46717,10498,14480,0,65728,65700,6,6,4,1460,865,1,992,138,33580,0,65700,0,0,0,0,0
o,0x00000000,1716793091.656921,172.16.3.2,5101,172.16.1.2,46717,10498,14480,0,65728,65700,6,6,4,1460,865,1,993,138,33580,0,65700,1448,0,0,0,0
i,0x00000000,1716793091.666457,172.16.3.2,5101,172.16.1.2,46717,10498,14480,0,65728,65700,6,6,4,1460,865,1,992,138,33580,0,65700,0,0,0,0,0
i,0x00000000,1716793091.677285,172.16.3.2,5101,172.16.1.2,46717,10498,14480,0,65728,65700,6,6,4,1460,865,1,992,138,33580,0,65700,0,0,0,0,0
o,0x00000000,1716793091.677316,172.16.3.2,5101,172.16.1.2,46717,10498,14480,0,65728,65700,6,6,4,1460,865,1,993,138,33580,0,65700,1448,0,0,0,0
i,0x00000000,1716793091.687765,172.16.3.2,5101,172.16.1.2,46717,10498,14480,0,65728,65700,6,6,4,1460,865,1,992,138,33580,0,65700,0,0,0,0,0
i,0x00000000,1716793091.706261,172.16.3.2,5101,172.16.1.2,46717,10498,14480,0,65728,65700,6,6,4,1460,865,1,992,138,33580,0,65700,0,0,0,0,0
o,0x00000000,1716793091.706285,172.16.3.2,5101,172.16.1.2,46717,10498,14480,0,65728,65700,6,6,4,1460,865,1,993,138,33580,0,65700,1448,0,0,0,0
i,0x00000000,1716793091.716666,172.16.3.2,5101,172.16.1.2,46717,10498,14480,0,65728,65700,6,6,4,1460,865,1,992,138,33580,0,65700,0,0,0,0,0
i,0x00000000,1716793091.727919,172.16.3.2,5101,172.16.1.2,46717,10498,14480,0,65728,65700,6,6,4,1460,865,1,992,138,33580,0,65700,0,0,0,0,0
o,0x00000000,1716793091.727954,172.16.3.2,5101,172.16.1.2,46717,10498,14480,0,65728,65700,6,6,4,1460,865,1,993,138,33580,0,65700,1448,0,0,0,0
i,0x00000000,1716793091.797499,172.16.3.2,5101,172.16.1.2,46717,10498,14480,0,65728,65700,6,6,4,1460,865,1,992,138,33580,0,65700,0,0,0,0,0
i,0x00000000,1716793091.807476,172.16.3.2,5101,172.16.1.2,46717,10498,14480,0,65728,65700,6,6,4,1460,865,1,992,138,33580,0,65700,0,0,0,0,0
o,0x00000000,1716793091.807504,172.16.3.2,5101,172.16.1.2,46717,10498,14480,0,65728,65700,6,6,4,1460,865,1,993,138,33580,0,65700,1448,0,0,0,0
i,0x00000000,1716793092.006577,172.16.3.2,5101,172.16.1.2,46717,10498,14480,0,65728,65700,6,6,4,1460,865,1,992,138,33580,0,65700,0,0,0,0,0
i,0x00000000,1716793092.026446,172.16.3.2,5101,172.16.1.2,46717,10498,14480,0,65728,65700,6,6,4,1460,865,1,992,138,33580,0,65700,0,0,0,0,0
o,0x00000000,1716793092.026464,172.16.3.2,5101,172.16.1.2,46717,10498,14480,0,65728,65700,6,6,4,1460,865,1,993,138,33580,0,65700,1448,0,0,0,0
i,0x00000000,1716793092.057911,172.16.3.2,5101,172.16.1.2,46717,10498,14480,0,65728,65700,6,6,4,1460,865,1,992,138,33580,0,65700,0,0,0,0,0
i,0x00000000,1716793092.067896,172.16.3.2,5101,172.16.1.2,46717,10498,14480,0,65728,65700,6,6,4,1460,865,1,992,138,33580,0,65700,0,0,0,0,0
o,0x00000000,1716793092.067914,172.16.3.2,5101,172.16.1.2,46717,10498,14480,0,65728,65700,6,6,4,1460,865,1,993,138,33580,0,65700,1448,0,0,0,0
o,0x00000000,1716793092.068519,10.0.2.15,22,10.0.2.2,60131,1073725440,14600,0,65535,65700,0,0,4,1460,1,0,4,24,33580,108,65700,0,0,0,0,0
i,0x00000000,1716793092.069289,10.0.2.15,22,10.0.2.2,60131,1073725440,14600,0,65535,65700,0,0,4,1460,1,0,4,24,33580,108,65700,0,108,0,0,0
i,0x00000000,1716793092.086512,172.16.3.2,5101,172.16.1.2,46717,10498,14480,0,65728,65700,6,6,4,1460,865,1,992,138,33580,0,65700,0,0,0,0,0
i,0x00000000,1716793092.097955,172.16.3.2,5101,172.16.1.2,46717,10498,14480,0,65728,65700,6,6,4,1460,865,1,992,138,33580,0,65700,0,0,0,0,0
o,0x00000000,1716793092.098015,172.16.3.2,5101,172.16.1.2,46717,10498,14480,0,65728,65700,6,6,4,1460,865,1,993,138,33580,0,65700,1448,0,0,0,0
i,0x00000000,1716793092.106965,172.16.3.2,5101,172.16.1.2,46717,10498,14480,0,65728,65700,6,6,4,1460,865,1,992,138,33580,0,65700,0,0,0,0,0
i,0x00000000,1716793092.117127,172.16.3.2,5101,172.16.1.2,46717,10498,14480,0,65728,65700,6,6,4,1460,865,1,992,138,33580,0,65700,0,0,0,0,0
o,0x00000000,1716793092.117143,172.16.3.2,5101,172.16.1.2,46717,10498,14480,0,65728,65700,6,6,4,1460,865,1,993,138,33580,0,65700,1448,0,0,0,0
i,0x00000000,1716793092.127637,172.16.3.2,5101,172.16.1.2,46717,10498,14480,0,65728,65700,6,6,4,1460,865,1,992,138,33580,0,65700,0,0,0,0,0
i,0x00000000,1716793092.148318,172.16.3.2,5101,172.16.1.2,46717,10498,14480,0,65728,65700,6,6,4,1460,865,1,992,138,33580,0,65700,0,0,0,0,0
o,0x00000000,1716793092.148340,172.16.3.2,5101,172.16.1.2,46717,10498,14480,0,65728,65700,6,6,4,1460,865,1,993,138,33580,0,65700,1448,0,0,0,0
i,0x00000000,1716793092.157024,172.16.3.2,5101,172.16.1.2,46717,10498,14480,0,65728,65700,6,6,4,1460,865,1,992,138,33580,0,65700,0,0,0,0,0
i,0x00000000,1716793092.166474,172.16.3.2,5101,172.16.1.2,46717,10498,14480,0,65728,65700,6,6,4,1460,865,1,992,138,33580,0,65700,0,0,0,0,0
o,0x00000000,1716793092.166488,172.16.3.2,5101,172.16.1.2,46717,10498,14480,0,65728,65700,6,6,4,1460,865,1,993,138,33580,0,65700,1448,0,0,0,0
i,0x00000000,1716793092.177900,172.16.3.2,5101,172.16.1.2,46717,10498,14480,0,65728,65700,6,6,4,1460,865,1,992,138,33580,0,65700,0,0,0,0,0
i,0x00000000,1716793092.188013,172.16.3.2,5101,172.16.1.2,46717,10498,14480,0,65728,65700,6,6,4,1460,865,1,992,138,33580,0,65700,0,0,0,0,0
o,0x00000000,1716793092.188024,172.16.3.2,5101,172.16.1.2,46717,10498,14480,0,65728,65700,6,6,4,1460,865,1,993,138,33580,0,65700,1448,0,0,0,0
i,0x00000000,1716793092.207877,172.16.3.2,5101,172.16.1.2,46717,10498,14480,0,65728,65700,6,6,4,1460,865,1,992,138,33580,0,65700,0,0,0,0,0
i,0x00000000,1716793092.216776,172.16.3.2,5101,172.16.1.2,46717,10498,14480,0,65728,65700,6,6,4,1460,865,1,992,138,33580,0,65700,0,0,0,0,0
o,0x00000000,1716793092.216786,172.16.3.2,5101,172.16.1.2,46717,10498,14480,0,65728,65700,6,6,4,1460,865,1,993,138,33580,0,65700,1448,0,0,0,0
i,0x00000000,1716793092.227473,172.16.3.2,5101,172.16.1.2,46717,10498,14480,0,65728,65700,6,6,4,1460,865,1,992,138,33580,0,65700,0,0,0,0,0
i,0x00000000,1716793092.236951,172.16.3.2,5101,172.16.1.2,46717,10498,14480,0,65728,65700,6,6,4,1460,865,1,992,138,33580,0,65700,0,0,0,0,0
o,0x00000000,1716793092.236959,172.16.3.2,5101,172.16.1.2,46717,10498,14480,0,65728,65700,6,6,4,1460,865,1,993,138,33580,0,65700,1448,0,0,0,0
i,0x00000000,1716793092.256814,172.16.3.2,5101,172.16.1.2,46717,10498,14480,0,65728,65700,6,6,4,1460,865,1,992,138,33580,0,65700,0,0,0,0,0
i,0x00000000,1716793092.268374,172.16.3.2,5101,172.16.1.2,46717,10498,14480,0,65728,65700,6,6,4,1460,865,1,992,138,33580,0,65700,0,0,0,0,0
o,0x00000000,1716793092.268399,172.16.3.2,5101,172.16.1.2,46717,10498,14480,0,65728,65700,6,6,4,1460,865,1,993,138,33580,0,65700,1448,0,0,0,0
i,0x00000000,1716793092.348778,172.16.3.2,5101,172.16.1.2,46717,10498,14480,0,65728,65700,6,6,4,1460,865,1,992,138,33580,0,65700,0,0,0,0,0
i,0x00000000,1716793092.357194,172.16.3.2,5101,172.16.1.2,46717,10498,14480,0,65728,65700,6,6,4,1460,865,1,992,138,33580,0,65700,0,0,0,0,0
o,0x00000000,1716793092.357214,172.16.3.2,5101,172.16.1.2,46717,10498,14480,0,65728,65700,6,6,4,1460,865,1,993,138,33580,0,65700,1448,0,0,0,0
i,0x00000000,1716793092.368083,172.16.3.2,5101,172.16.1.2,46717,10498,14480,0,65728,65700,6,6,4,1460,865,1,992,138,33580,0,65700,0,0,0,0,0
o,0x00000000,1716793092.399275,172.16.3.2,5101,172.16.1.2,46717,10498,14480,0,65728,65700,6,6,4,1460,865,1,993,138,33580,0,65700,0,0,0,0,0
i,0x00000000,1716793092.578024,172.16.3.2,5101,172.16.1.2,46717,10498,14480,0,65728,65700,6,6,4,1460,865,1,992,138,33580,0,65700,0,0,0,0,0
i,0x00000000,1716793092.589982,172.16.3.2,5101,172.16.1.2,46717,10498,14480,0,65728,65700,6,6,4,1460,865,1,992,138,33580,0,65700,0,0,0,0,0
o,0x00000000,1716793092.590123,172.16.3.2,5101,172.16.1.2,46717,10498,14480,0,65728,65700,6,6,4,1460,865,1,993,138,33580,0,65700,1448,0,0,0,0
i,0x00000000,1716793092.619400,172.16.3.2,5101,172.16.1.2,46717,10498,14480,0,65728,65700,6,6,4,1460,865,1,992,138,33580,0,65700,0,0,0,0,0
i,0x00000000,1716793092.638305,172.16.3.2,5101,172.16.1.2,46717,10498,14480,0,65728,65700,6,6,4,1460,865,1,992,138,33580,0,65700,0,0,0,0,0
o,0x00000000,1716793092.638327,172.16.3.2,5101,172.16.1.2,46717,10498,14480,0,65728,65700,6,6,4,1460,865,1,993,138,33580,0,65700,1448,0,0,0,0
i,0x00000000,1716793092.650019,172.16.3.2,5101,172.16.1.2,46717,10498,14480,0,65728,65700,6,6,4,1460,865,1,992,138,33580,0,65700,0,0,0,0,0
i,0x00000000,1716793092.658117,172.16.3.2,5101,172.16.1.2,46717,10498,14480,0,65728,65700,6,6,4,1460,865,1,992,138,33580,0,65700,0,0,0,0,0
o,0x00000000,1716793092.658143,172.16.3.2,5101,172.16.1.2,46717,10498,14480,0,65728,65700,6,6,4,1460,865,1,993,138,33580,0,65700,1448,0,0,0,0
i,0x00000000,1716793092.668095,172.16.3.2,5101,172.16.1.2,46717,10498,14480,0,65728,65700,6,6,4,1460,865,1,992,138,33580,0,65700,0,0,0,0,0
i,0x00000000,1716793092.677891,172.16.3.2,5101,172.16.1.2,46717,10498,14480,0,65728,65700,6,6,4,1460,865,1,992,138,33580,0,65700,0,0,0,0,0
o,0x00000000,1716793092.677926,172.16.3.2,5101,172.16.1.2,46717,10498,14480,0,65728,65700,6,6,4,1460,865,1,993,138,33580,0,65700,1448,0,0,0,0
i,0x00000000,1716793092.699777,172.16.3.2,5101,172.16.1.2,46717,10498,14480,0,65728,65700,6,6,4,1460,865,1,992,138,33580,0,65700,0,0,0,0,0
i,0x00000000,1716793092.708367,172.16.3.2,5101,172.16.1.2,46717,10498,14480,0,65728,65700,6,6,4,1460,865,1,992,138,33580,0,65700,0,0,0,0,0
o,0x00000000,1716793092.708391,172.16.3.2,5101,172.16.1.2,46717,10498,14480,0,65728,65700,6,6,4,1460,865,1,993,138,33580,0,65700,1448,0,0,0,0
i,0x00000000,1716793092.719479,172.16.3.2,5101,172.16.1.2,46717,10498,14480,0,65728,65700,6,6,4,1460,865,1,992,138,33580,0,65700,0,0,0,0,0
i,0x00000000,1716793092.728057,172.16.3.2,5101,172.16.1.2,46717,10498,14480,0,65728,65700,6,6,4,1460,865,1,992,138,33580,0,65700,0,0,0,0,0
o,0x00000000,1716793092.728084,172.16.3.2,5101,172.16.1.2,46717,10498,14480,0,65728,65700,6,6,4,1460,865,1,993,138,33580,0,65700,1448,0,0,0,0
i,0x00000000,1716793092.740187,172.16.3.2,5101,172.16.1.2,46717,10498,14480,0,65728,65700,6,6,4,1460,865,1,992,138,33580,0,65700,0,0,0,0,0
i,0x00000000,1716793092.758309,172.16.3.2,5101,172.16.1.2,46717,10498,14480,0,65728,65700,6,6,4,1460,865,1,992,138,33580,0,65700,0,0,0,0,0
o,0x00000000,1716793092.758348,172.16.3.2,5101,172.16.1.2,46717,10498,14480,0,65728,65700,6,6,4,1460,865,1,993,138,33580,0,65700,1448,0,0,0,0
i,0x00000000,1716793092.768375,172.16.3.2,5101,172.16.1.2,46717,10498,14480,0,65728,65700,6,6,4,1460,865,1,992,138,33580,0,65700,0,0,0,0,0
i,0x00000000,1716793092.778336,172.16.3.2,5101,172.16.1.2,46717,10498,14480,0,65728,65700,6,6,4,1460,865,1,992,138,33580,0,65700,0,0,0,0,0
o,0x00000000,1716793092.778364,172.16.3.2,5101,172.16.1.2,46717,10498,14480,0,65728,65700,6,6,4,1460,865,1,993,138,33580,0,65700,1448,0,0,0,0
i,0x00000000,1716793092.787738,172.16.3.2,5101,172.16.1.2,46717,10498,14480,0,65728,65700,6,6,4,1460,865,1,992,138,33580,0,65700,0,0,0,0,0
i,0x00000000,1716793092.799521,172.16.3.2,5101,172.16.1.2,46717,10498,14480,0,65728,65700,6,6,4,1460,865,1,992,138,33580,0,65700,0,0,0,0,0
o,0x00000000,1716793092.799640,172.16.3.2,5101,172.16.1.2,46717,10498,14480,0,65728,65700,6,6,4,1460,865,1,993,138,33580,0,65700,1448,0,0,0,0
i,0x00000000,1716793092.819206,172.16.3.2,5101,172.16.1.2,46717,10498,14480,0,65728,65700,6,6,4,1460,865,1,992,138,33580,0,65700,0,0,0,0,0
i,0x00000000,1716793092.828293,172.16.3.2,5101,172.16.1.2,46717,10498,14480,0,65728,65700,6,6,4,1460,865,1,992,138,33580,0,65700,0,0,0,0,0
o,0x00000000,1716793092.828308,172.16.3.2,5101,172.16.1.2,46717,10498,14480,0,65728,65700,6,6,4,1460,865,1,993,138,33580,0,65700,1448,0,0,0,0
i,0x00000000,1716793092.900529,172.16.3.2,5101,172.16.1.2,46717,10498,14480,0,65728,65700,6,6,4,1460,865,1,992,138,33580,0,65700,0,0,0,0,0
i,0x00000000,1716793092.908645,172.16.3.2,5101,172.16.1.2,46717,10498,14480,0,65728,65700,6,6,4,1460,865,1,992,138,33580,0,65700,0,0,0,0,0
o,0x00000000,1716793092.908670,172.16.3.2,5101,172.16.1.2,46717,10498,14480,0,65728,65700,6,6,4,1460,865,1,993,138,33580,0,65700,1448,0,0,0,0
o,0x00000000,1716793093.069081,10.0.2.15,22,10.0.2.2,60131,1073725440,14600,0,65535,65700,0,0,4,1460,1,0,4,24,33580,108,65700,0,0,0,0,0
i,0x00000000,1716793093.069986,10.0.2.15,22,10.0.2.2,60131,1073725440,14600,0,65535,65700,0,0,4,1460,1,0,4,24,33580,108,65700,0,108,0,0,0
i,0x00000000,1716793093.138749,172.16.3.2,5101,172.16.1.2,46717,10498,14480,0,65728,65700,6,6,4,1460,865,1,992,138,33580,0,65700,0,0,0,0,0
i,0x00000000,1716793093.148539,172.16.3.2,5101,172.16.1.2,46717,10498,14480,0,65728,65700,6,6,4,1460,865,1,992,138,33580,0,65700,0,0,0,0,0
o,0x00000000,1716793093.148553,172.16.3.2,5101,172.16.1.2,46717,10498,14480,0,65728,65700,6,6,4,1460,865,1,993,138,33580,0,65700,1448,0,0,0,0
i,0x00000000,1716793093.189340,172.16.3.2,5101,172.16.1.2,46717,10498,14480,0,65728,65700,6,6,4,1460,865,1,992,138,33580,0,65700,0,0,0,0,0
i,0x00000000,1716793093.198571,172.16.3.2,5101,172.16.1.2,46717,10498,14480,0,65728,65700,6,6,4,1460,865,1,992,138,33580,0,65700,0,0,0,0,0
o,0x00000000,1716793093.198612,172.16.3.2,5101,172.16.1.2,46717,10498,14480,0,65728,65700,6,6,4,1460,865,1,993,138,33580,0,65700,1448,0,0,0,0
i,0x00000000,1716793093.208595,172.16.3.2,5101,172.16.1.2,46717,10498,14480,0,65728,65700,6,6,4,1460,865,1,992,138,33580,0,65700,0,0,0,0,0
i,0x00000000,1716793093.218566,172.16.3.2,5101,172.16.1.2,46717,10498,14480,0,65728,65700,6,6,4,1460,865,1,992,138,33580,0,65700,0,0,0,0,0
o,0x00000000,1716793093.218576,172.16.3.2,5101,172.16.1.2,46717,10498,14480,0,65728,65700,6,6,4,1460,865,1,993,138,33580,0,65700,1448,0,0,0,0
i,0x00000000,1716793093.228592,172.16.3.2,5101,172.16.1.2,46717,10498,14480,0,65728,65700,6,6,4,1460,865,1,992,138,33580,0,65700,0,0,0,0,0
i,0x00000000,1716793093.248470,172.16.3.2,5101,172.16.1.2,46717,10498,14480,0,65728,65700,6,6,4,1460,865,1,992,138,33580,0,65700,0,0,0,0,0
o,0x00000000,1716793093.248483,172.16.3.2,5101,172.16.1.2,46717,10498,14480,0,65728,65700,6,6,4,1460,865,1,993,138,33580,0,65700,1448,0,0,0,0
i,0x00000000,1716793093.258549,172.16.3.2,5101,172.16.1.2,46717,10498,14480,0,65728,65700,6,6,4,1460,865,1,992,138,33580,0,65700,0,0,0,0,0
i,0x00000000,1716793093.268495,172.16.3.2,5101,172.16.1.2,46717,10498,14480,0,65728,65700,6,6,4,1460,865,1,992,138,33580,0,65700,0,0,0,0,0
o,0x00000000,1716793093.268505,172.16.3.2,5101,172.16.1.2,46717,10498,14480,0,65728,65700,6,6,4,1460,865,1,993,138,33580,0,65700,1448,0,0,0,0
i,0x00000000,1716793093.278693,172.16.3.2,5101,172.16.1.2,46717,10498,14480,0,65728,65700,6,6,4,1460,865,1,992,138,33580,0,65700,0,0,0,0,0
i,0x00000000,1716793093.288453,172.16.3.2,5101,172.16.1.2,46717,10498,14480,0,65728,65700,6,6,4,1460,865,1,992,138,33580,0,65700,0,0,0,0,0
o,0x00000000,1716793093.288463,172.16.3.2,5101,172.16.1.2,46717,10498,14480,0,65728,65700,6,6,4,1460,865,1,993,138,33580,0,65700,1448,0,0,0,0
i,0x00000000,1716793093.308463,172.16.3.2,5101,172.16.1.2,46717,10498,14480,0,65728,65700,6,6,4,1460,865,1,992,138,33580,0,65700,0,0,0,0,0
i,0x00000000,1716793093.318462,172.16.3.2,5101,172.16.1.2,46717,10498,14480,0,65728,65700,6,6,4,1460,865,1,992,138,33580,0,65700,0,0,0,0,0
o,0x00000000,1716793093.318474,172.16.3.2,5101,172.16.1.2,46717,10498,14480,0,65728,65700,6,6,4,1460,865,1,993,138,33580,0,65700,1448,0,0,0,0
i,0x00000000,1716793093.328460,172.16.3.2,5101,172.16.1.2,46717,10498,14480,0,65728,65700,6,6,4,1460,865,1,992,138,33580,0,65700,0,0,0,0,0
i,0x00000000,1716793093.338414,172.16.3.2,5101,172.16.1.2,46717,10498,14480,0,65728,65700,6,6,4,1460,865,1,992,138,33580,0,65700,0,0,0,0,0
o,0x00000000,1716793093.338422,172.16.3.2,5101,172.16.1.2,46717,10498,14480,0,65728,65700,6,6,4,1460,865,1,993,138,33580,0,65700,1448,0,0,0,0
i,0x00000000,1716793093.348296,172.16.3.2,5101,172.16.1.2,46717,10498,14480,0,65728,65700,6,6,4,1460,865,1,992,138,33580,0,65700,0,0,0,0,0
i,0x00000000,1716793093.368428,172.16.3.2,5101,172.16.1.2,46717,10498,14480,0,65728,65700,6,6,4,1460,865,1,992,138,33580,0,65700,0,0,0,0,0
o,0x00000000,1716793093.368440,172.16.3.2,5101,172.16.1.2,46717,10498,14480,0,65728,65700,6,6,4,1460,865,1,993,138,33580,0,65700,1448,0,0,0,0
i,0x00000000,1716793093.377988,172.16.3.2,5101,172.16.1.2,46717,10498,14480,0,65728,65700,6,6,4,1460,865,1,992,138,33580,0,65700,0,0,0,0,0
i,0x00000000,1716793093.388306,172.16.3.2,5101,172.16.1.2,46717,10498,14480,0,65728,65700,6,6,4,1460,865,1,992,138,33580,0,65700,0,0,0,0,0
o,0x00000000,1716793093.388316,172.16.3.2,5101,172.16.1.2,46717,10498,14480,0,65728,65700,6,6,4,1460,865,1,993,138,33580,0,65700,1448,0,0,0,0
i,0x00000000,1716793093.398923,172.16.3.2,5101,172.16.1.2,46717,10498,14480,0,65728,65700,6,6,4,1460,865,1,992,138,33580,0,65700,0,0,0,0,0
i,0x00000000,1716793093.407575,172.16.3.2,5101,172.16.1.2,46717,10498,14480,0,65728,65700,6,6,4,1460,865,1,992,138,33580,0,65700,0,0,0,0,0
o,0x00000000,1716793093.407587,172.16.3.2,5101,172.16.1.2,46717,10498,14480,0,65728,65700,6,6,4,1460,865,1,993,138,33580,0,65700,1448,0,0,0,0
i,0x00000000,1716793093.498661,172.16.3.2,5101,172.16.1.2,46717,10498,14480,0,65728,65700,6,6,4,1460,865,1,992,138,33580,0,65700,0,0,0,0,0
i,0x00000000,1716793093.508666,172.16.3.2,5101,172.16.1.2,46717,10498,14480,0,65728,65700,6,6,4,1460,865,1,992,138,33580,0,65700,0,0,0,0,0
o,0x00000000,1716793093.508683,172.16.3.2,5101,172.16.1.2,46717,10498,14480,0,65728,65700,6,6,4,1460,865,1,993,138,33580,0,65700,1448,0,0,0,0
i,0x00000000,1716793093.738012,172.16.3.2,5101,172.16.1.2,46717,10498,14480,0,65728,65700,6,6,4,1460,865,1,992,138,33580,0,65700,0,0,0,0,0
i,0x00000000,1716793093.748156,172.16.3.2,5101,172.16.1.2,46717,10498,14480,0,65728,65700,6,6,4,1460,865,1,992,138,33580,0,65700,0,0,0,0,0
o,0x00000000,1716793093.748173,172.16.3.2,5101,172.16.1.2,46717,10498,14480,0,65728,65700,6,6,4,1460,865,1,993,138,33580,0,65700,1448,0,0,0,0
i,0x00000000,1716793093.758434,172.16.3.2,5101,172.16.1.2,46717,10498,14480,0,65728,65700,6,6,4,1460,865,1,992,138,33580,0,65700,0,0,0,0,0
i,0x00000000,1716793093.798722,172.16.3.2,5101,172.16.1.2,46717,10498,14480,0,65728,65700,6,6,4,1460,865,1,992,138,33580,0,65700,0,0,0,0,0
o,0x00000000,1716793093.798744,172.16.3.2,5101,172.16.1.2,46717,10498,14480,0,65728,65700,6,6,4,1460,865,1,993,138,33580,0,65700,1448,0,0,0,0
i,0x00000000,1716793093.808346,172.16.3.2,5101,172.16.1.2,46717,10498,14480,0,65728,65700,6,6,4,1460,865,1,992,138,33580,0,65700,0,0,0,0,0
i,0x00000000,1716793093.819288,172.16.3.2,5101,172.16.1.2,46717,10498,14480,0,65728,65700,6,6,4,1460,865,1,992,138,33580,0,65700,0,0,0,0,0
o,0x00000000,1716793093.819301,172.16.3.2,5101,172.16.1.2,46717,10498,14480,0,65728,65700,6,6,4,1460,865,1,993,138,33580,0,65700,1448,0,0,0,0
i,0x00000000,1716793093.828945,172.16.3.2,5101,172.16.1.2,46717,10498,14480,0,65728,65700,6,6,4,1460,865,1,992,138,33580,0,65700,0,0,0,0,0
i,0x00000000,1716793093.838854,172.16.3.2,5101,172.16.1.2,46717,10498,14480,0,65728,65700,6,6,4,1460,865,1,992,138,33580,0,65700,0,0,0,0,0
o,0x00000000,1716793093.838862,172.16.3.2,5101,172.16.1.2,46717,10498,14480,0,65728,65700,6,6,4,1460,865,1,993,138,33580,0,65700,1448,0,0,0,0
i,0x00000000,1716793093.858725,172.16.3.2,5101,172.16.1.2,46717,10498,14480,0,65728,65700,6,6,4,1460,865,1,992,138,33580,0,65700,0,0,0,0,0
i,0x00000000,1716793093.868968,172.16.3.2,5101,172.16.1.2,46717,10498,14480,0,65728,65700,6,6,4,1460,865,1,992,138,33580,0,65700,0,0,0,0,0
o,0x00000000,1716793093.868977,172.16.3.2,5101,172.16.1.2,46717,10498,14480,0,65728,65700,6,6,4,1460,865,1,993,138,33580,0,65700,1448,0,0,0,0
i,0x00000000,1716793093.878648,172.16.3.2,5101,172.16.1.2,46717,10498,14480,0,65728,65700,6,6,4,1460,865,1,992,138,33580,0,65700,0,0,0,0,0
i,0x00000000,1716793093.888701,172.16.3.2,5101,172.16.1.2,46717,10498,14480,0,65728,65700,6,6,4,1460,865,1,992,138,33580,0,65700,0,0,0,0,0
o,0x00000000,1716793093.888709,172.16.3.2,5101,172.16.1.2,46717,10498,14480,0,65728,65700,6,6,4,1460,865,1,993,138,33580,0,65700,1448,0,0,0,0
i,0x00000000,1716793093.898571,172.16.3.2,5101,172.16.1.2,46717,10498,14480,0,65728,65700,6,6,4,1460,865,1,992,138,33580,0,65700,0,0,0,0,0
i,0x00000000,1716793093.918648,172.16.3.2,5101,172.16.1.2,46717,10498,14480,0,65728,65700,6,6,4,1460,865,1,992,138,33580,0,65700,0,0,0,0,0
o,0x00000000,1716793093.918661,172.16.3.2,5101,172.16.1.2,46717,10498,14480,0,65728,65700,6,6,4,1460,865,1,993,138,33580,0,65700,1448,0,0,0,0
i,0x00000000,1716793093.929262,172.16.3.2,5101,172.16.1.2,46717,10498,14480,0,65728,65700,6,6,4,1460,865,1,992,138,33580,0,65700,0,0,0,0,0
i,0x00000000,1716793093.938472,172.16.3.2,5101,172.16.1.2,46717,10498,14480,0,65728,65700,6,6,4,1460,865,1,992,138,33580,0,65700,0,0,0,0,0
o,0x00000000,1716793093.938480,172.16.3.2,5101,172.16.1.2,46717,10498,14480,0,65728,65700,6,6,4,1460,865,1,993,138,33580,0,65700,1448,0,0,0,0
i,0x00000000,1716793093.949490,172.16.3.2,5101,172.16.1.2,46717,10498,14480,0,65728,65700,6,6,4,1460,865,1,992,138,33580,0,65700,0,0,0,0,0
i,0x00000000,1716793093.958347,172.16.3.2,5101,172.16.1.2,46717,10498,14480,0,65728,65700,6,6,4,1460,865,1,992,138,33580,0,65700,0,0,0,0,0
