enable_time_secs=1716791820	enable_time_usecs=292169	siftrver=1.2.4	hz=100	tcp_rtt_scale=32	sysname=FreeBSD	sysver=1301000	ipmode=4
o,0x00000000,1716791820.292207,10.0.2.15,22,10.0.2.2,55451,1073725440,17298,0,65535,65700,0,0,4,1460,1,0,4,24,33580,44,65700,0,0,0,0,0
i,0x00000000,1716791820.292686,10.0.2.15,22,10.0.2.2,55451,1073725440,17298,0,65535,65700,0,0,4,1460,1,0,4,24,33580,44,65700,0,44,0,0,0
o,0x00000000,1716791820.292781,10.0.2.15,22,10.0.2.2,55451,1073725440,17342,0,65535,65700,0,0,4,1460,1,0,4,24,33580,36,65700,0,0,0,0,0
i,0x00000000,1716791820.293210,10.0.2.15,22,10.0.2.2,55451,1073725440,17342,0,65535,65700,0,0,4,1460,1,0,4,24,33580,36,65700,0,36,0,0,0
o,0x00000000,1716791820.293275,10.0.2.15,22,10.0.2.2,55451,1073725440,17378,0,65535,65700,0,0,4,1460,1,0,4,24,33580,36,65700,0,0,0,0,0
i,0x00000000,1716791820.293776,10.0.2.15,22,10.0.2.2,55451,1073725440,17378,0,65535,65700,0,0,4,1460,1,0,4,24,33580,36,65700,0,36,0,0,0
o,0x00000000,1716791820.293944,10.0.2.15,22,10.0.2.2,55451,1073725440,17414,0,65535,65700,0,0,4,1460,1,0,4,24,33580,176,65700,0,0,0,0,0
i,0x00000000,1716791820.294659,10.0.2.15,22,10.0.2.2,55451,1073725440,17414,0,65535,65700,0,0,4,1460,1,0,4,24,33580,176,65700,0,176,0,0,0
i,0x00000000,1716791820.295916,10.0.2.15,22,10.0.2.2,55451,1073725440,17590,0,65535,65700,0,0,4,1460,1,0,4,24,33580,0,65700,0,0,0,0,0
i,0x00000000,1716791820.295920,10.0.2.15,22,10.0.2.2,55451,1073725440,17590,0,65535,65700,0,0,4,1460,1,0,4,24,33580,0,65700,36,0,0,0,0
o,0x00000000,1716791820.295922,10.0.2.15,22,10.0.2.2,55451,1073725440,17590,0,65535,65700,0,0,4,1460,1,0,5,24,33580,0,65700,96,0,0,0,0
i,0x00000000,1716791820.295999,10.0.2.15,22,10.0.2.2,55451,1073725440,17590,0,65535,65700,0,0,4,1460,1,0,4,24,33580,0,65700,96,0,0,0,0
o,0x00000000,1716791820.296002,10.0.2.15,22,10.0.2.2,55451,1073725440,17590,0,65535,65604,0,0,5,1460,1,0,7,24,33580,0,65700,96,0,0,0,0
o,0x00000000,1716791820.296687,10.0.2.15,22,10.0.2.2,55451,1073725440,17590,0,65535,65604,0,0,8,1460,1,0,4,24,33580,0,65700,0,0,0,0,0
i,0x00000000,1716791820.297256,10.0.2.15,22,10.0.2.2,55451,1073725440,17590,0,65535,65604,0,0,8,1460,1,0,20,24,33580,0,65700,0,1,0,0,0
i,0x00000000,1716791822.460380,10.0.2.15,22,10.0.2.2,55456,1073725440,14600,0,65535,65700,0,0,4,1460,1,0,0,27,33580,0,65700,0,0,0,0,0
o,0x00000000,1716791822.466907,10.0.2.15,22,10.0.2.2,55456,1073725440,14600,0,65535,65700,0,0,4,1460,1,0,0,27,33580,38,65700,41,0,0,0,0
i,0x00000000,1716791822.467533,10.0.2.15,22,10.0.2.2,55456,1073725440,14600,0,65535,65700,0,0,4,1460,1,0,0,27,33580,38,65700,0,38,0,0,0
i,0x00000000,1716791822.468176,10.0.2.15,22,10.0.2.2,55456,1073725440,14638,0,65535,65700,0,0,4,1460,1,0,0,24,33580,0,65700,0,0,0,0,0
i,0x00000000,1716791822.468180,10.0.2.15,22,10.0.2.2,55456,1073725440,14638,0,65535,65700,0,0,4,1460,1,0,0,24,33580,0,65700,1460,0,0,0,0
o,0x00000000,1716791822.468184,10.0.2.15,22,10.0.2.2,55456,1073725440,14638,0,65535,65700,0,0,4,1460,1,0,1,24,33580,0,65700,1536,0,0,0,0
o,0x00000000,1716791822.469406,10.0.2.15,22,10.0.2.2,55456,1073725440,14638,0,65535,65700,0,0,4,1460,1,0,0,24,33580,1056,65700,1536,0,0,0,0
i,0x00000000,1716791822.469827,10.0.2.15,22,10.0.2.2,55456,1073725440,14638,0,65535,65700,0,0,4,1460,1,0,0,24,33580,1056,65700,1536,1056,0,0,0
i,0x00000000,1716791822.471560,10.0.2.15,22,10.0.2.2,55456,1073725440,15694,0,65535,65700,0,0,4,1460,1,0,0,24,33580,0,65700,0,0,0,0,0
o,0x00000000,1716791822.474677,10.0.2.15,22,10.0.2.2,55456,1073725440,15694,0,65535,65700,0,0,4,1460,1,0,0,24,33580,484,65700,0,0,0,0,0
i,0x00000000,1716791822.475699,10.0.2.15,22,10.0.2.2,55456,1073725440,15694,0,65535,65700,0,0,4,1460,1,0,0,24,33580,484,65700,0,484,0,0,0
i,0x00000000,1716791822.480597,10.0.2.15,22,10.0.2.2,55456,1073725440,16178,0,65535,65700,0,0,4,1460,1,0,0,24,33580,0,65700,0,0,0,0,0
i,0x00000000,1716791822.484792,10.0.2.15,22,10.0.2.2,55456,1073725440,16178,0,65535,65700,0,0,4,1460,1,0,0,24,33580,0,65700,0,0,0,0,0
o,0x00000000,1716791822.484798,10.0.2.15,22,10.0.2.2,55456,1073725440,16178,0,65535,65700,0,0,4,1460,1,0,1,24,33580,0,65700,44,0,0,0,0
o,0x00000000,1716791822.484956,10.0.2.15,22,10.0.2.2,55456,1073725440,16178,0,65535,65700,0,0,4,1460,1,0,0,24,33580,44,65700,0,0,0,0,0
i,0x00000000,1716791822.485715,10.0.2.15,22,10.0.2.2,55456,1073725440,16178,0,65535,65700,0,0,4,1460,1,0,0,24,33580,44,65700,0,44,0,0,0
i,0x00000000,1716791822.485718,10.0.2.15,22,10.0.2.2,55456,1073725440,16222,0,65535,65700,0,0,4,1460,1,0,0,24,33580,0,65700,0,0,0,0,0
o,0x00000000,1716791822.496152,10.0.2.15,22,10.0.2.2,55456,1073725440,16222,0,65535,65700,0,0,4,1460,1,0,0,24,33580,68,65700,0,0,0,0,0
i,0x00000000,1716791822.497283,10.0.2.15,22,10.0.2.2,55456,1073725440,16222,0,65535,65700,0,0,4,1460,1,0,0,24,33580,68,65700,0,68,0,0,0
i,0x00000000,1716791822.501298,10.0.2.15,22,10.0.2.2,55456,1073725440,16290,0,65535,65700,0,0,4,1460,1,0,0,24,33580,0,65700,0,0,0,0,0
o,0x00000000,1716791822.511067,10.0.2.15,22,10.0.2.2,55456,1073725440,16290,0,65535,65700,0,0,4,1460,1,0,0,24,33580,28,65700,0,0,0,0,0
i,0x00000000,1716791822.511804,10.0.2.15,22,10.0.2.2,55456,1073725440,16290,0,65535,65700,0,0,4,1460,1,0,0,24,33580,28,65700,0,28,0,0,0
i,0x00000000,1716791822.512124,10.0.2.15,22,10.0.2.2,55456,1073725440,16318,0,65535,65700,0,0,4,1460,1,0,0,24,33580,0,65700,0,0,0,0,0
o,0x00000000,1716791822.513559,10.0.2.15,22,10.0.2.2,55456,1073725440,16318,0,65535,65700,0,0,4,1460,1,0,0,24,33580,768,65700,112,0,0,0,0
i,0x00000000,1716791822.513998,10.0.2.15,22,10.0.2.2,55456,1073725440,16318,0,65535,65700,0,0,4,1460,1,0,0,24,33580,768,65700,112,768,0,0,0
o,0x00000000,1716791822.514120,10.0.2.15,22,10.0.2.2,55456,1073725440,17086,0,65535,65700,0,0,4,1460,1,0,0,24,33580,44,65700,0,0,0,0,0
i,0x00000000,1716791822.514625,10.0.2.15,22,10.0.2.2,55456,1073725440,17086,0,65535,65700,0,0,4,1460,1,0,0,24,33580,44,65700,0,44,0,0,0
i,0x00000000,1716791822.515662,10.0.2.15,22,10.0.2.2,55456,1073725440,17130,0,65535,65700,0,0,4,1460,1,0,0,24,33580,0,65700,0,0,0,0,0
o,0x00000000,1716791822.516530,10.0.2.15,22,10.0.2.2,55456,1073725440,17130,0,65535,65700,0,0,4,1460,1,0,4,24,33580,72,65700,0,0,0,0,0
i,0x00000000,1716791822.517337,10.0.2.15,22,10.0.2.2,55456,1073725440,17130,0,65535,65700,0,0,4,1460,1,0,4,24,33580,72,65700,0,72,0,0,0
o,0x00000000,1716791822.521001,10.0.2.15,22,10.0.2.2,55456,1073725440,17202,0,65535,65700,0,0,4,1460,1,0,4,24,33580,44,65700,0,0,0,0,0
i,0x00000000,1716791822.521453,10.0.2.15,22,10.0.2.2,55456,1073725440,17202,0,65535,65700,0,0,4,1460,1,0,4,24,33580,44,65700,0,44,0,0,0
o,0x00000000,1716791822.521955,10.0.2.15,22,10.0.2.2,55456,1073725440,17246,0,65535,65700,0,0,4,1460,1,0,4,24,33580,44,65700,0,0,0,0,0
i,0x00000000,1716791822.522372,10.0.2.15,22,10.0.2.2,55456,1073725440,17246,0,65535,65700,0,0,4,1460,1,0,4,24,33580,44,65700,0,44,0,0,0
o,0x00000000,1716791822.524612,10.0.2.15,22,10.0.2.2,55456,1073725440,17290,0,65535,65700,0,0,4,1460,1,0,4,24,33580,176,65700,0,0,0,0,0
i,0x00000000,1716791822.525056,10.0.2.15,22,10.0.2.2,55456,1073725440,17290,0,65535,65700,0,0,4,1460,1,0,4,24,33580,176,65700,0,176,0,0,0
i,0x00000000,1716791822.525783,10.0.2.15,22,10.0.2.2,55456,1073725440,17466,0,65535,65700,0,0,4,1460,1,0,4,24,33580,0,65700,0,0,0,0,0
i,0x00000000,1716791822.525786,10.0.2.15,22,10.0.2.2,55456,1073725440,17466,0,65535,65700,0,0,4,1460,1,0,4,24,33580,0,65700,36,0,0,0,0
o,0x00000000,1716791822.525788,10.0.2.15,22,10.0.2.2,55456,1073725440,17466,0,65535,65700,0,0,4,1460,1,0,5,24,33580,0,65700,96,0,0,0,0
i,0x00000000,1716791822.525866,10.0.2.15,22,10.0.2.2,55456,1073725440,17466,0,65535,65700,0,0,4,1460,1,0,4,24,33580,0,65700,96,0,0,0,0
o,0x00000000,1716791822.525869,10.0.2.15,22,10.0.2.2,55456,1073725440,17466,0,65535,65604,0,0,5,1460,1,0,7,24,33580,0,65700,96,0,0,0,0
o,0x00000000,1716791822.531386,10.0.2.15,22,10.0.2.2,55456,1073725440,17466,0,65535,65604,0,0,8,1460,1,0,4,24,33580,0,65700,0,0,0,0,0
i,0x00000000,1716791822.531927,10.0.2.15,22,10.0.2.2,55456,1073725440,17466,0,65535,65604,0,0,8,1460,1,0,20,24,33580,0,65700,0,1,0,0,0
i,0x00000000,1716791823.601208,10.0.2.15,22,10.0.2.2,55459,1073725440,14600,0,65535,65700,0,0,4,1460,1,0,0,27,33580,0,65700,0,0,0,0,0
o,0x00000000,1716791823.610103,10.0.2.15,22,10.0.2.2,55459,1073725440,14600,0,65535,65700,0,0,4,1460,1,0,0,27,33580,38,65700,41,0,0,0,0
i,0x00000000,1716791823.611042,10.0.2.15,22,10.0.2.2,55459,1073725440,14600,0,65535,65700,0,0,4,1460,1,0,0,27,33580,38,65700,0,38,0,0,0
i,0x00000000,1716791823.611830,10.0.2.15,22,10.0.2.2,55459,1073725440,14638,0,65535,65700,0,0,4,1460,1,0,0,24,33580,0,65700,0,0,0,0,0
i,0x00000000,1716791823.611835,10.0.2.15,22,10.0.2.2,55459,1073725440,14638,0,65535,65700,0,0,4,1460,1,0,0,24,33580,0,65700,1460,0,0,0,0
o,0x00000000,1716791823.611838,10.0.2.15,22,10.0.2.2,55459,1073725440,14638,0,65535,65700,0,0,4,1460,1,0,1,24,33580,0,65700,1536,0,0,0,0
o,0x00000000,1716791823.612819,10.0.2.15,22,10.0.2.2,55459,1073725440,14638,0,65535,65700,0,0,4,1460,1,0,0,24,33580,1056,65700,1536,0,0,0,0
i,0x00000000,1716791823.613524,10.0.2.15,22,10.0.2.2,55459,1073725440,14638,0,65535,65700,0,0,4,1460,1,0,0,24,33580,1056,65700,1536,1056,0,0,0
i,0x00000000,1716791823.615385,10.0.2.15,22,10.0.2.2,55459,1073725440,15694,0,65535,65700,0,0,4,1460,1,0,0,24,33580,0,65700,0,0,0,0,0
o,0x00000000,1716791823.617827,10.0.2.15,22,10.0.2.2,55459,1073725440,15694,0,65535,65700,0,0,4,1460,1,0,0,24,33580,484,65700,0,0,0,0,0
i,0x00000000,1716791823.618530,10.0.2.15,22,10.0.2.2,55459,1073725440,15694,0,65535,65700,0,0,4,1460,1,0,0,24,33580,484,65700,0,484,0,0,0
i,0x00000000,1716791823.623185,10.0.2.15,22,10.0.2.2,55459,1073725440,16178,0,65535,65700,0,0,4,1460,1,0,0,24,33580,0,65700,0,0,0,0,0
i,0x00000000,1716791823.627823,10.0.2.15,22,10.0.2.2,55459,1073725440,16178,0,65535,65700,0,0,4,1460,1,0,0,24,33580,0,65700,0,0,0,0,0
o,0x00000000,1716791823.627828,10.0.2.15,22,10.0.2.2,55459,1073725440,16178,0,65535,65700,0,0,4,1460,1,0,1,24,33580,0,65700,44,0,0,0,0
o,0x00000000,1716791823.627987,10.0.2.15,22,10.0.2.2,55459,1073725440,16178,0,65535,65700,0,0,4,1460,1,0,0,24,33580,44,65700,0,0,0,0,0
i,0x00000000,1716791823.628637,10.0.2.15,22,10.0.2.2,55459,1073725440,16178,0,65535,65700,0,0,4,1460,1,0,0,24,33580,44,65700,0,44,0,0,0
i,0x00000000,1716791823.628980,10.0.2.15,22,10.0.2.2,55459,1073725440,16222,0,65535,65700,0,0,4,1460,1,0,0,24,33580,0,65700,0,0,0,0,0
o,0x00000000,1716791823.637867,10.0.2.15,22,10.0.2.2,55459,1073725440,16222,0,65535,65700,0,0,4,1460,1,0,0,24,33580,68,65700,0,0,0,0,0
i,0x00000000,1716791823.638401,10.0.2.15,22,10.0.2.2,55459,1073725440,16222,0,65535,65700,0,0,4,1460,1,0,0,24,33580,68,65700,0,68,0,0,0
i,0x00000000,1716791823.640852,10.0.2.15,22,10.0.2.2,55459,1073725440,16290,0,65535,65700,0,0,4,1460,1,0,0,24,33580,0,65700,0,0,0,0,0
o,0x00000000,1716791823.650325,10.0.2.15,22,10.0.2.2,55459,1073725440,16290,0,65535,65700,0,0,4,1460,1,0,0,24,33580,28,65700,0,0,0,0,0
i,0x00000000,1716791823.650977,10.0.2.15,22,10.0.2.2,55459,1073725440,16290,0,65535,65700,0,0,4,1460,1,0,0,24,33580,28,65700,0,28,0,0,0
i,0x00000000,1716791823.651396,10.0.2.15,22,10.0.2.2,55459,1073725440,16318,0,65535,65700,0,0,4,1460,1,0,0,24,33580,0,65700,0,0,0,0,0
o,0x00000000,1716791823.652378,10.0.2.15,22,10.0.2.2,55459,1073725440,16318,0,65535,65700,0,0,4,1460,1,0,0,24,33580,768,65700,112,0,0,0,0
i,0x00000000,1716791823.653038,10.0.2.15,22,10.0.2.2,55459,1073725440,16318,0,65535,65700,0,0,4,1460,1,0,0,24,33580,768,65700,112,768,0,0,0
o,0x00000000,1716791823.653188,10.0.2.15,22,10.0.2.2,55459,1073725440,17086,0,65535,65700,0,0,4,1460,1,0,0,24,33580,44,65700,0,0,0,0,0
i,0x00000000,1716791823.653877,10.0.2.15,22,10.0.2.2,55459,1073725440,17086,0,65535,65700,0,0,4,1460,1,0,0,24,33580,44,65700,0,44,0,0,0
i,0x00000000,1716791823.654535,10.0.2.15,22,10.0.2.2,55459,1073725440,17130,0,65535,65700,0,0,4,1460,1,0,0,24,33580,0,65700,0,0,0,0,0
o,0x00000000,1716791823.654970,10.0.2.15,22,10.0.2.2,55459,1073725440,17130,0,65535,65700,0,0,4,1460,1,0,4,24,33580,72,65700,0,0,0,0,0
i,0x00000000,1716791823.656179,10.0.2.15,22,10.0.2.2,55459,1073725440,17130,0,65535,65700,0,0,4,1460,1,0,4,24,33580,72,65700,0,72,0,0,0
i,0x00000000,1716791823.656183,10.0.2.15,22,10.0.2.2,55459,1073725440,17202,0,65535,65700,0,0,4,1460,1,0,4,24,33580,0,65700,0,0,0,0,0
o,0x00000000,1716791823.660998,172.16.1.2,15630,172.16.3.2,5101,1073725440,1073725440,0,0,0,0,0,2,536,0,1,672,100,32768,0,65536,0,0,0,0,0
o,0x00000000,1716791823.695498,10.0.2.15,22,10.0.2.2,55459,1073725440,17202,0,65535,65700,0,0,4,1460,1,0,5,24,33580,0,65700,0,0,0,0,0
i,0x00000000,1716791823.776011,172.16.1.2,15630,172.16.3.2,5101,1073725440,1073725440,0,0,0,0,0,2,536,0,1,672,100,32768,0,65536,0,1,0,0,0
o,0x00000000,1716791823.776034,172.16.1.2,15630,172.16.3.2,5101,31083,14480,0,65535,65700,6,6,4,1460,774,1,993,102,33580,0,65700,0,0,0,0,0
o,0x00000000,1716791823.776448,172.16.1.2,15630,172.16.3.2,5101,31083,14480,0,65535,65700,6,6,4,1460,774,1,996,102,33580,37,65700,0,0,0,0,0
i,0x00000000,1716791823.895969,172.16.1.2,15630,172.16.3.2,5101,31083,14480,0,65535,65700,6,6,4,1460,774,1,996,102,33580,37,65700,0,37,0,0,0
o,0x00000000,1716791823.896234,172.16.1.2,15630,172.16.3.2,5101,31083,14517,0,65728,65728,6,6,4,1460,726,1,996,98,33580,4,65700,0,0,0,0,0
o,0x00000000,1716791823.896752,172.16.1.2,15630,172.16.3.2,5101,31083,14517,0,65728,65728,6,6,4,1460,726,1,996,98,33580,128,65700,0,4,0,0,0
i,0x00000000,1716791824.015766,172.16.1.2,15630,172.16.3.2,5101,31083,14517,0,65728,65728,6,6,4,1460,726,1,996,98,33580,128,65700,0,128,0,0,0
i,0x00000000,1716791824.015781,172.16.1.2,15630,172.16.3.2,5101,31083,14645,0,65600,65728,6,6,4,1460,684,1,996,93,33580,0,65700,0,0,0,0,0
o,0x00000000,1716791824.015954,172.16.1.2,57521,172.16.3.2,5101,1073725440,1073725440,0,0,0,0,0,2,536,0,1,672,100,32768,0,65536,0,0,0,0,0
o,0x00000000,1716791824.056494,172.16.1.2,15630,172.16.3.2,5101,31083,14645,0,65728,65728,6,6,4,1460,684,1,997,93,33580,0,65700,0,0,0,0,0
i,0x00000000,1716791824.136242,172.16.1.2,57521,172.16.3.2,5101,1073725440,1073725440,0,0,0,0,0,2,536,0,1,672,100,32768,0,65536,0,1,0,0,0
o,0x00000000,1716791824.136263,172.16.1.2,57521,172.16.3.2,5101,31083,14480,0,65535,65700,6,6,4,1460,774,1,993,102,33580,0,65700,0,0,0,0,0
o,0x00000000,1716791824.136437,172.16.1.2,57521,172.16.3.2,5101,31083,14480,0,65535,65700,6,6,4,1460,774,1,992,102,33580,37,65700,0,0,0,0,0
i,0x00000000,1716791824.255717,172.16.1.2,15630,172.16.3.2,5101,31083,14645,0,65728,65728,6,6,4,1460,684,1,996,93,33580,0,65700,0,0,0,0,0
i,0x00000000,1716791824.255752,172.16.1.2,15630,172.16.3.2,5101,31083,14645,0,65728,65728,6,6,4,1460,684,1,996,93,33580,0,65700,1,0,0,0,0
o,0x00000000,1716791824.255760,172.16.1.2,15630,172.16.3.2,5101,31083,14645,0,65728,65728,6,6,4,1460,684,1,997,93,33580,0,65700,2,0,0,0,0
o,0x00000000,1716791824.256114,172.16.1.2,57521,172.16.3.2,5101,31083,14480,0,65535,65700,6,6,4,1460,774,1,992,102,33580,33580,65700,0,37,0,0,0
o,0x00000000,1716791824.256851,172.16.1.2,57521,172.16.3.2,5101,31083,14480,0,65535,65700,6,6,4,1460,774,1,992,102,33580,33580,65700,0,1485,0,0,0
o,0x00000000,1716791824.257230,172.16.1.2,57521,172.16.3.2,5101,31083,14480,0,65535,65700,6,6,4,1460,774,1,992,102,33580,33580,65700,0,2933,0,0,0
o,0x00000000,1716791824.257580,172.16.1.2,57521,172.16.3.2,5101,31083,14480,0,65535,65700,6,6,4,1460,774,1,992,102,33580,33580,65700,0,4381,0,0,0
o,0x00000000,1716791824.257949,172.16.1.2,57521,172.16.3.2,5101,31083,14480,0,65535,65700,6,6,4,1460,774,1,992,102,33580,33580,65700,0,5829,0,0,0
o,0x00000000,1716791824.258292,172.16.1.2,57521,172.16.3.2,5101,31083,14480,0,65535,65700,6,6,4,1460,774,1,992,102,33580,33580,65700,0,7277,0,0,0
o,0x00000000,1716791824.258690,172.16.1.2,57521,172.16.3.2,5101,31083,14480,0,65535,65700,6,6,4,1460,774,1,992,102,33580,33580,65700,0,8725,0,0,0
o,0x00000000,1716791824.259107,172.16.1.2,57521,172.16.3.2,5101,31083,14480,0,65535,65700,6,6,4,1460,774,1,992,102,33580,33580,65700,0,10173,0,0,0
o,0x00000000,1716791824.259438,172.16.1.2,57521,172.16.3.2,5101,31083,14480,0,65535,65700,6,6,4,1460,774,1,992,102,33580,33580,65700,0,11621,0,0,0
i,0x00000000,1716791824.285604,172.16.1.2,57521,172.16.3.2,5101,31083,14480,0,65535,65700,6,6,4,1460,774,1,992,102,33580,33580,65700,0,13069,0,0,0
o,0x00000000,1716791824.285619,172.16.1.2,57521,172.16.3.2,5101,31083,14517,0,65728,65728,6,6,4,1460,738,1,992,95,33580,33543,65700,0,13032,0,0,0
i,0x00000000,1716791824.555033,172.16.1.2,57521,172.16.3.2,5101,31083,14517,0,65728,65728,6,6,4,1460,738,1,992,95,33580,33543,65700,0,14480,0,0,0
o,0x00000000,1716791824.555064,172.16.1.2,57521,172.16.3.2,5101,31083,17413,0,64256,65728,6,6,4,1460,762,1,992,89,33580,30647,65700,0,11584,0,0,0
o,0x00000000,1716791824.555446,172.16.1.2,57521,172.16.3.2,5101,31083,17413,0,64256,65728,6,6,4,1460,762,1,992,89,33580,30647,65700,0,13032,0,0,0
o,0x00000000,1716791824.555527,172.16.1.2,57521,172.16.3.2,5101,31083,17413,0,64256,65728,6,6,4,1460,762,1,992,89,41772,30647,65700,0,14480,0,0,0
o,0x00000000,1716791824.555606,172.16.1.2,57521,172.16.3.2,5101,31083,17413,0,64256,65728,6,6,4,1460,762,1,992,89,41772,30647,65700,0,15928,0,0,0
i,0x00000000,1716791824.555685,172.16.1.2,57521,172.16.3.2,5101,31083,17413,0,64256,65728,6,6,4,1460,762,1,992,89,41772,30647,65700,0,17376,0,0,0
o,0x00000000,1716791824.555689,172.16.1.2,57521,172.16.3.2,5101,31083,20309,0,64256,65728,6,6,4,1460,787,1,992,85,41772,27751,65700,0,14480,0,0,0
o,0x00000000,1716791824.555768,172.16.1.2,57521,172.16.3.2,5101,31083,20309,0,64256,65728,6,6,4,1460,787,1,992,85,41772,27751,65700,0,15928,0,0,0
o,0x00000000,1716791824.555848,172.16.1.2,57521,172.16.3.2,5101,31083,20309,0,64256,65728,6,6,4,1460,787,1,992,85,41772,27751,65700,0,17376,0,0,0
o,0x00000000,1716791824.555934,172.16.1.2,57521,172.16.3.2,5101,31083,20309,0,64256,65728,6,6,4,1460,787,1,992,85,41772,27751,65700,0,18824,0,0,0
i,0x00000000,1716791824.556237,172.16.1.2,57521,172.16.3.2,5101,31083,20309,0,64256,65728,6,6,4,1460,787,1,992,85,41772,27751,65700,0,20272,0,0,0
o,0x00000000,1716791824.556240,172.16.1.2,57521,172.16.3.2,5101,31083,23205,0,64256,65728,6,6,4,1460,809,1,992,81,41772,24855,65700,0,17376,0,0,0
o,0x00000000,1716791824.556327,172.16.1.2,57521,172.16.3.2,5101,31083,23205,0,64256,65728,6,6,4,1460,809,1,992,81,41772,24855,65700,0,18824,0,0,0
o,0x00000000,1716791824.556404,172.16.1.2,57521,172.16.3.2,5101,31083,23205,0,64256,65728,6,6,4,1460,809,1,992,81,41772,24855,65700,0,20272,0,0,0
o,0x00000000,1716791824.556481,172.16.1.2,57521,172.16.3.2,5101,31083,23205,0,64256,65728,6,6,4,1460,809,1,992,81,41772,24855,65700,0,21720,0,0,0
i,0x00000000,1716791824.556557,172.16.1.2,57521,172.16.3.2,5101,31083,23205,0,64256,65728,6,6,4,1460,809,1,992,81,41772,24855,65700,0,23168,0,0,0
o,0x00000000,1716791824.556560,172.16.1.2,57521,172.16.3.2,5101,31083,26101,0,64256,65728,6,6,4,1460,828,1,992,77,41772,21959,65700,0,20272,0,0,0
o,0x00000000,1716791824.556979,172.16.1.2,57521,172.16.3.2,5101,31083,26101,0,64256,65728,6,6,4,1460,828,1,992,77,49964,41772,65700,0,21720,0,0,0
o,0x00000000,1716791824.557374,172.16.1.2,57521,172.16.3.2,5101,31083,26101,0,64256,65728,6,6,4,1460,828,1,992,77,49964,41772,65700,0,23168,0,0,0
o,0x00000000,1716791824.557708,172.16.1.2,57521,172.16.3.2,5101,31083,26101,0,64256,65728,6,6,4,1460,828,1,992,77,49964,41772,65700,0,24616,0,0,0
i,0x00000000,1716791824.585343,172.16.1.2,57521,172.16.3.2,5101,31083,26101,0,64256,65728,6,6,4,1460,828,1,992,77,58156,58156,65700,0,26064,0,0,0
o,0x00000000,1716791824.585360,172.16.1.2,57521,172.16.3.2,5101,31083,28997,0,64256,65728,6,6,4,1460,857,1,992,78,58156,55260,65700,0,23168,0,0,0
o,0x00000000,1716791824.585643,172.16.1.2,57521,172.16.3.2,5101,31083,28997,0,64256,65728,6,6,4,1460,857,1,992,78,58156,55260,65700,0,24616,0,0,0
o,0x00000000,1716791824.585902,172.16.1.2,57521,172.16.3.2,5101,31083,28997,0,64256,65728,6,6,4,1460,857,1,992,78,58156,55260,65700,0,26064,0,0,0
o,0x00000000,1716791824.586157,172.16.1.2,57521,172.16.3.2,5101,31083,28997,0,64256,65728,6,6,4,1460,857,1,992,78,66348,55260,65700,0,27512,0,0,0
i,0x00000000,1716791825.095693,172.16.1.2,57521,172.16.3.2,5101,31083,28997,0,64256,65728,6,6,4,1460,857,1,992,78,66348,66348,65700,0,28960,0,0,0
o,0x00000000,1716791825.095714,172.16.1.2,57521,172.16.3.2,5101,31083,31893,0,64256,65728,6,6,4,1460,970,1,992,102,66348,63452,65700,0,26064,0,0,0
o,0x00000000,1716791825.095831,172.16.1.2,57521,172.16.3.2,5101,31083,31893,0,64256,65728,6,6,4,1460,970,1,992,102,66348,63452,65700,0,27512,0,0,0
o,0x00000000,1716791825.095920,172.16.1.2,57521,172.16.3.2,5101,31083,31893,0,64256,65728,6,6,4,1460,970,1,992,102,66348,63452,65700,0,28960,0,0,0
o,0x00000000,1716791825.096015,172.16.1.2,57521,172.16.3.2,5101,31083,31893,0,64256,65728,6,6,4,1460,970,1,992,102,66348,63452,65700,0,30408,0,0,0
i,0x00000000,1716791825.096114,172.16.1.2,57521,172.16.3.2,5101,31083,31893,0,64256,65728,6,6,4,1460,970,1,992,102,74540,63452,65700,0,31856,0,0,0
o,0x00000000,1716791825.096117,172.16.1.2,57521,172.16.3.2,5101,31083,31893,0,64256,65728,6,6,4,1460,1065,1,992,116,74540,60556,65700,0,28960,0,0,0
o,0x00000000,1716791825.096195,172.16.1.2,57521,172.16.3.2,5101,31083,31893,0,64256,65728,6,6,4,1460,1065,1,992,116,74540,60556,65700,0,30408,0,0,0
i,0x00000000,1716791825.096277,172.16.1.2,57521,172.16.3.2,5101,31083,31893,0,64256,65728,6,6,4,1460,1065,1,992,116,74540,60556,65700,0,31856,0,0,0
o,0x00000000,1716791825.096280,172.16.1.2,57521,172.16.3.2,5101,31083,31893,0,64256,65728,6,6,4,1460,1148,1,992,123,74540,57660,65700,0,28960,0,0,0
o,0x00000000,1716791825.096369,172.16.1.2,57521,172.16.3.2,5101,31083,31893,0,64256,65728,6,6,4,1460,1148,1,992,123,74540,57660,65700,0,30408,0,0,0
i,0x00000000,1716791825.096465,172.16.1.2,57521,172.16.3.2,5101,31083,31893,0,64256,65728,6,6,4,1460,1148,1,992,123,74540,57660,65700,0,31856,0,0,0
o,0x00000000,1716791825.096467,172.16.1.2,57521,172.16.3.2,5101,31083,31893,0,64256,65728,6,6,4,1460,1221,1,992,127,74540,54764,65700,0,28960,0,0,0
o,0x00000000,1716791825.096542,172.16.1.2,57521,172.16.3.2,5101,31083,31893,0,64256,65728,6,6,4,1460,1221,1,992,127,74540,54764,65700,0,30408,0,0,0
i,0x00000000,1716791825.096839,172.16.1.2,57521,172.16.3.2,5101,31083,31893,0,64256,65728,6,6,4,1460,1221,1,992,127,74540,54764,65700,0,31856,0,0,0
o,0x00000000,1716791825.096842,172.16.1.2,57521,172.16.3.2,5101,31083,31893,0,64256,65728,6,6,4,1460,1285,1,992,128,74540,51868,65700,0,28960,0,0,0
o,0x00000000,1716791825.096924,172.16.1.2,57521,172.16.3.2,5101,31083,31893,0,64256,65728,6,6,4,1460,1285,1,992,128,74540,51868,65700,0,30408,0,0,0
i,0x00000000,1716791825.097005,172.16.1.2,57521,172.16.3.2,5101,31083,31893,0,64256,65728,6,6,4,1460,1285,1,992,128,74540,51868,65700,0,31856,0,0,0
o,0x00000000,1716791825.097007,172.16.1.2,57521,172.16.3.2,5101,31083,31893,0,64256,65728,6,6,4,1460,1341,1,992,126,74540,48972,65700,0,28960,0,0,0
o,0x00000000,1716791825.097083,172.16.1.2,57521,172.16.3.2,5101,31083,31893,0,64256,65728,6,6,4,1460,1341,1,992,126,74540,48972,65700,0,30408,0,0,0
i,0x00000000,1716791825.097158,172.16.1.2,57521,172.16.3.2,5101,31083,31893,0,64256,65728,6,6,4,1460,1341,1,992,126,74540,48972,65700,0,31856,0,0,0
o,0x00000000,1716791825.097162,172.16.1.2,57521,172.16.3.2,5101,31083,31893,0,64256,65728,6,6,4,1460,1390,1,992,124,74540,46076,65700,0,28960,0,0,0
o,0x00000000,1716791825.097249,172.16.1.2,57521,172.16.3.2,5101,31083,31893,0,64256,65728,6,6,4,1460,1390,1,992,124,74540,46076,65700,0,30408,0,0,0
i,0x00000000,1716791825.097334,172.16.1.2,57521,172.16.3.2,5101,31083,31893,0,64256,65728,6,6,4,1460,1390,1,992,124,74540,46076,65700,0,31856,0,0,0
o,0x00000000,1716791825.097337,172.16.1.2,57521,172.16.3.2,5101,31083,31893,0,64256,65728,6,6,4,1460,1433,1,992,121,74540,43180,65700,0,28960,0,0,0
o,0x00000000,1716791825.097439,172.16.1.2,57521,172.16.3.2,5101,31083,31893,0,64256,65728,6,6,4,1460,1433,1,992,121,74540,43180,65700,0,30408,0,0,0
i,0x00000000,1716791825.097534,172.16.1.2,57521,172.16.3.2,5101,31083,31893,0,64256,65728,6,6,4,1460,1433,1,992,121,74540,43180,65700,0,31856,0,0,0
o,0x00000000,1716791825.097537,172.16.1.2,57521,172.16.3.2,5101,31083,31893,0,64256,65728,6,6,4,1460,1458,1,992,114,74540,40284,65700,0,28960,0,0,0
o,0x00000000,1716791825.097642,172.16.1.2,57521,172.16.3.2,5101,31083,31893,0,64256,65728,6,6,4,1460,1458,1,992,114,74540,40284,65700,0,30408,0,0,0
i,0x00000000,1716791825.126546,172.16.1.2,57521,172.16.3.2,5101,31083,31893,0,64256,65728,6,6,4,1460,1458,1,992,114,74540,74540,65700,0,31856,0,0,0
o,0x00000000,1716791825.126564,172.16.1.2,57521,172.16.3.2,5101,31083,31893,0,64256,65728,6,6,4,1460,1492,1,992,111,74540,71644,65700,0,28960,0,0,0
o,0x00000000,1716791825.126830,172.16.1.2,57521,172.16.3.2,5101,31083,31893,0,64256,65728,6,6,4,1460,1492,1,992,111,74540,71644,65700,0,30408,0,0,0
i,0x00000000,1716791825.676719,172.16.1.2,57521,172.16.3.2,5101,31083,31893,0,64256,65728,6,6,4,1460,1492,1,992,111,74540,74540,65700,0,31856,0,0,0
o,0x00000000,1716791825.676742,172.16.1.2,57521,172.16.3.2,5101,31083,31893,0,64256,65728,6,6,4,1460,1538,1,992,113,74540,71644,65700,0,28960,0,0,0
o,0x00000000,1716791825.676864,172.16.1.2,57521,172.16.3.2,5101,31083,31893,0,64256,65728,6,6,4,1460,1538,1,992,113,74540,71644,65700,0,30408,0,0,0
i,0x00000000,1716791825.676948,172.16.1.2,57521,172.16.3.2,5101,31083,31893,0,64256,65728,6,6,4,1460,1538,1,992,113,74540,71644,65700,0,31856,0,0,0
o,0x00000000,1716791825.676951,172.16.1.2,57521,172.16.3.2,5101,31083,31893,0,64256,65728,6,6,4,1460,1578,1,992,113,74540,68748,65700,0,28960,0,0,0
o,0x00000000,1716791825.677042,172.16.1.2,57521,172.16.3.2,5101,31083,31893,0,64256,65728,6,6,4,1460,1578,1,992,113,74540,68748,65700,0,30408,0,0,0
i,0x00000000,1716791825.677133,172.16.1.2,57521,172.16.3.2,5101,31083,31893,0,64256,65728,6,6,4,1460,1578,1,992,113,74540,68748,65700,0,31856,0,0,0
o,0x00000000,1716791825.677137,172.16.1.2,57521,172.16.3.2,5101,31083,33353,0,64256,65728,6,6,4,1460,1613,1,992,112,74540,65852,65700,0,28960,0,0,0
o,0x00000000,1716791825.677250,172.16.1.2,57521,172.16.3.2,5101,31083,33353,0,64256,65728,6,6,4,1460,1613,1,992,112,74540,65852,65700,0,30408,0,0,0
o,0x00000000,1716791825.677349,172.16.1.2,57521,172.16.3.2,5101,31083,33353,0,64256,65728,6,6,4,1460,1613,1,992,112,74540,65852,65700,0,31856,0,0,0
i,0x00000000,1716791825.677429,172.16.1.2,57521,172.16.3.2,5101,31083,33353,0,64256,65728,6,6,4,1460,1613,1,992,112,82732,65852,65700,0,33304,0,0,0
o,0x00000000,1716791825.677431,172.16.1.2,57521,172.16.3.2,5101,31083,33353,0,64256,65728,6,6,4,1460,1644,1,992,110,82732,62956,65700,0,30408,0,0,0
o,0x00000000,1716791825.677505,172.16.1.2,57521,172.16.3.2,5101,31083,33353,0,64256,65728,6,6,4,1460,1644,1,992,110,82732,62956,65700,0,31856,0,0,0
i,0x00000000,1716791825.677793,172.16.1.2,57521,172.16.3.2,5101,31083,33353,0,64256,65728,6,6,4,1460,1644,1,992,110,82732,62956,65700,0,33304,0,0,0
o,0x00000000,1716791825.677795,172.16.1.2,57521,172.16.3.2,5101,31083,33353,0,64256,65728,6,6,4,1460,1671,1,992,108,82732,60060,65700,0,30408,0,0,0
o,0x00000000,1716791825.677870,172.16.1.2,57521,172.16.3.2,5101,31083,33353,0,64256,65728,6,6,4,1460,1671,1,992,108,82732,60060,65700,0,31856,0,0,0
i,0x00000000,1716791825.677943,172.16.1.2,57521,172.16.3.2,5101,31083,33353,0,64256,65728,6,6,4,1460,1671,1,992,108,82732,60060,65700,0,33304,0,0,0
o,0x00000000,1716791825.677946,172.16.1.2,57521,172.16.3.2,5101,31083,33353,0,64256,65728,6,6,4,1460,1695,1,992,106,82732,57164,65700,0,30408,0,0,0
o,0x00000000,1716791825.678018,172.16.1.2,57521,172.16.3.2,5101,31083,33353,0,64256,65728,6,6,4,1460,1695,1,992,106,82732,57164,65700,0,31856,0,0,0
i,0x00000000,1716791825.678092,172.16.1.2,57521,172.16.3.2,5101,31083,33353,0,64256,65728,6,6,4,1460,1695,1,992,106,82732,57164,65700,0,33304,0,0,0
o,0x00000000,1716791825.678095,172.16.1.2,57521,172.16.3.2,5101,31083,33353,0,64256,65728,6,6,4,1460,1716,1,992,103,82732,54268,65700,0,30408,0,0,0
o,0x00000000,1716791825.678167,172.16.1.2,57521,172.16.3.2,5101,31083,33353,0,64256,65728,6,6,4,1460,1716,1,992,103,82732,54268,65700,0,31856,0,0,0
i,0x00000000,1716791825.678249,172.16.1.2,57521,172.16.3.2,5101,31083,33353,0,64256,65728,6,6,4,1460,1716,1,992,103,82732,54268,65700,0,33304,0,0,0
o,0x00000000,1716791825.678251,172.16.1.2,57521,172.16.3.2,5101,31083,33353,0,64256,65728,6,6,4,1460,1734,1,992,101,82732,51372,65700,0,30408,0,0,0
o,0x00000000,1716791825.678327,172.16.1.2,57521,172.16.3.2,5101,31083,33353,0,64256,65728,6,6,4,1460,1734,1,992,101,82732,51372,65700,0,31856,0,0,0
i,0x00000000,1716791825.678408,172.16.1.2,57521,172.16.3.2,5101,31083,33353,0,64256,65728,6,6,4,1460,1734,1,992,101,82732,51372,65700,0,33304,0,0,0
o,0x00000000,1716791825.678410,172.16.1.2,57521,172.16.3.2,5101,31083,33353,0,64256,65728,6,6,4,1460,1750,1,992,99,82732,48476,65700,0,30408,0,0,0
o,0x00000000,1716791825.678484,172.16.1.2,57521,172.16.3.2,5101,31083,33353,0,64256,65728,6,6,4,1460,1750,1,992,99,82732,48476,65700,0,31856,0,0,0
i,0x00000000,1716791825.678557,172.16.1.2,57521,172.16.3.2,5101,31083,33353,0,64256,65728,6,6,4,1460,1750,1,992,99,82732,48476,65700,0,33304,0,0,0
o,0x00000000,1716791825.678559,172.16.1.2,57521,172.16.3.2,5101,31083,33353,0,64256,65728,6,6,4,1460,1764,1,992,97,82732,45580,65700,0,30408,0,0,0
o,0x00000000,1716791825.678632,172.16.1.2,57521,172.16.3.2,5101,31083,33353,0,64256,65728,6,6,4,1460,1764,1,992,97,82732,45580,65700,0,31856,0,0,0
i,0x00000000,1716791825.706530,172.16.1.2,57521,172.16.3.2,5101,31083,33353,0,64256,65728,6,6,4,1460,1764,1,992,97,82732,82732,65700,0,33304,0,0,0
o,0x00000000,1716791825.706546,172.16.1.2,57521,172.16.3.2,5101,31083,33353,0,64256,65728,6,6,4,1460,1776,1,992,95,82732,79836,65700,0,30408,0,0,0
o,0x00000000,1716791825.706805,172.16.1.2,57521,172.16.3.2,5101,31083,33353,0,64256,65728,6,6,4,1460,1776,1,992,95,82732,79836,65700,0,31856,0,0,0
i,0x00000000,1716791826.276335,172.16.1.2,57521,172.16.3.2,5101,31083,33353,0,64256,65728,6,6,4,1460,1776,1,992,95,82732,82732,65700,0,33304,0,0,0
o,0x00000000,1716791826.276380,172.16.1.2,57521,172.16.3.2,5101,31083,33353,0,64256,65728,6,6,4,1460,1790,1,992,94,82732,79836,65700,0,30408,0,0,0
o,0x00000000,1716791826.276490,172.16.1.2,57521,172.16.3.2,5101,31083,33353,0,64256,65728,6,6,4,1460,1790,1,992,94,82732,79836,65700,0,31856,0,0,0
i,0x00000000,1716791826.276575,172.16.1.2,57521,172.16.3.2,5101,31083,33353,0,64256,65728,6,6,4,1460,1790,1,992,94,82732,79836,65700,0,33304,0,0,0
o,0x00000000,1716791826.276578,172.16.1.2,57521,172.16.3.2,5101,31083,33353,0,64256,65728,6,6,4,1460,1803,1,992,93,82732,76940,65700,0,30408,0,0,0
o,0x00000000,1716791826.276677,172.16.1.2,57521,172.16.3.2,5101,31083,33353,0,64256,65728,6,6,4,1460,1803,1,992,93,82732,76940,65700,0,31856,0,0,0
i,0x00000000,1716791826.276762,172.16.1.2,57521,172.16.3.2,5101,31083,33353,0,64256,65728,6,6,4,1460,1803,1,992,93,82732,76940,65700,0,33304,0,0,0
o,0x00000000,1716791826.276765,172.16.1.2,57521,172.16.3.2,5101,31083,34813,0,64256,65728,6,6,4,1460,1814,1,992,92,82732,74044,65700,0,30408,0,0,0
o,0x00000000,1716791826.276850,172.16.1.2,57521,172.16.3.2,5101,31083,34813,0,64256,65728,6,6,4,1460,1814,1,992,92,82732,74044,65700,0,31856,0,0,0
o,0x00000000,1716791826.276939,172.16.1.2,57521,172.16.3.2,5101,31083,34813,0,64256,65728,6,6,4,1460,1814,1,992,92,82732,74044,65700,0,33304,0,0,0
i,0x00000000,1716791826.277023,172.16.1.2,57521,172.16.3.2,5101,31083,34813,0,64256,65728,6,6,4,1460,1814,1,992,92,82732,74044,65700,0,34752,0,0,0
o,0x00000000,1716791826.277027,172.16.1.2,57521,172.16.3.2,5101,31083,34813,0,64256,65728,6,6,4,1460,1824,1,992,91,82732,71148,65700,0,31856,0,0,0
o,0x00000000,1716791826.277112,172.16.1.2,57521,172.16.3.2,5101,31083,34813,0,64256,65728,6,6,4,1460,1824,1,992,91,82732,71148,65700,0,33304,0,0,0
i,0x00000000,1716791826.277480,172.16.1.2,57521,172.16.3.2,5101,31083,34813,0,64256,65728,6,6,4,1460,1824,1,992,91,82732,71148,65700,0,34752,0,0,0
o,0x00000000,1716791826.277483,172.16.1.2,57521,172.16.3.2,5101,31083,34813,0,64256,65728,6,6,4,1460,1832,1,992,90,82732,68252,65700,0,31856,0,0,0
o,0x00000000,1716791826.277576,172.16.1.2,57521,172.16.3.2,5101,31083,34813,0,64256,65728,6,6,4,1460,1832,1,992,90,82732,68252,65700,0,33304,0,0,0
i,0x00000000,1716791826.277660,172.16.1.2,57521,172.16.3.2,5101,31083,34813,0,64256,65728,6,6,4,1460,1832,1,992,90,82732,68252,65700,0,34752,0,0,0
o,0x00000000,1716791826.277667,172.16.1.2,57521,172.16.3.2,5101,31083,34813,0,64256,65728,6,6,4,1460,1839,1,992,88,82732,65356,65700,0,31856,0,0,0
o,0x00000000,1716791826.277753,172.16.1.2,57521,172.16.3.2,5101,31083,34813,0,64256,65728,6,6,4,1460,1839,1,992,88,82732,65356,65700,0,33304,0,0,0
i,0x00000000,1716791826.277862,172.16.1.2,57521,172.16.3.2,5101,31083,34813,0,64256,65728,6,6,4,1460,1839,1,992,88,82732,65356,65700,0,34752,0,0,0
o,0x00000000,1716791826.277865,172.16.1.2,57521,172.16.3.2,5101,31083,34813,0,64256,65728,6,6,4,1460,1846,1,992,88,82732,62460,65700,0,31856,0,0,0
o,0x00000000,1716791826.277954,172.16.1.2,57521,172.16.3.2,5101,31083,34813,0,64256,65728,6,6,4,1460,1846,1,992,88,82732,62460,65700,0,33304,0,0,0
i,0x00000000,1716791826.278048,172.16.1.2,57521,172.16.3.2,5101,31083,34813,0,64256,65728,6,6,4,1460,1846,1,992,88,82732,62460,65700,0,34752,0,0,0
o,0x00000000,1716791826.278051,172.16.1.2,57521,172.16.3.2,5101,31083,34813,0,64256,65728,6,6,4,1460,1852,1,992,87,82732,59564,65700,0,31856,0,0,0
o,0x00000000,1716791826.278139,172.16.1.2,57521,172.16.3.2,5101,31083,34813,0,64256,65728,6,6,4,1460,1852,1,992,87,82732,59564,65700,0,33304,0,0,0
i,0x00000000,1716791826.278224,172.16.1.2,57521,172.16.3.2,5101,31083,34813,0,64256,65728,6,6,4,1460,1852,1,992,87,82732,59564,65700,0,34752,0,0,0
o,0x00000000,1716791826.278227,172.16.1.2,57521,172.16.3.2,5101,31083,34813,0,64256,65728,6,6,4,1460,1857,1,992,86,82732,56668,65700,0,31856,0,0,0
o,0x00000000,1716791826.278313,172.16.1.2,57521,172.16.3.2,5101,31083,34813,0,64256,65728,6,6,4,1460,1857,1,992,86,82732,56668,65700,0,33304,0,0,0
i,0x00000000,1716791826.278402,172.16.1.2,57521,172.16.3.2,5101,31083,34813,0,64256,65728,6,6,4,1460,1857,1,992,86,82732,56668,65700,0,34752,0,0,0
o,0x00000000,1716791826.278405,172.16.1.2,57521,172.16.3.2,5101,31083,34813,0,64256,65728,6,6,4,1460,1861,1,992,85,82732,53772,65700,0,31856,0,0,0
o,0x00000000,1716791826.278489,172.16.1.2,57521,172.16.3.2,5101,31083,34813,0,64256,65728,6,6,4,1460,1861,1,992,85,82732,53772,65700,0,33304,0,0,0
i,0x00000000,1716791826.306955,172.16.1.2,57521,172.16.3.2,5101,31083,34813,0,64256,65728,6,6,4,1460,1861,1,992,85,82732,82732,65700,0,34752,0,0,0
o,0x00000000,1716791826.306972,172.16.1.2,57521,172.16.3.2,5101,31083,34813,0,64256,65728,6,6,4,1460,1881,1,992,89,82732,79836,65700,0,31856,0,0,0
o,0x00000000,1716791826.307254,172.16.1.2,57521,172.16.3.2,5101,31083,34813,0,64256,65728,6,6,4,1460,1881,1,992,89,82732,79836,65700,0,33304,0,0,0
i,0x00000000,1716791826.826159,172.16.1.2,57521,172.16.3.2,5101,31083,34813,0,64256,65728,6,6,4,1460,1881,1,992,89,82732,82732,65700,0,34752,0,0,0
o,0x00000000,1716791826.826181,172.16.1.2,57521,172.16.3.2,5101,31083,34813,0,65728,65728,6,6,4,1460,2090,1,992,145,82732,81284,65700,0,33304,0,0,0
i,0x00000000,1716791826.885698,172.16.1.2,57521,172.16.3.2,5101,31083,34813,0,65728,65728,6,6,4,1460,2090,1,992,145,82732,81284,65700,0,34752,0,0,0
o,0x00000000,1716791826.885730,172.16.1.2,57521,172.16.3.2,5101,31083,34813,0,64256,65728,6,6,4,1460,2073,1,992,134,82732,78388,65700,0,31856,0,0,0
o,0x00000000,1716791826.885853,172.16.1.2,57521,172.16.3.2,5101,31083,34813,0,64256,65728,6,6,4,1460,2073,1,992,134,82732,78388,65700,0,33304,0,0,0
i,0x00000000,1716791826.885940,172.16.1.2,57521,172.16.3.2,5101,31083,34813,0,64256,65728,6,6,4,1460,2073,1,992,134,82732,78388,65700,0,34752,0,0,0
o,0x00000000,1716791826.885944,172.16.1.2,57521,172.16.3.2,5101,31083,34813,0,64256,65728,6,6,4,1460,2058,1,992,125,82732,75492,65700,0,31856,0,0,0
o,0x00000000,1716791826.886168,172.16.1.2,57521,172.16.3.2,5101,31083,34813,0,64256,65728,6,6,4,1460,2058,1,992,125,82732,75492,65700,0,33304,0,0,0
i,0x00000000,1716791826.886253,172.16.1.2,57521,172.16.3.2,5101,31083,34813,0,64256,65728,6,6,4,1460,2058,1,992,125,82732,75492,65700,0,34752,0,0,0
o,0x00000000,1716791826.886256,172.16.1.2,57521,172.16.3.2,5101,31083,34813,0,64256,65728,6,6,4,1460,2045,1,992,118,82732,72596,65700,0,31856,0,0,0
o,0x00000000,1716791826.886341,172.16.1.2,57521,172.16.3.2,5101,31083,34813,0,64256,65728,6,6,4,1460,2045,1,992,118,82732,72596,65700,0,33304,0,0,0
i,0x00000000,1716791826.886832,172.16.1.2,57521,172.16.3.2,5101,31083,34813,0,64256,65728,6,6,4,1460,2045,1,992,118,82732,72596,65700,0,34752,0,0,0
o,0x00000000,1716791826.886837,172.16.1.2,57521,172.16.3.2,5101,31083,36273,0,64256,65728,6,6,4,1460,2034,1,992,112,82732,69700,65700,0,31856,0,0,0
o,0x00000000,1716791826.886944,172.16.1.2,57521,172.16.3.2,5101,31083,36273,0,64256,65728,6,6,4,1460,2034,1,992,112,82732,69700,65700,0,33304,0,0,0
o,0x00000000,1716791826.887024,172.16.1.2,57521,172.16.3.2,5101,31083,36273,0,64256,65728,6,6,4,1460,2034,1,992,112,82732,69700,65700,0,34752,0,0,0
i,0x00000000,1716791826.887127,172.16.1.2,57521,172.16.3.2,5101,31083,36273,0,64256,65728,6,6,4,1460,2034,1,992,112,82732,69700,65700,0,36200,0,0,0
o,0x00000000,1716791826.887130,172.16.1.2,57521,172.16.3.2,5101,31083,36273,0,64256,65728,6,6,4,1460,2024,1,992,107,82732,66804,65700,0,33304,0,0,0
o,0x00000000,1716791826.887407,172.16.1.2,57521,172.16.3.2,5101,31083,36273,0,64256,65728,6,6,4,1460,2024,1,992,107,82732,66804,65700,0,34752,0,0,0
i,0x00000000,1716791826.887519,172.16.1.2,57521,172.16.3.2,5101,31083,36273,0,64256,65728,6,6,4,1460,2024,1,992,107,82732,66804,65700,0,36200,0,0,0
o,0x00000000,1716791826.887522,172.16.1.2,57521,172.16.3.2,5101,31083,36273,0,64256,65728,6,6,4,1460,2015,1,992,103,82732,63908,65700,0,33304,0,0,0
o,0x00000000,1716791826.887613,172.16.1.2,57521,172.16.3.2,5101,31083,36273,0,64256,65728,6,6,4,1460,2015,1,992,103,82732,63908,65700,0,34752,0,0,0
i,0x00000000,1716791826.887718,172.16.1.2,57521,172.16.3.2,5101,31083,36273,0,64256,65728,6,6,4,1460,2015,1,992,103,82732,63908,65700,0,36200,0,0,0
o,0x00000000,1716791826.887721,172.16.1.2,57521,172.16.3.2,5101,31083,36273,0,64256,65728,6,6,4,1460,2008,1,992,99,82732,61012,65700,0,33304,0,0,0
o,0x00000000,1716791826.887804,172.16.1.2,57521,172.16.3.2,5101,31083,36273,0,64256,65728,6,6,4,1460,2008,1,992,99,82732,61012,65700,0,34752,0,0,0
i,0x00000000,1716791826.887920,172.16.1.2,57521,172.16.3.2,5101,31083,36273,0,64256,65728,6,6,4,1460,2008,1,992,99,82732,61012,65700,0,36200,0,0,0
o,0x00000000,1716791826.887923,172.16.1.2,57521,172.16.3.2,5101,31083,36273,0,64256,65728,6,6,4,1460,2001,1,992,97,82732,58116,65700,0,33304,0,0,0
o,0x00000000,1716791826.888006,172.16.1.2,57521,172.16.3.2,5101,31083,36273,0,64256,65728,6,6,4,1460,2001,1,992,97,82732,58116,65700,0,34752,0,0,0
i,0x00000000,1716791826.888108,172.16.1.2,57521,172.16.3.2,5101,31083,36273,0,64256,65728,6,6,4,1460,2001,1,992,97,82732,58116,65700,0,36200,0,0,0
o,0x00000000,1716791826.888111,172.16.1.2,57521,172.16.3.2,5101,31083,36273,0,64256,65728,6,6,4,1460,1995,1,992,94,82732,55220,65700,0,33304,0,0,0
o,0x00000000,1716791826.888220,172.16.1.2,57521,172.16.3.2,5101,31083,36273,0,64256,65728,6,6,4,1460,1995,1,992,94,82732,55220,65700,0,34752,0,0,0
i,0x00000000,1716791826.888327,172.16.1.2,57521,172.16.3.2,5101,31083,36273,0,64256,65728,6,6,4,1460,1995,1,992,94,82732,55220,65700,0,36200,0,0,0
o,0x00000000,1716791826.888330,172.16.1.2,57521,172.16.3.2,5101,31083,36273,0,64256,65728,6,6,4,1460,1990,1,992,92,82732,52324,65700,0,33304,0,0,0
o,0x00000000,1716791826.888482,172.16.1.2,57521,172.16.3.2,5101,31083,36273,0,64256,65728,6,6,4,1460,1990,1,992,92,82732,52324,65700,0,34752,0,0,0
i,0x00000000,1716791826.895827,172.16.1.2,57521,172.16.3.2,5101,31083,36273,0,64256,65728,6,6,4,1460,1990,1,992,92,82732,82732,65700,0,36200,0,0,0
o,0x00000000,1716791826.895842,172.16.1.2,57521,172.16.3.2,5101,31083,36273,0,64256,65728,6,6,4,1460,1990,1,992,90,82732,79836,65700,0,33304,0,0,0
o,0x00000000,1716791826.896102,172.16.1.2,57521,172.16.3.2,5101,31083,36273,0,64256,65728,6,6,4,1460,1990,1,992,90,82732,79836,65700,0,34752,0,0,0
i,0x00000000,1716791827.436202,172.16.1.2,57521,172.16.3.2,5101,31083,36273,0,64256,65728,6,6,4,1460,1990,1,992,90,82732,82732,65700,0,36200,0,0,0
o,0x00000000,1716791827.436223,172.16.1.2,57521,172.16.3.2,5101,31083,36273,0,65728,65728,6,6,4,1460,2190,1,992,144,82732,81284,65700,0,34752,0,0,0
i,0x00000000,1716791827.466006,172.16.1.2,57521,172.16.3.2,5101,31083,36273,0,65728,65728,6,6,4,1460,2190,1,992,144,82732,81284,65700,0,36200,0,0,0
o,0x00000000,1716791827.466042,172.16.1.2,57521,172.16.3.2,5101,31083,36273,0,65728,65728,6,6,4,1460,2173,1,992,134,82732,79836,65700,0,34752,0,0,0
i,0x00000000,1716791827.485587,172.16.1.2,57521,172.16.3.2,5101,31083,36273,0,65728,65728,6,6,4,1460,2173,1,992,134,82732,82732,65700,0,36200,0,0,0
o,0x00000000,1716791827.485601,172.16.1.2,57521,172.16.3.2,5101,31083,36273,0,64256,65728,6,6,4,1460,2142,1,992,129,82732,79836,65700,0,33304,0,0,0
o,0x00000000,1716791827.486724,172.16.1.2,57521,172.16.3.2,5101,31083,36273,0,64256,65728,6,6,4,1460,2142,1,992,129,82732,79836,65700,0,34752,0,0,0
i,0x00000000,1716791827.486804,172.16.1.2,57521,172.16.3.2,5101,31083,36273,0,64256,65728,6,6,4,1460,2142,1,992,129,82732,79836,65700,0,36200,0,0,0
o,0x00000000,1716791827.486808,172.16.1.2,57521,172.16.3.2,5101,31083,36273,0,64256,65728,6,6,4,1460,2115,1,992,125,82732,76940,65700,0,33304,0,0,0
o,0x00000000,1716791827.486888,172.16.1.2,57521,172.16.3.2,5101,31083,36273,0,64256,65728,6,6,4,1460,2115,1,992,125,82732,76940,65700,0,34752,0,0,0
i,0x00000000,1716791827.486994,172.16.1.2,57521,172.16.3.2,5101,31083,36273,0,64256,65728,6,6,4,1460,2115,1,992,125,82732,76940,65700,0,36200,0,0,0
o,0x00000000,1716791827.486997,172.16.1.2,57521,172.16.3.2,5101,31083,36273,0,64256,65728,6,6,4,1460,2091,1,992,120,82732,74044,65700,0,33304,0,0,0
o,0x00000000,1716791827.487112,172.16.1.2,57521,172.16.3.2,5101,31083,36273,0,64256,65728,6,6,4,1460,2091,1,992,120,82732,74044,65700,0,34752,0,0,0
i,0x00000000,1716791827.487215,172.16.1.2,57521,172.16.3.2,5101,31083,36273,0,64256,65728,6,6,4,1460,2091,1,992,120,82732,74044,65700,0,36200,0,0,0
o,0x00000000,1716791827.487218,172.16.1.2,57521,172.16.3.2,5101,31083,37733,0,64256,65728,6,6,4,1460,2070,1,992,116,82732,71148,65700,0,33304,0,0,0
o,0x00000000,1716791827.487307,172.16.1.2,57521,172.16.3.2,5101,31083,37733,0,64256,65728,6,6,4,1460,2070,1,992,116,82732,71148,65700,0,34752,0,0,0
o,0x00000000,1716791827.487387,172.16.1.2,57521,172.16.3.2,5101,31083,37733,0,64256,65728,6,6,4,1460,2070,1,992,116,82732,71148,65700,0,36200,0,0,0
i,0x00000000,1716791827.487465,172.16.1.2,57521,172.16.3.2,5101,31083,37733,0,64256,65728,6,6,4,1460,2070,1,992,116,82732,71148,65700,0,37648,0,0,0
o,0x00000000,1716791827.487468,172.16.1.2,57521,172.16.3.2,5101,31083,37733,0,64256,65728,6,6,4,1460,2052,1,992,112,82732,68252,65700,0,34752,0,0,0
o,0x00000000,1716791827.487547,172.16.1.2,57521,172.16.3.2,5101,31083,37733,0,64256,65728,6,6,4,1460,2052,1,992,112,82732,68252,65700,0,36200,0,0,0
i,0x00000000,1716791827.487640,172.16.1.2,57521,172.16.3.2,5101,31083,37733,0,64256,65728,6,6,4,1460,2052,1,992,112,82732,68252,65700,0,37648,0,0,0
o,0x00000000,1716791827.487643,172.16.1.2,57521,172.16.3.2,5101,31083,37733,0,64256,65728,6,6,4,1460,2036,1,992,109,82732,65356,65700,0,34752,0,0,0
o,0x00000000,1716791827.487723,172.16.1.2,57521,172.16.3.2,5101,31083,37733,0,64256,65728,6,6,4,1460,2036,1,992,109,82732,65356,65700,0,36200,0,0,0
i,0x00000000,1716791827.487802,172.16.1.2,57521,172.16.3.2,5101,31083,37733,0,64256,65728,6,6,4,1460,2036,1,992,109,82732,65356,65700,0,37648,0,0,0
o,0x00000000,1716791827.487804,172.16.1.2,57521,172.16.3.2,5101,31083,37733,0,64256,65728,6,6,4,1460,2022,1,992,105,82732,62460,65700,0,34752,0,0,0
o,0x00000000,1716791827.487884,172.16.1.2,57521,172.16.3.2,5101,31083,37733,0,64256,65728,6,6,4,1460,2022,1,992,105,82732,62460,65700,0,36200,0,0,0
i,0x00000000,1716791827.487962,172.16.1.2,57521,172.16.3.2,5101,31083,37733,0,64256,65728,6,6,4,1460,2022,1,992,105,82732,62460,65700,0,37648,0,0,0
o,0x00000000,1716791827.487966,172.16.1.2,57521,172.16.3.2,5101,31083,37733,0,64256,65728,6,6,4,1460,2010,1,992,103,82732,59564,65700,0,34752,0,0,0
o,0x00000000,1716791827.488045,172.16.1.2,57521,172.16.3.2,5101,31083,37733,0,64256,65728,6,6,4,1460,2010,1,992,103,82732,59564,65700,0,36200,0,0,0
i,0x00000000,1716791827.488124,172.16.1.2,57521,172.16.3.2,5101,31083,37733,0,64256,65728,6,6,4,1460,2010,1,992,103,82732,59564,65700,0,37648,0,0,0
o,0x00000000,1716791827.488127,172.16.1.2,57521,172.16.3.2,5101,31083,37733,0,64256,65728,6,6,4,1460,1999,1,992,100,82732,56668,65700,0,34752,0,0,0
o,0x00000000,1716791827.488205,172.16.1.2,57521,172.16.3.2,5101,31083,37733,0,64256,65728,6,6,4,1460,1999,1,992,100,82732,56668,65700,0,36200,0,0,0
i,0x00000000,1716791827.488908,172.16.1.2,57521,172.16.3.2,5101,31083,37733,0,64256,65728,6,6,4,1460,1999,1,992,100,82732,56668,65700,0,37648,0,0,0
o,0x00000000,1716791827.488911,172.16.1.2,57521,172.16.3.2,5101,31083,37733,0,64256,65728,6,6,4,1460,1990,1,992,97,82732,53772,65700,0,34752,0,0,0
o,0x00000000,1716791827.489176,172.16.1.2,57521,172.16.3.2,5101,31083,37733,0,64256,65728,6,6,4,1460,1990,1,992,97,82732,53772,65700,0,36200,0,0,0
i,0x00000000,1716791827.505613,172.16.1.2,57521,172.16.3.2,5101,31083,37733,0,64256,65728,6,6,4,1460,1990,1,992,97,82732,82732,65700,0,37648,0,0,0
o,0x00000000,1716791827.505631,172.16.1.2,57521,172.16.3.2,5101,31083,37733,0,64256,65728,6,6,4,1460,1990,1,992,94,82732,79836,65700,0,34752,0,0,0
o,0x00000000,1716791827.505911,172.16.1.2,57521,172.16.3.2,5101,31083,37733,0,64256,65728,6,6,4,1460,1990,1,992,94,82732,79836,65700,0,36200,0,0,0
i,0x00000000,1716791828.055955,172.16.1.2,57521,172.16.3.2,5101,31083,37733,0,64256,65728,6,6,4,1460,1990,1,992,94,82732,82732,65700,0,37648,0,0,0
o,0x00000000,1716791828.056008,172.16.1.2,57521,172.16.3.2,5101,31083,37733,0,65728,65728,6,6,4,1460,2206,1,992,151,82732,81284,65700,0,36200,0,0,0
i,0x00000000,1716791828.075821,172.16.1.2,57521,172.16.3.2,5101,31083,37733,0,65728,65728,6,6,4,1460,2206,1,992,151,82732,81284,65700,0,37648,0,0,0
o,0x00000000,1716791828.075844,172.16.1.2,57521,172.16.3.2,5101,31083,37733,0,65728,65728,6,6,4,1460,2187,1,992,140,82732,79836,65700,0,36200,0,0,0
i,0x00000000,1716791828.096384,172.16.1.2,57521,172.16.3.2,5101,31083,37733,0,65728,65728,6,6,4,1460,2187,1,992,140,82732,82732,65700,0,37648,0,0,0
o,0x00000000,1716791828.096402,172.16.1.2,57521,172.16.3.2,5101,31083,37733,0,64256,65728,6,6,4,1460,2166,1,992,131,82732,79836,65700,0,34752,0,0,0
o,0x00000000,1716791828.096495,172.16.1.2,57521,172.16.3.2,5101,31083,37733,0,64256,65728,6,6,4,1460,2166,1,992,131,82732,79836,65700,0,36200,0,0,0
i,0x00000000,1716791828.096585,172.16.1.2,57521,172.16.3.2,5101,31083,37733,0,64256,65728,6,6,4,1460,2166,1,992,131,82732,79836,65700,0,37648,0,0,0
o,0x00000000,1716791828.096589,172.16.1.2,57521,172.16.3.2,5101,31083,37733,0,64256,65728,6,6,4,1460,2140,1,992,126,82732,76940,65700,0,34752,0,0,0
o,0x00000000,1716791828.096680,172.16.1.2,57521,172.16.3.2,5101,31083,37733,0,64256,65728,6,6,4,1460,2140,1,992,126,82732,76940,65700,0,36200,0,0,0
i,0x00000000,1716791828.096775,172.16.1.2,57521,172.16.3.2,5101,31083,37733,0,64256,65728,6,6,4,1460,2140,1,992,126,82732,76940,65700,0,37648,0,0,0
o,0x00000000,1716791828.096778,172.16.1.2,57521,172.16.3.2,5101,31083,37733,0,64256,65728,6,6,4,1460,2117,1,992,121,82732,74044,65700,0,34752,0,0,0
o,0x00000000,1716791828.096868,172.16.1.2,57521,172.16.3.2,5101,31083,37733,0,64256,65728,6,6,4,1460,2117,1,992,121,82732,74044,65700,0,36200,0,0,0
i,0x00000000,1716791828.096951,172.16.1.2,57521,172.16.3.2,5101,31083,37733,0,64256,65728,6,6,4,1460,2117,1,992,121,82732,74044,65700,0,37648,0,0,0
o,0x00000000,1716791828.096954,172.16.1.2,57521,172.16.3.2,5101,31083,37733,0,64256,65728,6,6,4,1460,2097,1,992,117,82732,71148,65700,0,34752,0,0,0
o,0x00000000,1716791828.097033,172.16.1.2,57521,172.16.3.2,5101,31083,37733,0,64256,65728,6,6,4,1460,2097,1,992,117,82732,71148,65700,0,36200,0,0,0
i,0x00000000,1716791828.097338,172.16.1.2,57521,172.16.3.2,5101,31083,37733,0,64256,65728,6,6,4,1460,2097,1,992,117,82732,71148,65700,0,37648,0,0,0
o,0x00000000,1716791828.097342,172.16.1.2,57521,172.16.3.2,5101,31083,39193,0,64256,65728,6,6,4,1460,2079,1,992,113,82732,68252,65700,0,34752,0,0,0
o,0x00000000,1716791828.097431,172.16.1.2,57521,172.16.3.2,5101,31083,39193,0,64256,65728,6,6,4,1460,2079,1,992,113,82732,68252,65700,0,36200,0,0,0
o,0x00000000,1716791828.097515,172.16.1.2,57521,172.16.3.2,5101,31083,39193,0,64256,65728,6,6,4,1460,2079,1,992,113,82732,68252,65700,0,37648,0,0,0
i,0x00000000,1716791828.097601,172.16.1.2,57521,172.16.3.2,5101,31083,39193,0,64256,65728,6,6,4,1460,2079,1,992,113,82732,68252,65700,0,39096,0,0,0
o,0x00000000,1716791828.097614,172.16.1.2,57521,172.16.3.2,5101,31083,39193,0,64256,65728,6,6,4,1460,2064,1,992,109,82732,65356,65700,0,36200,0,0,0
o,0x00000000,1716791828.097696,172.16.1.2,57521,172.16.3.2,5101,31083,39193,0,64256,65728,6,6,4,1460,2064,1,992,109,82732,65356,65700,0,37648,0,0,0
i,0x00000000,1716791828.097787,172.16.1.2,57521,172.16.3.2,5101,31083,39193,0,64256,65728,6,6,4,1460,2064,1,992,109,82732,65356,65700,0,39096,0,0,0
o,0x00000000,1716791828.097789,172.16.1.2,57521,172.16.3.2,5101,31083,39193,0,64256,65728,6,6,4,1460,2050,1,992,106,82732,62460,65700,0,36200,0,0,0
o,0x00000000,1716791828.097888,172.16.1.2,57521,172.16.3.2,5101,31083,39193,0,64256,65728,6,6,4,1460,2050,1,992,106,82732,62460,65700,0,37648,0,0,0
i,0x00000000,1716791828.097969,172.16.1.2,57521,172.16.3.2,5101,31083,39193,0,64256,65728,6,6,4,1460,2050,1,992,106,82732,62460,65700,0,39096,0,0,0
o,0x00000000,1716791828.097972,172.16.1.2,57521,172.16.3.2,5101,31083,39193,0,64256,65728,6,6,4,1460,2038,1,992,103,82732,59564,65700,0,36200,0,0,0
o,0x00000000,1716791828.098047,172.16.1.2,57521,172.16.3.2,5101,31083,39193,0,64256,65728,6,6,4,1460,2038,1,992,103,82732,59564,65700,0,37648,0,0,0
i,0x00000000,1716791828.098132,172.16.1.2,57521,172.16.3.2,5101,31083,39193,0,64256,65728,6,6,4,1460,2038,1,992,103,82732,59564,65700,0,39096,0,0,0
o,0x00000000,1716791828.098135,172.16.1.2,57521,172.16.3.2,5101,31083,39193,0,64256,65728,6,6,4,1460,2028,1,992,100,82732,56668,65700,0,36200,0,0,0
o,0x00000000,1716791828.098226,172.16.1.2,57521,172.16.3.2,5101,31083,39193,0,64256,65728,6,6,4,1460,2028,1,992,100,82732,56668,65700,0,37648,0,0,0
i,0x00000000,1716791828.098322,172.16.1.2,57521,172.16.3.2,5101,31083,39193,0,64256,65728,6,6,4,1460,2028,1,992,100,82732,56668,65700,0,39096,0,0,0
o,0x00000000,1716791828.098326,172.16.1.2,57521,172.16.3.2,5101,31083,39193,0,64256,65728,6,6,4,1460,2019,1,992,98,82732,53772,65700,0,36200,0,0,0
o,0x00000000,1716791828.098440,172.16.1.2,57521,172.16.3.2,5101,31083,39193,0,64256,65728,6,6,4,1460,2019,1,992,98,82732,53772,65700,0,37648,0,0,0
i,0x00000000,1716791828.098520,172.16.1.2,57521,172.16.3.2,5101,31083,39193,0,64256,65728,6,6,4,1460,2019,1,992,98,82732,53772,65700,0,39096,0,0,0
o,0x00000000,1716791828.098523,172.16.1.2,57521,172.16.3.2,5101,31083,39193,0,64256,65728,6,6,4,1460,2011,1,992,96,82732,50876,65700,0,36200,0,0,0
o,0x00000000,1716791828.098604,172.16.1.2,57521,172.16.3.2,5101,31083,39193,0,64256,65728,6,6,4,1460,2011,1,992,96,82732,50876,65700,0,37648,0,0,0
i,0x00000000,1716791828.136652,172.16.1.2,57521,172.16.3.2,5101,31083,39193,0,64256,65728,6,6,4,1460,2011,1,992,96,82732,82732,65700,0,39096,0,0,0
o,0x00000000,1716791828.136672,172.16.1.2,57521,172.16.3.2,5101,31083,39193,0,64256,65728,6,6,4,1460,2012,1,992,93,82732,79836,65700,0,36200,0,0,0
o,0x00000000,1716791828.136956,172.16.1.2,57521,172.16.3.2,5101,31083,39193,0,64256,65728,6,6,4,1460,2012,1,992,93,82732,79836,65700,0,37648,0,0,0
i,0x00000000,1716791828.746490,172.16.1.2,57521,172.16.3.2,5101,31083,39193,0,64256,65728,6,6,4,1460,2012,1,992,93,82732,82732,65700,0,39096,0,0,0
o,0x00000000,1716791828.746510,172.16.1.2,57521,172.16.3.2,5101,31083,39193,0,65728,65728,6,6,4,1460,2037,1,992,98,82732,81284,65700,0,37648,0,0,0
i,0x00000000,1716791828.775587,172.16.1.2,57521,172.16.3.2,5101,31083,39193,0,65728,65728,6,6,4,1460,2037,1,992,98,82732,81284,65700,0,39096,0,0,0
o,0x00000000,1716791828.775601,172.16.1.2,57521,172.16.3.2,5101,31083,39193,0,64256,65728,6,6,4,1460,2063,1,992,101,82732,78388,65700,0,36200,0,0,0
o,0x00000000,1716791828.775713,172.16.1.2,57521,172.16.3.2,5101,31083,39193,0,64256,65728,6,6,4,1460,2063,1,992,101,82732,78388,65700,0,37648,0,0,0
i,0x00000000,1716791828.775923,172.16.1.2,57521,172.16.3.2,5101,31083,39193,0,64256,65728,6,6,4,1460,2063,1,992,101,82732,78388,65700,0,39096,0,0,0
o,0x00000000,1716791828.775926,172.16.1.2,57521,172.16.3.2,5101,31083,39193,0,64256,65728,6,6,4,1460,2078,1,992,101,82732,75492,65700,0,36200,0,0,0
o,0x00000000,1716791828.776006,172.16.1.2,57521,172.16.3.2,5101,31083,39193,0,64256,65728,6,6,4,1460,2078,1,992,101,82732,75492,65700,0,37648,0,0,0
i,0x00000000,1716791828.776085,172.16.1.2,57521,172.16.3.2,5101,31083,39193,0,64256,65728,6,6,4,1460,2078,1,992,101,82732,75492,65700,0,39096,0,0,0
o,0x00000000,1716791828.776088,172.16.1.2,57521,172.16.3.2,5101,31083,39193,0,64256,65728,6,6,4,1460,2091,1,992,101,82732,72596,65700,0,36200,0,0,0
o,0x00000000,1716791828.776166,172.16.1.2,57521,172.16.3.2,5101,31083,39193,0,64256,65728,6,6,4,1460,2091,1,992,101,82732,72596,65700,0,37648,0,0,0
i,0x00000000,1716791828.776251,172.16.1.2,57521,172.16.3.2,5101,31083,39193,0,64256,65728,6,6,4,1460,2091,1,992,101,82732,72596,65700,0,39096,0,0,0
o,0x00000000,1716791828.776254,172.16.1.2,57521,172.16.3.2,5101,31083,39193,0,64256,65728,6,6,4,1460,2102,1,992,100,82732,69700,65700,0,36200,0,0,0
o,0x00000000,1716791828.776333,172.16.1.2,57521,172.16.3.2,5101,31083,39193,0,64256,65728,6,6,4,1460,2102,1,992,100,82732,69700,65700,0,37648,0,0,0
i,0x00000000,1716791828.776656,172.16.1.2,57521,172.16.3.2,5101,31083,39193,0,64256,65728,6,6,4,1460,2102,1,992,100,82732,69700,65700,0,39096,0,0,0
o,0x00000000,1716791828.776659,172.16.1.2,57521,172.16.3.2,5101,31083,39193,0,64256,65728,6,6,4,1460,2112,1,992,99,82732,66804,65700,0,36200,0,0,0
o,0x00000000,1716791828.776738,172.16.1.2,57521,172.16.3.2,5101,31083,39193,0,64256,65728,6,6,4,1460,2112,1,992,99,82732,66804,65700,0,37648,0,0,0
i,0x00000000,1716791828.776823,172.16.1.2,57521,172.16.3.2,5101,31083,39193,0,64256,65728,6,6,4,1460,2112,1,992,99,82732,66804,65700,0,39096,0,0,0
o,0x00000000,1716791828.776826,172.16.1.2,57521,172.16.3.2,5101,31083,40653,0,64256,65728,6,6,4,1460,2120,1,992,98,82732,63908,65700,0,36200,0,0,0
o,0x00000000,1716791828.776910,172.16.1.2,57521,172.16.3.2,5101,31083,40653,0,64256,65728,6,6,4,1460,2120,1,992,98,82732,63908,65700,0,37648,0,0,0
o,0x00000000,1716791828.776989,172.16.1.2,57521,172.16.3.2,5101,31083,40653,0,64256,65728,6,6,4,1460,2120,1,992,98,82732,63908,65700,0,39096,0,0,0
i,0x00000000,1716791828.777081,172.16.1.2,57521,172.16.3.2,5101,31083,40653,0,64256,65728,6,6,4,1460,2120,1,992,98,82732,63908,65700,0,40544,0,0,0
o,0x00000000,1716791828.777084,172.16.1.2,57521,172.16.3.2,5101,31083,40653,0,64256,65728,6,6,4,1460,2127,1,992,97,82732,61012,65700,0,37648,0,0,0
o,0x00000000,1716791828.777165,172.16.1.2,57521,172.16.3.2,5101,31083,40653,0,64256,65728,6,6,4,1460,2127,1,992,97,82732,61012,65700,0,39096,0,0,0
i,0x00000000,1716791828.777244,172.16.1.2,57521,172.16.3.2,5101,31083,40653,0,64256,65728,6,6,4,1460,2127,1,992,97,82732,61012,65700,0,40544,0,0,0
o,0x00000000,1716791828.777247,172.16.1.2,57521,172.16.3.2,5101,31083,40653,0,64256,65728,6,6,4,1460,2134,1,992,96,82732,58116,65700,0,37648,0,0,0
o,0x00000000,1716791828.777326,172.16.1.2,57521,172.16.3.2,5101,31083,40653,0,64256,65728,6,6,4,1460,2134,1,992,96,82732,58116,65700,0,39096,0,0,0
i,0x00000000,1716791828.777403,172.16.1.2,57521,172.16.3.2,5101,31083,40653,0,64256,65728,6,6,4,1460,2134,1,992,96,82732,58116,65700,0,40544,0,0,0
o,0x00000000,1716791828.777405,172.16.1.2,57521,172.16.3.2,5101,31083,40653,0,64256,65728,6,6,4,1460,2140,1,992,96,82732,55220,65700,0,37648,0,0,0
o,0x00000000,1716791828.777485,172.16.1.2,57521,172.16.3.2,5101,31083,40653,0,64256,65728,6,6,4,1460,2140,1,992,96,82732,55220,65700,0,39096,0,0,0
i,0x00000000,1716791828.777563,172.16.1.2,57521,172.16.3.2,5101,31083,40653,0,64256,65728,6,6,4,1460,2140,1,992,96,82732,55220,65700,0,40544,0,0,0
o,0x00000000,1716791828.777566,172.16.1.2,57521,172.16.3.2,5101,31083,40653,0,64256,65728,6,6,4,1460,2145,1,992,95,82732,52324,65700,0,37648,0,0,0
o,0x00000000,1716791828.777645,172.16.1.2,57521,172.16.3.2,5101,31083,40653,0,64256,65728,6,6,4,1460,2145,1,992,95,82732,52324,65700,0,39096,0,0,0
i,0x00000000,1716791828.777722,172.16.1.2,57521,172.16.3.2,5101,31083,40653,0,64256,65728,6,6,4,1460,2145,1,992,95,82732,52324,65700,0,40544,0,0,0
o,0x00000000,1716791828.777725,172.16.1.2,57521,172.16.3.2,5101,31083,40653,0,64256,65728,6,6,4,1460,2149,1,992,94,82732,49428,65700,0,37648,0,0,0
o,0x00000000,1716791828.777806,172.16.1.2,57521,172.16.3.2,5101,31083,40653,0,64256,65728,6,6,4,1460,2149,1,992,94,82732,49428,65700,0,39096,0,0,0
i,0x00000000,1716791828.785678,172.16.1.2,57521,172.16.3.2,5101,31083,40653,0,64256,65728,6,6,4,1460,2149,1,992,94,82732,82732,65700,0,40544,0,0,0
o,0x00000000,1716791828.785684,172.16.1.2,57521,172.16.3.2,5101,31083,40653,0,64256,65728,6,6,4,1460,2157,1,992,94,82732,79836,65700,0,37648,0,0,0
o,0x00000000,1716791828.785965,172.16.1.2,57521,172.16.3.2,5101,31083,40653,0,64256,65728,6,6,4,1460,2157,1,992,94,82732,79836,65700,0,39096,0,0,0
i,0x00000000,1716791828.805633,172.16.1.2,57521,172.16.3.2,5101,31083,40653,0,64256,65728,6,6,4,1460,2157,1,992,94,82732,82732,65700,0,40544,0,0,0
o,0x00000000,1716791828.805648,172.16.1.2,57521,172.16.3.2,5101,31083,40653,0,64256,65728,6,6,4,1460,2152,1,992,94,82732,79836,65700,0,37648,0,0,0
o,0x00000000,1716791828.805898,172.16.1.2,57521,172.16.3.2,5101,31083,40653,0,64256,65728,6,6,4,1460,2152,1,992,94,82732,79836,65700,0,39096,0,0,0
i,0x00000000,1716791829.465986,172.16.1.2,57521,172.16.3.2,5101,31083,40653,0,64256,65728,6,6,4,1460,2152,1,992,94,82732,82732,65700,0,40544,0,0,0
o,0x00000000,1716791829.466007,172.16.1.2,57521,172.16.3.2,5101,31083,40653,0,65728,65728,6,6,4,1460,2171,1,992,97,82732,81284,65700,0,39096,0,0,0
i,0x00000000,1716791829.496180,172.16.1.2,57521,172.16.3.2,5101,31083,40653,0,65728,65728,6,6,4,1460,2171,1,992,97,82732,81284,65700,0,40544,0,0,0
o,0x00000000,1716791829.496204,172.16.1.2,57521,172.16.3.2,5101,31083,40653,0,64256,65728,6,6,4,1460,2188,1,992,100,82732,78388,65700,0,37648,0,0,0
o,0x00000000,1716791829.496337,172.16.1.2,57521,172.16.3.2,5101,31083,40653,0,64256,65728,6,6,4,1460,2188,1,992,100,82732,78388,65700,0,39096,0,0,0
i,0x00000000,1716791829.496427,172.16.1.2,57521,172.16.3.2,5101,31083,40653,0,64256,65728,6,6,4,1460,2188,1,992,100,82732,78388,65700,0,40544,0,0,0
o,0x00000000,1716791829.496431,172.16.1.2,57521,172.16.3.2,5101,31083,40653,0,64256,65728,6,6,4,1460,2203,1,992,101,82732,75492,65700,0,37648,0,0,0
o,0x00000000,1716791829.496516,172.16.1.2,57521,172.16.3.2,5101,31083,40653,0,64256,65728,6,6,4,1460,2203,1,992,101,82732,75492,65700,0,39096,0,0,0
i,0x00000000,1716791829.496617,172.16.1.2,57521,172.16.3.2,5101,31083,40653,0,64256,65728,6,6,4,1460,2203,1,992,101,82732,75492,65700,0,40544,0,0,0
o,0x00000000,1716791829.496619,172.16.1.2,57521,172.16.3.2,5101,31083,40653,0,64256,65728,6,6,4,1460,2216,1,992,102,82732,72596,65700,0,37648,0,0,0
o,0x00000000,1716791829.496712,172.16.1.2,57521,172.16.3.2,5101,31083,40653,0,64256,65728,6,6,4,1460,2216,1,992,102,82732,72596,65700,0,39096,0,0,0
i,0x00000000,1716791829.496809,172.16.1.2,57521,172.16.3.2,5101,31083,40653,0,64256,65728,6,6,4,1460,2216,1,992,102,82732,72596,65700,0,40544,0,0,0
o,0x00000000,1716791829.496812,172.16.1.2,57521,172.16.3.2,5101,31083,40653,0,64256,65728,6,6,4,1460,2227,1,992,102,82732,69700,65700,0,37648,0,0,0
o,0x00000000,1716791829.496912,172.16.1.2,57521,172.16.3.2,5101,31083,40653,0,64256,65728,6,6,4,1460,2227,1,992,102,82732,69700,65700,0,39096,0,0,0
