enable_time_secs=1716792236	enable_time_usecs=268767	siftrver=1.2.4	hz=100	tcp_rtt_scale=32	sysname=FreeBSD	sysver=1301000	ipmode=4
o,0x00000000,1716792236.268816,10.0.2.15,22,10.0.2.2,55982,1073725440,17298,0,65535,65700,0,0,4,1460,1,0,4,24,33580,44,65700,0,0,0,0,0
i,0x00000000,1716792236.269356,10.0.2.15,22,10.0.2.2,55982,1073725440,17298,0,65535,65700,0,0,4,1460,1,0,4,24,33580,44,65700,0,44,0,0,0
o,0x00000000,1716792236.269470,10.0.2.15,22,10.0.2.2,55982,1073725440,17342,0,65535,65700,0,0,4,1460,1,0,4,24,33580,36,65700,0,0,0,0,0
i,0x00000000,1716792236.270049,10.0.2.15,22,10.0.2.2,55982,1073725440,17342,0,65535,65700,0,0,4,1460,1,0,4,24,33580,36,65700,0,36,0,0,0
o,0x00000000,1716792236.270150,10.0.2.15,22,10.0.2.2,55982,1073725440,17378,0,65535,65700,0,0,4,1460,1,0,4,24,33580,36,65700,0,0,0,0,0
i,0x00000000,1716792236.270771,10.0.2.15,22,10.0.2.2,55982,1073725440,17378,0,65535,65700,0,0,4,1460,1,0,4,24,33580,36,65700,0,36,0,0,0
o,0x00000000,1716792236.271539,10.0.2.15,22,10.0.2.2,55982,1073725440,17414,0,65535,65700,0,0,4,1460,1,0,4,24,33580,176,65700,0,0,0,0,0
i,0x00000000,1716792236.272195,10.0.2.15,22,10.0.2.2,55982,1073725440,17414,0,65535,65700,0,0,4,1460,1,0,4,24,33580,176,65700,0,176,0,0,0
i,0x00000000,1716792236.272991,10.0.2.15,22,10.0.2.2,55982,1073725440,17590,0,65535,65700,0,0,4,1460,1,0,4,24,33580,0,65700,0,0,0,0,0
i,0x00000000,1716792236.273000,10.0.2.15,22,10.0.2.2,55982,1073725440,17590,0,65535,65700,0,0,4,1460,1,0,4,24,33580,0,65700,36,0,0,0,0
o,0x00000000,1716792236.273005,10.0.2.15,22,10.0.2.2,55982,1073725440,17590,0,65535,65700,0,0,4,1460,1,0,5,24,33580,0,65700,96,0,0,0,0
i,0x00000000,1716792236.273118,10.0.2.15,22,10.0.2.2,55982,1073725440,17590,0,65535,65700,0,0,4,1460,1,0,4,24,33580,0,65700,96,0,0,0,0
o,0x00000000,1716792236.273125,10.0.2.15,22,10.0.2.2,55982,1073725440,17590,0,65535,65604,0,0,5,1460,1,0,7,24,33580,0,65700,96,0,0,0,0
o,0x00000000,1716792236.273970,10.0.2.15,22,10.0.2.2,55982,1073725440,17590,0,65535,65604,0,0,8,1460,1,0,4,24,33580,0,65700,0,0,0,0,0
i,0x00000000,1716792236.274609,10.0.2.15,22,10.0.2.2,55982,1073725440,17590,0,65535,65604,0,0,8,1460,1,0,20,24,33580,0,65700,0,1,0,0,0
i,0x00000000,1716792238.451168,10.0.2.15,22,10.0.2.2,55989,1073725440,14600,0,65535,65700,0,0,4,1460,1,0,0,27,33580,0,65700,0,0,0,0,0
o,0x00000000,1716792238.457226,10.0.2.15,22,10.0.2.2,55989,1073725440,14600,0,65535,65700,0,0,4,1460,1,0,0,27,33580,38,65700,41,0,0,0,0
i,0x00000000,1716792238.457958,10.0.2.15,22,10.0.2.2,55989,1073725440,14600,0,65535,65700,0,0,4,1460,1,0,0,27,33580,38,65700,0,38,0,0,0
i,0x00000000,1716792238.458805,10.0.2.15,22,10.0.2.2,55989,1073725440,14638,0,65535,65700,0,0,4,1460,1,0,0,24,33580,0,65700,0,0,0,0,0
i,0x00000000,1716792238.458808,10.0.2.15,22,10.0.2.2,55989,1073725440,14638,0,65535,65700,0,0,4,1460,1,0,0,24,33580,0,65700,1460,0,0,0,0
o,0x00000000,1716792238.458811,10.0.2.15,22,10.0.2.2,55989,1073725440,14638,0,65535,65700,0,0,4,1460,1,0,1,24,33580,0,65700,1536,0,0,0,0
o,0x00000000,1716792238.459238,10.0.2.15,22,10.0.2.2,55989,1073725440,14638,0,65535,65700,0,0,4,1460,1,0,0,24,33580,1056,65700,1536,0,0,0,0
i,0x00000000,1716792238.459874,10.0.2.15,22,10.0.2.2,55989,1073725440,14638,0,65535,65700,0,0,4,1460,1,0,0,24,33580,1056,65700,1536,1056,0,0,0
i,0x00000000,1716792238.461601,10.0.2.15,22,10.0.2.2,55989,1073725440,15694,0,65535,65700,0,0,4,1460,1,0,0,24,33580,0,65700,0,0,0,0,0
o,0x00000000,1716792238.464044,10.0.2.15,22,10.0.2.2,55989,1073725440,15694,0,65535,65700,0,0,4,1460,1,0,0,24,33580,484,65700,0,0,0,0,0
i,0x00000000,1716792238.464799,10.0.2.15,22,10.0.2.2,55989,1073725440,15694,0,65535,65700,0,0,4,1460,1,0,0,24,33580,484,65700,0,484,0,0,0
i,0x00000000,1716792238.469895,10.0.2.15,22,10.0.2.2,55989,1073725440,16178,0,65535,65700,0,0,4,1460,1,0,0,24,33580,0,65700,0,0,0,0,0
i,0x00000000,1716792238.474849,10.0.2.15,22,10.0.2.2,55989,1073725440,16178,0,65535,65700,0,0,4,1460,1,0,0,24,33580,0,65700,0,0,0,0,0
o,0x00000000,1716792238.474855,10.0.2.15,22,10.0.2.2,55989,1073725440,16178,0,65535,65700,0,0,4,1460,1,0,1,24,33580,0,65700,44,0,0,0,0
o,0x00000000,1716792238.474997,10.0.2.15,22,10.0.2.2,55989,1073725440,16178,0,65535,65700,0,0,4,1460,1,0,0,24,33580,44,65700,0,0,0,0,0
i,0x00000000,1716792238.475853,10.0.2.15,22,10.0.2.2,55989,1073725440,16178,0,65535,65700,0,0,4,1460,1,0,0,24,33580,44,65700,0,44,0,0,0
i,0x00000000,1716792238.476712,10.0.2.15,22,10.0.2.2,55989,1073725440,16222,0,65535,65700,0,0,4,1460,1,0,0,24,33580,0,65700,0,0,0,0,0
o,0x00000000,1716792238.486633,10.0.2.15,22,10.0.2.2,55989,1073725440,16222,0,65535,65700,0,0,4,1460,1,0,0,24,33580,68,65700,0,0,0,0,0
i,0x00000000,1716792238.487260,10.0.2.15,22,10.0.2.2,55989,1073725440,16222,0,65535,65700,0,0,4,1460,1,0,0,24,33580,68,65700,0,68,0,0,0
i,0x00000000,1716792238.489915,10.0.2.15,22,10.0.2.2,55989,1073725440,16290,0,65535,65700,0,0,4,1460,1,0,0,24,33580,0,65700,0,0,0,0,0
o,0x00000000,1716792238.500114,10.0.2.15,22,10.0.2.2,55989,1073725440,16290,0,65535,65700,0,0,4,1460,1,0,0,24,33580,28,65700,0,0,0,0,0
i,0x00000000,1716792238.500877,10.0.2.15,22,10.0.2.2,55989,1073725440,16290,0,65535,65700,0,0,4,1460,1,0,0,24,33580,28,65700,0,28,0,0,0
i,0x00000000,1716792238.501536,10.0.2.15,22,10.0.2.2,55989,1073725440,16318,0,65535,65700,0,0,4,1460,1,0,0,24,33580,0,65700,0,0,0,0,0
o,0x00000000,1716792238.502071,10.0.2.15,22,10.0.2.2,55989,1073725440,16318,0,65535,65700,0,0,4,1460,1,0,0,24,33580,768,65700,112,0,0,0,0
i,0x00000000,1716792238.502757,10.0.2.15,22,10.0.2.2,55989,1073725440,16318,0,65535,65700,0,0,4,1460,1,0,0,24,33580,768,65700,112,768,0,0,0
o,0x00000000,1716792238.502864,10.0.2.15,22,10.0.2.2,55989,1073725440,17086,0,65535,65700,0,0,4,1460,1,0,0,24,33580,44,65700,0,0,0,0,0
i,0x00000000,1716792238.503635,10.0.2.15,22,10.0.2.2,55989,1073725440,17086,0,65535,65700,0,0,4,1460,1,0,0,24,33580,44,65700,0,44,0,0,0
i,0x00000000,1716792238.504671,10.0.2.15,22,10.0.2.2,55989,1073725440,17130,0,65535,65700,0,0,4,1460,1,0,0,24,33580,0,65700,0,0,0,0,0
o,0x00000000,1716792238.505052,10.0.2.15,22,10.0.2.2,55989,1073725440,17130,0,65535,65700,0,0,4,1460,1,0,4,24,33580,72,65700,0,0,0,0,0
i,0x00000000,1716792238.505862,10.0.2.15,22,10.0.2.2,55989,1073725440,17130,0,65535,65700,0,0,4,1460,1,0,4,24,33580,72,65700,0,72,0,0,0
o,0x00000000,1716792238.508710,10.0.2.15,22,10.0.2.2,55989,1073725440,17202,0,65535,65700,0,0,4,1460,1,0,4,24,33580,44,65700,0,0,0,0,0
i,0x00000000,1716792238.509312,10.0.2.15,22,10.0.2.2,55989,1073725440,17202,0,65535,65700,0,0,4,1460,1,0,4,24,33580,44,65700,0,44,0,0,0
o,0x00000000,1716792238.509819,10.0.2.15,22,10.0.2.2,55989,1073725440,17246,0,65535,65700,0,0,4,1460,1,0,4,24,33580,44,65700,0,0,0,0,0
i,0x00000000,1716792238.510484,10.0.2.15,22,10.0.2.2,55989,1073725440,17246,0,65535,65700,0,0,4,1460,1,0,4,24,33580,44,65700,0,44,0,0,0
o,0x00000000,1716792238.514062,10.0.2.15,22,10.0.2.2,55989,1073725440,17290,0,65535,65700,0,0,4,1460,1,0,4,24,33580,176,65700,0,0,0,0,0
i,0x00000000,1716792238.514775,10.0.2.15,22,10.0.2.2,55989,1073725440,17290,0,65535,65700,0,0,4,1460,1,0,4,24,33580,176,65700,0,176,0,0,0
i,0x00000000,1716792238.515902,10.0.2.15,22,10.0.2.2,55989,1073725440,17466,0,65535,65700,0,0,4,1460,1,0,4,24,33580,0,65700,0,0,0,0,0
i,0x00000000,1716792238.515906,10.0.2.15,22,10.0.2.2,55989,1073725440,17466,0,65535,65700,0,0,4,1460,1,0,4,24,33580,0,65700,36,0,0,0,0
o,0x00000000,1716792238.515909,10.0.2.15,22,10.0.2.2,55989,1073725440,17466,0,65535,65700,0,0,4,1460,1,0,5,24,33580,0,65700,96,0,0,0,0
i,0x00000000,1716792238.516218,10.0.2.15,22,10.0.2.2,55989,1073725440,17466,0,65535,65700,0,0,4,1460,1,0,4,24,33580,0,65700,96,0,0,0,0
o,0x00000000,1716792238.516222,10.0.2.15,22,10.0.2.2,55989,1073725440,17466,0,65535,65604,0,0,5,1460,1,0,7,24,33580,0,65700,96,0,0,0,0
o,0x00000000,1716792238.522348,10.0.2.15,22,10.0.2.2,55989,1073725440,17466,0,65535,65604,0,0,8,1460,1,0,4,24,33580,0,65700,0,0,0,0,0
i,0x00000000,1716792238.522943,10.0.2.15,22,10.0.2.2,55989,1073725440,17466,0,65535,65604,0,0,8,1460,1,0,20,24,33580,0,65700,0,1,0,0,0
i,0x00000000,1716792239.684824,10.0.2.15,22,10.0.2.2,55991,1073725440,14600,0,65535,65700,0,0,4,1460,1,0,0,27,33580,0,65700,0,0,0,0,0
o,0x00000000,1716792239.709923,10.0.2.15,22,10.0.2.2,55991,1073725440,14600,0,65535,65700,0,0,4,1460,1,0,0,27,33580,38,65700,41,0,0,0,0
i,0x00000000,1716792239.713110,10.0.2.15,22,10.0.2.2,55991,1073725440,14600,0,65535,65700,0,0,4,1460,1,0,0,27,33580,38,65700,0,38,0,0,0
o,0x00000000,1716792239.715637,10.0.2.15,22,10.0.2.2,55991,1073725440,14638,0,65535,65700,0,0,4,1460,1,0,0,24,33580,1056,65700,0,0,0,0,0
i,0x00000000,1716792239.717528,10.0.2.15,22,10.0.2.2,55991,1073725440,14638,0,65535,65700,0,0,4,1460,1,0,0,24,33580,1056,65700,0,1056,0,0,0
i,0x00000000,1716792239.717544,10.0.2.15,22,10.0.2.2,55991,1073725440,14638,0,65535,65700,0,0,4,1460,1,0,0,24,33580,1056,65700,1460,1056,0,0,0
o,0x00000000,1716792239.717553,10.0.2.15,22,10.0.2.2,55991,1073725440,14638,0,65535,65700,0,0,4,1460,1,0,1,24,33580,1056,65700,1536,1056,0,0,0
i,0x00000000,1716792239.718520,10.0.2.15,22,10.0.2.2,55991,1073725440,14638,0,65535,65700,0,0,4,1460,1,0,0,24,33580,1056,65700,1536,1056,0,0,0
i,0x00000000,1716792239.720864,10.0.2.15,22,10.0.2.2,55991,1073725440,15694,0,65535,65700,0,0,4,1460,1,0,0,24,33580,0,65700,0,0,0,0,0
o,0x00000000,1716792239.724960,10.0.2.15,22,10.0.2.2,55991,1073725440,15694,0,65535,65700,0,0,4,1460,1,0,0,24,33580,484,65700,0,0,0,0,0
i,0x00000000,1716792239.726018,10.0.2.15,22,10.0.2.2,55991,1073725440,15694,0,65535,65700,0,0,4,1460,1,0,0,24,33580,484,65700,0,484,0,0,0
i,0x00000000,1716792239.737403,10.0.2.15,22,10.0.2.2,55991,1073725440,16178,0,65535,65700,0,0,4,1460,1,0,0,24,33580,0,65700,0,0,0,0,0
i,0x00000000,1716792239.746049,10.0.2.15,22,10.0.2.2,55991,1073725440,16178,0,65535,65700,0,0,4,1460,1,0,0,24,33580,0,65700,0,0,0,0,0
o,0x00000000,1716792239.746076,10.0.2.15,22,10.0.2.2,55991,1073725440,16178,0,65535,65700,0,0,4,1460,1,0,1,24,33580,0,65700,44,0,0,0,0
o,0x00000000,1716792239.746415,10.0.2.15,22,10.0.2.2,55991,1073725440,16178,0,65535,65700,0,0,4,1460,1,0,0,24,33580,44,65700,0,0,0,0,0
i,0x00000000,1716792239.748799,10.0.2.15,22,10.0.2.2,55991,1073725440,16178,0,65535,65700,0,0,4,1460,1,0,0,24,33580,44,65700,0,44,0,0,0
i,0x00000000,1716792239.749889,10.0.2.15,22,10.0.2.2,55991,1073725440,16222,0,65535,65700,0,0,4,1460,1,0,0,24,33580,0,65700,0,0,0,0,0
o,0x00000000,1716792239.760053,10.0.2.15,22,10.0.2.2,55991,1073725440,16222,0,65535,65700,0,0,4,1460,1,0,0,24,33580,68,65700,0,0,0,0,0
i,0x00000000,1716792239.761358,10.0.2.15,22,10.0.2.2,55991,1073725440,16222,0,65535,65700,0,0,4,1460,1,0,0,24,33580,68,65700,0,68,0,0,0
i,0x00000000,1716792239.766178,10.0.2.15,22,10.0.2.2,55991,1073725440,16290,0,65535,65700,0,0,4,1460,1,0,0,24,33580,0,65700,0,0,0,0,0
o,0x00000000,1716792239.777088,10.0.2.15,22,10.0.2.2,55991,1073725440,16290,0,65535,65700,0,0,4,1460,1,0,0,24,33580,28,65700,0,0,0,0,0
i,0x00000000,1716792239.778579,10.0.2.15,22,10.0.2.2,55991,1073725440,16290,0,65535,65700,0,0,4,1460,1,0,0,24,33580,28,65700,0,28,0,0,0
i,0x00000000,1716792239.779608,10.0.2.15,22,10.0.2.2,55991,1073725440,16318,0,65535,65700,0,0,4,1460,1,0,0,24,33580,0,65700,0,0,0,0,0
o,0x00000000,1716792239.780827,10.0.2.15,22,10.0.2.2,55991,1073725440,16318,0,65535,65700,0,0,4,1460,1,0,0,24,33580,768,65700,112,0,0,0,0
i,0x00000000,1716792239.782118,10.0.2.15,22,10.0.2.2,55991,1073725440,16318,0,65535,65700,0,0,4,1460,1,0,0,24,33580,768,65700,112,768,0,0,0
o,0x00000000,1716792239.782400,10.0.2.15,22,10.0.2.2,55991,1073725440,17086,0,65535,65700,0,0,4,1460,1,0,0,24,33580,44,65700,0,0,0,0,0
i,0x00000000,1716792239.783261,10.0.2.15,22,10.0.2.2,55991,1073725440,17086,0,65535,65700,0,0,4,1460,1,0,0,24,33580,44,65700,0,44,0,0,0
i,0x00000000,1716792239.787371,10.0.2.15,22,10.0.2.2,55991,1073725440,17130,0,65535,65700,0,0,4,1460,1,0,0,24,33580,0,65700,0,0,0,0,0
o,0x00000000,1716792239.789951,10.0.2.15,22,10.0.2.2,55991,1073725440,17130,0,65535,65700,0,0,4,1460,1,0,4,24,33580,72,65700,0,0,0,0,0
i,0x00000000,1716792239.791079,10.0.2.15,22,10.0.2.2,55991,1073725440,17130,0,65535,65700,0,0,4,1460,1,0,4,24,33580,72,65700,0,72,0,0,0
i,0x00000000,1716792239.791889,10.0.2.15,22,10.0.2.2,55991,1073725440,17202,0,65535,65700,0,0,4,1460,1,0,4,24,33580,0,65700,0,0,0,0,0
o,0x00000000,1716792239.804200,172.16.1.2,51001,172.16.3.2,5101,1073725440,1073725440,0,0,0,0,0,2,536,0,1,672,100,32768,0,65536,0,0,0,0,0
o,0x00000000,1716792239.826725,10.0.2.15,22,10.0.2.2,55991,1073725440,17202,0,65535,65700,0,0,4,1460,1,0,5,24,33580,0,65700,0,0,0,0,0
i,0x00000000,1716792239.921363,172.16.1.2,51001,172.16.3.2,5101,1073725440,1073725440,0,0,0,0,0,2,536,0,1,672,100,32768,0,65536,0,1,0,0,0
o,0x00000000,1716792239.921467,172.16.1.2,51001,172.16.3.2,5101,23624,14480,0,65535,65700,6,6,4,1460,885,1,993,129,33580,0,65700,0,0,0,0,0
o,0x00000000,1716792239.922443,172.16.1.2,51001,172.16.3.2,5101,23624,14480,0,65535,65700,6,6,4,1460,885,1,996,129,33580,37,65700,0,0,0,0,0
i,0x00000000,1716792240.043590,172.16.1.2,51001,172.16.3.2,5101,23624,14480,0,65535,65700,6,6,4,1460,885,1,996,129,33580,37,65700,0,37,0,0,0
o,0x00000000,1716792240.045375,172.16.1.2,51001,172.16.3.2,5101,23624,14517,0,65728,65728,6,6,4,1460,823,1,996,122,33580,4,65700,0,0,0,0,0
o,0x00000000,1716792240.050652,172.16.1.2,51001,172.16.3.2,5101,23624,14517,0,65728,65728,6,6,4,1460,823,1,996,122,33580,128,65700,0,4,0,0,0
i,0x00000000,1716792240.159842,172.16.1.2,51001,172.16.3.2,5101,23624,14517,0,65728,65728,6,6,4,1460,823,1,996,122,33580,128,65700,0,128,0,0,0
i,0x00000000,1716792240.159861,172.16.1.2,51001,172.16.3.2,5101,23624,14645,0,65600,65728,6,6,4,1460,765,1,996,116,33580,0,65700,0,0,0,0,0
o,0x00000000,1716792240.160004,172.16.1.2,31422,172.16.3.2,5101,1073725440,1073725440,0,0,0,0,0,2,536,0,1,672,100,32768,0,65536,0,0,0,0,0
o,0x00000000,1716792240.196752,172.16.1.2,51001,172.16.3.2,5101,23624,14645,0,65728,65728,6,6,4,1460,765,1,997,116,33580,0,65700,0,0,0,0,0
i,0x00000000,1716792240.280267,172.16.1.2,31422,172.16.3.2,5101,1073725440,1073725440,0,0,0,0,0,2,536,0,1,672,100,32768,0,65536,0,1,0,0,0
o,0x00000000,1716792240.280293,172.16.1.2,31422,172.16.3.2,5101,23624,14480,0,65535,65700,6,6,4,1460,885,1,993,129,33580,0,65700,0,0,0,0,0
o,0x00000000,1716792240.280517,172.16.1.2,31422,172.16.3.2,5101,23624,14480,0,65535,65700,6,6,4,1460,885,1,992,129,33580,37,65700,0,0,0,0,0
i,0x00000000,1716792240.400409,172.16.1.2,51001,172.16.3.2,5101,23624,14645,0,65728,65728,6,6,4,1460,765,1,996,116,33580,0,65700,0,0,0,0,0
i,0x00000000,1716792240.400500,172.16.1.2,51001,172.16.3.2,5101,23624,14645,0,65728,65728,6,6,4,1460,765,1,996,116,33580,0,65700,1,0,0,0,0
o,0x00000000,1716792240.400537,172.16.1.2,51001,172.16.3.2,5101,23624,14645,0,65728,65728,6,6,4,1460,765,1,997,116,33580,0,65700,2,0,0,0,0
o,0x00000000,1716792240.401286,172.16.1.2,31422,172.16.3.2,5101,23624,14480,0,65535,65700,6,6,4,1460,885,1,992,129,33580,33580,65700,0,37,0,0,0
o,0x00000000,1716792240.401755,172.16.1.2,31422,172.16.3.2,5101,23624,14480,0,65535,65700,6,6,4,1460,885,1,992,129,33580,33580,65700,0,1485,0,0,0
o,0x00000000,1716792240.402166,172.16.1.2,31422,172.16.3.2,5101,23624,14480,0,65535,65700,6,6,4,1460,885,1,992,129,33580,33580,65700,0,2933,0,0,0
o,0x00000000,1716792240.402596,172.16.1.2,31422,172.16.3.2,5101,23624,14480,0,65535,65700,6,6,4,1460,885,1,992,129,33580,33580,65700,0,4381,0,0,0
o,0x00000000,1716792240.403145,172.16.1.2,31422,172.16.3.2,5101,23624,14480,0,65535,65700,6,6,4,1460,885,1,992,129,33580,33580,65700,0,5829,0,0,0
o,0x00000000,1716792240.403656,172.16.1.2,31422,172.16.3.2,5101,23624,14480,0,65535,65700,6,6,4,1460,885,1,992,129,33580,33580,65700,0,7277,0,0,0
o,0x00000000,1716792240.404309,172.16.1.2,31422,172.16.3.2,5101,23624,14480,0,65535,65700,6,6,4,1460,885,1,992,129,33580,33580,65700,0,8725,0,0,0
o,0x00000000,1716792240.404773,172.16.1.2,31422,172.16.3.2,5101,23624,14480,0,65535,65700,6,6,4,1460,885,1,992,129,33580,33580,65700,0,10173,0,0,0
o,0x00000000,1716792240.405598,172.16.1.2,31422,172.16.3.2,5101,23624,14480,0,65535,65700,6,6,4,1460,885,1,992,129,33580,33580,65700,0,11621,0,0,0
i,0x00000000,1716792240.429713,172.16.1.2,31422,172.16.3.2,5101,23624,14480,0,65535,65700,6,6,4,1460,885,1,992,129,33580,33580,65700,0,13069,0,0,0
o,0x00000000,1716792240.429748,172.16.1.2,31422,172.16.3.2,5101,23624,14517,0,65728,65728,6,6,4,1460,831,1,992,121,33580,33543,65700,0,13032,0,0,0
i,0x00000000,1716792240.701898,172.16.1.2,31422,172.16.3.2,5101,23624,14517,0,65728,65728,6,6,4,1460,831,1,992,121,33580,33543,65700,0,14480,0,0,0
o,0x00000000,1716792240.702438,172.16.1.2,31422,172.16.3.2,5101,23624,17413,0,64256,65728,6,6,4,1460,848,1,992,107,33580,30647,65700,0,11584,0,0,0
o,0x00000000,1716792240.702667,172.16.1.2,31422,172.16.3.2,5101,23624,17413,0,64256,65728,6,6,4,1460,848,1,992,107,33580,30647,65700,0,13032,0,0,0
o,0x00000000,1716792240.702815,172.16.1.2,31422,172.16.3.2,5101,23624,17413,0,64256,65728,6,6,4,1460,848,1,992,107,41772,30647,65700,0,14480,0,0,0
o,0x00000000,1716792240.702959,172.16.1.2,31422,172.16.3.2,5101,23624,17413,0,64256,65728,6,6,4,1460,848,1,992,107,41772,30647,65700,0,15928,0,0,0
i,0x00000000,1716792240.703092,172.16.1.2,31422,172.16.3.2,5101,23624,17413,0,64256,65728,6,6,4,1460,848,1,992,107,41772,30647,65700,0,17376,0,0,0
o,0x00000000,1716792240.703103,172.16.1.2,31422,172.16.3.2,5101,23624,20309,0,64256,65728,6,6,4,1460,862,1,992,96,41772,27751,65700,0,14480,0,0,0
o,0x00000000,1716792240.703237,172.16.1.2,31422,172.16.3.2,5101,23624,20309,0,64256,65728,6,6,4,1460,862,1,992,96,41772,27751,65700,0,15928,0,0,0
o,0x00000000,1716792240.703371,172.16.1.2,31422,172.16.3.2,5101,23624,20309,0,64256,65728,6,6,4,1460,862,1,992,96,41772,27751,65700,0,17376,0,0,0
o,0x00000000,1716792240.703551,172.16.1.2,31422,172.16.3.2,5101,23624,20309,0,64256,65728,6,6,4,1460,862,1,992,96,41772,27751,65700,0,18824,0,0,0
i,0x00000000,1716792240.704428,172.16.1.2,31422,172.16.3.2,5101,23624,20309,0,64256,65728,6,6,4,1460,862,1,992,96,41772,27751,65700,0,20272,0,0,0
o,0x00000000,1716792240.704460,172.16.1.2,31422,172.16.3.2,5101,23624,23205,0,64256,65728,6,6,4,1460,875,1,992,87,41772,24855,65700,0,17376,0,0,0
o,0x00000000,1716792240.704636,172.16.1.2,31422,172.16.3.2,5101,23624,23205,0,64256,65728,6,6,4,1460,875,1,992,87,41772,24855,65700,0,18824,0,0,0
o,0x00000000,1716792240.705019,172.16.1.2,31422,172.16.3.2,5101,23624,23205,0,64256,65728,6,6,4,1460,875,1,992,87,41772,24855,65700,0,20272,0,0,0
o,0x00000000,1716792240.705182,172.16.1.2,31422,172.16.3.2,5101,23624,23205,0,64256,65728,6,6,4,1460,875,1,992,87,41772,24855,65700,0,21720,0,0,0
i,0x00000000,1716792240.705548,172.16.1.2,31422,172.16.3.2,5101,23624,23205,0,64256,65728,6,6,4,1460,875,1,992,87,41772,24855,65700,0,23168,0,0,0
o,0x00000000,1716792240.705558,172.16.1.2,31422,172.16.3.2,5101,23624,26101,0,64256,65728,6,6,4,1460,886,1,992,80,41772,21959,65700,0,20272,0,0,0
o,0x00000000,1716792240.706561,172.16.1.2,31422,172.16.3.2,5101,23624,26101,0,64256,65728,6,6,4,1460,886,1,992,80,49964,41772,65700,0,21720,0,0,0
o,0x00000000,1716792240.707197,172.16.1.2,31422,172.16.3.2,5101,23624,26101,0,64256,65728,6,6,4,1460,886,1,992,80,49964,41772,65700,0,23168,0,0,0
o,0x00000000,1716792240.707756,172.16.1.2,31422,172.16.3.2,5101,23624,26101,0,64256,65728,6,6,4,1460,886,1,992,80,49964,41772,65700,0,24616,0,0,0
i,0x00000000,1716792240.729511,172.16.1.2,31422,172.16.3.2,5101,23624,26101,0,64256,65728,6,6,4,1460,886,1,992,80,58156,58156,65700,0,26064,0,0,0
o,0x00000000,1716792240.729539,172.16.1.2,31422,172.16.3.2,5101,23624,26101,0,64256,65728,6,6,4,1460,904,1,992,77,58156,55260,65700,0,23168,0,0,0
o,0x00000000,1716792240.730053,172.16.1.2,31422,172.16.3.2,5101,23624,26101,0,64256,65728,6,6,4,1460,904,1,992,77,58156,55260,65700,0,24616,0,0,0
i,0x00000000,1716792241.191491,172.16.1.2,31422,172.16.3.2,5101,23624,26101,0,64256,65728,6,6,4,1460,904,1,992,77,58156,58156,65700,0,26064,0,0,0
o,0x00000000,1716792241.191589,172.16.1.2,31422,172.16.3.2,5101,23624,26101,0,64256,65728,6,6,4,1460,983,1,992,92,58156,55260,65700,0,23168,0,0,0
o,0x00000000,1716792241.191751,172.16.1.2,31422,172.16.3.2,5101,23624,26101,0,64256,65728,6,6,4,1460,983,1,992,92,58156,55260,65700,0,24616,0,0,0
i,0x00000000,1716792241.191848,172.16.1.2,31422,172.16.3.2,5101,23624,26101,0,64256,65728,6,6,4,1460,983,1,992,92,58156,55260,65700,0,26064,0,0,0
o,0x00000000,1716792241.191852,172.16.1.2,31422,172.16.3.2,5101,23624,26101,0,64256,65728,6,6,4,1460,1053,1,992,101,58156,52364,65700,0,23168,0,0,0
o,0x00000000,1716792241.191946,172.16.1.2,31422,172.16.3.2,5101,23624,26101,0,64256,65728,6,6,4,1460,1053,1,992,101,58156,52364,65700,0,24616,0,0,0
i,0x00000000,1716792241.192037,172.16.1.2,31422,172.16.3.2,5101,23624,26101,0,64256,65728,6,6,4,1460,1053,1,992,101,58156,52364,65700,0,26064,0,0,0
o,0x00000000,1716792241.192040,172.16.1.2,31422,172.16.3.2,5101,23624,26101,0,64256,65728,6,6,4,1460,1114,1,992,106,58156,49468,65700,0,23168,0,0,0
o,0x00000000,1716792241.192129,172.16.1.2,31422,172.16.3.2,5101,23624,26101,0,64256,65728,6,6,4,1460,1114,1,992,106,58156,49468,65700,0,24616,0,0,0
i,0x00000000,1716792241.192480,172.16.1.2,31422,172.16.3.2,5101,23624,26101,0,64256,65728,6,6,4,1460,1114,1,992,106,58156,49468,65700,0,26064,0,0,0
o,0x00000000,1716792241.192483,172.16.1.2,31422,172.16.3.2,5101,23624,26101,0,64256,65728,6,6,4,1460,1167,1,992,108,58156,46572,65700,0,23168,0,0,0
o,0x00000000,1716792241.192589,172.16.1.2,31422,172.16.3.2,5101,23624,26101,0,64256,65728,6,6,4,1460,1167,1,992,108,58156,46572,65700,0,24616,0,0,0
i,0x00000000,1716792241.192682,172.16.1.2,31422,172.16.3.2,5101,23624,26101,0,64256,65728,6,6,4,1460,1167,1,992,108,58156,46572,65700,0,26064,0,0,0
o,0x00000000,1716792241.192685,172.16.1.2,31422,172.16.3.2,5101,23624,26101,0,64256,65728,6,6,4,1460,1214,1,992,108,58156,43676,65700,0,23168,0,0,0
o,0x00000000,1716792241.192778,172.16.1.2,31422,172.16.3.2,5101,23624,26101,0,64256,65728,6,6,4,1460,1214,1,992,108,58156,43676,65700,0,24616,0,0,0
i,0x00000000,1716792241.192865,172.16.1.2,31422,172.16.3.2,5101,23624,26101,0,64256,65728,6,6,4,1460,1214,1,992,108,58156,43676,65700,0,26064,0,0,0
o,0x00000000,1716792241.192868,172.16.1.2,31422,172.16.3.2,5101,23624,26101,0,64256,65728,6,6,4,1460,1255,1,992,107,58156,40780,65700,0,23168,0,0,0
o,0x00000000,1716792241.192956,172.16.1.2,31422,172.16.3.2,5101,23624,26101,0,64256,65728,6,6,4,1460,1255,1,992,107,58156,40780,65700,0,24616,0,0,0
i,0x00000000,1716792241.193178,172.16.1.2,31422,172.16.3.2,5101,23624,26101,0,64256,65728,6,6,4,1460,1255,1,992,107,58156,40780,65700,0,26064,0,0,0
o,0x00000000,1716792241.193185,172.16.1.2,31422,172.16.3.2,5101,23624,26101,0,64256,65728,6,6,4,1460,1291,1,992,105,58156,37884,65700,0,23168,0,0,0
o,0x00000000,1716792241.193274,172.16.1.2,31422,172.16.3.2,5101,23624,26101,0,64256,65728,6,6,4,1460,1291,1,992,105,58156,37884,65700,0,24616,0,0,0
i,0x00000000,1716792241.193362,172.16.1.2,31422,172.16.3.2,5101,23624,26101,0,64256,65728,6,6,4,1460,1291,1,992,105,58156,37884,65700,0,26064,0,0,0
o,0x00000000,1716792241.193365,172.16.1.2,31422,172.16.3.2,5101,23624,26101,0,64256,65728,6,6,4,1460,1322,1,992,103,58156,34988,65700,0,23168,0,0,0
o,0x00000000,1716792241.193455,172.16.1.2,31422,172.16.3.2,5101,23624,26101,0,64256,65728,6,6,4,1460,1322,1,992,103,58156,34988,65700,0,24616,0,0,0
i,0x00000000,1716792241.220089,172.16.1.2,31422,172.16.3.2,5101,23624,26101,0,64256,65728,6,6,4,1460,1322,1,992,103,58156,58156,65700,0,26064,0,0,0
o,0x00000000,1716792241.220119,172.16.1.2,31422,172.16.3.2,5101,23624,27561,0,64256,65728,6,6,4,1460,1353,1,992,101,58156,55260,65700,0,23168,0,0,0
o,0x00000000,1716792241.220536,172.16.1.2,31422,172.16.3.2,5101,23624,27561,0,64256,65728,6,6,4,1460,1353,1,992,101,58156,55260,65700,0,24616,0,0,0
o,0x00000000,1716792241.220947,172.16.1.2,31422,172.16.3.2,5101,23624,27561,0,64256,65728,6,6,4,1460,1353,1,992,101,58156,55260,65700,0,26064,0,0,0
i,0x00000000,1716792241.689014,172.16.1.2,31422,172.16.3.2,5101,23624,27561,0,64256,65728,6,6,4,1460,1353,1,992,101,58156,58156,65700,0,27512,0,0,0
o,0x00000000,1716792241.689036,172.16.1.2,31422,172.16.3.2,5101,23624,27561,0,64256,65728,6,6,4,1460,1384,1,992,100,58156,55260,65700,0,24616,0,0,0
o,0x00000000,1716792241.689602,172.16.1.2,31422,172.16.3.2,5101,23624,27561,0,64256,65728,6,6,4,1460,1384,1,992,100,58156,55260,65700,0,26064,0,0,0
i,0x00000000,1716792241.689694,172.16.1.2,31422,172.16.3.2,5101,23624,27561,0,64256,65728,6,6,4,1460,1384,1,992,100,58156,55260,65700,0,27512,0,0,0
o,0x00000000,1716792241.689698,172.16.1.2,31422,172.16.3.2,5101,23624,27561,0,64256,65728,6,6,4,1460,1411,1,992,98,58156,52364,65700,0,24616,0,0,0
o,0x00000000,1716792241.689783,172.16.1.2,31422,172.16.3.2,5101,23624,27561,0,64256,65728,6,6,4,1460,1411,1,992,98,66348,52364,65700,0,26064,0,0,0
i,0x00000000,1716792241.690710,172.16.1.2,31422,172.16.3.2,5101,23624,27561,0,64256,65728,6,6,4,1460,1411,1,992,98,66348,52364,65700,0,27512,0,0,0
o,0x00000000,1716792241.690716,172.16.1.2,31422,172.16.3.2,5101,23624,27561,0,64256,65728,6,6,4,1460,1435,1,992,97,66348,49468,65700,0,24616,0,0,0
o,0x00000000,1716792241.690809,172.16.1.2,31422,172.16.3.2,5101,23624,27561,0,64256,65728,6,6,4,1460,1435,1,992,97,66348,49468,65700,0,26064,0,0,0
i,0x00000000,1716792241.690913,172.16.1.2,31422,172.16.3.2,5101,23624,27561,0,64256,65728,6,6,4,1460,1435,1,992,97,66348,49468,65700,0,27512,0,0,0
o,0x00000000,1716792241.690917,172.16.1.2,31422,172.16.3.2,5101,23624,27561,0,64256,65728,6,6,4,1460,1456,1,992,95,66348,46572,65700,0,24616,0,0,0
o,0x00000000,1716792241.691011,172.16.1.2,31422,172.16.3.2,5101,23624,27561,0,64256,65728,6,6,4,1460,1456,1,992,95,66348,46572,65700,0,26064,0,0,0
i,0x00000000,1716792241.691095,172.16.1.2,31422,172.16.3.2,5101,23624,27561,0,64256,65728,6,6,4,1460,1456,1,992,95,66348,46572,65700,0,27512,0,0,0
o,0x00000000,1716792241.691097,172.16.1.2,31422,172.16.3.2,5101,23624,27561,0,64256,65728,6,6,4,1460,1474,1,992,92,66348,43676,65700,0,24616,0,0,0
o,0x00000000,1716792241.691185,172.16.1.2,31422,172.16.3.2,5101,23624,27561,0,64256,65728,6,6,4,1460,1474,1,992,92,66348,43676,65700,0,26064,0,0,0
i,0x00000000,1716792241.691268,172.16.1.2,31422,172.16.3.2,5101,23624,27561,0,64256,65728,6,6,4,1460,1474,1,992,92,66348,43676,65700,0,27512,0,0,0
o,0x00000000,1716792241.691271,172.16.1.2,31422,172.16.3.2,5101,23624,27561,0,64256,65728,6,6,4,1460,1490,1,992,90,66348,40780,65700,0,24616,0,0,0
o,0x00000000,1716792241.691357,172.16.1.2,31422,172.16.3.2,5101,23624,27561,0,64256,65728,6,6,4,1460,1490,1,992,90,66348,40780,65700,0,26064,0,0,0
i,0x00000000,1716792241.691441,172.16.1.2,31422,172.16.3.2,5101,23624,27561,0,64256,65728,6,6,4,1460,1490,1,992,90,66348,40780,65700,0,27512,0,0,0
o,0x00000000,1716792241.691444,172.16.1.2,31422,172.16.3.2,5101,23624,27561,0,64256,65728,6,6,4,1460,1504,1,992,88,66348,37884,65700,0,24616,0,0,0
o,0x00000000,1716792241.691527,172.16.1.2,31422,172.16.3.2,5101,23624,27561,0,64256,65728,6,6,4,1460,1504,1,992,88,66348,37884,65700,0,26064,0,0,0
i,0x00000000,1716792241.691613,172.16.1.2,31422,172.16.3.2,5101,23624,27561,0,64256,65728,6,6,4,1460,1504,1,992,88,66348,37884,65700,0,27512,0,0,0
o,0x00000000,1716792241.691616,172.16.1.2,31422,172.16.3.2,5101,23624,27561,0,64256,65728,6,6,4,1460,1516,1,992,86,66348,34988,65700,0,24616,0,0,0
o,0x00000000,1716792241.691700,172.16.1.2,31422,172.16.3.2,5101,23624,27561,0,64256,65728,6,6,4,1460,1516,1,992,86,66348,34988,65700,0,26064,0,0,0
i,0x00000000,1716792241.719899,172.16.1.2,31422,172.16.3.2,5101,23624,27561,0,64256,65728,6,6,4,1460,1516,1,992,86,66348,66348,65700,0,27512,0,0,0
o,0x00000000,1716792241.719922,172.16.1.2,31422,172.16.3.2,5101,23624,29021,0,64256,65728,6,6,4,1460,1527,1,992,85,66348,63452,65700,0,24616,0,0,0
o,0x00000000,1716792241.720307,172.16.1.2,31422,172.16.3.2,5101,23624,29021,0,64256,65728,6,6,4,1460,1527,1,992,85,66348,63452,65700,0,26064,0,0,0
o,0x00000000,1716792241.720837,172.16.1.2,31422,172.16.3.2,5101,23624,29021,0,64256,65728,6,6,4,1460,1527,1,992,85,66348,63452,65700,0,27512,0,0,0
i,0x00000000,1716792242.139869,172.16.1.2,31422,172.16.3.2,5101,23624,29021,0,64256,65728,6,6,4,1460,1527,1,992,85,66348,64464,65700,0,28960,0,0,0
o,0x00000000,1716792242.139893,172.16.1.2,31422,172.16.3.2,5101,23624,29021,0,65728,65728,6,6,4,1460,1701,1,992,129,66348,63016,65700,0,27512,0,0,0
i,0x00000000,1716792242.190004,172.16.1.2,31422,172.16.3.2,5101,23624,29021,0,65728,65728,6,6,4,1460,1701,1,992,129,66348,66348,65700,0,28960,0,0,0
o,0x00000000,1716792242.190025,172.16.1.2,31422,172.16.3.2,5101,23624,29021,0,64256,65728,6,6,4,1460,1689,1,992,118,66348,63452,65700,0,26064,0,0,0
o,0x00000000,1716792242.190148,172.16.1.2,31422,172.16.3.2,5101,23624,29021,0,64256,65728,6,6,4,1460,1689,1,992,118,66348,63452,65700,0,27512,0,0,0
i,0x00000000,1716792242.190238,172.16.1.2,31422,172.16.3.2,5101,23624,29021,0,64256,65728,6,6,4,1460,1689,1,992,118,66348,63452,65700,0,28960,0,0,0
o,0x00000000,1716792242.190241,172.16.1.2,31422,172.16.3.2,5101,23624,29021,0,64256,65728,6,6,4,1460,1678,1,992,109,66348,60556,65700,0,26064,0,0,0
o,0x00000000,1716792242.190340,172.16.1.2,31422,172.16.3.2,5101,23624,29021,0,64256,65728,6,6,4,1460,1678,1,992,109,66348,60556,65700,0,27512,0,0,0
i,0x00000000,1716792242.190427,172.16.1.2,31422,172.16.3.2,5101,23624,29021,0,64256,65728,6,6,4,1460,1678,1,992,109,66348,60556,65700,0,28960,0,0,0
o,0x00000000,1716792242.190430,172.16.1.2,31422,172.16.3.2,5101,23624,29021,0,64256,65728,6,6,4,1460,1669,1,992,102,66348,57660,65700,0,26064,0,0,0
o,0x00000000,1716792242.190511,172.16.1.2,31422,172.16.3.2,5101,23624,29021,0,64256,65728,6,6,4,1460,1669,1,992,102,66348,57660,65700,0,27512,0,0,0
i,0x00000000,1716792242.190593,172.16.1.2,31422,172.16.3.2,5101,23624,29021,0,64256,65728,6,6,4,1460,1669,1,992,102,66348,57660,65700,0,28960,0,0,0
o,0x00000000,1716792242.190596,172.16.1.2,31422,172.16.3.2,5101,23624,29021,0,64256,65728,6,6,4,1460,1661,1,992,96,66348,54764,65700,0,26064,0,0,0
o,0x00000000,1716792242.190677,172.16.1.2,31422,172.16.3.2,5101,23624,29021,0,64256,65728,6,6,4,1460,1661,1,992,96,66348,54764,65700,0,27512,0,0,0
i,0x00000000,1716792242.190758,172.16.1.2,31422,172.16.3.2,5101,23624,29021,0,64256,65728,6,6,4,1460,1661,1,992,96,66348,54764,65700,0,28960,0,0,0
o,0x00000000,1716792242.190761,172.16.1.2,31422,172.16.3.2,5101,23624,29021,0,64256,65728,6,6,4,1460,1654,1,992,92,66348,51868,65700,0,26064,0,0,0
o,0x00000000,1716792242.190842,172.16.1.2,31422,172.16.3.2,5101,23624,29021,0,64256,65728,6,6,4,1460,1654,1,992,92,66348,51868,65700,0,27512,0,0,0
i,0x00000000,1716792242.191178,172.16.1.2,31422,172.16.3.2,5101,23624,29021,0,64256,65728,6,6,4,1460,1654,1,992,92,66348,51868,65700,0,28960,0,0,0
o,0x00000000,1716792242.191182,172.16.1.2,31422,172.16.3.2,5101,23624,29021,0,64256,65728,6,6,4,1460,1648,1,992,88,66348,48972,65700,0,26064,0,0,0
o,0x00000000,1716792242.191265,172.16.1.2,31422,172.16.3.2,5101,23624,29021,0,64256,65728,6,6,4,1460,1648,1,992,88,66348,48972,65700,0,27512,0,0,0
i,0x00000000,1716792242.209885,172.16.1.2,31422,172.16.3.2,5101,23624,29021,0,64256,65728,6,6,4,1460,1648,1,992,88,66348,66348,65700,0,28960,0,0,0
o,0x00000000,1716792242.209904,172.16.1.2,31422,172.16.3.2,5101,23624,29021,0,64256,65728,6,6,4,1460,1646,1,992,84,66348,63452,65700,0,26064,0,0,0
o,0x00000000,1716792242.210276,172.16.1.2,31422,172.16.3.2,5101,23624,29021,0,64256,65728,6,6,4,1460,1646,1,992,84,66348,63452,65700,0,27512,0,0,0
i,0x00000000,1716792242.220177,172.16.1.2,31422,172.16.3.2,5101,23624,29021,0,64256,65728,6,6,4,1460,1646,1,992,84,66348,66348,65700,0,28960,0,0,0
o,0x00000000,1716792242.220225,172.16.1.2,31422,172.16.3.2,5101,23624,29021,0,64256,65728,6,6,4,1460,1649,1,992,82,66348,63452,65700,0,26064,0,0,0
o,0x00000000,1716792242.220357,172.16.1.2,31422,172.16.3.2,5101,23624,29021,0,64256,65728,6,6,4,1460,1649,1,992,82,66348,63452,65700,0,27512,0,0,0
i,0x00000000,1716792242.220503,172.16.1.2,31422,172.16.3.2,5101,23624,29021,0,64256,65728,6,6,4,1460,1649,1,992,82,66348,63452,65700,0,28960,0,0,0
o,0x00000000,1716792242.220509,172.16.1.2,31422,172.16.3.2,5101,23624,29021,0,64256,65728,6,6,4,1460,1639,1,992,81,66348,60556,65700,0,26064,0,0,0
o,0x00000000,1716792242.220637,172.16.1.2,31422,172.16.3.2,5101,23624,29021,0,64256,65728,6,6,4,1460,1639,1,992,81,66348,60556,65700,0,27512,0,0,0
i,0x00000000,1716792242.600495,172.16.1.2,31422,172.16.3.2,5101,23624,29021,0,64256,65728,6,6,4,1460,1639,1,992,81,66348,66348,65700,0,28960,0,0,0
o,0x00000000,1716792242.600518,172.16.1.2,31422,172.16.3.2,5101,23624,30481,0,65728,65728,6,6,4,1460,1783,1,992,119,66348,64900,65700,0,27512,0,0,0
o,0x00000000,1716792242.600817,172.16.1.2,31422,172.16.3.2,5101,23624,30481,0,65728,65728,6,6,4,1460,1783,1,992,119,66348,64900,65700,0,28960,0,0,0
i,0x00000000,1716792242.650268,172.16.1.2,31422,172.16.3.2,5101,23624,30481,0,65728,65728,6,6,4,1460,1783,1,992,119,66348,64900,65700,0,30408,0,0,0
o,0x00000000,1716792242.650292,172.16.1.2,31422,172.16.3.2,5101,23624,30481,0,65728,65728,6,6,4,1460,1765,1,992,112,66348,63452,65700,0,28960,0,0,0
i,0x00000000,1716792242.680172,172.16.1.2,31422,172.16.3.2,5101,23624,30481,0,65728,65728,6,6,4,1460,1765,1,992,112,66348,66348,65700,0,30408,0,0,0
o,0x00000000,1716792242.680191,172.16.1.2,31422,172.16.3.2,5101,23624,30481,0,64256,65728,6,6,4,1460,1737,1,992,109,66348,63452,65700,0,27512,0,0,0
o,0x00000000,1716792242.680291,172.16.1.2,31422,172.16.3.2,5101,23624,30481,0,64256,65728,6,6,4,1460,1737,1,992,109,66348,63452,65700,0,28960,0,0,0
i,0x00000000,1716792242.680376,172.16.1.2,31422,172.16.3.2,5101,23624,30481,0,64256,65728,6,6,4,1460,1737,1,992,109,66348,63452,65700,0,30408,0,0,0
o,0x00000000,1716792242.680380,172.16.1.2,31422,172.16.3.2,5101,23624,30481,0,64256,65728,6,6,4,1460,1712,1,992,106,66348,60556,65700,0,27512,0,0,0
o,0x00000000,1716792242.680464,172.16.1.2,31422,172.16.3.2,5101,23624,30481,0,64256,65728,6,6,4,1460,1712,1,992,106,66348,60556,65700,0,28960,0,0,0
i,0x00000000,1716792242.680550,172.16.1.2,31422,172.16.3.2,5101,23624,30481,0,64256,65728,6,6,4,1460,1712,1,992,106,74540,60556,65700,0,30408,0,0,0
o,0x00000000,1716792242.680553,172.16.1.2,31422,172.16.3.2,5101,23624,30481,0,64256,65728,6,6,4,1460,1690,1,992,103,74540,57660,65700,0,27512,0,0,0
o,0x00000000,1716792242.680637,172.16.1.2,31422,172.16.3.2,5101,23624,30481,0,64256,65728,6,6,4,1460,1690,1,992,103,74540,57660,65700,0,28960,0,0,0
i,0x00000000,1716792242.680980,172.16.1.2,31422,172.16.3.2,5101,23624,30481,0,64256,65728,6,6,4,1460,1690,1,992,103,74540,57660,65700,0,30408,0,0,0
o,0x00000000,1716792242.680983,172.16.1.2,31422,172.16.3.2,5101,23624,30481,0,64256,65728,6,6,4,1460,1671,1,992,99,74540,54764,65700,0,27512,0,0,0
o,0x00000000,1716792242.681068,172.16.1.2,31422,172.16.3.2,5101,23624,30481,0,64256,65728,6,6,4,1460,1671,1,992,99,74540,54764,65700,0,28960,0,0,0
i,0x00000000,1716792242.681150,172.16.1.2,31422,172.16.3.2,5101,23624,30481,0,64256,65728,6,6,4,1460,1671,1,992,99,74540,54764,65700,0,30408,0,0,0
o,0x00000000,1716792242.681153,172.16.1.2,31422,172.16.3.2,5101,23624,30481,0,64256,65728,6,6,4,1460,1655,1,992,96,74540,51868,65700,0,27512,0,0,0
o,0x00000000,1716792242.681239,172.16.1.2,31422,172.16.3.2,5101,23624,30481,0,64256,65728,6,6,4,1460,1655,1,992,96,74540,51868,65700,0,28960,0,0,0
i,0x00000000,1716792242.681434,172.16.1.2,31422,172.16.3.2,5101,23624,30481,0,64256,65728,6,6,4,1460,1655,1,992,96,74540,51868,65700,0,30408,0,0,0
o,0x00000000,1716792242.681438,172.16.1.2,31422,172.16.3.2,5101,23624,30481,0,64256,65728,6,6,4,1460,1641,1,992,93,74540,48972,65700,0,27512,0,0,0
o,0x00000000,1716792242.681524,172.16.1.2,31422,172.16.3.2,5101,23624,30481,0,64256,65728,6,6,4,1460,1641,1,992,93,74540,48972,65700,0,28960,0,0,0
i,0x00000000,1716792242.681610,172.16.1.2,31422,172.16.3.2,5101,23624,30481,0,64256,65728,6,6,4,1460,1641,1,992,93,74540,48972,65700,0,30408,0,0,0
o,0x00000000,1716792242.681614,172.16.1.2,31422,172.16.3.2,5101,23624,30481,0,64256,65728,6,6,4,1460,1624,1,992,91,74540,46076,65700,0,27512,0,0,0
o,0x00000000,1716792242.681730,172.16.1.2,31422,172.16.3.2,5101,23624,30481,0,64256,65728,6,6,4,1460,1624,1,992,91,74540,46076,65700,0,28960,0,0,0
i,0x00000000,1716792242.719626,172.16.1.2,31422,172.16.3.2,5101,23624,30481,0,64256,65728,6,6,4,1460,1624,1,992,91,74540,74540,65700,0,30408,0,0,0
o,0x00000000,1716792242.719644,172.16.1.2,31422,172.16.3.2,5101,23624,30481,0,64256,65728,6,6,4,1460,1621,1,992,87,74540,71644,65700,0,27512,0,0,0
o,0x00000000,1716792242.719928,172.16.1.2,31422,172.16.3.2,5101,23624,30481,0,64256,65728,6,6,4,1460,1621,1,992,87,74540,71644,65700,0,28960,0,0,0
i,0x00000000,1716792242.720180,172.16.1.2,31422,172.16.3.2,5101,23624,30481,0,64256,65728,6,6,4,1460,1621,1,992,87,74540,71644,65700,0,30408,0,0,0
o,0x00000000,1716792242.720183,172.16.1.2,31422,172.16.3.2,5101,23624,30481,0,64256,65728,6,6,4,1460,1619,1,992,83,74540,68748,65700,0,27512,0,0,0
o,0x00000000,1716792242.720432,172.16.1.2,31422,172.16.3.2,5101,23624,30481,0,64256,65728,6,6,4,1460,1619,1,992,83,74540,68748,65700,0,28960,0,0,0
i,0x00000000,1716792243.119797,172.16.1.2,31422,172.16.3.2,5101,23624,30481,0,64256,65728,6,6,4,1460,1619,1,992,83,74540,74540,65700,0,30408,0,0,0
o,0x00000000,1716792243.119829,172.16.1.2,31422,172.16.3.2,5101,23624,31941,0,64256,65728,6,6,4,1460,1625,1,992,82,74540,71644,65700,0,27512,0,0,0
o,0x00000000,1716792243.120169,172.16.1.2,31422,172.16.3.2,5101,23624,31941,0,64256,65728,6,6,4,1460,1625,1,992,82,74540,71644,65700,0,28960,0,0,0
o,0x00000000,1716792243.120469,172.16.1.2,31422,172.16.3.2,5101,23624,31941,0,64256,65728,6,6,4,1460,1625,1,992,82,74540,71644,65700,0,30408,0,0,0
i,0x00000000,1716792243.199242,172.16.1.2,31422,172.16.3.2,5101,23624,31941,0,64256,65728,6,6,4,1460,1625,1,992,82,74540,74540,65700,0,31856,0,0,0
o,0x00000000,1716792243.199264,172.16.1.2,31422,172.16.3.2,5101,23624,31941,0,65728,65728,6,6,4,1460,1642,1,992,84,74540,73092,65700,0,30408,0,0,0
i,0x00000000,1716792243.209207,172.16.1.2,31422,172.16.3.2,5101,23624,31941,0,65728,65728,6,6,4,1460,1642,1,992,84,74540,73092,65700,0,31856,0,0,0
o,0x00000000,1716792243.209371,172.16.1.2,31422,172.16.3.2,5101,23624,31941,0,64256,65728,6,6,4,1460,1649,1,992,83,74540,70196,65700,0,28960,0,0,0
o,0x00000000,1716792243.209461,172.16.1.2,31422,172.16.3.2,5101,23624,31941,0,64256,65728,6,6,4,1460,1649,1,992,83,74540,70196,65700,0,30408,0,0,0
i,0x00000000,1716792243.209536,172.16.1.2,31422,172.16.3.2,5101,23624,31941,0,64256,65728,6,6,4,1460,1649,1,992,83,74540,70196,65700,0,31856,0,0,0
o,0x00000000,1716792243.209539,172.16.1.2,31422,172.16.3.2,5101,23624,31941,0,64256,65728,6,6,4,1460,1655,1,992,81,74540,67300,65700,0,28960,0,0,0
o,0x00000000,1716792243.209615,172.16.1.2,31422,172.16.3.2,5101,23624,31941,0,64256,65728,6,6,4,1460,1655,1,992,81,74540,67300,65700,0,30408,0,0,0
i,0x00000000,1716792243.209941,172.16.1.2,31422,172.16.3.2,5101,23624,31941,0,64256,65728,6,6,4,1460,1655,1,992,81,74540,67300,65700,0,31856,0,0,0
o,0x00000000,1716792243.209944,172.16.1.2,31422,172.16.3.2,5101,23624,31941,0,64256,65728,6,6,4,1460,1661,1,992,81,74540,64404,65700,0,28960,0,0,0
o,0x00000000,1716792243.210049,172.16.1.2,31422,172.16.3.2,5101,23624,31941,0,64256,65728,6,6,4,1460,1661,1,992,81,74540,64404,65700,0,30408,0,0,0
i,0x00000000,1716792243.210122,172.16.1.2,31422,172.16.3.2,5101,23624,31941,0,64256,65728,6,6,4,1460,1661,1,992,81,74540,64404,65700,0,31856,0,0,0
o,0x00000000,1716792243.210125,172.16.1.2,31422,172.16.3.2,5101,23624,31941,0,64256,65728,6,6,4,1460,1666,1,992,80,74540,61508,65700,0,28960,0,0,0
o,0x00000000,1716792243.210198,172.16.1.2,31422,172.16.3.2,5101,23624,31941,0,64256,65728,6,6,4,1460,1666,1,992,80,74540,61508,65700,0,30408,0,0,0
i,0x00000000,1716792243.210270,172.16.1.2,31422,172.16.3.2,5101,23624,31941,0,64256,65728,6,6,4,1460,1666,1,992,80,74540,61508,65700,0,31856,0,0,0
o,0x00000000,1716792243.210273,172.16.1.2,31422,172.16.3.2,5101,23624,31941,0,64256,65728,6,6,4,1460,1670,1,992,79,74540,58612,65700,0,28960,0,0,0
o,0x00000000,1716792243.210348,172.16.1.2,31422,172.16.3.2,5101,23624,31941,0,64256,65728,6,6,4,1460,1670,1,992,79,74540,58612,65700,0,30408,0,0,0
i,0x00000000,1716792243.210426,172.16.1.2,31422,172.16.3.2,5101,23624,31941,0,64256,65728,6,6,4,1460,1670,1,992,79,74540,58612,65700,0,31856,0,0,0
o,0x00000000,1716792243.210429,172.16.1.2,31422,172.16.3.2,5101,23624,31941,0,64256,65728,6,6,4,1460,1674,1,992,78,74540,55716,65700,0,28960,0,0,0
o,0x00000000,1716792243.210503,172.16.1.2,31422,172.16.3.2,5101,23624,31941,0,64256,65728,6,6,4,1460,1674,1,992,78,74540,55716,65700,0,30408,0,0,0
i,0x00000000,1716792243.210576,172.16.1.2,31422,172.16.3.2,5101,23624,31941,0,64256,65728,6,6,4,1460,1674,1,992,78,74540,55716,65700,0,31856,0,0,0
o,0x00000000,1716792243.210579,172.16.1.2,31422,172.16.3.2,5101,23624,31941,0,64256,65728,6,6,4,1460,1677,1,992,78,74540,52820,65700,0,28960,0,0,0
o,0x00000000,1716792243.210653,172.16.1.2,31422,172.16.3.2,5101,23624,31941,0,64256,65728,6,6,4,1460,1677,1,992,78,74540,52820,65700,0,30408,0,0,0
i,0x00000000,1716792243.239466,172.16.1.2,31422,172.16.3.2,5101,23624,31941,0,64256,65728,6,6,4,1460,1677,1,992,78,74540,74540,65700,0,31856,0,0,0
o,0x00000000,1716792243.239475,172.16.1.2,31422,172.16.3.2,5101,23624,31941,0,64256,65728,6,6,4,1460,1676,1,992,77,74540,71644,65700,0,28960,0,0,0
o,0x00000000,1716792243.239561,172.16.1.2,31422,172.16.3.2,5101,23624,31941,0,64256,65728,6,6,4,1460,1676,1,992,77,74540,71644,65700,0,30408,0,0,0
i,0x00000000,1716792243.239671,172.16.1.2,31422,172.16.3.2,5101,23624,31941,0,64256,65728,6,6,4,1460,1676,1,992,77,74540,71644,65700,0,31856,0,0,0
o,0x00000000,1716792243.239675,172.16.1.2,31422,172.16.3.2,5101,23624,31941,0,64256,65728,6,6,4,1460,1675,1,992,76,74540,68748,65700,0,28960,0,0,0
o,0x00000000,1716792243.239779,172.16.1.2,31422,172.16.3.2,5101,23624,31941,0,64256,65728,6,6,4,1460,1675,1,992,76,74540,68748,65700,0,30408,0,0,0
i,0x00000000,1716792243.650362,172.16.1.2,31422,172.16.3.2,5101,23624,31941,0,64256,65728,6,6,4,1460,1675,1,992,76,74540,74540,65700,0,31856,0,0,0
o,0x00000000,1716792243.650388,172.16.1.2,31422,172.16.3.2,5101,23624,31941,0,64256,65728,6,6,4,1460,1678,1,992,76,74540,71644,65700,0,28960,0,0,0
o,0x00000000,1716792243.650687,172.16.1.2,31422,172.16.3.2,5101,23624,31941,0,64256,65728,6,6,4,1460,1678,1,992,76,74540,71644,65700,0,30408,0,0,0
i,0x00000000,1716792243.700188,172.16.1.2,31422,172.16.3.2,5101,23624,31941,0,64256,65728,6,6,4,1460,1678,1,992,76,74540,74540,65700,0,31856,0,0,0
o,0x00000000,1716792243.700208,172.16.1.2,31422,172.16.3.2,5101,23624,33401,0,65728,65728,6,6,4,1460,1697,1,992,80,74540,73092,65700,0,30408,0,0,0
o,0x00000000,1716792243.700537,172.16.1.2,31422,172.16.3.2,5101,23624,33401,0,65728,65728,6,6,4,1460,1697,1,992,80,74540,73092,65700,0,31856,0,0,0
i,0x00000000,1716792243.730447,172.16.1.2,31422,172.16.3.2,5101,23624,33401,0,65728,65728,6,6,4,1460,1697,1,992,80,74540,73092,65700,0,33304,0,0,0
o,0x00000000,1716792243.730468,172.16.1.2,31422,172.16.3.2,5101,23624,33401,0,64256,65728,6,6,4,1460,1697,1,992,79,74540,70196,65700,0,30408,0,0,0
o,0x00000000,1716792243.730556,172.16.1.2,31422,172.16.3.2,5101,23624,33401,0,64256,65728,6,6,4,1460,1697,1,992,79,74540,70196,65700,0,31856,0,0,0
i,0x00000000,1716792243.730636,172.16.1.2,31422,172.16.3.2,5101,23624,33401,0,64256,65728,6,6,4,1460,1697,1,992,79,74540,70196,65700,0,33304,0,0,0
o,0x00000000,1716792243.730641,172.16.1.2,31422,172.16.3.2,5101,23624,33401,0,64256,65728,6,6,4,1460,1693,1,992,78,74540,67300,65700,0,30408,0,0,0
o,0x00000000,1716792243.730737,172.16.1.2,31422,172.16.3.2,5101,23624,33401,0,64256,65728,6,6,4,1460,1693,1,992,78,74540,67300,65700,0,31856,0,0,0
i,0x00000000,1716792243.730823,172.16.1.2,31422,172.16.3.2,5101,23624,33401,0,64256,65728,6,6,4,1460,1693,1,992,78,74540,67300,65700,0,33304,0,0,0
o,0x00000000,1716792243.730825,172.16.1.2,31422,172.16.3.2,5101,23624,33401,0,64256,65728,6,6,4,1460,1690,1,992,77,74540,64404,65700,0,30408,0,0,0
o,0x00000000,1716792243.730899,172.16.1.2,31422,172.16.3.2,5101,23624,33401,0,64256,65728,6,6,4,1460,1690,1,992,77,74540,64404,65700,0,31856,0,0,0
i,0x00000000,1716792243.731189,172.16.1.2,31422,172.16.3.2,5101,23624,33401,0,64256,65728,6,6,4,1460,1690,1,992,77,74540,64404,65700,0,33304,0,0,0
o,0x00000000,1716792243.731192,172.16.1.2,31422,172.16.3.2,5101,23624,33401,0,64256,65728,6,6,4,1460,1687,1,992,77,74540,61508,65700,0,30408,0,0,0
o,0x00000000,1716792243.731268,172.16.1.2,31422,172.16.3.2,5101,23624,33401,0,64256,65728,6,6,4,1460,1687,1,992,77,74540,61508,65700,0,31856,0,0,0
i,0x00000000,1716792243.731348,172.16.1.2,31422,172.16.3.2,5101,23624,33401,0,64256,65728,6,6,4,1460,1687,1,992,77,74540,61508,65700,0,33304,0,0,0
o,0x00000000,1716792243.731351,172.16.1.2,31422,172.16.3.2,5101,23624,33401,0,64256,65728,6,6,4,1460,1685,1,992,76,74540,58612,65700,0,30408,0,0,0
o,0x00000000,1716792243.731425,172.16.1.2,31422,172.16.3.2,5101,23624,33401,0,64256,65728,6,6,4,1460,1685,1,992,76,74540,58612,65700,0,31856,0,0,0
i,0x00000000,1716792243.731510,172.16.1.2,31422,172.16.3.2,5101,23624,33401,0,64256,65728,6,6,4,1460,1685,1,992,76,74540,58612,65700,0,33304,0,0,0
o,0x00000000,1716792243.731513,172.16.1.2,31422,172.16.3.2,5101,23624,33401,0,64256,65728,6,6,4,1460,1683,1,992,76,74540,55716,65700,0,30408,0,0,0
o,0x00000000,1716792243.731587,172.16.1.2,31422,172.16.3.2,5101,23624,33401,0,64256,65728,6,6,4,1460,1683,1,992,76,74540,55716,65700,0,31856,0,0,0
i,0x00000000,1716792243.759726,172.16.1.2,31422,172.16.3.2,5101,23624,33401,0,64256,65728,6,6,4,1460,1683,1,992,76,74540,74540,65700,0,33304,0,0,0
o,0x00000000,1716792243.759756,172.16.1.2,31422,172.16.3.2,5101,23624,33401,0,64256,65728,6,6,4,1460,1693,1,992,78,74540,71644,65700,0,30408,0,0,0
o,0x00000000,1716792243.760170,172.16.1.2,31422,172.16.3.2,5101,23624,33401,0,64256,65728,6,6,4,1460,1693,1,992,78,74540,71644,65700,0,31856,0,0,0
i,0x00000000,1716792243.780072,172.16.1.2,31422,172.16.3.2,5101,23624,33401,0,64256,65728,6,6,4,1460,1693,1,992,78,74540,74540,65700,0,33304,0,0,0
o,0x00000000,1716792243.780087,172.16.1.2,31422,172.16.3.2,5101,23624,33401,0,64256,65728,6,6,4,1460,1710,1,992,81,74540,71644,65700,0,30408,0,0,0
o,0x00000000,1716792243.780190,172.16.1.2,31422,172.16.3.2,5101,23624,33401,0,64256,65728,6,6,4,1460,1710,1,992,81,74540,71644,65700,0,31856,0,0,0
i,0x00000000,1716792243.780286,172.16.1.2,31422,172.16.3.2,5101,23624,33401,0,64256,65728,6,6,4,1460,1710,1,992,81,74540,71644,65700,0,33304,0,0,0
o,0x00000000,1716792243.780290,172.16.1.2,31422,172.16.3.2,5101,23624,33401,0,64256,65728,6,6,4,1460,1713,1,992,80,74540,68748,65700,0,30408,0,0,0
o,0x00000000,1716792243.780383,172.16.1.2,31422,172.16.3.2,5101,23624,33401,0,64256,65728,6,6,4,1460,1713,1,992,80,74540,68748,65700,0,31856,0,0,0
i,0x00000000,1716792244.169779,172.16.1.2,31422,172.16.3.2,5101,23624,33401,0,64256,65728,6,6,4,1460,1713,1,992,80,74540,74540,65700,0,33304,0,0,0
o,0x00000000,1716792244.169801,172.16.1.2,31422,172.16.3.2,5101,23624,33401,0,65728,65728,6,6,4,1460,1871,1,992,123,74540,73092,65700,0,31856,0,0,0
i,0x00000000,1716792244.189638,172.16.1.2,31422,172.16.3.2,5101,23624,33401,0,65728,65728,6,6,4,1460,1871,1,992,123,74540,73092,65700,0,33304,0,0,0
o,0x00000000,1716792244.189650,172.16.1.2,31422,172.16.3.2,5101,23624,33401,0,64256,65728,6,6,4,1460,1850,1,992,116,74540,70196,65700,0,30408,0,0,0
o,0x00000000,1716792244.189984,172.16.1.2,31422,172.16.3.2,5101,23624,33401,0,64256,65728,6,6,4,1460,1850,1,992,116,74540,70196,65700,0,31856,0,0,0
i,0x00000000,1716792244.240091,172.16.1.2,31422,172.16.3.2,5101,23624,33401,0,64256,65728,6,6,4,1460,1850,1,992,116,74540,73904,65700,0,33304,0,0,0
o,0x00000000,1716792244.240117,172.16.1.2,31422,172.16.3.2,5101,23624,34861,0,64256,65728,6,6,4,1460,1835,1,992,110,74540,71008,65700,0,30408,0,0,0
o,0x00000000,1716792244.240580,172.16.1.2,31422,172.16.3.2,5101,23624,34861,0,64256,65728,6,6,4,1460,1835,1,992,110,74540,71008,65700,0,31856,0,0,0
o,0x00000000,1716792244.240890,172.16.1.2,31422,172.16.3.2,5101,23624,34861,0,64256,65728,6,6,4,1460,1835,1,992,110,74540,71008,65700,0,33304,0,0,0
i,0x00000000,1716792244.280092,172.16.1.2,31422,172.16.3.2,5101,23624,34861,0,64256,65728,6,6,4,1460,1835,1,992,110,74540,74540,65700,0,34752,0,0,0
o,0x00000000,1716792244.280114,172.16.1.2,31422,172.16.3.2,5101,23624,34861,0,64256,65728,6,6,4,1460,1826,1,992,104,74540,71644,65700,0,31856,0,0,0
o,0x00000000,1716792244.280203,172.16.1.2,31422,172.16.3.2,5101,23624,34861,0,64256,65728,6,6,4,1460,1826,1,992,104,74540,71644,65700,0,33304,0,0,0
i,0x00000000,1716792244.280280,172.16.1.2,31422,172.16.3.2,5101,23624,34861,0,64256,65728,6,6,4,1460,1826,1,992,104,74540,71644,65700,0,34752,0,0,0
o,0x00000000,1716792244.280284,172.16.1.2,31422,172.16.3.2,5101,23624,34861,0,64256,65728,6,6,4,1460,1818,1,992,99,74540,68748,65700,0,31856,0,0,0
o,0x00000000,1716792244.280359,172.16.1.2,31422,172.16.3.2,5101,23624,34861,0,64256,65728,6,6,4,1460,1818,1,992,99,74540,68748,65700,0,33304,0,0,0
i,0x00000000,1716792244.280435,172.16.1.2,31422,172.16.3.2,5101,23624,34861,0,64256,65728,6,6,4,1460,1818,1,992,99,82732,68748,65700,0,34752,0,0,0
o,0x00000000,1716792244.280438,172.16.1.2,31422,172.16.3.2,5101,23624,34861,0,64256,65728,6,6,4,1460,1811,1,992,95,82732,65852,65700,0,31856,0,0,0
o,0x00000000,1716792244.280512,172.16.1.2,31422,172.16.3.2,5101,23624,34861,0,64256,65728,6,6,4,1460,1811,1,992,95,82732,65852,65700,0,33304,0,0,0
i,0x00000000,1716792244.280817,172.16.1.2,31422,172.16.3.2,5101,23624,34861,0,64256,65728,6,6,4,1460,1811,1,992,95,82732,65852,65700,0,34752,0,0,0
o,0x00000000,1716792244.280820,172.16.1.2,31422,172.16.3.2,5101,23624,34861,0,64256,65728,6,6,4,1460,1805,1,992,91,82732,62956,65700,0,31856,0,0,0
o,0x00000000,1716792244.280897,172.16.1.2,31422,172.16.3.2,5101,23624,34861,0,64256,65728,6,6,4,1460,1805,1,992,91,82732,62956,65700,0,33304,0,0,0
i,0x00000000,1716792244.280970,172.16.1.2,31422,172.16.3.2,5101,23624,34861,0,64256,65728,6,6,4,1460,1805,1,992,91,82732,62956,65700,0,34752,0,0,0
o,0x00000000,1716792244.280972,172.16.1.2,31422,172.16.3.2,5101,23624,34861,0,64256,65728,6,6,4,1460,1800,1,992,89,82732,60060,65700,0,31856,0,0,0
o,0x00000000,1716792244.281045,172.16.1.2,31422,172.16.3.2,5101,23624,34861,0,64256,65728,6,6,4,1460,1800,1,992,89,82732,60060,65700,0,33304,0,0,0
i,0x00000000,1716792244.281118,172.16.1.2,31422,172.16.3.2,5101,23624,34861,0,64256,65728,6,6,4,1460,1800,1,992,89,82732,60060,65700,0,34752,0,0,0
o,0x00000000,1716792244.281121,172.16.1.2,31422,172.16.3.2,5101,23624,34861,0,64256,65728,6,6,4,1460,1795,1,992,87,82732,57164,65700,0,31856,0,0,0
o,0x00000000,1716792244.281195,172.16.1.2,31422,172.16.3.2,5101,23624,34861,0,64256,65728,6,6,4,1460,1795,1,992,87,82732,57164,65700,0,33304,0,0,0
i,0x00000000,1716792244.330085,172.16.1.2,31422,172.16.3.2,5101,23624,34861,0,64256,65728,6,6,4,1460,1795,1,992,87,82732,82732,65700,0,34752,0,0,0
o,0x00000000,1716792244.330107,172.16.1.2,31422,172.16.3.2,5101,23624,34861,0,64256,65728,6,6,4,1460,1799,1,992,85,82732,79836,65700,0,31856,0,0,0
o,0x00000000,1716792244.330488,172.16.1.2,31422,172.16.3.2,5101,23624,34861,0,64256,65728,6,6,4,1460,1799,1,992,85,82732,79836,65700,0,33304,0,0,0
i,0x00000000,1716792244.359394,172.16.1.2,31422,172.16.3.2,5101,23624,34861,0,64256,65728,6,6,4,1460,1799,1,992,85,82732,82732,65700,0,34752,0,0,0
o,0x00000000,1716792244.359434,172.16.1.2,31422,172.16.3.2,5101,23624,34861,0,64256,65728,6,6,4,1460,1807,1,992,85,82732,79836,65700,0,31856,0,0,0
o,0x00000000,1716792244.359729,172.16.1.2,31422,172.16.3.2,5101,23624,34861,0,64256,65728,6,6,4,1460,1807,1,992,85,82732,79836,65700,0,33304,0,0,0
i,0x00000000,1716792244.360043,172.16.1.2,31422,172.16.3.2,5101,23624,34861,0,64256,65728,6,6,4,1460,1807,1,992,85,82732,79836,65700,0,34752,0,0,0
o,0x00000000,1716792244.360056,172.16.1.2,31422,172.16.3.2,5101,23624,34861,0,64256,65728,6,6,4,1460,1814,1,992,85,82732,76940,65700,0,31856,0,0,0
o,0x00000000,1716792244.360385,172.16.1.2,31422,172.16.3.2,5101,23624,34861,0,64256,65728,6,6,4,1460,1814,1,992,85,82732,76940,65700,0,33304,0,0,0
i,0x00000000,1716792244.782205,172.16.1.2,31422,172.16.3.2,5101,23624,34861,0,64256,65728,6,6,4,1460,1814,1,992,85,82732,82732,65700,0,34752,0,0,0
o,0x00000000,1716792244.782374,172.16.1.2,31422,172.16.3.2,5101,23624,34861,0,64256,65728,6,6,4,1460,1832,1,992,88,82732,79836,65700,0,31856,0,0,0
o,0x00000000,1716792244.783037,172.16.1.2,31422,172.16.3.2,5101,23624,34861,0,64256,65728,6,6,4,1460,1832,1,992,88,82732,79836,65700,0,33304,0,0,0
i,0x00000000,1716792244.832141,172.16.1.2,31422,172.16.3.2,5101,23624,34861,0,64256,65728,6,6,4,1460,1832,1,992,88,82732,82732,65700,0,34752,0,0,0
o,0x00000000,1716792244.832299,172.16.1.2,31422,172.16.3.2,5101,23624,34861,0,65728,65728,6,6,4,1460,1859,1,992,93,82732,81284,65700,0,33304,0,0,0
i,0x00000000,1716792244.832782,172.16.1.2,31422,172.16.3.2,5101,23624,34861,0,65728,65728,6,6,4,1460,1859,1,992,93,82732,81284,65700,0,34752,0,0,0
o,0x00000000,1716792244.832807,172.16.1.2,31422,172.16.3.2,5101,23624,34861,0,64256,65728,6,6,4,1460,1859,1,992,89,82732,78388,65700,0,31856,0,0,0
o,0x00000000,1716792244.833146,172.16.1.2,31422,172.16.3.2,5101,23624,34861,0,64256,65728,6,6,4,1460,1859,1,992,89,82732,78388,65700,0,33304,0,0,0
i,0x00000000,1716792244.851377,172.16.1.2,31422,172.16.3.2,5101,23624,34861,0,64256,65728,6,6,4,1460,1859,1,992,89,82732,82732,65700,0,34752,0,0,0
o,0x00000000,1716792244.851481,172.16.1.2,31422,172.16.3.2,5101,23624,36321,0,65728,65728,6,6,4,1460,1871,1,992,89,82732,81284,65700,0,33304,0,0,0
o,0x00000000,1716792244.851664,172.16.1.2,31422,172.16.3.2,5101,23624,36321,0,65728,65728,6,6,4,1460,1871,1,992,89,82732,81284,65700,0,34752,0,0,0
i,0x00000000,1716792244.851768,172.16.1.2,31422,172.16.3.2,5101,23624,36321,0,65728,65728,6,6,4,1460,1871,1,992,89,82732,81284,65700,0,36200,0,0,0
o,0x00000000,1716792244.851777,172.16.1.2,31422,172.16.3.2,5101,23624,36321,0,64256,65728,6,6,4,1460,1866,1,992,88,82732,78388,65700,0,33304,0,0,0
o,0x00000000,1716792244.851907,172.16.1.2,31422,172.16.3.2,5101,23624,36321,0,64256,65728,6,6,4,1460,1866,1,992,88,82732,78388,65700,0,34752,0,0,0
i,0x00000000,1716792244.860852,172.16.1.2,31422,172.16.3.2,5101,23624,36321,0,64256,65728,6,6,4,1460,1866,1,992,88,82732,82732,65700,0,36200,0,0,0
o,0x00000000,1716792244.860965,172.16.1.2,31422,172.16.3.2,5101,23624,36321,0,64256,65728,6,6,4,1460,1865,1,992,86,82732,79836,65700,0,33304,0,0,0
o,0x00000000,1716792244.861154,172.16.1.2,31422,172.16.3.2,5101,23624,36321,0,64256,65728,6,6,4,1460,1865,1,992,86,82732,79836,65700,0,34752,0,0,0
i,0x00000000,1716792244.861279,172.16.1.2,31422,172.16.3.2,5101,23624,36321,0,64256,65728,6,6,4,1460,1865,1,992,86,82732,79836,65700,0,36200,0,0,0
o,0x00000000,1716792244.861289,172.16.1.2,31422,172.16.3.2,5101,23624,36321,0,64256,65728,6,6,4,1460,1864,1,992,84,82732,76940,65700,0,33304,0,0,0
o,0x00000000,1716792244.861403,172.16.1.2,31422,172.16.3.2,5101,23624,36321,0,64256,65728,6,6,4,1460,1864,1,992,84,82732,76940,65700,0,34752,0,0,0
i,0x00000000,1716792244.861521,172.16.1.2,31422,172.16.3.2,5101,23624,36321,0,64256,65728,6,6,4,1460,1864,1,992,84,82732,76940,65700,0,36200,0,0,0
o,0x00000000,1716792244.861525,172.16.1.2,31422,172.16.3.2,5101,23624,36321,0,64256,65728,6,6,4,1460,1863,1,992,83,82732,74044,65700,0,33304,0,0,0
o,0x00000000,1716792244.861651,172.16.1.2,31422,172.16.3.2,5101,23624,36321,0,64256,65728,6,6,4,1460,1863,1,992,83,82732,74044,65700,0,34752,0,0,0
i,0x00000000,1716792244.862149,172.16.1.2,31422,172.16.3.2,5101,23624,36321,0,64256,65728,6,6,4,1460,1863,1,992,83,82732,74044,65700,0,36200,0,0,0
o,0x00000000,1716792244.862155,172.16.1.2,31422,172.16.3.2,5101,23624,36321,0,64256,65728,6,6,4,1460,1863,1,992,81,82732,71148,65700,0,33304,0,0,0
o,0x00000000,1716792244.862285,172.16.1.2,31422,172.16.3.2,5101,23624,36321,0,64256,65728,6,6,4,1460,1863,1,992,81,82732,71148,65700,0,34752,0,0,0
i,0x00000000,1716792244.862558,172.16.1.2,31422,172.16.3.2,5101,23624,36321,0,64256,65728,6,6,4,1460,1863,1,992,81,82732,71148,65700,0,36200,0,0,0
o,0x00000000,1716792244.862562,172.16.1.2,31422,172.16.3.2,5101,23624,36321,0,64256,65728,6,6,4,1460,1863,1,992,81,82732,68252,65700,0,33304,0,0,0
o,0x00000000,1716792244.862672,172.16.1.2,31422,172.16.3.2,5101,23624,36321,0,64256,65728,6,6,4,1460,1863,1,992,81,82732,68252,65700,0,34752,0,0,0
i,0x00000000,1716792244.862771,172.16.1.2,31422,172.16.3.2,5101,23624,36321,0,64256,65728,6,6,4,1460,1863,1,992,81,82732,68252,65700,0,36200,0,0,0
o,0x00000000,1716792244.862774,172.16.1.2,31422,172.16.3.2,5101,23624,36321,0,64256,65728,6,6,4,1460,1843,1,992,84,82732,65356,65700,0,33304,0,0,0
o,0x00000000,1716792244.862868,172.16.1.2,31422,172.16.3.2,5101,23624,36321,0,64256,65728,6,6,4,1460,1843,1,992,84,82732,65356,65700,0,34752,0,0,0
i,0x00000000,1716792244.921715,172.16.1.2,31422,172.16.3.2,5101,23624,36321,0,64256,65728,6,6,4,1460,1843,1,992,84,82732,82732,65700,0,36200,0,0,0
o,0x00000000,1716792244.921782,172.16.1.2,31422,172.16.3.2,5101,23624,36321,0,64256,65728,6,6,4,1460,1833,1,992,85,82732,79836,65700,0,33304,0,0,0
o,0x00000000,1716792244.922201,172.16.1.2,31422,172.16.3.2,5101,23624,36321,0,64256,65728,6,6,4,1460,1833,1,992,85,82732,79836,65700,0,34752,0,0,0
i,0x00000000,1716792244.971054,172.16.1.2,31422,172.16.3.2,5101,23624,36321,0,64256,65728,6,6,4,1460,1833,1,992,85,82732,82732,65700,0,36200,0,0,0
o,0x00000000,1716792244.971213,172.16.1.2,31422,172.16.3.2,5101,23624,36321,0,64256,65728,6,6,4,1460,1848,1,992,87,82732,79836,65700,0,33304,0,0,0
o,0x00000000,1716792244.971741,172.16.1.2,31422,172.16.3.2,5101,23624,36321,0,64256,65728,6,6,4,1460,1848,1,992,87,82732,79836,65700,0,34752,0,0,0
i,0x00000000,1716792245.390971,172.16.1.2,31422,172.16.3.2,5101,23624,36321,0,64256,65728,6,6,4,1460,1848,1,992,87,82732,82732,65700,0,36200,0,0,0
o,0x00000000,1716792245.391069,172.16.1.2,31422,172.16.3.2,5101,23624,36321,0,64256,65728,6,6,4,1460,1861,1,992,88,82732,79836,65700,0,33304,0,0,0
o,0x00000000,1716792245.391554,172.16.1.2,31422,172.16.3.2,5101,23624,36321,0,64256,65728,6,6,4,1460,1861,1,992,88,82732,79836,65700,0,34752,0,0,0
i,0x00000000,1716792245.440329,172.16.1.2,31422,172.16.3.2,5101,23624,36321,0,64256,65728,6,6,4,1460,1861,1,992,88,82732,82732,65700,0,36200,0,0,0
o,0x00000000,1716792245.440359,172.16.1.2,31422,172.16.3.2,5101,23624,36321,0,64256,65728,6,6,4,1460,1873,1,992,89,82732,79836,65700,0,33304,0,0,0
o,0x00000000,1716792245.440779,172.16.1.2,31422,172.16.3.2,5101,23624,36321,0,64256,65728,6,6,4,1460,1873,1,992,89,82732,79836,65700,0,34752,0,0,0
i,0x00000000,1716792245.460612,172.16.1.2,31422,172.16.3.2,5101,23624,36321,0,64256,65728,6,6,4,1460,1873,1,992,89,82732,82732,65700,0,36200,0,0,0
o,0x00000000,1716792245.460656,172.16.1.2,31422,172.16.3.2,5101,23624,36321,0,64256,65728,6,6,4,1460,1891,1,992,92,82732,79836,65700,0,33304,0,0,0
o,0x00000000,1716792245.460844,172.16.1.2,31422,172.16.3.2,5101,23624,36321,0,64256,65728,6,6,4,1460,1891,1,992,92,82732,79836,65700,0,34752,0,0,0
i,0x00000000,1716792245.461281,172.16.1.2,31422,172.16.3.2,5101,23624,36321,0,64256,65728,6,6,4,1460,1891,1,992,92,82732,79836,65700,0,36200,0,0,0
o,0x00000000,1716792245.461301,172.16.1.2,31422,172.16.3.2,5101,23624,37781,0,64256,65728,6,6,4,1460,1895,1,992,89,82732,76940,65700,0,33304,0,0,0
o,0x00000000,1716792245.461476,172.16.1.2,31422,172.16.3.2,5101,23624,37781,0,64256,65728,6,6,4,1460,1895,1,992,89,82732,76940,65700,0,34752,0,0,0
o,0x00000000,1716792245.461689,172.16.1.2,31422,172.16.3.2,5101,23624,37781,0,64256,65728,6,6,4,1460,1895,1,992,89,82732,76940,65700,0,36200,0,0,0
i,0x00000000,1716792245.470233,172.16.1.2,31422,172.16.3.2,5101,23624,37781,0,64256,65728,6,6,4,1460,1895,1,992,89,82732,82732,65700,0,37648,0,0,0
o,0x00000000,1716792245.470311,172.16.1.2,31422,172.16.3.2,5101,23624,37781,0,64256,65728,6,6,4,1460,1903,1,992,89,82732,79836,65700,0,34752,0,0,0
o,0x00000000,1716792245.470491,172.16.1.2,31422,172.16.3.2,5101,23624,37781,0,64256,65728,6,6,4,1460,1903,1,992,89,82732,79836,65700,0,36200,0,0,0
