enable_time_secs=1716794299	enable_time_usecs=186921	siftrver=1.2.4	hz=100	tcp_rtt_scale=32	sysname=FreeBSD	sysver=1301000	ipmode=4
o,0x00000000,1716794299.186955,10.0.2.15,22,10.0.2.2,58278,1073725440,17298,0,65535,65700,0,0,4,1460,1,0,4,24,33580,44,65700,0,0,0,0,0
o,0x00000000,1716794299.187058,10.0.2.15,22,10.0.2.2,58278,1073725440,17298,0,65535,65700,0,0,4,1460,1,0,4,24,33580,80,65700,0,44,0,0,0
i,0x00000000,1716794299.187473,10.0.2.15,22,10.0.2.2,58278,1073725440,17298,0,65535,65700,0,0,4,1460,1,0,4,24,33580,80,65700,0,80,0,0,0
i,0x00000000,1716794299.187477,10.0.2.15,22,10.0.2.2,58278,1073725440,17342,0,65535,65700,0,0,4,1460,1,0,4,24,33580,36,65700,0,36,0,0,0
o,0x00000000,1716794299.187538,10.0.2.15,22,10.0.2.2,58278,1073725440,17378,0,65535,65700,0,0,4,1460,1,0,4,24,33580,36,65700,0,0,0,0,0
i,0x00000000,1716794299.187902,10.0.2.15,22,10.0.2.2,58278,1073725440,17378,0,65535,65700,0,0,4,1460,1,0,4,24,33580,36,65700,0,36,0,0,0
o,0x00000000,1716794299.188120,10.0.2.15,22,10.0.2.2,58278,1073725440,17414,0,65535,65700,0,0,4,1460,1,0,4,24,33580,176,65700,0,0,0,0,0
i,0x00000000,1716794299.188545,10.0.2.15,22,10.0.2.2,58278,1073725440,17414,0,65535,65700,0,0,4,1460,1,0,4,24,33580,176,65700,0,176,0,0,0
i,0x00000000,1716794299.189570,10.0.2.15,22,10.0.2.2,58278,1073725440,17590,0,65535,65700,0,0,4,1460,1,0,4,24,33580,0,65700,0,0,0,0,0
i,0x00000000,1716794299.189574,10.0.2.15,22,10.0.2.2,58278,1073725440,17590,0,65535,65700,0,0,4,1460,1,0,4,24,33580,0,65700,36,0,0,0,0
o,0x00000000,1716794299.189576,10.0.2.15,22,10.0.2.2,58278,1073725440,17590,0,65535,65700,0,0,4,1460,1,0,5,24,33580,0,65700,96,0,0,0,0
i,0x00000000,1716794299.189655,10.0.2.15,22,10.0.2.2,58278,1073725440,17590,0,65535,65700,0,0,4,1460,1,0,4,24,33580,0,65700,96,0,0,0,0
o,0x00000000,1716794299.189658,10.0.2.15,22,10.0.2.2,58278,1073725440,17590,0,65535,65604,0,0,5,1460,1,0,7,24,33580,0,65700,96,0,0,0,0
o,0x00000000,1716794299.190282,10.0.2.15,22,10.0.2.2,58278,1073725440,17590,0,65535,65604,0,0,8,1460,1,0,4,24,33580,0,65700,0,0,0,0,0
i,0x00000000,1716794299.190725,10.0.2.15,22,10.0.2.2,58278,1073725440,17590,0,65535,65604,0,0,8,1460,1,0,20,24,33580,0,65700,0,1,0,0,0
i,0x00000000,1716794301.359294,10.0.2.15,22,10.0.2.2,58282,1073725440,14600,0,65535,65700,0,0,4,1460,1,0,0,27,33580,0,65700,0,0,0,0,0
o,0x00000000,1716794301.365097,10.0.2.15,22,10.0.2.2,58282,1073725440,14600,0,65535,65700,0,0,4,1460,1,0,0,27,33580,38,65700,41,0,0,0,0
i,0x00000000,1716794301.365706,10.0.2.15,22,10.0.2.2,58282,1073725440,14600,0,65535,65700,0,0,4,1460,1,0,0,27,33580,38,65700,0,38,0,0,0
i,0x00000000,1716794301.366761,10.0.2.15,22,10.0.2.2,58282,1073725440,14638,0,65535,65700,0,0,4,1460,1,0,0,24,33580,0,65700,0,0,0,0,0
i,0x00000000,1716794301.366764,10.0.2.15,22,10.0.2.2,58282,1073725440,14638,0,65535,65700,0,0,4,1460,1,0,0,24,33580,0,65700,1460,0,0,0,0
o,0x00000000,1716794301.366767,10.0.2.15,22,10.0.2.2,58282,1073725440,14638,0,65535,65700,0,0,4,1460,1,0,1,24,33580,0,65700,1536,0,0,0,0
o,0x00000000,1716794301.367359,10.0.2.15,22,10.0.2.2,58282,1073725440,14638,0,65535,65700,0,0,4,1460,1,0,0,24,33580,1056,65700,1536,0,0,0,0
i,0x00000000,1716794301.370090,10.0.2.15,22,10.0.2.2,58282,1073725440,14638,0,65535,65700,0,0,4,1460,1,0,0,24,33580,1056,65700,0,1056,0,0,0
i,0x00000000,1716794301.372116,10.0.2.15,22,10.0.2.2,58282,1073725440,15694,0,65535,65700,0,0,4,1460,1,0,0,24,33580,0,65700,0,0,0,0,0
o,0x00000000,1716794301.374513,10.0.2.15,22,10.0.2.2,58282,1073725440,15694,0,65535,65700,0,0,4,1460,1,0,0,24,33580,484,65700,0,0,0,0,0
i,0x00000000,1716794301.375502,10.0.2.15,22,10.0.2.2,58282,1073725440,15694,0,65535,65700,0,0,4,1460,1,0,0,24,33580,484,65700,0,484,0,0,0
i,0x00000000,1716794301.380619,10.0.2.15,22,10.0.2.2,58282,1073725440,16178,0,65535,65700,0,0,4,1460,1,0,0,24,33580,0,65700,0,0,0,0,0
i,0x00000000,1716794301.384663,10.0.2.15,22,10.0.2.2,58282,1073725440,16178,0,65535,65700,0,0,4,1460,1,0,0,24,33580,0,65700,0,0,0,0,0
o,0x00000000,1716794301.384668,10.0.2.15,22,10.0.2.2,58282,1073725440,16178,0,65535,65700,0,0,4,1460,1,0,1,24,33580,0,65700,44,0,0,0,0
o,0x00000000,1716794301.384805,10.0.2.15,22,10.0.2.2,58282,1073725440,16178,0,65535,65700,0,0,4,1460,1,0,0,24,33580,44,65700,0,0,0,0,0
i,0x00000000,1716794301.385538,10.0.2.15,22,10.0.2.2,58282,1073725440,16178,0,65535,65700,0,0,4,1460,1,0,0,24,33580,44,65700,0,44,0,0,0
i,0x00000000,1716794301.386158,10.0.2.15,22,10.0.2.2,58282,1073725440,16222,0,65535,65700,0,0,4,1460,1,0,0,24,33580,0,65700,0,0,0,0,0
o,0x00000000,1716794301.395684,10.0.2.15,22,10.0.2.2,58282,1073725440,16222,0,65535,65700,0,0,4,1460,1,0,0,24,33580,68,65700,0,0,0,0,0
i,0x00000000,1716794301.396375,10.0.2.15,22,10.0.2.2,58282,1073725440,16222,0,65535,65700,0,0,4,1460,1,0,0,24,33580,68,65700,0,68,0,0,0
i,0x00000000,1716794301.399141,10.0.2.15,22,10.0.2.2,58282,1073725440,16290,0,65535,65700,0,0,4,1460,1,0,0,24,33580,0,65700,0,0,0,0,0
o,0x00000000,1716794301.409173,10.0.2.15,22,10.0.2.2,58282,1073725440,16290,0,65535,65700,0,0,4,1460,1,0,0,24,33580,28,65700,0,0,0,0,0
i,0x00000000,1716794301.409838,10.0.2.15,22,10.0.2.2,58282,1073725440,16290,0,65535,65700,0,0,4,1460,1,0,0,24,33580,28,65700,0,28,0,0,0
i,0x00000000,1716794301.410745,10.0.2.15,22,10.0.2.2,58282,1073725440,16318,0,65535,65700,0,0,4,1460,1,0,0,24,33580,0,65700,0,0,0,0,0
o,0x00000000,1716794301.410912,10.0.2.15,22,10.0.2.2,58282,1073725440,16318,0,65535,65700,0,0,4,1460,1,0,0,24,33580,768,65700,112,0,0,0,0
i,0x00000000,1716794301.411535,10.0.2.15,22,10.0.2.2,58282,1073725440,16318,0,65535,65700,0,0,4,1460,1,0,0,24,33580,768,65700,112,768,0,0,0
o,0x00000000,1716794301.411671,10.0.2.15,22,10.0.2.2,58282,1073725440,17086,0,65535,65700,0,0,4,1460,1,0,0,24,33580,44,65700,0,0,0,0,0
i,0x00000000,1716794301.412374,10.0.2.15,22,10.0.2.2,58282,1073725440,17086,0,65535,65700,0,0,4,1460,1,0,0,24,33580,44,65700,0,44,0,0,0
i,0x00000000,1716794301.412886,10.0.2.15,22,10.0.2.2,58282,1073725440,17130,0,65535,65700,0,0,4,1460,1,0,0,24,33580,0,65700,0,0,0,0,0
o,0x00000000,1716794301.413172,10.0.2.15,22,10.0.2.2,58282,1073725440,17130,0,65535,65700,0,0,4,1460,1,0,4,24,33580,72,65700,0,0,0,0,0
i,0x00000000,1716794301.414077,10.0.2.15,22,10.0.2.2,58282,1073725440,17130,0,65535,65700,0,0,4,1460,1,0,4,24,33580,72,65700,0,72,0,0,0
o,0x00000000,1716794301.420929,10.0.2.15,22,10.0.2.2,58282,1073725440,17202,0,65535,65700,0,0,4,1460,1,0,4,24,33580,44,65700,0,0,0,0,0
i,0x00000000,1716794301.421959,10.0.2.15,22,10.0.2.2,58282,1073725440,17202,0,65535,65700,0,0,4,1460,1,0,4,24,33580,44,65700,0,44,0,0,0
o,0x00000000,1716794301.422418,10.0.2.15,22,10.0.2.2,58282,1073725440,17246,0,65535,65700,0,0,4,1460,1,0,4,24,33580,104,65700,0,0,0,0,0
i,0x00000000,1716794301.423117,10.0.2.15,22,10.0.2.2,58282,1073725440,17246,0,65535,65700,0,0,4,1460,1,0,4,24,33580,104,65700,0,104,0,0,0
o,0x00000000,1716794301.423217,10.0.2.15,22,10.0.2.2,58282,1073725440,17350,0,65535,65700,0,0,4,1460,1,0,4,24,33580,44,65700,0,0,0,0,0
i,0x00000000,1716794301.423682,10.0.2.15,22,10.0.2.2,58282,1073725440,17350,0,65535,65700,0,0,4,1460,1,0,4,24,33580,44,65700,0,44,0,0,0
o,0x00000000,1716794301.425462,10.0.2.15,22,10.0.2.2,58282,1073725440,17394,0,65535,65700,0,0,4,1460,1,0,4,24,33580,72,65700,0,0,0,0,0
i,0x00000000,1716794301.426117,10.0.2.15,22,10.0.2.2,58282,1073725440,17394,0,65535,65700,0,0,4,1460,1,0,4,24,33580,72,65700,0,72,0,0,0
i,0x00000000,1716794301.426659,10.0.2.15,22,10.0.2.2,58282,1073725440,17466,0,65535,65700,0,0,4,1460,1,0,4,24,33580,0,65700,0,0,0,0,0
i,0x00000000,1716794301.426662,10.0.2.15,22,10.0.2.2,58282,1073725440,17466,0,65535,65700,0,0,4,1460,1,0,4,24,33580,0,65700,36,0,0,0,0
o,0x00000000,1716794301.426664,10.0.2.15,22,10.0.2.2,58282,1073725440,17466,0,65535,65700,0,0,4,1460,1,0,5,24,33580,0,65700,96,0,0,0,0
i,0x00000000,1716794301.426737,10.0.2.15,22,10.0.2.2,58282,1073725440,17466,0,65535,65700,0,0,4,1460,1,0,4,24,33580,0,65700,96,0,0,0,0
o,0x00000000,1716794301.426740,10.0.2.15,22,10.0.2.2,58282,1073725440,17466,0,65535,65604,0,0,5,1460,1,0,7,24,33580,0,65700,96,0,0,0,0
o,0x00000000,1716794301.432751,10.0.2.15,22,10.0.2.2,58282,1073725440,17466,0,65535,65604,0,0,8,1460,1,0,4,24,33580,0,65700,0,0,0,0,0
i,0x00000000,1716794301.433342,10.0.2.15,22,10.0.2.2,58282,1073725440,17466,0,65535,65604,0,0,8,1460,1,0,20,24,33580,0,65700,0,1,0,0,0
i,0x00000000,1716794302.531901,10.0.2.15,22,10.0.2.2,58285,1073725440,14600,0,65535,65700,0,0,4,1460,1,0,0,27,33580,0,65700,0,0,0,0,0
o,0x00000000,1716794302.539132,10.0.2.15,22,10.0.2.2,58285,1073725440,14600,0,65535,65700,0,0,4,1460,1,0,0,27,33580,38,65700,41,0,0,0,0
i,0x00000000,1716794302.540268,10.0.2.15,22,10.0.2.2,58285,1073725440,14600,0,65535,65700,0,0,4,1460,1,0,0,27,33580,38,65700,0,38,0,0,0
i,0x00000000,1716794302.541301,10.0.2.15,22,10.0.2.2,58285,1073725440,14638,0,65535,65700,0,0,4,1460,1,0,0,24,33580,0,65700,0,0,0,0,0
i,0x00000000,1716794302.541305,10.0.2.15,22,10.0.2.2,58285,1073725440,14638,0,65535,65700,0,0,4,1460,1,0,0,24,33580,0,65700,1460,0,0,0,0
o,0x00000000,1716794302.541309,10.0.2.15,22,10.0.2.2,58285,1073725440,14638,0,65535,65700,0,0,4,1460,1,0,1,24,33580,0,65700,1536,0,0,0,0
o,0x00000000,1716794302.541823,10.0.2.15,22,10.0.2.2,58285,1073725440,14638,0,65535,65700,0,0,4,1460,1,0,0,24,33580,1056,65700,1536,0,0,0,0
i,0x00000000,1716794302.542574,10.0.2.15,22,10.0.2.2,58285,1073725440,14638,0,65535,65700,0,0,4,1460,1,0,0,24,33580,1056,65700,1536,1056,0,0,0
i,0x00000000,1716794302.545008,10.0.2.15,22,10.0.2.2,58285,1073725440,15694,0,65535,65700,0,0,4,1460,1,0,0,24,33580,0,65700,0,0,0,0,0
o,0x00000000,1716794302.547715,10.0.2.15,22,10.0.2.2,58285,1073725440,15694,0,65535,65700,0,0,4,1460,1,0,0,24,33580,484,65700,0,0,0,0,0
i,0x00000000,1716794302.548615,10.0.2.15,22,10.0.2.2,58285,1073725440,15694,0,65535,65700,0,0,4,1460,1,0,0,24,33580,484,65700,0,484,0,0,0
i,0x00000000,1716794302.556312,10.0.2.15,22,10.0.2.2,58285,1073725440,16178,0,65535,65700,0,0,4,1460,1,0,0,24,33580,0,65700,0,0,0,0,0
i,0x00000000,1716794302.564247,10.0.2.15,22,10.0.2.2,58285,1073725440,16178,0,65535,65700,0,0,4,1460,1,0,0,24,33580,0,65700,0,0,0,0,0
o,0x00000000,1716794302.564253,10.0.2.15,22,10.0.2.2,58285,1073725440,16178,0,65535,65700,0,0,4,1460,1,0,1,24,33580,0,65700,44,0,0,0,0
o,0x00000000,1716794302.564421,10.0.2.15,22,10.0.2.2,58285,1073725440,16178,0,65535,65700,0,0,4,1460,1,0,0,24,33580,44,65700,0,0,0,0,0
i,0x00000000,1716794302.564880,10.0.2.15,22,10.0.2.2,58285,1073725440,16178,0,65535,65700,0,0,4,1460,1,0,0,24,33580,44,65700,0,44,0,0,0
i,0x00000000,1716794302.565530,10.0.2.15,22,10.0.2.2,58285,1073725440,16222,0,65535,65700,0,0,4,1460,1,0,0,24,33580,0,65700,0,0,0,0,0
o,0x00000000,1716794302.574536,10.0.2.15,22,10.0.2.2,58285,1073725440,16222,0,65535,65700,0,0,4,1460,1,0,0,24,33580,68,65700,0,0,0,0,0
i,0x00000000,1716794302.575370,10.0.2.15,22,10.0.2.2,58285,1073725440,16222,0,65535,65700,0,0,4,1460,1,0,0,24,33580,68,65700,0,68,0,0,0
i,0x00000000,1716794302.577731,10.0.2.15,22,10.0.2.2,58285,1073725440,16290,0,65535,65700,0,0,4,1460,1,0,0,23,33580,0,65700,0,0,0,0,0
o,0x00000000,1716794302.586947,10.0.2.15,22,10.0.2.2,58285,1073725440,16290,0,65535,65700,0,0,4,1460,1,0,0,23,33580,28,65700,0,0,0,0,0
i,0x00000000,1716794302.587813,10.0.2.15,22,10.0.2.2,58285,1073725440,16290,0,65535,65700,0,0,4,1460,1,0,0,23,33580,28,65700,0,28,0,0,0
i,0x00000000,1716794302.588247,10.0.2.15,22,10.0.2.2,58285,1073725440,16318,0,65535,65700,0,0,4,1460,1,0,0,23,33580,0,65700,0,0,0,0,0
o,0x00000000,1716794302.589110,10.0.2.15,22,10.0.2.2,58285,1073725440,16318,0,65535,65700,0,0,4,1460,1,0,0,23,33580,768,65700,112,0,0,0,0
i,0x00000000,1716794302.589893,10.0.2.15,22,10.0.2.2,58285,1073725440,16318,0,65535,65700,0,0,4,1460,1,0,0,23,33580,768,65700,112,768,0,0,0
o,0x00000000,1716794302.590003,10.0.2.15,22,10.0.2.2,58285,1073725440,17086,0,65535,65700,0,0,4,1460,1,0,0,23,33580,44,65700,0,0,0,0,0
i,0x00000000,1716794302.590671,10.0.2.15,22,10.0.2.2,58285,1073725440,17086,0,65535,65700,0,0,4,1460,1,0,0,23,33580,44,65700,0,44,0,0,0
i,0x00000000,1716794302.591015,10.0.2.15,22,10.0.2.2,58285,1073725440,17130,0,65535,65700,0,0,4,1460,1,0,0,23,33580,0,65700,0,0,0,0,0
o,0x00000000,1716794302.591349,10.0.2.15,22,10.0.2.2,58285,1073725440,17130,0,65535,65700,0,0,4,1460,1,0,4,23,33580,72,65700,0,0,0,0,0
i,0x00000000,1716794302.592063,10.0.2.15,22,10.0.2.2,58285,1073725440,17130,0,65535,65700,0,0,4,1460,1,0,4,23,33580,72,65700,0,72,0,0,0
i,0x00000000,1716794302.592486,10.0.2.15,22,10.0.2.2,58285,1073725440,17202,0,65535,65700,0,0,4,1460,1,0,4,24,33580,0,65700,0,0,0,0,0
o,0x00000000,1716794302.596878,172.16.1.2,54273,172.16.3.2,5101,1073725440,1073725440,0,0,0,0,0,2,536,0,1,672,100,32768,0,65536,0,0,0,0,0
o,0x00000000,1716794302.626017,10.0.2.15,22,10.0.2.2,58285,1073725440,17202,0,65535,65700,0,0,4,1460,1,0,5,24,33580,0,65700,0,0,0,0,0
i,0x00000000,1716794302.718338,172.16.1.2,54273,172.16.3.2,5101,1073725440,1073725440,0,0,0,0,0,2,536,0,1,672,100,32768,0,65536,0,1,0,0,0
o,0x00000000,1716794302.718358,172.16.1.2,54273,172.16.3.2,5101,24073,14480,0,65535,65700,6,6,4,1460,841,1,993,125,33580,0,65700,0,0,0,0,0
o,0x00000000,1716794302.718563,172.16.1.2,54273,172.16.3.2,5101,24073,14480,0,65535,65700,6,6,4,1460,841,1,996,125,33580,37,65700,0,0,0,0,0
i,0x00000000,1716794302.837787,172.16.1.2,54273,172.16.3.2,5101,24073,14480,0,65535,65700,6,6,4,1460,841,1,996,125,33580,37,65700,0,37,0,0,0
o,0x00000000,1716794302.838071,172.16.1.2,54273,172.16.3.2,5101,24073,14517,0,65728,65728,6,6,4,1460,784,1,996,118,33580,4,65700,0,0,0,0,0
o,0x00000000,1716794302.838208,172.16.1.2,54273,172.16.3.2,5101,24073,14517,0,65728,65728,6,6,4,1460,784,1,996,118,33580,128,65700,0,4,0,0,0
i,0x00000000,1716794302.958439,172.16.1.2,54273,172.16.3.2,5101,24073,14517,0,65728,65728,6,6,4,1460,784,1,996,118,33580,128,65700,0,128,0,0,0
i,0x00000000,1716794302.958455,172.16.1.2,54273,172.16.3.2,5101,24073,14645,0,65600,65728,6,6,4,1460,734,1,996,110,33580,0,65700,0,0,0,0,0
o,0x00000000,1716794302.958651,172.16.1.2,61052,172.16.3.2,5101,1073725440,1073725440,0,0,0,0,0,2,536,0,1,672,100,32768,0,65536,0,0,0,0,0
o,0x00000000,1716794302.996180,172.16.1.2,54273,172.16.3.2,5101,24073,14645,0,65728,65728,6,6,4,1460,734,1,997,110,33580,0,65700,0,0,0,0,0
i,0x00000000,1716794303.078400,172.16.1.2,61052,172.16.3.2,5101,1073725440,1073725440,0,0,0,0,0,2,536,0,1,672,100,32768,0,65536,0,1,0,0,0
o,0x00000000,1716794303.078425,172.16.1.2,61052,172.16.3.2,5101,24073,14480,0,65535,65700,6,6,4,1460,845,1,993,124,33580,0,65700,0,0,0,0,0
o,0x00000000,1716794303.078618,172.16.1.2,61052,172.16.3.2,5101,24073,14480,0,65535,65700,6,6,4,1460,845,1,992,124,33580,37,65700,0,0,0,0,0
i,0x00000000,1716794303.197944,172.16.1.2,54273,172.16.3.2,5101,24073,14645,0,65728,65728,6,6,4,1460,734,1,996,110,33580,0,65700,0,0,0,0,0
i,0x00000000,1716794303.197959,172.16.1.2,54273,172.16.3.2,5101,24073,14645,0,65728,65728,6,6,4,1460,734,1,996,110,33580,0,65700,1,0,0,0,0
o,0x00000000,1716794303.197967,172.16.1.2,54273,172.16.3.2,5101,24073,14645,0,65728,65728,6,6,4,1460,734,1,997,110,33580,0,65700,2,0,0,0,0
o,0x00000000,1716794303.198251,172.16.1.2,61052,172.16.3.2,5101,24073,14480,0,65535,65700,6,6,4,1460,845,1,992,124,33580,33580,65700,0,37,0,0,0
o,0x00000000,1716794303.198606,172.16.1.2,61052,172.16.3.2,5101,24073,14480,0,65535,65700,6,6,4,1460,845,1,992,124,33580,33580,65700,0,1485,0,0,0
o,0x00000000,1716794303.198970,172.16.1.2,61052,172.16.3.2,5101,24073,14480,0,65535,65700,6,6,4,1460,845,1,992,124,33580,33580,65700,0,2933,0,0,0
o,0x00000000,1716794303.199336,172.16.1.2,61052,172.16.3.2,5101,24073,14480,0,65535,65700,6,6,4,1460,845,1,992,124,33580,33580,65700,0,4381,0,0,0
o,0x00000000,1716794303.199676,172.16.1.2,61052,172.16.3.2,5101,24073,14480,0,65535,65700,6,6,4,1460,845,1,992,124,33580,33580,65700,0,5829,0,0,0
o,0x00000000,1716794303.200050,172.16.1.2,61052,172.16.3.2,5101,24073,14480,0,65535,65700,6,6,4,1460,845,1,992,124,33580,33580,65700,0,7277,0,0,0
o,0x00000000,1716794303.200437,172.16.1.2,61052,172.16.3.2,5101,24073,14480,0,65535,65700,6,6,4,1460,845,1,992,124,33580,33580,65700,0,8725,0,0,0
o,0x00000000,1716794303.200941,172.16.1.2,61052,172.16.3.2,5101,24073,14480,0,65535,65700,6,6,4,1460,845,1,992,124,33580,33580,65700,0,10173,0,0,0
o,0x00000000,1716794303.201397,172.16.1.2,61052,172.16.3.2,5101,24073,14480,0,65535,65700,6,6,4,1460,845,1,992,124,33580,33580,65700,0,11621,0,0,0
i,0x00000000,1716794303.228607,172.16.1.2,61052,172.16.3.2,5101,24073,14480,0,65535,65700,6,6,4,1460,845,1,992,124,33580,33580,65700,0,13069,0,0,0
o,0x00000000,1716794303.228619,172.16.1.2,61052,172.16.3.2,5101,24073,14517,0,65728,65728,6,6,4,1460,800,1,992,114,33580,33543,65700,0,13032,0,0,0
i,0x00000000,1716794303.498314,172.16.1.2,61052,172.16.3.2,5101,24073,14517,0,65728,65728,6,6,4,1460,800,1,992,114,33580,33543,65700,0,14480,0,0,0
o,0x00000000,1716794303.498340,172.16.1.2,61052,172.16.3.2,5101,24073,17413,0,64256,65728,6,6,4,1460,816,1,992,102,33580,30647,65700,0,11584,0,0,0
o,0x00000000,1716794303.498476,172.16.1.2,61052,172.16.3.2,5101,24073,17413,0,64256,65728,6,6,4,1460,816,1,992,102,33580,30647,65700,0,13032,0,0,0
o,0x00000000,1716794303.498583,172.16.1.2,61052,172.16.3.2,5101,24073,17413,0,64256,65728,6,6,4,1460,816,1,992,102,41772,30647,65700,0,14480,0,0,0
o,0x00000000,1716794303.498707,172.16.1.2,61052,172.16.3.2,5101,24073,17413,0,64256,65728,6,6,4,1460,816,1,992,102,41772,30647,65700,0,15928,0,0,0
i,0x00000000,1716794303.498847,172.16.1.2,61052,172.16.3.2,5101,24073,17413,0,64256,65728,6,6,4,1460,816,1,992,102,41772,30647,65700,0,17376,0,0,0
o,0x00000000,1716794303.498852,172.16.1.2,61052,172.16.3.2,5101,24073,20309,0,64256,65728,6,6,4,1460,830,1,992,91,41772,27751,65700,0,14480,0,0,0
o,0x00000000,1716794303.498976,172.16.1.2,61052,172.16.3.2,5101,24073,20309,0,64256,65728,6,6,4,1460,830,1,992,91,41772,27751,65700,0,15928,0,0,0
o,0x00000000,1716794303.499106,172.16.1.2,61052,172.16.3.2,5101,24073,20309,0,64256,65728,6,6,4,1460,830,1,992,91,41772,27751,65700,0,17376,0,0,0
o,0x00000000,1716794303.499218,172.16.1.2,61052,172.16.3.2,5101,24073,20309,0,64256,65728,6,6,4,1460,830,1,992,91,41772,27751,65700,0,18824,0,0,0
i,0x00000000,1716794303.499347,172.16.1.2,61052,172.16.3.2,5101,24073,20309,0,64256,65728,6,6,4,1460,830,1,992,91,41772,27751,65700,0,20272,0,0,0
o,0x00000000,1716794303.499606,172.16.1.2,61052,172.16.3.2,5101,24073,23205,0,64256,65728,6,6,4,1460,843,1,992,84,41772,24855,65700,0,17376,0,0,0
o,0x00000000,1716794303.499717,172.16.1.2,61052,172.16.3.2,5101,24073,23205,0,64256,65728,6,6,4,1460,843,1,992,84,41772,24855,65700,0,18824,0,0,0
o,0x00000000,1716794303.499839,172.16.1.2,61052,172.16.3.2,5101,24073,23205,0,64256,65728,6,6,4,1460,843,1,992,84,41772,24855,65700,0,20272,0,0,0
o,0x00000000,1716794303.500137,172.16.1.2,61052,172.16.3.2,5101,24073,23205,0,64256,65728,6,6,4,1460,843,1,992,84,41772,24855,65700,0,21720,0,0,0
i,0x00000000,1716794303.500442,172.16.1.2,61052,172.16.3.2,5101,24073,23205,0,64256,65728,6,6,4,1460,843,1,992,84,41772,24855,65700,0,23168,0,0,0
o,0x00000000,1716794303.500465,172.16.1.2,61052,172.16.3.2,5101,24073,26101,0,64256,65728,6,6,4,1460,854,1,992,77,41772,21959,65700,0,20272,0,0,0
o,0x00000000,1716794303.501012,172.16.1.2,61052,172.16.3.2,5101,24073,26101,0,64256,65728,6,6,4,1460,854,1,992,77,49964,41772,65700,0,21720,0,0,0
o,0x00000000,1716794303.501474,172.16.1.2,61052,172.16.3.2,5101,24073,26101,0,64256,65728,6,6,4,1460,854,1,992,77,49964,41772,65700,0,23168,0,0,0
o,0x00000000,1716794303.502035,172.16.1.2,61052,172.16.3.2,5101,24073,26101,0,64256,65728,6,6,4,1460,854,1,992,77,49964,41772,65700,0,24616,0,0,0
i,0x00000000,1716794303.527809,172.16.1.2,61052,172.16.3.2,5101,24073,26101,0,64256,65728,6,6,4,1460,854,1,992,77,58156,58156,65700,0,26064,0,0,0
o,0x00000000,1716794303.527822,172.16.1.2,61052,172.16.3.2,5101,24073,26101,0,64256,65728,6,6,4,1460,880,1,992,77,58156,55260,65700,0,23168,0,0,0
o,0x00000000,1716794303.528104,172.16.1.2,61052,172.16.3.2,5101,24073,26101,0,64256,65728,6,6,4,1460,880,1,992,77,58156,55260,65700,0,24616,0,0,0
i,0x00000000,1716794303.987564,172.16.1.2,61052,172.16.3.2,5101,24073,26101,0,64256,65728,6,6,4,1460,880,1,992,77,58156,58156,65700,0,26064,0,0,0
o,0x00000000,1716794303.987585,172.16.1.2,61052,172.16.3.2,5101,24073,26101,0,64256,65728,6,6,4,1460,966,1,992,94,58156,55260,65700,0,23168,0,0,0
o,0x00000000,1716794303.987685,172.16.1.2,61052,172.16.3.2,5101,24073,26101,0,64256,65728,6,6,4,1460,966,1,992,94,58156,55260,65700,0,24616,0,0,0
i,0x00000000,1716794303.987999,172.16.1.2,61052,172.16.3.2,5101,24073,26101,0,64256,65728,6,6,4,1460,966,1,992,94,58156,55260,65700,0,26064,0,0,0
o,0x00000000,1716794303.988003,172.16.1.2,61052,172.16.3.2,5101,24073,26101,0,64256,65728,6,6,4,1460,1042,1,992,104,58156,52364,65700,0,23168,0,0,0
o,0x00000000,1716794303.988081,172.16.1.2,61052,172.16.3.2,5101,24073,26101,0,64256,65728,6,6,4,1460,1042,1,992,104,58156,52364,65700,0,24616,0,0,0
i,0x00000000,1716794303.988160,172.16.1.2,61052,172.16.3.2,5101,24073,26101,0,64256,65728,6,6,4,1460,1042,1,992,104,58156,52364,65700,0,26064,0,0,0
o,0x00000000,1716794303.988162,172.16.1.2,61052,172.16.3.2,5101,24073,26101,0,64256,65728,6,6,4,1460,1108,1,992,110,58156,49468,65700,0,23168,0,0,0
o,0x00000000,1716794303.988241,172.16.1.2,61052,172.16.3.2,5101,24073,26101,0,64256,65728,6,6,4,1460,1108,1,992,110,58156,49468,65700,0,24616,0,0,0
i,0x00000000,1716794303.988658,172.16.1.2,61052,172.16.3.2,5101,24073,26101,0,64256,65728,6,6,4,1460,1108,1,992,110,58156,49468,65700,0,26064,0,0,0
o,0x00000000,1716794303.988661,172.16.1.2,61052,172.16.3.2,5101,24073,26101,0,64256,65728,6,6,4,1460,1166,1,992,112,58156,46572,65700,0,23168,0,0,0
o,0x00000000,1716794303.988751,172.16.1.2,61052,172.16.3.2,5101,24073,26101,0,64256,65728,6,6,4,1460,1166,1,992,112,58156,46572,65700,0,24616,0,0,0
i,0x00000000,1716794303.988834,172.16.1.2,61052,172.16.3.2,5101,24073,26101,0,64256,65728,6,6,4,1460,1166,1,992,112,58156,46572,65700,0,26064,0,0,0
o,0x00000000,1716794303.988838,172.16.1.2,61052,172.16.3.2,5101,24073,26101,0,64256,65728,6,6,4,1460,1217,1,992,113,58156,43676,65700,0,23168,0,0,0
o,0x00000000,1716794303.988944,172.16.1.2,61052,172.16.3.2,5101,24073,26101,0,64256,65728,6,6,4,1460,1217,1,992,113,58156,43676,65700,0,24616,0,0,0
i,0x00000000,1716794303.989077,172.16.1.2,61052,172.16.3.2,5101,24073,26101,0,64256,65728,6,6,4,1460,1217,1,992,113,58156,43676,65700,0,26064,0,0,0
o,0x00000000,1716794303.989087,172.16.1.2,61052,172.16.3.2,5101,24073,26101,0,64256,65728,6,6,4,1460,1261,1,992,111,58156,40780,65700,0,23168,0,0,0
o,0x00000000,1716794303.989202,172.16.1.2,61052,172.16.3.2,5101,24073,26101,0,64256,65728,6,6,4,1460,1261,1,992,111,58156,40780,65700,0,24616,0,0,0
i,0x00000000,1716794303.989282,172.16.1.2,61052,172.16.3.2,5101,24073,26101,0,64256,65728,6,6,4,1460,1261,1,992,111,58156,40780,65700,0,26064,0,0,0
o,0x00000000,1716794303.989292,172.16.1.2,61052,172.16.3.2,5101,24073,26101,0,64256,65728,6,6,4,1460,1300,1,992,109,58156,37884,65700,0,23168,0,0,0
o,0x00000000,1716794303.989370,172.16.1.2,61052,172.16.3.2,5101,24073,26101,0,64256,65728,6,6,4,1460,1300,1,992,109,58156,37884,65700,0,24616,0,0,0
i,0x00000000,1716794303.989447,172.16.1.2,61052,172.16.3.2,5101,24073,26101,0,64256,65728,6,6,4,1460,1300,1,992,109,58156,37884,65700,0,26064,0,0,0
o,0x00000000,1716794303.989450,172.16.1.2,61052,172.16.3.2,5101,24073,26101,0,64256,65728,6,6,4,1460,1334,1,992,106,58156,34988,65700,0,23168,0,0,0
o,0x00000000,1716794303.989528,172.16.1.2,61052,172.16.3.2,5101,24073,26101,0,64256,65728,6,6,4,1460,1334,1,992,106,58156,34988,65700,0,24616,0,0,0
i,0x00000000,1716794304.018368,172.16.1.2,61052,172.16.3.2,5101,24073,26101,0,64256,65728,6,6,4,1460,1334,1,992,106,58156,58156,65700,0,26064,0,0,0
o,0x00000000,1716794304.018376,172.16.1.2,61052,172.16.3.2,5101,24073,27561,0,64256,65728,6,6,4,1460,1360,1,992,103,58156,55260,65700,0,23168,0,0,0
o,0x00000000,1716794304.018640,172.16.1.2,61052,172.16.3.2,5101,24073,27561,0,64256,65728,6,6,4,1460,1360,1,992,103,58156,55260,65700,0,24616,0,0,0
o,0x00000000,1716794304.018897,172.16.1.2,61052,172.16.3.2,5101,24073,27561,0,64256,65728,6,6,4,1460,1360,1,992,103,58156,55260,65700,0,26064,0,0,0
i,0x00000000,1716794304.488221,172.16.1.2,61052,172.16.3.2,5101,24073,27561,0,64256,65728,6,6,4,1460,1360,1,992,103,58156,58156,65700,0,27512,0,0,0
o,0x00000000,1716794304.488241,172.16.1.2,61052,172.16.3.2,5101,24073,27561,0,64256,65728,6,6,4,1460,1390,1,992,101,58156,55260,65700,0,24616,0,0,0
o,0x00000000,1716794304.488347,172.16.1.2,61052,172.16.3.2,5101,24073,27561,0,64256,65728,6,6,4,1460,1390,1,992,101,58156,55260,65700,0,26064,0,0,0
i,0x00000000,1716794304.488432,172.16.1.2,61052,172.16.3.2,5101,24073,27561,0,64256,65728,6,6,4,1460,1390,1,992,101,58156,55260,65700,0,27512,0,0,0
o,0x00000000,1716794304.488435,172.16.1.2,61052,172.16.3.2,5101,24073,27561,0,64256,65728,6,6,4,1460,1417,1,992,99,58156,52364,65700,0,24616,0,0,0
o,0x00000000,1716794304.488530,172.16.1.2,61052,172.16.3.2,5101,24073,27561,0,64256,65728,6,6,4,1460,1417,1,992,99,66348,52364,65700,0,26064,0,0,0
i,0x00000000,1716794304.488611,172.16.1.2,61052,172.16.3.2,5101,24073,27561,0,64256,65728,6,6,4,1460,1417,1,992,99,66348,52364,65700,0,27512,0,0,0
o,0x00000000,1716794304.488629,172.16.1.2,61052,172.16.3.2,5101,24073,27561,0,64256,65728,6,6,4,1460,1440,1,992,97,66348,49468,65700,0,24616,0,0,0
o,0x00000000,1716794304.488708,172.16.1.2,61052,172.16.3.2,5101,24073,27561,0,64256,65728,6,6,4,1460,1440,1,992,97,66348,49468,65700,0,26064,0,0,0
i,0x00000000,1716794304.488783,172.16.1.2,61052,172.16.3.2,5101,24073,27561,0,64256,65728,6,6,4,1460,1440,1,992,97,66348,49468,65700,0,27512,0,0,0
o,0x00000000,1716794304.488786,172.16.1.2,61052,172.16.3.2,5101,24073,27561,0,64256,65728,6,6,4,1460,1460,1,992,94,66348,46572,65700,0,24616,0,0,0
o,0x00000000,1716794304.488863,172.16.1.2,61052,172.16.3.2,5101,24073,27561,0,64256,65728,6,6,4,1460,1460,1,992,94,66348,46572,65700,0,26064,0,0,0
i,0x00000000,1716794304.489157,172.16.1.2,61052,172.16.3.2,5101,24073,27561,0,64256,65728,6,6,4,1460,1460,1,992,94,66348,46572,65700,0,27512,0,0,0
o,0x00000000,1716794304.489159,172.16.1.2,61052,172.16.3.2,5101,24073,27561,0,64256,65728,6,6,4,1460,1478,1,992,92,66348,43676,65700,0,24616,0,0,0
o,0x00000000,1716794304.489237,172.16.1.2,61052,172.16.3.2,5101,24073,27561,0,64256,65728,6,6,4,1460,1478,1,992,92,66348,43676,65700,0,26064,0,0,0
i,0x00000000,1716794304.489313,172.16.1.2,61052,172.16.3.2,5101,24073,27561,0,64256,65728,6,6,4,1460,1478,1,992,92,66348,43676,65700,0,27512,0,0,0
o,0x00000000,1716794304.489316,172.16.1.2,61052,172.16.3.2,5101,24073,27561,0,64256,65728,6,6,4,1460,1494,1,992,90,66348,40780,65700,0,24616,0,0,0
o,0x00000000,1716794304.489398,172.16.1.2,61052,172.16.3.2,5101,24073,27561,0,64256,65728,6,6,4,1460,1494,1,992,90,66348,40780,65700,0,26064,0,0,0
i,0x00000000,1716794304.489477,172.16.1.2,61052,172.16.3.2,5101,24073,27561,0,64256,65728,6,6,4,1460,1494,1,992,90,66348,40780,65700,0,27512,0,0,0
o,0x00000000,1716794304.489480,172.16.1.2,61052,172.16.3.2,5101,24073,27561,0,64256,65728,6,6,4,1460,1508,1,992,88,66348,37884,65700,0,24616,0,0,0
o,0x00000000,1716794304.489561,172.16.1.2,61052,172.16.3.2,5101,24073,27561,0,64256,65728,6,6,4,1460,1508,1,992,88,66348,37884,65700,0,26064,0,0,0
i,0x00000000,1716794304.489635,172.16.1.2,61052,172.16.3.2,5101,24073,27561,0,64256,65728,6,6,4,1460,1508,1,992,88,66348,37884,65700,0,27512,0,0,0
o,0x00000000,1716794304.489638,172.16.1.2,61052,172.16.3.2,5101,24073,27561,0,64256,65728,6,6,4,1460,1520,1,992,86,66348,34988,65700,0,24616,0,0,0
o,0x00000000,1716794304.489731,172.16.1.2,61052,172.16.3.2,5101,24073,27561,0,64256,65728,6,6,4,1460,1520,1,992,86,66348,34988,65700,0,26064,0,0,0
i,0x00000000,1716794304.518110,172.16.1.2,61052,172.16.3.2,5101,24073,27561,0,64256,65728,6,6,4,1460,1520,1,992,86,66348,66348,65700,0,27512,0,0,0
o,0x00000000,1716794304.518128,172.16.1.2,61052,172.16.3.2,5101,24073,29021,0,64256,65728,6,6,4,1460,1530,1,992,84,66348,63452,65700,0,24616,0,0,0
o,0x00000000,1716794304.518391,172.16.1.2,61052,172.16.3.2,5101,24073,29021,0,64256,65728,6,6,4,1460,1530,1,992,84,66348,63452,65700,0,26064,0,0,0
o,0x00000000,1716794304.518665,172.16.1.2,61052,172.16.3.2,5101,24073,29021,0,64256,65728,6,6,4,1460,1530,1,992,84,66348,63452,65700,0,27512,0,0,0
i,0x00000000,1716794304.937927,172.16.1.2,61052,172.16.3.2,5101,24073,29021,0,64256,65728,6,6,4,1460,1530,1,992,84,66348,64464,65700,0,28960,0,0,0
o,0x00000000,1716794304.937948,172.16.1.2,61052,172.16.3.2,5101,24073,29021,0,65728,65728,6,6,4,1460,1707,1,992,130,66348,63016,65700,0,27512,0,0,0
i,0x00000000,1716794304.988497,172.16.1.2,61052,172.16.3.2,5101,24073,29021,0,65728,65728,6,6,4,1460,1707,1,992,130,66348,66348,65700,0,28960,0,0,0
o,0x00000000,1716794304.988699,172.16.1.2,61052,172.16.3.2,5101,24073,29021,0,64256,65728,6,6,4,1460,1690,1,992,119,66348,63452,65700,0,26064,0,0,0
o,0x00000000,1716794304.988793,172.16.1.2,61052,172.16.3.2,5101,24073,29021,0,64256,65728,6,6,4,1460,1690,1,992,119,66348,63452,65700,0,27512,0,0,0
i,0x00000000,1716794304.988881,172.16.1.2,61052,172.16.3.2,5101,24073,29021,0,64256,65728,6,6,4,1460,1690,1,992,119,66348,63452,65700,0,28960,0,0,0
o,0x00000000,1716794304.988885,172.16.1.2,61052,172.16.3.2,5101,24073,29021,0,64256,65728,6,6,4,1460,1675,1,992,111,66348,60556,65700,0,26064,0,0,0
o,0x00000000,1716794304.989011,172.16.1.2,61052,172.16.3.2,5101,24073,29021,0,64256,65728,6,6,4,1460,1675,1,992,111,66348,60556,65700,0,27512,0,0,0
i,0x00000000,1716794304.989420,172.16.1.2,61052,172.16.3.2,5101,24073,29021,0,64256,65728,6,6,4,1460,1675,1,992,111,66348,60556,65700,0,28960,0,0,0
o,0x00000000,1716794304.989424,172.16.1.2,61052,172.16.3.2,5101,24073,29021,0,64256,65728,6,6,4,1460,1662,1,992,104,66348,57660,65700,0,26064,0,0,0
o,0x00000000,1716794304.989511,172.16.1.2,61052,172.16.3.2,5101,24073,29021,0,64256,65728,6,6,4,1460,1662,1,992,104,66348,57660,65700,0,27512,0,0,0
i,0x00000000,1716794304.989586,172.16.1.2,61052,172.16.3.2,5101,24073,29021,0,64256,65728,6,6,4,1460,1662,1,992,104,66348,57660,65700,0,28960,0,0,0
o,0x00000000,1716794304.989589,172.16.1.2,61052,172.16.3.2,5101,24073,29021,0,64256,65728,6,6,4,1460,1651,1,992,98,66348,54764,65700,0,26064,0,0,0
o,0x00000000,1716794304.989672,172.16.1.2,61052,172.16.3.2,5101,24073,29021,0,64256,65728,6,6,4,1460,1651,1,992,98,66348,54764,65700,0,27512,0,0,0
i,0x00000000,1716794304.989756,172.16.1.2,61052,172.16.3.2,5101,24073,29021,0,64256,65728,6,6,4,1460,1651,1,992,98,66348,54764,65700,0,28960,0,0,0
o,0x00000000,1716794304.989764,172.16.1.2,61052,172.16.3.2,5101,24073,29021,0,64256,65728,6,6,4,1460,1641,1,992,94,66348,51868,65700,0,26064,0,0,0
o,0x00000000,1716794304.989839,172.16.1.2,61052,172.16.3.2,5101,24073,29021,0,64256,65728,6,6,4,1460,1641,1,992,94,66348,51868,65700,0,27512,0,0,0
i,0x00000000,1716794304.990127,172.16.1.2,61052,172.16.3.2,5101,24073,29021,0,64256,65728,6,6,4,1460,1641,1,992,94,66348,51868,65700,0,28960,0,0,0
o,0x00000000,1716794304.990130,172.16.1.2,61052,172.16.3.2,5101,24073,29021,0,64256,65728,6,6,4,1460,1632,1,992,90,66348,48972,65700,0,26064,0,0,0
o,0x00000000,1716794304.990206,172.16.1.2,61052,172.16.3.2,5101,24073,29021,0,64256,65728,6,6,4,1460,1632,1,992,90,66348,48972,65700,0,27512,0,0,0
i,0x00000000,1716794305.008247,172.16.1.2,61052,172.16.3.2,5101,24073,29021,0,64256,65728,6,6,4,1460,1632,1,992,90,66348,66348,65700,0,28960,0,0,0
o,0x00000000,1716794305.008259,172.16.1.2,61052,172.16.3.2,5101,24073,29021,0,64256,65728,6,6,4,1460,1636,1,992,86,66348,63452,65700,0,26064,0,0,0
o,0x00000000,1716794305.008345,172.16.1.2,61052,172.16.3.2,5101,24073,29021,0,64256,65728,6,6,4,1460,1636,1,992,86,66348,63452,65700,0,27512,0,0,0
i,0x00000000,1716794305.008421,172.16.1.2,61052,172.16.3.2,5101,24073,29021,0,64256,65728,6,6,4,1460,1636,1,992,86,66348,63452,65700,0,28960,0,0,0
o,0x00000000,1716794305.008424,172.16.1.2,61052,172.16.3.2,5101,24073,29021,0,64256,65728,6,6,4,1460,1640,1,992,84,66348,60556,65700,0,26064,0,0,0
o,0x00000000,1716794305.008548,172.16.1.2,61052,172.16.3.2,5101,24073,29021,0,64256,65728,6,6,4,1460,1640,1,992,84,66348,60556,65700,0,27512,0,0,0
i,0x00000000,1716794305.018083,172.16.1.2,61052,172.16.3.2,5101,24073,29021,0,64256,65728,6,6,4,1460,1640,1,992,84,66348,66348,65700,0,28960,0,0,0
o,0x00000000,1716794305.018094,172.16.1.2,61052,172.16.3.2,5101,24073,29021,0,64256,65728,6,6,4,1460,1631,1,992,82,66348,63452,65700,0,26064,0,0,0
o,0x00000000,1716794305.018345,172.16.1.2,61052,172.16.3.2,5101,24073,29021,0,64256,65728,6,6,4,1460,1631,1,992,82,66348,63452,65700,0,27512,0,0,0
i,0x00000000,1716794305.428095,172.16.1.2,61052,172.16.3.2,5101,24073,29021,0,64256,65728,6,6,4,1460,1631,1,992,82,66348,66348,65700,0,28960,0,0,0
o,0x00000000,1716794305.428115,172.16.1.2,61052,172.16.3.2,5101,24073,30481,0,65728,65728,6,6,4,1460,1792,1,992,125,66348,64900,65700,0,27512,0,0,0
o,0x00000000,1716794305.428381,172.16.1.2,61052,172.16.3.2,5101,24073,30481,0,65728,65728,6,6,4,1460,1792,1,992,125,66348,64900,65700,0,28960,0,0,0
i,0x00000000,1716794305.448754,172.16.1.2,61052,172.16.3.2,5101,24073,30481,0,65728,65728,6,6,4,1460,1792,1,992,125,66348,64900,65700,0,30408,0,0,0
o,0x00000000,1716794305.448767,172.16.1.2,61052,172.16.3.2,5101,24073,30481,0,65728,65728,6,6,4,1460,1772,1,992,117,66348,63452,65700,0,28960,0,0,0
i,0x00000000,1716794305.477726,172.16.1.2,61052,172.16.3.2,5101,24073,30481,0,65728,65728,6,6,4,1460,1772,1,992,117,66348,66348,65700,0,30408,0,0,0
o,0x00000000,1716794305.477760,172.16.1.2,61052,172.16.3.2,5101,24073,30481,0,64256,65728,6,6,4,1460,1747,1,992,112,66348,63452,65700,0,27512,0,0,0
o,0x00000000,1716794305.477857,172.16.1.2,61052,172.16.3.2,5101,24073,30481,0,64256,65728,6,6,4,1460,1747,1,992,112,66348,63452,65700,0,28960,0,0,0
i,0x00000000,1716794305.477933,172.16.1.2,61052,172.16.3.2,5101,24073,30481,0,64256,65728,6,6,4,1460,1747,1,992,112,66348,63452,65700,0,30408,0,0,0
o,0x00000000,1716794305.477936,172.16.1.2,61052,172.16.3.2,5101,24073,30481,0,64256,65728,6,6,4,1460,1725,1,992,107,66348,60556,65700,0,27512,0,0,0
o,0x00000000,1716794305.478012,172.16.1.2,61052,172.16.3.2,5101,24073,30481,0,64256,65728,6,6,4,1460,1725,1,992,107,66348,60556,65700,0,28960,0,0,0
i,0x00000000,1716794305.478087,172.16.1.2,61052,172.16.3.2,5101,24073,30481,0,64256,65728,6,6,4,1460,1725,1,992,107,74540,60556,65700,0,30408,0,0,0
o,0x00000000,1716794305.478090,172.16.1.2,61052,172.16.3.2,5101,24073,30481,0,64256,65728,6,6,4,1460,1706,1,992,103,74540,57660,65700,0,27512,0,0,0
o,0x00000000,1716794305.478174,172.16.1.2,61052,172.16.3.2,5101,24073,30481,0,64256,65728,6,6,4,1460,1706,1,992,103,74540,57660,65700,0,28960,0,0,0
i,0x00000000,1716794305.479022,172.16.1.2,61052,172.16.3.2,5101,24073,30481,0,64256,65728,6,6,4,1460,1706,1,992,103,74540,74540,65700,0,30408,0,0,0
o,0x00000000,1716794305.479025,172.16.1.2,61052,172.16.3.2,5101,24073,30481,0,64256,65728,6,6,4,1460,1689,1,992,99,74540,71644,65700,0,27512,0,0,0
o,0x00000000,1716794305.479103,172.16.1.2,61052,172.16.3.2,5101,24073,30481,0,64256,65728,6,6,4,1460,1689,1,992,99,74540,71644,65700,0,28960,0,0,0
i,0x00000000,1716794305.479178,172.16.1.2,61052,172.16.3.2,5101,24073,30481,0,64256,65728,6,6,4,1460,1689,1,992,99,74540,71644,65700,0,30408,0,0,0
o,0x00000000,1716794305.479182,172.16.1.2,61052,172.16.3.2,5101,24073,30481,0,64256,65728,6,6,4,1460,1674,1,992,96,74540,68748,65700,0,27512,0,0,0
o,0x00000000,1716794305.479258,172.16.1.2,61052,172.16.3.2,5101,24073,30481,0,64256,65728,6,6,4,1460,1674,1,992,96,74540,68748,65700,0,28960,0,0,0
i,0x00000000,1716794305.479580,172.16.1.2,61052,172.16.3.2,5101,24073,30481,0,64256,65728,6,6,4,1460,1674,1,992,96,74540,68748,65700,0,30408,0,0,0
o,0x00000000,1716794305.479583,172.16.1.2,61052,172.16.3.2,5101,24073,30481,0,64256,65728,6,6,4,1460,1661,1,992,93,74540,65852,65700,0,27512,0,0,0
o,0x00000000,1716794305.479660,172.16.1.2,61052,172.16.3.2,5101,24073,30481,0,64256,65728,6,6,4,1460,1661,1,992,93,74540,65852,65700,0,28960,0,0,0
i,0x00000000,1716794305.479736,172.16.1.2,61052,172.16.3.2,5101,24073,30481,0,64256,65728,6,6,4,1460,1661,1,992,93,74540,65852,65700,0,30408,0,0,0
o,0x00000000,1716794305.479738,172.16.1.2,61052,172.16.3.2,5101,24073,30481,0,64256,65728,6,6,4,1460,1642,1,992,92,74540,62956,65700,0,27512,0,0,0
o,0x00000000,1716794305.479814,172.16.1.2,61052,172.16.3.2,5101,24073,30481,0,64256,65728,6,6,4,1460,1642,1,992,92,74540,62956,65700,0,28960,0,0,0
i,0x00000000,1716794305.487862,172.16.1.2,61052,172.16.3.2,5101,24073,30481,0,64256,65728,6,6,4,1460,1642,1,992,92,74540,74540,65700,0,30408,0,0,0
o,0x00000000,1716794305.487876,172.16.1.2,61052,172.16.3.2,5101,24073,30481,0,64256,65728,6,6,4,1460,1629,1,992,89,74540,71644,65700,0,27512,0,0,0
o,0x00000000,1716794305.488167,172.16.1.2,61052,172.16.3.2,5101,24073,30481,0,64256,65728,6,6,4,1460,1629,1,992,89,74540,71644,65700,0,28960,0,0,0
i,0x00000000,1716794305.517888,172.16.1.2,61052,172.16.3.2,5101,24073,30481,0,64256,65728,6,6,4,1460,1629,1,992,89,74540,74540,65700,0,30408,0,0,0
o,0x00000000,1716794305.517907,172.16.1.2,61052,172.16.3.2,5101,24073,30481,0,64256,65728,6,6,4,1460,1626,1,992,85,74540,71644,65700,0,27512,0,0,0
o,0x00000000,1716794305.518167,172.16.1.2,61052,172.16.3.2,5101,24073,30481,0,64256,65728,6,6,4,1460,1626,1,992,85,74540,71644,65700,0,28960,0,0,0
i,0x00000000,1716794305.957947,172.16.1.2,61052,172.16.3.2,5101,24073,30481,0,64256,65728,6,6,4,1460,1626,1,992,85,74540,74540,65700,0,30408,0,0,0
o,0x00000000,1716794305.957968,172.16.1.2,61052,172.16.3.2,5101,24073,31941,0,64256,65728,6,6,4,1460,1631,1,992,83,74540,71644,65700,0,27512,0,0,0
o,0x00000000,1716794305.958217,172.16.1.2,61052,172.16.3.2,5101,24073,31941,0,64256,65728,6,6,4,1460,1631,1,992,83,74540,71644,65700,0,28960,0,0,0
o,0x00000000,1716794305.958464,172.16.1.2,61052,172.16.3.2,5101,24073,31941,0,64256,65728,6,6,4,1460,1631,1,992,83,74540,71644,65700,0,30408,0,0,0
i,0x00000000,1716794305.967724,172.16.1.2,61052,172.16.3.2,5101,24073,31941,0,64256,65728,6,6,4,1460,1631,1,992,83,74540,74540,65700,0,31856,0,0,0
o,0x00000000,1716794305.967735,172.16.1.2,61052,172.16.3.2,5101,24073,31941,0,65728,65728,6,6,4,1460,1636,1,992,81,74540,73092,65700,0,30408,0,0,0
i,0x00000000,1716794306.017751,172.16.1.2,61052,172.16.3.2,5101,24073,31941,0,65728,65728,6,6,4,1460,1636,1,992,81,74540,73092,65700,0,31856,0,0,0
o,0x00000000,1716794306.017767,172.16.1.2,61052,172.16.3.2,5101,24073,31941,0,64256,65728,6,6,4,1460,1648,1,992,82,74540,70196,65700,0,28960,0,0,0
o,0x00000000,1716794306.017973,172.16.1.2,61052,172.16.3.2,5101,24073,31941,0,64256,65728,6,6,4,1460,1648,1,992,82,74540,70196,65700,0,30408,0,0,0
i,0x00000000,1716794306.018050,172.16.1.2,61052,172.16.3.2,5101,24073,31941,0,64256,65728,6,6,4,1460,1648,1,992,82,74540,70196,65700,0,31856,0,0,0
o,0x00000000,1716794306.018054,172.16.1.2,61052,172.16.3.2,5101,24073,31941,0,64256,65728,6,6,4,1460,1658,1,992,82,74540,67300,65700,0,28960,0,0,0
o,0x00000000,1716794306.018146,172.16.1.2,61052,172.16.3.2,5101,24073,31941,0,64256,65728,6,6,4,1460,1658,1,992,82,74540,67300,65700,0,30408,0,0,0
i,0x00000000,1716794306.018450,172.16.1.2,61052,172.16.3.2,5101,24073,31941,0,64256,65728,6,6,4,1460,1658,1,992,82,74540,67300,65700,0,31856,0,0,0
o,0x00000000,1716794306.018453,172.16.1.2,61052,172.16.3.2,5101,24073,31941,0,64256,65728,6,6,4,1460,1667,1,992,82,74540,64404,65700,0,28960,0,0,0
o,0x00000000,1716794306.018527,172.16.1.2,61052,172.16.3.2,5101,24073,31941,0,64256,65728,6,6,4,1460,1667,1,992,82,74540,64404,65700,0,30408,0,0,0
i,0x00000000,1716794306.018601,172.16.1.2,61052,172.16.3.2,5101,24073,31941,0,64256,65728,6,6,4,1460,1667,1,992,82,74540,64404,65700,0,31856,0,0,0
o,0x00000000,1716794306.018604,172.16.1.2,61052,172.16.3.2,5101,24073,31941,0,64256,65728,6,6,4,1460,1675,1,992,82,74540,61508,65700,0,28960,0,0,0
o,0x00000000,1716794306.018685,172.16.1.2,61052,172.16.3.2,5101,24073,31941,0,64256,65728,6,6,4,1460,1675,1,992,82,74540,61508,65700,0,30408,0,0,0
i,0x00000000,1716794306.018762,172.16.1.2,61052,172.16.3.2,5101,24073,31941,0,64256,65728,6,6,4,1460,1675,1,992,82,74540,61508,65700,0,31856,0,0,0
o,0x00000000,1716794306.018765,172.16.1.2,61052,172.16.3.2,5101,24073,31941,0,64256,65728,6,6,4,1460,1682,1,992,81,74540,58612,65700,0,28960,0,0,0
o,0x00000000,1716794306.018845,172.16.1.2,61052,172.16.3.2,5101,24073,31941,0,64256,65728,6,6,4,1460,1682,1,992,81,74540,58612,65700,0,30408,0,0,0
i,0x00000000,1716794306.018919,172.16.1.2,61052,172.16.3.2,5101,24073,31941,0,64256,65728,6,6,4,1460,1682,1,992,81,74540,58612,65700,0,31856,0,0,0
o,0x00000000,1716794306.018921,172.16.1.2,61052,172.16.3.2,5101,24073,31941,0,64256,65728,6,6,4,1460,1688,1,992,81,74540,55716,65700,0,28960,0,0,0
o,0x00000000,1716794306.018996,172.16.1.2,61052,172.16.3.2,5101,24073,31941,0,64256,65728,6,6,4,1460,1688,1,992,81,74540,55716,65700,0,30408,0,0,0
i,0x00000000,1716794306.019112,172.16.1.2,61052,172.16.3.2,5101,24073,31941,0,64256,65728,6,6,4,1460,1688,1,992,81,74540,55716,65700,0,31856,0,0,0
o,0x00000000,1716794306.019116,172.16.1.2,61052,172.16.3.2,5101,24073,31941,0,64256,65728,6,6,4,1460,1693,1,992,80,74540,52820,65700,0,28960,0,0,0
o,0x00000000,1716794306.019212,172.16.1.2,61052,172.16.3.2,5101,24073,31941,0,64256,65728,6,6,4,1460,1693,1,992,80,74540,52820,65700,0,30408,0,0,0
i,0x00000000,1716794306.019286,172.16.1.2,61052,172.16.3.2,5101,24073,31941,0,64256,65728,6,6,4,1460,1693,1,992,80,74540,52820,65700,0,31856,0,0,0
o,0x00000000,1716794306.019289,172.16.1.2,61052,172.16.3.2,5101,24073,31941,0,64256,65728,6,6,4,1460,1694,1,992,79,74540,49924,65700,0,28960,0,0,0
o,0x00000000,1716794306.019380,172.16.1.2,61052,172.16.3.2,5101,24073,31941,0,64256,65728,6,6,4,1460,1694,1,992,79,74540,49924,65700,0,30408,0,0,0
i,0x00000000,1716794306.038558,172.16.1.2,61052,172.16.3.2,5101,24073,31941,0,64256,65728,6,6,4,1460,1694,1,992,79,74540,74540,65700,0,31856,0,0,0
o,0x00000000,1716794306.038573,172.16.1.2,61052,172.16.3.2,5101,24073,31941,0,64256,65728,6,6,4,1460,1687,1,992,79,74540,71644,65700,0,28960,0,0,0
o,0x00000000,1716794306.039040,172.16.1.2,61052,172.16.3.2,5101,24073,31941,0,64256,65728,6,6,4,1460,1687,1,992,79,74540,71644,65700,0,30408,0,0,0
i,0x00000000,1716794306.517899,172.16.1.2,61052,172.16.3.2,5101,24073,31941,0,64256,65728,6,6,4,1460,1687,1,992,79,74540,74540,65700,0,31856,0,0,0
o,0x00000000,1716794306.518081,172.16.1.2,61052,172.16.3.2,5101,24073,31941,0,64256,65728,6,6,4,1460,1701,1,992,81,74540,71644,65700,0,28960,0,0,0
o,0x00000000,1716794306.518176,172.16.1.2,61052,172.16.3.2,5101,24073,31941,0,64256,65728,6,6,4,1460,1701,1,992,81,74540,71644,65700,0,30408,0,0,0
i,0x00000000,1716794306.518671,172.16.1.2,61052,172.16.3.2,5101,24073,31941,0,64256,65728,6,6,4,1460,1701,1,992,81,74540,71644,65700,0,31856,0,0,0
o,0x00000000,1716794306.518677,172.16.1.2,61052,172.16.3.2,5101,24073,33401,0,65728,65728,6,6,4,1460,1713,1,992,83,74540,70196,65700,0,30408,0,0,0
o,0x00000000,1716794306.518783,172.16.1.2,61052,172.16.3.2,5101,24073,33401,0,65728,65728,6,6,4,1460,1713,1,992,83,74540,70196,65700,0,31856,0,0,0
i,0x00000000,1716794306.538839,172.16.1.2,61052,172.16.3.2,5101,24073,33401,0,65728,65728,6,6,4,1460,1713,1,992,83,74540,74540,65700,0,33304,0,0,0
o,0x00000000,1716794306.538854,172.16.1.2,61052,172.16.3.2,5101,24073,33401,0,64256,65728,6,6,4,1460,1723,1,992,83,74540,71644,65700,0,30408,0,0,0
o,0x00000000,1716794306.538953,172.16.1.2,61052,172.16.3.2,5101,24073,33401,0,64256,65728,6,6,4,1460,1723,1,992,83,74540,71644,65700,0,31856,0,0,0
i,0x00000000,1716794306.539045,172.16.1.2,61052,172.16.3.2,5101,24073,33401,0,64256,65728,6,6,4,1460,1723,1,992,83,74540,71644,65700,0,33304,0,0,0
o,0x00000000,1716794306.539048,172.16.1.2,61052,172.16.3.2,5101,24073,33401,0,64256,65728,6,6,4,1460,1712,1,992,83,74540,68748,65700,0,30408,0,0,0
o,0x00000000,1716794306.539132,172.16.1.2,61052,172.16.3.2,5101,24073,33401,0,64256,65728,6,6,4,1460,1712,1,992,83,74540,68748,65700,0,31856,0,0,0
i,0x00000000,1716794306.539232,172.16.1.2,61052,172.16.3.2,5101,24073,33401,0,64256,65728,6,6,4,1460,1712,1,992,83,74540,68748,65700,0,33304,0,0,0
o,0x00000000,1716794306.539235,172.16.1.2,61052,172.16.3.2,5101,24073,33401,0,64256,65728,6,6,4,1460,1702,1,992,83,74540,65852,65700,0,30408,0,0,0
o,0x00000000,1716794306.539354,172.16.1.2,61052,172.16.3.2,5101,24073,33401,0,64256,65728,6,6,4,1460,1702,1,992,83,74540,65852,65700,0,31856,0,0,0
i,0x00000000,1716794306.539819,172.16.1.2,61052,172.16.3.2,5101,24073,33401,0,64256,65728,6,6,4,1460,1702,1,992,83,82732,65852,65700,0,33304,0,0,0
o,0x00000000,1716794306.539823,172.16.1.2,61052,172.16.3.2,5101,24073,33401,0,64256,65728,6,6,4,1460,1694,1,992,82,82732,62956,65700,0,30408,0,0,0
o,0x00000000,1716794306.539919,172.16.1.2,61052,172.16.3.2,5101,24073,33401,0,64256,65728,6,6,4,1460,1694,1,992,82,82732,62956,65700,0,31856,0,0,0
i,0x00000000,1716794306.540243,172.16.1.2,61052,172.16.3.2,5101,24073,33401,0,64256,65728,6,6,4,1460,1694,1,992,82,82732,62956,65700,0,33304,0,0,0
o,0x00000000,1716794306.540248,172.16.1.2,61052,172.16.3.2,5101,24073,33401,0,64256,65728,6,6,4,1460,1687,1,992,81,82732,60060,65700,0,30408,0,0,0
o,0x00000000,1716794306.540367,172.16.1.2,61052,172.16.3.2,5101,24073,33401,0,64256,65728,6,6,4,1460,1687,1,992,81,82732,60060,65700,0,31856,0,0,0
i,0x00000000,1716794306.540447,172.16.1.2,61052,172.16.3.2,5101,24073,33401,0,64256,65728,6,6,4,1460,1687,1,992,81,82732,60060,65700,0,33304,0,0,0
o,0x00000000,1716794306.540450,172.16.1.2,61052,172.16.3.2,5101,24073,33401,0,64256,65728,6,6,4,1460,1681,1,992,81,82732,57164,65700,0,30408,0,0,0
o,0x00000000,1716794306.540528,172.16.1.2,61052,172.16.3.2,5101,24073,33401,0,64256,65728,6,6,4,1460,1681,1,992,81,82732,57164,65700,0,31856,0,0,0
i,0x00000000,1716794306.540839,172.16.1.2,61052,172.16.3.2,5101,24073,33401,0,64256,65728,6,6,4,1460,1681,1,992,81,82732,57164,65700,0,33304,0,0,0
o,0x00000000,1716794306.540842,172.16.1.2,61052,172.16.3.2,5101,24073,33401,0,64256,65728,6,6,4,1460,1675,1,992,80,82732,54268,65700,0,30408,0,0,0
o,0x00000000,1716794306.540920,172.16.1.2,61052,172.16.3.2,5101,24073,33401,0,64256,65728,6,6,4,1460,1675,1,992,80,82732,54268,65700,0,31856,0,0,0
i,0x00000000,1716794306.540998,172.16.1.2,61052,172.16.3.2,5101,24073,33401,0,64256,65728,6,6,4,1460,1675,1,992,80,82732,54268,65700,0,33304,0,0,0
o,0x00000000,1716794306.541001,172.16.1.2,61052,172.16.3.2,5101,24073,33401,0,64256,65728,6,6,4,1460,1670,1,992,79,82732,51372,65700,0,30408,0,0,0
o,0x00000000,1716794306.541084,172.16.1.2,61052,172.16.3.2,5101,24073,33401,0,64256,65728,6,6,4,1460,1670,1,992,79,82732,51372,65700,0,31856,0,0,0
i,0x00000000,1716794306.588181,172.16.1.2,61052,172.16.3.2,5101,24073,33401,0,64256,65728,6,6,4,1460,1670,1,992,79,82732,81144,65700,0,33304,0,0,0
o,0x00000000,1716794306.588198,172.16.1.2,61052,172.16.3.2,5101,24073,33401,0,64256,65728,6,6,4,1460,1690,1,992,83,82732,78248,65700,0,30408,0,0,0
o,0x00000000,1716794306.588460,172.16.1.2,61052,172.16.3.2,5101,24073,33401,0,64256,65728,6,6,4,1460,1690,1,992,83,82732,78248,65700,0,31856,0,0,0
i,0x00000000,1716794307.038897,172.16.1.2,61052,172.16.3.2,5101,24073,33401,0,64256,65728,6,6,4,1460,1690,1,992,83,82732,82732,65700,0,33304,0,0,0
o,0x00000000,1716794307.038923,172.16.1.2,61052,172.16.3.2,5101,24073,33401,0,65728,65728,6,6,4,1460,1879,1,992,133,82732,81284,65700,0,31856,0,0,0
i,0x00000000,1716794307.068138,172.16.1.2,61052,172.16.3.2,5101,24073,33401,0,65728,65728,6,6,4,1460,1879,1,992,133,82732,81284,65700,0,33304,0,0,0
o,0x00000000,1716794307.068164,172.16.1.2,61052,172.16.3.2,5101,24073,33401,0,64256,65728,6,6,4,1460,1865,1,992,123,82732,78388,65700,0,30408,0,0,0
o,0x00000000,1716794307.068555,172.16.1.2,61052,172.16.3.2,5101,24073,33401,0,64256,65728,6,6,4,1460,1865,1,992,123,82732,78388,65700,0,31856,0,0,0
i,0x00000000,1716794307.068659,172.16.1.2,61052,172.16.3.2,5101,24073,33401,0,64256,65728,6,6,4,1460,1865,1,992,123,82732,78388,65700,0,33304,0,0,0
o,0x00000000,1716794307.068663,172.16.1.2,61052,172.16.3.2,5101,24073,34861,0,64256,65728,6,6,4,1460,1852,1,992,114,82732,75492,65700,0,30408,0,0,0
o,0x00000000,1716794307.068743,172.16.1.2,61052,172.16.3.2,5101,24073,34861,0,64256,65728,6,6,4,1460,1852,1,992,114,82732,75492,65700,0,31856,0,0,0
o,0x00000000,1716794307.068850,172.16.1.2,61052,172.16.3.2,5101,24073,34861,0,64256,65728,6,6,4,1460,1852,1,992,114,82732,75492,65700,0,33304,0,0,0
i,0x00000000,1716794307.098188,172.16.1.2,61052,172.16.3.2,5101,24073,34861,0,64256,65728,6,6,4,1460,1852,1,992,114,82732,82732,65700,0,34752,0,0,0
o,0x00000000,1716794307.098208,172.16.1.2,61052,172.16.3.2,5101,24073,34861,0,64256,65728,6,6,4,1460,1845,1,992,107,82732,79836,65700,0,31856,0,0,0
o,0x00000000,1716794307.098296,172.16.1.2,61052,172.16.3.2,5101,24073,34861,0,64256,65728,6,6,4,1460,1845,1,992,107,82732,79836,65700,0,33304,0,0,0
i,0x00000000,1716794307.098371,172.16.1.2,61052,172.16.3.2,5101,24073,34861,0,64256,65728,6,6,4,1460,1845,1,992,107,82732,79836,65700,0,34752,0,0,0
o,0x00000000,1716794307.098374,172.16.1.2,61052,172.16.3.2,5101,24073,34861,0,64256,65728,6,6,4,1460,1839,1,992,101,82732,76940,65700,0,31856,0,0,0
o,0x00000000,1716794307.098449,172.16.1.2,61052,172.16.3.2,5101,24073,34861,0,64256,65728,6,6,4,1460,1839,1,992,101,82732,76940,65700,0,33304,0,0,0
i,0x00000000,1716794307.099085,172.16.1.2,61052,172.16.3.2,5101,24073,34861,0,64256,65728,6,6,4,1460,1839,1,992,101,82732,76940,65700,0,34752,0,0,0
o,0x00000000,1716794307.099093,172.16.1.2,61052,172.16.3.2,5101,24073,34861,0,64256,65728,6,6,4,1460,1834,1,992,96,82732,74044,65700,0,31856,0,0,0
o,0x00000000,1716794307.099195,172.16.1.2,61052,172.16.3.2,5101,24073,34861,0,64256,65728,6,6,4,1460,1834,1,992,96,82732,74044,65700,0,33304,0,0,0
i,0x00000000,1716794307.099521,172.16.1.2,61052,172.16.3.2,5101,24073,34861,0,64256,65728,6,6,4,1460,1834,1,992,96,82732,74044,65700,0,34752,0,0,0
o,0x00000000,1716794307.099525,172.16.1.2,61052,172.16.3.2,5101,24073,34861,0,64256,65728,6,6,4,1460,1829,1,992,92,82732,71148,65700,0,31856,0,0,0
o,0x00000000,1716794307.099602,172.16.1.2,61052,172.16.3.2,5101,24073,34861,0,64256,65728,6,6,4,1460,1829,1,992,92,82732,71148,65700,0,33304,0,0,0
i,0x00000000,1716794307.099679,172.16.1.2,61052,172.16.3.2,5101,24073,34861,0,64256,65728,6,6,4,1460,1829,1,992,92,82732,71148,65700,0,34752,0,0,0
o,0x00000000,1716794307.099681,172.16.1.2,61052,172.16.3.2,5101,24073,34861,0,64256,65728,6,6,4,1460,1825,1,992,90,82732,68252,65700,0,31856,0,0,0
o,0x00000000,1716794307.099756,172.16.1.2,61052,172.16.3.2,5101,24073,34861,0,64256,65728,6,6,4,1460,1825,1,992,90,82732,68252,65700,0,33304,0,0,0
i,0x00000000,1716794307.099830,172.16.1.2,61052,172.16.3.2,5101,24073,34861,0,64256,65728,6,6,4,1460,1825,1,992,90,82732,68252,65700,0,34752,0,0,0
o,0x00000000,1716794307.099833,172.16.1.2,61052,172.16.3.2,5101,24073,34861,0,64256,65728,6,6,4,1460,1821,1,992,87,82732,65356,65700,0,31856,0,0,0
o,0x00000000,1716794307.099908,172.16.1.2,61052,172.16.3.2,5101,24073,34861,0,64256,65728,6,6,4,1460,1821,1,992,87,82732,65356,65700,0,33304,0,0,0
i,0x00000000,1716794307.100002,172.16.1.2,61052,172.16.3.2,5101,24073,34861,0,64256,65728,6,6,4,1460,1821,1,992,87,82732,65356,65700,0,34752,0,0,0
o,0x00000000,1716794307.100005,172.16.1.2,61052,172.16.3.2,5101,24073,34861,0,64256,65728,6,6,4,1460,1818,1,992,85,82732,62460,65700,0,31856,0,0,0
o,0x00000000,1716794307.100085,172.16.1.2,61052,172.16.3.2,5101,24073,34861,0,64256,65728,6,6,4,1460,1818,1,992,85,82732,62460,65700,0,33304,0,0,0
i,0x00000000,1716794307.100187,172.16.1.2,61052,172.16.3.2,5101,24073,34861,0,64256,65728,6,6,4,1460,1818,1,992,85,82732,62460,65700,0,34752,0,0,0
o,0x00000000,1716794307.100190,172.16.1.2,61052,172.16.3.2,5101,24073,34861,0,64256,65728,6,6,4,1460,1815,1,992,84,82732,59564,65700,0,31856,0,0,0
o,0x00000000,1716794307.100275,172.16.1.2,61052,172.16.3.2,5101,24073,34861,0,64256,65728,6,6,4,1460,1815,1,992,84,82732,59564,65700,0,33304,0,0,0
i,0x00000000,1716794307.168443,172.16.1.2,61052,172.16.3.2,5101,24073,34861,0,64256,65728,6,6,4,1460,1815,1,992,84,82732,82732,65700,0,34752,0,0,0
o,0x00000000,1716794307.168590,172.16.1.2,61052,172.16.3.2,5101,24073,34861,0,64256,65728,6,6,4,1460,1817,1,992,83,82732,79836,65700,0,31856,0,0,0
o,0x00000000,1716794307.168918,172.16.1.2,61052,172.16.3.2,5101,24073,34861,0,64256,65728,6,6,4,1460,1817,1,992,83,82732,79836,65700,0,33304,0,0,0
i,0x00000000,1716794307.668491,172.16.1.2,61052,172.16.3.2,5101,24073,34861,0,64256,65728,6,6,4,1460,1817,1,992,83,82732,82732,65700,0,34752,0,0,0
o,0x00000000,1716794307.668517,172.16.1.2,61052,172.16.3.2,5101,24073,34861,0,65728,65728,6,6,4,1460,1842,1,992,88,82732,81284,65700,0,33304,0,0,0
i,0x00000000,1716794307.668926,172.16.1.2,61052,172.16.3.2,5101,24073,34861,0,65728,65728,6,6,4,1460,1842,1,992,88,82732,81284,65700,0,34752,0,0,0
o,0x00000000,1716794307.668931,172.16.1.2,61052,172.16.3.2,5101,24073,34861,0,64256,65728,6,6,4,1460,1852,1,992,88,82732,78388,65700,0,31856,0,0,0
o,0x00000000,1716794307.669038,172.16.1.2,61052,172.16.3.2,5101,24073,34861,0,64256,65728,6,6,4,1460,1852,1,992,88,82732,78388,65700,0,33304,0,0,0
i,0x00000000,1716794307.669163,172.16.1.2,61052,172.16.3.2,5101,24073,34861,0,64256,65728,6,6,4,1460,1852,1,992,88,82732,78388,65700,0,34752,0,0,0
o,0x00000000,1716794307.669167,172.16.1.2,61052,172.16.3.2,5101,24073,34861,0,64256,65728,6,6,4,1460,1861,1,992,88,82732,75492,65700,0,31856,0,0,0
o,0x00000000,1716794307.669265,172.16.1.2,61052,172.16.3.2,5101,24073,34861,0,64256,65728,6,6,4,1460,1861,1,992,88,82732,75492,65700,0,33304,0,0,0
i,0x00000000,1716794307.688404,172.16.1.2,61052,172.16.3.2,5101,24073,34861,0,64256,65728,6,6,4,1460,1861,1,992,88,82732,82732,65700,0,34752,0,0,0
o,0x00000000,1716794307.688425,172.16.1.2,61052,172.16.3.2,5101,24073,36321,0,65728,65728,6,6,4,1460,1877,1,992,90,82732,81284,65700,0,33304,0,0,0
o,0x00000000,1716794307.688541,172.16.1.2,61052,172.16.3.2,5101,24073,36321,0,65728,65728,6,6,4,1460,1877,1,992,90,82732,81284,65700,0,34752,0,0,0
i,0x00000000,1716794307.688662,172.16.1.2,61052,172.16.3.2,5101,24073,36321,0,65728,65728,6,6,4,1460,1877,1,992,90,82732,81284,65700,0,36200,0,0,0
o,0x00000000,1716794307.688668,172.16.1.2,61052,172.16.3.2,5101,24073,36321,0,64256,65728,6,6,4,1460,1879,1,992,88,82732,78388,65700,0,33304,0,0,0
o,0x00000000,1716794307.688751,172.16.1.2,61052,172.16.3.2,5101,24073,36321,0,64256,65728,6,6,4,1460,1879,1,992,88,82732,78388,65700,0,34752,0,0,0
i,0x00000000,1716794307.688826,172.16.1.2,61052,172.16.3.2,5101,24073,36321,0,64256,65728,6,6,4,1460,1879,1,992,88,82732,78388,65700,0,36200,0,0,0
o,0x00000000,1716794307.688829,172.16.1.2,61052,172.16.3.2,5101,24073,36321,0,64256,65728,6,6,4,1460,1881,1,992,86,82732,75492,65700,0,33304,0,0,0
o,0x00000000,1716794307.688904,172.16.1.2,61052,172.16.3.2,5101,24073,36321,0,64256,65728,6,6,4,1460,1881,1,992,86,82732,75492,65700,0,34752,0,0,0
i,0x00000000,1716794307.689541,172.16.1.2,61052,172.16.3.2,5101,24073,36321,0,64256,65728,6,6,4,1460,1881,1,992,86,82732,75492,65700,0,36200,0,0,0
o,0x00000000,1716794307.689547,172.16.1.2,61052,172.16.3.2,5101,24073,36321,0,64256,65728,6,6,4,1460,1882,1,992,85,82732,72596,65700,0,33304,0,0,0
o,0x00000000,1716794307.689670,172.16.1.2,61052,172.16.3.2,5101,24073,36321,0,64256,65728,6,6,4,1460,1882,1,992,85,82732,72596,65700,0,34752,0,0,0
i,0x00000000,1716794307.689795,172.16.1.2,61052,172.16.3.2,5101,24073,36321,0,64256,65728,6,6,4,1460,1882,1,992,85,82732,72596,65700,0,36200,0,0,0
o,0x00000000,1716794307.689799,172.16.1.2,61052,172.16.3.2,5101,24073,36321,0,64256,65728,6,6,4,1460,1883,1,992,83,82732,69700,65700,0,33304,0,0,0
o,0x00000000,1716794307.689893,172.16.1.2,61052,172.16.3.2,5101,24073,36321,0,64256,65728,6,6,4,1460,1883,1,992,83,82732,69700,65700,0,34752,0,0,0
i,0x00000000,1716794307.690313,172.16.1.2,61052,172.16.3.2,5101,24073,36321,0,64256,65728,6,6,4,1460,1883,1,992,83,82732,69700,65700,0,36200,0,0,0
o,0x00000000,1716794307.690318,172.16.1.2,61052,172.16.3.2,5101,24073,36321,0,64256,65728,6,6,4,1460,1884,1,992,82,82732,66804,65700,0,33304,0,0,0
o,0x00000000,1716794307.690428,172.16.1.2,61052,172.16.3.2,5101,24073,36321,0,64256,65728,6,6,4,1460,1884,1,992,82,82732,66804,65700,0,34752,0,0,0
i,0x00000000,1716794307.690523,172.16.1.2,61052,172.16.3.2,5101,24073,36321,0,64256,65728,6,6,4,1460,1884,1,992,82,82732,66804,65700,0,36200,0,0,0
o,0x00000000,1716794307.690526,172.16.1.2,61052,172.16.3.2,5101,24073,36321,0,64256,65728,6,6,4,1460,1885,1,992,82,82732,63908,65700,0,33304,0,0,0
o,0x00000000,1716794307.690644,172.16.1.2,61052,172.16.3.2,5101,24073,36321,0,64256,65728,6,6,4,1460,1885,1,992,82,82732,63908,65700,0,34752,0,0,0
i,0x00000000,1716794307.690741,172.16.1.2,61052,172.16.3.2,5101,24073,36321,0,64256,65728,6,6,4,1460,1885,1,992,82,82732,63908,65700,0,36200,0,0,0
o,0x00000000,1716794307.690745,172.16.1.2,61052,172.16.3.2,5101,24073,36321,0,64256,65728,6,6,4,1460,1886,1,992,81,82732,61012,65700,0,33304,0,0,0
o,0x00000000,1716794307.690838,172.16.1.2,61052,172.16.3.2,5101,24073,36321,0,64256,65728,6,6,4,1460,1886,1,992,81,82732,61012,65700,0,34752,0,0,0
i,0x00000000,1716794307.690932,172.16.1.2,61052,172.16.3.2,5101,24073,36321,0,64256,65728,6,6,4,1460,1886,1,992,81,82732,61012,65700,0,36200,0,0,0
o,0x00000000,1716794307.690935,172.16.1.2,61052,172.16.3.2,5101,24073,36321,0,64256,65728,6,6,4,1460,1887,1,992,81,82732,58116,65700,0,33304,0,0,0
o,0x00000000,1716794307.691037,172.16.1.2,61052,172.16.3.2,5101,24073,36321,0,64256,65728,6,6,4,1460,1887,1,992,81,82732,58116,65700,0,34752,0,0,0
i,0x00000000,1716794307.748736,172.16.1.2,61052,172.16.3.2,5101,24073,36321,0,64256,65728,6,6,4,1460,1887,1,992,81,82732,82732,65700,0,36200,0,0,0
o,0x00000000,1716794307.748758,172.16.1.2,61052,172.16.3.2,5101,24073,36321,0,64256,65728,6,6,4,1460,1884,1,992,81,82732,79836,65700,0,33304,0,0,0
o,0x00000000,1716794307.749149,172.16.1.2,61052,172.16.3.2,5101,24073,36321,0,64256,65728,6,6,4,1460,1884,1,992,81,82732,79836,65700,0,34752,0,0,0
i,0x00000000,1716794308.287873,172.16.1.2,61052,172.16.3.2,5101,24073,36321,0,64256,65728,6,6,4,1460,1884,1,992,81,82732,82732,65700,0,36200,0,0,0
o,0x00000000,1716794308.287894,172.16.1.2,61052,172.16.3.2,5101,24073,36321,0,64256,65728,6,6,4,1460,1893,1,992,83,82732,79836,65700,0,33304,0,0,0
o,0x00000000,1716794308.287982,172.16.1.2,61052,172.16.3.2,5101,24073,36321,0,64256,65728,6,6,4,1460,1893,1,992,83,82732,79836,65700,0,34752,0,0,0
i,0x00000000,1716794308.288059,172.16.1.2,61052,172.16.3.2,5101,24073,36321,0,64256,65728,6,6,4,1460,1893,1,992,83,82732,79836,65700,0,36200,0,0,0
o,0x00000000,1716794308.288062,172.16.1.2,61052,172.16.3.2,5101,24073,36321,0,64256,65728,6,6,4,1460,1901,1,992,84,82732,76940,65700,0,33304,0,0,0
o,0x00000000,1716794308.288138,172.16.1.2,61052,172.16.3.2,5101,24073,36321,0,64256,65728,6,6,4,1460,1901,1,992,84,82732,76940,65700,0,34752,0,0,0
i,0x00000000,1716794308.308265,172.16.1.2,61052,172.16.3.2,5101,24073,36321,0,64256,65728,6,6,4,1460,1901,1,992,84,82732,82732,65700,0,36200,0,0,0
o,0x00000000,1716794308.308283,172.16.1.2,61052,172.16.3.2,5101,24073,36321,0,64256,65728,6,6,4,1460,1916,1,992,87,82732,79836,65700,0,33304,0,0,0
o,0x00000000,1716794308.308657,172.16.1.2,61052,172.16.3.2,5101,24073,36321,0,64256,65728,6,6,4,1460,1916,1,992,87,82732,79836,65700,0,34752,0,0,0
i,0x00000000,1716794308.308759,172.16.1.2,61052,172.16.3.2,5101,24073,36321,0,64256,65728,6,6,4,1460,1916,1,992,87,82732,79836,65700,0,36200,0,0,0
o,0x00000000,1716794308.308765,172.16.1.2,61052,172.16.3.2,5101,24073,37781,0,64256,65728,6,6,4,1460,1921,1,992,87,82732,76940,65700,0,33304,0,0,0
o,0x00000000,1716794308.308880,172.16.1.2,61052,172.16.3.2,5101,24073,37781,0,64256,65728,6,6,4,1460,1921,1,992,87,82732,76940,65700,0,34752,0,0,0
o,0x00000000,1716794308.308985,172.16.1.2,61052,172.16.3.2,5101,24073,37781,0,64256,65728,6,6,4,1460,1921,1,992,87,82732,76940,65700,0,36200,0,0,0
i,0x00000000,1716794308.309064,172.16.1.2,61052,172.16.3.2,5101,24073,37781,0,64256,65728,6,6,4,1460,1921,1,992,87,82732,76940,65700,0,37648,0,0,0
