enable_time_secs=1723568882	enable_time_usecs=905921	siftrver=1.3.0	sysname=FreeBSD	sysver=1401000	ipmode=4
o,1723568882.906244,10.0.2.15,22,10.0.2.2,50502,1073725440,17746,1026,65535,65700,0,0,4,1460,312,0,16777220,240000,33580,172,65700,0,0,0,922773703,63
o,1723568882.906805,10.0.2.15,22,10.0.2.2,50502,1073725440,17746,1026,65535,65700,0,0,4,1460,312,0,16777220,240000,33580,244,65700,0,172,0,922773703,63
i,1723568882.906905,10.0.2.15,22,10.0.2.2,50502,1073725440,17746,1026,65535,65700,0,0,4,1460,312,0,16777220,240000,33580,244,65700,0,244,0,922773703,63
i,1723568882.906953,10.0.2.15,22,10.0.2.2,50502,1073725440,17918,1026,65535,65700,0,0,4,1460,312,0,4,240000,33580,72,65700,0,72,0,922773703,63
i,1723568882.907614,10.0.2.15,22,10.0.2.2,50502,1073725440,17990,1026,65535,65700,0,0,4,1460,312,0,4,240000,33580,0,65700,0,0,0,922773703,63
i,1723568882.907631,10.0.2.15,22,10.0.2.2,50502,1073725440,17990,1026,65535,65700,0,0,4,1460,312,0,4,240000,33580,0,65700,96,0,0,922773703,63
o,1723568882.907649,10.0.2.15,22,10.0.2.2,50502,1073725440,17990,1026,65535,65604,0,0,5,1460,312,0,5,240000,33580,0,65700,96,0,0,922773703,63
o,1723568882.908422,10.0.2.15,22,10.0.2.2,50502,1073725440,17990,1026,65535,65604,0,0,8,1460,312,0,4,240000,33580,0,65700,0,0,0,922773703,63
i,1723568882.908925,10.0.2.15,22,10.0.2.2,50502,1073725440,17990,1026,65535,65604,0,0,8,1460,312,0,67108884,240000,33580,0,65700,0,1,0,922773703,63
i,1723568885.970734,10.0.2.15,22,10.0.2.2,50518,1073725440,14600,0,65535,65700,0,0,4,1460,312,0,16777216,270000,33580,0,65700,0,0,0,3709695162,63
o,1723568885.985915,10.0.2.15,22,10.0.2.2,50518,1073725440,14600,1026,65535,65700,0,0,4,1460,312,0,16777216,270000,33580,38,65700,42,0,0,3709695162,63
i,1723568885.986602,10.0.2.15,22,10.0.2.2,50518,1073725440,14600,1026,65535,65700,0,0,4,1460,312,0,16777216,270000,33580,38,65700,0,38,0,3709695162,63
i,1723568885.987087,10.0.2.15,22,10.0.2.2,50518,1073725440,14638,1026,65535,65700,0,0,4,1460,312,0,0,240000,33580,0,65700,0,0,0,3709695162,63
i,1723568885.987111,10.0.2.15,22,10.0.2.2,50518,1073725440,14638,1026,65535,65700,0,0,4,1460,312,0,0,240000,33580,0,65700,1460,0,0,3709695162,63
o,1723568885.987135,10.0.2.15,22,10.0.2.2,50518,1073725440,14638,1026,65535,65700,0,0,4,1460,312,0,1,240000,33580,0,65700,1536,0,0,3709695162,63
o,1723568885.989474,10.0.2.15,22,10.0.2.2,50518,1073725440,14638,1026,65535,65700,0,0,4,1460,312,0,16777216,240000,33580,1120,65700,1536,0,0,3709695162,63
i,1723568885.989918,10.0.2.15,22,10.0.2.2,50518,1073725440,14638,1026,65535,65700,0,0,4,1460,312,0,16777216,240000,33580,1120,65700,0,1120,0,3709695162,63
i,1723568885.991270,10.0.2.15,22,10.0.2.2,50518,1073725440,15758,1026,65535,65700,0,0,4,1460,312,0,0,240000,33580,0,65700,0,0,0,3709695162,63
o,1723568885.994711,10.0.2.15,22,10.0.2.2,50518,1073725440,15758,1026,65535,65700,0,0,4,1460,312,0,16777216,240000,33580,492,65700,0,0,0,3709695162,63
i,1723568885.995095,10.0.2.15,22,10.0.2.2,50518,1073725440,15758,1026,65535,65700,0,0,4,1460,312,0,16777216,240000,33580,492,65700,0,492,0,3709695162,63
i,1723568885.998334,10.0.2.15,22,10.0.2.2,50518,1073725440,16250,1026,65535,65700,0,0,4,1460,312,0,0,240000,33580,0,65700,0,0,0,3709695162,63
i,1723568885.998373,10.0.2.15,22,10.0.2.2,50518,1073725440,16250,1026,65535,65700,0,0,4,1460,312,0,0,240000,33580,0,65700,16,0,0,3709695162,63
o,1723568885.998391,10.0.2.15,22,10.0.2.2,50518,1073725440,16250,1026,65535,65700,0,0,4,1460,312,0,1,240000,33580,0,65700,44,0,0,3709695162,63
o,1723568885.998527,10.0.2.15,22,10.0.2.2,50518,1073725440,16250,1026,65535,65700,0,0,4,1460,312,0,16777216,240000,33580,44,65700,0,0,0,3709695162,63
i,1723568885.999313,10.0.2.15,22,10.0.2.2,50518,1073725440,16250,1026,65535,65700,0,0,4,1460,312,0,16777216,240000,33580,44,65700,0,44,0,3709695162,63
i,1723568885.999331,10.0.2.15,22,10.0.2.2,50518,1073725440,16294,1026,65535,65700,0,0,4,1460,312,0,0,240000,33580,0,65700,0,0,0,3709695162,63
o,1723568886.000796,10.0.2.15,22,10.0.2.2,50518,1073725440,16294,1026,65535,65700,0,0,4,1460,312,0,16777216,240000,33580,68,65700,0,0,0,3709695162,63
i,1723568886.001200,10.0.2.15,22,10.0.2.2,50518,1073725440,16294,1026,65535,65700,0,0,4,1460,312,0,16777216,240000,33580,68,65700,0,68,0,3709695162,63
i,1723568886.001218,10.0.2.15,22,10.0.2.2,50518,1073725440,16362,1026,65535,65700,0,0,4,1460,312,0,0,240000,33580,0,65700,0,0,0,3709695162,63
o,1723568886.002301,10.0.2.15,22,10.0.2.2,50518,1073725440,16362,1026,65535,65700,0,0,4,1460,312,0,16777216,240000,33580,332,65700,0,0,0,3709695162,63
i,1723568886.002896,10.0.2.15,22,10.0.2.2,50518,1073725440,16362,1026,65535,65700,0,0,4,1460,312,0,16777216,240000,33580,332,65700,0,332,0,3709695162,63
i,1723568886.004267,10.0.2.15,22,10.0.2.2,50518,1073725440,16694,1026,65535,65700,0,0,4,1460,312,0,0,240000,33580,0,65700,0,0,0,3709695162,63
o,1723568886.022347,10.0.2.15,22,10.0.2.2,50518,1073725440,16694,1026,65535,65700,0,0,4,1460,312,0,16777216,240000,33580,28,65700,0,0,0,3709695162,63
i,1723568886.022932,10.0.2.15,22,10.0.2.2,50518,1073725440,16694,1026,65535,65700,0,0,4,1460,312,0,16777216,240000,33580,28,65700,0,28,0,3709695162,63
i,1723568886.022955,10.0.2.15,22,10.0.2.2,50518,1073725440,16722,1026,65535,65700,0,0,4,1460,312,0,0,240000,33580,0,65700,0,0,0,3709695162,63
o,1723568886.024711,10.0.2.15,22,10.0.2.2,50518,1073725440,16722,1026,65535,65700,0,0,4,1460,312,0,16777216,240000,33580,768,65700,112,0,0,3709695162,63
i,1723568886.025511,10.0.2.15,22,10.0.2.2,50518,1073725440,16722,1026,65535,65700,0,0,4,1460,312,0,16777216,240000,33580,908,65700,112,768,0,3709695162,63
o,1723568886.025535,10.0.2.15,22,10.0.2.2,50518,1073725440,17490,1026,65535,65700,0,0,4,1460,312,0,16777216,240000,33580,140,65700,112,0,0,3709695162,63
i,1723568886.025904,10.0.2.15,22,10.0.2.2,50518,1073725440,17490,1026,65535,65700,0,0,4,1460,312,0,16777216,240000,33580,140,65700,112,140,0,3709695162,63
o,1723568886.026155,10.0.2.15,22,10.0.2.2,50518,1073725440,17630,1026,65535,65700,0,0,4,1460,312,0,16777216,240000,33580,44,65700,0,0,0,3709695162,63
i,1723568886.026579,10.0.2.15,22,10.0.2.2,50518,1073725440,17630,1026,65535,65700,0,0,4,1460,312,0,16777216,240000,33580,44,65700,0,44,0,3709695162,63
i,1723568886.026596,10.0.2.15,22,10.0.2.2,50518,1073725440,17674,1026,65535,65700,0,0,4,1460,312,0,0,240000,33580,0,65700,0,0,0,3709695162,63
o,1723568886.027712,10.0.2.15,22,10.0.2.2,50518,1073725440,17674,1026,65535,65700,0,0,4,1460,312,0,16777220,240000,33580,72,65700,0,0,0,3709695162,63
i,1723568886.029345,10.0.2.15,22,10.0.2.2,50518,1073725440,17674,1026,65535,65700,0,0,4,1460,312,0,16777220,240000,33580,72,65700,0,72,0,3709695162,63
o,1723568886.033010,10.0.2.15,22,10.0.2.2,50518,1073725440,17746,1026,65535,65700,0,0,4,1460,312,0,16777220,240000,33580,104,65700,0,0,0,3709695162,63
i,1723568886.033478,10.0.2.15,22,10.0.2.2,50518,1073725440,17746,1026,65535,65700,0,0,4,1460,312,0,16777220,240000,33580,104,65700,0,104,0,3709695162,63
o,1723568886.033818,10.0.2.15,22,10.0.2.2,50518,1073725440,17850,1026,65535,65700,0,0,4,1460,312,0,16777220,240000,33580,72,65700,0,0,0,3709695162,63
i,1723568886.034441,10.0.2.15,22,10.0.2.2,50518,1073725440,17850,1026,65535,65700,0,0,4,1460,312,0,16777220,240000,33580,72,65700,0,72,0,3709695162,63
i,1723568886.034546,10.0.2.15,22,10.0.2.2,50518,1073725440,17922,1026,65535,65700,0,0,4,1460,312,0,4,240000,33580,0,65700,0,0,0,3709695162,63
i,1723568886.034564,10.0.2.15,22,10.0.2.2,50518,1073725440,17922,1026,65535,65700,0,0,4,1460,312,0,4,240000,33580,0,65700,96,0,0,3709695162,63
o,1723568886.034584,10.0.2.15,22,10.0.2.2,50518,1073725440,17922,1026,65535,65604,0,0,5,1460,312,0,5,240000,33580,0,65700,96,0,0,3709695162,63
o,1723568886.046898,10.0.2.15,22,10.0.2.2,50518,1073725440,17922,1026,65535,65604,0,0,8,1460,312,0,4,240000,33580,0,65700,0,0,0,3709695162,63
i,1723568886.048679,10.0.2.15,22,10.0.2.2,50518,1073725440,17922,1026,65535,65604,0,0,8,1460,312,0,67108884,240000,33580,0,65700,0,1,0,3709695162,63
i,1723568886.297779,172.16.1.2,5101,172.16.3.2,57700,1073725440,14480,32,65728,65700,6,6,4,1460,125000,1,16778208,370000,33580,0,65700,0,0,0,1238899435,63
i,1723568886.298062,172.16.1.2,5102,172.16.5.2,30497,1073725440,14480,32,65728,65700,6,6,4,1460,126875,1,16778208,430000,33580,0,65700,0,0,0,3990662627,63
o,1723568886.298143,172.16.1.2,5101,172.16.3.2,57700,1073725440,14480,1058,65728,65700,6,6,4,1460,125000,1,16778212,370000,33580,1,65700,0,0,0,1238899435,63
o,1723568886.298172,172.16.1.2,5102,172.16.5.2,30497,1073725440,14480,1058,65728,65700,6,6,4,1460,126875,1,16778212,430000,33580,1,65700,0,0,0,3990662627,63
i,1723568886.429201,172.16.1.2,5101,172.16.3.2,57700,1073725440,14480,1058,65728,65700,6,6,4,1460,125000,1,16778212,370000,33580,1,65700,0,1,0,1238899435,63
i,1723568886.429247,172.16.1.2,5101,172.16.3.2,57700,1073725440,14481,1058,65728,65728,6,6,4,1460,125625,1,996,370000,33580,0,65700,4,0,0,1238899435,63
o,1723568886.429270,172.16.1.2,5101,172.16.3.2,57700,1073725440,14481,1058,65728,65728,6,6,4,1460,125625,1,997,370000,33580,0,65700,130,0,0,1238899435,63
i,1723568886.429431,172.16.1.2,5102,172.16.5.2,30497,1073725440,14480,1058,65728,65700,6,6,4,1460,126875,1,16778212,430000,33580,1,65700,0,1,0,3990662627,63
o,1723568886.429610,172.16.1.2,5101,172.16.3.2,57700,1073725440,14481,1058,65728,65728,6,6,4,1460,125625,1,16778212,370000,33580,1,65700,0,0,0,1238899435,63
i,1723568886.429971,172.16.1.2,5102,172.16.5.2,30497,1073725440,14481,1058,65728,65728,6,6,4,1460,127500,1,996,410000,33580,0,65700,0,0,0,3990662627,63
o,1723568886.429990,172.16.1.2,5102,172.16.5.2,30497,1073725440,14481,1058,65728,65728,6,6,4,1460,127500,1,997,410000,33580,0,65700,126,0,0,3990662627,63
o,1723568886.430289,10.0.2.15,22,10.0.2.2,62474,1073725440,14600,1026,65535,65700,0,0,4,1460,312,0,16777220,240000,33580,84,65700,0,0,0,309830784,63
o,1723568886.430335,172.16.1.2,5102,172.16.5.2,30497,1073725440,14481,1058,65728,65728,6,6,4,1460,127500,1,16778212,410000,33580,1,65700,0,0,0,3990662627,63
i,1723568886.430793,10.0.2.15,22,10.0.2.2,62474,1073725440,14600,1026,65535,65700,0,0,4,1460,312,0,16777220,240000,33580,84,65700,0,84,0,309830784,63
o,1723568886.431030,10.0.2.15,22,10.0.2.2,62470,1073725440,14600,1026,65535,65700,0,0,4,1460,312,0,16777220,240000,33580,84,65700,0,0,0,1849290125,63
i,1723568886.431800,10.0.2.15,22,10.0.2.2,62470,1073725440,14600,1026,65535,65700,0,0,4,1460,312,0,16777220,240000,33580,84,65700,0,84,0,1849290125,63
i,1723568886.583660,172.16.1.2,5102,172.16.5.2,30497,1073725440,14481,1058,65728,65728,6,6,4,1460,127500,1,16778212,410000,33580,1,65700,0,1,0,3990662627,63
i,1723568886.616626,172.16.1.2,5101,172.16.3.2,57700,1073725440,14481,1058,65728,65728,6,6,4,1460,125625,1,16778212,370000,33580,1,65700,0,1,0,1238899435,63
i,1723568886.679887,172.16.1.2,5101,172.16.3.2,36523,1073725440,14480,32,65728,65700,6,6,4,1460,127500,1,16778208,370000,33580,0,65700,0,0,0,2020175334,63
i,1723568886.679944,172.16.1.2,5102,172.16.5.2,55756,1073725440,14480,32,65728,65700,6,6,4,1460,129375,1,16778208,420000,33580,0,65700,0,0,0,2288886303,63
o,1723568886.686223,172.16.1.2,5102,172.16.5.2,30497,1073725440,14482,1058,65728,65728,6,6,4,1460,130312,1,16778212,420000,33580,1,65700,0,0,0,3990662627,63
o,1723568886.686557,172.16.1.2,5102,172.16.5.2,30497,1073725440,14482,1058,65728,65728,6,6,4,1460,130312,1,16778212,420000,33580,2,65700,0,1,0,3990662627,63
o,1723568886.686795,10.0.2.15,22,10.0.2.2,62470,1073725440,14600,1026,65535,65700,0,0,4,1460,312,0,16777220,240000,33580,108,65700,0,0,0,1849290125,63
i,1723568886.688511,10.0.2.15,22,10.0.2.2,62470,1073725440,14600,1026,65535,65700,0,0,4,1460,312,0,16777220,240000,33580,108,65700,0,108,0,1849290125,63
o,1723568886.689483,172.16.1.2,5101,172.16.3.2,57700,1073725440,14482,1058,65728,65728,6,6,4,1460,132500,1,16778212,420000,33580,1,65700,0,0,0,1238899435,63
o,1723568886.689722,172.16.1.2,5101,172.16.3.2,57700,1073725440,14482,1058,65728,65728,6,6,4,1460,132500,1,16778212,420000,33580,2,65700,0,1,0,1238899435,63
o,1723568886.690024,10.0.2.15,22,10.0.2.2,62474,1073725440,14600,1026,65535,65700,0,0,4,1460,312,0,16777220,240000,33580,108,65700,0,0,0,309830784,63
i,1723568886.691113,10.0.2.15,22,10.0.2.2,62474,1073725440,14600,1026,65535,65700,0,0,4,1460,312,0,16777220,240000,33580,108,65700,0,108,0,309830784,63
o,1723568886.719344,172.16.1.2,5102,172.16.5.2,55756,1073725440,14480,34,65728,65700,6,6,4,1460,129375,1,16778209,420000,33580,0,65700,0,0,0,2288886303,63
o,1723568886.719670,172.16.1.2,5101,172.16.3.2,36523,1073725440,14480,34,65728,65700,6,6,4,1460,127500,1,16778209,370000,33580,0,65700,0,0,0,2020175334,63
i,1723568886.822561,172.16.1.2,5102,172.16.5.2,30497,1073725440,14482,1058,65728,65728,6,6,4,1460,130312,1,16778212,420000,33580,2,65700,0,2,0,3990662627,63
i,1723568886.822616,172.16.1.2,5101,172.16.3.2,57700,1073725440,14482,1058,65728,65728,6,6,4,1460,132500,1,16778212,420000,33580,2,65700,0,2,0,1238899435,63
i,1723568887.058495,172.16.1.2,5102,172.16.5.2,55756,1073725440,14480,34,65728,65700,6,6,4,1460,129375,1,16778208,420000,33580,0,65700,0,0,0,2288886303,63
i,1723568887.070745,172.16.1.2,5101,172.16.3.2,36523,1073725440,14480,34,65728,65700,6,6,4,1460,127500,1,16778208,370000,33580,0,65700,0,0,0,2020175334,63
i,1723568887.080937,172.16.1.2,5102,172.16.5.2,55756,1073725440,14480,34,65728,65700,6,6,4,1460,129375,1,16778208,420000,33580,0,65700,0,0,0,2288886303,63
o,1723568887.081052,172.16.1.2,5102,172.16.5.2,55756,1073725440,14480,34,65728,65700,6,6,4,1460,129375,1,16778209,420000,33580,0,65700,1448,0,0,2288886303,63
i,1723568887.100939,172.16.1.2,5101,172.16.3.2,36523,1073725440,14480,34,65728,65700,6,6,4,1460,127500,1,16778208,370000,33580,0,65700,0,0,0,2020175334,63
o,1723568887.100985,172.16.1.2,5101,172.16.3.2,36523,1073725440,14480,34,65728,65700,6,6,4,1460,127500,1,16778209,370000,33580,0,65700,1448,0,0,2020175334,63
i,1723568887.105654,172.16.1.2,5102,172.16.5.2,55756,1073725440,14480,34,65728,65700,6,6,4,1460,129375,1,16778208,420000,33580,0,65700,0,0,0,2288886303,63
i,1723568887.129428,172.16.1.2,5101,172.16.3.2,36523,1073725440,14480,34,65728,65700,6,6,4,1460,127500,1,16778208,370000,33580,0,65700,0,0,0,2020175334,63
o,1723568887.138875,172.16.1.2,5102,172.16.5.2,55756,1073725440,14480,34,65728,65700,6,6,4,1460,129375,1,16778209,420000,33580,0,65700,0,0,0,2288886303,63
i,1723568887.141266,172.16.1.2,5102,172.16.5.2,55756,1073725440,14480,34,65728,65700,6,6,4,1460,129375,1,16778208,420000,33580,0,65700,0,0,0,2288886303,63
i,1723568887.151562,172.16.1.2,5101,172.16.3.2,36523,1073725440,14480,34,65728,65700,6,6,4,1460,127500,1,16778208,370000,33580,0,65700,0,0,0,2020175334,63
o,1723568887.151702,172.16.1.2,5101,172.16.3.2,36523,1073725440,14480,34,65728,65700,6,6,4,1460,127500,1,16778209,370000,33580,0,65700,1448,0,0,2020175334,63
i,1723568887.177079,172.16.1.2,5102,172.16.5.2,55756,1073725440,14480,34,65728,65700,6,6,4,1460,129375,1,16778208,420000,33580,0,65700,0,0,0,2288886303,63
o,1723568887.177210,172.16.1.2,5102,172.16.5.2,55756,1073725440,14480,34,65728,65700,6,6,4,1460,129375,1,16778209,420000,33580,0,65700,1448,0,0,2288886303,63
i,1723568887.187446,172.16.1.2,5101,172.16.3.2,36523,1073725440,14480,34,65728,65700,6,6,4,1460,127500,1,16778208,370000,33580,0,65700,0,0,0,2020175334,63
i,1723568887.205419,172.16.1.2,5102,172.16.5.2,55756,1073725440,14480,34,65728,65700,6,6,4,1460,129375,1,16778208,420000,33580,0,65700,0,0,0,2288886303,63
o,1723568887.220757,172.16.1.2,5101,172.16.3.2,36523,1073725440,14480,34,65728,65700,6,6,4,1460,127500,1,16778209,370000,33580,0,65700,0,0,0,2020175334,63
i,1723568887.222447,172.16.1.2,5101,172.16.3.2,36523,1073725440,14480,34,65728,65700,6,6,4,1460,127500,1,16778208,370000,33580,0,65700,0,0,0,2020175334,63
o,1723568887.240610,172.16.1.2,5102,172.16.5.2,55756,1073725440,14480,34,65728,65700,6,6,4,1460,129375,1,16778209,420000,33580,0,65700,0,0,0,2288886303,63
i,1723568887.241789,172.16.1.2,5102,172.16.5.2,55756,1073725440,14480,34,65728,65700,6,6,4,1460,129375,1,16778208,420000,33580,0,65700,0,0,0,2288886303,63
i,1723568887.250232,172.16.1.2,5101,172.16.3.2,36523,1073725440,14480,34,65728,65700,6,6,4,1460,127500,1,16778208,370000,33580,0,65700,0,0,0,2020175334,63
o,1723568887.250276,172.16.1.2,5101,172.16.3.2,36523,1073725440,14480,34,65728,65700,6,6,4,1460,127500,1,16778209,370000,33580,0,65700,1448,0,0,2020175334,63
i,1723568887.265670,172.16.1.2,5102,172.16.5.2,55756,1073725440,14480,34,65728,65700,6,6,4,1460,129375,1,16778208,420000,33580,0,65700,0,0,0,2288886303,63
o,1723568887.265706,172.16.1.2,5102,172.16.5.2,55756,1073725440,14480,34,65728,65700,6,6,4,1460,129375,1,16778209,420000,33580,0,65700,1448,0,0,2288886303,63
i,1723568887.278605,172.16.1.2,5101,172.16.3.2,36523,1073725440,14480,34,65728,65700,6,6,4,1460,127500,1,16778208,370000,33580,0,65700,0,0,0,2020175334,63
i,1723568887.298573,172.16.1.2,5102,172.16.5.2,55756,1073725440,14480,34,65728,65700,6,6,4,1460,129375,1,16778208,420000,33580,0,65700,0,0,0,2288886303,63
i,1723568887.307528,172.16.1.2,5101,172.16.3.2,36523,1073725440,14480,34,65728,65700,6,6,4,1460,127500,1,16778208,370000,33580,0,65700,0,0,0,2020175334,63
o,1723568887.307552,172.16.1.2,5101,172.16.3.2,36523,1073725440,14480,34,65728,65700,6,6,4,1460,127500,1,16778209,370000,33580,0,65700,1448,0,0,2020175334,63
i,1723568887.319452,172.16.1.2,5102,172.16.5.2,55756,1073725440,14480,34,65728,65700,6,6,4,1460,129375,1,16778208,420000,33580,0,65700,0,0,0,2288886303,63
o,1723568887.319531,172.16.1.2,5102,172.16.5.2,55756,1073725440,14480,34,65728,65700,6,6,4,1460,129375,1,16778209,420000,33580,0,65700,1448,0,0,2288886303,63
i,1723568887.329393,172.16.1.2,5101,172.16.3.2,36523,1073725440,14480,34,65728,65700,6,6,4,1460,127500,1,16778208,370000,33580,0,65700,0,0,0,2020175334,63
o,1723568887.368849,172.16.1.2,5101,172.16.3.2,36523,1073725440,14480,34,65728,65700,6,6,4,1460,127500,1,16778209,370000,33580,0,65700,0,0,0,2020175334,63
i,1723568887.501601,172.16.1.2,5101,172.16.3.2,36523,1073725440,14480,34,65728,65700,6,6,4,1460,127500,1,16778208,370000,33580,0,65700,0,0,0,2020175334,63
i,1723568887.529542,172.16.1.2,5101,172.16.3.2,36523,1073725440,14480,34,65728,65700,6,6,4,1460,127500,1,16778208,370000,33580,0,65700,0,0,0,2020175334,63
o,1723568887.529611,172.16.1.2,5101,172.16.3.2,36523,1073725440,14480,34,65728,65700,6,6,4,1460,127500,1,16778209,370000,33580,0,65700,1448,0,0,2020175334,63
i,1723568887.539446,172.16.1.2,5102,172.16.5.2,55756,1073725440,14480,34,65728,65700,6,6,4,1460,129375,1,16778208,420000,33580,0,65700,0,0,0,2288886303,63
o,1723568887.539491,172.16.1.2,5102,172.16.5.2,55756,1073725440,14480,34,65728,65700,6,6,4,1460,129375,1,16778209,420000,33580,0,65700,0,0,1,2288886303,63
i,1723568887.599336,172.16.1.2,5101,172.16.3.2,36523,1073725440,14480,34,65728,65700,6,6,4,1460,127500,1,16778208,370000,33580,0,65700,0,0,0,2020175334,63
o,1723568887.640523,172.16.1.2,5101,172.16.3.2,36523,1073725440,14480,34,65728,65700,6,6,4,1460,127500,1,16778209,370000,33580,0,65700,0,0,0,2020175334,63
i,1723568887.648622,172.16.1.2,5101,172.16.3.2,36523,1073725440,14480,34,65728,65700,6,6,4,1460,127500,1,16778208,370000,33580,0,65700,0,0,0,2020175334,63
o,1723568887.648651,172.16.1.2,5101,172.16.3.2,36523,1073725440,14480,34,65728,65728,6,6,4,1460,127500,1,16778209,370000,33580,0,65700,0,0,1,2020175334,63
i,1723568887.659195,172.16.1.2,5102,172.16.5.2,55756,1073725440,14480,34,65728,65700,6,6,4,1460,129375,1,16778208,420000,33580,0,65700,0,0,1,2288886303,63
o,1723568887.659225,172.16.1.2,5102,172.16.5.2,55756,1073725440,14480,34,65728,65728,6,6,4,1460,129375,1,16778209,420000,33580,0,65700,0,0,1,2288886303,63
i,1723568887.699140,172.16.1.2,5102,172.16.5.2,55756,1073725440,14480,34,65728,65728,6,6,4,1460,129375,1,16778208,420000,33580,0,65700,0,0,1,2288886303,63
o,1723568887.699171,172.16.1.2,5102,172.16.5.2,55756,1073725440,14480,34,65728,65728,6,6,4,1460,129375,1,16778209,420000,33580,0,65700,0,0,2,2288886303,63
o,1723568887.699531,10.0.2.15,22,10.0.2.2,62474,1073725440,14600,1026,65535,65700,0,0,4,1460,312,0,16777220,240000,33580,156,65700,0,0,0,309830784,63
o,1723568887.699540,10.0.2.15,22,10.0.2.2,62470,1073725440,14600,1026,65535,65700,0,0,4,1460,312,0,16777220,230000,33580,156,65700,0,0,0,1849290125,63
i,1723568887.699921,10.0.2.15,22,10.0.2.2,62474,1073725440,14600,1026,65535,65700,0,0,4,1460,312,0,16777220,240000,33580,156,65700,0,156,0,309830784,63
i,1723568887.699939,10.0.2.15,22,10.0.2.2,62470,1073725440,14600,1026,65535,65700,0,0,4,1460,312,0,16777220,230000,33580,156,65700,0,156,0,1849290125,63
i,1723568887.709215,172.16.1.2,5101,172.16.3.2,36523,1073725440,14480,34,65728,65728,6,6,4,1460,127500,1,16778208,370000,33580,0,65700,0,0,1,2020175334,63
o,1723568887.709243,172.16.1.2,5101,172.16.3.2,36523,1073725440,14480,34,65728,65728,6,6,4,1460,127500,1,16778209,370000,33580,0,65700,0,0,1,2020175334,63
i,1723568887.719191,172.16.1.2,5102,172.16.5.2,55756,1073725440,14480,34,65728,65728,6,6,4,1460,129375,1,16778208,420000,33580,0,65700,0,0,2,2288886303,63
o,1723568887.719220,172.16.1.2,5102,172.16.5.2,55756,1073725440,14480,34,65728,65728,6,6,4,1460,129375,1,16778209,420000,33580,0,65700,0,0,3,2288886303,63
i,1723568887.729205,172.16.1.2,5101,172.16.3.2,36523,1073725440,14480,34,65728,65728,6,6,4,1460,127500,1,16778208,370000,33580,0,65700,0,0,1,2020175334,63
o,1723568887.729231,172.16.1.2,5101,172.16.3.2,36523,1073725440,14480,34,65728,65728,6,6,4,1460,127500,1,16778209,370000,33580,0,65700,0,0,2,2020175334,63
i,1723568887.769271,172.16.1.2,5102,172.16.5.2,55756,1073725440,14480,34,65728,65728,6,6,4,1460,129375,1,16778208,420000,33580,0,65700,0,0,3,2288886303,63
o,1723568887.769304,172.16.1.2,5102,172.16.5.2,55756,1073725440,14480,34,65728,65728,6,6,4,1460,129375,1,16778209,420000,33580,0,65700,0,0,3,2288886303,63
i,1723568887.789417,172.16.1.2,5102,172.16.5.2,55756,1073725440,14480,34,65728,65728,6,6,4,1460,129375,1,16778208,420000,33580,0,65700,0,0,3,2288886303,63
o,1723568887.789455,172.16.1.2,5102,172.16.5.2,55756,1073725440,14480,34,65728,65728,6,6,4,1460,129375,1,16778209,420000,33580,0,65700,0,0,3,2288886303,63
i,1723568887.820467,172.16.1.2,5101,172.16.3.2,36523,1073725440,14480,34,65728,65728,6,6,4,1460,127500,1,16778208,370000,33580,0,65700,0,0,2,2020175334,63
o,1723568887.820499,172.16.1.2,5101,172.16.3.2,36523,1073725440,14480,34,65728,65728,6,6,4,1460,127500,1,16778209,370000,33580,0,65700,0,0,3,2020175334,63
i,1723568887.830712,172.16.1.2,5102,172.16.5.2,55756,1073725440,14480,34,65728,65728,6,6,4,1460,129375,1,16778208,420000,33580,0,65700,0,0,3,2288886303,63
o,1723568887.830741,172.16.1.2,5102,172.16.5.2,55756,1073725440,14480,34,65728,65728,6,6,4,1460,129375,1,16778209,420000,33580,0,65700,0,0,4,2288886303,63
i,1723568887.882695,172.16.1.2,5101,172.16.3.2,36523,1073725440,14480,34,65728,65728,6,6,4,1460,127500,1,16778208,370000,33580,0,65700,0,0,3,2020175334,63
o,1723568887.882728,172.16.1.2,5101,172.16.3.2,36523,1073725440,14480,34,65728,65728,6,6,4,1460,127500,1,16778209,370000,33580,0,65700,0,0,4,2020175334,63
i,1723568887.913067,172.16.1.2,5102,172.16.5.2,55756,1073725440,14480,34,65728,65728,6,6,4,1460,129375,1,16778208,420000,33580,0,65700,0,0,4,2288886303,63
o,1723568887.913111,172.16.1.2,5102,172.16.5.2,55756,1073725440,14480,34,65728,65728,6,6,4,1460,129375,1,16778209,420000,33580,0,65700,0,0,5,2288886303,63
i,1723568887.966888,172.16.1.2,5101,172.16.3.2,36523,1073725440,14480,34,65728,65728,6,6,4,1460,127500,1,16778208,370000,33580,0,65700,0,0,4,2020175334,63
o,1723568887.966927,172.16.1.2,5101,172.16.3.2,36523,1073725440,14480,34,65728,65728,6,6,4,1460,127500,1,16778209,370000,33580,0,65700,0,0,5,2020175334,63
i,1723568887.976634,172.16.1.2,5102,172.16.5.2,55756,1073725440,14480,34,65728,65728,6,6,4,1460,129375,1,16778208,420000,33580,0,65700,0,0,5,2288886303,63
o,1723568887.976662,172.16.1.2,5102,172.16.5.2,55756,1073725440,14480,34,65728,65728,6,6,4,1460,129375,1,16778209,420000,33580,0,65700,0,0,4,2288886303,63
i,1723568888.013934,172.16.1.2,5101,172.16.3.2,36523,1073725440,14480,34,65728,65728,6,6,4,1460,127500,1,16778208,370000,33580,0,65700,0,0,5,2020175334,63
o,1723568888.013985,172.16.1.2,5101,172.16.3.2,36523,1073725440,14480,34,65728,65728,6,6,4,1460,127500,1,16778209,370000,33580,0,65700,4344,0,4,2020175334,63
i,1723568888.061185,172.16.1.2,5102,172.16.5.2,55756,1073725440,14480,34,65728,65728,6,6,4,1460,129375,1,16778208,420000,33580,0,65700,0,0,4,2288886303,63
o,1723568888.061222,172.16.1.2,5102,172.16.5.2,55756,1073725440,14480,34,65728,65728,6,6,4,1460,129375,1,16778209,420000,33580,0,65700,0,0,3,2288886303,63
i,1723568888.098671,172.16.1.2,5101,172.16.3.2,36523,1073725440,14480,34,65728,65728,6,6,4,1460,127500,1,16778208,370000,33580,0,65700,0,0,4,2020175334,63
o,1723568888.098774,172.16.1.2,5101,172.16.3.2,36523,1073725440,14480,34,65728,65700,6,6,4,1460,127500,1,16778209,370000,33580,0,65700,2896,0,3,2020175334,63
i,1723568888.159879,172.16.1.2,5101,172.16.3.2,36523,1073725440,14480,34,65728,65700,6,6,4,1460,127500,1,16778208,370000,33580,0,65700,0,0,3,2020175334,63
i,1723568888.211200,172.16.1.2,5102,172.16.5.2,55756,1073725440,14480,34,65728,65728,6,6,4,1460,129375,1,16778208,420000,33580,0,65700,0,0,3,2288886303,63
o,1723568888.211236,172.16.1.2,5102,172.16.5.2,55756,1073725440,14480,34,65728,65728,6,6,4,1460,129375,1,16778209,420000,33580,0,65700,0,0,2,2288886303,63
i,1723568888.250910,172.16.1.2,5101,172.16.3.2,36523,1073725440,14480,34,65728,65700,6,6,4,1460,127500,1,16778208,370000,33580,0,65700,0,0,3,2020175334,63
o,1723568888.251125,172.16.1.2,5101,172.16.3.2,36523,1073725440,14480,34,65728,65700,6,6,4,1460,127500,1,16778209,370000,33580,0,65700,2896,0,2,2020175334,63
i,1723568888.382944,172.16.1.2,5102,172.16.5.2,55756,1073725440,14480,34,65728,65728,6,6,4,1460,129375,1,16778208,420000,33580,0,65700,0,0,2,2288886303,63
o,1723568888.382975,172.16.1.2,5102,172.16.5.2,55756,1073725440,14480,34,65728,65728,6,6,4,1460,129375,1,16778209,420000,33580,0,65700,0,0,1,2288886303,63
i,1723568888.404677,172.16.1.2,5102,172.16.5.2,55756,1073725440,14480,34,65728,65728,6,6,4,1460,129375,1,16778208,420000,33580,0,65700,0,0,1,2288886303,63
o,1723568888.404693,172.16.1.2,5102,172.16.5.2,55756,1073725440,14480,34,65728,65728,6,6,4,1460,129375,1,16778209,420000,33580,0,65700,0,0,1,2288886303,63
i,1723568888.412884,172.16.1.2,5101,172.16.3.2,36523,1073725440,14480,34,65728,65700,6,6,4,1460,127500,1,16778208,370000,33580,0,65700,0,0,2,2020175334,63
o,1723568888.412999,172.16.1.2,5101,172.16.3.2,36523,1073725440,14480,34,65728,65700,6,6,4,1460,127500,1,16778209,370000,33580,0,65700,2896,0,1,2020175334,63
i,1723568888.529381,172.16.1.2,5102,172.16.5.2,55756,1073725440,14480,34,65728,65728,6,6,4,1460,129375,1,16778208,420000,33580,0,65700,0,0,1,2288886303,63
o,1723568888.529423,172.16.1.2,5102,172.16.5.2,55756,1073725440,14480,34,65728,65728,6,6,4,1460,129375,1,16778209,420000,33580,0,65700,0,0,1,2288886303,63
i,1723568888.541128,172.16.1.2,5102,172.16.5.2,55756,1073725440,14480,34,65728,65728,6,6,4,1460,129375,1,16778208,420000,33580,0,65700,0,0,1,2288886303,63
o,1723568888.541152,172.16.1.2,5102,172.16.5.2,55756,1073725440,14480,34,65728,65728,6,6,4,1460,129375,1,16778209,420000,33580,0,65700,0,0,1,2288886303,63
i,1723568888.550665,172.16.1.2,5101,172.16.3.2,36523,1073725440,14480,34,65728,65700,6,6,4,1460,127500,1,16778208,370000,33580,0,65700,0,0,1,2020175334,63
o,1723568888.550758,172.16.1.2,5101,172.16.3.2,36523,1073725440,14480,34,65728,65700,6,6,4,1460,127500,1,16778209,370000,33580,0,65700,1448,0,1,2020175334,63
i,1723568888.560779,172.16.1.2,5102,172.16.5.2,55756,1073725440,14480,34,65728,65728,6,6,4,1460,129375,1,16778208,420000,33580,0,65700,0,0,1,2288886303,63
o,1723568888.560803,172.16.1.2,5102,172.16.5.2,55756,1073725440,14480,34,65728,65728,6,6,4,1460,129375,1,16778209,420000,33580,0,65700,0,0,1,2288886303,63
i,1723568888.696179,172.16.1.2,5102,172.16.5.2,55756,1073725440,14480,34,65728,65728,6,6,4,1460,129375,1,16778208,420000,33580,0,65700,0,0,1,2288886303,63
o,1723568888.696218,172.16.1.2,5102,172.16.5.2,55756,1073725440,14480,34,65728,65728,6,6,4,1460,129375,1,16778209,420000,33580,0,65700,0,0,1,2288886303,63
o,1723568888.696600,10.0.2.15,22,10.0.2.2,62470,1073725440,14600,1026,65535,65700,0,0,4,1460,312,0,16777220,230000,33580,108,65700,0,0,0,1849290125,63
i,1723568888.698053,10.0.2.15,22,10.0.2.2,62470,1073725440,14600,1026,65535,65700,0,0,4,1460,312,0,16777220,230000,33580,108,65700,0,108,0,1849290125,63
i,1723568888.706509,172.16.1.2,5101,172.16.3.2,36523,1073725440,14480,34,65728,65700,6,6,4,1460,127500,1,16778208,370000,33580,0,65700,0,0,1,2020175334,63
o,1723568888.706583,172.16.1.2,5101,172.16.3.2,36523,1073725440,14480,34,65728,65700,6,6,4,1460,127500,1,16778209,370000,33580,0,65700,2896,0,0,2020175334,63
o,1723568888.709001,10.0.2.15,22,10.0.2.2,62474,1073725440,14600,1026,65535,65700,0,0,4,1460,312,0,16777220,240000,33580,108,65700,0,0,0,309830784,63
i,1723568888.709639,10.0.2.15,22,10.0.2.2,62474,1073725440,14600,1026,65535,65700,0,0,4,1460,312,0,16777220,240000,33580,108,65700,0,108,0,309830784,63
i,1723568888.719846,172.16.1.2,5102,172.16.5.2,55756,1073725440,14480,34,65728,65728,6,6,4,1460,129375,1,16778208,420000,33580,0,65700,0,0,1,2288886303,63
o,1723568888.719879,172.16.1.2,5102,172.16.5.2,55756,1073725440,14480,34,65728,65728,6,6,4,1460,129375,1,16778209,420000,33580,0,65700,0,0,1,2288886303,63
i,1723568888.729225,172.16.1.2,5101,172.16.3.2,36523,1073725440,14480,34,65728,65700,6,6,4,1460,127500,1,16778208,370000,33580,0,65700,0,0,0,2020175334,63
o,1723568888.729250,172.16.1.2,5101,172.16.3.2,36523,1073725440,14480,34,65728,65700,6,6,4,1460,127500,1,16778209,370000,33580,0,65700,0,0,1,2020175334,63
i,1723568888.749118,172.16.1.2,5102,172.16.5.2,55756,1073725440,14480,34,65728,65728,6,6,4,1460,129375,1,16778208,420000,33580,0,65700,0,0,1,2288886303,63
o,1723568888.749148,172.16.1.2,5102,172.16.5.2,55756,1073725440,14480,34,65728,65728,6,6,4,1460,129375,1,16778209,420000,33580,0,65700,0,0,1,2288886303,63
i,1723568888.858661,172.16.1.2,5102,172.16.5.2,55756,1073725440,14480,34,65728,65728,6,6,4,1460,129375,1,16778208,420000,33580,0,65700,0,0,1,2288886303,63
o,1723568888.858701,172.16.1.2,5102,172.16.5.2,55756,1073725440,14480,34,65728,65728,6,6,4,1460,129375,1,16778209,420000,33580,0,65700,0,0,1,2288886303,63
i,1723568888.900281,172.16.1.2,5101,172.16.3.2,36523,1073725440,14480,34,65728,65700,6,6,4,1460,127500,1,16778208,370000,33580,0,65700,0,0,1,2020175334,63
o,1723568888.900410,172.16.1.2,5101,172.16.3.2,36523,1073725440,14480,34,65728,65728,6,6,4,1460,127500,1,16778209,370000,33580,0,65700,2896,0,0,2020175334,63
i,1723568888.918709,172.16.1.2,5102,172.16.5.2,55756,1073725440,14480,34,65728,65728,6,6,4,1460,129375,1,16778208,420000,33580,0,65700,0,0,1,2288886303,63
o,1723568888.918741,172.16.1.2,5102,172.16.5.2,55756,1073725440,14480,34,65728,65728,6,6,4,1460,129375,1,16778209,420000,33580,0,65700,0,0,1,2288886303,63
i,1723568888.928662,172.16.1.2,5101,172.16.3.2,36523,1073725440,14480,34,65728,65728,6,6,4,1460,127500,1,16778208,370000,33580,0,65700,0,0,0,2020175334,63
i,1723568888.948691,172.16.1.2,5102,172.16.5.2,55756,1073725440,14480,34,65728,65728,6,6,4,1460,129375,1,16778208,420000,33580,0,65700,0,0,1,2288886303,63
o,1723568888.948730,172.16.1.2,5102,172.16.5.2,55756,1073725440,14480,34,65728,65728,6,6,4,1460,129375,1,16778209,420000,33580,0,65700,0,0,1,2288886303,63
i,1723568888.959126,172.16.1.2,5101,172.16.3.2,36523,1073725440,14480,34,65728,65728,6,6,4,1460,127500,1,16778208,370000,33580,0,65700,0,0,0,2020175334,63
o,1723568888.959158,172.16.1.2,5101,172.16.3.2,36523,1073725440,14480,34,65728,65700,6,6,4,1460,127500,1,16778209,370000,33580,0,65700,0,0,0,2020175334,63
i,1723568889.005334,172.16.1.2,5102,172.16.5.2,55756,1073725440,14480,34,65728,65728,6,6,4,1460,129375,1,16778208,420000,33580,0,65700,0,0,1,2288886303,63
o,1723568889.005379,172.16.1.2,5102,172.16.5.2,55756,1073725440,14480,34,65728,65728,6,6,4,1460,129375,1,16778209,420000,33580,0,65700,0,0,1,2288886303,63
i,1723568889.070592,172.16.1.2,5102,172.16.5.2,55756,1073725440,14480,34,65728,65728,6,6,4,1460,129375,1,16778208,420000,33580,0,65700,0,0,1,2288886303,63
o,1723568889.070625,172.16.1.2,5102,172.16.5.2,55756,1073725440,14480,34,65728,65728,6,6,4,1460,129375,1,16778209,420000,33580,0,65700,0,0,1,2288886303,63
i,1723568889.102967,172.16.1.2,5101,172.16.3.2,36523,1073725440,14480,34,65728,65700,6,6,4,1460,127500,1,16778208,370000,33580,0,65700,0,0,0,2020175334,63
i,1723568889.112751,172.16.1.2,5101,172.16.3.2,36523,1073725440,14480,34,65728,65700,6,6,4,1460,127500,1,16778208,370000,33580,0,65700,0,0,0,2020175334,63
o,1723568889.112835,172.16.1.2,5101,172.16.3.2,36523,1073725440,14480,34,65728,65700,6,6,4,1460,127500,1,16778209,370000,33580,0,65700,1448,0,0,2020175334,63
i,1723568889.149889,172.16.1.2,5102,172.16.5.2,55756,1073725440,14480,34,65728,65728,6,6,4,1460,129375,1,16778208,420000,33580,0,65700,0,0,1,2288886303,63
o,1723568889.149923,172.16.1.2,5102,172.16.5.2,55756,1073725440,14480,34,65728,65728,6,6,4,1460,129375,1,16778209,420000,33580,0,65700,0,0,1,2288886303,63
i,1723568889.202866,172.16.1.2,5101,172.16.3.2,36523,1073725440,14480,34,65728,65700,6,6,4,1460,127500,1,16778208,370000,33580,0,65700,0,0,0,2020175334,63
i,1723568889.228631,172.16.1.2,5102,172.16.5.2,55756,1073725440,14480,34,65728,65728,6,6,4,1460,129375,1,16778208,420000,33580,0,65700,0,0,1,2288886303,63
o,1723568889.228662,172.16.1.2,5102,172.16.5.2,55756,1073725440,14480,34,65728,65728,6,6,4,1460,129375,1,16778209,420000,33580,0,65700,0,0,1,2288886303,63
o,1723568889.238963,172.16.1.2,5101,172.16.3.2,36523,1073725440,14480,34,65728,65700,6,6,4,1460,127500,1,16778209,370000,33580,0,65700,0,0,0,2020175334,63
i,1723568889.248338,172.16.1.2,5101,172.16.3.2,36523,1073725440,14480,34,65728,65700,6,6,4,1460,127500,1,16778208,370000,33580,0,65700,0,0,0,2020175334,63
o,1723568889.288762,172.16.1.2,5101,172.16.3.2,36523,1073725440,14480,34,65728,65700,6,6,4,1460,127500,1,16778209,370000,33580,0,65700,0,0,0,2020175334,63
i,1723568889.306728,172.16.1.2,5102,172.16.5.2,55756,1073725440,14480,34,65728,65728,6,6,4,1460,129375,1,16778208,420000,33580,0,65700,0,0,1,2288886303,63
o,1723568889.306762,172.16.1.2,5102,172.16.5.2,55756,1073725440,14480,34,65728,65728,6,6,4,1460,129375,1,16778209,420000,33580,0,65700,0,0,1,2288886303,63
i,1723568889.422370,172.16.1.2,5102,172.16.5.2,55756,1073725440,14480,34,65728,65728,6,6,4,1460,129375,1,16778208,420000,33580,0,65700,0,0,1,2288886303,63
o,1723568889.422414,172.16.1.2,5102,172.16.5.2,55756,1073725440,14480,34,65728,65728,6,6,4,1460,129375,1,16778209,420000,33580,0,65700,40544,0,0,2288886303,63
o,1723568889.422557,172.16.1.2,5102,172.16.5.2,55756,1073725440,14480,34,65728,65728,6,6,4,1460,129375,1,16778208,420000,33580,0,65700,0,0,0,2288886303,63
i,1723568889.470445,172.16.1.2,5102,172.16.5.2,55756,1073725440,14480,34,65728,65728,6,6,4,1460,129375,1,16778208,420000,33580,0,65700,0,0,0,2288886303,63
o,1723568889.470523,172.16.1.2,5102,172.16.5.2,55756,1073725440,14480,34,65728,65728,6,6,4,1460,129375,1,16778209,420000,33580,0,65700,0,0,0,2288886303,63
i,1723568889.479406,172.16.1.2,5101,172.16.3.2,36523,1073725440,14480,34,65728,65700,6,6,4,1460,127500,1,16778208,370000,33580,0,65700,0,0,0,2020175334,63
i,1723568889.489447,172.16.1.2,5101,172.16.3.2,36523,1073725440,14480,34,65728,65700,6,6,4,1460,127500,1,16778208,370000,33580,0,65700,0,0,0,2020175334,63
o,1723568889.489581,172.16.1.2,5101,172.16.3.2,36523,1073725440,14480,34,65728,65700,6,6,4,1460,127500,1,16778209,370000,33580,0,65700,1448,0,0,2020175334,63
i,1723568889.499295,172.16.1.2,5101,172.16.3.2,36523,1073725440,14480,34,65728,65700,6,6,4,1460,127500,1,16778208,370000,33580,0,65700,0,0,0,2020175334,63
o,1723568889.540503,172.16.1.2,5101,172.16.3.2,36523,1073725440,14480,34,65728,65700,6,6,4,1460,127500,1,16778209,370000,33580,0,65700,0,0,0,2020175334,63
i,1723568889.570375,172.16.1.2,5101,172.16.3.2,36523,1073725440,14480,34,65728,65700,6,6,4,1460,127500,1,16778208,370000,33580,0,65700,0,0,0,2020175334,63
o,1723568889.610709,172.16.1.2,5101,172.16.3.2,36523,1073725440,14480,34,65728,65700,6,6,4,1460,127500,1,16778209,370000,33580,0,65700,0,0,0,2020175334,63
i,1723568889.613937,172.16.1.2,5101,172.16.3.2,36523,1073725440,14480,34,65728,65700,6,6,4,1460,127500,1,16778208,370000,33580,0,65700,0,0,0,2020175334,63
i,1723568889.623450,172.16.1.2,5102,172.16.5.2,55756,1073725440,14480,34,65728,65728,6,6,4,1460,129375,1,16778208,420000,33580,0,65700,0,0,0,2288886303,63
o,1723568889.623585,172.16.1.2,5102,172.16.5.2,55756,1073725440,14480,34,65728,65728,6,6,4,1460,129375,1,16778209,420000,33580,0,65700,0,0,0,2288886303,63
i,1723568889.632891,172.16.1.2,5102,172.16.5.2,55756,1073725440,14480,34,65728,65728,6,6,4,1460,129375,1,16778208,420000,33580,0,65700,0,0,0,2288886303,63
i,1723568889.641035,172.16.1.2,5101,172.16.3.2,36523,1073725440,14480,34,65728,65700,6,6,4,1460,127500,1,16778208,370000,33580,0,65700,0,0,0,2020175334,63
o,1723568889.641062,172.16.1.2,5101,172.16.3.2,36523,1073725440,14480,34,65728,65700,6,6,4,1460,127500,1,16778209,370000,33580,0,65700,1448,0,0,2020175334,63
o,1723568889.670581,172.16.1.2,5102,172.16.5.2,55756,1073725440,14480,34,65728,65728,6,6,4,1460,129375,1,16778209,420000,33580,0,65700,0,0,0,2288886303,63
i,1723568889.692506,172.16.1.2,5101,172.16.3.2,36523,1073725440,14480,34,65728,65700,6,6,4,1460,127500,1,16778208,370000,33580,0,65700,0,0,0,2020175334,63
o,1723568889.692759,10.0.2.15,22,10.0.2.2,62470,1073725440,14600,1026,65535,65700,0,0,4,1460,312,0,16777220,230000,33580,108,65700,0,0,0,1849290125,63
i,1723568889.693555,10.0.2.15,22,10.0.2.2,62470,1073725440,14600,1026,65535,65700,0,0,4,1460,312,0,16777220,230000,33580,108,65700,0,108,0,1849290125,63
i,1723568889.711625,172.16.1.2,5101,172.16.3.2,36523,1073725440,14480,34,65728,65700,6,6,4,1460,127500,1,16778208,370000,33580,0,65700,0,0,0,2020175334,63
o,1723568889.711660,172.16.1.2,5101,172.16.3.2,36523,1073725440,14480,34,65728,65700,6,6,4,1460,127500,1,16778209,370000,33580,0,65700,1448,0,0,2020175334,63
o,1723568889.730910,10.0.2.15,22,10.0.2.2,62474,1073725440,14600,1026,65535,65700,0,0,4,1460,312,0,16777220,240000,33580,108,65700,0,0,0,309830784,63
i,1723568889.732051,10.0.2.15,22,10.0.2.2,62474,1073725440,14600,1026,65535,65700,0,0,4,1460,312,0,16777220,240000,33580,108,65700,0,108,0,309830784,63
i,1723568889.762015,172.16.1.2,5101,172.16.3.2,36523,1073725440,14480,34,65728,65700,6,6,4,1460,127500,1,16778208,370000,33580,0,65700,0,0,0,2020175334,63
i,1723568889.770958,172.16.1.2,5101,172.16.3.2,36523,1073725440,14480,34,65728,65700,6,6,4,1460,127500,1,16778208,370000,33580,0,65700,0,0,0,2020175334,63
o,1723568889.770985,172.16.1.2,5101,172.16.3.2,36523,1073725440,14480,34,65728,65700,6,6,4,1460,127500,1,16778209,370000,33580,0,65700,1448,0,0,2020175334,63
i,1723568889.817000,172.16.1.2,5102,172.16.5.2,55756,1073725440,14480,34,65728,65728,6,6,4,1460,129375,1,16778208,420000,33580,0,65700,0,0,0,2288886303,63
o,1723568889.849098,172.16.1.2,5102,172.16.5.2,55756,1073725440,14480,34,65728,65728,6,6,4,1460,129375,1,16778209,420000,33580,0,65700,0,0,0,2288886303,63
i,1723568889.898445,172.16.1.2,5101,172.16.3.2,36523,1073725440,14480,34,65728,65700,6,6,4,1460,127500,1,16778208,370000,33580,0,65700,0,0,0,2020175334,63
i,1723568889.910038,172.16.1.2,5102,172.16.5.2,55756,1073725440,14480,34,65728,65728,6,6,4,1460,129375,1,16778208,420000,33580,0,65700,0,0,0,2288886303,63
i,1723568889.932004,172.16.1.2,5102,172.16.5.2,55756,1073725440,14480,34,65728,65728,6,6,4,1460,129375,1,16778208,420000,33580,0,65700,0,0,0,2288886303,63
o,1723568889.932037,172.16.1.2,5102,172.16.5.2,55756,1073725440,14480,34,65728,65728,6,6,4,1460,129375,1,16778209,420000,33580,0,65700,1448,0,0,2288886303,63
o,1723568889.938031,172.16.1.2,5101,172.16.3.2,36523,1073725440,14480,34,65728,65700,6,6,4,1460,127500,1,16778209,370000,33580,0,65700,0,0,0,2020175334,63
i,1723568889.974179,172.16.1.2,5101,172.16.3.2,36523,1073725440,14480,34,65728,65700,6,6,4,1460,127500,1,16778208,370000,33580,0,65700,0,0,0,2020175334,63
o,1723568890.008751,172.16.1.2,5101,172.16.3.2,36523,1073725440,14480,34,65728,65700,6,6,4,1460,127500,1,16778209,370000,33580,0,65700,0,0,0,2020175334,63
i,1723568890.022939,172.16.1.2,5101,172.16.3.2,36523,1073725440,14480,34,65728,65700,6,6,4,1460,127500,1,16778208,370000,33580,0,65700,0,0,0,2020175334,63
i,1723568890.031961,172.16.1.2,5102,172.16.5.2,55756,1073725440,14480,34,65728,65728,6,6,4,1460,129375,1,16778208,420000,33580,0,65700,0,0,0,2288886303,63
i,1723568890.042915,172.16.1.2,5102,172.16.5.2,55756,1073725440,14480,34,65728,65728,6,6,4,1460,129375,1,16778208,420000,33580,0,65700,0,0,0,2288886303,63
o,1723568890.042945,172.16.1.2,5102,172.16.5.2,55756,1073725440,14480,34,65728,65728,6,6,4,1460,129375,1,16778209,420000,33580,0,65700,1448,0,0,2288886303,63
o,1723568890.058635,172.16.1.2,5101,172.16.3.2,36523,1073725440,14480,34,65728,65700,6,6,4,1460,127500,1,16778209,370000,33580,0,65700,0,0,0,2020175334,63
i,1723568890.159404,172.16.1.2,5101,172.16.3.2,36523,1073725440,14480,34,65728,65700,6,6,4,1460,127500,1,16778208,370000,33580,0,65700,0,0,0,2020175334,63
i,1723568890.169153,172.16.1.2,5102,172.16.5.2,55756,1073725440,14480,34,65728,65728,6,6,4,1460,129375,1,16778208,420000,33580,0,65700,0,0,0,2288886303,63
i,1723568890.184415,172.16.1.2,5101,172.16.3.2,36523,1073725440,14480,34,65728,65700,6,6,4,1460,127500,1,16778208,370000,33580,0,65700,0,0,0,2020175334,63
o,1723568890.184521,172.16.1.2,5101,172.16.3.2,36523,1073725440,14480,34,65728,65700,6,6,4,1460,127500,1,16778209,370000,33580,0,65700,1448,0,0,2020175334,63
i,1723568890.192672,172.16.1.2,5102,172.16.5.2,55756,1073725440,14480,34,65728,65728,6,6,4,1460,129375,1,16778208,420000,33580,0,65700,0,0,0,2288886303,63
o,1723568890.192693,172.16.1.2,5102,172.16.5.2,55756,1073725440,14480,34,65728,65728,6,6,4,1460,129375,1,16778209,420000,33580,0,65700,1448,0,0,2288886303,63
i,1723568890.236116,172.16.1.2,5102,172.16.5.2,55756,1073725440,14480,34,65728,65728,6,6,4,1460,129375,1,16778208,420000,33580,0,65700,0,0,0,2288886303,63
i,1723568890.246270,172.16.1.2,5101,172.16.3.2,36523,1073725440,14480,34,65728,65700,6,6,4,1460,127500,1,16778208,370000,33580,0,65700,0,0,0,2020175334,63
i,1723568890.254129,172.16.1.2,5102,172.16.5.2,55756,1073725440,14480,34,65728,65728,6,6,4,1460,129375,1,16778208,420000,33580,0,65700,0,0,0,2288886303,63
o,1723568890.254213,172.16.1.2,5102,172.16.5.2,55756,1073725440,14480,34,65728,65728,6,6,4,1460,129375,1,16778209,420000,33580,0,65700,1448,0,0,2288886303,63
o,1723568890.278893,172.16.1.2,5101,172.16.3.2,36523,1073725440,14480,34,65728,65700,6,6,4,1460,127500,1,16778209,370000,33580,0,65700,0,0,0,2020175334,63
i,1723568890.315555,172.16.1.2,5101,172.16.3.2,36523,1073725440,14480,34,65728,65700,6,6,4,1460,127500,1,16778208,370000,33580,0,65700,0,0,0,2020175334,63
o,1723568890.348801,172.16.1.2,5101,172.16.3.2,36523,1073725440,14480,34,65728,65700,6,6,4,1460,127500,1,16778209,370000,33580,0,65700,0,0,0,2020175334,63
i,1723568890.376134,172.16.1.2,5101,172.16.3.2,36523,1073725440,14480,34,65728,65700,6,6,4,1460,127500,1,16778208,370000,33580,0,65700,0,0,0,2020175334,63
i,1723568890.397931,172.16.1.2,5102,172.16.5.2,55756,1073725440,14480,34,65728,65728,6,6,4,1460,129375,1,16778208,420000,33580,0,65700,0,0,0,2288886303,63
o,1723568890.408678,172.16.1.2,5101,172.16.3.2,36523,1073725440,14480,34,65728,65700,6,6,4,1460,127500,1,16778209,370000,33580,0,65700,0,0,0,2020175334,63
o,1723568890.439076,172.16.1.2,5102,172.16.5.2,55756,1073725440,14480,34,65728,65728,6,6,4,1460,129375,1,16778209,420000,33580,0,65700,0,0,0,2288886303,63
i,1723568890.439364,172.16.1.2,5102,172.16.5.2,55756,1073725440,14480,34,65728,65728,6,6,4,1460,129375,1,16778208,420000,33580,0,65700,0,0,0,2288886303,63
o,1723568890.479083,172.16.1.2,5102,172.16.5.2,55756,1073725440,14480,34,65728,65728,6,6,4,1460,129375,1,16778209,420000,33580,0,65700,0,0,0,2288886303,63
i,1723568890.489340,172.16.1.2,5101,172.16.3.2,36523,1073725440,14480,34,65728,65700,6,6,4,1460,127500,1,16778208,370000,33580,0,65700,0,0,0,2020175334,63
i,1723568890.514973,172.16.1.2,5101,172.16.3.2,36523,1073725440,14480,34,65728,65700,6,6,4,1460,127500,1,16778208,370000,33580,0,65700,0,0,0,2020175334,63
o,1723568890.514999,172.16.1.2,5101,172.16.3.2,36523,1073725440,14480,34,65728,65700,6,6,4,1460,127500,1,16778209,370000,33580,0,65700,1448,0,0,2020175334,63
i,1723568890.524536,172.16.1.2,5102,172.16.5.2,55756,1073725440,14480,34,65728,65728,6,6,4,1460,129375,1,16778208,420000,33580,0,65700,0,0,0,2288886303,63
i,1723568890.549167,172.16.1.2,5102,172.16.5.2,55756,1073725440,14480,34,65728,65728,6,6,4,1460,129375,1,16778208,420000,33580,0,65700,0,0,0,2288886303,63
o,1723568890.549192,172.16.1.2,5102,172.16.5.2,55756,1073725440,14480,34,65728,65728,6,6,4,1460,129375,1,16778209,420000,33580,0,65700,1448,0,0,2288886303,63
i,1723568890.559337,172.16.1.2,5101,172.16.3.2,36523,1073725440,14480,34,65728,65700,6,6,4,1460,127500,1,16778208,370000,33580,0,65700,0,0,0,2020175334,63
o,1723568890.559361,172.16.1.2,5101,172.16.3.2,36523,1073725440,14480,34,65728,65700,6,6,4,1460,127500,1,16778209,370000,33580,0,65700,0,0,1,2020175334,63
i,1723568890.569052,172.16.1.2,5102,172.16.5.2,55756,1073725440,14480,34,65728,65728,6,6,4,1460,129375,1,16778208,420000,33580,0,65700,0,0,0,2288886303,63
o,1723568890.608743,172.16.1.2,5102,172.16.5.2,55756,1073725440,14480,34,65728,65728,6,6,4,1460,129375,1,16778209,420000,33580,0,65700,0,0,0,2288886303,63
i,1723568890.609892,172.16.1.2,5102,172.16.5.2,55756,1073725440,14480,34,65728,65728,6,6,4,1460,129375,1,16778208,420000,33580,0,65700,0,0,0,2288886303,63
i,1723568890.620215,172.16.1.2,5101,172.16.3.2,36523,1073725440,14480,34,65728,65700,6,6,4,1460,127500,1,16778208,370000,33580,0,65700,0,0,1,2020175334,63
o,1723568890.620235,172.16.1.2,5101,172.16.3.2,36523,1073725440,14480,34,65728,65728,6,6,4,1460,127500,1,16778209,370000,33580,0,65700,0,0,1,2020175334,63
o,1723568890.648735,172.16.1.2,5102,172.16.5.2,55756,1073725440,14480,34,65728,65728,6,6,4,1460,129375,1,16778209,420000,33580,0,65700,0,0,0,2288886303,63
i,1723568890.669204,172.16.1.2,5101,172.16.3.2,36523,1073725440,14480,34,65728,65728,6,6,4,1460,127500,1,16778208,370000,33580,0,65700,0,0,1,2020175334,63
o,1723568890.669224,172.16.1.2,5101,172.16.3.2,36523,1073725440,14480,34,65728,65728,6,6,4,1460,127500,1,16778209,370000,33580,0,65700,0,0,1,2020175334,63
o,1723568890.699132,10.0.2.15,22,10.0.2.2,62474,1073725440,14600,1026,65535,65700,0,0,4,1460,312,0,16777220,240000,33580,108,65700,0,0,0,309830784,63
o,1723568890.699144,10.0.2.15,22,10.0.2.2,62470,1073725440,14600,1026,65535,65700,0,0,4,1460,312,0,16777220,230000,33580,108,65700,0,0,0,1849290125,63
i,1723568890.700427,10.0.2.15,22,10.0.2.2,62474,1073725440,14600,1026,65535,65700,0,0,4,1460,312,0,16777220,240000,33580,108,65700,0,108,0,309830784,63
i,1723568890.700448,10.0.2.15,22,10.0.2.2,62470,1073725440,14600,1026,65535,65700,0,0,4,1460,312,0,16777220,230000,33580,108,65700,0,108,0,1849290125,63
i,1723568890.742739,172.16.1.2,5101,172.16.3.2,36523,1073725440,14480,34,65728,65728,6,6,4,1460,127500,1,16778208,370000,33580,0,65700,0,0,1,2020175334,63
o,1723568890.742773,172.16.1.2,5101,172.16.3.2,36523,1073725440,14480,34,65728,65728,6,6,4,1460,127500,1,16778209,370000,33580,0,65700,0,0,1,2020175334,63
i,1723568890.772812,172.16.1.2,5102,172.16.5.2,55756,1073725440,14480,34,65728,65728,6,6,4,1460,129375,1,16778208,420000,33580,0,65700,0,0,0,2288886303,63
i,1723568890.782739,172.16.1.2,5101,172.16.3.2,36523,1073725440,14480,34,65728,65728,6,6,4,1460,127500,1,16778208,370000,33580,0,65700,0,0,1,2020175334,63
o,1723568890.782784,172.16.1.2,5101,172.16.3.2,36523,1073725440,14480,34,65728,65728,6,6,4,1460,127500,1,16778209,370000,33580,0,65700,0,0,1,2020175334,63
i,1723568890.794142,172.16.1.2,5102,172.16.5.2,55756,1073725440,14480,34,65728,65728,6,6,4,1460,129375,1,16778208,420000,33580,0,65700,0,0,0,2288886303,63
o,1723568890.794168,172.16.1.2,5102,172.16.5.2,55756,1073725440,14480,34,65728,65728,6,6,4,1460,129375,1,16778209,420000,33580,0,65700,1448,0,0,2288886303,63
i,1723568890.832696,172.16.1.2,5101,172.16.3.2,36523,1073725440,14480,34,65728,65728,6,6,4,1460,127500,1,16778208,370000,33580,0,65700,0,0,1,2020175334,63
o,1723568890.832727,172.16.1.2,5101,172.16.3.2,36523,1073725440,14480,34,65728,65728,6,6,4,1460,127500,1,16778209,370000,33580,0,65700,0,0,1,2020175334,63
i,1723568890.846467,172.16.1.2,5102,172.16.5.2,55756,1073725440,14480,34,65728,65728,6,6,4,1460,129375,1,16778208,420000,33580,0,65700,0,0,0,2288886303,63
i,1723568890.865540,172.16.1.2,5102,172.16.5.2,55756,1073725440,14480,34,65728,65728,6,6,4,1460,129375,1,16778208,420000,33580,0,65700,0,0,0,2288886303,63
o,1723568890.865571,172.16.1.2,5102,172.16.5.2,55756,1073725440,14480,34,65728,65728,6,6,4,1460,129375,1,16778209,420000,33580,0,65700,1448,0,0,2288886303,63
i,1723568890.895750,172.16.1.2,5101,172.16.3.2,36523,1073725440,14480,34,65728,65728,6,6,4,1460,127500,1,16778208,370000,33580,0,65700,0,0,1,2020175334,63
o,1723568890.895791,172.16.1.2,5101,172.16.3.2,36523,1073725440,14480,34,65728,65728,6,6,4,1460,127500,1,16778209,370000,33580,0,65700,0,0,2,2020175334,63
i,1723568890.945617,172.16.1.2,5102,172.16.5.2,55756,1073725440,14480,34,65728,65728,6,6,4,1460,129375,1,16778208,420000,33580,0,65700,0,0,0,2288886303,63
i,1723568890.974456,172.16.1.2,5101,172.16.3.2,36523,1073725440,14480,34,65728,65728,6,6,4,1460,127500,1,16778208,370000,33580,0,65700,0,0,2,2020175334,63
o,1723568890.974516,172.16.1.2,5101,172.16.3.2,36523,1073725440,14480,34,65728,65728,6,6,4,1460,127500,1,16778209,370000,33580,0,65700,0,0,2,2020175334,63
o,1723568890.978926,172.16.1.2,5102,172.16.5.2,55756,1073725440,14480,34,65728,65728,6,6,4,1460,129375,1,16778209,420000,33580,0,65700,0,0,0,2288886303,63
i,1723568890.985081,172.16.1.2,5102,172.16.5.2,55756,1073725440,14480,34,65728,65728,6,6,4,1460,129375,1,16778208,420000,33580,0,65700,0,0,0,2288886303,63
o,1723568891.020482,172.16.1.2,5102,172.16.5.2,55756,1073725440,14480,34,65728,65728,6,6,4,1460,129375,1,16778209,420000,33580,0,65700,0,0,0,2288886303,63
i,1723568891.039228,172.16.1.2,5101,172.16.3.2,36523,1073725440,14480,34,65728,65728,6,6,4,1460,127500,1,16778208,370000,33580,0,65700,0,0,2,2020175334,63
o,1723568891.039312,172.16.1.2,5101,172.16.3.2,36523,1073725440,14480,34,65728,65728,6,6,4,1460,127500,1,16778209,370000,33580,0,65700,10136,0,1,2020175334,63
i,1723568891.084690,172.16.1.2,5102,172.16.5.2,55756,1073725440,14480,34,65728,65728,6,6,4,1460,129375,1,16778208,420000,33580,0,65700,0,0,0,2288886303,63
i,1723568891.104714,172.16.1.2,5101,172.16.3.2,36523,1073725440,14480,34,65728,65728,6,6,4,1460,127500,1,16778208,370000,33580,0,65700,0,0,1,2020175334,63
o,1723568891.104757,172.16.1.2,5101,172.16.3.2,36523,1073725440,14480,34,65728,65700,6,6,4,1460,127500,1,16778209,370000,33580,0,65700,0,0,1,2020175334,63
o,1723568891.120481,172.16.1.2,5102,172.16.5.2,55756,1073725440,14480,34,65728,65728,6,6,4,1460,129375,1,16778209,420000,33580,0,65700,0,0,0,2288886303,63
i,1723568891.155574,172.16.1.2,5101,172.16.3.2,36523,1073725440,14480,34,65728,65700,6,6,4,1460,127500,1,16778208,370000,33580,0,65700,0,0,1,2020175334,63
o,1723568891.155614,172.16.1.2,5101,172.16.3.2,36523,1073725440,14480,34,65728,65728,6,6,4,1460,127500,1,16778209,370000,33580,0,65700,1448,0,1,2020175334,63
i,1723568891.195568,172.16.1.2,5101,172.16.3.2,36523,1073725440,14480,34,65728,65728,6,6,4,1460,127500,1,16778208,370000,33580,0,65700,0,0,1,2020175334,63
o,1723568891.195605,172.16.1.2,5101,172.16.3.2,36523,1073725440,14480,34,65728,65700,6,6,4,1460,127500,1,16778209,370000,33580,0,65700,5792,0,0,2020175334,63
i,1723568891.205582,172.16.1.2,5102,172.16.5.2,55756,1073725440,14480,34,65728,65728,6,6,4,1460,129375,1,16778208,420000,33580,0,65700,0,0,0,2288886303,63
i,1723568891.226005,172.16.1.2,5102,172.16.5.2,55756,1073725440,14480,34,65728,65728,6,6,4,1460,129375,1,16778208,420000,33580,0,65700,0,0,0,2288886303,63
o,1723568891.226035,172.16.1.2,5102,172.16.5.2,55756,1073725440,14480,34,65728,65728,6,6,4,1460,129375,1,16778209,420000,33580,0,65700,1448,0,0,2288886303,63
i,1723568891.226166,172.16.1.2,5101,172.16.3.2,36523,1073725440,14480,34,65728,65700,6,6,4,1460,127500,1,16778208,370000,33580,0,65700,0,0,0,2020175334,63
i,1723568891.259298,172.16.1.2,5102,172.16.5.2,55756,1073725440,14480,34,65728,65728,6,6,4,1460,129375,1,16778208,420000,33580,0,65700,0,0,0,2288886303,63
i,1723568891.279396,172.16.1.2,5102,172.16.5.2,55756,1073725440,14480,34,65728,65728,6,6,4,1460,129375,1,16778208,420000,33580,0,65700,0,0,0,2288886303,63
o,1723568891.279432,172.16.1.2,5102,172.16.5.2,55756,1073725440,14480,34,65728,65728,6,6,4,1460,129375,1,16778209,420000,33580,0,65700,1448,0,0,2288886303,63
i,1723568891.309244,172.16.1.2,5101,172.16.3.2,36523,1073725440,14480,34,65728,65700,6,6,4,1460,127500,1,16778208,370000,33580,0,65700,0,0,0,2020175334,63
i,1723568891.337642,172.16.1.2,5102,172.16.5.2,55756,1073725440,14480,34,65728,65728,6,6,4,1460,129375,1,16778208,420000,33580,0,65700,0,0,0,2288886303,63
o,1723568891.337676,172.16.1.2,5102,172.16.5.2,55756,1073725440,14480,34,65728,65700,6,6,4,1460,129375,1,16778209,420000,33580,0,65700,0,0,1,2288886303,63
i,1723568891.348022,172.16.1.2,5101,172.16.3.2,36523,1073725440,14480,34,65728,65700,6,6,4,1460,127500,1,16778208,370000,33580,0,65700,0,0,0,2020175334,63
i,1723568891.356948,172.16.1.2,5102,172.16.5.2,55756,1073725440,14480,34,65728,65700,6,6,4,1460,129375,1,16778208,420000,33580,0,65700,0,0,1,2288886303,63
o,1723568891.356975,172.16.1.2,5102,172.16.5.2,55756,1073725440,14480,34,65728,65728,6,6,4,1460,129375,1,16778209,420000,33580,0,65700,0,0,1,2288886303,63
i,1723568891.361586,172.16.1.2,5101,172.16.3.2,36523,1073725440,14480,34,65728,65700,6,6,4,1460,127500,1,16778208,370000,33580,0,65700,0,0,0,2020175334,63
o,1723568891.361681,172.16.1.2,5101,172.16.3.2,36523,1073725440,14480,34,65728,65700,6,6,4,1460,127500,1,16778209,370000,33580,0,65700,1448,0,0,2020175334,63
i,1723568891.390447,172.16.1.2,5102,172.16.5.2,55756,1073725440,14480,34,65728,65728,6,6,4,1460,129375,1,16778208,420000,33580,0,65700,0,0,1,2288886303,63
o,1723568891.390475,172.16.1.2,5102,172.16.5.2,55756,1073725440,14480,34,65728,65728,6,6,4,1460,129375,1,16778209,420000,33580,0,65700,0,0,1,2288886303,63
i,1723568891.453638,172.16.1.2,5102,172.16.5.2,55756,1073725440,14480,34,65728,65728,6,6,4,1460,129375,1,16778208,420000,33580,0,65700,0,0,1,2288886303,63
o,1723568891.453681,172.16.1.2,5102,172.16.5.2,55756,1073725440,14480,34,65728,65728,6,6,4,1460,129375,1,16778209,420000,33580,0,65700,0,0,1,2288886303,63
i,1723568891.474955,172.16.1.2,5102,172.16.5.2,55756,1073725440,14480,34,65728,65728,6,6,4,1460,129375,1,16778208,420000,33580,0,65700,0,0,1,2288886303,63
o,1723568891.474985,172.16.1.2,5102,172.16.5.2,55756,1073725440,14480,34,65728,65728,6,6,4,1460,129375,1,16778209,420000,33580,0,65700,0,0,1,2288886303,63
i,1723568891.536964,172.16.1.2,5102,172.16.5.2,55756,1073725440,14480,34,65728,65728,6,6,4,1460,129375,1,16778208,420000,33580,0,65700,0,0,1,2288886303,63
o,1723568891.536996,172.16.1.2,5102,172.16.5.2,55756,1073725440,14480,34,65728,65728,6,6,4,1460,129375,1,16778209,420000,33580,0,65700,0,0,1,2288886303,63
i,1723568891.579758,172.16.1.2,5101,172.16.3.2,36523,1073725440,14480,34,65728,65700,6,6,4,1460,127500,1,16778208,370000,33580,0,65700,0,0,0,2020175334,63
i,1723568891.593801,172.16.1.2,5102,172.16.5.2,55756,1073725440,14480,34,65728,65728,6,6,4,1460,129375,1,16778208,420000,33580,0,65700,0,0,1,2288886303,63
o,1723568891.593830,172.16.1.2,5102,172.16.5.2,55756,1073725440,14480,34,65728,65728,6,6,4,1460,129375,1,16778209,420000,33580,0,65700,0,0,1,2288886303,63
i,1723568891.603742,172.16.1.2,5101,172.16.3.2,36523,1073725440,14480,34,65728,65700,6,6,4,1460,127500,1,16778208,370000,33580,0,65700,0,0,0,2020175334,63
o,1723568891.603773,172.16.1.2,5101,172.16.3.2,36523,1073725440,14480,34,65728,65700,6,6,4,1460,127500,1,16778209,370000,33580,0,65700,1448,0,0,2020175334,63
i,1723568891.643612,172.16.1.2,5101,172.16.3.2,36523,1073725440,14480,34,65728,65700,6,6,4,1460,127500,1,16778208,370000,33580,0,65700,0,0,0,2020175334,63
i,1723568891.662928,172.16.1.2,5102,172.16.5.2,55756,1073725440,14480,34,65728,65728,6,6,4,1460,129375,1,16778208,420000,33580,0,65700,0,0,1,2288886303,63
o,1723568891.662958,172.16.1.2,5102,172.16.5.2,55756,1073725440,14480,34,65728,65728,6,6,4,1460,129375,1,16778209,420000,33580,0,65700,0,0,1,2288886303,63
i,1723568891.673456,172.16.1.2,5101,172.16.3.2,36523,1073725440,14480,34,65728,65700,6,6,4,1460,127500,1,16778208,370000,33580,0,65700,0,0,0,2020175334,63
o,1723568891.673484,172.16.1.2,5101,172.16.3.2,36523,1073725440,14480,34,65728,65700,6,6,4,1460,127500,1,16778209,370000,33580,0,65700,1448,0,0,2020175334,63
o,1723568891.699032,10.0.2.15,22,10.0.2.2,62470,1073725440,14600,1026,65535,65700,0,0,4,1460,312,0,16777220,230000,33580,108,65700,0,0,0,1849290125,63
i,1723568891.699488,10.0.2.15,22,10.0.2.2,62470,1073725440,14600,1026,65535,65700,0,0,4,1460,312,0,16777220,230000,33580,108,65700,0,108,0,1849290125,63
i,1723568891.702562,172.16.1.2,5102,172.16.5.2,55756,1073725440,14480,34,65728,65728,6,6,4,1460,129375,1,16778208,420000,33580,0,65700,0,0,1,2288886303,63
o,1723568891.702589,172.16.1.2,5102,172.16.5.2,55756,1073725440,14480,34,65728,65728,6,6,4,1460,129375,1,16778209,420000,33580,0,65700,0,0,1,2288886303,63
o,1723568891.703029,10.0.2.15,22,10.0.2.2,62474,1073725440,14600,1026,65535,65700,0,0,4,1460,312,0,16777220,240000,33580,108,65700,0,0,0,309830784,63
i,1723568891.703797,10.0.2.15,22,10.0.2.2,62474,1073725440,14600,1026,65535,65700,0,0,4,1460,312,0,16777220,240000,33580,108,65700,0,108,0,309830784,63
i,1723568891.716938,172.16.1.2,5102,172.16.5.2,55756,1073725440,14480,34,65728,65728,6,6,4,1460,129375,1,16778208,420000,33580,0,65700,0,0,1,2288886303,63
o,1723568891.716982,172.16.1.2,5102,172.16.5.2,55756,1073725440,14480,34,65728,65728,6,6,4,1460,129375,1,16778209,420000,33580,0,65700,14480,0,0,2288886303,63
i,1723568891.775026,172.16.1.2,5102,172.16.5.2,55756,1073725440,14480,34,65728,65728,6,6,4,1460,129375,1,16778208,420000,33580,0,65700,0,0,0,2288886303,63
o,1723568891.775162,172.16.1.2,5102,172.16.5.2,55756,1073725440,14480,34,65728,65728,6,6,4,1460,129375,1,16778209,420000,33580,0,65700,0,0,0,2288886303,63
i,1723568891.785569,172.16.1.2,5102,172.16.5.2,55756,1073725440,14480,34,65728,65728,6,6,4,1460,129375,1,16778208,420000,33580,0,65700,0,0,0,2288886303,63
i,1723568891.794004,172.16.1.2,5101,172.16.3.2,36523,1073725440,14480,34,65728,65700,6,6,4,1460,127500,1,16778208,370000,33580,0,65700,0,0,0,2020175334,63
i,1723568891.815464,172.16.1.2,5101,172.16.3.2,36523,1073725440,14480,34,65728,65700,6,6,4,1460,127500,1,16778208,370000,33580,0,65700,0,0,0,2020175334,63
o,1723568891.815508,172.16.1.2,5101,172.16.3.2,36523,1073725440,14480,34,65728,65700,6,6,4,1460,127500,1,16778209,370000,33580,0,65700,1448,0,0,2020175334,63
o,1723568891.818700,172.16.1.2,5102,172.16.5.2,55756,1073725440,14480,34,65728,65728,6,6,4,1460,129375,1,16778209,420000,33580,0,65700,0,0,0,2288886303,63
i,1723568891.860040,172.16.1.2,5101,172.16.3.2,36523,1073725440,14480,34,65728,65700,6,6,4,1460,127500,1,16778208,370000,33580,0,65700,0,0,0,2020175334,63
i,1723568891.869731,172.16.1.2,5101,172.16.3.2,36523,1073725440,14480,34,65728,65700,6,6,4,1460,127500,1,16778208,370000,33580,0,65700,0,0,0,2020175334,63
o,1723568891.869764,172.16.1.2,5101,172.16.3.2,36523,1073725440,14480,34,65728,65700,6,6,4,1460,127500,1,16778209,370000,33580,0,65700,1448,0,0,2020175334,63
i,1723568891.909502,172.16.1.2,5102,172.16.5.2,55756,1073725440,14480,34,65728,65728,6,6,4,1460,129375,1,16778208,420000,33580,0,65700,0,0,0,2288886303,63
o,1723568891.948774,172.16.1.2,5102,172.16.5.2,55756,1073725440,14480,34,65728,65728,6,6,4,1460,129375,1,16778209,420000,33580,0,65700,0,0,0,2288886303,63
