enable_time_secs=1723569231	enable_time_usecs=586451	siftrver=1.3.0	sysname=FreeBSD	sysver=1401000	ipmode=4
o,1723569231.586784,10.0.2.15,22,10.0.2.2,50536,1073725440,17746,1026,65535,65700,0,0,4,1460,312,0,16777220,240000,33580,172,65700,0,0,0,4004006936,63
o,1723569231.587485,10.0.2.15,22,10.0.2.2,50536,1073725440,17746,1026,65535,65700,0,0,4,1460,312,0,16777220,240000,33580,244,65700,0,172,0,4004006936,63
i,1723569231.587606,10.0.2.15,22,10.0.2.2,50536,1073725440,17746,1026,65535,65700,0,0,4,1460,312,0,16777220,240000,33580,244,65700,0,244,0,4004006936,63
i,1723569231.587658,10.0.2.15,22,10.0.2.2,50536,1073725440,17918,1026,65535,65700,0,0,4,1460,312,0,4,240000,33580,72,65700,0,72,0,4004006936,63
i,1723569231.590282,10.0.2.15,22,10.0.2.2,50536,1073725440,17990,1026,65535,65700,0,0,4,1460,312,0,4,240000,33580,0,65700,0,0,0,4004006936,63
i,1723569231.590302,10.0.2.15,22,10.0.2.2,50536,1073725440,17990,1026,65535,65700,0,0,4,1460,312,0,4,240000,33580,0,65700,96,0,0,4004006936,63
o,1723569231.590324,10.0.2.15,22,10.0.2.2,50536,1073725440,17990,1026,65535,65604,0,0,5,1460,312,0,5,240000,33580,0,65700,96,0,0,4004006936,63
o,1723569231.591175,10.0.2.15,22,10.0.2.2,50536,1073725440,17990,1026,65535,65604,0,0,8,1460,312,0,4,240000,33580,0,65700,0,0,0,4004006936,63
i,1723569231.591793,10.0.2.15,22,10.0.2.2,50536,1073725440,17990,1026,65535,65604,0,0,8,1460,312,0,67108884,240000,33580,0,65700,0,1,0,4004006936,63
i,1723569234.650277,10.0.2.15,22,10.0.2.2,50540,1073725440,14600,0,65535,65700,0,0,4,1460,312,0,16777216,270000,33580,0,65700,0,0,0,1188838894,63
o,1723569234.659407,10.0.2.15,22,10.0.2.2,50540,1073725440,14600,1026,65535,65700,0,0,4,1460,312,0,16777216,270000,33580,38,65700,42,0,0,1188838894,63
i,1723569234.660219,10.0.2.15,22,10.0.2.2,50540,1073725440,14600,1026,65535,65700,0,0,4,1460,312,0,16777216,270000,33580,38,65700,0,38,0,1188838894,63
i,1723569234.660238,10.0.2.15,22,10.0.2.2,50540,1073725440,14638,1026,65535,65700,0,0,4,1460,312,0,0,240000,33580,0,65700,0,0,0,1188838894,63
i,1723569234.660263,10.0.2.15,22,10.0.2.2,50540,1073725440,14638,1026,65535,65700,0,0,4,1460,312,0,0,240000,33580,0,65700,1460,0,0,1188838894,63
o,1723569234.660280,10.0.2.15,22,10.0.2.2,50540,1073725440,14638,1026,65535,65700,0,0,4,1460,312,0,1,240000,33580,0,65700,1536,0,0,1188838894,63
o,1723569234.661193,10.0.2.15,22,10.0.2.2,50540,1073725440,14638,1026,65535,65700,0,0,4,1460,312,0,16777216,240000,33580,1120,65700,1536,0,0,1188838894,63
i,1723569234.661756,10.0.2.15,22,10.0.2.2,50540,1073725440,14638,1026,65535,65700,0,0,4,1460,312,0,16777216,240000,33580,1120,65700,0,1120,0,1188838894,63
i,1723569234.663091,10.0.2.15,22,10.0.2.2,50540,1073725440,15758,1026,65535,65700,0,0,4,1460,312,0,0,240000,33580,0,65700,0,0,0,1188838894,63
o,1723569234.665429,10.0.2.15,22,10.0.2.2,50540,1073725440,15758,1026,65535,65700,0,0,4,1460,312,0,16777216,240000,33580,492,65700,0,0,0,1188838894,63
i,1723569234.666368,10.0.2.15,22,10.0.2.2,50540,1073725440,15758,1026,65535,65700,0,0,4,1460,312,0,16777216,240000,33580,492,65700,0,492,0,1188838894,63
i,1723569234.670372,10.0.2.15,22,10.0.2.2,50540,1073725440,16250,1026,65535,65700,0,0,4,1460,312,0,0,240000,33580,0,65700,0,0,0,1188838894,63
i,1723569234.670391,10.0.2.15,22,10.0.2.2,50540,1073725440,16250,1026,65535,65700,0,0,4,1460,312,0,0,240000,33580,0,65700,16,0,0,1188838894,63
o,1723569234.670408,10.0.2.15,22,10.0.2.2,50540,1073725440,16250,1026,65535,65700,0,0,4,1460,312,0,1,240000,33580,0,65700,60,0,0,1188838894,63
o,1723569234.670581,10.0.2.15,22,10.0.2.2,50540,1073725440,16250,1026,65535,65700,0,0,4,1460,312,0,16777216,240000,33580,44,65700,0,0,0,1188838894,63
i,1723569234.671509,10.0.2.15,22,10.0.2.2,50540,1073725440,16250,1026,65535,65700,0,0,4,1460,312,0,16777216,240000,33580,44,65700,0,44,0,1188838894,63
i,1723569234.671525,10.0.2.15,22,10.0.2.2,50540,1073725440,16294,1026,65535,65700,0,0,4,1460,312,0,0,240000,33580,0,65700,0,0,0,1188838894,63
o,1723569234.673234,10.0.2.15,22,10.0.2.2,50540,1073725440,16294,1026,65535,65700,0,0,4,1460,312,0,16777216,240000,33580,68,65700,0,0,0,1188838894,63
i,1723569234.673793,10.0.2.15,22,10.0.2.2,50540,1073725440,16294,1026,65535,65700,0,0,4,1460,312,0,16777216,240000,33580,68,65700,0,68,0,1188838894,63
i,1723569234.673811,10.0.2.15,22,10.0.2.2,50540,1073725440,16362,1026,65535,65700,0,0,4,1460,312,0,0,240000,33580,0,65700,0,0,0,1188838894,63
o,1723569234.674954,10.0.2.15,22,10.0.2.2,50540,1073725440,16362,1026,65535,65700,0,0,4,1460,312,0,16777216,240000,33580,332,65700,0,0,0,1188838894,63
i,1723569234.675709,10.0.2.15,22,10.0.2.2,50540,1073725440,16362,1026,65535,65700,0,0,4,1460,312,0,16777216,240000,33580,332,65700,0,332,0,1188838894,63
i,1723569234.677058,10.0.2.15,22,10.0.2.2,50540,1073725440,16694,1026,65535,65700,0,0,4,1460,312,0,0,240000,33580,0,65700,0,0,0,1188838894,63
o,1723569234.695398,10.0.2.15,22,10.0.2.2,50540,1073725440,16694,1026,65535,65700,0,0,4,1460,312,0,16777216,240000,33580,28,65700,0,0,0,1188838894,63
i,1723569234.695818,10.0.2.15,22,10.0.2.2,50540,1073725440,16694,1026,65535,65700,0,0,4,1460,312,0,16777216,240000,33580,28,65700,0,28,0,1188838894,63
i,1723569234.695836,10.0.2.15,22,10.0.2.2,50540,1073725440,16722,1026,65535,65700,0,0,4,1460,312,0,0,240000,33580,0,65700,0,0,0,1188838894,63
o,1723569234.697128,10.0.2.15,22,10.0.2.2,50540,1073725440,16722,1026,65535,65700,0,0,4,1460,312,0,16777216,240000,33580,768,65700,112,0,0,1188838894,63
i,1723569234.698376,10.0.2.15,22,10.0.2.2,50540,1073725440,16722,1026,65535,65700,0,0,4,1460,312,0,16777216,240000,33580,908,65700,112,768,0,1188838894,63
o,1723569234.698393,10.0.2.15,22,10.0.2.2,50540,1073725440,17490,1026,65535,65700,0,0,4,1460,312,0,16777216,240000,33580,140,65700,112,0,0,1188838894,63
i,1723569234.698718,10.0.2.15,22,10.0.2.2,50540,1073725440,17490,1026,65535,65700,0,0,4,1460,312,0,16777216,240000,33580,140,65700,0,140,0,1188838894,63
o,1723569234.698919,10.0.2.15,22,10.0.2.2,50540,1073725440,17630,1026,65535,65700,0,0,4,1460,312,0,16777216,240000,33580,44,65700,0,0,0,1188838894,63
i,1723569234.699409,10.0.2.15,22,10.0.2.2,50540,1073725440,17630,1026,65535,65700,0,0,4,1460,312,0,16777216,240000,33580,44,65700,0,44,0,1188838894,63
i,1723569234.699425,10.0.2.15,22,10.0.2.2,50540,1073725440,17674,1026,65535,65700,0,0,4,1460,312,0,0,240000,33580,0,65700,0,0,0,1188838894,63
o,1723569234.700029,10.0.2.15,22,10.0.2.2,50540,1073725440,17674,1026,65535,65700,0,0,4,1460,312,0,16777220,240000,33580,72,65700,0,0,0,1188838894,63
i,1723569234.700308,10.0.2.15,22,10.0.2.2,50540,1073725440,17674,1026,65535,65700,0,0,4,1460,312,0,16777220,240000,33580,72,65700,0,72,0,1188838894,63
o,1723569234.702769,10.0.2.15,22,10.0.2.2,50540,1073725440,17746,1026,65535,65700,0,0,4,1460,312,0,16777220,240000,33580,104,65700,0,0,0,1188838894,63
i,1723569234.703162,10.0.2.15,22,10.0.2.2,50540,1073725440,17746,1026,65535,65700,0,0,4,1460,312,0,16777220,240000,33580,104,65700,0,104,0,1188838894,63
o,1723569234.703522,10.0.2.15,22,10.0.2.2,50540,1073725440,17850,1026,65535,65700,0,0,4,1460,312,0,16777220,240000,33580,72,65700,0,0,0,1188838894,63
i,1723569234.704427,10.0.2.15,22,10.0.2.2,50540,1073725440,17850,1026,65535,65700,0,0,4,1460,312,0,16777220,240000,33580,72,65700,0,72,0,1188838894,63
i,1723569234.704470,10.0.2.15,22,10.0.2.2,50540,1073725440,17922,1026,65535,65700,0,0,4,1460,312,0,4,240000,33580,0,65700,0,0,0,1188838894,63
i,1723569234.704486,10.0.2.15,22,10.0.2.2,50540,1073725440,17922,1026,65535,65700,0,0,4,1460,312,0,4,240000,33580,0,65700,96,0,0,1188838894,63
o,1723569234.704503,10.0.2.15,22,10.0.2.2,50540,1073725440,17922,1026,65535,65604,0,0,5,1460,312,0,5,240000,33580,0,65700,96,0,0,1188838894,63
o,1723569234.718292,10.0.2.15,22,10.0.2.2,50540,1073725440,17922,1026,65535,65604,0,0,8,1460,312,0,4,240000,33580,0,65700,0,0,0,1188838894,63
i,1723569234.719916,10.0.2.15,22,10.0.2.2,50540,1073725440,17922,1026,65535,65604,0,0,8,1460,312,0,67108884,240000,33580,0,65700,0,1,0,1188838894,63
i,1723569234.958776,172.16.1.2,5101,172.16.3.2,30851,1073725440,14480,32,65728,65700,6,6,4,1460,132187,1,16778208,370000,33580,0,65700,0,0,0,1677562055,63
i,1723569234.958847,172.16.1.2,5102,172.16.5.2,53608,1073725440,14480,32,65728,65700,6,6,4,1460,128437,1,16778208,390000,33580,0,65700,0,0,0,3145778272,63
o,1723569234.958939,172.16.1.2,5101,172.16.3.2,30851,1073725440,14480,1058,65728,65700,6,6,4,1460,132187,1,16778212,370000,33580,1,65700,0,0,0,1677562055,63
o,1723569234.959304,172.16.1.2,5102,172.16.5.2,53608,1073725440,14480,1058,65728,65700,6,6,4,1460,128437,1,16778212,390000,33580,1,65700,0,0,0,3145778272,63
i,1723569235.089130,172.16.1.2,5102,172.16.5.2,53608,1073725440,14480,1058,65728,65700,6,6,4,1460,128437,1,16778212,390000,33580,1,65700,0,1,0,3145778272,63
i,1723569235.089174,172.16.1.2,5102,172.16.5.2,53608,1073725440,14481,1058,65728,65728,6,6,4,1460,128750,1,996,380000,33580,0,65700,4,0,0,3145778272,63
o,1723569235.089195,172.16.1.2,5102,172.16.5.2,53608,1073725440,14481,1058,65728,65728,6,6,4,1460,128750,1,997,380000,33580,0,65700,130,0,0,3145778272,63
i,1723569235.089327,172.16.1.2,5101,172.16.3.2,30851,1073725440,14480,1058,65728,65700,6,6,4,1460,132187,1,16778212,370000,33580,1,65700,0,1,0,1677562055,63
i,1723569235.089357,172.16.1.2,5101,172.16.3.2,30851,1073725440,14481,1058,65728,65728,6,6,4,1460,132187,1,996,360000,33580,0,65700,4,0,0,1677562055,63
o,1723569235.089372,172.16.1.2,5101,172.16.3.2,30851,1073725440,14481,1058,65728,65728,6,6,4,1460,132187,1,997,360000,33580,0,65700,130,0,0,1677562055,63
o,1723569235.089559,172.16.1.2,5101,172.16.3.2,30851,1073725440,14481,1058,65728,65728,6,6,4,1460,132187,1,16778212,360000,33580,1,65700,0,0,0,1677562055,63
o,1723569235.089564,172.16.1.2,5102,172.16.5.2,53608,1073725440,14481,1058,65728,65728,6,6,4,1460,128750,1,16778212,380000,33580,1,65700,0,0,0,3145778272,63
o,1723569235.090206,10.0.2.15,22,10.0.2.2,62474,1073725440,14600,1026,65535,65700,0,0,4,1460,312,0,16777220,240000,33580,84,65700,0,0,0,309830784,63
o,1723569235.090325,10.0.2.15,22,10.0.2.2,62470,1073725440,14600,1026,65535,65700,0,0,4,1460,312,0,16777220,240000,33580,84,65700,0,0,0,1849290125,63
i,1723569235.090848,10.0.2.15,22,10.0.2.2,62474,1073725440,14600,1026,65535,65700,0,0,4,1460,312,0,16777220,240000,33580,84,65700,0,84,0,309830784,63
i,1723569235.091253,10.0.2.15,22,10.0.2.2,62470,1073725440,14600,1026,65535,65700,0,0,4,1460,312,0,16777220,240000,33580,84,65700,0,84,0,1849290125,63
i,1723569235.252674,172.16.1.2,5102,172.16.5.2,53608,1073725440,14481,1058,65728,65728,6,6,4,1460,128750,1,16778212,380000,33580,1,65700,0,1,0,3145778272,63
i,1723569235.278984,172.16.1.2,5101,172.16.3.2,30851,1073725440,14481,1058,65728,65728,6,6,4,1460,132187,1,16778212,360000,33580,1,65700,0,1,0,1677562055,63
i,1723569235.325624,172.16.1.2,5102,172.16.5.2,64481,1073725440,14480,32,65728,65700,6,6,4,1460,124687,1,16778208,410000,33580,0,65700,0,0,0,2069447833,63
i,1723569235.325738,172.16.1.2,5101,172.16.3.2,32635,1073725440,14480,32,65728,65700,6,6,4,1460,130937,1,16778208,380000,33580,0,65700,0,0,0,2571735994,63
o,1723569235.330466,172.16.1.2,5102,172.16.5.2,53608,1073725440,14482,1058,65728,65728,6,6,4,1460,131562,1,16778212,390000,33580,1,65700,0,0,0,3145778272,63
o,1723569235.330625,172.16.1.2,5102,172.16.5.2,53608,1073725440,14482,1058,65728,65728,6,6,4,1460,131562,1,16778212,390000,33580,2,65700,0,1,0,3145778272,63
o,1723569235.330857,10.0.2.15,22,10.0.2.2,62470,1073725440,14600,1026,65535,65700,0,0,4,1460,312,0,16777220,240000,33580,108,65700,0,0,0,1849290125,63
i,1723569235.331889,10.0.2.15,22,10.0.2.2,62470,1073725440,14600,1026,65535,65700,0,0,4,1460,312,0,16777220,240000,33580,108,65700,0,108,0,1849290125,63
o,1723569235.332601,172.16.1.2,5101,172.16.3.2,30851,1073725440,14482,1058,65728,65728,6,6,4,1460,138437,1,16778212,410000,33580,1,65700,0,0,0,1677562055,63
o,1723569235.332845,10.0.2.15,22,10.0.2.2,62474,1073725440,14600,1026,65535,65700,0,0,4,1460,312,0,16777220,240000,33580,108,65700,0,0,0,309830784,63
i,1723569235.333222,10.0.2.15,22,10.0.2.2,62474,1073725440,14600,1026,65535,65700,0,0,4,1460,312,0,16777220,240000,33580,108,65700,0,108,0,309830784,63
o,1723569235.333572,172.16.1.2,5101,172.16.3.2,30851,1073725440,14482,1058,65728,65728,6,6,4,1460,138437,1,16778212,410000,33580,2,65700,0,1,0,1677562055,63
o,1723569235.360573,172.16.1.2,5101,172.16.3.2,32635,1073725440,14480,34,65728,65700,6,6,4,1460,130937,1,16778209,380000,33580,0,65700,0,0,0,2571735994,63
o,1723569235.360885,172.16.1.2,5102,172.16.5.2,64481,1073725440,14480,34,65728,65700,6,6,4,1460,124687,1,16778209,410000,33580,0,65700,0,0,0,2069447833,63
i,1723569235.475286,172.16.1.2,5102,172.16.5.2,53608,1073725440,14482,1058,65728,65728,6,6,4,1460,131562,1,16778212,390000,33580,2,65700,0,2,0,3145778272,63
i,1723569235.475324,172.16.1.2,5101,172.16.3.2,30851,1073725440,14482,1058,65728,65728,6,6,4,1460,138437,1,16778212,410000,33580,2,65700,0,2,0,1677562055,63
i,1723569235.624573,172.16.1.2,5102,172.16.5.2,64481,1073725440,14480,34,65728,65700,6,6,4,1460,124687,1,16778208,410000,33580,0,65700,0,0,0,2069447833,63
i,1723569235.631708,172.16.1.2,5101,172.16.3.2,32635,1073725440,14480,34,65728,65700,6,6,4,1460,130937,1,16778208,380000,33580,0,65700,0,0,0,2571735994,63
i,1723569235.644549,172.16.1.2,5102,172.16.5.2,64481,1073725440,14480,34,65728,65700,6,6,4,1460,124687,1,16778208,410000,33580,0,65700,0,0,0,2069447833,63
o,1723569235.644621,172.16.1.2,5102,172.16.5.2,64481,1073725440,14480,34,65728,65700,6,6,4,1460,124687,1,16778209,410000,33580,0,65700,1448,0,0,2069447833,63
i,1723569235.665446,172.16.1.2,5101,172.16.3.2,32635,1073725440,14480,34,65728,65700,6,6,4,1460,130937,1,16778208,380000,33580,0,65700,0,0,0,2571735994,63
o,1723569235.665467,172.16.1.2,5101,172.16.3.2,32635,1073725440,14480,34,65728,65700,6,6,4,1460,130937,1,16778209,380000,33580,0,65700,1448,0,0,2571735994,63
i,1723569235.675919,172.16.1.2,5102,172.16.5.2,64481,1073725440,14480,34,65728,65700,6,6,4,1460,124687,1,16778208,410000,33580,0,65700,0,0,0,2069447833,63
i,1723569235.682085,172.16.1.2,5101,172.16.3.2,32635,1073725440,14480,34,65728,65700,6,6,4,1460,130937,1,16778208,380000,33580,0,65700,0,0,0,2571735994,63
i,1723569235.690123,172.16.1.2,5102,172.16.5.2,64481,1073725440,14480,34,65728,65700,6,6,4,1460,124687,1,16778208,410000,33580,0,65700,0,0,0,2069447833,63
o,1723569235.690185,172.16.1.2,5102,172.16.5.2,64481,1073725440,14480,34,65728,65700,6,6,4,1460,124687,1,16778209,410000,33580,0,65700,1448,0,0,2069447833,63
i,1723569235.699185,172.16.1.2,5101,172.16.3.2,32635,1073725440,14480,34,65728,65700,6,6,4,1460,130937,1,16778208,380000,33580,0,65700,0,0,0,2571735994,63
o,1723569235.699212,172.16.1.2,5101,172.16.3.2,32635,1073725440,14480,34,65728,65700,6,6,4,1460,130937,1,16778209,380000,33580,0,65700,1448,0,0,2571735994,63
i,1723569235.732578,172.16.1.2,5102,172.16.5.2,64481,1073725440,14480,34,65728,65700,6,6,4,1460,124687,1,16778208,410000,33580,0,65700,0,0,0,2069447833,63
i,1723569235.740745,172.16.1.2,5101,172.16.3.2,32635,1073725440,14480,34,65728,65700,6,6,4,1460,130937,1,16778208,380000,33580,0,65700,0,0,0,2571735994,63
i,1723569235.766428,172.16.1.2,5102,172.16.5.2,64481,1073725440,14480,34,65728,65700,6,6,4,1460,124687,1,16778208,410000,33580,0,65700,0,0,0,2069447833,63
o,1723569235.766492,172.16.1.2,5102,172.16.5.2,64481,1073725440,14480,34,65728,65700,6,6,4,1460,124687,1,16778209,410000,33580,0,65700,1448,0,0,2069447833,63
i,1723569235.766615,172.16.1.2,5101,172.16.3.2,32635,1073725440,14480,34,65728,65700,6,6,4,1460,130937,1,16778208,380000,33580,0,65700,0,0,0,2571735994,63
o,1723569235.766633,172.16.1.2,5101,172.16.3.2,32635,1073725440,14480,34,65728,65700,6,6,4,1460,130937,1,16778209,380000,33580,0,65700,1448,0,0,2571735994,63
i,1723569235.766751,172.16.1.2,5102,172.16.5.2,64481,1073725440,14480,34,65728,65700,6,6,4,1460,124687,1,16778208,410000,33580,0,65700,1448,0,0,2069447833,63
i,1723569235.798722,172.16.1.2,5101,172.16.3.2,32635,1073725440,14480,34,65728,65700,6,6,4,1460,130937,1,16778208,380000,33580,0,65700,0,0,0,2571735994,63
o,1723569235.798774,172.16.1.2,5102,172.16.5.2,64481,1073725440,14480,34,65728,65700,6,6,4,1460,124687,1,16778209,410000,33580,0,65700,0,0,0,2069447833,63
i,1723569235.799086,172.16.1.2,5102,172.16.5.2,64481,1073725440,14480,34,65728,65700,6,6,4,1460,124687,1,16778208,410000,33580,0,65700,0,0,0,2069447833,63
i,1723569235.799139,172.16.1.2,5101,172.16.3.2,32635,1073725440,14480,34,65728,65700,6,6,4,1460,130937,1,16778208,380000,33580,0,65700,1448,0,0,2571735994,63
o,1723569235.799156,172.16.1.2,5101,172.16.3.2,32635,1073725440,14480,34,65728,65700,6,6,4,1460,130937,1,16778209,380000,33580,0,65700,1448,0,0,2571735994,63
i,1723569235.799284,172.16.1.2,5102,172.16.5.2,64481,1073725440,14480,34,65728,65700,6,6,4,1460,124687,1,16778208,410000,33580,0,65700,1448,0,0,2069447833,63
o,1723569235.799302,172.16.1.2,5102,172.16.5.2,64481,1073725440,14480,34,65728,65700,6,6,4,1460,124687,1,16778209,410000,33580,0,65700,2896,0,0,2069447833,63
i,1723569235.808015,172.16.1.2,5101,172.16.3.2,32635,1073725440,14480,34,65728,65700,6,6,4,1460,130937,1,16778208,380000,33580,0,65700,0,0,0,2571735994,63
i,1723569235.832210,172.16.1.2,5102,172.16.5.2,64481,1073725440,14480,34,65728,65700,6,6,4,1460,124687,1,16778208,410000,33580,0,65700,0,0,0,2069447833,63
i,1723569235.832319,172.16.1.2,5101,172.16.3.2,32635,1073725440,14480,34,65728,65700,6,6,4,1460,130937,1,16778208,380000,33580,0,65700,0,0,0,2571735994,63
o,1723569235.832346,172.16.1.2,5101,172.16.3.2,32635,1073725440,14480,34,65728,65700,6,6,4,1460,130937,1,16778209,380000,33580,0,65700,1448,0,0,2571735994,63
o,1723569235.868715,172.16.1.2,5102,172.16.5.2,64481,1073725440,14480,34,65728,65700,6,6,4,1460,124687,1,16778209,410000,33580,0,65700,0,0,0,2069447833,63
i,1723569235.899453,172.16.1.2,5101,172.16.3.2,32635,1073725440,14480,34,65728,65700,6,6,4,1460,130937,1,16778208,380000,33580,0,65700,0,0,0,2571735994,63
i,1723569235.901232,172.16.1.2,5101,172.16.3.2,32635,1073725440,14480,34,65728,65700,6,6,4,1460,130937,1,16778208,380000,33580,0,65700,0,0,0,2571735994,63
o,1723569235.901407,172.16.1.2,5101,172.16.3.2,32635,1073725440,14480,34,65728,65700,6,6,4,1460,130937,1,16778209,380000,33580,0,65700,1448,0,0,2571735994,63
i,1723569235.916106,172.16.1.2,5101,172.16.3.2,32635,1073725440,14480,34,65728,65700,6,6,4,1460,130937,1,16778208,380000,33580,0,65700,0,0,0,2571735994,63
i,1723569235.916188,172.16.1.2,5101,172.16.3.2,32635,1073725440,14480,162,65728,65700,6,6,4,1460,130937,1,16778208,380000,33580,0,65700,1448,0,0,2571735994,63
o,1723569235.916205,172.16.1.2,5101,172.16.3.2,32635,1073725440,14480,162,65728,65700,6,6,4,1460,130937,1,16778209,380000,33580,0,65700,2896,0,0,2571735994,63
i,1723569235.916381,172.16.1.2,5101,172.16.3.2,32635,1073725440,14480,162,65728,65700,6,6,4,1460,130937,1,16778208,380000,33580,0,65700,2896,0,0,2571735994,63
i,1723569235.916435,172.16.1.2,5101,172.16.3.2,32635,1073725440,14480,162,65728,65700,6,6,4,1460,130937,1,16778208,380000,33580,0,65700,4344,0,0,2571735994,63
o,1723569235.916457,172.16.1.2,5101,172.16.3.2,32635,1073725440,14480,162,65728,65700,6,6,4,1460,130937,1,16778209,380000,33580,0,65700,5792,0,0,2571735994,63
i,1723569236.024594,172.16.1.2,5101,172.16.3.2,32635,1073725440,14480,162,65728,65700,6,6,4,1460,130937,1,16778208,380000,33580,0,65700,0,0,0,2571735994,63
o,1723569236.060840,172.16.1.2,5101,172.16.3.2,32635,1073725440,14480,162,65728,65700,6,6,4,1460,130937,1,16778209,380000,33580,0,65700,0,0,0,2571735994,63
i,1723569236.085588,172.16.1.2,5102,172.16.5.2,64481,1073725440,14480,34,65728,65700,6,6,4,1460,124687,1,16778208,410000,33580,0,65700,0,0,0,2069447833,63
i,1723569236.094736,172.16.1.2,5101,172.16.3.2,32635,1073725440,14480,162,65728,65700,6,6,4,1460,130937,1,16778208,380000,33580,0,65700,0,0,0,2571735994,63
i,1723569236.115092,172.16.1.2,5102,172.16.5.2,64481,1073725440,14480,34,65728,65700,6,6,4,1460,124687,1,16778208,410000,33580,0,65700,0,0,0,2069447833,63
o,1723569236.115120,172.16.1.2,5102,172.16.5.2,64481,1073725440,14480,34,65728,65700,6,6,4,1460,124687,1,16778209,410000,33580,0,65700,1448,0,0,2069447833,63
o,1723569236.130438,172.16.1.2,5101,172.16.3.2,32635,1073725440,14480,162,65728,65700,6,6,4,1460,130937,1,16778209,380000,33580,0,65700,0,0,0,2571735994,63
i,1723569236.141330,172.16.1.2,5102,172.16.5.2,64481,1073725440,14480,34,65728,65700,6,6,4,1460,124687,1,16778208,410000,33580,0,65700,0,0,0,2069447833,63
i,1723569236.141404,172.16.1.2,5102,172.16.5.2,64481,1073725440,14480,34,65728,65700,6,6,4,1460,124687,1,16778208,410000,33580,0,65700,1448,0,0,2069447833,63
o,1723569236.141424,172.16.1.2,5102,172.16.5.2,64481,1073725440,14480,34,65728,65700,6,6,4,1460,124687,1,16778209,410000,33580,0,65700,2896,0,0,2069447833,63
i,1723569236.161595,172.16.1.2,5101,172.16.3.2,32635,1073725440,14480,162,65728,65700,6,6,4,1460,130937,1,16778208,380000,33580,0,65700,0,0,0,2571735994,63
i,1723569236.166635,172.16.1.2,5102,172.16.5.2,64481,1073725440,14480,34,65728,65700,6,6,4,1460,124687,1,16778208,410000,33580,0,65700,0,0,0,2069447833,63
i,1723569236.178340,172.16.1.2,5101,172.16.3.2,32635,1073725440,14480,162,65728,65700,6,6,4,1460,130937,1,16778208,380000,33580,0,65700,0,0,0,2571735994,63
o,1723569236.178360,172.16.1.2,5101,172.16.3.2,32635,1073725440,14480,162,65728,65700,6,6,4,1460,130937,1,16778209,380000,33580,0,65700,1448,0,0,2571735994,63
i,1723569236.178479,172.16.1.2,5102,172.16.5.2,64481,1073725440,14480,34,65728,65700,6,6,4,1460,124687,1,16778208,410000,33580,0,65700,0,0,0,2069447833,63
o,1723569236.178511,172.16.1.2,5102,172.16.5.2,64481,1073725440,14480,34,65728,65700,6,6,4,1460,124687,1,16778209,410000,33580,0,65700,1448,0,0,2069447833,63
i,1723569236.259856,172.16.1.2,5101,172.16.3.2,32635,1073725440,14480,162,65728,65700,6,6,4,1460,130937,1,16778208,380000,33580,0,65700,0,0,0,2571735994,63
i,1723569236.288597,172.16.1.2,5101,172.16.3.2,32635,1073725440,14480,162,65728,65700,6,6,4,1460,130937,1,16778208,380000,33580,0,65700,0,0,0,2571735994,63
o,1723569236.288623,172.16.1.2,5101,172.16.3.2,32635,1073725440,14480,162,65728,65700,6,6,4,1460,130937,1,16778209,380000,33580,0,65700,1448,0,0,2571735994,63
i,1723569236.297158,172.16.1.2,5102,172.16.5.2,64481,1073725440,14480,34,65728,65700,6,6,4,1460,124687,1,16778208,410000,33580,0,65700,0,0,0,2069447833,63
i,1723569236.305654,172.16.1.2,5101,172.16.3.2,32635,1073725440,14480,162,65728,65700,6,6,4,1460,130937,1,16778208,380000,33580,0,65700,0,0,0,2571735994,63
i,1723569236.312707,172.16.1.2,5102,172.16.5.2,64481,1073725440,14480,34,65728,65700,6,6,4,1460,124687,1,16778208,410000,33580,0,65700,0,0,0,2069447833,63
o,1723569236.312730,172.16.1.2,5102,172.16.5.2,64481,1073725440,14480,34,65728,65700,6,6,4,1460,124687,1,16778209,410000,33580,0,65700,1448,0,0,2069447833,63
i,1723569236.321963,172.16.1.2,5101,172.16.3.2,32635,1073725440,14480,162,65728,65700,6,6,4,1460,130937,1,16778208,380000,33580,0,65700,0,0,0,2571735994,63
o,1723569236.321992,172.16.1.2,5101,172.16.3.2,32635,1073725440,14480,162,65728,65700,6,6,4,1460,130937,1,16778209,380000,33580,0,65700,1448,0,0,2571735994,63
o,1723569236.339535,10.0.2.15,22,10.0.2.2,62474,1073725440,14600,1026,65535,65700,0,0,4,1460,312,0,16777220,240000,33580,156,65700,0,0,0,309830784,63
i,1723569236.340781,10.0.2.15,22,10.0.2.2,62474,1073725440,14600,1026,65535,65700,0,0,4,1460,312,0,16777220,240000,33580,156,65700,0,156,0,309830784,63
o,1723569236.340811,10.0.2.15,22,10.0.2.2,62470,1073725440,14600,1026,65535,65700,0,0,4,1460,312,0,16777220,240000,33580,156,65700,0,0,0,1849290125,63
i,1723569236.343197,10.0.2.15,22,10.0.2.2,62470,1073725440,14600,1026,65535,65700,0,0,4,1460,312,0,16777220,240000,33580,156,65700,0,156,0,1849290125,63
i,1723569236.348412,172.16.1.2,5102,172.16.5.2,64481,1073725440,14480,34,65728,65700,6,6,4,1460,124687,1,16778208,410000,33580,0,65700,0,0,0,2069447833,63
i,1723569236.370220,172.16.1.2,5102,172.16.5.2,64481,1073725440,14480,34,65728,65700,6,6,4,1460,124687,1,16778208,410000,33580,0,65700,0,0,0,2069447833,63
o,1723569236.370244,172.16.1.2,5102,172.16.5.2,64481,1073725440,14480,34,65728,65700,6,6,4,1460,124687,1,16778209,410000,33580,0,65700,1448,0,0,2069447833,63
i,1723569236.370369,172.16.1.2,5101,172.16.3.2,32635,1073725440,14480,162,65728,65700,6,6,4,1460,130937,1,16778208,380000,33580,0,65700,0,0,0,2571735994,63
i,1723569236.370423,172.16.1.2,5102,172.16.5.2,64481,1073725440,14480,34,65728,65700,6,6,4,1460,124687,1,16778208,410000,33580,0,65700,1448,0,0,2069447833,63
i,1723569236.390907,172.16.1.2,5101,172.16.3.2,32635,1073725440,14480,162,65728,65700,6,6,4,1460,130937,1,16778208,380000,33580,0,65700,0,0,0,2571735994,63
o,1723569236.391033,172.16.1.2,5101,172.16.3.2,32635,1073725440,14480,162,65728,65700,6,6,4,1460,130937,1,16778209,380000,33580,0,65700,1448,0,0,2571735994,63
i,1723569236.391252,172.16.1.2,5101,172.16.3.2,32635,1073725440,14480,162,65728,65700,6,6,4,1460,130937,1,16778208,380000,33580,0,65700,1448,0,0,2571735994,63
o,1723569236.391663,172.16.1.2,5101,172.16.3.2,32635,1073725440,14480,34,65728,65700,6,6,4,1460,130937,1,16778209,380000,33580,0,65700,0,0,0,2571735994,63
i,1723569236.404690,172.16.1.2,5101,172.16.3.2,32635,1073725440,14480,34,65728,65700,6,6,4,1460,130937,1,16778208,380000,33580,0,65700,0,0,0,2571735994,63
o,1723569236.408743,172.16.1.2,5102,172.16.5.2,64481,1073725440,14480,34,65728,65700,6,6,4,1460,124687,1,16778209,410000,33580,0,65700,0,0,0,2069447833,63
i,1723569236.420265,172.16.1.2,5101,172.16.3.2,32635,1073725440,14480,162,65728,65700,6,6,4,1460,130937,1,16778208,380000,33580,0,65700,0,0,0,2571735994,63
o,1723569236.420285,172.16.1.2,5101,172.16.3.2,32635,1073725440,14480,162,65728,65700,6,6,4,1460,130937,1,16778209,380000,33580,0,65700,1448,0,0,2571735994,63
i,1723569236.460247,172.16.1.2,5101,172.16.3.2,32635,1073725440,14480,162,65728,65700,6,6,4,1460,130937,1,16778208,380000,33580,0,65700,0,0,0,2571735994,63
i,1723569236.484778,172.16.1.2,5101,172.16.3.2,32635,1073725440,14480,162,65728,65700,6,6,4,1460,130937,1,16778208,380000,33580,0,65700,0,0,0,2571735994,63
o,1723569236.484801,172.16.1.2,5101,172.16.3.2,32635,1073725440,14480,162,65728,65700,6,6,4,1460,130937,1,16778209,380000,33580,0,65700,1448,0,0,2571735994,63
i,1723569236.484932,172.16.1.2,5102,172.16.5.2,64481,1073725440,14480,34,65728,65700,6,6,4,1460,124687,1,16778208,410000,33580,0,65700,0,0,0,2069447833,63
i,1723569236.485003,172.16.1.2,5102,172.16.5.2,64481,1073725440,14480,34,65728,65700,6,6,4,1460,124687,1,16778208,410000,33580,0,65700,1448,0,0,2069447833,63
o,1723569236.485018,172.16.1.2,5102,172.16.5.2,64481,1073725440,14480,34,65728,65700,6,6,4,1460,124687,1,16778209,410000,33580,0,65700,2896,0,0,2069447833,63
i,1723569236.504474,172.16.1.2,5101,172.16.3.2,32635,1073725440,14480,162,65728,65700,6,6,4,1460,130937,1,16778208,380000,33580,0,65700,0,0,0,2571735994,63
o,1723569236.540758,172.16.1.2,5101,172.16.3.2,32635,1073725440,14480,162,65728,65700,6,6,4,1460,130937,1,16778209,380000,33580,0,65700,0,0,0,2571735994,63
i,1723569236.544330,172.16.1.2,5101,172.16.3.2,32635,1073725440,14480,162,65728,65700,6,6,4,1460,130937,1,16778208,380000,33580,0,65700,0,0,0,2571735994,63
o,1723569236.580774,172.16.1.2,5101,172.16.3.2,32635,1073725440,14480,162,65728,65700,6,6,4,1460,130937,1,16778209,380000,33580,0,65700,0,0,0,2571735994,63
i,1723569236.593594,172.16.1.2,5101,172.16.3.2,32635,1073725440,14480,162,65728,65700,6,6,4,1460,130937,1,16778208,380000,33580,0,65700,0,0,0,2571735994,63
i,1723569236.625550,172.16.1.2,5101,172.16.3.2,32635,1073725440,14480,162,65728,65700,6,6,4,1460,130937,1,16778208,380000,33580,0,65700,0,0,0,2571735994,63
o,1723569236.625591,172.16.1.2,5101,172.16.3.2,32635,1073725440,14480,34,65728,65700,6,6,4,1460,130937,1,16778209,380000,33580,0,65700,1448,0,0,2571735994,63
i,1723569236.625760,172.16.1.2,5102,172.16.5.2,64481,1073725440,14480,34,65728,65700,6,6,4,1460,124687,1,16778208,410000,33580,0,65700,0,0,0,2069447833,63
i,1723569236.659184,172.16.1.2,5102,172.16.5.2,64481,1073725440,14480,34,65728,65700,6,6,4,1460,124687,1,16778208,410000,33580,0,65700,0,0,0,2069447833,63
o,1723569236.659225,172.16.1.2,5102,172.16.5.2,64481,1073725440,14480,34,65728,65700,6,6,4,1460,124687,1,16778209,410000,33580,0,65700,1448,0,0,2069447833,63
i,1723569236.659369,172.16.1.2,5102,172.16.5.2,64481,1073725440,14480,34,65728,65700,6,6,4,1460,124687,1,16778208,410000,33580,0,65700,1448,0,0,2069447833,63
i,1723569236.686094,172.16.1.2,5102,172.16.5.2,64481,1073725440,14480,34,65728,65700,6,6,4,1460,124687,1,16778208,410000,33580,0,65700,0,0,0,2069447833,63
o,1723569236.686115,172.16.1.2,5102,172.16.5.2,64481,1073725440,14480,34,65728,65700,6,6,4,1460,124687,1,16778209,410000,33580,0,65700,1448,0,0,2069447833,63
i,1723569236.699288,172.16.1.2,5101,172.16.3.2,32635,1073725440,14480,34,65728,65700,6,6,4,1460,130937,1,16778208,380000,33580,0,65700,0,0,0,2571735994,63
i,1723569236.699494,172.16.1.2,5102,172.16.5.2,64481,1073725440,14480,34,65728,65700,6,6,4,1460,124687,1,16778208,410000,33580,0,65700,0,0,0,2069447833,63
i,1723569236.699534,172.16.1.2,5102,172.16.5.2,64481,1073725440,14480,34,65728,65700,6,6,4,1460,124687,1,16778208,410000,33580,0,65700,1448,0,0,2069447833,63
o,1723569236.699558,172.16.1.2,5102,172.16.5.2,64481,1073725440,14480,34,65728,65700,6,6,4,1460,124687,1,16778209,410000,33580,0,65700,2896,0,0,2069447833,63
i,1723569236.719306,172.16.1.2,5102,172.16.5.2,64481,1073725440,14480,34,65728,65700,6,6,4,1460,124687,1,16778208,410000,33580,0,65700,0,0,0,2069447833,63
i,1723569236.724707,172.16.1.2,5102,172.16.5.2,64481,1073725440,14480,34,65728,65700,6,6,4,1460,124687,1,16778208,410000,33580,0,65700,0,0,0,2069447833,63
o,1723569236.724797,172.16.1.2,5102,172.16.5.2,64481,1073725440,14480,34,65728,65700,6,6,4,1460,124687,1,16778209,410000,33580,0,65700,1448,0,0,2069447833,63
o,1723569236.740629,172.16.1.2,5101,172.16.3.2,32635,1073725440,14480,34,65728,65700,6,6,4,1460,130937,1,16778209,380000,33580,0,65700,0,0,0,2571735994,63
i,1723569236.758703,172.16.1.2,5102,172.16.5.2,64481,1073725440,14480,34,65728,65700,6,6,4,1460,124687,1,16778208,410000,33580,0,65700,0,0,0,2069447833,63
i,1723569236.759245,172.16.1.2,5102,172.16.5.2,64481,1073725440,14480,34,65728,65700,6,6,4,1460,124687,1,16778208,410000,33580,0,65700,1448,0,0,2069447833,63
o,1723569236.759263,172.16.1.2,5102,172.16.5.2,64481,1073725440,14480,34,65728,65700,6,6,4,1460,124687,1,16778209,410000,33580,0,65700,2896,0,0,2069447833,63
i,1723569236.770649,172.16.1.2,5102,172.16.5.2,64481,1073725440,14480,34,65728,65700,6,6,4,1460,124687,1,16778208,410000,33580,0,65700,0,0,0,2069447833,63
i,1723569236.779093,172.16.1.2,5101,172.16.3.2,32635,1073725440,14480,34,65728,65700,6,6,4,1460,130937,1,16778208,380000,33580,0,65700,0,0,0,2571735994,63
i,1723569236.796950,172.16.1.2,5101,172.16.3.2,32635,1073725440,14480,34,65728,65700,6,6,4,1460,130937,1,16778208,380000,33580,0,65700,0,0,0,2571735994,63
o,1723569236.796976,172.16.1.2,5101,172.16.3.2,32635,1073725440,14480,34,65728,65700,6,6,4,1460,130937,1,16778209,380000,33580,0,65700,1448,0,0,2571735994,63
o,1723569236.809058,172.16.1.2,5102,172.16.5.2,64481,1073725440,14480,34,65728,65700,6,6,4,1460,124687,1,16778209,410000,33580,0,65700,0,0,0,2069447833,63
i,1723569236.810162,172.16.1.2,5102,172.16.5.2,64481,1073725440,14480,34,65728,65700,6,6,4,1460,124687,1,16778208,410000,33580,0,65700,0,0,0,2069447833,63
o,1723569236.848965,172.16.1.2,5102,172.16.5.2,64481,1073725440,14480,34,65728,65700,6,6,4,1460,124687,1,16778209,410000,33580,0,65700,0,0,0,2069447833,63
i,1723569236.901187,172.16.1.2,5101,172.16.3.2,32635,1073725440,14480,34,65728,65700,6,6,4,1460,130937,1,16778208,380000,33580,0,65700,0,0,0,2571735994,63
i,1723569236.901285,172.16.1.2,5101,172.16.3.2,32635,1073725440,14480,34,65728,65700,6,6,4,1460,130937,1,16778208,380000,33580,0,65700,1448,0,0,2571735994,63
o,1723569236.901334,172.16.1.2,5101,172.16.3.2,32635,1073725440,14480,34,65728,65700,6,6,4,1460,130937,1,16778209,380000,33580,0,65700,2896,0,0,2571735994,63
i,1723569236.932083,172.16.1.2,5102,172.16.5.2,64481,1073725440,14480,34,65728,65700,6,6,4,1460,124687,1,16778208,410000,33580,0,65700,0,0,0,2069447833,63
i,1723569236.939617,172.16.1.2,5102,172.16.5.2,64481,1073725440,14480,34,65728,65700,6,6,4,1460,124687,1,16778208,410000,33580,0,65700,0,0,0,2069447833,63
o,1723569236.939758,172.16.1.2,5102,172.16.5.2,64481,1073725440,14480,34,65728,65700,6,6,4,1460,124687,1,16778209,410000,33580,0,65700,1448,0,0,2069447833,63
i,1723569236.965647,172.16.1.2,5101,172.16.3.2,32635,1073725440,14480,34,65728,65700,6,6,4,1460,130937,1,16778208,380000,33580,0,65700,0,0,0,2571735994,63
i,1723569236.988619,172.16.1.2,5102,172.16.5.2,64481,1073725440,14480,34,65728,65700,6,6,4,1460,124687,1,16778208,410000,33580,0,65700,0,0,0,2069447833,63
i,1723569236.988650,172.16.1.2,5102,172.16.5.2,64481,1073725440,14480,34,65728,65700,6,6,4,1460,124687,1,16778208,410000,33580,0,65700,1448,0,0,2069447833,63
o,1723569236.988669,172.16.1.2,5102,172.16.5.2,64481,1073725440,14480,34,65728,65700,6,6,4,1460,124687,1,16778209,410000,33580,0,65700,2896,0,0,2069447833,63
o,1723569237.000579,172.16.1.2,5101,172.16.3.2,32635,1073725440,14480,34,65728,65700,6,6,4,1460,130937,1,16778209,380000,33580,0,65700,0,0,0,2571735994,63
i,1723569237.006013,172.16.1.2,5101,172.16.3.2,32635,1073725440,14480,34,65728,65700,6,6,4,1460,130937,1,16778208,380000,33580,0,65700,0,0,0,2571735994,63
o,1723569237.041019,172.16.1.2,5101,172.16.3.2,32635,1073725440,14480,34,65728,65700,6,6,4,1460,130937,1,16778209,380000,33580,0,65700,0,0,0,2571735994,63
i,1723569237.063139,172.16.1.2,5102,172.16.5.2,64481,1073725440,14480,34,65728,65700,6,6,4,1460,124687,1,16778208,410000,33580,0,65700,0,0,0,2069447833,63
i,1723569237.089929,172.16.1.2,5101,172.16.3.2,32635,1073725440,14480,34,65728,65700,6,6,4,1460,130937,1,16778208,380000,33580,0,65700,0,0,0,2571735994,63
o,1723569237.098908,172.16.1.2,5102,172.16.5.2,64481,1073725440,14480,34,65728,65700,6,6,4,1460,124687,1,16778209,410000,33580,0,65700,0,0,0,2069447833,63
i,1723569237.099237,172.16.1.2,5102,172.16.5.2,64481,1073725440,14480,34,65728,65700,6,6,4,1460,124687,1,16778208,410000,33580,0,65700,0,0,0,2069447833,63
i,1723569237.116618,172.16.1.2,5102,172.16.5.2,64481,1073725440,14480,34,65728,65700,6,6,4,1460,124687,1,16778208,410000,33580,0,65700,0,0,0,2069447833,63
o,1723569237.116641,172.16.1.2,5102,172.16.5.2,64481,1073725440,14480,162,65728,65700,6,6,4,1460,124687,1,16778209,410000,33580,0,65700,0,0,1,2069447833,63
i,1723569237.120982,172.16.1.2,5101,172.16.3.2,32635,1073725440,14480,34,65728,65700,6,6,4,1460,130937,1,16778208,380000,33580,0,65700,0,0,0,2571735994,63
o,1723569237.121065,172.16.1.2,5101,172.16.3.2,32635,1073725440,14480,34,65728,65700,6,6,4,1460,130937,1,16778209,380000,33580,0,65700,1448,0,0,2571735994,63
i,1723569237.129799,172.16.1.2,5102,172.16.5.2,64481,1073725440,14480,162,65728,65700,6,6,4,1460,124687,1,16778208,410000,33580,0,65700,0,0,1,2069447833,63
o,1723569237.129821,172.16.1.2,5102,172.16.5.2,64481,1073725440,14480,162,65728,65728,6,6,4,1460,124687,1,16778209,410000,33580,0,65700,1448,0,1,2069447833,63
i,1723569237.150111,172.16.1.2,5101,172.16.3.2,32635,1073725440,14480,34,65728,65700,6,6,4,1460,130937,1,16778208,380000,33580,0,65700,0,0,0,2571735994,63
i,1723569237.159746,172.16.1.2,5102,172.16.5.2,64481,1073725440,14480,162,65728,65728,6,6,4,1460,124687,1,16778208,410000,33580,0,65700,0,0,1,2069447833,63
o,1723569237.159869,172.16.1.2,5102,172.16.5.2,64481,1073725440,14480,162,65728,65700,6,6,4,1460,124687,1,16778209,410000,33580,0,65700,1448,0,1,2069447833,63
o,1723569237.190537,172.16.1.2,5101,172.16.3.2,32635,1073725440,14480,34,65728,65700,6,6,4,1460,130937,1,16778209,380000,33580,0,65700,0,0,0,2571735994,63
i,1723569237.197948,172.16.1.2,5102,172.16.5.2,64481,1073725440,14480,162,65728,65700,6,6,4,1460,124687,1,16778208,410000,33580,0,65700,0,0,1,2069447833,63
o,1723569237.197970,172.16.1.2,5102,172.16.5.2,64481,1073725440,14480,162,65728,65700,6,6,4,1460,124687,1,16778209,410000,33580,0,65700,1448,0,1,2069447833,63
i,1723569237.210432,172.16.1.2,5101,172.16.3.2,32635,1073725440,14480,34,65728,65700,6,6,4,1460,130937,1,16778208,380000,33580,0,65700,0,0,0,2571735994,63
i,1723569237.210546,172.16.1.2,5102,172.16.5.2,64481,1073725440,14480,162,65728,65700,6,6,4,1460,124687,1,16778208,410000,33580,0,65700,0,0,1,2069447833,63
o,1723569237.210570,172.16.1.2,5102,172.16.5.2,64481,1073725440,14480,162,65728,65700,6,6,4,1460,124687,1,16778209,410000,33580,0,65700,1448,0,1,2069447833,63
i,1723569237.219086,172.16.1.2,5102,172.16.5.2,64481,1073725440,14480,162,65728,65700,6,6,4,1460,124687,1,16778208,410000,33580,0,65700,0,0,1,2069447833,63
o,1723569237.219151,172.16.1.2,5102,172.16.5.2,64481,1073725440,14480,162,65728,65700,6,6,4,1460,124687,1,16778209,410000,33580,0,65700,2896,0,0,2069447833,63
i,1723569237.228977,172.16.1.2,5101,172.16.3.2,32635,1073725440,14480,34,65728,65700,6,6,4,1460,130937,1,16778208,380000,33580,0,65700,0,0,0,2571735994,63
o,1723569237.228996,172.16.1.2,5101,172.16.3.2,32635,1073725440,14480,34,65728,65700,6,6,4,1460,130937,1,16778209,380000,33580,0,65700,1448,0,0,2571735994,63
i,1723569237.275648,172.16.1.2,5101,172.16.3.2,32635,1073725440,14480,34,65728,65700,6,6,4,1460,130937,1,16778208,380000,33580,0,65700,0,0,0,2571735994,63
i,1723569237.294158,172.16.1.2,5101,172.16.3.2,32635,1073725440,14480,34,65728,65700,6,6,4,1460,130937,1,16778208,380000,33580,0,65700,0,0,0,2571735994,63
o,1723569237.294238,172.16.1.2,5101,172.16.3.2,32635,1073725440,14480,34,65728,65700,6,6,4,1460,130937,1,16778209,380000,33580,0,65700,1448,0,0,2571735994,63
i,1723569237.341608,172.16.1.2,5102,172.16.5.2,64481,1073725440,14480,162,65728,65700,6,6,4,1460,124687,1,16778208,410000,33580,0,65700,0,0,0,2069447833,63
o,1723569237.342042,10.0.2.15,22,10.0.2.2,62470,1073725440,14600,1026,65535,65700,0,0,4,1460,312,0,16777220,240000,33580,108,65700,0,0,0,1849290125,63
i,1723569237.342980,10.0.2.15,22,10.0.2.2,62470,1073725440,14600,1026,65535,65700,0,0,4,1460,312,0,16777220,240000,33580,108,65700,0,108,0,1849290125,63
o,1723569237.349112,10.0.2.15,22,10.0.2.2,62474,1073725440,14600,1026,65535,65700,0,0,4,1460,312,0,16777220,240000,33580,108,65700,0,0,0,309830784,63
i,1723569237.349430,10.0.2.15,22,10.0.2.2,62474,1073725440,14600,1026,65535,65700,0,0,4,1460,312,0,16777220,240000,33580,108,65700,0,108,0,309830784,63
i,1723569237.360767,172.16.1.2,5102,172.16.5.2,64481,1073725440,14480,162,65728,65700,6,6,4,1460,124687,1,16778208,410000,33580,0,65700,0,0,0,2069447833,63
o,1723569237.360794,172.16.1.2,5102,172.16.5.2,64481,1073725440,14480,162,65728,65700,6,6,4,1460,124687,1,16778209,410000,33580,0,65700,0,0,0,2069447833,63
i,1723569237.388602,172.16.1.2,5102,172.16.5.2,64481,1073725440,14480,162,65728,65700,6,6,4,1460,124687,1,16778208,410000,33580,0,65700,0,0,0,2069447833,63
o,1723569237.388628,172.16.1.2,5102,172.16.5.2,64481,1073725440,14480,162,65728,65728,6,6,4,1460,124687,1,16778209,410000,33580,0,65700,0,0,0,2069447833,63
i,1723569237.388756,172.16.1.2,5102,172.16.5.2,64481,1073725440,14480,162,65728,65728,6,6,4,1460,124687,1,16778208,410000,33580,0,65700,0,0,0,2069447833,63
i,1723569237.406605,172.16.1.2,5102,172.16.5.2,64481,1073725440,14480,162,65728,65728,6,6,4,1460,124687,1,16778208,410000,33580,0,65700,0,0,0,2069447833,63
o,1723569237.438825,172.16.1.2,5102,172.16.5.2,64481,1073725440,14480,162,65728,65728,6,6,4,1460,124687,1,16778209,410000,33580,0,65700,0,0,0,2069447833,63
i,1723569237.441137,172.16.1.2,5102,172.16.5.2,64481,1073725440,14480,162,65728,65728,6,6,4,1460,124687,1,16778208,410000,33580,0,65700,0,0,0,2069447833,63
o,1723569237.478836,172.16.1.2,5102,172.16.5.2,64481,1073725440,14480,162,65728,65728,6,6,4,1460,124687,1,16778209,410000,33580,0,65700,0,0,0,2069447833,63
i,1723569237.479151,172.16.1.2,5102,172.16.5.2,64481,1073725440,14480,162,65728,65728,6,6,4,1460,124687,1,16778208,410000,33580,0,65700,0,0,0,2069447833,63
o,1723569237.479172,172.16.1.2,5102,172.16.5.2,64481,1073725440,14480,162,65728,65728,6,6,4,1460,124687,1,16778209,410000,33580,0,65700,0,0,1,2069447833,63
i,1723569237.490302,172.16.1.2,5101,172.16.3.2,32635,1073725440,14480,34,65728,65700,6,6,4,1460,130937,1,16778208,380000,33580,0,65700,0,0,0,2571735994,63
i,1723569237.496501,172.16.1.2,5102,172.16.5.2,64481,1073725440,14480,162,65728,65728,6,6,4,1460,124687,1,16778208,410000,33580,0,65700,0,0,1,2069447833,63
o,1723569237.496522,172.16.1.2,5102,172.16.5.2,64481,1073725440,14480,162,65728,65728,6,6,4,1460,124687,1,16778209,410000,33580,0,65700,0,0,1,2069447833,63
o,1723569237.530558,172.16.1.2,5101,172.16.3.2,32635,1073725440,14480,34,65728,65700,6,6,4,1460,130937,1,16778209,380000,33580,0,65700,0,0,0,2571735994,63
i,1723569237.531667,172.16.1.2,5102,172.16.5.2,64481,1073725440,14480,162,65728,65728,6,6,4,1460,124687,1,16778208,410000,33580,0,65700,0,0,1,2069447833,63
o,1723569237.531690,172.16.1.2,5102,172.16.5.2,64481,1073725440,14480,162,65728,65728,6,6,4,1460,124687,1,16778209,410000,33580,0,65700,0,0,1,2069447833,63
i,1723569237.536841,172.16.1.2,5102,172.16.5.2,64481,1073725440,14480,162,65728,65728,6,6,4,1460,124687,1,16778208,410000,33580,0,65700,0,0,1,2069447833,63
o,1723569237.536864,172.16.1.2,5102,172.16.5.2,64481,1073725440,14480,34,65728,65728,6,6,4,1460,124687,1,16778209,410000,33580,0,65700,0,0,1,2069447833,63
i,1723569237.565021,172.16.1.2,5101,172.16.3.2,32635,1073725440,14480,34,65728,65700,6,6,4,1460,130937,1,16778208,380000,33580,0,65700,0,0,0,2571735994,63
i,1723569237.575057,172.16.1.2,5101,172.16.3.2,32635,1073725440,14480,34,65728,65700,6,6,4,1460,130937,1,16778208,380000,33580,0,65700,0,0,0,2571735994,63
o,1723569237.575136,172.16.1.2,5101,172.16.3.2,32635,1073725440,14480,34,65728,65700,6,6,4,1460,130937,1,16778209,380000,33580,0,65700,1448,0,0,2571735994,63
i,1723569237.581238,172.16.1.2,5101,172.16.3.2,32635,1073725440,14480,34,65728,65700,6,6,4,1460,130937,1,16778208,380000,33580,0,65700,0,0,0,2571735994,63
i,1723569237.600427,172.16.1.2,5101,172.16.3.2,32635,1073725440,14480,34,65728,65700,6,6,4,1460,130937,1,16778208,380000,33580,0,65700,0,0,0,2571735994,63
o,1723569237.600458,172.16.1.2,5101,172.16.3.2,32635,1073725440,14480,34,65728,65700,6,6,4,1460,130937,1,16778209,380000,33580,0,65700,1448,0,0,2571735994,63
i,1723569237.600633,172.16.1.2,5101,172.16.3.2,32635,1073725440,14480,34,65728,65700,6,6,4,1460,130937,1,16778208,380000,33580,0,65700,1448,0,0,2571735994,63
o,1723569237.639030,172.16.1.2,5101,172.16.3.2,32635,1073725440,14480,34,65728,65700,6,6,4,1460,130937,1,16778209,380000,33580,0,65700,0,0,0,2571735994,63
i,1723569237.639034,172.16.1.2,5102,172.16.5.2,64481,1073725440,14480,34,65728,65728,6,6,4,1460,124687,1,16778208,410000,33580,0,65700,0,0,1,2069447833,63
i,1723569237.662782,172.16.1.2,5101,172.16.3.2,32635,1073725440,14480,34,65728,65700,6,6,4,1460,130937,1,16778208,380000,33580,0,65700,0,0,0,2571735994,63
o,1723569237.698981,172.16.1.2,5101,172.16.3.2,32635,1073725440,14480,34,65728,65700,6,6,4,1460,130937,1,16778209,380000,33580,0,65700,0,0,0,2571735994,63
i,1723569237.708976,172.16.1.2,5102,172.16.5.2,64481,1073725440,14480,34,65728,65728,6,6,4,1460,124687,1,16778208,410000,33580,0,65700,0,0,1,2069447833,63
o,1723569237.709000,172.16.1.2,5102,172.16.5.2,64481,1073725440,14480,34,65728,65728,6,6,4,1460,124687,1,16778209,410000,33580,0,65700,0,0,1,2069447833,63
i,1723569237.720756,172.16.1.2,5102,172.16.5.2,64481,1073725440,14480,34,65728,65728,6,6,4,1460,124687,1,16778208,410000,33580,0,65700,0,0,1,2069447833,63
o,1723569237.720840,172.16.1.2,5102,172.16.5.2,64481,1073725440,14480,34,65728,65728,6,6,4,1460,124687,1,16778209,410000,33580,0,65700,1448,0,1,2069447833,63
i,1723569237.748582,172.16.1.2,5102,172.16.5.2,64481,1073725440,14480,34,65728,65728,6,6,4,1460,124687,1,16778208,410000,33580,0,65700,0,0,1,2069447833,63
o,1723569237.748605,172.16.1.2,5102,172.16.5.2,64481,1073725440,14480,34,65728,65700,6,6,4,1460,124687,1,16778209,410000,33580,0,65700,0,0,1,2069447833,63
i,1723569237.758706,172.16.1.2,5102,172.16.5.2,64481,1073725440,14480,34,65728,65700,6,6,4,1460,124687,1,16778208,410000,33580,0,65700,0,0,1,2069447833,63
o,1723569237.758731,172.16.1.2,5102,172.16.5.2,64481,1073725440,14480,34,65728,65728,6,6,4,1460,124687,1,16778209,410000,33580,0,65700,7240,0,0,2069447833,63
i,1723569237.788617,172.16.1.2,5101,172.16.3.2,32635,1073725440,14480,34,65728,65700,6,6,4,1460,130937,1,16778208,380000,33580,0,65700,0,0,0,2571735994,63
i,1723569237.821241,172.16.1.2,5101,172.16.3.2,32635,1073725440,14480,34,65728,65700,6,6,4,1460,130937,1,16778208,380000,33580,0,65700,0,0,0,2571735994,63
o,1723569237.821290,172.16.1.2,5101,172.16.3.2,32635,1073725440,14480,34,65728,65700,6,6,4,1460,130937,1,16778209,380000,33580,0,65700,1448,0,0,2571735994,63
i,1723569237.839706,172.16.1.2,5101,172.16.3.2,32635,1073725440,14480,34,65728,65700,6,6,4,1460,130937,1,16778208,380000,33580,0,65700,0,0,0,2571735994,63
i,1723569237.849154,172.16.1.2,5101,172.16.3.2,32635,1073725440,14480,34,65728,65700,6,6,4,1460,130937,1,16778208,380000,33580,0,65700,0,0,0,2571735994,63
o,1723569237.849225,172.16.1.2,5101,172.16.3.2,32635,1073725440,14480,34,65728,65700,6,6,4,1460,130937,1,16778209,380000,33580,0,65700,1448,0,0,2571735994,63
i,1723569237.882316,172.16.1.2,5101,172.16.3.2,32635,1073725440,14480,34,65728,65700,6,6,4,1460,130937,1,16778208,380000,33580,0,65700,0,0,0,2571735994,63
i,1723569237.895430,172.16.1.2,5101,172.16.3.2,32635,1073725440,14480,34,65728,65700,6,6,4,1460,130937,1,16778208,380000,33580,0,65700,0,0,0,2571735994,63
o,1723569237.895495,172.16.1.2,5101,172.16.3.2,32635,1073725440,14480,34,65728,65700,6,6,4,1460,130937,1,16778209,380000,33580,0,65700,1448,0,0,2571735994,63
i,1723569237.919306,172.16.1.2,5101,172.16.3.2,32635,1073725440,14480,34,65728,65700,6,6,4,1460,130937,1,16778208,380000,33580,0,65700,0,0,0,2571735994,63
i,1723569237.950054,172.16.1.2,5101,172.16.3.2,32635,1073725440,14480,34,65728,65700,6,6,4,1460,130937,1,16778208,380000,33580,0,65700,0,0,0,2571735994,63
o,1723569237.950086,172.16.1.2,5101,172.16.3.2,32635,1073725440,14480,34,65728,65700,6,6,4,1460,130937,1,16778209,380000,33580,0,65700,1448,0,0,2571735994,63
i,1723569237.968618,172.16.1.2,5102,172.16.5.2,64481,1073725440,14480,34,65728,65728,6,6,4,1460,124687,1,16778208,410000,33580,0,65700,0,0,0,2069447833,63
i,1723569237.996215,172.16.1.2,5102,172.16.5.2,64481,1073725440,14480,34,65728,65728,6,6,4,1460,124687,1,16778208,410000,33580,0,65700,0,0,0,2069447833,63
o,1723569237.996256,172.16.1.2,5102,172.16.5.2,64481,1073725440,14480,34,65728,65728,6,6,4,1460,124687,1,16778209,410000,33580,0,65700,1448,0,0,2069447833,63
i,1723569238.005446,172.16.1.2,5101,172.16.3.2,32635,1073725440,14480,34,65728,65700,6,6,4,1460,130937,1,16778208,380000,33580,0,65700,0,0,0,2571735994,63
i,1723569238.014525,172.16.1.2,5102,172.16.5.2,64481,1073725440,14480,34,65728,65728,6,6,4,1460,124687,1,16778208,410000,33580,0,65700,0,0,0,2069447833,63
i,1723569238.036199,172.16.1.2,5101,172.16.3.2,32635,1073725440,14480,34,65728,65700,6,6,4,1460,130937,1,16778208,380000,33580,0,65700,0,0,0,2571735994,63
o,1723569238.036267,172.16.1.2,5101,172.16.3.2,32635,1073725440,14480,34,65728,65700,6,6,4,1460,130937,1,16778209,380000,33580,0,65700,1448,0,0,2571735994,63
i,1723569238.045227,172.16.1.2,5102,172.16.5.2,64481,1073725440,14480,34,65728,65728,6,6,4,1460,124687,1,16778208,410000,33580,0,65700,0,0,0,2069447833,63
o,1723569238.045264,172.16.1.2,5102,172.16.5.2,64481,1073725440,14480,34,65728,65728,6,6,4,1460,124687,1,16778209,410000,33580,0,65700,1448,0,0,2069447833,63
i,1723569238.063398,172.16.1.2,5101,172.16.3.2,32635,1073725440,14480,34,65728,65700,6,6,4,1460,130937,1,16778208,380000,33580,0,65700,0,0,0,2571735994,63
i,1723569238.090164,172.16.1.2,5101,172.16.3.2,32635,1073725440,14480,34,65728,65700,6,6,4,1460,130937,1,16778208,380000,33580,0,65700,0,0,0,2571735994,63
o,1723569238.090228,172.16.1.2,5101,172.16.3.2,32635,1073725440,14480,34,65728,65700,6,6,4,1460,130937,1,16778209,380000,33580,0,65700,1448,0,0,2571735994,63
i,1723569238.127922,172.16.1.2,5101,172.16.3.2,32635,1073725440,14480,34,65728,65700,6,6,4,1460,130937,1,16778208,380000,33580,0,65700,0,0,0,2571735994,63
i,1723569238.127972,172.16.1.2,5101,172.16.3.2,32635,1073725440,14480,34,65728,65700,6,6,4,1460,130937,1,16778208,380000,33580,0,65700,1448,0,0,2571735994,63
o,1723569238.127995,172.16.1.2,5101,172.16.3.2,32635,1073725440,14480,34,65728,65700,6,6,4,1460,130937,1,16778209,380000,33580,0,65700,2896,0,0,2571735994,63
i,1723569238.198576,172.16.1.2,5101,172.16.3.2,32635,1073725440,14480,34,65728,65700,6,6,4,1460,130937,1,16778208,380000,33580,0,65700,0,0,0,2571735994,63
i,1723569238.213420,172.16.1.2,5101,172.16.3.2,32635,1073725440,14480,34,65728,65700,6,6,4,1460,130937,1,16778208,380000,33580,0,65700,0,0,0,2571735994,63
o,1723569238.213493,172.16.1.2,5101,172.16.3.2,32635,1073725440,14480,34,65728,65700,6,6,4,1460,130937,1,16778209,380000,33580,0,65700,1448,0,0,2571735994,63
i,1723569238.224176,172.16.1.2,5102,172.16.5.2,64481,1073725440,14480,34,65728,65728,6,6,4,1460,124687,1,16778208,410000,33580,0,65700,0,0,0,2069447833,63
i,1723569238.233986,172.16.1.2,5101,172.16.3.2,32635,1073725440,14480,34,65728,65700,6,6,4,1460,130937,1,16778208,380000,33580,0,65700,0,0,0,2571735994,63
i,1723569238.257523,172.16.1.2,5102,172.16.5.2,64481,1073725440,14480,34,65728,65728,6,6,4,1460,124687,1,16778208,410000,33580,0,65700,0,0,0,2069447833,63
o,1723569238.257549,172.16.1.2,5102,172.16.5.2,64481,1073725440,14480,34,65728,65728,6,6,4,1460,124687,1,16778209,410000,33580,0,65700,1448,0,0,2069447833,63
o,1723569238.270474,172.16.1.2,5101,172.16.3.2,32635,1073725440,14480,34,65728,65700,6,6,4,1460,130937,1,16778209,380000,33580,0,65700,0,0,0,2571735994,63
i,1723569238.273111,172.16.1.2,5101,172.16.3.2,32635,1073725440,14480,34,65728,65700,6,6,4,1460,130937,1,16778208,380000,33580,0,65700,0,0,0,2571735994,63
i,1723569238.273212,172.16.1.2,5102,172.16.5.2,64481,1073725440,14480,34,65728,65728,6,6,4,1460,124687,1,16778208,410000,33580,0,65700,0,0,0,2069447833,63
i,1723569238.297721,172.16.1.2,5102,172.16.5.2,64481,1073725440,14480,34,65728,65728,6,6,4,1460,124687,1,16778208,410000,33580,0,65700,0,0,0,2069447833,63
o,1723569238.297922,172.16.1.2,5102,172.16.5.2,64481,1073725440,14480,34,65728,65728,6,6,4,1460,124687,1,16778209,410000,33580,0,65700,1448,0,0,2069447833,63
o,1723569238.308612,172.16.1.2,5101,172.16.3.2,32635,1073725440,14480,34,65728,65700,6,6,4,1460,130937,1,16778209,380000,33580,0,65700,0,0,0,2571735994,63
o,1723569238.360023,10.0.2.15,22,10.0.2.2,62470,1073725440,14600,1026,65535,65700,0,0,4,1460,312,0,16777220,240000,33580,108,65700,0,0,0,1849290125,63
o,1723569238.360033,10.0.2.15,22,10.0.2.2,62474,1073725440,14600,1026,65535,65700,0,0,4,1460,312,0,16777220,240000,33580,108,65700,0,0,0,309830784,63
i,1723569238.363566,10.0.2.15,22,10.0.2.2,62470,1073725440,14600,1026,65535,65700,0,0,4,1460,312,0,16777220,240000,33580,108,65700,0,108,0,1849290125,63
i,1723569238.363687,10.0.2.15,22,10.0.2.2,62474,1073725440,14600,1026,65535,65700,0,0,4,1460,312,0,16777220,240000,33580,108,65700,0,108,0,309830784,63
i,1723569238.374083,172.16.1.2,5102,172.16.5.2,64481,1073725440,14480,34,65728,65728,6,6,4,1460,124687,1,16778208,410000,33580,0,65700,0,0,0,2069447833,63
i,1723569238.395027,172.16.1.2,5102,172.16.5.2,64481,1073725440,14480,34,65728,65728,6,6,4,1460,124687,1,16778208,410000,33580,0,65700,0,0,0,2069447833,63
o,1723569238.395056,172.16.1.2,5102,172.16.5.2,64481,1073725440,14480,34,65728,65728,6,6,4,1460,124687,1,16778209,410000,33580,0,65700,1448,0,0,2069447833,63
i,1723569238.410142,172.16.1.2,5101,172.16.3.2,32635,1073725440,14480,34,65728,65700,6,6,4,1460,130937,1,16778208,380000,33580,0,65700,0,0,0,2571735994,63
i,1723569238.446119,172.16.1.2,5101,172.16.3.2,32635,1073725440,14480,34,65728,65700,6,6,4,1460,130937,1,16778208,380000,33580,0,65700,0,0,0,2571735994,63
o,1723569238.446226,172.16.1.2,5101,172.16.3.2,32635,1073725440,14480,34,65728,65700,6,6,4,1460,130937,1,16778209,380000,33580,0,65700,1448,0,0,2571735994,63
i,1723569238.456102,172.16.1.2,5101,172.16.3.2,32635,1073725440,14480,34,65728,65700,6,6,4,1460,130937,1,16778208,380000,33580,0,65700,0,0,0,2571735994,63
i,1723569238.485044,172.16.1.2,5101,172.16.3.2,32635,1073725440,14480,34,65728,65700,6,6,4,1460,130937,1,16778208,380000,33580,0,65700,0,0,0,2571735994,63
o,1723569238.485091,172.16.1.2,5101,172.16.3.2,32635,1073725440,14480,34,65728,65700,6,6,4,1460,130937,1,16778209,380000,33580,0,65700,1448,0,0,2571735994,63
i,1723569238.517930,172.16.1.2,5101,172.16.3.2,32635,1073725440,14480,34,65728,65700,6,6,4,1460,130937,1,16778208,380000,33580,0,65700,0,0,0,2571735994,63
i,1723569238.548040,172.16.1.2,5101,172.16.3.2,32635,1073725440,14480,34,65728,65700,6,6,4,1460,130937,1,16778208,380000,33580,0,65700,0,0,0,2571735994,63
o,1723569238.548119,172.16.1.2,5101,172.16.3.2,32635,1073725440,14480,34,65728,65700,6,6,4,1460,130937,1,16778209,380000,33580,0,65700,1448,0,0,2571735994,63
i,1723569238.548267,172.16.1.2,5101,172.16.3.2,32635,1073725440,14480,34,65728,65700,6,6,4,1460,130937,1,16778208,380000,33580,0,65700,1448,0,0,2571735994,63
i,1723569238.568360,172.16.1.2,5101,172.16.3.2,32635,1073725440,14480,34,65728,65700,6,6,4,1460,130937,1,16778208,380000,33580,0,65700,0,0,0,2571735994,63
o,1723569238.568386,172.16.1.2,5101,172.16.3.2,32635,1073725440,14480,34,65728,65700,6,6,4,1460,130937,1,16778209,380000,33580,0,65700,1448,0,0,2571735994,63
i,1723569238.568534,172.16.1.2,5101,172.16.3.2,32635,1073725440,14480,34,65728,65700,6,6,4,1460,130937,1,16778208,380000,33580,0,65700,0,0,0,2571735994,63
i,1723569238.599342,172.16.1.2,5102,172.16.5.2,64481,1073725440,14480,34,65728,65728,6,6,4,1460,124687,1,16778208,410000,33580,0,65700,0,0,0,2069447833,63
i,1723569238.608123,172.16.1.2,5102,172.16.5.2,64481,1073725440,14480,34,65728,65728,6,6,4,1460,124687,1,16778208,410000,33580,0,65700,0,0,0,2069447833,63
o,1723569238.608145,172.16.1.2,5102,172.16.5.2,64481,1073725440,14480,34,65728,65728,6,6,4,1460,124687,1,16778209,410000,33580,0,65700,1448,0,0,2069447833,63
o,1723569238.608162,172.16.1.2,5101,172.16.3.2,32635,1073725440,14480,34,65728,65700,6,6,4,1460,130937,1,16778209,380000,33580,0,65700,0,0,0,2571735994,63
i,1723569238.617999,172.16.1.2,5101,172.16.3.2,32635,1073725440,14480,34,65728,65700,6,6,4,1460,130937,1,16778208,380000,33580,0,65700,0,0,0,2571735994,63
i,1723569238.622340,172.16.1.2,5101,172.16.3.2,32635,1073725440,14480,34,65728,65700,6,6,4,1460,130937,1,16778208,380000,33580,0,65700,0,0,0,2571735994,63
o,1723569238.622359,172.16.1.2,5101,172.16.3.2,32635,1073725440,14480,34,65728,65700,6,6,4,1460,130937,1,16778209,380000,33580,0,65700,1448,0,0,2571735994,63
i,1723569238.651815,172.16.1.2,5101,172.16.3.2,32635,1073725440,14480,34,65728,65700,6,6,4,1460,130937,1,16778208,380000,33580,0,65700,0,0,0,2571735994,63
o,1723569238.688799,172.16.1.2,5101,172.16.3.2,32635,1073725440,14480,34,65728,65700,6,6,4,1460,130937,1,16778209,380000,33580,0,65700,0,0,0,2571735994,63
i,1723569238.730259,172.16.1.2,5102,172.16.5.2,64481,1073725440,14480,34,65728,65728,6,6,4,1460,124687,1,16778208,410000,33580,0,65700,0,0,0,2069447833,63
i,1723569238.752172,172.16.1.2,5102,172.16.5.2,64481,1073725440,14480,34,65728,65728,6,6,4,1460,124687,1,16778208,410000,33580,0,65700,0,0,0,2069447833,63
o,1723569238.752242,172.16.1.2,5102,172.16.5.2,64481,1073725440,14480,34,65728,65728,6,6,4,1460,124687,1,16778209,410000,33580,0,65700,1448,0,0,2069447833,63
i,1723569238.782961,172.16.1.2,5102,172.16.5.2,64481,1073725440,14480,34,65728,65728,6,6,4,1460,124687,1,16778208,410000,33580,0,65700,0,0,0,2069447833,63
i,1723569238.790448,172.16.1.2,5101,172.16.3.2,32635,1073725440,14480,34,65728,65700,6,6,4,1460,130937,1,16778208,380000,33580,0,65700,0,0,0,2571735994,63
i,1723569238.801651,172.16.1.2,5102,172.16.5.2,64481,1073725440,14480,34,65728,65728,6,6,4,1460,124687,1,16778208,410000,33580,0,65700,0,0,0,2069447833,63
o,1723569238.801718,172.16.1.2,5102,172.16.5.2,64481,1073725440,14480,34,65728,65728,6,6,4,1460,124687,1,16778209,410000,33580,0,65700,1448,0,0,2069447833,63
i,1723569238.808242,172.16.1.2,5101,172.16.3.2,32635,1073725440,14480,34,65728,65700,6,6,4,1460,130937,1,16778208,380000,33580,0,65700,0,0,0,2571735994,63
o,1723569238.808264,172.16.1.2,5101,172.16.3.2,32635,1073725440,14480,34,65728,65700,6,6,4,1460,130937,1,16778209,380000,33580,0,65700,1448,0,0,2571735994,63
i,1723569238.826780,172.16.1.2,5102,172.16.5.2,64481,1073725440,14480,34,65728,65728,6,6,4,1460,124687,1,16778208,410000,33580,0,65700,0,0,0,2069447833,63
i,1723569238.857291,172.16.1.2,5101,172.16.3.2,32635,1073725440,14480,34,65728,65700,6,6,4,1460,130937,1,16778208,380000,33580,0,65700,0,0,0,2571735994,63
o,1723569238.858796,172.16.1.2,5102,172.16.5.2,64481,1073725440,14480,34,65728,65728,6,6,4,1460,124687,1,16778209,410000,33580,0,65700,0,0,0,2069447833,63
i,1723569238.879378,172.16.1.2,5101,172.16.3.2,32635,1073725440,14480,34,65728,65700,6,6,4,1460,130937,1,16778208,380000,33580,0,65700,0,0,0,2571735994,63
o,1723569238.879405,172.16.1.2,5101,172.16.3.2,32635,1073725440,14480,34,65728,65700,6,6,4,1460,130937,1,16778209,380000,33580,0,65700,1448,0,0,2571735994,63
i,1723569238.887592,172.16.1.2,5101,172.16.3.2,32635,1073725440,14480,34,65728,65700,6,6,4,1460,130937,1,16778208,380000,33580,0,65700,0,0,0,2571735994,63
o,1723569238.920723,172.16.1.2,5101,172.16.3.2,32635,1073725440,14480,34,65728,65700,6,6,4,1460,130937,1,16778209,380000,33580,0,65700,0,0,0,2571735994,63
i,1723569238.934040,172.16.1.2,5102,172.16.5.2,64481,1073725440,14480,34,65728,65728,6,6,4,1460,124687,1,16778208,410000,33580,0,65700,0,0,0,2069447833,63
i,1723569238.934129,172.16.1.2,5102,172.16.5.2,64481,1073725440,14480,34,65728,65728,6,6,4,1460,124687,1,16778208,410000,33580,0,65700,1448,0,0,2069447833,63
o,1723569238.934167,172.16.1.2,5102,172.16.5.2,64481,1073725440,14480,34,65728,65728,6,6,4,1460,124687,1,16778209,410000,33580,0,65700,2896,0,0,2069447833,63
i,1723569238.943977,172.16.1.2,5101,172.16.3.2,32635,1073725440,14480,34,65728,65700,6,6,4,1460,130937,1,16778208,380000,33580,0,65700,0,0,0,2571735994,63
i,1723569238.964996,172.16.1.2,5101,172.16.3.2,32635,1073725440,14480,34,65728,65700,6,6,4,1460,130937,1,16778208,380000,33580,0,65700,0,0,0,2571735994,63
o,1723569238.965060,172.16.1.2,5101,172.16.3.2,32635,1073725440,14480,34,65728,65700,6,6,4,1460,130937,1,16778209,380000,33580,0,65700,1448,0,0,2571735994,63
i,1723569238.965175,172.16.1.2,5101,172.16.3.2,32635,1073725440,14480,34,65728,65700,6,6,4,1460,130937,1,16778208,380000,33580,0,65700,1448,0,0,2571735994,63
i,1723569238.969204,172.16.1.2,5101,172.16.3.2,32635,1073725440,14480,34,65728,65700,6,6,4,1460,130937,1,16778208,380000,33580,0,65700,0,0,0,2571735994,63
o,1723569238.969230,172.16.1.2,5101,172.16.3.2,32635,1073725440,14480,34,65728,65700,6,6,4,1460,130937,1,16778209,380000,33580,0,65700,1448,0,0,2571735994,63
i,1723569239.010237,172.16.1.2,5101,172.16.3.2,32635,1073725440,14480,34,65728,65700,6,6,4,1460,130937,1,16778208,380000,33580,0,65700,0,0,0,2571735994,63
i,1723569239.026778,172.16.1.2,5101,172.16.3.2,32635,1073725440,14480,34,65728,65700,6,6,4,1460,130937,1,16778208,380000,33580,0,65700,0,0,0,2571735994,63
o,1723569239.026801,172.16.1.2,5101,172.16.3.2,32635,1073725440,14480,34,65728,65700,6,6,4,1460,130937,1,16778209,380000,33580,0,65700,1448,0,0,2571735994,63
i,1723569239.101418,172.16.1.2,5101,172.16.3.2,32635,1073725440,14480,34,65728,65700,6,6,4,1460,130937,1,16778208,380000,33580,0,65700,0,0,0,2571735994,63
i,1723569239.108933,172.16.1.2,5102,172.16.5.2,64481,1073725440,14480,34,65728,65728,6,6,4,1460,124687,1,16778208,410000,33580,0,65700,0,0,0,2069447833,63
i,1723569239.117646,172.16.1.2,5102,172.16.5.2,64481,1073725440,14480,34,65728,65728,6,6,4,1460,124687,1,16778208,410000,33580,0,65700,0,0,0,2069447833,63
