enable_time_secs=1718741627	enable_time_usecs=429272	siftrver=1.3.0	sysname=FreeBSD	sysver=1400097	ipmode=4
o,1718741627.429479,10.0.2.15,22,10.0.2.2,61147,1073725440,17858,1026,65535,65700,0,0,4,1460,312,0,16777220,240000,33580,44,65700,0,0,0,722556018,63
o,1718741627.429667,10.0.2.15,22,10.0.2.2,61147,1073725440,17858,1026,65535,65700,0,0,4,1460,312,0,16809988,240000,33580,80,65700,0,44,0,722556018,63
i,1718741627.430545,10.0.2.15,22,10.0.2.2,61147,1073725440,17858,1026,65535,65700,0,0,4,1460,312,0,16809988,240000,33580,80,65700,0,80,0,722556018,63
i,1718741627.430562,10.0.2.15,22,10.0.2.2,61147,1073725440,17902,1026,65535,65700,0,0,4,1460,312,0,4,240000,33580,36,65700,0,36,0,722556018,63
o,1718741627.430677,10.0.2.15,22,10.0.2.2,61147,1073725440,17938,1026,65535,65700,0,0,4,1460,312,0,16777220,240000,33580,36,65700,0,0,0,722556018,63
i,1718741627.431391,10.0.2.15,22,10.0.2.2,61147,1073725440,17938,1026,65535,65700,0,0,4,1460,312,0,16809988,240000,33580,36,65700,0,36,0,722556018,63
o,1718741627.431704,10.0.2.15,22,10.0.2.2,61147,1073725440,17974,1026,65535,65700,0,0,4,1460,312,0,16777220,240000,33580,36,65700,0,0,0,722556018,63
i,1718741627.432765,10.0.2.15,22,10.0.2.2,61147,1073725440,17974,1026,65535,65700,0,0,4,1460,312,0,16809988,240000,33580,36,65700,0,36,0,722556018,63
o,1718741627.433011,10.0.2.15,22,10.0.2.2,61147,1073725440,18010,1026,65535,65700,0,0,4,1460,312,0,16777220,240000,33580,140,65700,0,0,0,722556018,63
i,1718741627.433858,10.0.2.15,22,10.0.2.2,61147,1073725440,18010,1026,65535,65700,0,0,4,1460,312,0,16809988,240000,33580,140,65700,0,140,0,722556018,63
i,1718741627.433862,10.0.2.15,22,10.0.2.2,61147,1073725440,18150,1026,65535,65700,0,0,4,1460,312,0,4,240000,33580,0,65700,0,0,0,722556018,63
i,1718741627.433866,10.0.2.15,22,10.0.2.2,61147,1073725440,18150,1026,65535,65700,0,0,4,1460,312,0,4,240000,33580,0,65700,96,0,0,722556018,63
o,1718741627.433872,10.0.2.15,22,10.0.2.2,61147,1073725440,18150,1026,65535,65604,0,0,5,1460,312,0,5,240000,33580,0,65700,96,0,0,722556018,63
o,1718741627.435368,10.0.2.15,22,10.0.2.2,61147,1073725440,18150,1026,65535,65604,0,0,8,1460,312,0,4,240000,33580,0,65700,0,0,0,722556018,63
i,1718741627.437543,10.0.2.15,22,10.0.2.2,61147,1073725440,18150,1026,65535,65604,0,0,8,1460,312,0,20,240000,33580,0,65700,0,1,0,722556018,63
i,1718741629.513378,10.0.2.15,22,10.0.2.2,61151,1073725440,14600,0,65535,65700,0,0,4,1460,312,0,16777216,270000,33580,0,65700,0,0,0,2204444036,63
o,1718741629.523297,10.0.2.15,22,10.0.2.2,61151,1073725440,14600,1026,65535,65700,0,0,4,1460,312,0,16777216,270000,33580,38,65700,41,0,0,2204444036,63
i,1718741629.524268,10.0.2.15,22,10.0.2.2,61151,1073725440,14600,1026,65535,65700,0,0,4,1460,312,0,16809984,270000,33580,38,65700,41,38,0,2204444036,63
i,1718741629.524654,10.0.2.15,22,10.0.2.2,61151,1073725440,14638,1026,65535,65700,0,0,4,1460,312,0,0,240000,33580,0,65700,0,0,0,2204444036,63
i,1718741629.524657,10.0.2.15,22,10.0.2.2,61151,1073725440,14638,1026,65535,65700,0,0,4,1460,312,0,0,240000,33580,0,65700,1460,0,0,2204444036,63
o,1718741629.524661,10.0.2.15,22,10.0.2.2,61151,1073725440,14638,1026,65535,65700,0,0,4,1460,312,0,1,240000,33580,0,65700,1504,0,0,2204444036,63
o,1718741629.525603,10.0.2.15,22,10.0.2.2,61151,1073725440,14638,1026,65535,65700,0,0,4,1460,312,0,16777216,240000,33580,1080,65700,1504,0,0,2204444036,63
i,1718741629.526618,10.0.2.15,22,10.0.2.2,61151,1073725440,14638,1026,65535,65700,0,0,4,1460,312,0,16809984,240000,33580,1080,65700,1504,1080,0,2204444036,63
i,1718741629.527790,10.0.2.15,22,10.0.2.2,61151,1073725440,15718,1026,65535,65700,0,0,4,1460,312,0,0,240000,33580,0,65700,0,0,0,2204444036,63
o,1718741629.530473,10.0.2.15,22,10.0.2.2,61151,1073725440,15718,1026,65535,65700,0,0,4,1460,312,0,16777216,240000,33580,548,65700,0,0,0,2204444036,63
i,1718741629.531399,10.0.2.15,22,10.0.2.2,61151,1073725440,15718,1026,65535,65700,0,0,4,1460,312,0,16809984,240000,33580,548,65700,0,548,0,2204444036,63
i,1718741629.536503,10.0.2.15,22,10.0.2.2,61151,1073725440,16266,1026,65535,65700,0,0,4,1460,312,0,0,240000,33580,0,65700,0,0,0,2204444036,63
i,1718741629.536509,10.0.2.15,22,10.0.2.2,61151,1073725440,16266,1026,65535,65700,0,0,4,1460,312,0,0,240000,33580,0,65700,16,0,0,2204444036,63
o,1718741629.536512,10.0.2.15,22,10.0.2.2,61151,1073725440,16266,1026,65535,65700,0,0,4,1460,312,0,1,240000,33580,0,65700,60,0,0,2204444036,63
o,1718741629.537682,10.0.2.15,22,10.0.2.2,61151,1073725440,16266,1026,65535,65700,0,0,4,1460,312,0,16777216,240000,33580,44,65700,0,0,0,2204444036,63
i,1718741629.538625,10.0.2.15,22,10.0.2.2,61151,1073725440,16266,1026,65535,65700,0,0,4,1460,312,0,16809984,240000,33580,44,65700,0,44,0,2204444036,63
i,1718741629.538651,10.0.2.15,22,10.0.2.2,61151,1073725440,16310,1026,65535,65700,0,0,4,1460,312,0,0,240000,33580,0,65700,0,0,0,2204444036,63
o,1718741629.540026,10.0.2.15,22,10.0.2.2,61151,1073725440,16310,1026,65535,65700,0,0,4,1460,312,0,16777216,240000,33580,68,65700,0,0,0,2204444036,63
i,1718741629.540874,10.0.2.15,22,10.0.2.2,61151,1073725440,16310,1026,65535,65700,0,0,4,1460,312,0,16809984,240000,33580,68,65700,0,68,0,2204444036,63
i,1718741629.540879,10.0.2.15,22,10.0.2.2,61151,1073725440,16378,1026,65535,65700,0,0,4,1460,312,0,0,240000,33580,0,65700,0,0,0,2204444036,63
o,1718741629.541208,10.0.2.15,22,10.0.2.2,61151,1073725440,16378,1026,65535,65700,0,0,4,1460,312,0,16777216,240000,33580,332,65700,0,0,0,2204444036,63
i,1718741629.541891,10.0.2.15,22,10.0.2.2,61151,1073725440,16378,1026,65535,65700,0,0,4,1460,312,0,16809984,240000,33580,332,65700,0,332,0,2204444036,63
i,1718741629.543428,10.0.2.15,22,10.0.2.2,61151,1073725440,16710,1026,65535,65700,0,0,4,1460,312,0,0,240000,33580,0,65700,0,0,0,2204444036,63
o,1718741629.560720,10.0.2.15,22,10.0.2.2,61151,1073725440,16710,1026,65535,65700,0,0,4,1460,312,0,16777216,240000,33580,28,65700,0,0,0,2204444036,63
i,1718741629.561484,10.0.2.15,22,10.0.2.2,61151,1073725440,16710,1026,65535,65700,0,0,4,1460,312,0,16809984,240000,33580,28,65700,0,28,0,2204444036,63
i,1718741629.561837,10.0.2.15,22,10.0.2.2,61151,1073725440,16738,1026,65535,65700,0,0,4,1460,312,0,0,240000,33580,0,65700,0,0,0,2204444036,63
o,1718741629.563147,10.0.2.15,22,10.0.2.2,61151,1073725440,16738,1026,65535,65700,0,0,4,1460,312,0,16777216,240000,33580,768,65700,112,0,0,2204444036,63
i,1718741629.564042,10.0.2.15,22,10.0.2.2,61151,1073725440,16738,1026,65535,65700,0,0,4,1460,312,0,16809984,240000,33580,768,65700,112,768,0,2204444036,63
o,1718741629.564128,10.0.2.15,22,10.0.2.2,61151,1073725440,17506,1026,65535,65700,0,0,4,1460,312,0,16777216,240000,33580,140,65700,112,0,0,2204444036,63
i,1718741629.564866,10.0.2.15,22,10.0.2.2,61151,1073725440,17506,1026,65535,65700,0,0,4,1460,312,0,16809984,240000,33580,140,65700,112,140,0,2204444036,63
o,1718741629.565166,10.0.2.15,22,10.0.2.2,61151,1073725440,17646,1026,65535,65700,0,0,4,1460,312,0,16777216,240000,33580,44,65700,0,0,0,2204444036,63
i,1718741629.566253,10.0.2.15,22,10.0.2.2,61151,1073725440,17646,1026,65535,65700,0,0,4,1460,312,0,16809984,240000,33580,44,65700,0,44,0,2204444036,63
i,1718741629.566297,10.0.2.15,22,10.0.2.2,61151,1073725440,17690,1026,65535,65700,0,0,4,1460,312,0,0,230000,33580,0,65700,0,0,0,2204444036,63
o,1718741629.567272,10.0.2.15,22,10.0.2.2,61151,1073725440,17690,1026,65535,65700,0,0,4,1460,312,0,16777220,230000,33580,72,65700,0,0,0,2204444036,63
i,1718741629.567968,10.0.2.15,22,10.0.2.2,61151,1073725440,17690,1026,65535,65700,0,0,4,1460,312,0,16809988,230000,33580,72,65700,0,72,0,2204444036,63
o,1718741629.571566,10.0.2.15,22,10.0.2.2,61151,1073725440,17762,1026,65535,65700,0,0,4,1460,312,0,16777220,230000,33580,104,65700,0,0,0,2204444036,63
i,1718741629.572185,10.0.2.15,22,10.0.2.2,61151,1073725440,17762,1026,65535,65700,0,0,4,1460,312,0,16809988,230000,33580,104,65700,0,104,0,2204444036,63
o,1718741629.576855,10.0.2.15,22,10.0.2.2,61151,1073725440,17866,1026,65535,65700,0,0,4,1460,312,0,16777220,230000,33580,72,65700,0,0,0,2204444036,63
i,1718741629.578006,10.0.2.15,22,10.0.2.2,61151,1073725440,17866,1026,65535,65700,0,0,4,1460,312,0,16809988,230000,33580,72,65700,0,72,0,2204444036,63
i,1718741629.578010,10.0.2.15,22,10.0.2.2,61151,1073725440,17938,1026,65535,65700,0,0,4,1460,312,0,4,230000,33580,0,65700,0,0,0,2204444036,63
i,1718741629.578012,10.0.2.15,22,10.0.2.2,61151,1073725440,17938,1026,65535,65700,0,0,4,1460,312,0,4,230000,33580,0,65700,36,0,0,2204444036,63
o,1718741629.578013,10.0.2.15,22,10.0.2.2,61151,1073725440,17938,1026,65535,65700,0,0,4,1460,312,0,5,230000,33580,0,65700,96,0,0,2204444036,63
i,1718741629.578089,10.0.2.15,22,10.0.2.2,61151,1073725440,17938,1026,65535,65700,0,0,4,1460,312,0,4,230000,33580,0,65700,96,0,0,2204444036,63
o,1718741629.578092,10.0.2.15,22,10.0.2.2,61151,1073725440,17938,1026,65535,65604,0,0,5,1460,312,0,7,230000,33580,0,65700,96,0,0,2204444036,63
o,1718741629.587870,10.0.2.15,22,10.0.2.2,61151,1073725440,17938,1026,65535,65604,0,0,8,1460,312,0,4,230000,33580,0,65700,0,0,0,2204444036,63
i,1718741629.588527,10.0.2.15,22,10.0.2.2,61151,1073725440,17938,1026,65535,65604,0,0,8,1460,312,0,67108884,230000,33580,0,65700,0,1,0,2204444036,63
i,1718741631.676125,10.0.2.15,22,10.0.2.2,61155,1073725440,14600,0,65535,65700,0,0,4,1460,312,0,16777216,270000,33580,0,65700,0,0,0,3761831626,63
o,1718741631.684642,10.0.2.15,22,10.0.2.2,61155,1073725440,14600,1026,65535,65700,0,0,4,1460,312,0,16777216,270000,33580,38,65700,41,0,0,3761831626,63
i,1718741631.685631,10.0.2.15,22,10.0.2.2,61155,1073725440,14600,1026,65535,65700,0,0,4,1460,312,0,16809984,270000,33580,38,65700,0,38,0,3761831626,63
i,1718741631.686284,10.0.2.15,22,10.0.2.2,61155,1073725440,14638,1026,65535,65700,0,0,4,1460,312,0,0,240000,33580,0,65700,0,0,0,3761831626,63
i,1718741631.686288,10.0.2.15,22,10.0.2.2,61155,1073725440,14638,1026,65535,65700,0,0,4,1460,312,0,0,240000,33580,0,65700,1460,0,0,3761831626,63
o,1718741631.686293,10.0.2.15,22,10.0.2.2,61155,1073725440,14638,1026,65535,65700,0,0,4,1460,312,0,1,240000,33580,0,65700,1504,0,0,3761831626,63
o,1718741631.687126,10.0.2.15,22,10.0.2.2,61155,1073725440,14638,1026,65535,65700,0,0,4,1460,312,0,16777216,240000,33580,1080,65700,1504,0,0,3761831626,63
i,1718741631.687933,10.0.2.15,22,10.0.2.2,61155,1073725440,14638,1026,65535,65700,0,0,4,1460,312,0,16809984,240000,33580,1080,65700,1504,1080,0,3761831626,63
i,1718741631.688978,10.0.2.15,22,10.0.2.2,61155,1073725440,15718,1026,65535,65700,0,0,4,1460,312,0,0,240000,33580,0,65700,0,0,0,3761831626,63
o,1718741631.691462,10.0.2.15,22,10.0.2.2,61155,1073725440,15718,1026,65535,65700,0,0,4,1460,312,0,16777216,240000,33580,548,65700,0,0,0,3761831626,63
i,1718741631.692103,10.0.2.15,22,10.0.2.2,61155,1073725440,15718,1026,65535,65700,0,0,4,1460,312,0,16809984,240000,33580,548,65700,0,548,0,3761831626,63
i,1718741631.696517,10.0.2.15,22,10.0.2.2,61155,1073725440,16266,1026,65535,65700,0,0,4,1460,312,0,0,240000,33580,0,65700,0,0,0,3761831626,63
i,1718741631.696521,10.0.2.15,22,10.0.2.2,61155,1073725440,16266,1026,65535,65700,0,0,4,1460,312,0,0,240000,33580,0,65700,16,0,0,3761831626,63
o,1718741631.696524,10.0.2.15,22,10.0.2.2,61155,1073725440,16266,1026,65535,65700,0,0,4,1460,312,0,1,240000,33580,0,65700,60,0,0,3761831626,63
o,1718741631.696759,10.0.2.15,22,10.0.2.2,61155,1073725440,16266,1026,65535,65700,0,0,4,1460,312,0,16777216,240000,33580,44,65700,0,0,0,3761831626,63
i,1718741631.699935,10.0.2.15,22,10.0.2.2,61155,1073725440,16266,1026,65535,65700,0,0,4,1460,312,0,16809984,240000,33580,44,65700,0,44,0,3761831626,63
i,1718741631.700548,10.0.2.15,22,10.0.2.2,61155,1073725440,16310,1026,65535,65700,0,0,4,1460,312,0,0,240000,33580,0,65700,0,0,0,3761831626,63
o,1718741631.701886,10.0.2.15,22,10.0.2.2,61155,1073725440,16310,1026,65535,65700,0,0,4,1460,312,0,16777216,240000,33580,68,65700,0,0,0,3761831626,63
i,1718741631.702540,10.0.2.15,22,10.0.2.2,61155,1073725440,16310,1026,65535,65700,0,0,4,1460,312,0,16809984,240000,33580,68,65700,0,68,0,3761831626,63
i,1718741631.703416,10.0.2.15,22,10.0.2.2,61155,1073725440,16378,1026,65535,65700,0,0,4,1460,312,0,0,240000,33580,0,65700,0,0,0,3761831626,63
o,1718741631.705063,10.0.2.15,22,10.0.2.2,61155,1073725440,16378,1026,65535,65700,0,0,4,1460,312,0,16777216,240000,33580,332,65700,0,0,0,3761831626,63
i,1718741631.706495,10.0.2.15,22,10.0.2.2,61155,1073725440,16378,1026,65535,65700,0,0,4,1460,312,0,16809984,240000,33580,332,65700,0,332,0,3761831626,63
i,1718741631.708670,10.0.2.15,22,10.0.2.2,61155,1073725440,16710,1026,65535,65700,0,0,4,1460,312,0,0,240000,33580,0,65700,0,0,0,3761831626,63
o,1718741631.723641,10.0.2.15,22,10.0.2.2,61155,1073725440,16710,1026,65535,65700,0,0,4,1460,312,0,16777216,240000,33580,28,65700,0,0,0,3761831626,63
i,1718741631.724229,10.0.2.15,22,10.0.2.2,61155,1073725440,16710,1026,65535,65700,0,0,4,1460,312,0,16809984,240000,33580,28,65700,0,28,0,3761831626,63
i,1718741631.724735,10.0.2.15,22,10.0.2.2,61155,1073725440,16738,1026,65535,65700,0,0,4,1460,312,0,0,240000,33580,0,65700,0,0,0,3761831626,63
o,1718741631.725525,10.0.2.15,22,10.0.2.2,61155,1073725440,16738,1026,65535,65700,0,0,4,1460,312,0,16777216,240000,33580,768,65700,112,0,0,3761831626,63
i,1718741631.726913,10.0.2.15,22,10.0.2.2,61155,1073725440,16738,1026,65535,65700,0,0,4,1460,312,0,16809984,240000,33580,768,65700,112,768,0,3761831626,63
o,1718741631.726999,10.0.2.15,22,10.0.2.2,61155,1073725440,17506,1026,65535,65700,0,0,4,1460,312,0,16777216,240000,33580,140,65700,112,0,0,3761831626,63
i,1718741631.727703,10.0.2.15,22,10.0.2.2,61155,1073725440,17506,1026,65535,65700,0,0,4,1460,312,0,16809984,240000,33580,140,65700,112,140,0,3761831626,63
o,1718741631.727893,10.0.2.15,22,10.0.2.2,61155,1073725440,17646,1026,65535,65700,0,0,4,1460,312,0,16777216,240000,33580,44,65700,0,0,0,3761831626,63
i,1718741631.728604,10.0.2.15,22,10.0.2.2,61155,1073725440,17646,1026,65535,65700,0,0,4,1460,312,0,16809984,240000,33580,44,65700,0,44,0,3761831626,63
i,1718741631.729147,10.0.2.15,22,10.0.2.2,61155,1073725440,17690,1026,65535,65700,0,0,4,1460,312,0,0,240000,33580,0,65700,0,0,0,3761831626,63
o,1718741631.730117,10.0.2.15,22,10.0.2.2,61155,1073725440,17690,1026,65535,65700,0,0,4,1460,312,0,16777220,240000,33580,72,65700,0,0,0,3761831626,63
i,1718741631.731001,10.0.2.15,22,10.0.2.2,61155,1073725440,17690,1026,65535,65700,0,0,4,1460,312,0,16809988,240000,33580,72,65700,0,72,0,3761831626,63
o,1718741631.735799,10.0.2.15,22,10.0.2.2,61155,1073725440,17762,1026,65535,65700,0,0,4,1460,312,0,16777220,240000,33580,60,65700,0,0,0,3761831626,63
disable_time_secs=1718741631	disable_time_usecs=746074	num_inbound_tcp_pkts=62	num_outbound_tcp_pkts=41	total_tcp_pkts=103	num_inbound_skipped_pkts_malloc=0	num_outbound_skipped_pkts_malloc=0	num_inbound_skipped_pkts_tcpcb=0	num_outbound_skipped_pkts_tcpcb=0	num_inbound_skipped_pkts_inpcb=4	num_outbound_skipped_pkts_inpcb=2	total_skipped_tcp_pkts=6	flow_list=10.0.2.15;22-10.0.2.2;61151,10.0.2.15;22-10.0.2.2;61147,10.0.2.15;22-10.0.2.2;61155,
enable_time_secs=1718741636	enable_time_usecs=891190	siftrver=1.3.0	sysname=FreeBSD	sysver=1400097	ipmode=4
o,1718741636.891218,10.0.2.15,22,10.0.2.2,60844,1073725440,17858,1026,65535,65700,0,0,4,1460,312,0,16777220,240000,33580,44,65700,0,0,0,3325685192,63
o,1718741636.891517,10.0.2.15,22,10.0.2.2,60844,1073725440,17858,1026,65535,65700,0,0,4,1460,312,0,16809988,240000,33580,80,65700,0,44,0,3325685192,63
i,1718741636.892228,10.0.2.15,22,10.0.2.2,60844,1073725440,17858,1026,65535,65700,0,0,4,1460,312,0,16809988,240000,33580,80,65700,0,80,0,3325685192,63
i,1718741636.892233,10.0.2.15,22,10.0.2.2,60844,1073725440,17902,1026,65535,65700,0,0,4,1460,312,0,4,240000,33580,36,65700,0,36,0,3325685192,63
o,1718741636.892302,10.0.2.15,22,10.0.2.2,60844,1073725440,17938,1026,65535,65700,0,0,4,1460,312,0,16777220,240000,33580,36,65700,0,0,0,3325685192,63
i,1718741636.892818,10.0.2.15,22,10.0.2.2,60844,1073725440,17938,1026,65535,65700,0,0,4,1460,312,0,16809988,240000,33580,36,65700,0,36,0,3325685192,63
o,1718741636.892922,10.0.2.15,22,10.0.2.2,60844,1073725440,17974,1026,65535,65700,0,0,4,1460,312,0,16777220,240000,33580,176,65700,0,0,0,3325685192,63
i,1718741636.893369,10.0.2.15,22,10.0.2.2,60844,1073725440,17974,1026,65535,65700,0,0,4,1460,312,0,16809988,240000,33580,176,65700,0,176,0,3325685192,63
i,1718741636.893797,10.0.2.15,22,10.0.2.2,60844,1073725440,18150,1026,65535,65700,0,0,4,1460,312,0,4,240000,33580,0,65700,0,0,0,3325685192,63
i,1718741636.893803,10.0.2.15,22,10.0.2.2,60844,1073725440,18150,1026,65535,65700,0,0,4,1460,312,0,4,240000,33580,0,65700,96,0,0,3325685192,63
o,1718741636.893810,10.0.2.15,22,10.0.2.2,60844,1073725440,18150,1026,65535,65604,0,0,5,1460,312,0,5,240000,33580,0,65700,96,0,0,3325685192,63
o,1718741636.894857,10.0.2.15,22,10.0.2.2,60844,1073725440,18150,1026,65535,65604,0,0,8,1460,312,0,4,240000,33580,0,65700,0,0,0,3325685192,63
i,1718741636.896723,10.0.2.15,22,10.0.2.2,60844,1073725440,18150,1026,65535,65604,0,0,8,1460,312,0,67108884,240000,33580,0,65700,0,1,0,3325685192,63
i,1718741638.979364,10.0.2.15,22,10.0.2.2,60824,1073725440,14600,0,65535,65700,0,0,4,1460,312,0,16777216,260000,33580,0,65700,0,0,0,1901989501,63
o,1718741638.987269,10.0.2.15,22,10.0.2.2,60824,1073725440,14600,1026,65535,65700,0,0,4,1460,312,0,16777216,260000,33580,38,65700,41,0,0,1901989501,63
i,1718741638.988107,10.0.2.15,22,10.0.2.2,60824,1073725440,14600,1026,65535,65700,0,0,4,1460,312,0,16809984,260000,33580,38,65700,41,38,0,1901989501,63
i,1718741638.988441,10.0.2.15,22,10.0.2.2,60824,1073725440,14638,1026,65535,65700,0,0,4,1460,312,0,0,230000,33580,0,65700,41,0,0,1901989501,63
i,1718741638.988443,10.0.2.15,22,10.0.2.2,60824,1073725440,14638,1026,65535,65700,0,0,4,1460,312,0,0,230000,33580,0,65700,1501,0,0,1901989501,63
o,1718741638.988446,10.0.2.15,22,10.0.2.2,60824,1073725440,14638,1026,65535,65700,0,0,4,1460,312,0,1,230000,33580,0,65700,1545,0,0,1901989501,63
o,1718741638.989296,10.0.2.15,22,10.0.2.2,60824,1073725440,14638,1026,65535,65700,0,0,4,1460,312,0,16777216,230000,33580,1080,65700,1504,0,0,1901989501,63
i,1718741638.989935,10.0.2.15,22,10.0.2.2,60824,1073725440,14638,1026,65535,65700,0,0,4,1460,312,0,16809984,230000,33580,1080,65700,1504,1080,0,1901989501,63
i,1718741638.992214,10.0.2.15,22,10.0.2.2,60824,1073725440,15718,1026,65535,65700,0,0,4,1460,312,0,0,230000,33580,0,65700,0,0,0,1901989501,63
o,1718741638.994506,10.0.2.15,22,10.0.2.2,60824,1073725440,15718,1026,65535,65700,0,0,4,1460,312,0,16777216,230000,33580,548,65700,0,0,0,1901989501,63
i,1718741638.995386,10.0.2.15,22,10.0.2.2,60824,1073725440,15718,1026,65535,65700,0,0,4,1460,312,0,16809984,230000,33580,548,65700,0,548,0,1901989501,63
i,1718741639.000494,10.0.2.15,22,10.0.2.2,60824,1073725440,16266,1026,65535,65700,0,0,4,1460,312,0,0,240000,33580,0,65700,0,0,0,1901989501,63
i,1718741639.000533,10.0.2.15,22,10.0.2.2,60824,1073725440,16266,1026,65535,65700,0,0,4,1460,312,0,0,240000,33580,0,65700,16,0,0,1901989501,63
o,1718741639.000549,10.0.2.15,22,10.0.2.2,60824,1073725440,16266,1026,65535,65700,0,0,4,1460,312,0,1,240000,33580,0,65700,60,0,0,1901989501,63
o,1718741639.001163,10.0.2.15,22,10.0.2.2,60824,1073725440,16266,1026,65535,65700,0,0,4,1460,312,0,16777216,240000,33580,44,65700,0,0,0,1901989501,63
i,1718741639.002189,10.0.2.15,22,10.0.2.2,60824,1073725440,16266,1026,65535,65700,0,0,4,1460,312,0,16809984,240000,33580,44,65700,0,44,0,1901989501,63
i,1718741639.002534,10.0.2.15,22,10.0.2.2,60824,1073725440,16310,1026,65535,65700,0,0,4,1460,312,0,0,240000,33580,0,65700,0,0,0,1901989501,63
o,1718741639.004738,10.0.2.15,22,10.0.2.2,60824,1073725440,16310,1026,65535,65700,0,0,4,1460,312,0,16777216,240000,33580,68,65700,0,0,0,1901989501,63
i,1718741639.005454,10.0.2.15,22,10.0.2.2,60824,1073725440,16310,1026,65535,65700,0,0,4,1460,312,0,16809984,240000,33580,68,65700,0,68,0,1901989501,63
i,1718741639.006032,10.0.2.15,22,10.0.2.2,60824,1073725440,16378,1026,65535,65700,0,0,4,1460,312,0,0,240000,33580,0,65700,0,0,0,1901989501,63
o,1718741639.006796,10.0.2.15,22,10.0.2.2,60824,1073725440,16378,1026,65535,65700,0,0,4,1460,312,0,16777216,240000,33580,332,65700,0,0,0,1901989501,63
i,1718741639.007562,10.0.2.15,22,10.0.2.2,60824,1073725440,16378,1026,65535,65700,0,0,4,1460,312,0,16809984,240000,33580,332,65700,0,332,0,1901989501,63
i,1718741639.009439,10.0.2.15,22,10.0.2.2,60824,1073725440,16710,1026,65535,65700,0,0,4,1460,312,0,0,240000,33580,0,65700,0,0,0,1901989501,63
o,1718741639.027226,10.0.2.15,22,10.0.2.2,60824,1073725440,16710,1026,65535,65700,0,0,4,1460,312,0,16777216,240000,33580,28,65700,0,0,0,1901989501,63
i,1718741639.027908,10.0.2.15,22,10.0.2.2,60824,1073725440,16710,1026,65535,65700,0,0,4,1460,312,0,16809984,240000,33580,28,65700,0,28,0,1901989501,63
i,1718741639.028353,10.0.2.15,22,10.0.2.2,60824,1073725440,16738,1026,65535,65700,0,0,4,1460,312,0,0,240000,33580,0,65700,0,0,0,1901989501,63
o,1718741639.029456,10.0.2.15,22,10.0.2.2,60824,1073725440,16738,1026,65535,65700,0,0,4,1460,312,0,16777216,240000,33580,768,65700,112,0,0,1901989501,63
i,1718741639.030184,10.0.2.15,22,10.0.2.2,60824,1073725440,16738,1026,65535,65700,0,0,4,1460,312,0,16809984,240000,33580,768,65700,112,768,0,1901989501,63
o,1718741639.030243,10.0.2.15,22,10.0.2.2,60824,1073725440,17506,1026,65535,65700,0,0,4,1460,312,0,16777216,240000,33580,140,65700,112,0,0,1901989501,63
i,1718741639.030957,10.0.2.15,22,10.0.2.2,60824,1073725440,17506,1026,65535,65700,0,0,4,1460,312,0,16809984,240000,33580,140,65700,112,140,0,1901989501,63
o,1718741639.031128,10.0.2.15,22,10.0.2.2,60824,1073725440,17646,1026,65535,65700,0,0,4,1460,312,0,16777216,240000,33580,44,65700,0,0,0,1901989501,63
i,1718741639.031997,10.0.2.15,22,10.0.2.2,60824,1073725440,17646,1026,65535,65700,0,0,4,1460,312,0,16809984,240000,33580,44,65700,0,44,0,1901989501,63
i,1718741639.032001,10.0.2.15,22,10.0.2.2,60824,1073725440,17690,1026,65535,65700,0,0,4,1460,312,0,0,240000,33580,0,65700,0,0,0,1901989501,63
o,1718741639.032318,10.0.2.15,22,10.0.2.2,60824,1073725440,17690,1026,65535,65700,0,0,4,1460,312,0,16777220,240000,33580,72,65700,0,0,0,1901989501,63
i,1718741639.032964,10.0.2.15,22,10.0.2.2,60824,1073725440,17690,1026,65535,65700,0,0,4,1460,312,0,16809988,240000,33580,72,65700,0,72,0,1901989501,63
o,1718741639.035676,10.0.2.15,22,10.0.2.2,60824,1073725440,17762,1026,65535,65700,0,0,4,1460,312,0,16777220,240000,33580,104,65700,0,0,0,1901989501,63
i,1718741639.040840,10.0.2.15,22,10.0.2.2,60824,1073725440,17762,1026,65535,65700,0,0,4,1460,312,0,16809988,240000,33580,104,65700,0,104,0,1901989501,63
o,1718741639.041513,10.0.2.15,22,10.0.2.2,60824,1073725440,17866,1026,65535,65700,0,0,4,1460,312,0,16777220,240000,33580,72,65700,0,0,0,1901989501,63
i,1718741639.042271,10.0.2.15,22,10.0.2.2,60824,1073725440,17866,1026,65535,65700,0,0,4,1460,312,0,16809988,240000,33580,72,65700,0,72,0,1901989501,63
i,1718741639.042275,10.0.2.15,22,10.0.2.2,60824,1073725440,17938,1026,65535,65700,0,0,4,1460,312,0,4,240000,33580,0,65700,0,0,0,1901989501,63
i,1718741639.042276,10.0.2.15,22,10.0.2.2,60824,1073725440,17938,1026,65535,65700,0,0,4,1460,312,0,4,240000,33580,0,65700,96,0,0,1901989501,63
o,1718741639.042279,10.0.2.15,22,10.0.2.2,60824,1073725440,17938,1026,65535,65604,0,0,5,1460,312,0,5,240000,33580,0,65700,96,0,0,1901989501,63
o,1718741639.047341,10.0.2.15,22,10.0.2.2,60824,1073725440,17938,1026,65535,65604,0,0,8,1460,312,0,4,240000,33580,0,65700,0,0,0,1901989501,63
i,1718741639.048015,10.0.2.15,22,10.0.2.2,60824,1073725440,17938,1026,65535,65604,0,0,8,1460,312,0,20,240000,33580,0,65700,0,1,0,1901989501,63
i,1718741641.131682,10.0.2.15,22,10.0.2.2,60846,1073725440,14600,0,65535,65700,0,0,4,1460,312,0,16777216,270000,33580,0,65700,0,0,0,2530283044,63
o,1718741641.139543,10.0.2.15,22,10.0.2.2,60846,1073725440,14600,1026,65535,65700,0,0,4,1460,312,0,16777216,270000,33580,38,65700,41,0,0,2530283044,63
i,1718741641.140527,10.0.2.15,22,10.0.2.2,60846,1073725440,14600,1026,65535,65700,0,0,4,1460,312,0,16809984,270000,33580,38,65700,41,38,0,2530283044,63
i,1718741641.140988,10.0.2.15,22,10.0.2.2,60846,1073725440,14638,1026,65535,65700,0,0,4,1460,312,0,0,230000,33580,0,65700,41,0,0,2530283044,63
i,1718741641.140992,10.0.2.15,22,10.0.2.2,60846,1073725440,14638,1026,65535,65700,0,0,4,1460,312,0,0,230000,33580,0,65700,1501,0,0,2530283044,63
o,1718741641.140996,10.0.2.15,22,10.0.2.2,60846,1073725440,14638,1026,65535,65700,0,0,4,1460,312,0,1,230000,33580,0,65700,1545,0,0,2530283044,63
o,1718741641.142316,10.0.2.15,22,10.0.2.2,60846,1073725440,14638,1026,65535,65700,0,0,4,1460,312,0,16777216,230000,33580,1080,65700,1504,0,0,2530283044,63
i,1718741641.143225,10.0.2.15,22,10.0.2.2,60846,1073725440,14638,1026,65535,65700,0,0,4,1460,312,0,16809984,230000,33580,1080,65700,1504,1080,0,2530283044,63
i,1718741641.146245,10.0.2.15,22,10.0.2.2,60846,1073725440,15718,1026,65535,65700,0,0,4,1460,312,0,0,240000,33580,0,65700,0,0,0,2530283044,63
o,1718741641.149620,10.0.2.15,22,10.0.2.2,60846,1073725440,15718,1026,65535,65700,0,0,4,1460,312,0,16777216,240000,33580,548,65700,0,0,0,2530283044,63
i,1718741641.150669,10.0.2.15,22,10.0.2.2,60846,1073725440,15718,1026,65535,65700,0,0,4,1460,312,0,16809984,240000,33580,548,65700,0,548,0,2530283044,63
i,1718741641.155773,10.0.2.15,22,10.0.2.2,60846,1073725440,16266,1026,65535,65700,0,0,4,1460,312,0,0,240000,33580,0,65700,0,0,0,2530283044,63
i,1718741641.155779,10.0.2.15,22,10.0.2.2,60846,1073725440,16266,1026,65535,65700,0,0,4,1460,312,0,0,240000,33580,0,65700,16,0,0,2530283044,63
o,1718741641.155785,10.0.2.15,22,10.0.2.2,60846,1073725440,16266,1026,65535,65700,0,0,4,1460,312,0,1,240000,33580,0,65700,60,0,0,2530283044,63
o,1718741641.156015,10.0.2.15,22,10.0.2.2,60846,1073725440,16266,1026,65535,65700,0,0,4,1460,312,0,16777216,240000,33580,44,65700,0,0,0,2530283044,63
i,1718741641.156966,10.0.2.15,22,10.0.2.2,60846,1073725440,16266,1026,65535,65700,0,0,4,1460,312,0,16809984,240000,33580,44,65700,0,44,0,2530283044,63
i,1718741641.156971,10.0.2.15,22,10.0.2.2,60846,1073725440,16310,1026,65535,65700,0,0,4,1460,312,0,0,240000,33580,0,65700,0,0,0,2530283044,63
o,1718741641.158019,10.0.2.15,22,10.0.2.2,60846,1073725440,16310,1026,65535,65700,0,0,4,1460,312,0,16777216,240000,33580,68,65700,0,0,0,2530283044,63
i,1718741641.158973,10.0.2.15,22,10.0.2.2,60846,1073725440,16310,1026,65535,65700,0,0,4,1460,312,0,16809984,240000,33580,68,65700,0,68,0,2530283044,63
i,1718741641.158977,10.0.2.15,22,10.0.2.2,60846,1073725440,16378,1026,65535,65700,0,0,4,1460,312,0,0,240000,33580,0,65700,0,0,0,2530283044,63
o,1718741641.159680,10.0.2.15,22,10.0.2.2,60846,1073725440,16378,1026,65535,65700,0,0,4,1460,312,0,16777216,240000,33580,332,65700,0,0,0,2530283044,63
i,1718741641.160451,10.0.2.15,22,10.0.2.2,60846,1073725440,16378,1026,65535,65700,0,0,4,1460,312,0,16809984,240000,33580,332,65700,0,332,0,2530283044,63
i,1718741641.161893,10.0.2.15,22,10.0.2.2,60846,1073725440,16710,1026,65535,65700,0,0,4,1460,312,0,0,240000,33580,0,65700,0,0,0,2530283044,63
o,1718741641.180774,10.0.2.15,22,10.0.2.2,60846,1073725440,16710,1026,65535,65700,0,0,4,1460,312,0,16777216,240000,33580,28,65700,0,0,0,2530283044,63
i,1718741641.182034,10.0.2.15,22,10.0.2.2,60846,1073725440,16710,1026,65535,65700,0,0,4,1460,312,0,16809984,240000,33580,28,65700,0,28,0,2530283044,63
i,1718741641.182824,10.0.2.15,22,10.0.2.2,60846,1073725440,16738,1026,65535,65700,0,0,4,1460,312,0,0,240000,33580,0,65700,0,0,0,2530283044,63
o,1718741641.183920,10.0.2.15,22,10.0.2.2,60846,1073725440,16738,1026,65535,65700,0,0,4,1460,312,0,16777216,240000,33580,768,65700,112,0,0,2530283044,63
i,1718741641.184761,10.0.2.15,22,10.0.2.2,60846,1073725440,16738,1026,65535,65700,0,0,4,1460,312,0,16809984,240000,33580,768,65700,112,768,0,2530283044,63
o,1718741641.184829,10.0.2.15,22,10.0.2.2,60846,1073725440,17506,1026,65535,65700,0,0,4,1460,312,0,16777216,240000,33580,140,65700,112,0,0,2530283044,63
i,1718741641.186021,10.0.2.15,22,10.0.2.2,60846,1073725440,17506,1026,65535,65700,0,0,4,1460,312,0,16809984,240000,33580,140,65700,112,140,0,2530283044,63
o,1718741641.186236,10.0.2.15,22,10.0.2.2,60846,1073725440,17646,1026,65535,65700,0,0,4,1460,312,0,16777216,240000,33580,44,65700,0,0,0,2530283044,63
i,1718741641.187207,10.0.2.15,22,10.0.2.2,60846,1073725440,17646,1026,65535,65700,0,0,4,1460,312,0,16809984,240000,33580,44,65700,0,44,0,2530283044,63
i,1718741641.187212,10.0.2.15,22,10.0.2.2,60846,1073725440,17690,1026,65535,65700,0,0,4,1460,312,0,0,240000,33580,0,65700,0,0,0,2530283044,63
o,1718741641.187562,10.0.2.15,22,10.0.2.2,60846,1073725440,17690,1026,65535,65700,0,0,4,1460,312,0,16777220,240000,33580,72,65700,0,0,0,2530283044,63
i,1718741641.188213,10.0.2.15,22,10.0.2.2,60846,1073725440,17690,1026,65535,65700,0,0,4,1460,312,0,16809988,240000,33580,72,65700,0,72,0,2530283044,63
disable_time_secs=1718741641	disable_time_usecs=196458	num_inbound_tcp_pkts=60	num_outbound_tcp_pkts=38	total_tcp_pkts=98	num_inbound_skipped_pkts_malloc=0	num_outbound_skipped_pkts_malloc=0	num_inbound_skipped_pkts_tcpcb=0	num_outbound_skipped_pkts_tcpcb=0	num_inbound_skipped_pkts_inpcb=4	num_outbound_skipped_pkts_inpcb=2	total_skipped_tcp_pkts=6	flow_list=10.0.2.15;22-10.0.2.2;60846,10.0.2.15;22-10.0.2.2;60824,10.0.2.15;22-10.0.2.2;60844,
enable_time_secs=1718741646	enable_time_usecs=335570	siftrver=1.3.0	sysname=FreeBSD	sysver=1400097	ipmode=4
o,1718741646.335605,10.0.2.15,22,10.0.2.2,60840,1073725440,17858,1026,65535,65700,0,0,4,1460,312,0,16777220,240000,33580,44,65700,0,0,0,1850580030,63
o,1718741646.335875,10.0.2.15,22,10.0.2.2,60840,1073725440,17858,1026,65535,65700,0,0,4,1460,312,0,16809988,240000,33580,80,65700,0,44,0,1850580030,63
i,1718741646.336561,10.0.2.15,22,10.0.2.2,60840,1073725440,17858,1026,65535,65700,0,0,4,1460,312,0,16809988,240000,33580,80,65700,0,80,0,1850580030,63
i,1718741646.336566,10.0.2.15,22,10.0.2.2,60840,1073725440,17902,1026,65535,65700,0,0,4,1460,312,0,4,240000,33580,36,65700,0,36,0,1850580030,63
o,1718741646.336677,10.0.2.15,22,10.0.2.2,60840,1073725440,17938,1026,65535,65700,0,0,4,1460,312,0,16777220,240000,33580,36,65700,0,0,0,1850580030,63
i,1718741646.337252,10.0.2.15,22,10.0.2.2,60840,1073725440,17938,1026,65535,65700,0,0,4,1460,312,0,16809988,240000,33580,36,65700,0,36,0,1850580030,63
o,1718741646.337513,10.0.2.15,22,10.0.2.2,60840,1073725440,17974,1026,65535,65700,0,0,4,1460,312,0,16777220,240000,33580,176,65700,0,0,0,1850580030,63
i,1718741646.339035,10.0.2.15,22,10.0.2.2,60840,1073725440,17974,1026,65535,65700,0,0,4,1460,312,0,16809988,240000,33580,176,65700,0,176,0,1850580030,63
i,1718741646.339048,10.0.2.15,22,10.0.2.2,60840,1073725440,18150,1026,65535,65700,0,0,4,1460,312,0,4,240000,33580,0,65700,0,0,0,1850580030,63
i,1718741646.339052,10.0.2.15,22,10.0.2.2,60840,1073725440,18150,1026,65535,65700,0,0,4,1460,312,0,4,240000,33580,0,65700,96,0,0,1850580030,63
o,1718741646.339059,10.0.2.15,22,10.0.2.2,60840,1073725440,18150,1026,65535,65604,0,0,5,1460,312,0,5,240000,33580,0,65700,96,0,0,1850580030,63
o,1718741646.340557,10.0.2.15,22,10.0.2.2,60840,1073725440,18150,1026,65535,65604,0,0,8,1460,312,0,4,240000,33580,0,65700,0,0,0,1850580030,63
i,1718741646.341678,10.0.2.15,22,10.0.2.2,60840,1073725440,18150,1026,65535,65604,0,0,8,1460,312,0,20,240000,33580,0,65700,0,1,0,1850580030,63
i,1718741648.423894,10.0.2.15,22,10.0.2.2,60874,1073725440,14600,0,65535,65700,0,0,4,1460,312,0,16777216,270000,33580,0,65700,0,0,0,2972497651,63
o,1718741648.435207,10.0.2.15,22,10.0.2.2,60874,1073725440,14600,1026,65535,65700,0,0,4,1460,312,0,16777216,270000,33580,38,65700,41,0,0,2972497651,63
i,1718741648.437875,10.0.2.15,22,10.0.2.2,60874,1073725440,14600,1026,65535,65700,0,0,4,1460,312,0,16809984,270000,33580,38,65700,41,38,0,2972497651,63
i,1718741648.437984,10.0.2.15,22,10.0.2.2,60874,1073725440,14638,1026,65535,65700,0,0,4,1460,312,0,0,240000,33580,0,65700,41,0,0,2972497651,63
i,1718741648.437989,10.0.2.15,22,10.0.2.2,60874,1073725440,14638,1026,65535,65700,0,0,4,1460,312,0,0,240000,33580,0,65700,1501,0,0,2972497651,63
o,1718741648.437994,10.0.2.15,22,10.0.2.2,60874,1073725440,14638,1026,65535,65700,0,0,4,1460,312,0,1,240000,33580,0,65700,1545,0,0,2972497651,63
o,1718741648.439426,10.0.2.15,22,10.0.2.2,60874,1073725440,14638,1026,65535,65700,0,0,4,1460,312,0,16777216,240000,33580,1080,65700,1504,0,0,2972497651,63
i,1718741648.440389,10.0.2.15,22,10.0.2.2,60874,1073725440,14638,1026,65535,65700,0,0,4,1460,312,0,16809984,240000,33580,1080,65700,1504,1080,0,2972497651,63
i,1718741648.442198,10.0.2.15,22,10.0.2.2,60874,1073725440,15718,1026,65535,65700,0,0,4,1460,312,0,0,240000,33580,0,65700,0,0,0,2972497651,63
o,1718741648.445740,10.0.2.15,22,10.0.2.2,60874,1073725440,15718,1026,65535,65700,0,0,4,1460,312,0,16777216,240000,33580,548,65700,0,0,0,2972497651,63
i,1718741648.446680,10.0.2.15,22,10.0.2.2,60874,1073725440,15718,1026,65535,65700,0,0,4,1460,312,0,16809984,240000,33580,548,65700,0,548,0,2972497651,63
i,1718741648.451320,10.0.2.15,22,10.0.2.2,60874,1073725440,16266,1026,65535,65700,0,0,4,1460,312,0,0,240000,33580,0,65700,0,0,0,2972497651,63
i,1718741648.451324,10.0.2.15,22,10.0.2.2,60874,1073725440,16266,1026,65535,65700,0,0,4,1460,312,0,0,240000,33580,0,65700,16,0,0,2972497651,63
o,1718741648.451327,10.0.2.15,22,10.0.2.2,60874,1073725440,16266,1026,65535,65700,0,0,4,1460,312,0,1,240000,33580,0,65700,60,0,0,2972497651,63
o,1718741648.451524,10.0.2.15,22,10.0.2.2,60874,1073725440,16266,1026,65535,65700,0,0,4,1460,312,0,16777216,240000,33580,44,65700,0,0,0,2972497651,63
i,1718741648.452225,10.0.2.15,22,10.0.2.2,60874,1073725440,16266,1026,65535,65700,0,0,4,1460,312,0,16809984,240000,33580,44,65700,0,44,0,2972497651,63
i,1718741648.452249,10.0.2.15,22,10.0.2.2,60874,1073725440,16310,1026,65535,65700,0,0,4,1460,312,0,0,240000,33580,0,65700,0,0,0,2972497651,63
o,1718741648.453702,10.0.2.15,22,10.0.2.2,60874,1073725440,16310,1026,65535,65700,0,0,4,1460,312,0,16777216,240000,33580,68,65700,0,0,0,2972497651,63
i,1718741648.454604,10.0.2.15,22,10.0.2.2,60874,1073725440,16310,1026,65535,65700,0,0,4,1460,312,0,16809984,240000,33580,68,65700,0,68,0,2972497651,63
i,1718741648.454607,10.0.2.15,22,10.0.2.2,60874,1073725440,16378,1026,65535,65700,0,0,4,1460,312,0,0,240000,33580,0,65700,0,0,0,2972497651,63
o,1718741648.454995,10.0.2.15,22,10.0.2.2,60874,1073725440,16378,1026,65535,65700,0,0,4,1460,312,0,16777216,240000,33580,332,65700,0,0,0,2972497651,63
i,1718741648.455863,10.0.2.15,22,10.0.2.2,60874,1073725440,16378,1026,65535,65700,0,0,4,1460,312,0,16809984,240000,33580,332,65700,0,332,0,2972497651,63
i,1718741648.457548,10.0.2.15,22,10.0.2.2,60874,1073725440,16710,1026,65535,65700,0,0,4,1460,312,0,0,240000,33580,0,65700,0,0,0,2972497651,63
o,1718741648.475319,10.0.2.15,22,10.0.2.2,60874,1073725440,16710,1026,65535,65700,0,0,4,1460,312,0,16777216,240000,33580,28,65700,0,0,0,2972497651,63
i,1718741648.476889,10.0.2.15,22,10.0.2.2,60874,1073725440,16710,1026,65535,65700,0,0,4,1460,312,0,16809984,240000,33580,28,65700,0,28,0,2972497651,63
i,1718741648.477372,10.0.2.15,22,10.0.2.2,60874,1073725440,16738,1026,65535,65700,0,0,4,1460,312,0,0,240000,33580,0,65700,0,0,0,2972497651,63
o,1718741648.478622,10.0.2.15,22,10.0.2.2,60874,1073725440,16738,1026,65535,65700,0,0,4,1460,312,0,16777216,240000,33580,768,65700,112,0,0,2972497651,63
i,1718741648.479528,10.0.2.15,22,10.0.2.2,60874,1073725440,16738,1026,65535,65700,0,0,4,1460,312,0,16809984,240000,33580,768,65700,112,768,0,2972497651,63
o,1718741648.479729,10.0.2.15,22,10.0.2.2,60874,1073725440,17506,1026,65535,65700,0,0,4,1460,312,0,16777216,240000,33580,140,65700,112,0,0,2972497651,63
i,1718741648.480602,10.0.2.15,22,10.0.2.2,60874,1073725440,17506,1026,65535,65700,0,0,4,1460,312,0,16809984,240000,33580,140,65700,112,140,0,2972497651,63
o,1718741648.481110,10.0.2.15,22,10.0.2.2,60874,1073725440,17646,1026,65535,65700,0,0,4,1460,312,0,16777216,240000,33580,44,65700,0,0,0,2972497651,63
i,1718741648.482538,10.0.2.15,22,10.0.2.2,60874,1073725440,17646,1026,65535,65700,0,0,4,1460,312,0,16809984,240000,33580,44,65700,0,44,0,2972497651,63
i,1718741648.482574,10.0.2.15,22,10.0.2.2,60874,1073725440,17690,1026,65535,65700,0,0,4,1460,312,0,0,240000,33580,0,65700,0,0,0,2972497651,63
o,1718741648.483960,10.0.2.15,22,10.0.2.2,60874,1073725440,17690,1026,65535,65700,0,0,4,1460,312,0,16777220,240000,33580,72,65700,0,0,0,2972497651,63
i,1718741648.484809,10.0.2.15,22,10.0.2.2,60874,1073725440,17690,1026,65535,65700,0,0,4,1460,312,0,16809988,240000,33580,72,65700,0,72,0,2972497651,63
o,1718741648.487196,10.0.2.15,22,10.0.2.2,60874,1073725440,17762,1026,65535,65700,0,0,4,1460,312,0,16777220,240000,33580,104,65700,0,0,0,2972497651,63
i,1718741648.487711,10.0.2.15,22,10.0.2.2,60874,1073725440,17762,1026,65535,65700,0,0,4,1460,312,0,16809988,240000,33580,104,65700,0,104,0,2972497651,63
o,1718741648.494807,10.0.2.15,22,10.0.2.2,60874,1073725440,17866,1026,65535,65700,0,0,4,1460,312,0,16777220,240000,33580,72,65700,0,0,0,2972497651,63
i,1718741648.495926,10.0.2.15,22,10.0.2.2,60874,1073725440,17866,1026,65535,65700,0,0,4,1460,312,0,16809988,240000,33580,72,65700,0,72,0,2972497651,63
i,1718741648.495931,10.0.2.15,22,10.0.2.2,60874,1073725440,17938,1026,65535,65700,0,0,4,1460,312,0,4,240000,33580,0,65700,0,0,0,2972497651,63
i,1718741648.495933,10.0.2.15,22,10.0.2.2,60874,1073725440,17938,1026,65535,65700,0,0,4,1460,312,0,4,240000,33580,0,65700,96,0,0,2972497651,63
o,1718741648.495936,10.0.2.15,22,10.0.2.2,60874,1073725440,17938,1026,65535,65604,0,0,5,1460,312,0,5,240000,33580,0,65700,96,0,0,2972497651,63
o,1718741648.501981,10.0.2.15,22,10.0.2.2,60874,1073725440,17938,1026,65535,65604,0,0,8,1460,312,0,4,240000,33580,0,65700,0,0,0,2972497651,63
i,1718741648.502719,10.0.2.15,22,10.0.2.2,60874,1073725440,17938,1026,65535,65604,0,0,8,1460,312,0,20,240000,33580,0,65700,0,1,0,2972497651,63
i,1718741650.587798,10.0.2.15,22,10.0.2.2,60886,1073725440,14600,0,65535,65700,0,0,4,1460,312,0,16777216,270000,33580,0,65700,0,0,0,662692739,63
o,1718741650.601583,10.0.2.15,22,10.0.2.2,60886,1073725440,14600,1026,65535,65700,0,0,4,1460,312,0,16777216,270000,33580,38,65700,41,0,0,662692739,63
i,1718741650.602487,10.0.2.15,22,10.0.2.2,60886,1073725440,14600,1026,65535,65700,0,0,4,1460,312,0,16809984,270000,33580,38,65700,41,38,0,662692739,63
i,1718741650.603263,10.0.2.15,22,10.0.2.2,60886,1073725440,14638,1026,65535,65700,0,0,4,1460,312,0,0,240000,33580,0,65700,0,0,0,662692739,63
i,1718741650.603267,10.0.2.15,22,10.0.2.2,60886,1073725440,14638,1026,65535,65700,0,0,4,1460,312,0,0,240000,33580,0,65700,1460,0,0,662692739,63
o,1718741650.603271,10.0.2.15,22,10.0.2.2,60886,1073725440,14638,1026,65535,65700,0,0,4,1460,312,0,1,240000,33580,0,65700,1504,0,0,662692739,63
o,1718741650.603984,10.0.2.15,22,10.0.2.2,60886,1073725440,14638,1026,65535,65700,0,0,4,1460,312,0,16777216,240000,33580,1080,65700,1504,0,0,662692739,63
i,1718741650.604701,10.0.2.15,22,10.0.2.2,60886,1073725440,14638,1026,65535,65700,0,0,4,1460,312,0,16809984,240000,33580,1080,65700,1504,1080,0,662692739,63
i,1718741650.605993,10.0.2.15,22,10.0.2.2,60886,1073725440,15718,1026,65535,65700,0,0,4,1460,312,0,0,240000,33580,0,65700,0,0,0,662692739,63
o,1718741650.608527,10.0.2.15,22,10.0.2.2,60886,1073725440,15718,1026,65535,65700,0,0,4,1460,312,0,16777216,240000,33580,548,65700,0,0,0,662692739,63
i,1718741650.609330,10.0.2.15,22,10.0.2.2,60886,1073725440,15718,1026,65535,65700,0,0,4,1460,312,0,16809984,240000,33580,548,65700,0,548,0,662692739,63
i,1718741650.613836,10.0.2.15,22,10.0.2.2,60886,1073725440,16266,1026,65535,65700,0,0,4,1460,312,0,0,240000,33580,0,65700,0,0,0,662692739,63
i,1718741650.613839,10.0.2.15,22,10.0.2.2,60886,1073725440,16266,1026,65535,65700,0,0,4,1460,312,0,0,240000,33580,0,65700,16,0,0,662692739,63
o,1718741650.613842,10.0.2.15,22,10.0.2.2,60886,1073725440,16266,1026,65535,65700,0,0,4,1460,312,0,1,240000,33580,0,65700,60,0,0,662692739,63
o,1718741650.614000,10.0.2.15,22,10.0.2.2,60886,1073725440,16266,1026,65535,65700,0,0,4,1460,312,0,16777216,240000,33580,44,65700,0,0,0,662692739,63
i,1718741650.615189,10.0.2.15,22,10.0.2.2,60886,1073725440,16266,1026,65535,65700,0,0,4,1460,312,0,16809984,240000,33580,44,65700,0,44,0,662692739,63
i,1718741650.615193,10.0.2.15,22,10.0.2.2,60886,1073725440,16310,1026,65535,65700,0,0,4,1460,312,0,0,240000,33580,0,65700,0,0,0,662692739,63
o,1718741650.617050,10.0.2.15,22,10.0.2.2,60886,1073725440,16310,1026,65535,65700,0,0,4,1460,312,0,16777216,240000,33580,68,65700,0,0,0,662692739,63
i,1718741650.617883,10.0.2.15,22,10.0.2.2,60886,1073725440,16310,1026,65535,65700,0,0,4,1460,312,0,16809984,240000,33580,68,65700,0,68,0,662692739,63
i,1718741650.620216,10.0.2.15,22,10.0.2.2,60886,1073725440,16378,1026,65535,65700,0,0,4,1460,312,0,0,240000,33580,0,65700,0,0,0,662692739,63
o,1718741650.620516,10.0.2.15,22,10.0.2.2,60886,1073725440,16378,1026,65535,65700,0,0,4,1460,312,0,16777216,240000,33580,332,65700,0,0,0,662692739,63
i,1718741650.621279,10.0.2.15,22,10.0.2.2,60886,1073725440,16378,1026,65535,65700,0,0,4,1460,312,0,16809984,240000,33580,332,65700,0,332,0,662692739,63
i,1718741650.622538,10.0.2.15,22,10.0.2.2,60886,1073725440,16710,1026,65535,65700,0,0,4,1460,312,0,0,240000,33580,0,65700,0,0,0,662692739,63
o,1718741650.639306,10.0.2.15,22,10.0.2.2,60886,1073725440,16710,1026,65535,65700,0,0,4,1460,312,0,16777216,240000,33580,28,65700,0,0,0,662692739,63
i,1718741650.640187,10.0.2.15,22,10.0.2.2,60886,1073725440,16710,1026,65535,65700,0,0,4,1460,312,0,16809984,240000,33580,28,65700,0,28,0,662692739,63
i,1718741650.640771,10.0.2.15,22,10.0.2.2,60886,1073725440,16738,1026,65535,65700,0,0,4,1460,312,0,0,240000,33580,0,65700,0,0,0,662692739,63
o,1718741650.642133,10.0.2.15,22,10.0.2.2,60886,1073725440,16738,1026,65535,65700,0,0,4,1460,312,0,16777216,240000,33580,768,65700,112,0,0,662692739,63
i,1718741650.642806,10.0.2.15,22,10.0.2.2,60886,1073725440,16738,1026,65535,65700,0,0,4,1460,312,0,16809984,240000,33580,768,65700,112,768,0,662692739,63
o,1718741650.642869,10.0.2.15,22,10.0.2.2,60886,1073725440,17506,1026,65535,65700,0,0,4,1460,312,0,16777216,240000,33580,140,65700,112,0,0,662692739,63
i,1718741650.643523,10.0.2.15,22,10.0.2.2,60886,1073725440,17506,1026,65535,65700,0,0,4,1460,312,0,16809984,240000,33580,140,65700,112,140,0,662692739,63
o,1718741650.643823,10.0.2.15,22,10.0.2.2,60886,1073725440,17646,1026,65535,65700,0,0,4,1460,312,0,16777216,240000,33580,44,65700,0,0,0,662692739,63
i,1718741650.644835,10.0.2.15,22,10.0.2.2,60886,1073725440,17646,1026,65535,65700,0,0,4,1460,312,0,16809984,240000,33580,44,65700,0,44,0,662692739,63
i,1718741650.644839,10.0.2.15,22,10.0.2.2,60886,1073725440,17690,1026,65535,65700,0,0,4,1460,312,0,0,240000,33580,0,65700,0,0,0,662692739,63
o,1718741650.648983,10.0.2.15,22,10.0.2.2,60886,1073725440,17690,1026,65535,65700,0,0,4,1460,312,0,16777220,240000,33580,72,65700,0,0,0,662692739,63
i,1718741650.649683,10.0.2.15,22,10.0.2.2,60886,1073725440,17690,1026,65535,65700,0,0,4,1460,312,0,16809988,240000,33580,72,65700,0,72,0,662692739,63
o,1718741650.652469,10.0.2.15,22,10.0.2.2,60886,1073725440,17762,1026,65535,65700,0,0,4,1460,312,0,16777220,240000,33580,60,65700,0,0,0,662692739,63
o,1718741650.652590,10.0.2.15,22,10.0.2.2,60886,1073725440,17762,1026,65535,65700,0,0,4,1460,312,0,16809988,240000,33580,96,65700,0,60,0,662692739,63
i,1718741650.653287,10.0.2.15,22,10.0.2.2,60886,1073725440,17762,1026,65535,65700,0,0,4,1460,312,0,16809988,240000,33580,96,65700,0,96,0,662692739,63
i,1718741650.653292,10.0.2.15,22,10.0.2.2,60886,1073725440,17822,1026,65535,65700,0,0,4,1460,312,0,4,240000,33580,36,65700,0,36,0,662692739,63
disable_time_secs=1718741650	disable_time_usecs=655876	num_inbound_tcp_pkts=62	num_outbound_tcp_pkts=40	total_tcp_pkts=102	num_inbound_skipped_pkts_malloc=0	num_outbound_skipped_pkts_malloc=0	num_inbound_skipped_pkts_tcpcb=0	num_outbound_skipped_pkts_tcpcb=0	num_inbound_skipped_pkts_inpcb=4	num_outbound_skipped_pkts_inpcb=2	total_skipped_tcp_pkts=6	flow_list=10.0.2.15;22-10.0.2.2;60840,10.0.2.15;22-10.0.2.2;60874,10.0.2.15;22-10.0.2.2;60886,
enable_time_secs=1718741655	enable_time_usecs=778801	siftrver=1.3.0	sysname=FreeBSD	sysver=1400097	ipmode=4
o,1718741655.778841,10.0.2.15,22,10.0.2.2,60836,1073725440,17858,1026,65535,65700,0,0,4,1460,312,0,16777220,240000,33580,44,65700,0,0,0,302241075,63
o,1718741655.778974,10.0.2.15,22,10.0.2.2,60836,1073725440,17858,1026,65535,65700,0,0,4,1460,312,0,16809988,240000,33580,80,65700,0,44,0,302241075,63
i,1718741655.780050,10.0.2.15,22,10.0.2.2,60836,1073725440,17858,1026,65535,65700,0,0,4,1460,312,0,16809988,240000,33580,80,65700,0,80,0,302241075,63
i,1718741655.780056,10.0.2.15,22,10.0.2.2,60836,1073725440,17902,1026,65535,65700,0,0,4,1460,312,0,4,240000,33580,36,65700,0,36,0,302241075,63
o,1718741655.780186,10.0.2.15,22,10.0.2.2,60836,1073725440,17938,1026,65535,65700,0,0,4,1460,312,0,16777220,240000,33580,36,65700,0,0,0,302241075,63
i,1718741655.780811,10.0.2.15,22,10.0.2.2,60836,1073725440,17938,1026,65535,65700,0,0,4,1460,312,0,16809988,240000,33580,36,65700,0,36,0,302241075,63
o,1718741655.781126,10.0.2.15,22,10.0.2.2,60836,1073725440,17974,1026,65535,65700,0,0,4,1460,312,0,16777220,240000,33580,36,65700,0,0,0,302241075,63
i,1718741655.781942,10.0.2.15,22,10.0.2.2,60836,1073725440,17974,1026,65535,65700,0,0,4,1460,312,0,16809988,240000,33580,36,65700,0,36,0,302241075,63
o,1718741655.782098,10.0.2.15,22,10.0.2.2,60836,1073725440,18010,1026,65535,65700,0,0,4,1460,312,0,16777220,240000,33580,140,65700,0,0,0,302241075,63
i,1718741655.782770,10.0.2.15,22,10.0.2.2,60836,1073725440,18010,1026,65535,65700,0,0,4,1460,312,0,16809988,240000,33580,140,65700,0,140,0,302241075,63
i,1718741655.782773,10.0.2.15,22,10.0.2.2,60836,1073725440,18150,1026,65535,65700,0,0,4,1460,312,0,4,240000,33580,0,65700,0,0,0,302241075,63
i,1718741655.783134,10.0.2.15,22,10.0.2.2,60836,1073725440,18150,1026,65535,65700,0,0,4,1460,312,0,4,240000,33580,0,65700,96,0,0,302241075,63
o,1718741655.783138,10.0.2.15,22,10.0.2.2,60836,1073725440,18150,1026,65535,65604,0,0,5,1460,312,0,5,240000,33580,0,65700,96,0,0,302241075,63
o,1718741655.783700,10.0.2.15,22,10.0.2.2,60836,1073725440,18150,1026,65535,65604,0,0,8,1460,312,0,4,240000,33580,0,65700,0,0,0,302241075,63
i,1718741655.784383,10.0.2.15,22,10.0.2.2,60836,1073725440,18150,1026,65535,65604,0,0,8,1460,312,0,20,240000,33580,0,65700,0,1,0,302241075,63
i,1718741657.863284,10.0.2.15,22,10.0.2.2,60854,1073725440,14600,0,65535,65700,0,0,4,1460,312,0,16777216,270000,33580,0,65700,0,0,0,2834705058,63
o,1718741657.871096,10.0.2.15,22,10.0.2.2,60854,1073725440,14600,1026,65535,65700,0,0,4,1460,312,0,16777216,270000,33580,38,65700,41,0,0,2834705058,63
i,1718741657.871661,10.0.2.15,22,10.0.2.2,60854,1073725440,14600,1026,65535,65700,0,0,4,1460,312,0,16809984,270000,33580,38,65700,41,38,0,2834705058,63
i,1718741657.872533,10.0.2.15,22,10.0.2.2,60854,1073725440,14638,1026,65535,65700,0,0,4,1460,312,0,0,240000,33580,0,65700,0,0,0,2834705058,63
i,1718741657.872539,10.0.2.15,22,10.0.2.2,60854,1073725440,14638,1026,65535,65700,0,0,4,1460,312,0,0,240000,33580,0,65700,1460,0,0,2834705058,63
o,1718741657.872546,10.0.2.15,22,10.0.2.2,60854,1073725440,14638,1026,65535,65700,0,0,4,1460,312,0,1,240000,33580,0,65700,1504,0,0,2834705058,63
o,1718741657.873521,10.0.2.15,22,10.0.2.2,60854,1073725440,14638,1026,65535,65700,0,0,4,1460,312,0,16777216,240000,33580,1080,65700,1504,0,0,2834705058,63
i,1718741657.873974,10.0.2.15,22,10.0.2.2,60854,1073725440,14638,1026,65535,65700,0,0,4,1460,312,0,16809984,240000,33580,1080,65700,1504,1080,0,2834705058,63
i,1718741657.876303,10.0.2.15,22,10.0.2.2,60854,1073725440,15718,1026,65535,65700,0,0,4,1460,312,0,0,240000,33580,0,65700,0,0,0,2834705058,63
o,1718741657.879152,10.0.2.15,22,10.0.2.2,60854,1073725440,15718,1026,65535,65700,0,0,4,1460,312,0,16777216,240000,33580,548,65700,0,0,0,2834705058,63
i,1718741657.880777,10.0.2.15,22,10.0.2.2,60854,1073725440,15718,1026,65535,65700,0,0,4,1460,312,0,16809984,240000,33580,548,65700,0,548,0,2834705058,63
i,1718741657.885942,10.0.2.15,22,10.0.2.2,60854,1073725440,16266,1026,65535,65700,0,0,4,1460,312,0,0,240000,33580,0,65700,0,0,0,2834705058,63
i,1718741657.888097,10.0.2.15,22,10.0.2.2,60854,1073725440,16266,1026,65535,65700,0,0,4,1460,312,0,0,240000,33580,0,65700,0,0,0,2834705058,63
o,1718741657.888120,10.0.2.15,22,10.0.2.2,60854,1073725440,16266,1026,65535,65700,0,0,4,1460,312,0,1,240000,33580,0,65700,44,0,0,2834705058,63
o,1718741657.888374,10.0.2.15,22,10.0.2.2,60854,1073725440,16266,1026,65535,65700,0,0,4,1460,312,0,16777216,240000,33580,44,65700,0,0,0,2834705058,63
i,1718741657.889128,10.0.2.15,22,10.0.2.2,60854,1073725440,16266,1026,65535,65700,0,0,4,1460,312,0,16809984,240000,33580,44,65700,0,44,0,2834705058,63
i,1718741657.889547,10.0.2.15,22,10.0.2.2,60854,1073725440,16310,1026,65535,65700,0,0,4,1460,312,0,0,240000,33580,0,65700,0,0,0,2834705058,63
o,1718741657.891062,10.0.2.15,22,10.0.2.2,60854,1073725440,16310,1026,65535,65700,0,0,4,1460,312,0,16777216,240000,33580,68,65700,0,0,0,2834705058,63
i,1718741657.892661,10.0.2.15,22,10.0.2.2,60854,1073725440,16310,1026,65535,65700,0,0,4,1460,312,0,16809984,240000,33580,68,65700,0,68,0,2834705058,63
i,1718741657.892683,10.0.2.15,22,10.0.2.2,60854,1073725440,16378,1026,65535,65700,0,0,4,1460,312,0,0,240000,33580,0,65700,0,0,0,2834705058,63
o,1718741657.894133,10.0.2.15,22,10.0.2.2,60854,1073725440,16378,1026,65535,65700,0,0,4,1460,312,0,16777216,240000,33580,332,65700,0,0,0,2834705058,63
i,1718741657.895151,10.0.2.15,22,10.0.2.2,60854,1073725440,16378,1026,65535,65700,0,0,4,1460,312,0,16809984,240000,33580,332,65700,0,332,0,2834705058,63
i,1718741657.897083,10.0.2.15,22,10.0.2.2,60854,1073725440,16710,1026,65535,65700,0,0,4,1460,312,0,0,240000,33580,0,65700,0,0,0,2834705058,63
o,1718741657.913088,10.0.2.15,22,10.0.2.2,60854,1073725440,16710,1026,65535,65700,0,0,4,1460,312,0,16777216,240000,33580,28,65700,0,0,0,2834705058,63
i,1718741657.913823,10.0.2.15,22,10.0.2.2,60854,1073725440,16710,1026,65535,65700,0,0,4,1460,312,0,16809984,240000,33580,28,65700,0,28,0,2834705058,63
i,1718741657.914371,10.0.2.15,22,10.0.2.2,60854,1073725440,16738,1026,65535,65700,0,0,4,1460,312,0,0,240000,33580,0,65700,0,0,0,2834705058,63
o,1718741657.918011,10.0.2.15,22,10.0.2.2,60854,1073725440,16738,1026,65535,65700,0,0,4,1460,312,0,16777216,240000,33580,768,65700,112,0,0,2834705058,63
i,1718741657.919197,10.0.2.15,22,10.0.2.2,60854,1073725440,16738,1026,65535,65700,0,0,4,1460,312,0,16809984,240000,33580,768,65700,112,768,0,2834705058,63
o,1718741657.919359,10.0.2.15,22,10.0.2.2,60854,1073725440,17506,1026,65535,65700,0,0,4,1460,312,0,16777216,240000,33580,140,65700,112,0,0,2834705058,63
i,1718741657.920212,10.0.2.15,22,10.0.2.2,60854,1073725440,17506,1026,65535,65700,0,0,4,1460,312,0,16809984,240000,33580,140,65700,112,140,0,2834705058,63
o,1718741657.920610,10.0.2.15,22,10.0.2.2,60854,1073725440,17646,1026,65535,65700,0,0,4,1460,312,0,16777216,240000,33580,44,65700,0,0,0,2834705058,63
i,1718741657.921746,10.0.2.15,22,10.0.2.2,60854,1073725440,17646,1026,65535,65700,0,0,4,1460,312,0,16809984,240000,33580,44,65700,0,44,0,2834705058,63
i,1718741657.921750,10.0.2.15,22,10.0.2.2,60854,1073725440,17690,1026,65535,65700,0,0,4,1460,312,0,0,240000,33580,0,65700,0,0,0,2834705058,63
o,1718741657.922681,10.0.2.15,22,10.0.2.2,60854,1073725440,17690,1026,65535,65700,0,0,4,1460,312,0,16777220,240000,33580,72,65700,0,0,0,2834705058,63
i,1718741657.923736,10.0.2.15,22,10.0.2.2,60854,1073725440,17690,1026,65535,65700,0,0,4,1460,312,0,16809988,240000,33580,72,65700,0,72,0,2834705058,63
o,1718741657.926357,10.0.2.15,22,10.0.2.2,60854,1073725440,17762,1026,65535,65700,0,0,4,1460,312,0,16777220,240000,33580,104,65700,0,0,0,2834705058,63
i,1718741657.926836,10.0.2.15,22,10.0.2.2,60854,1073725440,17762,1026,65535,65700,0,0,4,1460,312,0,16809988,240000,33580,104,65700,0,104,0,2834705058,63
o,1718741657.930763,10.0.2.15,22,10.0.2.2,60854,1073725440,17866,1026,65535,65700,0,0,4,1460,312,0,16777220,240000,33580,72,65700,0,0,0,2834705058,63
i,1718741657.931703,10.0.2.15,22,10.0.2.2,60854,1073725440,17866,1026,65535,65700,0,0,4,1460,312,0,16809988,240000,33580,72,65700,0,72,0,2834705058,63
i,1718741657.931707,10.0.2.15,22,10.0.2.2,60854,1073725440,17938,1026,65535,65700,0,0,4,1460,312,0,4,240000,33580,0,65700,0,0,0,2834705058,63
i,1718741657.931709,10.0.2.15,22,10.0.2.2,60854,1073725440,17938,1026,65535,65700,0,0,4,1460,312,0,4,240000,33580,0,65700,96,0,0,2834705058,63
o,1718741657.931712,10.0.2.15,22,10.0.2.2,60854,1073725440,17938,1026,65535,65604,0,0,5,1460,312,0,5,240000,33580,0,65700,96,0,0,2834705058,63
o,1718741657.940966,10.0.2.15,22,10.0.2.2,60854,1073725440,17938,1026,65535,65604,0,0,8,1460,312,0,4,240000,33580,0,65700,0,0,0,2834705058,63
i,1718741657.942568,10.0.2.15,22,10.0.2.2,60854,1073725440,17938,1026,65535,65604,0,0,8,1460,312,0,67108884,240000,33580,0,65700,0,1,0,2834705058,63
i,1718741660.036474,10.0.2.15,22,10.0.2.2,60860,1073725440,14600,0,65535,65700,0,0,4,1460,312,0,16777216,270000,33580,0,65700,0,0,0,740618677,63
o,1718741660.053266,10.0.2.15,22,10.0.2.2,60860,1073725440,14600,1026,65535,65700,0,0,4,1460,312,0,16777216,270000,33580,38,65700,41,0,0,740618677,63
i,1718741660.054857,10.0.2.15,22,10.0.2.2,60860,1073725440,14600,1026,65535,65700,0,0,4,1460,312,0,16809984,270000,33580,38,65700,0,38,0,740618677,63
i,1718741660.056064,10.0.2.15,22,10.0.2.2,60860,1073725440,14638,1026,65535,65700,0,0,4,1460,312,0,0,240000,33580,0,65700,0,0,0,740618677,63
i,1718741660.056072,10.0.2.15,22,10.0.2.2,60860,1073725440,14638,1026,65535,65700,0,0,4,1460,312,0,0,240000,33580,0,65700,1460,0,0,740618677,63
o,1718741660.056081,10.0.2.15,22,10.0.2.2,60860,1073725440,14638,1026,65535,65700,0,0,4,1460,312,0,1,240000,33580,0,65700,1504,0,0,740618677,63
o,1718741660.059355,10.0.2.15,22,10.0.2.2,60860,1073725440,14638,1026,65535,65700,0,0,4,1460,312,0,16777216,240000,33580,1080,65700,1504,0,0,740618677,63
i,1718741660.060723,10.0.2.15,22,10.0.2.2,60860,1073725440,14638,1026,65535,65700,0,0,4,1460,312,0,16809984,240000,33580,1080,65700,1504,1080,0,740618677,63
i,1718741660.062525,10.0.2.15,22,10.0.2.2,60860,1073725440,15718,1026,65535,65700,0,0,4,1460,312,0,0,240000,33580,0,65700,0,0,0,740618677,63
o,1718741660.065077,10.0.2.15,22,10.0.2.2,60860,1073725440,15718,1026,65535,65700,0,0,4,1460,312,0,16777216,240000,33580,548,65700,0,0,0,740618677,63
i,1718741660.066344,10.0.2.15,22,10.0.2.2,60860,1073725440,15718,1026,65535,65700,0,0,4,1460,312,0,16809984,240000,33580,548,65700,0,548,0,740618677,63
i,1718741660.070837,10.0.2.15,22,10.0.2.2,60860,1073725440,16266,1026,65535,65700,0,0,4,1460,312,0,0,240000,33580,0,65700,0,0,0,740618677,63
i,1718741660.070845,10.0.2.15,22,10.0.2.2,60860,1073725440,16266,1026,65535,65700,0,0,4,1460,312,0,0,240000,33580,0,65700,16,0,0,740618677,63
o,1718741660.070854,10.0.2.15,22,10.0.2.2,60860,1073725440,16266,1026,65535,65700,0,0,4,1460,312,0,1,240000,33580,0,65700,60,0,0,740618677,63
o,1718741660.071189,10.0.2.15,22,10.0.2.2,60860,1073725440,16266,1026,65535,65700,0,0,4,1460,312,0,16777216,240000,33580,44,65700,0,0,0,740618677,63
i,1718741660.072228,10.0.2.15,22,10.0.2.2,60860,1073725440,16266,1026,65535,65700,0,0,4,1460,312,0,16809984,240000,33580,44,65700,0,44,0,740618677,63
i,1718741660.072260,10.0.2.15,22,10.0.2.2,60860,1073725440,16310,1026,65535,65700,0,0,4,1460,312,0,0,240000,33580,0,65700,0,0,0,740618677,63
o,1718741660.075356,10.0.2.15,22,10.0.2.2,60860,1073725440,16310,1026,65535,65700,0,0,4,1460,312,0,16777216,240000,33580,68,65700,0,0,0,740618677,63
i,1718741660.076394,10.0.2.15,22,10.0.2.2,60860,1073725440,16310,1026,65535,65700,0,0,4,1460,312,0,16809984,240000,33580,68,65700,0,68,0,740618677,63
i,1718741660.076842,10.0.2.15,22,10.0.2.2,60860,1073725440,16378,1026,65535,65700,0,0,4,1460,312,0,0,240000,33580,0,65700,0,0,0,740618677,63
o,1718741660.077548,10.0.2.15,22,10.0.2.2,60860,1073725440,16378,1026,65535,65700,0,0,4,1460,312,0,16777216,240000,33580,332,65700,0,0,0,740618677,63
i,1718741660.078240,10.0.2.15,22,10.0.2.2,60860,1073725440,16378,1026,65535,65700,0,0,4,1460,312,0,16809984,240000,33580,332,65700,0,332,0,740618677,63
i,1718741660.079694,10.0.2.15,22,10.0.2.2,60860,1073725440,16710,1026,65535,65700,0,0,4,1460,312,0,0,240000,33580,0,65700,0,0,0,740618677,63
o,1718741660.096227,10.0.2.15,22,10.0.2.2,60860,1073725440,16710,1026,65535,65700,0,0,4,1460,312,0,16777216,240000,33580,28,65700,0,0,0,740618677,63
i,1718741660.097196,10.0.2.15,22,10.0.2.2,60860,1073725440,16710,1026,65535,65700,0,0,4,1460,312,0,16809984,240000,33580,28,65700,0,28,0,740618677,63
i,1718741660.097200,10.0.2.15,22,10.0.2.2,60860,1073725440,16738,1026,65535,65700,0,0,4,1460,312,0,0,240000,33580,0,65700,0,0,0,740618677,63
o,1718741660.098425,10.0.2.15,22,10.0.2.2,60860,1073725440,16738,1026,65535,65700,0,0,4,1460,312,0,16777216,240000,33580,768,65700,112,0,0,740618677,63
i,1718741660.099057,10.0.2.15,22,10.0.2.2,60860,1073725440,16738,1026,65535,65700,0,0,4,1460,312,0,16809984,240000,33580,768,65700,112,768,0,740618677,63
o,1718741660.099112,10.0.2.15,22,10.0.2.2,60860,1073725440,17506,1026,65535,65700,0,0,4,1460,312,0,16777216,240000,33580,140,65700,112,0,0,740618677,63
i,1718741660.099822,10.0.2.15,22,10.0.2.2,60860,1073725440,17506,1026,65535,65700,0,0,4,1460,312,0,16809984,240000,33580,140,65700,112,140,0,740618677,63
o,1718741660.099996,10.0.2.15,22,10.0.2.2,60860,1073725440,17646,1026,65535,65700,0,0,4,1460,312,0,16777216,240000,33580,44,65700,0,0,0,740618677,63
i,1718741660.100942,10.0.2.15,22,10.0.2.2,60860,1073725440,17646,1026,65535,65700,0,0,4,1460,312,0,16809984,240000,33580,44,65700,0,44,0,740618677,63
i,1718741660.100968,10.0.2.15,22,10.0.2.2,60860,1073725440,17690,1026,65535,65700,0,0,4,1460,312,0,0,240000,33580,0,65700,0,0,0,740618677,63
o,1718741660.101328,10.0.2.15,22,10.0.2.2,60860,1073725440,17690,1026,65535,65700,0,0,4,1460,312,0,16777220,240000,33580,72,65700,0,0,0,740618677,63
i,1718741660.102027,10.0.2.15,22,10.0.2.2,60860,1073725440,17690,1026,65535,65700,0,0,4,1460,312,0,16809988,240000,33580,72,65700,0,72,0,740618677,63
o,1718741660.107663,10.0.2.15,22,10.0.2.2,60860,1073725440,17762,1026,65535,65700,0,0,4,1460,312,0,16777220,240000,33580,60,65700,0,0,0,740618677,63
o,1718741660.107850,10.0.2.15,22,10.0.2.2,60860,1073725440,17762,1026,65535,65700,0,0,4,1460,312,0,16809988,240000,33580,96,65700,0,60,0,740618677,63
i,1718741660.108991,10.0.2.15,22,10.0.2.2,60860,1073725440,17762,1026,65535,65700,0,0,4,1460,312,0,16809988,240000,33580,96,65700,0,96,0,740618677,63
i,1718741660.109001,10.0.2.15,22,10.0.2.2,60860,1073725440,17822,1026,65535,65700,0,0,4,1460,312,0,4,240000,33580,36,65700,0,36,0,740618677,63
disable_time_secs=1718741660	disable_time_usecs=117077	num_inbound_tcp_pkts=63	num_outbound_tcp_pkts=41	total_tcp_pkts=104	num_inbound_skipped_pkts_malloc=0	num_outbound_skipped_pkts_malloc=0	num_inbound_skipped_pkts_tcpcb=0	num_outbound_skipped_pkts_tcpcb=0	num_inbound_skipped_pkts_inpcb=4	num_outbound_skipped_pkts_inpcb=2	total_skipped_tcp_pkts=6	flow_list=10.0.2.15;22-10.0.2.2;60854,10.0.2.15;22-10.0.2.2;60836,10.0.2.15;22-10.0.2.2;60860,
enable_time_secs=1718741665	enable_time_usecs=302294	siftrver=1.3.0	sysname=FreeBSD	sysver=1400097	ipmode=4
o,1718741665.302331,10.0.2.15,22,10.0.2.2,60823,1073725440,17858,1026,65535,65700,0,0,4,1460,312,0,16777220,240000,33580,44,65700,0,0,0,4230570820,63
o,1718741665.302444,10.0.2.15,22,10.0.2.2,60823,1073725440,17858,1026,65535,65700,0,0,4,1460,312,0,16809988,240000,33580,80,65700,0,44,0,4230570820,63
i,1718741665.303083,10.0.2.15,22,10.0.2.2,60823,1073725440,17858,1026,65535,65700,0,0,4,1460,312,0,16809988,240000,33580,80,65700,0,80,0,4230570820,63
i,1718741665.303432,10.0.2.15,22,10.0.2.2,60823,1073725440,17902,1026,65535,65700,0,0,4,1460,312,0,4,240000,33580,36,65700,0,36,0,4230570820,63
o,1718741665.303565,10.0.2.15,22,10.0.2.2,60823,1073725440,17938,1026,65535,65700,0,0,4,1460,312,0,16777220,240000,33580,36,65700,0,0,0,4230570820,63
i,1718741665.304168,10.0.2.15,22,10.0.2.2,60823,1073725440,17938,1026,65535,65700,0,0,4,1460,312,0,16809988,240000,33580,36,65700,0,36,0,4230570820,63
