enable_time_secs=1717751837	enable_time_usecs=407691	siftrver=1.3.0	sysname=FreeBSD	sysver=1400097	ipmode=4
o,1717751837.407809,10.0.2.15,22,10.0.2.2,53090,1073725440,17290,1026,65535,65700,0,0,4,1460,312,0,16777220,240000,33580,104,65700,0,0,0,1996375508,63
o,1717751837.407936,10.0.2.15,22,10.0.2.2,53090,1073725440,17290,1026,65535,65700,0,0,4,1460,312,0,16809988,240000,33580,172,65700,0,104,0,1996375508,63
i,1717751837.408535,10.0.2.15,22,10.0.2.2,53090,1073725440,17290,1026,65535,65700,0,0,4,1460,312,0,16809988,240000,33580,172,65700,0,172,0,1996375508,63
i,1717751837.408612,10.0.2.15,22,10.0.2.2,53090,1073725440,17394,1026,65535,65700,0,0,4,1460,312,0,4,240000,33580,68,65700,0,68,0,1996375508,63
o,1717751837.408674,10.0.2.15,22,10.0.2.2,53090,1073725440,17462,1026,65535,65700,0,0,4,1460,312,0,16777220,240000,33580,72,65700,0,0,0,1996375508,63
i,1717751837.409045,10.0.2.15,22,10.0.2.2,53090,1073725440,17462,1026,65535,65700,0,0,4,1460,312,0,16809988,240000,33580,72,65700,0,72,0,1996375508,63
i,1717751837.409777,10.0.2.15,22,10.0.2.2,53090,1073725440,17534,1026,65535,65700,0,0,4,1460,312,0,4,240000,33580,0,65700,0,0,0,1996375508,63
i,1717751837.409781,10.0.2.15,22,10.0.2.2,53090,1073725440,17534,1026,65535,65700,0,0,4,1460,312,0,4,240000,33580,0,65700,36,0,0,1996375508,63
o,1717751837.409783,10.0.2.15,22,10.0.2.2,53090,1073725440,17534,1026,65535,65700,0,0,4,1460,312,0,5,240000,33580,0,65700,96,0,0,1996375508,63
i,1717751837.410119,10.0.2.15,22,10.0.2.2,53090,1073725440,17534,1026,65535,65700,0,0,4,1460,312,0,4,240000,33580,0,65700,96,0,0,1996375508,63
o,1717751837.410124,10.0.2.15,22,10.0.2.2,53090,1073725440,17534,1026,65535,65604,0,0,5,1460,312,0,7,240000,33580,0,65700,96,0,0,1996375508,63
o,1717751837.410564,10.0.2.15,22,10.0.2.2,53090,1073725440,17534,1026,65535,65604,0,0,8,1460,312,0,4,240000,33580,0,65700,0,0,0,1996375508,63
i,1717751837.411380,10.0.2.15,22,10.0.2.2,53090,1073725440,17534,1026,65535,65604,0,0,8,1460,312,0,20,240000,33580,0,65700,0,1,0,1996375508,63
i,1717751839.483644,10.0.2.15,22,10.0.2.2,53094,1073725440,14600,0,65535,65700,0,0,4,1460,312,0,16777216,270000,33580,0,65700,0,0,0,3733599266,63
o,1717751839.490835,10.0.2.15,22,10.0.2.2,53094,1073725440,14600,1026,65535,65700,0,0,4,1460,312,0,16777216,270000,33580,38,65700,41,0,0,3733599266,63
i,1717751839.491553,10.0.2.15,22,10.0.2.2,53094,1073725440,14600,1026,65535,65700,0,0,4,1460,312,0,16809984,270000,33580,38,65700,41,38,0,3733599266,63
i,1717751839.492243,10.0.2.15,22,10.0.2.2,53094,1073725440,14638,1026,65535,65700,0,0,4,1460,312,0,0,240000,33580,0,65700,0,0,0,3733599266,63
i,1717751839.492246,10.0.2.15,22,10.0.2.2,53094,1073725440,14638,1026,65535,65700,0,0,4,1460,312,0,0,240000,33580,0,65700,1460,0,0,3733599266,63
o,1717751839.492249,10.0.2.15,22,10.0.2.2,53094,1073725440,14638,1026,65535,65700,0,0,4,1460,312,0,1,240000,33580,0,65700,1536,0,0,3733599266,63
o,1717751839.492794,10.0.2.15,22,10.0.2.2,53094,1073725440,14638,1026,65535,65700,0,0,4,1460,312,0,16777216,240000,33580,1080,65700,1536,0,0,3733599266,63
i,1717751839.493500,10.0.2.15,22,10.0.2.2,53094,1073725440,14638,1026,65535,65700,0,0,4,1460,312,0,16809984,240000,33580,1080,65700,1536,1080,0,3733599266,63
i,1717751839.495393,10.0.2.15,22,10.0.2.2,53094,1073725440,15718,1026,65535,65700,0,0,4,1460,312,0,0,240000,33580,0,65700,0,0,0,3733599266,63
o,1717751839.497678,10.0.2.15,22,10.0.2.2,53094,1073725440,15718,1026,65535,65700,0,0,4,1460,312,0,16777216,240000,33580,548,65700,0,0,0,3733599266,63
i,1717751839.498646,10.0.2.15,22,10.0.2.2,53094,1073725440,15718,1026,65535,65700,0,0,4,1460,312,0,16809984,240000,33580,548,65700,0,548,0,3733599266,63
i,1717751839.503412,10.0.2.15,22,10.0.2.2,53094,1073725440,16266,1026,65535,65700,0,0,4,1460,312,0,0,240000,33580,0,65700,0,0,0,3733599266,63
i,1717751839.506811,10.0.2.15,22,10.0.2.2,53094,1073725440,16266,1026,65535,65700,0,0,4,1460,312,0,0,240000,33580,0,65700,0,0,0,3733599266,63
o,1717751839.506815,10.0.2.15,22,10.0.2.2,53094,1073725440,16266,1026,65535,65700,0,0,4,1460,312,0,1,240000,33580,0,65700,44,0,0,3733599266,63
o,1717751839.506992,10.0.2.15,22,10.0.2.2,53094,1073725440,16266,1026,65535,65700,0,0,4,1460,312,0,16777216,240000,33580,44,65700,0,0,0,3733599266,63
i,1717751839.507683,10.0.2.15,22,10.0.2.2,53094,1073725440,16266,1026,65535,65700,0,0,4,1460,312,0,16809984,240000,33580,44,65700,0,44,0,3733599266,63
i,1717751839.508358,10.0.2.15,22,10.0.2.2,53094,1073725440,16310,1026,65535,65700,0,0,4,1460,312,0,0,240000,33580,0,65700,0,0,0,3733599266,63
o,1717751839.509530,10.0.2.15,22,10.0.2.2,53094,1073725440,16310,1026,65535,65700,0,0,4,1460,312,0,16777216,240000,33580,68,65700,0,0,0,3733599266,63
i,1717751839.510102,10.0.2.15,22,10.0.2.2,53094,1073725440,16310,1026,65535,65700,0,0,4,1460,312,0,16809984,240000,33580,68,65700,0,68,0,3733599266,63
i,1717751839.512732,10.0.2.15,22,10.0.2.2,53094,1073725440,16378,1026,65535,65700,0,0,4,1460,312,0,0,240000,33580,0,65700,0,0,0,3733599266,63
o,1717751839.523236,10.0.2.15,22,10.0.2.2,53094,1073725440,16378,1026,65535,65700,0,0,4,1460,312,0,16777216,240000,33580,28,65700,0,0,0,3733599266,63
i,1717751839.524015,10.0.2.15,22,10.0.2.2,53094,1073725440,16378,1026,65535,65700,0,0,4,1460,312,0,16809984,240000,33580,28,65700,0,28,0,3733599266,63
i,1717751839.524697,10.0.2.15,22,10.0.2.2,53094,1073725440,16406,1026,65535,65700,0,0,4,1460,312,0,0,240000,33580,0,65700,0,0,0,3733599266,63
o,1717751839.525359,10.0.2.15,22,10.0.2.2,53094,1073725440,16406,1026,65535,65700,0,0,4,1460,312,0,16777216,240000,33580,768,65700,112,0,0,3733599266,63
i,1717751839.526062,10.0.2.15,22,10.0.2.2,53094,1073725440,16406,1026,65535,65700,0,0,4,1460,312,0,16809984,240000,33580,768,65700,112,768,0,3733599266,63
o,1717751839.526237,10.0.2.15,22,10.0.2.2,53094,1073725440,17174,1026,65535,65700,0,0,4,1460,312,0,16777216,240000,33580,44,65700,0,0,0,3733599266,63
i,1717751839.526722,10.0.2.15,22,10.0.2.2,53094,1073725440,17174,1026,65535,65700,0,0,4,1460,312,0,16809984,240000,33580,44,65700,0,44,0,3733599266,63
i,1717751839.527448,10.0.2.15,22,10.0.2.2,53094,1073725440,17218,1026,65535,65700,0,0,4,1460,312,0,0,230000,33580,0,65700,0,0,0,3733599266,63
o,1717751839.527756,10.0.2.15,22,10.0.2.2,53094,1073725440,17218,1026,65535,65700,0,0,4,1460,312,0,16777220,230000,33580,72,65700,0,0,0,3733599266,63
i,1717751839.528401,10.0.2.15,22,10.0.2.2,53094,1073725440,17218,1026,65535,65700,0,0,4,1460,312,0,16809988,230000,33580,72,65700,0,72,0,3733599266,63
o,1717751839.530449,10.0.2.15,22,10.0.2.2,53094,1073725440,17290,1026,65535,65700,0,0,4,1460,312,0,16777220,230000,33580,104,65700,0,0,0,3733599266,63
i,1717751839.530865,10.0.2.15,22,10.0.2.2,53094,1073725440,17290,1026,65535,65700,0,0,4,1460,312,0,16809988,230000,33580,104,65700,0,104,0,3733599266,63
o,1717751839.530928,10.0.2.15,22,10.0.2.2,53094,1073725440,17394,1026,65535,65700,0,0,4,1460,312,0,16777220,230000,33580,76,65700,0,0,0,3733599266,63
i,1717751839.531680,10.0.2.15,22,10.0.2.2,53094,1073725440,17394,1026,65535,65700,0,0,4,1460,312,0,16809988,230000,33580,76,65700,0,76,0,3733599266,63
o,1717751839.531742,10.0.2.15,22,10.0.2.2,53094,1073725440,17470,1026,65535,65700,0,0,4,1460,312,0,16777220,230000,33580,72,65700,0,0,0,3733599266,63
i,1717751839.532149,10.0.2.15,22,10.0.2.2,53094,1073725440,17470,1026,65535,65700,0,0,4,1460,312,0,16809988,230000,33580,72,65700,0,72,0,3733599266,63
i,1717751839.532787,10.0.2.15,22,10.0.2.2,53094,1073725440,17542,1026,65535,65700,0,0,4,1460,312,0,4,240000,33580,0,65700,0,0,0,3733599266,63
i,1717751839.532791,10.0.2.15,22,10.0.2.2,53094,1073725440,17542,1026,65535,65700,0,0,4,1460,312,0,4,240000,33580,0,65700,36,0,0,3733599266,63
o,1717751839.532793,10.0.2.15,22,10.0.2.2,53094,1073725440,17542,1026,65535,65700,0,0,4,1460,312,0,5,240000,33580,0,65700,96,0,0,3733599266,63
i,1717751839.533097,10.0.2.15,22,10.0.2.2,53094,1073725440,17542,1026,65535,65700,0,0,4,1460,312,0,4,240000,33580,0,65700,96,0,0,3733599266,63
o,1717751839.533100,10.0.2.15,22,10.0.2.2,53094,1073725440,17542,1026,65535,65604,0,0,5,1460,312,0,7,240000,33580,0,65700,96,0,0,3733599266,63
o,1717751839.533547,10.0.2.15,22,10.0.2.2,53094,1073725440,17542,1026,65535,65604,0,0,8,1460,312,0,4,240000,33580,0,65700,0,0,0,3733599266,63
i,1717751839.535569,10.0.2.15,22,10.0.2.2,53094,1073725440,17542,1026,65535,65604,0,0,8,1460,312,0,67108884,240000,33580,0,65700,0,1,0,3733599266,63
i,1717751839.616365,172.16.3.2,5101,172.16.1.2,15826,1073725440,14480,0,65728,65700,6,6,4,1460,147812,1,16778208,850000,33580,0,65700,0,0,0,668737926,63
o,1717751839.616439,172.16.3.2,5101,172.16.1.2,15826,1073725440,14480,1026,65728,65700,6,6,4,1460,147812,1,16778212,850000,33580,1,65700,0,0,0,668737926,63
i,1717751839.637585,172.16.3.2,5101,172.16.1.2,15826,1073725440,14480,1026,65728,65700,6,6,4,1460,147812,1,16810980,850000,33580,1,65700,0,1,0,668737926,63
i,1717751839.637594,172.16.3.2,5101,172.16.1.2,15826,1073725440,14481,1026,65728,65728,6,6,4,1460,131875,1,996,840000,33580,0,65700,4,0,0,668737926,63
o,1717751839.637597,172.16.3.2,5101,172.16.1.2,15826,1073725440,14481,1026,65728,65728,6,6,4,1460,131875,1,997,840000,33580,0,65700,128,0,0,668737926,63
o,1717751839.637754,172.16.3.2,5101,172.16.1.2,15826,1073725440,14481,1026,65728,65728,6,6,4,1460,131875,1,16778212,840000,33580,1,65700,0,0,0,668737926,63
o,1717751839.638265,10.0.2.15,22,10.0.2.2,51799,1073725440,14600,1026,65535,65700,0,0,4,1460,312,0,16777220,240000,33580,84,65700,0,0,0,1497482255,63
i,1717751839.639111,10.0.2.15,22,10.0.2.2,51799,1073725440,14600,1026,65535,65700,0,0,4,1460,312,0,16809988,240000,33580,84,65700,0,84,0,1497482255,63
i,1717751839.677739,172.16.3.2,5101,172.16.1.2,56835,1073725440,14480,0,65728,65700,6,6,4,1460,149062,1,16778208,840000,33580,0,65700,0,0,0,26734077,63
o,1717751839.679238,172.16.3.2,5101,172.16.1.2,15826,1073725440,14481,1026,65728,65728,6,6,4,1460,131875,1,16810980,840000,33580,2,65700,0,1,0,668737926,63
o,1717751839.679584,172.16.3.2,5101,172.16.1.2,15826,1073725440,14481,1026,65728,65728,6,6,4,1460,131875,1,16810980,840000,33580,3,65700,0,2,0,668737926,63
o,1717751839.679723,10.0.2.15,22,10.0.2.2,51799,1073725440,14684,1026,65535,65700,0,0,4,1460,312,0,16777220,240000,33580,108,65700,0,0,0,1497482255,63
i,1717751839.680440,10.0.2.15,22,10.0.2.2,51799,1073725440,14684,1026,65535,65700,0,0,4,1460,312,0,16809988,240000,33580,108,65700,0,108,0,1497482255,63
i,1717751839.697225,172.16.3.2,5101,172.16.1.2,15826,1073725440,14481,1026,65728,65728,6,6,4,1460,131875,1,16810980,840000,33580,3,65700,0,3,0,668737926,63
i,1717751839.697230,172.16.3.2,5101,172.16.1.2,56835,1073725440,14480,0,65728,65700,6,6,4,1460,149062,1,16778208,840000,33580,0,65700,0,0,0,26734077,63
o,1717751839.697234,172.16.3.2,5101,172.16.1.2,56835,1073725440,14480,2,65728,65700,6,6,4,1460,149062,1,16778209,840000,33580,0,65700,1448,0,0,26734077,63
i,1717751839.707783,172.16.3.2,5101,172.16.1.2,56835,1073725440,14480,2,65728,65700,6,6,4,1460,149062,1,16778208,840000,33580,0,65700,0,0,0,26734077,63
i,1717751839.707788,172.16.3.2,5101,172.16.1.2,56835,1073725440,14480,2,65728,65700,6,6,4,1460,149062,1,16778208,840000,33580,0,65700,1448,0,0,26734077,63
o,1717751839.707791,172.16.3.2,5101,172.16.1.2,56835,1073725440,14480,2,65728,65700,6,6,4,1460,149062,1,16778209,840000,33580,0,65700,2896,0,0,26734077,63
i,1717751839.717025,172.16.3.2,5101,172.16.1.2,56835,1073725440,14480,2,65728,65700,6,6,4,1460,149062,1,16778208,840000,33580,0,65700,0,0,0,26734077,63
i,1717751839.726499,172.16.3.2,5101,172.16.1.2,56835,1073725440,14480,2,65728,65700,6,6,4,1460,149062,1,16778208,840000,33580,0,65700,0,0,0,26734077,63
o,1717751839.726509,172.16.3.2,5101,172.16.1.2,56835,1073725440,14480,2,65728,65700,6,6,4,1460,149062,1,16778209,840000,33580,0,65700,1448,0,0,26734077,63
i,1717751839.726945,172.16.3.2,5101,172.16.1.2,56835,1073725440,14480,2,65728,65700,6,6,4,1460,149062,1,16778208,840000,33580,0,65700,1448,0,0,26734077,63
i,1717751839.736121,172.16.3.2,5101,172.16.1.2,56835,1073725440,14480,2,65728,65700,6,6,4,1460,149062,1,16778208,840000,33580,0,65700,0,0,0,26734077,63
o,1717751839.736127,172.16.3.2,5101,172.16.1.2,56835,1073725440,14480,2,65728,65700,6,6,4,1460,149062,1,16778209,840000,33580,0,65700,1448,0,0,26734077,63
i,1717751839.736246,172.16.3.2,5101,172.16.1.2,56835,1073725440,14480,2,65728,65700,6,6,4,1460,149062,1,16778208,840000,33580,0,65700,1448,0,0,26734077,63
i,1717751839.746455,172.16.3.2,5101,172.16.1.2,56835,1073725440,14480,2,65728,65700,6,6,4,1460,149062,1,16778208,840000,33580,0,65700,0,0,0,26734077,63
o,1717751839.746462,172.16.3.2,5101,172.16.1.2,56835,1073725440,14480,2,65728,65700,6,6,4,1460,149062,1,16778209,840000,33580,0,65700,1448,0,0,26734077,63
i,1717751839.757097,172.16.3.2,5101,172.16.1.2,56835,1073725440,14480,2,65728,65700,6,6,4,1460,149062,1,16778208,840000,33580,0,65700,0,0,0,26734077,63
i,1717751839.757101,172.16.3.2,5101,172.16.1.2,56835,1073725440,14480,2,65728,65700,6,6,4,1460,149062,1,16778208,840000,33580,0,65700,1448,0,0,26734077,63
o,1717751839.757104,172.16.3.2,5101,172.16.1.2,56835,1073725440,14480,2,65728,65700,6,6,4,1460,149062,1,16778209,840000,33580,0,65700,2896,0,0,26734077,63
i,1717751839.766612,172.16.3.2,5101,172.16.1.2,56835,1073725440,14480,2,65728,65700,6,6,4,1460,149062,1,16778208,840000,33580,0,65700,0,0,0,26734077,63
i,1717751839.766617,172.16.3.2,5101,172.16.1.2,56835,1073725440,14480,2,65728,65700,6,6,4,1460,149062,1,16778208,840000,33580,0,65700,1448,0,0,26734077,63
o,1717751839.766620,172.16.3.2,5101,172.16.1.2,56835,1073725440,14480,2,65728,65700,6,6,4,1460,149062,1,16778209,840000,33580,0,65700,2896,0,0,26734077,63
i,1717751839.777159,172.16.3.2,5101,172.16.1.2,56835,1073725440,14480,2,65728,65700,6,6,4,1460,149062,1,16778208,840000,33580,0,65700,0,0,0,26734077,63
i,1717751839.786910,172.16.3.2,5101,172.16.1.2,56835,1073725440,14480,2,65728,65700,6,6,4,1460,149062,1,16778208,840000,33580,0,65700,0,0,0,26734077,63
o,1717751839.786916,172.16.3.2,5101,172.16.1.2,56835,1073725440,14480,2,65728,65700,6,6,4,1460,149062,1,16778209,840000,33580,0,65700,1448,0,0,26734077,63
i,1717751839.787184,172.16.3.2,5101,172.16.1.2,56835,1073725440,14480,2,65728,65700,6,6,4,1460,149062,1,16778208,840000,33580,0,65700,1448,0,0,26734077,63
i,1717751839.787209,172.16.3.2,5101,172.16.1.2,15826,1073725440,14483,1026,65728,65728,6,6,4,1460,123125,1,996,770000,33580,1,65700,0,1,0,668737926,63
i,1717751839.796656,172.16.3.2,5101,172.16.1.2,56835,1073725440,14480,2,65728,65700,6,6,4,1460,149062,1,16778208,840000,33580,0,65700,0,0,0,26734077,63
o,1717751839.796661,172.16.3.2,5101,172.16.1.2,56835,1073725440,14480,2,65728,65700,6,6,4,1460,149062,1,16778209,840000,33580,0,65700,1448,0,0,26734077,63
i,1717751839.797114,172.16.3.2,5101,172.16.1.2,56835,1073725440,14480,2,65728,65700,6,6,4,1460,149062,1,16778208,840000,33580,0,65700,1448,0,0,26734077,63
i,1717751839.806905,172.16.3.2,5101,172.16.1.2,56835,1073725440,14480,2,65728,65700,6,6,4,1460,149062,1,16778208,840000,33580,0,65700,0,0,0,26734077,63
o,1717751839.806911,172.16.3.2,5101,172.16.1.2,56835,1073725440,14480,2,65728,65700,6,6,4,1460,149062,1,16778209,840000,33580,0,65700,1448,0,0,26734077,63
i,1717751839.816749,172.16.3.2,5101,172.16.1.2,56835,1073725440,14480,2,65728,65700,6,6,4,1460,149062,1,16778208,840000,33580,0,65700,0,0,0,26734077,63
i,1717751839.816755,172.16.3.2,5101,172.16.1.2,56835,1073725440,14480,2,65728,65700,6,6,4,1460,149062,1,16778208,840000,33580,0,65700,1448,0,0,26734077,63
o,1717751839.816759,172.16.3.2,5101,172.16.1.2,56835,1073725440,14480,2,65728,65700,6,6,4,1460,149062,1,16778209,840000,33580,0,65700,2896,0,0,26734077,63
i,1717751839.826695,172.16.3.2,5101,172.16.1.2,56835,1073725440,14480,2,65728,65700,6,6,4,1460,149062,1,16778208,840000,33580,0,65700,0,0,0,26734077,63
i,1717751839.826699,172.16.3.2,5101,172.16.1.2,56835,1073725440,14480,2,65728,65700,6,6,4,1460,149062,1,16778208,840000,33580,0,65700,1448,0,0,26734077,63
o,1717751839.826702,172.16.3.2,5101,172.16.1.2,56835,1073725440,14480,2,65728,65700,6,6,4,1460,149062,1,16778209,840000,33580,0,65700,2896,0,0,26734077,63
i,1717751839.837545,172.16.3.2,5101,172.16.1.2,56835,1073725440,14480,2,65728,65700,6,6,4,1460,149062,1,16778208,840000,33580,0,65700,0,0,0,26734077,63
i,1717751839.846915,172.16.3.2,5101,172.16.1.2,56835,1073725440,14480,2,65728,65700,6,6,4,1460,149062,1,16778208,840000,33580,0,65700,0,0,0,26734077,63
o,1717751839.846920,172.16.3.2,5101,172.16.1.2,56835,1073725440,14480,2,65728,65700,6,6,4,1460,149062,1,16778209,840000,33580,0,65700,1448,0,0,26734077,63
i,1717751839.847174,172.16.3.2,5101,172.16.1.2,56835,1073725440,14480,2,65728,65700,6,6,4,1460,149062,1,16778208,840000,33580,0,65700,1448,0,0,26734077,63
i,1717751839.856793,172.16.3.2,5101,172.16.1.2,56835,1073725440,14480,2,65728,65700,6,6,4,1460,149062,1,16778208,840000,33580,0,65700,0,0,0,26734077,63
o,1717751839.856799,172.16.3.2,5101,172.16.1.2,56835,1073725440,14480,2,65728,65700,6,6,4,1460,149062,1,16778209,840000,33580,0,65700,1448,0,0,26734077,63
i,1717751839.856909,172.16.3.2,5101,172.16.1.2,56835,1073725440,14480,2,65728,65700,6,6,4,1460,149062,1,16778208,840000,33580,0,65700,1448,0,0,26734077,63
i,1717751839.867047,172.16.3.2,5101,172.16.1.2,56835,1073725440,14480,2,65728,65700,6,6,4,1460,149062,1,16778208,840000,33580,0,65700,0,0,0,26734077,63
o,1717751839.867053,172.16.3.2,5101,172.16.1.2,56835,1073725440,14480,2,65728,65700,6,6,4,1460,149062,1,16778209,840000,33580,0,65700,1448,0,0,26734077,63
i,1717751839.876660,172.16.3.2,5101,172.16.1.2,56835,1073725440,14480,2,65728,65700,6,6,4,1460,149062,1,16778208,840000,33580,0,65700,0,0,0,26734077,63
i,1717751839.876664,172.16.3.2,5101,172.16.1.2,56835,1073725440,14480,2,65728,65700,6,6,4,1460,149062,1,16778208,840000,33580,0,65700,1448,0,0,26734077,63
o,1717751839.876666,172.16.3.2,5101,172.16.1.2,56835,1073725440,14480,2,65728,65700,6,6,4,1460,149062,1,16778209,840000,33580,0,65700,2896,0,0,26734077,63
i,1717751839.886491,172.16.3.2,5101,172.16.1.2,56835,1073725440,14480,2,65728,65700,6,6,4,1460,149062,1,16778208,840000,33580,0,65700,0,0,0,26734077,63
i,1717751839.886496,172.16.3.2,5101,172.16.1.2,56835,1073725440,14480,2,65728,65700,6,6,4,1460,149062,1,16778208,840000,33580,0,65700,1448,0,0,26734077,63
o,1717751839.886498,172.16.3.2,5101,172.16.1.2,56835,1073725440,14480,2,65728,65700,6,6,4,1460,149062,1,16778209,840000,33580,0,65700,2896,0,0,26734077,63
i,1717751839.897108,172.16.3.2,5101,172.16.1.2,56835,1073725440,14480,2,65728,65700,6,6,4,1460,149062,1,16778208,840000,33580,0,65700,0,0,0,26734077,63
i,1717751839.906807,172.16.3.2,5101,172.16.1.2,56835,1073725440,14480,2,65728,65700,6,6,4,1460,149062,1,16778208,840000,33580,0,65700,0,0,0,26734077,63
o,1717751839.906813,172.16.3.2,5101,172.16.1.2,56835,1073725440,14480,2,65728,65700,6,6,4,1460,149062,1,16778209,840000,33580,0,65700,1448,0,0,26734077,63
i,1717751839.906908,172.16.3.2,5101,172.16.1.2,56835,1073725440,14480,2,65728,65700,6,6,4,1460,149062,1,16778208,840000,33580,0,65700,1448,0,0,26734077,63
i,1717751839.917448,172.16.3.2,5101,172.16.1.2,56835,1073725440,14480,2,65728,65700,6,6,4,1460,149062,1,16778208,840000,33580,0,65700,0,0,0,26734077,63
o,1717751839.917453,172.16.3.2,5101,172.16.1.2,56835,1073725440,14480,2,65728,65700,6,6,4,1460,149062,1,16778209,840000,33580,0,65700,1448,0,0,26734077,63
i,1717751839.917739,172.16.3.2,5101,172.16.1.2,56835,1073725440,14480,2,65728,65700,6,6,4,1460,149062,1,16778208,840000,33580,0,65700,1448,0,0,26734077,63
i,1717751839.926438,172.16.3.2,5101,172.16.1.2,56835,1073725440,14480,2,65728,65700,6,6,4,1460,149062,1,16778208,840000,33580,0,65700,0,0,0,26734077,63
o,1717751839.926445,172.16.3.2,5101,172.16.1.2,56835,1073725440,14480,2,65728,65700,6,6,4,1460,149062,1,16778209,840000,33580,0,65700,1448,0,0,26734077,63
i,1717751839.937695,172.16.3.2,5101,172.16.1.2,56835,1073725440,14480,2,65728,65700,6,6,4,1460,149062,1,16778208,840000,33580,0,65700,0,0,0,26734077,63
i,1717751839.937699,172.16.3.2,5101,172.16.1.2,56835,1073725440,14480,2,65728,65700,6,6,4,1460,149062,1,16778208,840000,33580,0,65700,1448,0,0,26734077,63
o,1717751839.937702,172.16.3.2,5101,172.16.1.2,56835,1073725440,14480,2,65728,65700,6,6,4,1460,149062,1,16778209,840000,33580,0,65700,2896,0,0,26734077,63
i,1717751839.946737,172.16.3.2,5101,172.16.1.2,56835,1073725440,14480,2,65728,65700,6,6,4,1460,149062,1,16778208,840000,33580,0,65700,0,0,0,26734077,63
i,1717751839.946741,172.16.3.2,5101,172.16.1.2,56835,1073725440,14480,2,65728,65700,6,6,4,1460,149062,1,16778208,840000,33580,0,65700,1448,0,0,26734077,63
o,1717751839.946743,172.16.3.2,5101,172.16.1.2,56835,1073725440,14480,2,65728,65700,6,6,4,1460,149062,1,16778209,840000,33580,0,65700,2896,0,0,26734077,63
i,1717751839.958036,172.16.3.2,5101,172.16.1.2,56835,1073725440,14480,2,65728,65700,6,6,4,1460,149062,1,16778208,840000,33580,0,65700,0,0,0,26734077,63
i,1717751839.966428,172.16.3.2,5101,172.16.1.2,56835,1073725440,14480,2,65728,65700,6,6,4,1460,149062,1,16778208,840000,33580,0,65700,0,0,0,26734077,63
o,1717751839.966433,172.16.3.2,5101,172.16.1.2,56835,1073725440,14480,2,65728,65700,6,6,4,1460,149062,1,16778209,840000,33580,0,65700,1448,0,0,26734077,63
i,1717751839.966818,172.16.3.2,5101,172.16.1.2,56835,1073725440,14480,2,65728,65700,6,6,4,1460,149062,1,16778208,840000,33580,0,65700,1448,0,0,26734077,63
i,1717751839.976697,172.16.3.2,5101,172.16.1.2,56835,1073725440,14480,2,65728,65700,6,6,4,1460,149062,1,16778208,840000,33580,0,65700,0,0,0,26734077,63
o,1717751839.976703,172.16.3.2,5101,172.16.1.2,56835,1073725440,14480,2,65728,65700,6,6,4,1460,149062,1,16778209,840000,33580,0,65700,1448,0,0,26734077,63
i,1717751839.977150,172.16.3.2,5101,172.16.1.2,56835,1073725440,14480,2,65728,65700,6,6,4,1460,149062,1,16778208,840000,33580,0,65700,1448,0,0,26734077,63
i,1717751839.987361,172.16.3.2,5101,172.16.1.2,56835,1073725440,14480,2,65728,65700,6,6,4,1460,149062,1,16778208,840000,33580,0,65700,0,0,0,26734077,63
o,1717751839.987366,172.16.3.2,5101,172.16.1.2,56835,1073725440,14480,2,65728,65700,6,6,4,1460,149062,1,16778209,840000,33580,0,65700,1448,0,0,26734077,63
i,1717751839.996347,172.16.3.2,5101,172.16.1.2,56835,1073725440,14480,2,65728,65700,6,6,4,1460,149062,1,16778208,840000,33580,0,65700,0,0,0,26734077,63
i,1717751839.996351,172.16.3.2,5101,172.16.1.2,56835,1073725440,14480,2,65728,65700,6,6,4,1460,149062,1,16778208,840000,33580,0,65700,1448,0,0,26734077,63
o,1717751839.996353,172.16.3.2,5101,172.16.1.2,56835,1073725440,14480,2,65728,65700,6,6,4,1460,149062,1,16778209,840000,33580,0,65700,2896,0,0,26734077,63
i,1717751840.006756,172.16.3.2,5101,172.16.1.2,56835,1073725440,14480,2,65728,65700,6,6,4,1460,149062,1,16778208,840000,33580,0,65700,0,0,0,26734077,63
i,1717751840.006761,172.16.3.2,5101,172.16.1.2,56835,1073725440,14480,2,65728,65700,6,6,4,1460,149062,1,16778208,840000,33580,0,65700,1448,0,0,26734077,63
o,1717751840.006763,172.16.3.2,5101,172.16.1.2,56835,1073725440,14480,2,65728,65700,6,6,4,1460,149062,1,16778209,840000,33580,0,65700,2896,0,0,26734077,63
i,1717751840.017564,172.16.3.2,5101,172.16.1.2,56835,1073725440,14480,2,65728,65700,6,6,4,1460,149062,1,16778208,840000,33580,0,65700,0,0,0,26734077,63
i,1717751840.027133,172.16.3.2,5101,172.16.1.2,56835,1073725440,14480,2,65728,65700,6,6,4,1460,149062,1,16778208,840000,33580,0,65700,0,0,0,26734077,63
o,1717751840.027139,172.16.3.2,5101,172.16.1.2,56835,1073725440,14480,2,65728,65700,6,6,4,1460,149062,1,16778209,840000,33580,0,65700,1448,0,0,26734077,63
i,1717751840.027217,172.16.3.2,5101,172.16.1.2,56835,1073725440,14480,2,65728,65700,6,6,4,1460,149062,1,16778208,840000,33580,0,65700,1448,0,0,26734077,63
i,1717751840.036671,172.16.3.2,5101,172.16.1.2,56835,1073725440,14480,2,65728,65700,6,6,4,1460,149062,1,16778208,840000,33580,0,65700,0,0,0,26734077,63
o,1717751840.036676,172.16.3.2,5101,172.16.1.2,56835,1073725440,14480,2,65728,65700,6,6,4,1460,149062,1,16778209,840000,33580,0,65700,1448,0,0,26734077,63
i,1717751840.036936,172.16.3.2,5101,172.16.1.2,56835,1073725440,14480,2,65728,65700,6,6,4,1460,149062,1,16778208,840000,33580,0,65700,1448,0,0,26734077,63
i,1717751840.046693,172.16.3.2,5101,172.16.1.2,56835,1073725440,14480,2,65728,65700,6,6,4,1460,149062,1,16778208,840000,33580,0,65700,0,0,0,26734077,63
o,1717751840.046699,172.16.3.2,5101,172.16.1.2,56835,1073725440,14480,2,65728,65700,6,6,4,1460,149062,1,16778209,840000,33580,0,65700,1448,0,0,26734077,63
i,1717751840.057166,172.16.3.2,5101,172.16.1.2,56835,1073725440,14480,2,65728,65700,6,6,4,1460,149062,1,16778208,840000,33580,0,65700,0,0,0,26734077,63
i,1717751840.057169,172.16.3.2,5101,172.16.1.2,56835,1073725440,14480,2,65728,65700,6,6,4,1460,149062,1,16778208,840000,33580,0,65700,1448,0,0,26734077,63
o,1717751840.057172,172.16.3.2,5101,172.16.1.2,56835,1073725440,14480,2,65728,65700,6,6,4,1460,149062,1,16778209,840000,33580,0,65700,2896,0,0,26734077,63
i,1717751840.066656,172.16.3.2,5101,172.16.1.2,56835,1073725440,14480,2,65728,65700,6,6,4,1460,149062,1,16778208,840000,33580,0,65700,0,0,0,26734077,63
i,1717751840.066659,172.16.3.2,5101,172.16.1.2,56835,1073725440,14480,2,65728,65700,6,6,4,1460,149062,1,16778208,840000,33580,0,65700,1448,0,0,26734077,63
o,1717751840.066661,172.16.3.2,5101,172.16.1.2,56835,1073725440,14480,2,65728,65700,6,6,4,1460,149062,1,16778209,840000,33580,0,65700,2896,0,0,26734077,63
i,1717751840.077112,172.16.3.2,5101,172.16.1.2,56835,1073725440,14480,2,65728,65700,6,6,4,1460,149062,1,16778208,840000,33580,0,65700,0,0,0,26734077,63
i,1717751840.086661,172.16.3.2,5101,172.16.1.2,56835,1073725440,14480,2,65728,65700,6,6,4,1460,149062,1,16778208,840000,33580,0,65700,0,0,0,26734077,63
o,1717751840.086665,172.16.3.2,5101,172.16.1.2,56835,1073725440,14480,2,65728,65700,6,6,4,1460,149062,1,16778209,840000,33580,0,65700,1448,0,0,26734077,63
i,1717751840.086912,172.16.3.2,5101,172.16.1.2,56835,1073725440,14480,2,65728,65700,6,6,4,1460,149062,1,16778208,840000,33580,0,65700,1448,0,0,26734077,63
i,1717751840.097249,172.16.3.2,5101,172.16.1.2,56835,1073725440,14480,2,65728,65700,6,6,4,1460,149062,1,16778208,840000,33580,0,65700,0,0,0,26734077,63
o,1717751840.097255,172.16.3.2,5101,172.16.1.2,56835,1073725440,14480,2,65728,65700,6,6,4,1460,149062,1,16778209,840000,33580,0,65700,1448,0,0,26734077,63
i,1717751840.097335,172.16.3.2,5101,172.16.1.2,56835,1073725440,14480,2,65728,65700,6,6,4,1460,149062,1,16778208,840000,33580,0,65700,1448,0,0,26734077,63
i,1717751840.106632,172.16.3.2,5101,172.16.1.2,56835,1073725440,14480,2,65728,65700,6,6,4,1460,149062,1,16778208,840000,33580,0,65700,0,0,0,26734077,63
o,1717751840.106638,172.16.3.2,5101,172.16.1.2,56835,1073725440,14480,2,65728,65700,6,6,4,1460,149062,1,16778209,840000,33580,0,65700,1448,0,0,26734077,63
i,1717751840.117228,172.16.3.2,5101,172.16.1.2,56835,1073725440,14480,2,65728,65700,6,6,4,1460,149062,1,16778208,840000,33580,0,65700,0,0,0,26734077,63
i,1717751840.117233,172.16.3.2,5101,172.16.1.2,56835,1073725440,14480,2,65728,65700,6,6,4,1460,149062,1,16778208,840000,33580,0,65700,1448,0,0,26734077,63
o,1717751840.117237,172.16.3.2,5101,172.16.1.2,56835,1073725440,14480,2,65728,65700,6,6,4,1460,149062,1,16778209,840000,33580,0,65700,2896,0,0,26734077,63
i,1717751840.126757,172.16.3.2,5101,172.16.1.2,56835,1073725440,14480,2,65728,65700,6,6,4,1460,149062,1,16778208,840000,33580,0,65700,0,0,0,26734077,63
i,1717751840.126773,172.16.3.2,5101,172.16.1.2,56835,1073725440,14480,2,65728,65700,6,6,4,1460,149062,1,16778208,840000,33580,0,65700,1448,0,0,26734077,63
o,1717751840.126776,172.16.3.2,5101,172.16.1.2,56835,1073725440,14480,2,65728,65700,6,6,4,1460,149062,1,16778209,840000,33580,0,65700,2896,0,0,26734077,63
i,1717751840.137047,172.16.3.2,5101,172.16.1.2,56835,1073725440,14480,2,65728,65700,6,6,4,1460,149062,1,16778208,840000,33580,0,65700,0,0,0,26734077,63
i,1717751840.146163,172.16.3.2,5101,172.16.1.2,56835,1073725440,14480,2,65728,65700,6,6,4,1460,149062,1,16778208,840000,33580,0,65700,0,0,0,26734077,63
o,1717751840.146171,172.16.3.2,5101,172.16.1.2,56835,1073725440,14480,2,65728,65700,6,6,4,1460,149062,1,16778209,840000,33580,0,65700,1448,0,0,26734077,63
i,1717751840.146274,172.16.3.2,5101,172.16.1.2,56835,1073725440,14480,2,65728,65700,6,6,4,1460,149062,1,16778208,840000,33580,0,65700,1448,0,0,26734077,63
i,1717751840.156883,172.16.3.2,5101,172.16.1.2,56835,1073725440,14480,2,65728,65700,6,6,4,1460,149062,1,16778208,840000,33580,0,65700,0,0,0,26734077,63
o,1717751840.156889,172.16.3.2,5101,172.16.1.2,56835,1073725440,14480,2,65728,65700,6,6,4,1460,149062,1,16778209,840000,33580,0,65700,1448,0,0,26734077,63
i,1717751840.157161,172.16.3.2,5101,172.16.1.2,56835,1073725440,14480,2,65728,65700,6,6,4,1460,149062,1,16778208,840000,33580,0,65700,1448,0,0,26734077,63
i,1717751840.166837,172.16.3.2,5101,172.16.1.2,56835,1073725440,14480,2,65728,65700,6,6,4,1460,149062,1,16778208,840000,33580,0,65700,0,0,0,26734077,63
o,1717751840.166849,172.16.3.2,5101,172.16.1.2,56835,1073725440,14480,2,65728,65700,6,6,4,1460,149062,1,16778209,840000,33580,0,65700,1448,0,0,26734077,63
i,1717751840.176996,172.16.3.2,5101,172.16.1.2,56835,1073725440,14480,2,65728,65700,6,6,4,1460,149062,1,16778208,840000,33580,0,65700,0,0,0,26734077,63
i,1717751840.177000,172.16.3.2,5101,172.16.1.2,56835,1073725440,14480,2,65728,65700,6,6,4,1460,149062,1,16778208,840000,33580,0,65700,1448,0,0,26734077,63
o,1717751840.177003,172.16.3.2,5101,172.16.1.2,56835,1073725440,14480,2,65728,65700,6,6,4,1460,149062,1,16778209,840000,33580,0,65700,2896,0,0,26734077,63
i,1717751840.187213,172.16.3.2,5101,172.16.1.2,56835,1073725440,14480,2,65728,65700,6,6,4,1460,149062,1,16778208,840000,33580,0,65700,0,0,0,26734077,63
i,1717751840.187217,172.16.3.2,5101,172.16.1.2,56835,1073725440,14480,2,65728,65700,6,6,4,1460,149062,1,16778208,840000,33580,0,65700,1448,0,0,26734077,63
o,1717751840.187220,172.16.3.2,5101,172.16.1.2,56835,1073725440,14480,2,65728,65700,6,6,4,1460,149062,1,16778209,840000,33580,0,65700,2896,0,0,26734077,63
i,1717751840.197063,172.16.3.2,5101,172.16.1.2,56835,1073725440,14480,2,65728,65700,6,6,4,1460,149062,1,16778208,840000,33580,0,65700,0,0,0,26734077,63
i,1717751840.207907,172.16.3.2,5101,172.16.1.2,56835,1073725440,14480,2,65728,65700,6,6,4,1460,149062,1,16778208,840000,33580,0,65700,0,0,0,26734077,63
o,1717751840.207913,172.16.3.2,5101,172.16.1.2,56835,1073725440,14480,2,65728,65700,6,6,4,1460,149062,1,16778209,840000,33580,0,65700,1448,0,0,26734077,63
i,1717751840.208158,172.16.3.2,5101,172.16.1.2,56835,1073725440,14480,2,65728,65700,6,6,4,1460,149062,1,16778208,840000,33580,0,65700,1448,0,0,26734077,63
i,1717751840.216820,172.16.3.2,5101,172.16.1.2,56835,1073725440,14480,2,65728,65700,6,6,4,1460,149062,1,16778208,840000,33580,0,65700,0,0,0,26734077,63
o,1717751840.216825,172.16.3.2,5101,172.16.1.2,56835,1073725440,14480,2,65728,65700,6,6,4,1460,149062,1,16778209,840000,33580,0,65700,1448,0,0,26734077,63
i,1717751840.216906,172.16.3.2,5101,172.16.1.2,56835,1073725440,14480,2,65728,65700,6,6,4,1460,149062,1,16778208,840000,33580,0,65700,1448,0,0,26734077,63
i,1717751840.226898,172.16.3.2,5101,172.16.1.2,56835,1073725440,14480,2,65728,65700,6,6,4,1460,149062,1,16778208,840000,33580,0,65700,0,0,0,26734077,63
o,1717751840.226904,172.16.3.2,5101,172.16.1.2,56835,1073725440,14480,2,65728,65700,6,6,4,1460,149062,1,16778209,840000,33580,0,65700,1448,0,0,26734077,63
i,1717751840.237566,172.16.3.2,5101,172.16.1.2,56835,1073725440,14480,2,65728,65700,6,6,4,1460,149062,1,16778208,840000,33580,0,65700,0,0,0,26734077,63
i,1717751840.237571,172.16.3.2,5101,172.16.1.2,56835,1073725440,14480,2,65728,65700,6,6,4,1460,149062,1,16778208,840000,33580,0,65700,1448,0,0,26734077,63
o,1717751840.237574,172.16.3.2,5101,172.16.1.2,56835,1073725440,14480,2,65728,65700,6,6,4,1460,149062,1,16778209,840000,33580,0,65700,2896,0,0,26734077,63
i,1717751840.246389,172.16.3.2,5101,172.16.1.2,56835,1073725440,14480,2,65728,65700,6,6,4,1460,149062,1,16778208,840000,33580,0,65700,0,0,0,26734077,63
i,1717751840.246392,172.16.3.2,5101,172.16.1.2,56835,1073725440,14480,2,65728,65700,6,6,4,1460,149062,1,16778208,840000,33580,0,65700,1448,0,0,26734077,63
o,1717751840.246395,172.16.3.2,5101,172.16.1.2,56835,1073725440,14480,2,65728,65700,6,6,4,1460,149062,1,16778209,840000,33580,0,65700,2896,0,0,26734077,63
i,1717751840.257955,172.16.3.2,5101,172.16.1.2,56835,1073725440,14480,2,65728,65700,6,6,4,1460,149062,1,16778208,840000,33580,0,65700,0,0,0,26734077,63
i,1717751840.266710,172.16.3.2,5101,172.16.1.2,56835,1073725440,14480,2,65728,65700,6,6,4,1460,149062,1,16778208,840000,33580,0,65700,0,0,0,26734077,63
o,1717751840.266715,172.16.3.2,5101,172.16.1.2,56835,1073725440,14480,2,65728,65700,6,6,4,1460,149062,1,16778209,840000,33580,0,65700,1448,0,0,26734077,63
i,1717751840.266788,172.16.3.2,5101,172.16.1.2,56835,1073725440,14480,2,65728,65700,6,6,4,1460,149062,1,16778208,840000,33580,0,65700,1448,0,0,26734077,63
i,1717751840.277666,172.16.3.2,5101,172.16.1.2,56835,1073725440,14480,2,65728,65700,6,6,4,1460,149062,1,16778208,840000,33580,0,65700,0,0,0,26734077,63
o,1717751840.277671,172.16.3.2,5101,172.16.1.2,56835,1073725440,14480,2,65728,65700,6,6,4,1460,149062,1,16778209,840000,33580,0,65700,1448,0,0,26734077,63
i,1717751840.277907,172.16.3.2,5101,172.16.1.2,56835,1073725440,14480,2,65728,65700,6,6,4,1460,149062,1,16778208,840000,33580,0,65700,1448,0,0,26734077,63
i,1717751840.287114,172.16.3.2,5101,172.16.1.2,56835,1073725440,14480,2,65728,65700,6,6,4,1460,149062,1,16778208,840000,33580,0,65700,0,0,0,26734077,63
o,1717751840.287118,172.16.3.2,5101,172.16.1.2,56835,1073725440,14480,2,65728,65700,6,6,4,1460,149062,1,16778209,840000,33580,0,65700,1448,0,0,26734077,63
i,1717751840.296742,172.16.3.2,5101,172.16.1.2,56835,1073725440,14480,2,65728,65700,6,6,4,1460,149062,1,16778208,840000,33580,0,65700,0,0,0,26734077,63
i,1717751840.296746,172.16.3.2,5101,172.16.1.2,56835,1073725440,14480,2,65728,65700,6,6,4,1460,149062,1,16778208,840000,33580,0,65700,1448,0,0,26734077,63
o,1717751840.296748,172.16.3.2,5101,172.16.1.2,56835,1073725440,14480,2,65728,65700,6,6,4,1460,149062,1,16778209,840000,33580,0,65700,2896,0,0,26734077,63
i,1717751840.307259,172.16.3.2,5101,172.16.1.2,56835,1073725440,14480,2,65728,65700,6,6,4,1460,149062,1,16778208,840000,33580,0,65700,0,0,0,26734077,63
i,1717751840.307263,172.16.3.2,5101,172.16.1.2,56835,1073725440,14480,2,65728,65700,6,6,4,1460,149062,1,16778208,840000,33580,0,65700,1448,0,0,26734077,63
o,1717751840.307266,172.16.3.2,5101,172.16.1.2,56835,1073725440,14480,2,65728,65700,6,6,4,1460,149062,1,16778209,840000,33580,0,65700,2896,0,0,26734077,63
i,1717751840.316948,172.16.3.2,5101,172.16.1.2,56835,1073725440,14480,2,65728,65700,6,6,4,1460,149062,1,16778208,840000,33580,0,65700,0,0,0,26734077,63
i,1717751840.327357,172.16.3.2,5101,172.16.1.2,56835,1073725440,14480,2,65728,65700,6,6,4,1460,149062,1,16778208,840000,33580,0,65700,0,0,0,26734077,63
o,1717751840.327371,172.16.3.2,5101,172.16.1.2,56835,1073725440,14480,2,65728,65700,6,6,4,1460,149062,1,16778209,840000,33580,0,65700,1448,0,0,26734077,63
i,1717751840.327686,172.16.3.2,5101,172.16.1.2,56835,1073725440,14480,2,65728,65700,6,6,4,1460,149062,1,16778208,840000,33580,0,65700,1448,0,0,26734077,63
i,1717751840.336824,172.16.3.2,5101,172.16.1.2,56835,1073725440,14480,2,65728,65700,6,6,4,1460,149062,1,16778208,840000,33580,0,65700,0,0,0,26734077,63
o,1717751840.336831,172.16.3.2,5101,172.16.1.2,56835,1073725440,14480,2,65728,65700,6,6,4,1460,149062,1,16778209,840000,33580,0,65700,1448,0,0,26734077,63
i,1717751840.336919,172.16.3.2,5101,172.16.1.2,56835,1073725440,14480,2,65728,65700,6,6,4,1460,149062,1,16778208,840000,33580,0,65700,1448,0,0,26734077,63
i,1717751840.347116,172.16.3.2,5101,172.16.1.2,56835,1073725440,14480,2,65728,65700,6,6,4,1460,149062,1,16778208,840000,33580,0,65700,0,0,0,26734077,63
o,1717751840.347120,172.16.3.2,5101,172.16.1.2,56835,1073725440,14480,2,65728,65700,6,6,4,1460,149062,1,16778209,840000,33580,0,65700,1448,0,0,26734077,63
i,1717751840.356529,172.16.3.2,5101,172.16.1.2,56835,1073725440,14480,2,65728,65700,6,6,4,1460,149062,1,16778208,840000,33580,0,65700,0,0,0,26734077,63
i,1717751840.356533,172.16.3.2,5101,172.16.1.2,56835,1073725440,14480,2,65728,65700,6,6,4,1460,149062,1,16778208,840000,33580,0,65700,1448,0,0,26734077,63
o,1717751840.356535,172.16.3.2,5101,172.16.1.2,56835,1073725440,14480,2,65728,65700,6,6,4,1460,149062,1,16778209,840000,33580,0,65700,2896,0,0,26734077,63
i,1717751840.367319,172.16.3.2,5101,172.16.1.2,56835,1073725440,14480,2,65728,65700,6,6,4,1460,149062,1,16778208,840000,33580,0,65700,0,0,0,26734077,63
i,1717751840.367323,172.16.3.2,5101,172.16.1.2,56835,1073725440,14480,2,65728,65700,6,6,4,1460,149062,1,16778208,840000,33580,0,65700,1448,0,0,26734077,63
o,1717751840.367326,172.16.3.2,5101,172.16.1.2,56835,1073725440,14480,2,65728,65700,6,6,4,1460,149062,1,16778209,840000,33580,0,65700,2896,0,0,26734077,63
i,1717751840.376733,172.16.3.2,5101,172.16.1.2,56835,1073725440,14480,2,65728,65700,6,6,4,1460,149062,1,16778208,840000,33580,0,65700,0,0,0,26734077,63
i,1717751840.387786,172.16.3.2,5101,172.16.1.2,56835,1073725440,14480,2,65728,65700,6,6,4,1460,149062,1,16778208,840000,33580,0,65700,0,0,0,26734077,63
o,1717751840.387791,172.16.3.2,5101,172.16.1.2,56835,1073725440,14480,2,65728,65700,6,6,4,1460,149062,1,16778209,840000,33580,0,65700,1448,0,0,26734077,63
i,1717751840.387871,172.16.3.2,5101,172.16.1.2,56835,1073725440,14480,2,65728,65700,6,6,4,1460,149062,1,16778208,840000,33580,0,65700,1448,0,0,26734077,63
i,1717751840.396880,172.16.3.2,5101,172.16.1.2,56835,1073725440,14480,2,65728,65700,6,6,4,1460,149062,1,16778208,840000,33580,0,65700,0,0,0,26734077,63
o,1717751840.396885,172.16.3.2,5101,172.16.1.2,56835,1073725440,14480,2,65728,65700,6,6,4,1460,149062,1,16778209,840000,33580,0,65700,1448,0,0,26734077,63
i,1717751840.397122,172.16.3.2,5101,172.16.1.2,56835,1073725440,14480,2,65728,65700,6,6,4,1460,149062,1,16778208,840000,33580,0,65700,1448,0,0,26734077,63
i,1717751840.406758,172.16.3.2,5101,172.16.1.2,56835,1073725440,14480,2,65728,65700,6,6,4,1460,149062,1,16778208,840000,33580,0,65700,0,0,0,26734077,63
o,1717751840.406763,172.16.3.2,5101,172.16.1.2,56835,1073725440,14480,2,65728,65700,6,6,4,1460,149062,1,16778209,840000,33580,0,65700,1448,0,0,26734077,63
i,1717751840.417062,172.16.3.2,5101,172.16.1.2,56835,1073725440,14480,2,65728,65700,6,6,4,1460,149062,1,16778208,840000,33580,0,65700,0,0,0,26734077,63
i,1717751840.417066,172.16.3.2,5101,172.16.1.2,56835,1073725440,14480,2,65728,65700,6,6,4,1460,149062,1,16778208,840000,33580,0,65700,1448,0,0,26734077,63
o,1717751840.417068,172.16.3.2,5101,172.16.1.2,56835,1073725440,14480,2,65728,65700,6,6,4,1460,149062,1,16778209,840000,33580,0,65700,2896,0,0,26734077,63
i,1717751840.427313,172.16.3.2,5101,172.16.1.2,56835,1073725440,14480,2,65728,65700,6,6,4,1460,149062,1,16778208,840000,33580,0,65700,0,0,0,26734077,63
i,1717751840.427316,172.16.3.2,5101,172.16.1.2,56835,1073725440,14480,2,65728,65700,6,6,4,1460,149062,1,16778208,840000,33580,0,65700,1448,0,0,26734077,63
o,1717751840.427319,172.16.3.2,5101,172.16.1.2,56835,1073725440,14480,2,65728,65700,6,6,4,1460,149062,1,16778209,840000,33580,0,65700,2896,0,0,26734077,63
i,1717751840.438077,172.16.3.2,5101,172.16.1.2,56835,1073725440,14480,2,65728,65700,6,6,4,1460,149062,1,16778208,840000,33580,0,65700,0,0,0,26734077,63
i,1717751840.446901,172.16.3.2,5101,172.16.1.2,56835,1073725440,14480,2,65728,65700,6,6,4,1460,149062,1,16778208,840000,33580,0,65700,0,0,0,26734077,63
o,1717751840.446907,172.16.3.2,5101,172.16.1.2,56835,1073725440,14480,2,65728,65700,6,6,4,1460,149062,1,16778209,840000,33580,0,65700,1448,0,0,26734077,63
i,1717751840.447145,172.16.3.2,5101,172.16.1.2,56835,1073725440,14480,2,65728,65700,6,6,4,1460,149062,1,16778208,840000,33580,0,65700,1448,0,0,26734077,63
i,1717751840.456317,172.16.3.2,5101,172.16.1.2,56835,1073725440,14480,2,65728,65700,6,6,4,1460,149062,1,16778208,840000,33580,0,65700,0,0,0,26734077,63
o,1717751840.456322,172.16.3.2,5101,172.16.1.2,56835,1073725440,14480,2,65728,65700,6,6,4,1460,149062,1,16778209,840000,33580,0,65700,1448,0,0,26734077,63
i,1717751840.456400,172.16.3.2,5101,172.16.1.2,56835,1073725440,14480,2,65728,65700,6,6,4,1460,149062,1,16778208,840000,33580,0,65700,1448,0,0,26734077,63
i,1717751840.466529,172.16.3.2,5101,172.16.1.2,56835,1073725440,14480,2,65728,65700,6,6,4,1460,149062,1,16778208,840000,33580,0,65700,0,0,0,26734077,63
o,1717751840.466535,172.16.3.2,5101,172.16.1.2,56835,1073725440,14480,2,65728,65700,6,6,4,1460,149062,1,16778209,840000,33580,0,65700,1448,0,0,26734077,63
i,1717751840.477170,172.16.3.2,5101,172.16.1.2,56835,1073725440,14480,2,65728,65700,6,6,4,1460,149062,1,16778208,840000,33580,0,65700,0,0,0,26734077,63
i,1717751840.477174,172.16.3.2,5101,172.16.1.2,56835,1073725440,14480,2,65728,65700,6,6,4,1460,149062,1,16778208,840000,33580,0,65700,1448,0,0,26734077,63
o,1717751840.477176,172.16.3.2,5101,172.16.1.2,56835,1073725440,14480,2,65728,65700,6,6,4,1460,149062,1,16778209,840000,33580,0,65700,2896,0,0,26734077,63
i,1717751840.486407,172.16.3.2,5101,172.16.1.2,56835,1073725440,14480,2,65728,65700,6,6,4,1460,149062,1,16778208,840000,33580,0,65700,0,0,0,26734077,63
i,1717751840.486411,172.16.3.2,5101,172.16.1.2,56835,1073725440,14480,2,65728,65700,6,6,4,1460,149062,1,16778208,840000,33580,0,65700,1448,0,0,26734077,63
o,1717751840.486413,172.16.3.2,5101,172.16.1.2,56835,1073725440,14480,2,65728,65700,6,6,4,1460,149062,1,16778209,840000,33580,0,65700,2896,0,0,26734077,63
i,1717751840.497124,172.16.3.2,5101,172.16.1.2,56835,1073725440,14480,2,65728,65700,6,6,4,1460,149062,1,16778208,840000,33580,0,65700,0,0,0,26734077,63
i,1717751840.507415,172.16.3.2,5101,172.16.1.2,56835,1073725440,14480,2,65728,65700,6,6,4,1460,149062,1,16778208,840000,33580,0,65700,0,0,0,26734077,63
o,1717751840.507421,172.16.3.2,5101,172.16.1.2,56835,1073725440,14480,2,65728,65700,6,6,4,1460,149062,1,16778209,840000,33580,0,65700,1448,0,0,26734077,63
i,1717751840.507501,172.16.3.2,5101,172.16.1.2,56835,1073725440,14480,2,65728,65700,6,6,4,1460,149062,1,16778208,840000,33580,0,65700,1448,0,0,26734077,63
i,1717751840.517072,172.16.3.2,5101,172.16.1.2,56835,1073725440,14480,2,65728,65700,6,6,4,1460,149062,1,16778208,840000,33580,0,65700,0,0,0,26734077,63
o,1717751840.517078,172.16.3.2,5101,172.16.1.2,56835,1073725440,14480,2,65728,65700,6,6,4,1460,149062,1,16778209,840000,33580,0,65700,1448,0,0,26734077,63
i,1717751840.517360,172.16.3.2,5101,172.16.1.2,56835,1073725440,14480,2,65728,65700,6,6,4,1460,149062,1,16778208,840000,33580,0,65700,1448,0,0,26734077,63
i,1717751840.527071,172.16.3.2,5101,172.16.1.2,56835,1073725440,14480,2,65728,65700,6,6,4,1460,149062,1,16778208,840000,33580,0,65700,0,0,0,26734077,63
o,1717751840.527078,172.16.3.2,5101,172.16.1.2,56835,1073725440,14480,2,65728,65700,6,6,4,1460,149062,1,16778209,840000,33580,0,65700,1448,0,0,26734077,63
i,1717751840.536745,172.16.3.2,5101,172.16.1.2,56835,1073725440,14480,2,65728,65700,6,6,4,1460,149062,1,16778208,840000,33580,0,65700,0,0,0,26734077,63
i,1717751840.536749,172.16.3.2,5101,172.16.1.2,56835,1073725440,14480,2,65728,65700,6,6,4,1460,149062,1,16778208,840000,33580,0,65700,1448,0,0,26734077,63
o,1717751840.536752,172.16.3.2,5101,172.16.1.2,56835,1073725440,14480,2,65728,65700,6,6,4,1460,149062,1,16778209,840000,33580,0,65700,2896,0,0,26734077,63
i,1717751840.546885,172.16.3.2,5101,172.16.1.2,56835,1073725440,14480,2,65728,65700,6,6,4,1460,149062,1,16778208,840000,33580,0,65700,0,0,0,26734077,63
i,1717751840.546889,172.16.3.2,5101,172.16.1.2,56835,1073725440,14480,2,65728,65700,6,6,4,1460,149062,1,16778208,840000,33580,0,65700,1448,0,0,26734077,63
o,1717751840.546892,172.16.3.2,5101,172.16.1.2,56835,1073725440,14480,2,65728,65700,6,6,4,1460,149062,1,16778209,840000,33580,0,65700,2896,0,0,26734077,63
i,1717751840.557656,172.16.3.2,5101,172.16.1.2,56835,1073725440,14480,2,65728,65700,6,6,4,1460,149062,1,16778208,840000,33580,0,65700,0,0,0,26734077,63
i,1717751840.566967,172.16.3.2,5101,172.16.1.2,56835,1073725440,14480,2,65728,65700,6,6,4,1460,149062,1,16778208,840000,33580,0,65700,0,0,0,26734077,63
o,1717751840.566973,172.16.3.2,5101,172.16.1.2,56835,1073725440,14480,2,65728,65700,6,6,4,1460,149062,1,16778209,840000,33580,0,65700,1448,0,0,26734077,63
i,1717751840.567209,172.16.3.2,5101,172.16.1.2,56835,1073725440,14480,2,65728,65700,6,6,4,1460,149062,1,16778208,840000,33580,0,65700,1448,0,0,26734077,63
i,1717751840.577536,172.16.3.2,5101,172.16.1.2,56835,1073725440,14480,2,65728,65700,6,6,4,1460,149062,1,16778208,840000,33580,0,65700,0,0,0,26734077,63
o,1717751840.577561,172.16.3.2,5101,172.16.1.2,56835,1073725440,14480,2,65728,65700,6,6,4,1460,149062,1,16778209,840000,33580,0,65700,1448,0,0,26734077,63
i,1717751840.577655,172.16.3.2,5101,172.16.1.2,56835,1073725440,14480,2,65728,65700,6,6,4,1460,149062,1,16778208,840000,33580,0,65700,1448,0,0,26734077,63
i,1717751840.587826,172.16.3.2,5101,172.16.1.2,56835,1073725440,14480,2,65728,65700,6,6,4,1460,149062,1,16778208,840000,33580,0,65700,0,0,0,26734077,63
o,1717751840.587832,172.16.3.2,5101,172.16.1.2,56835,1073725440,14480,2,65728,65700,6,6,4,1460,149062,1,16778209,840000,33580,0,65700,1448,0,0,26734077,63
i,1717751840.596178,172.16.3.2,5101,172.16.1.2,56835,1073725440,14480,2,65728,65700,6,6,4,1460,149062,1,16778208,840000,33580,0,65700,0,0,0,26734077,63
i,1717751840.596183,172.16.3.2,5101,172.16.1.2,56835,1073725440,14480,2,65728,65700,6,6,4,1460,149062,1,16778208,840000,33580,0,65700,1448,0,0,26734077,63
o,1717751840.596186,172.16.3.2,5101,172.16.1.2,56835,1073725440,14480,2,65728,65700,6,6,4,1460,149062,1,16778209,840000,33580,0,65700,2896,0,0,26734077,63
i,1717751840.606487,172.16.3.2,5101,172.16.1.2,56835,1073725440,14480,2,65728,65700,6,6,4,1460,149062,1,16778208,840000,33580,0,65700,0,0,0,26734077,63
i,1717751840.606491,172.16.3.2,5101,172.16.1.2,56835,1073725440,14480,2,65728,65700,6,6,4,1460,149062,1,16778208,840000,33580,0,65700,1448,0,0,26734077,63
o,1717751840.606494,172.16.3.2,5101,172.16.1.2,56835,1073725440,14480,2,65728,65700,6,6,4,1460,149062,1,16778209,840000,33580,0,65700,2896,0,0,26734077,63
i,1717751840.616967,172.16.3.2,5101,172.16.1.2,56835,1073725440,14480,2,65728,65700,6,6,4,1460,149062,1,16778208,840000,33580,0,65700,0,0,0,26734077,63
i,1717751840.627589,172.16.3.2,5101,172.16.1.2,56835,1073725440,14480,2,65728,65700,6,6,4,1460,149062,1,16778208,840000,33580,0,65700,0,0,0,26734077,63
o,1717751840.627594,172.16.3.2,5101,172.16.1.2,56835,1073725440,14480,2,65728,65700,6,6,4,1460,149062,1,16778209,840000,33580,0,65700,1448,0,0,26734077,63
i,1717751840.627673,172.16.3.2,5101,172.16.1.2,56835,1073725440,14480,2,65728,65700,6,6,4,1460,149062,1,16778208,840000,33580,0,65700,1448,0,0,26734077,63
i,1717751840.637896,172.16.3.2,5101,172.16.1.2,56835,1073725440,14480,2,65728,65700,6,6,4,1460,149062,1,16778208,840000,33580,0,65700,0,0,0,26734077,63
o,1717751840.637901,172.16.3.2,5101,172.16.1.2,56835,1073725440,14480,2,65728,65700,6,6,4,1460,149062,1,16778209,840000,33580,0,65700,1448,0,0,26734077,63
i,1717751840.638221,172.16.3.2,5101,172.16.1.2,56835,1073725440,14480,2,65728,65700,6,6,4,1460,149062,1,16778208,840000,33580,0,65700,1448,0,0,26734077,63
i,1717751840.647383,172.16.3.2,5101,172.16.1.2,56835,1073725440,14480,2,65728,65700,6,6,4,1460,149062,1,16778208,840000,33580,0,65700,0,0,0,26734077,63
o,1717751840.647388,172.16.3.2,5101,172.16.1.2,56835,1073725440,14480,2,65728,65700,6,6,4,1460,149062,1,16778209,840000,33580,0,65700,1448,0,0,26734077,63
i,1717751840.656801,172.16.3.2,5101,172.16.1.2,56835,1073725440,14480,2,65728,65700,6,6,4,1460,149062,1,16778208,840000,33580,0,65700,0,0,0,26734077,63
i,1717751840.656805,172.16.3.2,5101,172.16.1.2,56835,1073725440,14480,2,65728,65700,6,6,4,1460,149062,1,16778208,840000,33580,0,65700,1448,0,0,26734077,63
o,1717751840.656808,172.16.3.2,5101,172.16.1.2,56835,1073725440,14480,2,65728,65700,6,6,4,1460,149062,1,16778209,840000,33580,0,65700,2896,0,0,26734077,63
i,1717751840.667143,172.16.3.2,5101,172.16.1.2,56835,1073725440,14480,2,65728,65700,6,6,4,1460,149062,1,16778208,840000,33580,0,65700,0,0,0,26734077,63
i,1717751840.667147,172.16.3.2,5101,172.16.1.2,56835,1073725440,14480,2,65728,65700,6,6,4,1460,149062,1,16778208,840000,33580,0,65700,1448,0,0,26734077,63
o,1717751840.667149,172.16.3.2,5101,172.16.1.2,56835,1073725440,14480,2,65728,65700,6,6,4,1460,149062,1,16778209,840000,33580,0,65700,2896,0,0,26734077,63
i,1717751840.677709,172.16.3.2,5101,172.16.1.2,56835,1073725440,14480,2,65728,65700,6,6,4,1460,149062,1,16778208,840000,33580,0,65700,0,0,0,26734077,63
i,1717751840.686803,172.16.3.2,5101,172.16.1.2,56835,1073725440,14480,2,65728,65700,6,6,4,1460,149062,1,16778208,840000,33580,0,65700,0,0,0,26734077,63
o,1717751840.686809,172.16.3.2,5101,172.16.1.2,56835,1073725440,14480,2,65728,65700,6,6,4,1460,149062,1,16778209,840000,33580,0,65700,1448,0,0,26734077,63
i,1717751840.687076,172.16.3.2,5101,172.16.1.2,56835,1073725440,14480,2,65728,65700,6,6,4,1460,149062,1,16778208,840000,33580,0,65700,1448,0,0,26734077,63
o,1717751840.697716,10.0.2.15,22,10.0.2.2,51799,1073725440,14600,1026,65535,65700,0,0,4,1460,312,0,16777220,240000,33580,156,65700,0,0,0,1497482255,63
i,1717751840.698420,172.16.3.2,5101,172.16.1.2,56835,1073725440,14480,2,65728,65700,6,6,4,1460,149062,1,16778208,840000,33580,0,65700,0,0,0,26734077,63
o,1717751840.698425,172.16.3.2,5101,172.16.1.2,56835,1073725440,14480,2,65728,65700,6,6,4,1460,149062,1,16778209,840000,33580,0,65700,1448,0,0,26734077,63
i,1717751840.698513,172.16.3.2,5101,172.16.1.2,56835,1073725440,14480,2,65728,65700,6,6,4,1460,149062,1,16778208,840000,33580,0,65700,1448,0,0,26734077,63
i,1717751840.698719,10.0.2.15,22,10.0.2.2,51799,1073725440,14600,1026,65535,65700,0,0,4,1460,312,0,16809988,240000,33580,156,65700,0,156,0,1497482255,63
i,1717751840.707053,172.16.3.2,5101,172.16.1.2,56835,1073725440,14480,2,65728,65700,6,6,4,1460,149062,1,16778208,840000,33580,0,65700,0,0,0,26734077,63
o,1717751840.707058,172.16.3.2,5101,172.16.1.2,56835,1073725440,14480,2,65728,65700,6,6,4,1460,149062,1,16778209,840000,33580,0,65700,1448,0,0,26734077,63
i,1717751840.717613,172.16.3.2,5101,172.16.1.2,56835,1073725440,14480,2,65728,65700,6,6,4,1460,149062,1,16778208,840000,33580,0,65700,0,0,0,26734077,63
i,1717751840.717616,172.16.3.2,5101,172.16.1.2,56835,1073725440,14480,2,65728,65700,6,6,4,1460,149062,1,16778208,840000,33580,0,65700,1448,0,0,26734077,63
o,1717751840.717619,172.16.3.2,5101,172.16.1.2,56835,1073725440,14480,2,65728,65700,6,6,4,1460,149062,1,16778209,840000,33580,0,65700,2896,0,0,26734077,63
i,1717751840.726781,172.16.3.2,5101,172.16.1.2,56835,1073725440,14480,2,65728,65700,6,6,4,1460,149062,1,16778208,840000,33580,0,65700,0,0,0,26734077,63
i,1717751840.726786,172.16.3.2,5101,172.16.1.2,56835,1073725440,14480,2,65728,65700,6,6,4,1460,149062,1,16778208,840000,33580,0,65700,1448,0,0,26734077,63
o,1717751840.726789,172.16.3.2,5101,172.16.1.2,56835,1073725440,14480,2,65728,65700,6,6,4,1460,149062,1,16778209,840000,33580,0,65700,2896,0,0,26734077,63
i,1717751840.736262,172.16.3.2,5101,172.16.1.2,56835,1073725440,14480,2,65728,65700,6,6,4,1460,149062,1,16778208,840000,33580,0,65700,0,0,0,26734077,63
i,1717751840.747672,172.16.3.2,5101,172.16.1.2,56835,1073725440,14480,2,65728,65700,6,6,4,1460,149062,1,16778208,840000,33580,0,65700,0,0,0,26734077,63
o,1717751840.747679,172.16.3.2,5101,172.16.1.2,56835,1073725440,14480,2,65728,65700,6,6,4,1460,149062,1,16778209,840000,33580,0,65700,1448,0,0,26734077,63
i,1717751840.747758,172.16.3.2,5101,172.16.1.2,56835,1073725440,14480,2,65728,65700,6,6,4,1460,149062,1,16778208,840000,33580,0,65700,1448,0,0,26734077,63
i,1717751840.757435,172.16.3.2,5101,172.16.1.2,56835,1073725440,14480,2,65728,65700,6,6,4,1460,149062,1,16778208,840000,33580,0,65700,0,0,0,26734077,63
o,1717751840.757441,172.16.3.2,5101,172.16.1.2,56835,1073725440,14480,2,65728,65700,6,6,4,1460,149062,1,16778209,840000,33580,0,65700,1448,0,0,26734077,63
i,1717751840.757674,172.16.3.2,5101,172.16.1.2,56835,1073725440,14480,2,65728,65700,6,6,4,1460,149062,1,16778208,840000,33580,0,65700,1448,0,0,26734077,63
i,1717751840.767383,172.16.3.2,5101,172.16.1.2,56835,1073725440,14480,2,65728,65700,6,6,4,1460,149062,1,16778208,840000,33580,0,65700,0,0,0,26734077,63
o,1717751840.767389,172.16.3.2,5101,172.16.1.2,56835,1073725440,14480,2,65728,65700,6,6,4,1460,149062,1,16778209,840000,33580,0,65700,1448,0,0,26734077,63
i,1717751840.776793,172.16.3.2,5101,172.16.1.2,56835,1073725440,14480,2,65728,65700,6,6,4,1460,149062,1,16778208,840000,33580,0,65700,0,0,0,26734077,63
i,1717751840.776797,172.16.3.2,5101,172.16.1.2,56835,1073725440,14480,2,65728,65700,6,6,4,1460,149062,1,16778208,840000,33580,0,65700,1448,0,0,26734077,63
o,1717751840.776800,172.16.3.2,5101,172.16.1.2,56835,1073725440,14480,2,65728,65700,6,6,4,1460,149062,1,16778209,840000,33580,0,65700,2896,0,0,26734077,63
i,1717751840.787535,172.16.3.2,5101,172.16.1.2,56835,1073725440,14480,2,65728,65700,6,6,4,1460,149062,1,16778208,840000,33580,0,65700,0,0,0,26734077,63
i,1717751840.787539,172.16.3.2,5101,172.16.1.2,56835,1073725440,14480,2,65728,65700,6,6,4,1460,149062,1,16778208,840000,33580,0,65700,1448,0,0,26734077,63
o,1717751840.787541,172.16.3.2,5101,172.16.1.2,56835,1073725440,14480,2,65728,65700,6,6,4,1460,149062,1,16778209,840000,33580,0,65700,2896,0,0,26734077,63
i,1717751840.797399,172.16.3.2,5101,172.16.1.2,56835,1073725440,14480,2,65728,65700,6,6,4,1460,149062,1,16778208,840000,33580,0,65700,0,0,0,26734077,63
i,1717751840.807322,172.16.3.2,5101,172.16.1.2,56835,1073725440,14480,2,65728,65700,6,6,4,1460,149062,1,16778208,840000,33580,0,65700,0,0,0,26734077,63
o,1717751840.807328,172.16.3.2,5101,172.16.1.2,56835,1073725440,14480,2,65728,65700,6,6,4,1460,149062,1,16778209,840000,33580,0,65700,1448,0,0,26734077,63
i,1717751840.807595,172.16.3.2,5101,172.16.1.2,56835,1073725440,14480,2,65728,65700,6,6,4,1460,149062,1,16778208,840000,33580,0,65700,1448,0,0,26734077,63
i,1717751840.816772,172.16.3.2,5101,172.16.1.2,56835,1073725440,14480,2,65728,65700,6,6,4,1460,149062,1,16778208,840000,33580,0,65700,0,0,0,26734077,63
o,1717751840.816778,172.16.3.2,5101,172.16.1.2,56835,1073725440,14480,2,65728,65700,6,6,4,1460,149062,1,16778209,840000,33580,0,65700,1448,0,0,26734077,63
i,1717751840.816875,172.16.3.2,5101,172.16.1.2,56835,1073725440,14480,2,65728,65700,6,6,4,1460,149062,1,16778208,840000,33580,0,65700,1448,0,0,26734077,63
i,1717751840.826858,172.16.3.2,5101,172.16.1.2,56835,1073725440,14480,2,65728,65700,6,6,4,1460,149062,1,16778208,840000,33580,0,65700,0,0,0,26734077,63
o,1717751840.826865,172.16.3.2,5101,172.16.1.2,56835,1073725440,14480,2,65728,65700,6,6,4,1460,149062,1,16778209,840000,33580,0,65700,1448,0,0,26734077,63
i,1717751840.836495,172.16.3.2,5101,172.16.1.2,56835,1073725440,14480,2,65728,65700,6,6,4,1460,149062,1,16778208,840000,33580,0,65700,0,0,0,26734077,63
i,1717751840.836499,172.16.3.2,5101,172.16.1.2,56835,1073725440,14480,2,65728,65700,6,6,4,1460,149062,1,16778208,840000,33580,0,65700,1448,0,0,26734077,63
o,1717751840.836502,172.16.3.2,5101,172.16.1.2,56835,1073725440,14480,2,65728,65700,6,6,4,1460,149062,1,16778209,840000,33580,0,65700,2896,0,0,26734077,63
i,1717751840.846721,172.16.3.2,5101,172.16.1.2,56835,1073725440,14480,2,65728,65700,6,6,4,1460,149062,1,16778208,840000,33580,0,65700,0,0,0,26734077,63
i,1717751840.846724,172.16.3.2,5101,172.16.1.2,56835,1073725440,14480,2,65728,65700,6,6,4,1460,149062,1,16778208,840000,33580,0,65700,1448,0,0,26734077,63
o,1717751840.846727,172.16.3.2,5101,172.16.1.2,56835,1073725440,14480,2,65728,65700,6,6,4,1460,149062,1,16778209,840000,33580,0,65700,2896,0,0,26734077,63
i,1717751840.857129,172.16.3.2,5101,172.16.1.2,56835,1073725440,14480,2,65728,65700,6,6,4,1460,149062,1,16778208,840000,33580,0,65700,0,0,0,26734077,63
i,1717751840.866834,172.16.3.2,5101,172.16.1.2,56835,1073725440,14480,2,65728,65700,6,6,4,1460,149062,1,16778208,840000,33580,0,65700,0,0,0,26734077,63
o,1717751840.866840,172.16.3.2,5101,172.16.1.2,56835,1073725440,14480,2,65728,65700,6,6,4,1460,149062,1,16778209,840000,33580,0,65700,1448,0,0,26734077,63
i,1717751840.866922,172.16.3.2,5101,172.16.1.2,56835,1073725440,14480,2,65728,65700,6,6,4,1460,149062,1,16778208,840000,33580,0,65700,1448,0,0,26734077,63
i,1717751840.877426,172.16.3.2,5101,172.16.1.2,56835,1073725440,14480,2,65728,65700,6,6,4,1460,149062,1,16778208,840000,33580,0,65700,0,0,0,26734077,63
o,1717751840.877431,172.16.3.2,5101,172.16.1.2,56835,1073725440,14480,2,65728,65700,6,6,4,1460,149062,1,16778209,840000,33580,0,65700,1448,0,0,26734077,63
i,1717751840.877663,172.16.3.2,5101,172.16.1.2,56835,1073725440,14480,2,65728,65700,6,6,4,1460,149062,1,16778208,840000,33580,0,65700,1448,0,0,26734077,63
i,1717751840.886344,172.16.3.2,5101,172.16.1.2,56835,1073725440,14480,2,65728,65700,6,6,4,1460,149062,1,16778208,840000,33580,0,65700,0,0,0,26734077,63
o,1717751840.886350,172.16.3.2,5101,172.16.1.2,56835,1073725440,14480,2,65728,65700,6,6,4,1460,149062,1,16778209,840000,33580,0,65700,1448,0,0,26734077,63
i,1717751840.897897,172.16.3.2,5101,172.16.1.2,56835,1073725440,14480,2,65728,65700,6,6,4,1460,149062,1,16778208,840000,33580,0,65700,0,0,0,26734077,63
i,1717751840.897901,172.16.3.2,5101,172.16.1.2,56835,1073725440,14480,2,65728,65700,6,6,4,1460,149062,1,16778208,840000,33580,0,65700,1448,0,0,26734077,63
o,1717751840.897903,172.16.3.2,5101,172.16.1.2,56835,1073725440,14480,2,65728,65700,6,6,4,1460,149062,1,16778209,840000,33580,0,65700,2896,0,0,26734077,63
i,1717751840.906689,172.16.3.2,5101,172.16.1.2,56835,1073725440,14480,2,65728,65700,6,6,4,1460,149062,1,16778208,840000,33580,0,65700,0,0,0,26734077,63
i,1717751840.906693,172.16.3.2,5101,172.16.1.2,56835,1073725440,14480,2,65728,65700,6,6,4,1460,149062,1,16778208,840000,33580,0,65700,1448,0,0,26734077,63
o,1717751840.906695,172.16.3.2,5101,172.16.1.2,56835,1073725440,14480,2,65728,65700,6,6,4,1460,149062,1,16778209,840000,33580,0,65700,2896,0,0,26734077,63
i,1717751840.917348,172.16.3.2,5101,172.16.1.2,56835,1073725440,14480,2,65728,65700,6,6,4,1460,149062,1,16778208,840000,33580,0,65700,0,0,0,26734077,63
i,1717751840.927858,172.16.3.2,5101,172.16.1.2,56835,1073725440,14480,2,65728,65700,6,6,4,1460,149062,1,16778208,840000,33580,0,65700,0,0,0,26734077,63
o,1717751840.927864,172.16.3.2,5101,172.16.1.2,56835,1073725440,14480,2,65728,65700,6,6,4,1460,149062,1,16778209,840000,33580,0,65700,1448,0,0,26734077,63
i,1717751840.928185,172.16.3.2,5101,172.16.1.2,56835,1073725440,14480,2,65728,65700,6,6,4,1460,149062,1,16778208,840000,33580,0,65700,1448,0,0,26734077,63
i,1717751840.937022,172.16.3.2,5101,172.16.1.2,56835,1073725440,14480,2,65728,65700,6,6,4,1460,149062,1,16778208,840000,33580,0,65700,0,0,0,26734077,63
o,1717751840.937028,172.16.3.2,5101,172.16.1.2,56835,1073725440,14480,2,65728,65700,6,6,4,1460,149062,1,16778209,840000,33580,0,65700,1448,0,0,26734077,63
i,1717751840.937109,172.16.3.2,5101,172.16.1.2,56835,1073725440,14480,2,65728,65700,6,6,4,1460,149062,1,16778208,840000,33580,0,65700,1448,0,0,26734077,63
i,1717751840.948103,172.16.3.2,5101,172.16.1.2,56835,1073725440,14480,2,65728,65700,6,6,4,1460,149062,1,16778208,840000,33580,0,65700,0,0,0,26734077,63
o,1717751840.948108,172.16.3.2,5101,172.16.1.2,56835,1073725440,14480,2,65728,65700,6,6,4,1460,149062,1,16778209,840000,33580,0,65700,1448,0,0,26734077,63
i,1717751840.957474,172.16.3.2,5101,172.16.1.2,56835,1073725440,14480,2,65728,65700,6,6,4,1460,149062,1,16778208,840000,33580,0,65700,0,0,0,26734077,63
i,1717751840.957478,172.16.3.2,5101,172.16.1.2,56835,1073725440,14480,2,65728,65700,6,6,4,1460,149062,1,16778208,840000,33580,0,65700,1448,0,0,26734077,63
o,1717751840.957480,172.16.3.2,5101,172.16.1.2,56835,1073725440,14480,2,65728,65700,6,6,4,1460,149062,1,16778209,840000,33580,0,65700,2896,0,0,26734077,63
i,1717751840.967955,172.16.3.2,5101,172.16.1.2,56835,1073725440,14480,2,65728,65700,6,6,4,1460,149062,1,16778208,840000,33580,0,65700,0,0,0,26734077,63
