enable_time_secs=1717733899	enable_time_usecs=786073	siftrver=1.3.0	sysname=FreeBSD	sysver=1400097	ipmode=4
o,1717733899.786175,10.0.2.15,22,10.0.2.2,55210,1073725440,17290,1026,65535,65700,0,0,4,1460,312,0,16777220,240000,33580,104,65700,0,0,0,2671689371,63
o,1717733899.786371,10.0.2.15,22,10.0.2.2,55210,1073725440,17290,1026,65535,65700,0,0,4,1460,312,0,16809988,240000,33580,172,65700,0,104,0,2671689371,63
i,1717733899.786981,10.0.2.15,22,10.0.2.2,55210,1073725440,17290,1026,65535,65700,0,0,4,1460,312,0,16809988,240000,33580,172,65700,0,172,0,2671689371,63
i,1717733899.787337,10.0.2.15,22,10.0.2.2,55210,1073725440,17394,1026,65535,65700,0,0,4,1460,312,0,4,240000,33580,68,65700,0,68,0,2671689371,63
o,1717733899.787471,10.0.2.15,22,10.0.2.2,55210,1073725440,17462,1026,65535,65700,0,0,4,1460,312,0,16777220,240000,33580,72,65700,0,0,0,2671689371,63
i,1717733899.788155,10.0.2.15,22,10.0.2.2,55210,1073725440,17462,1026,65535,65700,0,0,4,1460,312,0,16809988,240000,33580,72,65700,0,72,0,2671689371,63
i,1717733899.788699,10.0.2.15,22,10.0.2.2,55210,1073725440,17534,1026,65535,65700,0,0,4,1460,312,0,4,230000,33580,0,65700,0,0,0,2671689371,63
i,1717733899.791631,10.0.2.15,22,10.0.2.2,55210,1073725440,17534,1026,65535,65700,0,0,4,1460,312,0,4,230000,33580,0,65700,0,0,0,2671689371,63
o,1717733899.791636,10.0.2.15,22,10.0.2.2,55210,1073725440,17534,1026,65535,65700,0,0,4,1460,312,0,5,230000,33580,0,65700,60,0,0,2671689371,63
i,1717733899.791949,10.0.2.15,22,10.0.2.2,55210,1073725440,17534,1026,65535,65700,0,0,4,1460,312,0,4,230000,33580,0,65700,60,0,0,2671689371,63
o,1717733899.791952,10.0.2.15,22,10.0.2.2,55210,1073725440,17534,1026,65535,65640,0,0,5,1460,312,0,7,230000,33580,0,65700,60,0,0,2671689371,63
o,1717733899.792354,10.0.2.15,22,10.0.2.2,55210,1073725440,17534,1026,65535,65640,0,0,8,1460,312,0,4,230000,33580,0,65700,0,0,0,2671689371,63
i,1717733899.793111,10.0.2.15,22,10.0.2.2,55210,1073725440,17534,1026,65535,65640,0,0,8,1460,312,0,20,230000,33580,0,65700,0,1,0,2671689371,63
i,1717733901.861155,10.0.2.15,22,10.0.2.2,55213,1073725440,14600,0,65535,65700,0,0,4,1460,312,0,16777216,270000,33580,0,65700,0,0,0,3329485657,63
o,1717733901.869101,10.0.2.15,22,10.0.2.2,55213,1073725440,14600,1026,65535,65700,0,0,4,1460,312,0,16777216,270000,33580,38,65700,41,0,0,3329485657,63
i,1717733901.870316,10.0.2.15,22,10.0.2.2,55213,1073725440,14600,1026,65535,65700,0,0,4,1460,312,0,16809984,270000,33580,38,65700,41,38,0,3329485657,63
i,1717733901.871530,10.0.2.15,22,10.0.2.2,55213,1073725440,14638,1026,65535,65700,0,0,4,1460,312,0,0,230000,33580,0,65700,0,0,0,3329485657,63
i,1717733901.871541,10.0.2.15,22,10.0.2.2,55213,1073725440,14638,1026,65535,65700,0,0,4,1460,312,0,0,230000,33580,0,65700,1460,0,0,3329485657,63
o,1717733901.871546,10.0.2.15,22,10.0.2.2,55213,1073725440,14638,1026,65535,65700,0,0,4,1460,312,0,1,230000,33580,0,65700,1536,0,0,3329485657,63
o,1717733901.873317,10.0.2.15,22,10.0.2.2,55213,1073725440,14638,1026,65535,65700,0,0,4,1460,312,0,16777216,230000,33580,1080,65700,1536,0,0,3329485657,63
i,1717733901.874067,10.0.2.15,22,10.0.2.2,55213,1073725440,14638,1026,65535,65700,0,0,4,1460,312,0,16809984,230000,33580,1080,65700,1536,1080,0,3329485657,63
i,1717733901.875703,10.0.2.15,22,10.0.2.2,55213,1073725440,15718,1026,65535,65700,0,0,4,1460,312,0,0,240000,33580,0,65700,0,0,0,3329485657,63
o,1717733901.878443,10.0.2.15,22,10.0.2.2,55213,1073725440,15718,1026,65535,65700,0,0,4,1460,312,0,16777216,240000,33580,548,65700,0,0,0,3329485657,63
i,1717733901.879213,10.0.2.15,22,10.0.2.2,55213,1073725440,15718,1026,65535,65700,0,0,4,1460,312,0,16809984,240000,33580,548,65700,0,548,0,3329485657,63
i,1717733901.883750,10.0.2.15,22,10.0.2.2,55213,1073725440,16266,1026,65535,65700,0,0,4,1460,312,0,0,240000,33580,0,65700,0,0,0,3329485657,63
i,1717733901.888098,10.0.2.15,22,10.0.2.2,55213,1073725440,16266,1026,65535,65700,0,0,4,1460,312,0,0,240000,33580,0,65700,0,0,0,3329485657,63
o,1717733901.888102,10.0.2.15,22,10.0.2.2,55213,1073725440,16266,1026,65535,65700,0,0,4,1460,312,0,1,240000,33580,0,65700,44,0,0,3329485657,63
o,1717733901.888252,10.0.2.15,22,10.0.2.2,55213,1073725440,16266,1026,65535,65700,0,0,4,1460,312,0,16777216,240000,33580,44,65700,0,0,0,3329485657,63
i,1717733901.889273,10.0.2.15,22,10.0.2.2,55213,1073725440,16266,1026,65535,65700,0,0,4,1460,312,0,16809984,240000,33580,44,65700,0,44,0,3329485657,63
i,1717733901.889300,10.0.2.15,22,10.0.2.2,55213,1073725440,16310,1026,65535,65700,0,0,4,1460,312,0,0,240000,33580,0,65700,0,0,0,3329485657,63
o,1717733901.890716,10.0.2.15,22,10.0.2.2,55213,1073725440,16310,1026,65535,65700,0,0,4,1460,312,0,16777216,240000,33580,68,65700,0,0,0,3329485657,63
i,1717733901.891398,10.0.2.15,22,10.0.2.2,55213,1073725440,16310,1026,65535,65700,0,0,4,1460,312,0,16809984,240000,33580,68,65700,0,68,0,3329485657,63
i,1717733901.894157,10.0.2.15,22,10.0.2.2,55213,1073725440,16378,1026,65535,65700,0,0,4,1460,312,0,0,240000,33580,0,65700,0,0,0,3329485657,63
o,1717733901.903759,10.0.2.15,22,10.0.2.2,55213,1073725440,16378,1026,65535,65700,0,0,4,1460,312,0,16777216,240000,33580,28,65700,0,0,0,3329485657,63
i,1717733901.904426,10.0.2.15,22,10.0.2.2,55213,1073725440,16378,1026,65535,65700,0,0,4,1460,312,0,16809984,240000,33580,28,65700,0,28,0,3329485657,63
i,1717733901.905001,10.0.2.15,22,10.0.2.2,55213,1073725440,16406,1026,65535,65700,0,0,4,1460,312,0,0,240000,33580,0,65700,0,0,0,3329485657,63
o,1717733901.905852,10.0.2.15,22,10.0.2.2,55213,1073725440,16406,1026,65535,65700,0,0,4,1460,312,0,16777216,240000,33580,768,65700,112,0,0,3329485657,63
i,1717733901.906685,10.0.2.15,22,10.0.2.2,55213,1073725440,16406,1026,65535,65700,0,0,4,1460,312,0,16809984,240000,33580,768,65700,112,768,0,3329485657,63
o,1717733901.907550,10.0.2.15,22,10.0.2.2,55213,1073725440,17174,1026,65535,65700,0,0,4,1460,312,0,16777216,240000,33580,44,65700,0,0,0,3329485657,63
i,1717733901.908322,10.0.2.15,22,10.0.2.2,55213,1073725440,17174,1026,65535,65700,0,0,4,1460,312,0,16809984,240000,33580,44,65700,0,44,0,3329485657,63
i,1717733901.909290,10.0.2.15,22,10.0.2.2,55213,1073725440,17218,1026,65535,65700,0,0,4,1460,312,0,0,230000,33580,0,65700,0,0,0,3329485657,63
o,1717733901.909576,10.0.2.15,22,10.0.2.2,55213,1073725440,17218,1026,65535,65700,0,0,4,1460,312,0,16777220,230000,33580,72,65700,0,0,0,3329485657,63
i,1717733901.910228,10.0.2.15,22,10.0.2.2,55213,1073725440,17218,1026,65535,65700,0,0,4,1460,312,0,16809988,230000,33580,72,65700,0,72,0,3329485657,63
o,1717733901.914491,10.0.2.15,22,10.0.2.2,55213,1073725440,17290,1026,65535,65700,0,0,4,1460,312,0,16777220,230000,33580,76,65700,0,0,0,3329485657,63
o,1717733901.914864,10.0.2.15,22,10.0.2.2,55213,1073725440,17290,1026,65535,65700,0,0,4,1460,312,0,16809988,230000,33580,252,65700,0,76,0,3329485657,63
i,1717733901.915563,10.0.2.15,22,10.0.2.2,55213,1073725440,17290,1026,65535,65700,0,0,4,1460,312,0,16809988,230000,33580,252,65700,0,252,0,3329485657,63
i,1717733901.915567,10.0.2.15,22,10.0.2.2,55213,1073725440,17366,1026,65535,65700,0,0,4,1460,312,0,4,230000,33580,176,65700,0,176,0,3329485657,63
i,1717733901.916098,10.0.2.15,22,10.0.2.2,55213,1073725440,17542,1026,65535,65700,0,0,4,1460,312,0,4,230000,33580,0,65700,0,0,0,3329485657,63
i,1717733901.917013,10.0.2.15,22,10.0.2.2,55213,1073725440,17542,1026,65535,65700,0,0,4,1460,312,0,4,230000,33580,0,65700,0,0,0,3329485657,63
o,1717733901.917017,10.0.2.15,22,10.0.2.2,55213,1073725440,17542,1026,65535,65700,0,0,4,1460,312,0,5,230000,33580,0,65700,60,0,0,3329485657,63
i,1717733901.917093,10.0.2.15,22,10.0.2.2,55213,1073725440,17542,1026,65535,65700,0,0,4,1460,312,0,4,230000,33580,0,65700,60,0,0,3329485657,63
o,1717733901.917096,10.0.2.15,22,10.0.2.2,55213,1073725440,17542,1026,65535,65640,0,0,5,1460,312,0,7,230000,33580,0,65700,60,0,0,3329485657,63
o,1717733901.917714,10.0.2.15,22,10.0.2.2,55213,1073725440,17542,1026,65535,65640,0,0,8,1460,312,0,4,230000,33580,0,65700,0,0,0,3329485657,63
i,1717733901.918432,10.0.2.15,22,10.0.2.2,55213,1073725440,17542,1026,65535,65640,0,0,8,1460,312,0,67108884,230000,33580,0,65700,0,1,0,3329485657,63
i,1717733902.147104,172.16.3.2,5101,172.16.1.2,44080,10500,14480,0,65728,65700,6,6,4,1460,169687,1,16778208,700000,33580,0,65700,0,0,0,1468540860,63
o,1717733902.147290,172.16.3.2,5101,172.16.1.2,44080,10500,14480,1026,65728,65700,6,6,4,1460,169687,1,16778212,700000,33580,1,65700,0,0,0,1468540860,63
i,1717733902.266422,172.16.3.2,5101,172.16.1.2,44080,10500,14480,1026,65728,65700,6,6,4,1460,169687,1,16810980,700000,33580,1,65700,0,1,0,1468540860,63
i,1717733902.266439,172.16.3.2,5101,172.16.1.2,44080,10500,14481,1026,65728,65728,6,6,4,1460,163750,1,996,660000,33580,0,65700,4,0,0,1468540860,63
o,1717733902.266445,172.16.3.2,5101,172.16.1.2,44080,10500,14481,1026,65728,65728,6,6,4,1460,163750,1,997,660000,33580,0,65700,128,0,0,1468540860,63
o,1717733902.266723,172.16.3.2,5101,172.16.1.2,44080,10500,14481,1026,65728,65728,6,6,4,1460,163750,1,16778212,660000,33580,1,65700,0,0,0,1468540860,63
o,1717733902.267478,10.0.2.15,22,10.0.2.2,54467,1073725440,14600,1026,65535,65700,0,0,4,1460,312,0,16777220,240000,33580,84,65700,0,0,0,3031282109,63
i,1717733902.268316,10.0.2.15,22,10.0.2.2,54467,1073725440,14600,1026,65535,65700,0,0,4,1460,312,0,16809988,240000,33580,84,65700,0,84,0,3031282109,63
i,1717733902.417167,172.16.3.2,5101,172.16.1.2,44080,10500,14481,1026,65728,65728,6,6,4,1460,163750,1,16810980,660000,33580,1,65700,0,1,0,1468540860,63
i,1717733902.507323,172.16.3.2,5101,172.16.1.2,52110,10500,14480,0,65728,65700,6,6,4,1460,170937,1,16778208,690000,33580,0,65700,0,0,0,4054349837,63
o,1717733902.509230,172.16.3.2,5101,172.16.1.2,44080,10500,14482,1026,65728,65728,6,6,4,1460,162187,1,16778212,590000,33580,1,65700,0,0,0,1468540860,63
o,1717733902.509610,172.16.3.2,5101,172.16.1.2,44080,10500,14482,1026,65728,65728,6,6,4,1460,162187,1,16810980,590000,33580,2,65700,0,1,0,1468540860,63
o,1717733902.509915,10.0.2.15,22,10.0.2.2,54467,1073725440,14600,1026,65535,65700,0,0,4,1460,312,0,16777220,240000,33580,108,65700,0,0,0,3031282109,63
i,1717733902.510643,10.0.2.15,22,10.0.2.2,54467,1073725440,14600,1026,65535,65700,0,0,4,1460,312,0,16809988,240000,33580,108,65700,0,108,0,3031282109,63
o,1717733902.538929,172.16.3.2,5101,172.16.1.2,52110,10500,14480,2,65728,65700,6,6,4,1460,170937,1,16778209,690000,33580,0,65700,0,0,0,4054349837,63
i,1717733902.626250,172.16.3.2,5101,172.16.1.2,44080,10500,14482,1026,65728,65728,6,6,4,1460,162187,1,16810980,590000,33580,2,65700,0,2,0,1468540860,63
i,1717733902.726709,172.16.3.2,5101,172.16.1.2,52110,10500,14480,2,65728,65700,6,6,4,1460,170937,1,16778208,690000,33580,0,65700,0,0,0,4054349837,63
i,1717733902.736951,172.16.3.2,5101,172.16.1.2,52110,10500,14480,2,65728,65700,6,6,4,1460,170937,1,16778208,690000,33580,0,65700,0,0,0,4054349837,63
o,1717733902.736960,172.16.3.2,5101,172.16.1.2,52110,10500,14480,2,65728,65700,6,6,4,1460,170937,1,16778209,690000,33580,0,65700,1448,0,0,4054349837,63
i,1717733902.746322,172.16.3.2,5101,172.16.1.2,52110,10500,14480,2,65728,65700,6,6,4,1460,170937,1,16778208,690000,33580,0,65700,0,0,0,4054349837,63
i,1717733902.756769,172.16.3.2,5101,172.16.1.2,52110,10500,14480,2,65728,65700,6,6,4,1460,170937,1,16778208,690000,33580,0,65700,0,0,0,4054349837,63
o,1717733902.756776,172.16.3.2,5101,172.16.1.2,52110,10500,14480,2,65728,65700,6,6,4,1460,170937,1,16778209,690000,33580,0,65700,1448,0,0,4054349837,63
i,1717733902.776417,172.16.3.2,5101,172.16.1.2,52110,10500,14480,2,65728,65700,6,6,4,1460,170937,1,16778208,690000,33580,0,65700,0,0,0,4054349837,63
i,1717733902.786698,172.16.3.2,5101,172.16.1.2,52110,10500,14480,2,65728,65700,6,6,4,1460,170937,1,16778208,690000,33580,0,65700,0,0,0,4054349837,63
o,1717733902.786705,172.16.3.2,5101,172.16.1.2,52110,10500,14480,2,65728,65700,6,6,4,1460,170937,1,16778209,690000,33580,0,65700,1448,0,0,4054349837,63
i,1717733902.796085,172.16.3.2,5101,172.16.1.2,52110,10500,14480,2,65728,65700,6,6,4,1460,170937,1,16778208,690000,33580,0,65700,0,0,0,4054349837,63
i,1717733902.807358,172.16.3.2,5101,172.16.1.2,52110,10500,14480,2,65728,65700,6,6,4,1460,170937,1,16778208,690000,33580,0,65700,0,0,0,4054349837,63
o,1717733902.807364,172.16.3.2,5101,172.16.1.2,52110,10500,14480,2,65728,65700,6,6,4,1460,170937,1,16778209,690000,33580,0,65700,1448,0,0,4054349837,63
i,1717733902.827156,172.16.3.2,5101,172.16.1.2,52110,10500,14480,2,65728,65700,6,6,4,1460,170937,1,16778208,690000,33580,0,65700,0,0,0,4054349837,63
i,1717733902.836539,172.16.3.2,5101,172.16.1.2,52110,10500,14480,2,65728,65700,6,6,4,1460,170937,1,16778208,690000,33580,0,65700,0,0,0,4054349837,63
o,1717733902.836546,172.16.3.2,5101,172.16.1.2,52110,10500,14480,2,65728,65700,6,6,4,1460,170937,1,16778209,690000,33580,0,65700,1448,0,0,4054349837,63
i,1717733902.947057,172.16.3.2,5101,172.16.1.2,52110,10500,14480,2,65728,65700,6,6,4,1460,170937,1,16778208,690000,33580,0,65700,0,0,0,4054349837,63
i,1717733902.956845,172.16.3.2,5101,172.16.1.2,52110,10500,14480,2,65728,65700,6,6,4,1460,170937,1,16778208,690000,33580,0,65700,0,0,0,4054349837,63
o,1717733902.956854,172.16.3.2,5101,172.16.1.2,52110,10500,14480,2,65728,65700,6,6,4,1460,170937,1,16778209,690000,33580,0,65700,1448,0,0,4054349837,63
i,1717733903.017442,172.16.3.2,5101,172.16.1.2,52110,10500,14480,2,65728,65700,6,6,4,1460,170937,1,16778208,690000,33580,0,65700,0,0,0,4054349837,63
o,1717733903.049062,172.16.3.2,5101,172.16.1.2,52110,10500,14480,2,65728,65700,6,6,4,1460,170937,1,16778209,690000,33580,0,65700,0,0,0,4054349837,63
i,1717733903.077576,172.16.3.2,5101,172.16.1.2,52110,10500,14480,2,65728,65700,6,6,4,1460,170937,1,16778208,690000,33580,0,65700,0,0,0,4054349837,63
i,1717733903.087055,172.16.3.2,5101,172.16.1.2,52110,10500,14480,2,65728,65700,6,6,4,1460,170937,1,16778208,690000,33580,0,65700,0,0,0,4054349837,63
o,1717733903.087064,172.16.3.2,5101,172.16.1.2,52110,10500,14480,2,65728,65700,6,6,4,1460,170937,1,16778209,690000,33580,0,65700,1448,0,0,4054349837,63
i,1717733903.106720,172.16.3.2,5101,172.16.1.2,52110,10500,14480,2,65728,65700,6,6,4,1460,170937,1,16778208,690000,33580,0,65700,0,0,0,4054349837,63
o,1717733903.139321,172.16.3.2,5101,172.16.1.2,52110,10500,14480,2,65728,65700,6,6,4,1460,170937,1,16778209,690000,33580,0,65700,0,0,0,4054349837,63
i,1717733903.166948,172.16.3.2,5101,172.16.1.2,52110,10500,14480,2,65728,65700,6,6,4,1460,170937,1,16778208,690000,33580,0,65700,0,0,0,4054349837,63
i,1717733903.176336,172.16.3.2,5101,172.16.1.2,52110,10500,14480,2,65728,65700,6,6,4,1460,170937,1,16778208,690000,33580,0,65700,0,0,0,4054349837,63
o,1717733903.176343,172.16.3.2,5101,172.16.1.2,52110,10500,14480,2,65728,65700,6,6,4,1460,170937,1,16778209,690000,33580,0,65700,1448,0,0,4054349837,63
i,1717733903.186621,172.16.3.2,5101,172.16.1.2,52110,10500,14480,2,65728,65700,6,6,4,1460,170937,1,16778208,690000,33580,0,65700,0,0,0,4054349837,63
i,1717733903.196845,172.16.3.2,5101,172.16.1.2,52110,10500,14480,2,65728,65700,6,6,4,1460,170937,1,16778208,690000,33580,0,65700,0,0,0,4054349837,63
o,1717733903.196851,172.16.3.2,5101,172.16.1.2,52110,10500,14480,2,65728,65700,6,6,4,1460,170937,1,16778209,690000,33580,0,65700,1448,0,0,4054349837,63
i,1717733903.217647,172.16.3.2,5101,172.16.1.2,52110,10500,14480,2,65728,65700,6,6,4,1460,170937,1,16778208,690000,33580,0,65700,0,0,0,4054349837,63
i,1717733903.226527,172.16.3.2,5101,172.16.1.2,52110,10500,14480,2,65728,65700,6,6,4,1460,170937,1,16778208,690000,33580,0,65700,0,0,0,4054349837,63
o,1717733903.226532,172.16.3.2,5101,172.16.1.2,52110,10500,14480,2,65728,65700,6,6,4,1460,170937,1,16778209,690000,33580,0,65700,1448,0,0,4054349837,63
i,1717733903.237004,172.16.3.2,5101,172.16.1.2,52110,10500,14480,2,65728,65700,6,6,4,1460,170937,1,16778208,690000,33580,0,65700,0,0,0,4054349837,63
o,1717733903.269066,172.16.3.2,5101,172.16.1.2,52110,10500,14480,2,65728,65700,6,6,4,1460,170937,1,16778209,690000,33580,0,65700,0,0,0,4054349837,63
i,1717733903.276347,172.16.3.2,5101,172.16.1.2,52110,10500,14480,2,65728,65700,6,6,4,1460,170937,1,16778208,690000,33580,0,65700,0,0,0,4054349837,63
i,1717733903.286740,172.16.3.2,5101,172.16.1.2,52110,10500,14480,2,65728,65700,6,6,4,1460,170937,1,16778208,690000,33580,0,65700,0,0,0,4054349837,63
o,1717733903.286746,172.16.3.2,5101,172.16.1.2,52110,10500,14480,2,65728,65700,6,6,4,1460,170937,1,16778209,690000,33580,0,65700,1448,0,0,4054349837,63
i,1717733903.297151,172.16.3.2,5101,172.16.1.2,52110,10500,14480,2,65728,65700,6,6,4,1460,170937,1,16778208,690000,33580,0,65700,0,0,0,4054349837,63
i,1717733903.327154,172.16.3.2,5101,172.16.1.2,52110,10500,14480,2,65728,65700,6,6,4,1460,170937,1,16778208,690000,33580,0,65700,0,0,0,4054349837,63
o,1717733903.327160,172.16.3.2,5101,172.16.1.2,52110,10500,14480,2,65728,65700,6,6,4,1460,170937,1,16778209,690000,33580,0,65700,1448,0,0,4054349837,63
i,1717733903.336414,172.16.3.2,5101,172.16.1.2,52110,10500,14480,2,65728,65700,6,6,4,1460,170937,1,16778208,690000,33580,0,65700,0,0,0,4054349837,63
i,1717733903.346937,172.16.3.2,5101,172.16.1.2,52110,10500,14480,2,65728,65700,6,6,4,1460,170937,1,16778208,690000,33580,0,65700,0,0,0,4054349837,63
o,1717733903.346944,172.16.3.2,5101,172.16.1.2,52110,10500,14480,2,65728,65700,6,6,4,1460,170937,1,16778209,690000,33580,0,65700,0,0,1,4054349837,63
i,1717733903.396718,172.16.3.2,5101,172.16.1.2,52110,10500,14480,2,65728,65700,6,6,4,1460,170937,1,16778208,690000,33580,0,65700,0,0,1,4054349837,63
o,1717733903.396727,172.16.3.2,5101,172.16.1.2,52110,10500,14480,2,65728,65728,6,6,4,1460,170937,1,16778209,690000,33580,0,65700,0,0,1,4054349837,63
i,1717733903.437185,172.16.3.2,5101,172.16.1.2,52110,10500,14480,2,65728,65728,6,6,4,1460,170937,1,16778208,690000,33580,0,65700,0,0,1,4054349837,63
o,1717733903.437191,172.16.3.2,5101,172.16.1.2,52110,10500,14480,2,65728,65728,6,6,4,1460,170937,1,16778209,690000,33580,0,65700,0,0,1,4054349837,63
i,1717733903.507539,172.16.3.2,5101,172.16.1.2,52110,10500,14480,2,65728,65728,6,6,4,1460,170937,1,16778208,690000,33580,0,65700,0,0,1,4054349837,63
o,1717733903.507546,172.16.3.2,5101,172.16.1.2,52110,10500,14480,2,65728,65728,6,6,4,1460,170937,1,16778209,690000,33580,0,65700,0,0,2,4054349837,63
o,1717733903.519593,10.0.2.15,22,10.0.2.2,54467,1073725440,14600,1026,65535,65700,0,0,4,1460,312,0,16777220,240000,33580,156,65700,0,0,0,3031282109,63
i,1717733903.520438,10.0.2.15,22,10.0.2.2,54467,1073725440,14600,1026,65535,65700,0,0,4,1460,312,0,16809988,240000,33580,156,65700,0,156,0,3031282109,63
i,1717733903.546410,172.16.3.2,5101,172.16.1.2,52110,10500,14480,2,65728,65728,6,6,4,1460,170937,1,16778208,690000,33580,0,65700,0,0,2,4054349837,63
o,1717733903.546417,172.16.3.2,5101,172.16.1.2,52110,10500,14480,2,65728,65728,6,6,4,1460,170937,1,16778209,690000,33580,0,65700,0,0,3,4054349837,63
i,1717733903.576496,172.16.3.2,5101,172.16.1.2,52110,10500,14480,2,65728,65728,6,6,4,1460,170937,1,16778208,690000,33580,0,65700,0,0,3,4054349837,63
o,1717733903.576502,172.16.3.2,5101,172.16.1.2,52110,10500,14480,2,65728,65728,6,6,4,1460,170937,1,16778209,690000,33580,0,65700,0,0,3,4054349837,63
i,1717733903.606836,172.16.3.2,5101,172.16.1.2,52110,10500,14480,2,65728,65728,6,6,4,1460,170937,1,16778208,690000,33580,0,65700,0,0,3,4054349837,63
o,1717733903.606842,172.16.3.2,5101,172.16.1.2,52110,10500,14480,2,65728,65728,6,6,4,1460,170937,1,16778209,690000,33580,0,65700,0,0,3,4054349837,63
i,1717733903.616936,172.16.3.2,5101,172.16.1.2,52110,10500,14480,2,65728,65728,6,6,4,1460,170937,1,16778208,690000,33580,0,65700,0,0,3,4054349837,63
o,1717733903.616941,172.16.3.2,5101,172.16.1.2,52110,10500,14480,2,65728,65728,6,6,4,1460,170937,1,16778209,690000,33580,0,65700,0,0,3,4054349837,63
i,1717733903.627628,172.16.3.2,5101,172.16.1.2,52110,10500,14480,2,65728,65728,6,6,4,1460,170937,1,16778208,690000,33580,0,65700,0,0,3,4054349837,63
o,1717733903.627633,172.16.3.2,5101,172.16.1.2,52110,10500,14480,2,65728,65728,6,6,4,1460,170937,1,16778209,690000,33580,0,65700,0,0,3,4054349837,63
i,1717733903.666894,172.16.3.2,5101,172.16.1.2,52110,10500,14480,2,65728,65728,6,6,4,1460,170937,1,16778208,690000,33580,0,65700,0,0,3,4054349837,63
o,1717733903.666899,172.16.3.2,5101,172.16.1.2,52110,10500,14480,2,65728,65728,6,6,4,1460,170937,1,16778209,690000,33580,0,65700,0,0,4,4054349837,63
i,1717733903.686652,172.16.3.2,5101,172.16.1.2,52110,10500,14480,2,65728,65728,6,6,4,1460,170937,1,16778208,690000,33580,0,65700,0,0,4,4054349837,63
o,1717733903.686656,172.16.3.2,5101,172.16.1.2,52110,10500,14480,2,65728,65728,6,6,4,1460,170937,1,16778209,690000,33580,0,65700,0,0,4,4054349837,63
i,1717733903.707205,172.16.3.2,5101,172.16.1.2,52110,10500,14480,2,65728,65728,6,6,4,1460,170937,1,16778208,690000,33580,0,65700,0,0,4,4054349837,63
o,1717733903.707210,172.16.3.2,5101,172.16.1.2,52110,10500,14480,2,65728,65728,6,6,4,1460,170937,1,16778209,690000,33580,0,65700,0,0,5,4054349837,63
i,1717733903.716702,172.16.3.2,5101,172.16.1.2,52110,10500,14480,2,65728,65728,6,6,4,1460,170937,1,16778208,690000,33580,0,65700,0,0,5,4054349837,63
o,1717733903.716706,172.16.3.2,5101,172.16.1.2,52110,10500,14480,2,65728,65728,6,6,4,1460,170937,1,16778209,690000,33580,0,65700,0,0,5,4054349837,63
i,1717733903.737254,172.16.3.2,5101,172.16.1.2,52110,10500,14480,2,65728,65728,6,6,4,1460,170937,1,16778208,690000,33580,0,65700,0,0,5,4054349837,63
o,1717733903.737260,172.16.3.2,5101,172.16.1.2,52110,10500,14480,2,65728,65728,6,6,4,1460,170937,1,16778209,690000,33580,0,65700,0,0,6,4054349837,63
i,1717733903.746728,172.16.3.2,5101,172.16.1.2,52110,10500,14480,2,65728,65728,6,6,4,1460,170937,1,16778208,690000,33580,0,65700,0,0,6,4054349837,63
o,1717733903.746732,172.16.3.2,5101,172.16.1.2,52110,10500,14480,2,65728,65728,6,6,4,1460,170937,1,16778209,690000,33580,0,65700,0,0,6,4054349837,63
i,1717733903.757059,172.16.3.2,5101,172.16.1.2,52110,10500,14480,2,65728,65728,6,6,4,1460,170937,1,16778208,690000,33580,0,65700,0,0,6,4054349837,63
o,1717733903.757064,172.16.3.2,5101,172.16.1.2,52110,10500,14480,2,65728,65728,6,6,4,1460,170937,1,16778209,690000,33580,0,65700,0,0,6,4054349837,63
i,1717733903.786658,172.16.3.2,5101,172.16.1.2,52110,10500,14480,2,65728,65728,6,6,4,1460,170937,1,16778208,690000,33580,0,65700,0,0,6,4054349837,63
o,1717733903.786667,172.16.3.2,5101,172.16.1.2,52110,10500,14480,2,65728,65728,6,6,4,1460,170937,1,16778209,690000,33580,0,65700,5792,0,5,4054349837,63
i,1717733903.807344,172.16.3.2,5101,172.16.1.2,52110,10500,14480,2,65728,65728,6,6,4,1460,170937,1,16778208,690000,33580,0,65700,0,0,5,4054349837,63
o,1717733903.807349,172.16.3.2,5101,172.16.1.2,52110,10500,14480,2,65728,65700,6,6,4,1460,170937,1,16778209,690000,33580,0,65700,0,0,4,4054349837,63
i,1717733903.836248,172.16.3.2,5101,172.16.1.2,52110,10500,14480,2,65728,65700,6,6,4,1460,170937,1,16778208,690000,33580,0,65700,0,0,4,4054349837,63
o,1717733903.836255,172.16.3.2,5101,172.16.1.2,52110,10500,14480,2,65728,65728,6,6,4,1460,170937,1,16778209,690000,33580,0,65700,0,0,3,4054349837,63
i,1717733903.867475,172.16.3.2,5101,172.16.1.2,52110,10500,14480,2,65728,65728,6,6,4,1460,170937,1,16778208,690000,33580,0,65700,0,0,3,4054349837,63
o,1717733903.867484,172.16.3.2,5101,172.16.1.2,52110,10500,14480,2,65728,65728,6,6,4,1460,170937,1,16778209,690000,33580,0,65700,0,0,2,4054349837,63
i,1717733903.906821,172.16.3.2,5101,172.16.1.2,52110,10500,14480,2,65728,65728,6,6,4,1460,170937,1,16778208,690000,33580,0,65700,0,0,2,4054349837,63
o,1717733903.906829,172.16.3.2,5101,172.16.1.2,52110,10500,14480,2,65728,65728,6,6,4,1460,170937,1,16778209,690000,33580,0,65700,0,0,1,4054349837,63
i,1717733903.936885,172.16.3.2,5101,172.16.1.2,52110,10500,14480,2,65728,65728,6,6,4,1460,170937,1,16778208,690000,33580,0,65700,0,0,1,4054349837,63
i,1717733903.966888,172.16.3.2,5101,172.16.1.2,52110,10500,14480,2,65728,65728,6,6,4,1460,170937,1,16778208,690000,33580,0,65700,0,0,1,4054349837,63
o,1717733903.966913,172.16.3.2,5101,172.16.1.2,52110,10500,14480,2,65728,65728,6,6,4,1460,170937,1,16778209,690000,33580,0,65700,0,0,2,4054349837,63
i,1717733904.007408,172.16.3.2,5101,172.16.1.2,52110,10500,14480,2,65728,65728,6,6,4,1460,170937,1,16778208,690000,33580,0,65700,0,0,2,4054349837,63
o,1717733904.007412,172.16.3.2,5101,172.16.1.2,52110,10500,14480,2,65728,65728,6,6,4,1460,170937,1,16778209,690000,33580,0,65700,0,0,2,4054349837,63
i,1717733904.016776,172.16.3.2,5101,172.16.1.2,52110,10500,14480,2,65728,65728,6,6,4,1460,170937,1,16778208,690000,33580,0,65700,0,0,2,4054349837,63
o,1717733904.016782,172.16.3.2,5101,172.16.1.2,52110,10500,14480,2,65728,65728,6,6,4,1460,170937,1,16778209,690000,33580,0,65700,0,0,2,4054349837,63
i,1717733904.027225,172.16.3.2,5101,172.16.1.2,52110,10500,14480,2,65728,65728,6,6,4,1460,170937,1,16778208,690000,33580,0,65700,0,0,2,4054349837,63
o,1717733904.027230,172.16.3.2,5101,172.16.1.2,52110,10500,14480,2,65728,65728,6,6,4,1460,170937,1,16778209,690000,33580,0,65700,0,0,2,4054349837,63
i,1717733904.066816,172.16.3.2,5101,172.16.1.2,52110,10500,14480,2,65728,65728,6,6,4,1460,170937,1,16778208,690000,33580,0,65700,0,0,2,4054349837,63
o,1717733904.066821,172.16.3.2,5101,172.16.1.2,52110,10500,14480,2,65728,65728,6,6,4,1460,170937,1,16778209,690000,33580,0,65700,0,0,2,4054349837,63
i,1717733904.096272,172.16.3.2,5101,172.16.1.2,52110,10500,14480,2,65728,65728,6,6,4,1460,170937,1,16778208,690000,33580,0,65700,0,0,2,4054349837,63
o,1717733904.096278,172.16.3.2,5101,172.16.1.2,52110,10500,14480,2,65728,65728,6,6,4,1460,170937,1,16778209,690000,33580,0,65700,0,0,2,4054349837,63
i,1717733904.106570,172.16.3.2,5101,172.16.1.2,52110,10500,14480,2,65728,65728,6,6,4,1460,170937,1,16778208,690000,33580,0,65700,0,0,2,4054349837,63
o,1717733904.106575,172.16.3.2,5101,172.16.1.2,52110,10500,14480,2,65728,65728,6,6,4,1460,170937,1,16778209,690000,33580,0,65700,0,0,2,4054349837,63
i,1717733904.116851,172.16.3.2,5101,172.16.1.2,52110,10500,14480,2,65728,65728,6,6,4,1460,170937,1,16778208,690000,33580,0,65700,0,0,2,4054349837,63
o,1717733904.116856,172.16.3.2,5101,172.16.1.2,52110,10500,14480,2,65728,65728,6,6,4,1460,170937,1,16778209,690000,33580,0,65700,0,0,2,4054349837,63
i,1717733904.166682,172.16.3.2,5101,172.16.1.2,52110,10500,14480,2,65728,65728,6,6,4,1460,170937,1,16778208,690000,33580,0,65700,0,0,2,4054349837,63
o,1717733904.166691,172.16.3.2,5101,172.16.1.2,52110,10500,14480,2,65728,65728,6,6,4,1460,170937,1,16778209,690000,33580,0,65700,0,0,2,4054349837,63
i,1717733904.196630,172.16.3.2,5101,172.16.1.2,52110,10500,14480,2,65728,65728,6,6,4,1460,170937,1,16778208,690000,33580,0,65700,0,0,2,4054349837,63
o,1717733904.196639,172.16.3.2,5101,172.16.1.2,52110,10500,14480,2,65728,65728,6,6,4,1460,170937,1,16778209,690000,33580,0,65700,0,0,2,4054349837,63
i,1717733904.207048,172.16.3.2,5101,172.16.1.2,52110,10500,14480,2,65728,65728,6,6,4,1460,170937,1,16778208,690000,33580,0,65700,0,0,2,4054349837,63
o,1717733904.207053,172.16.3.2,5101,172.16.1.2,52110,10500,14480,2,65728,65728,6,6,4,1460,170937,1,16778209,690000,33580,0,65700,0,0,2,4054349837,63
i,1717733904.226631,172.16.3.2,5101,172.16.1.2,52110,10500,14480,2,65728,65728,6,6,4,1460,170937,1,16778208,690000,33580,0,65700,0,0,2,4054349837,63
o,1717733904.226636,172.16.3.2,5101,172.16.1.2,52110,10500,14480,2,65728,65728,6,6,4,1460,170937,1,16778209,690000,33580,0,65700,0,0,2,4054349837,63
i,1717733904.266202,172.16.3.2,5101,172.16.1.2,52110,10500,14480,2,65728,65728,6,6,4,1460,170937,1,16778208,690000,33580,0,65700,0,0,2,4054349837,63
o,1717733904.266210,172.16.3.2,5101,172.16.1.2,52110,10500,14480,2,65728,65728,6,6,4,1460,170937,1,16778209,690000,33580,0,65700,0,0,2,4054349837,63
i,1717733904.296181,172.16.3.2,5101,172.16.1.2,52110,10500,14480,2,65728,65728,6,6,4,1460,170937,1,16778208,690000,33580,0,65700,0,0,2,4054349837,63
o,1717733904.296186,172.16.3.2,5101,172.16.1.2,52110,10500,14480,2,65728,65728,6,6,4,1460,170937,1,16778209,690000,33580,0,65700,0,0,2,4054349837,63
i,1717733904.307702,172.16.3.2,5101,172.16.1.2,52110,10500,14480,2,65728,65728,6,6,4,1460,170937,1,16778208,690000,33580,0,65700,0,0,2,4054349837,63
o,1717733904.307708,172.16.3.2,5101,172.16.1.2,52110,10500,14480,2,65728,65728,6,6,4,1460,170937,1,16778209,690000,33580,0,65700,0,0,2,4054349837,63
i,1717733904.346952,172.16.3.2,5101,172.16.1.2,52110,10500,14480,2,65728,65728,6,6,4,1460,170937,1,16778208,690000,33580,0,65700,0,0,2,4054349837,63
o,1717733904.346957,172.16.3.2,5101,172.16.1.2,52110,10500,14480,2,65728,65728,6,6,4,1460,170937,1,16778209,690000,33580,0,65700,0,0,2,4054349837,63
i,1717733904.366267,172.16.3.2,5101,172.16.1.2,52110,10500,14480,2,65728,65728,6,6,4,1460,170937,1,16778208,690000,33580,0,65700,0,0,2,4054349837,63
o,1717733904.366274,172.16.3.2,5101,172.16.1.2,52110,10500,14480,2,65728,65728,6,6,4,1460,170937,1,16778209,690000,33580,0,65700,0,0,2,4054349837,63
i,1717733904.386912,172.16.3.2,5101,172.16.1.2,52110,10500,14480,2,65728,65728,6,6,4,1460,170937,1,16778208,690000,33580,0,65700,0,0,2,4054349837,63
o,1717733904.386918,172.16.3.2,5101,172.16.1.2,52110,10500,14480,2,65728,65728,6,6,4,1460,170937,1,16778209,690000,33580,0,65700,0,0,2,4054349837,63
i,1717733904.406681,172.16.3.2,5101,172.16.1.2,52110,10500,14480,2,65728,65728,6,6,4,1460,170937,1,16778208,690000,33580,0,65700,0,0,2,4054349837,63
o,1717733904.406686,172.16.3.2,5101,172.16.1.2,52110,10500,14480,2,65728,65728,6,6,4,1460,170937,1,16778209,690000,33580,0,65700,0,0,2,4054349837,63
i,1717733904.447022,172.16.3.2,5101,172.16.1.2,52110,10500,14480,2,65728,65728,6,6,4,1460,170937,1,16778208,690000,33580,0,65700,0,0,2,4054349837,63
o,1717733904.447027,172.16.3.2,5101,172.16.1.2,52110,10500,14480,2,65728,65728,6,6,4,1460,170937,1,16778209,690000,33580,0,65700,0,0,2,4054349837,63
i,1717733904.457006,172.16.3.2,5101,172.16.1.2,52110,10500,14480,2,65728,65728,6,6,4,1460,170937,1,16778208,690000,33580,0,65700,0,0,2,4054349837,63
o,1717733904.457012,172.16.3.2,5101,172.16.1.2,52110,10500,14480,2,65728,65728,6,6,4,1460,170937,1,16778209,690000,33580,0,65700,0,0,2,4054349837,63
i,1717733904.466798,172.16.3.2,5101,172.16.1.2,52110,10500,14480,2,65728,65728,6,6,4,1460,170937,1,16778208,690000,33580,0,65700,0,0,2,4054349837,63
o,1717733904.466803,172.16.3.2,5101,172.16.1.2,52110,10500,14480,2,65728,65728,6,6,4,1460,170937,1,16778209,690000,33580,0,65700,0,0,2,4054349837,63
o,1717733904.528663,10.0.2.15,22,10.0.2.2,54467,1073725440,14600,1026,65535,65700,0,0,4,1460,312,0,16777220,240000,33580,108,65700,0,0,0,3031282109,63
i,1717733904.529429,10.0.2.15,22,10.0.2.2,54467,1073725440,14600,1026,65535,65700,0,0,4,1460,312,0,16809988,240000,33580,108,65700,0,108,0,3031282109,63
i,1717733904.967398,172.16.3.2,5101,172.16.1.2,52110,10500,14480,2,65728,65728,6,6,4,1460,170937,1,16778208,690000,33580,0,65700,0,0,2,4054349837,63
o,1717733904.967423,172.16.3.2,5101,172.16.1.2,52110,10500,14480,2,65728,65728,6,6,4,1460,170937,1,16778209,690000,33580,0,65700,26064,0,1,4054349837,63
o,1717733904.967585,172.16.3.2,5101,172.16.1.2,52110,10500,14480,2,65728,65728,6,6,4,1460,170937,1,16778208,690000,33580,0,65700,0,0,1,4054349837,63
i,1717733905.107036,172.16.3.2,5101,172.16.1.2,52110,10500,14480,2,65728,65728,6,6,4,1460,170937,1,16778208,690000,33580,0,65700,0,0,1,4054349837,63
o,1717733905.107065,172.16.3.2,5101,172.16.1.2,52110,10500,14480,2,65728,65728,6,6,4,1460,170937,1,16778209,690000,33580,0,65700,33304,0,0,4054349837,63
o,1717733905.107263,172.16.3.2,5101,172.16.1.2,52110,10500,14480,2,65728,65728,6,6,4,1460,170937,1,16778208,690000,33580,0,65700,0,0,0,4054349837,63
i,1717733905.237195,172.16.3.2,5101,172.16.1.2,52110,10500,14480,2,65728,65728,6,6,4,1460,170937,1,16778208,690000,33580,0,65700,0,0,0,4054349837,63
i,1717733905.246879,172.16.3.2,5101,172.16.1.2,52110,10500,14480,2,65728,65728,6,6,4,1460,170937,1,16778208,690000,33580,0,65700,0,0,0,4054349837,63
o,1717733905.246891,172.16.3.2,5101,172.16.1.2,52110,10500,14480,2,65728,65728,6,6,4,1460,170937,1,16778209,690000,33580,0,65700,1448,0,0,4054349837,63
i,1717733905.267605,172.16.3.2,5101,172.16.1.2,52110,10500,14480,2,65728,65728,6,6,4,1460,170937,1,16778208,690000,33580,0,65700,0,0,0,4054349837,63
o,1717733905.298996,172.16.3.2,5101,172.16.1.2,52110,10500,14480,2,65728,65728,6,6,4,1460,170937,1,16778209,690000,33580,0,65700,0,0,0,4054349837,63
i,1717733905.376492,172.16.3.2,5101,172.16.1.2,52110,10500,14480,2,65728,65728,6,6,4,1460,170937,1,16778208,690000,33580,0,65700,0,0,0,4054349837,63
o,1717733905.409066,172.16.3.2,5101,172.16.1.2,52110,10500,14480,2,65728,65728,6,6,4,1460,170937,1,16778209,690000,33580,0,65700,0,0,0,4054349837,63
i,1717733905.447038,172.16.3.2,5101,172.16.1.2,52110,10500,14480,2,65728,65728,6,6,4,1460,170937,1,16778208,690000,33580,0,65700,0,0,0,4054349837,63
o,1717733905.478597,172.16.3.2,5101,172.16.1.2,52110,10500,14480,2,65728,65728,6,6,4,1460,170937,1,16778209,690000,33580,0,65700,0,0,0,4054349837,63
o,1717733905.529507,10.0.2.15,22,10.0.2.2,54467,1073725440,14600,1026,65535,65700,0,0,4,1460,312,0,16777220,240000,33580,108,65700,0,0,0,3031282109,63
i,1717733905.530228,10.0.2.15,22,10.0.2.2,54467,1073725440,14600,1026,65535,65700,0,0,4,1460,312,0,16809988,240000,33580,108,65700,0,108,0,3031282109,63
i,1717733905.546206,172.16.3.2,5101,172.16.1.2,52110,10500,14480,2,65728,65728,6,6,4,1460,170937,1,16778208,690000,33580,0,65700,0,0,0,4054349837,63
o,1717733905.579289,172.16.3.2,5101,172.16.1.2,52110,10500,14480,2,65728,65728,6,6,4,1460,170937,1,16778209,690000,33580,0,65700,0,0,0,4054349837,63
i,1717733905.617041,172.16.3.2,5101,172.16.1.2,52110,10500,14480,2,65728,65728,6,6,4,1460,170937,1,16778208,690000,33580,0,65700,0,0,0,4054349837,63
o,1717733905.648764,172.16.3.2,5101,172.16.1.2,52110,10500,14480,2,65728,65728,6,6,4,1460,170937,1,16778209,690000,33580,0,65700,0,0,0,4054349837,63
i,1717733905.716340,172.16.3.2,5101,172.16.1.2,52110,10500,14480,2,65728,65728,6,6,4,1460,170937,1,16778208,690000,33580,0,65700,0,0,0,4054349837,63
o,1717733905.748811,172.16.3.2,5101,172.16.1.2,52110,10500,14480,2,65728,65728,6,6,4,1460,170937,1,16778209,690000,33580,0,65700,0,0,0,4054349837,63
i,1717733905.787526,172.16.3.2,5101,172.16.1.2,52110,10500,14480,2,65728,65728,6,6,4,1460,170937,1,16778208,690000,33580,0,65700,0,0,0,4054349837,63
o,1717733905.819505,172.16.3.2,5101,172.16.1.2,52110,10500,14480,2,65728,65728,6,6,4,1460,170937,1,16778209,690000,33580,0,65700,0,0,0,4054349837,63
i,1717733905.887292,172.16.3.2,5101,172.16.1.2,52110,10500,14480,2,65728,65728,6,6,4,1460,170937,1,16778208,690000,33580,0,65700,0,0,0,4054349837,63
o,1717733905.918861,172.16.3.2,5101,172.16.1.2,52110,10500,14480,2,65728,65728,6,6,4,1460,170937,1,16778209,690000,33580,0,65700,0,0,0,4054349837,63
i,1717733905.956413,172.16.3.2,5101,172.16.1.2,52110,10500,14480,2,65728,65728,6,6,4,1460,170937,1,16778208,690000,33580,0,65700,0,0,0,4054349837,63
o,1717733905.989264,172.16.3.2,5101,172.16.1.2,52110,10500,14480,2,65728,65728,6,6,4,1460,170937,1,16778209,690000,33580,0,65700,0,0,0,4054349837,63
i,1717733906.056266,172.16.3.2,5101,172.16.1.2,52110,10500,14480,2,65728,65728,6,6,4,1460,170937,1,16778208,690000,33580,0,65700,0,0,0,4054349837,63
o,1717733906.088940,172.16.3.2,5101,172.16.1.2,52110,10500,14480,2,65728,65728,6,6,4,1460,170937,1,16778209,690000,33580,0,65700,0,0,0,4054349837,63
i,1717733906.126199,172.16.3.2,5101,172.16.1.2,52110,10500,14480,2,65728,65728,6,6,4,1460,170937,1,16778208,690000,33580,0,65700,0,0,0,4054349837,63
o,1717733906.158678,172.16.3.2,5101,172.16.1.2,52110,10500,14480,2,65728,65728,6,6,4,1460,170937,1,16778209,690000,33580,0,65700,0,0,0,4054349837,63
i,1717733906.226534,172.16.3.2,5101,172.16.1.2,52110,10500,14480,2,65728,65728,6,6,4,1460,170937,1,16778208,690000,33580,0,65700,0,0,0,4054349837,63
o,1717733906.258906,172.16.3.2,5101,172.16.1.2,52110,10500,14480,2,65728,65728,6,6,4,1460,170937,1,16778209,690000,33580,0,65700,0,0,0,4054349837,63
i,1717733906.295862,172.16.3.2,5101,172.16.1.2,52110,10500,14480,2,65728,65728,6,6,4,1460,170937,1,16778208,690000,33580,0,65700,0,0,0,4054349837,63
o,1717733906.328735,172.16.3.2,5101,172.16.1.2,52110,10500,14480,2,65728,65728,6,6,4,1460,170937,1,16778209,690000,33580,0,65700,0,0,0,4054349837,63
i,1717733906.396968,172.16.3.2,5101,172.16.1.2,52110,10500,14480,2,65728,65728,6,6,4,1460,170937,1,16778208,690000,33580,0,65700,0,0,0,4054349837,63
o,1717733906.429203,172.16.3.2,5101,172.16.1.2,52110,10500,14480,2,65728,65728,6,6,4,1460,170937,1,16778209,690000,33580,0,65700,0,0,0,4054349837,63
i,1717733906.466265,172.16.3.2,5101,172.16.1.2,52110,10500,14480,2,65728,65728,6,6,4,1460,170937,1,16778208,690000,33580,0,65700,0,0,0,4054349837,63
o,1717733906.498768,172.16.3.2,5101,172.16.1.2,52110,10500,14480,2,65728,65728,6,6,4,1460,170937,1,16778209,690000,33580,0,65700,0,0,0,4054349837,63
o,1717733906.528785,10.0.2.15,22,10.0.2.2,54467,1073725440,14600,1026,65535,65700,0,0,4,1460,312,0,16777220,240000,33580,108,65700,0,0,0,3031282109,63
i,1717733906.529532,10.0.2.15,22,10.0.2.2,54467,1073725440,14600,1026,65535,65700,0,0,4,1460,312,0,16809988,240000,33580,108,65700,0,108,0,3031282109,63
i,1717733906.566557,172.16.3.2,5101,172.16.1.2,52110,10500,14480,2,65728,65728,6,6,4,1460,170937,1,16778208,690000,33580,0,65700,0,0,0,4054349837,63
o,1717733906.598867,172.16.3.2,5101,172.16.1.2,52110,10500,14480,2,65728,65728,6,6,4,1460,170937,1,16778209,690000,33580,0,65700,0,0,0,4054349837,63
i,1717733906.636042,172.16.3.2,5101,172.16.1.2,52110,10500,14480,2,65728,65728,6,6,4,1460,170937,1,16778208,690000,33580,0,65700,0,0,0,4054349837,63
o,1717733906.668429,172.16.3.2,5101,172.16.1.2,52110,10500,14480,2,65728,65728,6,6,4,1460,170937,1,16778209,690000,33580,0,65700,0,0,0,4054349837,63
i,1717733906.735752,172.16.3.2,5101,172.16.1.2,52110,10500,14480,2,65728,65728,6,6,4,1460,170937,1,16778208,690000,33580,0,65700,0,0,0,4054349837,63
o,1717733906.768405,172.16.3.2,5101,172.16.1.2,52110,10500,14480,2,65728,65728,6,6,4,1460,170937,1,16778209,690000,33580,0,65700,0,0,0,4054349837,63
i,1717733906.816435,172.16.3.2,5101,172.16.1.2,52110,10500,14480,2,65728,65728,6,6,4,1460,170937,1,16778208,690000,33580,0,65700,0,0,0,4054349837,63
i,1717733906.825768,172.16.3.2,5101,172.16.1.2,52110,10500,14480,2,65728,65728,6,6,4,1460,170937,1,16778208,690000,33580,0,65700,0,0,0,4054349837,63
o,1717733906.825776,172.16.3.2,5101,172.16.1.2,52110,10500,14480,2,65728,65728,6,6,4,1460,170937,1,16778209,690000,33580,0,65700,1448,0,0,4054349837,63
i,1717733906.896030,172.16.3.2,5101,172.16.1.2,52110,10500,14480,2,65728,65728,6,6,4,1460,170937,1,16778208,690000,33580,0,65700,0,0,0,4054349837,63
o,1717733906.929498,172.16.3.2,5101,172.16.1.2,52110,10500,14480,2,65728,65728,6,6,4,1460,170937,1,16778209,690000,33580,0,65700,0,0,0,4054349837,63
i,1717733906.966709,172.16.3.2,5101,172.16.1.2,52110,10500,14480,2,65728,65728,6,6,4,1460,170937,1,16778208,690000,33580,0,65700,0,0,0,4054349837,63
i,1717733906.975433,172.16.3.2,5101,172.16.1.2,52110,10500,14480,2,65728,65728,6,6,4,1460,170937,1,16778208,690000,33580,0,65700,0,0,0,4054349837,63
o,1717733906.975439,172.16.3.2,5101,172.16.1.2,52110,10500,14480,2,65728,65728,6,6,4,1460,170937,1,16778209,690000,33580,0,65700,1448,0,0,4054349837,63
i,1717733907.096277,172.16.3.2,5101,172.16.1.2,52110,10500,14480,2,65728,65728,6,6,4,1460,170937,1,16778208,690000,33580,0,65700,0,0,0,4054349837,63
i,1717733907.106576,172.16.3.2,5101,172.16.1.2,52110,10500,14480,2,65728,65728,6,6,4,1460,170937,1,16778208,690000,33580,0,65700,0,0,0,4054349837,63
o,1717733907.106586,172.16.3.2,5101,172.16.1.2,52110,10500,14480,2,65728,65728,6,6,4,1460,170937,1,16778209,690000,33580,0,65700,1448,0,0,4054349837,63
i,1717733907.116102,172.16.3.2,5101,172.16.1.2,52110,10500,14480,2,65728,65728,6,6,4,1460,170937,1,16778208,690000,33580,0,65700,0,0,0,4054349837,63
o,1717733907.148401,172.16.3.2,5101,172.16.1.2,52110,10500,14480,2,65728,65728,6,6,4,1460,170937,1,16778209,690000,33580,0,65700,0,0,0,4054349837,63
i,1717733907.236796,172.16.3.2,5101,172.16.1.2,52110,10500,14480,2,65728,65728,6,6,4,1460,170937,1,16778208,690000,33580,0,65700,0,0,0,4054349837,63
i,1717733907.256431,172.16.3.2,5101,172.16.1.2,52110,10500,14480,2,65728,65728,6,6,4,1460,170937,1,16778208,690000,33580,0,65700,0,0,0,4054349837,63
o,1717733907.256443,172.16.3.2,5101,172.16.1.2,52110,10500,14480,2,65728,65728,6,6,4,1460,170937,1,16778209,690000,33580,0,65700,1448,0,0,4054349837,63
i,1717733907.266829,172.16.3.2,5101,172.16.1.2,52110,10500,14480,2,65728,65728,6,6,4,1460,170937,1,16778208,690000,33580,0,65700,0,0,0,4054349837,63
o,1717733907.298257,172.16.3.2,5101,172.16.1.2,52110,10500,14480,2,65728,65728,6,6,4,1460,170937,1,16778209,690000,33580,0,65700,0,0,0,4054349837,63
i,1717733907.405765,172.16.3.2,5101,172.16.1.2,52110,10500,14480,2,65728,65728,6,6,4,1460,170937,1,16778208,690000,33580,0,65700,0,0,0,4054349837,63
i,1717733907.416256,172.16.3.2,5101,172.16.1.2,52110,10500,14480,2,65728,65728,6,6,4,1460,170937,1,16778208,690000,33580,0,65700,0,0,0,4054349837,63
o,1717733907.416266,172.16.3.2,5101,172.16.1.2,52110,10500,14480,2,65728,65728,6,6,4,1460,170937,1,16778209,690000,33580,0,65700,1448,0,0,4054349837,63
i,1717733907.426472,172.16.3.2,5101,172.16.1.2,52110,10500,14480,2,65728,65728,6,6,4,1460,170937,1,16778208,690000,33580,0,65700,0,0,0,4054349837,63
i,1717733907.435829,172.16.3.2,5101,172.16.1.2,52110,10500,14480,2,65728,65728,6,6,4,1460,170937,1,16778208,690000,33580,0,65700,0,0,0,4054349837,63
o,1717733907.435836,172.16.3.2,5101,172.16.1.2,52110,10500,14480,2,65728,65728,6,6,4,1460,170937,1,16778209,690000,33580,0,65700,1448,0,0,4054349837,63
o,1717733907.528914,10.0.2.15,22,10.0.2.2,54467,1073725440,14600,1026,65535,65700,0,0,4,1460,312,0,16777220,240000,33580,108,65700,0,0,0,3031282109,63
i,1717733907.529691,10.0.2.15,22,10.0.2.2,54467,1073725440,14600,1026,65535,65700,0,0,4,1460,312,0,16809988,240000,33580,108,65700,0,108,0,3031282109,63
i,1717733907.565864,172.16.3.2,5101,172.16.1.2,52110,10500,14480,2,65728,65728,6,6,4,1460,170937,1,16778208,690000,33580,0,65700,0,0,0,4054349837,63
i,1717733907.576076,172.16.3.2,5101,172.16.1.2,52110,10500,14480,2,65728,65728,6,6,4,1460,170937,1,16778208,690000,33580,0,65700,0,0,0,4054349837,63
o,1717733907.576082,172.16.3.2,5101,172.16.1.2,52110,10500,14480,2,65728,65728,6,6,4,1460,170937,1,16778209,690000,33580,0,65700,1448,0,0,4054349837,63
i,1717733907.586525,172.16.3.2,5101,172.16.1.2,52110,10500,14480,2,65728,65728,6,6,4,1460,170937,1,16778208,690000,33580,0,65700,0,0,0,4054349837,63
i,1717733907.596652,172.16.3.2,5101,172.16.1.2,52110,10500,14480,2,65728,65728,6,6,4,1460,170937,1,16778208,690000,33580,0,65700,0,0,0,4054349837,63
o,1717733907.596658,172.16.3.2,5101,172.16.1.2,52110,10500,14480,2,65728,65728,6,6,4,1460,170937,1,16778209,690000,33580,0,65700,1448,0,0,4054349837,63
i,1717733907.615711,172.16.3.2,5101,172.16.1.2,52110,10500,14480,2,65728,65728,6,6,4,1460,170937,1,16778208,690000,33580,0,65700,0,0,0,4054349837,63
o,1717733907.648814,172.16.3.2,5101,172.16.1.2,52110,10500,14480,2,65728,65728,6,6,4,1460,170937,1,16778209,690000,33580,0,65700,0,0,0,4054349837,63
i,1717733907.756264,172.16.3.2,5101,172.16.1.2,52110,10500,14480,2,65728,65728,6,6,4,1460,170937,1,16778208,690000,33580,0,65700,0,0,0,4054349837,63
i,1717733907.766575,172.16.3.2,5101,172.16.1.2,52110,10500,14480,2,65728,65728,6,6,4,1460,170937,1,16778208,690000,33580,0,65700,0,0,0,4054349837,63
o,1717733907.766582,172.16.3.2,5101,172.16.1.2,52110,10500,14480,2,65728,65728,6,6,4,1460,170937,1,16778209,690000,33580,0,65700,1448,0,0,4054349837,63
i,1717733907.775906,172.16.3.2,5101,172.16.1.2,52110,10500,14480,2,65728,65728,6,6,4,1460,170937,1,16778208,690000,33580,0,65700,0,0,0,4054349837,63
i,1717733907.796532,172.16.3.2,5101,172.16.1.2,52110,10500,14480,2,65728,65728,6,6,4,1460,170937,1,16778208,690000,33580,0,65700,0,0,0,4054349837,63
o,1717733907.796538,172.16.3.2,5101,172.16.1.2,52110,10500,14480,2,65728,65728,6,6,4,1460,170937,1,16778209,690000,33580,0,65700,1448,0,0,4054349837,63
i,1717733907.806862,172.16.3.2,5101,172.16.1.2,52110,10500,14480,2,65728,65728,6,6,4,1460,170937,1,16778208,690000,33580,0,65700,0,0,0,4054349837,63
i,1717733907.825533,172.16.3.2,5101,172.16.1.2,52110,10500,14480,2,65728,65728,6,6,4,1460,170937,1,16778208,690000,33580,0,65700,0,0,0,4054349837,63
o,1717733907.825539,172.16.3.2,5101,172.16.1.2,52110,10500,14480,2,65728,65728,6,6,4,1460,170937,1,16778209,690000,33580,0,65700,1448,0,0,4054349837,63
i,1717733907.856466,172.16.3.2,5101,172.16.1.2,52110,10500,14480,2,65728,65728,6,6,4,1460,170937,1,16778208,690000,33580,0,65700,0,0,0,4054349837,63
o,1717733907.889003,172.16.3.2,5101,172.16.1.2,52110,10500,14480,2,65728,65728,6,6,4,1460,170937,1,16778209,690000,33580,0,65700,0,0,0,4054349837,63
i,1717733907.906084,172.16.3.2,5101,172.16.1.2,52110,10500,14480,2,65728,65728,6,6,4,1460,170937,1,16778208,690000,33580,0,65700,0,0,0,4054349837,63
i,1717733907.935559,172.16.3.2,5101,172.16.1.2,52110,10500,14480,2,65728,65728,6,6,4,1460,170937,1,16778208,690000,33580,0,65700,0,0,0,4054349837,63
o,1717733907.935572,172.16.3.2,5101,172.16.1.2,52110,10500,14480,2,65728,65728,6,6,4,1460,170937,1,16778209,690000,33580,0,65700,1448,0,0,4054349837,63
i,1717733907.945934,172.16.3.2,5101,172.16.1.2,52110,10500,14480,2,65728,65728,6,6,4,1460,170937,1,16778208,690000,33580,0,65700,0,0,0,4054349837,63
i,1717733907.966083,172.16.3.2,5101,172.16.1.2,52110,10500,14480,2,65728,65728,6,6,4,1460,170937,1,16778208,690000,33580,0,65700,0,0,0,4054349837,63
o,1717733907.966089,172.16.3.2,5101,172.16.1.2,52110,10500,14480,2,65728,65728,6,6,4,1460,170937,1,16778209,690000,33580,0,65700,1448,0,0,4054349837,63
i,1717733908.016234,172.16.3.2,5101,172.16.1.2,52110,10500,14480,2,65728,65728,6,6,4,1460,170937,1,16778208,690000,33580,0,65700,0,0,0,4054349837,63
i,1717733908.035975,172.16.3.2,5101,172.16.1.2,52110,10500,14480,2,65728,65728,6,6,4,1460,170937,1,16778208,690000,33580,0,65700,0,0,0,4054349837,63
o,1717733908.035981,172.16.3.2,5101,172.16.1.2,52110,10500,14480,2,65728,65728,6,6,4,1460,170937,1,16778209,690000,33580,0,65700,1448,0,0,4054349837,63
i,1717733908.046263,172.16.3.2,5101,172.16.1.2,52110,10500,14480,2,65728,65728,6,6,4,1460,170937,1,16778208,690000,33580,0,65700,0,0,0,4054349837,63
i,1717733908.056854,172.16.3.2,5101,172.16.1.2,52110,10500,14480,2,65728,65728,6,6,4,1460,170937,1,16778208,690000,33580,0,65700,0,0,0,4054349837,63
o,1717733908.056859,172.16.3.2,5101,172.16.1.2,52110,10500,14480,2,65728,65728,6,6,4,1460,170937,1,16778209,690000,33580,0,65700,1448,0,0,4054349837,63
i,1717733908.105530,172.16.3.2,5101,172.16.1.2,52110,10500,14480,2,65728,65728,6,6,4,1460,170937,1,16778208,690000,33580,0,65700,0,0,0,4054349837,63
o,1717733908.139047,172.16.3.2,5101,172.16.1.2,52110,10500,14480,2,65728,65728,6,6,4,1460,170937,1,16778209,690000,33580,0,65700,0,0,0,4054349837,63
i,1717733908.146746,172.16.3.2,5101,172.16.1.2,52110,10500,14480,2,65728,65728,6,6,4,1460,170937,1,16778208,690000,33580,0,65700,0,0,0,4054349837,63
i,1717733908.156105,172.16.3.2,5101,172.16.1.2,52110,10500,14480,2,65728,65728,6,6,4,1460,170937,1,16778208,690000,33580,0,65700,0,0,0,4054349837,63
o,1717733908.156113,172.16.3.2,5101,172.16.1.2,52110,10500,14480,2,65728,65728,6,6,4,1460,170937,1,16778209,690000,33580,0,65700,1448,0,0,4054349837,63
i,1717733908.165443,172.16.3.2,5101,172.16.1.2,52110,10500,14480,2,65728,65728,6,6,4,1460,170937,1,16778208,690000,33580,0,65700,0,0,0,4054349837,63
o,1717733908.198978,172.16.3.2,5101,172.16.1.2,52110,10500,14480,2,65728,65728,6,6,4,1460,170937,1,16778209,690000,33580,0,65700,0,0,0,4054349837,63
i,1717733908.216181,172.16.3.2,5101,172.16.1.2,52110,10500,14480,2,65728,65728,6,6,4,1460,170937,1,16778208,690000,33580,0,65700,0,0,0,4054349837,63
o,1717733908.248579,172.16.3.2,5101,172.16.1.2,52110,10500,14480,2,65728,65728,6,6,4,1460,170937,1,16778209,690000,33580,0,65700,0,0,0,4054349837,63
i,1717733908.255280,172.16.3.2,5101,172.16.1.2,52110,10500,14480,2,65728,65728,6,6,4,1460,170937,1,16778208,690000,33580,0,65700,0,0,0,4054349837,63
i,1717733908.265195,172.16.3.2,5101,172.16.1.2,52110,10500,14480,2,65728,65728,6,6,4,1460,170937,1,16778208,690000,33580,0,65700,0,0,0,4054349837,63
o,1717733908.265201,172.16.3.2,5101,172.16.1.2,52110,10500,14480,2,65728,65728,6,6,4,1460,170937,1,16778209,690000,33580,0,65700,1448,0,0,4054349837,63
i,1717733908.276489,172.16.3.2,5101,172.16.1.2,52110,10500,14480,2,65728,65728,6,6,4,1460,170937,1,16778208,690000,33580,0,65700,0,0,0,4054349837,63
o,1717733908.308721,172.16.3.2,5101,172.16.1.2,52110,10500,14480,2,65728,65728,6,6,4,1460,170937,1,16778209,690000,33580,0,65700,0,0,0,4054349837,63
i,1717733908.315819,172.16.3.2,5101,172.16.1.2,52110,10500,14480,2,65728,65728,6,6,4,1460,170937,1,16778208,690000,33580,0,65700,0,0,0,4054349837,63
o,1717733908.349956,172.16.3.2,5101,172.16.1.2,52110,10500,14480,2,65728,65728,6,6,4,1460,170937,1,16778209,690000,33580,0,65700,0,0,0,4054349837,63
i,1717733908.356065,172.16.3.2,5101,172.16.1.2,52110,10500,14480,2,65728,65728,6,6,4,1460,170937,1,16778208,690000,33580,0,65700,0,0,0,4054349837,63
i,1717733908.366331,172.16.3.2,5101,172.16.1.2,52110,10500,14480,2,65728,65728,6,6,4,1460,170937,1,16778208,690000,33580,0,65700,0,0,0,4054349837,63
o,1717733908.366336,172.16.3.2,5101,172.16.1.2,52110,10500,14480,2,65728,65728,6,6,4,1460,170937,1,16778209,690000,33580,0,65700,1448,0,0,4054349837,63
i,1717733908.405715,172.16.3.2,5101,172.16.1.2,52110,10500,14480,2,65728,65728,6,6,4,1460,170937,1,16778208,690000,33580,0,65700,0,0,0,4054349837,63
i,1717733908.416015,172.16.3.2,5101,172.16.1.2,52110,10500,14480,2,65728,65728,6,6,4,1460,170937,1,16778208,690000,33580,0,65700,0,0,0,4054349837,63
o,1717733908.416025,172.16.3.2,5101,172.16.1.2,52110,10500,14480,2,65728,65728,6,6,4,1460,170937,1,16778209,690000,33580,0,65700,1448,0,0,4054349837,63
i,1717733908.445991,172.16.3.2,5101,172.16.1.2,52110,10500,14480,2,65728,65728,6,6,4,1460,170937,1,16778208,690000,33580,0,65700,0,0,0,4054349837,63
o,1717733908.478517,172.16.3.2,5101,172.16.1.2,52110,10500,14480,2,65728,65728,6,6,4,1460,170937,1,16778209,690000,33580,0,65700,0,0,0,4054349837,63
i,1717733908.485235,172.16.3.2,5101,172.16.1.2,52110,10500,14480,2,65728,65728,6,6,4,1460,170937,1,16778208,690000,33580,0,65700,0,0,0,4054349837,63
i,1717733908.505901,172.16.3.2,5101,172.16.1.2,52110,10500,14480,2,65728,65728,6,6,4,1460,170937,1,16778208,690000,33580,0,65700,0,0,0,4054349837,63
o,1717733908.505907,172.16.3.2,5101,172.16.1.2,52110,10500,14480,2,65728,65728,6,6,4,1460,170937,1,16778209,690000,33580,0,65700,1448,0,0,4054349837,63
i,1717733908.526554,172.16.3.2,5101,172.16.1.2,52110,10500,14480,2,65728,65728,6,6,4,1460,170937,1,16778208,690000,33580,0,65700,0,0,0,4054349837,63
o,1717733908.529167,10.0.2.15,22,10.0.2.2,54467,1073725440,14600,1026,65535,65700,0,0,4,1460,312,0,16777220,240000,33580,108,65700,0,0,0,3031282109,63
i,1717733908.529890,10.0.2.15,22,10.0.2.2,54467,1073725440,14600,1026,65535,65700,0,0,4,1460,312,0,16809988,240000,33580,108,65700,0,108,0,3031282109,63
o,1717733908.559570,172.16.3.2,5101,172.16.1.2,52110,10500,14480,2,65728,65728,6,6,4,1460,170937,1,16778209,690000,33580,0,65700,0,0,0,4054349837,63
i,1717733908.565869,172.16.3.2,5101,172.16.1.2,52110,10500,14480,2,65728,65728,6,6,4,1460,170937,1,16778208,690000,33580,0,65700,0,0,0,4054349837,63
i,1717733908.596177,172.16.3.2,5101,172.16.1.2,52110,10500,14480,2,65728,65728,6,6,4,1460,170937,1,16778208,690000,33580,0,65700,0,0,0,4054349837,63
o,1717733908.596185,172.16.3.2,5101,172.16.1.2,52110,10500,14480,2,65728,65728,6,6,4,1460,170937,1,16778209,690000,33580,0,65700,1448,0,0,4054349837,63
i,1717733908.615970,172.16.3.2,5101,172.16.1.2,52110,10500,14480,2,65728,65728,6,6,4,1460,170937,1,16778208,690000,33580,0,65700,0,0,0,4054349837,63
i,1717733908.626169,172.16.3.2,5101,172.16.1.2,52110,10500,14480,2,65728,65728,6,6,4,1460,170937,1,16778208,690000,33580,0,65700,0,0,0,4054349837,63
o,1717733908.626175,172.16.3.2,5101,172.16.1.2,52110,10500,14480,2,65728,65728,6,6,4,1460,170937,1,16778209,690000,33580,0,65700,1448,0,0,4054349837,63
i,1717733908.675841,172.16.3.2,5101,172.16.1.2,52110,10500,14480,2,65728,65728,6,6,4,1460,170937,1,16778208,690000,33580,0,65700,0,0,0,4054349837,63
i,1717733908.686119,172.16.3.2,5101,172.16.1.2,52110,10500,14480,2,65728,65728,6,6,4,1460,170937,1,16778208,690000,33580,0,65700,0,0,0,4054349837,63
o,1717733908.686126,172.16.3.2,5101,172.16.1.2,52110,10500,14480,2,65728,65728,6,6,4,1460,170937,1,16778209,690000,33580,0,65700,1448,0,0,4054349837,63
i,1717733908.705765,172.16.3.2,5101,172.16.1.2,52110,10500,14480,2,65728,65728,6,6,4,1460,170937,1,16778208,690000,33580,0,65700,0,0,0,4054349837,63
o,1717733908.739254,172.16.3.2,5101,172.16.1.2,52110,10500,14480,2,65728,65728,6,6,4,1460,170937,1,16778209,690000,33580,0,65700,0,0,0,4054349837,63
i,1717733908.756370,172.16.3.2,5101,172.16.1.2,52110,10500,14480,2,65728,65728,6,6,4,1460,170937,1,16778208,690000,33580,0,65700,0,0,0,4054349837,63
i,1717733908.765760,172.16.3.2,5101,172.16.1.2,52110,10500,14480,2,65728,65728,6,6,4,1460,170937,1,16778208,690000,33580,0,65700,0,0,0,4054349837,63
o,1717733908.765766,172.16.3.2,5101,172.16.1.2,52110,10500,14480,2,65728,65728,6,6,4,1460,170937,1,16778209,690000,33580,0,65700,1448,0,0,4054349837,63
i,1717733908.807022,172.16.3.2,5101,172.16.1.2,52110,10500,14480,2,65728,65728,6,6,4,1460,170937,1,16778208,690000,33580,0,65700,0,0,0,4054349837,63
i,1717733908.815320,172.16.3.2,5101,172.16.1.2,52110,10500,14480,2,65728,65728,6,6,4,1460,170937,1,16778208,690000,33580,0,65700,0,0,0,4054349837,63
o,1717733908.815327,172.16.3.2,5101,172.16.1.2,52110,10500,14480,2,65728,65728,6,6,4,1460,170937,1,16778209,690000,33580,0,65700,1448,0,0,4054349837,63
i,1717733908.835939,172.16.3.2,5101,172.16.1.2,52110,10500,14480,2,65728,65728,6,6,4,1460,170937,1,16778208,690000,33580,0,65700,0,0,0,4054349837,63
i,1717733908.866160,172.16.3.2,5101,172.16.1.2,52110,10500,14480,2,65728,65728,6,6,4,1460,170937,1,16778208,690000,33580,0,65700,0,0,0,4054349837,63
o,1717733908.866166,172.16.3.2,5101,172.16.1.2,52110,10500,14480,2,65728,65728,6,6,4,1460,170937,1,16778209,690000,33580,0,65700,1448,0,0,4054349837,63
i,1717733908.925418,172.16.3.2,5101,172.16.1.2,52110,10500,14480,2,65728,65728,6,6,4,1460,170937,1,16778208,690000,33580,0,65700,0,0,0,4054349837,63
i,1717733908.946089,172.16.3.2,5101,172.16.1.2,52110,10500,14480,2,65728,65728,6,6,4,1460,170937,1,16778208,690000,33580,0,65700,0,0,0,4054349837,63
o,1717733908.946099,172.16.3.2,5101,172.16.1.2,52110,10500,14480,2,65728,65728,6,6,4,1460,170937,1,16778209,690000,33580,0,65700,1448,0,0,4054349837,63
i,1717733908.985279,172.16.3.2,5101,172.16.1.2,52110,10500,14480,2,65728,65728,6,6,4,1460,170937,1,16778208,690000,33580,0,65700,0,0,0,4054349837,63
o,1717733908.985286,172.16.3.2,5101,172.16.1.2,52110,10500,14480,2,65728,65700,6,6,4,1460,170937,1,16778209,690000,33580,0,65700,0,0,1,4054349837,63
i,1717733909.006105,172.16.3.2,5101,172.16.1.2,52110,10500,14480,2,65728,65700,6,6,4,1460,170937,1,16778208,690000,33580,0,65700,0,0,1,4054349837,63
o,1717733909.006111,172.16.3.2,5101,172.16.1.2,52110,10500,14480,2,65728,65728,6,6,4,1460,170937,1,16778209,690000,33580,0,65700,0,0,1,4054349837,63
i,1717733909.066233,172.16.3.2,5101,172.16.1.2,52110,10500,14480,2,65728,65728,6,6,4,1460,170937,1,16778208,690000,33580,0,65700,0,0,1,4054349837,63
o,1717733909.066240,172.16.3.2,5101,172.16.1.2,52110,10500,14480,2,65728,65728,6,6,4,1460,170937,1,16778209,690000,33580,0,65700,0,0,1,4054349837,63
i,1717733909.076381,172.16.3.2,5101,172.16.1.2,52110,10500,14480,2,65728,65728,6,6,4,1460,170937,1,16778208,690000,33580,0,65700,0,0,1,4054349837,63
o,1717733909.076387,172.16.3.2,5101,172.16.1.2,52110,10500,14480,2,65728,65728,6,6,4,1460,170937,1,16778209,690000,33580,0,65700,0,0,1,4054349837,63
i,1717733909.085737,172.16.3.2,5101,172.16.1.2,52110,10500,14480,2,65728,65728,6,6,4,1460,170937,1,16778208,690000,33580,0,65700,0,0,1,4054349837,63
o,1717733909.085742,172.16.3.2,5101,172.16.1.2,52110,10500,14480,2,65728,65728,6,6,4,1460,170937,1,16778209,690000,33580,0,65700,0,0,1,4054349837,63
i,1717733909.126430,172.16.3.2,5101,172.16.1.2,52110,10500,14480,2,65728,65728,6,6,4,1460,170937,1,16778208,690000,33580,0,65700,0,0,1,4054349837,63
o,1717733909.126437,172.16.3.2,5101,172.16.1.2,52110,10500,14480,2,65728,65728,6,6,4,1460,170937,1,16778209,690000,33580,0,65700,0,0,1,4054349837,63
i,1717733909.135580,172.16.3.2,5101,172.16.1.2,52110,10500,14480,2,65728,65728,6,6,4,1460,170937,1,16778208,690000,33580,0,65700,0,0,1,4054349837,63
o,1717733909.135586,172.16.3.2,5101,172.16.1.2,52110,10500,14480,2,65728,65728,6,6,4,1460,170937,1,16778209,690000,33580,0,65700,0,0,2,4054349837,63
i,1717733909.176148,172.16.3.2,5101,172.16.1.2,52110,10500,14480,2,65728,65728,6,6,4,1460,170937,1,16778208,690000,33580,0,65700,0,0,2,4054349837,63
o,1717733909.176153,172.16.3.2,5101,172.16.1.2,52110,10500,14480,2,65728,65728,6,6,4,1460,170937,1,16778209,690000,33580,0,65700,0,0,2,4054349837,63
i,1717733909.186582,172.16.3.2,5101,172.16.1.2,52110,10500,14480,2,65728,65728,6,6,4,1460,170937,1,16778208,690000,33580,0,65700,0,0,2,4054349837,63
o,1717733909.186588,172.16.3.2,5101,172.16.1.2,52110,10500,14480,2,65728,65728,6,6,4,1460,170937,1,16778209,690000,33580,0,65700,0,0,2,4054349837,63
i,1717733909.205486,172.16.3.2,5101,172.16.1.2,52110,10500,14480,2,65728,65728,6,6,4,1460,170937,1,16778208,690000,33580,0,65700,0,0,2,4054349837,63
o,1717733909.205493,172.16.3.2,5101,172.16.1.2,52110,10500,14480,2,65728,65728,6,6,4,1460,170937,1,16778209,690000,33580,0,65700,0,0,2,4054349837,63
i,1717733909.236533,172.16.3.2,5101,172.16.1.2,52110,10500,14480,2,65728,65728,6,6,4,1460,170937,1,16778208,690000,33580,0,65700,0,0,2,4054349837,63
o,1717733909.236539,172.16.3.2,5101,172.16.1.2,52110,10500,14480,2,65728,65728,6,6,4,1460,170937,1,16778209,690000,33580,0,65700,0,0,2,4054349837,63
i,1717733909.255086,172.16.3.2,5101,172.16.1.2,52110,10500,14480,2,65728,65728,6,6,4,1460,170937,1,16778208,690000,33580,0,65700,0,0,2,4054349837,63
o,1717733909.255092,172.16.3.2,5101,172.16.1.2,52110,10500,14480,2,65728,65728,6,6,4,1460,170937,1,16778209,690000,33580,0,65700,0,0,2,4054349837,63
i,1717733909.266513,172.16.3.2,5101,172.16.1.2,52110,10500,14480,2,65728,65728,6,6,4,1460,170937,1,16778208,690000,33580,0,65700,0,0,2,4054349837,63
o,1717733909.266519,172.16.3.2,5101,172.16.1.2,52110,10500,14480,2,65728,65728,6,6,4,1460,170937,1,16778209,690000,33580,0,65700,0,0,2,4054349837,63
i,1717733909.275786,172.16.3.2,5101,172.16.1.2,52110,10500,14480,2,65728,65728,6,6,4,1460,170937,1,16778208,690000,33580,0,65700,0,0,2,4054349837,63
o,1717733909.275796,172.16.3.2,5101,172.16.1.2,52110,10500,14480,2,65728,65728,6,6,4,1460,170937,1,16778209,690000,33580,0,65700,0,0,2,4054349837,63
i,1717733909.316124,172.16.3.2,5101,172.16.1.2,52110,10500,14480,2,65728,65728,6,6,4,1460,170937,1,16778208,690000,33580,0,65700,0,0,2,4054349837,63
o,1717733909.316146,172.16.3.2,5101,172.16.1.2,52110,10500,14480,2,65728,65728,6,6,4,1460,170937,1,16778209,690000,33580,0,65700,0,0,3,4054349837,63
i,1717733909.365818,172.16.3.2,5101,172.16.1.2,52110,10500,14480,2,65728,65728,6,6,4,1460,170937,1,16778208,690000,33580,0,65700,0,0,3,4054349837,63
o,1717733909.365828,172.16.3.2,5101,172.16.1.2,52110,10500,14480,2,65728,65728,6,6,4,1460,170937,1,16778209,690000,33580,0,65700,0,0,4,4054349837,63
i,1717733909.395598,172.16.3.2,5101,172.16.1.2,52110,10500,14480,2,65728,65728,6,6,4,1460,170937,1,16778208,690000,33580,0,65700,0,0,4,4054349837,63
o,1717733909.395604,172.16.3.2,5101,172.16.1.2,52110,10500,14480,2,65728,65728,6,6,4,1460,170937,1,16778209,690000,33580,0,65700,0,0,5,4054349837,63
i,1717733909.416276,172.16.3.2,5101,172.16.1.2,52110,10500,14480,2,65728,65728,6,6,4,1460,170937,1,16778208,690000,33580,0,65700,0,0,5,4054349837,63
o,1717733909.416282,172.16.3.2,5101,172.16.1.2,52110,10500,14480,2,65728,65728,6,6,4,1460,170937,1,16778209,690000,33580,0,65700,0,0,6,4054349837,63
i,1717733909.446241,172.16.3.2,5101,172.16.1.2,52110,10500,14480,2,65728,65728,6,6,4,1460,170937,1,16778208,690000,33580,0,65700,0,0,6,4054349837,63
