enable_time_secs=1723652997	enable_time_usecs=879755	siftrver=1.3.0	sysname=FreeBSD	sysver=1401000	ipmode=4
o,1723652997.880175,10.0.2.15,22,10.0.2.2,50550,1073725440,17746,1026,65535,65700,0,0,4,1460,312,0,16777220,240000,33580,172,65700,0,0,0,672397956,63
o,1723652997.880719,10.0.2.15,22,10.0.2.2,50550,1073725440,17746,1026,65535,65700,0,0,4,1460,312,0,16777220,240000,33580,244,65700,0,172,0,672397956,63
i,1723652997.881151,10.0.2.15,22,10.0.2.2,50550,1073725440,17746,1026,65535,65700,0,0,4,1460,312,0,16777220,240000,33580,244,65700,0,244,0,672397956,63
i,1723652997.881193,10.0.2.15,22,10.0.2.2,50550,1073725440,17918,1026,65535,65700,0,0,4,1460,312,0,4,240000,33580,72,65700,0,72,0,672397956,63
i,1723652997.882014,10.0.2.15,22,10.0.2.2,50550,1073725440,17990,1026,65535,65700,0,0,4,1460,312,0,4,240000,33580,0,65700,0,0,0,672397956,63
i,1723652997.882032,10.0.2.15,22,10.0.2.2,50550,1073725440,17990,1026,65535,65700,0,0,4,1460,312,0,4,240000,33580,0,65700,96,0,0,672397956,63
o,1723652997.882054,10.0.2.15,22,10.0.2.2,50550,1073725440,17990,1026,65535,65604,0,0,5,1460,312,0,5,240000,33580,0,65700,96,0,0,672397956,63
o,1723652997.882774,10.0.2.15,22,10.0.2.2,50550,1073725440,17990,1026,65535,65604,0,0,8,1460,312,0,4,240000,33580,0,65700,0,0,0,672397956,63
i,1723652997.883422,10.0.2.15,22,10.0.2.2,50550,1073725440,17990,1026,65535,65604,0,0,8,1460,312,0,67108884,240000,33580,0,65700,0,1,0,672397956,63
i,1723653001.074550,10.0.2.15,22,10.0.2.2,50558,1073725440,14600,0,65535,65700,0,0,4,1460,312,0,16777216,270000,33580,0,65700,0,0,0,4230595199,63
o,1723653001.084711,10.0.2.15,22,10.0.2.2,50558,1073725440,14600,1026,65535,65700,0,0,4,1460,312,0,16777216,270000,33580,38,65700,42,0,0,4230595199,63
i,1723653001.085347,10.0.2.15,22,10.0.2.2,50558,1073725440,14600,1026,65535,65700,0,0,4,1460,312,0,16777216,270000,33580,38,65700,0,38,0,4230595199,63
i,1723653001.085792,10.0.2.15,22,10.0.2.2,50558,1073725440,14638,1026,65535,65700,0,0,4,1460,312,0,0,240000,33580,0,65700,0,0,0,4230595199,63
i,1723653001.085806,10.0.2.15,22,10.0.2.2,50558,1073725440,14638,1026,65535,65700,0,0,4,1460,312,0,0,240000,33580,0,65700,1460,0,0,4230595199,63
o,1723653001.085823,10.0.2.15,22,10.0.2.2,50558,1073725440,14638,1026,65535,65700,0,0,4,1460,312,0,1,240000,33580,0,65700,1536,0,0,4230595199,63
o,1723653001.086678,10.0.2.15,22,10.0.2.2,50558,1073725440,14638,1026,65535,65700,0,0,4,1460,312,0,16777216,240000,33580,1120,65700,1536,0,0,4230595199,63
i,1723653001.087603,10.0.2.15,22,10.0.2.2,50558,1073725440,14638,1026,65535,65700,0,0,4,1460,312,0,16777216,240000,33580,1120,65700,0,1120,0,4230595199,63
i,1723653001.088782,10.0.2.15,22,10.0.2.2,50558,1073725440,15758,1026,65535,65700,0,0,4,1460,312,0,0,230000,33580,0,65700,0,0,0,4230595199,63
o,1723653001.091267,10.0.2.15,22,10.0.2.2,50558,1073725440,15758,1026,65535,65700,0,0,4,1460,312,0,16777216,230000,33580,492,65700,0,0,0,4230595199,63
i,1723653001.091906,10.0.2.15,22,10.0.2.2,50558,1073725440,15758,1026,65535,65700,0,0,4,1460,312,0,16777216,230000,33580,492,65700,0,492,0,4230595199,63
i,1723653001.096878,10.0.2.15,22,10.0.2.2,50558,1073725440,16250,1026,65535,65700,0,0,4,1460,312,0,0,230000,33580,0,65700,0,0,0,4230595199,63
i,1723653001.096903,10.0.2.15,22,10.0.2.2,50558,1073725440,16250,1026,65535,65700,0,0,4,1460,312,0,0,230000,33580,0,65700,16,0,0,4230595199,63
o,1723653001.096938,10.0.2.15,22,10.0.2.2,50558,1073725440,16250,1026,65535,65700,0,0,4,1460,312,0,1,230000,33580,0,65700,60,0,0,4230595199,63
o,1723653001.097124,10.0.2.15,22,10.0.2.2,50558,1073725440,16250,1026,65535,65700,0,0,4,1460,312,0,16777216,230000,33580,44,65700,0,0,0,4230595199,63
i,1723653001.097561,10.0.2.15,22,10.0.2.2,50558,1073725440,16250,1026,65535,65700,0,0,4,1460,312,0,16777216,230000,33580,44,65700,0,44,0,4230595199,63
i,1723653001.097576,10.0.2.15,22,10.0.2.2,50558,1073725440,16294,1026,65535,65700,0,0,4,1460,312,0,0,230000,33580,0,65700,0,0,0,4230595199,63
o,1723653001.098610,10.0.2.15,22,10.0.2.2,50558,1073725440,16294,1026,65535,65700,0,0,4,1460,312,0,16777216,230000,33580,68,65700,0,0,0,4230595199,63
i,1723653001.099126,10.0.2.15,22,10.0.2.2,50558,1073725440,16294,1026,65535,65700,0,0,4,1460,312,0,16777216,230000,33580,68,65700,0,68,0,4230595199,63
i,1723653001.099143,10.0.2.15,22,10.0.2.2,50558,1073725440,16362,1026,65535,65700,0,0,4,1460,312,0,0,230000,33580,0,65700,0,0,0,4230595199,63
o,1723653001.100091,10.0.2.15,22,10.0.2.2,50558,1073725440,16362,1026,65535,65700,0,0,4,1460,312,0,16777216,230000,33580,332,65700,0,0,0,4230595199,63
i,1723653001.100915,10.0.2.15,22,10.0.2.2,50558,1073725440,16362,1026,65535,65700,0,0,4,1460,312,0,16777216,230000,33580,332,65700,0,332,0,4230595199,63
i,1723653001.102281,10.0.2.15,22,10.0.2.2,50558,1073725440,16694,1026,65535,65700,0,0,4,1460,312,0,0,230000,33580,0,65700,0,0,0,4230595199,63
o,1723653001.121296,10.0.2.15,22,10.0.2.2,50558,1073725440,16694,1026,65535,65700,0,0,4,1460,312,0,16777216,230000,33580,28,65700,0,0,0,4230595199,63
i,1723653001.121913,10.0.2.15,22,10.0.2.2,50558,1073725440,16694,1026,65535,65700,0,0,4,1460,312,0,16777216,230000,33580,28,65700,0,28,0,4230595199,63
i,1723653001.122308,10.0.2.15,22,10.0.2.2,50558,1073725440,16722,1026,65535,65700,0,0,4,1460,312,0,0,230000,33580,0,65700,0,0,0,4230595199,63
o,1723653001.123808,10.0.2.15,22,10.0.2.2,50558,1073725440,16722,1026,65535,65700,0,0,4,1460,312,0,16777216,230000,33580,768,65700,112,0,0,4230595199,63
i,1723653001.124144,10.0.2.15,22,10.0.2.2,50558,1073725440,16722,1026,65535,65700,0,0,4,1460,312,0,16777216,230000,33580,908,65700,112,768,0,4230595199,63
o,1723653001.124163,10.0.2.15,22,10.0.2.2,50558,1073725440,17490,1026,65535,65700,0,0,4,1460,312,0,16777216,230000,33580,140,65700,112,0,0,4230595199,63
i,1723653001.124986,10.0.2.15,22,10.0.2.2,50558,1073725440,17490,1026,65535,65700,0,0,4,1460,312,0,16777216,230000,33580,184,65700,0,140,0,4230595199,63
o,1723653001.125026,10.0.2.15,22,10.0.2.2,50558,1073725440,17630,1026,65535,65700,0,0,4,1460,312,0,16777216,240000,33580,44,65700,0,0,0,4230595199,63
i,1723653001.125374,10.0.2.15,22,10.0.2.2,50558,1073725440,17630,1026,65535,65700,0,0,4,1460,312,0,16777216,240000,33580,44,65700,0,44,0,4230595199,63
i,1723653001.125633,10.0.2.15,22,10.0.2.2,50558,1073725440,17674,1026,65535,65700,0,0,4,1460,312,0,0,240000,33580,0,65700,0,0,0,4230595199,63
o,1723653001.126233,10.0.2.15,22,10.0.2.2,50558,1073725440,17674,1026,65535,65700,0,0,4,1460,312,0,16777220,240000,33580,72,65700,0,0,0,4230595199,63
i,1723653001.126646,10.0.2.15,22,10.0.2.2,50558,1073725440,17674,1026,65535,65700,0,0,4,1460,312,0,16777220,240000,33580,72,65700,0,72,0,4230595199,63
o,1723653001.128997,10.0.2.15,22,10.0.2.2,50558,1073725440,17746,1026,65535,65700,0,0,4,1460,312,0,16777220,240000,33580,104,65700,0,0,0,4230595199,63
i,1723653001.129370,10.0.2.15,22,10.0.2.2,50558,1073725440,17746,1026,65535,65700,0,0,4,1460,312,0,16777220,240000,33580,104,65700,0,104,0,4230595199,63
o,1723653001.138054,10.0.2.15,22,10.0.2.2,50558,1073725440,17850,1026,65535,65700,0,0,4,1460,312,0,16777220,240000,33580,72,65700,0,0,0,4230595199,63
i,1723653001.138770,10.0.2.15,22,10.0.2.2,50558,1073725440,17850,1026,65535,65700,0,0,4,1460,312,0,16777220,240000,33580,72,65700,0,72,0,4230595199,63
i,1723653001.138791,10.0.2.15,22,10.0.2.2,50558,1073725440,17922,1026,65535,65700,0,0,4,1460,312,0,4,240000,33580,0,65700,0,0,0,4230595199,63
i,1723653001.138811,10.0.2.15,22,10.0.2.2,50558,1073725440,17922,1026,65535,65700,0,0,4,1460,312,0,4,240000,33580,0,65700,96,0,0,4230595199,63
o,1723653001.138832,10.0.2.15,22,10.0.2.2,50558,1073725440,17922,1026,65535,65604,0,0,5,1460,312,0,5,240000,33580,0,65700,96,0,0,4230595199,63
o,1723653001.153217,10.0.2.15,22,10.0.2.2,50558,1073725440,17922,1026,65535,65604,0,0,8,1460,312,0,4,240000,33580,0,65700,0,0,0,4230595199,63
i,1723653001.154004,10.0.2.15,22,10.0.2.2,50558,1073725440,17922,1026,65535,65604,0,0,8,1460,312,0,67108884,240000,33580,0,65700,0,1,0,4230595199,63
i,1723653002.251914,10.0.2.15,22,10.0.2.2,50572,1073725440,14600,0,65535,65700,0,0,4,1460,312,0,16777216,270000,33580,0,65700,0,0,0,4095104832,63
o,1723653002.274719,10.0.2.15,22,10.0.2.2,50572,1073725440,14600,1026,65535,65700,0,0,4,1460,312,0,16777216,270000,33580,38,65700,42,0,0,4095104832,63
i,1723653002.275564,10.0.2.15,22,10.0.2.2,50572,1073725440,14600,1026,65535,65700,0,0,4,1460,312,0,16777216,270000,33580,38,65700,0,38,0,4095104832,63
i,1723653002.276153,10.0.2.15,22,10.0.2.2,50572,1073725440,14638,1026,65535,65700,0,0,4,1460,312,0,0,240000,33580,0,65700,0,0,0,4095104832,63
i,1723653002.276178,10.0.2.15,22,10.0.2.2,50572,1073725440,14638,1026,65535,65700,0,0,4,1460,312,0,0,240000,33580,0,65700,1460,0,0,4095104832,63
o,1723653002.276208,10.0.2.15,22,10.0.2.2,50572,1073725440,14638,1026,65535,65700,0,0,4,1460,312,0,1,240000,33580,0,65700,1536,0,0,4095104832,63
o,1723653002.277353,10.0.2.15,22,10.0.2.2,50572,1073725440,14638,1026,65535,65700,0,0,4,1460,312,0,16777216,240000,33580,1120,65700,1536,0,0,4095104832,63
i,1723653002.279201,10.0.2.15,22,10.0.2.2,50572,1073725440,14638,1026,65535,65700,0,0,4,1460,312,0,16777216,240000,33580,1120,65700,0,1120,0,4095104832,63
i,1723653002.281163,10.0.2.15,22,10.0.2.2,50572,1073725440,15758,1026,65535,65700,0,0,4,1460,312,0,0,240000,33580,0,65700,0,0,0,4095104832,63
o,1723653002.284407,10.0.2.15,22,10.0.2.2,50572,1073725440,15758,1026,65535,65700,0,0,4,1460,312,0,16777216,240000,33580,492,65700,0,0,0,4095104832,63
i,1723653002.285429,10.0.2.15,22,10.0.2.2,50572,1073725440,15758,1026,65535,65700,0,0,4,1460,312,0,16777216,240000,33580,492,65700,0,492,0,4095104832,63
i,1723653002.291823,10.0.2.15,22,10.0.2.2,50572,1073725440,16250,1026,65535,65700,0,0,4,1460,312,0,0,240000,33580,0,65700,0,0,0,4095104832,63
i,1723653002.291862,10.0.2.15,22,10.0.2.2,50572,1073725440,16250,1026,65535,65700,0,0,4,1460,312,0,0,240000,33580,0,65700,16,0,0,4095104832,63
o,1723653002.291896,10.0.2.15,22,10.0.2.2,50572,1073725440,16250,1026,65535,65700,0,0,4,1460,312,0,1,240000,33580,0,65700,60,0,0,4095104832,63
o,1723653002.292445,10.0.2.15,22,10.0.2.2,50572,1073725440,16250,1026,65535,65700,0,0,4,1460,312,0,16777216,240000,33580,44,65700,0,0,0,4095104832,63
i,1723653002.293143,10.0.2.15,22,10.0.2.2,50572,1073725440,16250,1026,65535,65700,0,0,4,1460,312,0,16777216,240000,33580,44,65700,0,44,0,4095104832,63
i,1723653002.293215,10.0.2.15,22,10.0.2.2,50572,1073725440,16294,1026,65535,65700,0,0,4,1460,312,0,0,240000,33580,0,65700,0,0,0,4095104832,63
o,1723653002.295484,10.0.2.15,22,10.0.2.2,50572,1073725440,16294,1026,65535,65700,0,0,4,1460,312,0,16777216,240000,33580,68,65700,0,0,0,4095104832,63
i,1723653002.296363,10.0.2.15,22,10.0.2.2,50572,1073725440,16294,1026,65535,65700,0,0,4,1460,312,0,16777216,240000,33580,68,65700,0,68,0,4095104832,63
i,1723653002.296908,10.0.2.15,22,10.0.2.2,50572,1073725440,16362,1026,65535,65700,0,0,4,1460,312,0,0,240000,33580,0,65700,0,0,0,4095104832,63
o,1723653002.298583,10.0.2.15,22,10.0.2.2,50572,1073725440,16362,1026,65535,65700,0,0,4,1460,312,0,16777216,240000,33580,332,65700,0,0,0,4095104832,63
i,1723653002.299458,10.0.2.15,22,10.0.2.2,50572,1073725440,16362,1026,65535,65700,0,0,4,1460,312,0,16777216,240000,33580,332,65700,0,332,0,4095104832,63
i,1723653002.301367,10.0.2.15,22,10.0.2.2,50572,1073725440,16694,1026,65535,65700,0,0,4,1460,312,0,0,240000,33580,0,65700,0,0,0,4095104832,63
o,1723653002.318760,10.0.2.15,22,10.0.2.2,50572,1073725440,16694,1026,65535,65700,0,0,4,1460,312,0,16777216,240000,33580,28,65700,0,0,0,4095104832,63
i,1723653002.319353,10.0.2.15,22,10.0.2.2,50572,1073725440,16694,1026,65535,65700,0,0,4,1460,312,0,16777216,240000,33580,28,65700,0,28,0,4095104832,63
i,1723653002.319374,10.0.2.15,22,10.0.2.2,50572,1073725440,16722,1026,65535,65700,0,0,4,1460,312,0,0,240000,33580,0,65700,0,0,0,4095104832,63
o,1723653002.320831,10.0.2.15,22,10.0.2.2,50572,1073725440,16722,1026,65535,65700,0,0,4,1460,312,0,16777216,240000,33580,768,65700,112,0,0,4095104832,63
i,1723653002.321465,10.0.2.15,22,10.0.2.2,50572,1073725440,16722,1026,65535,65700,0,0,4,1460,312,0,16777216,240000,33580,908,65700,112,768,0,4095104832,63
o,1723653002.321485,10.0.2.15,22,10.0.2.2,50572,1073725440,17490,1026,65535,65700,0,0,4,1460,312,0,16777216,240000,33580,140,65700,112,0,0,4095104832,63
i,1723653002.321847,10.0.2.15,22,10.0.2.2,50572,1073725440,17490,1026,65535,65700,0,0,4,1460,312,0,16777216,240000,33580,140,65700,0,140,0,4095104832,63
o,1723653002.322039,10.0.2.15,22,10.0.2.2,50572,1073725440,17630,1026,65535,65700,0,0,4,1460,312,0,16777216,240000,33580,44,65700,0,0,0,4095104832,63
i,1723653002.322567,10.0.2.15,22,10.0.2.2,50572,1073725440,17630,1026,65535,65700,0,0,4,1460,312,0,16777216,240000,33580,44,65700,0,44,0,4095104832,63
i,1723653002.322582,10.0.2.15,22,10.0.2.2,50572,1073725440,17674,1026,65535,65700,0,0,4,1460,312,0,0,240000,33580,0,65700,0,0,0,4095104832,63
o,1723653002.323145,10.0.2.15,22,10.0.2.2,50572,1073725440,17674,1026,65535,65700,0,0,4,1460,312,0,16777220,240000,33580,72,65700,0,0,0,4095104832,63
i,1723653002.323512,10.0.2.15,22,10.0.2.2,50572,1073725440,17674,1026,65535,65700,0,0,4,1460,312,0,16777220,240000,33580,72,65700,0,72,0,4095104832,63
o,1723653002.451104,172.16.5.2,30698,172.16.1.2,5102,16618,14480,2082,65535,65700,6,6,4,1460,207187,1,16778209,730000,33580,0,65700,0,0,0,307597092,63
o,1723653002.451604,172.16.5.2,30698,172.16.1.2,5102,16618,14480,2082,65535,65700,6,6,4,1460,207187,1,16778212,730000,33580,37,65700,0,0,0,307597092,63
i,1723653002.565306,172.16.5.2,30698,172.16.1.2,5102,16618,14480,2082,65535,65700,6,6,4,1460,207187,1,16778212,730000,33580,37,65700,0,37,0,307597092,63
o,1723653002.565916,172.16.5.2,30698,172.16.1.2,5102,16618,14517,3106,65728,65728,6,6,4,1460,195312,1,16778212,730000,33580,4,65700,0,0,0,307597092,63
o,1723653002.566395,172.16.5.2,30698,172.16.1.2,5102,16618,14517,3106,65728,65728,6,6,4,1460,195312,1,16778212,730000,33580,130,65700,0,4,0,307597092,63
i,1723653002.681721,172.16.5.2,30698,172.16.1.2,5102,16618,14517,3106,65728,65728,6,6,4,1460,195312,1,16778212,730000,33580,130,65700,0,130,0,307597092,63
i,1723653002.681780,172.16.5.2,30698,172.16.1.2,5102,16618,14647,3106,65600,65728,6,6,4,1460,185937,1,996,710000,33580,0,65700,0,0,0,307597092,63
o,1723653002.719743,172.16.5.2,30698,172.16.1.2,5102,16618,14647,3106,65728,65728,6,6,4,1460,185937,1,997,710000,33580,0,65700,0,0,0,307597092,63
o,1723653002.803935,172.16.5.2,45749,172.16.1.2,5102,16618,14480,2082,65535,65700,6,6,4,1460,207187,1,16778209,730000,33580,0,65700,0,0,0,1959576711,63
o,1723653002.804163,172.16.5.2,45749,172.16.1.2,5102,16618,14480,2082,65535,65700,6,6,4,1460,207187,1,16778208,730000,33580,37,65700,0,0,0,1959576711,63
i,1723653002.929053,172.16.5.2,30698,172.16.1.2,5102,16618,14647,3106,65728,65728,6,6,4,1460,185937,1,996,710000,33580,0,65700,0,0,0,307597092,63
i,1723653002.929142,172.16.5.2,30698,172.16.1.2,5102,16618,14647,3106,65728,65728,6,6,4,1460,185937,1,996,710000,33580,0,65700,1,0,0,307597092,63
o,1723653002.929187,172.16.5.2,30698,172.16.1.2,5102,16618,14647,3106,65728,65728,6,6,4,1460,185937,1,997,710000,33580,0,65700,2,0,0,307597092,63
o,1723653002.929903,172.16.5.2,45749,172.16.1.2,5102,16618,14480,2086,65535,65700,6,6,4,1460,207187,1,16778208,730000,33580,33580,65700,0,37,0,1959576711,63
i,1723653002.959803,172.16.5.2,45749,172.16.1.2,5102,16618,14480,2086,65535,65700,6,6,4,1460,207187,1,16778208,730000,33580,33580,65700,0,13069,0,1959576711,63
o,1723653002.959901,172.16.5.2,45749,172.16.1.2,5102,16618,14517,2086,65728,65728,6,6,4,1460,200312,1,16778208,700000,33580,33543,65700,0,13032,0,1959576711,63
i,1723653003.012073,172.16.5.2,45749,172.16.1.2,5102,16618,14517,2086,65728,65728,6,6,4,1460,200312,1,16778208,700000,33580,33543,65700,0,14480,0,1959576711,63
o,1723653003.012105,172.16.5.2,45749,172.16.1.2,5102,16618,17413,2086,62848,65728,6,6,4,1460,184062,1,16778208,740000,33580,30647,65700,0,11584,0,1959576711,63
i,1723653003.043844,172.16.5.2,45749,172.16.1.2,5102,16618,17413,2086,62848,65728,6,6,4,1460,184062,1,16778208,740000,41772,41772,65700,0,17376,0,1959576711,63
o,1723653003.043905,172.16.5.2,45749,172.16.1.2,5102,16618,17413,2086,64256,65728,6,6,4,1460,175000,1,16778208,710000,41772,38876,65700,0,14480,0,1959576711,63
i,1723653003.044121,172.16.5.2,45749,172.16.1.2,5102,16618,17413,2086,64256,65728,6,6,4,1460,175000,1,16778208,710000,41772,38876,65700,0,17376,0,1959576711,63
o,1723653003.044141,172.16.5.2,45749,172.16.1.2,5102,16618,17413,2086,61376,65728,6,6,4,1460,166875,1,16778208,680000,41772,35980,65700,0,14480,0,1959576711,63
i,1723653003.044326,172.16.5.2,45749,172.16.1.2,5102,16618,17413,2086,61376,65728,6,6,4,1460,166875,1,16778208,680000,41772,35980,65700,0,17376,0,1959576711,63
o,1723653003.044346,172.16.5.2,45749,172.16.1.2,5102,16618,17413,2086,62848,65728,6,6,4,1460,160000,1,16778208,650000,41772,33084,65700,0,14480,0,1959576711,63
i,1723653003.074661,172.16.5.2,45749,172.16.1.2,5102,16618,17413,2086,62848,65728,6,6,4,1460,160000,1,16778208,650000,41772,41772,65700,0,17376,0,1959576711,63
o,1723653003.074688,172.16.5.2,45749,172.16.1.2,5102,16618,17413,2086,64256,65728,6,6,4,1460,157500,1,16778208,600000,41772,38876,65700,0,14480,0,1959576711,63
o,1723653003.074862,172.16.5.2,45749,172.16.1.2,5102,16618,17413,2086,64256,65728,6,6,4,1460,157500,1,16778208,600000,41772,38876,65700,0,15928,0,1959576711,63
i,1723653003.132088,172.16.5.2,45749,172.16.1.2,5102,16618,17413,2086,64256,65728,6,6,4,1460,157500,1,16778208,600000,41772,41772,65700,0,17376,0,1959576711,63
o,1723653003.132191,172.16.5.2,45749,172.16.1.2,5102,16618,17413,2086,62848,65728,6,6,4,1460,152812,1,16778208,570000,41772,38876,65700,0,14480,0,1959576711,63
i,1723653003.158181,172.16.5.2,45749,172.16.1.2,5102,16618,17413,2086,62848,65728,6,6,4,1460,152812,1,16778208,570000,41772,41772,65700,0,17376,0,1959576711,63
o,1723653003.158216,172.16.5.2,45749,172.16.1.2,5102,16618,17413,2086,62848,65728,6,6,4,1460,152500,1,16778208,520000,41772,38876,65700,0,14480,0,1959576711,63
i,1723653003.160925,172.16.5.2,45749,172.16.1.2,5102,16618,17413,2086,62848,65728,6,6,4,1460,152500,1,16778208,520000,41772,41772,65700,0,17376,0,1959576711,63
o,1723653003.160944,172.16.5.2,45749,172.16.1.2,5102,16618,18873,2086,62848,65728,6,6,4,1460,147187,1,16778208,510000,41772,38876,65700,0,14480,0,1959576711,63
i,1723653003.161091,172.16.5.2,45749,172.16.1.2,5102,16618,18873,2086,62848,65728,6,6,4,1460,147187,1,16778208,510000,41772,38876,65700,0,18824,0,1959576711,63
o,1723653003.161107,172.16.5.2,45749,172.16.1.2,5102,16618,18873,2086,62848,65728,6,6,4,1460,142812,1,16778208,500000,41772,35980,65700,0,15928,0,1959576711,63
i,1723653003.167083,172.16.5.2,45749,172.16.1.2,5102,16618,18873,2086,62848,65728,6,6,4,1460,142812,1,16778208,500000,41772,41772,65700,0,18824,0,1959576711,63
o,1723653003.167104,172.16.5.2,45749,172.16.1.2,5102,16618,18873,2086,64256,65728,6,6,4,1460,138750,1,16778208,490000,41772,38876,65700,0,15928,0,1959576711,63
i,1723653003.193730,172.16.5.2,45749,172.16.1.2,5102,16618,18873,2086,64256,65728,6,6,4,1460,138750,1,16778208,490000,41772,41772,65700,0,18824,0,1959576711,63
o,1723653003.193767,172.16.5.2,45749,172.16.1.2,5102,16618,18873,2086,62848,65728,6,6,4,1460,136562,1,16778208,470000,41772,38876,65700,0,15928,0,1959576711,63
o,1723653003.193917,172.16.5.2,45749,172.16.1.2,5102,16618,18873,2086,62848,65728,6,6,4,1460,136562,1,16778208,470000,41772,38876,65700,0,17376,0,1959576711,63
i,1723653003.263033,172.16.5.2,45749,172.16.1.2,5102,16618,18873,2086,62848,65728,6,6,4,1460,136562,1,16778208,470000,41772,41772,65700,0,18824,0,1959576711,63
o,1723653003.263141,172.16.5.2,45749,172.16.1.2,5102,16618,18873,2086,64256,65728,6,6,4,1460,135937,1,16778208,440000,41772,38876,65700,0,15928,0,1959576711,63
i,1723653003.263317,172.16.5.2,45749,172.16.1.2,5102,16618,18873,2086,64256,65728,6,6,4,1460,135937,1,16778208,440000,41772,38876,65700,0,18824,0,1959576711,63
o,1723653003.263338,172.16.5.2,45749,172.16.1.2,5102,16618,18873,2086,64256,65728,6,6,4,1460,131562,1,16778208,440000,41772,35980,65700,0,15928,0,1959576711,63
i,1723653003.282865,172.16.5.2,45749,172.16.1.2,5102,16618,18873,2086,64256,65728,6,6,4,1460,131562,1,16778208,440000,41772,41772,65700,0,18824,0,1959576711,63
o,1723653003.282990,172.16.5.2,45749,172.16.1.2,5102,16618,20333,2086,62848,65728,6,6,4,1460,130312,1,16778208,430000,41772,38876,65700,0,15928,0,1959576711,63
i,1723653003.283191,172.16.5.2,45749,172.16.1.2,5102,16618,20333,2086,62848,65728,6,6,4,1460,130312,1,16778208,430000,49964,38876,65700,0,20272,0,1959576711,63
o,1723653003.283220,172.16.5.2,45749,172.16.1.2,5102,16618,20333,2086,62848,65728,6,6,4,1460,129062,1,16778208,410000,49964,35980,65700,0,17376,0,1959576711,63
i,1723653003.284439,172.16.5.2,45749,172.16.1.2,5102,16618,20333,2086,62848,65728,6,6,4,1460,129062,1,16778208,410000,49964,49964,65700,0,20272,0,1959576711,63
o,1723653003.284471,172.16.5.2,45749,172.16.1.2,5102,16618,20333,2086,64256,65728,6,6,4,1460,128125,1,16778208,400000,49964,47068,65700,0,17376,0,1959576711,63
i,1723653003.314077,172.16.5.2,45749,172.16.1.2,5102,16618,20333,2086,64256,65728,6,6,4,1460,128125,1,16778208,400000,49964,49964,65700,0,20272,0,1959576711,63
o,1723653003.314323,172.16.5.2,45749,172.16.1.2,5102,16618,20333,2086,64256,65728,6,6,4,1460,130937,1,16778208,400000,49964,47068,65700,0,17376,0,1959576711,63
o,1723653003.314594,172.16.5.2,45749,172.16.1.2,5102,16618,20333,2086,64256,65728,6,6,4,1460,130937,1,16778208,400000,49964,47068,65700,0,18824,0,1959576711,63
i,1723653003.332569,172.16.5.2,45749,172.16.1.2,5102,16618,20333,2086,64256,65728,6,6,4,1460,130937,1,16778208,400000,49964,49964,65700,0,20272,0,1959576711,63
o,1723653003.332796,172.16.5.2,45749,172.16.1.2,5102,16618,20333,2086,65728,65728,6,6,4,1460,130937,1,16778208,390000,49964,48516,65700,0,18824,0,1959576711,63
i,1723653003.372429,172.16.5.2,45749,172.16.1.2,5102,16618,20333,2086,65728,65728,6,6,4,1460,130937,1,16778208,390000,49964,48516,65700,0,20272,0,1959576711,63
o,1723653003.372793,172.16.5.2,45749,172.16.1.2,5102,16618,20333,2086,62848,65728,6,6,4,1460,128437,1,16778208,390000,49964,45620,65700,0,17376,0,1959576711,63
i,1723653003.382100,172.16.5.2,45749,172.16.1.2,5102,16618,20333,2086,62848,65728,6,6,4,1460,128437,1,16778208,390000,49964,49964,65700,0,20272,0,1959576711,63
o,1723653003.382196,172.16.5.2,45749,172.16.1.2,5102,16618,20333,2086,64256,65728,6,6,4,1460,127500,1,16778208,380000,49964,47068,65700,0,17376,0,1959576711,63
i,1723653003.382343,172.16.5.2,45749,172.16.1.2,5102,16618,20333,2086,64256,65728,6,6,4,1460,127500,1,16778208,380000,49964,47068,65700,0,20272,0,1959576711,63
o,1723653003.382365,172.16.5.2,45749,172.16.1.2,5102,16618,20333,2086,64256,65728,6,6,4,1460,122812,1,16778208,400000,49964,44172,65700,0,17376,0,1959576711,63
i,1723653003.406611,172.16.5.2,45749,172.16.1.2,5102,16618,20333,2086,64256,65728,6,6,4,1460,122812,1,16778208,400000,49964,49964,65700,0,20272,0,1959576711,63
o,1723653003.406690,172.16.5.2,45749,172.16.1.2,5102,16618,21793,2086,64256,65728,6,6,4,1460,121250,1,16778208,390000,49964,47068,65700,0,17376,0,1959576711,63
i,1723653003.417240,172.16.5.2,45749,172.16.1.2,5102,16618,21793,2086,64256,65728,6,6,4,1460,121250,1,16778208,390000,49964,49964,65700,0,21720,0,1959576711,63
o,1723653003.417278,172.16.5.2,45749,172.16.1.2,5102,16618,21793,2086,64256,65728,6,6,4,1460,122500,1,16778208,390000,49964,47068,65700,0,18824,0,1959576711,63
i,1723653003.417556,172.16.5.2,45749,172.16.1.2,5102,16618,21793,2086,64256,65728,6,6,4,1460,122500,1,16778208,390000,49964,47068,65700,0,21720,0,1959576711,63
o,1723653003.417574,172.16.5.2,45749,172.16.1.2,5102,16618,21793,2086,62848,65728,6,6,4,1460,123437,1,16778208,380000,49964,44172,65700,0,18824,0,1959576711,63
o,1723653003.417707,172.16.5.2,45749,172.16.1.2,5102,16618,21793,2086,62848,65728,6,6,4,1460,123437,1,16778208,380000,49964,44172,65700,0,20272,0,1959576711,63
i,1723653003.442158,172.16.5.2,45749,172.16.1.2,5102,16618,21793,2086,62848,65728,6,6,4,1460,123437,1,16778208,380000,49964,49964,65700,0,21720,0,1959576711,63
o,1723653003.442260,172.16.5.2,45749,172.16.1.2,5102,16618,21793,2086,64256,65728,6,6,4,1460,123125,1,16778208,370000,49964,47068,65700,0,18824,0,1959576711,63
i,1723653003.492167,172.16.5.2,45749,172.16.1.2,5102,16618,21793,2086,64256,65728,6,6,4,1460,123125,1,16778208,370000,49964,49964,65700,0,21720,0,1959576711,63
o,1723653003.492255,172.16.5.2,45749,172.16.1.2,5102,16618,21793,2086,62848,65728,6,6,4,1460,122812,1,16778208,360000,49964,47068,65700,0,18824,0,1959576711,63
i,1723653003.492404,172.16.5.2,45749,172.16.1.2,5102,16618,21793,2086,62848,65728,6,6,4,1460,122812,1,16778208,360000,49964,47068,65700,0,21720,0,1959576711,63
o,1723653003.492421,172.16.5.2,45749,172.16.1.2,5102,16618,21793,2086,59968,65728,6,6,4,1460,121250,1,16778208,360000,49964,44172,65700,0,18824,0,1959576711,63
i,1723653003.501758,172.16.5.2,45749,172.16.1.2,5102,16618,21793,2086,59968,65728,6,6,4,1460,121250,1,16778208,360000,49964,49964,65700,0,21720,0,1959576711,63
o,1723653003.501837,172.16.5.2,45749,172.16.1.2,5102,16618,21793,2086,64256,65728,6,6,4,1460,121250,1,16778208,350000,49964,47068,65700,0,18824,0,1959576711,63
i,1723653003.526114,172.16.5.2,45749,172.16.1.2,5102,16618,21793,2086,64256,65728,6,6,4,1460,121250,1,16778208,350000,49964,49964,65700,0,21720,0,1959576711,63
o,1723653003.526227,172.16.5.2,45749,172.16.1.2,5102,16618,23253,2086,62848,65728,6,6,4,1460,121250,1,16778208,340000,49964,47068,65700,0,18824,0,1959576711,63
i,1723653003.526429,172.16.5.2,45749,172.16.1.2,5102,16618,23253,2086,62848,65728,6,6,4,1460,121250,1,16778208,340000,49964,47068,65700,0,23168,0,1959576711,63
o,1723653003.526457,172.16.5.2,45749,172.16.1.2,5102,16618,23253,2086,62848,65728,6,6,4,1460,121250,1,16778208,340000,49964,44172,65700,0,20272,0,1959576711,63
i,1723653003.532374,172.16.5.2,45749,172.16.1.2,5102,16618,23253,2086,62848,65728,6,6,4,1460,121250,1,16778208,340000,58156,58156,65700,0,23168,0,1959576711,63
o,1723653003.532444,172.16.5.2,45749,172.16.1.2,5102,16618,23253,2086,62848,65728,6,6,4,1460,120000,1,16778208,340000,58156,55260,65700,0,20272,0,1959576711,63
o,1723653003.532573,172.16.5.2,45749,172.16.1.2,5102,16618,23253,2086,62848,65728,6,6,4,1460,120000,1,16778208,340000,58156,55260,65700,0,21720,0,1959576711,63
i,1723653003.555235,172.16.5.2,45749,172.16.1.2,5102,16618,23253,2086,62848,65728,6,6,4,1460,120000,1,16778208,340000,58156,58156,65700,0,23168,0,1959576711,63
o,1723653003.555273,172.16.5.2,45749,172.16.1.2,5102,16618,23253,2086,64256,65728,6,6,4,1460,121250,1,16778208,350000,58156,55260,65700,0,20272,0,1959576711,63
i,1723653003.601981,172.16.5.2,45749,172.16.1.2,5102,16618,23253,2086,64256,65728,6,6,4,1460,121250,1,16778208,350000,58156,58156,65700,0,23168,0,1959576711,63
o,1723653003.602074,172.16.5.2,45749,172.16.1.2,5102,16618,23253,2086,65728,65728,6,6,4,1460,126250,1,16778208,380000,58156,56708,65700,0,21720,0,1959576711,63
i,1723653003.612362,172.16.5.2,45749,172.16.1.2,5102,16618,23253,2086,65728,65728,6,6,4,1460,126250,1,16778208,380000,58156,56708,65700,0,23168,0,1959576711,63
o,1723653003.612440,172.16.5.2,45749,172.16.1.2,5102,16618,23253,2086,62848,65728,6,6,4,1460,124375,1,16778208,380000,58156,53812,65700,0,20272,0,1959576711,63
i,1723653003.612570,172.16.5.2,45749,172.16.1.2,5102,16618,23253,2086,62848,65728,6,6,4,1460,124375,1,16778208,380000,58156,53812,65700,0,23168,0,1959576711,63
o,1723653003.612588,172.16.5.2,45749,172.16.1.2,5102,16618,23253,2086,62848,65728,6,6,4,1460,122812,1,16778208,380000,58156,50916,65700,0,20272,0,1959576711,63
i,1723653003.623030,172.16.5.2,45749,172.16.1.2,5102,16618,23253,2086,62848,65728,6,6,4,1460,122812,1,16778208,380000,58156,58156,65700,0,23168,0,1959576711,63
o,1723653003.623030,172.16.5.2,45749,172.16.1.2,5102,16618,23253,2086,62848,65728,6,6,4,1460,122500,1,16778208,370000,58156,55260,65700,0,20272,0,1959576711,63
i,1723653003.641687,172.16.5.2,45749,172.16.1.2,5102,16618,23253,2086,62848,65728,6,6,4,1460,122500,1,16778208,370000,58156,58156,65700,0,23168,0,1959576711,63
o,1723653003.641735,172.16.5.2,45749,172.16.1.2,5102,16618,23253,2086,62848,65728,6,6,4,1460,122187,1,16778208,360000,58156,55260,65700,0,20272,0,1959576711,63
i,1723653003.641953,172.16.5.2,45749,172.16.1.2,5102,16618,23253,2086,62848,65728,6,6,4,1460,122187,1,16778208,360000,58156,55260,65700,0,23168,0,1959576711,63
o,1723653003.641972,172.16.5.2,45749,172.16.1.2,5102,16618,24713,2086,59968,65728,6,6,4,1460,122187,1,16778208,350000,58156,52364,65700,0,20272,0,1959576711,63
i,1723653003.642154,172.16.5.2,45749,172.16.1.2,5102,16618,24713,2086,59968,65728,6,6,4,1460,122187,1,16778208,350000,58156,52364,65700,0,24616,0,1959576711,63
o,1723653003.642171,172.16.5.2,45749,172.16.1.2,5102,16618,24713,2086,62848,65728,6,6,4,1460,122187,1,16778208,340000,58156,49468,65700,0,21720,0,1959576711,63
o,1723653003.642337,172.16.5.2,45749,172.16.1.2,5102,16618,24713,2086,62848,65728,6,6,4,1460,122187,1,16778208,340000,58156,49468,65700,0,23168,0,1959576711,63
i,1723653003.679028,172.16.5.2,45749,172.16.1.2,5102,16618,24713,2086,62848,65728,6,6,4,1460,122187,1,16778208,340000,58156,58156,65700,0,24616,0,1959576711,63
o,1723653003.679113,172.16.5.2,45749,172.16.1.2,5102,16618,24713,2086,64256,65728,6,6,4,1460,125937,1,16778208,370000,58156,55260,65700,0,21720,0,1959576711,63
i,1723653003.701841,172.16.5.2,45749,172.16.1.2,5102,16618,24713,2086,64256,65728,6,6,4,1460,125937,1,16778208,370000,58156,58156,65700,0,24616,0,1959576711,63
o,1723653003.701944,172.16.5.2,45749,172.16.1.2,5102,16618,24713,2086,65728,65728,6,6,4,1460,129062,1,16778208,390000,58156,56708,65700,0,23168,0,1959576711,63
i,1723653003.732290,172.16.5.2,45749,172.16.1.2,5102,16618,24713,2086,65728,65728,6,6,4,1460,129062,1,16778208,390000,58156,56708,65700,0,24616,0,1959576711,63
o,1723653003.732401,172.16.5.2,45749,172.16.1.2,5102,16618,24713,2086,64256,65728,6,6,4,1460,128125,1,16778208,380000,58156,53812,65700,0,21720,0,1959576711,63
i,1723653003.732542,172.16.5.2,45749,172.16.1.2,5102,16618,24713,2086,64256,65728,6,6,4,1460,128125,1,16778208,380000,58156,53812,65700,0,24616,0,1959576711,63
o,1723653003.732560,172.16.5.2,45749,172.16.1.2,5102,16618,24713,2086,64256,65728,6,6,4,1460,127187,1,16778208,370000,58156,50916,65700,0,21720,0,1959576711,63
i,1723653003.742053,172.16.5.2,45749,172.16.1.2,5102,16618,24713,2086,64256,65728,6,6,4,1460,127187,1,16778208,370000,58156,58156,65700,0,24616,0,1959576711,63
o,1723653003.742084,172.16.5.2,45749,172.16.1.2,5102,16618,24713,2086,64256,65728,6,6,4,1460,127812,1,16778208,370000,58156,55260,65700,0,21720,0,1959576711,63
i,1723653003.761778,172.16.5.2,45749,172.16.1.2,5102,16618,24713,2086,64256,65728,6,6,4,1460,127812,1,16778208,370000,58156,58156,65700,0,24616,0,1959576711,63
o,1723653003.761829,172.16.5.2,45749,172.16.1.2,5102,16618,24713,2086,64256,65728,6,6,4,1460,128125,1,16778208,360000,58156,55260,65700,0,21720,0,1959576711,63
i,1723653003.761971,172.16.5.2,45749,172.16.1.2,5102,16618,24713,2086,64256,65728,6,6,4,1460,128125,1,16778208,360000,58156,55260,65700,0,24616,0,1959576711,63
o,1723653003.761988,172.16.5.2,45749,172.16.1.2,5102,16618,24713,2086,62848,65728,6,6,4,1460,127187,1,16778208,360000,58156,52364,65700,0,21720,0,1959576711,63
i,1723653003.773726,172.16.5.2,45749,172.16.1.2,5102,16618,24713,2086,62848,65728,6,6,4,1460,127187,1,16778208,360000,58156,58156,65700,0,24616,0,1959576711,63
o,1723653003.773813,172.16.5.2,45749,172.16.1.2,5102,16618,26173,2086,64256,65728,6,6,4,1460,127812,1,16778208,360000,58156,55260,65700,0,21720,0,1959576711,63
i,1723653003.774062,172.16.5.2,45749,172.16.1.2,5102,16618,26173,2086,64256,65728,6,6,4,1460,127812,1,16778208,360000,58156,55260,65700,0,26064,0,1959576711,63
o,1723653003.774081,172.16.5.2,45749,172.16.1.2,5102,16618,26173,2086,61376,65728,6,6,4,1460,128125,1,16778208,350000,58156,52364,65700,0,23168,0,1959576711,63
o,1723653003.774287,172.16.5.2,45749,172.16.1.2,5102,16618,26173,2086,61376,65728,6,6,4,1460,128125,1,16778208,350000,58156,52364,65700,0,24616,0,1959576711,63
i,1723653003.792001,172.16.5.2,45749,172.16.1.2,5102,16618,26173,2086,61376,65728,6,6,4,1460,128125,1,16778208,350000,58156,58156,65700,0,26064,0,1959576711,63
o,1723653003.792102,172.16.5.2,45749,172.16.1.2,5102,16618,26173,2086,62848,65728,6,6,4,1460,125937,1,16778208,360000,58156,55260,65700,0,23168,0,1959576711,63
i,1723653003.855001,172.16.5.2,45749,172.16.1.2,5102,16618,26173,2086,62848,65728,6,6,4,1460,125937,1,16778208,360000,58156,58156,65700,0,26064,0,1959576711,63
o,1723653003.855040,172.16.5.2,45749,172.16.1.2,5102,16618,26173,2086,64256,65728,6,6,4,1460,127812,1,16778208,370000,58156,55260,65700,0,23168,0,1959576711,63
i,1723653003.855236,172.16.5.2,45749,172.16.1.2,5102,16618,26173,2086,64256,65728,6,6,4,1460,127812,1,16778208,370000,58156,55260,65700,0,26064,0,1959576711,63
o,1723653003.855253,172.16.5.2,45749,172.16.1.2,5102,16618,26173,2086,62848,65728,6,6,4,1460,126875,1,16778208,360000,58156,52364,65700,0,23168,0,1959576711,63
i,1723653003.861139,172.16.5.2,45749,172.16.1.2,5102,16618,26173,2086,62848,65728,6,6,4,1460,126875,1,16778208,360000,58156,58156,65700,0,26064,0,1959576711,63
o,1723653003.861210,172.16.5.2,45749,172.16.1.2,5102,16618,26173,2086,64256,65728,6,6,4,1460,127500,1,16778208,360000,58156,55260,65700,0,23168,0,1959576711,63
i,1723653003.882103,172.16.5.2,45749,172.16.1.2,5102,16618,26173,2086,64256,65728,6,6,4,1460,127500,1,16778208,360000,58156,58156,65700,0,26064,0,1959576711,63
o,1723653003.882156,172.16.5.2,45749,172.16.1.2,5102,16618,26173,2086,64256,65728,6,6,4,1460,129062,1,16778208,370000,58156,55260,65700,0,23168,0,1959576711,63
i,1723653003.882367,172.16.5.2,45749,172.16.1.2,5102,16618,26173,2086,64256,65728,6,6,4,1460,129062,1,16778208,370000,58156,55260,65700,0,26064,0,1959576711,63
o,1723653003.882402,172.16.5.2,45749,172.16.1.2,5102,16618,26173,2086,61376,65728,6,6,4,1460,128125,1,16778208,360000,58156,52364,65700,0,23168,0,1959576711,63
i,1723653003.882623,172.16.5.2,45749,172.16.1.2,5102,16618,26173,2086,61376,65728,6,6,4,1460,128125,1,16778208,360000,58156,52364,65700,0,26064,0,1959576711,63
o,1723653003.882656,172.16.5.2,45749,172.16.1.2,5102,16618,26173,2086,64256,65728,6,6,4,1460,127187,1,16778208,360000,58156,49468,65700,0,23168,0,1959576711,63
i,1723653003.891171,172.16.5.2,45749,172.16.1.2,5102,16618,26173,2086,64256,65728,6,6,4,1460,127187,1,16778208,360000,58156,58156,65700,0,26064,0,1959576711,63
o,1723653003.891227,172.16.5.2,45749,172.16.1.2,5102,16618,27633,2086,61376,65728,6,6,4,1460,126562,1,16778208,360000,58156,55260,65700,0,23168,0,1959576711,63
i,1723653003.915684,172.16.5.2,45749,172.16.1.2,5102,16618,27633,2086,61376,65728,6,6,4,1460,126562,1,16778208,360000,58156,58156,65700,0,27512,0,1959576711,63
o,1723653003.915722,172.16.5.2,45749,172.16.1.2,5102,16618,27633,2086,64256,65728,6,6,4,1460,128437,1,16778208,370000,58156,55260,65700,0,24616,0,1959576711,63
o,1723653003.915855,172.16.5.2,45749,172.16.1.2,5102,16618,27633,2086,64256,65728,6,6,4,1460,128437,1,16778208,370000,58156,55260,65700,0,26064,0,1959576711,63
i,1723653003.915985,172.16.5.2,45749,172.16.1.2,5102,16618,27633,2086,64256,65728,6,6,4,1460,128437,1,16778208,370000,58156,55260,65700,0,27512,0,1959576711,63
o,1723653003.916029,172.16.5.2,45749,172.16.1.2,5102,16618,27633,2086,64256,65728,6,6,4,1460,127500,1,16778208,360000,58156,52364,65700,0,24616,0,1959576711,63
i,1723653003.971605,172.16.5.2,45749,172.16.1.2,5102,16618,27633,2086,64256,65728,6,6,4,1460,127500,1,16778208,360000,66348,66348,65700,0,27512,0,1959576711,63
o,1723653003.971646,172.16.5.2,45749,172.16.1.2,5102,16618,27633,2086,62848,65728,6,6,4,1460,126562,1,16778208,360000,66348,63452,65700,0,24616,0,1959576711,63
i,1723653003.971796,172.16.5.2,45749,172.16.1.2,5102,16618,27633,2086,62848,65728,6,6,4,1460,126562,1,16778208,360000,66348,63452,65700,0,27512,0,1959576711,63
o,1723653003.971817,172.16.5.2,45749,172.16.1.2,5102,16618,27633,2086,64256,65728,6,6,4,1460,125937,1,16778208,360000,66348,60556,65700,0,24616,0,1959576711,63
i,1723653003.982524,172.16.5.2,45749,172.16.1.2,5102,16618,27633,2086,64256,65728,6,6,4,1460,125937,1,16778208,360000,66348,66348,65700,0,27512,0,1959576711,63
o,1723653003.982600,172.16.5.2,45749,172.16.1.2,5102,16618,27633,2086,62848,65728,6,6,4,1460,125312,1,16778208,350000,66348,63452,65700,0,24616,0,1959576711,63
i,1723653004.012972,172.16.5.2,45749,172.16.1.2,5102,16618,27633,2086,62848,65728,6,6,4,1460,125312,1,16778208,350000,66348,66348,65700,0,27512,0,1959576711,63
o,1723653004.013050,172.16.5.2,45749,172.16.1.2,5102,16618,27633,2086,64256,65728,6,6,4,1460,125937,1,16778208,350000,66348,63452,65700,0,24616,0,1959576711,63
i,1723653004.013247,172.16.5.2,45749,172.16.1.2,5102,16618,27633,2086,64256,65728,6,6,4,1460,125937,1,16778208,350000,66348,63452,65700,0,27512,0,1959576711,63
o,1723653004.013266,172.16.5.2,45749,172.16.1.2,5102,16618,27633,2086,62848,65728,6,6,4,1460,126562,1,16778208,350000,66348,60556,65700,0,24616,0,1959576711,63
i,1723653004.013431,172.16.5.2,45749,172.16.1.2,5102,16618,27633,2086,62848,65728,6,6,4,1460,126562,1,16778208,350000,66348,60556,65700,0,27512,0,1959576711,63
o,1723653004.013447,172.16.5.2,45749,172.16.1.2,5102,16618,27633,2086,62848,65728,6,6,4,1460,127187,1,16778208,350000,66348,57660,65700,0,24616,0,1959576711,63
i,1723653004.013567,172.16.5.2,45749,172.16.1.2,5102,16618,27633,2086,62848,65728,6,6,4,1460,127187,1,16778208,350000,66348,57660,65700,0,27512,0,1959576711,63
o,1723653004.013583,172.16.5.2,45749,172.16.1.2,5102,16618,29093,2086,62848,65728,6,6,4,1460,126562,1,16778208,350000,66348,54764,65700,0,24616,0,1959576711,63
i,1723653004.033606,172.16.5.2,45749,172.16.1.2,5102,16618,29093,2086,62848,65728,6,6,4,1460,126562,1,16778208,350000,66348,66348,65700,0,28960,0,1959576711,63
o,1723653004.033745,172.16.5.2,45749,172.16.1.2,5102,16618,29093,2086,64256,65728,6,6,4,1460,128437,1,16778208,360000,66348,63452,65700,0,26064,0,1959576711,63
o,1723653004.033923,172.16.5.2,45749,172.16.1.2,5102,16618,29093,2086,64256,65728,6,6,4,1460,128437,1,16778208,360000,66348,63452,65700,0,27512,0,1959576711,63
i,1723653004.034099,172.16.5.2,45749,172.16.1.2,5102,16618,29093,2086,64256,65728,6,6,4,1460,128437,1,16778208,360000,66348,63452,65700,0,28960,0,1959576711,63
o,1723653004.034129,172.16.5.2,45749,172.16.1.2,5102,16618,29093,2086,64256,65728,6,6,4,1460,127500,1,16778208,360000,66348,60556,65700,0,26064,0,1959576711,63
i,1723653004.051763,172.16.5.2,45749,172.16.1.2,5102,16618,29093,2086,64256,65728,6,6,4,1460,127500,1,16778208,360000,66348,66348,65700,0,28960,0,1959576711,63
o,1723653004.051993,172.16.5.2,45749,172.16.1.2,5102,16618,29093,2086,65728,65728,6,6,4,1460,129062,1,16778208,370000,66348,64900,65700,0,27512,0,1959576711,63
i,1723653004.082188,172.16.5.2,45749,172.16.1.2,5102,16618,29093,2086,65728,65728,6,6,4,1460,129062,1,16778208,370000,66348,64900,65700,0,28960,0,1959576711,63
o,1723653004.082694,172.16.5.2,45749,172.16.1.2,5102,16618,29093,2086,95680,65728,6,6,4,1460,125625,1,16778208,380000,66348,62004,65700,0,26064,0,1959576711,63
i,1723653004.092658,172.16.5.2,45749,172.16.1.2,5102,16618,29093,2086,95680,65728,6,6,4,1460,125625,1,16778208,380000,66348,66348,65700,0,28960,0,1959576711,63
o,1723653004.092701,172.16.5.2,45749,172.16.1.2,5102,16618,29093,2086,95680,65728,6,6,4,1460,125000,1,16778208,370000,66348,63452,65700,0,26064,0,1959576711,63
i,1723653004.103674,172.16.5.2,45749,172.16.1.2,5102,16618,29093,2086,95680,65728,6,6,4,1460,125000,1,16778208,370000,66348,65216,65700,0,28960,0,1959576711,63
o,1723653004.103716,172.16.5.2,45749,172.16.1.2,5102,16618,29093,2086,97152,65728,6,6,4,1460,124375,1,16778208,360000,66348,62320,65700,0,26064,0,1959576711,63
i,1723653004.122332,172.16.5.2,45749,172.16.1.2,5102,16618,29093,2086,97152,65728,6,6,4,1460,124375,1,16778208,360000,66348,66348,65700,0,28960,0,1959576711,63
o,1723653004.122369,172.16.5.2,45749,172.16.1.2,5102,16618,29093,2086,95680,65728,6,6,4,1460,122812,1,16778208,360000,66348,63452,65700,0,26064,0,1959576711,63
i,1723653004.124024,172.16.5.2,45749,172.16.1.2,5102,16618,29093,2086,95680,65728,6,6,4,1460,122812,1,16778208,360000,66348,66348,65700,0,28960,0,1959576711,63
o,1723653004.124126,172.16.5.2,45749,172.16.1.2,5102,16618,29093,2086,97152,65728,6,6,4,1460,121250,1,16778208,360000,66348,63452,65700,0,26064,0,1959576711,63
i,1723653004.145196,172.16.5.2,45749,172.16.1.2,5102,16618,29093,2086,97152,65728,6,6,4,1460,121250,1,16778208,360000,66348,66348,65700,0,28960,0,1959576711,63
o,1723653004.145226,172.16.5.2,45749,172.16.1.2,5102,16618,29093,2086,97152,65728,6,6,4,1460,122500,1,16778208,370000,66348,63452,65700,0,26064,0,1959576711,63
i,1723653004.145378,172.16.5.2,45749,172.16.1.2,5102,16618,29093,2086,97152,65728,6,6,4,1460,122500,1,16778208,370000,66348,63452,65700,0,28960,0,1959576711,63
o,1723653004.145395,172.16.5.2,45749,172.16.1.2,5102,16618,29093,2086,97152,65728,6,6,4,1460,123437,1,16778208,360000,66348,60556,65700,0,26064,0,1959576711,63
i,1723653004.148019,172.16.5.2,45749,172.16.1.2,5102,16618,29093,2086,97152,65728,6,6,4,1460,123437,1,16778208,360000,66348,66348,65700,0,28960,0,1959576711,63
o,1723653004.148040,172.16.5.2,45749,172.16.1.2,5102,16618,30553,2086,97152,65728,6,6,4,1460,125625,1,16778208,370000,66348,63452,65700,0,26064,0,1959576711,63
o,1723653004.148172,172.16.5.2,45749,172.16.1.2,5102,16618,30553,2086,97152,65728,6,6,4,1460,125625,1,16778208,370000,66348,63452,65700,0,27512,0,1959576711,63
i,1723653004.148356,172.16.5.2,45749,172.16.1.2,5102,16618,30553,2086,97152,65728,6,6,4,1460,125625,1,16778208,370000,66348,63452,65700,0,30408,0,1959576711,63
o,1723653004.148384,172.16.5.2,45749,172.16.1.2,5102,16618,30553,2086,95680,65728,6,6,4,1460,125000,1,16778208,370000,66348,60556,65700,0,27512,0,1959576711,63
i,1723653004.171588,172.16.5.2,45749,172.16.1.2,5102,16618,30553,2086,95680,65728,6,6,4,1460,125000,1,16778208,370000,74540,74540,65700,0,30408,0,1959576711,63
o,1723653004.171621,172.16.5.2,45749,172.16.1.2,5102,16618,30553,2086,97152,65728,6,6,4,1460,126875,1,16778208,370000,74540,71644,65700,0,27512,0,1959576711,63
i,1723653004.192197,172.16.5.2,45749,172.16.1.2,5102,16618,30553,2086,97152,65728,6,6,4,1460,126875,1,16778208,370000,74540,74540,65700,0,30408,0,1959576711,63
o,1723653004.192197,172.16.5.2,45749,172.16.1.2,5102,16618,30553,2086,95680,65728,6,6,4,1460,125000,1,16778208,370000,74540,71644,65700,0,27512,0,1959576711,63
i,1723653004.193522,172.16.5.2,45749,172.16.1.2,5102,16618,30553,2086,95680,65728,6,6,4,1460,125000,1,16778208,370000,74540,74540,65700,0,30408,0,1959576711,63
o,1723653004.193567,172.16.5.2,45749,172.16.1.2,5102,16618,30553,2086,95680,65728,6,6,4,1460,121875,1,16778208,380000,74540,71644,65700,0,27512,0,1959576711,63
i,1723653004.212256,172.16.5.2,45749,172.16.1.2,5102,16618,30553,2086,95680,65728,6,6,4,1460,121875,1,16778208,380000,74540,74540,65700,0,30408,0,1959576711,63
o,1723653004.212350,172.16.5.2,45749,172.16.1.2,5102,16618,30553,2086,95680,65728,6,6,4,1460,120625,1,16778208,380000,74540,71644,65700,0,27512,0,1959576711,63
i,1723653004.231611,172.16.5.2,45749,172.16.1.2,5102,16618,30553,2086,95680,65728,6,6,4,1460,120625,1,16778208,380000,74540,74540,65700,0,30408,0,1959576711,63
o,1723653004.231701,172.16.5.2,45749,172.16.1.2,5102,16618,30553,2086,95680,65728,6,6,4,1460,119375,1,16778208,370000,74540,71644,65700,0,27512,0,1959576711,63
i,1723653004.241432,172.16.5.2,45749,172.16.1.2,5102,16618,30553,2086,95680,65728,6,6,4,1460,119375,1,16778208,370000,74540,74540,65700,0,30408,0,1959576711,63
o,1723653004.241466,172.16.5.2,45749,172.16.1.2,5102,16618,30553,2086,95680,65728,6,6,4,1460,119687,1,16778208,360000,74540,71644,65700,0,27512,0,1959576711,63
i,1723653004.241597,172.16.5.2,45749,172.16.1.2,5102,16618,30553,2086,95680,65728,6,6,4,1460,119687,1,16778208,360000,74540,71644,65700,0,30408,0,1959576711,63
o,1723653004.241614,172.16.5.2,45749,172.16.1.2,5102,16618,30553,2086,95680,65728,6,6,4,1460,117500,1,16778208,370000,74540,68748,65700,0,27512,0,1959576711,63
i,1723653004.261823,172.16.5.2,45749,172.16.1.2,5102,16618,30553,2086,95680,65728,6,6,4,1460,117500,1,16778208,370000,74540,74540,65700,0,30408,0,1959576711,63
o,1723653004.261857,172.16.5.2,45749,172.16.1.2,5102,16618,30553,2086,95680,65728,6,6,4,1460,117812,1,16778208,360000,74540,71644,65700,0,27512,0,1959576711,63
i,1723653004.261988,172.16.5.2,45749,172.16.1.2,5102,16618,30553,2086,95680,65728,6,6,4,1460,117812,1,16778208,360000,74540,71644,65700,0,30408,0,1959576711,63
o,1723653004.262004,172.16.5.2,45749,172.16.1.2,5102,16618,32013,2086,95680,65728,6,6,4,1460,116875,1,16778208,350000,74540,68748,65700,0,27512,0,1959576711,63
o,1723653004.262114,172.16.5.2,45749,172.16.1.2,5102,16618,32013,2086,95680,65728,6,6,4,1460,116875,1,16778208,350000,74540,68748,65700,0,28960,0,1959576711,63
i,1723653004.262251,172.16.5.2,45749,172.16.1.2,5102,16618,32013,2086,95680,65728,6,6,4,1460,116875,1,16778208,350000,74540,68748,65700,0,31856,0,1959576711,63
o,1723653004.262268,172.16.5.2,45749,172.16.1.2,5102,16618,32013,2086,97152,65728,6,6,4,1460,116250,1,16778208,350000,74540,65852,65700,0,28960,0,1959576711,63
i,1723653004.281754,172.16.5.2,45749,172.16.1.2,5102,16618,32013,2086,97152,65728,6,6,4,1460,116250,1,16778208,350000,74540,74540,65700,0,31856,0,1959576711,63
o,1723653004.281833,172.16.5.2,45749,172.16.1.2,5102,16618,32013,2086,97152,65728,6,6,4,1460,118125,1,16778208,360000,74540,71644,65700,0,28960,0,1959576711,63
i,1723653004.292929,172.16.5.2,45749,172.16.1.2,5102,16618,32013,2086,97152,65728,6,6,4,1460,118125,1,16778208,360000,74540,74540,65700,0,31856,0,1959576711,63
o,1723653004.292962,172.16.5.2,45749,172.16.1.2,5102,16618,32013,2086,97152,65728,6,6,4,1460,118437,1,16778208,350000,74540,71644,65700,0,28960,0,1959576711,63
i,1723653004.293716,172.16.5.2,45749,172.16.1.2,5102,16618,32013,2086,97152,65728,6,6,4,1460,118437,1,16778208,350000,74540,74540,65700,0,31856,0,1959576711,63
o,1723653004.293735,172.16.5.2,45749,172.16.1.2,5102,16618,32013,2086,97152,65728,6,6,4,1460,115000,1,16778208,370000,74540,71644,65700,0,28960,0,1959576711,63
i,1723653004.322892,172.16.5.2,45749,172.16.1.2,5102,16618,32013,2086,97152,65728,6,6,4,1460,115000,1,16778208,370000,74540,74540,65700,0,31856,0,1959576711,63
o,1723653004.322982,172.16.5.2,45749,172.16.1.2,5102,16618,32013,2086,97152,65728,6,6,4,1460,116875,1,16778208,370000,74540,71644,65700,0,28960,0,1959576711,63
i,1723653004.342858,172.16.5.2,45749,172.16.1.2,5102,16618,32013,2086,97152,65728,6,6,4,1460,116875,1,16778208,370000,74540,74540,65700,0,31856,0,1959576711,63
o,1723653004.342971,172.16.5.2,45749,172.16.1.2,5102,16618,32013,2086,97152,65728,6,6,4,1460,118750,1,16778208,370000,74540,71644,65700,0,28960,0,1959576711,63
i,1723653004.352367,172.16.5.2,45749,172.16.1.2,5102,16618,32013,2086,97152,65728,6,6,4,1460,118750,1,16778208,370000,74540,74540,65700,0,31856,0,1959576711,63
o,1723653004.352485,172.16.5.2,45749,172.16.1.2,5102,16618,32013,2086,97152,65728,6,6,4,1460,119062,1,16778208,360000,74540,71644,65700,0,28960,0,1959576711,63
i,1723653004.352673,172.16.5.2,45749,172.16.1.2,5102,16618,32013,2086,97152,65728,6,6,4,1460,119062,1,16778208,360000,74540,71644,65700,0,31856,0,1959576711,63
o,1723653004.352700,172.16.5.2,45749,172.16.1.2,5102,16618,32013,2086,97152,65728,6,6,4,1460,116875,1,16778208,370000,74540,68748,65700,0,28960,0,1959576711,63
i,1723653004.362017,172.16.5.2,45749,172.16.1.2,5102,16618,32013,2086,97152,65728,6,6,4,1460,116875,1,16778208,370000,74540,74540,65700,0,31856,0,1959576711,63
o,1723653004.362087,172.16.5.2,45749,172.16.1.2,5102,16618,32013,2086,95680,65728,6,6,4,1460,117500,1,16778208,360000,74540,71644,65700,0,28960,0,1959576711,63
i,1723653004.362277,172.16.5.2,45749,172.16.1.2,5102,16618,32013,2086,95680,65728,6,6,4,1460,117500,1,16778208,360000,74540,71644,65700,0,31856,0,1959576711,63
o,1723653004.362303,172.16.5.2,45749,172.16.1.2,5102,16618,32013,2086,92800,65728,6,6,4,1460,115312,1,16778208,370000,74540,68748,65700,0,28960,0,1959576711,63
o,1723653004.362470,172.16.5.2,45749,172.16.1.2,5102,16618,32013,2086,92800,65728,6,6,4,1460,115312,1,16778208,370000,74540,68748,65700,0,30408,0,1959576711,63
i,1723653004.362589,172.16.5.2,45749,172.16.1.2,5102,16618,32013,2086,92800,65728,6,6,4,1460,115312,1,16778208,370000,74540,68748,65700,0,31856,0,1959576711,63
o,1723653004.362606,172.16.5.2,45749,172.16.1.2,5102,16618,33473,2086,95680,65728,6,6,4,1460,113437,1,16778208,370000,74540,65852,65700,0,28960,0,1959576711,63
i,1723653004.391640,172.16.5.2,45749,172.16.1.2,5102,16618,33473,2086,95680,65728,6,6,4,1460,113437,1,16778208,370000,82732,82732,65700,0,33304,0,1959576711,63
o,1723653004.391734,172.16.5.2,45749,172.16.1.2,5102,16618,33473,2086,97152,65728,6,6,4,1460,114375,1,16778208,360000,82732,79836,65700,0,30408,0,1959576711,63
i,1723653004.404291,172.16.5.2,45749,172.16.1.2,5102,16618,33473,2086,97152,65728,6,6,4,1460,114375,1,16778208,360000,82732,82732,65700,0,33304,0,1959576711,63
o,1723653004.404369,172.16.5.2,45749,172.16.1.2,5102,16618,33473,2086,97152,65728,6,6,4,1460,115312,1,16778208,360000,82732,79836,65700,0,30408,0,1959576711,63
i,1723653004.404684,172.16.5.2,45749,172.16.1.2,5102,16618,33473,2086,97152,65728,6,6,4,1460,115312,1,16778208,360000,82732,79836,65700,0,33304,0,1959576711,63
o,1723653004.404702,172.16.5.2,45749,172.16.1.2,5102,16618,33473,2086,95680,65728,6,6,4,1460,114687,1,16778208,350000,82732,76940,65700,0,30408,0,1959576711,63
i,1723653004.412746,172.16.5.2,45749,172.16.1.2,5102,16618,33473,2086,95680,65728,6,6,4,1460,114687,1,16778208,350000,82732,82732,65700,0,33304,0,1959576711,63
o,1723653004.412771,172.16.5.2,45749,172.16.1.2,5102,16618,33473,2086,97152,65728,6,6,4,1460,115625,1,16778208,350000,82732,79836,65700,0,30408,0,1959576711,63
i,1723653004.441087,172.16.5.2,45749,172.16.1.2,5102,16618,33473,2086,97152,65728,6,6,4,1460,115625,1,16778208,350000,82732,82732,65700,0,33304,0,1959576711,63
o,1723653004.441172,172.16.5.2,45749,172.16.1.2,5102,16618,33473,2086,97152,65728,6,6,4,1460,115000,1,16778208,350000,82732,79836,65700,0,30408,0,1959576711,63
i,1723653004.462178,172.16.5.2,45749,172.16.1.2,5102,16618,33473,2086,97152,65728,6,6,4,1460,115000,1,16778208,350000,82732,82732,65700,0,33304,0,1959576711,63
o,1723653004.462208,172.16.5.2,45749,172.16.1.2,5102,16618,33473,2086,95680,65728,6,6,4,1460,115625,1,16778208,340000,82732,79836,65700,0,30408,0,1959576711,63
i,1723653004.463534,172.16.5.2,45749,172.16.1.2,5102,16618,33473,2086,95680,65728,6,6,4,1460,115625,1,16778208,340000,82732,82732,65700,0,33304,0,1959576711,63
o,1723653004.463554,172.16.5.2,45749,172.16.1.2,5102,16618,33473,2086,97152,65728,6,6,4,1460,115000,1,16778208,340000,82732,79836,65700,0,30408,0,1959576711,63
i,1723653004.463729,172.16.5.2,45749,172.16.1.2,5102,16618,33473,2086,97152,65728,6,6,4,1460,115000,1,16778208,340000,82732,79836,65700,0,33304,0,1959576711,63
o,1723653004.463746,172.16.5.2,45749,172.16.1.2,5102,16618,33473,2086,97152,65728,6,6,4,1460,114375,1,16778208,340000,82732,76940,65700,0,30408,0,1959576711,63
i,1723653004.472617,172.16.5.2,45749,172.16.1.2,5102,16618,33473,2086,97152,65728,6,6,4,1460,114375,1,16778208,340000,82732,82732,65700,0,33304,0,1959576711,63
o,1723653004.472648,172.16.5.2,45749,172.16.1.2,5102,16618,33473,2086,95680,65728,6,6,4,1460,112812,1,16778208,340000,82732,79836,65700,0,30408,0,1959576711,63
i,1723653004.482346,172.16.5.2,45749,172.16.1.2,5102,16618,33473,2086,95680,65728,6,6,4,1460,112812,1,16778208,340000,82732,82732,65700,0,33304,0,1959576711,63
o,1723653004.482373,172.16.5.2,45749,172.16.1.2,5102,16618,33473,2086,97152,65728,6,6,4,1460,112500,1,16778208,340000,82732,79836,65700,0,30408,0,1959576711,63
o,1723653004.482488,172.16.5.2,45749,172.16.1.2,5102,16618,33473,2086,97152,65728,6,6,4,1460,112500,1,16778208,340000,82732,79836,65700,0,31856,0,1959576711,63
i,1723653004.482619,172.16.5.2,45749,172.16.1.2,5102,16618,33473,2086,97152,65728,6,6,4,1460,112500,1,16778208,340000,82732,79836,65700,0,33304,0,1959576711,63
o,1723653004.482651,172.16.5.2,45749,172.16.1.2,5102,16618,33473,2086,94272,65728,6,6,4,1460,112187,1,16778208,330000,82732,76940,65700,0,30408,0,1959576711,63
i,1723653004.502385,172.16.5.2,45749,172.16.1.2,5102,16618,33473,2086,94272,65728,6,6,4,1460,112187,1,16778208,330000,82732,82732,65700,0,33304,0,1959576711,63
o,1723653004.502464,172.16.5.2,45749,172.16.1.2,5102,16618,34933,2086,97152,65728,6,6,4,1460,114687,1,16778208,350000,82732,79836,65700,0,30408,0,1959576711,63
i,1723653004.512347,172.16.5.2,45749,172.16.1.2,5102,16618,34933,2086,97152,65728,6,6,4,1460,114687,1,16778208,350000,82732,82732,65700,0,34752,0,1959576711,63
o,1723653004.512370,172.16.5.2,45749,172.16.1.2,5102,16618,34933,2086,97152,65728,6,6,4,1460,115625,1,16778208,350000,82732,79836,65700,0,31856,0,1959576711,63
i,1723653004.522981,172.16.5.2,45749,172.16.1.2,5102,16618,34933,2086,97152,65728,6,6,4,1460,115625,1,16778208,350000,82732,82732,65700,0,34752,0,1959576711,63
o,1723653004.523476,172.16.5.2,45749,172.16.1.2,5102,16618,34933,2086,97152,65728,6,6,4,1460,115000,1,16778208,350000,82732,79836,65700,0,31856,0,1959576711,63
i,1723653004.523849,172.16.5.2,45749,172.16.1.2,5102,16618,34933,2086,97152,65728,6,6,4,1460,115000,1,16778208,350000,82732,79836,65700,0,34752,0,1959576711,63
o,1723653004.523879,172.16.5.2,45749,172.16.1.2,5102,16618,34933,2086,97152,65728,6,6,4,1460,114375,1,16778208,340000,82732,76940,65700,0,31856,0,1959576711,63
i,1723653004.542530,172.16.5.2,45749,172.16.1.2,5102,16618,34933,2086,97152,65728,6,6,4,1460,114375,1,16778208,340000,82732,82732,65700,0,34752,0,1959576711,63
o,1723653004.542709,172.16.5.2,45749,172.16.1.2,5102,16618,34933,2086,97152,65728,6,6,4,1460,116562,1,16778208,350000,82732,79836,65700,0,31856,0,1959576711,63
i,1723653004.562349,172.16.5.2,45749,172.16.1.2,5102,16618,34933,2086,97152,65728,6,6,4,1460,116562,1,16778208,350000,82732,82732,65700,0,34752,0,1959576711,63
o,1723653004.562386,172.16.5.2,45749,172.16.1.2,5102,16618,34933,2086,97152,65728,6,6,4,1460,117187,1,16778208,350000,82732,79836,65700,0,31856,0,1959576711,63
i,1723653004.562605,172.16.5.2,45749,172.16.1.2,5102,16618,34933,2086,97152,65728,6,6,4,1460,117187,1,16778208,350000,82732,79836,65700,0,34752,0,1959576711,63
o,1723653004.562622,172.16.5.2,45749,172.16.1.2,5102,16618,34933,2086,97152,65728,6,6,4,1460,114062,1,16778208,360000,82732,76940,65700,0,31856,0,1959576711,63
i,1723653004.562748,172.16.5.2,45749,172.16.1.2,5102,16618,34933,2086,97152,65728,6,6,4,1460,114062,1,16778208,360000,82732,76940,65700,0,34752,0,1959576711,63
o,1723653004.562765,172.16.5.2,45749,172.16.1.2,5102,16618,34933,2086,97152,65728,6,6,4,1460,111250,1,16778208,370000,82732,74044,65700,0,31856,0,1959576711,63
i,1723653004.575004,172.16.5.2,45749,172.16.1.2,5102,16618,34933,2086,97152,65728,6,6,4,1460,111250,1,16778208,370000,82732,82732,65700,0,34752,0,1959576711,63
o,1723653004.575158,172.16.5.2,45749,172.16.1.2,5102,16618,34933,2086,97152,65728,6,6,4,1460,111250,1,16778208,360000,82732,79836,65700,0,31856,0,1959576711,63
i,1723653004.582103,172.16.5.2,45749,172.16.1.2,5102,16618,34933,2086,97152,65728,6,6,4,1460,111250,1,16778208,360000,82732,82732,65700,0,34752,0,1959576711,63
o,1723653004.582145,172.16.5.2,45749,172.16.1.2,5102,16618,34933,2086,97152,65728,6,6,4,1460,111250,1,16778208,340000,82732,79836,65700,0,31856,0,1959576711,63
o,1723653004.582306,172.16.5.2,45749,172.16.1.2,5102,16618,34933,2086,97152,65728,6,6,4,1460,111250,1,16778208,340000,82732,79836,65700,0,33304,0,1959576711,63
i,1723653004.592209,172.16.5.2,45749,172.16.1.2,5102,16618,34933,2086,97152,65728,6,6,4,1460,111250,1,16778208,340000,82732,82732,65700,0,34752,0,1959576711,63
o,1723653004.592316,172.16.5.2,45749,172.16.1.2,5102,16618,34933,2086,95680,65728,6,6,4,1460,111250,1,16778208,340000,82732,79836,65700,0,31856,0,1959576711,63
i,1723653004.603800,172.16.5.2,45749,172.16.1.2,5102,16618,34933,2086,95680,65728,6,6,4,1460,111250,1,16778208,340000,82732,82732,65700,0,34752,0,1959576711,63
o,1723653004.603843,172.16.5.2,45749,172.16.1.2,5102,16618,34933,2086,97152,65728,6,6,4,1460,112500,1,16778208,340000,82732,79836,65700,0,31856,0,1959576711,63
i,1723653004.613244,172.16.5.2,45749,172.16.1.2,5102,16618,34933,2086,97152,65728,6,6,4,1460,112500,1,16778208,340000,82732,82732,65700,0,34752,0,1959576711,63
o,1723653004.613372,172.16.5.2,45749,172.16.1.2,5102,16618,36393,2086,97152,65728,6,6,4,1460,112187,1,16778208,330000,82732,79836,65700,0,31856,0,1959576711,63
i,1723653004.621490,172.16.5.2,45749,172.16.1.2,5102,16618,36393,2086,97152,65728,6,6,4,1460,112187,1,16778208,330000,82732,82732,65700,0,36200,0,1959576711,63
o,1723653004.621598,172.16.5.2,45749,172.16.1.2,5102,16618,36393,2086,95680,65728,6,6,4,1460,110937,1,16778208,340000,82732,79836,65700,0,33304,0,1959576711,63
i,1723653004.623270,172.16.5.2,45749,172.16.1.2,5102,16618,36393,2086,95680,65728,6,6,4,1460,110937,1,16778208,340000,82732,82732,65700,0,36200,0,1959576711,63
o,1723653004.623372,172.16.5.2,45749,172.16.1.2,5102,16618,36393,2086,97152,65728,6,6,4,1460,109687,1,16778208,340000,82732,79836,65700,0,33304,0,1959576711,63
i,1723653004.632192,172.16.5.2,45749,172.16.1.2,5102,16618,36393,2086,97152,65728,6,6,4,1460,109687,1,16778208,340000,82732,82732,65700,0,36200,0,1959576711,63
o,1723653004.632219,172.16.5.2,45749,172.16.1.2,5102,16618,36393,2086,97152,65728,6,6,4,1460,110000,1,16778208,340000,82732,79836,65700,0,33304,0,1959576711,63
i,1723653004.641975,172.16.5.2,45749,172.16.1.2,5102,16618,36393,2086,97152,65728,6,6,4,1460,110000,1,16778208,340000,82732,82732,65700,0,36200,0,1959576711,63
o,1723653004.642063,172.16.5.2,45749,172.16.1.2,5102,16618,36393,2086,95680,65728,6,6,4,1460,108750,1,16778208,340000,82732,79836,65700,0,33304,0,1959576711,63
i,1723653004.662687,172.16.5.2,45749,172.16.1.2,5102,16618,36393,2086,95680,65728,6,6,4,1460,108750,1,16778208,340000,82732,82732,65700,0,36200,0,1959576711,63
o,1723653004.662719,172.16.5.2,45749,172.16.1.2,5102,16618,36393,2086,97152,65728,6,6,4,1460,107812,1,16778208,340000,82732,79836,65700,0,33304,0,1959576711,63
i,1723653004.671862,172.16.5.2,45749,172.16.1.2,5102,16618,36393,2086,97152,65728,6,6,4,1460,107812,1,16778208,340000,82732,82732,65700,0,36200,0,1959576711,63
o,1723653004.671888,172.16.5.2,45749,172.16.1.2,5102,16618,36393,2086,94272,65728,6,6,4,1460,108125,1,16778208,330000,82732,79836,65700,0,33304,0,1959576711,63
i,1723653004.681864,172.16.5.2,45749,172.16.1.2,5102,16618,36393,2086,94272,65728,6,6,4,1460,108125,1,16778208,330000,82732,82732,65700,0,36200,0,1959576711,63
o,1723653004.681939,172.16.5.2,45749,172.16.1.2,5102,16618,36393,2086,97152,65728,6,6,4,1460,109687,1,16778208,340000,82732,79836,65700,0,33304,0,1959576711,63
i,1723653004.682083,172.16.5.2,45749,172.16.1.2,5102,16618,36393,2086,97152,65728,6,6,4,1460,109687,1,16778208,340000,82732,79836,65700,0,36200,0,1959576711,63
o,1723653004.682100,172.16.5.2,45749,172.16.1.2,5102,16618,36393,2086,97152,65728,6,6,4,1460,110000,1,16778208,340000,82732,76940,65700,0,33304,0,1959576711,63
i,1723653004.692057,172.16.5.2,45749,172.16.1.2,5102,16618,36393,2086,97152,65728,6,6,4,1460,110000,1,16778208,340000,82732,82732,65700,0,36200,0,1959576711,63
o,1723653004.692083,172.16.5.2,45749,172.16.1.2,5102,16618,36393,2086,97152,65728,6,6,4,1460,110000,1,16778208,330000,82732,79836,65700,0,33304,0,1959576711,63
o,1723653004.692429,172.16.5.2,45749,172.16.1.2,5102,16618,36393,2086,97152,65728,6,6,4,1460,110000,1,16778208,330000,82732,79836,65700,0,34752,0,1959576711,63
i,1723653004.701122,172.16.5.2,45749,172.16.1.2,5102,16618,36393,2086,97152,65728,6,6,4,1460,110000,1,16778208,330000,82732,82732,65700,0,36200,0,1959576711,63
o,1723653004.701147,172.16.5.2,45749,172.16.1.2,5102,16618,36393,2086,97152,65728,6,6,4,1460,110000,1,16778208,320000,82732,79836,65700,0,33304,0,1959576711,63
