enable_time_secs=1723652823	enable_time_usecs=824397	siftrver=1.3.0	sysname=FreeBSD	sysver=1401000	ipmode=4
o,1723652823.824774,10.0.2.15,22,10.0.2.2,50582,1073725440,17746,1026,65535,65700,0,0,4,1460,312,0,16777220,240000,33580,172,65700,0,0,0,2597949482,63
o,1723652823.825638,10.0.2.15,22,10.0.2.2,50582,1073725440,17746,1026,65535,65700,0,0,4,1460,312,0,16777220,240000,33580,244,65700,0,172,0,2597949482,63
i,1723652823.825745,10.0.2.15,22,10.0.2.2,50582,1073725440,17746,1026,65535,65700,0,0,4,1460,312,0,16777220,240000,33580,244,65700,0,244,0,2597949482,63
i,1723652823.826121,10.0.2.15,22,10.0.2.2,50582,1073725440,17918,1026,65535,65700,0,0,4,1460,312,0,4,240000,33580,72,65700,0,72,0,2597949482,63
i,1723652823.826138,10.0.2.15,22,10.0.2.2,50582,1073725440,17990,1026,65535,65700,0,0,4,1460,312,0,4,240000,33580,0,65700,0,0,0,2597949482,63
i,1723652823.826154,10.0.2.15,22,10.0.2.2,50582,1073725440,17990,1026,65535,65700,0,0,4,1460,312,0,4,240000,33580,0,65700,96,0,0,2597949482,63
o,1723652823.826171,10.0.2.15,22,10.0.2.2,50582,1073725440,17990,1026,65535,65604,0,0,5,1460,312,0,5,240000,33580,0,65700,96,0,0,2597949482,63
o,1723652823.826657,10.0.2.15,22,10.0.2.2,50582,1073725440,17990,1026,65535,65604,0,0,8,1460,312,0,4,240000,33580,0,65700,0,0,0,2597949482,63
i,1723652823.827161,10.0.2.15,22,10.0.2.2,50582,1073725440,17990,1026,65535,65604,0,0,8,1460,312,0,67108884,240000,33580,0,65700,0,1,0,2597949482,63
i,1723652827.048970,10.0.2.15,22,10.0.2.2,50544,1073725440,14600,0,65535,65700,0,0,4,1460,312,0,16777216,270000,33580,0,65700,0,0,0,3499059358,63
o,1723652827.063288,10.0.2.15,22,10.0.2.2,50544,1073725440,14600,1026,65535,65700,0,0,4,1460,312,0,16777216,270000,33580,38,65700,42,0,0,3499059358,63
i,1723652827.063923,10.0.2.15,22,10.0.2.2,50544,1073725440,14600,1026,65535,65700,0,0,4,1460,312,0,16777216,270000,33580,38,65700,0,38,0,3499059358,63
i,1723652827.064539,10.0.2.15,22,10.0.2.2,50544,1073725440,14638,1026,65535,65700,0,0,4,1460,312,0,0,240000,33580,0,65700,0,0,0,3499059358,63
i,1723652827.064572,10.0.2.15,22,10.0.2.2,50544,1073725440,14638,1026,65535,65700,0,0,4,1460,312,0,0,240000,33580,0,65700,1460,0,0,3499059358,63
o,1723652827.064604,10.0.2.15,22,10.0.2.2,50544,1073725440,14638,1026,65535,65700,0,0,4,1460,312,0,1,240000,33580,0,65700,1536,0,0,3499059358,63
o,1723652827.065709,10.0.2.15,22,10.0.2.2,50544,1073725440,14638,1026,65535,65700,0,0,4,1460,312,0,16777216,240000,33580,1120,65700,1536,0,0,3499059358,63
i,1723652827.066334,10.0.2.15,22,10.0.2.2,50544,1073725440,14638,1026,65535,65700,0,0,4,1460,312,0,16777216,240000,33580,1120,65700,1536,1120,0,3499059358,63
i,1723652827.067563,10.0.2.15,22,10.0.2.2,50544,1073725440,15758,1026,65535,65700,0,0,4,1460,312,0,0,240000,33580,0,65700,0,0,0,3499059358,63
o,1723652827.071340,10.0.2.15,22,10.0.2.2,50544,1073725440,15758,1026,65535,65700,0,0,4,1460,312,0,16777216,240000,33580,492,65700,0,0,0,3499059358,63
i,1723652827.072131,10.0.2.15,22,10.0.2.2,50544,1073725440,15758,1026,65535,65700,0,0,4,1460,312,0,16777216,240000,33580,492,65700,0,492,0,3499059358,63
i,1723652827.076930,10.0.2.15,22,10.0.2.2,50544,1073725440,16250,1026,65535,65700,0,0,4,1460,312,0,0,240000,33580,0,65700,0,0,0,3499059358,63
i,1723652827.076967,10.0.2.15,22,10.0.2.2,50544,1073725440,16250,1026,65535,65700,0,0,4,1460,312,0,0,240000,33580,0,65700,16,0,0,3499059358,63
o,1723652827.076993,10.0.2.15,22,10.0.2.2,50544,1073725440,16250,1026,65535,65700,0,0,4,1460,312,0,1,240000,33580,0,65700,60,0,0,3499059358,63
o,1723652827.077268,10.0.2.15,22,10.0.2.2,50544,1073725440,16250,1026,65535,65700,0,0,4,1460,312,0,16777216,240000,33580,44,65700,0,0,0,3499059358,63
i,1723652827.078253,10.0.2.15,22,10.0.2.2,50544,1073725440,16250,1026,65535,65700,0,0,4,1460,312,0,16777216,240000,33580,44,65700,0,44,0,3499059358,63
i,1723652827.078272,10.0.2.15,22,10.0.2.2,50544,1073725440,16294,1026,65535,65700,0,0,4,1460,312,0,0,240000,33580,0,65700,0,0,0,3499059358,63
o,1723652827.079794,10.0.2.15,22,10.0.2.2,50544,1073725440,16294,1026,65535,65700,0,0,4,1460,312,0,16777216,240000,33580,68,65700,0,0,0,3499059358,63
i,1723652827.080356,10.0.2.15,22,10.0.2.2,50544,1073725440,16294,1026,65535,65700,0,0,4,1460,312,0,16777216,240000,33580,68,65700,0,68,0,3499059358,63
i,1723652827.080374,10.0.2.15,22,10.0.2.2,50544,1073725440,16362,1026,65535,65700,0,0,4,1460,312,0,0,240000,33580,0,65700,0,0,0,3499059358,63
o,1723652827.081639,10.0.2.15,22,10.0.2.2,50544,1073725440,16362,1026,65535,65700,0,0,4,1460,312,0,16777216,240000,33580,332,65700,0,0,0,3499059358,63
i,1723652827.082510,10.0.2.15,22,10.0.2.2,50544,1073725440,16362,1026,65535,65700,0,0,4,1460,312,0,16777216,240000,33580,332,65700,0,332,0,3499059358,63
i,1723652827.084389,10.0.2.15,22,10.0.2.2,50544,1073725440,16694,1026,65535,65700,0,0,4,1460,312,0,0,240000,33580,0,65700,0,0,0,3499059358,63
o,1723652827.102157,10.0.2.15,22,10.0.2.2,50544,1073725440,16694,1026,65535,65700,0,0,4,1460,312,0,16777216,240000,33580,28,65700,0,0,0,3499059358,63
i,1723652827.102922,10.0.2.15,22,10.0.2.2,50544,1073725440,16694,1026,65535,65700,0,0,4,1460,312,0,16777216,240000,33580,28,65700,0,28,0,3499059358,63
o,1723652827.104384,10.0.2.15,22,10.0.2.2,50544,1073725440,16722,1026,65535,65700,0,0,4,1460,312,0,16777216,240000,33580,768,65700,0,0,0,3499059358,63
i,1723652827.105887,10.0.2.15,22,10.0.2.2,50544,1073725440,16722,1026,65535,65700,0,0,4,1460,312,0,16777216,240000,33580,908,65700,0,768,0,3499059358,63
i,1723652827.105907,10.0.2.15,22,10.0.2.2,50544,1073725440,16722,1026,65535,65700,0,0,4,1460,312,0,16777216,240000,33580,908,65700,112,768,0,3499059358,63
o,1723652827.105925,10.0.2.15,22,10.0.2.2,50544,1073725440,17490,1026,65535,65700,0,0,4,1460,312,0,16777216,240000,33580,140,65700,112,0,0,3499059358,63
i,1723652827.106242,10.0.2.15,22,10.0.2.2,50544,1073725440,17490,1026,65535,65700,0,0,4,1460,312,0,16777216,240000,33580,140,65700,112,140,0,3499059358,63
o,1723652827.106458,10.0.2.15,22,10.0.2.2,50544,1073725440,17630,1026,65535,65700,0,0,4,1460,312,0,16777216,240000,33580,44,65700,0,0,0,3499059358,63
i,1723652827.106909,10.0.2.15,22,10.0.2.2,50544,1073725440,17630,1026,65535,65700,0,0,4,1460,312,0,16777216,240000,33580,44,65700,0,44,0,3499059358,63
i,1723652827.106926,10.0.2.15,22,10.0.2.2,50544,1073725440,17674,1026,65535,65700,0,0,4,1460,312,0,0,240000,33580,0,65700,0,0,0,3499059358,63
o,1723652827.107708,10.0.2.15,22,10.0.2.2,50544,1073725440,17674,1026,65535,65700,0,0,4,1460,312,0,16777220,240000,33580,72,65700,0,0,0,3499059358,63
i,1723652827.107921,10.0.2.15,22,10.0.2.2,50544,1073725440,17674,1026,65535,65700,0,0,4,1460,312,0,16777220,240000,33580,72,65700,0,72,0,3499059358,63
o,1723652827.110304,10.0.2.15,22,10.0.2.2,50544,1073725440,17746,1026,65535,65700,0,0,4,1460,312,0,16777220,240000,33580,104,65700,0,0,0,3499059358,63
i,1723652827.110736,10.0.2.15,22,10.0.2.2,50544,1073725440,17746,1026,65535,65700,0,0,4,1460,312,0,16777220,240000,33580,104,65700,0,104,0,3499059358,63
o,1723652827.122557,10.0.2.15,22,10.0.2.2,50544,1073725440,17850,1026,65535,65700,0,0,4,1460,312,0,16777220,240000,33580,72,65700,0,0,0,3499059358,63
i,1723652827.123538,10.0.2.15,22,10.0.2.2,50544,1073725440,17850,1026,65535,65700,0,0,4,1460,312,0,16777220,240000,33580,72,65700,0,72,0,3499059358,63
i,1723652827.123593,10.0.2.15,22,10.0.2.2,50544,1073725440,17922,1026,65535,65700,0,0,4,1460,312,0,4,240000,33580,0,65700,0,0,0,3499059358,63
i,1723652827.123640,10.0.2.15,22,10.0.2.2,50544,1073725440,17922,1026,65535,65700,0,0,4,1460,312,0,4,240000,33580,0,65700,96,0,0,3499059358,63
o,1723652827.123686,10.0.2.15,22,10.0.2.2,50544,1073725440,17922,1026,65535,65604,0,0,5,1460,312,0,5,240000,33580,0,65700,96,0,0,3499059358,63
o,1723652827.131734,10.0.2.15,22,10.0.2.2,50544,1073725440,17922,1026,65535,65604,0,0,8,1460,312,0,4,240000,33580,0,65700,0,0,0,3499059358,63
i,1723652827.132316,10.0.2.15,22,10.0.2.2,50544,1073725440,17922,1026,65535,65604,0,0,8,1460,312,0,67108884,240000,33580,0,65700,0,1,0,3499059358,63
i,1723652828.189345,10.0.2.15,22,10.0.2.2,50554,1073725440,14600,0,65535,65700,0,0,4,1460,312,0,16777216,270000,33580,0,65700,0,0,0,1415426953,63
o,1723652828.199888,10.0.2.15,22,10.0.2.2,50554,1073725440,14600,1026,65535,65700,0,0,4,1460,312,0,16777216,270000,33580,38,65700,42,0,0,1415426953,63
i,1723652828.200287,10.0.2.15,22,10.0.2.2,50554,1073725440,14600,1026,65535,65700,0,0,4,1460,312,0,16777216,270000,33580,38,65700,0,38,0,1415426953,63
i,1723652828.200793,10.0.2.15,22,10.0.2.2,50554,1073725440,14638,1026,65535,65700,0,0,4,1460,312,0,0,240000,33580,0,65700,0,0,0,1415426953,63
i,1723652828.200810,10.0.2.15,22,10.0.2.2,50554,1073725440,14638,1026,65535,65700,0,0,4,1460,312,0,0,240000,33580,0,65700,1460,0,0,1415426953,63
o,1723652828.200828,10.0.2.15,22,10.0.2.2,50554,1073725440,14638,1026,65535,65700,0,0,4,1460,312,0,1,240000,33580,0,65700,1536,0,0,1415426953,63
o,1723652828.201623,10.0.2.15,22,10.0.2.2,50554,1073725440,14638,1026,65535,65700,0,0,4,1460,312,0,16777216,240000,33580,1120,65700,1536,0,0,1415426953,63
i,1723652828.202402,10.0.2.15,22,10.0.2.2,50554,1073725440,14638,1026,65535,65700,0,0,4,1460,312,0,16777216,240000,33580,1120,65700,0,1120,0,1415426953,63
i,1723652828.203401,10.0.2.15,22,10.0.2.2,50554,1073725440,15758,1026,65535,65700,0,0,4,1460,312,0,0,240000,33580,0,65700,0,0,0,1415426953,63
o,1723652828.206465,10.0.2.15,22,10.0.2.2,50554,1073725440,15758,1026,65535,65700,0,0,4,1460,312,0,16777216,240000,33580,492,65700,0,0,0,1415426953,63
i,1723652828.207306,10.0.2.15,22,10.0.2.2,50554,1073725440,15758,1026,65535,65700,0,0,4,1460,312,0,16777216,240000,33580,492,65700,0,492,0,1415426953,63
i,1723652828.211334,10.0.2.15,22,10.0.2.2,50554,1073725440,16250,1026,65535,65700,0,0,4,1460,312,0,0,240000,33580,0,65700,0,0,0,1415426953,63
i,1723652828.211351,10.0.2.15,22,10.0.2.2,50554,1073725440,16250,1026,65535,65700,0,0,4,1460,312,0,0,240000,33580,0,65700,16,0,0,1415426953,63
o,1723652828.211367,10.0.2.15,22,10.0.2.2,50554,1073725440,16250,1026,65535,65700,0,0,4,1460,312,0,1,240000,33580,0,65700,60,0,0,1415426953,63
o,1723652828.211607,10.0.2.15,22,10.0.2.2,50554,1073725440,16250,1026,65535,65700,0,0,4,1460,312,0,16777216,240000,33580,44,65700,0,0,0,1415426953,63
i,1723652828.212077,10.0.2.15,22,10.0.2.2,50554,1073725440,16250,1026,65535,65700,0,0,4,1460,312,0,16777216,240000,33580,44,65700,0,44,0,1415426953,63
i,1723652828.212122,10.0.2.15,22,10.0.2.2,50554,1073725440,16294,1026,65535,65700,0,0,4,1460,312,0,0,240000,33580,0,65700,0,0,0,1415426953,63
o,1723652828.213519,10.0.2.15,22,10.0.2.2,50554,1073725440,16294,1026,65535,65700,0,0,4,1460,312,0,16777216,240000,33580,68,65700,0,0,0,1415426953,63
i,1723652828.214040,10.0.2.15,22,10.0.2.2,50554,1073725440,16294,1026,65535,65700,0,0,4,1460,312,0,16777216,240000,33580,68,65700,0,68,0,1415426953,63
i,1723652828.214094,10.0.2.15,22,10.0.2.2,50554,1073725440,16362,1026,65535,65700,0,0,4,1460,312,0,0,240000,33580,0,65700,0,0,0,1415426953,63
o,1723652828.215333,10.0.2.15,22,10.0.2.2,50554,1073725440,16362,1026,65535,65700,0,0,4,1460,312,0,16777216,240000,33580,332,65700,0,0,0,1415426953,63
i,1723652828.216125,10.0.2.15,22,10.0.2.2,50554,1073725440,16362,1026,65535,65700,0,0,4,1460,312,0,16777216,240000,33580,332,65700,0,332,0,1415426953,63
i,1723652828.217520,10.0.2.15,22,10.0.2.2,50554,1073725440,16694,1026,65535,65700,0,0,4,1460,312,0,0,240000,33580,0,65700,0,0,0,1415426953,63
o,1723652828.236452,10.0.2.15,22,10.0.2.2,50554,1073725440,16694,1026,65535,65700,0,0,4,1460,312,0,16777216,240000,33580,28,65700,0,0,0,1415426953,63
i,1723652828.237280,10.0.2.15,22,10.0.2.2,50554,1073725440,16694,1026,65535,65700,0,0,4,1460,312,0,16777216,240000,33580,28,65700,0,28,0,1415426953,63
i,1723652828.237297,10.0.2.15,22,10.0.2.2,50554,1073725440,16722,1026,65535,65700,0,0,4,1460,312,0,0,240000,33580,0,65700,0,0,0,1415426953,63
o,1723652828.238379,10.0.2.15,22,10.0.2.2,50554,1073725440,16722,1026,65535,65700,0,0,4,1460,312,0,16777216,240000,33580,768,65700,112,0,0,1415426953,63
i,1723652828.238726,10.0.2.15,22,10.0.2.2,50554,1073725440,16722,1026,65535,65700,0,0,4,1460,312,0,16777216,240000,33580,908,65700,112,768,0,1415426953,63
o,1723652828.238751,10.0.2.15,22,10.0.2.2,50554,1073725440,17490,1026,65535,65700,0,0,4,1460,312,0,16777216,240000,33580,140,65700,112,0,0,1415426953,63
i,1723652828.239245,10.0.2.15,22,10.0.2.2,50554,1073725440,17490,1026,65535,65700,0,0,4,1460,312,0,16777216,240000,33580,140,65700,112,140,0,1415426953,63
o,1723652828.239924,10.0.2.15,22,10.0.2.2,50554,1073725440,17630,1026,65535,65700,0,0,4,1460,312,0,16777216,240000,33580,44,65700,0,0,0,1415426953,63
i,1723652828.240776,10.0.2.15,22,10.0.2.2,50554,1073725440,17630,1026,65535,65700,0,0,4,1460,312,0,16777216,240000,33580,44,65700,0,44,0,1415426953,63
i,1723652828.240793,10.0.2.15,22,10.0.2.2,50554,1073725440,17674,1026,65535,65700,0,0,4,1460,312,0,0,240000,33580,0,65700,0,0,0,1415426953,63
o,1723652828.241367,10.0.2.15,22,10.0.2.2,50554,1073725440,17674,1026,65535,65700,0,0,4,1460,312,0,16777220,240000,33580,72,65700,0,0,0,1415426953,63
i,1723652828.241882,10.0.2.15,22,10.0.2.2,50554,1073725440,17674,1026,65535,65700,0,0,4,1460,312,0,16777220,240000,33580,72,65700,0,72,0,1415426953,63
o,1723652828.362950,172.16.5.2,53951,172.16.1.2,5102,21236,14480,2082,65535,65700,6,6,4,1460,233750,1,16778209,790000,33580,0,65700,0,0,0,1216519898,63
o,1723652828.363131,172.16.5.2,53951,172.16.1.2,5102,21236,14480,2082,65535,65700,6,6,4,1460,233750,1,16778212,790000,33580,37,65700,0,0,0,1216519898,63
i,1723652828.486284,172.16.5.2,53951,172.16.1.2,5102,21236,14480,2082,65535,65700,6,6,4,1460,233750,1,16778212,790000,33580,37,65700,0,37,0,1216519898,63
o,1723652828.486594,172.16.5.2,53951,172.16.1.2,5102,21236,14517,3106,65728,65728,6,6,4,1460,219687,1,16778212,800000,33580,4,65700,0,0,0,1216519898,63
o,1723652828.486774,172.16.5.2,53951,172.16.1.2,5102,21236,14517,3106,65728,65728,6,6,4,1460,219687,1,16778212,800000,33580,130,65700,0,4,0,1216519898,63
i,1723652828.610096,172.16.5.2,53951,172.16.1.2,5102,21236,14517,3106,65728,65728,6,6,4,1460,219687,1,16778212,800000,33580,130,65700,0,130,0,1216519898,63
i,1723652828.610275,172.16.5.2,53951,172.16.1.2,5102,21236,14647,3106,65600,65728,6,6,4,1460,208750,1,996,780000,33580,0,65700,0,0,0,1216519898,63
o,1723652828.718299,172.16.5.2,53951,172.16.1.2,5102,21236,14647,3106,65728,65728,6,6,4,1460,208750,1,997,780000,33580,0,65700,0,0,0,1216519898,63
o,1723652828.722153,172.16.5.2,28900,172.16.1.2,5102,21236,14480,2082,65535,65700,6,6,4,1460,232500,1,16778209,800000,33580,0,65700,0,0,0,2337396187,63
o,1723652828.722398,172.16.5.2,28900,172.16.1.2,5102,21236,14480,2082,65535,65700,6,6,4,1460,232500,1,16778208,800000,33580,37,65700,0,0,0,2337396187,63
i,1723652828.844159,172.16.5.2,53951,172.16.1.2,5102,21236,14647,3106,65728,65728,6,6,4,1460,208750,1,996,780000,33580,0,65700,0,0,0,1216519898,63
i,1723652828.844345,172.16.5.2,53951,172.16.1.2,5102,21236,14647,3106,65728,65728,6,6,4,1460,208750,1,996,780000,33580,0,65700,1,0,0,1216519898,63
o,1723652828.844392,172.16.5.2,53951,172.16.1.2,5102,21236,14647,3106,65728,65728,6,6,4,1460,208750,1,997,780000,33580,0,65700,2,0,0,1216519898,63
o,1723652828.845235,172.16.5.2,28900,172.16.1.2,5102,21236,14480,2086,65535,65700,6,6,4,1460,232500,1,16778208,800000,33580,33580,65700,0,37,0,2337396187,63
i,1723652828.878907,172.16.5.2,28900,172.16.1.2,5102,21236,14480,2086,65535,65700,6,6,4,1460,232500,1,16778208,800000,33580,33580,65700,0,13069,0,2337396187,63
o,1723652828.879008,172.16.5.2,28900,172.16.1.2,5102,21236,14517,2086,65728,65728,6,6,4,1460,223437,1,16778208,770000,33580,33543,65700,0,13032,0,2337396187,63
i,1723652829.203420,172.16.5.2,28900,172.16.1.2,5102,21236,14517,2086,65728,65728,6,6,4,1460,223437,1,16778208,770000,33580,33543,65700,0,14480,0,2337396187,63
o,1723652829.203470,172.16.5.2,28900,172.16.1.2,5102,7713,14480,2086,64256,65728,6,6,4,1460,239375,1,553649120,820000,33580,30647,65700,0,11584,0,2337396187,63
i,1723652829.251981,172.16.5.2,28900,172.16.1.2,5102,7713,14480,2086,64256,65728,6,6,4,1460,239375,1,553649120,820000,33580,33580,65700,0,14480,0,2337396187,63
o,1723652829.252125,172.16.5.2,28900,172.16.1.2,5102,7713,13032,2082,64256,65728,6,6,4,1460,260937,1,553649120,920000,33580,30684,65700,0,11584,0,2337396187,63
i,1723652829.303926,172.16.5.2,28900,172.16.1.2,5102,7713,13032,2082,64256,65728,6,6,4,1460,260937,1,553649120,920000,33580,33580,65700,0,13032,0,2337396187,63
o,1723652829.304058,172.16.5.2,28900,172.16.1.2,5102,7713,11584,2082,64256,65728,6,6,4,1460,285937,1,553649120,1030000,33580,30684,65700,0,10136,0,2337396187,63
i,1723652829.352696,172.16.5.2,28900,172.16.1.2,5102,7713,11584,2082,64256,65728,6,6,4,1460,285937,1,553649120,1030000,33580,33580,65700,0,11584,0,2337396187,63
o,1723652829.352877,172.16.5.2,28900,172.16.1.2,5102,7713,11596,2086,64256,65728,6,6,4,1460,314062,1,553649120,1150000,33580,30684,65700,0,8688,0,2337396187,63
i,1723652829.400544,172.16.5.2,28900,172.16.1.2,5102,7713,11596,2086,64256,65728,6,6,4,1460,314062,1,553649120,1150000,33580,33580,65700,0,11584,0,2337396187,63
i,1723652829.572190,172.16.5.2,28900,172.16.1.2,5102,7713,8688,2086,64256,65728,6,6,4,1460,345000,1,536871904,1270000,33580,33580,65700,0,8688,0,2337396187,63
i,1723652829.602112,172.16.5.2,28900,172.16.1.2,5102,4629,7240,2150,65728,65728,6,6,4,1460,348125,1,536871904,1120000,33580,32132,65700,0,7240,0,2337396187,63
o,1723652829.602220,172.16.5.2,28900,172.16.1.2,5102,4629,7252,2086,65728,65728,6,6,4,1460,354687,1,553649120,1030000,33580,30684,65700,0,5792,0,2337396187,63
i,1723652829.651693,172.16.5.2,28900,172.16.1.2,5102,4629,7252,2086,65728,65728,6,6,4,1460,354687,1,553649120,1030000,33580,33580,65700,0,7240,0,2337396187,63
o,1723652829.651718,172.16.5.2,28900,172.16.1.2,5102,4629,7240,2086,64256,65728,6,6,4,1460,360625,1,553649120,970000,33580,30684,65700,0,4344,0,2337396187,63
i,1723652829.712448,172.16.5.2,28900,172.16.1.2,5102,4629,7240,2086,64256,65728,6,6,4,1460,360625,1,553649120,970000,33580,33580,65700,0,7240,0,2337396187,63
o,1723652829.712520,172.16.5.2,28900,172.16.1.2,5102,4629,7240,2086,64256,65728,6,6,4,1460,359375,1,553649120,870000,33580,30684,65700,0,4344,0,2337396187,63
i,1723652829.781911,172.16.5.2,28900,172.16.1.2,5102,4629,7240,2086,64256,65728,6,6,4,1460,359375,1,553649120,870000,33580,33580,65700,0,7240,0,2337396187,63
o,1723652829.782020,172.16.5.2,28900,172.16.1.2,5102,4629,7240,2082,65728,65728,6,6,4,1460,335937,1,16778208,960000,33580,32132,65700,0,5792,0,2337396187,63
i,1723652829.842261,172.16.5.2,28900,172.16.1.2,5102,4629,7240,2082,65728,65728,6,6,4,1460,335937,1,16778208,960000,33580,32132,65700,0,7240,0,2337396187,63
o,1723652829.842311,172.16.5.2,28900,172.16.1.2,5102,4629,7240,2086,64256,65728,6,6,4,1460,317812,1,16778208,980000,33580,29236,65700,0,4344,0,2337396187,63
i,1723652829.962347,172.16.5.2,28900,172.16.1.2,5102,4629,7240,2086,64256,65728,6,6,4,1460,317812,1,16778208,980000,33580,33580,65700,0,7240,0,2337396187,63
o,1723652829.962471,172.16.5.2,28900,172.16.1.2,5102,4629,7240,2086,64256,65728,6,6,4,1460,309375,1,16778208,920000,33580,30684,65700,0,4344,0,2337396187,63
i,1723652830.022530,172.16.5.2,28900,172.16.1.2,5102,4629,7240,2086,64256,65728,6,6,4,1460,309375,1,16778208,920000,33580,33580,65700,0,7240,0,2337396187,63
o,1723652830.022657,172.16.5.2,28900,172.16.1.2,5102,4629,8700,2086,65728,65728,6,6,4,1460,300937,1,16778208,880000,33580,32132,65700,0,5792,0,2337396187,63
o,1723652830.022777,172.16.5.2,28900,172.16.1.2,5102,4629,8700,2086,65728,65728,6,6,4,1460,300937,1,16778208,880000,33580,32132,65700,0,7240,0,2337396187,63
i,1723652830.102667,172.16.5.2,28900,172.16.1.2,5102,4629,8700,2086,65728,65728,6,6,4,1460,300937,1,16778208,880000,33580,32132,65700,0,8688,0,2337396187,63
o,1723652830.102746,172.16.5.2,28900,172.16.1.2,5102,4629,8700,2086,65728,65728,6,6,4,1460,295937,1,16778208,820000,33580,30684,65700,0,7240,0,2337396187,63
i,1723652830.122243,172.16.5.2,28900,172.16.1.2,5102,4629,8700,2086,65728,65728,6,6,4,1460,295937,1,16778208,820000,33580,33580,65700,0,8688,0,2337396187,63
o,1723652830.122337,172.16.5.2,28900,172.16.1.2,5102,4629,8700,2086,64256,65728,6,6,4,1460,294062,1,16778208,750000,33580,30684,65700,0,5792,0,2337396187,63
i,1723652830.162309,172.16.5.2,28900,172.16.1.2,5102,4629,8700,2086,64256,65728,6,6,4,1460,294062,1,16778208,750000,33580,33580,65700,0,8688,0,2337396187,63
o,1723652830.162474,172.16.5.2,28900,172.16.1.2,5102,4629,8700,2086,64256,65728,6,6,4,1460,281250,1,16778208,780000,33580,30684,65700,0,5792,0,2337396187,63
o,1723652830.162747,172.16.5.2,28900,172.16.1.2,5102,4629,8700,2086,64256,65728,6,6,4,1460,281250,1,16778208,780000,33580,30684,65700,0,7240,0,2337396187,63
i,1723652830.232914,172.16.5.2,28900,172.16.1.2,5102,4629,8700,2086,64256,65728,6,6,4,1460,281250,1,16778208,780000,33580,33580,65700,0,8688,0,2337396187,63
o,1723652830.233002,172.16.5.2,28900,172.16.1.2,5102,4629,8700,2086,65728,65728,6,6,4,1460,271250,1,16778208,770000,33580,32132,65700,0,7240,0,2337396187,63
i,1723652830.351834,172.16.5.2,28900,172.16.1.2,5102,4629,8700,2086,65728,65728,6,6,4,1460,271250,1,16778208,770000,33580,32132,65700,0,8688,0,2337396187,63
o,1723652830.351911,172.16.5.2,28900,172.16.1.2,5102,4629,10160,2086,64256,65728,6,6,4,1460,267500,1,16778208,720000,33580,29236,65700,0,5792,0,2337396187,63
i,1723652830.408245,172.16.5.2,28900,172.16.1.2,5102,4629,10160,2086,64256,65728,6,6,4,1460,267500,1,16778208,720000,33580,33580,65700,0,10136,0,2337396187,63
o,1723652830.408270,172.16.5.2,28900,172.16.1.2,5102,4629,10160,2086,65728,65728,6,6,4,1460,269062,1,16778208,670000,33580,32132,65700,0,8688,0,2337396187,63
i,1723652830.462222,172.16.5.2,28900,172.16.1.2,5102,4629,10160,2086,65728,65728,6,6,4,1460,269062,1,16778208,670000,33580,32132,65700,0,10136,0,2337396187,63
o,1723652830.462357,172.16.5.2,28900,172.16.1.2,5102,4629,10160,2086,65728,65728,6,6,4,1460,273125,1,16778208,660000,33580,30684,65700,0,8688,0,2337396187,63
i,1723652830.482922,172.16.5.2,28900,172.16.1.2,5102,4629,10160,2086,65728,65728,6,6,4,1460,273125,1,16778208,660000,33580,33580,65700,0,10136,0,2337396187,63
o,1723652830.483010,172.16.5.2,28900,172.16.1.2,5102,4629,10160,2086,64256,65728,6,6,4,1460,279062,1,16778208,660000,33580,30684,65700,0,7240,0,2337396187,63
i,1723652830.641727,172.16.5.2,28900,172.16.1.2,5102,4629,10160,2086,64256,65728,6,6,4,1460,279062,1,16778208,660000,33580,33580,65700,0,10136,0,2337396187,63
o,1723652830.641825,172.16.5.2,28900,172.16.1.2,5102,4629,10160,2086,65728,65728,6,6,4,1460,280625,1,16778208,630000,33580,32132,65700,0,8688,0,2337396187,63
i,1723652830.700299,172.16.5.2,28900,172.16.1.2,5102,4629,10160,2086,65728,65728,6,6,4,1460,280625,1,16778208,630000,33580,32132,65700,0,10136,0,2337396187,63
o,1723652830.700419,172.16.5.2,28900,172.16.1.2,5102,6504,11596,2086,65728,65728,6,6,4,1460,289375,1,553649120,670000,33580,30684,65700,0,8688,0,2337396187,63
i,1723652830.702165,172.16.5.2,28900,172.16.1.2,5102,6504,11596,2086,65728,65728,6,6,4,1460,289375,1,553649120,670000,33580,33580,65700,0,11584,0,2337396187,63
i,1723652830.741745,172.16.5.2,28900,172.16.1.2,5102,6504,8688,2086,64256,65728,6,6,4,1460,297187,1,553649120,700000,33580,33580,65700,0,8688,0,2337396187,63
o,1723652830.741813,172.16.5.2,28900,172.16.1.2,5102,6504,7240,2082,64256,65728,6,6,4,1460,295312,1,553649120,660000,33580,30684,65700,0,5792,0,2337396187,63
i,1723652830.803742,172.16.5.2,28900,172.16.1.2,5102,6504,7240,2082,64256,65728,6,6,4,1460,295312,1,553649120,660000,33580,33580,65700,0,7240,0,2337396187,63
o,1723652830.803768,172.16.5.2,28900,172.16.1.2,5102,6504,7240,2082,65728,65728,6,6,4,1460,298437,1,553649120,650000,33580,32132,65700,0,5792,0,2337396187,63
i,1723652830.891089,172.16.5.2,28900,172.16.1.2,5102,6504,7240,2082,65728,65728,6,6,4,1460,298437,1,553649120,650000,33580,32132,65700,0,7240,0,2337396187,63
o,1723652830.891356,172.16.5.2,28900,172.16.1.2,5102,6504,7240,2086,64256,65728,6,6,4,1460,291250,1,16778208,660000,33580,29236,65700,0,4344,0,2337396187,63
i,1723652830.892030,172.16.5.2,28900,172.16.1.2,5102,6504,7240,2086,64256,65728,6,6,4,1460,291250,1,16778208,660000,33580,29236,65700,0,7240,0,2337396187,63
o,1723652830.892188,172.16.5.2,28900,172.16.1.2,5102,6504,7240,2082,65728,65728,6,6,4,1460,278750,1,16778208,700000,33580,27788,65700,0,5792,0,2337396187,63
i,1723652830.931800,172.16.5.2,28900,172.16.1.2,5102,6504,7240,2082,65728,65728,6,6,4,1460,278750,1,16778208,700000,33580,33580,65700,0,7240,0,2337396187,63
o,1723652830.932149,172.16.5.2,28900,172.16.1.2,5102,6504,7240,2082,65728,65728,6,6,4,1460,267812,1,16778208,720000,33580,32132,65700,0,5792,0,2337396187,63
i,1723652830.999742,172.16.5.2,28900,172.16.1.2,5102,6504,7240,2082,65728,65728,6,6,4,1460,267812,1,16778208,720000,33580,32132,65700,0,7240,0,2337396187,63
o,1723652830.999845,172.16.5.2,28900,172.16.1.2,5102,6504,7240,2082,65728,65728,6,6,4,1460,259375,1,16778208,720000,33580,30684,65700,0,5792,0,2337396187,63
i,1723652831.103662,172.16.5.2,28900,172.16.1.2,5102,6504,7240,2082,65728,65728,6,6,4,1460,259375,1,16778208,720000,33580,33580,65700,0,7240,0,2337396187,63
o,1723652831.103662,172.16.5.2,28900,172.16.1.2,5102,6504,8700,2086,64256,65728,6,6,4,1460,253437,1,16778208,690000,33580,30684,65700,0,4344,0,2337396187,63
i,1723652831.175383,172.16.5.2,28900,172.16.1.2,5102,6504,8700,2086,64256,65728,6,6,4,1460,253437,1,16778208,690000,33580,33580,65700,0,8688,0,2337396187,63
o,1723652831.175416,172.16.5.2,28900,172.16.1.2,5102,6504,8700,2086,64256,65728,6,6,4,1460,256875,1,16778208,660000,33580,30684,65700,0,5792,0,2337396187,63
o,1723652831.175535,172.16.5.2,28900,172.16.1.2,5102,6504,8700,2086,64256,65728,6,6,4,1460,256875,1,16778208,660000,33580,30684,65700,0,7240,0,2337396187,63
i,1723652831.302303,172.16.5.2,28900,172.16.1.2,5102,6504,8700,2086,64256,65728,6,6,4,1460,256875,1,16778208,660000,33580,33580,65700,0,8688,0,2337396187,63
o,1723652831.302379,172.16.5.2,28900,172.16.1.2,5102,6504,8700,2086,64256,65728,6,6,4,1460,262500,1,16778208,660000,33580,30684,65700,0,5792,0,2337396187,63
i,1723652831.362359,172.16.5.2,28900,172.16.1.2,5102,6504,8700,2086,64256,65728,6,6,4,1460,262500,1,16778208,660000,33580,33580,65700,0,8688,0,2337396187,63
o,1723652831.362463,172.16.5.2,28900,172.16.1.2,5102,5978,8688,2082,65728,65728,6,6,4,1460,260937,1,553649120,620000,33580,32132,65700,0,7240,0,2337396187,63
i,1723652831.424816,172.16.5.2,28900,172.16.1.2,5102,5978,8688,2082,65728,65728,6,6,4,1460,260937,1,553649120,620000,33580,32132,65700,0,8688,0,2337396187,63
o,1723652831.424894,172.16.5.2,28900,172.16.1.2,5102,5978,8700,2086,64256,65728,6,6,4,1460,267187,1,553649120,640000,33580,29236,65700,0,5792,0,2337396187,63
o,1723652831.425031,172.16.5.2,28900,172.16.1.2,5102,5978,8700,2086,64256,65728,6,6,4,1460,267187,1,553649120,640000,33580,29236,65700,0,7240,0,2337396187,63
i,1723652831.526866,172.16.5.2,28900,172.16.1.2,5102,5978,8700,2086,64256,65728,6,6,4,1460,267187,1,553649120,640000,33580,33580,65700,0,8688,0,2337396187,63
i,1723652831.574947,172.16.5.2,28900,172.16.1.2,5102,5978,7240,2086,65728,65728,6,6,4,1460,277812,1,553649120,690000,33580,32132,65700,0,7240,0,2337396187,63
o,1723652831.575041,172.16.5.2,28900,172.16.1.2,5102,5978,7240,2086,64256,65728,6,6,4,1460,276875,1,553649120,640000,33580,29236,65700,0,4344,0,2337396187,63
i,1723652831.651354,172.16.5.2,28900,172.16.1.2,5102,5978,7240,2086,64256,65728,6,6,4,1460,276875,1,553649120,640000,33580,33580,65700,0,7240,0,2337396187,63
i,1723652831.704787,172.16.5.2,28900,172.16.1.2,5102,4890,5792,2150,65728,65728,6,6,4,1460,278750,1,553649120,620000,33580,32132,65700,0,5792,0,2337396187,63
o,1723652831.704863,172.16.5.2,28900,172.16.1.2,5102,4890,5792,2086,64256,65728,6,6,4,1460,279062,1,553649120,590000,33580,29236,65700,0,2896,0,2337396187,63
o,1723652831.704983,172.16.5.2,28900,172.16.1.2,5102,4890,5792,2082,64256,65728,6,6,4,1460,279062,1,553649120,590000,33580,29236,65700,0,4344,0,2337396187,63
i,1723652831.791854,172.16.5.2,28900,172.16.1.2,5102,4890,5792,2082,64256,65728,6,6,4,1460,279062,1,553649120,590000,33580,33580,65700,0,5792,0,2337396187,63
o,1723652831.792083,172.16.5.2,28900,172.16.1.2,5102,4890,5792,2086,64256,65728,6,6,4,1460,271875,1,553649120,610000,33580,30684,65700,0,2896,0,2337396187,63
i,1723652831.874035,172.16.5.2,28900,172.16.1.2,5102,4890,5792,2086,64256,65728,6,6,4,1460,271875,1,553649120,610000,33580,33580,65700,0,5792,0,2337396187,63
o,1723652831.874143,172.16.5.2,28900,172.16.1.2,5102,4890,5792,2082,65728,65728,6,6,4,1460,259375,1,16778208,660000,33580,32132,65700,0,4344,0,2337396187,63
i,1723652831.931709,172.16.5.2,28900,172.16.1.2,5102,4890,5792,2082,65728,65728,6,6,4,1460,259375,1,16778208,660000,33580,32132,65700,0,5792,0,2337396187,63
o,1723652831.931812,172.16.5.2,28900,172.16.1.2,5102,4890,5792,2082,65728,65728,6,6,4,1460,255937,1,16778208,640000,33580,30684,65700,0,4344,0,2337396187,63
i,1723652831.994750,172.16.5.2,28900,172.16.1.2,5102,4890,5792,2082,65728,65728,6,6,4,1460,255937,1,16778208,640000,33580,33580,65700,0,5792,0,2337396187,63
o,1723652831.994750,172.16.5.2,28900,172.16.1.2,5102,4890,5792,2086,64256,65728,6,6,4,1460,247812,1,16778208,650000,33580,30684,65700,0,2896,0,2337396187,63
i,1723652832.102957,172.16.5.2,28900,172.16.1.2,5102,4890,5792,2086,64256,65728,6,6,4,1460,247812,1,16778208,650000,33580,33580,65700,0,5792,0,2337396187,63
o,1723652832.102989,172.16.5.2,28900,172.16.1.2,5102,4890,7252,2086,64256,65728,6,6,4,1460,245625,1,16778208,610000,33580,30684,65700,0,2896,0,2337396187,63
o,1723652832.103104,172.16.5.2,28900,172.16.1.2,5102,4890,7252,2086,64256,65728,6,6,4,1460,245625,1,16778208,610000,33580,30684,65700,0,4344,0,2337396187,63
i,1723652832.192078,172.16.5.2,28900,172.16.1.2,5102,4890,7252,2086,64256,65728,6,6,4,1460,245625,1,16778208,610000,33580,33580,65700,0,7240,0,2337396187,63
o,1723652832.192182,172.16.5.2,28900,172.16.1.2,5102,4890,7252,2086,64256,65728,6,6,4,1460,240000,1,16778208,610000,33580,30684,65700,0,4344,0,2337396187,63
i,1723652832.320390,172.16.5.2,28900,172.16.1.2,5102,4890,7252,2086,64256,65728,6,6,4,1460,240000,1,16778208,610000,33580,33580,65700,0,7240,0,2337396187,63
o,1723652832.320744,172.16.5.2,28900,172.16.1.2,5102,4890,7252,2086,64256,65728,6,6,4,1460,236250,1,16778208,590000,33580,30684,65700,0,4344,0,2337396187,63
o,1723652832.321165,172.16.5.2,28900,172.16.1.2,5102,4890,7252,2086,64256,65728,6,6,4,1460,236250,1,16778208,590000,33580,30684,65700,0,5792,0,2337396187,63
i,1723652832.421233,172.16.5.2,28900,172.16.1.2,5102,4890,7252,2086,64256,65728,6,6,4,1460,236250,1,16778208,590000,33580,33580,65700,0,7240,0,2337396187,63
o,1723652832.421264,172.16.5.2,28900,172.16.1.2,5102,4890,8712,2086,65728,65728,6,6,4,1460,245625,1,16778208,640000,33580,32132,65700,0,5792,0,2337396187,63
i,1723652832.421401,172.16.5.2,28900,172.16.1.2,5102,4890,8712,2086,65728,65728,6,6,4,1460,245625,1,16778208,640000,33580,32132,65700,0,8688,0,2337396187,63
o,1723652832.421419,172.16.5.2,28900,172.16.1.2,5102,4890,8712,2086,64256,65728,6,6,4,1460,242500,1,16778208,610000,33580,29236,65700,0,5792,0,2337396187,63
i,1723652832.533558,172.16.5.2,28900,172.16.1.2,5102,4890,8712,2086,64256,65728,6,6,4,1460,242500,1,16778208,610000,33580,33580,65700,0,8688,0,2337396187,63
o,1723652832.533657,172.16.5.2,28900,172.16.1.2,5102,4890,8712,2086,64256,65728,6,6,4,1460,238437,1,16778208,600000,33580,30684,65700,0,5792,0,2337396187,63
o,1723652832.533781,172.16.5.2,28900,172.16.1.2,5102,4890,8712,2086,64256,65728,6,6,4,1460,238437,1,16778208,600000,33580,30684,65700,0,7240,0,2337396187,63
i,1723652832.681577,172.16.5.2,28900,172.16.1.2,5102,4890,8712,2086,64256,65728,6,6,4,1460,238437,1,16778208,600000,33580,33580,65700,0,8688,0,2337396187,63
o,1723652832.681663,172.16.5.2,28900,172.16.1.2,5102,4890,10172,2086,64256,65728,6,6,4,1460,241250,1,16778208,580000,33580,30684,65700,0,5792,0,2337396187,63
i,1723652832.782691,172.16.5.2,28900,172.16.1.2,5102,4890,10172,2086,64256,65728,6,6,4,1460,241250,1,16778208,580000,33580,33580,65700,0,10136,0,2337396187,63
o,1723652832.782768,172.16.5.2,28900,172.16.1.2,5102,7525,10136,2086,64256,65728,6,6,4,1460,256250,1,553649120,680000,33580,30684,65700,0,7240,0,2337396187,63
i,1723652832.830855,172.16.5.2,28900,172.16.1.2,5102,7525,10136,2086,64256,65728,6,6,4,1460,256250,1,553649120,680000,33580,33580,65700,0,10136,0,2337396187,63
o,1723652832.830884,172.16.5.2,28900,172.16.1.2,5102,7525,8688,2082,64256,65728,6,6,4,1460,261875,1,553649120,680000,33580,30684,65700,0,7240,0,2337396187,63
i,1723652833.001203,172.16.5.2,28900,172.16.1.2,5102,7525,8688,2082,64256,65728,6,6,4,1460,261875,1,553649120,680000,33580,33580,65700,0,8688,0,2337396187,63
o,1723652833.001282,172.16.5.2,28900,172.16.1.2,5102,7525,10136,2086,64256,65728,6,6,4,1460,268125,1,553649120,680000,33580,30684,65700,0,5792,0,2337396187,63
i,1723652833.082463,172.16.5.2,28900,172.16.1.2,5102,7525,10136,2086,64256,65728,6,6,4,1460,268125,1,553649120,680000,33580,33580,65700,0,10136,0,2337396187,63
o,1723652833.082541,172.16.5.2,28900,172.16.1.2,5102,7525,10136,2086,64256,65728,6,6,4,1460,283437,1,16778208,760000,33580,30684,65700,0,7240,0,2337396187,63
i,1723652833.103506,172.16.5.2,28900,172.16.1.2,5102,7525,10136,2086,64256,65728,6,6,4,1460,283437,1,16778208,760000,33580,33580,65700,0,10136,0,2337396187,63
o,1723652833.103599,172.16.5.2,28900,172.16.1.2,5102,7525,10136,2082,65728,65728,6,6,4,1460,286875,1,16778208,720000,33580,32132,65700,0,8688,0,2337396187,63
i,1723652833.165565,172.16.5.2,28900,172.16.1.2,5102,7525,10136,2082,65728,65728,6,6,4,1460,286875,1,16778208,720000,33580,32132,65700,0,10136,0,2337396187,63
o,1723652833.165637,172.16.5.2,28900,172.16.1.2,5102,7434,10136,2082,65728,65728,6,6,4,1460,292500,1,553649120,720000,33580,30684,65700,0,8688,0,2337396187,63
i,1723652833.279832,172.16.5.2,28900,172.16.1.2,5102,7434,10136,2082,65728,65728,6,6,4,1460,292500,1,553649120,720000,33580,33580,65700,0,10136,0,2337396187,63
o,1723652833.279943,172.16.5.2,28900,172.16.1.2,5102,7434,10136,2082,65728,65728,6,6,4,1460,290937,1,553649120,670000,33580,32132,65700,0,8688,0,2337396187,63
i,1723652833.352033,172.16.5.2,28900,172.16.1.2,5102,7434,10136,2082,65728,65728,6,6,4,1460,290937,1,553649120,670000,33580,32132,65700,0,10136,0,2337396187,63
o,1723652833.352182,172.16.5.2,28900,172.16.1.2,5102,7434,8688,2082,64256,65728,6,6,4,1460,298437,1,553649120,690000,33580,29236,65700,0,7240,0,2337396187,63
i,1723652833.420026,172.16.5.2,28900,172.16.1.2,5102,7434,8688,2082,64256,65728,6,6,4,1460,298437,1,553649120,690000,33580,33580,65700,0,8688,0,2337396187,63
o,1723652833.420346,172.16.5.2,28900,172.16.1.2,5102,7434,10136,2086,64256,65728,6,6,4,1460,303750,1,553649120,690000,33580,30684,65700,0,5792,0,2337396187,63
i,1723652833.480951,172.16.5.2,28900,172.16.1.2,5102,7434,10136,2086,64256,65728,6,6,4,1460,303750,1,553649120,690000,33580,33580,65700,0,10136,0,2337396187,63
i,1723652833.481285,172.16.5.2,28900,172.16.1.2,5102,7434,8688,2086,65728,65728,6,6,4,1460,313437,1,553649120,730000,33580,32132,65700,0,8688,0,2337396187,63
o,1723652833.481411,172.16.5.2,28900,172.16.1.2,5102,7434,8688,2082,65728,65728,6,6,4,1460,314375,1,16778208,680000,33580,30684,65700,0,7240,0,2337396187,63
i,1723652833.538119,172.16.5.2,28900,172.16.1.2,5102,7434,8688,2082,65728,65728,6,6,4,1460,314375,1,16778208,680000,33580,33580,65700,0,8688,0,2337396187,63
o,1723652833.538198,172.16.5.2,28900,172.16.1.2,5102,7434,8688,2082,65728,65728,6,6,4,1460,306562,1,16778208,700000,33580,32132,65700,0,7240,0,2337396187,63
i,1723652833.641460,172.16.5.2,28900,172.16.1.2,5102,7434,8688,2082,65728,65728,6,6,4,1460,306562,1,16778208,700000,33580,32132,65700,0,8688,0,2337396187,63
o,1723652833.641541,172.16.5.2,28900,172.16.1.2,5102,6300,7240,2082,64256,65728,6,6,4,1460,303437,1,553649120,670000,33580,29236,65700,0,5792,0,2337396187,63
i,1723652833.734982,172.16.5.2,28900,172.16.1.2,5102,6300,7240,2082,64256,65728,6,6,4,1460,303437,1,553649120,670000,33580,33580,65700,0,7240,0,2337396187,63
o,1723652833.735024,172.16.5.2,28900,172.16.1.2,5102,6300,8688,2086,64256,65728,6,6,4,1460,304375,1,553649120,640000,33580,30684,65700,0,4344,0,2337396187,63
i,1723652833.838603,172.16.5.2,28900,172.16.1.2,5102,6300,8688,2086,64256,65728,6,6,4,1460,304375,1,553649120,640000,33580,33580,65700,0,8688,0,2337396187,63
i,1723652833.863190,172.16.5.2,28900,172.16.1.2,5102,6300,7240,2086,65728,65728,6,6,4,1460,310312,1,536871904,660000,33580,32132,65700,0,7240,0,2337396187,63
o,1723652833.863215,172.16.5.2,28900,172.16.1.2,5102,6300,7240,2082,65728,65728,6,6,4,1460,311562,1,553649120,630000,33580,30684,65700,0,5792,0,2337396187,63
i,1723652833.942101,172.16.5.2,28900,172.16.1.2,5102,6300,7240,2082,65728,65728,6,6,4,1460,311562,1,553649120,630000,33580,33580,65700,0,7240,0,2337396187,63
i,1723652834.002759,172.16.5.2,28900,172.16.1.2,5102,5225,5792,2146,65728,65728,6,6,4,1460,310312,1,553649120,610000,33580,32132,65700,0,5792,0,2337396187,63
o,1723652834.002896,172.16.5.2,28900,172.16.1.2,5102,5225,5792,2082,65728,65728,6,6,4,1460,305312,1,553649120,620000,33580,30684,65700,0,4344,0,2337396187,63
i,1723652834.003184,172.16.5.2,28900,172.16.1.2,5102,5225,5792,2082,65728,65728,6,6,4,1460,305312,1,553649120,620000,33580,30684,65700,0,5792,0,2337396187,63
o,1723652834.003200,172.16.5.2,28900,172.16.1.2,5102,5225,5792,2086,64256,65728,6,6,4,1460,300937,1,553649120,620000,33580,27788,65700,0,2896,0,2337396187,63
i,1723652834.101937,172.16.5.2,28900,172.16.1.2,5102,5225,5792,2086,64256,65728,6,6,4,1460,300937,1,553649120,620000,33580,33580,65700,0,5792,0,2337396187,63
o,1723652834.102125,172.16.5.2,28900,172.16.1.2,5102,5225,5792,2082,65728,65728,6,6,4,1460,292187,1,553649120,650000,33580,32132,65700,0,4344,0,2337396187,63
i,1723652834.181509,172.16.5.2,28900,172.16.1.2,5102,5225,5792,2082,65728,65728,6,6,4,1460,292187,1,553649120,650000,33580,32132,65700,0,5792,0,2337396187,63
o,1723652834.181541,172.16.5.2,28900,172.16.1.2,5102,5225,5792,2082,65728,65728,6,6,4,1460,278437,1,16778208,710000,33580,30684,65700,0,4344,0,2337396187,63
i,1723652834.231354,172.16.5.2,28900,172.16.1.2,5102,5225,5792,2082,65728,65728,6,6,4,1460,278437,1,16778208,710000,33580,33580,65700,0,5792,0,2337396187,63
o,1723652834.231428,172.16.5.2,28900,172.16.1.2,5102,5225,5792,2086,64256,65728,6,6,4,1460,272500,1,16778208,690000,33580,30684,65700,0,2896,0,2337396187,63
i,1723652834.311807,172.16.5.2,28900,172.16.1.2,5102,5225,5792,2086,64256,65728,6,6,4,1460,272500,1,16778208,690000,33580,33580,65700,0,5792,0,2337396187,63
o,1723652834.311877,172.16.5.2,28900,172.16.1.2,5102,5225,5792,2082,65728,65728,6,6,4,1460,264687,1,16778208,690000,33580,32132,65700,0,4344,0,2337396187,63
i,1723652834.352118,172.16.5.2,28900,172.16.1.2,5102,5225,5792,2082,65728,65728,6,6,4,1460,264687,1,16778208,690000,33580,32132,65700,0,5792,0,2337396187,63
o,1723652834.352185,172.16.5.2,28900,172.16.1.2,5102,5225,7252,2086,65728,65728,6,6,4,1460,253125,1,16778208,720000,33580,30684,65700,0,4344,0,2337396187,63
i,1723652834.411750,172.16.5.2,28900,172.16.1.2,5102,5225,7252,2086,65728,65728,6,6,4,1460,253125,1,16778208,720000,33580,33580,65700,0,7240,0,2337396187,63
o,1723652834.411836,172.16.5.2,28900,172.16.1.2,5102,5225,7252,2086,64256,65728,6,6,4,1460,244062,1,16778208,710000,33580,30684,65700,0,4344,0,2337396187,63
i,1723652834.532068,172.16.5.2,28900,172.16.1.2,5102,5225,7252,2086,64256,65728,6,6,4,1460,244062,1,16778208,710000,33580,33580,65700,0,7240,0,2337396187,63
o,1723652834.532102,172.16.5.2,28900,172.16.1.2,5102,5225,7252,2086,64256,65728,6,6,4,1460,241250,1,16778208,670000,33580,30684,65700,0,4344,0,2337396187,63
o,1723652834.532219,172.16.5.2,28900,172.16.1.2,5102,5225,7252,2086,64256,65728,6,6,4,1460,241250,1,16778208,670000,33580,30684,65700,0,5792,0,2337396187,63
i,1723652834.593407,172.16.5.2,28900,172.16.1.2,5102,5225,7252,2086,64256,65728,6,6,4,1460,241250,1,16778208,670000,33580,33580,65700,0,7240,0,2337396187,63
o,1723652834.593637,172.16.5.2,28900,172.16.1.2,5102,5225,7252,2086,65728,65728,6,6,4,1460,241250,1,16778208,610000,33580,32132,65700,0,5792,0,2337396187,63
i,1723652834.661539,172.16.5.2,28900,172.16.1.2,5102,5225,7252,2086,65728,65728,6,6,4,1460,241250,1,16778208,610000,33580,32132,65700,0,7240,0,2337396187,63
o,1723652834.661653,172.16.5.2,28900,172.16.1.2,5102,5225,8712,2086,65728,65728,6,6,4,1460,242500,1,16778208,580000,33580,30684,65700,0,5792,0,2337396187,63
i,1723652834.722129,172.16.5.2,28900,172.16.1.2,5102,5225,8712,2086,65728,65728,6,6,4,1460,242500,1,16778208,580000,33580,33580,65700,0,8688,0,2337396187,63
o,1723652834.722157,172.16.5.2,28900,172.16.1.2,5102,5225,8712,2086,64256,65728,6,6,4,1460,250937,1,16778208,620000,33580,30684,65700,0,5792,0,2337396187,63
o,1723652834.722307,172.16.5.2,28900,172.16.1.2,5102,5225,8712,2086,64256,65728,6,6,4,1460,250937,1,16778208,620000,33580,30684,65700,0,7240,0,2337396187,63
i,1723652834.801737,172.16.5.2,28900,172.16.1.2,5102,5225,8712,2086,64256,65728,6,6,4,1460,250937,1,16778208,620000,33580,33580,65700,0,8688,0,2337396187,63
o,1723652834.801806,172.16.5.2,28900,172.16.1.2,5102,5225,8712,2086,65728,65728,6,6,4,1460,252187,1,16778208,590000,33580,32132,65700,0,7240,0,2337396187,63
i,1723652834.884203,172.16.5.2,28900,172.16.1.2,5102,5225,8712,2086,65728,65728,6,6,4,1460,252187,1,16778208,590000,33580,32132,65700,0,8688,0,2337396187,63
o,1723652834.884275,172.16.5.2,28900,172.16.1.2,5102,5225,8712,2086,65728,65728,6,6,4,1460,257187,1,16778208,600000,33580,30684,65700,0,7240,0,2337396187,63
i,1723652834.945899,172.16.5.2,28900,172.16.1.2,5102,5225,8712,2086,65728,65728,6,6,4,1460,257187,1,16778208,600000,33580,33580,65700,0,8688,0,2337396187,63
o,1723652834.945972,172.16.5.2,28900,172.16.1.2,5102,5225,10172,2086,64256,65728,6,6,4,1460,260312,1,16778208,590000,33580,30684,65700,0,5792,0,2337396187,63
i,1723652835.029194,172.16.5.2,28900,172.16.1.2,5102,5225,10172,2086,64256,65728,6,6,4,1460,260312,1,16778208,590000,33580,33580,65700,0,10136,0,2337396187,63
o,1723652835.029266,172.16.5.2,28900,172.16.1.2,5102,7863,10136,2082,65728,65728,6,6,4,1460,266562,1,553649120,610000,33580,32132,65700,0,8688,0,2337396187,63
i,1723652835.072284,172.16.5.2,28900,172.16.1.2,5102,7863,10136,2082,65728,65728,6,6,4,1460,266562,1,553649120,610000,33580,32132,65700,0,10136,0,2337396187,63
o,1723652835.072357,172.16.5.2,28900,172.16.1.2,5102,7863,10136,2082,65728,65728,6,6,4,1460,277187,1,553649120,670000,33580,30684,65700,0,8688,0,2337396187,63
i,1723652835.107373,172.16.5.2,28900,172.16.1.2,5102,7863,10136,2082,65728,65728,6,6,4,1460,277187,1,553649120,670000,33580,33580,65700,0,10136,0,2337396187,63
i,1723652835.203960,172.16.5.2,28900,172.16.1.2,5102,7863,8688,2082,65728,65728,6,6,4,1460,280312,1,553649120,650000,33580,32132,65700,0,8688,0,2337396187,63
o,1723652835.204151,172.16.5.2,28900,172.16.1.2,5102,7863,8688,2082,65728,65728,6,6,4,1460,285312,1,553649120,650000,33580,30684,65700,0,7240,0,2337396187,63
i,1723652835.247990,172.16.5.2,28900,172.16.1.2,5102,7863,8688,2082,65728,65728,6,6,4,1460,285312,1,553649120,650000,33580,33580,65700,0,8688,0,2337396187,63
o,1723652835.248017,172.16.5.2,28900,172.16.1.2,5102,7863,10136,2086,64256,65728,6,6,4,1460,288437,1,553649120,640000,33580,30684,65700,0,5792,0,2337396187,63
i,1723652835.312329,172.16.5.2,28900,172.16.1.2,5102,7863,10136,2086,64256,65728,6,6,4,1460,288437,1,553649120,640000,33580,33580,65700,0,10136,0,2337396187,63
o,1723652835.312389,172.16.5.2,28900,172.16.1.2,5102,7919,10136,2086,64256,65728,6,6,4,1460,298750,1,553649120,690000,33580,30684,65700,0,7240,0,2337396187,63
o,1723652835.312572,172.16.5.2,28900,172.16.1.2,5102,7919,10136,2082,64256,65728,6,6,4,1460,298750,1,553649120,690000,33580,30684,65700,0,8688,0,2337396187,63
i,1723652835.381775,172.16.5.2,28900,172.16.1.2,5102,7919,10136,2082,64256,65728,6,6,4,1460,298750,1,553649120,690000,33580,33580,65700,0,10136,0,2337396187,63
i,1723652835.494468,172.16.5.2,28900,172.16.1.2,5102,7919,8688,2082,65728,65728,6,6,4,1460,299062,1,553649120,650000,33580,32132,65700,0,8688,0,2337396187,63
o,1723652835.494565,172.16.5.2,28900,172.16.1.2,5102,7919,8688,2082,65728,65728,6,6,4,1460,296875,1,553649120,620000,33580,30684,65700,0,7240,0,2337396187,63
i,1723652835.571126,172.16.5.2,28900,172.16.1.2,5102,7919,8688,2082,65728,65728,6,6,4,1460,296875,1,553649120,620000,33580,33580,65700,0,8688,0,2337396187,63
o,1723652835.571202,172.16.5.2,28900,172.16.1.2,5102,7919,8688,2086,64256,65728,6,6,4,1460,300000,1,553649120,620000,33580,30684,65700,0,5792,0,2337396187,63
i,1723652835.611610,172.16.5.2,28900,172.16.1.2,5102,7919,8688,2086,64256,65728,6,6,4,1460,300000,1,553649120,620000,33580,33580,65700,0,8688,0,2337396187,63
o,1723652835.611682,172.16.5.2,28900,172.16.1.2,5102,6635,8688,2086,64256,65728,6,6,4,1460,307500,1,553649120,660000,33580,30684,65700,0,5792,0,2337396187,63
o,1723652835.611803,172.16.5.2,28900,172.16.1.2,5102,6635,8688,2082,64256,65728,6,6,4,1460,307500,1,553649120,660000,33580,30684,65700,0,7240,0,2337396187,63
i,1723652835.663698,172.16.5.2,28900,172.16.1.2,5102,6635,8688,2082,64256,65728,6,6,4,1460,307500,1,553649120,660000,33580,33580,65700,0,8688,0,2337396187,63
i,1723652835.761489,172.16.5.2,28900,172.16.1.2,5102,6635,7240,2082,65728,65728,6,6,4,1460,311562,1,553649120,660000,33580,32132,65700,0,7240,0,2337396187,63
o,1723652835.761536,172.16.5.2,28900,172.16.1.2,5102,6635,7240,2082,65728,65728,6,6,4,1460,306562,1,553649120,650000,33580,30684,65700,0,5792,0,2337396187,63
i,1723652835.822822,172.16.5.2,28900,172.16.1.2,5102,6635,7240,2082,65728,65728,6,6,4,1460,306562,1,553649120,650000,33580,33580,65700,0,7240,0,2337396187,63
o,1723652835.822897,172.16.5.2,28900,172.16.1.2,5102,6635,7240,2086,64256,65728,6,6,4,1460,299687,1,553649120,660000,33580,30684,65700,0,4344,0,2337396187,63
i,1723652835.840733,172.16.5.2,28900,172.16.1.2,5102,6635,7240,2086,64256,65728,6,6,4,1460,299687,1,553649120,660000,33580,33580,65700,0,7240,0,2337396187,63
o,1723652835.840811,172.16.5.2,28900,172.16.1.2,5102,6635,7240,2082,65728,65728,6,6,4,1460,290000,1,16778208,690000,33580,32132,65700,0,5792,0,2337396187,63
i,1723652835.902246,172.16.5.2,28900,172.16.1.2,5102,6635,7240,2082,65728,65728,6,6,4,1460,290000,1,16778208,690000,33580,32132,65700,0,7240,0,2337396187,63
o,1723652835.902354,172.16.5.2,28900,172.16.1.2,5102,6635,7240,2082,65728,65728,6,6,4,1460,290000,1,16778208,640000,33580,30684,65700,0,5792,0,2337396187,63
i,1723652835.952307,172.16.5.2,28900,172.16.1.2,5102,6635,7240,2082,65728,65728,6,6,4,1460,290000,1,16778208,640000,33580,33580,65700,0,7240,0,2337396187,63
o,1723652835.952374,172.16.5.2,28900,172.16.1.2,5102,6635,7240,2082,65728,65728,6,6,4,1460,277500,1,16778208,690000,33580,32132,65700,0,5792,0,2337396187,63
i,1723652836.001410,172.16.5.2,28900,172.16.1.2,5102,6635,7240,2082,65728,65728,6,6,4,1460,277500,1,16778208,690000,33580,32132,65700,0,7240,0,2337396187,63
o,1723652836.001488,172.16.5.2,28900,172.16.1.2,5102,6635,7240,2086,64256,65728,6,6,4,1460,264062,1,16778208,730000,33580,29236,65700,0,4344,0,2337396187,63
i,1723652836.064319,172.16.5.2,28900,172.16.1.2,5102,6635,7240,2086,64256,65728,6,6,4,1460,264062,1,16778208,730000,33580,33580,65700,0,7240,0,2337396187,63
o,1723652836.064350,172.16.5.2,28900,172.16.1.2,5102,6635,8700,2086,64256,65728,6,6,4,1460,258750,1,16778208,700000,33580,30684,65700,0,4344,0,2337396187,63
o,1723652836.064464,172.16.5.2,28900,172.16.1.2,5102,6635,8700,2086,64256,65728,6,6,4,1460,258750,1,16778208,700000,33580,30684,65700,0,5792,0,2337396187,63
i,1723652836.171757,172.16.5.2,28900,172.16.1.2,5102,6635,8700,2086,64256,65728,6,6,4,1460,258750,1,16778208,700000,33580,33580,65700,0,8688,0,2337396187,63
o,1723652836.171835,172.16.5.2,28900,172.16.1.2,5102,6635,8700,2086,64256,65728,6,6,4,1460,254062,1,16778208,670000,33580,30684,65700,0,5792,0,2337396187,63
i,1723652836.251083,172.16.5.2,28900,172.16.1.2,5102,6635,8700,2086,64256,65728,6,6,4,1460,254062,1,16778208,670000,33580,33580,65700,0,8688,0,2337396187,63
o,1723652836.251191,172.16.5.2,28900,172.16.1.2,5102,6635,8700,2086,65728,65728,6,6,4,1460,253750,1,16778208,620000,33580,32132,65700,0,7240,0,2337396187,63
i,1723652836.390641,172.16.5.2,28900,172.16.1.2,5102,6635,8700,2086,65728,65728,6,6,4,1460,253750,1,16778208,620000,33580,32132,65700,0,8688,0,2337396187,63
o,1723652836.390988,172.16.5.2,28900,172.16.1.2,5102,6635,8700,2086,64256,65728,6,6,4,1460,262187,1,16778208,650000,33580,29236,65700,0,5792,0,2337396187,63
o,1723652836.391511,172.16.5.2,28900,172.16.1.2,5102,6635,8700,2086,64256,65728,6,6,4,1460,262187,1,16778208,650000,33580,29236,65700,0,7240,0,2337396187,63
i,1723652836.442747,172.16.5.2,28900,172.16.1.2,5102,6635,8700,2086,64256,65728,6,6,4,1460,262187,1,16778208,650000,33580,33580,65700,0,8688,0,2337396187,63
o,1723652836.442842,172.16.5.2,28900,172.16.1.2,5102,6814,8700,2086,64256,65728,6,6,4,1460,275937,1,553649120,730000,33580,30684,65700,0,5792,0,2337396187,63
i,1723652836.553254,172.16.5.2,28900,172.16.1.2,5102,6814,8700,2086,64256,65728,6,6,4,1460,275937,1,553649120,730000,33580,33360,65700,0,8688,0,2337396187,63
i,1723652836.581364,172.16.5.2,28900,172.16.1.2,5102,6814,7240,2086,65728,65728,6,6,4,1460,289062,1,553649120,780000,33580,31912,65700,0,7240,0,2337396187,63
o,1723652836.581383,172.16.5.2,28900,172.16.1.2,5102,6814,7240,2082,65728,65728,6,6,4,1460,294375,1,553649120,760000,33580,30464,65700,0,5792,0,2337396187,63
i,1723652836.642776,172.16.5.2,28900,172.16.1.2,5102,6814,7240,2082,65728,65728,6,6,4,1460,294375,1,553649120,760000,33580,33580,65700,0,7240,0,2337396187,63
o,1723652836.642886,172.16.5.2,28900,172.16.1.2,5102,6814,7240,2086,64256,65728,6,6,4,1460,289062,1,553649120,730000,33580,30684,65700,0,4344,0,2337396187,63
o,1723652836.643038,172.16.5.2,28900,172.16.1.2,5102,6814,7240,2082,64256,65728,6,6,4,1460,289062,1,553649120,730000,33580,30684,65700,0,5792,0,2337396187,63
i,1723652836.651766,172.16.5.2,28900,172.16.1.2,5102,6814,7240,2082,64256,65728,6,6,4,1460,289062,1,553649120,730000,33580,33580,65700,0,7240,0,2337396187,63
o,1723652836.651832,172.16.5.2,28900,172.16.1.2,5102,6814,7240,2082,65728,65728,6,6,4,1460,279375,1,16778208,740000,33580,32132,65700,0,5792,0,2337396187,63
i,1723652836.651952,172.16.5.2,28900,172.16.1.2,5102,6814,7240,2082,65728,65728,6,6,4,1460,279375,1,16778208,740000,33580,32132,65700,0,7240,0,2337396187,63
o,1723652836.651967,172.16.5.2,28900,172.16.1.2,5102,6814,7240,2082,65728,65728,6,6,4,1460,270937,1,16778208,730000,33580,30684,65700,0,5792,0,2337396187,63
i,1723652836.762720,172.16.5.2,28900,172.16.1.2,5102,6814,7240,2082,65728,65728,6,6,4,1460,270937,1,16778208,730000,33580,33580,65700,0,7240,0,2337396187,63
o,1723652836.762793,172.16.5.2,28900,172.16.1.2,5102,6814,7240,2082,65728,65728,6,6,4,1460,259687,1,16778208,740000,33580,32132,65700,0,5792,0,2337396187,63
i,1723652836.872425,172.16.5.2,28900,172.16.1.2,5102,6814,7240,2082,65728,65728,6,6,4,1460,259687,1,16778208,740000,33580,32132,65700,0,7240,0,2337396187,63
o,1723652836.872504,172.16.5.2,28900,172.16.1.2,5102,5681,7252,2086,64256,65728,6,6,4,1460,256250,1,553649120,700000,33580,29236,65700,0,4344,0,2337396187,63
o,1723652836.872621,172.16.5.2,28900,172.16.1.2,5102,5681,7252,2086,64256,65728,6,6,4,1460,256250,1,553649120,700000,33580,29236,65700,0,5792,0,2337396187,63
i,1723652836.932960,172.16.5.2,28900,172.16.1.2,5102,5681,7252,2086,64256,65728,6,6,4,1460,256250,1,553649120,700000,33580,33580,65700,0,7240,0,2337396187,63
o,1723652836.933072,172.16.5.2,28900,172.16.1.2,5102,5681,7240,2086,64256,65728,6,6,4,1460,259375,1,553649120,660000,33580,30684,65700,0,4344,0,2337396187,63
i,1723652837.027990,172.16.5.2,28900,172.16.1.2,5102,5681,7240,2086,64256,65728,6,6,4,1460,259375,1,553649120,660000,33580,33580,65700,0,7240,0,2337396187,63
o,1723652837.028022,172.16.5.2,28900,172.16.1.2,5102,5681,7240,2086,64256,65728,6,6,4,1460,260937,1,16778208,630000,33580,30684,65700,0,4344,0,2337396187,63
o,1723652837.028205,172.16.5.2,28900,172.16.1.2,5102,5681,7240,2082,64256,65728,6,6,4,1460,260937,1,16778208,630000,33580,30684,65700,0,5792,0,2337396187,63
i,1723652837.091512,172.16.5.2,28900,172.16.1.2,5102,5681,7240,2082,64256,65728,6,6,4,1460,260937,1,16778208,630000,33580,33580,65700,0,7240,0,2337396187,63
o,1723652837.091541,172.16.5.2,28900,172.16.1.2,5102,5681,7240,2082,65728,65728,6,6,4,1460,254687,1,16778208,630000,33580,32132,65700,0,5792,0,2337396187,63
i,1723652837.150796,172.16.5.2,28900,172.16.1.2,5102,5681,7240,2082,65728,65728,6,6,4,1460,254687,1,16778208,630000,33580,32132,65700,0,7240,0,2337396187,63
o,1723652837.150796,172.16.5.2,28900,172.16.1.2,5102,5681,7240,2082,65728,65728,6,6,4,1460,250625,1,16778208,610000,33580,30684,65700,0,5792,0,2337396187,63
i,1723652837.231684,172.16.5.2,28900,172.16.1.2,5102,5681,7240,2082,65728,65728,6,6,4,1460,250625,1,16778208,610000,33580,33580,65700,0,7240,0,2337396187,63
o,1723652837.231710,172.16.5.2,28900,172.16.1.2,5102,5681,7240,2086,64256,65728,6,6,4,1460,256875,1,16778208,630000,33580,30684,65700,0,4344,0,2337396187,63
o,1723652837.232916,172.16.5.2,28900,172.16.1.2,5102,5681,7240,2082,64256,65728,6,6,4,1460,256875,1,16778208,630000,33580,30684,65700,0,5792,0,2337396187,63
i,1723652837.300187,172.16.5.2,28900,172.16.1.2,5102,5681,7240,2082,64256,65728,6,6,4,1460,256875,1,16778208,630000,33580,33580,65700,0,7240,0,2337396187,63
o,1723652837.300387,172.16.5.2,28900,172.16.1.2,5102,5681,8700,2086,65728,65728,6,6,4,1460,258750,1,16778208,600000,33580,32132,65700,0,5792,0,2337396187,63
i,1723652837.351533,172.16.5.2,28900,172.16.1.2,5102,5681,8700,2086,65728,65728,6,6,4,1460,258750,1,16778208,600000,33580,32132,65700,0,8688,0,2337396187,63
o,1723652837.351608,172.16.5.2,28900,172.16.1.2,5102,5681,8700,2086,65728,65728,6,6,4,1460,259062,1,16778208,570000,33580,30684,65700,0,7240,0,2337396187,63
i,1723652837.422284,172.16.5.2,28900,172.16.1.2,5102,5681,8700,2086,65728,65728,6,6,4,1460,259062,1,16778208,570000,33580,33580,65700,0,8688,0,2337396187,63
o,1723652837.422329,172.16.5.2,28900,172.16.1.2,5102,5681,8700,2086,65728,65728,6,6,4,1460,260625,1,16778208,560000,33580,32132,65700,0,7240,0,2337396187,63
i,1723652837.513171,172.16.5.2,28900,172.16.1.2,5102,5681,8700,2086,65728,65728,6,6,4,1460,260625,1,16778208,560000,33580,32132,65700,0,8688,0,2337396187,63
o,1723652837.513327,172.16.5.2,28900,172.16.1.2,5102,6908,7240,2082,64256,65728,6,6,4,1460,263125,1,553649120,550000,33580,29236,65700,0,5792,0,2337396187,63
i,1723652837.618215,172.16.5.2,28900,172.16.1.2,5102,6908,7240,2082,64256,65728,6,6,4,1460,263125,1,553649120,550000,33580,33580,65700,0,7240,0,2337396187,63
o,1723652837.618247,172.16.5.2,28900,172.16.1.2,5102,6908,8688,2086,64256,65728,6,6,4,1460,269062,1,553649120,580000,33580,30684,65700,0,4344,0,2337396187,63
i,1723652837.691060,172.16.5.2,28900,172.16.1.2,5102,6908,8688,2086,64256,65728,6,6,4,1460,269062,1,553649120,580000,33580,33580,65700,0,8688,0,2337396187,63
i,1723652837.742659,172.16.5.2,28900,172.16.1.2,5102,6908,7240,2086,65728,65728,6,6,4,1460,278125,1,553649120,640000,33580,32132,65700,0,7240,0,2337396187,63
o,1723652837.742747,172.16.5.2,28900,172.16.1.2,5102,6908,7240,2082,65728,65728,6,6,4,1460,283437,1,553649120,640000,33580,30684,65700,0,5792,0,2337396187,63
i,1723652837.800817,172.16.5.2,28900,172.16.1.2,5102,6908,7240,2082,65728,65728,6,6,4,1460,283437,1,553649120,640000,33580,33580,65700,0,7240,0,2337396187,63
o,1723652837.801131,172.16.5.2,28900,172.16.1.2,5102,5798,7240,2082,65728,65728,6,6,4,1460,284375,1,553649120,610000,33580,32132,65700,0,5792,0,2337396187,63
i,1723652837.853970,172.16.5.2,28900,172.16.1.2,5102,5798,7240,2082,65728,65728,6,6,4,1460,284375,1,553649120,610000,33580,32132,65700,0,7240,0,2337396187,63
o,1723652837.854053,172.16.5.2,28900,172.16.1.2,5102,5798,7240,2086,64256,65728,6,6,4,1460,277812,1,553649120,630000,33580,29236,65700,0,4344,0,2337396187,63
i,1723652837.908618,172.16.5.2,28900,172.16.1.2,5102,5798,7240,2086,64256,65728,6,6,4,1460,277812,1,553649120,630000,33580,33580,65700,0,7240,0,2337396187,63
o,1723652837.908641,172.16.5.2,28900,172.16.1.2,5102,5798,7240,2082,65728,65728,6,6,4,1460,279375,1,553649120,600000,33580,32132,65700,0,5792,0,2337396187,63
i,1723652837.981276,172.16.5.2,28900,172.16.1.2,5102,5798,7240,2082,65728,65728,6,6,4,1460,279375,1,553649120,600000,33580,32132,65700,0,7240,0,2337396187,63
o,1723652837.981375,172.16.5.2,28900,172.16.1.2,5102,5798,7240,2082,65728,65728,6,6,4,1460,273437,1,553649120,610000,33580,30684,65700,0,5792,0,2337396187,63
i,1723652838.032508,172.16.5.2,28900,172.16.1.2,5102,5798,7240,2082,65728,65728,6,6,4,1460,273437,1,553649120,610000,33580,33580,65700,0,7240,0,2337396187,63
o,1723652838.032540,172.16.5.2,28900,172.16.1.2,5102,5798,7240,2082,65728,65728,6,6,4,1460,268125,1,16778208,620000,33580,32132,65700,0,5792,0,2337396187,63
i,1723652838.093249,172.16.5.2,28900,172.16.1.2,5102,5798,7240,2082,65728,65728,6,6,4,1460,268125,1,16778208,620000,33580,32132,65700,0,7240,0,2337396187,63
o,1723652838.093333,172.16.5.2,28900,172.16.1.2,5102,5798,7240,2086,64256,65728,6,6,4,1460,264687,1,16778208,600000,33580,29236,65700,0,4344,0,2337396187,63
i,1723652838.161108,172.16.5.2,28900,172.16.1.2,5102,5798,7240,2086,64256,65728,6,6,4,1460,264687,1,16778208,600000,33580,33580,65700,0,7240,0,2337396187,63
o,1723652838.161182,172.16.5.2,28900,172.16.1.2,5102,5798,7240,2082,65728,65728,6,6,4,1460,263125,1,16778208,580000,33580,32132,65700,0,5792,0,2337396187,63
i,1723652838.228924,172.16.5.2,28900,172.16.1.2,5102,5798,7240,2082,65728,65728,6,6,4,1460,263125,1,16778208,580000,33580,32132,65700,0,7240,0,2337396187,63
o,1723652838.228956,172.16.5.2,28900,172.16.1.2,5102,5798,7240,2082,65728,65728,6,6,4,1460,261562,1,16778208,560000,33580,30684,65700,0,5792,0,2337396187,63
i,1723652838.283147,172.16.5.2,28900,172.16.1.2,5102,5798,7240,2082,65728,65728,6,6,4,1460,261562,1,16778208,560000,33580,33580,65700,0,7240,0,2337396187,63
o,1723652838.283231,172.16.5.2,28900,172.16.1.2,5102,5798,8700,2086,65728,65728,6,6,4,1460,260312,1,16778208,540000,33580,32132,65700,0,5792,0,2337396187,63
o,1723652838.283340,172.16.5.2,28900,172.16.1.2,5102,5798,8700,2086,65728,65728,6,6,4,1460,260312,1,16778208,540000,33580,32132,65700,0,7240,0,2337396187,63
i,1723652838.331974,172.16.5.2,28900,172.16.1.2,5102,5798,8700,2086,65728,65728,6,6,4,1460,260312,1,16778208,540000,33580,32132,65700,0,8688,0,2337396187,63
o,1723652838.331997,172.16.5.2,28900,172.16.1.2,5102,5798,8700,2086,65728,65728,6,6,4,1460,257812,1,16778208,540000,33580,30684,65700,0,7240,0,2337396187,63
i,1723652838.372392,172.16.5.2,28900,172.16.1.2,5102,5798,8700,2086,65728,65728,6,6,4,1460,257812,1,16778208,540000,33580,33580,65700,0,8688,0,2337396187,63
o,1723652838.372457,172.16.5.2,28900,172.16.1.2,5102,5798,8700,2086,65728,65728,6,6,4,1460,260625,1,16778208,550000,33580,32132,65700,0,7240,0,2337396187,63
i,1723652838.436465,172.16.5.2,28900,172.16.1.2,5102,5798,8700,2086,65728,65728,6,6,4,1460,260625,1,16778208,550000,33580,32132,65700,0,8688,0,2337396187,63
o,1723652838.436537,172.16.5.2,28900,172.16.1.2,5102,5798,8700,2086,65728,65728,6,6,4,1460,261875,1,16778208,530000,33580,30684,65700,0,7240,0,2337396187,63
i,1723652838.482196,172.16.5.2,28900,172.16.1.2,5102,5798,8700,2086,65728,65728,6,6,4,1460,261875,1,16778208,530000,33580,33580,65700,0,8688,0,2337396187,63
o,1723652838.482309,172.16.5.2,28900,172.16.1.2,5102,5798,8700,2086,64256,65728,6,6,4,1460,260625,1,16778208,530000,33580,30684,65700,0,5792,0,2337396187,63
o,1723652838.482456,172.16.5.2,28900,172.16.1.2,5102,5798,8700,2086,64256,65728,6,6,4,1460,260625,1,16778208,530000,33580,30684,65700,0,7240,0,2337396187,63
i,1723652838.541362,172.16.5.2,28900,172.16.1.2,5102,5798,8700,2086,64256,65728,6,6,4,1460,260625,1,16778208,530000,33580,33580,65700,0,8688,0,2337396187,63
o,1723652838.541476,172.16.5.2,28900,172.16.1.2,5102,5798,8700,2086,65728,65728,6,6,4,1460,259375,1,16778208,520000,33580,32132,65700,0,7240,0,2337396187,63
