enable_time_secs=1723653171	enable_time_usecs=948336	siftrver=1.3.0	sysname=FreeBSD	sysver=1401000	ipmode=4
o,1723653171.948704,10.0.2.15,22,10.0.2.2,50504,1073725440,17746,1026,65535,65700,0,0,4,1460,312,0,16777220,240000,33580,172,65700,0,0,0,463913510,63
o,1723653171.949208,10.0.2.15,22,10.0.2.2,50504,1073725440,17746,1026,65535,65700,0,0,4,1460,312,0,16777220,240000,33580,244,65700,0,172,0,463913510,63
i,1723653171.951049,10.0.2.15,22,10.0.2.2,50504,1073725440,17746,1026,65535,65700,0,0,4,1460,312,0,16777220,240000,33580,244,65700,0,244,0,463913510,63
i,1723653171.951071,10.0.2.15,22,10.0.2.2,50504,1073725440,17918,1026,65535,65700,0,0,4,1460,312,0,4,240000,33580,72,65700,0,72,0,463913510,63
i,1723653171.951085,10.0.2.15,22,10.0.2.2,50504,1073725440,17990,1026,65535,65700,0,0,4,1460,312,0,4,240000,33580,0,65700,0,0,0,463913510,63
i,1723653171.951148,10.0.2.15,22,10.0.2.2,50504,1073725440,17990,1026,65535,65700,0,0,4,1460,312,0,4,240000,33580,0,65700,96,0,0,463913510,63
o,1723653171.951178,10.0.2.15,22,10.0.2.2,50504,1073725440,17990,1026,65535,65604,0,0,5,1460,312,0,5,240000,33580,0,65700,96,0,0,463913510,63
o,1723653171.952086,10.0.2.15,22,10.0.2.2,50504,1073725440,17990,1026,65535,65604,0,0,8,1460,312,0,4,240000,33580,0,65700,0,0,0,463913510,63
i,1723653171.952582,10.0.2.15,22,10.0.2.2,50504,1073725440,17990,1026,65535,65604,0,0,8,1460,312,0,67108884,240000,33580,0,65700,0,1,0,463913510,63
i,1723653175.148306,10.0.2.15,22,10.0.2.2,50524,1073725440,14600,0,65535,65700,0,0,4,1460,312,0,16777216,270000,33580,0,65700,0,0,0,1506783149,63
o,1723653175.157212,10.0.2.15,22,10.0.2.2,50524,1073725440,14600,1026,65535,65700,0,0,4,1460,312,0,16777216,270000,33580,38,65700,42,0,0,1506783149,63
i,1723653175.157860,10.0.2.15,22,10.0.2.2,50524,1073725440,14600,1026,65535,65700,0,0,4,1460,312,0,16777216,270000,33580,38,65700,0,38,0,1506783149,63
i,1723653175.157935,10.0.2.15,22,10.0.2.2,50524,1073725440,14638,1026,65535,65700,0,0,4,1460,312,0,0,230000,33580,0,65700,0,0,0,1506783149,63
i,1723653175.157950,10.0.2.15,22,10.0.2.2,50524,1073725440,14638,1026,65535,65700,0,0,4,1460,312,0,0,230000,33580,0,65700,1460,0,0,1506783149,63
o,1723653175.157967,10.0.2.15,22,10.0.2.2,50524,1073725440,14638,1026,65535,65700,0,0,4,1460,312,0,1,230000,33580,0,65700,1536,0,0,1506783149,63
o,1723653175.158736,10.0.2.15,22,10.0.2.2,50524,1073725440,14638,1026,65535,65700,0,0,4,1460,312,0,16777216,230000,33580,1120,65700,1536,0,0,1506783149,63
i,1723653175.159933,10.0.2.15,22,10.0.2.2,50524,1073725440,14638,1026,65535,65700,0,0,4,1460,312,0,16777216,230000,33580,1120,65700,0,1120,0,1506783149,63
i,1723653175.160808,10.0.2.15,22,10.0.2.2,50524,1073725440,15758,1026,65535,65700,0,0,4,1460,312,0,0,230000,33580,0,65700,0,0,0,1506783149,63
o,1723653175.164022,10.0.2.15,22,10.0.2.2,50524,1073725440,15758,1026,65535,65700,0,0,4,1460,312,0,16777216,230000,33580,492,65700,0,0,0,1506783149,63
i,1723653175.166443,10.0.2.15,22,10.0.2.2,50524,1073725440,15758,1026,65535,65700,0,0,4,1460,312,0,16777216,230000,33580,492,65700,0,492,0,1506783149,63
i,1723653175.169574,10.0.2.15,22,10.0.2.2,50524,1073725440,16250,1026,65535,65700,0,0,4,1460,312,0,0,230000,33580,0,65700,0,0,0,1506783149,63
i,1723653175.172483,10.0.2.15,22,10.0.2.2,50524,1073725440,16250,1026,65535,65700,0,0,4,1460,312,0,0,230000,33580,0,65700,0,0,0,1506783149,63
o,1723653175.172504,10.0.2.15,22,10.0.2.2,50524,1073725440,16250,1026,65535,65700,0,0,4,1460,312,0,1,230000,33580,0,65700,44,0,0,1506783149,63
o,1723653175.172653,10.0.2.15,22,10.0.2.2,50524,1073725440,16250,1026,65535,65700,0,0,4,1460,312,0,16777216,230000,33580,44,65700,0,0,0,1506783149,63
i,1723653175.173707,10.0.2.15,22,10.0.2.2,50524,1073725440,16250,1026,65535,65700,0,0,4,1460,312,0,16777216,230000,33580,44,65700,0,44,0,1506783149,63
i,1723653175.173744,10.0.2.15,22,10.0.2.2,50524,1073725440,16294,1026,65535,65700,0,0,4,1460,312,0,0,230000,33580,0,65700,0,0,0,1506783149,63
o,1723653175.175129,10.0.2.15,22,10.0.2.2,50524,1073725440,16294,1026,65535,65700,0,0,4,1460,312,0,16777216,230000,33580,68,65700,0,0,0,1506783149,63
i,1723653175.175609,10.0.2.15,22,10.0.2.2,50524,1073725440,16294,1026,65535,65700,0,0,4,1460,312,0,16777216,230000,33580,68,65700,0,68,0,1506783149,63
i,1723653175.176191,10.0.2.15,22,10.0.2.2,50524,1073725440,16362,1026,65535,65700,0,0,4,1460,312,0,0,240000,33580,0,65700,0,0,0,1506783149,63
o,1723653175.176998,10.0.2.15,22,10.0.2.2,50524,1073725440,16362,1026,65535,65700,0,0,4,1460,312,0,16777216,240000,33580,332,65700,0,0,0,1506783149,63
i,1723653175.177866,10.0.2.15,22,10.0.2.2,50524,1073725440,16362,1026,65535,65700,0,0,4,1460,312,0,16777216,240000,33580,332,65700,0,332,0,1506783149,63
i,1723653175.179060,10.0.2.15,22,10.0.2.2,50524,1073725440,16694,1026,65535,65700,0,0,4,1460,312,0,0,240000,33580,0,65700,0,0,0,1506783149,63
o,1723653175.196738,10.0.2.15,22,10.0.2.2,50524,1073725440,16694,1026,65535,65700,0,0,4,1460,312,0,16777216,240000,33580,28,65700,0,0,0,1506783149,63
i,1723653175.197223,10.0.2.15,22,10.0.2.2,50524,1073725440,16694,1026,65535,65700,0,0,4,1460,312,0,16777216,240000,33580,28,65700,0,28,0,1506783149,63
i,1723653175.197242,10.0.2.15,22,10.0.2.2,50524,1073725440,16722,1026,65535,65700,0,0,4,1460,312,0,0,240000,33580,0,65700,0,0,0,1506783149,63
o,1723653175.198814,10.0.2.15,22,10.0.2.2,50524,1073725440,16722,1026,65535,65700,0,0,4,1460,312,0,16777216,240000,33580,768,65700,112,0,0,1506783149,63
i,1723653175.199566,10.0.2.15,22,10.0.2.2,50524,1073725440,16722,1026,65535,65700,0,0,4,1460,312,0,16777216,240000,33580,908,65700,112,768,0,1506783149,63
o,1723653175.199584,10.0.2.15,22,10.0.2.2,50524,1073725440,17490,1026,65535,65700,0,0,4,1460,312,0,16777216,240000,33580,140,65700,112,0,0,1506783149,63
i,1723653175.199826,10.0.2.15,22,10.0.2.2,50524,1073725440,17490,1026,65535,65700,0,0,4,1460,312,0,16777216,240000,33580,140,65700,112,140,0,1506783149,63
o,1723653175.200185,10.0.2.15,22,10.0.2.2,50524,1073725440,17630,1026,65535,65700,0,0,4,1460,312,0,16777216,240000,33580,44,65700,0,0,0,1506783149,63
i,1723653175.200706,10.0.2.15,22,10.0.2.2,50524,1073725440,17630,1026,65535,65700,0,0,4,1460,312,0,16777216,240000,33580,44,65700,0,44,0,1506783149,63
i,1723653175.200721,10.0.2.15,22,10.0.2.2,50524,1073725440,17674,1026,65535,65700,0,0,4,1460,312,0,0,240000,33580,0,65700,0,0,0,1506783149,63
o,1723653175.201195,10.0.2.15,22,10.0.2.2,50524,1073725440,17674,1026,65535,65700,0,0,4,1460,312,0,16777220,240000,33580,72,65700,0,0,0,1506783149,63
i,1723653175.201631,10.0.2.15,22,10.0.2.2,50524,1073725440,17674,1026,65535,65700,0,0,4,1460,312,0,16777220,240000,33580,72,65700,0,72,0,1506783149,63
o,1723653175.203864,10.0.2.15,22,10.0.2.2,50524,1073725440,17746,1026,65535,65700,0,0,4,1460,312,0,16777220,240000,33580,104,65700,0,0,0,1506783149,63
i,1723653175.204264,10.0.2.15,22,10.0.2.2,50524,1073725440,17746,1026,65535,65700,0,0,4,1460,312,0,16777220,240000,33580,104,65700,0,104,0,1506783149,63
o,1723653175.217150,10.0.2.15,22,10.0.2.2,50524,1073725440,17850,1026,65535,65700,0,0,4,1460,312,0,16777220,240000,33580,72,65700,0,0,0,1506783149,63
i,1723653175.217550,10.0.2.15,22,10.0.2.2,50524,1073725440,17850,1026,65535,65700,0,0,4,1460,312,0,16777220,240000,33580,72,65700,0,72,0,1506783149,63
i,1723653175.217912,10.0.2.15,22,10.0.2.2,50524,1073725440,17922,1026,65535,65700,0,0,4,1460,312,0,4,230000,33580,0,65700,0,0,0,1506783149,63
i,1723653175.217936,10.0.2.15,22,10.0.2.2,50524,1073725440,17922,1026,65535,65700,0,0,4,1460,312,0,4,230000,33580,0,65700,96,0,0,1506783149,63
o,1723653175.217953,10.0.2.15,22,10.0.2.2,50524,1073725440,17922,1026,65535,65604,0,0,5,1460,312,0,5,230000,33580,0,65700,96,0,0,1506783149,63
o,1723653175.236648,10.0.2.15,22,10.0.2.2,50524,1073725440,17922,1026,65535,65604,0,0,8,1460,312,0,4,230000,33580,0,65700,0,0,0,1506783149,63
i,1723653175.237346,10.0.2.15,22,10.0.2.2,50524,1073725440,17922,1026,65535,65604,0,0,8,1460,312,0,67108884,230000,33580,0,65700,0,1,0,1506783149,63
i,1723653176.283608,10.0.2.15,22,10.0.2.2,50540,1073725440,14600,0,65535,65700,0,0,4,1460,312,0,16777216,260000,33580,0,65700,0,0,0,1188838894,63
o,1723653176.294628,10.0.2.15,22,10.0.2.2,50540,1073725440,14600,1026,65535,65700,0,0,4,1460,312,0,16777216,260000,33580,38,65700,42,0,0,1188838894,63
i,1723653176.295382,10.0.2.15,22,10.0.2.2,50540,1073725440,14600,1026,65535,65700,0,0,4,1460,312,0,16777216,260000,33580,38,65700,0,38,0,1188838894,63
i,1723653176.295432,10.0.2.15,22,10.0.2.2,50540,1073725440,14638,1026,65535,65700,0,0,4,1460,312,0,0,230000,33580,0,65700,0,0,0,1188838894,63
i,1723653176.295478,10.0.2.15,22,10.0.2.2,50540,1073725440,14638,1026,65535,65700,0,0,4,1460,312,0,0,230000,33580,0,65700,1460,0,0,1188838894,63
o,1723653176.295496,10.0.2.15,22,10.0.2.2,50540,1073725440,14638,1026,65535,65700,0,0,4,1460,312,0,1,230000,33580,0,65700,1536,0,0,1188838894,63
o,1723653176.295983,10.0.2.15,22,10.0.2.2,50540,1073725440,14638,1026,65535,65700,0,0,4,1460,312,0,16777216,230000,33580,1120,65700,1536,0,0,1188838894,63
i,1723653176.296436,10.0.2.15,22,10.0.2.2,50540,1073725440,14638,1026,65535,65700,0,0,4,1460,312,0,16777216,230000,33580,1120,65700,0,1120,0,1188838894,63
i,1723653176.297741,10.0.2.15,22,10.0.2.2,50540,1073725440,15758,1026,65535,65700,0,0,4,1460,312,0,0,230000,33580,0,65700,0,0,0,1188838894,63
o,1723653176.300937,10.0.2.15,22,10.0.2.2,50540,1073725440,15758,1026,65535,65700,0,0,4,1460,312,0,16777216,230000,33580,492,65700,0,0,0,1188838894,63
i,1723653176.301316,10.0.2.15,22,10.0.2.2,50540,1073725440,15758,1026,65535,65700,0,0,4,1460,312,0,16777216,230000,33580,492,65700,0,492,0,1188838894,63
i,1723653176.305571,10.0.2.15,22,10.0.2.2,50540,1073725440,16250,1026,65535,65700,0,0,4,1460,312,0,0,230000,33580,0,65700,0,0,0,1188838894,63
i,1723653176.305589,10.0.2.15,22,10.0.2.2,50540,1073725440,16250,1026,65535,65700,0,0,4,1460,312,0,0,230000,33580,0,65700,16,0,0,1188838894,63
o,1723653176.305606,10.0.2.15,22,10.0.2.2,50540,1073725440,16250,1026,65535,65700,0,0,4,1460,312,0,1,230000,33580,0,65700,60,0,0,1188838894,63
o,1723653176.305820,10.0.2.15,22,10.0.2.2,50540,1073725440,16250,1026,65535,65700,0,0,4,1460,312,0,16777216,230000,33580,44,65700,0,0,0,1188838894,63
i,1723653176.306609,10.0.2.15,22,10.0.2.2,50540,1073725440,16250,1026,65535,65700,0,0,4,1460,312,0,16777216,230000,33580,44,65700,0,44,0,1188838894,63
i,1723653176.306629,10.0.2.15,22,10.0.2.2,50540,1073725440,16294,1026,65535,65700,0,0,4,1460,312,0,0,240000,33580,0,65700,0,0,0,1188838894,63
o,1723653176.308998,10.0.2.15,22,10.0.2.2,50540,1073725440,16294,1026,65535,65700,0,0,4,1460,312,0,16777216,240000,33580,68,65700,0,0,0,1188838894,63
i,1723653176.309636,10.0.2.15,22,10.0.2.2,50540,1073725440,16294,1026,65535,65700,0,0,4,1460,312,0,16777216,240000,33580,68,65700,0,68,0,1188838894,63
i,1723653176.309661,10.0.2.15,22,10.0.2.2,50540,1073725440,16362,1026,65535,65700,0,0,4,1460,312,0,0,240000,33580,0,65700,0,0,0,1188838894,63
o,1723653176.311215,10.0.2.15,22,10.0.2.2,50540,1073725440,16362,1026,65535,65700,0,0,4,1460,312,0,16777216,240000,33580,332,65700,0,0,0,1188838894,63
i,1723653176.311683,10.0.2.15,22,10.0.2.2,50540,1073725440,16362,1026,65535,65700,0,0,4,1460,312,0,16777216,240000,33580,332,65700,0,332,0,1188838894,63
i,1723653176.313172,10.0.2.15,22,10.0.2.2,50540,1073725440,16694,1026,65535,65700,0,0,4,1460,312,0,0,240000,33580,0,65700,0,0,0,1188838894,63
o,1723653176.335606,10.0.2.15,22,10.0.2.2,50540,1073725440,16694,1026,65535,65700,0,0,4,1460,312,0,16777216,240000,33580,28,65700,0,0,0,1188838894,63
i,1723653176.336417,10.0.2.15,22,10.0.2.2,50540,1073725440,16694,1026,65535,65700,0,0,4,1460,312,0,16777216,240000,33580,28,65700,0,28,0,1188838894,63
i,1723653176.337004,10.0.2.15,22,10.0.2.2,50540,1073725440,16722,1026,65535,65700,0,0,4,1460,312,0,0,240000,33580,0,65700,0,0,0,1188838894,63
o,1723653176.338476,10.0.2.15,22,10.0.2.2,50540,1073725440,16722,1026,65535,65700,0,0,4,1460,312,0,16777216,240000,33580,768,65700,112,0,0,1188838894,63
i,1723653176.339220,10.0.2.15,22,10.0.2.2,50540,1073725440,16722,1026,65535,65700,0,0,4,1460,312,0,16777216,240000,33580,908,65700,112,768,0,1188838894,63
o,1723653176.339240,10.0.2.15,22,10.0.2.2,50540,1073725440,17490,1026,65535,65700,0,0,4,1460,312,0,16777216,240000,33580,140,65700,112,0,0,1188838894,63
i,1723653176.339563,10.0.2.15,22,10.0.2.2,50540,1073725440,17490,1026,65535,65700,0,0,4,1460,312,0,16777216,240000,33580,140,65700,112,140,0,1188838894,63
o,1723653176.340202,10.0.2.15,22,10.0.2.2,50540,1073725440,17630,1026,65535,65700,0,0,4,1460,312,0,16777216,240000,33580,44,65700,0,0,0,1188838894,63
i,1723653176.340826,10.0.2.15,22,10.0.2.2,50540,1073725440,17630,1026,65535,65700,0,0,4,1460,312,0,16777216,240000,33580,44,65700,0,44,0,1188838894,63
i,1723653176.340843,10.0.2.15,22,10.0.2.2,50540,1073725440,17674,1026,65535,65700,0,0,4,1460,312,0,0,240000,33580,0,65700,0,0,0,1188838894,63
o,1723653176.341368,10.0.2.15,22,10.0.2.2,50540,1073725440,17674,1026,65535,65700,0,0,4,1460,312,0,16777220,240000,33580,72,65700,0,0,0,1188838894,63
i,1723653176.341822,10.0.2.15,22,10.0.2.2,50540,1073725440,17674,1026,65535,65700,0,0,4,1460,312,0,16777220,240000,33580,72,65700,0,72,0,1188838894,63
o,1723653176.471124,172.16.5.2,10736,172.16.1.2,5102,31529,14480,2082,65535,65700,6,6,4,1460,206562,1,16778209,650000,33580,0,65700,0,0,0,2059942231,63
o,1723653176.471467,172.16.5.2,10736,172.16.1.2,5102,31529,14480,2082,65535,65700,6,6,4,1460,206562,1,16778212,650000,33580,37,65700,0,0,0,2059942231,63
i,1723653176.583801,172.16.5.2,10736,172.16.1.2,5102,31529,14480,2082,65535,65700,6,6,4,1460,206562,1,16778212,650000,33580,37,65700,0,37,0,2059942231,63
o,1723653176.584084,172.16.5.2,10736,172.16.1.2,5102,31529,14517,3106,65728,65728,6,6,4,1460,194687,1,16778212,670000,33580,4,65700,0,0,0,2059942231,63
o,1723653176.584217,172.16.5.2,10736,172.16.1.2,5102,31529,14517,3106,65728,65728,6,6,4,1460,194687,1,16778212,670000,33580,130,65700,0,4,0,2059942231,63
i,1723653176.701801,172.16.5.2,10736,172.16.1.2,5102,31529,14517,3106,65728,65728,6,6,4,1460,194687,1,16778212,670000,33580,130,65700,0,130,0,2059942231,63
i,1723653176.701842,172.16.5.2,10736,172.16.1.2,5102,31529,14647,3106,65600,65728,6,6,4,1460,185625,1,996,670000,33580,0,65700,0,0,0,2059942231,63
o,1723653176.779692,172.16.5.2,10736,172.16.1.2,5102,31529,14647,3106,65728,65728,6,6,4,1460,185625,1,997,670000,33580,0,65700,0,0,0,2059942231,63
o,1723653176.832952,172.16.5.2,24007,172.16.1.2,5102,31529,14480,2082,65535,65700,6,6,4,1460,206562,1,16778209,650000,33580,0,65700,0,0,0,3230412740,63
o,1723653176.833111,172.16.5.2,24007,172.16.1.2,5102,31529,14480,2082,65535,65700,6,6,4,1460,206562,1,16778208,650000,33580,37,65700,0,0,0,3230412740,63
i,1723653176.945522,172.16.5.2,10736,172.16.1.2,5102,31529,14647,3106,65728,65728,6,6,4,1460,185625,1,996,670000,33580,0,65700,0,0,0,2059942231,63
i,1723653176.945972,172.16.5.2,10736,172.16.1.2,5102,31529,14647,3106,65728,65728,6,6,4,1460,185625,1,996,670000,33580,0,65700,1,0,0,2059942231,63
o,1723653176.946071,172.16.5.2,10736,172.16.1.2,5102,31529,14647,3106,65728,65728,6,6,4,1460,185625,1,997,670000,33580,0,65700,2,0,0,2059942231,63
o,1723653176.947078,172.16.5.2,24007,172.16.1.2,5102,31529,14480,2086,65535,65700,6,6,4,1460,206562,1,16778208,650000,33580,33580,65700,0,37,0,3230412740,63
i,1723653176.973768,172.16.5.2,24007,172.16.1.2,5102,31529,14480,2086,65535,65700,6,6,4,1460,206562,1,16778208,650000,33580,33580,65700,0,13069,0,3230412740,63
o,1723653176.973880,172.16.5.2,24007,172.16.1.2,5102,31529,14517,2086,65728,65728,6,6,4,1460,198437,1,16778208,650000,33580,33543,65700,0,13032,0,3230412740,63
i,1723653177.292379,172.16.5.2,24007,172.16.1.2,5102,31529,14517,2086,65728,65728,6,6,4,1460,198437,1,16778208,650000,33580,33543,65700,0,14480,0,3230412740,63
o,1723653177.292469,172.16.5.2,24007,172.16.1.2,5102,31529,17413,2086,64256,65728,6,6,4,1460,216250,1,16778208,750000,33580,30647,65700,0,11584,0,3230412740,63
i,1723653177.341089,172.16.5.2,24007,172.16.1.2,5102,31529,17413,2086,64256,65728,6,6,4,1460,216250,1,16778208,750000,41772,41772,65700,0,17376,0,3230412740,63
o,1723653177.341198,172.16.5.2,24007,172.16.1.2,5102,31529,20309,2086,64256,65728,6,6,4,1460,238125,1,16778208,860000,41772,38876,65700,0,14480,0,3230412740,63
i,1723653177.401004,172.16.5.2,24007,172.16.1.2,5102,31529,20309,2086,64256,65728,6,6,4,1460,238125,1,16778208,860000,49964,49964,65700,0,20272,0,3230412740,63
o,1723653177.401043,172.16.5.2,24007,172.16.1.2,5102,31529,23205,2086,64256,65728,6,6,4,1460,264687,1,16778208,990000,49964,47068,65700,0,17376,0,3230412740,63
i,1723653177.452420,172.16.5.2,24007,172.16.1.2,5102,31529,23205,2086,64256,65728,6,6,4,1460,264687,1,16778208,990000,49964,49964,65700,0,23168,0,3230412740,63
o,1723653177.452507,172.16.5.2,24007,172.16.1.2,5102,31529,26101,2086,64256,65728,6,6,4,1460,294375,1,16778208,1130000,49964,47068,65700,0,20272,0,3230412740,63
i,1723653177.503387,172.16.5.2,24007,172.16.1.2,5102,31529,26101,2086,64256,65728,6,6,4,1460,294375,1,16778208,1130000,58156,58156,65700,0,26064,0,3230412740,63
o,1723653177.503601,172.16.5.2,24007,172.16.1.2,5102,31529,28997,2086,64256,65728,6,6,4,1460,326562,1,16778208,1260000,58156,55260,65700,0,23168,0,3230412740,63
o,1723653177.504309,172.16.5.2,24007,172.16.1.2,5102,31529,28997,2086,64256,65728,6,6,4,1460,326562,1,16778208,1260000,58156,55260,65700,0,24616,0,3230412740,63
i,1723653177.891542,172.16.5.2,24007,172.16.1.2,5102,31529,28997,2086,64256,65728,6,6,4,1460,326562,1,16778208,1260000,66348,66348,65700,0,28960,0,3230412740,63
o,1723653177.891710,172.16.5.2,24007,172.16.1.2,5102,31529,31893,2086,64256,65728,6,6,4,1460,360937,1,16778208,1390000,66348,63452,65700,0,26064,0,3230412740,63
i,1723653178.021931,172.16.5.2,24007,172.16.1.2,5102,31529,31893,2086,64256,65728,6,6,4,1460,360937,1,16778208,1390000,74540,74540,65700,0,31856,0,3230412740,63
o,1723653178.021966,172.16.5.2,24007,172.16.1.2,5102,31529,31893,2086,65728,65728,6,6,4,1460,407187,1,16778208,1590000,74540,73092,65700,0,30408,0,3230412740,63
i,1723653178.041900,172.16.5.2,24007,172.16.1.2,5102,31529,31893,2086,65728,65728,6,6,4,1460,407187,1,16778208,1590000,74540,73092,65700,0,31856,0,3230412740,63
o,1723653178.041930,172.16.5.2,24007,172.16.1.2,5102,31529,34752,2086,65728,65728,6,6,4,1460,407187,1,16778208,1590000,74540,73092,65700,0,31856,0,3230412740,63
i,1723653178.071918,172.16.5.2,24007,172.16.1.2,5102,31529,31893,2086,65728,65728,6,6,4,1460,407187,1,16778208,1590000,74540,73092,65700,0,34752,0,3230412740,63
o,1723653178.071947,172.16.5.2,24007,172.16.1.2,5102,15946,1448,2146,65728,65728,6,6,4,1460,407187,1,554697696,1590000,74540,73092,65700,0,34752,0,3230412740,63
i,1723653178.093818,172.16.5.2,24007,172.16.1.2,5102,15946,1448,2146,65728,65728,6,6,4,1460,407187,1,554697696,1590000,74540,73092,65700,0,34752,0,3230412740,63
i,1723653178.136909,172.16.5.2,24007,172.16.1.2,5102,15946,1448,2146,65728,65728,6,6,4,1460,407187,1,554697696,1590000,74540,73092,65700,0,34752,0,3230412740,63
o,1723653178.136935,172.16.5.2,24007,172.16.1.2,5102,15946,2896,2146,65728,65728,6,6,4,1460,407187,1,554697696,1590000,74540,73092,65700,0,34752,0,3230412740,63
i,1723653178.137564,172.16.5.2,24007,172.16.1.2,5102,15946,2896,2146,65728,65728,6,6,4,1460,407187,1,554697696,1590000,74540,73092,65700,0,34752,0,3230412740,63
i,1723653178.171842,172.16.5.2,24007,172.16.1.2,5102,15946,2896,2146,65728,65728,6,6,4,1460,407187,1,554697696,1590000,74540,73092,65700,0,34752,0,3230412740,63
o,1723653178.171886,172.16.5.2,24007,172.16.1.2,5102,15946,4344,2146,65728,65728,6,6,4,1460,407187,1,554697696,1590000,74540,73092,65700,0,34752,0,3230412740,63
i,1723653178.237201,172.16.5.2,24007,172.16.1.2,5102,15946,4344,2146,65728,65728,6,6,4,1460,407187,1,554697696,1590000,74540,73092,65700,0,34752,0,3230412740,63
i,1723653178.237241,172.16.5.2,24007,172.16.1.2,5102,15946,4344,2146,65728,65728,6,6,4,1460,407187,1,554697696,1590000,74540,73092,65700,0,34752,0,3230412740,63
o,1723653178.237261,172.16.5.2,24007,172.16.1.2,5102,15946,5792,2146,65728,65728,6,6,4,1460,407187,1,554697696,1590000,74540,73092,65700,0,34752,0,3230412740,63
i,1723653178.259399,172.16.5.2,24007,172.16.1.2,5102,15946,5792,2146,65728,65728,6,6,4,1460,407187,1,554697696,1590000,74540,73092,65700,0,34752,0,3230412740,63
i,1723653178.372452,172.16.5.2,24007,172.16.1.2,5102,15946,5792,2146,65728,65728,6,6,4,1460,407187,1,554697696,1590000,74540,73092,65700,0,34752,0,3230412740,63
o,1723653178.372557,172.16.5.2,24007,172.16.1.2,5102,15946,7240,2146,65728,65728,6,6,4,1460,407187,1,554697696,1590000,74540,73092,65700,0,34752,0,3230412740,63
i,1723653178.391663,172.16.5.2,24007,172.16.1.2,5102,15946,7240,2146,65728,65728,6,6,4,1460,407187,1,554697696,1590000,74540,73092,65700,0,34752,0,3230412740,63
i,1723653178.434560,172.16.5.2,24007,172.16.1.2,5102,15946,7240,2146,65728,65728,6,6,4,1460,407187,1,554697696,1590000,74540,73092,65700,0,34752,0,3230412740,63
o,1723653178.434649,172.16.5.2,24007,172.16.1.2,5102,15946,8688,2146,65728,65728,6,6,4,1460,407187,1,554697696,1590000,74540,73092,65700,0,34752,0,3230412740,63
i,1723653178.527894,172.16.5.2,24007,172.16.1.2,5102,15946,8688,2146,65728,65728,6,6,4,1460,407187,1,554697696,1590000,74540,73092,65700,0,34752,0,3230412740,63
i,1723653178.559165,172.16.5.2,24007,172.16.1.2,5102,15946,7240,2146,65728,65728,6,6,4,1460,407187,1,554697696,1590000,74540,73092,65700,0,34752,0,3230412740,63
o,1723653179.700778,172.16.5.2,24007,172.16.1.2,5102,2896,1448,2146,65728,65728,6,6,4,1460,407187,1,1092625377,2980000,74540,73092,65700,0,34752,0,3230412740,63
i,1723653179.828225,172.16.5.2,24007,172.16.1.2,5102,2896,1448,2146,65728,65728,6,6,4,1460,407187,1,1092625376,2980000,74540,73092,65700,0,34752,0,3230412740,63
o,1723653179.828262,172.16.5.2,24007,172.16.1.2,5102,2896,2896,2150,64320,65728,6,6,4,1460,372812,1,1092625376,1590000,74540,71644,65700,0,33304,0,3230412740,63
o,1723653179.828406,172.16.5.2,24007,172.16.1.2,5102,2896,2896,2146,64320,65728,6,6,4,1460,372812,1,1092625376,1590000,74540,71644,65700,0,33304,0,3230412740,63
i,1723653179.964222,172.16.5.2,24007,172.16.1.2,5102,2896,2896,2146,64320,65728,6,6,4,1460,372812,1,1092625376,1590000,74540,74540,65700,0,33304,0,3230412740,63
o,1723653179.964257,172.16.5.2,24007,172.16.1.2,5102,2896,2896,2150,61376,65728,6,6,4,1460,342500,1,1092625376,1550000,74540,70196,65700,0,28960,0,3230412740,63
o,1723653179.964416,172.16.5.2,24007,172.16.1.2,5102,2896,2896,2146,61376,65728,6,6,4,1460,342500,1,1092625376,1550000,74540,70196,65700,0,28960,0,3230412740,63
i,1723653179.964552,172.16.5.2,24007,172.16.1.2,5102,2896,2896,2146,61376,65728,6,6,4,1460,342500,1,1092625376,1550000,74540,70196,65700,0,28960,0,3230412740,63
i,1723653180.070759,172.16.5.2,24007,172.16.1.2,5102,2896,2896,2146,65728,65728,6,6,4,1460,342500,1,1075848160,1550000,74540,74540,65700,0,28960,0,3230412740,63
o,1723653180.070991,172.16.5.2,24007,172.16.1.2,5102,2896,2896,2150,61440,65728,6,6,4,1460,313437,1,1092625376,1500000,74540,70196,65700,0,24616,0,3230412740,63
o,1723653180.071419,172.16.5.2,24007,172.16.1.2,5102,2896,2896,2146,61440,65728,6,6,4,1460,313437,1,1092625376,1500000,74540,70196,65700,0,24616,0,3230412740,63
i,1723653180.101110,172.16.5.2,24007,172.16.1.2,5102,2896,2896,2146,61440,65728,6,6,4,1460,313437,1,1092625376,1500000,74540,74540,65700,0,24616,0,3230412740,63
i,1723653180.222463,172.16.5.2,24007,172.16.1.2,5102,2896,2896,2146,65728,65728,6,6,4,1460,313437,1,1075848160,1500000,74540,74540,65700,0,24616,0,3230412740,63
o,1723653180.222623,172.16.5.2,24007,172.16.1.2,5102,2896,4356,2150,52736,65728,6,6,4,1460,293125,1,1092625376,1390000,74540,61508,65700,0,11584,0,3230412740,63
o,1723653180.222859,172.16.5.2,24007,172.16.1.2,5102,2896,4356,2150,52736,65728,6,6,4,1460,293125,1,1092625376,1390000,74540,61508,65700,0,11584,0,3230412740,63
o,1723653180.223017,172.16.5.2,24007,172.16.1.2,5102,2896,4356,2146,52736,65728,6,6,4,1460,293125,1,1092625376,1390000,74540,61508,65700,0,11584,0,3230412740,63
i,1723653180.251826,172.16.5.2,24007,172.16.1.2,5102,2896,4356,2146,52736,65728,6,6,4,1460,293125,1,1092625376,1390000,74540,74540,65700,0,11584,0,3230412740,63
i,1723653180.370767,172.16.5.2,24007,172.16.1.2,5102,2896,4356,2146,65728,65728,6,6,4,1460,293125,1,1075848160,1390000,74540,74540,65700,0,11584,0,3230412740,63
o,1723653180.370928,172.16.5.2,24007,172.16.1.2,5102,2896,1448,2146,65728,65728,6,6,4,1460,293125,1,1630544864,1390000,74540,74540,65700,0,11584,0,3230412740,63
o,1723653180.371300,172.16.5.2,24007,172.16.1.2,5102,2896,2896,2146,65728,65728,6,6,4,1460,293125,1,1630544865,1390000,74540,74540,65700,0,11584,0,3230412740,63
o,1723653180.371591,172.16.5.2,24007,172.16.1.2,5102,2896,2896,2146,65728,65728,6,6,4,1460,293125,1,1630544864,1390000,74540,74540,65700,0,11584,0,3230412740,63
i,1723653180.371971,172.16.5.2,24007,172.16.1.2,5102,2896,2896,2146,64320,65728,6,6,4,1460,275312,1,1630544864,1290000,74540,73092,65700,0,10136,0,3230412740,63
o,1723653180.372040,172.16.5.2,24007,172.16.1.2,5102,2896,2896,2146,64320,65728,6,6,4,1460,275312,1,1630544865,1290000,74540,73092,65700,0,10136,0,3230412740,63
i,1723653180.403743,172.16.5.2,24007,172.16.1.2,5102,2896,2896,2146,62848,65728,6,6,4,1460,259687,1,1630544864,1200000,74540,74540,65700,0,7240,0,3230412740,63
i,1723653180.403780,172.16.5.2,24007,172.16.1.2,5102,2896,2896,2146,65728,65728,6,6,4,1460,259687,1,1613767648,1200000,74540,74540,65700,0,7240,0,3230412740,63
i,1723653180.530173,172.16.5.2,24007,172.16.1.2,5102,2896,2896,2146,65728,65728,6,6,4,1460,250000,1,1075848160,1080000,74540,74528,65700,0,7228,0,3230412740,63
i,1723653180.530276,172.16.5.2,24007,172.16.1.2,5102,2896,2896,2146,65728,65728,6,6,4,1460,250000,1,1075848160,1080000,74540,74528,65700,0,7228,0,3230412740,63
i,1723653180.530358,172.16.5.2,24007,172.16.1.2,5102,2896,2896,2146,65728,65728,6,6,4,1460,250000,1,1075848160,1080000,74540,74528,65700,0,7228,0,3230412740,63
o,1723653180.530389,172.16.5.2,24007,172.16.1.2,5102,2896,4332,2146,64320,65728,6,6,4,1460,238750,1,1092625376,1000000,74540,73092,65700,0,5792,0,3230412740,63
i,1723653180.551826,172.16.5.2,24007,172.16.1.2,5102,2896,4332,2146,64320,65728,6,6,4,1460,238750,1,1092625376,1000000,74540,73092,65700,0,5792,0,3230412740,63
o,1723653180.552001,172.16.5.2,24007,172.16.1.2,5102,2896,4332,2150,62848,65728,6,6,4,1460,231562,1,1092625376,910000,74540,70196,65700,0,2896,0,3230412740,63
i,1723653180.680846,172.16.5.2,24007,172.16.1.2,5102,2896,4332,2150,62848,65728,6,6,4,1460,231562,1,1092625376,910000,74540,74540,65700,0,4332,0,3230412740,63
o,1723653180.680882,172.16.5.2,24007,172.16.1.2,5102,2896,5792,2086,64320,65728,6,6,4,1460,221562,1,1092625376,860000,74540,73104,65700,0,2896,0,3230412740,63
o,1723653180.681083,172.16.5.2,24007,172.16.1.2,5102,2896,5792,2082,64320,65728,6,6,4,1460,221562,1,1092625376,860000,74540,73104,65700,0,4344,0,3230412740,63
i,1723653180.691670,172.16.5.2,24007,172.16.1.2,5102,2896,5792,2082,64320,65728,6,6,4,1460,221562,1,1092625376,860000,74540,73104,65700,0,5792,0,3230412740,63
o,1723653180.691691,172.16.5.2,24007,172.16.1.2,5102,2896,5792,2086,64256,65728,6,6,4,1460,211562,1,1092625376,820000,74540,71644,65700,0,4332,0,3230412740,63
i,1723653180.762213,172.16.5.2,24007,172.16.1.2,5102,2896,5792,2086,64256,65728,6,6,4,1460,211562,1,1092625376,820000,74540,74540,65700,0,5780,0,3230412740,63
o,1723653180.762282,172.16.5.2,24007,172.16.1.2,5102,2896,5792,2082,64320,65728,6,6,4,1460,211562,1,1092625376,720000,74540,73104,65700,0,4344,0,3230412740,63
i,1723653180.860489,172.16.5.2,24007,172.16.1.2,5102,2896,5792,2082,64320,65728,6,6,4,1460,211562,1,1092625376,720000,74540,73104,65700,0,5792,0,3230412740,63
o,1723653180.860606,172.16.5.2,24007,172.16.1.2,5102,2896,5792,2082,65728,65728,6,6,4,1460,207812,1,1092625376,670000,74540,71656,65700,0,4344,0,3230412740,63
i,1723653180.881910,172.16.5.2,24007,172.16.1.2,5102,2896,5792,2082,65728,65728,6,6,4,1460,207812,1,1092625376,670000,74540,74540,65700,0,5792,0,3230412740,63
o,1723653180.881980,172.16.5.2,24007,172.16.1.2,5102,2896,7252,2086,64256,65728,6,6,4,1460,206875,1,1092625376,610000,74540,71644,65700,0,2896,0,3230412740,63
i,1723653180.934638,172.16.5.2,24007,172.16.1.2,5102,2896,7252,2086,64256,65728,6,6,4,1460,206875,1,1092625376,610000,74540,74540,65700,0,7240,0,3230412740,63
o,1723653180.934825,172.16.5.2,24007,172.16.1.2,5102,2896,7252,2086,65728,65728,6,6,4,1460,202500,1,1092625376,590000,74540,73092,65700,0,5792,0,3230412740,63
i,1723653181.032477,172.16.5.2,24007,172.16.1.2,5102,2896,7252,2086,65728,65728,6,6,4,1460,202500,1,1092625376,590000,74540,73092,65700,0,7240,0,3230412740,63
o,1723653181.032804,172.16.5.2,24007,172.16.1.2,5102,2896,7252,2086,64256,65728,6,6,4,1460,198437,1,1092625376,570000,74540,70196,65700,0,4344,0,3230412740,63
o,1723653181.033547,172.16.5.2,24007,172.16.1.2,5102,2896,7252,2086,64256,65728,6,6,4,1460,198437,1,1092625376,570000,74540,70196,65700,0,5792,0,3230412740,63
i,1723653181.116722,172.16.5.2,24007,172.16.1.2,5102,2896,7252,2086,64256,65728,6,6,4,1460,198437,1,1092625376,570000,74540,74540,65700,0,7240,0,3230412740,63
o,1723653181.116822,172.16.5.2,24007,172.16.1.2,5102,2896,7252,2086,65728,65728,6,6,4,1460,202500,1,1092625376,570000,74540,73092,65700,0,5792,0,3230412740,63
i,1723653181.181702,172.16.5.2,24007,172.16.1.2,5102,2896,7252,2086,65728,65728,6,6,4,1460,202500,1,1092625376,570000,74540,73092,65700,0,7240,0,3230412740,63
o,1723653181.181793,172.16.5.2,24007,172.16.1.2,5102,2896,8712,2086,65728,65728,6,6,4,1460,214687,1,1092625376,630000,74540,71644,65700,0,5792,0,3230412740,63
i,1723653181.212730,172.16.5.2,24007,172.16.1.2,5102,2896,8712,2086,65728,65728,6,6,4,1460,214687,1,1092625376,630000,74540,74540,65700,0,8688,0,3230412740,63
o,1723653181.212837,172.16.5.2,24007,172.16.1.2,5102,2896,8712,2086,64256,65728,6,6,4,1460,223125,1,1092625376,660000,74540,71644,65700,0,5792,0,3230412740,63
o,1723653181.212993,172.16.5.2,24007,172.16.1.2,5102,2896,8712,2086,64256,65728,6,6,4,1460,223125,1,1092625376,660000,74540,71644,65700,0,7240,0,3230412740,63
i,1723653181.243153,172.16.5.2,24007,172.16.1.2,5102,2896,8712,2086,64256,65728,6,6,4,1460,223125,1,1092625376,660000,74540,74540,65700,0,8688,0,3230412740,63
o,1723653181.243198,172.16.5.2,24007,172.16.1.2,5102,2896,8712,2086,65728,65728,6,6,4,1460,220312,1,1092625376,620000,74540,73092,65700,0,7240,0,3230412740,63
i,1723653181.303194,172.16.5.2,24007,172.16.1.2,5102,2896,8712,2086,65728,65728,6,6,4,1460,220312,1,1092625376,620000,74540,73092,65700,0,8688,0,3230412740,63
o,1723653181.303302,172.16.5.2,24007,172.16.1.2,5102,2896,8712,2086,65728,65728,6,6,4,1460,215312,1,1092625376,600000,74540,71644,65700,0,7240,0,3230412740,63
i,1723653181.398971,172.16.5.2,24007,172.16.1.2,5102,2896,8712,2086,65728,65728,6,6,4,1460,215312,1,1092625376,600000,74540,74540,65700,0,8688,0,3230412740,63
o,1723653181.399029,172.16.5.2,24007,172.16.1.2,5102,2896,10172,2086,64256,65728,6,6,4,1460,214687,1,1092625376,560000,74540,71644,65700,0,5792,0,3230412740,63
i,1723653181.450454,172.16.5.2,24007,172.16.1.2,5102,2896,10172,2086,64256,65728,6,6,4,1460,214687,1,1092625376,560000,74540,74540,65700,0,10136,0,3230412740,63
o,1723653181.450565,172.16.5.2,24007,172.16.1.2,5102,2896,10172,2086,64256,65728,6,6,4,1460,216875,1,1092625376,540000,74540,71644,65700,0,7240,0,3230412740,63
o,1723653181.450741,172.16.5.2,24007,172.16.1.2,5102,2896,10172,2086,64256,65728,6,6,4,1460,216875,1,1092625376,540000,74540,71644,65700,0,8688,0,3230412740,63
i,1723653181.532573,172.16.5.2,24007,172.16.1.2,5102,2896,10172,2086,64256,65728,6,6,4,1460,216875,1,1092625376,540000,74540,74540,65700,0,10136,0,3230412740,63
o,1723653181.532751,172.16.5.2,24007,172.16.1.2,5102,2896,10172,2086,65728,65728,6,6,4,1460,226250,1,1092625376,590000,74540,73092,65700,0,8688,0,3230412740,63
i,1723653181.580366,172.16.5.2,24007,172.16.1.2,5102,2896,10172,2086,65728,65728,6,6,4,1460,226250,1,1092625376,590000,74540,73092,65700,0,10136,0,3230412740,63
o,1723653181.580533,172.16.5.2,24007,172.16.1.2,5102,2896,10172,2086,64256,65728,6,6,4,1460,233125,1,1092625376,610000,74540,70196,65700,0,7240,0,3230412740,63
i,1723653181.631032,172.16.5.2,24007,172.16.1.2,5102,2896,10172,2086,64256,65728,6,6,4,1460,233125,1,1092625376,610000,74540,74540,65700,0,10136,0,3230412740,63
o,1723653181.631260,172.16.5.2,24007,172.16.1.2,5102,2896,10172,2086,65728,65728,6,6,4,1460,232812,1,1092625376,570000,74540,73092,65700,0,8688,0,3230412740,63
i,1723653181.714556,172.16.5.2,24007,172.16.1.2,5102,2896,10172,2086,65728,65728,6,6,4,1460,232812,1,1092625376,570000,74540,73092,65700,0,10136,0,3230412740,63
o,1723653181.714844,172.16.5.2,24007,172.16.1.2,5102,2896,11632,2086,64256,65728,6,6,4,1460,242500,1,1092625376,620000,74540,70196,65700,0,7240,0,3230412740,63
o,1723653181.715021,172.16.5.2,24007,172.16.1.2,5102,2896,11632,2086,64256,65728,6,6,4,1460,242500,1,1092625376,620000,74540,70196,65700,0,8688,0,3230412740,63
i,1723653181.801994,172.16.5.2,24007,172.16.1.2,5102,2896,11632,2086,64256,65728,6,6,4,1460,242500,1,1092625376,620000,74540,74540,65700,0,11584,0,3230412740,63
o,1723653181.802078,172.16.5.2,24007,172.16.1.2,5102,2896,11632,2086,64256,65728,6,6,4,1460,255937,1,1092625376,700000,74540,71644,65700,0,8688,0,3230412740,63
i,1723653181.863721,172.16.5.2,24007,172.16.1.2,5102,2896,11632,2086,64256,65728,6,6,4,1460,255937,1,1092625376,700000,74540,74540,65700,0,11584,0,3230412740,63
o,1723653181.863794,172.16.5.2,24007,172.16.1.2,5102,2896,11632,2086,64256,65728,6,6,4,1460,257812,1,1092625376,660000,74540,71644,65700,0,8688,0,3230412740,63
i,1723653181.946641,172.16.5.2,24007,172.16.1.2,5102,2896,11632,2086,64256,65728,6,6,4,1460,257812,1,1092625376,660000,74540,74540,65700,0,11584,0,3230412740,63
o,1723653181.946721,172.16.5.2,24007,172.16.1.2,5102,2896,11632,2086,65728,65728,6,6,4,1460,264375,1,1092625376,660000,74540,73092,65700,0,10136,0,3230412740,63
i,1723653182.040079,172.16.5.2,24007,172.16.1.2,5102,2896,11632,2086,65728,65728,6,6,4,1460,264375,1,1092625376,660000,74540,73092,65700,0,11584,0,3230412740,63
o,1723653182.040264,172.16.5.2,24007,172.16.1.2,5102,2896,13092,2086,64256,65728,6,6,4,1460,271562,1,1092625376,680000,74540,70196,65700,0,8688,0,3230412740,63
o,1723653182.040582,172.16.5.2,24007,172.16.1.2,5102,2896,13092,2086,64256,65728,6,6,4,1460,271562,1,1092625376,680000,74540,70196,65700,0,10136,0,3230412740,63
i,1723653182.082270,172.16.5.2,24007,172.16.1.2,5102,2896,13092,2086,64256,65728,6,6,4,1460,271562,1,1092625376,680000,74540,74540,65700,0,13032,0,3230412740,63
o,1723653182.082380,172.16.5.2,24007,172.16.1.2,5102,2896,13092,2086,64256,65728,6,6,4,1460,282812,1,1092625376,730000,74540,71644,65700,0,10136,0,3230412740,63
i,1723653182.174569,172.16.5.2,24007,172.16.1.2,5102,2896,13092,2086,64256,65728,6,6,4,1460,282812,1,1092625376,730000,74540,74540,65700,0,13032,0,3230412740,63
o,1723653182.174644,172.16.5.2,24007,172.16.1.2,5102,2896,13092,2086,65728,65728,6,6,4,1460,293750,1,1092625376,760000,74540,73092,65700,0,11584,0,3230412740,63
i,1723653182.242112,172.16.5.2,24007,172.16.1.2,5102,2896,13092,2086,65728,65728,6,6,4,1460,293750,1,1092625376,760000,74540,73092,65700,0,13032,0,3230412740,63
o,1723653182.242190,172.16.5.2,24007,172.16.1.2,5102,2896,13092,2086,65728,65728,6,6,4,1460,304687,1,1092625376,790000,74540,71644,65700,0,11584,0,3230412740,63
i,1723653182.330991,172.16.5.2,24007,172.16.1.2,5102,2896,13092,2086,65728,65728,6,6,4,1460,304687,1,1092625376,790000,74540,74540,65700,0,13032,0,3230412740,63
o,1723653182.331110,172.16.5.2,24007,172.16.1.2,5102,2896,13092,2086,65728,65728,6,6,4,1460,325625,1,1092625376,910000,74540,73092,65700,0,11584,0,3230412740,63
i,1723653182.413164,172.16.5.2,24007,172.16.1.2,5102,2896,13092,2086,65728,65728,6,6,4,1460,325625,1,1092625376,910000,74540,73092,65700,0,13032,0,3230412740,63
o,1723653182.413290,172.16.5.2,24007,172.16.1.2,5102,2896,13092,2086,64256,65728,6,6,4,1460,343750,1,1092625376,980000,74540,70196,65700,0,10136,0,3230412740,63
o,1723653182.414317,172.16.5.2,24007,172.16.1.2,5102,2896,13092,2086,64256,65728,6,6,4,1460,343750,1,1092625376,980000,74540,70196,65700,0,11584,0,3230412740,63
i,1723653182.472265,172.16.5.2,24007,172.16.1.2,5102,2896,13092,2086,64256,65728,6,6,4,1460,343750,1,1092625376,980000,74540,74540,65700,0,13032,0,3230412740,63
o,1723653182.472384,172.16.5.2,24007,172.16.1.2,5102,2896,14552,2086,64256,65728,6,6,4,1460,354687,1,1092625376,970000,74540,71644,65700,0,10136,0,3230412740,63
i,1723653182.583475,172.16.5.2,24007,172.16.1.2,5102,2896,14552,2086,64256,65728,6,6,4,1460,354687,1,1092625376,970000,74540,74540,65700,0,14480,0,3230412740,63
o,1723653182.583504,172.16.5.2,24007,172.16.1.2,5102,2896,14552,2086,64256,65728,6,6,4,1460,373125,1,1092625376,1030000,74540,71644,65700,0,11584,0,3230412740,63
i,1723653182.662052,172.16.5.2,24007,172.16.1.2,5102,2896,14552,2086,64256,65728,6,6,4,1460,373125,1,1092625376,1030000,74540,74540,65700,0,14480,0,3230412740,63
o,1723653182.662748,172.16.5.2,24007,172.16.1.2,5102,2896,14552,2086,64256,65728,6,6,4,1460,387812,1,1092625376,1050000,74540,71644,65700,0,11584,0,3230412740,63
i,1723653182.764724,172.16.5.2,24007,172.16.1.2,5102,2896,14552,2086,64256,65728,6,6,4,1460,387812,1,1092625376,1050000,74540,74540,65700,0,14480,0,3230412740,63
o,1723653182.764798,172.16.5.2,24007,172.16.1.2,5102,2896,14552,2086,64256,65728,6,6,4,1460,393125,1,1092625376,980000,74540,71644,65700,0,11584,0,3230412740,63
o,1723653182.764922,172.16.5.2,24007,172.16.1.2,5102,2896,14552,2086,64256,65728,6,6,4,1460,393125,1,1092625376,980000,74540,71644,65700,0,13032,0,3230412740,63
i,1723653182.825225,172.16.5.2,24007,172.16.1.2,5102,2896,14552,2086,64256,65728,6,6,4,1460,393125,1,1092625376,980000,74540,74540,65700,0,14480,0,3230412740,63
o,1723653182.825355,172.16.5.2,24007,172.16.1.2,5102,2896,15928,2082,64256,65728,6,6,4,1460,393125,1,1092625376,980000,74540,74540,65700,0,14480,0,3230412740,63
i,1723653182.908693,172.16.5.2,24007,172.16.1.2,5102,2896,14552,2082,64256,65728,6,6,4,1460,393125,1,1092625376,980000,74540,74540,65700,0,15928,0,3230412740,63
o,1723653182.908770,172.16.5.2,24007,172.16.1.2,5102,2896,17376,2082,64256,65728,6,6,4,1460,393125,1,1092625376,980000,74540,74540,65700,0,15928,0,3230412740,63
i,1723653182.974245,172.16.5.2,24007,172.16.1.2,5102,2896,14552,2082,64256,65728,6,6,4,1460,393125,1,1092625376,980000,74540,74540,65700,0,17376,0,3230412740,63
o,1723653182.974274,172.16.5.2,24007,172.16.1.2,5102,7276,1448,2146,64256,65728,6,6,4,1460,393125,1,1630544864,980000,74540,74540,65700,0,17376,0,3230412740,63
i,1723653183.002263,172.16.5.2,24007,172.16.1.2,5102,7276,1448,2146,64256,65728,6,6,4,1460,393125,1,1630544864,980000,74540,74540,65700,0,17376,0,3230412740,63
i,1723653183.024214,172.16.5.2,24007,172.16.1.2,5102,7276,1448,2146,64256,65728,6,6,4,1460,393125,1,1630544864,980000,74540,74540,65700,0,17376,0,3230412740,63
o,1723653183.024270,172.16.5.2,24007,172.16.1.2,5102,7276,2896,2146,64256,65728,6,6,4,1460,393125,1,1630544864,980000,74540,74540,65700,0,17376,0,3230412740,63
i,1723653183.081248,172.16.5.2,24007,172.16.1.2,5102,7276,2896,2146,64256,65728,6,6,4,1460,393125,1,1630544864,980000,74540,74540,65700,0,17376,0,3230412740,63
i,1723653183.133987,172.16.5.2,24007,172.16.1.2,5102,7276,2896,2146,64256,65728,6,6,4,1460,393125,1,1630544864,980000,74540,74540,65700,0,17376,0,3230412740,63
o,1723653183.134013,172.16.5.2,24007,172.16.1.2,5102,7276,2896,2146,64256,65728,6,6,4,1460,393125,1,1630544865,980000,74540,74540,65700,0,17376,0,3230412740,63
i,1723653183.198295,172.16.5.2,24007,172.16.1.2,5102,7276,2896,2146,62848,65728,6,6,4,1460,364062,1,1630544864,1090000,74540,74540,65700,0,14480,0,3230412740,63
o,1723653183.198321,172.16.5.2,24007,172.16.1.2,5102,7276,1448,2146,62848,65728,6,6,4,1460,364062,1,1613767649,1090000,74540,74540,65700,0,14480,0,3230412740,63
i,1723653183.312560,172.16.5.2,24007,172.16.1.2,5102,7276,1448,2146,64256,65728,6,6,4,1460,340000,1,1613767648,1130000,74540,73092,65700,0,13032,0,3230412740,63
o,1723653183.312608,172.16.5.2,24007,172.16.1.2,5102,7276,1448,2146,64256,65728,6,6,4,1460,340000,1,1630544865,1130000,74540,73092,65700,0,13032,0,3230412740,63
i,1723653183.468204,172.16.5.2,24007,172.16.1.2,5102,7276,1448,2146,62848,65728,6,6,4,1460,320000,1,1630544864,1120000,74540,74540,65700,0,10136,0,3230412740,63
o,1723653183.468233,172.16.5.2,24007,172.16.1.2,5102,7276,2896,2146,62848,65728,6,6,4,1460,320000,1,1630544865,1120000,74540,74540,65700,0,10136,0,3230412740,63
o,1723653183.468350,172.16.5.2,24007,172.16.1.2,5102,7276,2896,2082,62848,65728,6,6,4,1460,320000,1,1630544864,1120000,74540,74540,65700,0,10136,0,3230412740,63
i,1723653183.670421,172.16.5.2,24007,172.16.1.2,5102,7276,2896,2082,58496,65728,6,6,4,1460,298750,1,1630544864,1120000,74540,74540,65700,0,4344,0,3230412740,63
o,1723653183.670459,172.16.5.2,24007,172.16.1.2,5102,7276,5792,2082,58496,65728,6,6,4,1460,298750,1,1630544864,1120000,74540,74540,65700,0,4344,0,3230412740,63
o,1723653183.670582,172.16.5.2,24007,172.16.1.2,5102,7276,5792,2082,58496,65728,6,6,4,1460,298750,1,1630544864,1120000,74540,74540,65700,0,4344,0,3230412740,63
i,1723653183.670732,172.16.5.2,24007,172.16.1.2,5102,7276,5792,2082,58496,65728,6,6,4,1460,298750,1,1630544864,1120000,74540,74540,65700,0,5792,0,3230412740,63
o,1723653183.670747,172.16.5.2,24007,172.16.1.2,5102,7276,7240,2082,58496,65728,6,6,4,1460,298750,1,1630544864,1120000,74540,74540,65700,0,5792,0,3230412740,63
i,1723653183.831077,172.16.5.2,24007,172.16.1.2,5102,7276,7240,2082,58496,65728,6,6,4,1460,298750,1,1630544864,1120000,74540,74540,65700,0,7240,0,3230412740,63
o,1723653183.831110,172.16.5.2,24007,172.16.1.2,5102,7276,5804,2086,61440,65728,6,6,4,1460,281562,1,1092625376,1080000,74540,70196,65700,0,2896,0,3230412740,63
o,1723653183.831226,172.16.5.2,24007,172.16.1.2,5102,7276,5804,2086,61440,65728,6,6,4,1460,281562,1,1092625376,1080000,74540,70196,65700,0,4344,0,3230412740,63
i,1723653183.902995,172.16.5.2,24007,172.16.1.2,5102,7276,5804,2086,61440,65728,6,6,4,1460,281562,1,1092625376,1080000,74540,74540,65700,0,5792,0,3230412740,63
o,1723653183.903116,172.16.5.2,24007,172.16.1.2,5102,7276,8700,2086,64256,65728,6,6,4,1460,275312,1,1092625376,980000,74540,71644,65700,0,2896,0,3230412740,63
i,1723653184.022957,172.16.5.2,24007,172.16.1.2,5102,7276,8700,2086,64256,65728,6,6,4,1460,275312,1,1092625376,980000,74540,74540,65700,0,8688,0,3230412740,63
o,1723653184.023054,172.16.5.2,24007,172.16.1.2,5102,7276,8700,2086,64256,65728,6,6,4,1460,264687,1,1092625376,920000,74540,71644,65700,0,5792,0,3230412740,63
o,1723653184.023167,172.16.5.2,24007,172.16.1.2,5102,7276,8700,2086,64256,65728,6,6,4,1460,264687,1,1092625376,920000,74540,71644,65700,0,7240,0,3230412740,63
i,1723653184.142109,172.16.5.2,24007,172.16.1.2,5102,7276,8700,2086,64256,65728,6,6,4,1460,264687,1,1092625376,920000,74540,74540,65700,0,8688,0,3230412740,63
o,1723653184.142188,172.16.5.2,24007,172.16.1.2,5102,7276,8700,2086,64256,65728,6,6,4,1460,261875,1,1092625376,830000,74540,71644,65700,0,5792,0,3230412740,63
i,1723653184.213958,172.16.5.2,24007,172.16.1.2,5102,7276,8700,2086,64256,65728,6,6,4,1460,261875,1,1092625376,830000,74540,74540,65700,0,8688,0,3230412740,63
o,1723653184.214033,172.16.5.2,24007,172.16.1.2,5102,7276,8700,2086,64256,65728,6,6,4,1460,268125,1,1092625376,790000,74540,71644,65700,0,5792,0,3230412740,63
i,1723653184.332622,172.16.5.2,24007,172.16.1.2,5102,7276,8700,2086,64256,65728,6,6,4,1460,268125,1,1092625376,790000,74540,74540,65700,0,8688,0,3230412740,63
o,1723653184.332693,172.16.5.2,24007,172.16.1.2,5102,7276,10160,2086,64256,65728,6,6,4,1460,272187,1,1092625376,750000,74540,71644,65700,0,5792,0,3230412740,63
o,1723653184.332849,172.16.5.2,24007,172.16.1.2,5102,7276,10160,2086,64256,65728,6,6,4,1460,272187,1,1092625376,750000,74540,71644,65700,0,7240,0,3230412740,63
i,1723653184.410894,172.16.5.2,24007,172.16.1.2,5102,7276,10160,2086,64256,65728,6,6,4,1460,272187,1,1092625376,750000,74540,74540,65700,0,10136,0,3230412740,63
o,1723653184.410950,172.16.5.2,24007,172.16.1.2,5102,7276,10160,2086,65728,65728,6,6,4,1460,270937,1,1092625376,690000,74540,73092,65700,0,8688,0,3230412740,63
i,1723653184.451709,172.16.5.2,24007,172.16.1.2,5102,7276,10160,2086,65728,65728,6,6,4,1460,270937,1,1092625376,690000,74540,73092,65700,0,10136,0,3230412740,63
o,1723653184.451736,172.16.5.2,24007,172.16.1.2,5102,7276,10160,2086,64256,65728,6,6,4,1460,274687,1,1092625376,660000,74540,70196,65700,0,7240,0,3230412740,63
i,1723653184.586392,172.16.5.2,24007,172.16.1.2,5102,7276,10160,2086,64256,65728,6,6,4,1460,274687,1,1092625376,660000,74540,74540,65700,0,10136,0,3230412740,63
o,1723653184.586467,172.16.5.2,24007,172.16.1.2,5102,7276,10160,2086,65728,65728,6,6,4,1460,286875,1,1092625376,730000,74540,73092,65700,0,8688,0,3230412740,63
i,1723653184.621360,172.16.5.2,24007,172.16.1.2,5102,7276,10160,2086,65728,65728,6,6,4,1460,286875,1,1092625376,730000,74540,73092,65700,0,10136,0,3230412740,63
o,1723653184.621431,172.16.5.2,24007,172.16.1.2,5102,7276,11620,2086,64256,65728,6,6,4,1460,287500,1,1092625376,670000,74540,70196,65700,0,7240,0,3230412740,63
o,1723653184.621547,172.16.5.2,24007,172.16.1.2,5102,7276,11620,2086,64256,65728,6,6,4,1460,287500,1,1092625376,670000,74540,70196,65700,0,8688,0,3230412740,63
i,1723653184.723160,172.16.5.2,24007,172.16.1.2,5102,7276,11620,2086,64256,65728,6,6,4,1460,287500,1,1092625376,670000,74540,74540,65700,0,11584,0,3230412740,63
o,1723653184.723267,172.16.5.2,24007,172.16.1.2,5102,7276,11620,2086,64256,65728,6,6,4,1460,300312,1,1092625376,740000,74540,71644,65700,0,8688,0,3230412740,63
i,1723653184.831205,172.16.5.2,24007,172.16.1.2,5102,7276,11620,2086,64256,65728,6,6,4,1460,300312,1,1092625376,740000,74540,74540,65700,0,11584,0,3230412740,63
o,1723653184.831237,172.16.5.2,24007,172.16.1.2,5102,7276,11620,2086,64256,65728,6,6,4,1460,310312,1,1092625376,770000,74540,71644,65700,0,8688,0,3230412740,63
i,1723653184.922635,172.16.5.2,24007,172.16.1.2,5102,7276,11620,2086,64256,65728,6,6,4,1460,310312,1,1092625376,770000,74540,74540,65700,0,11584,0,3230412740,63
o,1723653184.922735,172.16.5.2,24007,172.16.1.2,5102,7276,11620,2086,65728,65728,6,6,4,1460,314062,1,1092625376,740000,74540,73092,65700,0,10136,0,3230412740,63
i,1723653185.001583,172.16.5.2,24007,172.16.1.2,5102,7276,11620,2086,65728,65728,6,6,4,1460,314062,1,1092625376,740000,74540,73092,65700,0,11584,0,3230412740,63
o,1723653185.001711,172.16.5.2,24007,172.16.1.2,5102,7276,11620,2086,64256,65728,6,6,4,1460,322500,1,1092625376,760000,74540,70196,65700,0,8688,0,3230412740,63
o,1723653185.001918,172.16.5.2,24007,172.16.1.2,5102,7276,11620,2086,64256,65728,6,6,4,1460,322500,1,1092625376,760000,74540,70196,65700,0,10136,0,3230412740,63
i,1723653185.061623,172.16.5.2,24007,172.16.1.2,5102,7276,11620,2086,64256,65728,6,6,4,1460,322500,1,1092625376,760000,74540,74540,65700,0,11584,0,3230412740,63
o,1723653185.061697,172.16.5.2,24007,172.16.1.2,5102,7276,13080,2086,65728,65728,6,6,4,1460,337187,1,1092625376,830000,74540,73092,65700,0,10136,0,3230412740,63
i,1723653185.125685,172.16.5.2,24007,172.16.1.2,5102,7276,13080,2086,65728,65728,6,6,4,1460,337187,1,1092625376,830000,74540,73092,65700,0,13032,0,3230412740,63
o,1723653185.125757,172.16.5.2,24007,172.16.1.2,5102,7276,13080,2086,64256,65728,6,6,4,1460,345312,1,1092625376,830000,74540,70196,65700,0,10136,0,3230412740,63
i,1723653185.232067,172.16.5.2,24007,172.16.1.2,5102,7276,13080,2086,64256,65728,6,6,4,1460,345312,1,1092625376,830000,74540,74540,65700,0,13032,0,3230412740,63
o,1723653185.232373,172.16.5.2,24007,172.16.1.2,5102,7276,13080,2086,64256,65728,6,6,4,1460,352187,1,1092625376,820000,74540,71644,65700,0,10136,0,3230412740,63
i,1723653185.379899,172.16.5.2,24007,172.16.1.2,5102,7276,13080,2086,64256,65728,6,6,4,1460,352187,1,1092625376,820000,74540,74540,65700,0,13032,0,3230412740,63
o,1723653185.379988,172.16.5.2,24007,172.16.1.2,5102,7276,13080,2086,65728,65728,6,6,4,1460,365937,1,1092625376,880000,74540,73092,65700,0,11584,0,3230412740,63
i,1723653185.431663,172.16.5.2,24007,172.16.1.2,5102,7276,13080,2086,65728,65728,6,6,4,1460,365937,1,1092625376,880000,74540,73092,65700,0,13032,0,3230412740,63
o,1723653185.431740,172.16.5.2,24007,172.16.1.2,5102,7276,13080,2086,64256,65728,6,6,4,1460,374062,1,1092625376,870000,74540,70196,65700,0,10136,0,3230412740,63
o,1723653185.431883,172.16.5.2,24007,172.16.1.2,5102,7276,13080,2086,64256,65728,6,6,4,1460,374062,1,1092625376,870000,74540,70196,65700,0,11584,0,3230412740,63
i,1723653185.483553,172.16.5.2,24007,172.16.1.2,5102,7276,13080,2086,64256,65728,6,6,4,1460,374062,1,1092625376,870000,74540,74540,65700,0,13032,0,3230412740,63
o,1723653185.483626,172.16.5.2,24007,172.16.1.2,5102,7276,14540,2086,64256,65728,6,6,4,1460,378750,1,1092625376,840000,74540,71644,65700,0,10136,0,3230412740,63
i,1723653185.522766,172.16.5.2,24007,172.16.1.2,5102,7276,14540,2086,64256,65728,6,6,4,1460,378750,1,1092625376,840000,74540,74540,65700,0,14480,0,3230412740,63
o,1723653185.522814,172.16.5.2,24007,172.16.1.2,5102,7276,15928,2082,64256,65728,6,6,4,1460,378750,1,1092625376,840000,74540,74540,65700,0,14480,0,3230412740,63
i,1723653185.562116,172.16.5.2,24007,172.16.1.2,5102,7276,14540,2082,64256,65728,6,6,4,1460,378750,1,1092625376,840000,74540,74540,65700,0,15928,0,3230412740,63
o,1723653185.562138,172.16.5.2,24007,172.16.1.2,5102,7276,17376,2082,64256,65728,6,6,4,1460,378750,1,1092625376,840000,74540,74540,65700,0,15928,0,3230412740,63
i,1723653185.572663,172.16.5.2,24007,172.16.1.2,5102,7276,14540,2082,64256,65728,6,6,4,1460,378750,1,1092625376,840000,74540,74540,65700,0,17376,0,3230412740,63
i,1723653185.642090,172.16.5.2,24007,172.16.1.2,5102,7270,1448,2146,64256,65728,6,6,4,1460,378750,1,1630544864,840000,74540,74540,65700,0,17376,0,3230412740,63
o,1723653185.642140,172.16.5.2,24007,172.16.1.2,5102,7270,2896,2146,64256,65728,6,6,4,1460,378750,1,1630544864,840000,74540,74540,65700,0,17376,0,3230412740,63
i,1723653185.741970,172.16.5.2,24007,172.16.1.2,5102,7270,2896,2146,64256,65728,6,6,4,1460,378750,1,1630544864,840000,74540,74540,65700,0,17376,0,3230412740,63
o,1723653185.741998,172.16.5.2,24007,172.16.1.2,5102,7270,4344,2146,64256,65728,6,6,4,1460,378750,1,1630544864,840000,74540,74540,65700,0,17376,0,3230412740,63
i,1723653185.803702,172.16.5.2,24007,172.16.1.2,5102,7270,4344,2146,64256,65728,6,6,4,1460,378750,1,1630544864,840000,74540,74540,65700,0,17376,0,3230412740,63
i,1723653185.822795,172.16.5.2,24007,172.16.1.2,5102,7270,4344,2146,64256,65728,6,6,4,1460,378750,1,1630544864,840000,74540,74540,65700,0,17376,0,3230412740,63
o,1723653185.822815,172.16.5.2,24007,172.16.1.2,5102,7270,5792,2082,64256,65728,6,6,4,1460,378750,1,1630544864,840000,74540,74540,65700,0,17376,0,3230412740,63
i,1723653185.871465,172.16.5.2,24007,172.16.1.2,5102,7270,5792,2082,64256,65728,6,6,4,1460,378750,1,1630544864,840000,74540,74540,65700,0,18824,0,3230412740,63
i,1723653185.872075,172.16.5.2,24007,172.16.1.2,5102,7270,5792,2082,64256,65728,6,6,4,1460,378750,1,1630544864,840000,74540,74540,65700,0,18824,0,3230412740,63
i,1723653185.912796,172.16.5.2,24007,172.16.1.2,5102,7270,5792,2082,64256,65728,6,6,4,1460,378750,1,1630544864,840000,74540,74540,65700,0,18824,0,3230412740,63
o,1723653185.912871,172.16.5.2,24007,172.16.1.2,5102,7270,7240,2082,64256,65728,6,6,4,1460,378750,1,1630544864,840000,74540,74540,65700,0,18824,0,3230412740,63
i,1723653185.986040,172.16.5.2,24007,172.16.1.2,5102,7270,7240,2082,64256,65728,6,6,4,1460,378750,1,1630544864,840000,74540,74540,65700,0,20272,0,3230412740,63
o,1723653185.986067,172.16.5.2,24007,172.16.1.2,5102,7270,5792,2082,64256,65728,6,6,4,1460,378750,1,1630544865,840000,74540,74540,65700,0,20272,0,3230412740,63
i,1723653186.016091,172.16.5.2,24007,172.16.1.2,5102,7270,5792,2082,58496,65728,6,6,4,1460,372812,1,1630544864,820000,74540,74540,65700,0,13032,0,3230412740,63
o,1723653186.016190,172.16.5.2,24007,172.16.1.2,5102,7270,7240,2082,58496,65728,6,6,4,1460,372812,1,1630544864,820000,74540,74540,65700,0,13032,0,3230412740,63
i,1723653186.068210,172.16.5.2,24007,172.16.1.2,5102,7270,7240,2082,58496,65728,6,6,4,1460,372812,1,1630544864,820000,74540,74540,65700,0,14480,0,3230412740,63
o,1723653186.068233,172.16.5.2,24007,172.16.1.2,5102,7270,8688,2082,58496,65728,6,6,4,1460,372812,1,1630544864,820000,74540,74540,65700,0,14480,0,3230412740,63
i,1723653186.171612,172.16.5.2,24007,172.16.1.2,5102,7270,8688,2082,58496,65728,6,6,4,1460,372812,1,1630544864,820000,74540,74540,65700,0,15928,0,3230412740,63
o,1723653186.171641,172.16.5.2,24007,172.16.1.2,5102,7270,10136,2082,58496,65728,6,6,4,1460,372812,1,1630544864,820000,74540,74540,65700,0,15928,0,3230412740,63
i,1723653186.204230,172.16.5.2,24007,172.16.1.2,5102,7270,10136,2082,58496,65728,6,6,4,1460,372812,1,1630544864,820000,74540,74540,65700,0,17376,0,3230412740,63
o,1723653186.204259,172.16.5.2,24007,172.16.1.2,5102,7270,11584,2082,58496,65728,6,6,4,1460,372812,1,1630544864,820000,74540,74540,65700,0,17376,0,3230412740,63
i,1723653186.320671,172.16.5.2,24007,172.16.1.2,5102,7270,11584,2082,58496,65728,6,6,4,1460,372812,1,1630544864,820000,74540,74540,65700,0,18824,0,3230412740,63
o,1723653186.320701,172.16.5.2,24007,172.16.1.2,5102,7270,13032,2082,58496,65728,6,6,4,1460,372812,1,1630544864,820000,74540,74540,65700,0,18824,0,3230412740,63
i,1723653186.366091,172.16.5.2,24007,172.16.1.2,5102,7270,13032,2082,58496,65728,6,6,4,1460,372812,1,1630544864,820000,74540,74540,65700,0,20272,0,3230412740,63
o,1723653186.366127,172.16.5.2,24007,172.16.1.2,5102,7270,14480,2082,58496,65728,6,6,4,1460,372812,1,1630544864,820000,74540,74540,65700,0,20272,0,3230412740,63
i,1723653186.501949,172.16.5.2,24007,172.16.1.2,5102,7270,14480,2082,58496,65728,6,6,4,1460,372812,1,1630544864,820000,74540,74540,65700,0,21720,0,3230412740,63
o,1723653186.502133,172.16.5.2,24007,172.16.1.2,5102,7270,15928,2082,58496,65728,6,6,4,1460,372812,1,1630544864,820000,74540,74540,65700,0,21720,0,3230412740,63
i,1723653186.535415,172.16.5.2,24007,172.16.1.2,5102,7270,15928,2082,58496,65728,6,6,4,1460,372812,1,1630544864,820000,74540,74540,65700,0,23168,0,3230412740,63
o,1723653186.535436,172.16.5.2,24007,172.16.1.2,5102,7270,17376,2082,58496,65728,6,6,4,1460,372812,1,1630544864,820000,74540,74540,65700,0,23168,0,3230412740,63
i,1723653186.641897,172.16.5.2,24007,172.16.1.2,5102,7270,17376,2082,58496,65728,6,6,4,1460,372812,1,1630544864,820000,74540,74540,65700,0,24616,0,3230412740,63
o,1723653186.642084,172.16.5.2,24007,172.16.1.2,5102,7270,18824,2082,58496,65728,6,6,4,1460,372812,1,1630544864,820000,74540,74540,65700,0,24616,0,3230412740,63
i,1723653186.672257,172.16.5.2,24007,172.16.1.2,5102,7270,18824,2082,58496,65728,6,6,4,1460,372812,1,1630544864,820000,74540,74540,65700,0,26064,0,3230412740,63
o,1723653186.672280,172.16.5.2,24007,172.16.1.2,5102,7270,20272,2082,58496,65728,6,6,4,1460,372812,1,1630544864,820000,74540,74540,65700,0,26064,0,3230412740,63
i,1723653186.783136,172.16.5.2,24007,172.16.1.2,5102,7270,20272,2082,58496,65728,6,6,4,1460,372812,1,1630544864,820000,74540,74540,65700,0,27512,0,3230412740,63
o,1723653186.783184,172.16.5.2,24007,172.16.1.2,5102,7270,21720,2082,58496,65728,6,6,4,1460,372812,1,1630544864,820000,74540,74540,65700,0,27512,0,3230412740,63
o,1723653186.809191,172.16.5.2,24007,172.16.1.2,5102,10136,1448,2146,58496,65728,6,6,4,1460,372812,1,1092625377,1440000,74540,74540,65700,0,28960,0,3230412740,63
i,1723653186.811537,172.16.5.2,24007,172.16.1.2,5102,10136,1448,2146,58496,65728,6,6,4,1460,372812,1,1092625376,1440000,74540,74540,65700,0,28960,0,3230412740,63
o,1723653186.811556,172.16.5.2,24007,172.16.1.2,5102,7270,23168,2146,58496,65728,6,6,4,1460,372812,1,1630536672,1440000,74540,74540,65700,0,28960,0,3230412740,63
o,1723653186.811666,172.16.5.2,24007,172.16.1.2,5102,7270,23168,2086,58496,65728,6,6,4,1460,372812,1,1630536672,1440000,74540,74540,65700,0,28960,0,3230412740,63
i,1723653186.942881,172.16.5.2,24007,172.16.1.2,5102,7270,23168,2086,58496,65728,6,6,4,1460,372812,1,1630536672,1440000,74540,74540,65700,0,31856,0,3230412740,63
o,1723653186.942912,172.16.5.2,24007,172.16.1.2,5102,7270,24616,2082,58496,65728,6,6,4,1460,372812,1,1630536672,1440000,74540,74540,65700,0,31856,0,3230412740,63
i,1723653186.952018,172.16.5.2,24007,172.16.1.2,5102,7270,24616,2082,58496,65728,6,6,4,1460,372812,1,1630536672,1440000,74540,74540,65700,0,33304,0,3230412740,63
o,1723653186.952046,172.16.5.2,24007,172.16.1.2,5102,7270,5804,2086,36800,65728,6,6,4,1460,342500,1,1092617184,970000,74540,45580,65700,0,4344,0,3230412740,63
i,1723653186.952192,172.16.5.2,24007,172.16.1.2,5102,7270,5804,2086,36800,65728,6,6,4,1460,342500,1,1092617184,970000,74540,45580,65700,0,5792,0,3230412740,63
o,1723653186.952213,172.16.5.2,24007,172.16.1.2,5102,7270,7240,2082,36800,65728,6,6,4,1460,342500,1,1092617184,970000,74540,45580,65700,0,5792,0,3230412740,63
i,1723653186.972719,172.16.5.2,24007,172.16.1.2,5102,7270,5804,2082,36800,65728,6,6,4,1460,342500,1,1092617184,970000,74540,74540,65700,0,7240,0,3230412740,63
i,1723653186.991241,172.16.5.2,24007,172.16.1.2,5102,7270,5804,2082,65728,65728,6,6,4,1460,342500,1,1092617184,970000,74540,74540,65700,0,7240,0,3230412740,63
o,1723653186.991241,172.16.5.2,24007,172.16.1.2,5102,7270,7252,2086,65728,65728,6,6,4,1460,322187,1,1092617184,1000000,74540,73092,65700,0,5792,0,3230412740,63
i,1723653187.032320,172.16.5.2,24007,172.16.1.2,5102,7270,7252,2086,65728,65728,6,6,4,1460,322187,1,1092617184,1000000,74540,73092,65700,0,7240,0,3230412740,63
o,1723653187.032471,172.16.5.2,24007,172.16.1.2,5102,7270,8700,2086,65728,65728,6,6,4,1460,308437,1,1092617184,980000,74540,71644,65700,0,5792,0,3230412740,63
i,1723653187.093637,172.16.5.2,24007,172.16.1.2,5102,7270,8700,2086,65728,65728,6,6,4,1460,308437,1,1092617184,980000,74540,74540,65700,0,8688,0,3230412740,63
o,1723653187.093738,172.16.5.2,24007,172.16.1.2,5102,7270,8700,2086,64256,65728,6,6,4,1460,288750,1,1092617184,1000000,74540,71644,65700,0,5792,0,3230412740,63
o,1723653187.093896,172.16.5.2,24007,172.16.1.2,5102,7270,8700,2086,64256,65728,6,6,4,1460,288750,1,1092617184,1000000,74540,71644,65700,0,7240,0,3230412740,63
i,1723653187.185754,172.16.5.2,24007,172.16.1.2,5102,7270,8700,2086,64256,65728,6,6,4,1460,288750,1,1092617184,1000000,74540,74540,65700,0,8688,0,3230412740,63
o,1723653187.185953,172.16.5.2,24007,172.16.1.2,5102,7270,8700,2086,65728,65728,6,6,4,1460,281562,1,1092617184,920000,74540,73092,65700,0,7240,0,3230412740,63
i,1723653187.241476,172.16.5.2,24007,172.16.1.2,5102,7270,8700,2086,65728,65728,6,6,4,1460,281562,1,1092617184,920000,74540,73092,65700,0,8688,0,3230412740,63
o,1723653187.241689,172.16.5.2,24007,172.16.1.2,5102,7270,8700,2086,65728,65728,6,6,4,1460,277812,1,1092617184,840000,74540,71644,65700,0,7240,0,3230412740,63
i,1723653187.251676,172.16.5.2,24007,172.16.1.2,5102,7270,8700,2086,65728,65728,6,6,4,1460,277812,1,1092617184,840000,74540,74540,65700,0,8688,0,3230412740,63
o,1723653187.251750,172.16.5.2,24007,172.16.1.2,5102,7270,8700,2086,64256,65728,6,6,4,1460,270625,1,1092617184,800000,74540,71644,65700,0,5792,0,3230412740,63
i,1723653187.298679,172.16.5.2,24007,172.16.1.2,5102,7270,8700,2086,64256,65728,6,6,4,1460,270625,1,1092617184,800000,74540,74540,65700,0,8688,0,3230412740,63
o,1723653187.298703,172.16.5.2,24007,172.16.1.2,5102,7270,10160,2086,64256,65728,6,6,4,1460,261875,1,1092617184,780000,74540,71644,65700,0,5792,0,3230412740,63
o,1723653187.298836,172.16.5.2,24007,172.16.1.2,5102,7270,10160,2086,64256,65728,6,6,4,1460,261875,1,1092617184,780000,74540,71644,65700,0,7240,0,3230412740,63
i,1723653187.394068,172.16.5.2,24007,172.16.1.2,5102,7270,10160,2086,64256,65728,6,6,4,1460,261875,1,1092617184,780000,74540,74540,65700,0,10136,0,3230412740,63
o,1723653187.394163,172.16.5.2,24007,172.16.1.2,5102,7270,10160,2086,65728,65728,6,6,4,1460,254375,1,1092617184,750000,74540,73092,65700,0,8688,0,3230412740,63
