enable_time_secs=1723653694	enable_time_usecs=609915	siftrver=1.3.0	sysname=FreeBSD	sysver=1401000	ipmode=4
o,1723653694.610261,10.0.2.15,22,10.0.2.2,50600,1073725440,17746,1026,65535,65700,0,0,4,1460,312,0,16777220,230000,33580,172,65700,0,0,0,2842470536,63
i,1723653694.611107,10.0.2.15,22,10.0.2.2,50600,1073725440,17746,1026,65535,65700,0,0,4,1460,312,0,16777220,230000,33580,172,65700,0,172,0,2842470536,63
o,1723653694.611157,10.0.2.15,22,10.0.2.2,50600,1073725440,17918,1026,65535,65700,0,0,4,1460,312,0,16777220,230000,33580,72,65700,0,0,0,2842470536,63
i,1723653694.611718,10.0.2.15,22,10.0.2.2,50600,1073725440,17918,1026,65535,65700,0,0,4,1460,312,0,16777220,230000,33580,72,65700,0,72,0,2842470536,63
i,1723653694.611738,10.0.2.15,22,10.0.2.2,50600,1073725440,17990,1026,65535,65700,0,0,4,1460,312,0,4,230000,33580,0,65700,0,0,0,2842470536,63
i,1723653694.611753,10.0.2.15,22,10.0.2.2,50600,1073725440,17990,1026,65535,65700,0,0,4,1460,312,0,4,230000,33580,0,65700,96,0,0,2842470536,63
o,1723653694.611768,10.0.2.15,22,10.0.2.2,50600,1073725440,17990,1026,65535,65604,0,0,5,1460,312,0,5,230000,33580,0,65700,96,0,0,2842470536,63
o,1723653694.612272,10.0.2.15,22,10.0.2.2,50600,1073725440,17990,1026,65535,65604,0,0,8,1460,312,0,4,230000,33580,0,65700,0,0,0,2842470536,63
i,1723653694.612926,10.0.2.15,22,10.0.2.2,50600,1073725440,17990,1026,65535,65604,0,0,8,1460,312,0,67108884,230000,33580,0,65700,0,1,0,2842470536,63
i,1723653697.814229,10.0.2.15,22,10.0.2.2,50506,1073725440,14600,0,65535,65700,0,0,4,1460,312,0,16777216,270000,33580,0,65700,0,0,0,1263411658,63
o,1723653697.823773,10.0.2.15,22,10.0.2.2,50506,1073725440,14600,1026,65535,65700,0,0,4,1460,312,0,16777216,270000,33580,38,65700,42,0,0,1263411658,63
i,1723653697.825478,10.0.2.15,22,10.0.2.2,50506,1073725440,14600,1026,65535,65700,0,0,4,1460,312,0,16777216,270000,33580,38,65700,0,38,0,1263411658,63
i,1723653697.825507,10.0.2.15,22,10.0.2.2,50506,1073725440,14638,1026,65535,65700,0,0,4,1460,312,0,0,240000,33580,0,65700,0,0,0,1263411658,63
i,1723653697.825530,10.0.2.15,22,10.0.2.2,50506,1073725440,14638,1026,65535,65700,0,0,4,1460,312,0,0,240000,33580,0,65700,1460,0,0,1263411658,63
o,1723653697.825555,10.0.2.15,22,10.0.2.2,50506,1073725440,14638,1026,65535,65700,0,0,4,1460,312,0,1,240000,33580,0,65700,1536,0,0,1263411658,63
o,1723653697.826325,10.0.2.15,22,10.0.2.2,50506,1073725440,14638,1026,65535,65700,0,0,4,1460,312,0,16777216,240000,33580,1120,65700,1536,0,0,1263411658,63
i,1723653697.826950,10.0.2.15,22,10.0.2.2,50506,1073725440,14638,1026,65535,65700,0,0,4,1460,312,0,16777216,240000,33580,1120,65700,0,1120,0,1263411658,63
i,1723653697.828524,10.0.2.15,22,10.0.2.2,50506,1073725440,15758,1026,65535,65700,0,0,4,1460,312,0,0,240000,33580,0,65700,0,0,0,1263411658,63
o,1723653697.831082,10.0.2.15,22,10.0.2.2,50506,1073725440,15758,1026,65535,65700,0,0,4,1460,312,0,16777216,240000,33580,492,65700,0,0,0,1263411658,63
i,1723653697.831719,10.0.2.15,22,10.0.2.2,50506,1073725440,15758,1026,65535,65700,0,0,4,1460,312,0,16777216,240000,33580,492,65700,0,492,0,1263411658,63
i,1723653697.836865,10.0.2.15,22,10.0.2.2,50506,1073725440,16250,1026,65535,65700,0,0,4,1460,312,0,0,240000,33580,0,65700,0,0,0,1263411658,63
i,1723653697.836897,10.0.2.15,22,10.0.2.2,50506,1073725440,16250,1026,65535,65700,0,0,4,1460,312,0,0,240000,33580,0,65700,16,0,0,1263411658,63
o,1723653697.836919,10.0.2.15,22,10.0.2.2,50506,1073725440,16250,1026,65535,65700,0,0,4,1460,312,0,1,240000,33580,0,65700,60,0,0,1263411658,63
o,1723653697.837173,10.0.2.15,22,10.0.2.2,50506,1073725440,16250,1026,65535,65700,0,0,4,1460,312,0,16777216,240000,33580,44,65700,0,0,0,1263411658,63
i,1723653697.837966,10.0.2.15,22,10.0.2.2,50506,1073725440,16250,1026,65535,65700,0,0,4,1460,312,0,16777216,240000,33580,44,65700,0,44,0,1263411658,63
i,1723653697.838008,10.0.2.15,22,10.0.2.2,50506,1073725440,16294,1026,65535,65700,0,0,4,1460,312,0,0,240000,33580,0,65700,0,0,0,1263411658,63
o,1723653697.839633,10.0.2.15,22,10.0.2.2,50506,1073725440,16294,1026,65535,65700,0,0,4,1460,312,0,16777216,240000,33580,68,65700,0,0,0,1263411658,63
i,1723653697.840177,10.0.2.15,22,10.0.2.2,50506,1073725440,16294,1026,65535,65700,0,0,4,1460,312,0,16777216,240000,33580,68,65700,0,68,0,1263411658,63
i,1723653697.840205,10.0.2.15,22,10.0.2.2,50506,1073725440,16362,1026,65535,65700,0,0,4,1460,312,0,0,240000,33580,0,65700,0,0,0,1263411658,63
o,1723653697.841535,10.0.2.15,22,10.0.2.2,50506,1073725440,16362,1026,65535,65700,0,0,4,1460,312,0,16777216,240000,33580,332,65700,0,0,0,1263411658,63
i,1723653697.842274,10.0.2.15,22,10.0.2.2,50506,1073725440,16362,1026,65535,65700,0,0,4,1460,312,0,16777216,240000,33580,332,65700,0,332,0,1263411658,63
i,1723653697.843696,10.0.2.15,22,10.0.2.2,50506,1073725440,16694,1026,65535,65700,0,0,4,1460,312,0,0,240000,33580,0,65700,0,0,0,1263411658,63
o,1723653697.862163,10.0.2.15,22,10.0.2.2,50506,1073725440,16694,1026,65535,65700,0,0,4,1460,312,0,16777216,240000,33580,28,65700,0,0,0,1263411658,63
i,1723653697.862740,10.0.2.15,22,10.0.2.2,50506,1073725440,16694,1026,65535,65700,0,0,4,1460,312,0,16777216,240000,33580,28,65700,0,28,0,1263411658,63
i,1723653697.863139,10.0.2.15,22,10.0.2.2,50506,1073725440,16722,1026,65535,65700,0,0,4,1460,312,0,0,240000,33580,0,65700,0,0,0,1263411658,63
o,1723653697.864212,10.0.2.15,22,10.0.2.2,50506,1073725440,16722,1026,65535,65700,0,0,4,1460,312,0,16777216,240000,33580,768,65700,112,0,0,1263411658,63
i,1723653697.864908,10.0.2.15,22,10.0.2.2,50506,1073725440,16722,1026,65535,65700,0,0,4,1460,312,0,16777216,240000,33580,952,65700,0,768,0,1263411658,63
o,1723653697.864930,10.0.2.15,22,10.0.2.2,50506,1073725440,17490,1026,65535,65700,0,0,4,1460,312,0,16777216,240000,33580,184,65700,0,0,0,1263411658,63
i,1723653697.865392,10.0.2.15,22,10.0.2.2,50506,1073725440,17490,1026,65535,65700,0,0,4,1460,312,0,16777216,240000,33580,184,65700,0,184,0,1263411658,63
i,1723653697.865431,10.0.2.15,22,10.0.2.2,50506,1073725440,17674,1026,65535,65700,0,0,4,1460,312,0,0,240000,33580,0,65700,0,0,0,1263411658,63
o,1723653697.866150,10.0.2.15,22,10.0.2.2,50506,1073725440,17674,1026,65535,65700,0,0,4,1460,312,0,16777220,240000,33580,72,65700,0,0,0,1263411658,63
i,1723653697.866807,10.0.2.15,22,10.0.2.2,50506,1073725440,17674,1026,65535,65700,0,0,4,1460,312,0,16777220,240000,33580,72,65700,0,72,0,1263411658,63
o,1723653697.870132,10.0.2.15,22,10.0.2.2,50506,1073725440,17746,1026,65535,65700,0,0,4,1460,312,0,16777220,240000,33580,104,65700,0,0,0,1263411658,63
i,1723653697.870851,10.0.2.15,22,10.0.2.2,50506,1073725440,17746,1026,65535,65700,0,0,4,1460,312,0,16777220,240000,33580,104,65700,0,104,0,1263411658,63
o,1723653697.872743,10.0.2.15,22,10.0.2.2,50506,1073725440,17850,1026,65535,65700,0,0,4,1460,312,0,16777220,240000,33580,72,65700,0,0,0,1263411658,63
i,1723653697.873331,10.0.2.15,22,10.0.2.2,50506,1073725440,17850,1026,65535,65700,0,0,4,1460,312,0,16777220,240000,33580,72,65700,0,72,0,1263411658,63
i,1723653697.873891,10.0.2.15,22,10.0.2.2,50506,1073725440,17922,1026,65535,65700,0,0,4,1460,312,0,4,240000,33580,0,65700,0,0,0,1263411658,63
i,1723653697.873908,10.0.2.15,22,10.0.2.2,50506,1073725440,17922,1026,65535,65700,0,0,4,1460,312,0,4,240000,33580,0,65700,96,0,0,1263411658,63
o,1723653697.873929,10.0.2.15,22,10.0.2.2,50506,1073725440,17922,1026,65535,65604,0,0,5,1460,312,0,5,240000,33580,0,65700,96,0,0,1263411658,63
o,1723653697.879987,10.0.2.15,22,10.0.2.2,50506,1073725440,17922,1026,65535,65604,0,0,8,1460,312,0,4,240000,33580,0,65700,0,0,0,1263411658,63
i,1723653697.880456,10.0.2.15,22,10.0.2.2,50506,1073725440,17922,1026,65535,65604,0,0,8,1460,312,0,67108884,240000,33580,0,65700,0,1,0,1263411658,63
i,1723653698.958874,10.0.2.15,22,10.0.2.2,50508,1073725440,14600,0,65535,65700,0,0,4,1460,312,0,16777216,270000,33580,0,65700,0,0,0,3016930256,63
o,1723653698.970228,10.0.2.15,22,10.0.2.2,50508,1073725440,14600,1026,65535,65700,0,0,4,1460,312,0,16777216,270000,33580,38,65700,42,0,0,3016930256,63
i,1723653698.970896,10.0.2.15,22,10.0.2.2,50508,1073725440,14600,1026,65535,65700,0,0,4,1460,312,0,16777216,270000,33580,38,65700,0,38,0,3016930256,63
i,1723653698.971538,10.0.2.15,22,10.0.2.2,50508,1073725440,14638,1026,65535,65700,0,0,4,1460,312,0,0,240000,33580,0,65700,0,0,0,3016930256,63
i,1723653698.971556,10.0.2.15,22,10.0.2.2,50508,1073725440,14638,1026,65535,65700,0,0,4,1460,312,0,0,240000,33580,0,65700,1460,0,0,3016930256,63
o,1723653698.971576,10.0.2.15,22,10.0.2.2,50508,1073725440,14638,1026,65535,65700,0,0,4,1460,312,0,1,240000,33580,0,65700,1536,0,0,3016930256,63
o,1723653698.972382,10.0.2.15,22,10.0.2.2,50508,1073725440,14638,1026,65535,65700,0,0,4,1460,312,0,16777216,240000,33580,1120,65700,1536,0,0,3016930256,63
i,1723653698.973288,10.0.2.15,22,10.0.2.2,50508,1073725440,14638,1026,65535,65700,0,0,4,1460,312,0,16777216,240000,33580,1120,65700,0,1120,0,3016930256,63
i,1723653698.974215,10.0.2.15,22,10.0.2.2,50508,1073725440,15758,1026,65535,65700,0,0,4,1460,312,0,0,240000,33580,0,65700,0,0,0,3016930256,63
o,1723653698.977171,10.0.2.15,22,10.0.2.2,50508,1073725440,15758,1026,65535,65700,0,0,4,1460,312,0,16777216,240000,33580,492,65700,0,0,0,3016930256,63
i,1723653698.977837,10.0.2.15,22,10.0.2.2,50508,1073725440,15758,1026,65535,65700,0,0,4,1460,312,0,16777216,240000,33580,492,65700,0,492,0,3016930256,63
i,1723653698.982059,10.0.2.15,22,10.0.2.2,50508,1073725440,16250,1026,65535,65700,0,0,4,1460,312,0,0,240000,33580,0,65700,0,0,0,3016930256,63
i,1723653698.982077,10.0.2.15,22,10.0.2.2,50508,1073725440,16250,1026,65535,65700,0,0,4,1460,312,0,0,240000,33580,0,65700,16,0,0,3016930256,63
o,1723653698.982094,10.0.2.15,22,10.0.2.2,50508,1073725440,16250,1026,65535,65700,0,0,4,1460,312,0,1,240000,33580,0,65700,60,0,0,3016930256,63
o,1723653698.982283,10.0.2.15,22,10.0.2.2,50508,1073725440,16250,1026,65535,65700,0,0,4,1460,312,0,16777216,240000,33580,44,65700,0,0,0,3016930256,63
i,1723653698.983046,10.0.2.15,22,10.0.2.2,50508,1073725440,16250,1026,65535,65700,0,0,4,1460,312,0,16777216,240000,33580,44,65700,0,44,0,3016930256,63
i,1723653698.983064,10.0.2.15,22,10.0.2.2,50508,1073725440,16294,1026,65535,65700,0,0,4,1460,312,0,0,240000,33580,0,65700,0,0,0,3016930256,63
o,1723653698.984266,10.0.2.15,22,10.0.2.2,50508,1073725440,16294,1026,65535,65700,0,0,4,1460,312,0,16777216,240000,33580,68,65700,0,0,0,3016930256,63
i,1723653698.984685,10.0.2.15,22,10.0.2.2,50508,1073725440,16294,1026,65535,65700,0,0,4,1460,312,0,16777216,240000,33580,68,65700,0,68,0,3016930256,63
i,1723653698.984703,10.0.2.15,22,10.0.2.2,50508,1073725440,16362,1026,65535,65700,0,0,4,1460,312,0,0,240000,33580,0,65700,0,0,0,3016930256,63
o,1723653698.985748,10.0.2.15,22,10.0.2.2,50508,1073725440,16362,1026,65535,65700,0,0,4,1460,312,0,16777216,240000,33580,332,65700,0,0,0,3016930256,63
i,1723653698.986607,10.0.2.15,22,10.0.2.2,50508,1073725440,16362,1026,65535,65700,0,0,4,1460,312,0,16777216,240000,33580,332,65700,0,332,0,3016930256,63
i,1723653698.987874,10.0.2.15,22,10.0.2.2,50508,1073725440,16694,1026,65535,65700,0,0,4,1460,312,0,0,240000,33580,0,65700,0,0,0,3016930256,63
o,1723653699.007913,10.0.2.15,22,10.0.2.2,50508,1073725440,16694,1026,65535,65700,0,0,4,1460,312,0,16777216,240000,33580,28,65700,0,0,0,3016930256,63
i,1723653699.008712,10.0.2.15,22,10.0.2.2,50508,1073725440,16694,1026,65535,65700,0,0,4,1460,312,0,16777216,240000,33580,28,65700,0,28,0,3016930256,63
i,1723653699.008744,10.0.2.15,22,10.0.2.2,50508,1073725440,16722,1026,65535,65700,0,0,4,1460,312,0,0,240000,33580,0,65700,0,0,0,3016930256,63
o,1723653699.010445,10.0.2.15,22,10.0.2.2,50508,1073725440,16722,1026,65535,65700,0,0,4,1460,312,0,16777216,240000,33580,768,65700,112,0,0,3016930256,63
i,1723653699.011186,10.0.2.15,22,10.0.2.2,50508,1073725440,16722,1026,65535,65700,0,0,4,1460,312,0,16777216,240000,33580,768,65700,112,768,0,3016930256,63
o,1723653699.011320,10.0.2.15,22,10.0.2.2,50508,1073725440,17490,1026,65535,65700,0,0,4,1460,312,0,16777216,240000,33580,140,65700,112,0,0,3016930256,63
i,1723653699.011891,10.0.2.15,22,10.0.2.2,50508,1073725440,17490,1026,65535,65700,0,0,4,1460,312,0,16777216,240000,33580,140,65700,112,140,0,3016930256,63
o,1723653699.012286,10.0.2.15,22,10.0.2.2,50508,1073725440,17630,1026,65535,65700,0,0,4,1460,312,0,16777216,240000,33580,44,65700,0,0,0,3016930256,63
i,1723653699.012888,10.0.2.15,22,10.0.2.2,50508,1073725440,17630,1026,65535,65700,0,0,4,1460,312,0,16777216,240000,33580,44,65700,0,44,0,3016930256,63
i,1723653699.012912,10.0.2.15,22,10.0.2.2,50508,1073725440,17674,1026,65535,65700,0,0,4,1460,312,0,0,240000,33580,0,65700,0,0,0,3016930256,63
o,1723653699.013718,10.0.2.15,22,10.0.2.2,50508,1073725440,17674,1026,65535,65700,0,0,4,1460,312,0,16777220,240000,33580,72,65700,0,0,0,3016930256,63
i,1723653699.014113,10.0.2.15,22,10.0.2.2,50508,1073725440,17674,1026,65535,65700,0,0,4,1460,312,0,16777220,240000,33580,72,65700,0,72,0,3016930256,63
o,1723653699.146888,172.16.5.2,22529,172.16.1.2,5102,8720,14480,2082,65535,65700,6,6,4,1460,3780937,1,16778209,19080000,33580,0,65700,0,0,0,3682445717,63
o,1723653699.147352,172.16.5.2,22529,172.16.1.2,5102,8720,14480,2082,65535,65700,6,6,4,1460,3780937,1,16778212,19080000,33580,37,65700,0,0,0,3682445717,63
i,1723653699.265188,172.16.5.2,22529,172.16.1.2,5102,8720,14480,2082,65535,65700,6,6,4,1460,3780937,1,16778212,19080000,33580,37,65700,0,37,0,3682445717,63
o,1723653699.265459,172.16.5.2,22529,172.16.1.2,5102,8720,14480,3106,65728,65728,6,6,4,1460,3323437,1,16778212,18510000,33580,4,65700,0,0,0,3682445717,63
o,1723653699.265906,172.16.5.2,22529,172.16.1.2,5102,8720,14480,3106,65728,65728,6,6,4,1460,3323437,1,16778212,18510000,33580,130,65700,0,4,0,3682445717,63
i,1723653699.387784,172.16.5.2,22529,172.16.1.2,5102,8720,14480,3106,65728,65728,6,6,4,1460,3323437,1,16778212,18510000,33580,130,65700,0,130,0,3682445717,63
i,1723653699.388311,172.16.5.2,22529,172.16.1.2,5102,8720,14480,3106,65600,65728,6,6,4,1460,2923125,1,996,17560000,33580,0,65700,0,0,0,3682445717,63
o,1723653699.459437,172.16.5.2,22529,172.16.1.2,5102,8720,14480,3106,65728,65728,6,6,4,1460,2923125,1,997,17560000,33580,0,65700,0,0,0,3682445717,63
o,1723653699.501487,172.16.5.2,27604,172.16.1.2,5102,8720,14480,2082,65535,65700,6,6,4,1460,3779687,1,16778209,19090000,33580,0,65700,0,0,0,3657195783,63
o,1723653699.501723,172.16.5.2,27604,172.16.1.2,5102,8720,14480,2082,65535,65700,6,6,4,1460,3779687,1,16778208,19090000,33580,37,65700,0,0,0,3657195783,63
i,1723653699.625786,172.16.5.2,22529,172.16.1.2,5102,8720,14480,3106,65728,65728,6,6,4,1460,2923125,1,996,17560000,33580,0,65700,0,0,0,3682445717,63
i,1723653699.626034,172.16.5.2,22529,172.16.1.2,5102,8720,14480,3106,65728,65728,6,6,4,1460,2923125,1,996,17560000,33580,0,65700,1,0,0,3682445717,63
o,1723653699.626093,172.16.5.2,22529,172.16.1.2,5102,8720,14480,3106,65728,65728,6,6,4,1460,2923125,1,997,17560000,33580,0,65700,2,0,0,3682445717,63
o,1723653699.627055,172.16.5.2,27604,172.16.1.2,5102,8720,14480,2086,65535,65700,6,6,4,1460,3779687,1,16778208,19090000,33580,33580,65700,0,37,0,3657195783,63
i,1723653699.657449,172.16.5.2,27604,172.16.1.2,5102,8720,14480,2086,65535,65700,6,6,4,1460,3779687,1,16778208,19090000,33580,33580,65700,0,13069,0,3657195783,63
o,1723653699.657476,172.16.5.2,27604,172.16.1.2,5102,8720,14480,2082,65728,65728,6,6,4,1460,3326250,1,16778208,18480000,33580,33543,65700,0,13032,0,3657195783,63
i,1723653699.719599,172.16.5.2,27604,172.16.1.2,5102,8720,14480,2082,65728,65728,6,6,4,1460,3326250,1,16778208,18480000,33580,33543,65700,0,14480,0,3657195783,63
o,1723653699.719749,172.16.5.2,27604,172.16.1.2,5102,8720,14480,2086,64256,65728,6,6,4,1460,2923125,1,16778208,17570000,33580,30647,65700,0,11584,0,3657195783,63
i,1723653699.740436,172.16.5.2,27604,172.16.1.2,5102,8720,14480,2086,64256,65728,6,6,4,1460,2923125,1,16778208,17570000,33580,33580,65700,0,14480,0,3657195783,63
o,1723653699.740459,172.16.5.2,27604,172.16.1.2,5102,8720,14480,2086,64256,65728,6,6,4,1460,2572812,1,16778208,16410000,33580,30684,65700,0,11584,0,3657195783,63
i,1723653699.740678,172.16.5.2,27604,172.16.1.2,5102,8720,14480,2086,64256,65728,6,6,4,1460,2572812,1,16778208,16410000,33580,30684,65700,0,14480,0,3657195783,63
o,1723653699.740695,172.16.5.2,27604,172.16.1.2,5102,8720,14480,2086,64256,65728,6,6,4,1460,2266250,1,16778208,15140000,33580,27788,65700,0,11584,0,3657195783,63
i,1723653699.741770,172.16.5.2,27604,172.16.1.2,5102,8720,14480,2086,64256,65728,6,6,4,1460,2266250,1,16778208,15140000,33580,33580,65700,0,14480,0,3657195783,63
o,1723653699.741846,172.16.5.2,27604,172.16.1.2,5102,8720,14480,2086,64256,65728,6,6,4,1460,1998125,1,16778208,13850000,33580,30684,65700,0,11584,0,3657195783,63
i,1723653699.781601,172.16.5.2,27604,172.16.1.2,5102,8720,14480,2086,64256,65728,6,6,4,1460,1998125,1,16778208,13850000,33580,33580,65700,0,14480,0,3657195783,63
o,1723653699.781674,172.16.5.2,27604,172.16.1.2,5102,8720,15940,2086,64256,65728,6,6,4,1460,1768437,1,16778208,12550000,33580,30684,65700,0,11584,0,3657195783,63
o,1723653699.781796,172.16.5.2,27604,172.16.1.2,5102,8720,15940,2086,64256,65728,6,6,4,1460,1768437,1,16778208,12550000,33580,30684,65700,0,13032,0,3657195783,63
i,1723653699.859581,172.16.5.2,27604,172.16.1.2,5102,8720,15940,2086,64256,65728,6,6,4,1460,1768437,1,16778208,12550000,41772,41772,65700,0,15928,0,3657195783,63
o,1723653699.859847,172.16.5.2,27604,172.16.1.2,5102,8720,15940,2086,62848,65728,6,6,4,1460,1565000,1,16778208,11330000,41772,38876,65700,0,13032,0,3657195783,63
i,1723653699.872906,172.16.5.2,27604,172.16.1.2,5102,8720,15940,2086,62848,65728,6,6,4,1460,1565000,1,16778208,11330000,41772,41772,65700,0,15928,0,3657195783,63
o,1723653699.872944,172.16.5.2,27604,172.16.1.2,5102,8720,15940,2086,62848,65728,6,6,4,1460,1385625,1,16778208,10190000,41772,38876,65700,0,13032,0,3657195783,63
i,1723653699.873149,172.16.5.2,27604,172.16.1.2,5102,8720,15940,2086,62848,65728,6,6,4,1460,1385625,1,16778208,10190000,41772,38876,65700,0,15928,0,3657195783,63
o,1723653699.873167,172.16.5.2,27604,172.16.1.2,5102,8720,15940,2086,59968,65728,6,6,4,1460,1228750,1,16778208,9140000,41772,35980,65700,0,13032,0,3657195783,63
i,1723653699.891712,172.16.5.2,27604,172.16.1.2,5102,8720,15940,2086,59968,65728,6,6,4,1460,1228750,1,16778208,9140000,41772,41772,65700,0,15928,0,3657195783,63
o,1723653699.891749,172.16.5.2,27604,172.16.1.2,5102,8720,15940,2086,64256,65728,6,6,4,1460,1094062,1,16778208,8150000,41772,38876,65700,0,13032,0,3657195783,63
i,1723653699.893603,172.16.5.2,27604,172.16.1.2,5102,8720,15940,2086,64256,65728,6,6,4,1460,1094062,1,16778208,8150000,41772,41772,65700,0,15928,0,3657195783,63
o,1723653699.893639,172.16.5.2,27604,172.16.1.2,5102,8720,15940,2086,62848,65728,6,6,4,1460,971250,1,16778208,7300000,41772,38876,65700,0,13032,0,3657195783,63
o,1723653699.893805,172.16.5.2,27604,172.16.1.2,5102,8720,15940,2086,62848,65728,6,6,4,1460,971250,1,16778208,7300000,41772,38876,65700,0,14480,0,3657195783,63
i,1723653699.943237,172.16.5.2,27604,172.16.1.2,5102,8720,15940,2086,62848,65728,6,6,4,1460,971250,1,16778208,7300000,41772,41772,65700,0,15928,0,3657195783,63
o,1723653699.943651,172.16.5.2,27604,172.16.1.2,5102,8720,17400,2086,65728,65728,6,6,4,1460,870000,1,16778208,6470000,41772,40324,65700,0,14480,0,3657195783,63
i,1723653700.001371,172.16.5.2,27604,172.16.1.2,5102,8720,17400,2086,65728,65728,6,6,4,1460,870000,1,16778208,6470000,41772,40324,65700,0,17376,0,3657195783,63
o,1723653700.001419,172.16.5.2,27604,172.16.1.2,5102,8720,17400,2086,62848,65728,6,6,4,1460,778750,1,16778208,5760000,41772,37428,65700,0,14480,0,3657195783,63
i,1723653700.001572,172.16.5.2,27604,172.16.1.2,5102,8720,17400,2086,62848,65728,6,6,4,1460,778750,1,16778208,5760000,41772,37428,65700,0,17376,0,3657195783,63
o,1723653700.001590,172.16.5.2,27604,172.16.1.2,5102,8720,17400,2086,59968,65728,6,6,4,1460,697812,1,16778208,5130000,41772,34532,65700,0,14480,0,3657195783,63
i,1723653700.001731,172.16.5.2,27604,172.16.1.2,5102,8720,17400,2086,59968,65728,6,6,4,1460,697812,1,16778208,5130000,41772,34532,65700,0,17376,0,3657195783,63
o,1723653700.001748,172.16.5.2,27604,172.16.1.2,5102,8720,17400,2086,64256,65728,6,6,4,1460,626875,1,16778208,4570000,41772,31636,65700,0,14480,0,3657195783,63
i,1723653700.004779,172.16.5.2,27604,172.16.1.2,5102,8720,17400,2086,64256,65728,6,6,4,1460,626875,1,16778208,4570000,41772,41772,65700,0,17376,0,3657195783,63
o,1723653700.004779,172.16.5.2,27604,172.16.1.2,5102,8720,17400,2086,62848,65728,6,6,4,1460,561250,1,16778208,4090000,41772,38876,65700,0,14480,0,3657195783,63
i,1723653700.006607,172.16.5.2,27604,172.16.1.2,5102,8720,17400,2086,62848,65728,6,6,4,1460,561250,1,16778208,4090000,41772,41772,65700,0,17376,0,3657195783,63
o,1723653700.006677,172.16.5.2,27604,172.16.1.2,5102,8720,17400,2086,59968,65728,6,6,4,1460,503750,1,16778208,3660000,41772,38876,65700,0,14480,0,3657195783,63
o,1723653700.006811,172.16.5.2,27604,172.16.1.2,5102,8720,17400,2086,59968,65728,6,6,4,1460,503750,1,16778208,3660000,41772,38876,65700,0,15928,0,3657195783,63
i,1723653700.092554,172.16.5.2,27604,172.16.1.2,5102,8720,17400,2086,59968,65728,6,6,4,1460,503750,1,16778208,3660000,41772,41772,65700,0,17376,0,3657195783,63
o,1723653700.092711,172.16.5.2,27604,172.16.1.2,5102,8720,18860,2086,62848,65728,6,6,4,1460,458437,1,16778208,3240000,41772,38876,65700,0,14480,0,3657195783,63
i,1723653700.125587,172.16.5.2,27604,172.16.1.2,5102,8720,18860,2086,62848,65728,6,6,4,1460,458437,1,16778208,3240000,41772,41772,65700,0,18824,0,3657195783,63
o,1723653700.125616,172.16.5.2,27604,172.16.1.2,5102,8720,18860,2086,62848,65728,6,6,4,1460,416250,1,16778208,2890000,41772,38876,65700,0,15928,0,3657195783,63
i,1723653700.131728,172.16.5.2,27604,172.16.1.2,5102,8720,18860,2086,62848,65728,6,6,4,1460,416250,1,16778208,2890000,41772,41772,65700,0,18824,0,3657195783,63
o,1723653700.131748,172.16.5.2,27604,172.16.1.2,5102,8720,18860,2086,64256,65728,6,6,4,1460,380625,1,16778208,2570000,41772,38876,65700,0,15928,0,3657195783,63
i,1723653700.132139,172.16.5.2,27604,172.16.1.2,5102,8720,18860,2086,64256,65728,6,6,4,1460,380625,1,16778208,2570000,41772,41772,65700,0,18824,0,3657195783,63
o,1723653700.132195,172.16.5.2,27604,172.16.1.2,5102,8720,18860,2086,64256,65728,6,6,4,1460,349375,1,16778208,2290000,41772,38876,65700,0,15928,0,3657195783,63
i,1723653700.154238,172.16.5.2,27604,172.16.1.2,5102,8720,18860,2086,64256,65728,6,6,4,1460,349375,1,16778208,2290000,41772,41772,65700,0,18824,0,3657195783,63
o,1723653700.154327,172.16.5.2,27604,172.16.1.2,5102,8720,18860,2086,62848,65728,6,6,4,1460,324687,1,16778208,2030000,41772,38876,65700,0,15928,0,3657195783,63
i,1723653700.154530,172.16.5.2,27604,172.16.1.2,5102,8720,18860,2086,62848,65728,6,6,4,1460,324687,1,16778208,2030000,41772,38876,65700,0,18824,0,3657195783,63
o,1723653700.154554,172.16.5.2,27604,172.16.1.2,5102,8720,18860,2086,64256,65728,6,6,4,1460,303125,1,16778208,1800000,41772,35980,65700,0,15928,0,3657195783,63
o,1723653700.154686,172.16.5.2,27604,172.16.1.2,5102,8720,18860,2086,64256,65728,6,6,4,1460,303125,1,16778208,1800000,41772,35980,65700,0,17376,0,3657195783,63
i,1723653700.221055,172.16.5.2,27604,172.16.1.2,5102,8720,18860,2086,64256,65728,6,6,4,1460,303125,1,16778208,1800000,41772,41772,65700,0,18824,0,3657195783,63
o,1723653700.221215,172.16.5.2,27604,172.16.1.2,5102,8720,18860,2086,62848,65728,6,6,4,1460,281562,1,16778208,1630000,41772,38876,65700,0,15928,0,3657195783,63
i,1723653700.247900,172.16.5.2,27604,172.16.1.2,5102,8720,18860,2086,62848,65728,6,6,4,1460,281562,1,16778208,1630000,41772,41772,65700,0,18824,0,3657195783,63
o,1723653700.247925,172.16.5.2,27604,172.16.1.2,5102,8720,20320,2086,64256,65728,6,6,4,1460,266562,1,16778208,1450000,41772,38876,65700,0,15928,0,3657195783,63
i,1723653700.248060,172.16.5.2,27604,172.16.1.2,5102,8720,20320,2086,64256,65728,6,6,4,1460,266562,1,16778208,1450000,49964,38876,65700,0,20272,0,3657195783,63
o,1723653700.248077,172.16.5.2,27604,172.16.1.2,5102,8720,20320,2086,61376,65728,6,6,4,1460,248437,1,16778208,1330000,49964,35980,65700,0,17376,0,3657195783,63
i,1723653700.248218,172.16.5.2,27604,172.16.1.2,5102,8720,20320,2086,61376,65728,6,6,4,1460,248437,1,16778208,1330000,49964,35980,65700,0,20272,0,3657195783,63
o,1723653700.248247,172.16.5.2,27604,172.16.1.2,5102,8720,20320,2086,64256,65728,6,6,4,1460,232500,1,16778208,1220000,49964,33084,65700,0,17376,0,3657195783,63
i,1723653700.248367,172.16.5.2,27604,172.16.1.2,5102,8720,20320,2086,64256,65728,6,6,4,1460,232500,1,16778208,1220000,49964,33084,65700,0,20272,0,3657195783,63
o,1723653700.248383,172.16.5.2,27604,172.16.1.2,5102,8720,20320,2086,64256,65728,6,6,4,1460,218437,1,16778208,1120000,49964,30188,65700,0,17376,0,3657195783,63
i,1723653700.248576,172.16.5.2,27604,172.16.1.2,5102,8720,20320,2086,64256,65728,6,6,4,1460,218437,1,16778208,1120000,49964,30188,65700,0,20272,0,3657195783,63
o,1723653700.248594,172.16.5.2,27604,172.16.1.2,5102,8720,20320,2086,64256,65728,6,6,4,1460,202500,1,16778208,1060000,49964,27292,65700,0,17376,0,3657195783,63
o,1723653700.248703,172.16.5.2,27604,172.16.1.2,5102,8720,20320,2086,64256,65728,6,6,4,1460,202500,1,16778208,1060000,49964,27292,65700,0,18824,0,3657195783,63
i,1723653700.292362,172.16.5.2,27604,172.16.1.2,5102,8720,20320,2086,64256,65728,6,6,4,1460,202500,1,16778208,1060000,49964,49964,65700,0,20272,0,3657195783,63
o,1723653700.292438,172.16.5.2,27604,172.16.1.2,5102,8720,20320,2086,65728,65728,6,6,4,1460,193437,1,16778208,960000,49964,48516,65700,0,18824,0,3657195783,63
i,1723653700.355176,172.16.5.2,27604,172.16.1.2,5102,8720,20320,2086,65728,65728,6,6,4,1460,193437,1,16778208,960000,49964,48516,65700,0,20272,0,3657195783,63
o,1723653700.355279,172.16.5.2,27604,172.16.1.2,5102,8720,20320,2086,62848,65728,6,6,4,1460,185625,1,16778208,870000,49964,45620,65700,0,17376,0,3657195783,63
i,1723653700.360379,172.16.5.2,27604,172.16.1.2,5102,8720,20320,2086,62848,65728,6,6,4,1460,185625,1,16778208,870000,49964,49964,65700,0,20272,0,3657195783,63
o,1723653700.360451,172.16.5.2,27604,172.16.1.2,5102,8720,20320,2086,64256,65728,6,6,4,1460,176250,1,16778208,810000,49964,47068,65700,0,17376,0,3657195783,63
i,1723653700.390631,172.16.5.2,27604,172.16.1.2,5102,8720,20320,2086,64256,65728,6,6,4,1460,176250,1,16778208,810000,49964,49964,65700,0,20272,0,3657195783,63
o,1723653700.390673,172.16.5.2,27604,172.16.1.2,5102,8720,21780,2086,64256,65728,6,6,4,1460,171875,1,16778208,730000,49964,47068,65700,0,17376,0,3657195783,63
i,1723653700.390887,172.16.5.2,27604,172.16.1.2,5102,8720,21780,2086,64256,65728,6,6,4,1460,171875,1,16778208,730000,49964,47068,65700,0,21720,0,3657195783,63
o,1723653700.390907,172.16.5.2,27604,172.16.1.2,5102,8720,21780,2086,61376,65728,6,6,4,1460,168125,1,16778208,670000,49964,44172,65700,0,18824,0,3657195783,63
i,1723653700.392402,172.16.5.2,27604,172.16.1.2,5102,8720,21780,2086,61376,65728,6,6,4,1460,168125,1,16778208,670000,49964,49964,65700,0,21720,0,3657195783,63
o,1723653700.392423,172.16.5.2,27604,172.16.1.2,5102,8720,21780,2086,62848,65728,6,6,4,1460,164687,1,16778208,620000,49964,47068,65700,0,18824,0,3657195783,63
i,1723653700.392585,172.16.5.2,27604,172.16.1.2,5102,8720,21780,2086,62848,65728,6,6,4,1460,164687,1,16778208,620000,49964,47068,65700,0,21720,0,3657195783,63
o,1723653700.392602,172.16.5.2,27604,172.16.1.2,5102,8720,21780,2086,62848,65728,6,6,4,1460,161875,1,16778208,570000,49964,44172,65700,0,18824,0,3657195783,63
o,1723653700.392731,172.16.5.2,27604,172.16.1.2,5102,8720,21780,2086,62848,65728,6,6,4,1460,161875,1,16778208,570000,49964,44172,65700,0,20272,0,3657195783,63
i,1723653700.426394,172.16.5.2,27604,172.16.1.2,5102,8720,21780,2086,62848,65728,6,6,4,1460,161875,1,16778208,570000,49964,49964,65700,0,21720,0,3657195783,63
o,1723653700.426497,172.16.5.2,27604,172.16.1.2,5102,8720,21780,2086,64256,65728,6,6,4,1460,163125,1,16778208,530000,49964,47068,65700,0,18824,0,3657195783,63
i,1723653700.511973,172.16.5.2,27604,172.16.1.2,5102,8720,21780,2086,64256,65728,6,6,4,1460,163125,1,16778208,530000,49964,49964,65700,0,21720,0,3657195783,63
o,1723653700.512346,172.16.5.2,27604,172.16.1.2,5102,8720,21780,2086,62848,65728,6,6,4,1460,162812,1,16778208,490000,49964,47068,65700,0,18824,0,3657195783,63
i,1723653700.513433,172.16.5.2,27604,172.16.1.2,5102,8720,21780,2086,62848,65728,6,6,4,1460,162812,1,16778208,490000,49964,47068,65700,0,21720,0,3657195783,63
o,1723653700.513572,172.16.5.2,27604,172.16.1.2,5102,8720,21780,2086,59968,65728,6,6,4,1460,161250,1,16778208,470000,49964,44172,65700,0,18824,0,3657195783,63
i,1723653700.514234,172.16.5.2,27604,172.16.1.2,5102,8720,21780,2086,59968,65728,6,6,4,1460,161250,1,16778208,470000,49964,44172,65700,0,21720,0,3657195783,63
o,1723653700.514399,172.16.5.2,27604,172.16.1.2,5102,8720,23240,2086,62848,65728,6,6,4,1460,156250,1,16778208,480000,49964,41276,65700,0,18824,0,3657195783,63
i,1723653700.515098,172.16.5.2,27604,172.16.1.2,5102,8720,23240,2086,62848,65728,6,6,4,1460,156250,1,16778208,480000,49964,41276,65700,0,23168,0,3657195783,63
o,1723653700.515116,172.16.5.2,27604,172.16.1.2,5102,8720,23240,2086,62848,65728,6,6,4,1460,151875,1,16778208,480000,49964,38380,65700,0,20272,0,3657195783,63
i,1723653700.515334,172.16.5.2,27604,172.16.1.2,5102,8720,23240,2086,62848,65728,6,6,4,1460,151875,1,16778208,480000,49964,38380,65700,0,23168,0,3657195783,63
o,1723653700.515352,172.16.5.2,27604,172.16.1.2,5102,8720,23240,2086,59968,65728,6,6,4,1460,148125,1,16778208,470000,49964,35484,65700,0,20272,0,3657195783,63
i,1723653700.533748,172.16.5.2,27604,172.16.1.2,5102,8720,23240,2086,59968,65728,6,6,4,1460,148125,1,16778208,470000,49964,49964,65700,0,23168,0,3657195783,63
o,1723653700.533768,172.16.5.2,27604,172.16.1.2,5102,8720,23240,2086,62848,65728,6,6,4,1460,147187,1,16778208,450000,49964,47068,65700,0,20272,0,3657195783,63
o,1723653700.533903,172.16.5.2,27604,172.16.1.2,5102,8720,23240,2086,62848,65728,6,6,4,1460,147187,1,16778208,450000,49964,47068,65700,0,21720,0,3657195783,63
i,1723653700.561740,172.16.5.2,27604,172.16.1.2,5102,8720,23240,2086,62848,65728,6,6,4,1460,147187,1,16778208,450000,49964,49964,65700,0,23168,0,3657195783,63
o,1723653700.561760,172.16.5.2,27604,172.16.1.2,5102,8720,23240,2086,65728,65728,6,6,4,1460,150312,1,16778208,450000,49964,48516,65700,0,21720,0,3657195783,63
i,1723653700.562029,172.16.5.2,27604,172.16.1.2,5102,8720,23240,2086,65728,65728,6,6,4,1460,150312,1,16778208,450000,49964,48516,65700,0,23168,0,3657195783,63
o,1723653700.562046,172.16.5.2,27604,172.16.1.2,5102,8720,23240,2086,62848,65728,6,6,4,1460,147812,1,16778208,440000,49964,45620,65700,0,20272,0,3657195783,63
i,1723653700.662472,172.16.5.2,27604,172.16.1.2,5102,8720,23240,2086,62848,65728,6,6,4,1460,147812,1,16778208,440000,58156,58156,65700,0,23168,0,3657195783,63
o,1723653700.662506,172.16.5.2,27604,172.16.1.2,5102,8720,23240,2086,62848,65728,6,6,4,1460,146875,1,16778208,420000,58156,55260,65700,0,20272,0,3657195783,63
i,1723653700.662905,172.16.5.2,27604,172.16.1.2,5102,8720,23240,2086,62848,65728,6,6,4,1460,146875,1,16778208,420000,58156,58156,65700,0,23168,0,3657195783,63
o,1723653700.662975,172.16.5.2,27604,172.16.1.2,5102,8720,23240,2086,64256,65728,6,6,4,1460,146250,1,16778208,410000,58156,55260,65700,0,20272,0,3657195783,63
i,1723653700.663145,172.16.5.2,27604,172.16.1.2,5102,8720,23240,2086,64256,65728,6,6,4,1460,146250,1,16778208,410000,58156,55260,65700,0,23168,0,3657195783,63
o,1723653700.663161,172.16.5.2,27604,172.16.1.2,5102,8720,23240,2086,62848,65728,6,6,4,1460,145625,1,16778208,400000,58156,52364,65700,0,20272,0,3657195783,63
i,1723653700.663861,172.16.5.2,27604,172.16.1.2,5102,8720,23240,2086,62848,65728,6,6,4,1460,145625,1,16778208,400000,58156,58156,65700,0,23168,0,3657195783,63
o,1723653700.663917,172.16.5.2,27604,172.16.1.2,5102,8720,24700,2086,59968,65728,6,6,4,1460,145000,1,16778208,390000,58156,55260,65700,0,20272,0,3657195783,63
i,1723653700.665693,172.16.5.2,27604,172.16.1.2,5102,8720,24700,2086,59968,65728,6,6,4,1460,145000,1,16778208,390000,58156,58156,65700,0,24616,0,3657195783,63
o,1723653700.665792,172.16.5.2,27604,172.16.1.2,5102,8720,24700,2086,62848,65728,6,6,4,1460,144375,1,16778208,380000,58156,55260,65700,0,21720,0,3657195783,63
i,1723653700.691982,172.16.5.2,27604,172.16.1.2,5102,8720,24700,2086,62848,65728,6,6,4,1460,144375,1,16778208,380000,58156,58156,65700,0,24616,0,3657195783,63
o,1723653700.692052,172.16.5.2,27604,172.16.1.2,5102,8720,24700,2086,64256,65728,6,6,4,1460,149062,1,16778208,410000,58156,55260,65700,0,21720,0,3657195783,63
o,1723653700.692202,172.16.5.2,27604,172.16.1.2,5102,8720,24700,2086,64256,65728,6,6,4,1460,149062,1,16778208,410000,58156,55260,65700,0,23168,0,3657195783,63
i,1723653700.692372,172.16.5.2,27604,172.16.1.2,5102,8720,24700,2086,64256,65728,6,6,4,1460,149062,1,16778208,410000,58156,55260,65700,0,24616,0,3657195783,63
o,1723653700.692390,172.16.5.2,27604,172.16.1.2,5102,8720,24700,2086,64256,65728,6,6,4,1460,150625,1,16778208,410000,58156,52364,65700,0,21720,0,3657195783,63
i,1723653700.692544,172.16.5.2,27604,172.16.1.2,5102,8720,24700,2086,64256,65728,6,6,4,1460,150625,1,16778208,410000,58156,52364,65700,0,24616,0,3657195783,63
o,1723653700.692564,172.16.5.2,27604,172.16.1.2,5102,8720,24700,2086,62848,65728,6,6,4,1460,148125,1,16778208,410000,58156,49468,65700,0,21720,0,3657195783,63
i,1723653700.820504,172.16.5.2,27604,172.16.1.2,5102,8720,24700,2086,62848,65728,6,6,4,1460,148125,1,16778208,410000,58156,58156,65700,0,24616,0,3657195783,63
o,1723653700.820719,172.16.5.2,27604,172.16.1.2,5102,8720,24700,2086,62848,65728,6,6,4,1460,149687,1,16778208,410000,58156,55260,65700,0,21720,0,3657195783,63
i,1723653700.821305,172.16.5.2,27604,172.16.1.2,5102,8720,24700,2086,62848,65728,6,6,4,1460,149687,1,16778208,410000,58156,55260,65700,0,24616,0,3657195783,63
o,1723653700.821429,172.16.5.2,27604,172.16.1.2,5102,8720,24700,2086,64256,65728,6,6,4,1460,151250,1,16778208,410000,58156,52364,65700,0,21720,0,3657195783,63
i,1723653700.821889,172.16.5.2,27604,172.16.1.2,5102,8720,24700,2086,64256,65728,6,6,4,1460,151250,1,16778208,410000,58156,52364,65700,0,24616,0,3657195783,63
o,1723653700.821979,172.16.5.2,27604,172.16.1.2,5102,8720,24700,2086,62848,65728,6,6,4,1460,152500,1,16778208,410000,58156,49468,65700,0,21720,0,3657195783,63
i,1723653700.824032,172.16.5.2,27604,172.16.1.2,5102,8720,24700,2086,62848,65728,6,6,4,1460,152500,1,16778208,410000,58156,49468,65700,0,24616,0,3657195783,63
o,1723653700.824053,172.16.5.2,27604,172.16.1.2,5102,8720,26160,2086,62848,65728,6,6,4,1460,153437,1,16778208,400000,58156,46572,65700,0,21720,0,3657195783,63
i,1723653700.824176,172.16.5.2,27604,172.16.1.2,5102,8720,26160,2086,62848,65728,6,6,4,1460,153437,1,16778208,400000,58156,46572,65700,0,26064,0,3657195783,63
o,1723653700.824192,172.16.5.2,27604,172.16.1.2,5102,8720,26160,2086,59968,65728,6,6,4,1460,154375,1,16778208,400000,58156,43676,65700,0,23168,0,3657195783,63
i,1723653700.824370,172.16.5.2,27604,172.16.1.2,5102,8720,26160,2086,59968,65728,6,6,4,1460,154375,1,16778208,400000,58156,43676,65700,0,26064,0,3657195783,63
o,1723653700.824386,172.16.5.2,27604,172.16.1.2,5102,8720,26160,2086,62848,65728,6,6,4,1460,155312,1,16778208,400000,58156,40780,65700,0,23168,0,3657195783,63
o,1723653700.824662,172.16.5.2,27604,172.16.1.2,5102,8720,26160,2086,62848,65728,6,6,4,1460,155312,1,16778208,400000,58156,40780,65700,0,24616,0,3657195783,63
i,1723653700.824844,172.16.5.2,27604,172.16.1.2,5102,8720,26160,2086,62848,65728,6,6,4,1460,155312,1,16778208,400000,58156,40780,65700,0,26064,0,3657195783,63
o,1723653700.824861,172.16.5.2,27604,172.16.1.2,5102,8720,26160,2086,59968,65728,6,6,4,1460,150937,1,16778208,420000,58156,37884,65700,0,23168,0,3657195783,63
i,1723653700.858971,172.16.5.2,27604,172.16.1.2,5102,8720,26160,2086,59968,65728,6,6,4,1460,150937,1,16778208,420000,58156,58156,65700,0,26064,0,3657195783,63
o,1723653700.858998,172.16.5.2,27604,172.16.1.2,5102,8720,26160,2086,64256,65728,6,6,4,1460,152187,1,16778208,410000,58156,55260,65700,0,23168,0,3657195783,63
i,1723653700.922698,172.16.5.2,27604,172.16.1.2,5102,8720,26160,2086,64256,65728,6,6,4,1460,152187,1,16778208,410000,58156,58156,65700,0,26064,0,3657195783,63
o,1723653700.922838,172.16.5.2,27604,172.16.1.2,5102,8720,26160,2086,65728,65728,6,6,4,1460,160937,1,16778208,470000,58156,56708,65700,0,24616,0,3657195783,63
i,1723653700.962744,172.16.5.2,27604,172.16.1.2,5102,8720,26160,2086,65728,65728,6,6,4,1460,160937,1,16778208,470000,58156,56708,65700,0,26064,0,3657195783,63
o,1723653700.962775,172.16.5.2,27604,172.16.1.2,5102,8720,26160,2086,62848,65728,6,6,4,1460,158437,1,16778208,460000,58156,53812,65700,0,23168,0,3657195783,63
i,1723653700.991719,172.16.5.2,27604,172.16.1.2,5102,8720,26160,2086,62848,65728,6,6,4,1460,158437,1,16778208,460000,58156,58156,65700,0,26064,0,3657195783,63
o,1723653700.991818,172.16.5.2,27604,172.16.1.2,5102,8720,26160,2086,64256,65728,6,6,4,1460,160000,1,16778208,450000,58156,55260,65700,0,23168,0,3657195783,63
i,1723653700.992135,172.16.5.2,27604,172.16.1.2,5102,8720,26160,2086,64256,65728,6,6,4,1460,160000,1,16778208,450000,58156,55260,65700,0,26064,0,3657195783,63
o,1723653700.992199,172.16.5.2,27604,172.16.1.2,5102,8720,26160,2086,62848,65728,6,6,4,1460,161250,1,16778208,440000,58156,52364,65700,0,23168,0,3657195783,63
i,1723653700.992493,172.16.5.2,27604,172.16.1.2,5102,8720,26160,2086,62848,65728,6,6,4,1460,161250,1,16778208,440000,58156,52364,65700,0,26064,0,3657195783,63
o,1723653700.992538,172.16.5.2,27604,172.16.1.2,5102,8720,26160,2086,59968,65728,6,6,4,1460,162500,1,16778208,430000,58156,49468,65700,0,23168,0,3657195783,63
i,1723653700.993160,172.16.5.2,27604,172.16.1.2,5102,8720,26160,2086,59968,65728,6,6,4,1460,162500,1,16778208,430000,58156,58156,65700,0,26064,0,3657195783,63
o,1723653700.993166,172.16.5.2,27604,172.16.1.2,5102,8720,27620,2086,64256,65728,6,6,4,1460,163437,1,16778208,420000,58156,55260,65700,0,23168,0,3657195783,63
i,1723653700.993817,172.16.5.2,27604,172.16.1.2,5102,8720,27620,2086,64256,65728,6,6,4,1460,163437,1,16778208,420000,58156,55260,65700,0,27512,0,3657195783,63
o,1723653700.993840,172.16.5.2,27604,172.16.1.2,5102,8720,27620,2086,62848,65728,6,6,4,1460,164375,1,16778208,410000,58156,52364,65700,0,24616,0,3657195783,63
o,1723653700.993999,172.16.5.2,27604,172.16.1.2,5102,8720,27620,2086,62848,65728,6,6,4,1460,164375,1,16778208,410000,66348,52364,65700,0,26064,0,3657195783,63
i,1723653700.994215,172.16.5.2,27604,172.16.1.2,5102,8720,27620,2086,62848,65728,6,6,4,1460,164375,1,16778208,410000,66348,52364,65700,0,27512,0,3657195783,63
o,1723653700.994231,172.16.5.2,27604,172.16.1.2,5102,8720,27620,2086,64256,65728,6,6,4,1460,165312,1,16778208,410000,66348,49468,65700,0,24616,0,3657195783,63
i,1723653701.011132,172.16.5.2,27604,172.16.1.2,5102,8720,27620,2086,64256,65728,6,6,4,1460,165312,1,16778208,410000,66348,66348,65700,0,27512,0,3657195783,63
o,1723653701.011204,172.16.5.2,27604,172.16.1.2,5102,8720,27620,2086,64256,65728,6,6,4,1460,168437,1,16778208,430000,66348,63452,65700,0,24616,0,3657195783,63
i,1723653701.033083,172.16.5.2,27604,172.16.1.2,5102,8720,27620,2086,64256,65728,6,6,4,1460,168437,1,16778208,430000,66348,66348,65700,0,27512,0,3657195783,63
o,1723653701.033104,172.16.5.2,27604,172.16.1.2,5102,8720,27620,2086,65728,65728,6,6,4,1460,168750,1,16778208,410000,66348,64900,65700,0,26064,0,3657195783,63
i,1723653701.100636,172.16.5.2,27604,172.16.1.2,5102,8720,27620,2086,65728,65728,6,6,4,1460,168750,1,16778208,410000,66348,64900,65700,0,27512,0,3657195783,63
o,1723653701.100909,172.16.5.2,27604,172.16.1.2,5102,8720,27620,2086,64256,65728,6,6,4,1460,170312,1,16778208,420000,66348,62004,65700,0,24616,0,3657195783,63
i,1723653701.101641,172.16.5.2,27604,172.16.1.2,5102,8720,27620,2086,64256,65728,6,6,4,1460,170312,1,16778208,420000,66348,62004,65700,0,27512,0,3657195783,63
o,1723653701.101817,172.16.5.2,27604,172.16.1.2,5102,8720,27620,2086,64256,65728,6,6,4,1460,166562,1,16778208,430000,66348,59108,65700,0,24616,0,3657195783,63
i,1723653701.122914,172.16.5.2,27604,172.16.1.2,5102,8720,27620,2086,64256,65728,6,6,4,1460,166562,1,16778208,430000,66348,66348,65700,0,27512,0,3657195783,63
o,1723653701.122937,172.16.5.2,27604,172.16.1.2,5102,8720,27620,2086,64256,65728,6,6,4,1460,160937,1,16778208,450000,66348,63452,65700,0,24616,0,3657195783,63
i,1723653701.123081,172.16.5.2,27604,172.16.1.2,5102,8720,27620,2086,64256,65728,6,6,4,1460,160937,1,16778208,450000,66348,63452,65700,0,27512,0,3657195783,63
o,1723653701.123098,172.16.5.2,27604,172.16.1.2,5102,8720,27620,2086,62848,65728,6,6,4,1460,155937,1,16778208,470000,66348,60556,65700,0,24616,0,3657195783,63
i,1723653701.125761,172.16.5.2,27604,172.16.1.2,5102,8720,27620,2086,62848,65728,6,6,4,1460,155937,1,16778208,470000,66348,66348,65700,0,27512,0,3657195783,63
o,1723653701.125779,172.16.5.2,27604,172.16.1.2,5102,8720,27620,2086,64256,65728,6,6,4,1460,151562,1,16778208,470000,66348,63452,65700,0,24616,0,3657195783,63
i,1723653701.125932,172.16.5.2,27604,172.16.1.2,5102,8720,27620,2086,64256,65728,6,6,4,1460,151562,1,16778208,470000,66348,63452,65700,0,27512,0,3657195783,63
o,1723653701.125950,172.16.5.2,27604,172.16.1.2,5102,8720,29080,2086,61376,65728,6,6,4,1460,147812,1,16778208,470000,66348,60556,65700,0,24616,0,3657195783,63
i,1723653701.126116,172.16.5.2,27604,172.16.1.2,5102,8720,29080,2086,61376,65728,6,6,4,1460,147812,1,16778208,470000,66348,60556,65700,0,28960,0,3657195783,63
o,1723653701.126132,172.16.5.2,27604,172.16.1.2,5102,8720,29080,2086,64256,65728,6,6,4,1460,144375,1,16778208,460000,66348,57660,65700,0,26064,0,3657195783,63
o,1723653701.126276,172.16.5.2,27604,172.16.1.2,5102,8720,29080,2086,64256,65728,6,6,4,1460,144375,1,16778208,460000,66348,57660,65700,0,27512,0,3657195783,63
i,1723653701.126663,172.16.5.2,27604,172.16.1.2,5102,8720,29080,2086,64256,65728,6,6,4,1460,144375,1,16778208,460000,66348,66348,65700,0,28960,0,3657195783,63
o,1723653701.126679,172.16.5.2,27604,172.16.1.2,5102,8720,29080,2086,62848,65728,6,6,4,1460,141562,1,16778208,450000,66348,63452,65700,0,26064,0,3657195783,63
i,1723653701.128017,172.16.5.2,27604,172.16.1.2,5102,8720,29080,2086,62848,65728,6,6,4,1460,141562,1,16778208,450000,66348,66348,65700,0,28960,0,3657195783,63
o,1723653701.128037,172.16.5.2,27604,172.16.1.2,5102,8720,29080,2086,62848,65728,6,6,4,1460,139062,1,16778208,440000,66348,63452,65700,0,26064,0,3657195783,63
i,1723653701.230974,172.16.5.2,27604,172.16.1.2,5102,8720,29080,2086,62848,65728,6,6,4,1460,139062,1,16778208,440000,66348,66348,65700,0,28960,0,3657195783,63
o,1723653701.231180,172.16.5.2,27604,172.16.1.2,5102,8720,29080,2086,65728,65728,6,6,4,1460,145625,1,16778208,470000,66348,64900,65700,0,27512,0,3657195783,63
i,1723653701.251886,172.16.5.2,27604,172.16.1.2,5102,8720,29080,2086,65728,65728,6,6,4,1460,145625,1,16778208,470000,66348,64900,65700,0,28960,0,3657195783,63
o,1723653701.251987,172.16.5.2,27604,172.16.1.2,5102,8720,29080,2086,95680,65728,6,6,4,1460,145000,1,16778208,450000,66348,62004,65700,0,26064,0,3657195783,63
i,1723653701.252252,172.16.5.2,27604,172.16.1.2,5102,8720,29080,2086,95680,65728,6,6,4,1460,145000,1,16778208,450000,66348,62004,65700,0,28960,0,3657195783,63
o,1723653701.252279,172.16.5.2,27604,172.16.1.2,5102,8720,29080,2086,95680,65728,6,6,4,1460,144375,1,16778208,420000,66348,59108,65700,0,26064,0,3657195783,63
i,1723653701.252423,172.16.5.2,27604,172.16.1.2,5102,8720,29080,2086,95680,65728,6,6,4,1460,144375,1,16778208,420000,66348,59108,65700,0,28960,0,3657195783,63
o,1723653701.252455,172.16.5.2,27604,172.16.1.2,5102,8720,29080,2086,92800,65728,6,6,4,1460,142812,1,16778208,420000,66348,56212,65700,0,26064,0,3657195783,63
i,1723653701.281336,172.16.5.2,27604,172.16.1.2,5102,8720,29080,2086,92800,65728,6,6,4,1460,142812,1,16778208,420000,66348,66348,65700,0,28960,0,3657195783,63
o,1723653701.281701,172.16.5.2,27604,172.16.1.2,5102,8720,29080,2086,95680,65728,6,6,4,1460,145000,1,16778208,420000,66348,63452,65700,0,26064,0,3657195783,63
i,1723653701.282360,172.16.5.2,27604,172.16.1.2,5102,8720,29080,2086,95680,65728,6,6,4,1460,145000,1,16778208,420000,66348,63452,65700,0,28960,0,3657195783,63
o,1723653701.282471,172.16.5.2,27604,172.16.1.2,5102,8720,29080,2086,97152,65728,6,6,4,1460,146875,1,16778208,420000,66348,60556,65700,0,26064,0,3657195783,63
i,1723653701.282829,172.16.5.2,27604,172.16.1.2,5102,8720,29080,2086,97152,65728,6,6,4,1460,146875,1,16778208,420000,66348,60556,65700,0,28960,0,3657195783,63
o,1723653701.282906,172.16.5.2,27604,172.16.1.2,5102,8720,30540,2086,95680,65728,6,6,4,1460,148750,1,16778208,420000,66348,57660,65700,0,26064,0,3657195783,63
i,1723653701.283208,172.16.5.2,27604,172.16.1.2,5102,8720,30540,2086,95680,65728,6,6,4,1460,148750,1,16778208,420000,66348,57660,65700,0,30408,0,3657195783,63
o,1723653701.283263,172.16.5.2,27604,172.16.1.2,5102,8720,30540,2086,97152,65728,6,6,4,1460,150312,1,16778208,410000,66348,54764,65700,0,27512,0,3657195783,63
o,1723653701.283469,172.16.5.2,27604,172.16.1.2,5102,8720,30540,2086,97152,65728,6,6,4,1460,150312,1,16778208,410000,66348,54764,65700,0,28960,0,3657195783,63
i,1723653701.283794,172.16.5.2,27604,172.16.1.2,5102,8720,30540,2086,97152,65728,6,6,4,1460,150312,1,16778208,410000,66348,54764,65700,0,30408,0,3657195783,63
o,1723653701.283825,172.16.5.2,27604,172.16.1.2,5102,8720,30540,2086,95680,65728,6,6,4,1460,151562,1,16778208,410000,66348,51868,65700,0,27512,0,3657195783,63
i,1723653701.285156,172.16.5.2,27604,172.16.1.2,5102,8720,30540,2086,95680,65728,6,6,4,1460,151562,1,16778208,410000,66348,66348,65700,0,30408,0,3657195783,63
o,1723653701.285484,172.16.5.2,27604,172.16.1.2,5102,8720,30540,2086,97152,65728,6,6,4,1460,152812,1,16778208,410000,66348,63452,65700,0,27512,0,3657195783,63
i,1723653701.367640,172.16.5.2,27604,172.16.1.2,5102,8720,30540,2086,97152,65728,6,6,4,1460,152812,1,16778208,410000,66348,66348,65700,0,30408,0,3657195783,63
o,1723653701.367742,172.16.5.2,27604,172.16.1.2,5102,8720,30540,2086,98560,65728,6,6,4,1460,162500,1,16778208,480000,66348,64900,65700,0,28960,0,3657195783,63
i,1723653701.403065,172.16.5.2,27604,172.16.1.2,5102,8720,30540,2086,98560,65728,6,6,4,1460,162500,1,16778208,480000,66348,64900,65700,0,30408,0,3657195783,63
o,1723653701.403162,172.16.5.2,27604,172.16.1.2,5102,8720,30540,2086,98560,65728,6,6,4,1460,163437,1,16778208,460000,66348,63452,65700,0,28960,0,3657195783,63
i,1723653701.421899,172.16.5.2,27604,172.16.1.2,5102,8720,30540,2086,98560,65728,6,6,4,1460,163437,1,16778208,460000,66348,66348,65700,0,30408,0,3657195783,63
o,1723653701.421924,172.16.5.2,27604,172.16.1.2,5102,8720,30540,2086,95680,65728,6,6,4,1460,164375,1,16778208,440000,66348,63452,65700,0,27512,0,3657195783,63
i,1723653701.422052,172.16.5.2,27604,172.16.1.2,5102,8720,30540,2086,95680,65728,6,6,4,1460,164375,1,16778208,440000,66348,63452,65700,0,30408,0,3657195783,63
o,1723653701.422070,172.16.5.2,27604,172.16.1.2,5102,8720,30540,2086,92800,65728,6,6,4,1460,165312,1,16778208,430000,66348,60556,65700,0,27512,0,3657195783,63
i,1723653701.422251,172.16.5.2,27604,172.16.1.2,5102,8720,30540,2086,92800,65728,6,6,4,1460,165312,1,16778208,430000,74540,60556,65700,0,30408,0,3657195783,63
o,1723653701.422268,172.16.5.2,27604,172.16.1.2,5102,8720,30540,2086,89920,65728,6,6,4,1460,165937,1,16778208,420000,74540,57660,65700,0,27512,0,3657195783,63
i,1723653701.424989,172.16.5.2,27604,172.16.1.2,5102,8720,30540,2086,89920,65728,6,6,4,1460,165937,1,16778208,420000,74540,74540,65700,0,30408,0,3657195783,63
o,1723653701.425012,172.16.5.2,27604,172.16.1.2,5102,8720,30540,2086,95680,65728,6,6,4,1460,161562,1,16778208,440000,74540,71644,65700,0,27512,0,3657195783,63
i,1723653701.425162,172.16.5.2,27604,172.16.1.2,5102,8720,30540,2086,95680,65728,6,6,4,1460,161562,1,16778208,440000,74540,71644,65700,0,30408,0,3657195783,63
o,1723653701.425178,172.16.5.2,27604,172.16.1.2,5102,8720,30540,2086,92800,65728,6,6,4,1460,157812,1,16778208,440000,74540,68748,65700,0,27512,0,3657195783,63
i,1723653701.441700,172.16.5.2,27604,172.16.1.2,5102,8720,30540,2086,92800,65728,6,6,4,1460,157812,1,16778208,440000,74540,74540,65700,0,30408,0,3657195783,63
o,1723653701.441722,172.16.5.2,27604,172.16.1.2,5102,8720,30540,2086,95680,65728,6,6,4,1460,156875,1,16778208,430000,74540,71644,65700,0,27512,0,3657195783,63
i,1723653701.441912,172.16.5.2,27604,172.16.1.2,5102,8720,30540,2086,95680,65728,6,6,4,1460,156875,1,16778208,430000,74540,71644,65700,0,30408,0,3657195783,63
o,1723653701.441929,172.16.5.2,27604,172.16.1.2,5102,8720,32000,2086,92800,65728,6,6,4,1460,156250,1,16778208,410000,74540,68748,65700,0,27512,0,3657195783,63
o,1723653701.442049,172.16.5.2,27604,172.16.1.2,5102,8720,32000,2086,92800,65728,6,6,4,1460,156250,1,16778208,410000,74540,68748,65700,0,28960,0,3657195783,63
i,1723653701.443422,172.16.5.2,27604,172.16.1.2,5102,8720,32000,2086,92800,65728,6,6,4,1460,156250,1,16778208,410000,74540,74540,65700,0,31856,0,3657195783,63
o,1723653701.443441,172.16.5.2,27604,172.16.1.2,5102,8720,32000,2086,95680,65728,6,6,4,1460,155625,1,16778208,400000,74540,71644,65700,0,28960,0,3657195783,63
i,1723653701.443570,172.16.5.2,27604,172.16.1.2,5102,8720,32000,2086,95680,65728,6,6,4,1460,155625,1,16778208,400000,74540,71644,65700,0,31856,0,3657195783,63
o,1723653701.443586,172.16.5.2,27604,172.16.1.2,5102,8720,32000,2086,95680,65728,6,6,4,1460,155000,1,16778208,400000,74540,68748,65700,0,28960,0,3657195783,63
i,1723653701.489637,172.16.5.2,27604,172.16.1.2,5102,8720,32000,2086,95680,65728,6,6,4,1460,155000,1,16778208,400000,74540,74540,65700,0,31856,0,3657195783,63
o,1723653701.489746,172.16.5.2,27604,172.16.1.2,5102,8720,32000,2086,97152,65728,6,6,4,1460,160625,1,16778208,440000,74540,71644,65700,0,28960,0,3657195783,63
i,1723653701.553016,172.16.5.2,27604,172.16.1.2,5102,8720,32000,2086,97152,65728,6,6,4,1460,160625,1,16778208,440000,74540,74540,65700,0,31856,0,3657195783,63
o,1723653701.553047,172.16.5.2,27604,172.16.1.2,5102,8720,32000,2086,97152,65728,6,6,4,1460,159375,1,16778208,420000,74540,71644,65700,0,28960,0,3657195783,63
i,1723653701.554496,172.16.5.2,27604,172.16.1.2,5102,8720,32000,2086,97152,65728,6,6,4,1460,159375,1,16778208,420000,74540,74540,65700,0,31856,0,3657195783,63
o,1723653701.554562,172.16.5.2,27604,172.16.1.2,5102,8720,32000,2086,97152,65728,6,6,4,1460,155937,1,16778208,430000,74540,71644,65700,0,28960,0,3657195783,63
i,1723653701.582614,172.16.5.2,27604,172.16.1.2,5102,8720,32000,2086,97152,65728,6,6,4,1460,155937,1,16778208,430000,74540,74540,65700,0,31856,0,3657195783,63
o,1723653701.582686,172.16.5.2,27604,172.16.1.2,5102,8720,32000,2086,95680,65728,6,6,4,1460,156562,1,16778208,420000,74540,71644,65700,0,28960,0,3657195783,63
i,1723653701.582934,172.16.5.2,27604,172.16.1.2,5102,8720,32000,2086,95680,65728,6,6,4,1460,156562,1,16778208,420000,74540,71644,65700,0,31856,0,3657195783,63
o,1723653701.582971,172.16.5.2,27604,172.16.1.2,5102,8720,32000,2086,92800,65728,6,6,4,1460,157187,1,16778208,410000,74540,68748,65700,0,28960,0,3657195783,63
i,1723653701.583206,172.16.5.2,27604,172.16.1.2,5102,8720,32000,2086,92800,65728,6,6,4,1460,157187,1,16778208,410000,74540,68748,65700,0,31856,0,3657195783,63
o,1723653701.583231,172.16.5.2,27604,172.16.1.2,5102,8720,32000,2086,95680,65728,6,6,4,1460,157812,1,16778208,400000,74540,65852,65700,0,28960,0,3657195783,63
i,1723653701.583428,172.16.5.2,27604,172.16.1.2,5102,8720,32000,2086,95680,65728,6,6,4,1460,157812,1,16778208,400000,74540,65852,65700,0,31856,0,3657195783,63
o,1723653701.583444,172.16.5.2,27604,172.16.1.2,5102,8720,32000,2086,97152,65728,6,6,4,1460,158125,1,16778208,390000,74540,62956,65700,0,28960,0,3657195783,63
i,1723653701.584532,172.16.5.2,27604,172.16.1.2,5102,8720,32000,2086,97152,65728,6,6,4,1460,158125,1,16778208,390000,74540,74540,65700,0,31856,0,3657195783,63
o,1723653701.584601,172.16.5.2,27604,172.16.1.2,5102,8720,32000,2086,97152,65728,6,6,4,1460,155937,1,16778208,400000,74540,71644,65700,0,28960,0,3657195783,63
o,1723653701.584724,172.16.5.2,27604,172.16.1.2,5102,8720,32000,2086,97152,65728,6,6,4,1460,155937,1,16778208,400000,74540,71644,65700,0,30408,0,3657195783,63
i,1723653701.584854,172.16.5.2,27604,172.16.1.2,5102,8720,32000,2086,97152,65728,6,6,4,1460,155937,1,16778208,400000,74540,71644,65700,0,31856,0,3657195783,63
o,1723653701.584870,172.16.5.2,27604,172.16.1.2,5102,8720,33460,2086,97152,65728,6,6,4,1460,154062,1,16778208,400000,74540,68748,65700,0,28960,0,3657195783,63
i,1723653701.591297,172.16.5.2,27604,172.16.1.2,5102,8720,33460,2086,97152,65728,6,6,4,1460,154062,1,16778208,400000,74540,74540,65700,0,33304,0,3657195783,63
o,1723653701.591386,172.16.5.2,27604,172.16.1.2,5102,8720,33460,2086,97152,65728,6,6,4,1460,153750,1,16778208,390000,74540,71644,65700,0,30408,0,3657195783,63
i,1723653701.622353,172.16.5.2,27604,172.16.1.2,5102,8720,33460,2086,97152,65728,6,6,4,1460,153750,1,16778208,390000,74540,74540,65700,0,33304,0,3657195783,63
o,1723653701.622384,172.16.5.2,27604,172.16.1.2,5102,8720,33460,2086,97152,65728,6,6,4,1460,157187,1,16778208,410000,74540,71644,65700,0,30408,0,3657195783,63
i,1723653701.641550,172.16.5.2,27604,172.16.1.2,5102,8720,33460,2086,97152,65728,6,6,4,1460,157187,1,16778208,410000,74540,74540,65700,0,33304,0,3657195783,63
o,1723653701.641577,172.16.5.2,27604,172.16.1.2,5102,8720,33460,2086,95680,65728,6,6,4,1460,156562,1,16778208,400000,74540,71644,65700,0,30408,0,3657195783,63
i,1723653701.722544,172.16.5.2,27604,172.16.1.2,5102,8720,33460,2086,95680,65728,6,6,4,1460,156562,1,16778208,400000,74540,74540,65700,0,33304,0,3657195783,63
o,1723653701.722607,172.16.5.2,27604,172.16.1.2,5102,8720,33460,2086,97152,65728,6,6,4,1460,158437,1,16778208,410000,74540,71644,65700,0,30408,0,3657195783,63
i,1723653701.722877,172.16.5.2,27604,172.16.1.2,5102,8720,33460,2086,97152,65728,6,6,4,1460,158437,1,16778208,410000,74540,71644,65700,0,33304,0,3657195783,63
o,1723653701.722914,172.16.5.2,27604,172.16.1.2,5102,8720,33460,2086,94272,65728,6,6,4,1460,160000,1,16778208,410000,74540,68748,65700,0,30408,0,3657195783,63
i,1723653701.723140,172.16.5.2,27604,172.16.1.2,5102,8720,33460,2086,94272,65728,6,6,4,1460,160000,1,16778208,410000,74540,68748,65700,0,33304,0,3657195783,63
o,1723653701.723168,172.16.5.2,27604,172.16.1.2,5102,8720,33460,2086,97152,65728,6,6,4,1460,156250,1,16778208,420000,74540,65852,65700,0,30408,0,3657195783,63
i,1723653701.724652,172.16.5.2,27604,172.16.1.2,5102,8720,33460,2086,97152,65728,6,6,4,1460,156250,1,16778208,420000,82732,82732,65700,0,33304,0,3657195783,63
o,1723653701.724762,172.16.5.2,27604,172.16.1.2,5102,8720,33460,2086,95680,65728,6,6,4,1460,153125,1,16778208,430000,82732,79836,65700,0,30408,0,3657195783,63
i,1723653701.724946,172.16.5.2,27604,172.16.1.2,5102,8720,33460,2086,95680,65728,6,6,4,1460,153125,1,16778208,430000,82732,79836,65700,0,33304,0,3657195783,63
o,1723653701.724970,172.16.5.2,27604,172.16.1.2,5102,8720,33460,2086,95680,65728,6,6,4,1460,150312,1,16778208,430000,82732,76940,65700,0,30408,0,3657195783,63
i,1723653701.726873,172.16.5.2,27604,172.16.1.2,5102,8720,33460,2086,95680,65728,6,6,4,1460,150312,1,16778208,430000,82732,82732,65700,0,33304,0,3657195783,63
o,1723653701.726892,172.16.5.2,27604,172.16.1.2,5102,8720,33460,2086,97152,65728,6,6,4,1460,147812,1,16778208,430000,82732,79836,65700,0,30408,0,3657195783,63
i,1723653701.754310,172.16.5.2,27604,172.16.1.2,5102,8720,33460,2086,97152,65728,6,6,4,1460,147812,1,16778208,430000,82732,82732,65700,0,33304,0,3657195783,63
o,1723653701.754613,172.16.5.2,27604,172.16.1.2,5102,8720,33460,2086,97152,65728,6,6,4,1460,150625,1,16778208,430000,82732,79836,65700,0,30408,0,3657195783,63
o,1723653701.754859,172.16.5.2,27604,172.16.1.2,5102,8720,33460,2086,97152,65728,6,6,4,1460,150625,1,16778208,430000,82732,79836,65700,0,31856,0,3657195783,63
i,1723653701.755143,172.16.5.2,27604,172.16.1.2,5102,8720,33460,2086,97152,65728,6,6,4,1460,150625,1,16778208,430000,82732,79836,65700,0,33304,0,3657195783,63
o,1723653701.755219,172.16.5.2,27604,172.16.1.2,5102,8720,34920,2086,97152,65728,6,6,4,1460,153125,1,16778208,430000,82732,76940,65700,0,30408,0,3657195783,63
i,1723653701.771995,172.16.5.2,27604,172.16.1.2,5102,8720,34920,2086,97152,65728,6,6,4,1460,153125,1,16778208,430000,82732,82732,65700,0,34752,0,3657195783,63
o,1723653701.772019,172.16.5.2,27604,172.16.1.2,5102,8720,34920,2086,97152,65728,6,6,4,1460,156562,1,16778208,440000,82732,79836,65700,0,31856,0,3657195783,63
i,1723653701.772194,172.16.5.2,27604,172.16.1.2,5102,8720,34920,2086,97152,65728,6,6,4,1460,156562,1,16778208,440000,82732,79836,65700,0,34752,0,3657195783,63
o,1723653701.772211,172.16.5.2,27604,172.16.1.2,5102,8720,34920,2086,97152,65728,6,6,4,1460,159687,1,16778208,450000,82732,76940,65700,0,31856,0,3657195783,63
i,1723653701.813198,172.16.5.2,27604,172.16.1.2,5102,8720,34920,2086,97152,65728,6,6,4,1460,159687,1,16778208,450000,82732,82732,65700,0,34752,0,3657195783,63
o,1723653701.813319,172.16.5.2,27604,172.16.1.2,5102,8720,34920,2086,97152,65728,6,6,4,1460,163750,1,16778208,460000,82732,79836,65700,0,31856,0,3657195783,63
i,1723653701.842513,172.16.5.2,27604,172.16.1.2,5102,8720,34920,2086,97152,65728,6,6,4,1460,163750,1,16778208,460000,82732,82732,65700,0,34752,0,3657195783,63
o,1723653701.842646,172.16.5.2,27604,172.16.1.2,5102,8720,34920,2086,98560,65728,6,6,4,1460,168437,1,16778208,480000,82732,81284,65700,0,33304,0,3657195783,63
i,1723653701.855782,172.16.5.2,27604,172.16.1.2,5102,8720,34920,2086,98560,65728,6,6,4,1460,168437,1,16778208,480000,82732,81284,65700,0,34752,0,3657195783,63
o,1723653701.855826,172.16.5.2,27604,172.16.1.2,5102,8720,34920,2086,95680,65728,6,6,4,1460,163750,1,16778208,490000,82732,78388,65700,0,31856,0,3657195783,63
i,1723653701.873522,172.16.5.2,27604,172.16.1.2,5102,8720,34920,2086,95680,65728,6,6,4,1460,163750,1,16778208,490000,82732,82732,65700,0,34752,0,3657195783,63
o,1723653701.873606,172.16.5.2,27604,172.16.1.2,5102,8720,34920,2086,95680,65728,6,6,4,1460,162187,1,16778208,470000,82732,79836,65700,0,31856,0,3657195783,63
i,1723653701.873890,172.16.5.2,27604,172.16.1.2,5102,8720,34920,2086,95680,65728,6,6,4,1460,162187,1,16778208,470000,82732,79836,65700,0,34752,0,3657195783,63
o,1723653701.873932,172.16.5.2,27604,172.16.1.2,5102,8720,34920,2086,97152,65728,6,6,4,1460,160937,1,16778208,450000,82732,76940,65700,0,31856,0,3657195783,63
i,1723653701.874172,172.16.5.2,27604,172.16.1.2,5102,8720,34920,2086,97152,65728,6,6,4,1460,160937,1,16778208,450000,82732,76940,65700,0,34752,0,3657195783,63
o,1723653701.874199,172.16.5.2,27604,172.16.1.2,5102,8720,34920,2086,97152,65728,6,6,4,1460,159687,1,16778208,430000,82732,74044,65700,0,31856,0,3657195783,63
i,1723653701.876469,172.16.5.2,27604,172.16.1.2,5102,8720,34920,2086,97152,65728,6,6,4,1460,159687,1,16778208,430000,82732,82732,65700,0,34752,0,3657195783,63
o,1723653701.876490,172.16.5.2,27604,172.16.1.2,5102,8720,34920,2086,94272,65728,6,6,4,1460,158750,1,16778208,420000,82732,79836,65700,0,31856,0,3657195783,63
i,1723653701.876672,172.16.5.2,27604,172.16.1.2,5102,8720,34920,2086,94272,65728,6,6,4,1460,158750,1,16778208,420000,82732,79836,65700,0,34752,0,3657195783,63
o,1723653701.876688,172.16.5.2,27604,172.16.1.2,5102,8720,34920,2086,97152,65728,6,6,4,1460,157812,1,16778208,410000,82732,76940,65700,0,31856,0,3657195783,63
i,1723653701.877658,172.16.5.2,27604,172.16.1.2,5102,8720,34920,2086,97152,65728,6,6,4,1460,157812,1,16778208,410000,82732,82732,65700,0,34752,0,3657195783,63
o,1723653701.877678,172.16.5.2,27604,172.16.1.2,5102,8720,34920,2086,95680,65728,6,6,4,1460,153125,1,16778208,430000,82732,79836,65700,0,31856,0,3657195783,63
o,1723653701.877841,172.16.5.2,27604,172.16.1.2,5102,8720,34920,2086,95680,65728,6,6,4,1460,153125,1,16778208,430000,82732,79836,65700,0,33304,0,3657195783,63
i,1723653701.877959,172.16.5.2,27604,172.16.1.2,5102,8720,34920,2086,95680,65728,6,6,4,1460,153125,1,16778208,430000,82732,79836,65700,0,34752,0,3657195783,63
o,1723653701.877975,172.16.5.2,27604,172.16.1.2,5102,8720,34920,2086,95680,65728,6,6,4,1460,149062,1,16778208,440000,82732,76940,65700,0,31856,0,3657195783,63
