enable_time_secs=1723653519	enable_time_usecs=917032	siftrver=1.3.0	sysname=FreeBSD	sysver=1401000	ipmode=4
o,1723653519.917470,10.0.2.15,22,10.0.2.2,50528,1073725440,17746,1026,65535,65700,0,0,4,1460,312,0,16777220,240000,33580,172,65700,0,0,0,982676707,63
i,1723653519.918528,10.0.2.15,22,10.0.2.2,50528,1073725440,17746,1026,65535,65700,0,0,4,1460,312,0,16777220,240000,33580,172,65700,0,172,0,982676707,63
o,1723653519.918581,10.0.2.15,22,10.0.2.2,50528,1073725440,17918,1026,65535,65700,0,0,4,1460,312,0,16777220,240000,33580,72,65700,0,0,0,982676707,63
i,1723653519.918990,10.0.2.15,22,10.0.2.2,50528,1073725440,17918,1026,65535,65700,0,0,4,1460,312,0,16777220,240000,33580,72,65700,0,72,0,982676707,63
i,1723653519.919009,10.0.2.15,22,10.0.2.2,50528,1073725440,17990,1026,65535,65700,0,0,4,1460,312,0,4,240000,33580,0,65700,0,0,0,982676707,63
i,1723653519.919025,10.0.2.15,22,10.0.2.2,50528,1073725440,17990,1026,65535,65700,0,0,4,1460,312,0,4,240000,33580,0,65700,96,0,0,982676707,63
o,1723653519.919042,10.0.2.15,22,10.0.2.2,50528,1073725440,17990,1026,65535,65604,0,0,5,1460,312,0,5,240000,33580,0,65700,96,0,0,982676707,63
o,1723653519.919546,10.0.2.15,22,10.0.2.2,50528,1073725440,17990,1026,65535,65604,0,0,8,1460,312,0,4,240000,33580,0,65700,0,0,0,982676707,63
i,1723653519.922025,10.0.2.15,22,10.0.2.2,50528,1073725440,17990,1026,65535,65604,0,0,8,1460,312,0,67108884,240000,33580,0,65700,0,1,0,982676707,63
i,1723653523.137574,10.0.2.15,22,10.0.2.2,50530,1073725440,14600,0,65535,65700,0,0,4,1460,312,0,16777216,270000,33580,0,65700,0,0,0,1786418959,63
o,1723653523.146751,10.0.2.15,22,10.0.2.2,50530,1073725440,14600,1026,65535,65700,0,0,4,1460,312,0,16777216,270000,33580,38,65700,42,0,0,1786418959,63
i,1723653523.148198,10.0.2.15,22,10.0.2.2,50530,1073725440,14600,1026,65535,65700,0,0,4,1460,312,0,16777216,270000,33580,38,65700,0,38,0,1786418959,63
i,1723653523.148708,10.0.2.15,22,10.0.2.2,50530,1073725440,14638,1026,65535,65700,0,0,4,1460,312,0,0,230000,33580,0,65700,0,0,0,1786418959,63
i,1723653523.148736,10.0.2.15,22,10.0.2.2,50530,1073725440,14638,1026,65535,65700,0,0,4,1460,312,0,0,230000,33580,0,65700,1460,0,0,1786418959,63
o,1723653523.148768,10.0.2.15,22,10.0.2.2,50530,1073725440,14638,1026,65535,65700,0,0,4,1460,312,0,1,230000,33580,0,65700,1536,0,0,1786418959,63
o,1723653523.151359,10.0.2.15,22,10.0.2.2,50530,1073725440,14638,1026,65535,65700,0,0,4,1460,312,0,16777216,230000,33580,1120,65700,1536,0,0,1786418959,63
i,1723653523.152227,10.0.2.15,22,10.0.2.2,50530,1073725440,14638,1026,65535,65700,0,0,4,1460,312,0,16777216,230000,33580,1120,65700,0,1120,0,1786418959,63
i,1723653523.153255,10.0.2.15,22,10.0.2.2,50530,1073725440,15758,1026,65535,65700,0,0,4,1460,312,0,0,230000,33580,0,65700,0,0,0,1786418959,63
o,1723653523.156232,10.0.2.15,22,10.0.2.2,50530,1073725440,15758,1026,65535,65700,0,0,4,1460,312,0,16777216,230000,33580,492,65700,0,0,0,1786418959,63
i,1723653523.156636,10.0.2.15,22,10.0.2.2,50530,1073725440,15758,1026,65535,65700,0,0,4,1460,312,0,16777216,230000,33580,492,65700,0,492,0,1786418959,63
i,1723653523.160641,10.0.2.15,22,10.0.2.2,50530,1073725440,16250,1026,65535,65700,0,0,4,1460,312,0,0,230000,33580,0,65700,0,0,0,1786418959,63
i,1723653523.160658,10.0.2.15,22,10.0.2.2,50530,1073725440,16250,1026,65535,65700,0,0,4,1460,312,0,0,230000,33580,0,65700,16,0,0,1786418959,63
o,1723653523.160673,10.0.2.15,22,10.0.2.2,50530,1073725440,16250,1026,65535,65700,0,0,4,1460,312,0,1,230000,33580,0,65700,60,0,0,1786418959,63
o,1723653523.160806,10.0.2.15,22,10.0.2.2,50530,1073725440,16250,1026,65535,65700,0,0,4,1460,312,0,16777216,230000,33580,44,65700,0,0,0,1786418959,63
i,1723653523.161602,10.0.2.15,22,10.0.2.2,50530,1073725440,16250,1026,65535,65700,0,0,4,1460,312,0,16777216,230000,33580,44,65700,0,44,0,1786418959,63
i,1723653523.161618,10.0.2.15,22,10.0.2.2,50530,1073725440,16294,1026,65535,65700,0,0,4,1460,312,0,0,230000,33580,0,65700,0,0,0,1786418959,63
o,1723653523.162896,10.0.2.15,22,10.0.2.2,50530,1073725440,16294,1026,65535,65700,0,0,4,1460,312,0,16777216,230000,33580,68,65700,0,0,0,1786418959,63
i,1723653523.163432,10.0.2.15,22,10.0.2.2,50530,1073725440,16294,1026,65535,65700,0,0,4,1460,312,0,16777216,230000,33580,68,65700,0,68,0,1786418959,63
i,1723653523.163475,10.0.2.15,22,10.0.2.2,50530,1073725440,16362,1026,65535,65700,0,0,4,1460,312,0,0,240000,33580,0,65700,0,0,0,1786418959,63
o,1723653523.164456,10.0.2.15,22,10.0.2.2,50530,1073725440,16362,1026,65535,65700,0,0,4,1460,312,0,16777216,240000,33580,332,65700,0,0,0,1786418959,63
i,1723653523.165198,10.0.2.15,22,10.0.2.2,50530,1073725440,16362,1026,65535,65700,0,0,4,1460,312,0,16777216,240000,33580,332,65700,0,332,0,1786418959,63
i,1723653523.166475,10.0.2.15,22,10.0.2.2,50530,1073725440,16694,1026,65535,65700,0,0,4,1460,312,0,0,240000,33580,0,65700,0,0,0,1786418959,63
o,1723653523.184821,10.0.2.15,22,10.0.2.2,50530,1073725440,16694,1026,65535,65700,0,0,4,1460,312,0,16777216,240000,33580,28,65700,0,0,0,1786418959,63
i,1723653523.185496,10.0.2.15,22,10.0.2.2,50530,1073725440,16694,1026,65535,65700,0,0,4,1460,312,0,16777216,240000,33580,28,65700,0,28,0,1786418959,63
i,1723653523.185525,10.0.2.15,22,10.0.2.2,50530,1073725440,16722,1026,65535,65700,0,0,4,1460,312,0,0,240000,33580,0,65700,0,0,0,1786418959,63
o,1723653523.186562,10.0.2.15,22,10.0.2.2,50530,1073725440,16722,1026,65535,65700,0,0,4,1460,312,0,16777216,240000,33580,768,65700,112,0,0,1786418959,63
i,1723653523.187482,10.0.2.15,22,10.0.2.2,50530,1073725440,16722,1026,65535,65700,0,0,4,1460,312,0,16777216,240000,33580,908,65700,112,768,0,1786418959,63
o,1723653523.187499,10.0.2.15,22,10.0.2.2,50530,1073725440,17490,1026,65535,65700,0,0,4,1460,312,0,16777216,230000,33580,140,65700,112,0,0,1786418959,63
i,1723653523.187872,10.0.2.15,22,10.0.2.2,50530,1073725440,17490,1026,65535,65700,0,0,4,1460,312,0,16777216,230000,33580,140,65700,112,140,0,1786418959,63
o,1723653523.188282,10.0.2.15,22,10.0.2.2,50530,1073725440,17630,1026,65535,65700,0,0,4,1460,312,0,16777216,230000,33580,44,65700,0,0,0,1786418959,63
i,1723653523.188927,10.0.2.15,22,10.0.2.2,50530,1073725440,17630,1026,65535,65700,0,0,4,1460,312,0,16777216,230000,33580,44,65700,0,44,0,1786418959,63
i,1723653523.188943,10.0.2.15,22,10.0.2.2,50530,1073725440,17674,1026,65535,65700,0,0,4,1460,312,0,0,230000,33580,0,65700,0,0,0,1786418959,63
o,1723653523.189558,10.0.2.15,22,10.0.2.2,50530,1073725440,17674,1026,65535,65700,0,0,4,1460,312,0,16777220,230000,33580,72,65700,0,0,0,1786418959,63
i,1723653523.189983,10.0.2.15,22,10.0.2.2,50530,1073725440,17674,1026,65535,65700,0,0,4,1460,312,0,16777220,230000,33580,72,65700,0,72,0,1786418959,63
o,1723653523.192245,10.0.2.15,22,10.0.2.2,50530,1073725440,17746,1026,65535,65700,0,0,4,1460,312,0,16777220,230000,33580,104,65700,0,0,0,1786418959,63
i,1723653523.192696,10.0.2.15,22,10.0.2.2,50530,1073725440,17746,1026,65535,65700,0,0,4,1460,312,0,16777220,230000,33580,104,65700,0,104,0,1786418959,63
o,1723653523.204001,10.0.2.15,22,10.0.2.2,50530,1073725440,17850,1026,65535,65700,0,0,4,1460,312,0,16777220,240000,33580,72,65700,0,0,0,1786418959,63
i,1723653523.204447,10.0.2.15,22,10.0.2.2,50530,1073725440,17850,1026,65535,65700,0,0,4,1460,312,0,16777220,240000,33580,72,65700,0,72,0,1786418959,63
i,1723653523.205067,10.0.2.15,22,10.0.2.2,50530,1073725440,17922,1026,65535,65700,0,0,4,1460,312,0,4,240000,33580,0,65700,0,0,0,1786418959,63
i,1723653523.205092,10.0.2.15,22,10.0.2.2,50530,1073725440,17922,1026,65535,65700,0,0,4,1460,312,0,4,240000,33580,0,65700,96,0,0,1786418959,63
o,1723653523.205115,10.0.2.15,22,10.0.2.2,50530,1073725440,17922,1026,65535,65604,0,0,5,1460,312,0,5,240000,33580,0,65700,96,0,0,1786418959,63
o,1723653523.215386,10.0.2.15,22,10.0.2.2,50530,1073725440,17922,1026,65535,65604,0,0,8,1460,312,0,4,240000,33580,0,65700,0,0,0,1786418959,63
i,1723653523.215906,10.0.2.15,22,10.0.2.2,50530,1073725440,17922,1026,65535,65604,0,0,8,1460,312,0,20,240000,33580,0,65700,0,1,0,1786418959,63
i,1723653524.302422,10.0.2.15,22,10.0.2.2,50536,1073725440,14600,0,65535,65700,0,0,4,1460,312,0,16777216,270000,33580,0,65700,0,0,0,4004006936,63
o,1723653524.312183,10.0.2.15,22,10.0.2.2,50536,1073725440,14600,1026,65535,65700,0,0,4,1460,312,0,16777216,270000,33580,38,65700,42,0,0,4004006936,63
i,1723653524.312853,10.0.2.15,22,10.0.2.2,50536,1073725440,14600,1026,65535,65700,0,0,4,1460,312,0,16777216,270000,33580,38,65700,0,38,0,4004006936,63
i,1723653524.313235,10.0.2.15,22,10.0.2.2,50536,1073725440,14638,1026,65535,65700,0,0,4,1460,312,0,0,240000,33580,0,65700,0,0,0,4004006936,63
i,1723653524.313272,10.0.2.15,22,10.0.2.2,50536,1073725440,14638,1026,65535,65700,0,0,4,1460,312,0,0,240000,33580,0,65700,1460,0,0,4004006936,63
o,1723653524.313302,10.0.2.15,22,10.0.2.2,50536,1073725440,14638,1026,65535,65700,0,0,4,1460,312,0,1,240000,33580,0,65700,1536,0,0,4004006936,63
o,1723653524.314046,10.0.2.15,22,10.0.2.2,50536,1073725440,14638,1026,65535,65700,0,0,4,1460,312,0,16777216,240000,33580,1120,65700,1536,0,0,4004006936,63
i,1723653524.314749,10.0.2.15,22,10.0.2.2,50536,1073725440,14638,1026,65535,65700,0,0,4,1460,312,0,16777216,240000,33580,1120,65700,0,1120,0,4004006936,63
i,1723653524.315877,10.0.2.15,22,10.0.2.2,50536,1073725440,15758,1026,65535,65700,0,0,4,1460,312,0,0,240000,33580,0,65700,0,0,0,4004006936,63
o,1723653524.319031,10.0.2.15,22,10.0.2.2,50536,1073725440,15758,1026,65535,65700,0,0,4,1460,312,0,16777216,240000,33580,492,65700,0,0,0,4004006936,63
i,1723653524.319696,10.0.2.15,22,10.0.2.2,50536,1073725440,15758,1026,65535,65700,0,0,4,1460,312,0,16777216,240000,33580,492,65700,0,492,0,4004006936,63
i,1723653524.323913,10.0.2.15,22,10.0.2.2,50536,1073725440,16250,1026,65535,65700,0,0,4,1460,312,0,0,240000,33580,0,65700,0,0,0,4004006936,63
i,1723653524.323932,10.0.2.15,22,10.0.2.2,50536,1073725440,16250,1026,65535,65700,0,0,4,1460,312,0,0,240000,33580,0,65700,16,0,0,4004006936,63
o,1723653524.323947,10.0.2.15,22,10.0.2.2,50536,1073725440,16250,1026,65535,65700,0,0,4,1460,312,0,1,240000,33580,0,65700,60,0,0,4004006936,63
o,1723653524.324093,10.0.2.15,22,10.0.2.2,50536,1073725440,16250,1026,65535,65700,0,0,4,1460,312,0,16777216,240000,33580,44,65700,0,0,0,4004006936,63
i,1723653524.324893,10.0.2.15,22,10.0.2.2,50536,1073725440,16250,1026,65535,65700,0,0,4,1460,312,0,16777216,240000,33580,44,65700,0,44,0,4004006936,63
i,1723653524.324914,10.0.2.15,22,10.0.2.2,50536,1073725440,16294,1026,65535,65700,0,0,4,1460,312,0,0,240000,33580,0,65700,0,0,0,4004006936,63
o,1723653524.326266,10.0.2.15,22,10.0.2.2,50536,1073725440,16294,1026,65535,65700,0,0,4,1460,312,0,16777216,240000,33580,68,65700,0,0,0,4004006936,63
i,1723653524.326691,10.0.2.15,22,10.0.2.2,50536,1073725440,16294,1026,65535,65700,0,0,4,1460,312,0,16777216,240000,33580,68,65700,0,68,0,4004006936,63
i,1723653524.326709,10.0.2.15,22,10.0.2.2,50536,1073725440,16362,1026,65535,65700,0,0,4,1460,312,0,0,240000,33580,0,65700,0,0,0,4004006936,63
o,1723653524.328007,10.0.2.15,22,10.0.2.2,50536,1073725440,16362,1026,65535,65700,0,0,4,1460,312,0,16777216,240000,33580,332,65700,0,0,0,4004006936,63
i,1723653524.328879,10.0.2.15,22,10.0.2.2,50536,1073725440,16362,1026,65535,65700,0,0,4,1460,312,0,16777216,240000,33580,332,65700,0,332,0,4004006936,63
i,1723653524.330104,10.0.2.15,22,10.0.2.2,50536,1073725440,16694,1026,65535,65700,0,0,4,1460,312,0,0,240000,33580,0,65700,0,0,0,4004006936,63
o,1723653524.348379,10.0.2.15,22,10.0.2.2,50536,1073725440,16694,1026,65535,65700,0,0,4,1460,312,0,16777216,240000,33580,28,65700,0,0,0,4004006936,63
i,1723653524.348988,10.0.2.15,22,10.0.2.2,50536,1073725440,16694,1026,65535,65700,0,0,4,1460,312,0,16777216,240000,33580,28,65700,0,28,0,4004006936,63
i,1723653524.349007,10.0.2.15,22,10.0.2.2,50536,1073725440,16722,1026,65535,65700,0,0,4,1460,312,0,0,240000,33580,0,65700,0,0,0,4004006936,63
o,1723653524.350808,10.0.2.15,22,10.0.2.2,50536,1073725440,16722,1026,65535,65700,0,0,4,1460,312,0,16777216,240000,33580,768,65700,112,0,0,4004006936,63
i,1723653524.351628,10.0.2.15,22,10.0.2.2,50536,1073725440,16722,1026,65535,65700,0,0,4,1460,312,0,16777216,240000,33580,908,65700,112,768,0,4004006936,63
o,1723653524.351648,10.0.2.15,22,10.0.2.2,50536,1073725440,17490,1026,65535,65700,0,0,4,1460,312,0,16777216,240000,33580,140,65700,112,0,0,4004006936,63
i,1723653524.351957,10.0.2.15,22,10.0.2.2,50536,1073725440,17490,1026,65535,65700,0,0,4,1460,312,0,16777216,240000,33580,140,65700,112,140,0,4004006936,63
o,1723653524.352101,10.0.2.15,22,10.0.2.2,50536,1073725440,17630,1026,65535,65700,0,0,4,1460,312,0,16777216,240000,33580,44,65700,0,0,0,4004006936,63
i,1723653524.352563,10.0.2.15,22,10.0.2.2,50536,1073725440,17630,1026,65535,65700,0,0,4,1460,312,0,16777216,240000,33580,44,65700,0,44,0,4004006936,63
i,1723653524.352580,10.0.2.15,22,10.0.2.2,50536,1073725440,17674,1026,65535,65700,0,0,4,1460,312,0,0,240000,33580,0,65700,0,0,0,4004006936,63
o,1723653524.353057,10.0.2.15,22,10.0.2.2,50536,1073725440,17674,1026,65535,65700,0,0,4,1460,312,0,16777220,240000,33580,72,65700,0,0,0,4004006936,63
i,1723653524.353433,10.0.2.15,22,10.0.2.2,50536,1073725440,17674,1026,65535,65700,0,0,4,1460,312,0,16777220,240000,33580,72,65700,0,72,0,4004006936,63
o,1723653524.475194,172.16.5.2,27994,172.16.1.2,5102,10882,14480,2082,65535,65700,6,6,4,1460,161250,1,16778209,550000,33580,0,65700,0,0,0,2488244250,63
o,1723653524.475706,172.16.5.2,27994,172.16.1.2,5102,10882,14480,2082,65535,65700,6,6,4,1460,161250,1,16778212,550000,33580,37,65700,0,0,0,2488244250,63
i,1723653524.591497,172.16.5.2,27994,172.16.1.2,5102,10882,14480,2082,65535,65700,6,6,4,1460,161250,1,16778212,550000,33580,37,65700,0,37,0,2488244250,63
o,1723653524.591861,172.16.5.2,27994,172.16.1.2,5102,10882,14480,3106,65728,65728,6,6,4,1460,156250,1,16778212,540000,33580,4,65700,0,0,0,2488244250,63
o,1723653524.592311,172.16.5.2,27994,172.16.1.2,5102,10882,14480,3106,65728,65728,6,6,4,1460,156250,1,16778212,540000,33580,130,65700,0,4,0,2488244250,63
i,1723653524.712463,172.16.5.2,27994,172.16.1.2,5102,10882,14480,3106,65728,65728,6,6,4,1460,156250,1,16778212,540000,33580,130,65700,0,130,0,2488244250,63
i,1723653524.714986,172.16.5.2,27994,172.16.1.2,5102,10882,14480,3106,65600,65728,6,6,4,1460,150625,1,996,530000,33580,0,65700,0,0,0,2488244250,63
o,1723653524.748442,172.16.5.2,27994,172.16.1.2,5102,10882,14480,3106,65728,65728,6,6,4,1460,150625,1,997,530000,33580,0,65700,0,0,0,2488244250,63
o,1723653524.832053,172.16.5.2,50372,172.16.1.2,5102,10882,14480,2082,65535,65700,6,6,4,1460,161250,1,16778209,550000,33580,0,65700,0,0,0,1961041759,63
o,1723653524.832252,172.16.5.2,50372,172.16.1.2,5102,10882,14480,2082,65535,65700,6,6,4,1460,161250,1,16778208,550000,33580,37,65700,0,0,0,1961041759,63
i,1723653524.941271,172.16.5.2,27994,172.16.1.2,5102,10882,14480,3106,65728,65728,6,6,4,1460,150625,1,996,530000,33580,0,65700,0,0,0,2488244250,63
i,1723653524.941383,172.16.5.2,27994,172.16.1.2,5102,10882,14480,3106,65728,65728,6,6,4,1460,150625,1,996,530000,33580,0,65700,1,0,0,2488244250,63
o,1723653524.941403,172.16.5.2,27994,172.16.1.2,5102,10882,14480,3106,65728,65728,6,6,4,1460,150625,1,997,530000,33580,0,65700,2,0,0,2488244250,63
o,1723653524.941960,172.16.5.2,50372,172.16.1.2,5102,10882,14480,2086,65535,65700,6,6,4,1460,161250,1,16778208,550000,33580,33580,65700,0,37,0,1961041759,63
i,1723653524.971708,172.16.5.2,50372,172.16.1.2,5102,10882,14480,2086,65535,65700,6,6,4,1460,161250,1,16778208,550000,33580,33580,65700,0,13069,0,1961041759,63
o,1723653524.971784,172.16.5.2,50372,172.16.1.2,5102,10882,14480,2082,65728,65728,6,6,4,1460,157500,1,16778208,530000,33580,33543,65700,0,13032,0,1961041759,63
i,1723653525.496619,172.16.5.2,50372,172.16.1.2,5102,10882,14480,2082,65728,65728,6,6,4,1460,157500,1,16778208,530000,33580,33543,65700,0,14480,0,1961041759,63
o,1723653525.496700,172.16.5.2,50372,172.16.1.2,5102,10882,14480,2086,64256,65728,6,6,4,1460,206562,1,16778208,930000,33580,30647,65700,0,11584,0,1961041759,63
i,1723653525.502024,172.16.5.2,50372,172.16.1.2,5102,10882,14480,2086,64256,65728,6,6,4,1460,206562,1,16778208,930000,33580,33580,65700,0,14480,0,1961041759,63
o,1723653525.502049,172.16.5.2,50372,172.16.1.2,5102,10882,14480,2086,64256,65728,6,6,4,1460,250937,1,16778208,1200000,33580,30684,65700,0,11584,0,1961041759,63
i,1723653525.502193,172.16.5.2,50372,172.16.1.2,5102,10882,14480,2086,64256,65728,6,6,4,1460,250937,1,16778208,1200000,33580,30684,65700,0,14480,0,1961041759,63
o,1723653525.502228,172.16.5.2,50372,172.16.1.2,5102,10882,14480,2086,64256,65728,6,6,4,1460,289687,1,16778208,1360000,33580,27788,65700,0,11584,0,1961041759,63
i,1723653525.504962,172.16.5.2,50372,172.16.1.2,5102,10882,14480,2086,64256,65728,6,6,4,1460,289687,1,16778208,1360000,33580,33580,65700,0,14480,0,1961041759,63
o,1723653525.505027,172.16.5.2,50372,172.16.1.2,5102,10882,14480,2082,65728,65728,6,6,4,1460,323750,1,16778208,1450000,33580,32132,65700,0,13032,0,1961041759,63
i,1723653525.505152,172.16.5.2,50372,172.16.1.2,5102,10882,14480,2082,65728,65728,6,6,4,1460,323750,1,16778208,1450000,33580,32132,65700,0,14480,0,1961041759,63
o,1723653525.505169,172.16.5.2,50372,172.16.1.2,5102,10882,14480,2086,64256,65728,6,6,4,1460,353437,1,16778208,1480000,33580,29236,65700,0,11584,0,1961041759,63
i,1723653525.913611,172.16.5.2,50372,172.16.1.2,5102,10882,14480,2086,64256,65728,6,6,4,1460,353437,1,16778208,1480000,33580,33580,65700,0,14480,0,1961041759,63
o,1723653525.913687,172.16.5.2,50372,172.16.1.2,5102,10882,15940,2086,65728,65728,6,6,4,1460,426875,1,16778208,1910000,33580,32132,65700,0,13032,0,1961041759,63
o,1723653525.913802,172.16.5.2,50372,172.16.1.2,5102,10882,15940,2086,65728,65728,6,6,4,1460,426875,1,16778208,1910000,33580,32132,65700,0,14480,0,1961041759,63
i,1723653526.191627,172.16.5.2,50372,172.16.1.2,5102,10882,15940,2086,65728,65728,6,6,4,1460,426875,1,16778208,1910000,33580,32132,65700,0,15928,0,1961041759,63
o,1723653526.191691,172.16.5.2,50372,172.16.1.2,5102,10882,15940,2086,64256,65728,6,6,4,1460,460000,1,16778208,1890000,33580,29236,65700,0,13032,0,1961041759,63
i,1723653526.191999,172.16.5.2,50372,172.16.1.2,5102,10882,15940,2086,64256,65728,6,6,4,1460,460000,1,16778208,1890000,33580,29236,65700,0,15928,0,1961041759,63
o,1723653526.192018,172.16.5.2,50372,172.16.1.2,5102,10882,15940,2086,64256,65728,6,6,4,1460,488750,1,16778208,1840000,33580,26340,65700,0,13032,0,1961041759,63
i,1723653526.255264,172.16.5.2,50372,172.16.1.2,5102,10882,15940,2086,64256,65728,6,6,4,1460,488750,1,16778208,1840000,41772,41772,65700,0,15928,0,1961041759,63
o,1723653526.255339,172.16.5.2,50372,172.16.1.2,5102,10882,15940,2086,64256,65728,6,6,4,1460,521562,1,16778208,1850000,41772,38876,65700,0,13032,0,1961041759,63
i,1723653526.261733,172.16.5.2,50372,172.16.1.2,5102,10882,15940,2086,64256,65728,6,6,4,1460,521562,1,16778208,1850000,41772,41772,65700,0,15928,0,1961041759,63
o,1723653526.261754,172.16.5.2,50372,172.16.1.2,5102,10882,15940,2086,64256,65728,6,6,4,1460,551562,1,16778208,1830000,41772,38876,65700,0,13032,0,1961041759,63
i,1723653526.261901,172.16.5.2,50372,172.16.1.2,5102,10882,15940,2086,64256,65728,6,6,4,1460,551562,1,16778208,1830000,41772,38876,65700,0,15928,0,1961041759,63
o,1723653526.261920,172.16.5.2,50372,172.16.1.2,5102,10882,17400,2086,64256,65728,6,6,4,1460,526562,1,16778208,1740000,41772,34532,65700,0,11584,0,1961041759,63
o,1723653526.262027,172.16.5.2,50372,172.16.1.2,5102,10882,17400,2086,64256,65728,6,6,4,1460,526562,1,16778208,1740000,41772,34532,65700,0,13032,0,1961041759,63
i,1723653526.894544,172.16.5.2,50372,172.16.1.2,5102,10882,17400,2086,64256,65728,6,6,4,1460,526562,1,16778208,1740000,41772,41772,65700,0,17376,0,1961041759,63
o,1723653526.894649,172.16.5.2,50372,172.16.1.2,5102,10882,17400,2086,64256,65728,6,6,4,1460,548437,1,16778208,1680000,41772,38876,65700,0,14480,0,1961041759,63
i,1723653526.894812,172.16.5.2,50372,172.16.1.2,5102,10882,17400,2086,64256,65728,6,6,4,1460,548437,1,16778208,1680000,41772,38876,65700,0,17376,0,1961041759,63
o,1723653526.894829,172.16.5.2,50372,172.16.1.2,5102,10882,17400,2086,65728,65728,6,6,4,1460,567500,1,16778208,1620000,41772,37428,65700,0,15928,0,1961041759,63
i,1723653526.911320,172.16.5.2,50372,172.16.1.2,5102,10882,17400,2086,65728,65728,6,6,4,1460,567500,1,16778208,1620000,41772,41772,65700,0,17376,0,1961041759,63
o,1723653526.911433,172.16.5.2,50372,172.16.1.2,5102,10882,17400,2086,64256,65728,6,6,4,1460,586562,1,16778208,1580000,41772,38876,65700,0,14480,0,1961041759,63
i,1723653526.911653,172.16.5.2,50372,172.16.1.2,5102,10882,17400,2086,64256,65728,6,6,4,1460,586562,1,16778208,1580000,41772,38876,65700,0,17376,0,1961041759,63
o,1723653526.911685,172.16.5.2,50372,172.16.1.2,5102,10882,17400,2086,64256,65728,6,6,4,1460,594687,1,16778208,1450000,41772,35980,65700,0,14480,0,1961041759,63
i,1723653526.913350,172.16.5.2,50372,172.16.1.2,5102,10882,17400,2086,64256,65728,6,6,4,1460,594687,1,16778208,1450000,41772,41772,65700,0,17376,0,1961041759,63
o,1723653526.913376,172.16.5.2,50372,172.16.1.2,5102,10882,17400,2086,64256,65728,6,6,4,1460,601875,1,16778208,1350000,41772,35980,65700,0,11584,0,1961041759,63
o,1723653526.913559,172.16.5.2,50372,172.16.1.2,5102,10882,17400,2086,64256,65728,6,6,4,1460,601875,1,16778208,1350000,41772,35980,65700,0,13032,0,1961041759,63
i,1723653526.913725,172.16.5.2,50372,172.16.1.2,5102,10882,17400,2086,64256,65728,6,6,4,1460,601875,1,16778208,1350000,41772,35980,65700,0,17376,0,1961041759,63
o,1723653526.913747,172.16.5.2,50372,172.16.1.2,5102,10882,18860,2086,65728,65728,6,6,4,1460,608125,1,16778208,1270000,41772,34532,65700,0,15928,0,1961041759,63
i,1723653527.494117,172.16.5.2,50372,172.16.1.2,5102,10882,18860,2086,65728,65728,6,6,4,1460,608125,1,16778208,1270000,41772,41772,65700,0,18824,0,1961041759,63
o,1723653527.494155,172.16.5.2,50372,172.16.1.2,5102,10882,18860,2086,64256,65728,6,6,4,1460,607187,1,16778208,1160000,41772,38876,65700,0,15928,0,1961041759,63
i,1723653527.494318,172.16.5.2,50372,172.16.1.2,5102,10882,18860,2086,64256,65728,6,6,4,1460,607187,1,16778208,1160000,41772,38876,65700,0,18824,0,1961041759,63
o,1723653527.494342,172.16.5.2,50372,172.16.1.2,5102,10882,18860,2086,64256,65728,6,6,4,1460,606562,1,16778208,1080000,41772,35980,65700,0,15928,0,1961041759,63
i,1723653527.494504,172.16.5.2,50372,172.16.1.2,5102,10882,18860,2086,64256,65728,6,6,4,1460,606562,1,16778208,1080000,41772,35980,65700,0,18824,0,1961041759,63
o,1723653527.494524,172.16.5.2,50372,172.16.1.2,5102,10882,18860,2086,65728,65728,6,6,4,1460,603437,1,16778208,1030000,41772,34532,65700,0,17376,0,1961041759,63
i,1723653527.494726,172.16.5.2,50372,172.16.1.2,5102,10882,18860,2086,65728,65728,6,6,4,1460,603437,1,16778208,1030000,41772,34532,65700,0,18824,0,1961041759,63
o,1723653527.494746,172.16.5.2,50372,172.16.1.2,5102,10882,18860,2086,64256,65728,6,6,4,1460,600625,1,16778208,990000,41772,31636,65700,0,15928,0,1961041759,63
i,1723653527.550448,172.16.5.2,50372,172.16.1.2,5102,10882,18860,2086,64256,65728,6,6,4,1460,600625,1,16778208,990000,41772,41772,65700,0,18824,0,1961041759,63
o,1723653527.550913,172.16.5.2,50372,172.16.1.2,5102,10882,18860,2086,64256,65728,6,6,4,1460,605625,1,16778208,990000,41772,38876,65700,0,15928,0,1961041759,63
o,1723653527.551511,172.16.5.2,50372,172.16.1.2,5102,10882,18860,2086,64256,65728,6,6,4,1460,605625,1,16778208,990000,41772,38876,65700,0,17376,0,1961041759,63
i,1723653527.583332,172.16.5.2,50372,172.16.1.2,5102,10882,18860,2086,64256,65728,6,6,4,1460,605625,1,16778208,990000,41772,41772,65700,0,18824,0,1961041759,63
o,1723653527.583405,172.16.5.2,50372,172.16.1.2,5102,10882,18860,2086,64256,65728,6,6,4,1460,613750,1,16778208,1020000,41772,38876,65700,0,15928,0,1961041759,63
i,1723653527.891272,172.16.5.2,50372,172.16.1.2,5102,10882,18860,2086,64256,65728,6,6,4,1460,613750,1,16778208,1020000,41772,41772,65700,0,18824,0,1961041759,63
o,1723653527.891306,172.16.5.2,50372,172.16.1.2,5102,10882,18860,2086,64256,65728,6,6,4,1460,659687,1,16778208,1380000,41772,38876,65700,0,15928,0,1961041759,63
i,1723653527.972095,172.16.5.2,50372,172.16.1.2,5102,10882,18860,2086,64256,65728,6,6,4,1460,659687,1,16778208,1380000,41772,41772,65700,0,18824,0,1961041759,63
o,1723653527.972180,172.16.5.2,50372,172.16.1.2,5102,10882,20320,2086,64256,65728,6,6,4,1460,637500,1,16778208,1410000,41772,38876,65700,0,15928,0,1961041759,63
i,1723653528.107026,172.16.5.2,50372,172.16.1.2,5102,10882,20320,2086,64256,65728,6,6,4,1460,637500,1,16778208,1410000,49964,49964,65700,0,20272,0,1961041759,63
o,1723653528.107062,172.16.5.2,50372,172.16.1.2,5102,10882,20320,2086,64256,65728,6,6,4,1460,634062,1,16778208,1290000,49964,45620,65700,0,15928,0,1961041759,63
i,1723653528.107237,172.16.5.2,50372,172.16.1.2,5102,10882,20320,2086,64256,65728,6,6,4,1460,634062,1,16778208,1290000,49964,45620,65700,0,20272,0,1961041759,63
o,1723653528.107257,172.16.5.2,50372,172.16.1.2,5102,10882,20320,2086,65728,65728,6,6,4,1460,631250,1,16778208,1190000,49964,44172,65700,0,18824,0,1961041759,63
i,1723653528.107571,172.16.5.2,50372,172.16.1.2,5102,10882,20320,2086,65728,65728,6,6,4,1460,631250,1,16778208,1190000,49964,44172,65700,0,20272,0,1961041759,63
o,1723653528.107587,172.16.5.2,50372,172.16.1.2,5102,10882,23168,2086,65728,65728,6,6,4,1460,631250,1,16778208,1190000,49964,44172,65700,0,20272,0,1961041759,63
o,1723653528.107718,172.16.5.2,50372,172.16.1.2,5102,10882,23168,2082,65728,65728,6,6,4,1460,631250,1,16778208,1190000,58156,44172,65700,0,21720,0,1961041759,63
i,1723653528.272292,172.16.5.2,50372,172.16.1.2,5102,10882,20320,2082,65728,65728,6,6,4,1460,631250,1,16778208,1190000,58156,58156,65700,0,23168,0,1961041759,63
o,1723653528.272350,172.16.5.2,50372,172.16.1.2,5102,10160,1448,2146,65728,65728,6,6,4,1460,631250,1,554697696,1190000,58156,58156,65700,0,23168,0,1961041759,63
i,1723653528.372286,172.16.5.2,50372,172.16.1.2,5102,10160,1448,2146,65728,65728,6,6,4,1460,631250,1,554697696,1190000,58156,58156,65700,0,23168,0,1961041759,63
i,1723653528.437914,172.16.5.2,50372,172.16.1.2,5102,10160,1448,2146,65728,65728,6,6,4,1460,631250,1,554697696,1190000,58156,58156,65700,0,23168,0,1961041759,63
o,1723653528.437949,172.16.5.2,50372,172.16.1.2,5102,10160,2896,2146,65728,65728,6,6,4,1460,631250,1,554697696,1190000,58156,58156,65700,0,23168,0,1961041759,63
i,1723653528.482474,172.16.5.2,50372,172.16.1.2,5102,10160,2896,2146,65728,65728,6,6,4,1460,631250,1,554697696,1190000,58156,58156,65700,0,23168,0,1961041759,63
o,1723653528.482529,172.16.5.2,50372,172.16.1.2,5102,10160,4344,2146,65728,65728,6,6,4,1460,631250,1,554697696,1190000,58156,58156,65700,0,23168,0,1961041759,63
i,1723653528.482753,172.16.5.2,50372,172.16.1.2,5102,10160,4344,2146,65728,65728,6,6,4,1460,631250,1,554697696,1190000,58156,58156,65700,0,23168,0,1961041759,63
o,1723653528.482794,172.16.5.2,50372,172.16.1.2,5102,10160,5792,2146,65728,65728,6,6,4,1460,631250,1,554697696,1190000,58156,58156,65700,0,23168,0,1961041759,63
i,1723653528.491492,172.16.5.2,50372,172.16.1.2,5102,10160,5792,2146,65728,65728,6,6,4,1460,631250,1,554697696,1190000,58156,58156,65700,0,23168,0,1961041759,63
i,1723653528.512508,172.16.5.2,50372,172.16.1.2,5102,10160,5792,2146,65728,65728,6,6,4,1460,631250,1,537920480,1190000,58156,58156,65700,0,23168,0,1961041759,63
i,1723653528.554444,172.16.5.2,50372,172.16.1.2,5102,10160,5792,2146,65728,65728,6,6,4,1460,631250,1,537920480,1190000,58156,58156,65700,0,23168,0,1961041759,63
o,1723653528.554478,172.16.5.2,50372,172.16.1.2,5102,10160,5792,2146,65728,65728,6,6,4,1460,631250,1,554697697,1190000,58156,58156,65700,0,23168,0,1961041759,63
i,1723653528.711661,172.16.5.2,50372,172.16.1.2,5102,10160,5792,2146,61440,65728,6,6,4,1460,587500,1,554697696,1410000,58156,58156,65700,0,18824,0,1961041759,63
o,1723653528.711698,172.16.5.2,50372,172.16.1.2,5102,10160,4344,2146,61440,65728,6,6,4,1460,587500,1,554697697,1410000,58156,58156,65700,0,18824,0,1961041759,63
i,1723653528.741901,172.16.5.2,50372,172.16.1.2,5102,10160,4344,2146,59968,65728,6,6,4,1460,547812,1,554697696,1530000,58156,58156,65700,0,13032,0,1961041759,63
o,1723653528.741939,172.16.5.2,50372,172.16.1.2,5102,10160,4344,2082,59968,65728,6,6,4,1460,547812,1,554697697,1530000,58156,58156,65700,0,13032,0,1961041759,63
i,1723653528.742126,172.16.5.2,50372,172.16.1.2,5102,10160,4344,2082,62848,65728,6,6,4,1460,511875,1,554697696,1590000,58156,55260,65700,0,11584,0,1961041759,63
o,1723653528.742151,172.16.5.2,50372,172.16.1.2,5102,10160,5792,2086,62848,65728,6,6,4,1460,511875,1,554697697,1590000,58156,55260,65700,0,11584,0,1961041759,63
i,1723653528.801561,172.16.5.2,50372,172.16.1.2,5102,10160,5792,2086,62848,65728,6,6,4,1460,480625,1,554697696,1590000,58156,58156,65700,0,11584,0,1961041759,63
o,1723653528.801666,172.16.5.2,50372,172.16.1.2,5102,10160,5804,2086,58496,65728,6,6,4,1460,451875,1,16778208,1560000,58156,50916,65700,0,4344,0,1961041759,63
i,1723653528.919867,172.16.5.2,50372,172.16.1.2,5102,10160,5804,2086,58496,65728,6,6,4,1460,451875,1,16778208,1560000,58156,58156,65700,0,5792,0,1961041759,63
o,1723653528.920065,172.16.5.2,50372,172.16.1.2,5102,10160,7252,2086,65728,65728,6,6,4,1460,418125,1,16778208,1570000,58156,56708,65700,0,4344,0,1961041759,63
i,1723653528.920557,172.16.5.2,50372,172.16.1.2,5102,10160,7252,2086,65728,65728,6,6,4,1460,418125,1,16778208,1570000,58156,56708,65700,0,7240,0,1961041759,63
o,1723653528.920679,172.16.5.2,50372,172.16.1.2,5102,10160,10148,2086,64256,65728,6,6,4,1460,388437,1,16778208,1540000,58156,53812,65700,0,4344,0,1961041759,63
i,1723653528.971822,172.16.5.2,50372,172.16.1.2,5102,10160,10148,2086,64256,65728,6,6,4,1460,388437,1,16778208,1540000,58156,58156,65700,0,10136,0,1961041759,63
o,1723653528.971932,172.16.5.2,50372,172.16.1.2,5102,10160,11596,2086,65728,65728,6,6,4,1460,360000,1,16778208,1500000,58156,56708,65700,0,8688,0,1961041759,63
o,1723653528.972064,172.16.5.2,50372,172.16.1.2,5102,10160,11596,2086,65728,65728,6,6,4,1460,360000,1,16778208,1500000,58156,56708,65700,0,10136,0,1961041759,63
i,1723653529.260519,172.16.5.2,50372,172.16.1.2,5102,10160,11596,2086,65728,65728,6,6,4,1460,360000,1,16778208,1500000,58156,56708,65700,0,11584,0,1961041759,63
o,1723653529.260615,172.16.5.2,50372,172.16.1.2,5102,10160,11596,2086,64256,65728,6,6,4,1460,356250,1,16778208,1290000,58156,53812,65700,0,8688,0,1961041759,63
i,1723653529.292921,172.16.5.2,50372,172.16.1.2,5102,10160,11596,2086,64256,65728,6,6,4,1460,356250,1,16778208,1290000,58156,58156,65700,0,11584,0,1961041759,63
o,1723653529.293023,172.16.5.2,50372,172.16.1.2,5102,10160,11596,2086,65728,65728,6,6,4,1460,356875,1,16778208,1110000,58156,56708,65700,0,10136,0,1961041759,63
i,1723653529.293263,172.16.5.2,50372,172.16.1.2,5102,10160,11596,2086,65728,65728,6,6,4,1460,356875,1,16778208,1110000,58156,56708,65700,0,11584,0,1961041759,63
o,1723653529.293282,172.16.5.2,50372,172.16.1.2,5102,10160,11596,2086,64256,65728,6,6,4,1460,357500,1,16778208,980000,58156,53812,65700,0,8688,0,1961041759,63
i,1723653529.375330,172.16.5.2,50372,172.16.1.2,5102,10160,11596,2086,64256,65728,6,6,4,1460,357500,1,16778208,980000,58156,58156,65700,0,11584,0,1961041759,63
o,1723653529.375436,172.16.5.2,50372,172.16.1.2,5102,10160,11596,2086,64256,65728,6,6,4,1460,367812,1,16778208,970000,58156,55260,65700,0,8688,0,1961041759,63
o,1723653529.375586,172.16.5.2,50372,172.16.1.2,5102,10160,11596,2086,64256,65728,6,6,4,1460,367812,1,16778208,970000,58156,55260,65700,0,10136,0,1961041759,63
i,1723653529.518339,172.16.5.2,50372,172.16.1.2,5102,10160,11596,2086,64256,65728,6,6,4,1460,367812,1,16778208,970000,58156,58156,65700,0,11584,0,1961041759,63
o,1723653529.518502,172.16.5.2,50372,172.16.1.2,5102,10160,11596,2086,65728,65728,6,6,4,1460,389375,1,16778208,1060000,58156,56708,65700,0,10136,0,1961041759,63
i,1723653529.561777,172.16.5.2,50372,172.16.1.2,5102,10160,11596,2086,65728,65728,6,6,4,1460,389375,1,16778208,1060000,58156,56708,65700,0,11584,0,1961041759,63
o,1723653529.561843,172.16.5.2,50372,172.16.1.2,5102,10160,13056,2086,64256,65728,6,6,4,1460,378437,1,16778208,1020000,58156,53812,65700,0,8688,0,1961041759,63
i,1723653529.571774,172.16.5.2,50372,172.16.1.2,5102,10160,13056,2086,64256,65728,6,6,4,1460,378437,1,16778208,1020000,58156,58156,65700,0,13032,0,1961041759,63
o,1723653529.571848,172.16.5.2,50372,172.16.1.2,5102,10160,13056,2086,65728,65728,6,6,4,1460,366250,1,16778208,990000,58156,56708,65700,0,11584,0,1961041759,63
i,1723653529.670817,172.16.5.2,50372,172.16.1.2,5102,10160,13056,2086,65728,65728,6,6,4,1460,366250,1,16778208,990000,58156,56708,65700,0,13032,0,1961041759,63
o,1723653529.670891,172.16.5.2,50372,172.16.1.2,5102,10160,13056,2086,64256,65728,6,6,4,1460,368125,1,16778208,900000,58156,53812,65700,0,10136,0,1961041759,63
i,1723653529.751666,172.16.5.2,50372,172.16.1.2,5102,10160,13056,2086,64256,65728,6,6,4,1460,368125,1,16778208,900000,58156,58156,65700,0,13032,0,1961041759,63
o,1723653529.751666,172.16.5.2,50372,172.16.1.2,5102,10160,13056,2086,64256,65728,6,6,4,1460,369687,1,16778208,830000,58156,55260,65700,0,10136,0,1961041759,63
o,1723653529.751666,172.16.5.2,50372,172.16.1.2,5102,10160,13056,2086,64256,65728,6,6,4,1460,369687,1,16778208,830000,58156,55260,65700,0,11584,0,1961041759,63
i,1723653529.821751,172.16.5.2,50372,172.16.1.2,5102,10160,13056,2086,64256,65728,6,6,4,1460,369687,1,16778208,830000,58156,58156,65700,0,13032,0,1961041759,63
o,1723653529.821780,172.16.5.2,50372,172.16.1.2,5102,10160,13056,2086,64256,65728,6,6,4,1460,361250,1,16778208,830000,58156,55260,65700,0,10136,0,1961041759,63
i,1723653529.956349,172.16.5.2,50372,172.16.1.2,5102,10160,13056,2086,64256,65728,6,6,4,1460,361250,1,16778208,830000,58156,58156,65700,0,13032,0,1961041759,63
o,1723653529.956349,172.16.5.2,50372,172.16.1.2,5102,10160,14516,2086,65728,65728,6,6,4,1460,365000,1,16778208,790000,58156,56708,65700,0,11584,0,1961041759,63
i,1723653530.032190,172.16.5.2,50372,172.16.1.2,5102,10160,14516,2086,65728,65728,6,6,4,1460,365000,1,16778208,790000,58156,56708,65700,0,14480,0,1961041759,63
o,1723653530.032226,172.16.5.2,50372,172.16.1.2,5102,10160,14516,2086,64256,65728,6,6,4,1460,378125,1,16778208,850000,58156,53812,65700,0,11584,0,1961041759,63
i,1723653530.042030,172.16.5.2,50372,172.16.1.2,5102,10160,14516,2086,64256,65728,6,6,4,1460,378125,1,16778208,850000,58156,58156,65700,0,14480,0,1961041759,63
o,1723653530.042112,172.16.5.2,50372,172.16.1.2,5102,10160,14516,2086,64256,65728,6,6,4,1460,377187,1,16778208,790000,58156,55260,65700,0,11584,0,1961041759,63
i,1723653530.171238,172.16.5.2,50372,172.16.1.2,5102,10160,14516,2086,64256,65728,6,6,4,1460,377187,1,16778208,790000,58156,58156,65700,0,14480,0,1961041759,63
o,1723653530.171902,172.16.5.2,50372,172.16.1.2,5102,10160,14516,2086,64256,65728,6,6,4,1460,382812,1,16778208,790000,58156,55260,65700,0,11584,0,1961041759,63
o,1723653530.172033,172.16.5.2,50372,172.16.1.2,5102,10160,14516,2086,64256,65728,6,6,4,1460,382812,1,16778208,790000,58156,55260,65700,0,13032,0,1961041759,63
i,1723653530.280504,172.16.5.2,50372,172.16.1.2,5102,10160,14516,2086,64256,65728,6,6,4,1460,382812,1,16778208,790000,58156,58156,65700,0,14480,0,1961041759,63
o,1723653530.280581,172.16.5.2,50372,172.16.1.2,5102,10160,14516,2086,64256,65728,6,6,4,1460,392500,1,16778208,820000,58156,55260,65700,0,11584,0,1961041759,63
i,1723653530.361786,172.16.5.2,50372,172.16.1.2,5102,10160,14516,2086,64256,65728,6,6,4,1460,392500,1,16778208,820000,58156,58156,65700,0,14480,0,1961041759,63
o,1723653530.361896,172.16.5.2,50372,172.16.1.2,5102,10160,15976,2086,64256,65728,6,6,4,1460,394687,1,16778208,780000,58156,55260,65700,0,11584,0,1961041759,63
i,1723653530.469296,172.16.5.2,50372,172.16.1.2,5102,10160,15976,2086,64256,65728,6,6,4,1460,394687,1,16778208,780000,58156,58156,65700,0,15928,0,1961041759,63
o,1723653530.469356,172.16.5.2,50372,172.16.1.2,5102,10160,17376,2082,64256,65728,6,6,4,1460,394687,1,16778208,780000,58156,58156,65700,0,15928,0,1961041759,63
i,1723653530.555576,172.16.5.2,50372,172.16.1.2,5102,10160,15976,2082,64256,65728,6,6,4,1460,394687,1,16778208,780000,58156,58156,65700,0,17376,0,1961041759,63
o,1723653530.555621,172.16.5.2,50372,172.16.1.2,5102,10160,18824,2082,64256,65728,6,6,4,1460,394687,1,16778208,780000,58156,58156,65700,0,17376,0,1961041759,63
i,1723653530.555817,172.16.5.2,50372,172.16.1.2,5102,10160,15976,2082,64256,65728,6,6,4,1460,394687,1,16778208,780000,58156,58156,65700,0,18824,0,1961041759,63
o,1723653530.555844,172.16.5.2,50372,172.16.1.2,5102,7988,1448,2146,64256,65728,6,6,4,1460,394687,1,554697696,780000,58156,58156,65700,0,18824,0,1961041759,63
i,1723653530.573035,172.16.5.2,50372,172.16.1.2,5102,7988,1448,2146,64256,65728,6,6,4,1460,394687,1,554697696,780000,58156,58156,65700,0,18824,0,1961041759,63
i,1723653530.593063,172.16.5.2,50372,172.16.1.2,5102,7988,1448,2146,64256,65728,6,6,4,1460,394687,1,537920480,780000,58156,58156,65700,0,18824,0,1961041759,63
o,1723653530.593095,172.16.5.2,50372,172.16.1.2,5102,7988,2896,2082,64256,65728,6,6,4,1460,394687,1,554697696,780000,58156,58156,65700,0,18824,0,1961041759,63
i,1723653530.622628,172.16.5.2,50372,172.16.1.2,5102,7988,2896,2082,64256,65728,6,6,4,1460,394687,1,554697696,780000,58156,58156,65700,0,20272,0,1961041759,63
i,1723653530.659503,172.16.5.2,50372,172.16.1.2,5102,7988,2896,2082,64256,65728,6,6,4,1460,394687,1,554697696,780000,58156,58156,65700,0,20272,0,1961041759,63
o,1723653530.659557,172.16.5.2,50372,172.16.1.2,5102,7988,4344,2082,64256,65728,6,6,4,1460,394687,1,554697696,780000,58156,58156,65700,0,20272,0,1961041759,63
i,1723653530.759347,172.16.5.2,50372,172.16.1.2,5102,7988,4344,2082,64256,65728,6,6,4,1460,394687,1,554697696,780000,58156,58156,65700,0,21720,0,1961041759,63
i,1723653530.842411,172.16.5.2,50372,172.16.1.2,5102,7988,4344,2082,64256,65728,6,6,4,1460,394687,1,554697696,780000,58156,58156,65700,0,21720,0,1961041759,63
i,1723653530.843731,172.16.5.2,50372,172.16.1.2,5102,7988,4344,2082,64256,65728,6,6,4,1460,394687,1,554697696,780000,58156,58156,65700,0,21720,0,1961041759,63
o,1723653530.843753,172.16.5.2,50372,172.16.1.2,5102,7988,5792,2082,64256,65728,6,6,4,1460,394687,1,554697697,780000,58156,58156,65700,0,21720,0,1961041759,63
o,1723653530.843873,172.16.5.2,50372,172.16.1.2,5102,7988,5792,2082,64256,65728,6,6,4,1460,394687,1,554697696,780000,58156,58156,65700,0,21720,0,1961041759,63
i,1723653530.852195,172.16.5.2,50372,172.16.1.2,5102,7988,5792,2082,51264,65728,6,6,4,1460,380625,1,554697696,840000,58156,58156,65700,0,8688,0,1961041759,63
i,1723653530.852230,172.16.5.2,50372,172.16.1.2,5102,7988,5792,2082,65728,65728,6,6,4,1460,380625,1,554697696,840000,58156,58156,65700,0,8688,0,1961041759,63
i,1723653530.893929,172.16.5.2,50372,172.16.1.2,5102,7988,5792,2082,65728,65728,6,6,4,1460,380625,1,554697696,840000,58156,58156,65700,0,8688,0,1961041759,63
o,1723653530.893958,172.16.5.2,50372,172.16.1.2,5102,7988,5792,2086,65728,65728,6,6,4,1460,380625,1,554697696,840000,58156,58156,65700,0,8688,0,1961041759,63
o,1723653530.894117,172.16.5.2,50372,172.16.1.2,5102,7988,5792,2082,65728,65728,6,6,4,1460,380625,1,554697696,840000,58156,58156,65700,0,8688,0,1961041759,63
i,1723653530.894323,172.16.5.2,50372,172.16.1.2,5102,7988,5792,2082,65728,65728,6,6,4,1460,380625,1,554697696,840000,58156,58156,65700,0,8688,0,1961041759,63
i,1723653530.894385,172.16.5.2,50372,172.16.1.2,5102,7988,8688,2082,65728,65728,6,6,4,1460,380625,1,537920480,840000,58156,58156,65700,0,8688,0,1961041759,63
i,1723653531.081684,172.16.5.2,50372,172.16.1.2,5102,7988,8688,2082,65728,65728,6,6,4,1460,380625,1,537920480,840000,58156,58156,65700,0,8688,0,1961041759,63
i,1723653531.081722,172.16.5.2,50372,172.16.1.2,5102,7988,8688,2082,65728,65728,6,6,4,1460,380625,1,537920480,840000,58156,58156,65700,0,8688,0,1961041759,63
i,1723653531.131130,172.16.5.2,50372,172.16.1.2,5102,7988,8688,2082,65728,65728,6,6,4,1460,380625,1,537920480,840000,58156,58156,65700,0,8688,0,1961041759,63
o,1723653531.131158,172.16.5.2,50372,172.16.1.2,5102,7988,8688,2082,65728,65728,6,6,4,1460,380625,1,554697697,840000,58156,58156,65700,0,8688,0,1961041759,63
i,1723653531.131338,172.16.5.2,50372,172.16.1.2,5102,7988,8688,2082,64320,65728,6,6,4,1460,361875,1,554697696,900000,58156,56708,65700,0,8688,0,1961041759,63
o,1723653531.131363,172.16.5.2,50372,172.16.1.2,5102,7988,4356,2086,58496,65728,6,6,4,1460,345625,1,16778208,930000,58156,49468,65700,0,1448,0,1961041759,63
i,1723653531.364677,172.16.5.2,50372,172.16.1.2,5102,7988,4356,2086,58496,65728,6,6,4,1460,345625,1,16778208,930000,58156,58156,65700,0,4344,0,1961041759,63
o,1723653531.364787,172.16.5.2,50372,172.16.1.2,5102,7988,7252,2086,64256,65728,6,6,4,1460,331250,1,16778208,930000,58156,55260,65700,0,1448,0,1961041759,63
o,1723653531.364944,172.16.5.2,50372,172.16.1.2,5102,7988,7252,2086,64256,65728,6,6,4,1460,331250,1,16778208,930000,58156,55260,65700,0,2896,0,1961041759,63
i,1723653531.390638,172.16.5.2,50372,172.16.1.2,5102,7988,7252,2086,64256,65728,6,6,4,1460,331250,1,16778208,930000,58156,58156,65700,0,7240,0,1961041759,63
o,1723653531.390749,172.16.5.2,50372,172.16.1.2,5102,7988,8700,2086,65728,65728,6,6,4,1460,322500,1,16778208,900000,58156,56708,65700,0,5792,0,1961041759,63
i,1723653531.709215,172.16.5.2,50372,172.16.1.2,5102,7988,8700,2086,65728,65728,6,6,4,1460,322500,1,16778208,900000,58156,56708,65700,0,8688,0,1961041759,63
o,1723653531.709293,172.16.5.2,50372,172.16.1.2,5102,7988,8700,2086,64256,65728,6,6,4,1460,325937,1,16778208,830000,58156,53812,65700,0,5792,0,1961041759,63
o,1723653531.709428,172.16.5.2,50372,172.16.1.2,5102,7988,8700,2086,64256,65728,6,6,4,1460,325937,1,16778208,830000,58156,53812,65700,0,7240,0,1961041759,63
i,1723653531.709580,172.16.5.2,50372,172.16.1.2,5102,7988,8700,2086,64256,65728,6,6,4,1460,325937,1,16778208,830000,58156,53812,65700,0,8688,0,1961041759,63
o,1723653531.709597,172.16.5.2,50372,172.16.1.2,5102,7988,8700,2086,64256,65728,6,6,4,1460,329062,1,16778208,780000,58156,50916,65700,0,5792,0,1961041759,63
i,1723653531.762217,172.16.5.2,50372,172.16.1.2,5102,7988,8700,2086,64256,65728,6,6,4,1460,329062,1,16778208,780000,58156,58156,65700,0,8688,0,1961041759,63
o,1723653531.762291,172.16.5.2,50372,172.16.1.2,5102,7988,8700,2086,64256,65728,6,6,4,1460,334375,1,16778208,770000,58156,55260,65700,0,5792,0,1961041759,63
i,1723653531.992107,172.16.5.2,50372,172.16.1.2,5102,7988,8700,2086,64256,65728,6,6,4,1460,334375,1,16778208,770000,58156,58156,65700,0,8688,0,1961041759,63
o,1723653531.992164,172.16.5.2,50372,172.16.1.2,5102,7988,10160,2086,64256,65728,6,6,4,1460,327812,1,16778208,760000,58156,55260,65700,0,5792,0,1961041759,63
o,1723653531.992362,172.16.5.2,50372,172.16.1.2,5102,7988,10160,2086,64256,65728,6,6,4,1460,327812,1,16778208,760000,58156,55260,65700,0,7240,0,1961041759,63
i,1723653531.992592,172.16.5.2,50372,172.16.1.2,5102,7988,10160,2086,64256,65728,6,6,4,1460,327812,1,16778208,760000,58156,55260,65700,0,10136,0,1961041759,63
o,1723653531.992614,172.16.5.2,50372,172.16.1.2,5102,7988,10160,2086,65728,65728,6,6,4,1460,321875,1,16778208,740000,58156,53812,65700,0,8688,0,1961041759,63
i,1723653532.012907,172.16.5.2,50372,172.16.1.2,5102,7988,10160,2086,65728,65728,6,6,4,1460,321875,1,16778208,740000,58156,56708,65700,0,10136,0,1961041759,63
o,1723653532.012976,172.16.5.2,50372,172.16.1.2,5102,7988,10160,2086,65728,65728,6,6,4,1460,319375,1,16778208,700000,58156,55260,65700,0,8688,0,1961041759,63
i,1723653532.013153,172.16.5.2,50372,172.16.1.2,5102,7988,10160,2086,65728,65728,6,6,4,1460,319375,1,16778208,700000,58156,55260,65700,0,10136,0,1961041759,63
o,1723653532.013180,172.16.5.2,50372,172.16.1.2,5102,7988,10160,2086,65728,65728,6,6,4,1460,310937,1,16778208,720000,58156,53812,65700,0,8688,0,1961041759,63
i,1723653532.210316,172.16.5.2,50372,172.16.1.2,5102,7988,10160,2086,65728,65728,6,6,4,1460,310937,1,16778208,720000,58156,58156,65700,0,10136,0,1961041759,63
o,1723653532.210395,172.16.5.2,50372,172.16.1.2,5102,7988,10160,2086,65728,65728,6,6,4,1460,328437,1,16778208,820000,58156,56708,65700,0,8688,0,1961041759,63
i,1723653532.382186,172.16.5.2,50372,172.16.1.2,5102,7988,10160,2086,65728,65728,6,6,4,1460,328437,1,16778208,820000,58156,56708,65700,0,10136,0,1961041759,63
o,1723653532.382305,172.16.5.2,50372,172.16.1.2,5102,7988,11620,2086,64256,65728,6,6,4,1460,336250,1,16778208,820000,58156,53812,65700,0,7240,0,1961041759,63
o,1723653532.382520,172.16.5.2,50372,172.16.1.2,5102,7988,11620,2086,64256,65728,6,6,4,1460,336250,1,16778208,820000,58156,53812,65700,0,8688,0,1961041759,63
i,1723653532.382748,172.16.5.2,50372,172.16.1.2,5102,7988,11620,2086,64256,65728,6,6,4,1460,336250,1,16778208,820000,58156,53812,65700,0,11584,0,1961041759,63
o,1723653532.382785,172.16.5.2,50372,172.16.1.2,5102,7988,11620,2086,64256,65728,6,6,4,1460,343125,1,16778208,810000,58156,50916,65700,0,8688,0,1961041759,63
i,1723653532.391782,172.16.5.2,50372,172.16.1.2,5102,7988,11620,2086,64256,65728,6,6,4,1460,343125,1,16778208,810000,58156,58156,65700,0,11584,0,1961041759,63
o,1723653532.391803,172.16.5.2,50372,172.16.1.2,5102,7988,11620,2086,64256,65728,6,6,4,1460,347812,1,16778208,790000,58156,55260,65700,0,8688,0,1961041759,63
i,1723653532.662049,172.16.5.2,50372,172.16.1.2,5102,7988,11620,2086,64256,65728,6,6,4,1460,347812,1,16778208,790000,58156,58156,65700,0,11584,0,1961041759,63
o,1723653532.662130,172.16.5.2,50372,172.16.1.2,5102,7988,11620,2086,65728,65728,6,6,4,1460,359375,1,16778208,830000,58156,56708,65700,0,10136,0,1961041759,63
i,1723653532.820594,172.16.5.2,50372,172.16.1.2,5102,7988,11620,2086,65728,65728,6,6,4,1460,359375,1,16778208,830000,58156,56708,65700,0,11584,0,1961041759,63
o,1723653532.820714,172.16.5.2,50372,172.16.1.2,5102,7988,11620,2086,65728,65728,6,6,4,1460,369687,1,16778208,850000,58156,55260,65700,0,10136,0,1961041759,63
i,1723653532.820994,172.16.5.2,50372,172.16.1.2,5102,7988,11620,2086,65728,65728,6,6,4,1460,369687,1,16778208,850000,58156,55260,65700,0,11584,0,1961041759,63
o,1723653532.821036,172.16.5.2,50372,172.16.1.2,5102,7988,13080,2086,64256,65728,6,6,4,1460,378750,1,16778208,860000,58156,52364,65700,0,8688,0,1961041759,63
i,1723653532.821258,172.16.5.2,50372,172.16.1.2,5102,7988,13080,2086,64256,65728,6,6,4,1460,378750,1,16778208,860000,58156,52364,65700,0,13032,0,1961041759,63
o,1723653532.821290,172.16.5.2,50372,172.16.1.2,5102,7988,13080,2086,64256,65728,6,6,4,1460,386562,1,16778208,860000,58156,49468,65700,0,10136,0,1961041759,63
i,1723653532.841221,172.16.5.2,50372,172.16.1.2,5102,7988,13080,2086,64256,65728,6,6,4,1460,386562,1,16778208,860000,58156,58156,65700,0,13032,0,1961041759,63
o,1723653532.841341,172.16.5.2,50372,172.16.1.2,5102,7988,13080,2086,64256,65728,6,6,4,1460,394687,1,16778208,860000,58156,55260,65700,0,10136,0,1961041759,63
i,1723653533.029755,172.16.5.2,50372,172.16.1.2,5102,7988,13080,2086,64256,65728,6,6,4,1460,394687,1,16778208,860000,58156,58156,65700,0,13032,0,1961041759,63
o,1723653533.029832,172.16.5.2,50372,172.16.1.2,5102,7988,13080,2086,65728,65728,6,6,4,1460,391875,1,16778208,820000,58156,56708,65700,0,11584,0,1961041759,63
i,1723653533.313003,172.16.5.2,50372,172.16.1.2,5102,7988,13080,2086,65728,65728,6,6,4,1460,391875,1,16778208,820000,58156,56708,65700,0,13032,0,1961041759,63
o,1723653533.313130,172.16.5.2,50372,172.16.1.2,5102,7988,13080,2086,65728,65728,6,6,4,1460,404375,1,16778208,870000,58156,55260,65700,0,11584,0,1961041759,63
i,1723653533.420106,172.16.5.2,50372,172.16.1.2,5102,7988,13080,2086,65728,65728,6,6,4,1460,404375,1,16778208,870000,58156,58156,65700,0,13032,0,1961041759,63
o,1723653533.420280,172.16.5.2,50372,172.16.1.2,5102,7988,13080,2086,64256,65728,6,6,4,1460,429062,1,16778208,1030000,58156,55260,65700,0,10136,0,1961041759,63
i,1723653533.420475,172.16.5.2,50372,172.16.1.2,5102,7988,13080,2086,64256,65728,6,6,4,1460,429062,1,16778208,1030000,58156,55260,65700,0,13032,0,1961041759,63
o,1723653533.420492,172.16.5.2,50372,172.16.1.2,5102,7988,14540,2086,64256,65728,6,6,4,1460,450625,1,16778208,1120000,58156,49468,65700,0,7240,0,1961041759,63
i,1723653533.542904,172.16.5.2,50372,172.16.1.2,5102,7988,14540,2086,64256,65728,6,6,4,1460,450625,1,16778208,1120000,58156,58156,65700,0,14480,0,1961041759,63
o,1723653533.543112,172.16.5.2,50372,172.16.1.2,5102,7988,14540,2086,65728,65728,6,6,4,1460,458125,1,16778208,1070000,58156,55260,65700,0,11584,0,1961041759,63
i,1723653533.917884,172.16.5.2,50372,172.16.1.2,5102,7988,14540,2086,65728,65728,6,6,4,1460,458125,1,16778208,1070000,58156,58156,65700,0,14480,0,1961041759,63
o,1723653533.917918,172.16.5.2,50372,172.16.1.2,5102,7988,14540,2086,65728,65728,6,6,4,1460,477187,1,16778208,1140000,58156,56708,65700,0,13032,0,1961041759,63
i,1723653534.114512,172.16.5.2,50372,172.16.1.2,5102,7988,14540,2086,65728,65728,6,6,4,1460,477187,1,16778208,1140000,58156,56708,65700,0,14480,0,1961041759,63
o,1723653534.114602,172.16.5.2,50372,172.16.1.2,5102,7988,14540,2086,64256,65728,6,6,4,1460,502812,1,16778208,1260000,58156,53812,65700,0,11584,0,1961041759,63
i,1723653534.120685,172.16.5.2,50372,172.16.1.2,5102,7988,14540,2086,64256,65728,6,6,4,1460,502812,1,16778208,1260000,58156,58156,65700,0,14480,0,1961041759,63
o,1723653534.120749,172.16.5.2,50372,172.16.1.2,5102,7988,16000,2086,64256,65728,6,6,4,1460,526250,1,16778208,1330000,58156,52364,65700,0,8688,0,1961041759,63
i,1723653534.634374,172.16.5.2,50372,172.16.1.2,5102,7988,16000,2086,64256,65728,6,6,4,1460,526250,1,16778208,1330000,58156,58156,65700,0,15928,0,1961041759,63
o,1723653534.634467,172.16.5.2,50372,172.16.1.2,5102,7988,17460,2086,64256,65728,6,6,4,1460,524375,1,16778208,1190000,58156,43676,65700,0,1448,0,1961041759,63
o,1723653534.634590,172.16.5.2,50372,172.16.1.2,5102,7988,17460,2086,64256,65728,6,6,4,1460,524375,1,16778208,1190000,58156,43676,65700,0,2896,0,1961041759,63
i,1723653534.821322,172.16.5.2,50372,172.16.1.2,5102,7988,17460,2086,64256,65728,6,6,4,1460,524375,1,16778208,1190000,58156,58156,65700,0,17376,0,1961041759,63
o,1723653534.821355,172.16.5.2,50372,172.16.1.2,5102,7988,17460,2086,65728,65728,6,6,4,1460,546562,1,16778208,1270000,58156,56708,65700,0,15928,0,1961041759,63
i,1723653535.461601,172.16.5.2,50372,172.16.1.2,5102,7988,17460,2086,65728,65728,6,6,4,1460,546562,1,16778208,1270000,58156,56708,65700,0,17376,0,1961041759,63
o,1723653535.461653,172.16.5.2,50372,172.16.1.2,5102,7988,17460,2086,65728,65728,6,6,4,1460,582187,1,16778208,1460000,58156,55260,65700,0,15928,0,1961041759,63
i,1723653535.461787,172.16.5.2,50372,172.16.1.2,5102,7988,17460,2086,65728,65728,6,6,4,1460,582187,1,16778208,1460000,58156,55260,65700,0,17376,0,1961041759,63
o,1723653535.461805,172.16.5.2,50372,172.16.1.2,5102,7988,17460,2086,65728,65728,6,6,4,1460,613437,1,16778208,1570000,58156,45124,65700,0,7240,0,1961041759,63
o,1723653537.058322,172.16.5.2,50372,172.16.1.2,5102,8688,1448,2146,65728,65728,6,6,4,1460,613437,1,16786401,2940000,58156,58156,65700,0,17376,0,1961041759,63
o,1723653540.028848,172.16.5.2,50372,172.16.1.2,5102,2896,1448,2146,65728,65728,6,6,4,1460,613437,1,16778209,5680000,58156,58156,65700,0,17376,0,1961041759,63
o,1723653545.778608,172.16.5.2,50372,172.16.1.2,5102,2896,1448,2146,65728,65728,6,6,4,1460,613437,1,16778209,11160000,58156,58156,65700,0,17376,0,1961041759,63
o,1723653556.989937,172.16.5.2,50372,172.16.1.2,5102,2896,1448,2146,65728,65728,6,6,4,1460,613437,1,16778209,22120000,58156,58156,65700,0,17376,0,1961041759,63
i,1723653558.072163,172.16.5.2,50372,172.16.1.2,5102,2896,1448,2146,65728,65728,6,6,4,1460,613437,1,16778208,22120000,58156,58156,65700,0,17376,0,1961041759,63
o,1723653558.072308,172.16.5.2,50372,172.16.1.2,5102,2896,2908,2086,65728,65728,6,6,4,1460,22620000,1,16778208,64000000,58156,40780,65700,0,0,0,1961041759,63
o,1723653558.072483,172.16.5.2,50372,172.16.1.2,5102,2896,2908,2086,65728,65728,6,6,4,1460,22620000,1,16778208,64000000,58156,40780,65700,0,1448,0,1961041759,63
i,1723653558.303235,172.16.5.2,50372,172.16.1.2,5102,2896,2908,2086,65728,65728,6,6,4,1460,22620000,1,16778208,64000000,58156,58156,65700,0,2896,0,1961041759,63
o,1723653558.303357,172.16.5.2,50372,172.16.1.2,5102,2896,2908,2086,65728,65728,6,6,4,1460,19821250,1,16778208,64000000,58156,55260,65700,0,0,0,1961041759,63
o,1723653558.303557,172.16.5.2,50372,172.16.1.2,5102,2896,2908,2086,65728,65728,6,6,4,1460,19821250,1,16778208,64000000,58156,55260,65700,0,1448,0,1961041759,63
i,1723653559.342084,172.16.5.2,50372,172.16.1.2,5102,2896,2908,2086,65728,65728,6,6,4,1460,19821250,1,16778208,64000000,58156,58156,65700,0,2896,0,1961041759,63
o,1723653559.342187,172.16.5.2,50372,172.16.1.2,5102,2896,4368,2086,64256,65728,6,6,4,1460,17473750,1,16778208,64000000,58156,55260,65700,0,0,0,1961041759,63
o,1723653559.342358,172.16.5.2,50372,172.16.1.2,5102,2896,4368,2086,64256,65728,6,6,4,1460,17473750,1,16778208,64000000,58156,55260,65700,0,1448,0,1961041759,63
i,1723653560.002996,172.16.5.2,50372,172.16.1.2,5102,2896,4368,2086,64256,65728,6,6,4,1460,17473750,1,16778208,64000000,58156,58156,65700,0,4344,0,1961041759,63
o,1723653560.003029,172.16.5.2,50372,172.16.1.2,5102,2896,4368,2086,65728,65728,6,6,4,1460,15372187,1,16778208,64000000,58156,56708,65700,0,2896,0,1961041759,63
o,1723653575.958501,10.0.2.15,22,10.0.2.2,50536,1073725440,14600,1030,65535,65700,0,0,4,1460,312,0,16777220,240000,33580,4132,65700,0,0,0,4004006936,63
o,1723653575.958613,10.0.2.15,22,10.0.2.2,50536,1073725440,14600,1030,65535,65700,0,0,4,1460,312,0,16777220,240000,33580,4132,65700,0,1460,0,4004006936,63
i,1723653575.959654,10.0.2.15,22,10.0.2.2,50536,1073725440,14600,1030,65535,65700,0,0,4,1460,312,0,16777220,240000,33580,4132,65700,0,4132,0,4004006936,63
i,1723653575.959673,10.0.2.15,22,10.0.2.2,50536,1073725440,16060,1030,65535,65700,0,0,4,1460,312,0,4,240000,33580,2672,65700,0,2672,0,4004006936,63
i,1723653575.959687,10.0.2.15,22,10.0.2.2,50536,1073725440,17520,1030,65535,65700,0,0,4,1460,312,0,4,240000,33580,1212,65700,0,1212,0,4004006936,63
o,1723653584.991923,172.16.5.2,27994,172.16.1.2,5102,10882,14480,3106,65728,65728,6,6,4,1460,150625,1,16778212,530000,33580,1,65700,0,0,0,2488244250,63
o,1723653585.534756,172.16.5.2,27994,172.16.1.2,5102,7240,1448,3170,65728,65728,6,6,4,1460,150625,1,16786405,860000,33580,1,65700,0,1,0,2488244250,63
i,1723653585.692193,172.16.5.2,50372,172.16.1.2,5102,2896,4368,2086,65728,65728,6,6,4,1460,15372187,1,16778208,64000000,58156,56708,65700,0,4344,0,1961041759,63
o,1723653585.692228,172.16.5.2,50372,172.16.1.2,5102,2896,5828,2086,65728,65728,6,6,5,1460,16662187,1,16778211,64000000,58156,52364,65700,0,0,0,1961041759,63
o,1723653585.692346,172.16.5.2,50372,172.16.1.2,5102,2896,5828,2086,65728,65728,6,6,5,1460,16662187,1,16778208,64000000,58156,52364,65700,0,1448,0,1961041759,63
i,1723653585.692465,172.16.5.2,27994,172.16.1.2,5102,7240,1448,3170,65728,65728,6,6,4,1460,150625,1,16786404,860000,33580,1,65700,0,1,0,2488244250,63
o,1723653585.692628,172.16.5.2,27994,172.16.1.2,5102,10882,14480,3106,65728,65728,6,6,4,1460,219375,1,16778212,1100000,33580,4,65700,0,0,0,2488244250,63
o,1723653585.692807,172.16.5.2,27994,172.16.1.2,5102,10882,14480,3106,65728,65728,6,6,4,1460,219375,1,16778212,1100000,33580,313,65700,0,4,0,2488244250,63
i,1723653585.772212,172.16.5.2,27994,172.16.1.2,5102,10882,14480,3106,65728,65728,6,6,4,1460,219375,1,16778212,1100000,33580,313,65700,0,313,0,2488244250,63
i,1723653585.782434,172.16.5.2,27994,172.16.1.2,5102,10882,14480,3106,65728,65728,6,6,4,1460,219375,1,16778212,1100000,33580,313,65700,0,313,0,2488244250,63
o,1723653585.782454,172.16.5.2,27994,172.16.1.2,5102,10882,1749,3106,65728,65728,6,6,4,1460,219375,1,16778213,1100000,33580,313,65700,0,313,0,2488244250,63
i,1723653585.843231,172.16.5.2,50372,172.16.1.2,5102,2896,5828,2086,65728,65728,6,6,5,1460,16662187,1,16778208,64000000,58156,52364,65700,0,5792,0,1961041759,63
i,1723653585.895344,172.16.5.2,27994,172.16.1.2,5102,10882,14480,3106,65728,65728,6,6,4,1460,219375,1,16778212,1100000,33580,313,65700,0,313,0,2488244250,63
i,1723653585.895394,172.16.5.2,27994,172.16.1.2,5102,10882,14480,3106,65728,65728,6,6,4,1460,217187,1,996,950000,33580,309,65700,0,309,0,2488244250,63
o,1723653585.895417,172.16.5.2,27994,172.16.1.2,5102,10882,14480,3106,65728,65728,6,6,4,1460,215312,1,997,830000,33580,0,65700,4,0,0,2488244250,63
i,1723653585.895595,172.16.5.2,27994,172.16.1.2,5102,10882,14480,3106,65728,65728,6,6,4,1460,215312,1,996,830000,33580,0,65700,4,0,0,2488244250,63
i,1723653585.896719,172.16.5.2,27994,172.16.1.2,5102,10882,14480,3106,65728,65728,6,6,4,1460,215312,1,996,830000,33580,0,65700,0,0,0,2488244250,63
o,1723653585.896801,172.16.5.2,27994,172.16.1.2,5102,10882,14480,3106,65728,65728,6,6,4,1460,215312,1,997,830000,33580,0,65700,1,0,0,2488244250,63
o,1723653585.897056,172.16.5.2,27994,172.16.1.2,5102,10882,14480,3106,65728,65728,6,6,4,1460,215312,1,16778212,830000,33580,1,65700,0,0,0,2488244250,63
o,1723653585.897347,172.16.5.2,27994,172.16.1.2,5102,10882,14480,3106,65728,65728,6,6,6,1460,215312,1,16778212,830000,33580,1,65700,0,1,0,2488244250,63
o,1723653585.898131,10.0.2.15,22,10.0.2.2,50536,1073725440,14600,1026,65535,65700,0,0,4,1460,312,0,16777220,240000,33580,1020,65700,0,0,0,4004006936,63
i,1723653585.899432,10.0.2.15,22,10.0.2.2,50536,1073725440,14600,1026,65535,65700,0,0,4,1460,312,0,16777220,240000,33580,1020,65700,0,1020,0,4004006936,63
o,1723653585.900219,10.0.2.15,22,10.0.2.2,50536,1073725440,15620,1026,65535,65700,0,0,4,1460,312,0,16777220,240000,33580,176,65700,0,0,0,4004006936,63
i,1723653585.900764,10.0.2.15,22,10.0.2.2,50536,1073725440,15620,1026,65535,65700,0,0,4,1460,312,0,16777220,240000,33580,176,65700,0,176,0,4004006936,63
i,1723653585.900839,10.0.2.15,22,10.0.2.2,50536,1073725440,15796,1026,65535,65700,0,0,4,1460,312,0,4,240000,33580,0,65700,0,0,0,4004006936,63
i,1723653585.900856,10.0.2.15,22,10.0.2.2,50536,1073725440,15796,1026,65535,65700,0,0,4,1460,312,0,4,240000,33580,0,65700,96,0,0,4004006936,63
o,1723653585.900872,10.0.2.15,22,10.0.2.2,50536,1073725440,15796,1026,65535,65604,0,0,5,1460,312,0,5,240000,33580,0,65700,96,0,0,4004006936,63
o,1723653585.901525,10.0.2.15,22,10.0.2.2,50536,1073725440,15796,1026,65535,65604,0,0,8,1460,312,0,4,240000,33580,0,65700,0,0,0,4004006936,63
i,1723653585.902067,10.0.2.15,22,10.0.2.2,50536,1073725440,15796,1026,65535,65604,0,0,8,1460,312,0,67108884,240000,33580,0,65700,0,1,0,4004006936,63
i,1723653586.016691,172.16.5.2,27994,172.16.1.2,5102,10882,14480,3106,65728,65728,6,6,6,1460,215312,1,83887092,830000,33580,1,65700,0,2,0,2488244250,63
i,1723653586.016729,172.16.5.2,27994,172.16.1.2,5102,10882,14480,3106,65728,65728,6,6,6,1460,215312,1,83887092,830000,33580,1,65700,0,2,0,2488244250,63
i,1723653586.016759,172.16.5.2,27994,172.16.1.2,5102,10882,14480,3106,65728,65728,6,6,6,1460,203437,1,67109876,810000,33580,0,65700,0,1,0,2488244250,63
o,1723653586.016778,172.16.5.2,27994,172.16.1.2,5102,10882,14480,3106,65728,65728,6,6,7,1460,203437,1,67109879,810000,33580,0,65700,0,1,0,2488244250,63
i,1723653586.140030,172.16.5.2,27994,172.16.1.2,5102,10882,14480,3106,65728,65728,6,6,7,1460,203437,1,67109876,810000,33580,0,65700,0,1,0,2488244250,63
i,1723653687.987525,10.0.2.15,22,10.0.2.2,50532,1073725440,14600,0,65535,65700,0,0,4,1460,312,0,16777216,270000,33580,0,65700,0,0,0,2464548117,63
o,1723653687.995106,10.0.2.15,22,10.0.2.2,50532,1073725440,14600,1026,65535,65700,0,0,4,1460,312,0,16777216,270000,33580,38,65700,42,0,0,2464548117,63
i,1723653687.996567,10.0.2.15,22,10.0.2.2,50532,1073725440,14600,1026,65535,65700,0,0,4,1460,312,0,16777216,270000,33580,38,65700,0,38,0,2464548117,63
i,1723653687.996632,10.0.2.15,22,10.0.2.2,50532,1073725440,14638,1026,65535,65700,0,0,4,1460,312,0,0,240000,33580,0,65700,0,0,0,2464548117,63
i,1723653687.996647,10.0.2.15,22,10.0.2.2,50532,1073725440,14638,1026,65535,65700,0,0,4,1460,312,0,0,240000,33580,0,65700,1460,0,0,2464548117,63
o,1723653687.996663,10.0.2.15,22,10.0.2.2,50532,1073725440,14638,1026,65535,65700,0,0,4,1460,312,0,1,240000,33580,0,65700,1536,0,0,2464548117,63
o,1723653687.997566,10.0.2.15,22,10.0.2.2,50532,1073725440,14638,1026,65535,65700,0,0,4,1460,312,0,16777216,240000,33580,1120,65700,1536,0,0,2464548117,63
