enable_time_secs=1723568707	enable_time_usecs=801585	siftrver=1.3.0	sysname=FreeBSD	sysver=1401000	ipmode=4
o,1723568707.801903,10.0.2.15,22,10.0.2.2,50558,1073725440,17746,1026,65535,65700,0,0,4,1460,312,0,16777220,240000,33580,172,65700,0,0,0,4230595199,63
i,1723568707.802674,10.0.2.15,22,10.0.2.2,50558,1073725440,17746,1026,65535,65700,0,0,4,1460,312,0,16777220,240000,33580,172,65700,0,172,0,4230595199,63
o,1723568707.802697,10.0.2.15,22,10.0.2.2,50558,1073725440,17918,1026,65535,65700,0,0,4,1460,312,0,16777220,240000,33580,72,65700,0,0,0,4230595199,63
i,1723568707.803136,10.0.2.15,22,10.0.2.2,50558,1073725440,17918,1026,65535,65700,0,0,4,1460,312,0,16777220,240000,33580,72,65700,0,72,0,4230595199,63
i,1723568707.803154,10.0.2.15,22,10.0.2.2,50558,1073725440,17990,1026,65535,65700,0,0,4,1460,312,0,4,240000,33580,0,65700,0,0,0,4230595199,63
i,1723568707.803170,10.0.2.15,22,10.0.2.2,50558,1073725440,17990,1026,65535,65700,0,0,4,1460,312,0,4,240000,33580,0,65700,96,0,0,4230595199,63
o,1723568707.803187,10.0.2.15,22,10.0.2.2,50558,1073725440,17990,1026,65535,65604,0,0,5,1460,312,0,5,240000,33580,0,65700,96,0,0,4230595199,63
o,1723568707.803812,10.0.2.15,22,10.0.2.2,50558,1073725440,17990,1026,65535,65604,0,0,8,1460,312,0,4,240000,33580,0,65700,0,0,0,4230595199,63
i,1723568707.804305,10.0.2.15,22,10.0.2.2,50558,1073725440,17990,1026,65535,65604,0,0,8,1460,312,0,67108884,240000,33580,0,65700,0,1,0,4230595199,63
i,1723568710.907374,10.0.2.15,22,10.0.2.2,50580,1073725440,14600,0,65535,65700,0,0,4,1460,312,0,16777216,270000,33580,0,65700,0,0,0,3392238534,63
o,1723568710.925897,10.0.2.15,22,10.0.2.2,50580,1073725440,14600,1026,65535,65700,0,0,4,1460,312,0,16777216,270000,33580,38,65700,42,0,0,3392238534,63
i,1723568710.926890,10.0.2.15,22,10.0.2.2,50580,1073725440,14600,1026,65535,65700,0,0,4,1460,312,0,16777216,270000,33580,38,65700,0,38,0,3392238534,63
i,1723568710.927701,10.0.2.15,22,10.0.2.2,50580,1073725440,14638,1026,65535,65700,0,0,4,1460,312,0,0,240000,33580,0,65700,0,0,0,3392238534,63
i,1723568710.927730,10.0.2.15,22,10.0.2.2,50580,1073725440,14638,1026,65535,65700,0,0,4,1460,312,0,0,240000,33580,0,65700,1460,0,0,3392238534,63
o,1723568710.927760,10.0.2.15,22,10.0.2.2,50580,1073725440,14638,1026,65535,65700,0,0,4,1460,312,0,1,240000,33580,0,65700,1536,0,0,3392238534,63
o,1723568710.929878,10.0.2.15,22,10.0.2.2,50580,1073725440,14638,1026,65535,65700,0,0,4,1460,312,0,16777216,240000,33580,1120,65700,1536,0,0,3392238534,63
i,1723568710.931184,10.0.2.15,22,10.0.2.2,50580,1073725440,14638,1026,65535,65700,0,0,4,1460,312,0,16777216,240000,33580,1120,65700,0,1120,0,3392238534,63
i,1723568710.933016,10.0.2.15,22,10.0.2.2,50580,1073725440,15758,1026,65535,65700,0,0,4,1460,312,0,0,240000,33580,0,65700,0,0,0,3392238534,63
o,1723568710.937298,10.0.2.15,22,10.0.2.2,50580,1073725440,15758,1026,65535,65700,0,0,4,1460,312,0,16777216,240000,33580,492,65700,0,0,0,3392238534,63
i,1723568710.938684,10.0.2.15,22,10.0.2.2,50580,1073725440,15758,1026,65535,65700,0,0,4,1460,312,0,16777216,240000,33580,492,65700,0,492,0,3392238534,63
i,1723568710.945801,10.0.2.15,22,10.0.2.2,50580,1073725440,16250,1026,65535,65700,0,0,4,1460,312,0,0,240000,33580,0,65700,0,0,0,3392238534,63
i,1723568710.945831,10.0.2.15,22,10.0.2.2,50580,1073725440,16250,1026,65535,65700,0,0,4,1460,312,0,0,240000,33580,0,65700,16,0,0,3392238534,63
o,1723568710.945851,10.0.2.15,22,10.0.2.2,50580,1073725440,16250,1026,65535,65700,0,0,4,1460,312,0,1,240000,33580,0,65700,60,0,0,3392238534,63
o,1723568710.946117,10.0.2.15,22,10.0.2.2,50580,1073725440,16250,1026,65535,65700,0,0,4,1460,312,0,16777216,240000,33580,44,65700,0,0,0,3392238534,63
i,1723568710.947616,10.0.2.15,22,10.0.2.2,50580,1073725440,16250,1026,65535,65700,0,0,4,1460,312,0,16777216,240000,33580,44,65700,0,44,0,3392238534,63
i,1723568710.947638,10.0.2.15,22,10.0.2.2,50580,1073725440,16294,1026,65535,65700,0,0,4,1460,312,0,0,240000,33580,0,65700,0,0,0,3392238534,63
o,1723568710.949782,10.0.2.15,22,10.0.2.2,50580,1073725440,16294,1026,65535,65700,0,0,4,1460,312,0,16777216,240000,33580,68,65700,0,0,0,3392238534,63
i,1723568710.950335,10.0.2.15,22,10.0.2.2,50580,1073725440,16294,1026,65535,65700,0,0,4,1460,312,0,16777216,240000,33580,68,65700,0,68,0,3392238534,63
i,1723568710.950359,10.0.2.15,22,10.0.2.2,50580,1073725440,16362,1026,65535,65700,0,0,4,1460,312,0,0,240000,33580,0,65700,0,0,0,3392238534,63
o,1723568710.951840,10.0.2.15,22,10.0.2.2,50580,1073725440,16362,1026,65535,65700,0,0,4,1460,312,0,16777216,240000,33580,332,65700,0,0,0,3392238534,63
i,1723568710.952751,10.0.2.15,22,10.0.2.2,50580,1073725440,16362,1026,65535,65700,0,0,4,1460,312,0,16777216,240000,33580,332,65700,0,332,0,3392238534,63
i,1723568710.954161,10.0.2.15,22,10.0.2.2,50580,1073725440,16694,1026,65535,65700,0,0,4,1460,312,0,0,240000,33580,0,65700,0,0,0,3392238534,63
o,1723568710.971971,10.0.2.15,22,10.0.2.2,50580,1073725440,16694,1026,65535,65700,0,0,4,1460,312,0,16777216,240000,33580,28,65700,0,0,0,3392238534,63
i,1723568710.972607,10.0.2.15,22,10.0.2.2,50580,1073725440,16694,1026,65535,65700,0,0,4,1460,312,0,16777216,240000,33580,28,65700,0,28,0,3392238534,63
i,1723568710.972671,10.0.2.15,22,10.0.2.2,50580,1073725440,16722,1026,65535,65700,0,0,4,1460,312,0,0,240000,33580,0,65700,0,0,0,3392238534,63
o,1723568710.974696,10.0.2.15,22,10.0.2.2,50580,1073725440,16722,1026,65535,65700,0,0,4,1460,312,0,16777216,240000,33580,768,65700,112,0,0,3392238534,63
i,1723568710.975584,10.0.2.15,22,10.0.2.2,50580,1073725440,16722,1026,65535,65700,0,0,4,1460,312,0,16777216,240000,33580,908,65700,112,768,0,3392238534,63
o,1723568710.975610,10.0.2.15,22,10.0.2.2,50580,1073725440,17490,1026,65535,65700,0,0,4,1460,312,0,16777216,230000,33580,140,65700,112,0,0,3392238534,63
i,1723568710.976262,10.0.2.15,22,10.0.2.2,50580,1073725440,17490,1026,65535,65700,0,0,4,1460,312,0,16777216,230000,33580,140,65700,112,140,0,3392238534,63
o,1723568710.977410,10.0.2.15,22,10.0.2.2,50580,1073725440,17630,1026,65535,65700,0,0,4,1460,312,0,16777216,230000,33580,44,65700,0,0,0,3392238534,63
i,1723568710.978054,10.0.2.15,22,10.0.2.2,50580,1073725440,17630,1026,65535,65700,0,0,4,1460,312,0,16777216,230000,33580,44,65700,0,44,0,3392238534,63
i,1723568710.978076,10.0.2.15,22,10.0.2.2,50580,1073725440,17674,1026,65535,65700,0,0,4,1460,312,0,0,230000,33580,0,65700,0,0,0,3392238534,63
o,1723568710.979157,10.0.2.15,22,10.0.2.2,50580,1073725440,17674,1026,65535,65700,0,0,4,1460,312,0,16777220,230000,33580,72,65700,0,0,0,3392238534,63
i,1723568710.979729,10.0.2.15,22,10.0.2.2,50580,1073725440,17674,1026,65535,65700,0,0,4,1460,312,0,16777220,230000,33580,72,65700,0,72,0,3392238534,63
o,1723568710.983775,10.0.2.15,22,10.0.2.2,50580,1073725440,17746,1026,65535,65700,0,0,4,1460,312,0,16777220,230000,33580,176,65700,0,0,0,3392238534,63
i,1723568710.984978,10.0.2.15,22,10.0.2.2,50580,1073725440,17746,1026,65535,65700,0,0,4,1460,312,0,16777220,230000,33580,176,65700,0,176,0,3392238534,63
i,1723568710.985065,10.0.2.15,22,10.0.2.2,50580,1073725440,17922,1026,65535,65700,0,0,4,1460,312,0,4,240000,33580,0,65700,0,0,0,3392238534,63
i,1723568710.985148,10.0.2.15,22,10.0.2.2,50580,1073725440,17922,1026,65535,65700,0,0,4,1460,312,0,4,240000,33580,0,65700,96,0,0,3392238534,63
o,1723568710.985173,10.0.2.15,22,10.0.2.2,50580,1073725440,17922,1026,65535,65604,0,0,5,1460,312,0,5,240000,33580,0,65700,96,0,0,3392238534,63
o,1723568711.002984,10.0.2.15,22,10.0.2.2,50580,1073725440,17922,1026,65535,65604,0,0,8,1460,312,0,4,240000,33580,0,65700,0,0,0,3392238534,63
i,1723568711.004531,10.0.2.15,22,10.0.2.2,50580,1073725440,17922,1026,65535,65604,0,0,8,1460,312,0,67108884,240000,33580,0,65700,0,1,0,3392238534,63
i,1723568712.042867,10.0.2.15,22,10.0.2.2,50588,1073725440,14600,0,65535,65700,0,0,4,1460,312,0,16777216,270000,33580,0,65700,0,0,0,504056637,63
o,1723568712.056510,10.0.2.15,22,10.0.2.2,50588,1073725440,14600,1026,65535,65700,0,0,4,1460,312,0,16777216,270000,33580,38,65700,42,0,0,504056637,63
i,1723568712.057242,10.0.2.15,22,10.0.2.2,50588,1073725440,14600,1026,65535,65700,0,0,4,1460,312,0,16777216,270000,33580,38,65700,0,38,0,504056637,63
i,1723568712.057534,10.0.2.15,22,10.0.2.2,50588,1073725440,14638,1026,65535,65700,0,0,4,1460,312,0,0,240000,33580,0,65700,0,0,0,504056637,63
i,1723568712.057556,10.0.2.15,22,10.0.2.2,50588,1073725440,14638,1026,65535,65700,0,0,4,1460,312,0,0,240000,33580,0,65700,1460,0,0,504056637,63
o,1723568712.057579,10.0.2.15,22,10.0.2.2,50588,1073725440,14638,1026,65535,65700,0,0,4,1460,312,0,1,240000,33580,0,65700,1536,0,0,504056637,63
o,1723568712.059151,10.0.2.15,22,10.0.2.2,50588,1073725440,14638,1026,65535,65700,0,0,4,1460,312,0,16777216,240000,33580,1120,65700,1536,0,0,504056637,63
i,1723568712.060189,10.0.2.15,22,10.0.2.2,50588,1073725440,14638,1026,65535,65700,0,0,4,1460,312,0,16777216,240000,33580,1120,65700,0,1120,0,504056637,63
i,1723568712.061125,10.0.2.15,22,10.0.2.2,50588,1073725440,15758,1026,65535,65700,0,0,4,1460,312,0,0,240000,33580,0,65700,0,0,0,504056637,63
o,1723568712.065744,10.0.2.15,22,10.0.2.2,50588,1073725440,15758,1026,65535,65700,0,0,4,1460,312,0,16777216,240000,33580,492,65700,0,0,0,504056637,63
i,1723568712.066328,10.0.2.15,22,10.0.2.2,50588,1073725440,15758,1026,65535,65700,0,0,4,1460,312,0,16777216,240000,33580,492,65700,0,492,0,504056637,63
i,1723568712.071036,10.0.2.15,22,10.0.2.2,50588,1073725440,16250,1026,65535,65700,0,0,4,1460,312,0,0,240000,33580,0,65700,0,0,0,504056637,63
i,1723568712.071059,10.0.2.15,22,10.0.2.2,50588,1073725440,16250,1026,65535,65700,0,0,4,1460,312,0,0,240000,33580,0,65700,16,0,0,504056637,63
o,1723568712.071077,10.0.2.15,22,10.0.2.2,50588,1073725440,16250,1026,65535,65700,0,0,4,1460,312,0,1,240000,33580,0,65700,60,0,0,504056637,63
o,1723568712.071315,10.0.2.15,22,10.0.2.2,50588,1073725440,16250,1026,65535,65700,0,0,4,1460,312,0,16777216,240000,33580,44,65700,0,0,0,504056637,63
i,1723568712.071834,10.0.2.15,22,10.0.2.2,50588,1073725440,16250,1026,65535,65700,0,0,4,1460,312,0,16777216,240000,33580,44,65700,0,44,0,504056637,63
i,1723568712.071853,10.0.2.15,22,10.0.2.2,50588,1073725440,16294,1026,65535,65700,0,0,4,1460,312,0,0,240000,33580,0,65700,0,0,0,504056637,63
o,1723568712.073577,10.0.2.15,22,10.0.2.2,50588,1073725440,16294,1026,65535,65700,0,0,4,1460,312,0,16777216,240000,33580,68,65700,0,0,0,504056637,63
i,1723568712.074063,10.0.2.15,22,10.0.2.2,50588,1073725440,16294,1026,65535,65700,0,0,4,1460,312,0,16777216,240000,33580,68,65700,0,68,0,504056637,63
i,1723568712.076569,10.0.2.15,22,10.0.2.2,50588,1073725440,16362,1026,65535,65700,0,0,4,1460,312,0,0,240000,33580,0,65700,0,0,0,504056637,63
o,1723568712.077596,10.0.2.15,22,10.0.2.2,50588,1073725440,16362,1026,65535,65700,0,0,4,1460,312,0,16777216,240000,33580,332,65700,0,0,0,504056637,63
i,1723568712.078149,10.0.2.15,22,10.0.2.2,50588,1073725440,16362,1026,65535,65700,0,0,4,1460,312,0,16777216,240000,33580,332,65700,0,332,0,504056637,63
i,1723568712.079807,10.0.2.15,22,10.0.2.2,50588,1073725440,16694,1026,65535,65700,0,0,4,1460,312,0,0,240000,33580,0,65700,0,0,0,504056637,63
o,1723568712.096828,10.0.2.15,22,10.0.2.2,50588,1073725440,16694,1026,65535,65700,0,0,4,1460,312,0,16777216,240000,33580,28,65700,0,0,0,504056637,63
i,1723568712.097279,10.0.2.15,22,10.0.2.2,50588,1073725440,16694,1026,65535,65700,0,0,4,1460,312,0,16777216,240000,33580,28,65700,0,28,0,504056637,63
i,1723568712.097300,10.0.2.15,22,10.0.2.2,50588,1073725440,16722,1026,65535,65700,0,0,4,1460,312,0,0,240000,33580,0,65700,0,0,0,504056637,63
o,1723568712.098805,10.0.2.15,22,10.0.2.2,50588,1073725440,16722,1026,65535,65700,0,0,4,1460,312,0,16777216,240000,33580,768,65700,112,0,0,504056637,63
i,1723568712.099691,10.0.2.15,22,10.0.2.2,50588,1073725440,16722,1026,65535,65700,0,0,4,1460,312,0,16777216,240000,33580,908,65700,112,768,0,504056637,63
o,1723568712.099719,10.0.2.15,22,10.0.2.2,50588,1073725440,17490,1026,65535,65700,0,0,4,1460,312,0,16777216,240000,33580,140,65700,112,0,0,504056637,63
i,1723568712.099903,10.0.2.15,22,10.0.2.2,50588,1073725440,17490,1026,65535,65700,0,0,4,1460,312,0,16777216,240000,33580,140,65700,112,140,0,504056637,63
o,1723568712.100959,10.0.2.15,22,10.0.2.2,50588,1073725440,17630,1026,65535,65700,0,0,4,1460,312,0,16777216,240000,33580,44,65700,0,0,0,504056637,63
i,1723568712.101560,10.0.2.15,22,10.0.2.2,50588,1073725440,17630,1026,65535,65700,0,0,4,1460,312,0,16777216,240000,33580,44,65700,0,44,0,504056637,63
i,1723568712.101578,10.0.2.15,22,10.0.2.2,50588,1073725440,17674,1026,65535,65700,0,0,4,1460,312,0,0,240000,33580,0,65700,0,0,0,504056637,63
o,1723568712.102312,10.0.2.15,22,10.0.2.2,50588,1073725440,17674,1026,65535,65700,0,0,4,1460,312,0,16777220,240000,33580,72,65700,0,0,0,504056637,63
i,1723568712.103205,10.0.2.15,22,10.0.2.2,50588,1073725440,17674,1026,65535,65700,0,0,4,1460,312,0,16777220,240000,33580,72,65700,0,72,0,504056637,63
o,1723568712.214963,172.16.5.2,30345,172.16.1.2,5102,7500,14480,2082,65535,65700,6,6,4,1460,207812,1,16778209,680000,33580,0,65700,0,0,0,2831707957,63
o,1723568712.216016,172.16.5.2,30345,172.16.1.2,5102,7500,14480,2082,65535,65700,6,6,4,1460,207812,1,16778212,680000,33580,37,65700,0,0,0,2831707957,63
i,1723568712.327881,172.16.5.2,30345,172.16.1.2,5102,7500,14480,2082,65535,65700,6,6,4,1460,207812,1,16778212,680000,33580,37,65700,0,37,0,2831707957,63
o,1723568712.328446,172.16.5.2,30345,172.16.1.2,5102,7500,14480,3106,65728,65728,6,6,4,1460,195625,1,16778212,700000,33580,4,65700,0,0,0,2831707957,63
o,1723568712.329068,172.16.5.2,30345,172.16.1.2,5102,7500,14480,3106,65728,65728,6,6,4,1460,195625,1,16778212,700000,33580,130,65700,0,4,0,2831707957,63
i,1723568712.443738,172.16.5.2,30345,172.16.1.2,5102,7500,14480,3106,65728,65728,6,6,4,1460,195625,1,16778212,700000,33580,130,65700,0,130,0,2831707957,63
i,1723568712.443794,172.16.5.2,30345,172.16.1.2,5102,7500,14480,3106,65600,65728,6,6,4,1460,185000,1,996,700000,33580,0,65700,0,0,0,2831707957,63
o,1723568712.516267,172.16.5.2,30345,172.16.1.2,5102,7500,14480,3106,65728,65728,6,6,4,1460,185000,1,997,700000,33580,0,65700,0,0,0,2831707957,63
o,1723568712.539864,172.16.5.2,14930,172.16.1.2,5102,7500,14480,2082,65535,65700,6,6,4,1460,206562,1,16778209,690000,33580,0,65700,0,0,0,2840877545,63
o,1723568712.540014,172.16.5.2,14930,172.16.1.2,5102,7500,14480,2082,65535,65700,6,6,4,1460,206562,1,16778208,690000,33580,37,65700,0,0,0,2840877545,63
i,1723568712.657529,172.16.5.2,30345,172.16.1.2,5102,7500,14480,3106,65728,65728,6,6,4,1460,185000,1,996,700000,33580,0,65700,0,0,0,2831707957,63
i,1723568712.657575,172.16.5.2,30345,172.16.1.2,5102,7500,14480,3106,65728,65728,6,6,4,1460,185000,1,996,700000,33580,0,65700,1,0,0,2831707957,63
o,1723568712.657603,172.16.5.2,30345,172.16.1.2,5102,7500,14480,3106,65728,65728,6,6,4,1460,185000,1,997,700000,33580,0,65700,1,0,0,2831707957,63
o,1723568712.658272,172.16.5.2,14930,172.16.1.2,5102,7500,14480,2086,65535,65700,6,6,4,1460,206562,1,16778208,690000,33580,33580,65700,0,37,0,2840877545,63
i,1723568712.688713,172.16.5.2,14930,172.16.1.2,5102,7500,14480,2086,65535,65700,6,6,4,1460,206562,1,16778208,690000,33580,33580,65700,0,13069,0,2840877545,63
o,1723568712.688780,172.16.5.2,14930,172.16.1.2,5102,7500,14480,2082,65728,65728,6,6,4,1460,199687,1,16778208,670000,33580,33543,65700,0,13032,0,2840877545,63
i,1723568712.747428,172.16.5.2,14930,172.16.1.2,5102,7500,14480,2082,65728,65728,6,6,4,1460,199687,1,16778208,670000,33580,33543,65700,0,14480,0,2840877545,63
o,1723568712.747487,172.16.5.2,14930,172.16.1.2,5102,7500,14480,2086,62848,65728,6,6,4,1460,186250,1,16778208,690000,33580,30647,65700,0,11584,0,2840877545,63
i,1723568712.780288,172.16.5.2,14930,172.16.1.2,5102,7500,14480,2086,62848,65728,6,6,4,1460,186250,1,16778208,690000,33580,33580,65700,0,14480,0,2840877545,63
o,1723568712.780324,172.16.5.2,14930,172.16.1.2,5102,7500,14480,2086,64256,65728,6,6,4,1460,178125,1,16778208,670000,33580,30684,65700,0,11584,0,2840877545,63
i,1723568712.780527,172.16.5.2,14930,172.16.1.2,5102,7500,14480,2086,64256,65728,6,6,4,1460,178125,1,16778208,670000,33580,30684,65700,0,14480,0,2840877545,63
o,1723568712.780552,172.16.5.2,14930,172.16.1.2,5102,7500,14480,2086,64256,65728,6,6,4,1460,170937,1,16778208,650000,33580,27788,65700,0,11584,0,2840877545,63
i,1723568712.781540,172.16.5.2,14930,172.16.1.2,5102,7500,14480,2086,64256,65728,6,6,4,1460,170937,1,16778208,650000,33580,33580,65700,0,14480,0,2840877545,63
o,1723568712.781637,172.16.5.2,14930,172.16.1.2,5102,7500,14480,2086,62848,65728,6,6,4,1460,164687,1,16778208,620000,33580,30684,65700,0,11584,0,2840877545,63
i,1723568712.808218,172.16.5.2,14930,172.16.1.2,5102,7500,14480,2086,62848,65728,6,6,4,1460,164687,1,16778208,620000,33580,33580,65700,0,14480,0,2840877545,63
o,1723568712.808250,172.16.5.2,14930,172.16.1.2,5102,7500,15940,2086,64256,65728,6,6,4,1460,163125,1,16778208,570000,33580,30684,65700,0,11584,0,2840877545,63
o,1723568712.808374,172.16.5.2,14930,172.16.1.2,5102,7500,15940,2086,64256,65728,6,6,4,1460,163125,1,16778208,570000,33580,30684,65700,0,13032,0,2840877545,63
i,1723568712.873792,172.16.5.2,14930,172.16.1.2,5102,7500,15940,2086,64256,65728,6,6,4,1460,163125,1,16778208,570000,41772,41772,65700,0,15928,0,2840877545,63
o,1723568712.873879,172.16.5.2,14930,172.16.1.2,5102,7500,15940,2086,62848,65728,6,6,4,1460,157812,1,16778208,550000,41772,38876,65700,0,13032,0,2840877545,63
i,1723568712.876497,172.16.5.2,14930,172.16.1.2,5102,7500,15940,2086,62848,65728,6,6,4,1460,157812,1,16778208,550000,41772,41772,65700,0,15928,0,2840877545,63
o,1723568712.876532,172.16.5.2,14930,172.16.1.2,5102,7500,15940,2086,62848,65728,6,6,4,1460,150625,1,16778208,550000,41772,38876,65700,0,13032,0,2840877545,63
i,1723568712.876755,172.16.5.2,14930,172.16.1.2,5102,7500,15940,2086,62848,65728,6,6,4,1460,150625,1,16778208,550000,41772,38876,65700,0,15928,0,2840877545,63
o,1723568712.876776,172.16.5.2,14930,172.16.1.2,5102,7500,15940,2086,62848,65728,6,6,4,1460,144375,1,16778208,550000,41772,35980,65700,0,13032,0,2840877545,63
i,1723568712.906228,172.16.5.2,14930,172.16.1.2,5102,7500,15940,2086,62848,65728,6,6,4,1460,144375,1,16778208,550000,41772,41772,65700,0,15928,0,2840877545,63
o,1723568712.906263,172.16.5.2,14930,172.16.1.2,5102,7500,15940,2086,64256,65728,6,6,4,1460,142812,1,16778208,510000,41772,38876,65700,0,13032,0,2840877545,63
i,1723568712.936571,172.16.5.2,14930,172.16.1.2,5102,7500,15940,2086,64256,65728,6,6,4,1460,142812,1,16778208,510000,41772,41772,65700,0,15928,0,2840877545,63
o,1723568712.936658,172.16.5.2,14930,172.16.1.2,5102,7500,15940,2086,64256,65728,6,6,4,1460,141250,1,16778208,480000,41772,38876,65700,0,13032,0,2840877545,63
o,1723568712.936827,172.16.5.2,14930,172.16.1.2,5102,7500,15940,2086,64256,65728,6,6,4,1460,141250,1,16778208,480000,41772,38876,65700,0,14480,0,2840877545,63
i,1723568712.964452,172.16.5.2,14930,172.16.1.2,5102,7500,15940,2086,64256,65728,6,6,4,1460,141250,1,16778208,480000,41772,41772,65700,0,15928,0,2840877545,63
o,1723568712.964606,172.16.5.2,14930,172.16.1.2,5102,7500,17400,2086,65728,65728,6,6,4,1460,142500,1,16778208,450000,41772,40324,65700,0,14480,0,2840877545,63
i,1723568712.988297,172.16.5.2,14930,172.16.1.2,5102,7500,17400,2086,65728,65728,6,6,4,1460,142500,1,16778208,450000,41772,40324,65700,0,17376,0,2840877545,63
o,1723568712.988330,172.16.5.2,14930,172.16.1.2,5102,7500,17400,2086,62848,65728,6,6,4,1460,139687,1,16778208,440000,41772,37428,65700,0,14480,0,2840877545,63
i,1723568712.988553,172.16.5.2,14930,172.16.1.2,5102,7500,17400,2086,62848,65728,6,6,4,1460,139687,1,16778208,440000,41772,37428,65700,0,17376,0,2840877545,63
o,1723568712.988571,172.16.5.2,14930,172.16.1.2,5102,7500,17400,2086,62848,65728,6,6,4,1460,136250,1,16778208,440000,41772,34532,65700,0,14480,0,2840877545,63
i,1723568712.988695,172.16.5.2,14930,172.16.1.2,5102,7500,17400,2086,62848,65728,6,6,4,1460,136250,1,16778208,440000,41772,34532,65700,0,17376,0,2840877545,63
o,1723568712.988711,172.16.5.2,14930,172.16.1.2,5102,7500,17400,2086,62848,65728,6,6,4,1460,133125,1,16778208,440000,41772,31636,65700,0,14480,0,2840877545,63
i,1723568713.020572,172.16.5.2,14930,172.16.1.2,5102,7500,17400,2086,62848,65728,6,6,4,1460,133125,1,16778208,440000,41772,41772,65700,0,17376,0,2840877545,63
o,1723568713.020606,172.16.5.2,14930,172.16.1.2,5102,7500,17400,2086,62848,65728,6,6,4,1460,130312,1,16778208,430000,41772,38876,65700,0,14480,0,2840877545,63
i,1723568713.050716,172.16.5.2,14930,172.16.1.2,5102,7500,17400,2086,62848,65728,6,6,4,1460,130312,1,16778208,430000,41772,41772,65700,0,17376,0,2840877545,63
o,1723568713.050751,172.16.5.2,14930,172.16.1.2,5102,7500,17400,2086,62848,65728,6,6,4,1460,127812,1,16778208,420000,41772,38876,65700,0,14480,0,2840877545,63
o,1723568713.050878,172.16.5.2,14930,172.16.1.2,5102,7500,17400,2086,62848,65728,6,6,4,1460,127812,1,16778208,420000,41772,38876,65700,0,15928,0,2840877545,63
i,1723568713.076166,172.16.5.2,14930,172.16.1.2,5102,7500,17400,2086,62848,65728,6,6,4,1460,127812,1,16778208,420000,41772,41772,65700,0,17376,0,2840877545,63
o,1723568713.076199,172.16.5.2,14930,172.16.1.2,5102,7500,18860,2086,62848,65728,6,6,4,1460,126875,1,16778208,400000,41772,38876,65700,0,14480,0,2840877545,63
i,1723568713.107174,172.16.5.2,14930,172.16.1.2,5102,7500,18860,2086,62848,65728,6,6,4,1460,126875,1,16778208,400000,41772,41772,65700,0,18824,0,2840877545,63
o,1723568713.107212,172.16.5.2,14930,172.16.1.2,5102,7500,18860,2086,62848,65728,6,6,4,1460,126250,1,16778208,390000,41772,38876,65700,0,15928,0,2840877545,63
i,1723568713.107348,172.16.5.2,14930,172.16.1.2,5102,7500,18860,2086,62848,65728,6,6,4,1460,126250,1,16778208,390000,41772,38876,65700,0,18824,0,2840877545,63
o,1723568713.107365,172.16.5.2,14930,172.16.1.2,5102,7500,18860,2086,64256,65728,6,6,4,1460,125625,1,16778208,380000,41772,35980,65700,0,15928,0,2840877545,63
i,1723568713.107502,172.16.5.2,14930,172.16.1.2,5102,7500,18860,2086,64256,65728,6,6,4,1460,125625,1,16778208,380000,41772,35980,65700,0,18824,0,2840877545,63
o,1723568713.107541,172.16.5.2,14930,172.16.1.2,5102,7500,18860,2086,62848,65728,6,6,4,1460,125000,1,16778208,370000,41772,33084,65700,0,15928,0,2840877545,63
i,1723568713.140718,172.16.5.2,14930,172.16.1.2,5102,7500,18860,2086,62848,65728,6,6,4,1460,125000,1,16778208,370000,41772,41772,65700,0,18824,0,2840877545,63
o,1723568713.140832,172.16.5.2,14930,172.16.1.2,5102,7500,18860,2086,64256,65728,6,6,4,1460,124375,1,16778208,360000,41772,38876,65700,0,15928,0,2840877545,63
i,1723568713.160760,172.16.5.2,14930,172.16.1.2,5102,7500,18860,2086,64256,65728,6,6,4,1460,124375,1,16778208,360000,41772,41772,65700,0,18824,0,2840877545,63
o,1723568713.160845,172.16.5.2,14930,172.16.1.2,5102,7500,18860,2086,62848,65728,6,6,4,1460,122812,1,16778208,360000,41772,38876,65700,0,15928,0,2840877545,63
o,1723568713.160994,172.16.5.2,14930,172.16.1.2,5102,7500,18860,2086,62848,65728,6,6,4,1460,122812,1,16778208,360000,41772,38876,65700,0,17376,0,2840877545,63
i,1723568713.197094,172.16.5.2,14930,172.16.1.2,5102,7500,18860,2086,62848,65728,6,6,4,1460,122812,1,16778208,360000,41772,41772,65700,0,18824,0,2840877545,63
o,1723568713.197129,172.16.5.2,14930,172.16.1.2,5102,7500,18860,2086,62848,65728,6,6,4,1460,122500,1,16778208,360000,41772,38876,65700,0,15928,0,2840877545,63
i,1723568713.197301,172.16.5.2,14930,172.16.1.2,5102,7500,18860,2086,62848,65728,6,6,4,1460,122500,1,16778208,360000,41772,38876,65700,0,18824,0,2840877545,63
o,1723568713.197320,172.16.5.2,14930,172.16.1.2,5102,7500,20320,2086,64256,65728,6,6,4,1460,122187,1,16778208,350000,41772,35980,65700,0,15928,0,2840877545,63
i,1723568713.198910,172.16.5.2,14930,172.16.1.2,5102,7500,20320,2086,64256,65728,6,6,4,1460,122187,1,16778208,350000,41772,41772,65700,0,20272,0,2840877545,63
o,1723568713.198931,172.16.5.2,14930,172.16.1.2,5102,7500,20320,2086,64256,65728,6,6,4,1460,118437,1,16778208,370000,41772,38876,65700,0,17376,0,2840877545,63
i,1723568713.226261,172.16.5.2,14930,172.16.1.2,5102,7500,20320,2086,64256,65728,6,6,4,1460,118437,1,16778208,370000,49964,49964,65700,0,20272,0,2840877545,63
o,1723568713.226383,172.16.5.2,14930,172.16.1.2,5102,7500,20320,2086,62848,65728,6,6,4,1460,118750,1,16778208,360000,49964,47068,65700,0,17376,0,2840877545,63
i,1723568713.260356,172.16.5.2,14930,172.16.1.2,5102,7500,20320,2086,62848,65728,6,6,4,1460,118750,1,16778208,360000,49964,49964,65700,0,20272,0,2840877545,63
o,1723568713.260450,172.16.5.2,14930,172.16.1.2,5102,7500,20320,2086,64256,65728,6,6,4,1460,122812,1,16778208,390000,49964,47068,65700,0,17376,0,2840877545,63
i,1723568713.260648,172.16.5.2,14930,172.16.1.2,5102,7500,20320,2086,64256,65728,6,6,4,1460,122812,1,16778208,390000,49964,47068,65700,0,20272,0,2840877545,63
o,1723568713.260677,172.16.5.2,14930,172.16.1.2,5102,7500,20320,2086,64256,65728,6,6,4,1460,122500,1,16778208,370000,49964,44172,65700,0,17376,0,2840877545,63
o,1723568713.260836,172.16.5.2,14930,172.16.1.2,5102,7500,20320,2086,64256,65728,6,6,4,1460,122500,1,16778208,370000,49964,44172,65700,0,18824,0,2840877545,63
i,1723568713.281013,172.16.5.2,14930,172.16.1.2,5102,7500,20320,2086,64256,65728,6,6,4,1460,122500,1,16778208,370000,49964,49964,65700,0,20272,0,2840877545,63
o,1723568713.281048,172.16.5.2,14930,172.16.1.2,5102,7500,20320,2086,65728,65728,6,6,4,1460,122187,1,16778208,360000,49964,48516,65700,0,18824,0,2840877545,63
i,1723568713.311604,172.16.5.2,14930,172.16.1.2,5102,7500,20320,2086,65728,65728,6,6,4,1460,122187,1,16778208,360000,49964,48516,65700,0,20272,0,2840877545,63
o,1723568713.311690,172.16.5.2,14930,172.16.1.2,5102,7500,20320,2086,62848,65728,6,6,4,1460,120937,1,16778208,360000,49964,45620,65700,0,17376,0,2840877545,63
i,1723568713.312854,172.16.5.2,14930,172.16.1.2,5102,7500,20320,2086,62848,65728,6,6,4,1460,120937,1,16778208,360000,49964,49964,65700,0,20272,0,2840877545,63
o,1723568713.312880,172.16.5.2,14930,172.16.1.2,5102,7500,20320,2086,64256,65728,6,6,4,1460,119687,1,16778208,360000,49964,47068,65700,0,17376,0,2840877545,63
i,1723568713.313027,172.16.5.2,14930,172.16.1.2,5102,7500,20320,2086,64256,65728,6,6,4,1460,119687,1,16778208,360000,49964,47068,65700,0,20272,0,2840877545,63
o,1723568713.313044,172.16.5.2,14930,172.16.1.2,5102,7500,21780,2086,62848,65728,6,6,4,1460,118750,1,16778208,360000,49964,44172,65700,0,17376,0,2840877545,63
i,1723568713.341485,172.16.5.2,14930,172.16.1.2,5102,7500,21780,2086,62848,65728,6,6,4,1460,118750,1,16778208,360000,49964,49964,65700,0,21720,0,2840877545,63
o,1723568713.341608,172.16.5.2,14930,172.16.1.2,5102,7500,21780,2086,64256,65728,6,6,4,1460,121562,1,16778208,370000,49964,47068,65700,0,18824,0,2840877545,63
i,1723568713.361044,172.16.5.2,14930,172.16.1.2,5102,7500,21780,2086,64256,65728,6,6,4,1460,121562,1,16778208,370000,49964,49964,65700,0,21720,0,2840877545,63
o,1723568713.361110,172.16.5.2,14930,172.16.1.2,5102,7500,21780,2086,64256,65728,6,6,4,1460,122812,1,16778208,370000,49964,47068,65700,0,18824,0,2840877545,63
i,1723568713.361369,172.16.5.2,14930,172.16.1.2,5102,7500,21780,2086,64256,65728,6,6,4,1460,122812,1,16778208,370000,49964,47068,65700,0,21720,0,2840877545,63
o,1723568713.361390,172.16.5.2,14930,172.16.1.2,5102,7500,21780,2086,61376,65728,6,6,4,1460,120000,1,16778208,380000,49964,44172,65700,0,18824,0,2840877545,63
o,1723568713.361516,172.16.5.2,14930,172.16.1.2,5102,7500,21780,2086,61376,65728,6,6,4,1460,120000,1,16778208,380000,49964,44172,65700,0,20272,0,2840877545,63
i,1723568713.380664,172.16.5.2,14930,172.16.1.2,5102,7500,21780,2086,61376,65728,6,6,4,1460,120000,1,16778208,380000,49964,49964,65700,0,21720,0,2840877545,63
o,1723568713.380773,172.16.5.2,14930,172.16.1.2,5102,7500,21780,2086,64256,65728,6,6,4,1460,120000,1,16778208,360000,49964,47068,65700,0,18824,0,2840877545,63
i,1723568713.415773,172.16.5.2,14930,172.16.1.2,5102,7500,21780,2086,64256,65728,6,6,4,1460,120000,1,16778208,360000,49964,49964,65700,0,21720,0,2840877545,63
o,1723568713.415816,172.16.5.2,14930,172.16.1.2,5102,7500,21780,2086,62848,65728,6,6,4,1460,118750,1,16778208,360000,49964,47068,65700,0,18824,0,2840877545,63
i,1723568713.416014,172.16.5.2,14930,172.16.1.2,5102,7500,21780,2086,62848,65728,6,6,4,1460,118750,1,16778208,360000,49964,47068,65700,0,21720,0,2840877545,63
o,1723568713.416039,172.16.5.2,14930,172.16.1.2,5102,7500,21780,2086,64256,65728,6,6,4,1460,117812,1,16778208,360000,49964,44172,65700,0,18824,0,2840877545,63
i,1723568713.416219,172.16.5.2,14930,172.16.1.2,5102,7500,21780,2086,64256,65728,6,6,4,1460,117812,1,16778208,360000,49964,44172,65700,0,21720,0,2840877545,63
o,1723568713.416238,172.16.5.2,14930,172.16.1.2,5102,7500,23240,2086,64256,65728,6,6,4,1460,116875,1,16778208,350000,49964,41276,65700,0,18824,0,2840877545,63
i,1723568713.455521,172.16.5.2,14930,172.16.1.2,5102,7500,23240,2086,64256,65728,6,6,4,1460,116875,1,16778208,350000,49964,49964,65700,0,23168,0,2840877545,63
o,1723568713.455557,172.16.5.2,14930,172.16.1.2,5102,7500,23240,2086,64256,65728,6,6,4,1460,120000,1,16778208,370000,49964,47068,65700,0,20272,0,2840877545,63
i,1723568713.455689,172.16.5.2,14930,172.16.1.2,5102,7500,23240,2086,64256,65728,6,6,4,1460,120000,1,16778208,370000,49964,47068,65700,0,23168,0,2840877545,63
o,1723568713.455705,172.16.5.2,14930,172.16.1.2,5102,7500,23240,2086,64256,65728,6,6,4,1460,118750,1,16778208,370000,49964,44172,65700,0,20272,0,2840877545,63
i,1723568713.466204,172.16.5.2,14930,172.16.1.2,5102,7500,23240,2086,64256,65728,6,6,4,1460,118750,1,16778208,370000,58156,58156,65700,0,23168,0,2840877545,63
o,1723568713.466298,172.16.5.2,14930,172.16.1.2,5102,7500,23240,2086,64256,65728,6,6,4,1460,117812,1,16778208,360000,58156,55260,65700,0,20272,0,2840877545,63
o,1723568713.466425,172.16.5.2,14930,172.16.1.2,5102,7500,23240,2086,64256,65728,6,6,4,1460,117812,1,16778208,360000,58156,55260,65700,0,21720,0,2840877545,63
i,1723568713.496618,172.16.5.2,14930,172.16.1.2,5102,7500,23240,2086,64256,65728,6,6,4,1460,117812,1,16778208,360000,58156,58156,65700,0,23168,0,2840877545,63
o,1723568713.496655,172.16.5.2,14930,172.16.1.2,5102,7500,23240,2086,65728,65728,6,6,4,1460,120625,1,16778208,380000,58156,56708,65700,0,21720,0,2840877545,63
i,1723568713.496816,172.16.5.2,14930,172.16.1.2,5102,7500,23240,2086,65728,65728,6,6,4,1460,120625,1,16778208,380000,58156,56708,65700,0,23168,0,2840877545,63
o,1723568713.496835,172.16.5.2,14930,172.16.1.2,5102,7500,23240,2086,62848,65728,6,6,4,1460,120625,1,16778208,360000,58156,53812,65700,0,20272,0,2840877545,63
i,1723568713.524878,172.16.5.2,14930,172.16.1.2,5102,7500,23240,2086,62848,65728,6,6,4,1460,120625,1,16778208,360000,58156,58156,65700,0,23168,0,2840877545,63
o,1723568713.524921,172.16.5.2,14930,172.16.1.2,5102,7500,23240,2086,62848,65728,6,6,4,1460,118125,1,16778208,370000,58156,55260,65700,0,20272,0,2840877545,63
i,1723568713.525092,172.16.5.2,14930,172.16.1.2,5102,7500,23240,2086,62848,65728,6,6,4,1460,118125,1,16778208,370000,58156,55260,65700,0,23168,0,2840877545,63
o,1723568713.525114,172.16.5.2,14930,172.16.1.2,5102,7500,23240,2086,64256,65728,6,6,4,1460,115937,1,16778208,370000,58156,52364,65700,0,20272,0,2840877545,63
i,1723568713.526746,172.16.5.2,14930,172.16.1.2,5102,7500,23240,2086,64256,65728,6,6,4,1460,115937,1,16778208,370000,58156,58156,65700,0,23168,0,2840877545,63
o,1723568713.526779,172.16.5.2,14930,172.16.1.2,5102,7500,23240,2086,64256,65728,6,6,4,1460,114062,1,16778208,370000,58156,55260,65700,0,20272,0,2840877545,63
i,1723568713.557959,172.16.5.2,14930,172.16.1.2,5102,7500,23240,2086,64256,65728,6,6,4,1460,114062,1,16778208,370000,58156,58156,65700,0,23168,0,2840877545,63
o,1723568713.557994,172.16.5.2,14930,172.16.1.2,5102,7500,24700,2086,64256,65728,6,6,4,1460,117500,1,16778208,390000,58156,55260,65700,0,20272,0,2840877545,63
i,1723568713.558265,172.16.5.2,14930,172.16.1.2,5102,7500,24700,2086,64256,65728,6,6,4,1460,117500,1,16778208,390000,58156,55260,65700,0,24616,0,2840877545,63
o,1723568713.558292,172.16.5.2,14930,172.16.1.2,5102,7500,24700,2086,64256,65728,6,6,4,1460,115312,1,16778208,380000,58156,52364,65700,0,21720,0,2840877545,63
i,1723568713.578240,172.16.5.2,14930,172.16.1.2,5102,7500,24700,2086,64256,65728,6,6,4,1460,115312,1,16778208,380000,58156,58156,65700,0,24616,0,2840877545,63
o,1723568713.578321,172.16.5.2,14930,172.16.1.2,5102,7500,24700,2086,64256,65728,6,6,4,1460,115937,1,16778208,370000,58156,55260,65700,0,21720,0,2840877545,63
o,1723568713.578613,172.16.5.2,14930,172.16.1.2,5102,7500,24700,2086,64256,65728,6,6,4,1460,115937,1,16778208,370000,58156,55260,65700,0,23168,0,2840877545,63
i,1723568713.614417,172.16.5.2,14930,172.16.1.2,5102,7500,24700,2086,64256,65728,6,6,4,1460,115937,1,16778208,370000,58156,58156,65700,0,24616,0,2840877545,63
o,1723568713.614504,172.16.5.2,14930,172.16.1.2,5102,7500,24700,2086,64256,65728,6,6,4,1460,119062,1,16778208,380000,58156,55260,65700,0,21720,0,2840877545,63
i,1723568713.623833,172.16.5.2,14930,172.16.1.2,5102,7500,24700,2086,64256,65728,6,6,4,1460,119062,1,16778208,380000,58156,58156,65700,0,24616,0,2840877545,63
o,1723568713.623868,172.16.5.2,14930,172.16.1.2,5102,7500,24700,2086,64256,65728,6,6,4,1460,119375,1,16778208,370000,58156,55260,65700,0,21720,0,2840877545,63
i,1723568713.624060,172.16.5.2,14930,172.16.1.2,5102,7500,24700,2086,64256,65728,6,6,4,1460,119375,1,16778208,370000,58156,55260,65700,0,24616,0,2840877545,63
o,1723568713.624091,172.16.5.2,14930,172.16.1.2,5102,7500,24700,2086,62848,65728,6,6,4,1460,117187,1,16778208,370000,58156,52364,65700,0,21720,0,2840877545,63
i,1723568713.643772,172.16.5.2,14930,172.16.1.2,5102,7500,24700,2086,62848,65728,6,6,4,1460,117187,1,16778208,370000,58156,58156,65700,0,24616,0,2840877545,63
o,1723568713.643879,172.16.5.2,14930,172.16.1.2,5102,7500,24700,2086,64256,65728,6,6,4,1460,117812,1,16778208,360000,58156,55260,65700,0,21720,0,2840877545,63
i,1723568713.644084,172.16.5.2,14930,172.16.1.2,5102,7500,24700,2086,64256,65728,6,6,4,1460,117812,1,16778208,360000,58156,55260,65700,0,24616,0,2840877545,63
o,1723568713.644106,172.16.5.2,14930,172.16.1.2,5102,7500,24700,2086,62848,65728,6,6,4,1460,116875,1,16778208,360000,58156,52364,65700,0,21720,0,2840877545,63
i,1723568713.674238,172.16.5.2,14930,172.16.1.2,5102,7500,24700,2086,62848,65728,6,6,4,1460,116875,1,16778208,360000,58156,58156,65700,0,24616,0,2840877545,63
o,1723568713.674274,172.16.5.2,14930,172.16.1.2,5102,7500,26160,2086,62848,65728,6,6,4,1460,116250,1,16778208,350000,58156,55260,65700,0,21720,0,2840877545,63
i,1723568713.674426,172.16.5.2,14930,172.16.1.2,5102,7500,26160,2086,62848,65728,6,6,4,1460,116250,1,16778208,350000,58156,55260,65700,0,26064,0,2840877545,63
o,1723568713.674443,172.16.5.2,14930,172.16.1.2,5102,7500,26160,2086,62848,65728,6,6,4,1460,115625,1,16778208,350000,58156,52364,65700,0,23168,0,2840877545,63
i,1723568713.685102,172.16.5.2,14930,172.16.1.2,5102,7500,26160,2086,62848,65728,6,6,4,1460,115625,1,16778208,350000,58156,58156,65700,0,26064,0,2840877545,63
o,1723568713.685184,172.16.5.2,14930,172.16.1.2,5102,7500,26160,2086,64256,65728,6,6,4,1460,116250,1,16778208,340000,58156,55260,65700,0,23168,0,2840877545,63
o,1723568713.685525,172.16.5.2,14930,172.16.1.2,5102,7500,26160,2086,64256,65728,6,6,4,1460,116250,1,16778208,340000,58156,55260,65700,0,24616,0,2840877545,63
i,1723568713.714719,172.16.5.2,14930,172.16.1.2,5102,7500,26160,2086,64256,65728,6,6,4,1460,116250,1,16778208,340000,58156,58156,65700,0,26064,0,2840877545,63
o,1723568713.714757,172.16.5.2,14930,172.16.1.2,5102,7500,26160,2086,65728,65728,6,6,4,1460,118125,1,16778208,350000,58156,56708,65700,0,24616,0,2840877545,63
i,1723568713.724791,172.16.5.2,14930,172.16.1.2,5102,7500,26160,2086,65728,65728,6,6,4,1460,118125,1,16778208,350000,58156,56708,65700,0,26064,0,2840877545,63
o,1723568713.724892,172.16.5.2,14930,172.16.1.2,5102,7500,26160,2086,64256,65728,6,6,4,1460,117187,1,16778208,350000,58156,53812,65700,0,23168,0,2840877545,63
i,1723568713.746571,172.16.5.2,14930,172.16.1.2,5102,7500,26160,2086,64256,65728,6,6,4,1460,117187,1,16778208,350000,58156,58156,65700,0,26064,0,2840877545,63
o,1723568713.746619,172.16.5.2,14930,172.16.1.2,5102,7500,26160,2086,64256,65728,6,6,4,1460,119062,1,16778208,360000,58156,55260,65700,0,23168,0,2840877545,63
i,1723568713.747666,172.16.5.2,14930,172.16.1.2,5102,7500,26160,2086,64256,65728,6,6,4,1460,119062,1,16778208,360000,58156,58156,65700,0,26064,0,2840877545,63
o,1723568713.747687,172.16.5.2,14930,172.16.1.2,5102,7500,26160,2086,64256,65728,6,6,4,1460,120625,1,16778208,360000,58156,55260,65700,0,23168,0,2840877545,63
i,1723568713.747851,172.16.5.2,14930,172.16.1.2,5102,7500,26160,2086,64256,65728,6,6,4,1460,120625,1,16778208,360000,58156,55260,65700,0,26064,0,2840877545,63
o,1723568713.747872,172.16.5.2,14930,172.16.1.2,5102,7500,26160,2086,62848,65728,6,6,4,1460,119375,1,16778208,360000,58156,52364,65700,0,23168,0,2840877545,63
i,1723568713.748055,172.16.5.2,14930,172.16.1.2,5102,7500,26160,2086,62848,65728,6,6,4,1460,119375,1,16778208,360000,58156,52364,65700,0,26064,0,2840877545,63
o,1723568713.748083,172.16.5.2,14930,172.16.1.2,5102,7500,26160,2086,64256,65728,6,6,4,1460,118437,1,16778208,360000,58156,49468,65700,0,23168,0,2840877545,63
i,1723568713.775840,172.16.5.2,14930,172.16.1.2,5102,7500,26160,2086,64256,65728,6,6,4,1460,118437,1,16778208,360000,58156,58156,65700,0,26064,0,2840877545,63
o,1723568713.775877,172.16.5.2,14930,172.16.1.2,5102,7500,26160,2086,62848,65728,6,6,4,1460,117500,1,16778208,360000,58156,55260,65700,0,23168,0,2840877545,63
i,1723568713.776018,172.16.5.2,14930,172.16.1.2,5102,7500,26160,2086,62848,65728,6,6,4,1460,117500,1,16778208,360000,58156,55260,65700,0,26064,0,2840877545,63
o,1723568713.776035,172.16.5.2,14930,172.16.1.2,5102,7500,27620,2086,59968,65728,6,6,4,1460,116562,1,16778208,350000,58156,52364,65700,0,23168,0,2840877545,63
i,1723568713.796556,172.16.5.2,14930,172.16.1.2,5102,7500,27620,2086,59968,65728,6,6,4,1460,116562,1,16778208,350000,66348,66348,65700,0,27512,0,2840877545,63
o,1723568713.796663,172.16.5.2,14930,172.16.1.2,5102,7500,27620,2086,64256,65728,6,6,4,1460,118437,1,16778208,360000,66348,63452,65700,0,24616,0,2840877545,63
o,1723568713.796826,172.16.5.2,14930,172.16.1.2,5102,7500,27620,2086,64256,65728,6,6,4,1460,118437,1,16778208,360000,66348,63452,65700,0,26064,0,2840877545,63
i,1723568713.834142,172.16.5.2,14930,172.16.1.2,5102,7500,27620,2086,64256,65728,6,6,4,1460,118437,1,16778208,360000,66348,66348,65700,0,27512,0,2840877545,63
o,1723568713.834179,172.16.5.2,14930,172.16.1.2,5102,7500,27620,2086,64256,65728,6,6,4,1460,121250,1,16778208,370000,66348,63452,65700,0,24616,0,2840877545,63
i,1723568713.844382,172.16.5.2,14930,172.16.1.2,5102,7500,27620,2086,64256,65728,6,6,4,1460,121250,1,16778208,370000,66348,66348,65700,0,27512,0,2840877545,63
o,1723568713.844477,172.16.5.2,14930,172.16.1.2,5102,7500,27620,2086,64256,65728,6,6,4,1460,121250,1,16778208,360000,66348,63452,65700,0,24616,0,2840877545,63
i,1723568713.844918,172.16.5.2,14930,172.16.1.2,5102,7500,27620,2086,64256,65728,6,6,4,1460,121250,1,16778208,360000,66348,63452,65700,0,27512,0,2840877545,63
o,1723568713.844936,172.16.5.2,14930,172.16.1.2,5102,7500,27620,2086,64256,65728,6,6,4,1460,117500,1,16778208,380000,66348,60556,65700,0,24616,0,2840877545,63
i,1723568713.854846,172.16.5.2,14930,172.16.1.2,5102,7500,27620,2086,64256,65728,6,6,4,1460,117500,1,16778208,380000,66348,65216,65700,0,27512,0,2840877545,63
o,1723568713.854890,172.16.5.2,14930,172.16.1.2,5102,7500,27620,2086,62848,65728,6,6,4,1460,115312,1,16778208,380000,66348,62320,65700,0,24616,0,2840877545,63
i,1723568713.873888,172.16.5.2,14930,172.16.1.2,5102,7500,27620,2086,62848,65728,6,6,4,1460,115312,1,16778208,380000,66348,66348,65700,0,27512,0,2840877545,63
o,1723568713.873932,172.16.5.2,14930,172.16.1.2,5102,7500,27620,2086,62848,65728,6,6,4,1460,115937,1,16778208,370000,66348,63452,65700,0,24616,0,2840877545,63
i,1723568713.874125,172.16.5.2,14930,172.16.1.2,5102,7500,27620,2086,62848,65728,6,6,4,1460,115937,1,16778208,370000,66348,63452,65700,0,27512,0,2840877545,63
o,1723568713.874154,172.16.5.2,14930,172.16.1.2,5102,7500,27620,2086,62848,65728,6,6,4,1460,116562,1,16778208,360000,66348,60556,65700,0,24616,0,2840877545,63
i,1723568713.874326,172.16.5.2,14930,172.16.1.2,5102,7500,27620,2086,62848,65728,6,6,4,1460,116562,1,16778208,360000,66348,60556,65700,0,27512,0,2840877545,63
o,1723568713.874348,172.16.5.2,14930,172.16.1.2,5102,7500,27620,2086,62848,65728,6,6,4,1460,113437,1,16778208,370000,66348,57660,65700,0,24616,0,2840877545,63
i,1723568713.874600,172.16.5.2,14930,172.16.1.2,5102,7500,27620,2086,62848,65728,6,6,4,1460,113437,1,16778208,370000,66348,57660,65700,0,27512,0,2840877545,63
o,1723568713.874624,172.16.5.2,14930,172.16.1.2,5102,7500,29080,2086,59968,65728,6,6,4,1460,110625,1,16778208,380000,66348,54764,65700,0,24616,0,2840877545,63
i,1723568713.902555,172.16.5.2,14930,172.16.1.2,5102,7500,29080,2086,59968,65728,6,6,4,1460,110625,1,16778208,380000,66348,66348,65700,0,28960,0,2840877545,63
o,1723568713.902616,172.16.5.2,14930,172.16.1.2,5102,7500,29080,2086,64256,65728,6,6,4,1460,111875,1,16778208,370000,66348,63452,65700,0,26064,0,2840877545,63
o,1723568713.902817,172.16.5.2,14930,172.16.1.2,5102,7500,29080,2086,64256,65728,6,6,4,1460,111875,1,16778208,370000,66348,63452,65700,0,27512,0,2840877545,63
i,1723568713.923190,172.16.5.2,14930,172.16.1.2,5102,7500,29080,2086,64256,65728,6,6,4,1460,111875,1,16778208,370000,66348,66348,65700,0,28960,0,2840877545,63
o,1723568713.923316,172.16.5.2,14930,172.16.1.2,5102,7500,29080,2086,64256,65728,6,6,4,1460,113125,1,16778208,370000,66348,63452,65700,0,26064,0,2840877545,63
i,1723568713.962669,172.16.5.2,14930,172.16.1.2,5102,7500,29080,2086,64256,65728,6,6,4,1460,113125,1,16778208,370000,66348,66348,65700,0,28960,0,2840877545,63
o,1723568713.962706,172.16.5.2,14930,172.16.1.2,5102,7500,29080,2086,64256,65728,6,6,4,1460,115312,1,16778208,370000,66348,63452,65700,0,26064,0,2840877545,63
i,1723568713.963028,172.16.5.2,14930,172.16.1.2,5102,7500,29080,2086,64256,65728,6,6,4,1460,115312,1,16778208,370000,66348,63452,65700,0,28960,0,2840877545,63
o,1723568713.963047,172.16.5.2,14930,172.16.1.2,5102,7500,29080,2086,64256,65728,6,6,4,1460,115937,1,16778208,360000,66348,60556,65700,0,26064,0,2840877545,63
i,1723568713.972490,172.16.5.2,14930,172.16.1.2,5102,7500,29080,2086,64256,65728,6,6,4,1460,115937,1,16778208,360000,66348,66348,65700,0,28960,0,2840877545,63
o,1723568713.972565,172.16.5.2,14930,172.16.1.2,5102,7500,29080,2086,64256,65728,6,6,4,1460,117812,1,16778208,370000,66348,63452,65700,0,26064,0,2840877545,63
i,1723568713.989428,172.16.5.2,14930,172.16.1.2,5102,7500,29080,2086,64256,65728,6,6,4,1460,117812,1,16778208,370000,66348,66348,65700,0,28960,0,2840877545,63
o,1723568713.989463,172.16.5.2,14930,172.16.1.2,5102,7500,29080,2086,64256,65728,6,6,4,1460,120625,1,16778208,380000,66348,63452,65700,0,26064,0,2840877545,63
i,1723568713.989594,172.16.5.2,14930,172.16.1.2,5102,7500,29080,2086,64256,65728,6,6,4,1460,120625,1,16778208,380000,66348,63452,65700,0,28960,0,2840877545,63
o,1723568713.989610,172.16.5.2,14930,172.16.1.2,5102,7500,29080,2086,64256,65728,6,6,4,1460,120625,1,16778208,370000,66348,60556,65700,0,26064,0,2840877545,63
i,1723568713.989809,172.16.5.2,14930,172.16.1.2,5102,7500,29080,2086,64256,65728,6,6,4,1460,120625,1,16778208,370000,66348,60556,65700,0,28960,0,2840877545,63
o,1723568713.989833,172.16.5.2,14930,172.16.1.2,5102,7500,29080,2086,61376,65728,6,6,4,1460,120625,1,16778208,350000,66348,57660,65700,0,26064,0,2840877545,63
i,1723568713.999758,172.16.5.2,14930,172.16.1.2,5102,7500,29080,2086,61376,65728,6,6,4,1460,120625,1,16778208,350000,66348,66348,65700,0,28960,0,2840877545,63
o,1723568713.999803,172.16.5.2,14930,172.16.1.2,5102,7500,29080,2086,58496,65728,6,6,4,1460,121875,1,16778208,360000,66348,63452,65700,0,26064,0,2840877545,63
i,1723568714.000041,172.16.5.2,14930,172.16.1.2,5102,7500,29080,2086,58496,65728,6,6,4,1460,121875,1,16778208,360000,66348,63452,65700,0,28960,0,2840877545,63
o,1723568714.000089,172.16.5.2,14930,172.16.1.2,5102,7500,30540,2086,62848,65728,6,6,4,1460,123125,1,16778208,360000,66348,60556,65700,0,26064,0,2840877545,63
i,1723568714.000322,172.16.5.2,14930,172.16.1.2,5102,7500,30540,2086,62848,65728,6,6,4,1460,123125,1,16778208,360000,74540,60556,65700,0,30408,0,2840877545,63
o,1723568714.000346,172.16.5.2,14930,172.16.1.2,5102,7500,30540,2086,59968,65728,6,6,4,1460,120312,1,16778208,370000,74540,57660,65700,0,27512,0,2840877545,63
o,1723568714.000523,172.16.5.2,14930,172.16.1.2,5102,7500,30540,2086,59968,65728,6,6,4,1460,120312,1,16778208,370000,74540,57660,65700,0,28960,0,2840877545,63
i,1723568714.027237,172.16.5.2,14930,172.16.1.2,5102,7500,30540,2086,59968,65728,6,6,4,1460,120312,1,16778208,370000,74540,74540,65700,0,30408,0,2840877545,63
o,1723568714.027274,172.16.5.2,14930,172.16.1.2,5102,7500,30540,2086,62848,65728,6,6,4,1460,119062,1,16778208,360000,74540,71644,65700,0,27512,0,2840877545,63
i,1723568714.076704,172.16.5.2,14930,172.16.1.2,5102,7500,30540,2086,62848,65728,6,6,4,1460,119062,1,16778208,360000,74540,74540,65700,0,30408,0,2840877545,63
o,1723568714.076745,172.16.5.2,14930,172.16.1.2,5102,7500,30540,2086,62848,65728,6,6,4,1460,119375,1,16778208,350000,74540,71644,65700,0,27512,0,2840877545,63
i,1723568714.093655,172.16.5.2,14930,172.16.1.2,5102,7500,30540,2086,62848,65728,6,6,4,1460,119375,1,16778208,350000,74540,74540,65700,0,30408,0,2840877545,63
o,1723568714.093780,172.16.5.2,14930,172.16.1.2,5102,7500,30540,2086,62848,65728,6,6,4,1460,120937,1,16778208,360000,74540,71644,65700,0,27512,0,2840877545,63
i,1723568714.093979,172.16.5.2,14930,172.16.1.2,5102,7500,30540,2086,62848,65728,6,6,4,1460,120937,1,16778208,360000,74540,71644,65700,0,30408,0,2840877545,63
o,1723568714.094005,172.16.5.2,14930,172.16.1.2,5102,7500,30540,2086,59968,65728,6,6,4,1460,119687,1,16778208,360000,74540,68748,65700,0,27512,0,2840877545,63
i,1723568714.115954,172.16.5.2,14930,172.16.1.2,5102,7500,30540,2086,59968,65728,6,6,4,1460,119687,1,16778208,360000,74540,74540,65700,0,30408,0,2840877545,63
o,1723568714.115996,172.16.5.2,14930,172.16.1.2,5102,7500,30540,2086,64256,65728,6,6,4,1460,121250,1,16778208,360000,74540,71644,65700,0,27512,0,2840877545,63
i,1723568714.116154,172.16.5.2,14930,172.16.1.2,5102,7500,30540,2086,64256,65728,6,6,4,1460,121250,1,16778208,360000,74540,71644,65700,0,30408,0,2840877545,63
o,1723568714.116172,172.16.5.2,14930,172.16.1.2,5102,7500,30540,2086,62848,65728,6,6,4,1460,122500,1,16778208,360000,74540,68748,65700,0,27512,0,2840877545,63
i,1723568714.118543,172.16.5.2,14930,172.16.1.2,5102,7500,30540,2086,62848,65728,6,6,4,1460,122500,1,16778208,360000,74540,74540,65700,0,30408,0,2840877545,63
o,1723568714.118582,172.16.5.2,14930,172.16.1.2,5102,7500,30540,2086,64256,65728,6,6,4,1460,123437,1,16778208,360000,74540,71644,65700,0,27512,0,2840877545,63
i,1723568714.127223,172.16.5.2,14930,172.16.1.2,5102,7500,30540,2086,64256,65728,6,6,4,1460,123437,1,16778208,360000,74540,74540,65700,0,30408,0,2840877545,63
o,1723568714.127266,172.16.5.2,14930,172.16.1.2,5102,7500,30540,2086,64256,65728,6,6,4,1460,124375,1,16778208,360000,74540,71644,65700,0,27512,0,2840877545,63
i,1723568714.127547,172.16.5.2,14930,172.16.1.2,5102,7500,30540,2086,64256,65728,6,6,4,1460,124375,1,16778208,360000,74540,71644,65700,0,30408,0,2840877545,63
o,1723568714.127566,172.16.5.2,14930,172.16.1.2,5102,7500,30540,2086,64256,65728,6,6,4,1460,125312,1,16778208,360000,74540,68748,65700,0,27512,0,2840877545,63
i,1723568714.146989,172.16.5.2,14930,172.16.1.2,5102,7500,30540,2086,64256,65728,6,6,4,1460,125312,1,16778208,360000,74540,74540,65700,0,30408,0,2840877545,63
o,1723568714.147088,172.16.5.2,14930,172.16.1.2,5102,7500,32000,2086,64256,65728,6,6,4,1460,128437,1,16778208,380000,74540,71644,65700,0,27512,0,2840877545,63
o,1723568714.147247,172.16.5.2,14930,172.16.1.2,5102,7500,32000,2086,64256,65728,6,6,4,1460,128437,1,16778208,380000,74540,71644,65700,0,28960,0,2840877545,63
i,1723568714.156759,172.16.5.2,14930,172.16.1.2,5102,7500,32000,2086,64256,65728,6,6,4,1460,128437,1,16778208,380000,74540,74540,65700,0,31856,0,2840877545,63
o,1723568714.156868,172.16.5.2,14930,172.16.1.2,5102,7500,32000,2086,64256,65728,6,6,4,1460,132500,1,16778208,400000,74540,71644,65700,0,28960,0,2840877545,63
i,1723568714.186801,172.16.5.2,14930,172.16.1.2,5102,7500,32000,2086,64256,65728,6,6,4,1460,132500,1,16778208,400000,74540,74540,65700,0,31856,0,2840877545,63
o,1723568714.186860,172.16.5.2,14930,172.16.1.2,5102,7500,32000,2086,97152,65728,6,6,4,1460,135937,1,16778208,420000,74540,71644,65700,0,28960,0,2840877545,63
i,1723568714.205058,172.16.5.2,14930,172.16.1.2,5102,7500,32000,2086,97152,65728,6,6,4,1460,135937,1,16778208,420000,74540,74540,65700,0,31856,0,2840877545,63
o,1723568714.205177,172.16.5.2,14930,172.16.1.2,5102,7500,32000,2086,97152,65728,6,6,4,1460,132812,1,16778208,420000,74540,71644,65700,0,28960,0,2840877545,63
i,1723568714.216276,172.16.5.2,14930,172.16.1.2,5102,7500,32000,2086,97152,65728,6,6,4,1460,132812,1,16778208,420000,74540,74540,65700,0,31856,0,2840877545,63
o,1723568714.216310,172.16.5.2,14930,172.16.1.2,5102,7500,32000,2086,97152,65728,6,6,4,1460,132500,1,16778208,400000,74540,71644,65700,0,28960,0,2840877545,63
i,1723568714.236163,172.16.5.2,14930,172.16.1.2,5102,7500,32000,2086,97152,65728,6,6,4,1460,132500,1,16778208,400000,74540,74540,65700,0,31856,0,2840877545,63
o,1723568714.236198,172.16.5.2,14930,172.16.1.2,5102,7500,32000,2086,97152,65728,6,6,4,1460,134687,1,16778208,400000,74540,71644,65700,0,28960,0,2840877545,63
i,1723568714.236338,172.16.5.2,14930,172.16.1.2,5102,7500,32000,2086,97152,65728,6,6,4,1460,134687,1,16778208,400000,74540,71644,65700,0,31856,0,2840877545,63
o,1723568714.236356,172.16.5.2,14930,172.16.1.2,5102,7500,32000,2086,94272,65728,6,6,4,1460,133125,1,16778208,390000,74540,68748,65700,0,28960,0,2840877545,63
i,1723568714.236511,172.16.5.2,14930,172.16.1.2,5102,7500,32000,2086,94272,65728,6,6,4,1460,133125,1,16778208,390000,74540,68748,65700,0,31856,0,2840877545,63
o,1723568714.236527,172.16.5.2,14930,172.16.1.2,5102,7500,32000,2086,95680,65728,6,6,4,1460,131562,1,16778208,390000,74540,65852,65700,0,28960,0,2840877545,63
i,1723568714.256555,172.16.5.2,14930,172.16.1.2,5102,7500,32000,2086,95680,65728,6,6,4,1460,131562,1,16778208,390000,74540,74540,65700,0,31856,0,2840877545,63
o,1723568714.256681,172.16.5.2,14930,172.16.1.2,5102,7500,32000,2086,97152,65728,6,6,4,1460,132812,1,16778208,390000,74540,71644,65700,0,28960,0,2840877545,63
i,1723568714.256887,172.16.5.2,14930,172.16.1.2,5102,7500,32000,2086,97152,65728,6,6,4,1460,132812,1,16778208,390000,74540,71644,65700,0,31856,0,2840877545,63
o,1723568714.256910,172.16.5.2,14930,172.16.1.2,5102,7500,32000,2086,97152,65728,6,6,4,1460,131250,1,16778208,380000,74540,68748,65700,0,28960,0,2840877545,63
i,1723568714.259793,172.16.5.2,14930,172.16.1.2,5102,7500,32000,2086,97152,65728,6,6,4,1460,131250,1,16778208,380000,74540,74540,65700,0,31856,0,2840877545,63
o,1723568714.259822,172.16.5.2,14930,172.16.1.2,5102,7500,32000,2086,97152,65728,6,6,4,1460,130000,1,16778208,380000,74540,71644,65700,0,28960,0,2840877545,63
o,1723568714.259940,172.16.5.2,14930,172.16.1.2,5102,7500,32000,2086,97152,65728,6,6,4,1460,130000,1,16778208,380000,74540,71644,65700,0,30408,0,2840877545,63
i,1723568714.263996,172.16.5.2,14930,172.16.1.2,5102,7500,32000,2086,97152,65728,6,6,4,1460,130000,1,16778208,380000,74540,74540,65700,0,31856,0,2840877545,63
o,1723568714.264021,172.16.5.2,14930,172.16.1.2,5102,7500,33460,2086,95680,65728,6,6,4,1460,127500,1,16778208,390000,74540,71644,65700,0,28960,0,2840877545,63
i,1723568714.282301,172.16.5.2,14930,172.16.1.2,5102,7500,33460,2086,95680,65728,6,6,4,1460,127500,1,16778208,390000,74540,74540,65700,0,33304,0,2840877545,63
o,1723568714.282344,172.16.5.2,14930,172.16.1.2,5102,7500,33460,2086,95680,65728,6,6,4,1460,126562,1,16778208,380000,74540,71644,65700,0,30408,0,2840877545,63
i,1723568714.292928,172.16.5.2,14930,172.16.1.2,5102,7500,33460,2086,95680,65728,6,6,4,1460,126562,1,16778208,380000,74540,74540,65700,0,33304,0,2840877545,63
o,1723568714.292975,172.16.5.2,14930,172.16.1.2,5102,7500,33460,2086,97152,65728,6,6,4,1460,122187,1,16778208,390000,74540,71644,65700,0,30408,0,2840877545,63
i,1723568714.309426,172.16.5.2,14930,172.16.1.2,5102,7500,33460,2086,97152,65728,6,6,4,1460,122187,1,16778208,390000,74540,74540,65700,0,33304,0,2840877545,63
o,1723568714.309463,172.16.5.2,14930,172.16.1.2,5102,7500,33460,2086,95680,65728,6,6,4,1460,120937,1,16778208,390000,74540,71644,65700,0,30408,0,2840877545,63
i,1723568714.333674,172.16.5.2,14930,172.16.1.2,5102,7500,33460,2086,95680,65728,6,6,4,1460,120937,1,16778208,390000,74540,74540,65700,0,33304,0,2840877545,63
o,1723568714.333721,172.16.5.2,14930,172.16.1.2,5102,7500,33460,2086,95680,65728,6,6,4,1460,119687,1,16778208,380000,74540,71644,65700,0,30408,0,2840877545,63
i,1723568714.354109,172.16.5.2,14930,172.16.1.2,5102,7500,33460,2086,95680,65728,6,6,4,1460,119687,1,16778208,380000,74540,74540,65700,0,33304,0,2840877545,63
o,1723568714.354166,172.16.5.2,14930,172.16.1.2,5102,7500,33460,2086,97152,65728,6,6,4,1460,118750,1,16778208,370000,74540,71644,65700,0,30408,0,2840877545,63
i,1723568714.355736,172.16.5.2,14930,172.16.1.2,5102,7500,33460,2086,97152,65728,6,6,4,1460,118750,1,16778208,370000,74540,74540,65700,0,33304,0,2840877545,63
o,1723568714.355765,172.16.5.2,14930,172.16.1.2,5102,7500,33460,2086,95680,65728,6,6,4,1460,119062,1,16778208,360000,74540,71644,65700,0,30408,0,2840877545,63
i,1723568714.365237,172.16.5.2,14930,172.16.1.2,5102,7500,33460,2086,95680,65728,6,6,4,1460,119062,1,16778208,360000,74540,74540,65700,0,33304,0,2840877545,63
o,1723568714.365294,172.16.5.2,14930,172.16.1.2,5102,7500,33460,2086,97152,65728,6,6,4,1460,119375,1,16778208,350000,74540,71644,65700,0,30408,0,2840877545,63
i,1723568714.370290,172.16.5.2,14930,172.16.1.2,5102,7500,33460,2086,97152,65728,6,6,4,1460,119375,1,16778208,350000,74540,74540,65700,0,33304,0,2840877545,63
o,1723568714.370374,172.16.5.2,14930,172.16.1.2,5102,7500,33460,2086,97152,65728,6,6,4,1460,117187,1,16778208,360000,74540,71644,65700,0,30408,0,2840877545,63
i,1723568714.370620,172.16.5.2,14930,172.16.1.2,5102,7500,33460,2086,97152,65728,6,6,4,1460,117187,1,16778208,360000,74540,71644,65700,0,33304,0,2840877545,63
o,1723568714.370653,172.16.5.2,14930,172.16.1.2,5102,7500,33460,2086,94272,65728,6,6,4,1460,115312,1,16778208,360000,74540,68748,65700,0,30408,0,2840877545,63
i,1723568714.390144,172.16.5.2,14930,172.16.1.2,5102,7500,33460,2086,94272,65728,6,6,4,1460,115312,1,16778208,360000,74540,74540,65700,0,33304,0,2840877545,63
o,1723568714.390196,172.16.5.2,14930,172.16.1.2,5102,7500,33460,2086,97152,65728,6,6,4,1460,117187,1,16778208,370000,74540,71644,65700,0,30408,0,2840877545,63
o,1723568714.390391,172.16.5.2,14930,172.16.1.2,5102,7500,33460,2086,97152,65728,6,6,4,1460,117187,1,16778208,370000,74540,71644,65700,0,31856,0,2840877545,63
i,1723568714.390636,172.16.5.2,14930,172.16.1.2,5102,7500,33460,2086,97152,65728,6,6,4,1460,117187,1,16778208,370000,74540,71644,65700,0,33304,0,2840877545,63
o,1723568714.390664,172.16.5.2,14930,172.16.1.2,5102,7500,34920,2086,94272,65728,6,6,4,1460,119062,1,16778208,370000,74540,68748,65700,0,30408,0,2840877545,63
i,1723568714.400291,172.16.5.2,14930,172.16.1.2,5102,7500,34920,2086,94272,65728,6,6,4,1460,119062,1,16778208,370000,82732,82732,65700,0,34752,0,2840877545,63
o,1723568714.400353,172.16.5.2,14930,172.16.1.2,5102,7500,34920,2086,97152,65728,6,6,4,1460,121875,1,16778208,380000,82732,79836,65700,0,31856,0,2840877545,63
i,1723568714.411798,172.16.5.2,14930,172.16.1.2,5102,7500,34920,2086,97152,65728,6,6,4,1460,121875,1,16778208,380000,82732,82732,65700,0,34752,0,2840877545,63
o,1723568714.411847,172.16.5.2,14930,172.16.1.2,5102,7500,34920,2086,94272,65728,6,6,4,1460,123125,1,16778208,380000,82732,79836,65700,0,31856,0,2840877545,63
i,1723568714.422004,172.16.5.2,14930,172.16.1.2,5102,7500,34920,2086,94272,65728,6,6,4,1460,123125,1,16778208,380000,82732,82732,65700,0,34752,0,2840877545,63
o,1723568714.422083,172.16.5.2,14930,172.16.1.2,5102,7500,34920,2086,97152,65728,6,6,4,1460,124062,1,16778208,370000,82732,79836,65700,0,31856,0,2840877545,63
i,1723568714.443301,172.16.5.2,14930,172.16.1.2,5102,7500,34920,2086,97152,65728,6,6,4,1460,124062,1,16778208,370000,82732,82732,65700,0,34752,0,2840877545,63
o,1723568714.443359,172.16.5.2,14930,172.16.1.2,5102,7500,34920,2086,97152,65728,6,6,4,1460,125000,1,16778208,370000,82732,79836,65700,0,31856,0,2840877545,63
i,1723568714.461238,172.16.5.2,14930,172.16.1.2,5102,7500,34920,2086,97152,65728,6,6,4,1460,125000,1,16778208,370000,82732,82732,65700,0,34752,0,2840877545,63
o,1723568714.461411,172.16.5.2,14930,172.16.1.2,5102,7500,34920,2086,97152,65728,6,6,4,1460,125625,1,16778208,360000,82732,79836,65700,0,31856,0,2840877545,63
i,1723568714.461697,172.16.5.2,14930,172.16.1.2,5102,7500,34920,2086,97152,65728,6,6,4,1460,125625,1,16778208,360000,82732,79836,65700,0,34752,0,2840877545,63
o,1723568714.461727,172.16.5.2,14930,172.16.1.2,5102,7500,34920,2086,94272,65728,6,6,4,1460,123750,1,16778208,370000,82732,76940,65700,0,31856,0,2840877545,63
i,1723568714.474842,172.16.5.2,14930,172.16.1.2,5102,7500,34920,2086,94272,65728,6,6,4,1460,123750,1,16778208,370000,82732,82732,65700,0,34752,0,2840877545,63
o,1723568714.474955,172.16.5.2,14930,172.16.1.2,5102,7500,34920,2086,97152,65728,6,6,4,1460,122187,1,16778208,370000,82732,79836,65700,0,31856,0,2840877545,63
i,1723568714.479081,172.16.5.2,14930,172.16.1.2,5102,7500,34920,2086,97152,65728,6,6,4,1460,122187,1,16778208,370000,82732,82732,65700,0,34752,0,2840877545,63
o,1723568714.479147,172.16.5.2,14930,172.16.1.2,5102,7500,34920,2086,97152,65728,6,6,4,1460,122187,1,16778208,350000,82732,79836,65700,0,31856,0,2840877545,63
i,1723568714.479421,172.16.5.2,14930,172.16.1.2,5102,7500,34920,2086,97152,65728,6,6,4,1460,122187,1,16778208,350000,82732,79836,65700,0,34752,0,2840877545,63
o,1723568714.479453,172.16.5.2,14930,172.16.1.2,5102,7500,34920,2086,94272,65728,6,6,4,1460,120937,1,16778208,360000,82732,76940,65700,0,31856,0,2840877545,63
i,1723568714.509512,172.16.5.2,14930,172.16.1.2,5102,7500,34920,2086,94272,65728,6,6,4,1460,120937,1,16778208,360000,82732,82732,65700,0,34752,0,2840877545,63
o,1723568714.509564,172.16.5.2,14930,172.16.1.2,5102,7500,34920,2086,97152,65728,6,6,4,1460,123437,1,16778208,370000,82732,79836,65700,0,31856,0,2840877545,63
o,1723568714.509743,172.16.5.2,14930,172.16.1.2,5102,7500,34920,2086,97152,65728,6,6,4,1460,123437,1,16778208,370000,82732,79836,65700,0,33304,0,2840877545,63
i,1723568714.509947,172.16.5.2,14930,172.16.1.2,5102,7500,34920,2086,97152,65728,6,6,4,1460,123437,1,16778208,370000,82732,79836,65700,0,34752,0,2840877545,63
o,1723568714.509982,172.16.5.2,14930,172.16.1.2,5102,7500,34920,2086,95680,65728,6,6,4,1460,123125,1,16778208,360000,82732,76940,65700,0,31856,0,2840877545,63
i,1723568714.518907,172.16.5.2,14930,172.16.1.2,5102,7500,34920,2086,95680,65728,6,6,4,1460,123125,1,16778208,360000,82732,82732,65700,0,34752,0,2840877545,63
o,1723568714.518960,172.16.5.2,14930,172.16.1.2,5102,7500,36380,2086,97152,65728,6,6,4,1460,124062,1,16778208,360000,82732,79836,65700,0,31856,0,2840877545,63
i,1723568714.526586,172.16.5.2,14930,172.16.1.2,5102,7500,36380,2086,97152,65728,6,6,4,1460,124062,1,16778208,360000,82732,82732,65700,0,36200,0,2840877545,63
o,1723568714.526616,172.16.5.2,14930,172.16.1.2,5102,7500,36380,2086,97152,65728,6,6,4,1460,125000,1,16778208,360000,82732,79836,65700,0,33304,0,2840877545,63
i,1723568714.526757,172.16.5.2,14930,172.16.1.2,5102,7500,36380,2086,97152,65728,6,6,4,1460,125000,1,16778208,360000,82732,79836,65700,0,36200,0,2840877545,63
o,1723568714.526775,172.16.5.2,14930,172.16.1.2,5102,7500,36380,2086,95680,65728,6,6,4,1460,124375,1,16778208,350000,82732,76940,65700,0,33304,0,2840877545,63
i,1723568714.536185,172.16.5.2,14930,172.16.1.2,5102,7500,36380,2086,95680,65728,6,6,4,1460,124375,1,16778208,350000,82732,82732,65700,0,36200,0,2840877545,63
