enable_time_secs=1723569056	enable_time_usecs=328653	siftrver=1.3.0	sysname=FreeBSD	sysver=1401000	ipmode=4
o,1723569056.329006,10.0.2.15,22,10.0.2.2,50590,1073725440,17746,1026,65535,65700,0,0,4,1460,312,0,16777220,240000,33580,172,65700,0,0,0,1323542737,63
o,1723569056.329795,10.0.2.15,22,10.0.2.2,50590,1073725440,17746,1026,65535,65700,0,0,4,1460,312,0,16777220,240000,33580,244,65700,0,172,0,1323542737,63
i,1723569056.329905,10.0.2.15,22,10.0.2.2,50590,1073725440,17746,1026,65535,65700,0,0,4,1460,312,0,16777220,240000,33580,244,65700,0,244,0,1323542737,63
i,1723569056.330465,10.0.2.15,22,10.0.2.2,50590,1073725440,17918,1026,65535,65700,0,0,4,1460,312,0,4,240000,33580,72,65700,0,72,0,1323542737,63
i,1723569056.330482,10.0.2.15,22,10.0.2.2,50590,1073725440,17990,1026,65535,65700,0,0,4,1460,312,0,4,240000,33580,0,65700,0,0,0,1323542737,63
i,1723569056.330498,10.0.2.15,22,10.0.2.2,50590,1073725440,17990,1026,65535,65700,0,0,4,1460,312,0,4,240000,33580,0,65700,96,0,0,1323542737,63
o,1723569056.330515,10.0.2.15,22,10.0.2.2,50590,1073725440,17990,1026,65535,65604,0,0,5,1460,312,0,5,240000,33580,0,65700,96,0,0,1323542737,63
o,1723569056.331081,10.0.2.15,22,10.0.2.2,50590,1073725440,17990,1026,65535,65604,0,0,8,1460,312,0,4,240000,33580,0,65700,0,0,0,1323542737,63
i,1723569056.331654,10.0.2.15,22,10.0.2.2,50590,1073725440,17990,1026,65535,65604,0,0,8,1460,312,0,67108884,240000,33580,0,65700,0,1,0,1323542737,63
i,1723569059.433019,10.0.2.15,22,10.0.2.2,50540,1073725440,14600,0,65535,65700,0,0,4,1460,312,0,16777216,270000,33580,0,65700,0,0,0,1188838894,63
o,1723569059.444112,10.0.2.15,22,10.0.2.2,50540,1073725440,14600,1026,65535,65700,0,0,4,1460,312,0,16777216,270000,33580,38,65700,42,0,0,1188838894,63
i,1723569059.445032,10.0.2.15,22,10.0.2.2,50540,1073725440,14600,1026,65535,65700,0,0,4,1460,312,0,16777216,270000,33580,38,65700,0,38,0,1188838894,63
i,1723569059.445730,10.0.2.15,22,10.0.2.2,50540,1073725440,14638,1026,65535,65700,0,0,4,1460,312,0,0,240000,33580,0,65700,0,0,0,1188838894,63
i,1723569059.445746,10.0.2.15,22,10.0.2.2,50540,1073725440,14638,1026,65535,65700,0,0,4,1460,312,0,0,240000,33580,0,65700,1460,0,0,1188838894,63
o,1723569059.445764,10.0.2.15,22,10.0.2.2,50540,1073725440,14638,1026,65535,65700,0,0,4,1460,312,0,1,240000,33580,0,65700,1536,0,0,1188838894,63
o,1723569059.446658,10.0.2.15,22,10.0.2.2,50540,1073725440,14638,1026,65535,65700,0,0,4,1460,312,0,16777216,240000,33580,1120,65700,1536,0,0,1188838894,63
i,1723569059.447146,10.0.2.15,22,10.0.2.2,50540,1073725440,14638,1026,65535,65700,0,0,4,1460,312,0,16777216,240000,33580,1120,65700,0,1120,0,1188838894,63
i,1723569059.448637,10.0.2.15,22,10.0.2.2,50540,1073725440,15758,1026,65535,65700,0,0,4,1460,312,0,0,240000,33580,0,65700,0,0,0,1188838894,63
o,1723569059.451229,10.0.2.15,22,10.0.2.2,50540,1073725440,15758,1026,65535,65700,0,0,4,1460,312,0,16777216,240000,33580,492,65700,0,0,0,1188838894,63
i,1723569059.451608,10.0.2.15,22,10.0.2.2,50540,1073725440,15758,1026,65535,65700,0,0,4,1460,312,0,16777216,240000,33580,492,65700,0,492,0,1188838894,63
i,1723569059.456117,10.0.2.15,22,10.0.2.2,50540,1073725440,16250,1026,65535,65700,0,0,4,1460,312,0,0,240000,33580,0,65700,0,0,0,1188838894,63
i,1723569059.456156,10.0.2.15,22,10.0.2.2,50540,1073725440,16250,1026,65535,65700,0,0,4,1460,312,0,0,240000,33580,0,65700,16,0,0,1188838894,63
o,1723569059.456172,10.0.2.15,22,10.0.2.2,50540,1073725440,16250,1026,65535,65700,0,0,4,1460,312,0,1,240000,33580,0,65700,60,0,0,1188838894,63
o,1723569059.456378,10.0.2.15,22,10.0.2.2,50540,1073725440,16250,1026,65535,65700,0,0,4,1460,312,0,16777216,240000,33580,44,65700,0,0,0,1188838894,63
i,1723569059.456795,10.0.2.15,22,10.0.2.2,50540,1073725440,16250,1026,65535,65700,0,0,4,1460,312,0,16777216,240000,33580,44,65700,0,44,0,1188838894,63
i,1723569059.456810,10.0.2.15,22,10.0.2.2,50540,1073725440,16294,1026,65535,65700,0,0,4,1460,312,0,0,240000,33580,0,65700,0,0,0,1188838894,63
o,1723569059.457723,10.0.2.15,22,10.0.2.2,50540,1073725440,16294,1026,65535,65700,0,0,4,1460,312,0,16777216,240000,33580,68,65700,0,0,0,1188838894,63
i,1723569059.458183,10.0.2.15,22,10.0.2.2,50540,1073725440,16294,1026,65535,65700,0,0,4,1460,312,0,16777216,240000,33580,68,65700,0,68,0,1188838894,63
i,1723569059.458200,10.0.2.15,22,10.0.2.2,50540,1073725440,16362,1026,65535,65700,0,0,4,1460,312,0,0,240000,33580,0,65700,0,0,0,1188838894,63
o,1723569059.459193,10.0.2.15,22,10.0.2.2,50540,1073725440,16362,1026,65535,65700,0,0,4,1460,312,0,16777216,240000,33580,332,65700,0,0,0,1188838894,63
i,1723569059.460043,10.0.2.15,22,10.0.2.2,50540,1073725440,16362,1026,65535,65700,0,0,4,1460,312,0,16777216,240000,33580,332,65700,0,332,0,1188838894,63
i,1723569059.461295,10.0.2.15,22,10.0.2.2,50540,1073725440,16694,1026,65535,65700,0,0,4,1460,312,0,0,240000,33580,0,65700,0,0,0,1188838894,63
o,1723569059.479250,10.0.2.15,22,10.0.2.2,50540,1073725440,16694,1026,65535,65700,0,0,4,1460,312,0,16777216,240000,33580,28,65700,0,0,0,1188838894,63
i,1723569059.479796,10.0.2.15,22,10.0.2.2,50540,1073725440,16694,1026,65535,65700,0,0,4,1460,312,0,16777216,240000,33580,28,65700,0,28,0,1188838894,63
i,1723569059.480328,10.0.2.15,22,10.0.2.2,50540,1073725440,16722,1026,65535,65700,0,0,4,1460,312,0,0,240000,33580,0,65700,0,0,0,1188838894,63
o,1723569059.481570,10.0.2.15,22,10.0.2.2,50540,1073725440,16722,1026,65535,65700,0,0,4,1460,312,0,16777216,240000,33580,768,65700,112,0,0,1188838894,63
i,1723569059.481889,10.0.2.15,22,10.0.2.2,50540,1073725440,16722,1026,65535,65700,0,0,4,1460,312,0,16777216,240000,33580,908,65700,112,768,0,1188838894,63
o,1723569059.481907,10.0.2.15,22,10.0.2.2,50540,1073725440,17490,1026,65535,65700,0,0,4,1460,312,0,16777216,240000,33580,140,65700,112,0,0,1188838894,63
i,1723569059.482066,10.0.2.15,22,10.0.2.2,50540,1073725440,17490,1026,65535,65700,0,0,4,1460,312,0,16777216,240000,33580,140,65700,112,140,0,1188838894,63
o,1723569059.482701,10.0.2.15,22,10.0.2.2,50540,1073725440,17630,1026,65535,65700,0,0,4,1460,312,0,16777216,240000,33580,44,65700,0,0,0,1188838894,63
i,1723569059.483119,10.0.2.15,22,10.0.2.2,50540,1073725440,17630,1026,65535,65700,0,0,4,1460,312,0,16777216,240000,33580,44,65700,0,44,0,1188838894,63
i,1723569059.483163,10.0.2.15,22,10.0.2.2,50540,1073725440,17674,1026,65535,65700,0,0,4,1460,312,0,0,240000,33580,0,65700,0,0,0,1188838894,63
o,1723569059.483931,10.0.2.15,22,10.0.2.2,50540,1073725440,17674,1026,65535,65700,0,0,4,1460,312,0,16777220,240000,33580,72,65700,0,0,0,1188838894,63
i,1723569059.484506,10.0.2.15,22,10.0.2.2,50540,1073725440,17674,1026,65535,65700,0,0,4,1460,312,0,16777220,240000,33580,72,65700,0,72,0,1188838894,63
o,1723569059.487046,10.0.2.15,22,10.0.2.2,50540,1073725440,17746,1026,65535,65700,0,0,4,1460,312,0,16777220,240000,33580,104,65700,0,0,0,1188838894,63
i,1723569059.487488,10.0.2.15,22,10.0.2.2,50540,1073725440,17746,1026,65535,65700,0,0,4,1460,312,0,16777220,240000,33580,104,65700,0,104,0,1188838894,63
o,1723569059.495942,10.0.2.15,22,10.0.2.2,50540,1073725440,17850,1026,65535,65700,0,0,4,1460,312,0,16777220,240000,33580,72,65700,0,0,0,1188838894,63
i,1723569059.496896,10.0.2.15,22,10.0.2.2,50540,1073725440,17850,1026,65535,65700,0,0,4,1460,312,0,16777220,240000,33580,72,65700,0,72,0,1188838894,63
i,1723569059.496958,10.0.2.15,22,10.0.2.2,50540,1073725440,17922,1026,65535,65700,0,0,4,1460,312,0,4,240000,33580,0,65700,0,0,0,1188838894,63
i,1723569059.497033,10.0.2.15,22,10.0.2.2,50540,1073725440,17922,1026,65535,65700,0,0,4,1460,312,0,4,240000,33580,0,65700,96,0,0,1188838894,63
o,1723569059.497077,10.0.2.15,22,10.0.2.2,50540,1073725440,17922,1026,65535,65604,0,0,5,1460,312,0,5,240000,33580,0,65700,96,0,0,1188838894,63
o,1723569059.497689,10.0.2.15,22,10.0.2.2,50540,1073725440,17922,1026,65535,65604,0,0,8,1460,312,0,4,240000,33580,0,65700,0,0,0,1188838894,63
i,1723569059.499455,10.0.2.15,22,10.0.2.2,50540,1073725440,17922,1026,65535,65604,0,0,8,1460,312,0,67108884,240000,33580,0,65700,0,1,0,1188838894,63
i,1723569060.559913,10.0.2.15,22,10.0.2.2,50550,1073725440,14600,0,65535,65700,0,0,4,1460,312,0,16777216,270000,33580,0,65700,0,0,0,672397956,63
o,1723569060.573582,10.0.2.15,22,10.0.2.2,50550,1073725440,14600,1026,65535,65700,0,0,4,1460,312,0,16777216,270000,33580,38,65700,42,0,0,672397956,63
i,1723569060.574030,10.0.2.15,22,10.0.2.2,50550,1073725440,14600,1026,65535,65700,0,0,4,1460,312,0,16777216,270000,33580,38,65700,0,38,0,672397956,63
i,1723569060.574755,10.0.2.15,22,10.0.2.2,50550,1073725440,14638,1026,65535,65700,0,0,4,1460,312,0,0,240000,33580,0,65700,0,0,0,672397956,63
i,1723569060.574778,10.0.2.15,22,10.0.2.2,50550,1073725440,14638,1026,65535,65700,0,0,4,1460,312,0,0,240000,33580,0,65700,1460,0,0,672397956,63
o,1723569060.574801,10.0.2.15,22,10.0.2.2,50550,1073725440,14638,1026,65535,65700,0,0,4,1460,312,0,1,240000,33580,0,65700,1536,0,0,672397956,63
o,1723569060.575253,10.0.2.15,22,10.0.2.2,50550,1073725440,14638,1026,65535,65700,0,0,4,1460,312,0,16777216,240000,33580,1120,65700,1536,0,0,672397956,63
i,1723569060.576392,10.0.2.15,22,10.0.2.2,50550,1073725440,14638,1026,65535,65700,0,0,4,1460,312,0,16777216,240000,33580,1120,65700,0,1120,0,672397956,63
i,1723569060.577347,10.0.2.15,22,10.0.2.2,50550,1073725440,15758,1026,65535,65700,0,0,4,1460,312,0,0,240000,33580,0,65700,0,0,0,672397956,63
o,1723569060.580811,10.0.2.15,22,10.0.2.2,50550,1073725440,15758,1026,65535,65700,0,0,4,1460,312,0,16777216,240000,33580,492,65700,0,0,0,672397956,63
i,1723569060.581271,10.0.2.15,22,10.0.2.2,50550,1073725440,15758,1026,65535,65700,0,0,4,1460,312,0,16777216,240000,33580,492,65700,0,492,0,672397956,63
i,1723569060.586878,10.0.2.15,22,10.0.2.2,50550,1073725440,16250,1026,65535,65700,0,0,4,1460,312,0,0,240000,33580,0,65700,0,0,0,672397956,63
i,1723569060.586906,10.0.2.15,22,10.0.2.2,50550,1073725440,16250,1026,65535,65700,0,0,4,1460,312,0,0,240000,33580,0,65700,16,0,0,672397956,63
o,1723569060.586930,10.0.2.15,22,10.0.2.2,50550,1073725440,16250,1026,65535,65700,0,0,4,1460,312,0,1,240000,33580,0,65700,60,0,0,672397956,63
o,1723569060.587162,10.0.2.15,22,10.0.2.2,50550,1073725440,16250,1026,65535,65700,0,0,4,1460,312,0,16777216,240000,33580,44,65700,0,0,0,672397956,63
i,1723569060.588101,10.0.2.15,22,10.0.2.2,50550,1073725440,16250,1026,65535,65700,0,0,4,1460,312,0,16777216,240000,33580,44,65700,0,44,0,672397956,63
i,1723569060.588126,10.0.2.15,22,10.0.2.2,50550,1073725440,16294,1026,65535,65700,0,0,4,1460,312,0,0,240000,33580,0,65700,0,0,0,672397956,63
o,1723569060.590283,10.0.2.15,22,10.0.2.2,50550,1073725440,16294,1026,65535,65700,0,0,4,1460,312,0,16777216,240000,33580,68,65700,0,0,0,672397956,63
i,1723569060.590929,10.0.2.15,22,10.0.2.2,50550,1073725440,16294,1026,65535,65700,0,0,4,1460,312,0,16777216,240000,33580,68,65700,0,68,0,672397956,63
i,1723569060.590953,10.0.2.15,22,10.0.2.2,50550,1073725440,16362,1026,65535,65700,0,0,4,1460,312,0,0,240000,33580,0,65700,0,0,0,672397956,63
o,1723569060.592477,10.0.2.15,22,10.0.2.2,50550,1073725440,16362,1026,65535,65700,0,0,4,1460,312,0,16777216,240000,33580,332,65700,0,0,0,672397956,63
i,1723569060.593559,10.0.2.15,22,10.0.2.2,50550,1073725440,16362,1026,65535,65700,0,0,4,1460,312,0,16777216,240000,33580,332,65700,0,332,0,672397956,63
i,1723569060.594896,10.0.2.15,22,10.0.2.2,50550,1073725440,16694,1026,65535,65700,0,0,4,1460,312,0,0,240000,33580,0,65700,0,0,0,672397956,63
o,1723569060.613075,10.0.2.15,22,10.0.2.2,50550,1073725440,16694,1026,65535,65700,0,0,4,1460,312,0,16777216,240000,33580,28,65700,0,0,0,672397956,63
i,1723569060.613918,10.0.2.15,22,10.0.2.2,50550,1073725440,16694,1026,65535,65700,0,0,4,1460,312,0,16777216,240000,33580,28,65700,0,28,0,672397956,63
i,1723569060.613945,10.0.2.15,22,10.0.2.2,50550,1073725440,16722,1026,65535,65700,0,0,4,1460,312,0,0,240000,33580,0,65700,0,0,0,672397956,63
o,1723569060.615828,10.0.2.15,22,10.0.2.2,50550,1073725440,16722,1026,65535,65700,0,0,4,1460,312,0,16777216,240000,33580,768,65700,112,0,0,672397956,63
i,1723569060.616251,10.0.2.15,22,10.0.2.2,50550,1073725440,16722,1026,65535,65700,0,0,4,1460,312,0,16777216,240000,33580,908,65700,112,768,0,672397956,63
o,1723569060.616275,10.0.2.15,22,10.0.2.2,50550,1073725440,17490,1026,65535,65700,0,0,4,1460,312,0,16777216,240000,33580,140,65700,112,0,0,672397956,63
i,1723569060.616973,10.0.2.15,22,10.0.2.2,50550,1073725440,17490,1026,65535,65700,0,0,4,1460,312,0,16777216,240000,33580,140,65700,112,140,0,672397956,63
o,1723569060.617221,10.0.2.15,22,10.0.2.2,50550,1073725440,17630,1026,65535,65700,0,0,4,1460,312,0,16777216,240000,33580,44,65700,0,0,0,672397956,63
i,1723569060.617706,10.0.2.15,22,10.0.2.2,50550,1073725440,17630,1026,65535,65700,0,0,4,1460,312,0,16777216,240000,33580,44,65700,0,44,0,672397956,63
i,1723569060.617724,10.0.2.15,22,10.0.2.2,50550,1073725440,17674,1026,65535,65700,0,0,4,1460,312,0,0,240000,33580,0,65700,0,0,0,672397956,63
o,1723569060.618470,10.0.2.15,22,10.0.2.2,50550,1073725440,17674,1026,65535,65700,0,0,4,1460,312,0,16777220,240000,33580,72,65700,0,0,0,672397956,63
i,1723569060.618932,10.0.2.15,22,10.0.2.2,50550,1073725440,17674,1026,65535,65700,0,0,4,1460,312,0,16777220,240000,33580,72,65700,0,72,0,672397956,63
o,1723569060.740000,172.16.5.2,65414,172.16.1.2,5102,9000,14480,2082,65535,65700,6,6,4,1460,236875,1,16778209,790000,33580,0,65700,0,0,0,2171210250,63
o,1723569060.740163,172.16.5.2,65414,172.16.1.2,5102,9000,14480,2082,65535,65700,6,6,4,1460,236875,1,16778212,790000,33580,37,65700,0,0,0,2171210250,63
i,1723569060.873387,172.16.5.2,65414,172.16.1.2,5102,9000,14480,2082,65535,65700,6,6,4,1460,236875,1,16778212,790000,33580,37,65700,0,37,0,2171210250,63
o,1723569060.873710,172.16.5.2,65414,172.16.1.2,5102,9000,14480,3106,65728,65728,6,6,4,1460,223750,1,16778212,790000,33580,4,65700,0,0,0,2171210250,63
o,1723569060.873887,172.16.5.2,65414,172.16.1.2,5102,9000,14480,3106,65728,65728,6,6,4,1460,223750,1,16778212,790000,33580,130,65700,0,4,0,2171210250,63
i,1723569060.997027,172.16.5.2,65414,172.16.1.2,5102,9000,14480,3106,65728,65728,6,6,4,1460,223750,1,16778212,790000,33580,130,65700,0,130,0,2171210250,63
i,1723569060.997070,172.16.5.2,65414,172.16.1.2,5102,9000,14480,3106,65600,65728,6,6,4,1460,212187,1,996,780000,33580,0,65700,0,0,0,2171210250,63
o,1723569061.097557,172.16.5.2,65414,172.16.1.2,5102,9000,14480,3106,65728,65728,6,6,4,1460,212187,1,997,780000,33580,0,65700,0,0,0,2171210250,63
o,1723569061.111217,172.16.5.2,53711,172.16.1.2,5102,9000,14480,2082,65535,65700,6,6,4,1460,236875,1,16778209,790000,33580,0,65700,0,0,0,3375246015,63
o,1723569061.111390,172.16.5.2,53711,172.16.1.2,5102,9000,14480,2082,65535,65700,6,6,4,1460,236875,1,16778208,790000,33580,37,65700,0,0,0,3375246015,63
i,1723569061.232143,172.16.5.2,65414,172.16.1.2,5102,9000,14480,3106,65728,65728,6,6,4,1460,212187,1,996,780000,33580,0,65700,0,0,0,2171210250,63
i,1723569061.232229,172.16.5.2,65414,172.16.1.2,5102,9000,14480,3106,65728,65728,6,6,4,1460,212187,1,996,780000,33580,0,65700,1,0,0,2171210250,63
o,1723569061.232250,172.16.5.2,65414,172.16.1.2,5102,9000,14480,3106,65728,65728,6,6,4,1460,212187,1,997,780000,33580,0,65700,2,0,0,2171210250,63
o,1723569061.233059,172.16.5.2,53711,172.16.1.2,5102,9000,14480,2086,65535,65700,6,6,4,1460,236875,1,16778208,790000,33580,33580,65700,0,37,0,3375246015,63
i,1723569061.266508,172.16.5.2,53711,172.16.1.2,5102,9000,14480,2086,65535,65700,6,6,4,1460,236875,1,16778208,790000,33580,33580,65700,0,13069,0,3375246015,63
o,1723569061.266606,172.16.5.2,53711,172.16.1.2,5102,9000,14480,2082,65728,65728,6,6,4,1460,227500,1,16778208,770000,33580,33543,65700,0,13032,0,3375246015,63
i,1723569061.326274,172.16.5.2,53711,172.16.1.2,5102,9000,14480,2082,65728,65728,6,6,4,1460,227500,1,16778208,770000,33580,33543,65700,0,14480,0,3375246015,63
o,1723569061.326308,172.16.5.2,53711,172.16.1.2,5102,9000,14480,2086,62848,65728,6,6,4,1460,211562,1,16778208,790000,33580,30647,65700,0,11584,0,3375246015,63
i,1723569061.352470,172.16.5.2,53711,172.16.1.2,5102,9000,14480,2086,62848,65728,6,6,4,1460,211562,1,16778208,790000,33580,33580,65700,0,14480,0,3375246015,63
o,1723569061.352495,172.16.5.2,53711,172.16.1.2,5102,9000,14480,2086,64256,65728,6,6,4,1460,200312,1,16778208,780000,33580,30684,65700,0,11584,0,3375246015,63
i,1723569061.353392,172.16.5.2,53711,172.16.1.2,5102,9000,14480,2086,64256,65728,6,6,4,1460,200312,1,16778208,780000,33580,33580,65700,0,14480,0,3375246015,63
o,1723569061.353488,172.16.5.2,53711,172.16.1.2,5102,9000,14480,2086,64256,65728,6,6,4,1460,190312,1,16778208,750000,33580,30684,65700,0,11584,0,3375246015,63
i,1723569061.353642,172.16.5.2,53711,172.16.1.2,5102,9000,14480,2086,64256,65728,6,6,4,1460,190312,1,16778208,750000,33580,30684,65700,0,14480,0,3375246015,63
o,1723569061.353662,172.16.5.2,53711,172.16.1.2,5102,9000,14480,2086,62848,65728,6,6,4,1460,181562,1,16778208,720000,33580,27788,65700,0,11584,0,3375246015,63
i,1723569061.386437,172.16.5.2,53711,172.16.1.2,5102,9000,14480,2086,62848,65728,6,6,4,1460,181562,1,16778208,720000,33580,33580,65700,0,14480,0,3375246015,63
o,1723569061.386489,172.16.5.2,53711,172.16.1.2,5102,9000,15940,2086,64256,65728,6,6,4,1460,179062,1,16778208,650000,33580,30684,65700,0,11584,0,3375246015,63
o,1723569061.386659,172.16.5.2,53711,172.16.1.2,5102,9000,15940,2086,64256,65728,6,6,4,1460,179062,1,16778208,650000,33580,30684,65700,0,13032,0,3375246015,63
i,1723569061.431804,172.16.5.2,53711,172.16.1.2,5102,9000,15940,2086,64256,65728,6,6,4,1460,179062,1,16778208,650000,41772,41772,65700,0,15928,0,3375246015,63
o,1723569061.431842,172.16.5.2,53711,172.16.1.2,5102,9000,15940,2086,62848,65728,6,6,4,1460,169375,1,16778208,650000,41772,38876,65700,0,13032,0,3375246015,63
i,1723569061.452247,172.16.5.2,53711,172.16.1.2,5102,9000,15940,2086,62848,65728,6,6,4,1460,169375,1,16778208,650000,41772,41772,65700,0,15928,0,3375246015,63
o,1723569061.452284,172.16.5.2,53711,172.16.1.2,5102,9000,15940,2086,62848,65728,6,6,4,1460,160937,1,16778208,640000,41772,38876,65700,0,13032,0,3375246015,63
i,1723569061.477934,172.16.5.2,53711,172.16.1.2,5102,9000,15940,2086,62848,65728,6,6,4,1460,160937,1,16778208,640000,41772,41772,65700,0,15928,0,3375246015,63
o,1723569061.477964,172.16.5.2,53711,172.16.1.2,5102,9000,15940,2086,62848,65728,6,6,4,1460,157187,1,16778208,600000,41772,38876,65700,0,13032,0,3375246015,63
i,1723569061.478150,172.16.5.2,53711,172.16.1.2,5102,9000,15940,2086,62848,65728,6,6,4,1460,157187,1,16778208,600000,41772,38876,65700,0,15928,0,3375246015,63
o,1723569061.478168,172.16.5.2,53711,172.16.1.2,5102,9000,15940,2086,64256,65728,6,6,4,1460,154062,1,16778208,560000,41772,35980,65700,0,13032,0,3375246015,63
i,1723569061.478311,172.16.5.2,53711,172.16.1.2,5102,9000,15940,2086,64256,65728,6,6,4,1460,154062,1,16778208,560000,41772,35980,65700,0,15928,0,3375246015,63
o,1723569061.478327,172.16.5.2,53711,172.16.1.2,5102,9000,15940,2086,61376,65728,6,6,4,1460,146250,1,16778208,560000,41772,33084,65700,0,13032,0,3375246015,63
o,1723569061.478449,172.16.5.2,53711,172.16.1.2,5102,9000,15940,2086,61376,65728,6,6,4,1460,146250,1,16778208,560000,41772,33084,65700,0,14480,0,3375246015,63
i,1723569061.547031,172.16.5.2,53711,172.16.1.2,5102,9000,15940,2086,61376,65728,6,6,4,1460,146250,1,16778208,560000,41772,41772,65700,0,15928,0,3375246015,63
o,1723569061.547079,172.16.5.2,53711,172.16.1.2,5102,9000,17400,2086,64256,65728,6,6,4,1460,148125,1,16778208,520000,41772,38876,65700,0,13032,0,3375246015,63
i,1723569061.574388,172.16.5.2,53711,172.16.1.2,5102,9000,17400,2086,64256,65728,6,6,4,1460,148125,1,16778208,520000,41772,41772,65700,0,17376,0,3375246015,63
o,1723569061.574491,172.16.5.2,53711,172.16.1.2,5102,9000,17400,2086,64256,65728,6,6,4,1460,147187,1,16778208,480000,41772,38876,65700,0,14480,0,3375246015,63
i,1723569061.602390,172.16.5.2,53711,172.16.1.2,5102,9000,17400,2086,64256,65728,6,6,4,1460,147187,1,16778208,480000,41772,41772,65700,0,17376,0,3375246015,63
o,1723569061.602466,172.16.5.2,53711,172.16.1.2,5102,9000,17400,2086,64256,65728,6,6,4,1460,147812,1,16778208,460000,41772,38876,65700,0,14480,0,3375246015,63
i,1723569061.602598,172.16.5.2,53711,172.16.1.2,5102,9000,17400,2086,64256,65728,6,6,4,1460,147812,1,16778208,460000,41772,38876,65700,0,17376,0,3375246015,63
o,1723569061.602615,172.16.5.2,53711,172.16.1.2,5102,9000,17400,2086,61376,65728,6,6,4,1460,144375,1,16778208,450000,41772,35980,65700,0,14480,0,3375246015,63
i,1723569061.602802,172.16.5.2,53711,172.16.1.2,5102,9000,17400,2086,61376,65728,6,6,4,1460,144375,1,16778208,450000,41772,35980,65700,0,17376,0,3375246015,63
o,1723569061.602819,172.16.5.2,53711,172.16.1.2,5102,9000,17400,2086,64256,65728,6,6,4,1460,141562,1,16778208,440000,41772,33084,65700,0,14480,0,3375246015,63
o,1723569061.602930,172.16.5.2,53711,172.16.1.2,5102,9000,17400,2086,64256,65728,6,6,4,1460,141562,1,16778208,440000,41772,33084,65700,0,15928,0,3375246015,63
i,1723569061.642848,172.16.5.2,53711,172.16.1.2,5102,9000,17400,2086,64256,65728,6,6,4,1460,141562,1,16778208,440000,41772,41772,65700,0,17376,0,3375246015,63
o,1723569061.642937,172.16.5.2,53711,172.16.1.2,5102,9000,17400,2086,65728,65728,6,6,4,1460,144062,1,16778208,440000,41772,40324,65700,0,15928,0,3375246015,63
i,1723569061.663218,172.16.5.2,53711,172.16.1.2,5102,9000,17400,2086,65728,65728,6,6,4,1460,144062,1,16778208,440000,41772,40324,65700,0,17376,0,3375246015,63
o,1723569061.663247,172.16.5.2,53711,172.16.1.2,5102,9000,18860,2086,64256,65728,6,6,4,1460,140000,1,16778208,450000,41772,37428,65700,0,14480,0,3375246015,63
i,1723569061.691640,172.16.5.2,53711,172.16.1.2,5102,9000,18860,2086,64256,65728,6,6,4,1460,140000,1,16778208,450000,49964,49964,65700,0,18824,0,3375246015,63
o,1723569061.691740,172.16.5.2,53711,172.16.1.2,5102,9000,18860,2086,65728,65728,6,6,4,1460,140000,1,16778208,420000,49964,48516,65700,0,17376,0,3375246015,63
i,1723569061.693566,172.16.5.2,53711,172.16.1.2,5102,9000,18860,2086,65728,65728,6,6,4,1460,140000,1,16778208,420000,49964,48516,65700,0,18824,0,3375246015,63
o,1723569061.693589,172.16.5.2,53711,172.16.1.2,5102,9000,18860,2086,62848,65728,6,6,4,1460,137500,1,16778208,420000,49964,45620,65700,0,15928,0,3375246015,63
i,1723569061.728570,172.16.5.2,53711,172.16.1.2,5102,9000,18860,2086,62848,65728,6,6,4,1460,137500,1,16778208,420000,49964,49964,65700,0,18824,0,3375246015,63
o,1723569061.728600,172.16.5.2,53711,172.16.1.2,5102,9000,18860,2086,62848,65728,6,6,4,1460,136562,1,16778208,400000,49964,47068,65700,0,15928,0,3375246015,63
i,1723569061.728735,172.16.5.2,53711,172.16.1.2,5102,9000,18860,2086,62848,65728,6,6,4,1460,136562,1,16778208,400000,49964,47068,65700,0,18824,0,3375246015,63
o,1723569061.728751,172.16.5.2,53711,172.16.1.2,5102,9000,18860,2086,64256,65728,6,6,4,1460,135937,1,16778208,390000,49964,44172,65700,0,15928,0,3375246015,63
i,1723569061.738673,172.16.5.2,53711,172.16.1.2,5102,9000,18860,2086,64256,65728,6,6,4,1460,135937,1,16778208,390000,49964,49964,65700,0,18824,0,3375246015,63
o,1723569061.738703,172.16.5.2,53711,172.16.1.2,5102,9000,18860,2086,62848,65728,6,6,4,1460,136562,1,16778208,380000,49964,47068,65700,0,15928,0,3375246015,63
o,1723569061.738825,172.16.5.2,53711,172.16.1.2,5102,9000,18860,2086,62848,65728,6,6,4,1460,136562,1,16778208,380000,49964,47068,65700,0,17376,0,3375246015,63
i,1723569061.785125,172.16.5.2,53711,172.16.1.2,5102,9000,18860,2086,62848,65728,6,6,4,1460,136562,1,16778208,380000,49964,49964,65700,0,18824,0,3375246015,63
o,1723569061.785157,172.16.5.2,53711,172.16.1.2,5102,9000,18860,2086,64256,65728,6,6,4,1460,137187,1,16778208,370000,49964,47068,65700,0,15928,0,3375246015,63
i,1723569061.785532,172.16.5.2,53711,172.16.1.2,5102,9000,18860,2086,64256,65728,6,6,4,1460,137187,1,16778208,370000,49964,47068,65700,0,18824,0,3375246015,63
o,1723569061.785550,172.16.5.2,53711,172.16.1.2,5102,9000,18860,2086,64256,65728,6,6,4,1460,135312,1,16778208,380000,49964,44172,65700,0,15928,0,3375246015,63
i,1723569061.843009,172.16.5.2,53711,172.16.1.2,5102,9000,18860,2086,64256,65728,6,6,4,1460,135312,1,16778208,380000,49964,49964,65700,0,18824,0,3375246015,63
o,1723569061.843044,172.16.5.2,53711,172.16.1.2,5102,9000,20320,2086,64256,65728,6,6,4,1460,137187,1,16778208,380000,49964,47068,65700,0,15928,0,3375246015,63
i,1723569061.843185,172.16.5.2,53711,172.16.1.2,5102,9000,20320,2086,64256,65728,6,6,4,1460,137187,1,16778208,380000,49964,47068,65700,0,20272,0,3375246015,63
o,1723569061.843202,172.16.5.2,53711,172.16.1.2,5102,9000,20320,2086,64256,65728,6,6,4,1460,139062,1,16778208,390000,49964,44172,65700,0,17376,0,3375246015,63
i,1723569061.845719,172.16.5.2,53711,172.16.1.2,5102,9000,20320,2086,64256,65728,6,6,4,1460,139062,1,16778208,390000,49964,49964,65700,0,20272,0,3375246015,63
o,1723569061.845741,172.16.5.2,53711,172.16.1.2,5102,9000,20320,2086,64256,65728,6,6,4,1460,136875,1,16778208,390000,49964,47068,65700,0,17376,0,3375246015,63
i,1723569061.873873,172.16.5.2,53711,172.16.1.2,5102,9000,20320,2086,64256,65728,6,6,4,1460,136875,1,16778208,390000,49964,49964,65700,0,20272,0,3375246015,63
o,1723569061.873912,172.16.5.2,53711,172.16.1.2,5102,9000,20320,2086,62848,65728,6,6,4,1460,137500,1,16778208,380000,49964,47068,65700,0,17376,0,3375246015,63
o,1723569061.874070,172.16.5.2,53711,172.16.1.2,5102,9000,20320,2086,62848,65728,6,6,4,1460,137500,1,16778208,380000,49964,47068,65700,0,18824,0,3375246015,63
i,1723569061.882239,172.16.5.2,53711,172.16.1.2,5102,9000,20320,2086,62848,65728,6,6,4,1460,137500,1,16778208,380000,49964,49964,65700,0,20272,0,3375246015,63
o,1723569061.882329,172.16.5.2,53711,172.16.1.2,5102,9000,20320,2086,65728,65728,6,6,4,1460,137812,1,16778208,370000,49964,48516,65700,0,18824,0,3375246015,63
i,1723569061.904393,172.16.5.2,53711,172.16.1.2,5102,9000,20320,2086,65728,65728,6,6,4,1460,137812,1,16778208,370000,49964,48516,65700,0,20272,0,3375246015,63
o,1723569061.904416,172.16.5.2,53711,172.16.1.2,5102,9000,20320,2086,62848,65728,6,6,4,1460,135625,1,16778208,380000,49964,45620,65700,0,17376,0,3375246015,63
i,1723569061.904810,172.16.5.2,53711,172.16.1.2,5102,9000,20320,2086,62848,65728,6,6,4,1460,135625,1,16778208,380000,49964,45620,65700,0,20272,0,3375246015,63
o,1723569061.904826,172.16.5.2,53711,172.16.1.2,5102,9000,20320,2086,64256,65728,6,6,4,1460,132500,1,16778208,390000,49964,42724,65700,0,17376,0,3375246015,63
i,1723569061.950774,172.16.5.2,53711,172.16.1.2,5102,9000,20320,2086,64256,65728,6,6,4,1460,132500,1,16778208,390000,49964,49964,65700,0,20272,0,3375246015,63
o,1723569061.950822,172.16.5.2,53711,172.16.1.2,5102,9000,21780,2086,64256,65728,6,6,4,1460,129687,1,16778208,390000,49964,47068,65700,0,17376,0,3375246015,63
i,1723569061.951027,172.16.5.2,53711,172.16.1.2,5102,9000,21780,2086,64256,65728,6,6,4,1460,129687,1,16778208,390000,49964,47068,65700,0,21720,0,3375246015,63
o,1723569061.951052,172.16.5.2,53711,172.16.1.2,5102,9000,21780,2086,64256,65728,6,6,4,1460,127500,1,16778208,390000,49964,44172,65700,0,18824,0,3375246015,63
i,1723569061.971818,172.16.5.2,53711,172.16.1.2,5102,9000,21780,2086,64256,65728,6,6,4,1460,127500,1,16778208,390000,49964,49964,65700,0,21720,0,3375246015,63
o,1723569061.971918,172.16.5.2,53711,172.16.1.2,5102,9000,21780,2086,64256,65728,6,6,4,1460,127812,1,16778208,380000,49964,47068,65700,0,18824,0,3375246015,63
i,1723569062.002318,172.16.5.2,53711,172.16.1.2,5102,9000,21780,2086,64256,65728,6,6,4,1460,127812,1,16778208,380000,49964,49964,65700,0,21720,0,3375246015,63
o,1723569062.002397,172.16.5.2,53711,172.16.1.2,5102,9000,21780,2086,64256,65728,6,6,4,1460,130625,1,16778208,390000,49964,47068,65700,0,18824,0,3375246015,63
o,1723569062.002516,172.16.5.2,53711,172.16.1.2,5102,9000,21780,2086,64256,65728,6,6,4,1460,130625,1,16778208,390000,49964,47068,65700,0,20272,0,3375246015,63
i,1723569062.002637,172.16.5.2,53711,172.16.1.2,5102,9000,21780,2086,64256,65728,6,6,4,1460,130625,1,16778208,390000,49964,47068,65700,0,21720,0,3375246015,63
o,1723569062.002655,172.16.5.2,53711,172.16.1.2,5102,9000,21780,2086,64256,65728,6,6,4,1460,130625,1,16778208,380000,49964,44172,65700,0,18824,0,3375246015,63
i,1723569062.002829,172.16.5.2,53711,172.16.1.2,5102,9000,21780,2086,64256,65728,6,6,4,1460,130625,1,16778208,380000,49964,44172,65700,0,21720,0,3375246015,63
o,1723569062.002851,172.16.5.2,53711,172.16.1.2,5102,9000,21780,2086,61376,65728,6,6,4,1460,126875,1,16778208,390000,49964,41276,65700,0,18824,0,3375246015,63
i,1723569062.002974,172.16.5.2,53711,172.16.1.2,5102,9000,21780,2086,61376,65728,6,6,4,1460,126875,1,16778208,390000,49964,41276,65700,0,21720,0,3375246015,63
o,1723569062.002990,172.16.5.2,53711,172.16.1.2,5102,9000,21780,2086,64256,65728,6,6,4,1460,123750,1,16778208,400000,49964,38380,65700,0,18824,0,3375246015,63
i,1723569062.065481,172.16.5.2,53711,172.16.1.2,5102,9000,21780,2086,64256,65728,6,6,4,1460,123750,1,16778208,400000,49964,49964,65700,0,21720,0,3375246015,63
o,1723569062.065515,172.16.5.2,53711,172.16.1.2,5102,9000,21780,2086,64256,65728,6,6,4,1460,122187,1,16778208,390000,49964,47068,65700,0,18824,0,3375246015,63
i,1723569062.065707,172.16.5.2,53711,172.16.1.2,5102,9000,21780,2086,64256,65728,6,6,4,1460,122187,1,16778208,390000,49964,47068,65700,0,21720,0,3375246015,63
o,1723569062.065725,172.16.5.2,53711,172.16.1.2,5102,9000,23240,2086,62848,65728,6,6,4,1460,120937,1,16778208,380000,49964,44172,65700,0,18824,0,3375246015,63
i,1723569062.098088,172.16.5.2,53711,172.16.1.2,5102,9000,23240,2086,62848,65728,6,6,4,1460,120937,1,16778208,380000,58156,58156,65700,0,23168,0,3375246015,63
o,1723569062.098178,172.16.5.2,53711,172.16.1.2,5102,9000,23240,2086,64256,65728,6,6,4,1460,124687,1,16778208,400000,58156,55260,65700,0,20272,0,3375246015,63
i,1723569062.098317,172.16.5.2,53711,172.16.1.2,5102,9000,23240,2086,64256,65728,6,6,4,1460,124687,1,16778208,400000,58156,55260,65700,0,23168,0,3375246015,63
o,1723569062.098335,172.16.5.2,53711,172.16.1.2,5102,9000,23240,2086,64256,65728,6,6,4,1460,125625,1,16778208,390000,58156,52364,65700,0,20272,0,3375246015,63
o,1723569062.098446,172.16.5.2,53711,172.16.1.2,5102,9000,23240,2086,64256,65728,6,6,4,1460,125625,1,16778208,390000,58156,52364,65700,0,21720,0,3375246015,63
i,1723569062.107789,172.16.5.2,53711,172.16.1.2,5102,9000,23240,2086,64256,65728,6,6,4,1460,125625,1,16778208,390000,58156,58156,65700,0,23168,0,3375246015,63
o,1723569062.107811,172.16.5.2,53711,172.16.1.2,5102,9000,23240,2086,61376,65728,6,6,4,1460,123750,1,16778208,390000,58156,55260,65700,0,20272,0,3375246015,63
i,1723569062.107947,172.16.5.2,53711,172.16.1.2,5102,9000,23240,2086,61376,65728,6,6,4,1460,123750,1,16778208,390000,58156,55260,65700,0,23168,0,3375246015,63
o,1723569062.107963,172.16.5.2,53711,172.16.1.2,5102,9000,23240,2086,58496,65728,6,6,4,1460,122187,1,16778208,380000,58156,52364,65700,0,20272,0,3375246015,63
i,1723569062.127760,172.16.5.2,53711,172.16.1.2,5102,9000,23240,2086,58496,65728,6,6,4,1460,122187,1,16778208,380000,58156,58156,65700,0,23168,0,3375246015,63
o,1723569062.127779,172.16.5.2,53711,172.16.1.2,5102,9000,23240,2086,62848,65728,6,6,4,1460,123437,1,16778208,380000,58156,55260,65700,0,20272,0,3375246015,63
i,1723569062.139591,172.16.5.2,53711,172.16.1.2,5102,9000,23240,2086,62848,65728,6,6,4,1460,123437,1,16778208,380000,58156,58156,65700,0,23168,0,3375246015,63
o,1723569062.139617,172.16.5.2,53711,172.16.1.2,5102,9000,23240,2086,65728,65728,6,6,4,1460,125625,1,16778208,380000,58156,56708,65700,0,21720,0,3375246015,63
i,1723569062.189083,172.16.5.2,53711,172.16.1.2,5102,9000,23240,2086,65728,65728,6,6,4,1460,125625,1,16778208,380000,58156,56708,65700,0,23168,0,3375246015,63
o,1723569062.189172,172.16.5.2,53711,172.16.1.2,5102,9000,23240,2086,62848,65728,6,6,4,1460,125000,1,16778208,370000,58156,53812,65700,0,20272,0,3375246015,63
i,1723569062.189299,172.16.5.2,53711,172.16.1.2,5102,9000,23240,2086,62848,65728,6,6,4,1460,125000,1,16778208,370000,58156,53812,65700,0,23168,0,3375246015,63
o,1723569062.189316,172.16.5.2,53711,172.16.1.2,5102,9000,24700,2086,64256,65728,6,6,4,1460,124375,1,16778208,360000,58156,50916,65700,0,20272,0,3375246015,63
i,1723569062.218858,172.16.5.2,53711,172.16.1.2,5102,9000,24700,2086,64256,65728,6,6,4,1460,124375,1,16778208,360000,58156,58156,65700,0,24616,0,3375246015,63
o,1723569062.218901,172.16.5.2,53711,172.16.1.2,5102,9000,24700,2086,64256,65728,6,6,4,1460,127812,1,16778208,390000,58156,55260,65700,0,21720,0,3375246015,63
i,1723569062.219052,172.16.5.2,53711,172.16.1.2,5102,9000,24700,2086,64256,65728,6,6,4,1460,127812,1,16778208,390000,58156,55260,65700,0,24616,0,3375246015,63
o,1723569062.219069,172.16.5.2,53711,172.16.1.2,5102,9000,24700,2086,64256,65728,6,6,4,1460,126875,1,16778208,380000,58156,52364,65700,0,21720,0,3375246015,63
o,1723569062.219196,172.16.5.2,53711,172.16.1.2,5102,9000,24700,2086,64256,65728,6,6,4,1460,126875,1,16778208,380000,58156,52364,65700,0,23168,0,3375246015,63
i,1723569062.219383,172.16.5.2,53711,172.16.1.2,5102,9000,24700,2086,64256,65728,6,6,4,1460,126875,1,16778208,380000,58156,52364,65700,0,24616,0,3375246015,63
o,1723569062.219399,172.16.5.2,53711,172.16.1.2,5102,9000,24700,2086,64256,65728,6,6,4,1460,126250,1,16778208,370000,58156,49468,65700,0,21720,0,3375246015,63
i,1723569062.219579,172.16.5.2,53711,172.16.1.2,5102,9000,24700,2086,64256,65728,6,6,4,1460,126250,1,16778208,370000,58156,49468,65700,0,24616,0,3375246015,63
o,1723569062.219596,172.16.5.2,53711,172.16.1.2,5102,9000,24700,2086,61376,65728,6,6,4,1460,124375,1,16778208,370000,58156,46572,65700,0,21720,0,3375246015,63
i,1723569062.254966,172.16.5.2,53711,172.16.1.2,5102,9000,24700,2086,61376,65728,6,6,4,1460,124375,1,16778208,370000,58156,58156,65700,0,24616,0,3375246015,63
o,1723569062.255000,172.16.5.2,53711,172.16.1.2,5102,9000,24700,2086,64256,65728,6,6,4,1460,126562,1,16778208,380000,58156,55260,65700,0,21720,0,3375246015,63
i,1723569062.255168,172.16.5.2,53711,172.16.1.2,5102,9000,24700,2086,64256,65728,6,6,4,1460,126562,1,16778208,380000,58156,55260,65700,0,24616,0,3375246015,63
o,1723569062.255187,172.16.5.2,53711,172.16.1.2,5102,9000,24700,2086,64256,65728,6,6,4,1460,125937,1,16778208,370000,58156,52364,65700,0,21720,0,3375246015,63
i,1723569062.332393,172.16.5.2,53711,172.16.1.2,5102,9000,24700,2086,64256,65728,6,6,4,1460,125937,1,16778208,370000,58156,58156,65700,0,24616,0,3375246015,63
o,1723569062.332478,172.16.5.2,53711,172.16.1.2,5102,9000,24700,2086,62848,65728,6,6,4,1460,127812,1,16778208,380000,58156,55260,65700,0,21720,0,3375246015,63
i,1723569062.332789,172.16.5.2,53711,172.16.1.2,5102,9000,24700,2086,62848,65728,6,6,4,1460,127812,1,16778208,380000,58156,55260,65700,0,24616,0,3375246015,63
o,1723569062.332806,172.16.5.2,53711,172.16.1.2,5102,9000,24700,2086,59968,65728,6,6,4,1460,129375,1,16778208,380000,58156,52364,65700,0,21720,0,3375246015,63
i,1723569062.333962,172.16.5.2,53711,172.16.1.2,5102,9000,24700,2086,59968,65728,6,6,4,1460,129375,1,16778208,380000,58156,58156,65700,0,24616,0,3375246015,63
o,1723569062.333985,172.16.5.2,53711,172.16.1.2,5102,9000,26160,2086,62848,65728,6,6,4,1460,130937,1,16778208,380000,58156,55260,65700,0,21720,0,3375246015,63
i,1723569062.356773,172.16.5.2,53711,172.16.1.2,5102,9000,26160,2086,62848,65728,6,6,4,1460,130937,1,16778208,380000,58156,58156,65700,0,26064,0,3375246015,63
o,1723569062.356808,172.16.5.2,53711,172.16.1.2,5102,9000,26160,2086,64256,65728,6,6,4,1460,132187,1,16778208,380000,58156,55260,65700,0,23168,0,3375246015,63
o,1723569062.356958,172.16.5.2,53711,172.16.1.2,5102,9000,26160,2086,64256,65728,6,6,4,1460,132187,1,16778208,380000,58156,55260,65700,0,24616,0,3375246015,63
i,1723569062.357081,172.16.5.2,53711,172.16.1.2,5102,9000,26160,2086,64256,65728,6,6,4,1460,132187,1,16778208,380000,58156,55260,65700,0,26064,0,3375246015,63
o,1723569062.357099,172.16.5.2,53711,172.16.1.2,5102,9000,26160,2086,61376,65728,6,6,4,1460,133437,1,16778208,380000,58156,52364,65700,0,23168,0,3375246015,63
i,1723569062.357268,172.16.5.2,53711,172.16.1.2,5102,9000,26160,2086,61376,65728,6,6,4,1460,133437,1,16778208,380000,58156,52364,65700,0,26064,0,3375246015,63
o,1723569062.357313,172.16.5.2,53711,172.16.1.2,5102,9000,26160,2086,62848,65728,6,6,4,1460,134375,1,16778208,370000,58156,49468,65700,0,23168,0,3375246015,63
i,1723569062.357435,172.16.5.2,53711,172.16.1.2,5102,9000,26160,2086,62848,65728,6,6,4,1460,134375,1,16778208,370000,58156,49468,65700,0,26064,0,3375246015,63
o,1723569062.357451,172.16.5.2,53711,172.16.1.2,5102,9000,26160,2086,64256,65728,6,6,4,1460,135312,1,16778208,370000,58156,46572,65700,0,23168,0,3375246015,63
i,1723569062.357606,172.16.5.2,53711,172.16.1.2,5102,9000,26160,2086,64256,65728,6,6,4,1460,135312,1,16778208,370000,58156,46572,65700,0,26064,0,3375246015,63
o,1723569062.357623,172.16.5.2,53711,172.16.1.2,5102,9000,26160,2086,61376,65728,6,6,4,1460,132187,1,16778208,380000,58156,43676,65700,0,23168,0,3375246015,63
i,1723569062.429475,172.16.5.2,53711,172.16.1.2,5102,9000,26160,2086,61376,65728,6,6,4,1460,132187,1,16778208,380000,58156,58156,65700,0,26064,0,3375246015,63
o,1723569062.429511,172.16.5.2,53711,172.16.1.2,5102,9000,26160,2086,65728,65728,6,6,4,1460,138437,1,16778208,430000,58156,56708,65700,0,24616,0,3375246015,63
i,1723569062.459282,172.16.5.2,53711,172.16.1.2,5102,9000,26160,2086,65728,65728,6,6,4,1460,138437,1,16778208,430000,58156,56708,65700,0,26064,0,3375246015,63
o,1723569062.459316,172.16.5.2,53711,172.16.1.2,5102,9000,26160,2086,64256,65728,6,6,4,1460,137500,1,16778208,410000,58156,53812,65700,0,23168,0,3375246015,63
i,1723569062.459481,172.16.5.2,53711,172.16.1.2,5102,9000,26160,2086,64256,65728,6,6,4,1460,137500,1,16778208,410000,58156,53812,65700,0,26064,0,3375246015,63
o,1723569062.459498,172.16.5.2,53711,172.16.1.2,5102,9000,26160,2086,62848,65728,6,6,4,1460,136562,1,16778208,400000,58156,50916,65700,0,23168,0,3375246015,63
i,1723569062.459761,172.16.5.2,53711,172.16.1.2,5102,9000,26160,2086,62848,65728,6,6,4,1460,136562,1,16778208,400000,66348,50916,65700,0,26064,0,3375246015,63
o,1723569062.459780,172.16.5.2,53711,172.16.1.2,5102,9000,27620,2086,64256,65728,6,6,4,1460,135937,1,16778208,390000,66348,48020,65700,0,23168,0,3375246015,63
i,1723569062.460196,172.16.5.2,53711,172.16.1.2,5102,9000,27620,2086,64256,65728,6,6,4,1460,135937,1,16778208,390000,66348,66348,65700,0,27512,0,3375246015,63
o,1723569062.460214,172.16.5.2,53711,172.16.1.2,5102,9000,27620,2086,61376,65728,6,6,4,1460,135312,1,16778208,380000,66348,63452,65700,0,24616,0,3375246015,63
o,1723569062.460324,172.16.5.2,53711,172.16.1.2,5102,9000,27620,2086,61376,65728,6,6,4,1460,135312,1,16778208,380000,66348,63452,65700,0,26064,0,3375246015,63
i,1723569062.460470,172.16.5.2,53711,172.16.1.2,5102,9000,27620,2086,61376,65728,6,6,4,1460,135312,1,16778208,380000,66348,63452,65700,0,27512,0,3375246015,63
o,1723569062.460487,172.16.5.2,53711,172.16.1.2,5102,9000,27620,2086,64256,65728,6,6,4,1460,130937,1,16778208,400000,66348,60556,65700,0,24616,0,3375246015,63
i,1723569062.490473,172.16.5.2,53711,172.16.1.2,5102,9000,27620,2086,64256,65728,6,6,4,1460,130937,1,16778208,400000,66348,66348,65700,0,27512,0,3375246015,63
o,1723569062.490511,172.16.5.2,53711,172.16.1.2,5102,9000,27620,2086,64256,65728,6,6,4,1460,130937,1,16778208,380000,66348,63452,65700,0,24616,0,3375246015,63
i,1723569062.490707,172.16.5.2,53711,172.16.1.2,5102,9000,27620,2086,64256,65728,6,6,4,1460,130937,1,16778208,380000,66348,63452,65700,0,27512,0,3375246015,63
o,1723569062.490728,172.16.5.2,53711,172.16.1.2,5102,9000,27620,2086,64256,65728,6,6,4,1460,130937,1,16778208,370000,66348,60556,65700,0,24616,0,3375246015,63
i,1723569062.490904,172.16.5.2,53711,172.16.1.2,5102,9000,27620,2086,64256,65728,6,6,4,1460,130937,1,16778208,370000,66348,60556,65700,0,27512,0,3375246015,63
o,1723569062.490923,172.16.5.2,53711,172.16.1.2,5102,9000,27620,2086,64256,65728,6,6,4,1460,130937,1,16778208,360000,66348,57660,65700,0,24616,0,3375246015,63
i,1723569062.538960,172.16.5.2,53711,172.16.1.2,5102,9000,27620,2086,64256,65728,6,6,4,1460,130937,1,16778208,360000,66348,66348,65700,0,27512,0,3375246015,63
o,1723569062.538994,172.16.5.2,53711,172.16.1.2,5102,9000,27620,2086,65728,65728,6,6,4,1460,137187,1,16778208,410000,66348,64900,65700,0,26064,0,3375246015,63
i,1723569062.566806,172.16.5.2,53711,172.16.1.2,5102,9000,27620,2086,65728,65728,6,6,4,1460,137187,1,16778208,410000,66348,64900,65700,0,27512,0,3375246015,63
o,1723569062.566849,172.16.5.2,53711,172.16.1.2,5102,9000,27620,2086,64256,65728,6,6,4,1460,137812,1,16778208,400000,66348,62004,65700,0,24616,0,3375246015,63
i,1723569062.591137,172.16.5.2,53711,172.16.1.2,5102,9000,27620,2086,64256,65728,6,6,4,1460,137812,1,16778208,400000,66348,66348,65700,0,27512,0,3375246015,63
o,1723569062.591202,172.16.5.2,53711,172.16.1.2,5102,9000,27620,2086,64256,65728,6,6,4,1460,136875,1,16778208,390000,66348,63452,65700,0,24616,0,3375246015,63
i,1723569062.594085,172.16.5.2,53711,172.16.1.2,5102,9000,27620,2086,64256,65728,6,6,4,1460,136875,1,16778208,390000,66348,66348,65700,0,27512,0,3375246015,63
o,1723569062.594104,172.16.5.2,53711,172.16.1.2,5102,9000,27620,2086,62848,65728,6,6,4,1460,136250,1,16778208,380000,66348,63452,65700,0,24616,0,3375246015,63
i,1723569062.596092,172.16.5.2,53711,172.16.1.2,5102,9000,27620,2086,62848,65728,6,6,4,1460,136250,1,16778208,380000,66348,66348,65700,0,27512,0,3375246015,63
o,1723569062.596113,172.16.5.2,53711,172.16.1.2,5102,9000,29080,2086,64256,65728,6,6,4,1460,136875,1,16778208,370000,66348,63452,65700,0,24616,0,3375246015,63
i,1723569062.596505,172.16.5.2,53711,172.16.1.2,5102,9000,29080,2086,64256,65728,6,6,4,1460,136875,1,16778208,370000,66348,63452,65700,0,28960,0,3375246015,63
o,1723569062.596522,172.16.5.2,53711,172.16.1.2,5102,9000,29080,2086,64256,65728,6,6,4,1460,137500,1,16778208,370000,66348,60556,65700,0,26064,0,3375246015,63
o,1723569062.596695,172.16.5.2,53711,172.16.1.2,5102,9000,29080,2086,64256,65728,6,6,4,1460,137500,1,16778208,370000,66348,60556,65700,0,27512,0,3375246015,63
i,1723569062.598985,172.16.5.2,53711,172.16.1.2,5102,9000,29080,2086,64256,65728,6,6,4,1460,137500,1,16778208,370000,66348,66348,65700,0,28960,0,3375246015,63
o,1723569062.599052,172.16.5.2,53711,172.16.1.2,5102,9000,29080,2086,61376,65728,6,6,4,1460,137812,1,16778208,370000,66348,63452,65700,0,26064,0,3375246015,63
i,1723569062.642205,172.16.5.2,53711,172.16.1.2,5102,9000,29080,2086,61376,65728,6,6,4,1460,137812,1,16778208,370000,66348,66348,65700,0,28960,0,3375246015,63
o,1723569062.642237,172.16.5.2,53711,172.16.1.2,5102,9000,29080,2086,62848,65728,6,6,4,1460,139375,1,16778208,370000,66348,63452,65700,0,26064,0,3375246015,63
i,1723569062.642455,172.16.5.2,53711,172.16.1.2,5102,9000,29080,2086,62848,65728,6,6,4,1460,139375,1,16778208,370000,66348,63452,65700,0,28960,0,3375246015,63
o,1723569062.642488,172.16.5.2,53711,172.16.1.2,5102,9000,29080,2086,62848,65728,6,6,4,1460,140937,1,16778208,380000,66348,60556,65700,0,26064,0,3375246015,63
i,1723569062.643937,172.16.5.2,53711,172.16.1.2,5102,9000,29080,2086,62848,65728,6,6,4,1460,140937,1,16778208,380000,66348,66348,65700,0,28960,0,3375246015,63
o,1723569062.643961,172.16.5.2,53711,172.16.1.2,5102,9000,29080,2086,64256,65728,6,6,4,1460,142187,1,16778208,380000,66348,63452,65700,0,26064,0,3375246015,63
i,1723569062.681657,172.16.5.2,53711,172.16.1.2,5102,9000,29080,2086,64256,65728,6,6,4,1460,142187,1,16778208,380000,66348,66348,65700,0,28960,0,3375246015,63
o,1723569062.681689,172.16.5.2,53711,172.16.1.2,5102,9000,29080,2086,65728,65728,6,6,4,1460,142187,1,16778208,370000,66348,64900,65700,0,27512,0,3375246015,63
i,1723569062.711903,172.16.5.2,53711,172.16.1.2,5102,9000,29080,2086,65728,65728,6,6,4,1460,142187,1,16778208,370000,66348,64900,65700,0,28960,0,3375246015,63
o,1723569062.712003,172.16.5.2,53711,172.16.1.2,5102,9000,29080,2086,62848,65728,6,6,4,1460,142187,1,16778208,360000,66348,62004,65700,0,26064,0,3375246015,63
i,1723569062.713467,172.16.5.2,53711,172.16.1.2,5102,9000,29080,2086,62848,65728,6,6,4,1460,142187,1,16778208,360000,66348,66348,65700,0,28960,0,3375246015,63
o,1723569062.713493,172.16.5.2,53711,172.16.1.2,5102,9000,29080,2086,64256,65728,6,6,4,1460,139687,1,16778208,370000,66348,63452,65700,0,26064,0,3375246015,63
i,1723569062.728139,172.16.5.2,53711,172.16.1.2,5102,9000,29080,2086,64256,65728,6,6,4,1460,139687,1,16778208,370000,66348,66348,65700,0,28960,0,3375246015,63
o,1723569062.728244,172.16.5.2,53711,172.16.1.2,5102,9000,29080,2086,64256,65728,6,6,4,1460,140000,1,16778208,370000,66348,63452,65700,0,26064,0,3375246015,63
i,1723569062.728441,172.16.5.2,53711,172.16.1.2,5102,9000,29080,2086,64256,65728,6,6,4,1460,140000,1,16778208,370000,66348,63452,65700,0,28960,0,3375246015,63
o,1723569062.728467,172.16.5.2,53711,172.16.1.2,5102,9000,29080,2086,62848,65728,6,6,4,1460,138750,1,16778208,370000,66348,60556,65700,0,26064,0,3375246015,63
i,1723569062.728669,172.16.5.2,53711,172.16.1.2,5102,9000,29080,2086,62848,65728,6,6,4,1460,138750,1,16778208,370000,66348,60556,65700,0,28960,0,3375246015,63
o,1723569062.728694,172.16.5.2,53711,172.16.1.2,5102,9000,30540,2086,62848,65728,6,6,4,1460,137812,1,16778208,370000,66348,57660,65700,0,26064,0,3375246015,63
o,1723569062.728849,172.16.5.2,53711,172.16.1.2,5102,9000,30540,2086,62848,65728,6,6,4,1460,137812,1,16778208,370000,66348,57660,65700,0,27512,0,3375246015,63
i,1723569062.763586,172.16.5.2,53711,172.16.1.2,5102,9000,30540,2086,62848,65728,6,6,4,1460,137812,1,16778208,370000,66348,66348,65700,0,30408,0,3375246015,63
o,1723569062.763632,172.16.5.2,53711,172.16.1.2,5102,9000,30540,2086,64256,65728,6,6,4,1460,140625,1,16778208,390000,66348,63452,65700,0,27512,0,3375246015,63
i,1723569062.763801,172.16.5.2,53711,172.16.1.2,5102,9000,30540,2086,64256,65728,6,6,4,1460,140625,1,16778208,390000,66348,63452,65700,0,30408,0,3375246015,63
o,1723569062.763820,172.16.5.2,53711,172.16.1.2,5102,9000,30540,2086,64256,65728,6,6,4,1460,143125,1,16778208,400000,66348,60556,65700,0,27512,0,3375246015,63
i,1723569062.763974,172.16.5.2,53711,172.16.1.2,5102,9000,30540,2086,64256,65728,6,6,4,1460,143125,1,16778208,400000,74540,60556,65700,0,30408,0,3375246015,63
o,1723569062.764006,172.16.5.2,53711,172.16.1.2,5102,9000,30540,2086,62848,65728,6,6,4,1460,140312,1,16778208,400000,74540,57660,65700,0,27512,0,3375246015,63
i,1723569062.774158,172.16.5.2,53711,172.16.1.2,5102,9000,30540,2086,62848,65728,6,6,4,1460,140312,1,16778208,400000,74540,74540,65700,0,30408,0,3375246015,63
o,1723569062.774215,172.16.5.2,53711,172.16.1.2,5102,9000,30540,2086,64256,65728,6,6,4,1460,139062,1,16778208,400000,74540,71644,65700,0,27512,0,3375246015,63
i,1723569062.784457,172.16.5.2,53711,172.16.1.2,5102,9000,30540,2086,64256,65728,6,6,4,1460,139062,1,16778208,400000,74540,74540,65700,0,30408,0,3375246015,63
o,1723569062.784539,172.16.5.2,53711,172.16.1.2,5102,9000,30540,2086,64256,65728,6,6,4,1460,139375,1,16778208,380000,74540,71644,65700,0,27512,0,3375246015,63
i,1723569062.847358,172.16.5.2,53711,172.16.1.2,5102,9000,30540,2086,64256,65728,6,6,4,1460,139375,1,16778208,380000,74540,74540,65700,0,30408,0,3375246015,63
o,1723569062.847394,172.16.5.2,53711,172.16.1.2,5102,9000,30540,2086,64256,65728,6,6,4,1460,138437,1,16778208,380000,74540,71644,65700,0,27512,0,3375246015,63
i,1723569062.847564,172.16.5.2,53711,172.16.1.2,5102,9000,30540,2086,64256,65728,6,6,4,1460,138437,1,16778208,380000,74540,71644,65700,0,30408,0,3375246015,63
o,1723569062.847583,172.16.5.2,53711,172.16.1.2,5102,9000,30540,2086,61376,65728,6,6,4,1460,137500,1,16778208,380000,74540,68748,65700,0,27512,0,3375246015,63
i,1723569062.850928,172.16.5.2,53711,172.16.1.2,5102,9000,30540,2086,61376,65728,6,6,4,1460,137500,1,16778208,380000,74540,74540,65700,0,30408,0,3375246015,63
o,1723569062.851020,172.16.5.2,53711,172.16.1.2,5102,9000,30540,2086,62848,65728,6,6,4,1460,135312,1,16778208,380000,74540,71644,65700,0,27512,0,3375246015,63
i,1723569062.851203,172.16.5.2,53711,172.16.1.2,5102,9000,30540,2086,62848,65728,6,6,4,1460,135312,1,16778208,380000,74540,71644,65700,0,30408,0,3375246015,63
o,1723569062.851224,172.16.5.2,53711,172.16.1.2,5102,9000,30540,2086,64256,65728,6,6,4,1460,133437,1,16778208,380000,74540,68748,65700,0,27512,0,3375246015,63
i,1723569062.892167,172.16.5.2,53711,172.16.1.2,5102,9000,30540,2086,64256,65728,6,6,4,1460,133437,1,16778208,380000,74540,74540,65700,0,30408,0,3375246015,63
o,1723569062.892255,172.16.5.2,53711,172.16.1.2,5102,9000,32000,2086,64256,65728,6,6,4,1460,136875,1,16778208,400000,74540,71644,65700,0,27512,0,3375246015,63
o,1723569062.892414,172.16.5.2,53711,172.16.1.2,5102,9000,32000,2086,64256,65728,6,6,4,1460,136875,1,16778208,400000,74540,71644,65700,0,28960,0,3375246015,63
i,1723569062.900650,172.16.5.2,53711,172.16.1.2,5102,9000,32000,2086,64256,65728,6,6,4,1460,136875,1,16778208,400000,74540,74540,65700,0,31856,0,3375246015,63
o,1723569062.900732,172.16.5.2,53711,172.16.1.2,5102,9000,32000,2086,64256,65728,6,6,4,1460,141250,1,16778208,420000,74540,71644,65700,0,28960,0,3375246015,63
i,1723569062.901551,172.16.5.2,53711,172.16.1.2,5102,9000,32000,2086,64256,65728,6,6,4,1460,141250,1,16778208,420000,74540,74540,65700,0,31856,0,3375246015,63
o,1723569062.901575,172.16.5.2,53711,172.16.1.2,5102,9000,32000,2086,61376,65728,6,6,4,1460,140000,1,16778208,410000,74540,71644,65700,0,28960,0,3375246015,63
i,1723569062.909304,172.16.5.2,53711,172.16.1.2,5102,9000,32000,2086,61376,65728,6,6,4,1460,140000,1,16778208,410000,74540,74540,65700,0,31856,0,3375246015,63
o,1723569062.909328,172.16.5.2,53711,172.16.1.2,5102,9000,32000,2086,64256,65728,6,6,4,1460,140000,1,16778208,400000,74540,71644,65700,0,28960,0,3375246015,63
i,1723569062.909506,172.16.5.2,53711,172.16.1.2,5102,9000,32000,2086,64256,65728,6,6,4,1460,140000,1,16778208,400000,74540,71644,65700,0,31856,0,3375246015,63
o,1723569062.909526,172.16.5.2,53711,172.16.1.2,5102,9000,32000,2086,64256,65728,6,6,4,1460,140000,1,16778208,380000,74540,68748,65700,0,28960,0,3375246015,63
i,1723569062.910212,172.16.5.2,53711,172.16.1.2,5102,9000,32000,2086,64256,65728,6,6,4,1460,140000,1,16778208,380000,74540,74540,65700,0,31856,0,3375246015,63
o,1723569062.910230,172.16.5.2,53711,172.16.1.2,5102,9000,32000,2086,64256,65728,6,6,4,1460,140000,1,16778208,370000,74540,71644,65700,0,28960,0,3375246015,63
i,1723569062.962148,172.16.5.2,53711,172.16.1.2,5102,9000,32000,2086,64256,65728,6,6,4,1460,140000,1,16778208,370000,74540,74540,65700,0,31856,0,3375246015,63
o,1723569062.962297,172.16.5.2,53711,172.16.1.2,5102,9000,32000,2086,65728,65728,6,6,4,1460,145000,1,16778208,410000,74540,73092,65700,0,30408,0,3375246015,63
i,1723569062.996791,172.16.5.2,53711,172.16.1.2,5102,9000,32000,2086,65728,65728,6,6,4,1460,145000,1,16778208,410000,74540,73092,65700,0,31856,0,3375246015,63
o,1723569062.996852,172.16.5.2,53711,172.16.1.2,5102,9000,32000,2086,95680,65728,6,6,4,1460,145625,1,16778208,400000,74540,70196,65700,0,28960,0,3375246015,63
i,1723569063.006768,172.16.5.2,53711,172.16.1.2,5102,9000,32000,2086,95680,65728,6,6,4,1460,145625,1,16778208,400000,74540,74540,65700,0,31856,0,3375246015,63
o,1723569063.006814,172.16.5.2,53711,172.16.1.2,5102,9000,32000,2086,95680,65728,6,6,4,1460,147500,1,16778208,400000,74540,71644,65700,0,28960,0,3375246015,63
i,1723569063.008240,172.16.5.2,53711,172.16.1.2,5102,9000,32000,2086,95680,65728,6,6,4,1460,147500,1,16778208,400000,74540,74540,65700,0,31856,0,3375246015,63
o,1723569063.008326,172.16.5.2,53711,172.16.1.2,5102,9000,32000,2086,95680,65728,6,6,4,1460,149062,1,16778208,400000,74540,71644,65700,0,28960,0,3375246015,63
i,1723569063.027138,172.16.5.2,53711,172.16.1.2,5102,9000,32000,2086,95680,65728,6,6,4,1460,149062,1,16778208,400000,74540,74540,65700,0,31856,0,3375246015,63
o,1723569063.027266,172.16.5.2,53711,172.16.1.2,5102,9000,32000,2086,95680,65728,6,6,4,1460,153125,1,16778208,430000,74540,71644,65700,0,28960,0,3375246015,63
i,1723569063.036784,172.16.5.2,53711,172.16.1.2,5102,9000,32000,2086,95680,65728,6,6,4,1460,153125,1,16778208,430000,74540,74540,65700,0,31856,0,3375246015,63
o,1723569063.036861,172.16.5.2,53711,172.16.1.2,5102,9000,32000,2086,97152,65728,6,6,4,1460,152812,1,16778208,410000,74540,71644,65700,0,28960,0,3375246015,63
o,1723569063.036980,172.16.5.2,53711,172.16.1.2,5102,9000,32000,2086,97152,65728,6,6,4,1460,152812,1,16778208,410000,74540,71644,65700,0,30408,0,3375246015,63
i,1723569063.060625,172.16.5.2,53711,172.16.1.2,5102,9000,32000,2086,97152,65728,6,6,4,1460,152812,1,16778208,410000,74540,74540,65700,0,31856,0,3375246015,63
o,1723569063.060661,172.16.5.2,53711,172.16.1.2,5102,9000,33460,2086,97152,65728,6,6,4,1460,155000,1,16778208,420000,74540,71644,65700,0,28960,0,3375246015,63
i,1723569063.060827,172.16.5.2,53711,172.16.1.2,5102,9000,33460,2086,97152,65728,6,6,4,1460,155000,1,16778208,420000,74540,71644,65700,0,33304,0,3375246015,63
o,1723569063.060844,172.16.5.2,53711,172.16.1.2,5102,9000,33460,2086,97152,65728,6,6,4,1460,155625,1,16778208,410000,74540,68748,65700,0,30408,0,3375246015,63
i,1723569063.070843,172.16.5.2,53711,172.16.1.2,5102,9000,33460,2086,97152,65728,6,6,4,1460,155625,1,16778208,410000,74540,74540,65700,0,33304,0,3375246015,63
o,1723569063.070883,172.16.5.2,53711,172.16.1.2,5102,9000,33460,2086,95680,65728,6,6,4,1460,157500,1,16778208,410000,74540,71644,65700,0,30408,0,3375246015,63
i,1723569063.071042,172.16.5.2,53711,172.16.1.2,5102,9000,33460,2086,95680,65728,6,6,4,1460,157500,1,16778208,410000,74540,71644,65700,0,33304,0,3375246015,63
o,1723569063.071060,172.16.5.2,53711,172.16.1.2,5102,9000,33460,2086,95680,65728,6,6,4,1460,157812,1,16778208,400000,74540,68748,65700,0,30408,0,3375246015,63
i,1723569063.071664,172.16.5.2,53711,172.16.1.2,5102,9000,33460,2086,95680,65728,6,6,4,1460,157812,1,16778208,400000,74540,74540,65700,0,33304,0,3375246015,63
o,1723569063.071732,172.16.5.2,53711,172.16.1.2,5102,9000,33460,2086,97152,65728,6,6,4,1460,158125,1,16778208,390000,74540,71644,65700,0,30408,0,3375246015,63
i,1723569063.100991,172.16.5.2,53711,172.16.1.2,5102,9000,33460,2086,97152,65728,6,6,4,1460,158125,1,16778208,390000,74540,74540,65700,0,33304,0,3375246015,63
o,1723569063.101026,172.16.5.2,53711,172.16.1.2,5102,9000,33460,2086,97152,65728,6,6,4,1460,162187,1,16778208,420000,74540,71644,65700,0,30408,0,3375246015,63
i,1723569063.121357,172.16.5.2,53711,172.16.1.2,5102,9000,33460,2086,97152,65728,6,6,4,1460,162187,1,16778208,420000,74540,74540,65700,0,33304,0,3375246015,63
o,1723569063.121430,172.16.5.2,53711,172.16.1.2,5102,9000,33460,2086,95680,65728,6,6,4,1460,155937,1,16778208,450000,74540,71644,65700,0,30408,0,3375246015,63
i,1723569063.131257,172.16.5.2,53711,172.16.1.2,5102,9000,33460,2086,95680,65728,6,6,4,1460,155937,1,16778208,450000,74540,74540,65700,0,33304,0,3375246015,63
o,1723569063.131275,172.16.5.2,53711,172.16.1.2,5102,9000,33460,2086,95680,65728,6,6,4,1460,151562,1,16778208,460000,74540,71644,65700,0,30408,0,3375246015,63
i,1723569063.131620,172.16.5.2,53711,172.16.1.2,5102,9000,33460,2086,95680,65728,6,6,4,1460,151562,1,16778208,460000,74540,71644,65700,0,33304,0,3375246015,63
o,1723569063.131655,172.16.5.2,53711,172.16.1.2,5102,9000,33460,2086,97152,65728,6,6,4,1460,147812,1,16778208,460000,74540,68748,65700,0,30408,0,3375246015,63
i,1723569063.151078,172.16.5.2,53711,172.16.1.2,5102,9000,33460,2086,97152,65728,6,6,4,1460,147812,1,16778208,460000,74540,74540,65700,0,33304,0,3375246015,63
o,1723569063.151172,172.16.5.2,53711,172.16.1.2,5102,9000,33460,2086,95680,65728,6,6,4,1460,144375,1,16778208,450000,74540,71644,65700,0,30408,0,3375246015,63
i,1723569063.188345,172.16.5.2,53711,172.16.1.2,5102,9000,33460,2086,95680,65728,6,6,4,1460,144375,1,16778208,450000,74540,74540,65700,0,33304,0,3375246015,63
o,1723569063.188374,172.16.5.2,53711,172.16.1.2,5102,9000,33460,2086,97152,65728,6,6,4,1460,145312,1,16778208,430000,74540,71644,65700,0,30408,0,3375246015,63
o,1723569063.188512,172.16.5.2,53711,172.16.1.2,5102,9000,33460,2086,97152,65728,6,6,4,1460,145312,1,16778208,430000,74540,71644,65700,0,31856,0,3375246015,63
i,1723569063.189340,172.16.5.2,53711,172.16.1.2,5102,9000,33460,2086,97152,65728,6,6,4,1460,145312,1,16778208,430000,74540,74540,65700,0,33304,0,3375246015,63
o,1723569063.189404,172.16.5.2,53711,172.16.1.2,5102,9000,34920,2086,95680,65728,6,6,4,1460,143437,1,16778208,420000,74540,71644,65700,0,30408,0,3375246015,63
i,1723569063.199455,172.16.5.2,53711,172.16.1.2,5102,9000,34920,2086,95680,65728,6,6,4,1460,143437,1,16778208,420000,74540,74540,65700,0,34752,0,3375246015,63
o,1723569063.199479,172.16.5.2,53711,172.16.1.2,5102,9000,34920,2086,97152,65728,6,6,4,1460,143125,1,16778208,410000,74540,71644,65700,0,31856,0,3375246015,63
i,1723569063.199654,172.16.5.2,53711,172.16.1.2,5102,9000,34920,2086,97152,65728,6,6,4,1460,143125,1,16778208,410000,74540,71644,65700,0,34752,0,3375246015,63
o,1723569063.199674,172.16.5.2,53711,172.16.1.2,5102,9000,34920,2086,97152,65728,6,6,4,1460,142812,1,16778208,390000,74540,68748,65700,0,31856,0,3375246015,63
i,1723569063.199847,172.16.5.2,53711,172.16.1.2,5102,9000,34920,2086,97152,65728,6,6,4,1460,142812,1,16778208,390000,82732,68748,65700,0,34752,0,3375246015,63
o,1723569063.199866,172.16.5.2,53711,172.16.1.2,5102,9000,34920,2086,97152,65728,6,6,4,1460,141250,1,16778208,390000,82732,65852,65700,0,31856,0,3375246015,63
i,1723569063.216211,172.16.5.2,53711,172.16.1.2,5102,9000,34920,2086,97152,65728,6,6,4,1460,141250,1,16778208,390000,82732,82732,65700,0,34752,0,3375246015,63
o,1723569063.216293,172.16.5.2,53711,172.16.1.2,5102,9000,34920,2086,97152,65728,6,6,4,1460,142500,1,16778208,390000,82732,79836,65700,0,31856,0,3375246015,63
i,1723569063.222496,172.16.5.2,53711,172.16.1.2,5102,9000,34920,2086,97152,65728,6,6,4,1460,142500,1,16778208,390000,82732,82732,65700,0,34752,0,3375246015,63
o,1723569063.222522,172.16.5.2,53711,172.16.1.2,5102,9000,34920,2086,97152,65728,6,6,4,1460,143437,1,16778208,390000,82732,79836,65700,0,31856,0,3375246015,63
i,1723569063.248007,172.16.5.2,53711,172.16.1.2,5102,9000,34920,2086,97152,65728,6,6,4,1460,143437,1,16778208,390000,82732,82732,65700,0,34752,0,3375246015,63
o,1723569063.248043,172.16.5.2,53711,172.16.1.2,5102,9000,34920,2086,97152,65728,6,6,4,1460,144375,1,16778208,380000,82732,79836,65700,0,31856,0,3375246015,63
i,1723569063.248279,172.16.5.2,53711,172.16.1.2,5102,9000,34920,2086,97152,65728,6,6,4,1460,144375,1,16778208,380000,82732,79836,65700,0,34752,0,3375246015,63
o,1723569063.248298,172.16.5.2,53711,172.16.1.2,5102,9000,34920,2086,94272,65728,6,6,4,1460,142812,1,16778208,390000,82732,76940,65700,0,31856,0,3375246015,63
i,1723569063.256291,172.16.5.2,53711,172.16.1.2,5102,9000,34920,2086,94272,65728,6,6,4,1460,142812,1,16778208,390000,82732,82732,65700,0,34752,0,3375246015,63
o,1723569063.256340,172.16.5.2,53711,172.16.1.2,5102,9000,34920,2086,97152,65728,6,6,4,1460,141250,1,16778208,390000,82732,79836,65700,0,31856,0,3375246015,63
i,1723569063.292166,172.16.5.2,53711,172.16.1.2,5102,9000,34920,2086,97152,65728,6,6,4,1460,141250,1,16778208,390000,82732,82732,65700,0,34752,0,3375246015,63
o,1723569063.292199,172.16.5.2,53711,172.16.1.2,5102,9000,34920,2086,97152,65728,6,6,4,1460,143750,1,16778208,400000,82732,79836,65700,0,31856,0,3375246015,63
i,1723569063.302172,172.16.5.2,53711,172.16.1.2,5102,9000,34920,2086,97152,65728,6,6,4,1460,143750,1,16778208,400000,82732,82732,65700,0,34752,0,3375246015,63
o,1723569063.302200,172.16.5.2,53711,172.16.1.2,5102,9000,34920,2086,97152,65728,6,6,4,1460,144687,1,16778208,390000,82732,79836,65700,0,31856,0,3375246015,63
o,1723569063.302319,172.16.5.2,53711,172.16.1.2,5102,9000,34920,2086,97152,65728,6,6,4,1460,144687,1,16778208,390000,82732,79836,65700,0,33304,0,3375246015,63
i,1723569063.302488,172.16.5.2,53711,172.16.1.2,5102,9000,34920,2086,97152,65728,6,6,4,1460,144687,1,16778208,390000,82732,79836,65700,0,34752,0,3375246015,63
o,1723569063.302511,172.16.5.2,53711,172.16.1.2,5102,9000,34920,2086,95680,65728,6,6,4,1460,140625,1,16778208,410000,82732,76940,65700,0,31856,0,3375246015,63
i,1723569063.311351,172.16.5.2,53711,172.16.1.2,5102,9000,34920,2086,95680,65728,6,6,4,1460,140625,1,16778208,410000,82732,82732,65700,0,34752,0,3375246015,63
