enable_time_secs=1723568882	enable_time_usecs=045500	siftrver=1.3.0	sysname=FreeBSD	sysver=1401000	ipmode=4
o,1723568882.045748,10.0.2.15,22,10.0.2.2,50598,1073725440,17746,1026,65535,65700,0,0,4,1460,312,0,16777220,240000,33580,164,65700,0,0,0,2244608617,63
i,1723568882.046271,10.0.2.15,22,10.0.2.2,50598,1073725440,17746,1026,65535,65700,0,0,4,1460,312,0,16777220,240000,33580,164,65700,0,164,0,2244608617,63
o,1723568882.046370,10.0.2.15,22,10.0.2.2,50598,1073725440,17910,1026,65535,65700,0,0,4,1460,312,0,16777220,240000,33580,44,65700,0,0,0,2244608617,63
o,1723568882.046542,10.0.2.15,22,10.0.2.2,50598,1073725440,17910,1026,65535,65700,0,0,4,1460,312,0,16777220,240000,33580,116,65700,0,44,0,2244608617,63
i,1723568882.046781,10.0.2.15,22,10.0.2.2,50598,1073725440,17910,1026,65535,65700,0,0,4,1460,312,0,16777220,240000,33580,116,65700,0,116,0,2244608617,63
i,1723568882.046797,10.0.2.15,22,10.0.2.2,50598,1073725440,17954,1026,65535,65700,0,0,4,1460,312,0,4,240000,33580,72,65700,0,72,0,2244608617,63
i,1723568882.047323,10.0.2.15,22,10.0.2.2,50598,1073725440,18026,1026,65535,65700,0,0,4,1460,312,0,4,240000,33580,0,65700,0,0,0,2244608617,63
i,1723568882.047342,10.0.2.15,22,10.0.2.2,50598,1073725440,18026,1026,65535,65700,0,0,4,1460,312,0,4,240000,33580,0,65700,96,0,0,2244608617,63
o,1723568882.047360,10.0.2.15,22,10.0.2.2,50598,1073725440,18026,1026,65535,65604,0,0,5,1460,312,0,5,240000,33580,0,65700,96,0,0,2244608617,63
o,1723568882.048037,10.0.2.15,22,10.0.2.2,50598,1073725440,18026,1026,65535,65604,0,0,8,1460,312,0,4,240000,33580,0,65700,0,0,0,2244608617,63
i,1723568882.048796,10.0.2.15,22,10.0.2.2,50598,1073725440,18026,1026,65535,65604,0,0,8,1460,312,0,67108884,240000,33580,0,65700,0,1,0,2244608617,63
i,1723568885.212354,10.0.2.15,22,10.0.2.2,50506,1073725440,14600,0,65535,65700,0,0,4,1460,312,0,16777216,270000,33580,0,65700,0,0,0,1263411658,63
o,1723568885.226808,10.0.2.15,22,10.0.2.2,50506,1073725440,14600,1026,65535,65700,0,0,4,1460,312,0,16777216,270000,33580,38,65700,42,0,0,1263411658,63
i,1723568885.228114,10.0.2.15,22,10.0.2.2,50506,1073725440,14600,1026,65535,65700,0,0,4,1460,312,0,16777216,270000,33580,38,65700,0,38,0,1263411658,63
i,1723568885.228149,10.0.2.15,22,10.0.2.2,50506,1073725440,14638,1026,65535,65700,0,0,4,1460,312,0,0,240000,33580,0,65700,0,0,0,1263411658,63
i,1723568885.228169,10.0.2.15,22,10.0.2.2,50506,1073725440,14638,1026,65535,65700,0,0,4,1460,312,0,0,240000,33580,0,65700,1460,0,0,1263411658,63
o,1723568885.228197,10.0.2.15,22,10.0.2.2,50506,1073725440,14638,1026,65535,65700,0,0,4,1460,312,0,1,240000,33580,0,65700,1536,0,0,1263411658,63
o,1723568885.229434,10.0.2.15,22,10.0.2.2,50506,1073725440,14638,1026,65535,65700,0,0,4,1460,312,0,16777216,240000,33580,1120,65700,1536,0,0,1263411658,63
i,1723568885.229855,10.0.2.15,22,10.0.2.2,50506,1073725440,14638,1026,65535,65700,0,0,4,1460,312,0,16777216,240000,33580,1120,65700,0,1120,0,1263411658,63
i,1723568885.231346,10.0.2.15,22,10.0.2.2,50506,1073725440,15758,1026,65535,65700,0,0,4,1460,312,0,0,240000,33580,0,65700,0,0,0,1263411658,63
o,1723568885.235633,10.0.2.15,22,10.0.2.2,50506,1073725440,15758,1026,65535,65700,0,0,4,1460,312,0,16777216,240000,33580,492,65700,0,0,0,1263411658,63
i,1723568885.236718,10.0.2.15,22,10.0.2.2,50506,1073725440,15758,1026,65535,65700,0,0,4,1460,312,0,16777216,240000,33580,492,65700,0,492,0,1263411658,63
i,1723568885.241355,10.0.2.15,22,10.0.2.2,50506,1073725440,16250,1026,65535,65700,0,0,4,1460,312,0,0,240000,33580,0,65700,0,0,0,1263411658,63
i,1723568885.241397,10.0.2.15,22,10.0.2.2,50506,1073725440,16250,1026,65535,65700,0,0,4,1460,312,0,0,240000,33580,0,65700,16,0,0,1263411658,63
o,1723568885.241416,10.0.2.15,22,10.0.2.2,50506,1073725440,16250,1026,65535,65700,0,0,4,1460,312,0,1,240000,33580,0,65700,60,0,0,1263411658,63
o,1723568885.241683,10.0.2.15,22,10.0.2.2,50506,1073725440,16250,1026,65535,65700,0,0,4,1460,312,0,16777216,240000,33580,44,65700,0,0,0,1263411658,63
i,1723568885.242618,10.0.2.15,22,10.0.2.2,50506,1073725440,16250,1026,65535,65700,0,0,4,1460,312,0,16777216,240000,33580,44,65700,0,44,0,1263411658,63
i,1723568885.242651,10.0.2.15,22,10.0.2.2,50506,1073725440,16294,1026,65535,65700,0,0,4,1460,312,0,0,240000,33580,0,65700,0,0,0,1263411658,63
o,1723568885.244545,10.0.2.15,22,10.0.2.2,50506,1073725440,16294,1026,65535,65700,0,0,4,1460,312,0,16777216,240000,33580,68,65700,0,0,0,1263411658,63
i,1723568885.245034,10.0.2.15,22,10.0.2.2,50506,1073725440,16294,1026,65535,65700,0,0,4,1460,312,0,16777216,240000,33580,68,65700,0,68,0,1263411658,63
i,1723568885.245060,10.0.2.15,22,10.0.2.2,50506,1073725440,16362,1026,65535,65700,0,0,4,1460,312,0,0,240000,33580,0,65700,0,0,0,1263411658,63
o,1723568885.247459,10.0.2.15,22,10.0.2.2,50506,1073725440,16362,1026,65535,65700,0,0,4,1460,312,0,16777216,240000,33580,332,65700,0,0,0,1263411658,63
i,1723568885.248497,10.0.2.15,22,10.0.2.2,50506,1073725440,16362,1026,65535,65700,0,0,4,1460,312,0,16777216,240000,33580,332,65700,0,332,0,1263411658,63
i,1723568885.250345,10.0.2.15,22,10.0.2.2,50506,1073725440,16694,1026,65535,65700,0,0,4,1460,312,0,0,240000,33580,0,65700,0,0,0,1263411658,63
o,1723568885.266848,10.0.2.15,22,10.0.2.2,50506,1073725440,16694,1026,65535,65700,0,0,4,1460,312,0,16777216,240000,33580,28,65700,0,0,0,1263411658,63
i,1723568885.267534,10.0.2.15,22,10.0.2.2,50506,1073725440,16694,1026,65535,65700,0,0,4,1460,312,0,16777216,240000,33580,28,65700,0,28,0,1263411658,63
i,1723568885.267586,10.0.2.15,22,10.0.2.2,50506,1073725440,16722,1026,65535,65700,0,0,4,1460,312,0,0,240000,33580,0,65700,0,0,0,1263411658,63
o,1723568885.268994,10.0.2.15,22,10.0.2.2,50506,1073725440,16722,1026,65535,65700,0,0,4,1460,312,0,16777216,240000,33580,768,65700,112,0,0,1263411658,63
i,1723568885.270429,10.0.2.15,22,10.0.2.2,50506,1073725440,16722,1026,65535,65700,0,0,4,1460,312,0,16777216,240000,33580,908,65700,112,768,0,1263411658,63
o,1723568885.270472,10.0.2.15,22,10.0.2.2,50506,1073725440,17490,1026,65535,65700,0,0,4,1460,312,0,16777216,240000,33580,140,65700,112,0,0,1263411658,63
i,1723568885.270910,10.0.2.15,22,10.0.2.2,50506,1073725440,17490,1026,65535,65700,0,0,4,1460,312,0,16777216,240000,33580,140,65700,112,140,0,1263411658,63
o,1723568885.271237,10.0.2.15,22,10.0.2.2,50506,1073725440,17630,1026,65535,65700,0,0,4,1460,312,0,16777216,240000,33580,44,65700,0,0,0,1263411658,63
i,1723568885.272036,10.0.2.15,22,10.0.2.2,50506,1073725440,17630,1026,65535,65700,0,0,4,1460,312,0,16777216,240000,33580,44,65700,0,44,0,1263411658,63
i,1723568885.272067,10.0.2.15,22,10.0.2.2,50506,1073725440,17674,1026,65535,65700,0,0,4,1460,312,0,0,240000,33580,0,65700,0,0,0,1263411658,63
o,1723568885.273118,10.0.2.15,22,10.0.2.2,50506,1073725440,17674,1026,65535,65700,0,0,4,1460,312,0,16777220,240000,33580,72,65700,0,0,0,1263411658,63
i,1723568885.274179,10.0.2.15,22,10.0.2.2,50506,1073725440,17674,1026,65535,65700,0,0,4,1460,312,0,16777220,240000,33580,72,65700,0,72,0,1263411658,63
o,1723568885.276956,10.0.2.15,22,10.0.2.2,50506,1073725440,17746,1026,65535,65700,0,0,4,1460,312,0,16777220,240000,33580,104,65700,0,0,0,1263411658,63
i,1723568885.277526,10.0.2.15,22,10.0.2.2,50506,1073725440,17746,1026,65535,65700,0,0,4,1460,312,0,16777220,240000,33580,104,65700,0,104,0,1263411658,63
o,1723568885.280595,10.0.2.15,22,10.0.2.2,50506,1073725440,17850,1026,65535,65700,0,0,4,1460,312,0,16777220,240000,33580,72,65700,0,0,0,1263411658,63
i,1723568885.283173,10.0.2.15,22,10.0.2.2,50506,1073725440,17850,1026,65535,65700,0,0,4,1460,312,0,16777220,240000,33580,72,65700,0,72,0,1263411658,63
i,1723568885.283242,10.0.2.15,22,10.0.2.2,50506,1073725440,17922,1026,65535,65700,0,0,4,1460,312,0,4,240000,33580,0,65700,0,0,0,1263411658,63
i,1723568885.283285,10.0.2.15,22,10.0.2.2,50506,1073725440,17922,1026,65535,65700,0,0,4,1460,312,0,4,240000,33580,0,65700,96,0,0,1263411658,63
o,1723568885.283328,10.0.2.15,22,10.0.2.2,50506,1073725440,17922,1026,65535,65604,0,0,5,1460,312,0,5,240000,33580,0,65700,96,0,0,1263411658,63
o,1723568885.294940,10.0.2.15,22,10.0.2.2,50506,1073725440,17922,1026,65535,65604,0,0,8,1460,312,0,4,240000,33580,0,65700,0,0,0,1263411658,63
i,1723568885.295832,10.0.2.15,22,10.0.2.2,50506,1073725440,17922,1026,65535,65604,0,0,8,1460,312,0,67108884,240000,33580,0,65700,0,1,0,1263411658,63
i,1723568886.315276,10.0.2.15,22,10.0.2.2,50508,1073725440,14600,0,65535,65700,0,0,4,1460,312,0,16777216,260000,33580,0,65700,0,0,0,3016930256,63
o,1723568886.330534,10.0.2.15,22,10.0.2.2,50508,1073725440,14600,1026,65535,65700,0,0,4,1460,312,0,16777216,260000,33580,38,65700,42,0,0,3016930256,63
i,1723568886.331221,10.0.2.15,22,10.0.2.2,50508,1073725440,14600,1026,65535,65700,0,0,4,1460,312,0,16777216,260000,33580,38,65700,0,38,0,3016930256,63
i,1723568886.331257,10.0.2.15,22,10.0.2.2,50508,1073725440,14638,1026,65535,65700,0,0,4,1460,312,0,0,230000,33580,0,65700,0,0,0,3016930256,63
i,1723568886.331279,10.0.2.15,22,10.0.2.2,50508,1073725440,14638,1026,65535,65700,0,0,4,1460,312,0,0,230000,33580,0,65700,1460,0,0,3016930256,63
o,1723568886.331305,10.0.2.15,22,10.0.2.2,50508,1073725440,14638,1026,65535,65700,0,0,4,1460,312,0,1,230000,33580,0,65700,1536,0,0,3016930256,63
o,1723568886.332875,10.0.2.15,22,10.0.2.2,50508,1073725440,14638,1026,65535,65700,0,0,4,1460,312,0,16777216,230000,33580,1120,65700,1536,0,0,3016930256,63
i,1723568886.333739,10.0.2.15,22,10.0.2.2,50508,1073725440,14638,1026,65535,65700,0,0,4,1460,312,0,16777216,230000,33580,1120,65700,0,1120,0,3016930256,63
i,1723568886.334996,10.0.2.15,22,10.0.2.2,50508,1073725440,15758,1026,65535,65700,0,0,4,1460,312,0,0,230000,33580,0,65700,0,0,0,3016930256,63
o,1723568886.336487,10.0.2.15,22,10.0.2.2,50508,1073725440,15758,1026,65535,65700,0,0,4,1460,312,0,16777216,230000,33580,492,65700,0,0,0,3016930256,63
i,1723568886.337501,10.0.2.15,22,10.0.2.2,50508,1073725440,15758,1026,65535,65700,0,0,4,1460,312,0,16777216,230000,33580,492,65700,0,492,0,3016930256,63
i,1723568886.342313,10.0.2.15,22,10.0.2.2,50508,1073725440,16250,1026,65535,65700,0,0,4,1460,312,0,0,240000,33580,0,65700,0,0,0,3016930256,63
i,1723568886.342348,10.0.2.15,22,10.0.2.2,50508,1073725440,16250,1026,65535,65700,0,0,4,1460,312,0,0,240000,33580,0,65700,16,0,0,3016930256,63
o,1723568886.342375,10.0.2.15,22,10.0.2.2,50508,1073725440,16250,1026,65535,65700,0,0,4,1460,312,0,1,240000,33580,0,65700,60,0,0,3016930256,63
o,1723568886.342626,10.0.2.15,22,10.0.2.2,50508,1073725440,16250,1026,65535,65700,0,0,4,1460,312,0,16777216,240000,33580,44,65700,0,0,0,3016930256,63
i,1723568886.343595,10.0.2.15,22,10.0.2.2,50508,1073725440,16250,1026,65535,65700,0,0,4,1460,312,0,16777216,240000,33580,44,65700,0,44,0,3016930256,63
i,1723568886.343620,10.0.2.15,22,10.0.2.2,50508,1073725440,16294,1026,65535,65700,0,0,4,1460,312,0,0,240000,33580,0,65700,0,0,0,3016930256,63
o,1723568886.346244,10.0.2.15,22,10.0.2.2,50508,1073725440,16294,1026,65535,65700,0,0,4,1460,312,0,16777216,240000,33580,68,65700,0,0,0,3016930256,63
i,1723568886.346785,10.0.2.15,22,10.0.2.2,50508,1073725440,16294,1026,65535,65700,0,0,4,1460,312,0,16777216,240000,33580,68,65700,0,68,0,3016930256,63
i,1723568886.346806,10.0.2.15,22,10.0.2.2,50508,1073725440,16362,1026,65535,65700,0,0,4,1460,312,0,0,240000,33580,0,65700,0,0,0,3016930256,63
o,1723568886.348332,10.0.2.15,22,10.0.2.2,50508,1073725440,16362,1026,65535,65700,0,0,4,1460,312,0,16777216,240000,33580,332,65700,0,0,0,3016930256,63
i,1723568886.349411,10.0.2.15,22,10.0.2.2,50508,1073725440,16362,1026,65535,65700,0,0,4,1460,312,0,16777216,240000,33580,332,65700,0,332,0,3016930256,63
i,1723568886.350536,10.0.2.15,22,10.0.2.2,50508,1073725440,16694,1026,65535,65700,0,0,4,1460,312,0,0,240000,33580,0,65700,0,0,0,3016930256,63
o,1723568886.367717,10.0.2.15,22,10.0.2.2,50508,1073725440,16694,1026,65535,65700,0,0,4,1460,312,0,16777216,240000,33580,28,65700,0,0,0,3016930256,63
i,1723568886.368434,10.0.2.15,22,10.0.2.2,50508,1073725440,16694,1026,65535,65700,0,0,4,1460,312,0,16777216,240000,33580,28,65700,0,28,0,3016930256,63
i,1723568886.368514,10.0.2.15,22,10.0.2.2,50508,1073725440,16722,1026,65535,65700,0,0,4,1460,312,0,0,240000,33580,0,65700,0,0,0,3016930256,63
o,1723568886.371076,10.0.2.15,22,10.0.2.2,50508,1073725440,16722,1026,65535,65700,0,0,4,1460,312,0,16777216,240000,33580,768,65700,112,0,0,3016930256,63
i,1723568886.373060,10.0.2.15,22,10.0.2.2,50508,1073725440,16722,1026,65535,65700,0,0,4,1460,312,0,16777216,240000,33580,908,65700,112,768,0,3016930256,63
o,1723568886.373101,10.0.2.15,22,10.0.2.2,50508,1073725440,17490,1026,65535,65700,0,0,4,1460,312,0,16777216,240000,33580,140,65700,112,0,0,3016930256,63
i,1723568886.373709,10.0.2.15,22,10.0.2.2,50508,1073725440,17490,1026,65535,65700,0,0,4,1460,312,0,16777216,240000,33580,140,65700,112,140,0,3016930256,63
o,1723568886.374102,10.0.2.15,22,10.0.2.2,50508,1073725440,17630,1026,65535,65700,0,0,4,1460,312,0,16777216,240000,33580,44,65700,0,0,0,3016930256,63
i,1723568886.374909,10.0.2.15,22,10.0.2.2,50508,1073725440,17630,1026,65535,65700,0,0,4,1460,312,0,16777216,240000,33580,44,65700,0,44,0,3016930256,63
i,1723568886.374929,10.0.2.15,22,10.0.2.2,50508,1073725440,17674,1026,65535,65700,0,0,4,1460,312,0,0,240000,33580,0,65700,0,0,0,3016930256,63
o,1723568886.375901,10.0.2.15,22,10.0.2.2,50508,1073725440,17674,1026,65535,65700,0,0,4,1460,312,0,16777220,240000,33580,72,65700,0,0,0,3016930256,63
i,1723568886.376554,10.0.2.15,22,10.0.2.2,50508,1073725440,17674,1026,65535,65700,0,0,4,1460,312,0,16777220,240000,33580,72,65700,0,72,0,3016930256,63
o,1723568886.507084,172.16.5.2,30497,172.16.1.2,5102,9000,14480,2082,65535,65700,6,6,4,1460,239375,1,16778209,720000,33580,0,65700,0,0,0,2461593059,63
o,1723568886.507672,172.16.5.2,30497,172.16.1.2,5102,9000,14480,2082,65535,65700,6,6,4,1460,239375,1,16778212,720000,33580,37,65700,0,0,0,2461593059,63
i,1723568886.638799,172.16.5.2,30497,172.16.1.2,5102,9000,14480,2082,65535,65700,6,6,4,1460,239375,1,16778212,720000,33580,37,65700,0,37,0,2461593059,63
o,1723568886.639137,172.16.5.2,30497,172.16.1.2,5102,9000,14480,3106,65728,65728,6,6,4,1460,225937,1,16778212,740000,33580,4,65700,0,0,0,2461593059,63
o,1723568886.639538,172.16.5.2,30497,172.16.1.2,5102,9000,14480,3106,65728,65728,6,6,4,1460,225937,1,16778212,740000,33580,130,65700,0,4,0,2461593059,63
i,1723568886.763283,172.16.5.2,30497,172.16.1.2,5102,9000,14480,3106,65728,65728,6,6,4,1460,225937,1,16778212,740000,33580,130,65700,0,130,0,2461593059,63
i,1723568886.763327,172.16.5.2,30497,172.16.1.2,5102,9000,14480,3106,65600,65728,6,6,4,1460,212812,1,996,760000,33580,0,65700,0,0,0,2461593059,63
o,1723568886.812211,172.16.5.2,30497,172.16.1.2,5102,9000,14480,3106,65728,65728,6,6,4,1460,212812,1,997,760000,33580,0,65700,0,0,0,2461593059,63
o,1723568886.893377,172.16.5.2,55756,172.16.1.2,5102,9000,14480,2082,65535,65700,6,6,4,1460,240625,1,16778209,710000,33580,0,65700,0,0,0,2223867986,63
o,1723568886.893506,172.16.5.2,55756,172.16.1.2,5102,9000,14480,2082,65535,65700,6,6,4,1460,240625,1,16778208,710000,33580,37,65700,0,0,0,2223867986,63
i,1723568887.016833,172.16.5.2,30497,172.16.1.2,5102,9000,14480,3106,65728,65728,6,6,4,1460,212812,1,996,760000,33580,0,65700,0,0,0,2461593059,63
i,1723568887.016967,172.16.5.2,30497,172.16.1.2,5102,9000,14480,3106,65728,65728,6,6,4,1460,212812,1,996,760000,33580,0,65700,1,0,0,2461593059,63
o,1723568887.016998,172.16.5.2,30497,172.16.1.2,5102,9000,14480,3106,65728,65728,6,6,4,1460,212812,1,997,760000,33580,0,65700,2,0,0,2461593059,63
o,1723568887.017755,172.16.5.2,55756,172.16.1.2,5102,9000,14480,2086,65535,65700,6,6,4,1460,240625,1,16778208,710000,33580,33580,65700,0,37,0,2223867986,63
i,1723568887.053482,172.16.5.2,55756,172.16.1.2,5102,9000,14480,2086,65535,65700,6,6,4,1460,240625,1,16778208,710000,33580,33580,65700,0,13069,0,2223867986,63
o,1723568887.053526,172.16.5.2,55756,172.16.1.2,5102,9000,14480,2082,65728,65728,6,6,4,1460,230625,1,16778208,710000,33580,33543,65700,0,13032,0,2223867986,63
i,1723568887.439263,172.16.5.2,55756,172.16.1.2,5102,9000,14480,2082,65728,65728,6,6,4,1460,230625,1,16778208,710000,33580,33543,65700,0,14480,0,2223867986,63
o,1723568887.439322,172.16.5.2,55756,172.16.1.2,5102,9000,14480,2086,64256,65728,6,6,4,1460,254375,1,16778208,860000,33580,30647,65700,0,11584,0,2223867986,63
i,1723568887.507269,172.16.5.2,55756,172.16.1.2,5102,9000,14480,2086,64256,65728,6,6,4,1460,254375,1,16778208,860000,33580,33580,65700,0,14480,0,2223867986,63
o,1723568887.507319,172.16.5.2,55756,172.16.1.2,5102,9000,14480,2082,65728,65728,6,6,4,1460,284062,1,16778208,1020000,33580,32132,65700,0,13032,0,2223867986,63
i,1723568887.535264,172.16.5.2,55756,172.16.1.2,5102,9000,14480,2082,65728,65728,6,6,4,1460,284062,1,16778208,1020000,33580,32132,65700,0,14480,0,2223867986,63
o,1723568887.535610,172.16.5.2,55756,172.16.1.2,5102,9000,14480,2086,64256,65728,6,6,4,1460,312500,1,16778208,1150000,33580,29236,65700,0,11584,0,2223867986,63
i,1723568887.585937,172.16.5.2,55756,172.16.1.2,5102,9000,14480,2086,64256,65728,6,6,4,1460,312500,1,16778208,1150000,33580,33580,65700,0,14480,0,2223867986,63
o,1723568887.586048,172.16.5.2,55756,172.16.1.2,5102,9000,14480,2082,65728,65728,6,6,4,1460,344687,1,16778208,1280000,33580,32132,65700,0,13032,0,2223867986,63
i,1723568887.607049,172.16.5.2,55756,172.16.1.2,5102,9000,14480,2082,65728,65728,6,6,4,1460,344687,1,16778208,1280000,33580,32132,65700,0,14480,0,2223867986,63
o,1723568887.607082,172.16.5.2,55756,172.16.1.2,5102,9000,14480,2086,64256,65728,6,6,4,1460,375625,1,16778208,1370000,33580,29236,65700,0,11584,0,2223867986,63
i,1723568887.659985,172.16.5.2,55756,172.16.1.2,5102,9000,14480,2086,64256,65728,6,6,4,1460,375625,1,16778208,1370000,33580,33580,65700,0,14480,0,2223867986,63
o,1723568887.660082,172.16.5.2,55756,172.16.1.2,5102,9000,15940,2086,64256,65728,6,6,4,1460,408750,1,16778208,1470000,33580,30684,65700,0,11584,0,2223867986,63
o,1723568887.660226,172.16.5.2,55756,172.16.1.2,5102,9000,15940,2086,64256,65728,6,6,4,1460,408750,1,16778208,1470000,33580,30684,65700,0,13032,0,2223867986,63
i,1723568887.936272,172.16.5.2,55756,172.16.1.2,5102,9000,15940,2086,64256,65728,6,6,4,1460,408750,1,16778208,1470000,41772,41772,65700,0,15928,0,2223867986,63
o,1723568887.936335,172.16.5.2,55756,172.16.1.2,5102,9000,17376,2082,64256,65728,6,6,4,1460,408750,1,16778208,1470000,41772,41772,65700,0,15928,0,2223867986,63
i,1723568888.019347,172.16.5.2,55756,172.16.1.2,5102,9000,15940,2082,64256,65728,6,6,4,1460,408750,1,16778208,1470000,41772,41772,65700,0,17376,0,2223867986,63
o,1723568888.019383,172.16.5.2,55756,172.16.1.2,5102,9000,18824,2082,64256,65728,6,6,4,1460,408750,1,16778208,1470000,41772,41772,65700,0,17376,0,2223867986,63
i,1723568888.071758,172.16.5.2,55756,172.16.1.2,5102,9000,15940,2082,64256,65728,6,6,4,1460,408750,1,16778208,1470000,41772,41772,65700,0,18824,0,2223867986,63
o,1723568888.071790,172.16.5.2,55756,172.16.1.2,5102,7970,1448,2146,64256,65728,6,6,4,1460,408750,1,554697696,1470000,41772,41772,65700,0,18824,0,2223867986,63
i,1723568888.114280,172.16.5.2,55756,172.16.1.2,5102,7970,1448,2146,64256,65728,6,6,4,1460,408750,1,554697696,1470000,41772,41772,65700,0,18824,0,2223867986,63
i,1723568888.150633,172.16.5.2,55756,172.16.1.2,5102,7970,1448,2146,64256,65728,6,6,4,1460,408750,1,554697696,1470000,41772,41772,65700,0,18824,0,2223867986,63
o,1723568888.150672,172.16.5.2,55756,172.16.1.2,5102,7970,2896,2146,64256,65728,6,6,4,1460,408750,1,554697696,1470000,41772,41772,65700,0,18824,0,2223867986,63
i,1723568888.177002,172.16.5.2,55756,172.16.1.2,5102,7970,2896,2146,64256,65728,6,6,4,1460,408750,1,554697696,1470000,41772,41772,65700,0,18824,0,2223867986,63
i,1723568888.227047,172.16.5.2,55756,172.16.1.2,5102,7970,2896,2146,64256,65728,6,6,4,1460,408750,1,537920480,1470000,41772,41772,65700,0,18824,0,2223867986,63
o,1723568888.227077,172.16.5.2,55756,172.16.1.2,5102,7970,4344,2146,64256,65728,6,6,4,1460,408750,1,554697696,1470000,41772,41772,65700,0,18824,0,2223867986,63
i,1723568888.297975,172.16.5.2,55756,172.16.1.2,5102,7970,4344,2146,64256,65728,6,6,4,1460,408750,1,554697696,1470000,41772,41772,65700,0,18824,0,2223867986,63
i,1723568888.357743,172.16.5.2,55756,172.16.1.2,5102,7970,4344,2146,64256,65728,6,6,4,1460,408750,1,554697696,1470000,41772,41772,65700,0,18824,0,2223867986,63
i,1723568888.408645,172.16.5.2,55756,172.16.1.2,5102,7970,2896,2146,64256,65728,6,6,4,1460,408750,1,537920480,1470000,41772,41772,65700,0,18824,0,2223867986,63
o,1723568888.408677,172.16.5.2,55756,172.16.1.2,5102,7970,2896,2146,64256,65728,6,6,4,1460,408750,1,554697696,1470000,41772,41772,65700,0,18824,0,2223867986,63
i,1723568888.566921,172.16.5.2,55756,172.16.1.2,5102,7970,2896,2146,64256,65728,6,6,4,1460,408750,1,554697696,1470000,41772,41772,65700,0,18824,0,2223867986,63
o,1723568888.566953,172.16.5.2,55756,172.16.1.2,5102,7970,4344,2146,64256,65728,6,6,4,1460,408750,1,554697696,1470000,41772,41772,65700,0,18824,0,2223867986,63
o,1723568888.567080,172.16.5.2,55756,172.16.1.2,5102,7970,4344,2082,64256,65728,6,6,4,1460,408750,1,554697696,1470000,41772,41772,65700,0,18824,0,2223867986,63
i,1723568888.718374,172.16.5.2,55756,172.16.1.2,5102,7970,4344,2082,64256,65728,6,6,4,1460,408750,1,554697696,1470000,41772,41772,65700,0,20272,0,2223867986,63
o,1723568888.718404,172.16.5.2,55756,172.16.1.2,5102,7970,5792,2086,64256,65728,6,6,4,1460,408750,1,554697696,1470000,41772,41772,65700,0,20272,0,2223867986,63
o,1723568888.718573,172.16.5.2,55756,172.16.1.2,5102,7970,5792,2082,64256,65728,6,6,4,1460,408750,1,554697696,1470000,41772,41772,65700,0,21720,0,2223867986,63
i,1723568888.748610,172.16.5.2,55756,172.16.1.2,5102,7970,5792,2082,64256,65728,6,6,4,1460,408750,1,554697696,1470000,41772,41772,65700,0,23168,0,2223867986,63
o,1723568888.748639,172.16.5.2,55756,172.16.1.2,5102,7970,7240,2082,64256,65728,6,6,4,1460,408750,1,554697696,1470000,41772,41772,65700,0,23168,0,2223867986,63
i,1723568888.872140,172.16.5.2,55756,172.16.1.2,5102,7970,7240,2082,64256,65728,6,6,4,1460,408750,1,554697696,1470000,41772,41772,65700,0,24616,0,2223867986,63
o,1723568888.872173,172.16.5.2,55756,172.16.1.2,5102,7970,8688,2082,64256,65728,6,6,4,1460,408750,1,554697696,1470000,41772,41772,65700,0,24616,0,2223867986,63
i,1723568888.872306,172.16.5.2,55756,172.16.1.2,5102,7970,8688,2082,64256,65728,6,6,4,1460,408750,1,554697696,1470000,41772,41772,65700,0,26064,0,2223867986,63
o,1723568888.872323,172.16.5.2,55756,172.16.1.2,5102,7970,10136,2082,64256,65728,6,6,4,1460,408750,1,554697696,1470000,41772,41772,65700,0,26064,0,2223867986,63
i,1723568888.912668,172.16.5.2,55756,172.16.1.2,5102,7970,10136,2082,64256,65728,6,6,4,1460,408750,1,554697696,1470000,41772,41772,65700,0,27512,0,2223867986,63
o,1723568888.912701,172.16.5.2,55756,172.16.1.2,5102,7970,11584,2082,64256,65728,6,6,4,1460,408750,1,554697696,1470000,41772,41772,65700,0,27512,0,2223867986,63
i,1723568889.046985,172.16.5.2,55756,172.16.1.2,5102,7970,11584,2082,64256,65728,6,6,4,1460,408750,1,554697696,1470000,41772,41772,65700,0,28960,0,2223867986,63
o,1723568889.047026,172.16.5.2,55756,172.16.1.2,5102,7970,13032,2082,64256,65728,6,6,4,1460,408750,1,554697696,1470000,49964,41772,65700,0,28960,0,2223867986,63
i,1723568889.077537,172.16.5.2,55756,172.16.1.2,5102,7970,13032,2082,64256,65728,6,6,4,1460,408750,1,554697696,1470000,49964,41772,65700,0,30408,0,2223867986,63
o,1723568889.077584,172.16.5.2,55756,172.16.1.2,5102,7970,14480,2082,64256,65728,6,6,4,1460,408750,1,554697696,1470000,49964,41772,65700,0,30408,0,2223867986,63
i,1723568889.116162,172.16.5.2,55756,172.16.1.2,5102,7970,14480,2082,64256,65728,6,6,4,1460,408750,1,554697696,1470000,49964,41772,65700,0,31856,0,2223867986,63
o,1723568889.116192,172.16.5.2,55756,172.16.1.2,5102,7970,15928,2082,64256,65728,6,6,4,1460,408750,1,554697696,1470000,49964,41772,65700,0,31856,0,2223867986,63
i,1723568889.228729,172.16.5.2,55756,172.16.1.2,5102,7970,15928,2082,64256,65728,6,6,4,1460,408750,1,554697696,1470000,49964,41772,65700,0,33304,0,2223867986,63
o,1723568889.228760,172.16.5.2,55756,172.16.1.2,5102,7970,17376,2082,64256,65728,6,6,4,1460,408750,1,554697696,1470000,49964,41772,65700,0,33304,0,2223867986,63
i,1723568889.268323,172.16.5.2,55756,172.16.1.2,5102,7970,17376,2082,64256,65728,6,6,4,1460,408750,1,554697696,1470000,49964,41772,65700,0,34752,0,2223867986,63
o,1723568889.268366,172.16.5.2,55756,172.16.1.2,5102,7970,18824,2082,64256,65728,6,6,4,1460,408750,1,554697696,1470000,49964,41772,65700,0,34752,0,2223867986,63
i,1723568889.320731,172.16.5.2,55756,172.16.1.2,5102,7970,18824,2082,64256,65728,6,6,4,1460,408750,1,554697696,1470000,49964,41772,65700,0,36200,0,2223867986,63
o,1723568889.320772,172.16.5.2,55756,172.16.1.2,5102,7970,20272,2082,64256,65728,6,6,4,1460,408750,1,554697696,1470000,49964,41772,65700,0,36200,0,2223867986,63
i,1723568889.400725,172.16.5.2,55756,172.16.1.2,5102,7970,20272,2082,64256,65728,6,6,4,1460,408750,1,554697696,1470000,49964,41772,65700,0,37648,0,2223867986,63
o,1723568889.400759,172.16.5.2,55756,172.16.1.2,5102,7970,21720,2082,64256,65728,6,6,4,1460,408750,1,554697696,1470000,49964,41772,65700,0,37648,0,2223867986,63
i,1723568889.462078,172.16.5.2,55756,172.16.1.2,5102,7970,21720,2082,64256,65728,6,6,4,1460,408750,1,554697696,1470000,49964,41772,65700,0,39096,0,2223867986,63
o,1723568889.462109,172.16.5.2,55756,172.16.1.2,5102,7970,23168,2082,64256,65728,6,6,4,1460,408750,1,554697696,1470000,49964,41772,65700,0,39096,0,2223867986,63
o,1723568889.551237,172.16.5.2,55756,172.16.1.2,5102,11584,1448,2146,64256,65728,6,6,4,1460,408750,1,1092625377,2740000,49964,41772,65700,0,40544,0,2223867986,63
i,1723568889.551535,172.16.5.2,55756,172.16.1.2,5102,11584,1448,2146,64256,65728,6,6,4,1460,408750,1,1092625376,2740000,49964,41772,65700,0,40544,0,2223867986,63
o,1723568889.551559,172.16.5.2,55756,172.16.1.2,5102,7970,24616,2146,64256,65728,6,6,4,1460,408750,1,1630536672,2740000,49964,41772,65700,0,40544,0,2223867986,63
i,1723568889.656923,172.16.5.2,55756,172.16.1.2,5102,7970,24616,2146,64256,65728,6,6,4,1460,408750,1,1630536672,2740000,49964,41772,65700,0,40544,0,2223867986,63
i,1723568889.717455,172.16.5.2,55756,172.16.1.2,5102,7970,26064,2146,64256,65728,6,6,4,1460,408750,1,1613759456,2740000,49964,41772,65700,0,40544,0,2223867986,63
i,1723568889.807887,172.16.5.2,55756,172.16.1.2,5102,7970,27512,2146,64256,65728,6,6,4,1460,408750,1,1613759456,2740000,49964,41772,65700,0,40544,0,2223867986,63
o,1723568889.807966,172.16.5.2,55756,172.16.1.2,5102,7970,2920,2082,25216,65728,6,6,4,1460,390312,1,1092617184,1390000,49964,1228,65700,0,0,0,2223867986,63
i,1723568889.808099,172.16.5.2,55756,172.16.1.2,5102,7970,2920,2082,25216,65728,6,6,4,1460,390312,1,1092617184,1390000,49964,1228,65700,0,1228,0,2223867986,63
o,1723568889.808362,172.16.5.2,55756,172.16.1.2,5102,7970,2920,2086,25216,65728,6,6,4,1460,390312,1,1092617184,1390000,49964,49964,65700,0,1228,0,2223867986,63
i,1723568889.841569,172.16.5.2,55756,172.16.1.2,5102,7970,2920,2086,25216,65728,6,6,4,1460,390312,1,1092617184,1390000,49964,49964,65700,0,2676,0,2223867986,63
i,1723568889.989314,172.16.5.2,55756,172.16.1.2,5102,7970,2920,2086,65728,65728,6,6,4,1460,390312,1,1092617184,1390000,49964,49964,65700,0,2676,0,2223867986,63
o,1723568889.989394,172.16.5.2,55756,172.16.1.2,5102,7970,4148,2086,65728,65728,6,6,4,1460,364062,1,1092617184,1370000,49964,48736,65700,0,1448,0,2223867986,63
i,1723568890.101011,172.16.5.2,55756,172.16.1.2,5102,7970,4148,2086,65728,65728,6,6,4,1460,364062,1,1092617184,1370000,49964,48736,65700,0,2896,0,2223867986,63
o,1723568890.101045,172.16.5.2,55756,172.16.1.2,5102,7970,5596,2086,65728,65728,6,6,4,1460,355000,1,1092617184,1230000,49964,47288,65700,0,1448,0,2223867986,63
i,1723568890.242743,172.16.5.2,55756,172.16.1.2,5102,7970,5596,2086,65728,65728,6,6,4,1460,355000,1,1092617184,1230000,49964,49964,65700,0,4344,0,2223867986,63
o,1723568890.242822,172.16.5.2,55756,172.16.1.2,5102,7970,7044,2086,65728,65728,6,6,4,1460,341875,1,1092617184,1150000,49964,48516,65700,0,2896,0,2223867986,63
o,1723568890.242944,172.16.5.2,55756,172.16.1.2,5102,7970,7044,2086,65728,65728,6,6,4,1460,341875,1,1092617184,1150000,49964,48516,65700,0,4344,0,2223867986,63
i,1723568890.333833,172.16.5.2,55756,172.16.1.2,5102,7970,7044,2086,65728,65728,6,6,4,1460,341875,1,1092617184,1150000,49964,48516,65700,0,5792,0,2223867986,63
o,1723568890.333918,172.16.5.2,55756,172.16.1.2,5102,7970,9940,2086,64256,65728,6,6,4,1460,328125,1,1092617184,1100000,49964,45620,65700,0,2896,0,2223867986,63
i,1723568890.456957,172.16.5.2,55756,172.16.1.2,5102,7970,9940,2086,64256,65728,6,6,4,1460,328125,1,1092617184,1100000,49964,49964,65700,0,8688,0,2223867986,63
o,1723568890.456993,172.16.5.2,55756,172.16.1.2,5102,7970,9940,2086,64256,65728,6,6,4,1460,314687,1,1092617184,1050000,49964,47068,65700,0,5792,0,2223867986,63
o,1723568890.457139,172.16.5.2,55756,172.16.1.2,5102,7970,9940,2086,64256,65728,6,6,4,1460,314687,1,1092617184,1050000,49964,47068,65700,0,7240,0,2223867986,63
i,1723568890.576779,172.16.5.2,55756,172.16.1.2,5102,7970,9940,2086,64256,65728,6,6,4,1460,314687,1,1092617184,1050000,49964,49964,65700,0,8688,0,2223867986,63
o,1723568890.576857,172.16.5.2,55756,172.16.1.2,5102,7970,9940,2086,64256,65728,6,6,4,1460,306875,1,1092617184,970000,49964,47068,65700,0,5792,0,2223867986,63
i,1723568890.623301,172.16.5.2,55756,172.16.1.2,5102,7970,9940,2086,64256,65728,6,6,4,1460,306875,1,1092617184,970000,49964,49964,65700,0,8688,0,2223867986,63
o,1723568890.623384,172.16.5.2,55756,172.16.1.2,5102,7970,9940,2086,64256,65728,6,6,4,1460,305000,1,1092617184,870000,49964,47068,65700,0,5792,0,2223867986,63
i,1723568890.837112,172.16.5.2,55756,172.16.1.2,5102,7970,9940,2086,64256,65728,6,6,4,1460,305000,1,1092617184,870000,49964,49964,65700,0,8688,0,2223867986,63
o,1723568890.837146,172.16.5.2,55756,172.16.1.2,5102,7970,11400,2086,65728,65728,6,6,4,1460,314375,1,1092617184,860000,49964,48516,65700,0,7240,0,2223867986,63
o,1723568890.837293,172.16.5.2,55756,172.16.1.2,5102,7970,11400,2086,65728,65728,6,6,4,1460,314375,1,1092617184,860000,49964,48516,65700,0,8688,0,2223867986,63
i,1723568890.859934,172.16.5.2,55756,172.16.1.2,5102,7970,11400,2086,65728,65728,6,6,4,1460,314375,1,1092617184,860000,49964,48516,65700,0,10136,0,2223867986,63
o,1723568890.859960,172.16.5.2,55756,172.16.1.2,5102,7970,11400,2086,65728,65728,6,6,4,1460,325312,1,1092617184,870000,49964,47068,65700,0,8688,0,2223867986,63
i,1723568890.941181,172.16.5.2,55756,172.16.1.2,5102,7970,11400,2086,65728,65728,6,6,4,1460,325312,1,1092617184,870000,49964,49964,65700,0,10136,0,2223867986,63
o,1723568890.941274,172.16.5.2,55756,172.16.1.2,5102,7970,11400,2086,64256,65728,6,6,4,1460,329687,1,1092617184,820000,49964,47068,65700,0,7240,0,2223867986,63
i,1723568890.993559,172.16.5.2,55756,172.16.1.2,5102,7970,11400,2086,64256,65728,6,6,4,1460,329687,1,1092617184,820000,49964,49964,65700,0,10136,0,2223867986,63
o,1723568890.993635,172.16.5.2,55756,172.16.1.2,5102,7970,11400,2086,65728,65728,6,6,4,1460,335000,1,1092617184,800000,49964,48516,65700,0,8688,0,2223867986,63
i,1723568891.034129,172.16.5.2,55756,172.16.1.2,5102,7970,11400,2086,65728,65728,6,6,4,1460,335000,1,1092617184,800000,49964,48516,65700,0,10136,0,2223867986,63
o,1723568891.034168,172.16.5.2,55756,172.16.1.2,5102,7970,11400,2086,65728,65728,6,6,4,1460,344375,1,1092617184,820000,49964,47068,65700,0,8688,0,2223867986,63
i,1723568891.167067,172.16.5.2,55756,172.16.1.2,5102,7970,11400,2086,65728,65728,6,6,4,1460,344375,1,1092617184,820000,49964,49964,65700,0,10136,0,2223867986,63
o,1723568891.167100,172.16.5.2,55756,172.16.1.2,5102,7970,11400,2086,64256,65728,6,6,4,1460,342812,1,1092617184,760000,49964,47068,65700,0,7240,0,2223867986,63
o,1723568891.167217,172.16.5.2,55756,172.16.1.2,5102,7970,11400,2086,64256,65728,6,6,4,1460,342812,1,1092617184,760000,49964,47068,65700,0,8688,0,2223867986,63
i,1723568891.287450,172.16.5.2,55756,172.16.1.2,5102,7970,11400,2086,64256,65728,6,6,4,1460,342812,1,1092617184,760000,49964,48756,65700,0,10136,0,2223867986,63
o,1723568891.287484,172.16.5.2,55756,172.16.1.2,5102,7970,12860,2086,64256,65728,6,6,4,1460,353750,1,1092617184,800000,49964,45860,65700,0,7240,0,2223867986,63
i,1723568891.361270,172.16.5.2,55756,172.16.1.2,5102,7970,12860,2086,64256,65728,6,6,4,1460,353750,1,1092617184,800000,49964,49964,65700,0,11584,0,2223867986,63
o,1723568891.361305,172.16.5.2,55756,172.16.1.2,5102,7970,12860,2086,65728,65728,6,6,4,1460,362187,1,1092617184,820000,49964,48516,65700,0,10136,0,2223867986,63
i,1723568891.417122,172.16.5.2,55756,172.16.1.2,5102,7970,12860,2086,65728,65728,6,6,4,1460,362187,1,1092617184,820000,49964,48516,65700,0,11584,0,2223867986,63
o,1723568891.417207,172.16.5.2,55756,172.16.1.2,5102,7970,12860,2086,65728,65728,6,6,4,1460,370937,1,1092617184,830000,49964,47068,65700,0,10136,0,2223867986,63
i,1723568891.516799,172.16.5.2,55756,172.16.1.2,5102,7970,12860,2086,65728,65728,6,6,4,1460,370937,1,1092617184,830000,49964,49964,65700,0,11584,0,2223867986,63
o,1723568891.516839,172.16.5.2,55756,172.16.1.2,5102,7970,12860,2086,65728,65728,6,6,4,1460,385937,1,1092617184,900000,49964,48516,65700,0,10136,0,2223867986,63
i,1723568891.609978,172.16.5.2,55756,172.16.1.2,5102,7970,12860,2086,65728,65728,6,6,4,1460,385937,1,1092617184,900000,49964,48516,65700,0,11584,0,2223867986,63
o,1723568891.610016,172.16.5.2,55756,172.16.1.2,5102,7970,12860,2086,64256,65728,6,6,4,1460,392812,1,1092617184,880000,49964,45620,65700,0,8688,0,2223867986,63
o,1723568891.610141,172.16.5.2,55756,172.16.1.2,5102,7970,12860,2086,64256,65728,6,6,4,1460,392812,1,1092617184,880000,49964,45620,65700,0,10136,0,2223867986,63
i,1723568891.664210,172.16.5.2,55756,172.16.1.2,5102,7970,12860,2086,64256,65728,6,6,4,1460,392812,1,1092617184,880000,49964,49964,65700,0,11584,0,2223867986,63
o,1723568891.664305,172.16.5.2,55756,172.16.1.2,5102,7970,12860,2086,64256,65728,6,6,4,1460,390000,1,1092617184,830000,49964,47068,65700,0,8688,0,2223867986,63
i,1723568891.716899,172.16.5.2,55756,172.16.1.2,5102,7970,12860,2086,64256,65728,6,6,4,1460,390000,1,1092617184,830000,49964,49964,65700,0,11584,0,2223867986,63
o,1723568891.716929,172.16.5.2,55756,172.16.1.2,5102,7970,13032,2082,64256,65728,6,6,4,1460,390000,1,1092617184,830000,49964,49964,65700,0,11584,0,2223867986,63
i,1723568891.736832,172.16.5.2,55756,172.16.1.2,5102,7970,12860,2082,64256,65728,6,6,4,1460,390000,1,1092617184,830000,49964,49964,65700,0,13032,0,2223867986,63
o,1723568891.736858,172.16.5.2,55756,172.16.1.2,5102,7970,14480,2082,64256,65728,6,6,4,1460,390000,1,1092617184,830000,49964,49964,65700,0,13032,0,2223867986,63
i,1723568891.769009,172.16.5.2,55756,172.16.1.2,5102,7970,12860,2082,64256,65728,6,6,4,1460,390000,1,1092617184,830000,49964,49964,65700,0,14480,0,2223867986,63
o,1723568891.769045,172.16.5.2,55756,172.16.1.2,5102,6430,1448,2146,64256,65728,6,6,4,1460,390000,1,1630536672,830000,49964,49964,65700,0,14480,0,2223867986,63
i,1723568891.860550,172.16.5.2,55756,172.16.1.2,5102,6430,1448,2146,64256,65728,6,6,4,1460,390000,1,1630536672,830000,49964,49964,65700,0,14480,0,2223867986,63
i,1723568891.860593,172.16.5.2,55756,172.16.1.2,5102,6430,1448,2146,64256,65728,6,6,4,1460,390000,1,1613759456,830000,49964,49964,65700,0,14480,0,2223867986,63
o,1723568891.860612,172.16.5.2,55756,172.16.1.2,5102,6430,2896,2082,64256,65728,6,6,4,1460,390000,1,1630536672,830000,49964,49964,65700,0,14480,0,2223867986,63
i,1723568891.918710,172.16.5.2,55756,172.16.1.2,5102,6430,2896,2082,64256,65728,6,6,4,1460,390000,1,1630536672,830000,49964,49964,65700,0,15928,0,2223867986,63
i,1723568891.982906,172.16.5.2,55756,172.16.1.2,5102,6430,2896,2082,64256,65728,6,6,4,1460,390000,1,1630536672,830000,49964,49964,65700,0,15928,0,2223867986,63
o,1723568891.982938,172.16.5.2,55756,172.16.1.2,5102,6430,4344,2082,64256,65728,6,6,4,1460,390000,1,1630536672,830000,49964,49964,65700,0,15928,0,2223867986,63
i,1723568892.037557,172.16.5.2,55756,172.16.1.2,5102,6430,4344,2082,64256,65728,6,6,4,1460,390000,1,1630536672,830000,49964,49964,65700,0,17376,0,2223867986,63
i,1723568892.118408,172.16.5.2,55756,172.16.1.2,5102,6430,4344,2082,64256,65728,6,6,4,1460,390000,1,1630536672,830000,49964,49964,65700,0,17376,0,2223867986,63
i,1723568892.118473,172.16.5.2,55756,172.16.1.2,5102,6430,4344,2082,64256,65728,6,6,4,1460,390000,1,1630536672,830000,49964,49964,65700,0,17376,0,2223867986,63
o,1723568892.118544,172.16.5.2,55756,172.16.1.2,5102,6430,4356,2086,51264,65728,6,6,4,1460,385000,1,1092617184,810000,49964,35484,65700,0,2896,0,2223867986,63
i,1723568892.138361,172.16.5.2,55756,172.16.1.2,5102,6430,4356,2086,51264,65728,6,6,4,1460,385000,1,1092617184,810000,49964,49964,65700,0,4344,0,2223867986,63
o,1723568892.138394,172.16.5.2,55756,172.16.1.2,5102,6430,5804,2086,65728,65728,6,6,4,1460,371875,1,1092617184,840000,49964,48516,65700,0,2896,0,2223867986,63
o,1723568892.138546,172.16.5.2,55756,172.16.1.2,5102,6430,5804,2086,65728,65728,6,6,4,1460,371875,1,1092617184,840000,49964,48516,65700,0,4344,0,2223867986,63
i,1723568892.188777,172.16.5.2,55756,172.16.1.2,5102,6430,5804,2086,65728,65728,6,6,4,1460,371875,1,1092617184,840000,49964,48516,65700,0,5792,0,2223867986,63
o,1723568892.188822,172.16.5.2,55756,172.16.1.2,5102,6430,7252,2086,65728,65728,6,6,4,1460,351875,1,1092617184,910000,49964,47068,65700,0,4344,0,2223867986,63
i,1723568892.310736,172.16.5.2,55756,172.16.1.2,5102,6430,7252,2086,65728,65728,6,6,4,1460,351875,1,1092617184,910000,49964,49964,65700,0,7240,0,2223867986,63
o,1723568892.310771,172.16.5.2,55756,172.16.1.2,5102,6430,7252,2086,65728,65728,6,6,4,1460,331875,1,1092617184,960000,49964,48516,65700,0,5792,0,2223867986,63
i,1723568892.380911,172.16.5.2,55756,172.16.1.2,5102,6430,7252,2086,65728,65728,6,6,4,1460,331875,1,1092617184,960000,49964,48516,65700,0,7240,0,2223867986,63
o,1723568892.380946,172.16.5.2,55756,172.16.1.2,5102,6430,7252,2086,65728,65728,6,6,4,1460,320625,1,1092617184,940000,49964,47068,65700,0,5792,0,2223867986,63
i,1723568892.456220,172.16.5.2,55756,172.16.1.2,5102,6430,7252,2086,65728,65728,6,6,4,1460,320625,1,1092617184,940000,49964,49964,65700,0,7240,0,2223867986,63
o,1723568892.456337,172.16.5.2,55756,172.16.1.2,5102,6430,7252,2086,64256,65728,6,6,4,1460,320625,1,1092617184,830000,49964,47068,65700,0,4344,0,2223867986,63
i,1723568892.515367,172.16.5.2,55756,172.16.1.2,5102,6430,7252,2086,64256,65728,6,6,4,1460,320625,1,1092617184,830000,49964,49964,65700,0,7240,0,2223867986,63
o,1723568892.515397,172.16.5.2,55756,172.16.1.2,5102,6430,7252,2086,65728,65728,6,6,4,1460,320625,1,1092617184,750000,49964,48516,65700,0,5792,0,2223867986,63
i,1723568892.587503,172.16.5.2,55756,172.16.1.2,5102,6430,7252,2086,65728,65728,6,6,4,1460,320625,1,1092617184,750000,49964,48516,65700,0,7240,0,2223867986,63
o,1723568892.587580,172.16.5.2,55756,172.16.1.2,5102,6430,8712,2086,65728,65728,6,6,4,1460,315625,1,1092617184,730000,49964,47068,65700,0,5792,0,2223867986,63
i,1723568892.684222,172.16.5.2,55756,172.16.1.2,5102,6430,8712,2086,65728,65728,6,6,4,1460,315625,1,1092617184,730000,49964,49964,65700,0,8688,0,2223867986,63
o,1723568892.684327,172.16.5.2,55756,172.16.1.2,5102,6430,8712,2086,65728,65728,6,6,4,1460,313750,1,1092617184,690000,49964,48516,65700,0,7240,0,2223867986,63
i,1723568892.749453,172.16.5.2,55756,172.16.1.2,5102,6430,8712,2086,65728,65728,6,6,4,1460,313750,1,1092617184,690000,49964,48516,65700,0,8688,0,2223867986,63
o,1723568892.749543,172.16.5.2,55756,172.16.1.2,5102,6430,8712,2086,64256,65728,6,6,4,1460,310937,1,1092617184,660000,49964,45620,65700,0,5792,0,2223867986,63
i,1723568892.858386,172.16.5.2,55756,172.16.1.2,5102,6430,8712,2086,64256,65728,6,6,4,1460,310937,1,1092617184,660000,49964,49964,65700,0,8688,0,2223867986,63
o,1723568892.858509,172.16.5.2,55756,172.16.1.2,5102,6430,8712,2086,64256,65728,6,6,4,1460,314687,1,1092617184,660000,49964,47068,65700,0,5792,0,2223867986,63
i,1723568892.993563,172.16.5.2,55756,172.16.1.2,5102,6430,8712,2086,64256,65728,6,6,4,1460,314687,1,1092617184,660000,49964,49964,65700,0,8688,0,2223867986,63
o,1723568892.993685,172.16.5.2,55756,172.16.1.2,5102,6430,10172,2086,65728,65728,6,6,4,1460,325625,1,1092617184,720000,49964,48516,65700,0,7240,0,2223867986,63
i,1723568893.078172,172.16.5.2,55756,172.16.1.2,5102,6430,10172,2086,65728,65728,6,6,4,1460,325625,1,1092617184,720000,49964,48516,65700,0,10136,0,2223867986,63
o,1723568893.078257,172.16.5.2,55756,172.16.1.2,5102,6430,10172,2086,65728,65728,6,6,4,1460,335000,1,1092617184,760000,49964,47068,65700,0,8688,0,2223867986,63
i,1723568893.177959,172.16.5.2,55756,172.16.1.2,5102,6430,10172,2086,65728,65728,6,6,4,1460,335000,1,1092617184,760000,49964,49964,65700,0,10136,0,2223867986,63
o,1723568893.178043,172.16.5.2,55756,172.16.1.2,5102,6430,10172,2086,64256,65728,6,6,4,1460,346875,1,1092617184,810000,49964,47068,65700,0,7240,0,2223867986,63
i,1723568893.222338,172.16.5.2,55756,172.16.1.2,5102,6430,10172,2086,64256,65728,6,6,4,1460,346875,1,1092617184,810000,49964,49964,65700,0,10136,0,2223867986,63
o,1723568893.222437,172.16.5.2,55756,172.16.1.2,5102,6430,10172,2086,65728,65728,6,6,4,1460,348750,1,1092617184,760000,49964,48516,65700,0,8688,0,2223867986,63
i,1723568893.314147,172.16.5.2,55756,172.16.1.2,5102,6430,10172,2086,65728,65728,6,6,4,1460,348750,1,1092617184,760000,49964,48516,65700,0,10136,0,2223867986,63
o,1723568893.314278,172.16.5.2,55756,172.16.1.2,5102,6430,10172,2086,65728,65728,6,6,4,1460,361562,1,1092617184,820000,49964,47068,65700,0,8688,0,2223867986,63
i,1723568893.340233,172.16.5.2,55756,172.16.1.2,5102,6430,10172,2086,65728,65728,6,6,4,1460,361562,1,1092617184,820000,49964,49964,65700,0,10136,0,2223867986,63
o,1723568893.340362,172.16.5.2,55756,172.16.1.2,5102,6430,11632,2086,64256,65728,6,6,4,1460,360312,1,1092617184,770000,49964,47068,65700,0,7240,0,2223867986,63
i,1723568893.464567,172.16.5.2,55756,172.16.1.2,5102,6430,11632,2086,64256,65728,6,6,4,1460,360312,1,1092617184,770000,49964,49964,65700,0,11584,0,2223867986,63
o,1723568893.464707,172.16.5.2,55756,172.16.1.2,5102,6430,11632,2086,65728,65728,6,6,4,1460,362812,1,1092617184,740000,49964,48516,65700,0,10136,0,2223867986,63
i,1723568893.518671,172.16.5.2,55756,172.16.1.2,5102,6430,11632,2086,65728,65728,6,6,4,1460,362812,1,1092617184,740000,49964,48516,65700,0,11584,0,2223867986,63
o,1723568893.518703,172.16.5.2,55756,172.16.1.2,5102,6430,13032,2082,65728,65728,6,6,4,1460,362812,1,1092617184,740000,49964,48516,65700,0,11584,0,2223867986,63
i,1723568893.660643,172.16.5.2,55756,172.16.1.2,5102,6430,11632,2082,65728,65728,6,6,4,1460,362812,1,1092617184,740000,49964,48516,65700,0,13032,0,2223867986,63
o,1723568893.660675,172.16.5.2,55756,172.16.1.2,5102,6430,14480,2082,65728,65728,6,6,4,1460,362812,1,1092617184,740000,49964,48516,65700,0,13032,0,2223867986,63
i,1723568893.660838,172.16.5.2,55756,172.16.1.2,5102,6430,11632,2082,65728,65728,6,6,4,1460,362812,1,1092617184,740000,49964,48516,65700,0,14480,0,2223867986,63
o,1723568893.660855,172.16.5.2,55756,172.16.1.2,5102,5816,1448,2146,65728,65728,6,6,4,1460,362812,1,1630536672,740000,49964,48516,65700,0,14480,0,2223867986,63
i,1723568893.696386,172.16.5.2,55756,172.16.1.2,5102,5816,1448,2146,65728,65728,6,6,4,1460,362812,1,1630536672,740000,49964,48516,65700,0,14480,0,2223867986,63
i,1723568893.746682,172.16.5.2,55756,172.16.1.2,5102,5816,1448,2146,65728,65728,6,6,4,1460,362812,1,1630536672,740000,49964,48516,65700,0,14480,0,2223867986,63
o,1723568893.746713,172.16.5.2,55756,172.16.1.2,5102,5816,2896,2082,65728,65728,6,6,4,1460,362812,1,1630536672,740000,49964,48516,65700,0,14480,0,2223867986,63
i,1723568893.778658,172.16.5.2,55756,172.16.1.2,5102,5816,2896,2082,65728,65728,6,6,4,1460,362812,1,1630536672,740000,49964,48516,65700,0,15928,0,2223867986,63
i,1723568893.854015,172.16.5.2,55756,172.16.1.2,5102,5816,2896,2082,65728,65728,6,6,4,1460,362812,1,1630536672,740000,49964,48516,65700,0,15928,0,2223867986,63
o,1723568893.854047,172.16.5.2,55756,172.16.1.2,5102,5816,4344,2082,65728,65728,6,6,4,1460,362812,1,1630536672,740000,49964,48516,65700,0,15928,0,2223867986,63
i,1723568893.901946,172.16.5.2,55756,172.16.1.2,5102,5816,4344,2082,65728,65728,6,6,4,1460,362812,1,1630536672,740000,49964,48516,65700,0,15928,0,2223867986,63
i,1723568893.953252,172.16.5.2,55756,172.16.1.2,5102,5816,4344,2082,65728,65728,6,6,4,1460,362812,1,1630536672,740000,49964,48516,65700,0,15928,0,2223867986,63
o,1723568893.953280,172.16.5.2,55756,172.16.1.2,5102,5816,2896,2082,65728,65728,6,6,4,1460,362812,1,1630536673,740000,49964,48516,65700,0,15928,0,2223867986,63
i,1723568893.953452,172.16.5.2,55756,172.16.1.2,5102,5816,2896,2082,55616,65728,6,6,4,1460,353750,1,1630536672,760000,49964,38380,65700,0,5792,0,2223867986,63
o,1723568893.953469,172.16.5.2,55756,172.16.1.2,5102,5816,5792,2086,55616,65728,6,6,4,1460,353750,1,1630536672,760000,49964,38380,65700,0,5792,0,2223867986,63
i,1723568894.040317,172.16.5.2,55756,172.16.1.2,5102,5816,5792,2086,55616,65728,6,6,4,1460,353750,1,1630536672,760000,49964,49964,65700,0,8688,0,2223867986,63
o,1723568894.040354,172.16.5.2,55756,172.16.1.2,5102,5816,4356,2086,59968,65728,6,6,4,1460,333437,1,1092617184,850000,49964,44172,65700,0,2896,0,2223867986,63
i,1723568894.103800,172.16.5.2,55756,172.16.1.2,5102,5816,4356,2086,59968,65728,6,6,4,1460,333437,1,1092617184,850000,49964,49964,65700,0,4344,0,2223867986,63
o,1723568894.103835,172.16.5.2,55756,172.16.1.2,5102,5816,7252,2086,64256,65728,6,6,4,1460,310625,1,1092617184,930000,49964,47068,65700,0,1448,0,2223867986,63
i,1723568894.213868,172.16.5.2,55756,172.16.1.2,5102,5816,7252,2086,64256,65728,6,6,4,1460,310625,1,1092617184,930000,49964,49964,65700,0,7240,0,2223867986,63
o,1723568894.213971,172.16.5.2,55756,172.16.1.2,5102,5816,7252,2086,65728,65728,6,6,4,1460,293125,1,1092617184,950000,49964,48516,65700,0,5792,0,2223867986,63
i,1723568894.294139,172.16.5.2,55756,172.16.1.2,5102,5816,7252,2086,65728,65728,6,6,4,1460,293125,1,1092617184,950000,49964,48516,65700,0,7240,0,2223867986,63
o,1723568894.294173,172.16.5.2,55756,172.16.1.2,5102,5816,7252,2086,64256,65728,6,6,4,1460,280312,1,1092617184,920000,49964,45620,65700,0,4344,0,2223867986,63
i,1723568894.326134,172.16.5.2,55756,172.16.1.2,5102,5816,7252,2086,64256,65728,6,6,4,1460,280312,1,1092617184,920000,49964,49964,65700,0,7240,0,2223867986,63
o,1723568894.326175,172.16.5.2,55756,172.16.1.2,5102,5816,7252,2086,64256,65728,6,6,4,1460,274062,1,1092617184,860000,49964,47068,65700,0,4344,0,2223867986,63
i,1723568894.430003,172.16.5.2,55756,172.16.1.2,5102,5816,7252,2086,64256,65728,6,6,4,1460,274062,1,1092617184,860000,49964,49964,65700,0,7240,0,2223867986,63
o,1723568894.430056,172.16.5.2,55756,172.16.1.2,5102,5816,8712,2086,65728,65728,6,6,4,1460,266250,1,1092617184,820000,49964,48516,65700,0,5792,0,2223867986,63
o,1723568894.430208,172.16.5.2,55756,172.16.1.2,5102,5816,8712,2086,65728,65728,6,6,4,1460,266250,1,1092617184,820000,49964,48516,65700,0,7240,0,2223867986,63
i,1723568894.486830,172.16.5.2,55756,172.16.1.2,5102,5816,8712,2086,65728,65728,6,6,4,1460,266250,1,1092617184,820000,49964,48516,65700,0,8688,0,2223867986,63
o,1723568894.486875,172.16.5.2,55756,172.16.1.2,5102,5816,8712,2086,64256,65728,6,6,4,1460,258125,1,1092617184,790000,49964,45620,65700,0,5792,0,2223867986,63
i,1723568894.541361,172.16.5.2,55756,172.16.1.2,5102,5816,8712,2086,64256,65728,6,6,4,1460,258125,1,1092617184,790000,49964,49964,65700,0,8688,0,2223867986,63
o,1723568894.541396,172.16.5.2,55756,172.16.1.2,5102,5816,8712,2086,64256,65728,6,6,4,1460,252187,1,1092617184,740000,49964,47068,65700,0,5792,0,2223867986,63
i,1723568894.618010,172.16.5.2,55756,172.16.1.2,5102,5816,8712,2086,64256,65728,6,6,4,1460,252187,1,1092617184,740000,49964,49964,65700,0,8688,0,2223867986,63
o,1723568894.618050,172.16.5.2,55756,172.16.1.2,5102,5816,10172,2086,64256,65728,6,6,4,1460,244687,1,1092617184,720000,49964,47068,65700,0,5792,0,2223867986,63
o,1723568894.618201,172.16.5.2,55756,172.16.1.2,5102,5816,10172,2086,64256,65728,6,6,4,1460,244687,1,1092617184,720000,49964,47068,65700,0,7240,0,2223867986,63
i,1723568894.767360,172.16.5.2,55756,172.16.1.2,5102,5816,10172,2086,64256,65728,6,6,4,1460,244687,1,1092617184,720000,49964,49964,65700,0,10136,0,2223867986,63
o,1723568894.767495,172.16.5.2,55756,172.16.1.2,5102,5816,10172,2086,64256,65728,6,6,4,1460,248125,1,1092617184,690000,49964,47068,65700,0,7240,0,2223867986,63
i,1723568894.831118,172.16.5.2,55756,172.16.1.2,5102,5816,10172,2086,64256,65728,6,6,4,1460,248125,1,1092617184,690000,49964,49964,65700,0,10136,0,2223867986,63
o,1723568894.831184,172.16.5.2,55756,172.16.1.2,5102,5816,10172,2086,65728,65728,6,6,4,1460,253437,1,1092617184,670000,49964,48516,65700,0,8688,0,2223867986,63
i,1723568894.885861,172.16.5.2,55756,172.16.1.2,5102,5816,10172,2086,65728,65728,6,6,4,1460,253437,1,1092617184,670000,49964,48516,65700,0,10136,0,2223867986,63
o,1723568894.885957,172.16.5.2,55756,172.16.1.2,5102,5816,10172,2086,65728,65728,6,6,4,1460,265625,1,1092617184,730000,49964,47068,65700,0,8688,0,2223867986,63
i,1723568895.051516,172.16.5.2,55756,172.16.1.2,5102,5816,10172,2086,65728,65728,6,6,4,1460,265625,1,1092617184,730000,49964,49964,65700,0,10136,0,2223867986,63
o,1723568895.051601,172.16.5.2,55756,172.16.1.2,5102,5816,10172,2086,64256,65728,6,6,4,1460,286250,1,1092617184,850000,49964,47068,65700,0,7240,0,2223867986,63
o,1723568895.051734,172.16.5.2,55756,172.16.1.2,5102,5816,10172,2086,64256,65728,6,6,4,1460,286250,1,1092617184,850000,49964,47068,65700,0,8688,0,2223867986,63
i,1723568895.107823,172.16.5.2,55756,172.16.1.2,5102,5816,10172,2086,64256,65728,6,6,4,1460,286250,1,1092617184,850000,49964,49964,65700,0,10136,0,2223867986,63
o,1723568895.107863,172.16.5.2,55756,172.16.1.2,5102,5816,11632,2086,64256,65728,6,6,4,1460,311875,1,1092617184,990000,49964,47068,65700,0,7240,0,2223867986,63
i,1723568895.207092,172.16.5.2,55756,172.16.1.2,5102,5816,11632,2086,64256,65728,6,6,4,1460,311875,1,1092617184,990000,49964,49964,65700,0,11584,0,2223867986,63
o,1723568895.207125,172.16.5.2,55756,172.16.1.2,5102,5816,11632,2086,64256,65728,6,6,4,1460,328125,1,1092617184,1020000,49964,47068,65700,0,8688,0,2223867986,63
i,1723568895.309737,172.16.5.2,55756,172.16.1.2,5102,5816,11632,2086,64256,65728,6,6,4,1460,328125,1,1092617184,1020000,49964,49964,65700,0,11584,0,2223867986,63
o,1723568895.309832,172.16.5.2,55756,172.16.1.2,5102,5816,11632,2086,65728,65728,6,6,4,1460,339687,1,1092617184,1000000,49964,48516,65700,0,10136,0,2223867986,63
i,1723568895.427817,172.16.5.2,55756,172.16.1.2,5102,5816,11632,2086,65728,65728,6,6,4,1460,339687,1,1092617184,1000000,49964,48516,65700,0,11584,0,2223867986,63
o,1723568895.427932,172.16.5.2,55756,172.16.1.2,5102,5816,11632,2086,64256,65728,6,6,4,1460,345000,1,1092617184,930000,49964,45620,65700,0,8688,0,2223867986,63
o,1723568895.428084,172.16.5.2,55756,172.16.1.2,5102,5816,11632,2086,64256,65728,6,6,4,1460,345000,1,1092617184,930000,49964,45620,65700,0,10136,0,2223867986,63
i,1723568895.519894,172.16.5.2,55756,172.16.1.2,5102,5816,11632,2086,64256,65728,6,6,4,1460,345000,1,1092617184,930000,49964,49964,65700,0,11584,0,2223867986,63
o,1723568895.519929,172.16.5.2,55756,172.16.1.2,5102,5816,13092,2086,64256,65728,6,6,4,1460,353125,1,1092617184,910000,49964,47068,65700,0,8688,0,2223867986,63
i,1723568895.608994,172.16.5.2,55756,172.16.1.2,5102,5816,13092,2086,64256,65728,6,6,4,1460,353125,1,1092617184,910000,49964,49964,65700,0,13032,0,2223867986,63
o,1723568895.609049,172.16.5.2,55756,172.16.1.2,5102,5816,13092,2086,65728,65728,6,6,4,1460,371562,1,1092617184,980000,49964,48516,65700,0,11584,0,2223867986,63
i,1723568895.643210,172.16.5.2,55756,172.16.1.2,5102,5816,13092,2086,65728,65728,6,6,4,1460,371562,1,1092617184,980000,49964,48516,65700,0,13032,0,2223867986,63
o,1723568895.643234,172.16.5.2,55756,172.16.1.2,5102,5816,13092,2086,64256,65728,6,6,4,1460,379062,1,1092617184,950000,49964,45620,65700,0,10136,0,2223867986,63
i,1723568895.769127,172.16.5.2,55756,172.16.1.2,5102,5816,13092,2086,64256,65728,6,6,4,1460,379062,1,1092617184,950000,49964,49964,65700,0,13032,0,2223867986,63
o,1723568895.769166,172.16.5.2,55756,172.16.1.2,5102,5816,13092,2086,65728,65728,6,6,4,1460,389375,1,1092617184,950000,49964,48516,65700,0,11584,0,2223867986,63
i,1723568895.875249,172.16.5.2,55756,172.16.1.2,5102,5816,13092,2086,65728,65728,6,6,4,1460,389375,1,1092617184,950000,49964,48516,65700,0,13032,0,2223867986,63
o,1723568895.875850,172.16.5.2,55756,172.16.1.2,5102,5816,13092,2086,65728,65728,6,6,4,1460,395937,1,1092617184,920000,49964,47068,65700,0,11584,0,2223867986,63
i,1723568895.924391,172.16.5.2,55756,172.16.1.2,5102,5816,13092,2086,65728,65728,6,6,4,1460,395937,1,1092617184,920000,49964,49964,65700,0,13032,0,2223867986,63
o,1723568895.924475,172.16.5.2,55756,172.16.1.2,5102,5816,13092,2086,65728,65728,6,6,4,1460,407812,1,1092617184,950000,49964,48516,65700,0,11584,0,2223867986,63
i,1723568896.023116,172.16.5.2,55756,172.16.1.2,5102,5816,13092,2086,65728,65728,6,6,4,1460,407812,1,1092617184,950000,49964,48516,65700,0,13032,0,2223867986,63
o,1723568896.023197,172.16.5.2,55756,172.16.1.2,5102,5816,13092,2086,65728,65728,6,6,4,1460,419375,1,1092617184,960000,49964,47068,65700,0,11584,0,2223867986,63
i,1723568896.071124,172.16.5.2,55756,172.16.1.2,5102,5816,13092,2086,65728,65728,6,6,4,1460,419375,1,1092617184,960000,49964,49964,65700,0,13032,0,2223867986,63
i,1723568896.101641,172.16.5.2,55756,172.16.1.2,5102,5816,13092,2086,65728,65728,6,6,4,1460,419375,1,1092617184,960000,49964,49964,65700,0,13032,0,2223867986,63
o,1723568896.101678,172.16.5.2,55756,172.16.1.2,5102,6546,1448,2146,65728,65728,6,6,4,1460,419375,1,1630536672,960000,49964,49964,65700,0,13032,0,2223867986,63
i,1723568896.153501,172.16.5.2,55756,172.16.1.2,5102,6546,1448,2146,65728,65728,6,6,4,1460,419375,1,1630536672,960000,49964,49964,65700,0,13032,0,2223867986,63
o,1723568896.153529,172.16.5.2,55756,172.16.1.2,5102,6546,2896,2082,65728,65728,6,6,4,1460,419375,1,1630536672,960000,49964,49964,65700,0,13032,0,2223867986,63
i,1723568896.197781,172.16.5.2,55756,172.16.1.2,5102,6546,2896,2082,65728,65728,6,6,4,1460,419375,1,1630536672,960000,49964,49964,65700,0,14480,0,2223867986,63
i,1723568896.279256,172.16.5.2,55756,172.16.1.2,5102,6546,2896,2082,65728,65728,6,6,4,1460,419375,1,1630536672,960000,49964,49964,65700,0,14480,0,2223867986,63
o,1723568896.279288,172.16.5.2,55756,172.16.1.2,5102,6546,4344,2082,65728,65728,6,6,4,1460,419375,1,1630536672,960000,49964,49964,65700,0,14480,0,2223867986,63
i,1723568896.339806,172.16.5.2,55756,172.16.1.2,5102,6546,4344,2082,65728,65728,6,6,4,1460,419375,1,1630536672,960000,49964,49964,65700,0,14480,0,2223867986,63
i,1723568896.339873,172.16.5.2,55756,172.16.1.2,5102,6546,4344,2082,65728,65728,6,6,4,1460,419375,1,1630536672,960000,49964,49964,65700,0,14480,0,2223867986,63
o,1723568896.339896,172.16.5.2,55756,172.16.1.2,5102,6546,4344,2082,65728,65728,6,6,4,1460,419375,1,1630536673,960000,49964,49964,65700,0,14480,0,2223867986,63
i,1723568896.380237,172.16.5.2,55756,172.16.1.2,5102,6546,4344,2082,57088,65728,6,6,4,1460,397187,1,1630536672,1030000,49964,49964,65700,0,7240,0,2223867986,63
o,1723568896.380269,172.16.5.2,55756,172.16.1.2,5102,6546,5792,2082,57088,65728,6,6,4,1460,397187,1,1630536672,1030000,49964,49964,65700,0,7240,0,2223867986,63
i,1723568896.426140,172.16.5.2,55756,172.16.1.2,5102,6546,5792,2082,57088,65728,6,6,4,1460,397187,1,1630536672,1030000,49964,49964,65700,0,8688,0,2223867986,63
o,1723568896.426173,172.16.5.2,55756,172.16.1.2,5102,6546,4356,2086,59968,65728,6,6,4,1460,366562,1,1092617184,1140000,49964,44172,65700,0,2896,0,2223867986,63
i,1723568896.526818,172.16.5.2,55756,172.16.1.2,5102,6546,4356,2086,59968,65728,6,6,4,1460,366562,1,1092617184,1140000,49964,49964,65700,0,4344,0,2223867986,63
o,1723568896.526896,172.16.5.2,55756,172.16.1.2,5102,6546,5804,2086,65728,65728,6,6,4,1460,344687,1,1092617184,1150000,49964,48516,65700,0,2896,0,2223867986,63
i,1723568896.557413,172.16.5.2,55756,172.16.1.2,5102,6546,5804,2086,65728,65728,6,6,4,1460,344687,1,1092617184,1150000,49964,48516,65700,0,5792,0,2223867986,63
o,1723568896.557533,172.16.5.2,55756,172.16.1.2,5102,6546,7252,2086,65728,65728,6,6,4,1460,324375,1,1092617184,1140000,49964,47068,65700,0,4344,0,2223867986,63
i,1723568896.645101,172.16.5.2,55756,172.16.1.2,5102,6546,7252,2086,65728,65728,6,6,4,1460,324375,1,1092617184,1140000,49964,49964,65700,0,7240,0,2223867986,63
o,1723568896.645132,172.16.5.2,55756,172.16.1.2,5102,6546,7252,2086,65728,65728,6,6,4,1460,310312,1,1092617184,1080000,49964,48516,65700,0,5792,0,2223867986,63
i,1723568896.785377,172.16.5.2,55756,172.16.1.2,5102,6546,7252,2086,65728,65728,6,6,4,1460,310312,1,1092617184,1080000,49964,48516,65700,0,7240,0,2223867986,63
o,1723568896.785411,172.16.5.2,55756,172.16.1.2,5102,6546,7252,2086,65728,65728,6,6,4,1460,302812,1,1092617184,990000,49964,47068,65700,0,5792,0,2223867986,63
i,1723568896.814246,172.16.5.2,55756,172.16.1.2,5102,6546,7252,2086,65728,65728,6,6,4,1460,302812,1,1092617184,990000,49964,49964,65700,0,7240,0,2223867986,63
o,1723568896.814276,172.16.5.2,55756,172.16.1.2,5102,6546,7252,2086,64256,65728,6,6,4,1460,300000,1,1092617184,890000,49964,47068,65700,0,4344,0,2223867986,63
i,1723568896.877982,172.16.5.2,55756,172.16.1.2,5102,6546,7252,2086,64256,65728,6,6,4,1460,300000,1,1092617184,890000,49964,49964,65700,0,7240,0,2223867986,63
o,1723568896.878016,172.16.5.2,55756,172.16.1.2,5102,6546,7252,2086,65728,65728,6,6,4,1460,302500,1,1092617184,820000,49964,48516,65700,0,5792,0,2223867986,63
i,1723568896.964321,172.16.5.2,55756,172.16.1.2,5102,6546,7252,2086,65728,65728,6,6,4,1460,302500,1,1092617184,820000,49964,48516,65700,0,7240,0,2223867986,63
o,1723568896.964419,172.16.5.2,55756,172.16.1.2,5102,6546,8712,2086,65728,65728,6,6,4,1460,304687,1,1092617184,760000,49964,47068,65700,0,5792,0,2223867986,63
o,1723568896.964554,172.16.5.2,55756,172.16.1.2,5102,6546,8712,2086,65728,65728,6,6,4,1460,304687,1,1092617184,760000,49964,47068,65700,0,7240,0,2223867986,63
i,1723568897.039653,172.16.5.2,55756,172.16.1.2,5102,6546,8712,2086,65728,65728,6,6,4,1460,304687,1,1092617184,760000,49964,49964,65700,0,8688,0,2223867986,63
o,1723568897.039689,172.16.5.2,55756,172.16.1.2,5102,6546,8712,2086,65728,65728,6,6,4,1460,298125,1,1092617184,740000,49964,48516,65700,0,7240,0,2223867986,63
i,1723568897.109983,172.16.5.2,55756,172.16.1.2,5102,6546,8712,2086,65728,65728,6,6,4,1460,298125,1,1092617184,740000,49964,48516,65700,0,8688,0,2223867986,63
o,1723568897.110026,172.16.5.2,55756,172.16.1.2,5102,6546,8712,2086,65728,65728,6,6,4,1460,298437,1,1092617184,680000,49964,47068,65700,0,7240,0,2223867986,63
i,1723568897.148643,172.16.5.2,55756,172.16.1.2,5102,6546,8712,2086,65728,65728,6,6,4,1460,298437,1,1092617184,680000,49964,49964,65700,0,8688,0,2223867986,63
o,1723568897.148717,172.16.5.2,55756,172.16.1.2,5102,6546,8712,2086,65728,65728,6,6,4,1460,303750,1,1092617184,680000,49964,48516,65700,0,7240,0,2223867986,63
i,1723568897.256150,172.16.5.2,55756,172.16.1.2,5102,6546,8712,2086,65728,65728,6,6,4,1460,303750,1,1092617184,680000,49964,48516,65700,0,8688,0,2223867986,63
o,1723568897.256211,172.16.5.2,55756,172.16.1.2,5102,6546,8712,2086,65728,65728,6,6,4,1460,312187,1,1092617184,710000,49964,47068,65700,0,7240,0,2223867986,63
i,1723568897.281351,172.16.5.2,55756,172.16.1.2,5102,6546,8712,2086,65728,65728,6,6,4,1460,312187,1,1092617184,710000,49964,49964,65700,0,8688,0,2223867986,63
o,1723568897.281502,172.16.5.2,55756,172.16.1.2,5102,6546,8712,2086,65728,65728,6,6,4,1460,313437,1,1092617184,680000,49964,48516,65700,0,7240,0,2223867986,63
i,1723568897.311734,172.16.5.2,55756,172.16.1.2,5102,6546,8712,2086,65728,65728,6,6,4,1460,313437,1,1092617184,680000,49964,48516,65700,0,8688,0,2223867986,63
o,1723568897.311832,172.16.5.2,55756,172.16.1.2,5102,6546,10172,2086,65728,65728,6,6,4,1460,318125,1,1092617184,680000,49964,47068,65700,0,7240,0,2223867986,63
i,1723568897.391547,172.16.5.2,55756,172.16.1.2,5102,6546,10172,2086,65728,65728,6,6,4,1460,318125,1,1092617184,680000,49964,49964,65700,0,10136,0,2223867986,63
