enable_time_secs=1723569230	enable_time_usecs=718081	siftrver=1.3.0	sysname=FreeBSD	sysver=1401000	ipmode=4
o,1723569230.718408,10.0.2.15,22,10.0.2.2,50572,1073725440,17746,1026,65535,65700,0,0,4,1460,312,0,16777220,240000,33580,172,65700,0,0,0,4095104832,63
o,1723569230.718570,10.0.2.15,22,10.0.2.2,50572,1073725440,17746,1026,65535,65700,0,0,4,1460,312,0,16777220,240000,33580,244,65700,0,172,0,4095104832,63
i,1723569230.718914,10.0.2.15,22,10.0.2.2,50572,1073725440,17746,1026,65535,65700,0,0,4,1460,312,0,16777220,240000,33580,244,65700,0,244,0,4095104832,63
i,1723569230.718931,10.0.2.15,22,10.0.2.2,50572,1073725440,17918,1026,65535,65700,0,0,4,1460,312,0,4,240000,33580,72,65700,0,72,0,4095104832,63
i,1723569230.718946,10.0.2.15,22,10.0.2.2,50572,1073725440,17990,1026,65535,65700,0,0,4,1460,312,0,4,240000,33580,0,65700,0,0,0,4095104832,63
i,1723569230.718986,10.0.2.15,22,10.0.2.2,50572,1073725440,17990,1026,65535,65700,0,0,4,1460,312,0,4,240000,33580,0,65700,96,0,0,4095104832,63
o,1723569230.719003,10.0.2.15,22,10.0.2.2,50572,1073725440,17990,1026,65535,65604,0,0,5,1460,312,0,5,240000,33580,0,65700,96,0,0,4095104832,63
o,1723569230.719588,10.0.2.15,22,10.0.2.2,50572,1073725440,17990,1026,65535,65604,0,0,8,1460,312,0,4,240000,33580,0,65700,0,0,0,4095104832,63
i,1723569230.720196,10.0.2.15,22,10.0.2.2,50572,1073725440,17990,1026,65535,65604,0,0,8,1460,312,0,67108884,240000,33580,0,65700,0,1,0,4095104832,63
i,1723569233.879283,10.0.2.15,22,10.0.2.2,50586,1073725440,14600,0,65535,65700,0,0,4,1460,312,0,16777216,270000,33580,0,65700,0,0,0,3868711207,63
o,1723569233.887823,10.0.2.15,22,10.0.2.2,50586,1073725440,14600,1026,65535,65700,0,0,4,1460,312,0,16777216,270000,33580,38,65700,42,0,0,3868711207,63
i,1723569233.888648,10.0.2.15,22,10.0.2.2,50586,1073725440,14600,1026,65535,65700,0,0,4,1460,312,0,16777216,270000,33580,38,65700,0,38,0,3868711207,63
i,1723569233.888665,10.0.2.15,22,10.0.2.2,50586,1073725440,14638,1026,65535,65700,0,0,4,1460,312,0,0,240000,33580,0,65700,0,0,0,3868711207,63
i,1723569233.888680,10.0.2.15,22,10.0.2.2,50586,1073725440,14638,1026,65535,65700,0,0,4,1460,312,0,0,240000,33580,0,65700,1460,0,0,3868711207,63
o,1723569233.888695,10.0.2.15,22,10.0.2.2,50586,1073725440,14638,1026,65535,65700,0,0,4,1460,312,0,1,240000,33580,0,65700,1536,0,0,3868711207,63
o,1723569233.889486,10.0.2.15,22,10.0.2.2,50586,1073725440,14638,1026,65535,65700,0,0,4,1460,312,0,16777216,240000,33580,1120,65700,1536,0,0,3868711207,63
i,1723569233.890131,10.0.2.15,22,10.0.2.2,50586,1073725440,14638,1026,65535,65700,0,0,4,1460,312,0,16777216,240000,33580,1120,65700,0,1120,0,3868711207,63
i,1723569233.891376,10.0.2.15,22,10.0.2.2,50586,1073725440,15758,1026,65535,65700,0,0,4,1460,312,0,0,240000,33580,0,65700,0,0,0,3868711207,63
o,1723569233.894287,10.0.2.15,22,10.0.2.2,50586,1073725440,15758,1026,65535,65700,0,0,4,1460,312,0,16777216,240000,33580,492,65700,0,0,0,3868711207,63
i,1723569233.895535,10.0.2.15,22,10.0.2.2,50586,1073725440,15758,1026,65535,65700,0,0,4,1460,312,0,16777216,240000,33580,492,65700,0,492,0,3868711207,63
i,1723569233.899207,10.0.2.15,22,10.0.2.2,50586,1073725440,16250,1026,65535,65700,0,0,4,1460,312,0,0,240000,33580,0,65700,0,0,0,3868711207,63
i,1723569233.899253,10.0.2.15,22,10.0.2.2,50586,1073725440,16250,1026,65535,65700,0,0,4,1460,312,0,0,240000,33580,0,65700,16,0,0,3868711207,63
o,1723569233.899299,10.0.2.15,22,10.0.2.2,50586,1073725440,16250,1026,65535,65700,0,0,4,1460,312,0,1,240000,33580,0,65700,60,0,0,3868711207,63
o,1723569233.899720,10.0.2.15,22,10.0.2.2,50586,1073725440,16250,1026,65535,65700,0,0,4,1460,312,0,16777216,240000,33580,44,65700,0,0,0,3868711207,63
i,1723569233.902451,10.0.2.15,22,10.0.2.2,50586,1073725440,16250,1026,65535,65700,0,0,4,1460,312,0,16777216,240000,33580,44,65700,0,44,0,3868711207,63
i,1723569233.902490,10.0.2.15,22,10.0.2.2,50586,1073725440,16294,1026,65535,65700,0,0,4,1460,312,0,0,240000,33580,0,65700,0,0,0,3868711207,63
o,1723569233.908891,10.0.2.15,22,10.0.2.2,50586,1073725440,16294,1026,65535,65700,0,0,4,1460,312,0,16777216,240000,33580,68,65700,0,0,0,3868711207,63
i,1723569233.909667,10.0.2.15,22,10.0.2.2,50586,1073725440,16294,1026,65535,65700,0,0,4,1460,312,0,16777216,240000,33580,68,65700,0,68,0,3868711207,63
i,1723569233.909698,10.0.2.15,22,10.0.2.2,50586,1073725440,16362,1026,65535,65700,0,0,4,1460,312,0,0,240000,33580,0,65700,0,0,0,3868711207,63
o,1723569233.910415,10.0.2.15,22,10.0.2.2,50586,1073725440,16362,1026,65535,65700,0,0,4,1460,312,0,16777216,240000,33580,332,65700,0,0,0,3868711207,63
i,1723569233.910936,10.0.2.15,22,10.0.2.2,50586,1073725440,16362,1026,65535,65700,0,0,4,1460,312,0,16777216,240000,33580,332,65700,0,332,0,3868711207,63
i,1723569233.912543,10.0.2.15,22,10.0.2.2,50586,1073725440,16694,1026,65535,65700,0,0,4,1460,312,0,0,240000,33580,0,65700,0,0,0,3868711207,63
o,1723569233.930544,10.0.2.15,22,10.0.2.2,50586,1073725440,16694,1026,65535,65700,0,0,4,1460,312,0,16777216,240000,33580,28,65700,0,0,0,3868711207,63
i,1723569233.931079,10.0.2.15,22,10.0.2.2,50586,1073725440,16694,1026,65535,65700,0,0,4,1460,312,0,16777216,240000,33580,28,65700,0,28,0,3868711207,63
i,1723569233.931098,10.0.2.15,22,10.0.2.2,50586,1073725440,16722,1026,65535,65700,0,0,4,1460,312,0,0,240000,33580,0,65700,0,0,0,3868711207,63
o,1723569233.932296,10.0.2.15,22,10.0.2.2,50586,1073725440,16722,1026,65535,65700,0,0,4,1460,312,0,16777216,240000,33580,768,65700,112,0,0,3868711207,63
i,1723569233.934114,10.0.2.15,22,10.0.2.2,50586,1073725440,16722,1026,65535,65700,0,0,4,1460,312,0,16777216,240000,33580,908,65700,0,768,0,3868711207,63
o,1723569233.934132,10.0.2.15,22,10.0.2.2,50586,1073725440,17490,1026,65535,65700,0,0,4,1460,312,0,16777216,240000,33580,140,65700,0,0,0,3868711207,63
i,1723569233.934435,10.0.2.15,22,10.0.2.2,50586,1073725440,17490,1026,65535,65700,0,0,4,1460,312,0,16777216,240000,33580,140,65700,0,140,0,3868711207,63
o,1723569233.934551,10.0.2.15,22,10.0.2.2,50586,1073725440,17630,1026,65535,65700,0,0,4,1460,312,0,16777216,240000,33580,44,65700,0,0,0,3868711207,63
i,1723569233.935030,10.0.2.15,22,10.0.2.2,50586,1073725440,17630,1026,65535,65700,0,0,4,1460,312,0,16777216,240000,33580,44,65700,0,44,0,3868711207,63
i,1723569233.935045,10.0.2.15,22,10.0.2.2,50586,1073725440,17674,1026,65535,65700,0,0,4,1460,312,0,0,240000,33580,0,65700,0,0,0,3868711207,63
o,1723569233.935735,10.0.2.15,22,10.0.2.2,50586,1073725440,17674,1026,65535,65700,0,0,4,1460,312,0,16777220,240000,33580,72,65700,0,0,0,3868711207,63
i,1723569233.936089,10.0.2.15,22,10.0.2.2,50586,1073725440,17674,1026,65535,65700,0,0,4,1460,312,0,16777220,240000,33580,72,65700,0,72,0,3868711207,63
o,1723569233.938495,10.0.2.15,22,10.0.2.2,50586,1073725440,17746,1026,65535,65700,0,0,4,1460,312,0,16777220,240000,33580,104,65700,0,0,0,3868711207,63
i,1723569233.938950,10.0.2.15,22,10.0.2.2,50586,1073725440,17746,1026,65535,65700,0,0,4,1460,312,0,16777220,240000,33580,104,65700,0,104,0,3868711207,63
o,1723569233.946664,10.0.2.15,22,10.0.2.2,50586,1073725440,17850,1026,65535,65700,0,0,4,1460,312,0,16777220,240000,33580,72,65700,0,0,0,3868711207,63
i,1723569233.947910,10.0.2.15,22,10.0.2.2,50586,1073725440,17850,1026,65535,65700,0,0,4,1460,312,0,16777220,240000,33580,72,65700,0,72,0,3868711207,63
i,1723569233.947970,10.0.2.15,22,10.0.2.2,50586,1073725440,17922,1026,65535,65700,0,0,4,1460,312,0,4,240000,33580,0,65700,0,0,0,3868711207,63
i,1723569233.948045,10.0.2.15,22,10.0.2.2,50586,1073725440,17922,1026,65535,65700,0,0,4,1460,312,0,4,240000,33580,0,65700,96,0,0,3868711207,63
o,1723569233.948067,10.0.2.15,22,10.0.2.2,50586,1073725440,17922,1026,65535,65604,0,0,5,1460,312,0,5,240000,33580,0,65700,96,0,0,3868711207,63
o,1723569233.949190,10.0.2.15,22,10.0.2.2,50586,1073725440,17922,1026,65535,65604,0,0,8,1460,312,0,4,240000,33580,0,65700,0,0,0,3868711207,63
i,1723569233.951905,10.0.2.15,22,10.0.2.2,50586,1073725440,17922,1026,65535,65604,0,0,8,1460,312,0,67108884,240000,33580,0,65700,0,1,0,3868711207,63
i,1723569234.990919,10.0.2.15,22,10.0.2.2,50588,1073725440,14600,0,65535,65700,0,0,4,1460,312,0,16777216,270000,33580,0,65700,0,0,0,504056637,63
o,1723569235.003736,10.0.2.15,22,10.0.2.2,50588,1073725440,14600,1026,65535,65700,0,0,4,1460,312,0,16777216,270000,33580,38,65700,42,0,0,504056637,63
i,1723569235.004696,10.0.2.15,22,10.0.2.2,50588,1073725440,14600,1026,65535,65700,0,0,4,1460,312,0,16777216,270000,33580,38,65700,0,38,0,504056637,63
i,1723569235.004757,10.0.2.15,22,10.0.2.2,50588,1073725440,14638,1026,65535,65700,0,0,4,1460,312,0,0,240000,33580,0,65700,0,0,0,504056637,63
i,1723569235.004773,10.0.2.15,22,10.0.2.2,50588,1073725440,14638,1026,65535,65700,0,0,4,1460,312,0,0,240000,33580,0,65700,1460,0,0,504056637,63
o,1723569235.004819,10.0.2.15,22,10.0.2.2,50588,1073725440,14638,1026,65535,65700,0,0,4,1460,312,0,1,240000,33580,0,65700,1536,0,0,504056637,63
o,1723569235.006387,10.0.2.15,22,10.0.2.2,50588,1073725440,14638,1026,65535,65700,0,0,4,1460,312,0,16777216,240000,33580,1120,65700,1536,0,0,504056637,63
i,1723569235.007054,10.0.2.15,22,10.0.2.2,50588,1073725440,14638,1026,65535,65700,0,0,4,1460,312,0,16777216,240000,33580,1120,65700,0,1120,0,504056637,63
i,1723569235.008097,10.0.2.15,22,10.0.2.2,50588,1073725440,15758,1026,65535,65700,0,0,4,1460,312,0,0,240000,33580,0,65700,0,0,0,504056637,63
o,1723569235.011452,10.0.2.15,22,10.0.2.2,50588,1073725440,15758,1026,65535,65700,0,0,4,1460,312,0,16777216,240000,33580,492,65700,0,0,0,504056637,63
i,1723569235.012026,10.0.2.15,22,10.0.2.2,50588,1073725440,15758,1026,65535,65700,0,0,4,1460,312,0,16777216,240000,33580,492,65700,0,492,0,504056637,63
i,1723569235.016324,10.0.2.15,22,10.0.2.2,50588,1073725440,16250,1026,65535,65700,0,0,4,1460,312,0,0,240000,33580,0,65700,0,0,0,504056637,63
i,1723569235.017802,10.0.2.15,22,10.0.2.2,50588,1073725440,16250,1026,65535,65700,0,0,4,1460,312,0,0,240000,33580,0,65700,0,0,0,504056637,63
o,1723569235.017821,10.0.2.15,22,10.0.2.2,50588,1073725440,16250,1026,65535,65700,0,0,4,1460,312,0,1,240000,33580,0,65700,44,0,0,504056637,63
o,1723569235.018111,10.0.2.15,22,10.0.2.2,50588,1073725440,16250,1026,65535,65700,0,0,4,1460,312,0,16777216,240000,33580,44,65700,0,0,0,504056637,63
i,1723569235.018876,10.0.2.15,22,10.0.2.2,50588,1073725440,16250,1026,65535,65700,0,0,4,1460,312,0,16777216,240000,33580,44,65700,0,44,0,504056637,63
i,1723569235.018895,10.0.2.15,22,10.0.2.2,50588,1073725440,16294,1026,65535,65700,0,0,4,1460,312,0,0,240000,33580,0,65700,0,0,0,504056637,63
o,1723569235.020749,10.0.2.15,22,10.0.2.2,50588,1073725440,16294,1026,65535,65700,0,0,4,1460,312,0,16777216,240000,33580,68,65700,0,0,0,504056637,63
i,1723569235.021199,10.0.2.15,22,10.0.2.2,50588,1073725440,16294,1026,65535,65700,0,0,4,1460,312,0,16777216,240000,33580,68,65700,0,68,0,504056637,63
i,1723569235.021217,10.0.2.15,22,10.0.2.2,50588,1073725440,16362,1026,65535,65700,0,0,4,1460,312,0,0,240000,33580,0,65700,0,0,0,504056637,63
o,1723569235.022478,10.0.2.15,22,10.0.2.2,50588,1073725440,16362,1026,65535,65700,0,0,4,1460,312,0,16777216,240000,33580,332,65700,0,0,0,504056637,63
i,1723569235.023265,10.0.2.15,22,10.0.2.2,50588,1073725440,16362,1026,65535,65700,0,0,4,1460,312,0,16777216,240000,33580,332,65700,0,332,0,504056637,63
i,1723569235.024423,10.0.2.15,22,10.0.2.2,50588,1073725440,16694,1026,65535,65700,0,0,4,1460,312,0,0,240000,33580,0,65700,0,0,0,504056637,63
o,1723569235.042193,10.0.2.15,22,10.0.2.2,50588,1073725440,16694,1026,65535,65700,0,0,4,1460,312,0,16777216,240000,33580,28,65700,0,0,0,504056637,63
i,1723569235.042867,10.0.2.15,22,10.0.2.2,50588,1073725440,16694,1026,65535,65700,0,0,4,1460,312,0,16777216,240000,33580,28,65700,0,28,0,504056637,63
i,1723569235.042890,10.0.2.15,22,10.0.2.2,50588,1073725440,16722,1026,65535,65700,0,0,4,1460,312,0,0,240000,33580,0,65700,0,0,0,504056637,63
o,1723569235.044804,10.0.2.15,22,10.0.2.2,50588,1073725440,16722,1026,65535,65700,0,0,4,1460,312,0,16777216,240000,33580,768,65700,112,0,0,504056637,63
i,1723569235.045934,10.0.2.15,22,10.0.2.2,50588,1073725440,16722,1026,65535,65700,0,0,4,1460,312,0,16777216,240000,33580,908,65700,112,768,0,504056637,63
o,1723569235.045954,10.0.2.15,22,10.0.2.2,50588,1073725440,17490,1026,65535,65700,0,0,4,1460,312,0,16777216,240000,33580,140,65700,112,0,0,504056637,63
i,1723569235.046402,10.0.2.15,22,10.0.2.2,50588,1073725440,17490,1026,65535,65700,0,0,4,1460,312,0,16777216,240000,33580,140,65700,112,140,0,504056637,63
o,1723569235.047320,10.0.2.15,22,10.0.2.2,50588,1073725440,17630,1026,65535,65700,0,0,4,1460,312,0,16777216,240000,33580,44,65700,0,0,0,504056637,63
i,1723569235.047800,10.0.2.15,22,10.0.2.2,50588,1073725440,17630,1026,65535,65700,0,0,4,1460,312,0,16777216,240000,33580,44,65700,0,44,0,504056637,63
i,1723569235.047865,10.0.2.15,22,10.0.2.2,50588,1073725440,17674,1026,65535,65700,0,0,4,1460,312,0,0,240000,33580,0,65700,0,0,0,504056637,63
o,1723569235.048480,10.0.2.15,22,10.0.2.2,50588,1073725440,17674,1026,65535,65700,0,0,4,1460,312,0,16777220,240000,33580,72,65700,0,0,0,504056637,63
i,1723569235.048937,10.0.2.15,22,10.0.2.2,50588,1073725440,17674,1026,65535,65700,0,0,4,1460,312,0,16777220,240000,33580,72,65700,0,72,0,504056637,63
o,1723569235.176201,172.16.5.2,53608,172.16.1.2,5102,8250,14480,2082,65535,65700,6,6,4,1460,184687,1,16778209,630000,33580,0,65700,0,0,0,2380905407,63
o,1723569235.176607,172.16.5.2,53608,172.16.1.2,5102,8250,14480,2082,65535,65700,6,6,4,1460,184687,1,16778212,630000,33580,37,65700,0,0,0,2380905407,63
i,1723569235.306850,172.16.5.2,53608,172.16.1.2,5102,8250,14480,2082,65535,65700,6,6,4,1460,184687,1,16778212,630000,33580,37,65700,0,37,0,2380905407,63
o,1723569235.307053,172.16.5.2,53608,172.16.1.2,5102,8250,14480,3106,65728,65728,6,6,4,1460,178125,1,16778212,610000,33580,4,65700,0,0,0,2380905407,63
o,1723569235.307422,172.16.5.2,53608,172.16.1.2,5102,8250,14480,3106,65728,65728,6,6,4,1460,178125,1,16778212,610000,33580,130,65700,0,4,0,2380905407,63
i,1723569235.429164,172.16.5.2,53608,172.16.1.2,5102,8250,14480,3106,65728,65728,6,6,4,1460,178125,1,16778212,610000,33580,130,65700,0,130,0,2380905407,63
i,1723569235.429213,172.16.5.2,53608,172.16.1.2,5102,8250,14480,3106,65600,65728,6,6,4,1460,170937,1,996,600000,33580,0,65700,0,0,0,2380905407,63
o,1723569235.487029,172.16.5.2,53608,172.16.1.2,5102,8250,14480,3106,65728,65728,6,6,4,1460,170937,1,997,600000,33580,0,65700,0,0,0,2380905407,63
o,1723569235.530300,172.16.5.2,64481,172.16.1.2,5102,8250,14480,2082,65535,65700,6,6,4,1460,180937,1,16778209,660000,33580,0,65700,0,0,0,1076263782,63
o,1723569235.530481,172.16.5.2,64481,172.16.1.2,5102,8250,14480,2082,65535,65700,6,6,4,1460,180937,1,16778208,660000,33580,37,65700,0,0,0,1076263782,63
i,1723569235.662888,172.16.5.2,53608,172.16.1.2,5102,8250,14480,3106,65728,65728,6,6,4,1460,170937,1,996,600000,33580,0,65700,0,0,0,2380905407,63
i,1723569235.663913,172.16.5.2,53608,172.16.1.2,5102,8250,14480,3106,65728,65728,6,6,4,1460,170937,1,996,600000,33580,0,65700,0,0,0,2380905407,63
o,1723569235.663978,172.16.5.2,53608,172.16.1.2,5102,8250,14480,3106,65728,65728,6,6,4,1460,170937,1,997,600000,33580,0,65700,1,0,0,2380905407,63
o,1723569235.664579,172.16.5.2,64481,172.16.1.2,5102,8250,14480,2086,65535,65700,6,6,4,1460,180937,1,16778208,660000,33580,33580,65700,0,37,0,1076263782,63
i,1723569235.690855,172.16.5.2,64481,172.16.1.2,5102,8250,14480,2086,65535,65700,6,6,4,1460,180937,1,16778208,660000,33580,33580,65700,0,13069,0,1076263782,63
o,1723569235.690928,172.16.5.2,64481,172.16.1.2,5102,8250,14480,2082,65728,65728,6,6,4,1460,178437,1,16778208,600000,33580,33543,65700,0,13032,0,1076263782,63
i,1723569236.183014,172.16.5.2,64481,172.16.1.2,5102,8250,14480,2082,65728,65728,6,6,4,1460,178437,1,16778208,600000,33580,33543,65700,0,14480,0,1076263782,63
o,1723569236.183047,172.16.5.2,64481,172.16.1.2,5102,8250,14480,2086,64256,65728,6,6,4,1460,221250,1,16778208,930000,33580,30647,65700,0,11584,0,1076263782,63
i,1723569236.183173,172.16.5.2,64481,172.16.1.2,5102,8250,14480,2086,64256,65728,6,6,4,1460,221250,1,16778208,930000,33580,30647,65700,0,14480,0,1076263782,63
o,1723569236.183422,172.16.5.2,64481,172.16.1.2,5102,8250,14480,2086,64256,65728,6,6,4,1460,258750,1,16778208,1140000,33580,27751,65700,0,11584,0,1076263782,63
i,1723569236.200768,172.16.5.2,64481,172.16.1.2,5102,8250,14480,2086,64256,65728,6,6,4,1460,258750,1,16778208,1140000,33580,33580,65700,0,14480,0,1076263782,63
o,1723569236.200990,172.16.5.2,64481,172.16.1.2,5102,8250,14480,2086,64256,65728,6,6,4,1460,294062,1,16778208,1290000,33580,30684,65700,0,11584,0,1076263782,63
i,1723569236.401783,172.16.5.2,64481,172.16.1.2,5102,8250,14480,2086,64256,65728,6,6,4,1460,294062,1,16778208,1290000,33580,33580,65700,0,14480,0,1076263782,63
o,1723569236.401861,172.16.5.2,64481,172.16.1.2,5102,8250,14480,2086,62848,65728,6,6,4,1460,350000,1,16778208,1590000,33580,29236,65700,0,10136,0,1076263782,63
i,1723569236.466326,172.16.5.2,64481,172.16.1.2,5102,8250,14480,2086,62848,65728,6,6,4,1460,350000,1,16778208,1590000,33580,33580,65700,0,14480,0,1076263782,63
o,1723569236.466398,172.16.5.2,64481,172.16.1.2,5102,8250,15940,2086,65728,65728,6,6,4,1460,403750,1,16778208,1820000,33580,32132,65700,0,13032,0,1076263782,63
o,1723569236.466595,172.16.5.2,64481,172.16.1.2,5102,8250,15940,2086,65728,65728,6,6,4,1460,403750,1,16778208,1820000,33580,32132,65700,0,14480,0,1076263782,63
i,1723569236.701602,172.16.5.2,64481,172.16.1.2,5102,8250,15940,2086,65728,65728,6,6,4,1460,403750,1,16778208,1820000,33580,32132,65700,0,15928,0,1076263782,63
o,1723569236.701636,172.16.5.2,64481,172.16.1.2,5102,8250,15940,2086,64256,65728,6,6,4,1460,418437,1,16778208,1650000,33580,29236,65700,0,13032,0,1076263782,63
i,1723569236.745140,172.16.5.2,64481,172.16.1.2,5102,8250,15940,2086,64256,65728,6,6,4,1460,418437,1,16778208,1650000,33580,33580,65700,0,15928,0,1076263782,63
o,1723569236.745172,172.16.5.2,64481,172.16.1.2,5102,8250,15940,2086,64256,65728,6,6,4,1460,433750,1,16778208,1530000,33580,27788,65700,0,10136,0,1076263782,63
i,1723569236.769735,172.16.5.2,64481,172.16.1.2,5102,8250,15940,2086,64256,65728,6,6,4,1460,433750,1,16778208,1530000,33580,33580,65700,0,15928,0,1076263782,63
o,1723569236.769758,172.16.5.2,64481,172.16.1.2,5102,8250,15940,2086,64256,65728,6,6,4,1460,425937,1,16778208,1360000,33580,30684,65700,0,13032,0,1076263782,63
i,1723569236.799841,172.16.5.2,64481,172.16.1.2,5102,8250,15940,2086,64256,65728,6,6,4,1460,425937,1,16778208,1360000,41772,41772,65700,0,15928,0,1076263782,63
o,1723569236.799883,172.16.5.2,64481,172.16.1.2,5102,8250,15940,2086,64256,65728,6,6,4,1460,422812,1,16778208,1200000,41772,38876,65700,0,13032,0,1076263782,63
o,1723569236.800026,172.16.5.2,64481,172.16.1.2,5102,8250,15940,2086,64256,65728,6,6,4,1460,422812,1,16778208,1200000,41772,38876,65700,0,14480,0,1076263782,63
i,1723569236.835563,172.16.5.2,64481,172.16.1.2,5102,8250,15940,2086,64256,65728,6,6,4,1460,422812,1,16778208,1200000,41772,41772,65700,0,15928,0,1076263782,63
o,1723569236.835587,172.16.5.2,64481,172.16.1.2,5102,8250,17400,2086,65728,65728,6,6,4,1460,415000,1,16778208,1110000,41772,40324,65700,0,14480,0,1076263782,63
i,1723569236.919223,172.16.5.2,64481,172.16.1.2,5102,8250,17400,2086,65728,65728,6,6,4,1460,415000,1,16778208,1110000,41772,40324,65700,0,17376,0,1076263782,63
o,1723569236.919308,172.16.5.2,64481,172.16.1.2,5102,8250,17400,2086,62848,65728,6,6,4,1460,390625,1,16778208,1160000,41772,37428,65700,0,14480,0,1076263782,63
i,1723569237.026489,172.16.5.2,64481,172.16.1.2,5102,8250,17400,2086,62848,65728,6,6,4,1460,390625,1,16778208,1160000,41772,41772,65700,0,17376,0,1076263782,63
o,1723569237.026521,172.16.5.2,64481,172.16.1.2,5102,8250,17400,2086,64256,65728,6,6,4,1460,378125,1,16778208,1100000,41772,38876,65700,0,14480,0,1076263782,63
i,1723569237.061141,172.16.5.2,64481,172.16.1.2,5102,8250,17400,2086,64256,65728,6,6,4,1460,378125,1,16778208,1100000,41772,41772,65700,0,17376,0,1076263782,63
o,1723569237.061167,172.16.5.2,64481,172.16.1.2,5102,8250,17400,2086,64256,65728,6,6,4,1460,370937,1,16778208,1020000,41772,38876,65700,0,14480,0,1076263782,63
i,1723569237.061326,172.16.5.2,64481,172.16.1.2,5102,8250,17400,2086,64256,65728,6,6,4,1460,370937,1,16778208,1020000,41772,38876,65700,0,17376,0,1076263782,63
o,1723569237.061343,172.16.5.2,64481,172.16.1.2,5102,8250,17400,2086,62848,65728,6,6,4,1460,360937,1,16778208,980000,41772,35980,65700,0,14480,0,1076263782,63
i,1723569237.095610,172.16.5.2,64481,172.16.1.2,5102,8250,17400,2086,62848,65728,6,6,4,1460,360937,1,16778208,980000,41772,41772,65700,0,17376,0,1076263782,63
o,1723569237.095754,172.16.5.2,64481,172.16.1.2,5102,8250,17400,2086,64256,65728,6,6,4,1460,352187,1,16778208,930000,41772,38876,65700,0,14480,0,1076263782,63
o,1723569237.095962,172.16.5.2,64481,172.16.1.2,5102,8250,17400,2086,64256,65728,6,6,4,1460,352187,1,16778208,930000,41772,38876,65700,0,15928,0,1076263782,63
i,1723569237.148660,172.16.5.2,64481,172.16.1.2,5102,8250,17400,2086,64256,65728,6,6,4,1460,352187,1,16778208,930000,41772,41772,65700,0,17376,0,1076263782,63
o,1723569237.148700,172.16.5.2,64481,172.16.1.2,5102,8250,18860,2086,62848,65728,6,6,4,1460,347187,1,16778208,870000,41772,38876,65700,0,14480,0,1076263782,63
i,1723569237.176420,172.16.5.2,64481,172.16.1.2,5102,8250,18860,2086,62848,65728,6,6,4,1460,347187,1,16778208,870000,41772,41772,65700,0,18824,0,1076263782,63
o,1723569237.176577,172.16.5.2,64481,172.16.1.2,5102,8250,18860,2086,65728,65728,6,6,4,1460,336562,1,16778208,870000,41772,40324,65700,0,17376,0,1076263782,63
i,1723569237.234748,172.16.5.2,64481,172.16.1.2,5102,8250,18860,2086,65728,65728,6,6,4,1460,336562,1,16778208,870000,41772,40324,65700,0,18824,0,1076263782,63
o,1723569237.234778,172.16.5.2,64481,172.16.1.2,5102,8250,18860,2086,65728,65728,6,6,4,1460,333437,1,16778208,810000,41772,38876,65700,0,17376,0,1076263782,63
i,1723569237.313044,172.16.5.2,64481,172.16.1.2,5102,8250,18860,2086,65728,65728,6,6,4,1460,333437,1,16778208,810000,41772,41772,65700,0,18824,0,1076263782,63
o,1723569237.313076,172.16.5.2,64481,172.16.1.2,5102,8250,18860,2086,64256,65728,6,6,4,1460,326875,1,16778208,780000,41772,38876,65700,0,15928,0,1076263782,63
i,1723569237.392852,172.16.5.2,64481,172.16.1.2,5102,8250,18860,2086,64256,65728,6,6,4,1460,326875,1,16778208,780000,41772,41772,65700,0,18824,0,1076263782,63
o,1723569237.392885,172.16.5.2,64481,172.16.1.2,5102,8250,18860,2086,62848,65728,6,6,4,1460,327500,1,16778208,730000,41772,38876,65700,0,15928,0,1076263782,63
i,1723569237.507178,172.16.5.2,64481,172.16.1.2,5102,8250,18860,2086,62848,65728,6,6,4,1460,327500,1,16778208,730000,41772,41772,65700,0,18824,0,1076263782,63
o,1723569237.507248,172.16.5.2,64481,172.16.1.2,5102,8250,18860,2086,65728,65728,6,6,4,1460,342812,1,16778208,810000,41772,40324,65700,0,17376,0,1076263782,63
i,1723569237.507370,172.16.5.2,64481,172.16.1.2,5102,8250,18860,2086,65728,65728,6,6,4,1460,342812,1,16778208,810000,41772,40324,65700,0,18824,0,1076263782,63
i,1723569237.507399,172.16.5.2,64481,172.16.1.2,5102,11567,17376,2150,65728,65728,6,6,4,1460,356250,1,553649120,870000,41772,38876,65700,0,17376,0,1076263782,63
i,1723569237.557492,172.16.5.2,64481,172.16.1.2,5102,11567,15928,2150,64320,65728,6,6,4,1460,363125,1,536871904,850000,41772,41772,65700,0,15928,0,1076263782,63
o,1723569237.557563,172.16.5.2,64481,172.16.1.2,5102,7964,1448,2146,64320,65728,6,6,4,1460,363125,1,554697696,850000,41772,41772,65700,0,15928,0,1076263782,63
o,1723569237.557998,172.16.5.2,64481,172.16.1.2,5102,7964,2896,2146,64320,65728,6,6,4,1460,363125,1,554697697,850000,41772,41772,65700,0,15928,0,1076263782,63
i,1723569237.558472,172.16.5.2,64481,172.16.1.2,5102,7964,2896,2146,64256,65728,6,6,4,1460,375312,1,554697696,890000,41772,40324,65700,0,14480,0,1076263782,63
o,1723569237.558564,172.16.5.2,64481,172.16.1.2,5102,7964,1448,2146,64256,65728,6,6,4,1460,375312,1,554697697,890000,41772,40324,65700,0,14480,0,1076263782,63
i,1723569237.648625,172.16.5.2,64481,172.16.1.2,5102,7964,1448,2146,64256,65728,6,6,4,1460,379687,1,554697696,850000,41772,41772,65700,0,13032,0,1076263782,63
o,1723569237.648662,172.16.5.2,64481,172.16.1.2,5102,7964,1448,2146,64256,65728,6,6,4,1460,379687,1,554697697,850000,41772,41772,65700,0,13032,0,1076263782,63
i,1723569237.667203,172.16.5.2,64481,172.16.1.2,5102,7964,1448,2146,64256,65728,6,6,4,1460,395000,1,554697696,920000,41772,40324,65700,0,11584,0,1076263782,63
o,1723569237.667229,172.16.5.2,64481,172.16.1.2,5102,7964,2896,2146,64256,65728,6,6,4,1460,395000,1,554697697,920000,41772,40324,65700,0,11584,0,1076263782,63
o,1723569237.667363,172.16.5.2,64481,172.16.1.2,5102,7964,2896,2082,64256,65728,6,6,4,1460,395000,1,554697696,920000,41772,40324,65700,0,11584,0,1076263782,63
i,1723569237.896828,172.16.5.2,64481,172.16.1.2,5102,7964,2896,2082,62848,65728,6,6,4,1460,410625,1,554697696,980000,41772,41772,65700,0,10136,0,1076263782,63
o,1723569237.896856,172.16.5.2,64481,172.16.1.2,5102,7964,2896,2082,62848,65728,6,6,4,1460,410625,1,554697697,980000,41772,41772,65700,0,10136,0,1076263782,63
i,1723569237.912238,172.16.5.2,64481,172.16.1.2,5102,7964,2896,2082,65728,65728,6,6,4,1460,443125,1,554697696,1180000,41772,40324,65700,0,8688,0,1076263782,63
i,1723569237.912278,172.16.5.2,64481,172.16.1.2,5102,7964,2896,2082,65728,65728,6,6,4,1460,443125,1,554697696,1180000,41772,40324,65700,0,8688,0,1076263782,63
o,1723569237.912307,172.16.5.2,64481,172.16.1.2,5102,7964,4344,2082,65728,65728,6,6,4,1460,443125,1,554697697,1180000,41772,40324,65700,0,8688,0,1076263782,63
i,1723569237.912503,172.16.5.2,64481,172.16.1.2,5102,7964,4344,2082,65728,65728,6,6,4,1460,462812,1,554697696,1220000,41772,38876,65700,0,8688,0,1076263782,63
o,1723569237.912520,172.16.5.2,64481,172.16.1.2,5102,7964,5792,2082,65728,65728,6,6,4,1460,462812,1,554697697,1220000,41772,38876,65700,0,8688,0,1076263782,63
i,1723569237.912692,172.16.5.2,64481,172.16.1.2,5102,7964,5792,2082,65728,65728,6,6,4,1460,480000,1,554697696,1240000,41772,37428,65700,0,8688,0,1076263782,63
o,1723569237.912710,172.16.5.2,64481,172.16.1.2,5102,7964,5792,2086,65728,65728,6,6,4,1460,480000,1,554697696,1240000,41772,37428,65700,0,8688,0,1076263782,63
o,1723569237.912856,172.16.5.2,64481,172.16.1.2,5102,7964,5792,2082,65728,65728,6,6,4,1460,480000,1,554697696,1240000,41772,37428,65700,0,8688,0,1076263782,63
i,1723569237.913024,172.16.5.2,64481,172.16.1.2,5102,7964,5792,2082,65728,65728,6,6,4,1460,480000,1,554697696,1240000,41772,37428,65700,0,8688,0,1076263782,63
i,1723569237.953033,172.16.5.2,64481,172.16.1.2,5102,7964,5792,2082,65728,65728,6,6,4,1460,480000,1,537920480,1240000,41772,41772,65700,0,8688,0,1076263782,63
i,1723569237.953066,172.16.5.2,64481,172.16.1.2,5102,7964,5792,2082,65728,65728,6,6,4,1460,480000,1,537920480,1240000,41772,41772,65700,0,8688,0,1076263782,63
i,1723569238.189734,172.16.5.2,64481,172.16.1.2,5102,7964,8688,2082,65728,65728,6,6,4,1460,480000,1,537920480,1240000,41772,41772,65700,0,8688,0,1076263782,63
o,1723569238.189802,172.16.5.2,64481,172.16.1.2,5102,7964,10136,2082,65728,65728,6,6,4,1460,480000,1,554697696,1240000,41772,41772,65700,0,8688,0,1076263782,63
i,1723569238.215448,172.16.5.2,64481,172.16.1.2,5102,7964,10136,2082,65728,65728,6,6,4,1460,480000,1,554697696,1240000,41772,41772,65700,0,10136,0,1076263782,63
o,1723569238.215471,172.16.5.2,64481,172.16.1.2,5102,7964,10136,2082,65728,65728,6,6,4,1460,480000,1,554697697,1240000,41772,41772,65700,0,10136,0,1076263782,63
i,1723569238.215632,172.16.5.2,64481,172.16.1.2,5102,7964,10136,2082,64320,65728,6,6,4,1460,457500,1,554697696,1250000,41772,40324,65700,0,10136,0,1076263782,63
o,1723569238.215647,172.16.5.2,64481,172.16.1.2,5102,7964,13032,2086,64320,65728,6,6,4,1460,457500,1,554697696,1250000,41772,40324,65700,0,10136,0,1076263782,63
i,1723569238.215802,172.16.5.2,64481,172.16.1.2,5102,7964,13032,2086,64320,65728,6,6,4,1460,457500,1,554697696,1250000,41772,40324,65700,0,13032,0,1076263782,63
i,1723569238.429891,172.16.5.2,64481,172.16.1.2,5102,7964,5804,2086,58496,65728,6,6,4,1460,437812,1,16778208,1240000,41772,41772,65700,0,5792,0,1076263782,63
o,1723569238.429969,172.16.5.2,64481,172.16.1.2,5102,7964,8700,2086,64256,65728,6,6,4,1460,413125,1,16778208,1260000,41772,38876,65700,0,2896,0,1076263782,63
o,1723569238.430088,172.16.5.2,64481,172.16.1.2,5102,7964,8700,2086,64256,65728,6,6,4,1460,413125,1,16778208,1260000,41772,38876,65700,0,4344,0,1076263782,63
i,1723569238.525903,172.16.5.2,64481,172.16.1.2,5102,7964,8700,2086,64256,65728,6,6,4,1460,413125,1,16778208,1260000,41772,41772,65700,0,8688,0,1076263782,63
o,1723569238.525935,172.16.5.2,64481,172.16.1.2,5102,7964,8700,2086,64256,65728,6,6,4,1460,400312,1,16778208,1190000,41772,38876,65700,0,5792,0,1076263782,63
i,1723569238.797511,172.16.5.2,64481,172.16.1.2,5102,7964,8700,2086,64256,65728,6,6,4,1460,400312,1,16778208,1190000,41772,41772,65700,0,8688,0,1076263782,63
o,1723569238.797556,172.16.5.2,64481,172.16.1.2,5102,7964,8700,2086,64256,65728,6,6,4,1460,396562,1,16778208,1070000,41772,38876,65700,0,5792,0,1076263782,63
o,1723569238.797687,172.16.5.2,64481,172.16.1.2,5102,7964,8700,2086,64256,65728,6,6,4,1460,396562,1,16778208,1070000,41772,38876,65700,0,7240,0,1076263782,63
i,1723569238.851223,172.16.5.2,64481,172.16.1.2,5102,7964,8700,2086,64256,65728,6,6,4,1460,396562,1,16778208,1070000,41772,41296,65700,0,8688,0,1076263782,63
o,1723569238.851253,172.16.5.2,64481,172.16.1.2,5102,7964,8700,2086,64256,65728,6,6,4,1460,399687,1,16778208,980000,41772,38400,65700,0,5792,0,1076263782,63
i,1723569238.851439,172.16.5.2,64481,172.16.1.2,5102,7964,8700,2086,64256,65728,6,6,4,1460,399687,1,16778208,980000,41772,38400,65700,0,8688,0,1076263782,63
o,1723569238.851456,172.16.5.2,64481,172.16.1.2,5102,7964,10160,2086,64256,65728,6,6,4,1460,390000,1,16778208,950000,41772,35504,65700,0,5792,0,1076263782,63
i,1723569239.121282,172.16.5.2,64481,172.16.1.2,5102,7964,10160,2086,64256,65728,6,6,4,1460,390000,1,16778208,950000,41772,41772,65700,0,10136,0,1076263782,63
o,1723569239.121320,172.16.5.2,64481,172.16.1.2,5102,7964,10160,2086,64256,65728,6,6,4,1460,381250,1,16778208,920000,41772,38876,65700,0,7240,0,1076263782,63
o,1723569239.121482,172.16.5.2,64481,172.16.1.2,5102,7964,10160,2086,64256,65728,6,6,4,1460,381250,1,16778208,920000,41772,38876,65700,0,8688,0,1076263782,63
i,1723569239.291027,172.16.5.2,64481,172.16.1.2,5102,7964,10160,2086,64256,65728,6,6,4,1460,381250,1,16778208,920000,41772,41772,65700,0,10136,0,1076263782,63
o,1723569239.291101,172.16.5.2,64481,172.16.1.2,5102,7964,10160,2086,64256,65728,6,6,4,1460,388750,1,16778208,910000,41772,38876,65700,0,7240,0,1076263782,63
i,1723569239.357273,172.16.5.2,64481,172.16.1.2,5102,7964,10160,2086,64256,65728,6,6,4,1460,388750,1,16778208,910000,41772,41772,65700,0,10136,0,1076263782,63
o,1723569239.357390,172.16.5.2,64481,172.16.1.2,5102,7964,11620,2086,65728,65728,6,6,4,1460,404062,1,16778208,960000,41772,37428,65700,0,5792,0,1076263782,63
i,1723569239.430405,172.16.5.2,64481,172.16.1.2,5102,7964,11620,2086,65728,65728,6,6,4,1460,404062,1,16778208,960000,41772,41772,65700,0,11584,0,1076263782,63
o,1723569239.430437,172.16.5.2,64481,172.16.1.2,5102,7964,11620,2086,62848,65728,6,6,4,1460,392500,1,16778208,960000,41772,38876,65700,0,8688,0,1076263782,63
o,1723569239.430553,172.16.5.2,64481,172.16.1.2,5102,7964,11620,2086,62848,65728,6,6,4,1460,392500,1,16778208,960000,41772,38876,65700,0,10136,0,1076263782,63
i,1723569239.716412,172.16.5.2,64481,172.16.1.2,5102,7964,11620,2086,62848,65728,6,6,4,1460,392500,1,16778208,960000,41772,41772,65700,0,11584,0,1076263782,63
o,1723569239.716508,172.16.5.2,64481,172.16.1.2,5102,7964,11620,2086,64256,65728,6,6,4,1460,397187,1,16778208,910000,41772,38876,65700,0,8688,0,1076263782,63
i,1723569239.726275,172.16.5.2,64481,172.16.1.2,5102,7964,11620,2086,64256,65728,6,6,4,1460,397187,1,16778208,910000,41772,41772,65700,0,11584,0,1076263782,63
o,1723569239.726298,172.16.5.2,64481,172.16.1.2,5102,7964,11620,2086,64256,65728,6,6,4,1460,394062,1,16778208,850000,41772,38876,65700,0,8688,0,1076263782,63
i,1723569239.887912,172.16.5.2,64481,172.16.1.2,5102,7964,11620,2086,64256,65728,6,6,4,1460,394062,1,16778208,850000,41772,41772,65700,0,11584,0,1076263782,63
o,1723569239.887943,172.16.5.2,64481,172.16.1.2,5102,7964,13080,2086,64256,65728,6,6,4,1460,402500,1,16778208,860000,41772,35980,65700,0,5792,0,1076263782,63
o,1723569239.888066,172.16.5.2,64481,172.16.1.2,5102,7964,13080,2086,64256,65728,6,6,4,1460,402500,1,16778208,860000,41772,35980,65700,0,7240,0,1076263782,63
i,1723569240.016430,172.16.5.2,64481,172.16.1.2,5102,7964,13080,2086,64256,65728,6,6,4,1460,402500,1,16778208,860000,41772,41772,65700,0,13032,0,1076263782,63
o,1723569240.016460,172.16.5.2,64481,172.16.1.2,5102,7964,13080,2086,64256,65728,6,6,4,1460,388437,1,16778208,900000,41772,35980,65700,0,7240,0,1076263782,63
i,1723569240.123984,172.16.5.2,64481,172.16.1.2,5102,7964,13080,2086,64256,65728,6,6,4,1460,388437,1,16778208,900000,41772,41772,65700,0,13032,0,1076263782,63
o,1723569240.124025,172.16.5.2,64481,172.16.1.2,5102,7964,14540,2086,64256,65728,6,6,4,1460,368750,1,16778208,960000,41772,38876,65700,0,10136,0,1076263782,63
o,1723569240.124230,172.16.5.2,64481,172.16.1.2,5102,7964,14540,2086,64256,65728,6,6,4,1460,368750,1,16778208,960000,41772,38876,65700,0,11584,0,1076263782,63
i,1723569240.124404,172.16.5.2,64481,172.16.1.2,5102,7964,14540,2086,64256,65728,6,6,4,1460,368750,1,16778208,960000,41772,38876,65700,0,14480,0,1076263782,63
o,1723569240.124425,172.16.5.2,64481,172.16.1.2,5102,7964,14540,2086,61376,65728,6,6,4,1460,351562,1,16778208,980000,41772,35980,65700,0,11584,0,1076263782,63
i,1723569240.239815,172.16.5.2,64481,172.16.1.2,5102,7964,14540,2086,61376,65728,6,6,4,1460,351562,1,16778208,980000,41772,41772,65700,0,14480,0,1076263782,63
o,1723569240.239849,172.16.5.2,64481,172.16.1.2,5102,7964,14540,2086,65728,65728,6,6,4,1460,351562,1,16778208,870000,41772,40324,65700,0,13032,0,1076263782,63
i,1723569240.369900,172.16.5.2,64481,172.16.1.2,5102,7964,14540,2086,65728,65728,6,6,4,1460,351562,1,16778208,870000,41772,40324,65700,0,14480,0,1076263782,63
o,1723569240.370094,172.16.5.2,64481,172.16.1.2,5102,7964,14540,2086,64256,65728,6,6,4,1460,351562,1,16778208,790000,41772,37428,65700,0,11584,0,1076263782,63
i,1723569240.436170,172.16.5.2,64481,172.16.1.2,5102,7964,14540,2086,64256,65728,6,6,4,1460,351562,1,16778208,790000,41772,41772,65700,0,14480,0,1076263782,63
o,1723569240.436255,172.16.5.2,64481,172.16.1.2,5102,7964,14540,2086,64256,65728,6,6,4,1460,360312,1,16778208,810000,41772,38876,65700,0,11584,0,1076263782,63
i,1723569240.507184,172.16.5.2,64481,172.16.1.2,5102,7964,14540,2086,64256,65728,6,6,4,1460,360312,1,16778208,810000,41772,41772,65700,0,14480,0,1076263782,63
o,1723569240.507215,172.16.5.2,64481,172.16.1.2,5102,7964,14540,2086,64256,65728,6,6,4,1460,364062,1,16778208,780000,41772,38876,65700,0,11584,0,1076263782,63
o,1723569240.507396,172.16.5.2,64481,172.16.1.2,5102,7964,14540,2086,64256,65728,6,6,4,1460,364062,1,16778208,780000,41772,38876,65700,0,13032,0,1076263782,63
i,1723569240.507547,172.16.5.2,64481,172.16.1.2,5102,7964,14540,2086,64256,65728,6,6,4,1460,364062,1,16778208,780000,41772,38876,65700,0,14480,0,1076263782,63
o,1723569240.507564,172.16.5.2,64481,172.16.1.2,5102,7964,16000,2086,64256,65728,6,6,4,1460,367500,1,16778208,760000,41772,35980,65700,0,11584,0,1076263782,63
i,1723569240.601284,172.16.5.2,64481,172.16.1.2,5102,7964,16000,2086,64256,65728,6,6,4,1460,367500,1,16778208,760000,41772,41772,65700,0,15928,0,1076263782,63
o,1723569240.601319,172.16.5.2,64481,172.16.1.2,5102,7964,16000,2086,65728,65728,6,6,4,1460,381562,1,16778208,840000,41772,40324,65700,0,14480,0,1076263782,63
i,1723569240.601460,172.16.5.2,64481,172.16.1.2,5102,7964,16000,2086,65728,65728,6,6,4,1460,381562,1,16778208,840000,41772,40324,65700,0,15928,0,1076263782,63
o,1723569240.601478,172.16.5.2,64481,172.16.1.2,5102,7964,16000,2086,64256,65728,6,6,4,1460,379062,1,16778208,790000,41772,37428,65700,0,13032,0,1076263782,63
i,1723569240.735516,172.16.5.2,64481,172.16.1.2,5102,7964,16000,2086,64256,65728,6,6,4,1460,379062,1,16778208,790000,41772,41772,65700,0,15928,0,1076263782,63
o,1723569240.735546,172.16.5.2,64481,172.16.1.2,5102,7964,16000,2086,65728,65728,6,6,4,1460,376875,1,16778208,750000,41772,40324,65700,0,14480,0,1076263782,63
i,1723569240.898070,172.16.5.2,64481,172.16.1.2,5102,7964,16000,2086,65728,65728,6,6,4,1460,376875,1,16778208,750000,41772,40324,65700,0,15928,0,1076263782,63
o,1723569240.898104,172.16.5.2,64481,172.16.1.2,5102,7964,16000,2086,64256,65728,6,6,4,1460,387500,1,16778208,800000,41772,37428,65700,0,13032,0,1076263782,63
i,1723569240.992741,172.16.5.2,64481,172.16.1.2,5102,7964,16000,2086,64256,65728,6,6,4,1460,387500,1,16778208,800000,41772,41772,65700,0,15928,0,1076263782,63
o,1723569240.992771,172.16.5.2,64481,172.16.1.2,5102,7964,16000,2086,64256,65728,6,6,4,1460,399062,1,16778208,850000,41772,38876,65700,0,13032,0,1076263782,63
o,1723569240.992918,172.16.5.2,64481,172.16.1.2,5102,7964,16000,2086,64256,65728,6,6,4,1460,399062,1,16778208,850000,41772,38876,65700,0,14480,0,1076263782,63
i,1723569241.086430,172.16.5.2,64481,172.16.1.2,5102,7964,16000,2086,64256,65728,6,6,4,1460,399062,1,16778208,850000,41772,41772,65700,0,15928,0,1076263782,63
o,1723569241.086461,172.16.5.2,64481,172.16.1.2,5102,7964,17460,2086,64256,65728,6,6,4,1460,421875,1,16778208,990000,41772,38876,65700,0,13032,0,1076263782,63
i,1723569241.129711,172.16.5.2,64481,172.16.1.2,5102,7964,17460,2086,64256,65728,6,6,4,1460,421875,1,16778208,990000,41772,41772,65700,0,17376,0,1076263782,63
o,1723569241.129741,172.16.5.2,64481,172.16.1.2,5102,7964,17460,2086,64256,65728,6,6,4,1460,446875,1,16778208,1130000,41772,38876,65700,0,14480,0,1076263782,63
i,1723569241.260618,172.16.5.2,64481,172.16.1.2,5102,7964,17460,2086,64256,65728,6,6,4,1460,446875,1,16778208,1130000,41772,41772,65700,0,17376,0,1076263782,63
o,1723569241.260650,172.16.5.2,64481,172.16.1.2,5102,7964,17460,2086,64256,65728,6,6,4,1460,473750,1,16778208,1250000,41772,38876,65700,0,14480,0,1076263782,63
i,1723569241.352557,172.16.5.2,64481,172.16.1.2,5102,7964,17460,2086,64256,65728,6,6,4,1460,473750,1,16778208,1250000,41772,41772,65700,0,17376,0,1076263782,63
o,1723569241.352593,172.16.5.2,64481,172.16.1.2,5102,7964,17460,2086,64256,65728,6,6,4,1460,459687,1,16778208,1200000,41772,34532,65700,0,10136,0,1076263782,63
o,1723569241.352749,172.16.5.2,64481,172.16.1.2,5102,7964,17460,2086,64256,65728,6,6,4,1460,459687,1,16778208,1200000,41772,34532,65700,0,11584,0,1076263782,63
i,1723569241.352922,172.16.5.2,64481,172.16.1.2,5102,7964,17460,2086,64256,65728,6,6,4,1460,459687,1,16778208,1200000,41772,34532,65700,0,17376,0,1076263782,63
o,1723569241.352941,172.16.5.2,64481,172.16.1.2,5102,7964,17460,2086,65728,65728,6,6,4,1460,435000,1,16778208,1240000,41772,33084,65700,0,15928,0,1076263782,63
i,1723569241.453526,172.16.5.2,64481,172.16.1.2,5102,7964,17460,2086,65728,65728,6,6,4,1460,435000,1,16778208,1240000,41772,41772,65700,0,17376,0,1076263782,63
o,1723569241.453559,172.16.5.2,64481,172.16.1.2,5102,7964,18920,2086,64256,65728,6,6,4,1460,420625,1,16778208,1190000,41772,34532,65700,0,10136,0,1076263782,63
i,1723569241.515557,172.16.5.2,64481,172.16.1.2,5102,7964,18920,2086,64256,65728,6,6,4,1460,420625,1,16778208,1190000,41772,41772,65700,0,18824,0,1076263782,63
o,1723569241.515586,172.16.5.2,64481,172.16.1.2,5102,7964,18920,2086,65728,65728,6,6,4,1460,399375,1,16778208,1190000,41772,40324,65700,0,17376,0,1076263782,63
i,1723569241.617597,172.16.5.2,64481,172.16.1.2,5102,7964,18920,2086,65728,65728,6,6,4,1460,399375,1,16778208,1190000,41772,40324,65700,0,18824,0,1076263782,63
o,1723569241.617707,172.16.5.2,64481,172.16.1.2,5102,7964,18920,2086,64256,65728,6,6,4,1460,383437,1,16778208,1160000,41772,37428,65700,0,15928,0,1076263782,63
o,1723569241.617857,172.16.5.2,64481,172.16.1.2,5102,7964,18920,2086,64256,65728,6,6,4,1460,383437,1,16778208,1160000,41772,37428,65700,0,17376,0,1076263782,63
i,1723569241.658709,172.16.5.2,64481,172.16.1.2,5102,7964,18920,2086,64256,65728,6,6,4,1460,383437,1,16778208,1160000,49964,49964,65700,0,18824,0,1076263782,63
o,1723569241.658742,172.16.5.2,64481,172.16.1.2,5102,7964,18920,2086,65728,65728,6,6,4,1460,374375,1,16778208,1080000,49964,48516,65700,0,17376,0,1076263782,63
i,1723569241.672338,172.16.5.2,64481,172.16.1.2,5102,7964,18920,2086,65728,65728,6,6,4,1460,374375,1,16778208,1080000,49964,48516,65700,0,18824,0,1076263782,63
o,1723569241.672399,172.16.5.2,64481,172.16.1.2,5102,7964,18920,2086,62848,65728,6,6,4,1460,367812,1,16778208,1000000,49964,45620,65700,0,15928,0,1076263782,63
i,1723569241.717727,172.16.5.2,64481,172.16.1.2,5102,7964,18920,2086,62848,65728,6,6,4,1460,367812,1,16778208,1000000,49964,49964,65700,0,18824,0,1076263782,63
o,1723569241.717757,172.16.5.2,64481,172.16.1.2,5102,7964,18920,2086,64256,65728,6,6,4,1460,368125,1,16778208,890000,49964,47068,65700,0,15928,0,1076263782,63
i,1723569241.717921,172.16.5.2,64481,172.16.1.2,5102,7964,18920,2086,64256,65728,6,6,4,1460,368125,1,16778208,890000,49964,47068,65700,0,18824,0,1076263782,63
o,1723569241.717939,172.16.5.2,64481,172.16.1.2,5102,7964,20380,2086,64256,65728,6,6,4,1460,355937,1,16778208,900000,49964,44172,65700,0,15928,0,1076263782,63
i,1723569241.756392,172.16.5.2,64481,172.16.1.2,5102,7964,20380,2086,64256,65728,6,6,4,1460,355937,1,16778208,900000,49964,49964,65700,0,20272,0,1076263782,63
o,1723569241.756493,172.16.5.2,64481,172.16.1.2,5102,7964,20380,2086,64256,65728,6,6,4,1460,350312,1,16778208,850000,49964,47068,65700,0,17376,0,1076263782,63
i,1723569241.806557,172.16.5.2,64481,172.16.1.2,5102,7964,20380,2086,64256,65728,6,6,4,1460,350312,1,16778208,850000,49964,49964,65700,0,20272,0,1076263782,63
o,1723569241.806582,172.16.5.2,64481,172.16.1.2,5102,7964,20380,2086,64256,65728,6,6,4,1460,351562,1,16778208,790000,49964,47068,65700,0,17376,0,1076263782,63
i,1723569241.893648,172.16.5.2,64481,172.16.1.2,5102,7964,20380,2086,64256,65728,6,6,4,1460,351562,1,16778208,790000,49964,49964,65700,0,20272,0,1076263782,63
o,1723569241.893728,172.16.5.2,64481,172.16.1.2,5102,7964,20380,2086,65728,65728,6,6,4,1460,341562,1,16778208,800000,49964,48516,65700,0,18824,0,1076263782,63
i,1723569241.976862,172.16.5.2,64481,172.16.1.2,5102,7964,20380,2086,65728,65728,6,6,4,1460,341562,1,16778208,800000,49964,48516,65700,0,20272,0,1076263782,63
o,1723569241.976945,172.16.5.2,64481,172.16.1.2,5102,7964,20380,2086,64256,65728,6,6,4,1460,344062,1,16778208,750000,49964,45620,65700,0,17376,0,1076263782,63
i,1723569241.977110,172.16.5.2,64481,172.16.1.2,5102,7964,20380,2086,64256,65728,6,6,4,1460,344062,1,16778208,750000,49964,45620,65700,0,20272,0,1076263782,63
o,1723569241.977127,172.16.5.2,64481,172.16.1.2,5102,16470,21720,2082,64256,65728,6,6,4,1460,344062,1,553649120,750000,49964,45620,65700,0,20272,0,1076263782,63
i,1723569242.054723,172.16.5.2,64481,172.16.1.2,5102,16470,16470,2082,64256,65728,6,6,4,1460,344062,1,553649120,750000,49964,49964,65700,0,21720,0,1076263782,63
o,1723569242.054754,172.16.5.2,64481,172.16.1.2,5102,16470,21720,2082,64320,65728,6,6,4,1460,348750,1,553649120,740000,49964,48516,65700,0,20272,0,1076263782,63
i,1723569242.140219,172.16.5.2,64481,172.16.1.2,5102,16470,21720,2082,64320,65728,6,6,4,1460,348750,1,553649120,740000,49964,48516,65700,0,21720,0,1076263782,63
i,1723569242.140269,172.16.5.2,64481,172.16.1.2,5102,16470,20272,2082,64256,65728,6,6,4,1460,364062,1,553649120,830000,49964,47068,65700,0,20272,0,1076263782,63
o,1723569242.140291,172.16.5.2,64481,172.16.1.2,5102,10136,1448,2146,64256,65728,6,6,4,1460,364062,1,554697697,830000,49964,47068,65700,0,20272,0,1076263782,63
i,1723569242.140454,172.16.5.2,64481,172.16.1.2,5102,10136,1448,2146,64256,65728,6,6,4,1460,371250,1,554697696,830000,49964,48516,65700,0,18824,0,1076263782,63
o,1723569242.140472,172.16.5.2,64481,172.16.1.2,5102,10136,1448,2146,64256,65728,6,6,4,1460,371250,1,554697697,830000,49964,48516,65700,0,18824,0,1076263782,63
i,1723569242.173742,172.16.5.2,64481,172.16.1.2,5102,10136,1448,2146,64256,65728,6,6,4,1460,377500,1,554697696,820000,49964,49964,65700,0,17376,0,1076263782,63
o,1723569242.173763,172.16.5.2,64481,172.16.1.2,5102,10136,2896,2146,64256,65728,6,6,4,1460,377500,1,554697697,820000,49964,49964,65700,0,17376,0,1076263782,63
i,1723569242.174213,172.16.5.2,64481,172.16.1.2,5102,10136,2896,2146,64256,65728,6,6,4,1460,386562,1,554697696,840000,49964,48516,65700,0,15928,0,1076263782,63
o,1723569242.174229,172.16.5.2,64481,172.16.1.2,5102,10136,4344,2146,64256,65728,6,6,4,1460,386562,1,554697697,840000,49964,48516,65700,0,15928,0,1076263782,63
o,1723569242.174366,172.16.5.2,64481,172.16.1.2,5102,10136,4344,2082,64256,65728,6,6,4,1460,386562,1,554697696,840000,49964,48516,65700,0,15928,0,1076263782,63
i,1723569242.276621,172.16.5.2,64481,172.16.1.2,5102,10136,4344,2082,62848,65728,6,6,4,1460,394687,1,554697696,850000,49964,49964,65700,0,14480,0,1076263782,63
o,1723569242.276649,172.16.5.2,64481,172.16.1.2,5102,10136,7240,2086,62848,65728,6,6,4,1460,394687,1,554697697,850000,49964,49964,65700,0,14480,0,1076263782,63
i,1723569242.418353,172.16.5.2,64481,172.16.1.2,5102,10136,7240,2086,64256,65728,6,6,4,1460,410625,1,554697696,930000,49964,49964,65700,0,14480,0,1076263782,63
o,1723569242.418384,172.16.5.2,64481,172.16.1.2,5102,10136,7240,2086,64256,65728,6,6,4,1460,410625,1,554697697,930000,49964,49964,65700,0,14480,0,1076263782,63
i,1723569242.418527,172.16.5.2,64481,172.16.1.2,5102,10136,7240,2086,65728,65728,6,6,4,1460,435625,1,554697696,1070000,49964,48516,65700,0,13032,0,1076263782,63
o,1723569242.418550,172.16.5.2,64481,172.16.1.2,5102,10136,7240,2086,65728,65728,6,6,4,1460,435625,1,554697696,1070000,49964,48516,65700,0,13032,0,1076263782,63
o,1723569242.418655,172.16.5.2,64481,172.16.1.2,5102,10136,7240,2086,65728,65728,6,6,4,1460,435625,1,554697696,1070000,49964,48516,65700,0,13032,0,1076263782,63
o,1723569242.418758,172.16.5.2,64481,172.16.1.2,5102,10136,7240,2082,65728,65728,6,6,4,1460,435625,1,554697696,1070000,49964,48516,65700,0,13032,0,1076263782,63
i,1723569242.420182,172.16.5.2,64481,172.16.1.2,5102,10136,7240,2082,65728,65728,6,6,4,1460,435625,1,554697696,1070000,49964,48516,65700,0,13032,0,1076263782,63
o,1723569242.420198,172.16.5.2,64481,172.16.1.2,5102,10136,10136,2086,65728,65728,6,6,4,1460,435625,1,554697696,1070000,49964,48516,65700,0,13032,0,1076263782,63
o,1723569242.420310,172.16.5.2,64481,172.16.1.2,5102,10136,10136,2082,65728,65728,6,6,4,1460,435625,1,554697696,1070000,49964,48516,65700,0,13032,0,1076263782,63
i,1723569242.466161,172.16.5.2,64481,172.16.1.2,5102,10136,10136,2082,65728,65728,6,6,4,1460,435625,1,554697696,1070000,49964,48516,65700,0,13032,0,1076263782,63
i,1723569242.493398,172.16.5.2,64481,172.16.1.2,5102,10136,11584,2082,65728,65728,6,6,4,1460,435625,1,554697696,1070000,49964,48516,65700,0,13032,0,1076263782,63
i,1723569242.493430,172.16.5.2,64481,172.16.1.2,5102,10136,10136,2082,65728,65728,6,6,4,1460,435625,1,554697696,1070000,49964,48516,65700,0,13032,0,1076263782,63
o,1723569242.493452,172.16.5.2,64481,172.16.1.2,5102,10136,11584,2082,65728,65728,6,6,4,1460,435625,1,554697696,1070000,49964,48516,65700,0,13032,0,1076263782,63
i,1723569242.558842,172.16.5.2,64481,172.16.1.2,5102,10136,11584,2082,65728,65728,6,6,4,1460,435625,1,554697696,1070000,49964,48516,65700,0,14480,0,1076263782,63
o,1723569242.558888,172.16.5.2,64481,172.16.1.2,5102,10136,13032,2082,65728,65728,6,6,4,1460,435625,1,554697696,1070000,49964,48516,65700,0,14480,0,1076263782,63
i,1723569242.559074,172.16.5.2,64481,172.16.1.2,5102,10136,13032,2082,65728,65728,6,6,4,1460,435625,1,554697696,1070000,49964,48516,65700,0,15928,0,1076263782,63
o,1723569242.559093,172.16.5.2,64481,172.16.1.2,5102,10136,14480,2082,65728,65728,6,6,4,1460,435625,1,554697696,1070000,49964,48516,65700,0,15928,0,1076263782,63
i,1723569242.721476,172.16.5.2,64481,172.16.1.2,5102,10136,14480,2082,65728,65728,6,6,4,1460,435625,1,554697696,1070000,49964,48516,65700,0,17376,0,1076263782,63
o,1723569242.721506,172.16.5.2,64481,172.16.1.2,5102,10136,15928,2082,65728,65728,6,6,4,1460,435625,1,554697696,1070000,49964,48516,65700,0,17376,0,1076263782,63
i,1723569242.721637,172.16.5.2,64481,172.16.1.2,5102,10136,15928,2082,65728,65728,6,6,4,1460,435625,1,554697696,1070000,49964,48516,65700,0,18824,0,1076263782,63
o,1723569242.721655,172.16.5.2,64481,172.16.1.2,5102,10136,14480,2082,65728,65728,6,6,4,1460,435625,1,554697697,1070000,49964,48516,65700,0,18824,0,1076263782,63
i,1723569242.721793,172.16.5.2,64481,172.16.1.2,5102,10136,14480,2082,62848,65728,6,6,4,1460,418750,1,554697696,1080000,49964,45620,65700,0,15928,0,1076263782,63
i,1723569242.721834,172.16.5.2,64481,172.16.1.2,5102,10136,14480,2082,65728,65728,6,6,4,1460,418750,1,554697696,1080000,49964,45620,65700,0,15928,0,1076263782,63
o,1723569242.721849,172.16.5.2,64481,172.16.1.2,5102,10136,17376,2086,65728,65728,6,6,4,1460,418750,1,554697696,1080000,49964,49964,65700,0,15928,0,1076263782,63
i,1723569242.721971,172.16.5.2,64481,172.16.1.2,5102,10136,17376,2086,65728,65728,6,6,4,1460,418750,1,554697696,1080000,49964,49964,65700,0,18824,0,1076263782,63
o,1723569242.722030,172.16.5.2,64481,172.16.1.2,5102,10136,7252,2086,52736,65728,6,6,4,1460,404062,1,16778208,1070000,49964,36932,65700,0,5792,0,1076263782,63
i,1723569242.738824,172.16.5.2,64481,172.16.1.2,5102,10136,7252,2086,52736,65728,6,6,4,1460,404062,1,16778208,1070000,49964,49964,65700,0,7240,0,1076263782,63
i,1723569242.738853,172.16.5.2,64481,172.16.1.2,5102,10136,7252,2086,65728,65728,6,6,4,1460,404062,1,16778208,1070000,49964,49964,65700,0,7240,0,1076263782,63
o,1723569242.738871,172.16.5.2,64481,172.16.1.2,5102,10136,8700,2086,65728,65728,6,6,4,1460,375000,1,16778208,1160000,49964,48516,65700,0,5792,0,1076263782,63
i,1723569242.939367,172.16.5.2,64481,172.16.1.2,5102,10136,8700,2086,65728,65728,6,6,4,1460,375000,1,16778208,1160000,49964,48516,65700,0,8688,0,1076263782,63
o,1723569242.939451,172.16.5.2,64481,172.16.1.2,5102,10136,10148,2086,65728,65728,6,6,4,1460,355625,1,16778208,1150000,49964,47068,65700,0,7240,0,1076263782,63
o,1723569242.939586,172.16.5.2,64481,172.16.1.2,5102,10136,10148,2086,65728,65728,6,6,4,1460,355625,1,16778208,1150000,49964,47068,65700,0,8688,0,1076263782,63
i,1723569242.942056,172.16.5.2,64481,172.16.1.2,5102,10136,10148,2086,65728,65728,6,6,4,1460,355625,1,16778208,1150000,49964,49964,65700,0,10136,0,1076263782,63
o,1723569242.942076,172.16.5.2,64481,172.16.1.2,5102,10136,10148,2086,64256,65728,6,6,4,1460,338750,1,16778208,1120000,49964,47068,65700,0,7240,0,1076263782,63
i,1723569242.961440,172.16.5.2,64481,172.16.1.2,5102,10136,10148,2086,64256,65728,6,6,4,1460,338750,1,16778208,1120000,49964,49964,65700,0,10136,0,1076263782,63
o,1723569242.961531,172.16.5.2,64481,172.16.1.2,5102,10136,10148,2086,64256,65728,6,6,4,1460,326562,1,16778208,1060000,49964,47068,65700,0,7240,0,1076263782,63
i,1723569243.008401,172.16.5.2,64481,172.16.1.2,5102,10136,10148,2086,64256,65728,6,6,4,1460,326562,1,16778208,1060000,49964,49964,65700,0,10136,0,1076263782,63
o,1723569243.008440,172.16.5.2,64481,172.16.1.2,5102,10136,10148,2086,65728,65728,6,6,4,1460,319687,1,16778208,970000,49964,48516,65700,0,8688,0,1076263782,63
i,1723569243.322479,172.16.5.2,64481,172.16.1.2,5102,10136,10148,2086,65728,65728,6,6,4,1460,319687,1,16778208,970000,49964,48516,65700,0,10136,0,1076263782,63
o,1723569243.322578,172.16.5.2,64481,172.16.1.2,5102,10136,10148,2086,64256,65728,6,6,4,1460,327500,1,16778208,930000,49964,45620,65700,0,7240,0,1076263782,63
o,1723569243.322886,172.16.5.2,64481,172.16.1.2,5102,10136,10148,2086,64256,65728,6,6,4,1460,327500,1,16778208,930000,49964,45620,65700,0,8688,0,1076263782,63
i,1723569243.352968,172.16.5.2,64481,172.16.1.2,5102,10136,10148,2086,64256,65728,6,6,4,1460,327500,1,16778208,930000,49964,49964,65700,0,10136,0,1076263782,63
o,1723569243.353046,172.16.5.2,64481,172.16.1.2,5102,10136,11608,2086,64256,65728,6,6,4,1460,337812,1,16778208,920000,49964,47068,65700,0,7240,0,1076263782,63
i,1723569243.353203,172.16.5.2,64481,172.16.1.2,5102,10136,11608,2086,64256,65728,6,6,4,1460,337812,1,16778208,920000,49964,47068,65700,0,11584,0,1076263782,63
o,1723569243.353219,172.16.5.2,64481,172.16.1.2,5102,10136,11608,2086,64256,65728,6,6,4,1460,344375,1,16778208,880000,49964,44172,65700,0,8688,0,1076263782,63
i,1723569243.354013,172.16.5.2,64481,172.16.1.2,5102,10136,11608,2086,64256,65728,6,6,4,1460,344375,1,16778208,880000,49964,49964,65700,0,11584,0,1076263782,63
o,1723569243.354042,172.16.5.2,64481,172.16.1.2,5102,10136,11608,2086,65728,65728,6,6,4,1460,344062,1,16778208,800000,49964,48516,65700,0,10136,0,1076263782,63
i,1723569243.598244,172.16.5.2,64481,172.16.1.2,5102,10136,11608,2086,65728,65728,6,6,4,1460,344062,1,16778208,800000,49964,48516,65700,0,11584,0,1076263782,63
o,1723569243.598278,172.16.5.2,64481,172.16.1.2,5102,10136,11608,2086,64256,65728,6,6,4,1460,336250,1,16778208,790000,49964,45620,65700,0,8688,0,1076263782,63
o,1723569243.598456,172.16.5.2,64481,172.16.1.2,5102,10136,11608,2086,64256,65728,6,6,4,1460,336250,1,16778208,790000,49964,45620,65700,0,10136,0,1076263782,63
i,1723569243.791486,172.16.5.2,64481,172.16.1.2,5102,10136,11608,2086,64256,65728,6,6,4,1460,336250,1,16778208,790000,49964,49964,65700,0,11584,0,1076263782,63
o,1723569243.791522,172.16.5.2,64481,172.16.1.2,5102,10136,13068,2086,64256,65728,6,6,4,1460,349375,1,16778208,840000,49964,47068,65700,0,8688,0,1076263782,63
i,1723569243.791688,172.16.5.2,64481,172.16.1.2,5102,10136,13068,2086,64256,65728,6,6,4,1460,349375,1,16778208,840000,49964,47068,65700,0,13032,0,1076263782,63
o,1723569243.791706,172.16.5.2,64481,172.16.1.2,5102,10136,13068,2086,65728,65728,6,6,4,1460,360937,1,16778208,870000,49964,45620,65700,0,11584,0,1076263782,63
i,1723569243.792332,172.16.5.2,64481,172.16.1.2,5102,10136,13068,2086,65728,65728,6,6,4,1460,360937,1,16778208,870000,49964,45620,65700,0,13032,0,1076263782,63
o,1723569243.792362,172.16.5.2,64481,172.16.1.2,5102,10136,13068,2086,64256,65728,6,6,4,1460,370937,1,16778208,890000,49964,42724,65700,0,10136,0,1076263782,63
i,1723569243.792527,172.16.5.2,64481,172.16.1.2,5102,10136,13068,2086,64256,65728,6,6,4,1460,370937,1,16778208,890000,49964,42724,65700,0,13032,0,1076263782,63
o,1723569243.792543,172.16.5.2,64481,172.16.1.2,5102,10136,13068,2086,65728,65728,6,6,4,1460,379687,1,16778208,880000,49964,41276,65700,0,11584,0,1076263782,63
i,1723569243.816553,172.16.5.2,64481,172.16.1.2,5102,10136,13068,2086,65728,65728,6,6,4,1460,379687,1,16778208,880000,49964,49964,65700,0,13032,0,1076263782,63
o,1723569243.816579,172.16.5.2,64481,172.16.1.2,5102,10136,13068,2086,64256,65728,6,6,4,1460,360000,1,16778208,950000,49964,47068,65700,0,10136,0,1076263782,63
o,1723569243.816712,172.16.5.2,64481,172.16.1.2,5102,10136,13068,2086,64256,65728,6,6,4,1460,360000,1,16778208,950000,49964,47068,65700,0,11584,0,1076263782,63
i,1723569244.215638,172.16.5.2,64481,172.16.1.2,5102,10136,13068,2086,64256,65728,6,6,4,1460,360000,1,16778208,950000,49964,49964,65700,0,13032,0,1076263782,63
o,1723569244.215670,172.16.5.2,64481,172.16.1.2,5102,10136,13068,2086,64256,65728,6,6,4,1460,368750,1,16778208,930000,49964,47068,65700,0,10136,0,1076263782,63
i,1723569244.268974,172.16.5.2,64481,172.16.1.2,5102,10136,13068,2086,64256,65728,6,6,4,1460,368750,1,16778208,930000,49964,49964,65700,0,13032,0,1076263782,63
o,1723569244.269058,172.16.5.2,64481,172.16.1.2,5102,10136,14528,2086,64256,65728,6,6,4,1460,382812,1,16778208,960000,49964,47068,65700,0,10136,0,1076263782,63
i,1723569244.306541,172.16.5.2,64481,172.16.1.2,5102,10136,14528,2086,64256,65728,6,6,4,1460,382812,1,16778208,960000,49964,49964,65700,0,14480,0,1076263782,63
o,1723569244.306616,172.16.5.2,64481,172.16.1.2,5102,10136,14528,2086,62848,65728,6,6,4,1460,400000,1,16778208,1020000,49964,47068,65700,0,11584,0,1076263782,63
i,1723569244.313344,172.16.5.2,64481,172.16.1.2,5102,10136,14528,2086,62848,65728,6,6,4,1460,400000,1,16778208,1020000,49964,49964,65700,0,14480,0,1076263782,63
o,1723569244.313375,172.16.5.2,64481,172.16.1.2,5102,10136,14528,2086,64256,65728,6,6,4,1460,415000,1,16778208,1050000,49964,47068,65700,0,11584,0,1076263782,63
o,1723569244.313540,172.16.5.2,64481,172.16.1.2,5102,10136,14528,2086,64256,65728,6,6,4,1460,415000,1,16778208,1050000,49964,47068,65700,0,13032,0,1076263782,63
i,1723569244.327801,172.16.5.2,64481,172.16.1.2,5102,10136,14528,2086,64256,65728,6,6,4,1460,415000,1,16778208,1050000,49964,49964,65700,0,14480,0,1076263782,63
o,1723569244.327871,172.16.5.2,64481,172.16.1.2,5102,10136,14528,2086,65728,65728,6,6,4,1460,426875,1,16778208,1050000,49964,48516,65700,0,13032,0,1076263782,63
i,1723569244.625209,172.16.5.2,64481,172.16.1.2,5102,10136,14528,2086,65728,65728,6,6,4,1460,426875,1,16778208,1050000,49964,48516,65700,0,14480,0,1076263782,63
o,1723569244.625306,172.16.5.2,64481,172.16.1.2,5102,10136,14528,2086,64256,65728,6,6,4,1460,423750,1,16778208,970000,49964,45620,65700,0,11584,0,1076263782,63
i,1723569244.680830,172.16.5.2,64481,172.16.1.2,5102,10136,14528,2086,64256,65728,6,6,4,1460,423750,1,16778208,970000,49964,49964,65700,0,14480,0,1076263782,63
o,1723569244.680870,172.16.5.2,64481,172.16.1.2,5102,10136,14528,2086,65728,65728,6,6,4,1460,422187,1,16778208,890000,49964,48516,65700,0,13032,0,1076263782,63
i,1723569244.729341,172.16.5.2,64481,172.16.1.2,5102,10136,14528,2086,65728,65728,6,6,4,1460,422187,1,16778208,890000,49964,48516,65700,0,14480,0,1076263782,63
o,1723569244.729396,172.16.5.2,64481,172.16.1.2,5102,10136,15988,2086,65728,65728,6,6,4,1460,427187,1,16778208,870000,49964,47068,65700,0,13032,0,1076263782,63
i,1723569244.747086,172.16.5.2,64481,172.16.1.2,5102,10136,15988,2086,65728,65728,6,6,4,1460,427187,1,16778208,870000,49964,49964,65700,0,15928,0,1076263782,63
o,1723569244.747107,172.16.5.2,64481,172.16.1.2,5102,10136,15988,2086,62848,65728,6,6,4,1460,434062,1,16778208,870000,49964,47068,65700,0,13032,0,1076263782,63
i,1723569244.755548,172.16.5.2,64481,172.16.1.2,5102,10136,15988,2086,62848,65728,6,6,4,1460,434062,1,16778208,870000,49964,49964,65700,0,15928,0,1076263782,63
o,1723569244.755595,172.16.5.2,64481,172.16.1.2,5102,10136,15988,2086,64256,65728,6,6,4,1460,435000,1,16778208,820000,49964,47068,65700,0,13032,0,1076263782,63
o,1723569244.755748,172.16.5.2,64481,172.16.1.2,5102,10136,15988,2086,64256,65728,6,6,4,1460,435000,1,16778208,820000,49964,47068,65700,0,14480,0,1076263782,63
i,1723569244.772556,172.16.5.2,64481,172.16.1.2,5102,10136,15988,2086,64256,65728,6,6,4,1460,435000,1,16778208,820000,49964,49964,65700,0,15928,0,1076263782,63
o,1723569244.772637,172.16.5.2,64481,172.16.1.2,5102,10136,15988,2086,64256,65728,6,6,4,1460,438125,1,16778208,800000,49964,47068,65700,0,13032,0,1076263782,63
i,1723569244.848953,172.16.5.2,64481,172.16.1.2,5102,10136,15988,2086,64256,65728,6,6,4,1460,438125,1,16778208,800000,49964,49964,65700,0,15928,0,1076263782,63
o,1723569244.849137,172.16.5.2,64481,172.16.1.2,5102,10136,15988,2086,64256,65728,6,6,4,1460,412187,1,16778208,940000,49964,47068,65700,0,13032,0,1076263782,63
i,1723569244.992071,172.16.5.2,64481,172.16.1.2,5102,10136,15988,2086,64256,65728,6,6,4,1460,412187,1,16778208,940000,49964,49964,65700,0,15928,0,1076263782,63
o,1723569244.992105,172.16.5.2,64481,172.16.1.2,5102,10136,15988,2086,65728,65728,6,6,4,1460,398437,1,16778208,960000,49964,48516,65700,0,14480,0,1076263782,63
i,1723569245.043227,172.16.5.2,64481,172.16.1.2,5102,10136,15988,2086,65728,65728,6,6,4,1460,398437,1,16778208,960000,49964,48516,65700,0,15928,0,1076263782,63
o,1723569245.043264,172.16.5.2,64481,172.16.1.2,5102,10136,17448,2086,64256,65728,6,6,4,1460,387500,1,16778208,940000,49964,45620,65700,0,13032,0,1076263782,63
i,1723569245.079462,172.16.5.2,64481,172.16.1.2,5102,10136,17448,2086,64256,65728,6,6,4,1460,387500,1,16778208,940000,49964,49964,65700,0,17376,0,1076263782,63
o,1723569245.079489,172.16.5.2,64481,172.16.1.2,5102,10136,17448,2086,64256,65728,6,6,4,1460,380312,1,16778208,900000,49964,47068,65700,0,14480,0,1076263782,63
