enable_time_secs=1723569405	enable_time_usecs=000649	siftrver=1.3.0	sysname=FreeBSD	sysver=1401000	ipmode=4
o,1723569405.000968,10.0.2.15,22,10.0.2.2,50506,1073725440,17746,1026,65535,65700,0,0,4,1460,312,0,16777220,240000,33580,172,65700,0,0,0,1263411658,63
i,1723569405.001936,10.0.2.15,22,10.0.2.2,50506,1073725440,17746,1026,65535,65700,0,0,4,1460,312,0,16777220,240000,33580,172,65700,0,172,0,1263411658,63
o,1723569405.001956,10.0.2.15,22,10.0.2.2,50506,1073725440,17918,1026,65535,65700,0,0,4,1460,312,0,16777220,240000,33580,72,65700,0,0,0,1263411658,63
i,1723569405.002717,10.0.2.15,22,10.0.2.2,50506,1073725440,17918,1026,65535,65700,0,0,4,1460,312,0,16777220,240000,33580,72,65700,0,72,0,1263411658,63
i,1723569405.002735,10.0.2.15,22,10.0.2.2,50506,1073725440,17990,1026,65535,65700,0,0,4,1460,312,0,4,240000,33580,0,65700,0,0,0,1263411658,63
i,1723569405.002751,10.0.2.15,22,10.0.2.2,50506,1073725440,17990,1026,65535,65700,0,0,4,1460,312,0,4,240000,33580,0,65700,96,0,0,1263411658,63
o,1723569405.002773,10.0.2.15,22,10.0.2.2,50506,1073725440,17990,1026,65535,65604,0,0,5,1460,312,0,5,240000,33580,0,65700,96,0,0,1263411658,63
o,1723569405.003662,10.0.2.15,22,10.0.2.2,50506,1073725440,17990,1026,65535,65604,0,0,8,1460,312,0,4,240000,33580,0,65700,0,0,0,1263411658,63
i,1723569405.004084,10.0.2.15,22,10.0.2.2,50506,1073725440,17990,1026,65535,65604,0,0,8,1460,312,0,67108884,240000,33580,0,65700,0,1,0,1263411658,63
i,1723569408.127055,10.0.2.15,22,10.0.2.2,50512,1073725440,14600,0,65535,65700,0,0,4,1460,312,0,16777216,270000,33580,0,65700,0,0,0,629270176,63
o,1723569408.136674,10.0.2.15,22,10.0.2.2,50512,1073725440,14600,1026,65535,65700,0,0,4,1460,312,0,16777216,270000,33580,38,65700,42,0,0,629270176,63
i,1723569408.137310,10.0.2.15,22,10.0.2.2,50512,1073725440,14600,1026,65535,65700,0,0,4,1460,312,0,16777216,270000,33580,38,65700,0,38,0,629270176,63
i,1723569408.137955,10.0.2.15,22,10.0.2.2,50512,1073725440,14638,1026,65535,65700,0,0,4,1460,312,0,0,240000,33580,0,65700,0,0,0,629270176,63
i,1723569408.137975,10.0.2.15,22,10.0.2.2,50512,1073725440,14638,1026,65535,65700,0,0,4,1460,312,0,0,240000,33580,0,65700,1460,0,0,629270176,63
o,1723569408.138003,10.0.2.15,22,10.0.2.2,50512,1073725440,14638,1026,65535,65700,0,0,4,1460,312,0,1,240000,33580,0,65700,1536,0,0,629270176,63
o,1723569408.139025,10.0.2.15,22,10.0.2.2,50512,1073725440,14638,1026,65535,65700,0,0,4,1460,312,0,16777216,240000,33580,1120,65700,1536,0,0,629270176,63
i,1723569408.140074,10.0.2.15,22,10.0.2.2,50512,1073725440,14638,1026,65535,65700,0,0,4,1460,312,0,16777216,240000,33580,1120,65700,0,1120,0,629270176,63
i,1723569408.141069,10.0.2.15,22,10.0.2.2,50512,1073725440,15758,1026,65535,65700,0,0,4,1460,312,0,0,240000,33580,0,65700,0,0,0,629270176,63
o,1723569408.144172,10.0.2.15,22,10.0.2.2,50512,1073725440,15758,1026,65535,65700,0,0,4,1460,312,0,16777216,240000,33580,492,65700,0,0,0,629270176,63
i,1723569408.145047,10.0.2.15,22,10.0.2.2,50512,1073725440,15758,1026,65535,65700,0,0,4,1460,312,0,16777216,240000,33580,492,65700,0,492,0,629270176,63
i,1723569408.148599,10.0.2.15,22,10.0.2.2,50512,1073725440,16250,1026,65535,65700,0,0,4,1460,312,0,0,240000,33580,0,65700,0,0,0,629270176,63
i,1723569408.148617,10.0.2.15,22,10.0.2.2,50512,1073725440,16250,1026,65535,65700,0,0,4,1460,312,0,0,240000,33580,0,65700,16,0,0,629270176,63
o,1723569408.148633,10.0.2.15,22,10.0.2.2,50512,1073725440,16250,1026,65535,65700,0,0,4,1460,312,0,1,240000,33580,0,65700,60,0,0,629270176,63
o,1723569408.148769,10.0.2.15,22,10.0.2.2,50512,1073725440,16250,1026,65535,65700,0,0,4,1460,312,0,16777216,240000,33580,44,65700,0,0,0,629270176,63
i,1723569408.149657,10.0.2.15,22,10.0.2.2,50512,1073725440,16250,1026,65535,65700,0,0,4,1460,312,0,16777216,240000,33580,44,65700,0,44,0,629270176,63
i,1723569408.149677,10.0.2.15,22,10.0.2.2,50512,1073725440,16294,1026,65535,65700,0,0,4,1460,312,0,0,240000,33580,0,65700,0,0,0,629270176,63
o,1723569408.151023,10.0.2.15,22,10.0.2.2,50512,1073725440,16294,1026,65535,65700,0,0,4,1460,312,0,16777216,240000,33580,68,65700,0,0,0,629270176,63
i,1723569408.151982,10.0.2.15,22,10.0.2.2,50512,1073725440,16294,1026,65535,65700,0,0,4,1460,312,0,16777216,240000,33580,68,65700,0,68,0,629270176,63
i,1723569408.152002,10.0.2.15,22,10.0.2.2,50512,1073725440,16362,1026,65535,65700,0,0,4,1460,312,0,0,240000,33580,0,65700,0,0,0,629270176,63
o,1723569408.152801,10.0.2.15,22,10.0.2.2,50512,1073725440,16362,1026,65535,65700,0,0,4,1460,312,0,16777216,240000,33580,332,65700,0,0,0,629270176,63
i,1723569408.153657,10.0.2.15,22,10.0.2.2,50512,1073725440,16362,1026,65535,65700,0,0,4,1460,312,0,16777216,240000,33580,332,65700,0,332,0,629270176,63
i,1723569408.154857,10.0.2.15,22,10.0.2.2,50512,1073725440,16694,1026,65535,65700,0,0,4,1460,312,0,0,240000,33580,0,65700,0,0,0,629270176,63
o,1723569408.173140,10.0.2.15,22,10.0.2.2,50512,1073725440,16694,1026,65535,65700,0,0,4,1460,312,0,16777216,240000,33580,28,65700,0,0,0,629270176,63
i,1723569408.173621,10.0.2.15,22,10.0.2.2,50512,1073725440,16694,1026,65535,65700,0,0,4,1460,312,0,16777216,240000,33580,28,65700,0,28,0,629270176,63
i,1723569408.173646,10.0.2.15,22,10.0.2.2,50512,1073725440,16722,1026,65535,65700,0,0,4,1460,312,0,0,240000,33580,0,65700,0,0,0,629270176,63
o,1723569408.174772,10.0.2.15,22,10.0.2.2,50512,1073725440,16722,1026,65535,65700,0,0,4,1460,312,0,16777216,240000,33580,768,65700,112,0,0,629270176,63
i,1723569408.175507,10.0.2.15,22,10.0.2.2,50512,1073725440,16722,1026,65535,65700,0,0,4,1460,312,0,16777216,240000,33580,908,65700,112,768,0,629270176,63
o,1723569408.175525,10.0.2.15,22,10.0.2.2,50512,1073725440,17490,1026,65535,65700,0,0,4,1460,312,0,16777216,240000,33580,140,65700,112,0,0,629270176,63
i,1723569408.175941,10.0.2.15,22,10.0.2.2,50512,1073725440,17490,1026,65535,65700,0,0,4,1460,312,0,16777216,240000,33580,140,65700,112,140,0,629270176,63
o,1723569408.176159,10.0.2.15,22,10.0.2.2,50512,1073725440,17630,1026,65535,65700,0,0,4,1460,312,0,16777216,240000,33580,44,65700,0,0,0,629270176,63
i,1723569408.177017,10.0.2.15,22,10.0.2.2,50512,1073725440,17630,1026,65535,65700,0,0,4,1460,312,0,16777216,240000,33580,44,65700,0,44,0,629270176,63
i,1723569408.177060,10.0.2.15,22,10.0.2.2,50512,1073725440,17674,1026,65535,65700,0,0,4,1460,312,0,0,240000,33580,0,65700,0,0,0,629270176,63
o,1723569408.177741,10.0.2.15,22,10.0.2.2,50512,1073725440,17674,1026,65535,65700,0,0,4,1460,312,0,16777220,240000,33580,72,65700,0,0,0,629270176,63
i,1723569408.178378,10.0.2.15,22,10.0.2.2,50512,1073725440,17674,1026,65535,65700,0,0,4,1460,312,0,16777220,240000,33580,72,65700,0,72,0,629270176,63
o,1723569408.180407,10.0.2.15,22,10.0.2.2,50512,1073725440,17746,1026,65535,65700,0,0,4,1460,312,0,16777220,240000,33580,104,65700,0,0,0,629270176,63
i,1723569408.180849,10.0.2.15,22,10.0.2.2,50512,1073725440,17746,1026,65535,65700,0,0,4,1460,312,0,16777220,240000,33580,104,65700,0,104,0,629270176,63
o,1723569408.195687,10.0.2.15,22,10.0.2.2,50512,1073725440,17850,1026,65535,65700,0,0,4,1460,312,0,16777220,240000,33580,72,65700,0,0,0,629270176,63
i,1723569408.197302,10.0.2.15,22,10.0.2.2,50512,1073725440,17850,1026,65535,65700,0,0,4,1460,312,0,16777220,240000,33580,72,65700,0,72,0,629270176,63
i,1723569408.197348,10.0.2.15,22,10.0.2.2,50512,1073725440,17922,1026,65535,65700,0,0,4,1460,312,0,4,240000,33580,0,65700,0,0,0,629270176,63
i,1723569408.197405,10.0.2.15,22,10.0.2.2,50512,1073725440,17922,1026,65535,65700,0,0,4,1460,312,0,4,240000,33580,0,65700,96,0,0,629270176,63
o,1723569408.197423,10.0.2.15,22,10.0.2.2,50512,1073725440,17922,1026,65535,65604,0,0,5,1460,312,0,5,240000,33580,0,65700,96,0,0,629270176,63
o,1723569408.198764,10.0.2.15,22,10.0.2.2,50512,1073725440,17922,1026,65535,65604,0,0,8,1460,312,0,4,240000,33580,0,65700,0,0,0,629270176,63
i,1723569408.200801,10.0.2.15,22,10.0.2.2,50512,1073725440,17922,1026,65535,65604,0,0,8,1460,312,0,67108884,240000,33580,0,65700,0,1,0,629270176,63
i,1723569409.244841,10.0.2.15,22,10.0.2.2,50514,1073725440,14600,0,65535,65700,0,0,4,1460,312,0,16777216,270000,33580,0,65700,0,0,0,1969816908,63
o,1723569409.258826,10.0.2.15,22,10.0.2.2,50514,1073725440,14600,1026,65535,65700,0,0,4,1460,312,0,16777216,270000,33580,38,65700,42,0,0,1969816908,63
i,1723569409.259725,10.0.2.15,22,10.0.2.2,50514,1073725440,14600,1026,65535,65700,0,0,4,1460,312,0,16777216,270000,33580,38,65700,0,38,0,1969816908,63
i,1723569409.259785,10.0.2.15,22,10.0.2.2,50514,1073725440,14638,1026,65535,65700,0,0,4,1460,312,0,0,240000,33580,0,65700,0,0,0,1969816908,63
i,1723569409.259803,10.0.2.15,22,10.0.2.2,50514,1073725440,14638,1026,65535,65700,0,0,4,1460,312,0,0,240000,33580,0,65700,1460,0,0,1969816908,63
o,1723569409.259825,10.0.2.15,22,10.0.2.2,50514,1073725440,14638,1026,65535,65700,0,0,4,1460,312,0,1,240000,33580,0,65700,1536,0,0,1969816908,63
o,1723569409.260729,10.0.2.15,22,10.0.2.2,50514,1073725440,14638,1026,65535,65700,0,0,4,1460,312,0,16777216,240000,33580,1120,65700,1536,0,0,1969816908,63
i,1723569409.261160,10.0.2.15,22,10.0.2.2,50514,1073725440,14638,1026,65535,65700,0,0,4,1460,312,0,16777216,240000,33580,1120,65700,0,1120,0,1969816908,63
i,1723569409.262643,10.0.2.15,22,10.0.2.2,50514,1073725440,15758,1026,65535,65700,0,0,4,1460,312,0,0,240000,33580,0,65700,0,0,0,1969816908,63
o,1723569409.265616,10.0.2.15,22,10.0.2.2,50514,1073725440,15758,1026,65535,65700,0,0,4,1460,312,0,16777216,240000,33580,492,65700,0,0,0,1969816908,63
i,1723569409.266307,10.0.2.15,22,10.0.2.2,50514,1073725440,15758,1026,65535,65700,0,0,4,1460,312,0,16777216,240000,33580,492,65700,0,492,0,1969816908,63
i,1723569409.270467,10.0.2.15,22,10.0.2.2,50514,1073725440,16250,1026,65535,65700,0,0,4,1460,312,0,0,240000,33580,0,65700,0,0,0,1969816908,63
i,1723569409.270486,10.0.2.15,22,10.0.2.2,50514,1073725440,16250,1026,65535,65700,0,0,4,1460,312,0,0,240000,33580,0,65700,16,0,0,1969816908,63
o,1723569409.270502,10.0.2.15,22,10.0.2.2,50514,1073725440,16250,1026,65535,65700,0,0,4,1460,312,0,1,240000,33580,0,65700,60,0,0,1969816908,63
o,1723569409.270681,10.0.2.15,22,10.0.2.2,50514,1073725440,16250,1026,65535,65700,0,0,4,1460,312,0,16777216,240000,33580,44,65700,0,0,0,1969816908,63
i,1723569409.271406,10.0.2.15,22,10.0.2.2,50514,1073725440,16250,1026,65535,65700,0,0,4,1460,312,0,16777216,240000,33580,44,65700,0,44,0,1969816908,63
i,1723569409.271428,10.0.2.15,22,10.0.2.2,50514,1073725440,16294,1026,65535,65700,0,0,4,1460,312,0,0,240000,33580,0,65700,0,0,0,1969816908,63
o,1723569409.272767,10.0.2.15,22,10.0.2.2,50514,1073725440,16294,1026,65535,65700,0,0,4,1460,312,0,16777216,240000,33580,68,65700,0,0,0,1969816908,63
i,1723569409.273306,10.0.2.15,22,10.0.2.2,50514,1073725440,16294,1026,65535,65700,0,0,4,1460,312,0,16777216,240000,33580,68,65700,0,68,0,1969816908,63
i,1723569409.273324,10.0.2.15,22,10.0.2.2,50514,1073725440,16362,1026,65535,65700,0,0,4,1460,312,0,0,240000,33580,0,65700,0,0,0,1969816908,63
o,1723569409.274817,10.0.2.15,22,10.0.2.2,50514,1073725440,16362,1026,65535,65700,0,0,4,1460,312,0,16777216,240000,33580,332,65700,0,0,0,1969816908,63
i,1723569409.275784,10.0.2.15,22,10.0.2.2,50514,1073725440,16362,1026,65535,65700,0,0,4,1460,312,0,16777216,240000,33580,332,65700,0,332,0,1969816908,63
i,1723569409.277097,10.0.2.15,22,10.0.2.2,50514,1073725440,16694,1026,65535,65700,0,0,4,1460,312,0,0,240000,33580,0,65700,0,0,0,1969816908,63
o,1723569409.294048,10.0.2.15,22,10.0.2.2,50514,1073725440,16694,1026,65535,65700,0,0,4,1460,312,0,16777216,240000,33580,28,65700,0,0,0,1969816908,63
i,1723569409.294656,10.0.2.15,22,10.0.2.2,50514,1073725440,16694,1026,65535,65700,0,0,4,1460,312,0,16777216,240000,33580,28,65700,0,28,0,1969816908,63
i,1723569409.294678,10.0.2.15,22,10.0.2.2,50514,1073725440,16722,1026,65535,65700,0,0,4,1460,312,0,0,240000,33580,0,65700,0,0,0,1969816908,63
o,1723569409.296861,10.0.2.15,22,10.0.2.2,50514,1073725440,16722,1026,65535,65700,0,0,4,1460,312,0,16777216,240000,33580,768,65700,112,0,0,1969816908,63
i,1723569409.297491,10.0.2.15,22,10.0.2.2,50514,1073725440,16722,1026,65535,65700,0,0,4,1460,312,0,16777216,240000,33580,768,65700,112,768,0,1969816908,63
o,1723569409.297515,10.0.2.15,22,10.0.2.2,50514,1073725440,17490,1026,65535,65700,0,0,4,1460,312,0,16777216,240000,33580,140,65700,112,0,0,1969816908,63
i,1723569409.297684,10.0.2.15,22,10.0.2.2,50514,1073725440,17490,1026,65535,65700,0,0,4,1460,312,0,16777216,240000,33580,140,65700,112,140,0,1969816908,63
o,1723569409.298389,10.0.2.15,22,10.0.2.2,50514,1073725440,17630,1026,65535,65700,0,0,4,1460,312,0,16777216,240000,33580,44,65700,0,0,0,1969816908,63
i,1723569409.299105,10.0.2.15,22,10.0.2.2,50514,1073725440,17630,1026,65535,65700,0,0,4,1460,312,0,16777216,240000,33580,44,65700,0,44,0,1969816908,63
i,1723569409.299126,10.0.2.15,22,10.0.2.2,50514,1073725440,17674,1026,65535,65700,0,0,4,1460,312,0,0,240000,33580,0,65700,0,0,0,1969816908,63
o,1723569409.299964,10.0.2.15,22,10.0.2.2,50514,1073725440,17674,1026,65535,65700,0,0,4,1460,312,0,16777220,240000,33580,72,65700,0,0,0,1969816908,63
i,1723569409.300501,10.0.2.15,22,10.0.2.2,50514,1073725440,17674,1026,65535,65700,0,0,4,1460,312,0,16777220,240000,33580,72,65700,0,72,0,1969816908,63
o,1723569409.421483,172.16.5.2,42837,172.16.1.2,5102,9937,14480,2082,65535,65700,6,6,4,1460,237812,1,16778209,780000,33580,0,65700,0,0,0,3581437614,63
o,1723569409.421630,172.16.5.2,42837,172.16.1.2,5102,9937,14480,2082,65535,65700,6,6,4,1460,237812,1,16778212,780000,33580,37,65700,0,0,0,3581437614,63
i,1723569409.556818,172.16.5.2,42837,172.16.1.2,5102,9937,14480,2082,65535,65700,6,6,4,1460,237812,1,16778212,780000,33580,37,65700,0,37,0,3581437614,63
o,1723569409.557004,172.16.5.2,42837,172.16.1.2,5102,9937,14480,3106,65728,65728,6,6,4,1460,225625,1,16778212,780000,33580,4,65700,0,0,0,3581437614,63
o,1723569409.557189,172.16.5.2,42837,172.16.1.2,5102,9937,14480,3106,65728,65728,6,6,4,1460,225625,1,16778212,780000,33580,130,65700,0,4,0,3581437614,63
i,1723569409.687307,172.16.5.2,42837,172.16.1.2,5102,9937,14480,3106,65728,65728,6,6,4,1460,225625,1,16778212,780000,33580,130,65700,0,130,0,3581437614,63
i,1723569409.687351,172.16.5.2,42837,172.16.1.2,5102,9937,14480,3106,65600,65728,6,6,4,1460,212500,1,996,780000,33580,0,65700,0,0,0,3581437614,63
o,1723569409.726337,172.16.5.2,42837,172.16.1.2,5102,9937,14480,3106,65728,65728,6,6,4,1460,212500,1,997,780000,33580,0,65700,0,0,0,3581437614,63
o,1723569409.809246,172.16.5.2,63212,172.16.1.2,5102,9937,14480,2082,65535,65700,6,6,4,1460,237812,1,16778209,780000,33580,0,65700,0,0,0,3444100132,63
o,1723569409.809383,172.16.5.2,63212,172.16.1.2,5102,9937,14480,2082,65535,65700,6,6,4,1460,237812,1,16778208,780000,33580,37,65700,0,0,0,3444100132,63
i,1723569409.942419,172.16.5.2,42837,172.16.1.2,5102,9937,14480,3106,65728,65728,6,6,4,1460,212500,1,996,780000,33580,0,65700,0,0,0,3581437614,63
i,1723569409.942457,172.16.5.2,42837,172.16.1.2,5102,9937,14480,3106,65728,65728,6,6,4,1460,212500,1,996,780000,33580,0,65700,1,0,0,3581437614,63
o,1723569409.942476,172.16.5.2,42837,172.16.1.2,5102,9937,14480,3106,65728,65728,6,6,4,1460,212500,1,997,780000,33580,0,65700,2,0,0,3581437614,63
o,1723569409.943129,172.16.5.2,63212,172.16.1.2,5102,9937,14480,2086,65535,65700,6,6,4,1460,237812,1,16778208,780000,33580,33580,65700,0,37,0,3444100132,63
i,1723569409.970016,172.16.5.2,63212,172.16.1.2,5102,9937,14480,2086,65535,65700,6,6,4,1460,237812,1,16778208,780000,33580,33580,65700,0,13069,0,3444100132,63
o,1723569409.970091,172.16.5.2,63212,172.16.1.2,5102,9937,14480,2082,65728,65728,6,6,4,1460,228125,1,16778208,760000,33580,33543,65700,0,13032,0,3444100132,63
i,1723569410.050742,172.16.5.2,63212,172.16.1.2,5102,9937,14480,2082,65728,65728,6,6,4,1460,228125,1,16778208,760000,33580,33543,65700,0,14480,0,3444100132,63
o,1723569410.050771,172.16.5.2,63212,172.16.1.2,5102,9937,14480,2086,64256,65728,6,6,4,1460,213437,1,16778208,780000,33580,30647,65700,0,11584,0,3444100132,63
i,1723569410.053444,172.16.5.2,63212,172.16.1.2,5102,9937,14480,2086,64256,65728,6,6,4,1460,213437,1,16778208,780000,33580,33580,65700,0,14480,0,3444100132,63
o,1723569410.053527,172.16.5.2,63212,172.16.1.2,5102,9937,14480,2086,64256,65728,6,6,4,1460,200625,1,16778208,780000,33580,30684,65700,0,11584,0,3444100132,63
i,1723569410.086675,172.16.5.2,63212,172.16.1.2,5102,9937,14480,2086,64256,65728,6,6,4,1460,200625,1,16778208,780000,33580,33580,65700,0,14480,0,3444100132,63
o,1723569410.086859,172.16.5.2,63212,172.16.1.2,5102,9937,14480,2086,62848,65728,6,6,4,1460,194375,1,16778208,720000,33580,30684,65700,0,11584,0,3444100132,63
i,1723569410.087157,172.16.5.2,63212,172.16.1.2,5102,9937,14480,2086,62848,65728,6,6,4,1460,194375,1,16778208,720000,33580,30684,65700,0,14480,0,3444100132,63
o,1723569410.087202,172.16.5.2,63212,172.16.1.2,5102,9937,14480,2086,64256,65728,6,6,4,1460,189062,1,16778208,680000,33580,27788,65700,0,11584,0,3444100132,63
i,1723569410.119469,172.16.5.2,63212,172.16.1.2,5102,9937,14480,2086,64256,65728,6,6,4,1460,189062,1,16778208,680000,33580,33580,65700,0,14480,0,3444100132,63
o,1723569410.119567,172.16.5.2,63212,172.16.1.2,5102,9937,15940,2086,64256,65728,6,6,4,1460,188125,1,16778208,610000,33580,30684,65700,0,11584,0,3444100132,63
o,1723569410.119681,172.16.5.2,63212,172.16.1.2,5102,9937,15940,2086,64256,65728,6,6,4,1460,188125,1,16778208,610000,33580,30684,65700,0,13032,0,3444100132,63
i,1723569410.171308,172.16.5.2,63212,172.16.1.2,5102,9937,15940,2086,64256,65728,6,6,4,1460,188125,1,16778208,610000,41772,41772,65700,0,15928,0,3444100132,63
o,1723569410.171387,172.16.5.2,63212,172.16.1.2,5102,9937,15940,2086,64256,65728,6,6,4,1460,179687,1,16778208,610000,41772,38876,65700,0,13032,0,3444100132,63
i,1723569410.171549,172.16.5.2,63212,172.16.1.2,5102,9937,15940,2086,64256,65728,6,6,4,1460,179687,1,16778208,610000,41772,38876,65700,0,15928,0,3444100132,63
o,1723569410.171566,172.16.5.2,63212,172.16.1.2,5102,9937,15940,2086,61376,65728,6,6,4,1460,172500,1,16778208,610000,41772,35980,65700,0,13032,0,3444100132,63
i,1723569410.204712,172.16.5.2,63212,172.16.1.2,5102,9937,15940,2086,61376,65728,6,6,4,1460,172500,1,16778208,610000,41772,41772,65700,0,15928,0,3444100132,63
o,1723569410.204797,172.16.5.2,63212,172.16.1.2,5102,9937,15940,2086,62848,65728,6,6,4,1460,164687,1,16778208,600000,41772,38876,65700,0,13032,0,3444100132,63
i,1723569410.204946,172.16.5.2,63212,172.16.1.2,5102,9937,15940,2086,62848,65728,6,6,4,1460,164687,1,16778208,600000,41772,38876,65700,0,15928,0,3444100132,63
o,1723569410.204965,172.16.5.2,63212,172.16.1.2,5102,9937,15940,2086,59968,65728,6,6,4,1460,158125,1,16778208,590000,41772,35980,65700,0,13032,0,3444100132,63
i,1723569410.231194,172.16.5.2,63212,172.16.1.2,5102,9937,15940,2086,59968,65728,6,6,4,1460,158125,1,16778208,590000,41772,41772,65700,0,15928,0,3444100132,63
o,1723569410.231285,172.16.5.2,63212,172.16.1.2,5102,9937,15940,2086,62848,65728,6,6,4,1460,152187,1,16778208,570000,41772,38876,65700,0,13032,0,3444100132,63
o,1723569410.231433,172.16.5.2,63212,172.16.1.2,5102,9937,15940,2086,62848,65728,6,6,4,1460,152187,1,16778208,570000,41772,38876,65700,0,14480,0,3444100132,63
i,1723569410.269425,172.16.5.2,63212,172.16.1.2,5102,9937,15940,2086,62848,65728,6,6,4,1460,152187,1,16778208,570000,41772,41772,65700,0,15928,0,3444100132,63
o,1723569410.269461,172.16.5.2,63212,172.16.1.2,5102,9937,17400,2086,65728,65728,6,6,4,1460,152187,1,16778208,520000,41772,40324,65700,0,14480,0,3444100132,63
i,1723569410.295905,172.16.5.2,63212,172.16.1.2,5102,9937,17400,2086,65728,65728,6,6,4,1460,152187,1,16778208,520000,41772,40324,65700,0,17376,0,3444100132,63
o,1723569410.295931,172.16.5.2,63212,172.16.1.2,5102,9937,17400,2086,62848,65728,6,6,4,1460,149687,1,16778208,490000,41772,37428,65700,0,14480,0,3444100132,63
i,1723569410.296112,172.16.5.2,63212,172.16.1.2,5102,9937,17400,2086,62848,65728,6,6,4,1460,149687,1,16778208,490000,41772,37428,65700,0,17376,0,3444100132,63
o,1723569410.296137,172.16.5.2,63212,172.16.1.2,5102,9937,17400,2086,64256,65728,6,6,4,1460,147500,1,16778208,470000,41772,34532,65700,0,14480,0,3444100132,63
i,1723569410.331889,172.16.5.2,63212,172.16.1.2,5102,9937,17400,2086,64256,65728,6,6,4,1460,147500,1,16778208,470000,41772,41772,65700,0,17376,0,3444100132,63
o,1723569410.331947,172.16.5.2,63212,172.16.1.2,5102,9937,17400,2086,64256,65728,6,6,4,1460,145312,1,16778208,460000,41772,38876,65700,0,14480,0,3444100132,63
i,1723569410.332311,172.16.5.2,63212,172.16.1.2,5102,9937,17400,2086,64256,65728,6,6,4,1460,145312,1,16778208,460000,41772,38876,65700,0,17376,0,3444100132,63
o,1723569410.332366,172.16.5.2,63212,172.16.1.2,5102,9937,17400,2086,62848,65728,6,6,4,1460,143437,1,16778208,440000,41772,35980,65700,0,14480,0,3444100132,63
i,1723569410.356156,172.16.5.2,63212,172.16.1.2,5102,9937,17400,2086,62848,65728,6,6,4,1460,143437,1,16778208,440000,41772,41772,65700,0,17376,0,3444100132,63
o,1723569410.356189,172.16.5.2,63212,172.16.1.2,5102,9937,17400,2086,62848,65728,6,6,4,1460,141875,1,16778208,430000,41772,38876,65700,0,14480,0,3444100132,63
o,1723569410.356343,172.16.5.2,63212,172.16.1.2,5102,9937,17400,2086,62848,65728,6,6,4,1460,141875,1,16778208,430000,41772,38876,65700,0,15928,0,3444100132,63
i,1723569410.404274,172.16.5.2,63212,172.16.1.2,5102,9937,17400,2086,62848,65728,6,6,4,1460,141875,1,16778208,430000,41772,41772,65700,0,17376,0,3444100132,63
o,1723569410.404387,172.16.5.2,63212,172.16.1.2,5102,9937,18860,2086,64256,65728,6,6,4,1460,140625,1,16778208,410000,41772,38876,65700,0,14480,0,3444100132,63
i,1723569410.438677,172.16.5.2,63212,172.16.1.2,5102,9937,18860,2086,64256,65728,6,6,4,1460,140625,1,16778208,410000,41772,41772,65700,0,18824,0,3444100132,63
o,1723569410.438705,172.16.5.2,63212,172.16.1.2,5102,9937,18860,2086,62848,65728,6,6,4,1460,140625,1,16778208,400000,41772,38876,65700,0,15928,0,3444100132,63
i,1723569410.438864,172.16.5.2,63212,172.16.1.2,5102,9937,18860,2086,62848,65728,6,6,4,1460,140625,1,16778208,400000,41772,38876,65700,0,18824,0,3444100132,63
o,1723569410.438883,172.16.5.2,63212,172.16.1.2,5102,9937,18860,2086,64256,65728,6,6,4,1460,140625,1,16778208,380000,41772,35980,65700,0,15928,0,3444100132,63
i,1723569410.453845,172.16.5.2,63212,172.16.1.2,5102,9937,18860,2086,64256,65728,6,6,4,1460,140625,1,16778208,380000,41772,41772,65700,0,18824,0,3444100132,63
o,1723569410.453909,172.16.5.2,63212,172.16.1.2,5102,9937,18860,2086,62848,65728,6,6,4,1460,138125,1,16778208,390000,41772,38876,65700,0,15928,0,3444100132,63
i,1723569410.474701,172.16.5.2,63212,172.16.1.2,5102,9937,18860,2086,62848,65728,6,6,4,1460,138125,1,16778208,390000,41772,41772,65700,0,18824,0,3444100132,63
o,1723569410.474722,172.16.5.2,63212,172.16.1.2,5102,9937,18860,2086,64256,65728,6,6,4,1460,138437,1,16778208,380000,41772,38876,65700,0,15928,0,3444100132,63
i,1723569410.474868,172.16.5.2,63212,172.16.1.2,5102,9937,18860,2086,64256,65728,6,6,4,1460,138437,1,16778208,380000,41772,38876,65700,0,18824,0,3444100132,63
o,1723569410.474898,172.16.5.2,63212,172.16.1.2,5102,9937,18860,2086,62848,65728,6,6,4,1460,135000,1,16778208,390000,41772,35980,65700,0,15928,0,3444100132,63
o,1723569410.474998,172.16.5.2,63212,172.16.1.2,5102,9937,18860,2086,62848,65728,6,6,4,1460,135000,1,16778208,390000,41772,35980,65700,0,17376,0,3444100132,63
i,1723569410.556454,172.16.5.2,63212,172.16.1.2,5102,9937,18860,2086,62848,65728,6,6,4,1460,135000,1,16778208,390000,41772,41772,65700,0,18824,0,3444100132,63
o,1723569410.556482,172.16.5.2,63212,172.16.1.2,5102,9937,18860,2086,62848,65728,6,6,4,1460,138125,1,16778208,410000,41772,38876,65700,0,15928,0,3444100132,63
i,1723569410.582566,172.16.5.2,63212,172.16.1.2,5102,9937,18860,2086,62848,65728,6,6,4,1460,138125,1,16778208,410000,41772,41772,65700,0,18824,0,3444100132,63
o,1723569410.582590,172.16.5.2,63212,172.16.1.2,5102,9937,18860,2086,65728,65728,6,6,4,1460,143437,1,16778208,440000,41772,40324,65700,0,17376,0,3444100132,63
i,1723569410.582732,172.16.5.2,63212,172.16.1.2,5102,9937,18860,2086,65728,65728,6,6,4,1460,143437,1,16778208,440000,41772,40324,65700,0,18824,0,3444100132,63
o,1723569410.582749,172.16.5.2,63212,172.16.1.2,5102,9937,20320,2086,62848,65728,6,6,4,1460,143125,1,16778208,420000,41772,37428,65700,0,15928,0,3444100132,63
i,1723569410.582906,172.16.5.2,63212,172.16.1.2,5102,9937,20320,2086,62848,65728,6,6,4,1460,143125,1,16778208,420000,49964,37428,65700,0,20272,0,3444100132,63
o,1723569410.582923,172.16.5.2,63212,172.16.1.2,5102,9937,20320,2086,59968,65728,6,6,4,1460,142812,1,16778208,400000,49964,34532,65700,0,17376,0,3444100132,63
i,1723569410.583060,172.16.5.2,63212,172.16.1.2,5102,9937,20320,2086,59968,65728,6,6,4,1460,142812,1,16778208,400000,49964,34532,65700,0,20272,0,3444100132,63
o,1723569410.583075,172.16.5.2,63212,172.16.1.2,5102,9937,20320,2086,64256,65728,6,6,4,1460,141250,1,16778208,400000,49964,31636,65700,0,17376,0,3444100132,63
i,1723569410.617123,172.16.5.2,63212,172.16.1.2,5102,9937,20320,2086,64256,65728,6,6,4,1460,141250,1,16778208,400000,49964,49964,65700,0,20272,0,3444100132,63
o,1723569410.617369,172.16.5.2,63212,172.16.1.2,5102,9937,20320,2086,64256,65728,6,6,4,1460,142500,1,16778208,390000,49964,47068,65700,0,17376,0,3444100132,63
i,1723569410.617828,172.16.5.2,63212,172.16.1.2,5102,9937,20320,2086,64256,65728,6,6,4,1460,142500,1,16778208,390000,49964,47068,65700,0,20272,0,3444100132,63
o,1723569410.617880,172.16.5.2,63212,172.16.1.2,5102,9937,20320,2086,61376,65728,6,6,4,1460,143437,1,16778208,390000,49964,44172,65700,0,17376,0,3444100132,63
o,1723569410.618266,172.16.5.2,63212,172.16.1.2,5102,9937,20320,2086,61376,65728,6,6,4,1460,143437,1,16778208,390000,49964,44172,65700,0,18824,0,3444100132,63
i,1723569410.693063,172.16.5.2,63212,172.16.1.2,5102,9937,20320,2086,61376,65728,6,6,4,1460,143437,1,16778208,390000,49964,49964,65700,0,20272,0,3444100132,63
o,1723569410.693111,172.16.5.2,63212,172.16.1.2,5102,9937,20320,2086,62848,65728,6,6,4,1460,141875,1,16778208,390000,49964,47068,65700,0,17376,0,3444100132,63
i,1723569410.713752,172.16.5.2,63212,172.16.1.2,5102,9937,20320,2086,62848,65728,6,6,4,1460,141875,1,16778208,390000,49964,49964,65700,0,20272,0,3444100132,63
o,1723569410.713781,172.16.5.2,63212,172.16.1.2,5102,9937,20320,2086,64256,65728,6,6,4,1460,140625,1,16778208,380000,49964,47068,65700,0,17376,0,3444100132,63
i,1723569410.727129,172.16.5.2,63212,172.16.1.2,5102,9937,20320,2086,64256,65728,6,6,4,1460,140625,1,16778208,380000,49964,49964,65700,0,20272,0,3444100132,63
o,1723569410.727149,172.16.5.2,63212,172.16.1.2,5102,9937,21780,2086,61376,65728,6,6,4,1460,141875,1,16778208,380000,49964,47068,65700,0,17376,0,3444100132,63
i,1723569410.727277,172.16.5.2,63212,172.16.1.2,5102,9937,21780,2086,61376,65728,6,6,4,1460,141875,1,16778208,380000,49964,47068,65700,0,21720,0,3444100132,63
o,1723569410.727294,172.16.5.2,63212,172.16.1.2,5102,9937,21780,2086,62848,65728,6,6,4,1460,143125,1,16778208,390000,49964,44172,65700,0,18824,0,3444100132,63
i,1723569410.727412,172.16.5.2,63212,172.16.1.2,5102,9937,21780,2086,62848,65728,6,6,4,1460,143125,1,16778208,390000,49964,44172,65700,0,21720,0,3444100132,63
o,1723569410.727428,172.16.5.2,63212,172.16.1.2,5102,9937,21780,2086,62848,65728,6,6,4,1460,144062,1,16778208,380000,49964,41276,65700,0,18824,0,3444100132,63
i,1723569410.751603,172.16.5.2,63212,172.16.1.2,5102,9937,21780,2086,62848,65728,6,6,4,1460,144062,1,16778208,380000,49964,49964,65700,0,21720,0,3444100132,63
o,1723569410.751633,172.16.5.2,63212,172.16.1.2,5102,9937,21780,2086,62848,65728,6,6,4,1460,142500,1,16778208,390000,49964,47068,65700,0,18824,0,3444100132,63
i,1723569410.751769,172.16.5.2,63212,172.16.1.2,5102,9937,21780,2086,62848,65728,6,6,4,1460,142500,1,16778208,390000,49964,47068,65700,0,21720,0,3444100132,63
o,1723569410.751786,172.16.5.2,63212,172.16.1.2,5102,9937,21780,2086,64256,65728,6,6,4,1460,140937,1,16778208,390000,49964,44172,65700,0,18824,0,3444100132,63
o,1723569410.751942,172.16.5.2,63212,172.16.1.2,5102,9937,21780,2086,64256,65728,6,6,4,1460,140937,1,16778208,390000,49964,44172,65700,0,20272,0,3444100132,63
i,1723569410.808145,172.16.5.2,63212,172.16.1.2,5102,9937,21780,2086,64256,65728,6,6,4,1460,140937,1,16778208,390000,49964,49964,65700,0,21720,0,3444100132,63
o,1723569410.808177,172.16.5.2,63212,172.16.1.2,5102,9937,21780,2086,64256,65728,6,6,4,1460,138437,1,16778208,390000,49964,47068,65700,0,18824,0,3444100132,63
i,1723569410.810039,172.16.5.2,63212,172.16.1.2,5102,9937,21780,2086,64256,65728,6,6,4,1460,138437,1,16778208,390000,49964,49964,65700,0,21720,0,3444100132,63
o,1723569410.810207,172.16.5.2,63212,172.16.1.2,5102,9937,21780,2086,62848,65728,6,6,4,1460,133750,1,16778208,410000,49964,47068,65700,0,18824,0,3444100132,63
i,1723569410.839773,172.16.5.2,63212,172.16.1.2,5102,9937,21780,2086,62848,65728,6,6,4,1460,133750,1,16778208,410000,49964,49964,65700,0,21720,0,3444100132,63
o,1723569410.839821,172.16.5.2,63212,172.16.1.2,5102,9937,23240,2086,62848,65728,6,6,4,1460,130937,1,16778208,410000,49964,47068,65700,0,18824,0,3444100132,63
i,1723569410.840129,172.16.5.2,63212,172.16.1.2,5102,9937,23240,2086,62848,65728,6,6,4,1460,130937,1,16778208,410000,49964,47068,65700,0,23168,0,3444100132,63
o,1723569410.840168,172.16.5.2,63212,172.16.1.2,5102,9937,23240,2086,62848,65728,6,6,4,1460,128437,1,16778208,410000,49964,44172,65700,0,20272,0,3444100132,63
i,1723569410.840509,172.16.5.2,63212,172.16.1.2,5102,9937,23240,2086,62848,65728,6,6,4,1460,128437,1,16778208,410000,58156,44172,65700,0,23168,0,3444100132,63
o,1723569410.840550,172.16.5.2,63212,172.16.1.2,5102,9937,23240,2086,64256,65728,6,6,4,1460,126250,1,16778208,400000,58156,41276,65700,0,20272,0,3444100132,63
i,1723569410.841152,172.16.5.2,63212,172.16.1.2,5102,9937,23240,2086,64256,65728,6,6,4,1460,126250,1,16778208,400000,58156,58156,65700,0,23168,0,3444100132,63
o,1723569410.841351,172.16.5.2,63212,172.16.1.2,5102,9937,23240,2086,62848,65728,6,6,4,1460,124375,1,16778208,400000,58156,55260,65700,0,20272,0,3444100132,63
i,1723569410.841908,172.16.5.2,63212,172.16.1.2,5102,9937,23240,2086,62848,65728,6,6,4,1460,124375,1,16778208,400000,58156,55260,65700,0,23168,0,3444100132,63
o,1723569410.841968,172.16.5.2,63212,172.16.1.2,5102,9937,23240,2086,64256,65728,6,6,4,1460,120312,1,16778208,410000,58156,55260,65700,0,20272,0,3444100132,63
o,1723569410.842368,172.16.5.2,63212,172.16.1.2,5102,9937,23240,2086,64256,65728,6,6,4,1460,120312,1,16778208,410000,58156,55260,65700,0,21720,0,3444100132,63
i,1723569410.882251,172.16.5.2,63212,172.16.1.2,5102,9937,23240,2086,64256,65728,6,6,4,1460,120312,1,16778208,410000,58156,58156,65700,0,23168,0,3444100132,63
o,1723569410.882280,172.16.5.2,63212,172.16.1.2,5102,9937,23240,2086,65728,65728,6,6,4,1460,121562,1,16778208,400000,58156,56708,65700,0,21720,0,3444100132,63
i,1723569410.919112,172.16.5.2,63212,172.16.1.2,5102,9937,23240,2086,65728,65728,6,6,4,1460,121562,1,16778208,400000,58156,56708,65700,0,23168,0,3444100132,63
o,1723569410.919252,172.16.5.2,63212,172.16.1.2,5102,9937,23240,2086,62848,65728,6,6,4,1460,120312,1,16778208,390000,58156,53812,65700,0,20272,0,3444100132,63
i,1723569410.950496,172.16.5.2,63212,172.16.1.2,5102,9937,23240,2086,62848,65728,6,6,4,1460,120312,1,16778208,390000,58156,58156,65700,0,23168,0,3444100132,63
o,1723569410.950526,172.16.5.2,63212,172.16.1.2,5102,9937,23240,2086,62848,65728,6,6,4,1460,122812,1,16778208,390000,58156,55260,65700,0,20272,0,3444100132,63
i,1723569410.950658,172.16.5.2,63212,172.16.1.2,5102,9937,23240,2086,62848,65728,6,6,4,1460,122812,1,16778208,390000,58156,55260,65700,0,23168,0,3444100132,63
o,1723569410.950674,172.16.5.2,63212,172.16.1.2,5102,9937,23240,2086,62848,65728,6,6,4,1460,121250,1,16778208,380000,58156,52364,65700,0,20272,0,3444100132,63
i,1723569410.950834,172.16.5.2,63212,172.16.1.2,5102,9937,23240,2086,62848,65728,6,6,4,1460,121250,1,16778208,380000,58156,52364,65700,0,23168,0,3444100132,63
o,1723569410.950852,172.16.5.2,63212,172.16.1.2,5102,9937,24700,2086,59968,65728,6,6,4,1460,120000,1,16778208,380000,58156,49468,65700,0,20272,0,3444100132,63
i,1723569410.952091,172.16.5.2,63212,172.16.1.2,5102,9937,24700,2086,59968,65728,6,6,4,1460,120000,1,16778208,380000,58156,58156,65700,0,24616,0,3444100132,63
o,1723569410.952111,172.16.5.2,63212,172.16.1.2,5102,9937,24700,2086,64256,65728,6,6,4,1460,118750,1,16778208,370000,58156,55260,65700,0,21720,0,3444100132,63
i,1723569410.952232,172.16.5.2,63212,172.16.1.2,5102,9937,24700,2086,64256,65728,6,6,4,1460,118750,1,16778208,370000,58156,55260,65700,0,24616,0,3444100132,63
o,1723569410.952247,172.16.5.2,63212,172.16.1.2,5102,9937,24700,2086,61376,65728,6,6,4,1460,117812,1,16778208,370000,58156,52364,65700,0,21720,0,3444100132,63
i,1723569410.979006,172.16.5.2,63212,172.16.1.2,5102,9937,24700,2086,61376,65728,6,6,4,1460,117812,1,16778208,370000,58156,58156,65700,0,24616,0,3444100132,63
o,1723569410.979116,172.16.5.2,63212,172.16.1.2,5102,9937,24700,2086,64256,65728,6,6,4,1460,120625,1,16778208,380000,58156,55260,65700,0,21720,0,3444100132,63
o,1723569410.979246,172.16.5.2,63212,172.16.1.2,5102,9937,24700,2086,64256,65728,6,6,4,1460,120625,1,16778208,380000,58156,55260,65700,0,23168,0,3444100132,63
i,1723569411.020499,172.16.5.2,63212,172.16.1.2,5102,9937,24700,2086,64256,65728,6,6,4,1460,120625,1,16778208,380000,58156,58156,65700,0,24616,0,3444100132,63
o,1723569411.020525,172.16.5.2,63212,172.16.1.2,5102,9937,24700,2086,64256,65728,6,6,4,1460,128125,1,16778208,430000,58156,55260,65700,0,21720,0,3444100132,63
i,1723569411.047121,172.16.5.2,63212,172.16.1.2,5102,9937,24700,2086,64256,65728,6,6,4,1460,128125,1,16778208,430000,58156,58156,65700,0,24616,0,3444100132,63
o,1723569411.047155,172.16.5.2,63212,172.16.1.2,5102,9937,24700,2086,62848,65728,6,6,4,1460,127187,1,16778208,410000,58156,55260,65700,0,21720,0,3444100132,63
i,1723569411.072463,172.16.5.2,63212,172.16.1.2,5102,9937,24700,2086,62848,65728,6,6,4,1460,127187,1,16778208,410000,58156,58156,65700,0,24616,0,3444100132,63
o,1723569411.072505,172.16.5.2,63212,172.16.1.2,5102,9937,24700,2086,64256,65728,6,6,4,1460,126562,1,16778208,390000,58156,55260,65700,0,21720,0,3444100132,63
i,1723569411.072670,172.16.5.2,63212,172.16.1.2,5102,9937,24700,2086,64256,65728,6,6,4,1460,126562,1,16778208,390000,58156,55260,65700,0,24616,0,3444100132,63
o,1723569411.072692,172.16.5.2,63212,172.16.1.2,5102,9937,24700,2086,62848,65728,6,6,4,1460,125937,1,16778208,380000,58156,52364,65700,0,21720,0,3444100132,63
i,1723569411.072884,172.16.5.2,63212,172.16.1.2,5102,9937,24700,2086,62848,65728,6,6,4,1460,125937,1,16778208,380000,58156,52364,65700,0,24616,0,3444100132,63
o,1723569411.072901,172.16.5.2,63212,172.16.1.2,5102,9937,26160,2086,64256,65728,6,6,4,1460,125312,1,16778208,370000,58156,49468,65700,0,21720,0,3444100132,63
i,1723569411.073229,172.16.5.2,63212,172.16.1.2,5102,9937,26160,2086,64256,65728,6,6,4,1460,125312,1,16778208,370000,58156,49468,65700,0,26064,0,3444100132,63
o,1723569411.073246,172.16.5.2,63212,172.16.1.2,5102,9937,26160,2086,61376,65728,6,6,4,1460,124687,1,16778208,360000,58156,46572,65700,0,23168,0,3444100132,63
i,1723569411.102774,172.16.5.2,63212,172.16.1.2,5102,9937,26160,2086,61376,65728,6,6,4,1460,124687,1,16778208,360000,58156,58156,65700,0,26064,0,3444100132,63
o,1723569411.102801,172.16.5.2,63212,172.16.1.2,5102,9937,26160,2086,64256,65728,6,6,4,1460,128125,1,16778208,380000,58156,55260,65700,0,23168,0,3444100132,63
i,1723569411.102959,172.16.5.2,63212,172.16.1.2,5102,9937,26160,2086,64256,65728,6,6,4,1460,128125,1,16778208,380000,58156,55260,65700,0,26064,0,3444100132,63
o,1723569411.102976,172.16.5.2,63212,172.16.1.2,5102,9937,26160,2086,64256,65728,6,6,4,1460,130937,1,16778208,390000,58156,52364,65700,0,23168,0,3444100132,63
o,1723569411.103107,172.16.5.2,63212,172.16.1.2,5102,9937,26160,2086,64256,65728,6,6,4,1460,130937,1,16778208,390000,58156,52364,65700,0,24616,0,3444100132,63
i,1723569411.134386,172.16.5.2,63212,172.16.1.2,5102,9937,26160,2086,64256,65728,6,6,4,1460,130937,1,16778208,390000,58156,58156,65700,0,26064,0,3444100132,63
o,1723569411.134421,172.16.5.2,63212,172.16.1.2,5102,9937,26160,2086,64256,65728,6,6,4,1460,133437,1,16778208,400000,58156,55260,65700,0,23168,0,3444100132,63
i,1723569411.175906,172.16.5.2,63212,172.16.1.2,5102,9937,26160,2086,64256,65728,6,6,4,1460,133437,1,16778208,400000,58156,58156,65700,0,26064,0,3444100132,63
o,1723569411.175935,172.16.5.2,63212,172.16.1.2,5102,9937,26160,2086,65728,65728,6,6,4,1460,136875,1,16778208,410000,58156,56708,65700,0,24616,0,3444100132,63
i,1723569411.176067,172.16.5.2,63212,172.16.1.2,5102,9937,26160,2086,65728,65728,6,6,4,1460,136875,1,16778208,410000,58156,56708,65700,0,26064,0,3444100132,63
o,1723569411.176083,172.16.5.2,63212,172.16.1.2,5102,9937,26160,2086,64256,65728,6,6,4,1460,136250,1,16778208,400000,58156,53812,65700,0,23168,0,3444100132,63
i,1723569411.195648,172.16.5.2,63212,172.16.1.2,5102,9937,26160,2086,64256,65728,6,6,4,1460,136250,1,16778208,400000,58156,58156,65700,0,26064,0,3444100132,63
o,1723569411.195673,172.16.5.2,63212,172.16.1.2,5102,9937,26160,2086,64256,65728,6,6,4,1460,135625,1,16778208,390000,58156,55260,65700,0,23168,0,3444100132,63
i,1723569411.196432,172.16.5.2,63212,172.16.1.2,5102,9937,26160,2086,64256,65728,6,6,4,1460,135625,1,16778208,390000,58156,58156,65700,0,26064,0,3444100132,63
o,1723569411.196453,172.16.5.2,63212,172.16.1.2,5102,9937,26160,2086,61376,65728,6,6,4,1460,135000,1,16778208,380000,58156,55260,65700,0,23168,0,3444100132,63
i,1723569411.196665,172.16.5.2,63212,172.16.1.2,5102,9937,26160,2086,61376,65728,6,6,4,1460,135000,1,16778208,380000,58156,55260,65700,0,26064,0,3444100132,63
o,1723569411.196685,172.16.5.2,63212,172.16.1.2,5102,9937,26160,2086,62848,65728,6,6,4,1460,134375,1,16778208,370000,58156,52364,65700,0,23168,0,3444100132,63
i,1723569411.196886,172.16.5.2,63212,172.16.1.2,5102,9937,26160,2086,62848,65728,6,6,4,1460,134375,1,16778208,370000,58156,52364,65700,0,26064,0,3444100132,63
o,1723569411.196911,172.16.5.2,63212,172.16.1.2,5102,9937,27620,2086,62848,65728,6,6,4,1460,134062,1,16778208,360000,58156,49468,65700,0,23168,0,3444100132,63
i,1723569411.222355,172.16.5.2,63212,172.16.1.2,5102,9937,27620,2086,62848,65728,6,6,4,1460,134062,1,16778208,360000,58156,58156,65700,0,27512,0,3444100132,63
o,1723569411.222448,172.16.5.2,63212,172.16.1.2,5102,9937,27620,2086,64256,65728,6,6,4,1460,136250,1,16778208,380000,58156,55260,65700,0,24616,0,3444100132,63
i,1723569411.226055,172.16.5.2,63212,172.16.1.2,5102,9937,27620,2086,64256,65728,6,6,4,1460,136250,1,16778208,380000,58156,58156,65700,0,27512,0,3444100132,63
o,1723569411.226073,172.16.5.2,63212,172.16.1.2,5102,9937,27620,2086,64256,65728,6,6,4,1460,135625,1,16778208,370000,58156,55260,65700,0,24616,0,3444100132,63
o,1723569411.226260,172.16.5.2,63212,172.16.1.2,5102,9937,27620,2086,64256,65728,6,6,4,1460,135625,1,16778208,370000,58156,55260,65700,0,26064,0,3444100132,63
i,1723569411.226441,172.16.5.2,63212,172.16.1.2,5102,9937,27620,2086,64256,65728,6,6,4,1460,135625,1,16778208,370000,58156,55260,65700,0,27512,0,3444100132,63
o,1723569411.226475,172.16.5.2,63212,172.16.1.2,5102,9937,27620,2086,61376,65728,6,6,4,1460,135000,1,16778208,370000,58156,52364,65700,0,24616,0,3444100132,63
i,1723569411.258683,172.16.5.2,63212,172.16.1.2,5102,9937,27620,2086,61376,65728,6,6,4,1460,135000,1,16778208,370000,66348,66348,65700,0,27512,0,3444100132,63
o,1723569411.258761,172.16.5.2,63212,172.16.1.2,5102,9937,27620,2086,64256,65728,6,6,4,1460,134375,1,16778208,360000,66348,63452,65700,0,24616,0,3444100132,63
i,1723569411.258891,172.16.5.2,63212,172.16.1.2,5102,9937,27620,2086,64256,65728,6,6,4,1460,134375,1,16778208,360000,66348,63452,65700,0,27512,0,3444100132,63
o,1723569411.258907,172.16.5.2,63212,172.16.1.2,5102,9937,27620,2086,61376,65728,6,6,4,1460,127812,1,16778208,400000,66348,60556,65700,0,24616,0,3444100132,63
i,1723569411.279251,172.16.5.2,63212,172.16.1.2,5102,9937,27620,2086,61376,65728,6,6,4,1460,127812,1,16778208,400000,66348,66348,65700,0,27512,0,3444100132,63
o,1723569411.279379,172.16.5.2,63212,172.16.1.2,5102,9937,27620,2086,62848,65728,6,6,4,1460,121875,1,16778208,420000,66348,63452,65700,0,24616,0,3444100132,63
i,1723569411.279580,172.16.5.2,63212,172.16.1.2,5102,9937,27620,2086,62848,65728,6,6,4,1460,121875,1,16778208,420000,66348,63452,65700,0,27512,0,3444100132,63
o,1723569411.279617,172.16.5.2,63212,172.16.1.2,5102,9937,27620,2086,62848,65728,6,6,4,1460,116875,1,16778208,430000,66348,60556,65700,0,24616,0,3444100132,63
i,1723569411.289053,172.16.5.2,63212,172.16.1.2,5102,9937,27620,2086,62848,65728,6,6,4,1460,116875,1,16778208,430000,66348,66348,65700,0,27512,0,3444100132,63
o,1723569411.289091,172.16.5.2,63212,172.16.1.2,5102,9937,27620,2086,62848,65728,6,6,4,1460,113750,1,16778208,430000,66348,63452,65700,0,24616,0,3444100132,63
i,1723569411.289223,172.16.5.2,63212,172.16.1.2,5102,9937,27620,2086,62848,65728,6,6,4,1460,113750,1,16778208,430000,66348,63452,65700,0,27512,0,3444100132,63
o,1723569411.289239,172.16.5.2,63212,172.16.1.2,5102,9937,29080,2086,62848,65728,6,6,4,1460,110937,1,16778208,420000,66348,60556,65700,0,24616,0,3444100132,63
i,1723569411.316103,172.16.5.2,63212,172.16.1.2,5102,9937,29080,2086,62848,65728,6,6,4,1460,110937,1,16778208,420000,66348,66348,65700,0,28960,0,3444100132,63
o,1723569411.316131,172.16.5.2,63212,172.16.1.2,5102,9937,29080,2086,64256,65728,6,6,4,1460,112187,1,16778208,400000,66348,63452,65700,0,26064,0,3444100132,63
i,1723569411.336591,172.16.5.2,63212,172.16.1.2,5102,9937,29080,2086,64256,65728,6,6,4,1460,112187,1,16778208,400000,66348,66348,65700,0,28960,0,3444100132,63
o,1723569411.336659,172.16.5.2,63212,172.16.1.2,5102,9937,29080,2086,64256,65728,6,6,4,1460,113437,1,16778208,390000,66348,63452,65700,0,26064,0,3444100132,63
o,1723569411.336789,172.16.5.2,63212,172.16.1.2,5102,9937,29080,2086,64256,65728,6,6,4,1460,113437,1,16778208,390000,66348,63452,65700,0,27512,0,3444100132,63
i,1723569411.336932,172.16.5.2,63212,172.16.1.2,5102,9937,29080,2086,64256,65728,6,6,4,1460,113437,1,16778208,390000,66348,63452,65700,0,28960,0,3444100132,63
o,1723569411.336976,172.16.5.2,63212,172.16.1.2,5102,9937,29080,2086,62848,65728,6,6,4,1460,113125,1,16778208,370000,66348,60556,65700,0,26064,0,3444100132,63
i,1723569411.363350,172.16.5.2,63212,172.16.1.2,5102,9937,29080,2086,62848,65728,6,6,4,1460,113125,1,16778208,370000,66348,66348,65700,0,28960,0,3444100132,63
o,1723569411.363381,172.16.5.2,63212,172.16.1.2,5102,9937,29080,2086,65728,65728,6,6,4,1460,115312,1,16778208,380000,66348,64900,65700,0,27512,0,3444100132,63
i,1723569411.363595,172.16.5.2,63212,172.16.1.2,5102,9937,29080,2086,65728,65728,6,6,4,1460,115312,1,16778208,380000,66348,64900,65700,0,28960,0,3444100132,63
o,1723569411.363615,172.16.5.2,63212,172.16.1.2,5102,9937,29080,2086,62848,65728,6,6,4,1460,113437,1,16778208,380000,66348,62004,65700,0,26064,0,3444100132,63
i,1723569411.363789,172.16.5.2,63212,172.16.1.2,5102,9937,29080,2086,62848,65728,6,6,4,1460,113437,1,16778208,380000,66348,62004,65700,0,28960,0,3444100132,63
o,1723569411.363809,172.16.5.2,63212,172.16.1.2,5102,9937,29080,2086,59968,65728,6,6,4,1460,111875,1,16778208,370000,66348,59108,65700,0,26064,0,3444100132,63
i,1723569411.386889,172.16.5.2,63212,172.16.1.2,5102,9937,29080,2086,59968,65728,6,6,4,1460,111875,1,16778208,370000,66348,66348,65700,0,28960,0,3444100132,63
o,1723569411.386973,172.16.5.2,63212,172.16.1.2,5102,9937,29080,2086,62848,65728,6,6,4,1460,111875,1,16778208,360000,66348,63452,65700,0,26064,0,3444100132,63
i,1723569411.387127,172.16.5.2,63212,172.16.1.2,5102,9937,29080,2086,62848,65728,6,6,4,1460,111875,1,16778208,360000,66348,63452,65700,0,28960,0,3444100132,63
o,1723569411.387147,172.16.5.2,63212,172.16.1.2,5102,9937,29080,2086,59968,65728,6,6,4,1460,111875,1,16778208,340000,66348,60556,65700,0,26064,0,3444100132,63
i,1723569411.423638,172.16.5.2,63212,172.16.1.2,5102,9937,29080,2086,59968,65728,6,6,4,1460,111875,1,16778208,340000,66348,66348,65700,0,28960,0,3444100132,63
o,1723569411.423681,172.16.5.2,63212,172.16.1.2,5102,9937,29080,2086,64256,65728,6,6,4,1460,114375,1,16778208,360000,66348,63452,65700,0,26064,0,3444100132,63
i,1723569411.423860,172.16.5.2,63212,172.16.1.2,5102,9937,29080,2086,64256,65728,6,6,4,1460,114375,1,16778208,360000,66348,63452,65700,0,28960,0,3444100132,63
o,1723569411.423880,172.16.5.2,63212,172.16.1.2,5102,9937,29080,2086,62848,65728,6,6,4,1460,116562,1,16778208,370000,66348,60556,65700,0,26064,0,3444100132,63
i,1723569411.434793,172.16.5.2,63212,172.16.1.2,5102,9937,29080,2086,62848,65728,6,6,4,1460,116562,1,16778208,370000,66348,66348,65700,0,28960,0,3444100132,63
o,1723569411.434892,172.16.5.2,63212,172.16.1.2,5102,9937,30540,2086,64256,65728,6,6,4,1460,119687,1,16778208,380000,66348,63452,65700,0,26064,0,3444100132,63
i,1723569411.469186,172.16.5.2,63212,172.16.1.2,5102,9937,30540,2086,64256,65728,6,6,4,1460,119687,1,16778208,380000,66348,66348,65700,0,30408,0,3444100132,63
o,1723569411.469228,172.16.5.2,63212,172.16.1.2,5102,9937,30540,2086,65728,65728,6,6,4,1460,123750,1,16778208,400000,66348,64900,65700,0,28960,0,3444100132,63
i,1723569411.479018,172.16.5.2,63212,172.16.1.2,5102,9937,30540,2086,65728,65728,6,6,4,1460,123750,1,16778208,400000,66348,64900,65700,0,30408,0,3444100132,63
o,1723569411.479077,172.16.5.2,63212,172.16.1.2,5102,9937,30540,2086,64256,65728,6,6,4,1460,125937,1,16778208,400000,66348,62004,65700,0,27512,0,3444100132,63
o,1723569411.479180,172.16.5.2,63212,172.16.1.2,5102,9937,30540,2086,64256,65728,6,6,4,1460,125937,1,16778208,400000,66348,62004,65700,0,28960,0,3444100132,63
i,1723569411.479295,172.16.5.2,63212,172.16.1.2,5102,9937,30540,2086,64256,65728,6,6,4,1460,125937,1,16778208,400000,66348,62004,65700,0,30408,0,3444100132,63
o,1723569411.479310,172.16.5.2,63212,172.16.1.2,5102,9937,30540,2086,62848,65728,6,6,4,1460,127812,1,16778208,400000,66348,59108,65700,0,27512,0,3444100132,63
i,1723569411.498870,172.16.5.2,63212,172.16.1.2,5102,9937,30540,2086,62848,65728,6,6,4,1460,127812,1,16778208,400000,74540,74540,65700,0,30408,0,3444100132,63
o,1723569411.498892,172.16.5.2,63212,172.16.1.2,5102,9937,30540,2086,64256,65728,6,6,4,1460,129375,1,16778208,400000,74540,71644,65700,0,27512,0,3444100132,63
i,1723569411.508507,172.16.5.2,63212,172.16.1.2,5102,9937,30540,2086,64256,65728,6,6,4,1460,129375,1,16778208,400000,74540,74540,65700,0,30408,0,3444100132,63
o,1723569411.508527,172.16.5.2,63212,172.16.1.2,5102,9937,30540,2086,64256,65728,6,6,4,1460,132187,1,16778208,400000,74540,71644,65700,0,27512,0,3444100132,63
i,1723569411.508715,172.16.5.2,63212,172.16.1.2,5102,9937,30540,2086,64256,65728,6,6,4,1460,132187,1,16778208,400000,74540,71644,65700,0,30408,0,3444100132,63
o,1723569411.508731,172.16.5.2,63212,172.16.1.2,5102,9937,30540,2086,64256,65728,6,6,4,1460,134687,1,16778208,410000,74540,68748,65700,0,27512,0,3444100132,63
i,1723569411.532172,172.16.5.2,63212,172.16.1.2,5102,9937,30540,2086,64256,65728,6,6,4,1460,134687,1,16778208,410000,74540,74540,65700,0,30408,0,3444100132,63
o,1723569411.532195,172.16.5.2,63212,172.16.1.2,5102,9937,30540,2086,64256,65728,6,6,4,1460,135625,1,16778208,400000,74540,71644,65700,0,27512,0,3444100132,63
i,1723569411.576118,172.16.5.2,63212,172.16.1.2,5102,9937,30540,2086,64256,65728,6,6,4,1460,135625,1,16778208,400000,74540,74540,65700,0,30408,0,3444100132,63
o,1723569411.576195,172.16.5.2,63212,172.16.1.2,5102,9937,30540,2086,64256,65728,6,6,4,1460,142500,1,16778208,450000,74540,71644,65700,0,27512,0,3444100132,63
i,1723569411.576343,172.16.5.2,63212,172.16.1.2,5102,9937,30540,2086,64256,65728,6,6,4,1460,142500,1,16778208,450000,74540,71644,65700,0,30408,0,3444100132,63
o,1723569411.576359,172.16.5.2,63212,172.16.1.2,5102,9937,30540,2086,64256,65728,6,6,4,1460,144687,1,16778208,440000,74540,68748,65700,0,27512,0,3444100132,63
i,1723569411.583280,172.16.5.2,63212,172.16.1.2,5102,9937,30540,2086,64256,65728,6,6,4,1460,144687,1,16778208,440000,74540,74540,65700,0,30408,0,3444100132,63
o,1723569411.583341,172.16.5.2,63212,172.16.1.2,5102,9937,30540,2086,64256,65728,6,6,4,1460,146875,1,16778208,430000,74540,71644,65700,0,27512,0,3444100132,63
i,1723569411.583509,172.16.5.2,63212,172.16.1.2,5102,9937,30540,2086,64256,65728,6,6,4,1460,146875,1,16778208,430000,74540,71644,65700,0,30408,0,3444100132,63
o,1723569411.583525,172.16.5.2,63212,172.16.1.2,5102,9937,32000,2086,64256,65728,6,6,4,1460,147500,1,16778208,420000,74540,68748,65700,0,27512,0,3444100132,63
i,1723569411.630804,172.16.5.2,63212,172.16.1.2,5102,9937,32000,2086,64256,65728,6,6,4,1460,147500,1,16778208,420000,74540,74540,65700,0,31856,0,3444100132,63
o,1723569411.630827,172.16.5.2,63212,172.16.1.2,5102,9937,32000,2086,64256,65728,6,6,4,1460,147812,1,16778208,400000,74540,71644,65700,0,28960,0,3444100132,63
o,1723569411.630949,172.16.5.2,63212,172.16.1.2,5102,9937,32000,2086,64256,65728,6,6,4,1460,147812,1,16778208,400000,74540,71644,65700,0,30408,0,3444100132,63
i,1723569411.631108,172.16.5.2,63212,172.16.1.2,5102,9937,32000,2086,64256,65728,6,6,4,1460,147812,1,16778208,400000,74540,71644,65700,0,31856,0,3444100132,63
o,1723569411.631127,172.16.5.2,63212,172.16.1.2,5102,9937,32000,2086,61376,65728,6,6,4,1460,148125,1,16778208,390000,74540,68748,65700,0,28960,0,3444100132,63
i,1723569411.664974,172.16.5.2,63212,172.16.1.2,5102,9937,32000,2086,61376,65728,6,6,4,1460,148125,1,16778208,390000,74540,74540,65700,0,31856,0,3444100132,63
o,1723569411.665003,172.16.5.2,63212,172.16.1.2,5102,9937,32000,2086,64256,65728,6,6,4,1460,152187,1,16778208,420000,74540,71644,65700,0,28960,0,3444100132,63
i,1723569411.665490,172.16.5.2,63212,172.16.1.2,5102,9937,32000,2086,64256,65728,6,6,4,1460,152187,1,16778208,420000,74540,71644,65700,0,31856,0,3444100132,63
o,1723569411.665505,172.16.5.2,63212,172.16.1.2,5102,9937,32000,2086,64256,65728,6,6,4,1460,153437,1,16778208,410000,74540,68748,65700,0,28960,0,3444100132,63
i,1723569411.665671,172.16.5.2,63212,172.16.1.2,5102,9937,32000,2086,64256,65728,6,6,4,1460,153437,1,16778208,410000,74540,68748,65700,0,31856,0,3444100132,63
o,1723569411.665687,172.16.5.2,63212,172.16.1.2,5102,9937,32000,2086,64256,65728,6,6,4,1460,153125,1,16778208,400000,74540,65852,65700,0,28960,0,3444100132,63
i,1723569411.665834,172.16.5.2,63212,172.16.1.2,5102,9937,32000,2086,64256,65728,6,6,4,1460,153125,1,16778208,400000,74540,65852,65700,0,31856,0,3444100132,63
o,1723569411.665849,172.16.5.2,63212,172.16.1.2,5102,9937,32000,2086,65728,65728,6,6,4,1460,152812,1,16778208,390000,74540,64404,65700,0,30408,0,3444100132,63
i,1723569411.691560,172.16.5.2,63212,172.16.1.2,5102,9937,32000,2086,65728,65728,6,6,4,1460,152812,1,16778208,390000,74540,74540,65700,0,31856,0,3444100132,63
o,1723569411.691582,172.16.5.2,63212,172.16.1.2,5102,9937,32000,2086,64256,65728,6,6,4,1460,153750,1,16778208,390000,74540,71644,65700,0,28960,0,3444100132,63
i,1723569411.729042,172.16.5.2,63212,172.16.1.2,5102,9937,32000,2086,64256,65728,6,6,4,1460,153750,1,16778208,390000,74540,74540,65700,0,31856,0,3444100132,63
o,1723569411.729068,172.16.5.2,63212,172.16.1.2,5102,9937,32000,2086,64256,65728,6,6,4,1460,153437,1,16778208,380000,74540,71644,65700,0,28960,0,3444100132,63
i,1723569411.730278,172.16.5.2,63212,172.16.1.2,5102,9937,32000,2086,64256,65728,6,6,4,1460,153437,1,16778208,380000,74540,74540,65700,0,31856,0,3444100132,63
o,1723569411.730300,172.16.5.2,63212,172.16.1.2,5102,9937,32000,2086,64256,65728,6,6,4,1460,153125,1,16778208,380000,74540,71644,65700,0,28960,0,3444100132,63
i,1723569411.730486,172.16.5.2,63212,172.16.1.2,5102,9937,32000,2086,64256,65728,6,6,4,1460,153125,1,16778208,380000,74540,71644,65700,0,31856,0,3444100132,63
o,1723569411.730504,172.16.5.2,63212,172.16.1.2,5102,9937,32000,2086,62848,65728,6,6,4,1460,152812,1,16778208,370000,74540,68748,65700,0,28960,0,3444100132,63
i,1723569411.764055,172.16.5.2,63212,172.16.1.2,5102,9937,32000,2086,62848,65728,6,6,4,1460,152812,1,16778208,370000,74540,74540,65700,0,31856,0,3444100132,63
o,1723569411.764083,172.16.5.2,63212,172.16.1.2,5102,9937,33460,2086,62848,65728,6,6,4,1460,156250,1,16778208,400000,74540,71644,65700,0,28960,0,3444100132,63
i,1723569411.765830,172.16.5.2,63212,172.16.1.2,5102,9937,33460,2086,62848,65728,6,6,4,1460,156250,1,16778208,400000,74540,74540,65700,0,33304,0,3444100132,63
o,1723569411.765853,172.16.5.2,63212,172.16.1.2,5102,9937,33460,2086,64256,65728,6,6,4,1460,160625,1,16778208,430000,74540,71644,65700,0,30408,0,3444100132,63
o,1723569411.766169,172.16.5.2,63212,172.16.1.2,5102,9937,33460,2086,64256,65728,6,6,4,1460,160625,1,16778208,430000,74540,71644,65700,0,31856,0,3444100132,63
i,1723569411.766457,172.16.5.2,63212,172.16.1.2,5102,9937,33460,2086,64256,65728,6,6,4,1460,160625,1,16778208,430000,74540,71644,65700,0,33304,0,3444100132,63
o,1723569411.766474,172.16.5.2,63212,172.16.1.2,5102,9937,33460,2086,61376,65728,6,6,4,1460,158125,1,16778208,430000,74540,68748,65700,0,30408,0,3444100132,63
i,1723569411.826257,172.16.5.2,63212,172.16.1.2,5102,9937,33460,2086,61376,65728,6,6,4,1460,158125,1,16778208,430000,74540,74540,65700,0,33304,0,3444100132,63
o,1723569411.826283,172.16.5.2,63212,172.16.1.2,5102,9937,33460,2086,64256,65728,6,6,4,1460,163437,1,16778208,460000,74540,71644,65700,0,30408,0,3444100132,63
i,1723569411.826451,172.16.5.2,63212,172.16.1.2,5102,9937,33460,2086,64256,65728,6,6,4,1460,163437,1,16778208,460000,74540,71644,65700,0,33304,0,3444100132,63
o,1723569411.826469,172.16.5.2,63212,172.16.1.2,5102,9937,33460,2086,64256,65728,6,6,4,1460,164375,1,16778208,440000,74540,68748,65700,0,30408,0,3444100132,63
i,1723569411.826589,172.16.5.2,63212,172.16.1.2,5102,9937,33460,2086,64256,65728,6,6,4,1460,164375,1,16778208,440000,74540,68748,65700,0,33304,0,3444100132,63
o,1723569411.826605,172.16.5.2,63212,172.16.1.2,5102,9937,33460,2086,61376,65728,6,6,4,1460,164062,1,16778208,420000,74540,65852,65700,0,30408,0,3444100132,63
i,1723569411.826788,172.16.5.2,63212,172.16.1.2,5102,9937,33460,2086,61376,65728,6,6,4,1460,164062,1,16778208,420000,82732,65852,65700,0,33304,0,3444100132,63
o,1723569411.826804,172.16.5.2,63212,172.16.1.2,5102,9937,33460,2086,58496,65728,6,6,4,1460,163750,1,16778208,410000,82732,62956,65700,0,30408,0,3444100132,63
i,1723569411.836284,172.16.5.2,63212,172.16.1.2,5102,9937,33460,2086,58496,65728,6,6,4,1460,163750,1,16778208,410000,82732,82732,65700,0,33304,0,3444100132,63
o,1723569411.836305,172.16.5.2,63212,172.16.1.2,5102,9937,33460,2086,95680,65728,6,6,4,1460,162187,1,16778208,410000,82732,79836,65700,0,30408,0,3444100132,63
i,1723569411.892122,172.16.5.2,63212,172.16.1.2,5102,9937,33460,2086,95680,65728,6,6,4,1460,162187,1,16778208,410000,82732,82732,65700,0,33304,0,3444100132,63
o,1723569411.892202,172.16.5.2,63212,172.16.1.2,5102,9937,33460,2086,97152,65728,6,6,4,1460,162187,1,16778208,400000,82732,79836,65700,0,30408,0,3444100132,63
i,1723569411.901627,172.16.5.2,63212,172.16.1.2,5102,9937,33460,2086,97152,65728,6,6,4,1460,162187,1,16778208,400000,82732,82732,65700,0,33304,0,3444100132,63
o,1723569411.901654,172.16.5.2,63212,172.16.1.2,5102,9937,33460,2086,95680,65728,6,6,4,1460,163437,1,16778208,400000,82732,79836,65700,0,30408,0,3444100132,63
i,1723569411.912165,172.16.5.2,63212,172.16.1.2,5102,9937,33460,2086,95680,65728,6,6,4,1460,163437,1,16778208,400000,82732,82732,65700,0,33304,0,3444100132,63
o,1723569411.912186,172.16.5.2,63212,172.16.1.2,5102,9937,33460,2086,97152,65728,6,6,4,1460,165625,1,16778208,410000,82732,79836,65700,0,30408,0,3444100132,63
i,1723569411.912319,172.16.5.2,63212,172.16.1.2,5102,9937,33460,2086,97152,65728,6,6,4,1460,165625,1,16778208,410000,82732,79836,65700,0,33304,0,3444100132,63
o,1723569411.912337,172.16.5.2,63212,172.16.1.2,5102,9937,33460,2086,94272,65728,6,6,4,1460,163750,1,16778208,410000,82732,76940,65700,0,30408,0,3444100132,63
i,1723569411.936713,172.16.5.2,63212,172.16.1.2,5102,9937,33460,2086,94272,65728,6,6,4,1460,163750,1,16778208,410000,82732,82732,65700,0,33304,0,3444100132,63
o,1723569411.936749,172.16.5.2,63212,172.16.1.2,5102,9937,34920,2086,97152,65728,6,6,4,1460,165937,1,16778208,420000,82732,79836,65700,0,30408,0,3444100132,63
o,1723569411.936893,172.16.5.2,63212,172.16.1.2,5102,9937,34920,2086,97152,65728,6,6,4,1460,165937,1,16778208,420000,82732,79836,65700,0,31856,0,3444100132,63
i,1723569411.937029,172.16.5.2,63212,172.16.1.2,5102,9937,34920,2086,97152,65728,6,6,4,1460,165937,1,16778208,420000,82732,79836,65700,0,34752,0,3444100132,63
o,1723569411.937046,172.16.5.2,63212,172.16.1.2,5102,9937,34920,2086,94272,65728,6,6,4,1460,166562,1,16778208,410000,82732,76940,65700,0,31856,0,3444100132,63
i,1723569411.946744,172.16.5.2,63212,172.16.1.2,5102,9937,34920,2086,94272,65728,6,6,4,1460,166562,1,16778208,410000,82732,82732,65700,0,34752,0,3444100132,63
o,1723569411.946769,172.16.5.2,63212,172.16.1.2,5102,9937,34920,2086,97152,65728,6,6,4,1460,168437,1,16778208,420000,82732,79836,65700,0,31856,0,3444100132,63
i,1723569411.946902,172.16.5.2,63212,172.16.1.2,5102,9937,34920,2086,97152,65728,6,6,4,1460,168437,1,16778208,420000,82732,79836,65700,0,34752,0,3444100132,63
o,1723569411.947147,172.16.5.2,63212,172.16.1.2,5102,9937,34920,2086,94272,65728,6,6,4,1460,162500,1,16778208,450000,82732,76940,65700,0,31856,0,3444100132,63
i,1723569411.947267,172.16.5.2,63212,172.16.1.2,5102,9937,34920,2086,94272,65728,6,6,4,1460,162500,1,16778208,450000,82732,76940,65700,0,34752,0,3444100132,63
o,1723569411.947283,172.16.5.2,63212,172.16.1.2,5102,9937,34920,2086,95680,65728,6,6,4,1460,157187,1,16778208,460000,82732,74044,65700,0,31856,0,3444100132,63
i,1723569411.965137,172.16.5.2,63212,172.16.1.2,5102,9937,34920,2086,95680,65728,6,6,4,1460,157187,1,16778208,460000,82732,82732,65700,0,34752,0,3444100132,63
o,1723569411.965155,172.16.5.2,63212,172.16.1.2,5102,9937,34920,2086,95680,65728,6,6,4,1460,154062,1,16778208,460000,82732,79836,65700,0,31856,0,3444100132,63
i,1723569411.977320,172.16.5.2,63212,172.16.1.2,5102,9937,34920,2086,95680,65728,6,6,4,1460,154062,1,16778208,460000,82732,82732,65700,0,34752,0,3444100132,63
o,1723569411.977341,172.16.5.2,63212,172.16.1.2,5102,9937,34920,2086,97152,65728,6,6,4,1460,153750,1,16778208,430000,82732,79836,65700,0,31856,0,3444100132,63
i,1723569412.000147,172.16.5.2,63212,172.16.1.2,5102,9937,34920,2086,97152,65728,6,6,4,1460,153750,1,16778208,430000,82732,82732,65700,0,34752,0,3444100132,63
o,1723569412.000169,172.16.5.2,63212,172.16.1.2,5102,9937,34920,2086,98560,65728,6,6,4,1460,154687,1,16778208,420000,82732,81284,65700,0,33304,0,3444100132,63
i,1723569412.000329,172.16.5.2,63212,172.16.1.2,5102,9937,34920,2086,98560,65728,6,6,4,1460,154687,1,16778208,420000,82732,81284,65700,0,34752,0,3444100132,63
o,1723569412.000355,172.16.5.2,63212,172.16.1.2,5102,9937,34920,2086,95680,65728,6,6,4,1460,149375,1,16778208,440000,82732,78388,65700,0,31856,0,3444100132,63
i,1723569412.032145,172.16.5.2,63212,172.16.1.2,5102,9937,34920,2086,95680,65728,6,6,4,1460,149375,1,16778208,440000,82732,82732,65700,0,34752,0,3444100132,63
o,1723569412.032227,172.16.5.2,63212,172.16.1.2,5102,9937,34920,2086,97152,65728,6,6,4,1460,147187,1,16778208,430000,82732,79836,65700,0,31856,0,3444100132,63
i,1723569412.052376,172.16.5.2,63212,172.16.1.2,5102,9937,34920,2086,97152,65728,6,6,4,1460,147187,1,16778208,430000,82732,82732,65700,0,34752,0,3444100132,63
o,1723569412.052400,172.16.5.2,63212,172.16.1.2,5102,9937,34920,2086,97152,65728,6,6,4,1460,145312,1,16778208,430000,82732,79836,65700,0,31856,0,3444100132,63
i,1723569412.052550,172.16.5.2,63212,172.16.1.2,5102,9937,34920,2086,97152,65728,6,6,4,1460,145312,1,16778208,430000,82732,79836,65700,0,34752,0,3444100132,63
o,1723569412.052566,172.16.5.2,63212,172.16.1.2,5102,9937,34920,2086,97152,65728,6,6,4,1460,143437,1,16778208,420000,82732,76940,65700,0,31856,0,3444100132,63
i,1723569412.052699,172.16.5.2,63212,172.16.1.2,5102,9937,34920,2086,97152,65728,6,6,4,1460,143437,1,16778208,420000,82732,76940,65700,0,34752,0,3444100132,63
o,1723569412.052715,172.16.5.2,63212,172.16.1.2,5102,9937,36380,2086,97152,65728,6,6,4,1460,138125,1,16778208,440000,82732,74044,65700,0,31856,0,3444100132,63
