enable_time_secs=1734975394	enable_time_usecs=901637	siftrver=1.3.0	sysname=FreeBSD	sysver=1401000	ipmode=4
o,1734975394.902934,10.0.2.15,22,192.168.56.1,54744,1073725440,18998,1026,65535,65700,0,0,4,1460,312,0,16777220,230000,33580,172,65700,0,0,0,2937117351,63
i,1734975394.906612,10.0.2.15,22,192.168.56.1,54744,1073725440,18998,1026,65535,65700,0,0,4,1460,312,0,16777220,230000,33580,172,65700,0,172,0,2937117351,63
o,1734975394.906759,10.0.2.15,22,192.168.56.1,54744,1073725440,19170,1026,65535,65700,0,0,4,1460,312,0,16777220,230000,33580,72,65700,0,0,0,2937117351,63
i,1734975394.909552,10.0.2.15,22,192.168.56.1,54744,1073725440,19170,1026,65535,65700,0,0,4,1460,312,0,16777220,230000,33580,72,65700,0,72,0,2937117351,63
i,1734975394.909626,10.0.2.15,22,192.168.56.1,54744,1073725440,19242,1026,65535,65700,0,0,4,1460,312,0,4,230000,33580,0,65700,0,0,0,2937117351,63
o,1734975394.914247,10.0.2.15,22,192.168.56.1,54744,1073725440,19242,1026,65535,65700,0,0,6,1460,312,0,4,230000,33580,0,65700,0,0,0,2937117351,63
i,1734975394.917205,10.0.2.15,22,192.168.56.1,54744,1073725440,19242,1026,65535,65700,0,0,6,1460,312,0,67108884,230000,33580,0,65700,0,1,0,2937117351,63
i,1734975398.397089,10.0.2.15,22,192.168.56.1,54742,1073725440,14600,0,65535,65700,0,0,4,1460,312,0,16777216,260000,33580,0,65700,0,0,0,2209771590,63
o,1734975398.435829,10.0.2.15,22,192.168.56.1,54742,1073725440,14600,2,65535,65700,0,0,4,1460,312,0,16777217,260000,33580,0,65700,42,0,0,2209771590,63
o,1734975398.437764,10.0.2.15,22,192.168.56.1,54742,1073725440,14600,1026,65535,65700,0,0,4,1460,312,0,16777216,260000,33580,38,65700,42,0,0,2209771590,63
i,1734975398.441345,10.0.2.15,22,192.168.56.1,54742,1073725440,14600,1026,65535,65700,0,0,4,1460,312,0,16777216,260000,33580,38,65700,0,38,0,2209771590,63
i,1734975398.441423,10.0.2.15,22,192.168.56.1,54742,1073725440,14638,1026,65535,65700,0,0,4,1460,312,0,0,230000,33580,0,65700,0,0,0,2209771590,63
i,1734975398.441490,10.0.2.15,22,192.168.56.1,54742,1073725440,14638,1026,65535,65700,0,0,4,1460,312,0,0,230000,33580,0,65700,1460,0,0,2209771590,63
o,1734975398.441562,10.0.2.15,22,192.168.56.1,54742,1073725440,14638,1026,65535,65700,0,0,4,1460,312,0,1,230000,33580,0,65700,1536,0,0,2209771590,63
o,1734975398.444437,10.0.2.15,22,192.168.56.1,54742,1073725440,14638,1026,65535,65700,0,0,4,1460,312,0,16777216,230000,33580,1120,65700,1536,0,0,2209771590,63
i,1734975398.448243,10.0.2.15,22,192.168.56.1,54742,1073725440,14638,1026,65535,65700,0,0,4,1460,312,0,16777216,230000,33580,1120,65700,0,1120,0,2209771590,63
i,1734975398.479501,10.0.2.15,22,192.168.56.1,54742,1073725440,15758,1026,65535,65700,0,0,4,1460,312,0,0,230000,33580,0,65700,0,0,0,2209771590,63
o,1734975398.506207,10.0.2.15,22,192.168.56.1,54742,1073725440,15758,1030,65535,65700,0,0,4,1460,312,0,16777216,230000,33580,1532,65700,0,0,0,2209771590,63
o,1734975398.506777,10.0.2.15,22,192.168.56.1,54742,1073725440,15758,1026,65535,65700,0,0,4,1460,312,0,16777216,230000,33580,1532,65700,0,1460,0,2209771590,63
i,1734975398.511310,10.0.2.15,22,192.168.56.1,54742,1073725440,15758,1026,65535,65700,0,0,4,1460,312,0,16777216,230000,33580,1532,65700,0,1532,0,2209771590,63
i,1734975398.531023,10.0.2.15,22,192.168.56.1,54742,1073725440,17290,1026,65535,65700,0,0,4,1460,312,0,0,240000,33580,0,65700,0,0,0,2209771590,63
o,1734975398.531289,10.0.2.15,22,192.168.56.1,54742,1073725440,17290,1026,65535,65700,0,0,4,1460,312,0,16777216,240000,33580,44,65700,0,0,0,2209771590,63
i,1734975398.534407,10.0.2.15,22,192.168.56.1,54742,1073725440,17290,1026,65535,65700,0,0,4,1460,312,0,16777216,240000,33580,44,65700,0,44,0,2209771590,63
o,1734975398.536847,10.0.2.15,22,192.168.56.1,54742,1073725440,17334,1026,65535,65700,0,0,4,1460,312,0,16777216,230000,33580,280,65700,0,0,0,2209771590,63
i,1734975398.539388,10.0.2.15,22,192.168.56.1,54742,1073725440,17334,1026,65535,65700,0,0,4,1460,312,0,16777216,230000,33580,280,65700,0,280,0,2209771590,63
o,1734975398.540627,10.0.2.15,22,192.168.56.1,54742,1073725440,17614,1026,65535,65700,0,0,4,1460,312,0,16777216,230000,33580,332,65700,0,0,0,2209771590,63
i,1734975398.545123,10.0.2.15,22,192.168.56.1,54742,1073725440,17614,1026,65535,65700,0,0,4,1460,312,0,16777216,230000,33580,332,65700,0,332,0,2209771590,63
i,1734975398.545225,10.0.2.15,22,192.168.56.1,54742,1073725440,17946,1026,65535,65700,0,0,4,1460,312,0,0,230000,33580,0,65700,0,0,0,2209771590,63
o,1734975398.561261,10.0.2.15,22,192.168.56.1,54742,1073725440,17946,1026,65535,65700,0,0,4,1460,312,0,16777216,230000,33580,28,65700,0,0,0,2209771590,63
i,1734975398.564974,10.0.2.15,22,192.168.56.1,54742,1073725440,17946,1026,65535,65700,0,0,4,1460,312,0,16777216,230000,33580,936,65700,0,28,0,2209771590,63
o,1734975398.565017,10.0.2.15,22,192.168.56.1,54742,1073725440,17974,1026,65535,65700,0,0,4,1460,312,0,16777218,230000,33580,908,65700,112,0,0,2209771590,63
i,1734975398.571124,10.0.2.15,22,192.168.56.1,54742,1073725440,17974,1026,65535,65700,0,0,4,1460,312,0,16777216,230000,33580,952,65700,0,908,0,2209771590,63
o,1734975398.571232,10.0.2.15,22,192.168.56.1,54742,1073725440,18882,1026,65535,65700,0,0,4,1460,312,0,16777216,230000,33580,44,65700,0,0,0,2209771590,63
i,1734975398.573507,10.0.2.15,22,192.168.56.1,54742,1073725440,18882,1026,65535,65700,0,0,4,1460,312,0,16777216,230000,33580,44,65700,0,44,0,2209771590,63
i,1734975398.573587,10.0.2.15,22,192.168.56.1,54742,1073725440,18926,1026,65535,65700,0,0,4,1460,312,0,0,230000,33580,0,65700,0,0,0,2209771590,63
o,1734975398.575947,10.0.2.15,22,192.168.56.1,54742,1073725440,18926,1026,65535,65700,0,0,4,1460,312,0,16777220,230000,33580,72,65700,0,0,0,2209771590,63
i,1734975398.579646,10.0.2.15,22,192.168.56.1,54742,1073725440,18926,1026,65535,65700,0,0,4,1460,312,0,16777220,230000,33580,72,65700,0,72,0,2209771590,63
o,1734975398.588405,10.0.2.15,22,192.168.56.1,54742,1073725440,18998,1026,65535,65700,0,0,4,1460,312,0,16777220,230000,33580,104,65700,0,0,0,2209771590,63
i,1734975398.591357,10.0.2.15,22,192.168.56.1,54742,1073725440,18998,1026,65535,65700,0,0,4,1460,312,0,16777220,230000,33580,104,65700,0,104,0,2209771590,63
o,1734975398.620782,10.0.2.15,22,192.168.56.1,54742,1073725440,19102,1026,65535,65700,0,0,4,1460,312,0,16777220,230000,33580,72,65700,0,0,0,2209771590,63
i,1734975398.624449,10.0.2.15,22,192.168.56.1,54742,1073725440,19102,1026,65535,65700,0,0,4,1460,312,0,16777220,230000,33580,72,65700,0,72,0,2209771590,63
i,1734975398.624527,10.0.2.15,22,192.168.56.1,54742,1073725440,19174,1026,65535,65700,0,0,4,1460,312,0,4,230000,33580,0,65700,0,0,0,2209771590,63
i,1734975398.631361,10.0.2.15,22,192.168.56.1,54754,1073725440,14600,0,65535,65700,0,0,4,1460,312,0,16777216,260000,33580,0,65700,0,0,0,886150131,63
i,1734975398.631523,10.0.2.15,22,192.168.56.1,54758,1073725440,14600,0,65535,65700,0,0,4,1460,312,0,16777216,260000,33580,0,65700,0,0,0,2628116997,63
i,1734975398.631596,10.0.2.15,22,192.168.56.1,54690,1073725440,14600,0,65535,65700,0,0,4,1460,312,0,16777216,260000,33580,0,65700,0,0,0,1314313452,63
o,1734975398.633209,10.0.2.15,22,192.168.56.1,54742,1073725440,19174,1026,65535,65700,0,0,6,1460,312,0,4,230000,33580,0,65700,0,0,0,2209771590,63
i,1734975398.640796,10.0.2.15,22,192.168.56.1,54742,1073725440,19174,1026,65535,65700,0,0,6,1460,312,0,67108884,230000,33580,0,65700,0,1,0,2209771590,63
o,1734975398.664641,10.0.2.15,22,192.168.56.1,54690,1073725440,14600,2,65535,65700,0,0,4,1460,312,0,16777217,260000,33580,0,65700,42,0,0,1314313452,63
o,1734975398.665223,10.0.2.15,22,192.168.56.1,54758,1073725440,14600,2,65535,65700,0,0,4,1460,312,0,16777217,260000,33580,0,65700,42,0,0,2628116997,63
o,1734975398.666951,10.0.2.15,22,192.168.56.1,54754,1073725440,14600,2,65535,65700,0,0,4,1460,312,0,16777217,260000,33580,0,65700,42,0,0,886150131,63
o,1734975398.668867,10.0.2.15,22,192.168.56.1,54754,1073725440,14600,1026,65535,65700,0,0,4,1460,312,0,16777216,260000,33580,38,65700,42,0,0,886150131,63
i,1734975398.671331,10.0.2.15,22,192.168.56.1,54754,1073725440,14600,1026,65535,65700,0,0,4,1460,312,0,16777216,260000,33580,38,65700,0,38,0,886150131,63
i,1734975398.671411,10.0.2.15,22,192.168.56.1,54754,1073725440,14638,1026,65535,65700,0,0,4,1460,312,0,0,230000,33580,0,65700,0,0,0,886150131,63
i,1734975398.671480,10.0.2.15,22,192.168.56.1,54754,1073725440,14638,1026,65535,65700,0,0,4,1460,312,0,0,230000,33580,0,65700,1460,0,0,886150131,63
o,1734975398.671636,10.0.2.15,22,192.168.56.1,54754,1073725440,14638,1026,65535,65700,0,0,4,1460,312,0,1,230000,33580,0,65700,1536,0,0,886150131,63
o,1734975398.672907,10.0.2.15,22,192.168.56.1,54754,1073725440,14638,1026,65535,65700,0,0,4,1460,312,0,16777216,230000,33580,1120,65700,1536,0,0,886150131,63
i,1734975398.674873,10.0.2.15,22,192.168.56.1,54754,1073725440,14638,1026,65535,65700,0,0,4,1460,312,0,16777216,230000,33580,1120,65700,0,1120,0,886150131,63
o,1734975398.694364,10.0.2.15,22,192.168.56.1,54758,1073725440,14600,1026,65535,65700,0,0,4,1460,312,0,16777216,260000,33580,38,65700,42,0,0,2628116997,63
i,1734975398.696800,10.0.2.15,22,192.168.56.1,54758,1073725440,14600,1026,65535,65700,0,0,4,1460,312,0,16777216,260000,33580,38,65700,0,38,0,2628116997,63
o,1734975398.698120,10.0.2.15,22,192.168.56.1,54690,1073725440,14600,1026,65535,65700,0,0,4,1460,312,0,16777216,260000,33580,38,65700,42,0,0,1314313452,63
o,1734975398.697981,10.0.2.15,22,192.168.56.1,54758,1073725440,14638,1026,65535,65700,0,0,4,1460,312,0,16777216,230000,33580,1120,65700,0,0,0,2628116997,63
i,1734975398.701301,10.0.2.15,22,192.168.56.1,54758,1073725440,14638,1026,65535,65700,0,0,4,1460,312,0,16777216,230000,33580,1120,65700,0,1120,0,2628116997,63
i,1734975398.701340,10.0.2.15,22,192.168.56.1,54758,1073725440,14638,1026,65535,65700,0,0,4,1460,312,0,16777216,230000,33580,1120,65700,1460,1120,0,2628116997,63
o,1734975398.701374,10.0.2.15,22,192.168.56.1,54758,1073725440,14638,1026,65535,65700,0,0,4,1460,312,0,16777217,230000,33580,1120,65700,1536,1120,0,2628116997,63
i,1734975398.701553,10.0.2.15,22,192.168.56.1,54690,1073725440,14600,1026,65535,65700,0,0,4,1460,312,0,16777216,260000,33580,38,65700,0,38,0,1314313452,63
i,1734975398.701635,10.0.2.15,22,192.168.56.1,54690,1073725440,14638,1026,65535,65700,0,0,4,1460,312,0,0,230000,33580,0,65700,0,0,0,1314313452,63
i,1734975398.701687,10.0.2.15,22,192.168.56.1,54690,1073725440,14638,1026,65535,65700,0,0,4,1460,312,0,0,230000,33580,0,65700,1460,0,0,1314313452,63
o,1734975398.701718,10.0.2.15,22,192.168.56.1,54690,1073725440,14638,1026,65535,65700,0,0,4,1460,312,0,1,230000,33580,0,65700,1536,0,0,1314313452,63
i,1734975398.701891,10.0.2.15,22,192.168.56.1,54758,1073725440,14638,1026,65535,65700,0,0,4,1460,312,0,16777216,230000,33580,1120,65700,1536,1120,0,2628116997,63
o,1734975398.705959,10.0.2.15,22,192.168.56.1,54690,1073725440,14638,1026,65535,65700,0,0,4,1460,312,0,16777216,230000,33580,1120,65700,1536,0,0,1314313452,63
i,1734975398.709687,10.0.2.15,22,192.168.56.1,54690,1073725440,14638,1026,65535,65700,0,0,4,1460,312,0,16777216,230000,33580,1120,65700,0,1120,0,1314313452,63
i,1734975398.711270,10.0.2.15,22,192.168.56.1,54754,1073725440,15758,1026,65535,65700,0,0,4,1460,312,0,0,230000,33580,0,65700,0,0,0,886150131,63
o,1734975398.730371,10.0.2.15,22,192.168.56.1,54754,1073725440,15758,1030,65535,65700,0,0,4,1460,312,0,16777216,230000,33580,1532,65700,0,0,0,886150131,63
o,1734975398.730998,10.0.2.15,22,192.168.56.1,54754,1073725440,15758,1026,65535,65700,0,0,4,1460,312,0,16777216,230000,33580,1532,65700,0,1460,0,886150131,63
i,1734975398.734880,10.0.2.15,22,192.168.56.1,54754,1073725440,15758,1026,65535,65700,0,0,4,1460,312,0,16777216,230000,33580,1532,65700,0,1532,0,886150131,63
i,1734975398.736901,10.0.2.15,22,192.168.56.1,54758,1073725440,15758,1026,65535,65700,0,0,4,1460,312,0,0,230000,33580,0,65700,0,0,0,2628116997,63
i,1734975398.739995,10.0.2.15,22,192.168.56.1,54690,1073725440,15758,1026,65535,65700,0,0,4,1460,312,0,0,230000,33580,0,65700,0,0,0,1314313452,63
i,1734975398.748862,10.0.2.15,22,192.168.56.1,54754,1073725440,17290,1026,65535,65700,0,0,4,1460,312,0,0,230000,33580,0,65700,0,0,0,886150131,63
o,1734975398.753856,10.0.2.15,22,192.168.56.1,54754,1073725440,17290,1026,65535,65700,0,0,4,1460,312,0,16777216,230000,33580,44,65700,0,0,0,886150131,63
i,1734975398.761411,10.0.2.15,22,192.168.56.1,54754,1073725440,17290,1026,65535,65700,0,0,4,1460,312,0,16777216,230000,33580,44,65700,0,44,0,886150131,63
o,1734975398.762279,10.0.2.15,22,192.168.56.1,54758,1073725440,15758,1030,65535,65700,0,0,4,1460,312,0,16777216,230000,33580,1532,65700,0,0,0,2628116997,63
o,1734975398.764877,10.0.2.15,22,192.168.56.1,54758,1073725440,15758,1026,65535,65700,0,0,4,1460,312,0,16777216,230000,33580,1532,65700,0,1460,0,2628116997,63
i,1734975398.768522,10.0.2.15,22,192.168.56.1,54758,1073725440,15758,1026,65535,65700,0,0,4,1460,312,0,16777216,230000,33580,1532,65700,0,1532,0,2628116997,63
o,1734975398.773485,10.0.2.15,22,192.168.56.1,54690,1073725440,15758,1030,65535,65700,0,0,4,1460,312,0,16777216,230000,33580,1532,65700,0,0,0,1314313452,63
o,1734975398.775355,10.0.2.15,22,192.168.56.1,54754,1073725440,17334,1026,65535,65700,0,0,4,1460,312,0,16777216,230000,33580,280,65700,0,0,0,886150131,63
o,1734975398.778705,10.0.2.15,22,192.168.56.1,54690,1073725440,15758,1026,65535,65700,0,0,4,1460,312,0,16777216,230000,33580,1532,65700,0,1460,0,1314313452,63
i,1734975398.780120,10.0.2.15,22,192.168.56.1,54690,1073725440,15758,1026,65535,65700,0,0,4,1460,312,0,16777216,230000,33580,1532,65700,0,1532,0,1314313452,63
i,1734975398.780224,10.0.2.15,22,192.168.56.1,54754,1073725440,17334,1026,65535,65700,0,0,4,1460,312,0,16777216,230000,33580,280,65700,0,280,0,886150131,63
i,1734975398.780312,10.0.2.15,22,192.168.56.1,54754,1073725440,17614,1026,65535,65700,0,0,4,1460,312,0,0,230000,33580,0,65700,0,0,0,886150131,63
i,1734975398.780540,10.0.2.15,22,192.168.56.1,54690,1073725440,17218,1026,65535,65700,0,0,4,1460,312,0,0,240000,33580,72,65700,0,72,0,1314313452,63
o,1734975398.783013,10.0.2.15,22,192.168.56.1,54754,1073725440,17614,1026,65535,65700,0,0,4,1460,312,0,16777216,230000,33580,332,65700,0,0,0,886150131,63
i,1734975398.785507,10.0.2.15,22,192.168.56.1,54758,1073725440,17290,1026,65535,65700,0,0,4,1460,312,0,0,240000,33580,0,65700,0,0,0,2628116997,63
o,1734975398.785844,10.0.2.15,22,192.168.56.1,54758,1073725440,17290,1026,65535,65700,0,0,4,1460,312,0,16777216,240000,33580,44,65700,0,0,0,2628116997,63
i,1734975398.787390,10.0.2.15,22,192.168.56.1,54754,1073725440,17614,1026,65535,65700,0,0,4,1460,312,0,16777216,230000,33580,332,65700,0,332,0,886150131,63
i,1734975398.787466,10.0.2.15,22,192.168.56.1,54754,1073725440,17946,1026,65535,65700,0,0,4,1460,312,0,0,230000,33580,0,65700,0,0,0,886150131,63
i,1734975398.788925,10.0.2.15,22,192.168.56.1,54758,1073725440,17290,1026,65535,65700,0,0,4,1460,312,0,16777216,240000,33580,44,65700,0,44,0,2628116997,63
i,1734975398.792777,10.0.2.15,22,192.168.56.1,54690,1073725440,17290,1026,65535,65700,0,0,4,1460,312,0,0,240000,33580,0,65700,0,0,0,1314313452,63
o,1734975398.794752,10.0.2.15,22,192.168.56.1,54690,1073725440,17290,1026,65535,65700,0,0,4,1460,312,0,16777216,240000,33580,44,65700,0,0,0,1314313452,63
i,1734975398.797383,10.0.2.15,22,192.168.56.1,54690,1073725440,17290,1026,65535,65700,0,0,4,1460,312,0,16777216,240000,33580,44,65700,0,44,0,1314313452,63
o,1734975398.798239,10.0.2.15,22,192.168.56.1,54758,1073725440,17334,1026,65535,65700,0,0,4,1460,312,0,16777216,240000,33580,280,65700,0,0,0,2628116997,63
i,1734975398.802444,10.0.2.15,22,192.168.56.1,54758,1073725440,17334,1026,65535,65700,0,0,4,1460,312,0,16777216,240000,33580,280,65700,0,280,0,2628116997,63
o,1734975398.802609,10.0.2.15,22,192.168.56.1,54690,1073725440,17334,1026,65535,65700,0,0,4,1460,312,0,16777216,240000,33580,280,65700,0,0,0,1314313452,63
o,1734975398.803198,10.0.2.15,22,192.168.56.1,54758,1073725440,17614,1026,65535,65700,0,0,4,1460,312,0,16777216,240000,33580,332,65700,0,0,0,2628116997,63
i,1734975398.805892,10.0.2.15,22,192.168.56.1,54690,1073725440,17334,1026,65535,65700,0,0,4,1460,312,0,16777216,240000,33580,280,65700,0,280,0,1314313452,63
i,1734975398.805979,10.0.2.15,22,192.168.56.1,54758,1073725440,17614,1026,65535,65700,0,0,4,1460,312,0,16777216,240000,33580,332,65700,0,332,0,2628116997,63
i,1734975398.807386,10.0.2.15,22,192.168.56.1,54758,1073725440,17946,1026,65535,65700,0,0,4,1460,312,0,0,240000,33580,0,65700,0,0,0,2628116997,63
o,1734975398.808174,10.0.2.15,22,192.168.56.1,54690,1073725440,17614,1026,65535,65700,0,0,4,1460,312,0,16777216,230000,33580,332,65700,0,0,0,1314313452,63
o,1734975398.808219,10.0.2.15,22,192.168.56.1,54754,1073725440,17946,1026,65535,65700,0,0,4,1460,312,0,16777216,230000,33580,28,65700,0,0,0,886150131,63
i,1734975398.811092,10.0.2.15,22,192.168.56.1,54754,1073725440,17946,1026,65535,65700,0,0,4,1460,312,0,16777216,230000,33580,28,65700,0,28,0,886150131,63
i,1734975398.811133,10.0.2.15,22,192.168.56.1,54690,1073725440,17614,1026,65535,65700,0,0,4,1460,312,0,16777216,230000,33580,332,65700,0,332,0,1314313452,63
i,1734975398.812629,10.0.2.15,22,192.168.56.1,54690,1073725440,17946,1026,65535,65700,0,0,4,1460,312,0,0,230000,33580,0,65700,0,0,0,1314313452,63
o,1734975398.813196,10.0.2.15,22,192.168.56.1,54754,1073725440,17974,1026,65535,65700,0,0,4,1460,312,0,16777216,230000,33580,768,65700,112,0,0,886150131,63
i,1734975398.819117,10.0.2.15,22,192.168.56.1,54754,1073725440,17974,1026,65535,65700,0,0,4,1460,312,0,16777216,230000,33580,952,65700,0,768,0,886150131,63
o,1734975398.819201,10.0.2.15,22,192.168.56.1,54754,1073725440,18742,1026,65535,65700,0,0,4,1460,312,0,16777216,240000,33580,184,65700,0,0,0,886150131,63
i,1734975398.822474,10.0.2.15,22,192.168.56.1,54754,1073725440,18742,1026,65535,65700,0,0,4,1460,312,0,16777216,240000,33580,184,65700,0,184,0,886150131,63
i,1734975398.822509,10.0.2.15,22,192.168.56.1,54754,1073725440,18926,1026,65535,65700,0,0,4,1460,312,0,0,240000,33580,0,65700,0,0,0,886150131,63
o,1734975398.824009,10.0.2.15,22,192.168.56.1,54758,1073725440,17946,1026,65535,65700,0,0,4,1460,312,0,16777216,240000,33580,28,65700,0,0,0,2628116997,63
i,1734975398.826989,10.0.2.15,22,192.168.56.1,54758,1073725440,17946,1026,65535,65700,0,0,4,1460,312,0,16777216,240000,33580,28,65700,0,28,0,2628116997,63
o,1734975398.829202,10.0.2.15,22,192.168.56.1,54758,1073725440,17974,1026,65535,65700,0,0,4,1460,312,0,16777216,240000,33580,768,65700,112,0,0,2628116997,63
o,1734975398.830859,10.0.2.15,22,192.168.56.1,54690,1073725440,17946,1026,65535,65700,0,0,4,1460,312,0,16777216,230000,33580,28,65700,0,0,0,1314313452,63
o,1734975398.831301,10.0.2.15,22,192.168.56.1,54754,1073725440,18926,1026,65535,65700,0,0,4,1460,312,0,16777220,240000,33580,72,65700,0,0,0,886150131,63
i,1734975398.835342,10.0.2.15,22,192.168.56.1,54758,1073725440,17974,1026,65535,65700,0,0,4,1460,312,0,16777216,240000,33580,952,65700,0,768,0,2628116997,63
o,1734975398.835535,10.0.2.15,22,192.168.56.1,54758,1073725440,18742,1026,65535,65700,0,0,4,1460,312,0,16777216,230000,33580,184,65700,0,0,0,2628116997,63
i,1734975398.836076,10.0.2.15,22,192.168.56.1,54690,1073725440,17946,1026,65535,65700,0,0,4,1460,312,0,16777216,230000,33580,28,65700,0,28,0,1314313452,63
i,1734975398.836234,10.0.2.15,22,192.168.56.1,54754,1073725440,18926,1026,65535,65700,0,0,4,1460,312,0,16777220,240000,33580,72,65700,0,72,0,886150131,63
i,1734975398.836339,10.0.2.15,22,192.168.56.1,54690,1073725440,17974,1026,65535,65700,0,0,4,1460,312,0,0,230000,33580,0,65700,0,0,0,1314313452,63
i,1734975398.838004,10.0.2.15,22,192.168.56.1,54758,1073725440,18742,1026,65535,65700,0,0,4,1460,312,0,16777216,230000,33580,184,65700,0,184,0,2628116997,63
i,1734975398.839699,10.0.2.15,22,192.168.56.1,54758,1073725440,18926,1026,65535,65700,0,0,4,1460,312,0,0,230000,33580,0,65700,0,0,0,2628116997,63
o,1734975398.841026,10.0.2.15,22,192.168.56.1,54758,1073725440,18926,1026,65535,65700,0,0,4,1460,312,0,16777220,230000,33580,72,65700,0,0,0,2628116997,63
i,1734975398.844055,10.0.2.15,22,192.168.56.1,54758,1073725440,18926,1026,65535,65700,0,0,4,1460,312,0,16777220,230000,33580,72,65700,0,72,0,2628116997,63
o,1734975398.862108,10.0.2.15,22,192.168.56.1,54754,1073725440,18998,1026,65535,65700,0,0,4,1460,312,0,16777220,230000,33580,176,65700,0,0,0,886150131,63
o,1734975398.863218,10.0.2.15,22,192.168.56.1,54758,1073725440,18998,1026,65535,65700,0,0,4,1460,312,0,16777220,230000,33580,36,65700,0,0,0,2628116997,63
i,1734975398.866192,10.0.2.15,22,192.168.56.1,54754,1073725440,18998,1026,65535,65700,0,0,4,1460,312,0,16777220,230000,33580,176,65700,0,176,0,886150131,63
i,1734975398.866268,10.0.2.15,22,192.168.56.1,54754,1073725440,19174,1026,65535,65700,0,0,4,1460,312,0,4,230000,33580,0,65700,0,0,0,886150131,63
o,1734975398.866910,10.0.2.15,22,192.168.56.1,54690,1073725440,17974,1026,65535,65700,0,0,4,1460,312,0,16777216,230000,33580,768,65700,112,0,0,1314313452,63
o,1734975398.867219,10.0.2.15,22,192.168.56.1,54758,1073725440,18998,1026,65535,65700,0,0,4,1460,312,0,16777220,230000,33580,124,65700,0,36,0,2628116997,63
i,1734975398.868927,10.0.2.15,22,192.168.56.1,54758,1073725440,18998,1026,65535,65700,0,0,4,1460,312,0,16777220,230000,33580,124,65700,0,124,0,2628116997,63
o,1734975398.869631,10.0.2.15,22,192.168.56.1,54754,1073725440,19174,1026,65535,65700,0,0,6,1460,312,0,4,230000,33580,0,65700,0,0,0,886150131,63
i,1734975398.875398,10.0.2.15,22,192.168.56.1,54690,1073725440,17974,1026,65535,65700,0,0,4,1460,312,0,16777216,230000,33580,908,65700,112,768,0,1314313452,63
o,1734975398.875486,10.0.2.15,22,192.168.56.1,54690,1073725440,18742,1026,65535,65700,0,0,4,1460,312,0,16777216,230000,33580,140,65700,112,0,0,1314313452,63
i,1734975398.875881,10.0.2.15,22,192.168.56.1,54758,1073725440,19034,1026,65535,65700,0,0,4,1460,312,0,4,230000,33580,88,65700,0,88,0,2628116997,63
i,1734975398.875998,10.0.2.15,22,192.168.56.1,54754,1073725440,19174,1026,65535,65700,0,0,6,1460,312,0,67108884,230000,33580,0,65700,0,1,0,886150131,63
i,1734975398.876178,10.0.2.15,22,192.168.56.1,54758,1073725440,19122,1026,65535,65700,0,0,4,1460,312,0,4,230000,33580,0,65700,0,0,0,2628116997,63
i,1734975398.878140,10.0.2.15,22,192.168.56.1,54690,1073725440,18742,1026,65535,65700,0,0,4,1460,312,0,16777216,230000,33580,140,65700,112,140,0,1314313452,63
o,1734975398.879261,10.0.2.15,22,192.168.56.1,54690,1073725440,18882,1026,65535,65700,0,0,4,1460,312,0,16777216,230000,33580,44,65700,0,0,0,1314313452,63
i,1734975398.881057,10.0.2.15,22,192.168.56.1,54690,1073725440,18882,1026,65535,65700,0,0,4,1460,312,0,16777216,230000,33580,44,65700,0,44,0,1314313452,63
i,1734975398.881137,10.0.2.15,22,192.168.56.1,54690,1073725440,18926,1026,65535,65700,0,0,4,1460,312,0,0,230000,33580,0,65700,0,0,0,1314313452,63
o,1734975398.881376,10.0.2.15,22,192.168.56.1,54758,1073725440,19122,1026,65535,65700,0,0,6,1460,312,0,4,230000,33580,0,65700,0,0,0,2628116997,63
i,1734975398.884225,10.0.2.15,22,192.168.56.1,54758,1073725440,19122,1026,65535,65700,0,0,6,1460,312,0,67108884,230000,33580,0,65700,0,1,0,2628116997,63
o,1734975398.884981,10.0.2.15,22,192.168.56.1,54690,1073725440,18926,1026,65535,65700,0,0,4,1460,312,0,16777220,230000,33580,72,65700,0,0,0,1314313452,63
i,1734975398.888589,10.0.2.15,22,192.168.56.1,54690,1073725440,18926,1026,65535,65700,0,0,4,1460,312,0,16777220,230000,33580,72,65700,0,72,0,1314313452,63
o,1734975398.902649,10.0.2.15,22,192.168.56.1,54690,1073725440,18998,1026,65535,65700,0,0,4,1460,312,0,16777220,230000,33580,176,65700,0,0,0,1314313452,63
i,1734975398.906596,10.0.2.15,22,192.168.56.1,54690,1073725440,18998,1026,65535,65700,0,0,4,1460,312,0,16777220,230000,33580,176,65700,0,176,0,1314313452,63
i,1734975398.906659,10.0.2.15,22,192.168.56.1,54690,1073725440,19174,1026,65535,65700,0,0,4,1460,312,0,4,240000,33580,0,65700,0,0,0,1314313452,63
o,1734975398.908958,10.0.2.15,22,192.168.56.1,54690,1073725440,19174,1026,65535,65700,0,0,6,1460,312,0,4,240000,33580,0,65700,0,0,0,1314313452,63
i,1734975398.911825,10.0.2.15,22,192.168.56.1,54690,1073725440,19174,1026,65535,65700,0,0,6,1460,312,0,67108884,240000,33580,0,65700,0,1,0,1314313452,63
i,1734975399.118384,172.16.1.2,5102,172.16.3.2,61663,1073725440,14480,32,65728,65700,6,6,4,1460,130000,1,16778208,590000,33580,0,65700,0,0,0,2719025674,63
i,1734975399.118798,172.16.1.2,5103,172.16.5.2,61592,1073725440,14480,32,65728,65700,6,6,4,1460,130000,1,16778208,590000,33580,0,65700,0,0,0,2073938987,63
o,1734975399.119344,172.16.1.2,5103,172.16.5.2,61592,1073725440,14480,1058,65728,65700,6,6,4,1460,130000,1,16778212,590000,33580,1,65700,0,0,0,2073938987,63
o,1734975399.120292,172.16.1.2,5102,172.16.3.2,61663,1073725440,14480,1058,65728,65700,6,6,4,1460,130000,1,16778212,590000,33580,1,65700,0,0,0,2719025674,63
i,1734975399.259705,172.16.1.2,5102,172.16.3.2,61663,1073725440,14480,1058,65728,65700,6,6,4,1460,130000,1,16778212,590000,33580,1,65700,0,1,0,2719025674,63
i,1734975399.259827,172.16.1.2,5102,172.16.3.2,61663,1073725440,14481,1058,65728,65728,6,6,4,1460,131250,1,996,530000,33580,0,65700,4,0,0,2719025674,63
o,1734975399.259905,172.16.1.2,5102,172.16.3.2,61663,1073725440,14481,1058,65728,65728,6,6,4,1460,131250,1,997,530000,33580,0,65700,130,0,0,2719025674,63
i,1734975399.260872,172.16.1.2,5103,172.16.5.2,61592,1073725440,14480,1058,65728,65700,6,6,4,1460,130000,1,16778212,590000,33580,1,65700,0,1,0,2073938987,63
o,1734975399.260955,172.16.1.2,5102,172.16.3.2,61663,1073725440,14481,1058,65728,65728,6,6,4,1460,131250,1,16778212,530000,33580,1,65700,0,0,0,2719025674,63
i,1734975399.261019,172.16.1.2,5103,172.16.5.2,61592,1073725440,14481,1058,65728,65728,6,6,4,1460,131250,1,996,530000,33580,0,65700,4,0,0,2073938987,63
o,1734975399.261093,172.16.1.2,5103,172.16.5.2,61592,1073725440,14481,1058,65728,65728,6,6,4,1460,131250,1,997,530000,33580,0,65700,130,0,0,2073938987,63
o,1734975399.261658,172.16.1.2,5103,172.16.5.2,61592,1073725440,14481,1058,65728,65728,6,6,4,1460,131250,1,16778212,530000,33580,1,65700,0,0,0,2073938987,63
o,1734975399.262867,10.0.2.15,22,192.168.56.1,54684,1073725440,14600,1026,65535,65700,0,0,4,1460,312,0,16777220,230000,33580,84,65700,0,0,0,2112089166,63
i,1734975399.265975,10.0.2.15,22,192.168.56.1,54684,1073725440,14600,1026,65535,65700,0,0,4,1460,312,0,16777220,230000,33580,84,65700,0,84,0,2112089166,63
o,1734975399.269988,10.0.2.15,22,192.168.56.1,54672,1073725440,14600,1026,65535,65700,0,0,4,1460,312,0,16777220,230000,33580,84,65700,0,0,0,28157251,63
i,1734975399.272426,10.0.2.15,22,192.168.56.1,54672,1073725440,14600,1026,65535,65700,0,0,4,1460,312,0,16777220,230000,33580,84,65700,0,84,0,28157251,63
i,1734975399.396140,172.16.1.2,5102,172.16.3.2,61663,1073725440,14481,1058,65728,65728,6,6,4,1460,131250,1,16778212,530000,33580,1,65700,0,1,0,2719025674,63
i,1734975399.445723,172.16.1.2,5103,172.16.5.2,61592,1073725440,14481,1058,65728,65728,6,6,4,1460,131250,1,16778212,530000,33580,1,65700,0,1,0,2073938987,63
i,1734975399.547078,172.16.1.2,5102,172.16.3.2,12108,1073725440,14480,32,65728,65700,6,6,4,1460,160000,1,16778208,680000,33580,0,65700,0,0,0,3881189209,63
i,1734975399.547293,172.16.1.2,5103,172.16.5.2,63102,1073725440,14480,32,65728,65700,6,6,4,1460,160000,1,16778208,680000,33580,0,65700,0,0,0,3644041229,63
o,1734975399.560461,172.16.1.2,5103,172.16.5.2,61592,1073725440,14482,1058,65728,65728,6,6,4,1460,137500,1,16778212,540000,33580,1,65700,0,0,0,2073938987,63
o,1734975399.560726,172.16.1.2,5103,172.16.5.2,61592,1073725440,14482,1058,65728,65728,6,6,4,1460,137500,1,16778212,540000,33580,2,65700,0,1,0,2073938987,63
o,1734975399.561607,10.0.2.15,22,192.168.56.1,54684,1073725440,14600,1026,65535,65700,0,0,4,1460,312,0,16777220,230000,33580,108,65700,0,0,0,2112089166,63
i,1734975399.564658,10.0.2.15,22,192.168.56.1,54684,1073725440,14600,1026,65535,65700,0,0,4,1460,312,0,16777220,230000,33580,108,65700,0,108,0,2112089166,63
o,1734975399.568259,172.16.1.2,5102,172.16.3.2,61663,1073725440,14482,1058,65728,65728,6,6,4,1460,131250,1,16778212,480000,33580,1,65700,0,0,0,2719025674,63
o,1734975399.570158,10.0.2.15,22,192.168.56.1,54672,1073725440,14600,1026,65535,65700,0,0,4,1460,312,0,16777220,230000,33580,108,65700,0,0,0,28157251,63
o,1734975399.571999,172.16.1.2,5102,172.16.3.2,61663,1073725440,14482,1058,65728,65728,6,6,4,1460,131250,1,16778212,480000,33580,2,65700,0,1,0,2719025674,63
i,1734975399.575049,10.0.2.15,22,192.168.56.1,54672,1073725440,14600,1026,65535,65700,0,0,4,1460,312,0,16777220,230000,33580,108,65700,0,108,0,28157251,63
o,1734975399.585329,172.16.1.2,5103,172.16.5.2,63102,1073725440,14480,34,65728,65700,6,6,4,1460,160000,1,16778209,680000,33580,0,65700,0,0,0,3644041229,63
o,1734975399.585839,172.16.1.2,5102,172.16.3.2,12108,1073725440,14480,34,65728,65700,6,6,4,1460,160000,1,16778209,680000,33580,0,65700,0,0,0,3881189209,63
i,1734975399.685074,172.16.1.2,5103,172.16.5.2,63102,1073725440,14480,34,65728,65700,6,6,4,1460,160000,1,16778208,680000,33580,0,65700,0,0,0,3644041229,63
i,1734975399.688784,172.16.1.2,5103,172.16.5.2,63102,1073725440,14480,34,65728,65700,6,6,4,1460,160000,1,16778208,680000,33580,0,65700,0,0,0,3644041229,63
o,1734975399.689075,172.16.1.2,5103,172.16.5.2,63102,1073725440,14480,34,65728,65700,6,6,4,1460,160000,1,16778209,680000,33580,0,65700,1448,0,0,3644041229,63
i,1734975399.691193,172.16.1.2,5103,172.16.5.2,63102,1073725440,14480,34,65728,65700,6,6,4,1460,160000,1,16778208,680000,33580,0,65700,1448,0,0,3644041229,63
i,1734975399.695351,172.16.1.2,5103,172.16.5.2,63102,1073725440,14480,34,65728,65700,6,6,4,1460,160000,1,16778208,680000,33580,0,65700,0,0,0,3644041229,63
o,1734975399.695436,172.16.1.2,5103,172.16.5.2,63102,1073725440,14480,34,65728,65700,6,6,4,1460,160000,1,16778209,680000,33580,0,65700,1448,0,0,3644041229,63
i,1734975399.696415,172.16.1.2,5103,172.16.5.2,63102,1073725440,14480,34,65728,65700,6,6,4,1460,160000,1,16778208,680000,33580,0,65700,0,0,0,3644041229,63
o,1734975399.737272,172.16.1.2,5103,172.16.5.2,63102,1073725440,14480,34,65728,65700,6,6,4,1460,160000,1,16778209,680000,33580,0,65700,0,0,0,3644041229,63
i,1734975399.774380,172.16.1.2,5103,172.16.5.2,63102,1073725440,14480,34,65728,65700,6,6,4,1460,160000,1,16778208,680000,33580,0,65700,0,0,0,3644041229,63
i,1734975399.774674,172.16.1.2,5103,172.16.5.2,63102,1073725440,14480,34,65728,65700,6,6,4,1460,160000,1,16778208,680000,33580,0,65700,1448,0,0,3644041229,63
o,1734975399.774796,172.16.1.2,5103,172.16.5.2,63102,1073725440,14480,34,65728,65700,6,6,4,1460,160000,1,16778209,680000,33580,0,65700,2896,0,0,3644041229,63
i,1734975399.785982,172.16.1.2,5103,172.16.5.2,63102,1073725440,14480,34,65728,65700,6,6,4,1460,160000,1,16778208,680000,33580,0,65700,0,0,0,3644041229,63
i,1734975399.786619,172.16.1.2,5103,172.16.5.2,63102,1073725440,14480,34,65728,65700,6,6,4,1460,160000,1,16778208,680000,33580,0,65700,1448,0,0,3644041229,63
o,1734975399.786711,172.16.1.2,5103,172.16.5.2,63102,1073725440,14480,34,65728,65700,6,6,4,1460,160000,1,16778209,680000,33580,0,65700,2896,0,0,3644041229,63
i,1734975399.787599,172.16.1.2,5103,172.16.5.2,61592,1073725440,14482,1058,65728,65728,6,6,4,1460,137500,1,16778212,540000,33580,2,65700,0,2,0,2073938987,63
i,1734975399.787994,172.16.1.2,5103,172.16.5.2,63102,1073725440,14480,34,65728,65700,6,6,4,1460,160000,1,16778208,680000,33580,0,65700,0,0,0,3644041229,63
i,1734975399.788338,172.16.1.2,5102,172.16.3.2,61663,1073725440,14482,1058,65728,65728,6,6,4,1460,131250,1,16778212,480000,33580,2,65700,0,2,0,2719025674,63
i,1734975399.788478,172.16.1.2,5102,172.16.3.2,12108,1073725440,14480,34,65728,65700,6,6,4,1460,160000,1,16778208,680000,33580,0,65700,0,0,0,3881189209,63
i,1734975399.789049,172.16.1.2,5102,172.16.3.2,12108,1073725440,14480,34,65728,65700,6,6,4,1460,160000,1,16778208,680000,33580,0,65700,1448,0,0,3881189209,63
o,1734975399.789127,172.16.1.2,5102,172.16.3.2,12108,1073725440,14480,34,65728,65700,6,6,4,1460,160000,1,16778209,680000,33580,0,65700,2896,0,0,3881189209,63
i,1734975399.789810,172.16.1.2,5102,172.16.3.2,12108,1073725440,14480,34,65728,65700,6,6,4,1460,160000,1,16778208,680000,33580,0,65700,2896,0,0,3881189209,63
i,1734975399.789941,172.16.1.2,5102,172.16.3.2,12108,1073725440,14480,34,65728,65700,6,6,4,1460,160000,1,16778208,680000,33580,0,65700,0,0,0,3881189209,63
o,1734975399.790015,172.16.1.2,5102,172.16.3.2,12108,1073725440,14480,34,65728,65700,6,6,4,1460,160000,1,16778209,680000,33580,0,65700,0,0,0,3881189209,63
i,1734975399.794128,172.16.1.2,5102,172.16.3.2,12108,1073725440,14480,34,65728,65700,6,6,4,1460,160000,1,16778208,680000,33580,0,65700,0,0,0,3881189209,63
i,1734975399.794267,172.16.1.2,5102,172.16.3.2,12108,1073725440,14480,34,65728,65700,6,6,4,1460,160000,1,16778208,680000,33580,0,65700,1448,0,0,3881189209,63
o,1734975399.794343,172.16.1.2,5102,172.16.3.2,12108,1073725440,14480,34,65728,65700,6,6,4,1460,160000,1,16778209,680000,33580,0,65700,2896,0,0,3881189209,63
i,1734975399.794892,172.16.1.2,5102,172.16.3.2,12108,1073725440,14480,34,65728,65700,6,6,4,1460,160000,1,16778208,680000,33580,0,65700,2896,0,0,3881189209,63
i,1734975399.795131,172.16.1.2,5102,172.16.3.2,12108,1073725440,14480,34,65728,65700,6,6,4,1460,160000,1,16778208,680000,33580,0,65700,4344,0,0,3881189209,63
o,1734975399.795204,172.16.1.2,5102,172.16.3.2,12108,1073725440,14480,34,65728,65700,6,6,4,1460,160000,1,16778209,680000,33580,0,65700,5792,0,0,3881189209,63
i,1734975399.795745,172.16.1.2,5102,172.16.3.2,12108,1073725440,14480,34,65728,65700,6,6,4,1460,160000,1,16778208,680000,33580,0,65700,5792,0,0,3881189209,63
i,1734975399.796963,172.16.1.2,5102,172.16.3.2,12108,1073725440,14480,34,65728,65700,6,6,4,1460,160000,1,16778208,680000,33580,0,65700,0,0,0,3881189209,63
o,1734975399.797039,172.16.1.2,5102,172.16.3.2,12108,1073725440,14480,34,65728,65700,6,6,4,1460,160000,1,16778209,680000,33580,0,65700,1448,0,0,3881189209,63
o,1734975399.827048,172.16.1.2,5103,172.16.5.2,63102,1073725440,14480,34,65728,65700,6,6,4,1460,160000,1,16778209,680000,33580,0,65700,0,0,0,3644041229,63
i,1734975399.957778,172.16.1.2,5102,172.16.3.2,12108,1073725440,14480,34,65728,65700,6,6,4,1460,160000,1,16778208,680000,33580,0,65700,0,0,0,3881189209,63
i,1734975399.958222,172.16.1.2,5103,172.16.5.2,63102,1073725440,14480,34,65728,65700,6,6,4,1460,160000,1,16778208,680000,33580,0,65700,0,0,0,3644041229,63
i,1734975399.960485,172.16.1.2,5103,172.16.5.2,63102,1073725440,14480,34,65728,65700,6,6,4,1460,160000,1,16778208,680000,33580,0,65700,0,0,0,3644041229,63
o,1734975399.960575,172.16.1.2,5103,172.16.5.2,63102,1073725440,14480,34,65728,65700,6,6,4,1460,160000,1,16778209,680000,33580,0,65700,1448,0,0,3644041229,63
i,1734975399.961137,172.16.1.2,5103,172.16.5.2,63102,1073725440,14480,34,65728,65700,6,6,4,1460,160000,1,16778208,680000,33580,0,65700,0,0,0,3644041229,63
i,1734975399.963943,172.16.1.2,5102,172.16.3.2,12108,1073725440,14480,34,65728,65700,6,6,4,1460,160000,1,16778208,680000,33580,0,65700,0,0,0,3881189209,63
o,1734975399.964027,172.16.1.2,5102,172.16.3.2,12108,1073725440,14480,34,65728,65700,6,6,4,1460,160000,1,16778209,680000,33580,0,65700,1448,0,0,3881189209,63
i,1734975399.964554,172.16.1.2,5103,172.16.5.2,63102,1073725440,14480,34,65728,65700,6,6,4,1460,160000,1,16778208,680000,33580,0,65700,0,0,0,3644041229,63
o,1734975399.964630,172.16.1.2,5103,172.16.5.2,63102,1073725440,14480,34,65728,65700,6,6,4,1460,160000,1,16778209,680000,33580,0,65700,1448,0,0,3644041229,63
i,1734975399.965306,172.16.1.2,5103,172.16.5.2,63102,1073725440,14480,34,65728,65700,6,6,4,1460,160000,1,16778208,680000,33580,0,65700,1448,0,0,3644041229,63
i,1734975399.965434,172.16.1.2,5102,172.16.3.2,12108,1073725440,14480,34,65728,65700,6,6,4,1460,160000,1,16778208,680000,33580,0,65700,1448,0,0,3881189209,63
i,1734975399.969848,172.16.1.2,5103,172.16.5.2,63102,1073725440,14480,34,65728,65700,6,6,4,1460,160000,1,16778208,680000,33580,0,65700,0,0,0,3644041229,63
o,1734975399.969930,172.16.1.2,5103,172.16.5.2,63102,1073725440,14480,34,65728,65700,6,6,4,1460,160000,1,16778209,680000,33580,0,65700,1448,0,0,3644041229,63
i,1734975399.970598,172.16.1.2,5103,172.16.5.2,63102,1073725440,14480,34,65728,65700,6,6,4,1460,160000,1,16778208,680000,33580,0,65700,1448,0,0,3644041229,63
i,1734975399.970728,172.16.1.2,5102,172.16.3.2,12108,1073725440,14480,34,65728,65700,6,6,4,1460,160000,1,16778208,680000,33580,0,65700,0,0,0,3881189209,63
o,1734975399.970803,172.16.1.2,5102,172.16.3.2,12108,1073725440,14480,34,65728,65700,6,6,4,1460,160000,1,16778209,680000,33580,0,65700,1448,0,0,3881189209,63
i,1734975399.971570,172.16.1.2,5103,172.16.5.2,63102,1073725440,14480,34,65728,65700,6,6,4,1460,160000,1,16778208,680000,33580,0,65700,0,0,0,3644041229,63
o,1734975399.971645,172.16.1.2,5103,172.16.5.2,63102,1073725440,14480,34,65728,65700,6,6,4,1460,160000,1,16778209,680000,33580,0,65700,1448,0,0,3644041229,63
i,1734975399.972166,172.16.1.2,5103,172.16.5.2,63102,1073725440,14480,34,65728,65700,6,6,4,1460,160000,1,16778208,680000,33580,0,65700,1448,0,0,3644041229,63
i,1734975399.972443,172.16.1.2,5102,172.16.3.2,12108,1073725440,14480,34,65728,65700,6,6,4,1460,160000,1,16778208,680000,33580,0,65700,0,0,0,3881189209,63
i,1734975399.977351,172.16.1.2,5103,172.16.5.2,63102,1073725440,14480,34,65728,65700,6,6,4,1460,160000,1,16778208,680000,33580,0,65700,0,0,0,3644041229,63
o,1734975399.977434,172.16.1.2,5103,172.16.5.2,63102,1073725440,14480,34,65728,65700,6,6,4,1460,160000,1,16778209,680000,33580,0,65700,1448,0,0,3644041229,63
i,1734975399.977970,172.16.1.2,5103,172.16.5.2,63102,1073725440,14480,34,65728,65700,6,6,4,1460,160000,1,16778208,680000,33580,0,65700,1448,0,0,3644041229,63
i,1734975399.978209,172.16.1.2,5102,172.16.3.2,12108,1073725440,14480,34,65728,65700,6,6,4,1460,160000,1,16778208,680000,33580,0,65700,0,0,0,3881189209,63
o,1734975399.978309,172.16.1.2,5102,172.16.3.2,12108,1073725440,14480,34,65728,65700,6,6,4,1460,160000,1,16778209,680000,33580,0,65700,1448,0,0,3881189209,63
i,1734975399.978909,172.16.1.2,5103,172.16.5.2,63102,1073725440,14480,34,65728,65700,6,6,4,1460,160000,1,16778208,680000,33580,0,65700,2896,0,0,3644041229,63
o,1734975399.978980,172.16.1.2,5103,172.16.5.2,63102,1073725440,14480,34,65728,65700,6,6,4,1460,160000,1,16778209,680000,33580,0,65700,4344,0,0,3644041229,63
i,1734975399.979703,172.16.1.2,5103,172.16.5.2,63102,1073725440,14480,34,65728,65700,6,6,4,1460,160000,1,16778208,680000,33580,0,65700,4344,0,0,3644041229,63
i,1734975399.979832,172.16.1.2,5102,172.16.3.2,12108,1073725440,14480,34,65728,65700,6,6,4,1460,160000,1,16778208,680000,33580,0,65700,1448,0,0,3881189209,63
i,1734975399.979959,172.16.1.2,5103,172.16.5.2,63102,1073725440,14480,34,65728,65700,6,6,4,1460,160000,1,16778208,680000,33580,0,65700,5792,0,0,3644041229,63
o,1734975399.980029,172.16.1.2,5103,172.16.5.2,63102,1073725440,14480,34,65728,65700,6,6,4,1460,160000,1,16778209,680000,33580,0,65700,7240,0,0,3644041229,63
i,1734975399.980602,172.16.1.2,5103,172.16.5.2,63102,1073725440,14480,34,65728,65700,6,6,4,1460,160000,1,16778208,680000,33580,0,65700,7240,0,0,3644041229,63
i,1734975399.980709,172.16.1.2,5102,172.16.3.2,12108,1073725440,14480,34,65728,65700,6,6,4,1460,160000,1,16778208,680000,33580,0,65700,2896,0,0,3881189209,63
o,1734975399.980741,172.16.1.2,5102,172.16.3.2,12108,1073725440,14480,34,65728,65700,6,6,4,1460,160000,1,16778209,680000,33580,0,65700,4344,0,0,3881189209,63
i,1734975399.981065,172.16.1.2,5102,172.16.3.2,12108,1073725440,14480,34,65728,65700,6,6,4,1460,160000,1,16778208,680000,33580,0,65700,4344,0,0,3881189209,63
i,1734975399.981195,172.16.1.2,5103,172.16.5.2,63102,1073725440,14480,34,65728,65700,6,6,4,1460,160000,1,16778208,680000,33580,0,65700,8688,0,0,3644041229,63
o,1734975399.981268,172.16.1.2,5103,172.16.5.2,63102,1073725440,14480,34,65728,65700,6,6,4,1460,160000,1,16778209,680000,33580,0,65700,10136,0,0,3644041229,63
i,1734975399.982033,172.16.1.2,5103,172.16.5.2,63102,1073725440,14480,34,65728,65700,6,6,4,1460,160000,1,16778208,680000,33580,0,65700,10136,0,0,3644041229,63
i,1734975399.982809,172.16.1.2,5102,172.16.3.2,12108,1073725440,14480,34,65728,65700,6,6,4,1460,160000,1,16778208,680000,33580,0,65700,5792,0,0,3881189209,63
o,1734975399.982886,172.16.1.2,5102,172.16.3.2,12108,1073725440,14480,34,65728,65700,6,6,4,1460,160000,1,16778209,680000,33580,0,65700,7240,0,0,3881189209,63
i,1734975399.984239,172.16.1.2,5103,172.16.5.2,63102,1073725440,14480,34,65728,65700,6,6,4,1460,160000,1,16778208,680000,33580,0,65700,11584,0,0,3644041229,63
o,1734975399.984347,172.16.1.2,5103,172.16.5.2,63102,1073725440,14480,34,65728,65700,6,6,4,1460,160000,1,16778209,680000,33580,0,65700,13032,0,0,3644041229,63
i,1734975399.985076,172.16.1.2,5102,172.16.3.2,12108,1073725440,14480,34,65728,65700,6,6,4,1460,160000,1,16778208,680000,33580,0,65700,7240,0,0,3881189209,63
i,1734975399.985323,172.16.1.2,5102,172.16.3.2,12108,1073725440,14480,34,65728,65700,6,6,4,1460,160000,1,16778208,680000,33580,0,65700,8688,0,0,3881189209,63
o,1734975399.985398,172.16.1.2,5102,172.16.3.2,12108,1073725440,14480,34,65728,65700,6,6,4,1460,160000,1,16778209,680000,33580,0,65700,10136,0,0,3881189209,63
i,1734975399.997457,172.16.1.2,5102,172.16.3.2,12108,1073725440,14480,34,65728,65700,6,6,4,1460,160000,1,16778208,680000,33580,0,65700,0,0,0,3881189209,63
i,1734975399.998963,172.16.1.2,5102,172.16.3.2,12108,1073725440,14480,34,65728,65700,6,6,4,1460,160000,1,16778208,680000,33580,0,65700,1448,0,0,3881189209,63
o,1734975399.999038,172.16.1.2,5102,172.16.3.2,12108,1073725440,14480,34,65728,65700,6,6,4,1460,160000,1,16778209,680000,33580,0,65700,2896,0,0,3881189209,63
i,1734975399.999814,172.16.1.2,5102,172.16.3.2,12108,1073725440,14480,34,65728,65700,6,6,4,1460,160000,1,16778208,680000,33580,0,65700,2896,0,0,3881189209,63
i,1734975399.999940,172.16.1.2,5102,172.16.3.2,12108,1073725440,14480,34,65728,65700,6,6,4,1460,160000,1,16778208,680000,33580,0,65700,4344,0,0,3881189209,63
o,1734975400.000012,172.16.1.2,5102,172.16.3.2,12108,1073725440,14480,34,65728,65700,6,6,4,1460,160000,1,16778209,680000,33580,0,65700,5792,0,0,3881189209,63
i,1734975400.000620,172.16.1.2,5102,172.16.3.2,12108,1073725440,14480,34,65728,65700,6,6,4,1460,160000,1,16778208,680000,33580,0,65700,0,0,0,3881189209,63
i,1734975400.000749,172.16.1.2,5102,172.16.3.2,12108,1073725440,14480,34,65728,65700,6,6,4,1460,160000,1,16778208,680000,33580,0,65700,1448,0,0,3881189209,63
o,1734975400.000820,172.16.1.2,5102,172.16.3.2,12108,1073725440,14480,34,65728,65700,6,6,4,1460,160000,1,16778209,680000,33580,0,65700,2896,0,0,3881189209,63
i,1734975400.001476,172.16.1.2,5102,172.16.3.2,12108,1073725440,14480,34,65728,65700,6,6,4,1460,160000,1,16778208,680000,33580,0,65700,2896,0,0,3881189209,63
i,1734975400.001813,172.16.1.2,5102,172.16.3.2,12108,1073725440,14480,34,65728,65700,6,6,4,1460,160000,1,16778208,680000,33580,0,65700,4344,0,0,3881189209,63
o,1734975400.001885,172.16.1.2,5102,172.16.3.2,12108,1073725440,14480,34,65728,65700,6,6,4,1460,160000,1,16778209,680000,33580,0,65700,5792,0,0,3881189209,63
i,1734975400.005455,172.16.1.2,5103,172.16.5.2,63102,1073725440,14480,34,65728,65700,6,6,4,1460,160000,1,16778208,680000,33580,0,65700,0,0,0,3644041229,63
i,1734975400.005789,172.16.1.2,5103,172.16.5.2,63102,1073725440,14480,34,65728,65700,6,6,4,1460,160000,1,16778208,680000,33580,0,65700,1448,0,0,3644041229,63
o,1734975400.005851,172.16.1.2,5103,172.16.5.2,63102,1073725440,14480,34,65728,65700,6,6,4,1460,160000,1,16778209,680000,33580,0,65700,2896,0,0,3644041229,63
i,1734975400.152746,172.16.1.2,5103,172.16.5.2,63102,1073725440,14480,34,65728,65700,6,6,4,1460,160000,1,16778208,680000,33580,0,65700,0,0,0,3644041229,63
o,1734975400.153548,172.16.1.2,5103,172.16.5.2,63102,1073725440,14480,34,65728,65700,6,6,4,1460,160000,1,16778208,680000,33580,0,98550,0,0,0,3644041229,63
i,1734975400.158863,172.16.1.2,5103,172.16.5.2,63102,1073725440,14480,34,65728,65700,6,6,4,1460,160000,1,16778208,680000,33580,0,98550,0,0,0,3644041229,63
i,1734975400.159189,172.16.1.2,5103,172.16.5.2,63102,1073725440,14480,34,65728,65700,6,6,4,1460,160000,1,16778208,680000,33580,0,98550,1448,0,0,3644041229,63
o,1734975400.159271,172.16.1.2,5103,172.16.5.2,63102,1073725440,14480,34,65728,65700,6,6,4,1460,160000,1,16778209,680000,33580,0,98550,2896,0,0,3644041229,63
i,1734975400.163077,172.16.1.2,5101,172.16.3.2,48522,1073725440,14480,32,65728,65700,6,6,4,1460,240000,1,16778212,920000,33580,0,65700,0,0,0,1079512758,63
i,1734975400.163206,172.16.1.2,5103,172.16.5.2,63102,1073725440,14480,34,65728,65700,6,6,4,1460,160000,1,16778208,680000,33580,0,98550,0,0,0,3644041229,63
o,1734975400.164177,172.16.1.2,5101,172.16.3.2,48522,1073725440,14480,1058,65728,65700,6,6,4,1460,240000,1,16778212,920000,33580,1,65700,0,0,0,1079512758,63
i,1734975400.166485,172.16.1.2,5103,172.16.5.2,63102,1073725440,14480,34,65728,65700,6,6,4,1460,160000,1,16778208,680000,33580,0,98550,0,0,0,3644041229,63
o,1734975400.166757,172.16.1.2,5103,172.16.5.2,63102,1073725440,14480,34,65728,65700,6,6,4,1460,160000,1,16778209,680000,33580,0,98550,1448,0,0,3644041229,63
i,1734975400.244181,172.16.1.2,5103,172.16.5.2,63102,1073725440,14480,34,65728,65700,6,6,4,1460,160000,1,16778208,680000,33580,0,98550,0,0,0,3644041229,63
i,1734975400.244590,172.16.1.2,5103,172.16.5.2,63102,1073725440,14480,34,65728,65700,6,6,4,1460,160000,1,16778208,680000,33580,0,98550,1448,0,0,3644041229,63
o,1734975400.244728,172.16.1.2,5103,172.16.5.2,63102,1073725440,14480,34,65728,65700,6,6,4,1460,160000,1,16778209,680000,33580,0,98550,2896,0,0,3644041229,63
i,1734975400.245293,172.16.1.2,5103,172.16.5.2,63102,1073725440,14480,34,65728,65700,6,6,4,1460,160000,1,16778208,680000,33580,0,98550,2896,0,0,3644041229,63
i,1734975400.246750,172.16.1.2,5103,172.16.5.2,63102,1073725440,14480,34,65728,65700,6,6,4,1460,160000,1,16778208,680000,33580,0,98550,0,0,0,3644041229,63
o,1734975400.246825,172.16.1.2,5103,172.16.5.2,63102,1073725440,14480,34,65728,65700,6,6,4,1460,160000,1,16778209,680000,33580,0,98550,1448,0,0,3644041229,63
i,1734975400.247407,172.16.1.2,5103,172.16.5.2,63102,1073725440,14480,34,65728,65700,6,6,4,1460,160000,1,16778208,680000,33580,0,98550,1448,0,0,3644041229,63
i,1734975400.247647,172.16.1.2,5103,172.16.5.2,63102,1073725440,14480,34,65728,65700,6,6,4,1460,160000,1,16778208,680000,33580,0,98550,2896,0,0,3644041229,63
o,1734975400.247721,172.16.1.2,5103,172.16.5.2,63102,1073725440,14480,34,65728,65700,6,6,4,1460,160000,1,16778209,680000,33580,0,98550,4344,0,0,3644041229,63
i,1734975400.248410,172.16.1.2,5103,172.16.5.2,63102,1073725440,14480,34,65728,65700,6,6,4,1460,160000,1,16778208,680000,33580,0,98550,4344,0,0,3644041229,63
i,1734975400.248539,172.16.1.2,5103,172.16.5.2,63102,1073725440,14480,34,65728,65700,6,6,4,1460,160000,1,16778208,680000,33580,0,98550,5792,0,0,3644041229,63
o,1734975400.248610,172.16.1.2,5103,172.16.5.2,63102,1073725440,14480,34,65728,65700,6,6,4,1460,160000,1,16778209,680000,33580,0,98550,7240,0,0,3644041229,63
i,1734975400.251072,172.16.1.2,5103,172.16.5.2,63102,1073725440,14480,34,65728,65700,6,6,4,1460,160000,1,16778208,680000,33580,0,98550,0,0,0,3644041229,63
i,1734975400.252880,172.16.1.2,5103,172.16.5.2,63102,1073725440,14480,34,65728,65700,6,6,4,1460,160000,1,16778208,680000,33580,0,98550,0,0,0,3644041229,63
o,1734975400.252991,172.16.1.2,5103,172.16.5.2,63102,1073725440,14480,34,65728,65700,6,6,4,1460,160000,1,16778209,680000,33580,0,98550,1448,0,0,3644041229,63
i,1734975400.254097,172.16.1.2,5103,172.16.5.2,63102,1073725440,14480,34,65728,65700,6,6,4,1460,160000,1,16778208,680000,33580,0,98550,1448,0,0,3644041229,63
i,1734975400.254339,172.16.1.2,5103,172.16.5.2,63102,1073725440,14480,34,65728,65700,6,6,4,1460,160000,1,16778208,680000,33580,0,98550,2896,0,0,3644041229,63
o,1734975400.254413,172.16.1.2,5103,172.16.5.2,63102,1073725440,14480,34,65728,65700,6,6,4,1460,160000,1,16778209,680000,33580,0,98550,4344,0,0,3644041229,63
i,1734975400.254946,172.16.1.2,5103,172.16.5.2,63102,1073725440,14480,34,65728,65700,6,6,4,1460,160000,1,16778208,680000,33580,0,98550,4344,0,0,3644041229,63
i,1734975400.255450,172.16.1.2,5103,172.16.5.2,63102,1073725440,14480,34,65728,65700,6,6,4,1460,160000,1,16778208,680000,33580,0,98550,5792,0,0,3644041229,63
o,1734975400.255450,172.16.1.2,5103,172.16.5.2,63102,1073725440,14480,34,65728,65700,6,6,4,1460,160000,1,16778209,680000,33580,0,98550,7240,0,0,3644041229,63
i,1734975400.256843,172.16.1.2,5103,172.16.5.2,63102,1073725440,14480,34,65728,65700,6,6,4,1460,160000,1,16778208,680000,33580,0,98550,7240,0,0,3644041229,63
i,1734975400.256982,172.16.1.2,5102,172.16.3.2,12108,1073725440,14480,34,65728,65700,6,6,4,1460,160000,1,16778208,680000,33580,0,65700,0,0,0,3881189209,63
i,1734975400.257142,172.16.1.2,5103,172.16.5.2,63102,1073725440,14480,34,65728,65700,6,6,4,1460,160000,1,16778208,680000,33580,0,98550,8688,0,0,3644041229,63
o,1734975400.257219,172.16.1.2,5103,172.16.5.2,63102,1073725440,14480,34,65728,65700,6,6,4,1460,160000,1,16778209,680000,33580,0,98550,10136,0,0,3644041229,63
i,1734975400.258293,172.16.1.2,5103,172.16.5.2,63102,1073725440,14480,34,65728,65700,6,6,4,1460,160000,1,16778208,680000,33580,0,98550,10136,0,0,3644041229,63
i,1734975400.258535,172.16.1.2,5102,172.16.3.2,12108,1073725440,14480,34,65728,65700,6,6,4,1460,160000,1,16778208,680000,33580,0,98550,1448,0,0,3881189209,63
o,1734975400.258607,172.16.1.2,5102,172.16.3.2,12108,1073725440,14480,34,65728,65700,6,6,4,1460,160000,1,16778209,680000,33580,0,98550,2896,0,0,3881189209,63
i,1734975400.261315,172.16.1.2,5103,172.16.5.2,63102,1073725440,14480,34,65728,65700,6,6,4,1460,160000,1,16778208,680000,33580,0,98550,0,0,0,3644041229,63
o,1734975400.261397,172.16.1.2,5103,172.16.5.2,63102,1073725440,14480,34,65728,65700,6,6,4,1460,160000,1,16778209,680000,33580,0,98550,1448,0,0,3644041229,63
i,1734975400.262045,172.16.1.2,5103,172.16.5.2,63102,1073725440,14480,34,65728,65700,6,6,4,1460,160000,1,16778208,680000,33580,0,98550,1448,0,0,3644041229,63
i,1734975400.262176,172.16.1.2,5102,172.16.3.2,12108,1073725440,14480,34,65728,65700,6,6,4,1460,160000,1,16778208,680000,33580,0,98550,0,0,0,3881189209,63
i,1734975400.262306,172.16.1.2,5103,172.16.5.2,63102,1073725440,14480,34,65728,65700,6,6,4,1460,160000,1,16778208,680000,33580,0,98550,2896,0,0,3644041229,63
o,1734975400.262376,172.16.1.2,5103,172.16.5.2,63102,1073725440,14480,34,65728,65700,6,6,4,1460,160000,1,16778209,680000,33580,0,98550,4344,0,0,3644041229,63
i,1734975400.262916,172.16.1.2,5103,172.16.5.2,63102,1073725440,14480,34,65728,65700,6,6,4,1460,160000,1,16778208,680000,33580,0,98550,4344,0,0,3644041229,63
i,1734975400.263045,172.16.1.2,5102,172.16.3.2,12108,1073725440,14480,34,65728,65700,6,6,4,1460,160000,1,16778208,680000,33580,0,98550,1448,0,0,3881189209,63
o,1734975400.263116,172.16.1.2,5102,172.16.3.2,12108,1073725440,14480,34,65728,65700,6,6,4,1460,160000,1,16778209,680000,33580,0,98550,2896,0,0,3881189209,63
i,1734975400.264890,172.16.1.2,5103,172.16.5.2,63102,1073725440,14480,34,65728,65700,6,6,4,1460,160000,1,16778208,680000,33580,0,98550,0,0,0,3644041229,63
o,1734975400.264974,172.16.1.2,5103,172.16.5.2,63102,1073725440,14480,34,65728,65700,6,6,4,1460,160000,1,16778209,680000,33580,0,98550,1448,0,0,3644041229,63
i,1734975400.265502,172.16.1.2,5103,172.16.5.2,63102,1073725440,14480,34,65728,65700,6,6,4,1460,160000,1,16778208,680000,33580,0,98550,1448,0,0,3644041229,63
i,1734975400.265654,172.16.1.2,5102,172.16.3.2,12108,1073725440,14480,34,65728,65700,6,6,4,1460,160000,1,16778208,680000,33580,0,98550,0,0,0,3881189209,63
i,1734975400.269203,172.16.1.2,5102,172.16.3.2,12108,1073725440,14480,34,65728,65700,6,6,4,1460,160000,1,16778208,680000,33580,0,98550,0,0,0,3881189209,63
o,1734975400.269433,172.16.1.2,5102,172.16.3.2,12108,1073725440,14480,34,65728,65700,6,6,4,1460,160000,1,16778209,680000,33580,0,98550,1448,0,0,3881189209,63
i,1734975400.269959,172.16.1.2,5103,172.16.5.2,63102,1073725440,14480,34,65728,65700,6,6,4,1460,160000,1,16778208,680000,33580,0,98550,0,0,0,3644041229,63
o,1734975400.270046,172.16.1.2,5103,172.16.5.2,63102,1073725440,14480,34,65728,65700,6,6,4,1460,160000,1,16778209,680000,33580,0,98550,1448,0,0,3644041229,63
i,1734975400.270600,172.16.1.2,5103,172.16.5.2,63102,1073725440,14480,34,65728,65700,6,6,4,1460,160000,1,16778208,680000,33580,0,98550,1448,0,0,3644041229,63
i,1734975400.270730,172.16.1.2,5102,172.16.3.2,12108,1073725440,14480,34,65728,65700,6,6,4,1460,160000,1,16778208,680000,33580,0,98550,1448,0,0,3881189209,63
i,1734975400.270860,172.16.1.2,5103,172.16.5.2,63102,1073725440,14480,34,65728,65700,6,6,4,1460,160000,1,16778208,680000,33580,0,98550,2896,0,0,3644041229,63
o,1734975400.270934,172.16.1.2,5103,172.16.5.2,63102,1073725440,14480,34,65728,65700,6,6,4,1460,160000,1,16778209,680000,33580,0,98550,4344,0,0,3644041229,63
i,1734975400.271573,172.16.1.2,5103,172.16.5.2,63102,1073725440,14480,34,65728,65700,6,6,4,1460,160000,1,16778208,680000,33580,0,98550,4344,0,0,3644041229,63
i,1734975400.271703,172.16.1.2,5103,172.16.5.2,63102,1073725440,14480,34,65728,65700,6,6,4,1460,160000,1,16778208,680000,33580,0,98550,5792,0,0,3644041229,63
o,1734975400.271877,172.16.1.2,5103,172.16.5.2,63102,1073725440,14480,34,65728,65700,6,6,4,1460,160000,1,16778209,680000,33580,0,98550,7240,0,0,3644041229,63
i,1734975400.277011,172.16.1.2,5103,172.16.5.2,63102,1073725440,14480,34,65728,65700,6,6,4,1460,160000,1,16778208,680000,33580,0,98550,0,0,0,3644041229,63
i,1734975400.277068,172.16.1.2,5102,172.16.3.2,12108,1073725440,14480,34,65728,65700,6,6,4,1460,160000,1,16778208,680000,33580,0,98550,0,0,0,3881189209,63
o,1734975400.277099,172.16.1.2,5102,172.16.3.2,12108,1073725440,14480,34,65728,65700,6,6,4,1460,160000,1,16778209,680000,33580,0,98550,1448,0,0,3881189209,63
i,1734975400.277982,172.16.1.2,5102,172.16.3.2,12108,1073725440,14480,34,65728,65700,6,6,4,1460,160000,1,16778208,680000,33580,0,98550,1448,0,0,3881189209,63
i,1734975400.287316,172.16.1.2,5102,172.16.3.2,12108,1073725440,14480,34,65728,65700,6,6,4,1460,160000,1,16778208,680000,33580,0,98550,0,0,0,3881189209,63
o,1734975400.287432,172.16.1.2,5102,172.16.3.2,12108,1073725440,14480,34,65728,65700,6,6,4,1460,160000,1,16778209,680000,33580,0,98550,1448,0,0,3881189209,63
o,1734975400.322211,172.16.1.2,5103,172.16.5.2,63102,1073725440,14480,34,65728,65700,6,6,4,1460,160000,1,16778209,680000,33580,0,98550,0,0,0,3644041229,63
i,1734975400.380107,172.16.1.2,5102,172.16.3.2,12108,1073725440,14480,34,65728,65700,6,6,4,1460,160000,1,16778208,680000,33580,0,98550,0,0,0,3881189209,63
i,1734975400.380268,172.16.1.2,5102,172.16.3.2,12108,1073725440,14480,34,65728,65700,6,6,4,1460,160000,1,16778208,680000,33580,0,98550,1448,0,0,3881189209,63
o,1734975400.380362,172.16.1.2,5102,172.16.3.2,12108,1073725440,14480,34,65728,65700,6,6,4,1460,160000,1,16778209,680000,33580,0,98550,2896,0,0,3881189209,63
i,1734975400.389768,172.16.1.2,5102,172.16.3.2,12108,1073725440,14480,34,65728,65700,6,6,4,1460,160000,1,16778208,680000,33580,0,98550,0,0,0,3881189209,63
i,1734975400.389933,172.16.1.2,5102,172.16.3.2,12108,1073725440,14480,34,65728,65700,6,6,4,1460,160000,1,16778208,680000,33580,0,98550,1448,0,0,3881189209,63
o,1734975400.390045,172.16.1.2,5102,172.16.3.2,12108,1073725440,14480,34,65728,65700,6,6,4,1460,160000,1,16778209,680000,33580,0,98550,2896,0,0,3881189209,63
i,1734975400.390621,172.16.1.2,5102,172.16.3.2,12108,1073725440,14480,34,65728,65700,6,6,4,1460,160000,1,16778208,680000,33580,0,98550,2896,0,0,3881189209,63
i,1734975400.390761,172.16.1.2,5102,172.16.3.2,12108,1073725440,14480,34,65728,65700,6,6,4,1460,160000,1,16778208,680000,33580,0,98550,4344,0,0,3881189209,63
o,1734975400.390840,172.16.1.2,5102,172.16.3.2,12108,1073725440,14480,34,65728,65700,6,6,4,1460,160000,1,16778209,680000,33580,0,98550,5792,0,0,3881189209,63
i,1734975400.391388,172.16.1.2,5102,172.16.3.2,12108,1073725440,14480,34,65728,65700,6,6,4,1460,160000,1,16778208,680000,33580,0,98550,5792,0,0,3881189209,63
i,1734975400.391520,172.16.1.2,5102,172.16.3.2,12108,1073725440,14480,34,65728,65700,6,6,4,1460,160000,1,16778208,680000,33580,0,98550,7240,0,0,3881189209,63
o,1734975400.391590,172.16.1.2,5102,172.16.3.2,12108,1073725440,14480,34,65728,65700,6,6,4,1460,160000,1,16778209,680000,33580,0,98550,8688,0,0,3881189209,63
i,1734975400.392114,172.16.1.2,5102,172.16.3.2,12108,1073725440,14480,34,65728,65700,6,6,4,1460,160000,1,16778208,680000,33580,0,98550,8688,0,0,3881189209,63
i,1734975400.392245,172.16.1.2,5102,172.16.3.2,12108,1073725440,14480,34,65728,65700,6,6,4,1460,160000,1,16778208,680000,33580,0,98550,10136,0,0,3881189209,63
o,1734975400.392319,172.16.1.2,5102,172.16.3.2,12108,1073725440,14480,34,65728,65700,6,6,4,1460,160000,1,16778209,680000,33580,0,98550,11584,0,0,3881189209,63
i,1734975400.392857,172.16.1.2,5102,172.16.3.2,12108,1073725440,14480,34,65728,65700,6,6,4,1460,160000,1,16778208,680000,33580,0,98550,11584,0,0,3881189209,63
i,1734975400.392988,172.16.1.2,5102,172.16.3.2,12108,1073725440,14480,34,65728,65700,6,6,4,1460,160000,1,16778208,680000,33580,0,98550,13032,0,0,3881189209,63
o,1734975400.393061,172.16.1.2,5102,172.16.3.2,12108,1073725440,14480,34,65728,65700,6,6,4,1460,160000,1,16778209,680000,33580,0,98550,14480,0,0,3881189209,63
i,1734975400.393531,172.16.1.2,5102,172.16.3.2,12108,1073725440,14480,34,65728,65700,6,6,4,1460,160000,1,16778208,680000,33580,0,98550,0,0,0,3881189209,63
i,1734975400.393642,172.16.1.2,5102,172.16.3.2,12108,1073725440,14480,34,65728,65700,6,6,4,1460,160000,1,16778208,680000,33580,0,98550,1448,0,0,3881189209,63
o,1734975400.393712,172.16.1.2,5102,172.16.3.2,12108,1073725440,14480,34,65728,65700,6,6,4,1460,160000,1,16778209,680000,33580,0,98550,2896,0,0,3881189209,63
i,1734975400.395255,172.16.1.2,5102,172.16.3.2,12108,1073725440,14480,34,65728,65700,6,6,4,1460,160000,1,16778208,680000,33580,0,98550,2896,0,0,3881189209,63
i,1734975400.395523,172.16.1.2,5102,172.16.3.2,12108,1073725440,14480,34,65728,65700,6,6,4,1460,160000,1,16778208,680000,33580,0,98550,4344,0,0,3881189209,63
o,1734975400.395603,172.16.1.2,5102,172.16.3.2,12108,1073725440,14480,34,65728,65700,6,6,4,1460,160000,1,16778209,680000,33580,0,98550,5792,0,0,3881189209,63
i,1734975400.396149,172.16.1.2,5102,172.16.3.2,12108,1073725440,14480,34,65728,65700,6,6,4,1460,160000,1,16778208,680000,33580,0,98550,5792,0,0,3881189209,63
i,1734975400.396282,172.16.1.2,5102,172.16.3.2,12108,1073725440,14480,34,65728,65700,6,6,4,1460,160000,1,16778208,680000,33580,0,98550,7240,0,0,3881189209,63
o,1734975400.396355,172.16.1.2,5102,172.16.3.2,12108,1073725440,14480,34,65728,65700,6,6,4,1460,160000,1,16778209,680000,33580,0,98550,8688,0,0,3881189209,63
i,1734975400.400176,172.16.1.2,5102,172.16.3.2,12108,1073725440,14480,34,65728,65700,6,6,4,1460,160000,1,16778208,680000,33580,0,98550,0,0,0,3881189209,63
i,1734975400.400377,172.16.1.2,5102,172.16.3.2,12108,1073725440,14480,34,65728,65700,6,6,4,1460,160000,1,16778208,680000,33580,0,98550,1448,0,0,3881189209,63
o,1734975400.400462,172.16.1.2,5102,172.16.3.2,12108,1073725440,14480,34,65728,65700,6,6,4,1460,160000,1,16778209,680000,33580,0,98550,2896,0,0,3881189209,63
i,1734975400.400991,172.16.1.2,5102,172.16.3.2,12108,1073725440,14480,34,65728,65700,6,6,4,1460,160000,1,16778208,680000,33580,0,98550,2896,0,0,3881189209,63
i,1734975400.401119,172.16.1.2,5102,172.16.3.2,12108,1073725440,14480,34,65728,65700,6,6,4,1460,160000,1,16778208,680000,33580,0,98550,4344,0,0,3881189209,63
o,1734975400.401191,172.16.1.2,5102,172.16.3.2,12108,1073725440,14480,34,65728,65700,6,6,4,1460,160000,1,16778209,680000,33580,0,98550,5792,0,0,3881189209,63
i,1734975400.403206,172.16.1.2,5102,172.16.3.2,12108,1073725440,14480,34,65728,65700,6,6,4,1460,160000,1,16778208,680000,33580,0,98550,0,0,0,3881189209,63
i,1734975400.404142,172.16.1.2,5102,172.16.3.2,12108,1073725440,14480,34,65728,65700,6,6,4,1460,160000,1,16778208,680000,33580,0,98550,1448,0,0,3881189209,63
o,1734975400.404227,172.16.1.2,5102,172.16.3.2,12108,1073725440,14480,34,65728,65700,6,6,4,1460,160000,1,16778209,680000,33580,0,98550,2896,0,0,3881189209,63
i,1734975400.406273,172.16.1.2,5102,172.16.3.2,12108,1073725440,14480,34,65728,65700,6,6,4,1460,160000,1,16778208,680000,33580,0,98550,2896,0,0,3881189209,63
