enable_time_secs=1734976252	enable_time_usecs=884273	siftrver=1.3.0	sysname=FreeBSD	sysver=1401000	ipmode=4
o,1734976252.886749,10.0.2.15,22,192.168.56.1,54716,1073725440,18998,1026,65535,65700,0,0,4,1460,312,0,16777220,230000,33580,172,65700,0,0,0,2297258608,63
o,1734976252.890754,10.0.2.15,22,192.168.56.1,54716,1073725440,18998,1026,65535,65700,0,0,4,1460,312,0,16777220,230000,33580,244,65700,0,172,0,2297258608,63
i,1734976252.891160,10.0.2.15,22,192.168.56.1,54716,1073725440,18998,1026,65535,65700,0,0,4,1460,312,0,16777220,230000,33580,244,65700,0,244,0,2297258608,63
i,1734976252.893008,10.0.2.15,22,192.168.56.1,54716,1073725440,19170,1026,65535,65700,0,0,4,1460,312,0,4,230000,33580,72,65700,0,72,0,2297258608,63
i,1734976252.894477,10.0.2.15,22,192.168.56.1,54716,1073725440,19242,1026,65535,65700,0,0,4,1460,312,0,4,230000,33580,0,65700,0,0,0,2297258608,63
o,1734976252.896316,10.0.2.15,22,192.168.56.1,54716,1073725440,19242,1026,65535,65700,0,0,6,1460,312,0,4,230000,33580,0,65700,0,0,0,2297258608,63
i,1734976252.900303,10.0.2.15,22,192.168.56.1,54716,1073725440,19242,1026,65535,65700,0,0,6,1460,312,0,67108884,230000,33580,0,65700,0,1,0,2297258608,63
i,1734976268.476295,10.0.2.15,22,192.168.56.1,54698,1073725440,19175,1026,65535,65700,0,0,9,1460,312,0,67108884,240000,33580,0,65700,0,0,0,2590829591,63
i,1734976268.479476,10.0.2.15,22,192.168.56.1,54698,1073725440,19175,1026,65535,65700,0,0,9,1460,312,0,67108884,240000,33580,0,65700,0,0,0,2590829591,63
i,1734976274.487150,10.0.2.15,22,192.168.56.1,54698,1073725440,14600,0,65535,65700,0,0,4,1460,312,0,16777216,270000,33580,0,65700,0,0,0,2590829591,63
o,1734976274.524642,10.0.2.15,22,192.168.56.1,54698,1073725440,14600,1026,65535,65700,0,0,4,1460,312,0,16777216,270000,33580,38,65700,42,0,0,2590829591,63
i,1734976274.531041,10.0.2.15,22,192.168.56.1,54698,1073725440,14600,1026,65535,65700,0,0,4,1460,312,0,16777216,270000,33580,1158,65700,0,38,0,2590829591,63
o,1734976274.531185,10.0.2.15,22,192.168.56.1,54698,1073725440,14638,1026,65535,65700,0,0,4,1460,312,0,16777216,240000,33580,1120,65700,0,0,0,2590829591,63
i,1734976274.531653,10.0.2.15,22,192.168.56.1,54698,1073725440,14638,1026,65535,65700,0,0,4,1460,312,0,16777216,240000,33580,1120,65700,0,1120,0,2590829591,63
i,1734976274.531939,10.0.2.15,22,192.168.56.1,54698,1073725440,14638,1026,65535,65700,0,0,4,1460,312,0,16777216,240000,33580,1120,65700,1460,1120,0,2590829591,63
o,1734976274.532033,10.0.2.15,22,192.168.56.1,54698,1073725440,14638,1026,65535,65700,0,0,4,1460,312,0,16777217,240000,33580,1120,65700,1536,1120,0,2590829591,63
i,1734976274.535030,10.0.2.15,22,192.168.56.1,54698,1073725440,14638,1026,65535,65700,0,0,4,1460,312,0,16777216,240000,33580,1120,65700,0,1120,0,2590829591,63
i,1734976274.574800,10.0.2.15,22,192.168.56.1,54698,1073725440,15758,1026,65535,65700,0,0,4,1460,312,0,0,230000,33580,0,65700,0,0,0,2590829591,63
o,1734976274.598326,10.0.2.15,22,192.168.56.1,54698,1073725440,15758,1030,65535,65700,0,0,4,1460,312,0,16777216,230000,33580,1532,65700,0,0,0,2590829591,63
o,1734976274.600615,10.0.2.15,22,192.168.56.1,54698,1073725440,15758,1026,65535,65700,0,0,4,1460,312,0,16777216,230000,33580,1532,65700,0,1460,0,2590829591,63
i,1734976274.603636,10.0.2.15,22,192.168.56.1,54698,1073725440,15758,1026,65535,65700,0,0,4,1460,312,0,16777216,230000,33580,1532,65700,0,1532,0,2590829591,63
i,1734976274.603712,10.0.2.15,22,192.168.56.1,54698,1073725440,17218,1026,65535,65700,0,0,4,1460,312,0,0,230000,33580,72,65700,0,72,0,2590829591,63
i,1734976274.617973,10.0.2.15,22,192.168.56.1,54698,1073725440,17290,1026,65535,65700,0,0,4,1460,312,0,0,230000,33580,0,65700,0,0,0,2590829591,63
o,1734976274.618445,10.0.2.15,22,192.168.56.1,54698,1073725440,17290,1026,65535,65700,0,0,4,1460,312,0,16777216,230000,33580,44,65700,0,0,0,2590829591,63
i,1734976274.621759,10.0.2.15,22,192.168.56.1,54698,1073725440,17290,1026,65535,65700,0,0,4,1460,312,0,16777216,230000,33580,44,65700,0,44,0,2590829591,63
o,1734976274.625389,10.0.2.15,22,192.168.56.1,54698,1073725440,17334,1026,65535,65700,0,0,4,1460,312,0,16777216,230000,33580,280,65700,0,0,0,2590829591,63
i,1734976274.629306,10.0.2.15,22,192.168.56.1,54698,1073725440,17334,1026,65535,65700,0,0,4,1460,312,0,16777216,230000,33580,280,65700,0,280,0,2590829591,63
o,1734976274.631907,10.0.2.15,22,192.168.56.1,54698,1073725440,17614,1026,65535,65700,0,0,4,1460,312,0,16777216,230000,33580,332,65700,0,0,0,2590829591,63
i,1734976274.638071,10.0.2.15,22,192.168.56.1,54698,1073725440,17614,1026,65535,65700,0,0,4,1460,312,0,16777216,230000,33580,332,65700,0,332,0,2590829591,63
i,1734976274.638151,10.0.2.15,22,192.168.56.1,54698,1073725440,17946,1026,65535,65700,0,0,4,1460,312,0,0,230000,33580,0,65700,0,0,0,2590829591,63
o,1734976274.652629,10.0.2.15,22,192.168.56.1,54698,1073725440,17946,1026,65535,65700,0,0,4,1460,312,0,16777216,230000,33580,28,65700,0,0,0,2590829591,63
i,1734976274.657156,10.0.2.15,22,192.168.56.1,54698,1073725440,17946,1026,65535,65700,0,0,4,1460,312,0,16777216,230000,33580,936,65700,0,28,0,2590829591,63
o,1734976274.657236,10.0.2.15,22,192.168.56.1,54698,1073725440,17974,1026,65535,65700,0,0,4,1460,312,0,16777216,230000,33580,908,65700,0,0,0,2590829591,63
i,1734976274.657650,10.0.2.15,22,192.168.56.1,54698,1073725440,17974,1026,65535,65700,0,0,4,1460,312,0,16777216,230000,33580,908,65700,0,908,0,2590829591,63
i,1734976274.659963,10.0.2.15,22,192.168.56.1,54698,1073725440,17974,1026,65535,65700,0,0,4,1460,312,0,16777216,230000,33580,908,65700,112,908,0,2590829591,63
o,1734976274.661428,10.0.2.15,22,192.168.56.1,54698,1073725440,18882,1026,65535,65700,0,0,4,1460,312,0,16777216,230000,33580,44,65700,0,0,0,2590829591,63
i,1734976274.664976,10.0.2.15,22,192.168.56.1,54698,1073725440,18882,1026,65535,65700,0,0,4,1460,312,0,16777216,230000,33580,44,65700,0,44,0,2590829591,63
i,1734976274.665058,10.0.2.15,22,192.168.56.1,54698,1073725440,18926,1026,65535,65700,0,0,4,1460,312,0,0,230000,33580,0,65700,0,0,0,2590829591,63
o,1734976274.666975,10.0.2.15,22,192.168.56.1,54698,1073725440,18926,1026,65535,65700,0,0,4,1460,312,0,16777220,230000,33580,72,65700,0,0,0,2590829591,63
i,1734976274.671101,10.0.2.15,22,192.168.56.1,54698,1073725440,18926,1026,65535,65700,0,0,4,1460,312,0,16777220,230000,33580,72,65700,0,72,0,2590829591,63
o,1734976274.676569,10.0.2.15,22,192.168.56.1,54698,1073725440,18998,1026,65535,65700,0,0,4,1460,312,0,16777220,230000,33580,104,65700,0,0,0,2590829591,63
o,1734976274.677279,10.0.2.15,22,192.168.56.1,54698,1073725440,18998,1026,65535,65700,0,0,4,1460,312,0,16777220,230000,33580,176,65700,0,104,0,2590829591,63
i,1734976274.678558,10.0.2.15,22,192.168.56.1,54698,1073725440,18998,1026,65535,65700,0,0,4,1460,312,0,16777220,230000,33580,176,65700,0,176,0,2590829591,63
i,1734976274.678633,10.0.2.15,22,192.168.56.1,54698,1073725440,19102,1026,65535,65700,0,0,4,1460,312,0,4,230000,33580,72,65700,0,72,0,2590829591,63
i,1734976274.679595,10.0.2.15,22,192.168.56.1,54698,1073725440,19174,1026,65535,65700,0,0,4,1460,312,0,4,230000,33580,0,65700,0,0,0,2590829591,63
i,1734976274.684221,10.0.2.15,22,192.168.56.1,54710,1073725440,19279,1026,65535,65700,0,0,9,1460,312,0,67108884,230000,33580,0,65700,0,0,0,205502823,63
i,1734976274.687043,10.0.2.15,22,192.168.56.1,54718,1073725440,14600,0,65535,65700,0,0,4,1460,312,0,16777216,270000,33580,0,65700,0,0,0,3624239516,63
i,1734976274.687118,10.0.2.15,22,192.168.56.1,54710,1073725440,19279,1026,65535,65700,0,0,9,1460,312,0,67108884,230000,33580,0,65700,0,0,0,205502823,63
i,1734976274.687220,10.0.2.15,22,192.168.56.1,54736,1073725440,14600,0,65535,65700,0,0,4,1460,312,0,16777216,270000,33580,0,65700,0,0,0,2066408028,63
o,1734976274.712502,10.0.2.15,22,192.168.56.1,54718,1073725440,14600,1026,65535,65700,0,0,4,1460,312,0,16777216,270000,33580,38,65700,42,0,0,3624239516,63
o,1734976274.715006,10.0.2.15,22,192.168.56.1,54698,1073725440,19174,1026,65535,65700,0,0,4,1460,312,0,5,230000,33580,0,65700,0,0,0,2590829591,63
i,1734976274.716304,10.0.2.15,22,192.168.56.1,54718,1073725440,14600,1026,65535,65700,0,0,4,1460,312,0,16777216,270000,33580,1158,65700,0,38,0,3624239516,63
o,1734976274.716953,10.0.2.15,22,192.168.56.1,54718,1073725440,14638,1026,65535,65700,0,0,4,1460,312,0,16777218,230000,33580,1120,65700,1460,0,0,3624239516,63
i,1734976274.717164,10.0.2.15,22,192.168.56.1,54718,1073725440,14638,1026,65535,65700,0,0,4,1460,312,0,16777216,230000,33580,1120,65700,1460,1120,0,3624239516,63
o,1734976274.717679,10.0.2.15,22,192.168.56.1,54698,1073725440,19174,1026,65535,65700,0,0,6,1460,312,0,4,230000,33580,0,65700,0,0,0,2590829591,63
i,1734976274.720020,10.0.2.15,22,192.168.56.1,54698,1073725440,19174,1026,65535,65700,0,0,6,1460,312,0,67108884,230000,33580,0,65700,0,1,0,2590829591,63
i,1734976274.720105,10.0.2.15,22,192.168.56.1,54718,1073725440,14638,1026,65535,65700,0,0,4,1460,312,0,16777216,230000,33580,1120,65700,0,1120,0,3624239516,63
o,1734976274.723753,10.0.2.15,22,192.168.56.1,54736,1073725440,14600,2,65535,65700,0,0,4,1460,312,0,16777217,270000,33580,0,65700,42,0,0,2066408028,63
o,1734976274.736797,10.0.2.15,22,192.168.56.1,54736,1073725440,14600,1026,65535,65700,0,0,4,1460,312,0,16777216,270000,33580,38,65700,42,0,0,2066408028,63
i,1734976274.740413,10.0.2.15,22,192.168.56.1,54736,1073725440,14600,1026,65535,65700,0,0,4,1460,312,0,16777216,270000,33580,38,65700,0,38,0,2066408028,63
i,1734976274.740492,10.0.2.15,22,192.168.56.1,54736,1073725440,14638,1026,65535,65700,0,0,4,1460,312,0,0,240000,33580,0,65700,0,0,0,2066408028,63
i,1734976274.740560,10.0.2.15,22,192.168.56.1,54736,1073725440,14638,1026,65535,65700,0,0,4,1460,312,0,0,240000,33580,0,65700,1460,0,0,2066408028,63
o,1734976274.740633,10.0.2.15,22,192.168.56.1,54736,1073725440,14638,1026,65535,65700,0,0,4,1460,312,0,1,240000,33580,0,65700,1536,0,0,2066408028,63
o,1734976274.742793,10.0.2.15,22,192.168.56.1,54736,1073725440,14638,1026,65535,65700,0,0,4,1460,312,0,16777216,240000,33580,1120,65700,1536,0,0,2066408028,63
i,1734976274.748128,10.0.2.15,22,192.168.56.1,54736,1073725440,14638,1026,65535,65700,0,0,4,1460,312,0,16777216,240000,33580,1120,65700,0,1120,0,2066408028,63
i,1734976274.751042,10.0.2.15,22,192.168.56.1,54718,1073725440,15758,1026,65535,65700,0,0,4,1460,312,0,0,230000,33580,0,65700,0,0,0,3624239516,63
o,1734976274.751123,10.0.2.15,22,192.168.56.1,54718,1073725440,15758,1026,65535,65700,0,0,4,1460,312,0,1,230000,33580,0,65700,1208,0,0,3624239516,63
i,1734976274.776682,10.0.2.15,22,192.168.56.1,54736,1073725440,15758,1026,65535,65700,0,0,4,1460,312,0,0,240000,33580,0,65700,0,0,0,2066408028,63
o,1734976274.779407,10.0.2.15,22,192.168.56.1,54718,1073725440,15758,1030,65535,65700,0,0,4,1460,312,0,16777216,230000,33580,1532,65700,0,0,0,3624239516,63
o,1734976274.780305,10.0.2.15,22,192.168.56.1,54718,1073725440,15758,1026,65535,65700,0,0,4,1460,312,0,16777216,230000,33580,1532,65700,0,1460,0,3624239516,63
i,1734976274.782516,10.0.2.15,22,192.168.56.1,54718,1073725440,15758,1026,65535,65700,0,0,4,1460,312,0,16777216,230000,33580,1532,65700,0,1532,0,3624239516,63
i,1734976274.792442,10.0.2.15,22,192.168.56.1,54718,1073725440,17290,1026,65535,65700,0,0,4,1460,312,0,0,230000,33580,0,65700,0,0,0,3624239516,63
o,1734976274.796656,10.0.2.15,22,192.168.56.1,54718,1073725440,17290,1026,65535,65700,0,0,4,1460,312,0,16777216,230000,33580,44,65700,0,0,0,3624239516,63
o,1734976274.799410,10.0.2.15,22,192.168.56.1,54736,1073725440,15758,1030,65535,65700,0,0,4,1460,312,0,16777216,240000,33580,1532,65700,0,0,0,2066408028,63
o,1734976274.799619,10.0.2.15,22,192.168.56.1,54736,1073725440,15758,1026,65535,65700,0,0,4,1460,312,0,16777216,240000,33580,1532,65700,0,1460,0,2066408028,63
i,1734976274.806224,10.0.2.15,22,192.168.56.1,54718,1073725440,17290,1026,65535,65700,0,0,4,1460,312,0,16777216,230000,33580,44,65700,0,44,0,3624239516,63
i,1734976274.806974,10.0.2.15,22,192.168.56.1,54736,1073725440,15758,1026,65535,65700,0,0,4,1460,312,0,16777216,240000,33580,1532,65700,0,1532,0,2066408028,63
o,1734976274.809915,10.0.2.15,22,192.168.56.1,54718,1073725440,17334,1026,65535,65700,0,0,4,1460,312,0,16777216,230000,33580,280,65700,0,0,0,3624239516,63
i,1734976274.813365,10.0.2.15,22,192.168.56.1,54718,1073725440,17334,1026,65535,65700,0,0,4,1460,312,0,16777216,230000,33580,280,65700,0,280,0,3624239516,63
o,1734976274.816637,10.0.2.15,22,192.168.56.1,54718,1073725440,17614,1026,65535,65700,0,0,4,1460,312,0,16777216,230000,33580,332,65700,0,0,0,3624239516,63
i,1734976274.821588,10.0.2.15,22,192.168.56.1,54736,1073725440,17290,1026,65535,65700,0,0,4,1460,312,0,0,230000,33580,0,65700,0,0,0,2066408028,63
i,1734976274.821667,10.0.2.15,22,192.168.56.1,54718,1073725440,17614,1026,65535,65700,0,0,4,1460,312,0,16777216,230000,33580,332,65700,0,332,0,3624239516,63
i,1734976274.821737,10.0.2.15,22,192.168.56.1,54718,1073725440,17946,1026,65535,65700,0,0,4,1460,312,0,0,230000,33580,0,65700,0,0,0,3624239516,63
o,1734976274.822841,10.0.2.15,22,192.168.56.1,54736,1073725440,17290,1026,65535,65700,0,0,4,1460,312,0,16777216,230000,33580,44,65700,0,0,0,2066408028,63
i,1734976274.825490,10.0.2.15,22,192.168.56.1,54736,1073725440,17290,1026,65535,65700,0,0,4,1460,312,0,16777216,230000,33580,44,65700,0,44,0,2066408028,63
o,1734976274.829147,10.0.2.15,22,192.168.56.1,54736,1073725440,17334,1026,65535,65700,0,0,4,1460,312,0,16777216,230000,33580,280,65700,0,0,0,2066408028,63
i,1734976274.834303,10.0.2.15,22,192.168.56.1,54736,1073725440,17334,1026,65535,65700,0,0,4,1460,312,0,16777216,230000,33580,280,65700,0,280,0,2066408028,63
o,1734976274.835833,10.0.2.15,22,192.168.56.1,54736,1073725440,17614,1026,65535,65700,0,0,4,1460,312,0,16777216,230000,33580,332,65700,0,0,0,2066408028,63
o,1734976274.836810,10.0.2.15,22,192.168.56.1,54718,1073725440,17946,1026,65535,65700,0,0,4,1460,312,0,16777216,230000,33580,28,65700,0,0,0,3624239516,63
i,1734976274.839599,10.0.2.15,22,192.168.56.1,54736,1073725440,17614,1026,65535,65700,0,0,4,1460,312,0,16777216,230000,33580,332,65700,0,332,0,2066408028,63
i,1734976274.839677,10.0.2.15,22,192.168.56.1,54736,1073725440,17946,1026,65535,65700,0,0,4,1460,312,0,0,230000,33580,0,65700,0,0,0,2066408028,63
i,1734976274.839903,10.0.2.15,22,192.168.56.1,54718,1073725440,17946,1026,65535,65700,0,0,4,1460,312,0,16777216,230000,33580,28,65700,0,28,0,3624239516,63
o,1734976274.843271,10.0.2.15,22,192.168.56.1,54718,1073725440,17974,1026,65535,65700,0,0,4,1460,312,0,16777216,230000,33580,768,65700,112,0,0,3624239516,63
i,1734976274.849826,10.0.2.15,22,192.168.56.1,54718,1073725440,17974,1026,65535,65700,0,0,4,1460,312,0,16777216,230000,33580,952,65700,0,768,0,3624239516,63
o,1734976274.849843,10.0.2.15,22,192.168.56.1,54718,1073725440,18742,1026,65535,65700,0,0,4,1460,312,0,16777216,230000,33580,184,65700,0,0,0,3624239516,63
i,1734976274.853790,10.0.2.15,22,192.168.56.1,54718,1073725440,18742,1026,65535,65700,0,0,4,1460,312,0,16777216,230000,33580,184,65700,0,184,0,3624239516,63
i,1734976274.853865,10.0.2.15,22,192.168.56.1,54718,1073725440,18926,1026,65535,65700,0,0,4,1460,312,0,0,230000,33580,0,65700,0,0,0,3624239516,63
o,1734976274.854941,10.0.2.15,22,192.168.56.1,54718,1073725440,18926,1026,65535,65700,0,0,4,1460,312,0,16777220,230000,33580,72,65700,0,0,0,3624239516,63
o,1734976274.858497,10.0.2.15,22,192.168.56.1,54736,1073725440,17946,1026,65535,65700,0,0,4,1460,312,0,16777216,230000,33580,28,65700,0,0,0,2066408028,63
i,1734976274.861267,10.0.2.15,22,192.168.56.1,54718,1073725440,18926,1026,65535,65700,0,0,4,1460,312,0,16777220,230000,33580,72,65700,0,72,0,3624239516,63
i,1734976274.862319,10.0.2.15,22,192.168.56.1,54736,1073725440,17946,1026,65535,65700,0,0,4,1460,312,0,16777216,230000,33580,28,65700,0,28,0,2066408028,63
o,1734976274.865610,10.0.2.15,22,192.168.56.1,54736,1073725440,17974,1026,65535,65700,0,0,4,1460,312,0,16777216,230000,33580,768,65700,112,0,0,2066408028,63
i,1734976274.870836,10.0.2.15,22,192.168.56.1,54736,1073725440,17974,1026,65535,65700,0,0,4,1460,312,0,16777216,230000,33580,908,65700,112,768,0,2066408028,63
o,1734976274.870916,10.0.2.15,22,192.168.56.1,54736,1073725440,18742,1026,65535,65700,0,0,4,1460,312,0,16777216,230000,33580,140,65700,112,0,0,2066408028,63
i,1734976274.873120,10.0.2.15,22,192.168.56.1,54736,1073725440,18742,1026,65535,65700,0,0,4,1460,312,0,16777216,230000,33580,140,65700,112,140,0,2066408028,63
o,1734976274.876118,10.0.2.15,22,192.168.56.1,54736,1073725440,18882,1026,65535,65700,0,0,4,1460,312,0,16777216,230000,33580,44,65700,0,0,0,2066408028,63
i,1734976274.878176,10.0.2.15,22,192.168.56.1,54736,1073725440,18882,1026,65535,65700,0,0,4,1460,312,0,16777216,230000,33580,44,65700,0,44,0,2066408028,63
i,1734976274.878378,10.0.2.15,22,192.168.56.1,54736,1073725440,18926,1026,65535,65700,0,0,4,1460,312,0,0,240000,33580,0,65700,0,0,0,2066408028,63
o,1734976274.880721,10.0.2.15,22,192.168.56.1,54718,1073725440,18998,1026,65535,65700,0,0,4,1460,312,0,16777220,230000,33580,176,65700,0,0,0,3624239516,63
i,1734976274.884261,10.0.2.15,22,192.168.56.1,54718,1073725440,18998,1026,65535,65700,0,0,4,1460,312,0,16777220,230000,33580,176,65700,0,176,0,3624239516,63
i,1734976274.884339,10.0.2.15,22,192.168.56.1,54718,1073725440,19174,1026,65535,65700,0,0,4,1460,312,0,4,230000,33580,0,65700,0,0,0,3624239516,63
o,1734976274.886627,10.0.2.15,22,192.168.56.1,54736,1073725440,18926,1026,65535,65700,0,0,4,1460,312,0,16777220,240000,33580,72,65700,0,0,0,2066408028,63
o,1734976274.888720,10.0.2.15,22,192.168.56.1,54718,1073725440,19174,1026,65535,65700,0,0,6,1460,312,0,4,230000,33580,0,65700,0,0,0,3624239516,63
i,1734976274.891217,10.0.2.15,22,192.168.56.1,54736,1073725440,18926,1026,65535,65700,0,0,4,1460,312,0,16777220,240000,33580,72,65700,0,72,0,2066408028,63
i,1734976274.892219,10.0.2.15,22,192.168.56.1,54718,1073725440,19174,1026,65535,65700,0,0,6,1460,312,0,67108884,230000,33580,0,65700,0,1,0,3624239516,63
o,1734976274.901611,10.0.2.15,22,192.168.56.1,54736,1073725440,18998,1026,65535,65700,0,0,4,1460,312,0,16777220,240000,33580,176,65700,0,0,0,2066408028,63
i,1734976274.905911,10.0.2.15,22,192.168.56.1,54736,1073725440,18998,1026,65535,65700,0,0,4,1460,312,0,16777220,240000,33580,176,65700,0,176,0,2066408028,63
i,1734976274.906051,10.0.2.15,22,192.168.56.1,54736,1073725440,19174,1026,65535,65700,0,0,4,1460,312,0,4,240000,33580,0,65700,0,0,0,2066408028,63
o,1734976274.907661,10.0.2.15,22,192.168.56.1,54736,1073725440,19174,1026,65535,65700,0,0,6,1460,312,0,4,240000,33580,0,65700,0,0,0,2066408028,63
i,1734976274.911512,10.0.2.15,22,192.168.56.1,54736,1073725440,19174,1026,65535,65700,0,0,6,1460,312,0,67108884,240000,33580,0,65700,0,1,0,2066408028,63
i,1734976280.920323,10.0.2.15,22,192.168.56.1,54710,1073725440,14600,0,65535,65700,0,0,4,1460,312,0,16777216,270000,33580,0,65700,0,0,0,205502823,63
o,1734976280.955745,10.0.2.15,22,192.168.56.1,54710,1073725440,14600,2,65535,65700,0,0,4,1460,312,0,16777217,270000,33580,0,65700,42,0,0,205502823,63
o,1734976280.961059,10.0.2.15,22,192.168.56.1,54710,1073725440,14600,1026,65535,65700,0,0,4,1460,312,0,16777216,270000,33580,38,65700,42,0,0,205502823,63
i,1734976280.964676,10.0.2.15,22,192.168.56.1,54710,1073725440,14600,1026,65535,65700,0,0,4,1460,312,0,16777216,270000,33580,38,65700,0,38,0,205502823,63
i,1734976280.964785,10.0.2.15,22,192.168.56.1,54710,1073725440,14638,1026,65535,65700,0,0,4,1460,312,0,0,230000,33580,0,65700,0,0,0,205502823,63
i,1734976280.964881,10.0.2.15,22,192.168.56.1,54710,1073725440,14638,1026,65535,65700,0,0,4,1460,312,0,0,230000,33580,0,65700,1460,0,0,205502823,63
o,1734976280.964980,10.0.2.15,22,192.168.56.1,54710,1073725440,14638,1026,65535,65700,0,0,4,1460,312,0,1,230000,33580,0,65700,1536,0,0,205502823,63
o,1734976280.966163,10.0.2.15,22,192.168.56.1,54710,1073725440,14638,1026,65535,65700,0,0,4,1460,312,0,16777216,230000,33580,1120,65700,1536,0,0,205502823,63
i,1734976280.968291,10.0.2.15,22,192.168.56.1,54710,1073725440,14638,1026,65535,65700,0,0,4,1460,312,0,16777216,230000,33580,1120,65700,0,1120,0,205502823,63
i,1734976281.006454,10.0.2.15,22,192.168.56.1,54710,1073725440,15758,1026,65535,65700,0,0,4,1460,312,0,0,230000,33580,0,65700,0,0,0,205502823,63
o,1734976281.030405,10.0.2.15,22,192.168.56.1,54710,1073725440,15758,1030,65535,65700,0,0,4,1460,312,0,16777216,230000,33580,1532,65700,0,0,0,205502823,63
o,1734976281.033090,10.0.2.15,22,192.168.56.1,54710,1073725440,15758,1026,65535,65700,0,0,4,1460,312,0,16777216,230000,33580,1532,65700,0,1460,0,205502823,63
i,1734976281.035776,10.0.2.15,22,192.168.56.1,54710,1073725440,15758,1026,65535,65700,0,0,4,1460,312,0,16777216,230000,33580,1532,65700,0,1532,0,205502823,63
i,1734976281.035853,10.0.2.15,22,192.168.56.1,54710,1073725440,17218,1026,65535,65700,0,0,4,1460,312,0,0,230000,33580,72,65700,0,72,0,205502823,63
i,1734976281.049597,10.0.2.15,22,192.168.56.1,54710,1073725440,17290,1026,65535,65700,0,0,4,1460,312,0,0,230000,33580,0,65700,0,0,0,205502823,63
o,1734976281.050089,10.0.2.15,22,192.168.56.1,54710,1073725440,17290,1026,65535,65700,0,0,4,1460,312,0,16777216,230000,33580,44,65700,0,0,0,205502823,63
i,1734976281.054508,10.0.2.15,22,192.168.56.1,54710,1073725440,17290,1026,65535,65700,0,0,4,1460,312,0,16777216,230000,33580,44,65700,0,44,0,205502823,63
o,1734976281.060560,10.0.2.15,22,192.168.56.1,54710,1073725440,17334,1026,65535,65700,0,0,4,1460,312,0,16777216,230000,33580,280,65700,0,0,0,205502823,63
i,1734976281.065981,10.0.2.15,22,192.168.56.1,54710,1073725440,17334,1026,65535,65700,0,0,4,1460,312,0,16777216,230000,33580,280,65700,0,280,0,205502823,63
o,1734976281.067828,10.0.2.15,22,192.168.56.1,54710,1073725440,17614,1026,65535,65700,0,0,4,1460,312,0,16777216,230000,33580,332,65700,0,0,0,205502823,63
i,1734976281.072243,10.0.2.15,22,192.168.56.1,54710,1073725440,17614,1026,65535,65700,0,0,4,1460,312,0,16777216,230000,33580,332,65700,0,332,0,205502823,63
i,1734976281.072332,10.0.2.15,22,192.168.56.1,54710,1073725440,17946,1026,65535,65700,0,0,4,1460,312,0,0,230000,33580,0,65700,0,0,0,205502823,63
o,1734976281.089286,10.0.2.15,22,192.168.56.1,54710,1073725440,17946,1026,65535,65700,0,0,4,1460,312,0,16777216,230000,33580,28,65700,0,0,0,205502823,63
i,1734976281.094414,10.0.2.15,22,192.168.56.1,54710,1073725440,17946,1026,65535,65700,0,0,4,1460,312,0,16777216,230000,33580,28,65700,0,28,0,205502823,63
o,1734976281.095059,10.0.2.15,22,192.168.56.1,54710,1073725440,17974,1026,65535,65700,0,0,4,1460,312,0,16777216,230000,33580,768,65700,112,0,0,205502823,63
i,1734976281.100883,10.0.2.15,22,192.168.56.1,54710,1073725440,17974,1026,65535,65700,0,0,4,1460,312,0,16777216,230000,33580,908,65700,112,768,0,205502823,63
o,1734976281.100968,10.0.2.15,22,192.168.56.1,54710,1073725440,18742,1026,65535,65700,0,0,4,1460,312,0,16777216,230000,33580,140,65700,112,0,0,205502823,63
i,1734976281.103929,10.0.2.15,22,192.168.56.1,54710,1073725440,18742,1026,65535,65700,0,0,4,1460,312,0,16777216,230000,33580,140,65700,112,140,0,205502823,63
i,1734976281.105053,172.16.1.2,5101,172.16.3.2,54795,1073725440,14480,32,65728,65700,6,6,4,1460,311875,1,16778208,1450000,33580,0,65700,0,0,0,2153832500,63
o,1734976281.105446,172.16.1.2,5101,172.16.3.2,54795,1073725440,14480,1058,65728,65700,6,6,4,1460,311875,1,16778212,1450000,33580,1,65700,0,0,0,2153832500,63
o,1734976281.106545,10.0.2.15,22,192.168.56.1,54710,1073725440,18882,1026,65535,65700,0,0,4,1460,312,0,16777216,230000,33580,44,65700,0,0,0,205502823,63
i,1734976281.107723,172.16.1.2,5102,172.16.3.2,37140,1073725440,14480,32,65728,65700,6,6,4,1460,310625,1,16778208,1460000,33580,0,65700,0,0,0,2163780187,63
i,1734976281.108054,172.16.1.2,5103,172.16.5.2,41404,1073725440,14480,32,65728,65700,6,6,4,1460,324687,1,16778208,1350000,33580,0,65700,0,0,0,3688265855,63
o,1734976281.108820,172.16.1.2,5103,172.16.5.2,41404,1073725440,14480,1058,65728,65700,6,6,4,1460,324687,1,16778212,1350000,33580,1,65700,0,0,0,3688265855,63
o,1734976281.108947,172.16.1.2,5102,172.16.3.2,37140,1073725440,14480,1058,65728,65700,6,6,4,1460,310625,1,16778212,1460000,33580,1,65700,0,0,0,2163780187,63
i,1734976281.112289,10.0.2.15,22,192.168.56.1,54710,1073725440,18882,1026,65535,65700,0,0,4,1460,312,0,16777216,230000,33580,44,65700,0,44,0,205502823,63
i,1734976281.112372,10.0.2.15,22,192.168.56.1,54710,1073725440,18926,1026,65535,65700,0,0,4,1460,312,0,0,230000,33580,0,65700,0,0,0,205502823,63
o,1734976281.116290,10.0.2.15,22,192.168.56.1,54710,1073725440,18926,1026,65535,65700,0,0,4,1460,312,0,16777220,230000,33580,72,65700,0,0,0,205502823,63
i,1734976281.119317,10.0.2.15,22,192.168.56.1,54710,1073725440,18926,1026,65535,65700,0,0,4,1460,312,0,16777220,230000,33580,72,65700,0,72,0,205502823,63
o,1734976281.142436,10.0.2.15,22,192.168.56.1,54710,1073725440,18998,1026,65535,65700,0,0,4,1460,312,0,16777220,230000,33580,124,65700,0,0,0,205502823,63
i,1734976281.147748,10.0.2.15,22,192.168.56.1,54710,1073725440,18998,1026,65535,65700,0,0,4,1460,312,0,16777220,230000,33580,124,65700,0,124,0,205502823,63
i,1734976281.147832,10.0.2.15,22,192.168.56.1,54710,1073725440,19122,1026,65535,65700,0,0,4,1460,312,0,4,230000,33580,0,65700,0,0,0,205502823,63
o,1734976281.149715,10.0.2.15,22,192.168.56.1,54710,1073725440,19122,1026,65535,65700,0,0,6,1460,312,0,4,230000,33580,0,65700,0,0,0,205502823,63
i,1734976281.154456,10.0.2.15,22,192.168.56.1,54710,1073725440,19122,1026,65535,65700,0,0,6,1460,312,0,67108884,230000,33580,0,65700,0,1,0,205502823,63
i,1734976281.245231,172.16.1.2,5101,172.16.3.2,54795,1073725440,14480,1058,65728,65700,6,6,4,1460,311875,1,16778212,1450000,33580,1,65700,0,1,0,2153832500,63
i,1734976281.245868,172.16.1.2,5102,172.16.3.2,37140,1073725440,14480,1058,65728,65700,6,6,4,1460,310625,1,16778212,1460000,33580,1,65700,0,1,0,2163780187,63
i,1734976281.246035,172.16.1.2,5102,172.16.3.2,37140,1073725440,14481,1058,65728,65728,6,6,4,1460,289375,1,996,1370000,33580,0,65700,4,0,0,2163780187,63
o,1734976281.246127,172.16.1.2,5102,172.16.3.2,37140,1073725440,14481,1058,65728,65728,6,6,4,1460,289375,1,997,1370000,33580,0,65700,130,0,0,2163780187,63
i,1734976281.246948,172.16.1.2,5101,172.16.3.2,54795,1073725440,14481,1058,65728,65728,6,6,4,1460,290625,1,996,1360000,33580,0,65700,4,0,0,2153832500,63
o,1734976281.247034,172.16.1.2,5101,172.16.3.2,54795,1073725440,14481,1058,65728,65728,6,6,4,1460,290625,1,997,1360000,33580,0,65700,151,0,0,2153832500,63
i,1734976281.247607,172.16.1.2,5103,172.16.5.2,41404,1073725440,14480,1058,65728,65700,6,6,4,1460,324687,1,16778212,1350000,33580,1,65700,0,1,0,3688265855,63
i,1734976281.247872,172.16.1.2,5103,172.16.5.2,41404,1073725440,14481,1058,65728,65728,6,6,4,1460,301875,1,996,1300000,33580,0,65700,4,0,0,3688265855,63
o,1734976281.247955,172.16.1.2,5103,172.16.5.2,41404,1073725440,14481,1058,65728,65728,6,6,4,1460,301875,1,997,1300000,33580,0,65700,130,0,0,3688265855,63
o,1734976281.248897,172.16.1.2,5103,172.16.5.2,41404,1073725440,14481,1058,65728,65728,6,6,4,1460,301875,1,16778212,1300000,33580,1,65700,0,0,0,3688265855,63
o,1734976281.249448,172.16.1.2,5101,172.16.3.2,54795,1073725440,14481,1058,65728,65728,6,6,4,1460,290625,1,16778212,1360000,33580,1,65700,0,0,0,2153832500,63
o,1734976281.250652,10.0.2.15,22,192.168.56.1,54684,1073725440,14600,1026,65535,65700,0,0,4,1460,312,0,16777220,230000,33580,84,65700,0,0,0,2112089166,63
o,1734976281.251339,172.16.1.2,5102,172.16.3.2,37140,1073725440,14481,1058,65728,65728,6,6,4,1460,289375,1,16778212,1370000,33580,1,65700,0,0,0,2163780187,63
o,1734976281.252094,10.0.2.15,22,192.168.56.1,54672,1073725440,14600,1026,65535,65700,0,0,4,1460,312,0,16777220,240000,33580,84,65700,0,0,0,28157251,63
i,1734976281.253996,10.0.2.15,22,192.168.56.1,54684,1073725440,14600,1026,65535,65700,0,0,4,1460,312,0,16777220,230000,33580,84,65700,0,84,0,2112089166,63
i,1734976281.254031,10.0.2.15,22,192.168.56.1,54672,1073725440,14600,1026,65535,65700,0,0,4,1460,312,0,16777220,240000,33580,84,65700,0,84,0,28157251,63
o,1734976281.256659,10.0.2.15,22,192.168.56.1,54666,1073725440,14600,1026,65535,65700,0,0,4,1460,312,0,16777220,230000,33580,84,65700,0,0,0,1868718633,63
i,1734976281.258989,10.0.2.15,22,192.168.56.1,54666,1073725440,14600,1026,65535,65700,0,0,4,1460,312,0,16777220,230000,33580,84,65700,0,84,0,1868718633,63
i,1734976281.399427,172.16.1.2,5102,172.16.3.2,37140,1073725440,14481,1058,65728,65728,6,6,4,1460,289375,1,16778212,1370000,33580,1,65700,0,1,0,2163780187,63
i,1734976281.400076,172.16.1.2,5101,172.16.3.2,54795,1073725440,14481,1058,65728,65728,6,6,4,1460,290625,1,16778212,1360000,33580,1,65700,0,1,0,2153832500,63
i,1734976281.452220,172.16.1.2,5103,172.16.5.2,41404,1073725440,14481,1058,65728,65728,6,6,4,1460,301875,1,16778212,1300000,33580,1,65700,0,1,0,3688265855,63
i,1734976281.528317,172.16.1.2,5101,172.16.3.2,28423,1073725440,14480,32,65728,65700,6,6,4,1460,306875,1,16778208,1480000,33580,0,65700,0,0,0,2843284215,63
i,1734976281.533691,172.16.1.2,5102,172.16.3.2,28384,1073725440,14480,32,65728,65700,6,6,4,1460,306875,1,16778208,1480000,33580,0,65700,0,0,0,2274233701,63
i,1734976281.533824,172.16.1.2,5103,172.16.5.2,63910,1073725440,14480,32,65728,65700,6,6,4,1460,319687,1,16778208,1380000,33580,0,65700,0,0,0,2237472630,63
o,1734976281.543154,172.16.1.2,5101,172.16.3.2,54795,1073725440,14482,1058,65728,65728,6,6,4,1460,273125,1,16778212,1270000,33580,1,65700,0,0,0,2153832500,63
o,1734976281.544182,172.16.1.2,5101,172.16.3.2,54795,1073725440,14482,1058,65728,65728,6,6,4,1460,273125,1,16778212,1270000,33580,2,65700,0,1,0,2153832500,63
o,1734976281.545689,10.0.2.15,22,192.168.56.1,54666,1073725440,14600,1026,65535,65700,0,0,4,1460,312,0,16777220,230000,33580,108,65700,0,0,0,1868718633,63
i,1734976281.548711,10.0.2.15,22,192.168.56.1,54666,1073725440,14600,1026,65535,65700,0,0,4,1460,312,0,16777220,230000,33580,108,65700,0,108,0,1868718633,63
o,1734976281.554257,172.16.1.2,5103,172.16.5.2,41404,1073725440,14482,1058,65728,65728,6,6,4,1460,289375,1,16778212,1190000,33580,1,65700,0,0,0,3688265855,63
o,1734976281.554902,172.16.1.2,5103,172.16.5.2,41404,1073725440,14482,1058,65728,65728,6,6,4,1460,289375,1,16778212,1190000,33580,2,65700,0,1,0,3688265855,63
o,1734976281.557789,10.0.2.15,22,192.168.56.1,54684,1073725440,14600,1026,65535,65700,0,0,4,1460,312,0,16777220,230000,33580,108,65700,0,0,0,2112089166,63
i,1734976281.560431,10.0.2.15,22,192.168.56.1,54684,1073725440,14600,1026,65535,65700,0,0,4,1460,312,0,16777220,230000,33580,108,65700,0,108,0,2112089166,63
o,1734976281.564530,172.16.1.2,5101,172.16.3.2,28423,1073725440,14480,34,65728,65700,6,6,4,1460,306875,1,16778209,1480000,33580,0,65700,0,0,0,2843284215,63
o,1734976281.567830,172.16.1.2,5102,172.16.3.2,37140,1073725440,14482,1058,65728,65728,6,6,4,1460,272187,1,16778212,1270000,33580,1,65700,0,0,0,2163780187,63
o,1734976281.568493,172.16.1.2,5102,172.16.3.2,37140,1073725440,14482,1058,65728,65728,6,6,4,1460,272187,1,16778212,1270000,33580,2,65700,0,1,0,2163780187,63
o,1734976281.570254,10.0.2.15,22,192.168.56.1,54672,1073725440,14600,1026,65535,65700,0,0,4,1460,312,0,16777220,230000,33580,108,65700,0,0,0,28157251,63
i,1734976281.573935,10.0.2.15,22,192.168.56.1,54672,1073725440,14600,1026,65535,65700,0,0,4,1460,312,0,16777220,230000,33580,108,65700,0,108,0,28157251,63
o,1734976281.574236,172.16.1.2,5103,172.16.5.2,63910,1073725440,14480,34,65728,65700,6,6,4,1460,319687,1,16778209,1380000,33580,0,65700,0,0,0,2237472630,63
o,1734976281.574748,172.16.1.2,5102,172.16.3.2,28384,1073725440,14480,34,65728,65700,6,6,4,1460,306875,1,16778209,1480000,33580,0,65700,0,0,0,2274233701,63
i,1734976281.654042,172.16.1.2,5103,172.16.5.2,63910,1073725440,14480,34,65728,65700,6,6,4,1460,319687,1,16778208,1380000,33580,0,65700,0,0,0,2237472630,63
i,1734976281.654166,172.16.1.2,5103,172.16.5.2,63910,1073725440,14480,34,65728,65700,6,6,4,1460,319687,1,16778208,1380000,33580,0,65700,1448,0,0,2237472630,63
o,1734976281.654201,172.16.1.2,5103,172.16.5.2,63910,1073725440,14480,34,65728,65700,6,6,4,1460,319687,1,16778209,1380000,33580,0,65700,2896,0,0,2237472630,63
i,1734976281.654468,172.16.1.2,5103,172.16.5.2,63910,1073725440,14480,34,65728,65700,6,6,4,1460,319687,1,16778208,1380000,33580,0,65700,2896,0,0,2237472630,63
i,1734976281.658508,172.16.1.2,5103,172.16.5.2,63910,1073725440,14480,34,65728,65700,6,6,4,1460,319687,1,16778208,1380000,33580,0,65700,0,0,0,2237472630,63
o,1734976281.658761,172.16.1.2,5103,172.16.5.2,63910,1073725440,14480,34,65728,65700,6,6,4,1460,319687,1,16778209,1380000,33580,0,65700,1448,0,0,2237472630,63
i,1734976281.659628,172.16.1.2,5103,172.16.5.2,63910,1073725440,14480,34,65728,65700,6,6,4,1460,319687,1,16778208,1380000,33580,0,65700,1448,0,0,2237472630,63
o,1734976281.697304,172.16.1.2,5103,172.16.5.2,63910,1073725440,14480,34,65728,65700,6,6,4,1460,319687,1,16778209,1380000,33580,0,65700,0,0,0,2237472630,63
i,1734976281.725559,172.16.1.2,5103,172.16.5.2,63910,1073725440,14480,34,65728,65700,6,6,4,1460,319687,1,16778208,1380000,33580,0,65700,0,0,0,2237472630,63
i,1734976281.725728,172.16.1.2,5103,172.16.5.2,63910,1073725440,14480,34,65728,65700,6,6,4,1460,319687,1,16778208,1380000,33580,0,65700,1448,0,0,2237472630,63
o,1734976281.725818,172.16.1.2,5103,172.16.5.2,63910,1073725440,14480,34,65728,65700,6,6,4,1460,319687,1,16778209,1380000,33580,0,65700,2896,0,0,2237472630,63
i,1734976281.727118,172.16.1.2,5103,172.16.5.2,63910,1073725440,14480,34,65728,65700,6,6,4,1460,319687,1,16778208,1380000,33580,0,65700,2896,0,0,2237472630,63
i,1734976281.727272,172.16.1.2,5103,172.16.5.2,63910,1073725440,14480,34,65728,65700,6,6,4,1460,319687,1,16778208,1380000,33580,0,65700,4344,0,0,2237472630,63
o,1734976281.727357,172.16.1.2,5103,172.16.5.2,63910,1073725440,14480,34,65728,65700,6,6,4,1460,319687,1,16778209,1380000,33580,0,65700,5792,0,0,2237472630,63
i,1734976281.729961,172.16.1.2,5103,172.16.5.2,63910,1073725440,14480,34,65728,65700,6,6,4,1460,319687,1,16778208,1380000,33580,0,65700,0,0,0,2237472630,63
i,1734976281.735732,172.16.1.2,5101,172.16.3.2,54795,1073725440,14482,1058,65728,65728,6,6,4,1460,273125,1,16778212,1270000,33580,2,65700,0,2,0,2153832500,63
i,1734976281.735869,172.16.1.2,5101,172.16.3.2,28423,1073725440,14480,34,65728,65700,6,6,4,1460,306875,1,16778208,1480000,33580,0,65700,0,0,0,2843284215,63
i,1734976281.736118,172.16.1.2,5101,172.16.3.2,28423,1073725440,14480,34,65728,65700,6,6,4,1460,306875,1,16778208,1480000,33580,0,65700,1448,0,0,2843284215,63
o,1734976281.736197,172.16.1.2,5101,172.16.3.2,28423,1073725440,14480,34,65728,65700,6,6,4,1460,306875,1,16778209,1480000,33580,0,65700,2896,0,0,2843284215,63
i,1734976281.737879,172.16.1.2,5101,172.16.3.2,28423,1073725440,14480,34,65728,65700,6,6,4,1460,306875,1,16778208,1480000,33580,0,65700,0,0,0,2843284215,63
i,1734976281.738298,172.16.1.2,5101,172.16.3.2,28423,1073725440,14480,34,65728,65700,6,6,4,1460,306875,1,16778208,1480000,33580,0,65700,1448,0,0,2843284215,63
o,1734976281.738373,172.16.1.2,5101,172.16.3.2,28423,1073725440,14480,34,65728,65700,6,6,4,1460,306875,1,16778209,1480000,33580,0,65700,2896,0,0,2843284215,63
i,1734976281.738921,172.16.1.2,5101,172.16.3.2,28423,1073725440,14480,34,65728,65700,6,6,4,1460,306875,1,16778208,1480000,33580,0,65700,2896,0,0,2843284215,63
i,1734976281.739050,172.16.1.2,5101,172.16.3.2,28423,1073725440,14480,34,65728,65700,6,6,4,1460,306875,1,16778208,1480000,33580,0,65700,4344,0,0,2843284215,63
o,1734976281.739122,172.16.1.2,5101,172.16.3.2,28423,1073725440,14480,34,65728,65700,6,6,4,1460,306875,1,16778209,1480000,33580,0,65700,5792,0,0,2843284215,63
i,1734976281.742869,172.16.1.2,5101,172.16.3.2,28423,1073725440,14480,34,65728,65700,6,6,4,1460,306875,1,16778208,1480000,33580,0,65700,0,0,0,2843284215,63
i,1734976281.743111,172.16.1.2,5101,172.16.3.2,28423,1073725440,14480,34,65728,65700,6,6,4,1460,306875,1,16778208,1480000,33580,0,65700,1448,0,0,2843284215,63
o,1734976281.743186,172.16.1.2,5101,172.16.3.2,28423,1073725440,14480,34,65728,65700,6,6,4,1460,306875,1,16778209,1480000,33580,0,65700,2896,0,0,2843284215,63
i,1734976281.744319,172.16.1.2,5101,172.16.3.2,28423,1073725440,14480,34,65728,65700,6,6,4,1460,306875,1,16778208,1480000,33580,0,65700,2896,0,0,2843284215,63
i,1734976281.744450,172.16.1.2,5101,172.16.3.2,28423,1073725440,14480,34,65728,65700,6,6,4,1460,306875,1,16778208,1480000,33580,0,65700,4344,0,0,2843284215,63
o,1734976281.744522,172.16.1.2,5101,172.16.3.2,28423,1073725440,14480,34,65728,65700,6,6,4,1460,306875,1,16778209,1480000,33580,0,65700,5792,0,0,2843284215,63
i,1734976281.745872,172.16.1.2,5102,172.16.3.2,37140,1073725440,14482,1058,65728,65728,6,6,4,1460,272187,1,16778212,1270000,33580,2,65700,0,2,0,2163780187,63
i,1734976281.746404,172.16.1.2,5102,172.16.3.2,28384,1073725440,14480,34,65728,65700,6,6,4,1460,306875,1,16778208,1480000,33580,0,65700,0,0,0,2274233701,63
i,1734976281.746646,172.16.1.2,5102,172.16.3.2,28384,1073725440,14480,34,65728,65700,6,6,4,1460,306875,1,16778208,1480000,33580,0,65700,1448,0,0,2274233701,63
o,1734976281.746719,172.16.1.2,5102,172.16.3.2,28384,1073725440,14480,34,65728,65700,6,6,4,1460,306875,1,16778209,1480000,33580,0,65700,2896,0,0,2274233701,63
i,1734976281.747246,172.16.1.2,5102,172.16.3.2,28384,1073725440,14480,34,65728,65700,6,6,4,1460,306875,1,16778208,1480000,33580,0,65700,2896,0,0,2274233701,63
i,1734976281.750281,172.16.1.2,5102,172.16.3.2,28384,1073725440,14480,34,65728,65700,6,6,4,1460,306875,1,16778208,1480000,33580,0,65700,0,0,0,2274233701,63
o,1734976281.750367,172.16.1.2,5102,172.16.3.2,28384,1073725440,14480,34,65728,65700,6,6,4,1460,306875,1,16778209,1480000,33580,0,65700,1448,0,0,2274233701,63
i,1734976281.764785,172.16.1.2,5103,172.16.5.2,41404,1073725440,14482,1058,65728,65728,6,6,4,1460,289375,1,16778212,1190000,33580,2,65700,0,2,0,3688265855,63
i,1734976281.764925,172.16.1.2,5102,172.16.3.2,28384,1073725440,14480,34,65728,65700,6,6,4,1460,306875,1,16778208,1480000,33580,0,65700,0,0,0,2274233701,63
i,1734976281.765168,172.16.1.2,5102,172.16.3.2,28384,1073725440,14480,34,65728,65700,6,6,4,1460,306875,1,16778208,1480000,33580,0,65700,1448,0,0,2274233701,63
o,1734976281.765245,172.16.1.2,5102,172.16.3.2,28384,1073725440,14480,34,65728,65700,6,6,4,1460,306875,1,16778209,1480000,33580,0,65700,2896,0,0,2274233701,63
o,1734976281.766101,172.16.1.2,5103,172.16.5.2,63910,1073725440,14480,34,65728,65700,6,6,4,1460,319687,1,16778209,1380000,33580,0,65700,0,0,0,2237472630,63
i,1734976281.768887,172.16.1.2,5102,172.16.3.2,28384,1073725440,14480,34,65728,65700,6,6,4,1460,306875,1,16778208,1480000,33580,0,65700,0,0,0,2274233701,63
i,1734976281.769039,172.16.1.2,5102,172.16.3.2,28384,1073725440,14480,34,65728,65700,6,6,4,1460,306875,1,16778208,1480000,33580,0,65700,1448,0,0,2274233701,63
o,1734976281.769121,172.16.1.2,5102,172.16.3.2,28384,1073725440,14480,34,65728,65700,6,6,4,1460,306875,1,16778209,1480000,33580,0,65700,2896,0,0,2274233701,63
i,1734976281.769601,172.16.1.2,5102,172.16.3.2,28384,1073725440,14480,34,65728,65700,6,6,4,1460,306875,1,16778208,1480000,33580,0,65700,2896,0,0,2274233701,63
i,1734976281.769740,172.16.1.2,5102,172.16.3.2,28384,1073725440,14480,34,65728,65700,6,6,4,1460,306875,1,16778208,1480000,33580,0,65700,4344,0,0,2274233701,63
o,1734976281.769818,172.16.1.2,5102,172.16.3.2,28384,1073725440,14480,34,65728,65700,6,6,4,1460,306875,1,16778209,1480000,33580,0,65700,5792,0,0,2274233701,63
i,1734976281.868388,172.16.1.2,5101,172.16.3.2,28423,1073725440,14480,34,65728,65700,6,6,4,1460,306875,1,16778208,1480000,33580,0,65700,0,0,0,2843284215,63
i,1734976281.868539,172.16.1.2,5103,172.16.5.2,63910,1073725440,14480,34,65728,65700,6,6,4,1460,319687,1,16778208,1380000,33580,0,65700,0,0,0,2237472630,63
i,1734976281.868671,172.16.1.2,5103,172.16.5.2,63910,1073725440,14480,34,65728,65700,6,6,4,1460,319687,1,16778208,1380000,33580,0,65700,1448,0,0,2237472630,63
o,1734976281.868752,172.16.1.2,5103,172.16.5.2,63910,1073725440,14480,34,65728,65700,6,6,4,1460,319687,1,16778209,1380000,33580,0,65700,2896,0,0,2237472630,63
i,1734976281.869297,172.16.1.2,5103,172.16.5.2,63910,1073725440,14480,34,65728,65700,6,6,4,1460,319687,1,16778208,1380000,33580,0,65700,2896,0,0,2237472630,63
i,1734976281.869426,172.16.1.2,5101,172.16.3.2,28423,1073725440,14480,34,65728,65700,6,6,4,1460,306875,1,16778208,1480000,33580,0,65700,1448,0,0,2843284215,63
o,1734976281.869553,172.16.1.2,5101,172.16.3.2,28423,1073725440,14480,34,65728,65700,6,6,4,1460,306875,1,16778209,1480000,33580,0,65700,2896,0,0,2843284215,63
i,1734976281.870286,172.16.1.2,5103,172.16.5.2,63910,1073725440,14480,34,65728,65700,6,6,4,1460,319687,1,16778208,1380000,33580,0,65700,4344,0,0,2237472630,63
o,1734976281.870444,172.16.1.2,5103,172.16.5.2,63910,1073725440,14480,34,65728,65700,6,6,4,1460,319687,1,16778209,1380000,33580,0,65700,1448,0,0,2237472630,63
i,1734976281.885029,172.16.1.2,5103,172.16.5.2,63910,1073725440,14480,34,65728,65700,6,6,4,1460,319687,1,16778208,1380000,33580,0,65700,0,0,0,2237472630,63
i,1734976281.885246,172.16.1.2,5101,172.16.3.2,28423,1073725440,14480,34,65728,65700,6,6,4,1460,306875,1,16778208,1480000,33580,0,65700,0,0,0,2843284215,63
i,1734976281.885379,172.16.1.2,5103,172.16.5.2,63910,1073725440,14480,34,65728,65700,6,6,4,1460,319687,1,16778208,1380000,33580,0,65700,1448,0,0,2237472630,63
o,1734976281.885458,172.16.1.2,5103,172.16.5.2,63910,1073725440,14480,34,65728,65700,6,6,4,1460,319687,1,16778209,1380000,33580,0,65700,2896,0,0,2237472630,63
i,1734976281.885657,172.16.1.2,5103,172.16.5.2,63910,1073725440,14480,34,65728,65700,6,6,4,1460,319687,1,16778208,1380000,33580,0,65700,2896,0,0,2237472630,63
i,1734976281.885657,172.16.1.2,5101,172.16.3.2,28423,1073725440,14480,34,65728,65700,6,6,4,1460,306875,1,16778208,1480000,33580,0,65700,0,0,0,2843284215,63
o,1734976281.885657,172.16.1.2,5101,172.16.3.2,28423,1073725440,14480,34,65728,65700,6,6,4,1460,306875,1,16778209,1480000,33580,0,65700,1448,0,0,2843284215,63
i,1734976281.888333,172.16.1.2,5103,172.16.5.2,63910,1073725440,14480,34,65728,65700,6,6,4,1460,319687,1,16778208,1380000,33580,0,65700,0,0,0,2237472630,63
o,1734976281.888435,172.16.1.2,5103,172.16.5.2,63910,1073725440,14480,34,65728,65700,6,6,4,1460,319687,1,16778209,1380000,33580,0,65700,1448,0,0,2237472630,63
i,1734976281.892823,172.16.1.2,5103,172.16.5.2,63910,1073725440,14480,34,65728,65700,6,6,4,1460,319687,1,16778208,1380000,33580,0,65700,0,0,0,2237472630,63
i,1734976281.923630,172.16.1.2,5103,172.16.5.2,63910,1073725440,14480,34,65728,65700,6,6,4,1460,319687,1,16778208,1380000,33580,0,65700,0,0,0,2237472630,63
o,1734976281.923685,172.16.1.2,5103,172.16.5.2,63910,1073725440,14480,34,65728,65700,6,6,4,1460,319687,1,16778209,1380000,33580,0,65700,1448,0,0,2237472630,63
i,1734976281.923785,172.16.1.2,5103,172.16.5.2,63910,1073725440,14480,34,65728,65700,6,6,4,1460,319687,1,16778208,1380000,33580,0,65700,1448,0,0,2237472630,63
i,1734976281.924722,172.16.1.2,5103,172.16.5.2,63910,1073725440,14480,34,65728,65700,6,6,4,1460,319687,1,16778208,1380000,33580,0,65700,2896,0,0,2237472630,63
o,1734976281.924771,172.16.1.2,5103,172.16.5.2,63910,1073725440,14480,34,65728,65700,6,6,4,1460,319687,1,16778209,1380000,33580,0,65700,4344,0,0,2237472630,63
i,1734976281.925051,172.16.1.2,5103,172.16.5.2,63910,1073725440,14480,34,65728,65700,6,6,4,1460,319687,1,16778208,1380000,33580,0,65700,4344,0,0,2237472630,63
i,1734976281.925169,172.16.1.2,5103,172.16.5.2,63910,1073725440,14480,34,65728,65700,6,6,4,1460,319687,1,16778208,1380000,33580,0,65700,5792,0,0,2237472630,63
o,1734976281.925204,172.16.1.2,5103,172.16.5.2,63910,1073725440,14480,34,65728,65700,6,6,4,1460,319687,1,16778209,1380000,33580,0,65700,6031,0,0,2237472630,63
i,1734976281.925515,172.16.1.2,5103,172.16.5.2,63910,1073725440,14480,34,65728,65700,6,6,4,1460,319687,1,16778208,1380000,33580,0,65700,6031,0,0,2237472630,63
i,1734976281.925630,172.16.1.2,5103,172.16.5.2,63910,1073725440,14480,34,65728,65700,6,6,4,1460,319687,1,16778208,1380000,33580,0,65700,7479,0,0,2237472630,63
o,1734976281.925664,172.16.1.2,5103,172.16.5.2,63910,1073725440,14480,34,65728,65700,6,6,4,1460,319687,1,16778209,1380000,33580,0,65700,8927,0,0,2237472630,63
i,1734976281.925933,172.16.1.2,5103,172.16.5.2,63910,1073725440,14480,34,65728,65700,6,6,4,1460,319687,1,16778208,1380000,33580,0,65700,8927,0,0,2237472630,63
i,1734976281.926132,172.16.1.2,5103,172.16.5.2,63910,1073725440,14480,34,65728,65700,6,6,4,1460,319687,1,16778208,1380000,33580,0,65700,10375,0,0,2237472630,63
o,1734976281.926233,172.16.1.2,5103,172.16.5.2,63910,1073725440,14480,34,65728,65700,6,6,4,1460,319687,1,16778209,1380000,33580,0,65700,11823,0,0,2237472630,63
i,1734976281.948004,172.16.1.2,5101,172.16.3.2,28423,1073725440,14480,34,65728,65700,6,6,4,1460,306875,1,16778208,1480000,33580,0,65700,0,0,0,2843284215,63
i,1734976281.957393,172.16.1.2,5103,172.16.5.2,63910,1073725440,14480,34,65728,65700,6,6,4,1460,319687,1,16778208,1380000,33580,0,65700,0,0,0,2237472630,63
i,1734976281.957574,172.16.1.2,5103,172.16.5.2,63910,1073725440,14480,34,65728,65700,6,6,4,1460,319687,1,16778208,1380000,33580,0,65700,1448,0,0,2237472630,63
o,1734976281.957673,172.16.1.2,5103,172.16.5.2,63910,1073725440,14480,34,65728,65700,6,6,4,1460,319687,1,16778209,1380000,33580,0,65700,2896,0,0,2237472630,63
o,1734976281.984785,172.16.1.2,5101,172.16.3.2,28423,1073725440,14480,34,65728,65700,6,6,4,1460,306875,1,16778209,1480000,33580,0,65700,0,0,0,2843284215,63
i,1734976282.054472,172.16.1.2,5101,172.16.3.2,28423,1073725440,14480,34,65728,65700,6,6,4,1460,306875,1,16778208,1480000,33580,0,65700,0,0,0,2843284215,63
i,1734976282.054701,172.16.1.2,5101,172.16.3.2,28423,1073725440,14480,34,65728,65700,6,6,4,1460,306875,1,16778208,1480000,33580,0,65700,1448,0,0,2843284215,63
o,1734976282.054790,172.16.1.2,5101,172.16.3.2,28423,1073725440,14480,34,65728,65700,6,6,4,1460,306875,1,16778209,1480000,33580,0,65700,2896,0,0,2843284215,63
i,1734976282.055350,172.16.1.2,5101,172.16.3.2,28423,1073725440,14480,34,65728,65700,6,6,4,1460,306875,1,16778208,1480000,33580,0,65700,2896,0,0,2843284215,63
i,1734976282.055593,172.16.1.2,5101,172.16.3.2,28423,1073725440,14480,34,65728,65700,6,6,4,1460,306875,1,16778208,1480000,33580,0,65700,4344,0,0,2843284215,63
o,1734976282.055666,172.16.1.2,5101,172.16.3.2,28423,1073725440,14480,34,65728,65700,6,6,4,1460,306875,1,16778209,1480000,33580,0,65700,5792,0,0,2843284215,63
i,1734976282.056496,172.16.1.2,5101,172.16.3.2,28423,1073725440,14480,34,65728,65700,6,6,4,1460,306875,1,16778208,1480000,33580,0,65700,5792,0,0,2843284215,63
o,1734976282.096326,172.16.1.2,5101,172.16.3.2,28423,1073725440,14480,34,65728,65700,6,6,4,1460,306875,1,16778209,1480000,33580,0,65700,0,0,0,2843284215,63
i,1734976282.131212,172.16.1.2,5101,172.16.3.2,28423,1073725440,14480,34,65728,65700,6,6,4,1460,306875,1,16778208,1480000,33580,0,65700,0,0,0,2843284215,63
i,1734976282.132057,172.16.1.2,5101,172.16.3.2,28423,1073725440,14480,34,65728,65700,6,6,4,1460,306875,1,16778208,1480000,33580,0,65700,1448,0,0,2843284215,63
o,1734976282.133433,172.16.1.2,5101,172.16.3.2,28423,1073725440,14480,34,65728,65700,6,6,4,1460,306875,1,16778209,1480000,33580,0,65700,2896,0,0,2843284215,63
i,1734976282.135976,172.16.1.2,5101,172.16.3.2,28423,1073725440,14480,34,65728,65700,6,6,4,1460,306875,1,16778208,1480000,33580,0,65700,2896,0,0,2843284215,63
i,1734976282.136269,172.16.1.2,5101,172.16.3.2,28423,1073725440,14480,34,65728,65700,6,6,4,1460,306875,1,16778208,1480000,33580,0,65700,4344,0,0,2843284215,63
o,1734976282.136404,172.16.1.2,5101,172.16.3.2,28423,1073725440,14480,34,65728,65700,6,6,4,1460,306875,1,16778209,1480000,33580,0,65700,5792,0,0,2843284215,63
i,1734976282.136984,172.16.1.2,5101,172.16.3.2,28423,1073725440,14480,34,65728,65700,6,6,4,1460,306875,1,16778208,1480000,33580,0,65700,5792,0,0,2843284215,63
i,1734976282.137144,172.16.1.2,5101,172.16.3.2,28423,1073725440,14480,34,65728,65700,6,6,4,1460,306875,1,16778208,1480000,33580,0,65700,7240,0,0,2843284215,63
o,1734976282.137220,172.16.1.2,5101,172.16.3.2,28423,1073725440,14480,34,65728,65700,6,6,4,1460,306875,1,16778209,1480000,33580,0,65700,8688,0,0,2843284215,63
i,1734976282.137551,172.16.1.2,5101,172.16.3.2,28423,1073725440,14480,34,65728,65700,6,6,4,1460,306875,1,16778208,1480000,33580,0,65700,8688,0,0,2843284215,63
i,1734976282.137678,172.16.1.2,5101,172.16.3.2,28423,1073725440,14480,34,65728,65700,6,6,4,1460,306875,1,16778208,1480000,33580,0,65700,10136,0,0,2843284215,63
o,1734976282.137729,172.16.1.2,5101,172.16.3.2,28423,1073725440,14480,34,65728,65700,6,6,4,1460,306875,1,16778209,1480000,33580,0,65700,11584,0,0,2843284215,63
i,1734976282.146023,172.16.1.2,5101,172.16.3.2,28423,1073725440,14480,34,65728,65700,6,6,4,1460,306875,1,16778208,1480000,33580,0,65700,0,0,0,2843284215,63
i,1734976282.146087,172.16.1.2,5101,172.16.3.2,28423,1073725440,14480,34,65728,65700,6,6,4,1460,306875,1,16778208,1480000,33580,0,65700,1448,0,0,2843284215,63
o,1734976282.146130,172.16.1.2,5101,172.16.3.2,28423,1073725440,14480,34,65728,65700,6,6,4,1460,306875,1,16778209,1480000,33580,0,65700,2896,0,0,2843284215,63
i,1734976282.146402,172.16.1.2,5102,172.16.3.2,28384,1073725440,14480,34,65728,65700,6,6,4,1460,306875,1,16778208,1480000,33580,0,65700,0,0,0,2274233701,63
i,1734976282.146631,172.16.1.2,5102,172.16.3.2,28384,1073725440,14480,34,65728,65700,6,6,4,1460,306875,1,16778208,1480000,33580,0,65700,1448,0,0,2274233701,63
o,1734976282.146709,172.16.1.2,5102,172.16.3.2,28384,1073725440,14480,34,65728,65700,6,6,4,1460,306875,1,16778209,1480000,33580,0,65700,2896,0,0,2274233701,63
i,1734976282.147331,172.16.1.2,5102,172.16.3.2,28384,1073725440,14480,34,65728,65700,6,6,4,1460,306875,1,16778208,1480000,33580,0,65700,2896,0,0,2274233701,63
i,1734976282.149534,172.16.1.2,5102,172.16.3.2,28384,1073725440,14480,34,65728,65700,6,6,4,1460,306875,1,16778208,1480000,33580,0,65700,0,0,0,2274233701,63
o,1734976282.149772,172.16.1.2,5102,172.16.3.2,28384,1073725440,14480,34,65728,65700,6,6,4,1460,306875,1,16778209,1480000,33580,0,65700,1448,0,0,2274233701,63
i,1734976282.150472,172.16.1.2,5102,172.16.3.2,28384,1073725440,14480,34,65728,65700,6,6,4,1460,306875,1,16778208,1480000,33580,0,65700,1448,0,0,2274233701,63
i,1734976282.150729,172.16.1.2,5102,172.16.3.2,28384,1073725440,14480,34,65728,65700,6,6,4,1460,306875,1,16778208,1480000,33580,0,65700,2896,0,0,2274233701,63
o,1734976282.150805,172.16.1.2,5102,172.16.3.2,28384,1073725440,14480,34,65728,65700,6,6,4,1460,306875,1,16778209,1480000,33580,0,65700,4344,0,0,2274233701,63
i,1734976282.151477,172.16.1.2,5102,172.16.3.2,28384,1073725440,14480,34,65728,65700,6,6,4,1460,306875,1,16778208,1480000,33580,0,65700,4344,0,0,2274233701,63
i,1734976282.151606,172.16.1.2,5102,172.16.3.2,28384,1073725440,14480,34,65728,65700,6,6,4,1460,306875,1,16778208,1480000,33580,0,65700,5792,0,0,2274233701,63
o,1734976282.151679,172.16.1.2,5102,172.16.3.2,28384,1073725440,14480,34,65728,65700,6,6,4,1460,306875,1,16778209,1480000,33580,0,65700,7240,0,0,2274233701,63
i,1734976282.154023,172.16.1.2,5102,172.16.3.2,28384,1073725440,14480,34,65728,65700,6,6,4,1460,306875,1,16778208,1480000,33580,0,65700,0,0,0,2274233701,63
i,1734976282.154296,172.16.1.2,5102,172.16.3.2,28384,1073725440,14480,34,65728,65700,6,6,4,1460,306875,1,16778208,1480000,33580,0,65700,1448,0,0,2274233701,63
o,1734976282.154378,172.16.1.2,5102,172.16.3.2,28384,1073725440,14480,34,65728,65700,6,6,4,1460,306875,1,16778209,1480000,33580,0,65700,2896,0,0,2274233701,63
i,1734976282.155341,172.16.1.2,5102,172.16.3.2,28384,1073725440,14480,34,65728,65700,6,6,4,1460,306875,1,16778208,1480000,33580,0,65700,0,0,0,2274233701,63
i,1734976282.156060,172.16.1.2,5102,172.16.3.2,28384,1073725440,14480,34,65728,65700,6,6,4,1460,306875,1,16778208,1480000,33580,0,65700,1448,0,0,2274233701,63
o,1734976282.156139,172.16.1.2,5102,172.16.3.2,28384,1073725440,14480,34,65728,65700,6,6,4,1460,306875,1,16778209,1480000,33580,0,65700,2896,0,0,2274233701,63
i,1734976282.156810,172.16.1.2,5102,172.16.3.2,28384,1073725440,14480,34,65728,65700,6,6,4,1460,306875,1,16778208,1480000,33580,0,65700,2896,0,0,2274233701,63
i,1734976282.157048,172.16.1.2,5102,172.16.3.2,28384,1073725440,14480,34,65728,65700,6,6,4,1460,306875,1,16778208,1480000,33580,0,65700,4344,0,0,2274233701,63
o,1734976282.157122,172.16.1.2,5102,172.16.3.2,28384,1073725440,14480,34,65728,65700,6,6,4,1460,306875,1,16778209,1480000,33580,0,65700,5792,0,0,2274233701,63
i,1734976282.157650,172.16.1.2,5102,172.16.3.2,28384,1073725440,14480,34,65728,65700,6,6,4,1460,306875,1,16778208,1480000,33580,0,65700,5792,0,0,2274233701,63
i,1734976282.157745,172.16.1.2,5102,172.16.3.2,28384,1073725440,14480,34,65728,65700,6,6,4,1460,306875,1,16778208,1480000,33580,0,65700,7240,0,0,2274233701,63
o,1734976282.157773,172.16.1.2,5102,172.16.3.2,28384,1073725440,14480,34,65728,65700,6,6,4,1460,306875,1,16778209,1480000,33580,0,65700,8688,0,0,2274233701,63
i,1734976282.158021,172.16.1.2,5102,172.16.3.2,28384,1073725440,14480,34,65728,65700,6,6,4,1460,306875,1,16778208,1480000,33580,0,65700,8688,0,0,2274233701,63
i,1734976282.159800,172.16.1.2,5102,172.16.3.2,28384,1073725440,14480,34,65728,65700,6,6,4,1460,306875,1,16778208,1480000,33580,0,65700,0,0,0,2274233701,63
o,1734976282.160244,172.16.1.2,5102,172.16.3.2,28384,1073725440,14480,34,65728,65700,6,6,4,1460,306875,1,16778209,1480000,33580,0,65700,1448,0,0,2274233701,63
i,1734976282.267023,172.16.1.2,5101,172.16.3.2,28423,1073725440,14480,34,65728,65700,6,6,4,1460,306875,1,16778208,1480000,33580,0,65700,0,0,0,2843284215,63
o,1734976282.307371,172.16.1.2,5101,172.16.3.2,28423,1073725440,14480,34,65728,65700,6,6,4,1460,306875,1,16778209,1480000,33580,0,65700,0,0,0,2843284215,63
i,1734976282.309359,172.16.1.2,5101,172.16.3.2,28423,1073725440,14480,34,65728,65700,6,6,4,1460,306875,1,16778208,1480000,33580,0,65700,0,0,0,2843284215,63
i,1734976282.314892,172.16.1.2,5103,172.16.5.2,63910,1073725440,14480,34,65728,65700,6,6,4,1460,319687,1,16778208,1380000,33580,0,65700,0,0,0,2237472630,63
i,1734976282.315040,172.16.1.2,5101,172.16.3.2,28423,1073725440,14480,34,65728,65700,6,6,4,1460,306875,1,16778208,1480000,33580,0,65700,0,0,0,2843284215,63
o,1734976282.315185,172.16.1.2,5101,172.16.3.2,28423,1073725440,14480,34,65728,65700,6,6,4,1460,306875,1,16778209,1480000,33580,0,65700,1448,0,0,2843284215,63
i,1734976282.315783,172.16.1.2,5103,172.16.5.2,63910,1073725440,14480,34,65728,65700,6,6,4,1460,319687,1,16778208,1380000,33580,0,98550,1448,0,0,2237472630,63
o,1734976282.315812,172.16.1.2,5103,172.16.5.2,63910,1073725440,14480,34,65728,65700,6,6,4,1460,319687,1,16778209,1380000,33580,0,98550,2896,0,0,2237472630,63
i,1734976282.316099,172.16.1.2,5103,172.16.5.2,63910,1073725440,14480,34,65728,65700,6,6,4,1460,319687,1,16778208,1380000,33580,0,98550,2896,0,0,2237472630,63
i,1734976282.316149,172.16.1.2,5101,172.16.3.2,28423,1073725440,14480,34,65728,65700,6,6,4,1460,306875,1,16778208,1480000,33580,0,65700,1448,0,0,2843284215,63
i,1734976282.316200,172.16.1.2,5103,172.16.5.2,63910,1073725440,14480,34,65728,65700,6,6,4,1460,319687,1,16778208,1380000,33580,0,98550,4344,0,0,2237472630,63
o,1734976282.316227,172.16.1.2,5103,172.16.5.2,63910,1073725440,14480,34,65728,65700,6,6,4,1460,319687,1,16778209,1380000,33580,0,98550,5792,0,0,2237472630,63
i,1734976282.317610,172.16.1.2,5103,172.16.5.2,63910,1073725440,14480,34,65728,65700,6,6,4,1460,319687,1,16778208,1380000,33580,0,98550,0,0,0,2237472630,63
i,1734976282.324934,172.16.1.2,5103,172.16.5.2,63910,1073725440,14480,34,65728,65700,6,6,4,1460,319687,1,16778208,1380000,33580,0,98550,0,0,0,2237472630,63
o,1734976282.324971,172.16.1.2,5103,172.16.5.2,63910,1073725440,14480,34,65728,65700,6,6,4,1460,319687,1,16778209,1380000,33580,0,98550,1448,0,0,2237472630,63
i,1734976282.328946,172.16.1.2,5103,172.16.5.2,63910,1073725440,14480,34,65728,65700,6,6,4,1460,319687,1,16778208,1380000,33580,0,98550,0,0,0,2237472630,63
i,1734976282.329083,172.16.1.2,5103,172.16.5.2,63910,1073725440,14480,34,65728,65700,6,6,4,1460,319687,1,16778208,1380000,33580,0,98550,1448,0,0,2237472630,63
o,1734976282.329287,172.16.1.2,5103,172.16.5.2,63910,1073725440,14480,34,65728,65700,6,6,4,1460,319687,1,16778209,1380000,33580,0,98550,2896,0,0,2237472630,63
i,1734976282.329597,172.16.1.2,5103,172.16.5.2,63910,1073725440,14480,34,65728,65700,6,6,4,1460,319687,1,16778208,1380000,33580,0,98550,2896,0,0,2237472630,63
i,1734976282.334611,172.16.1.2,5103,172.16.5.2,63910,1073725440,14480,34,65728,65700,6,6,4,1460,319687,1,16778208,1380000,33580,0,98550,0,0,0,2237472630,63
o,1734976282.334703,172.16.1.2,5103,172.16.5.2,63910,1073725440,14480,34,65728,65700,6,6,4,1460,319687,1,16778209,1380000,33580,0,98550,1448,0,0,2237472630,63
i,1734976282.335365,172.16.1.2,5103,172.16.5.2,63910,1073725440,14480,34,65728,65700,6,6,4,1460,319687,1,16778208,1380000,33580,0,98550,1448,0,0,2237472630,63
i,1734976282.335497,172.16.1.2,5103,172.16.5.2,63910,1073725440,14480,34,65728,65700,6,6,4,1460,319687,1,16778208,1380000,33580,0,98550,2896,0,0,2237472630,63
o,1734976282.335570,172.16.1.2,5103,172.16.5.2,63910,1073725440,14480,34,65728,65700,6,6,4,1460,319687,1,16778209,1380000,33580,0,98550,4344,0,0,2237472630,63
i,1734976282.338405,172.16.1.2,5103,172.16.5.2,63910,1073725440,14480,34,65728,65700,6,6,4,1460,319687,1,16778208,1380000,33580,0,98550,0,0,0,2237472630,63
i,1734976282.338694,172.16.1.2,5103,172.16.5.2,63910,1073725440,14480,34,65728,65700,6,6,4,1460,319687,1,16778208,1380000,33580,0,98550,1448,0,0,2237472630,63
o,1734976282.338782,172.16.1.2,5103,172.16.5.2,63910,1073725440,14480,34,65728,65700,6,6,4,1460,319687,1,16778209,1380000,33580,0,98550,2896,0,0,2237472630,63
i,1734976282.341932,172.16.1.2,5103,172.16.5.2,63910,1073725440,14480,34,65728,65700,6,6,4,1460,319687,1,16778208,1380000,33580,0,98550,0,0,0,2237472630,63
i,1734976282.342008,172.16.1.2,5103,172.16.5.2,63910,1073725440,14480,34,65728,65700,6,6,4,1460,319687,1,16778208,1380000,33580,0,98550,1448,0,0,2237472630,63
o,1734976282.342038,172.16.1.2,5103,172.16.5.2,63910,1073725440,14480,34,65728,65700,6,6,4,1460,319687,1,16778209,1380000,33580,0,98550,2896,0,0,2237472630,63
i,1734976282.342251,172.16.1.2,5103,172.16.5.2,63910,1073725440,14480,34,65728,65700,6,6,4,1460,319687,1,16778208,1380000,33580,0,98550,2896,0,0,2237472630,63
i,1734976282.346361,172.16.1.2,5103,172.16.5.2,63910,1073725440,14480,34,65728,65700,6,6,4,1460,319687,1,16778208,1380000,33580,0,98550,0,0,0,2237472630,63
o,1734976282.346443,172.16.1.2,5103,172.16.5.2,63910,1073725440,14480,34,65728,65700,6,6,4,1460,319687,1,16778209,1380000,33580,0,98550,1448,0,0,2237472630,63
i,1734976282.352572,172.16.1.2,5103,172.16.5.2,63910,1073725440,14480,34,65728,65700,6,6,4,1460,319687,1,16778208,1380000,33580,0,98550,0,0,0,2237472630,63
o,1734976282.353966,172.16.1.2,5101,172.16.3.2,28423,1073725440,14480,34,65728,65700,6,6,4,1460,306875,1,16778209,1480000,33580,0,65700,0,0,0,2843284215,63
o,1734976282.385403,172.16.1.2,5103,172.16.5.2,63910,1073725440,14480,34,65728,65700,6,6,4,1460,319687,1,16778209,1380000,33580,0,98550,0,0,0,2237472630,63
i,1734976282.431951,172.16.1.2,5103,172.16.5.2,63910,1073725440,14480,34,65728,65700,6,6,4,1460,319687,1,16778208,1380000,33580,0,98550,0,0,0,2237472630,63
i,1734976282.438420,172.16.1.2,5103,172.16.5.2,63910,1073725440,14480,34,65728,65700,6,6,4,1460,319687,1,16778208,1380000,33580,0,98550,0,0,0,2237472630,63
o,1734976282.438682,172.16.1.2,5103,172.16.5.2,63910,1073725440,14480,34,65728,65700,6,6,4,1460,319687,1,16778209,1380000,33580,0,98550,1448,0,0,2237472630,63
i,1734976282.439665,172.16.1.2,5103,172.16.5.2,63910,1073725440,14480,34,65728,65700,6,6,4,1460,319687,1,16778208,1380000,33580,0,98550,1448,0,0,2237472630,63
i,1734976282.439819,172.16.1.2,5103,172.16.5.2,63910,1073725440,14480,34,65728,65700,6,6,4,1460,319687,1,16778208,1380000,33580,0,98550,2896,0,0,2237472630,63
o,1734976282.439889,172.16.1.2,5103,172.16.5.2,63910,1073725440,14480,34,65728,65700,6,6,4,1460,319687,1,16778209,1380000,33580,0,98550,4344,0,0,2237472630,63
i,1734976282.440496,172.16.1.2,5103,172.16.5.2,63910,1073725440,14480,34,65728,65700,6,6,4,1460,319687,1,16778208,1380000,33580,0,98550,0,0,0,2237472630,63
i,1734976282.441664,172.16.1.2,5103,172.16.5.2,63910,1073725440,14480,34,65728,65700,6,6,4,1460,319687,1,16778208,1380000,33580,0,98550,0,0,0,2237472630,63
