enable_time_secs=1734976864	enable_time_usecs=754964	siftrver=1.3.0	sysname=FreeBSD	sysver=1401000	ipmode=4
o,1734976864.756466,10.0.2.15,22,192.168.56.1,54686,1073725440,18998,1026,65535,65700,0,0,4,1460,312,0,16777220,240000,33580,172,65700,0,0,0,755699618,63
i,1734976864.760112,10.0.2.15,22,192.168.56.1,54686,1073725440,18998,1026,65535,65700,0,0,4,1460,312,0,16777220,240000,33580,172,65700,0,172,0,755699618,63
o,1734976864.760154,10.0.2.15,22,192.168.56.1,54686,1073725440,18998,1026,65535,65700,0,0,4,1460,312,0,16777220,240000,33580,244,65700,0,172,0,755699618,63
i,1734976864.762267,10.0.2.15,22,192.168.56.1,54686,1073725440,19170,1026,65535,65700,0,0,4,1460,312,0,4,240000,33580,72,65700,0,72,0,755699618,63
i,1734976864.762267,10.0.2.15,22,192.168.56.1,54686,1073725440,19242,1026,65535,65700,0,0,4,1460,312,0,4,240000,33580,0,65700,0,0,0,755699618,63
o,1734976864.765678,10.0.2.15,22,192.168.56.1,54686,1073725440,19242,1026,65535,65700,0,0,6,1460,312,0,4,240000,33580,0,65700,0,0,0,755699618,63
i,1734976864.769124,10.0.2.15,22,192.168.56.1,54686,1073725440,19242,1026,65535,65700,0,0,6,1460,312,0,67108884,240000,33580,0,65700,0,1,0,755699618,63
i,1734976874.273954,10.0.2.15,22,192.168.56.1,54740,1073725440,14600,0,65535,65700,0,0,4,1460,312,0,16777216,250000,33580,0,65700,0,0,0,3546190762,63
o,1734976874.314159,10.0.2.15,22,192.168.56.1,54740,1073725440,14600,1026,65535,65700,0,0,4,1460,312,0,16777216,250000,33580,38,65700,42,0,0,3546190762,63
i,1734976874.320299,10.0.2.15,22,192.168.56.1,54740,1073725440,14600,1026,65535,65700,0,0,4,1460,312,0,16777216,250000,33580,1158,65700,0,38,0,3546190762,63
o,1734976874.320388,10.0.2.15,22,192.168.56.1,54740,1073725440,14638,1026,65535,65700,0,0,4,1460,312,0,16777216,230000,33580,1120,65700,0,0,0,3546190762,63
i,1734976874.321377,10.0.2.15,22,192.168.56.1,54740,1073725440,14638,1026,65535,65700,0,0,4,1460,312,0,16777216,230000,33580,1120,65700,0,1120,0,3546190762,63
i,1734976874.321452,10.0.2.15,22,192.168.56.1,54740,1073725440,14638,1026,65535,65700,0,0,4,1460,312,0,16777216,230000,33580,1120,65700,1460,1120,0,3546190762,63
o,1734976874.321522,10.0.2.15,22,192.168.56.1,54740,1073725440,14638,1026,65535,65700,0,0,4,1460,312,0,16777217,230000,33580,1120,65700,1536,1120,0,3546190762,63
i,1734976874.322146,10.0.2.15,22,192.168.56.1,54740,1073725440,14638,1026,65535,65700,0,0,4,1460,312,0,16777216,230000,33580,1120,65700,1536,1120,0,3546190762,63
i,1734976874.355543,10.0.2.15,22,192.168.56.1,54740,1073725440,15758,1026,65535,65700,0,0,4,1460,312,0,0,230000,33580,0,65700,0,0,0,3546190762,63
o,1734976874.385337,10.0.2.15,22,192.168.56.1,54740,1073725440,15758,1030,65535,65700,0,0,4,1460,312,0,16777216,230000,33580,1532,65700,0,0,0,3546190762,63
o,1734976874.385530,10.0.2.15,22,192.168.56.1,54740,1073725440,15758,1026,65535,65700,0,0,4,1460,312,0,16777216,230000,33580,1532,65700,0,1460,0,3546190762,63
i,1734976874.389099,10.0.2.15,22,192.168.56.1,54740,1073725440,15758,1026,65535,65700,0,0,4,1460,312,0,16777216,230000,33580,1532,65700,0,1532,0,3546190762,63
i,1734976874.405896,10.0.2.15,22,192.168.56.1,54740,1073725440,17290,1026,65535,65700,0,0,4,1460,312,0,0,230000,33580,0,65700,0,0,0,3546190762,63
o,1734976874.406240,10.0.2.15,22,192.168.56.1,54740,1073725440,17290,1026,65535,65700,0,0,4,1460,312,0,16777216,230000,33580,44,65700,0,0,0,3546190762,63
i,1734976874.411149,10.0.2.15,22,192.168.56.1,54740,1073725440,17290,1026,65535,65700,0,0,4,1460,312,0,16777216,230000,33580,44,65700,0,44,0,3546190762,63
o,1734976874.418609,10.0.2.15,22,192.168.56.1,54740,1073725440,17334,1026,65535,65700,0,0,4,1460,312,0,16777216,240000,33580,280,65700,0,0,0,3546190762,63
i,1734976874.422549,10.0.2.15,22,192.168.56.1,54740,1073725440,17334,1026,65535,65700,0,0,4,1460,312,0,16777216,240000,33580,280,65700,0,280,0,3546190762,63
o,1734976874.425265,10.0.2.15,22,192.168.56.1,54740,1073725440,17614,1026,65535,65700,0,0,4,1460,312,0,16777216,240000,33580,332,65700,0,0,0,3546190762,63
i,1734976874.430087,10.0.2.15,22,192.168.56.1,54740,1073725440,17614,1026,65535,65700,0,0,4,1460,312,0,16777216,240000,33580,332,65700,0,332,0,3546190762,63
i,1734976874.430175,10.0.2.15,22,192.168.56.1,54740,1073725440,17946,1026,65535,65700,0,0,4,1460,312,0,0,240000,33580,0,65700,0,0,0,3546190762,63
o,1734976874.447050,10.0.2.15,22,192.168.56.1,54740,1073725440,17946,1026,65535,65700,0,0,4,1460,312,0,16777216,240000,33580,28,65700,0,0,0,3546190762,63
i,1734976874.450549,10.0.2.15,22,192.168.56.1,54740,1073725440,17946,1026,65535,65700,0,0,4,1460,312,0,16777216,240000,33580,28,65700,0,28,0,3546190762,63
o,1734976874.455237,10.0.2.15,22,192.168.56.1,54740,1073725440,17974,1026,65535,65700,0,0,4,1460,312,0,16777216,240000,33580,768,65700,112,0,0,3546190762,63
i,1734976874.461109,10.0.2.15,22,192.168.56.1,54740,1073725440,17974,1026,65535,65700,0,0,4,1460,312,0,16777216,240000,33580,952,65700,0,768,0,3546190762,63
o,1734976874.461191,10.0.2.15,22,192.168.56.1,54740,1073725440,18742,1026,65535,65700,0,0,4,1460,312,0,16777216,240000,33580,184,65700,0,0,0,3546190762,63
i,1734976874.465568,10.0.2.15,22,192.168.56.1,54740,1073725440,18742,1026,65535,65700,0,0,4,1460,312,0,16777216,240000,33580,184,65700,0,184,0,3546190762,63
i,1734976874.465646,10.0.2.15,22,192.168.56.1,54740,1073725440,18926,1026,65535,65700,0,0,4,1460,312,0,0,230000,33580,0,65700,0,0,0,3546190762,63
o,1734976874.467265,10.0.2.15,22,192.168.56.1,54740,1073725440,18926,1026,65535,65700,0,0,4,1460,312,0,16777220,230000,33580,72,65700,0,0,0,3546190762,63
i,1734976874.472710,10.0.2.15,22,192.168.56.1,54740,1073725440,18926,1026,65535,65700,0,0,4,1460,312,0,16777220,230000,33580,72,65700,0,72,0,3546190762,63
o,1734976874.479218,10.0.2.15,22,192.168.56.1,54740,1073725440,18998,1026,65535,65700,0,0,4,1460,312,0,16777220,230000,33580,104,65700,0,0,0,3546190762,63
i,1734976874.481278,10.0.2.15,22,192.168.56.1,54740,1073725440,18998,1026,65535,65700,0,0,4,1460,312,0,16777220,230000,33580,104,65700,0,104,0,3546190762,63
o,1734976874.509593,10.0.2.15,22,192.168.56.1,54740,1073725440,19102,1026,65535,65700,0,0,4,1460,312,0,16777220,230000,33580,72,65700,0,0,0,3546190762,63
i,1734976874.514193,10.0.2.15,22,192.168.56.1,54740,1073725440,19102,1026,65535,65700,0,0,4,1460,312,0,16777220,230000,33580,72,65700,0,72,0,3546190762,63
i,1734976874.514756,10.0.2.15,22,192.168.56.1,54740,1073725440,19174,1026,65535,65700,0,0,4,1460,312,0,4,230000,33580,0,65700,0,0,0,3546190762,63
i,1734976874.519399,10.0.2.15,22,192.168.56.1,54668,1073725440,19175,1026,65535,65700,0,0,9,1460,312,0,67108884,230000,33580,0,65700,0,0,0,2550067251,63
i,1734976874.524065,10.0.2.15,22,192.168.56.1,54668,1073725440,19175,1026,65535,65700,0,0,9,1460,312,0,67108884,230000,33580,0,65700,0,0,0,2550067251,63
i,1734976874.524180,10.0.2.15,22,192.168.56.1,54756,1073725440,14600,0,65535,65700,0,0,4,1460,312,0,16777216,250000,33580,0,65700,0,0,0,3427598825,63
i,1734976874.524295,10.0.2.15,22,192.168.56.1,54670,1073725440,14600,0,65535,65700,0,0,4,1460,312,0,16777216,260000,33580,0,65700,0,0,0,3340112863,63
o,1734976874.524967,10.0.2.15,22,192.168.56.1,54740,1073725440,19174,1026,65535,65700,0,0,6,1460,312,0,4,230000,33580,0,65700,0,0,0,3546190762,63
i,1734976874.527395,10.0.2.15,22,192.168.56.1,54740,1073725440,19174,1026,65535,65700,0,0,6,1460,312,0,67108884,230000,33580,0,65700,0,1,0,3546190762,63
o,1734976874.564230,10.0.2.15,22,192.168.56.1,54670,1073725440,14600,2,65535,65700,0,0,4,1460,312,0,16777217,260000,33580,0,65700,42,0,0,3340112863,63
o,1734976874.565159,10.0.2.15,22,192.168.56.1,54756,1073725440,14600,2,65535,65700,0,0,4,1460,312,0,16777217,250000,33580,0,65700,42,0,0,3427598825,63
o,1734976874.568731,10.0.2.15,22,192.168.56.1,54756,1073725440,14600,1026,65535,65700,0,0,4,1460,312,0,16777216,250000,33580,38,65700,42,0,0,3427598825,63
o,1734976874.568757,10.0.2.15,22,192.168.56.1,54670,1073725440,14600,1026,65535,65700,0,0,4,1460,312,0,16777216,260000,33580,38,65700,42,0,0,3340112863,63
i,1734976874.573757,10.0.2.15,22,192.168.56.1,54756,1073725440,14600,1026,65535,65700,0,0,4,1460,312,0,16777216,250000,33580,38,65700,0,38,0,3427598825,63
i,1734976874.574013,10.0.2.15,22,192.168.56.1,54756,1073725440,14638,1026,65535,65700,0,0,4,1460,312,0,0,230000,33580,0,65700,0,0,0,3427598825,63
i,1734976874.574113,10.0.2.15,22,192.168.56.1,54756,1073725440,14638,1026,65535,65700,0,0,4,1460,312,0,0,230000,33580,0,65700,1460,0,0,3427598825,63
o,1734976874.574211,10.0.2.15,22,192.168.56.1,54756,1073725440,14638,1026,65535,65700,0,0,4,1460,312,0,1,230000,33580,0,65700,1536,0,0,3427598825,63
i,1734976874.574665,10.0.2.15,22,192.168.56.1,54670,1073725440,14600,1026,65535,65700,0,0,4,1460,312,0,16777216,260000,33580,1158,65700,0,38,0,3340112863,63
o,1734976874.574764,10.0.2.15,22,192.168.56.1,54670,1073725440,14638,1026,65535,65700,0,0,4,1460,312,0,16777216,230000,33580,1120,65700,0,0,0,3340112863,63
i,1734976874.575911,10.0.2.15,22,192.168.56.1,54670,1073725440,14638,1026,65535,65700,0,0,4,1460,312,0,16777216,230000,33580,1120,65700,0,1120,0,3340112863,63
i,1734976874.576048,10.0.2.15,22,192.168.56.1,54670,1073725440,14638,1026,65535,65700,0,0,4,1460,312,0,16777216,230000,33580,1120,65700,1460,1120,0,3340112863,63
o,1734976874.576132,10.0.2.15,22,192.168.56.1,54670,1073725440,14638,1026,65535,65700,0,0,4,1460,312,0,16777217,230000,33580,1120,65700,1536,1120,0,3340112863,63
i,1734976874.576551,10.0.2.15,22,192.168.56.1,54670,1073725440,14638,1026,65535,65700,0,0,4,1460,312,0,16777216,230000,33580,1120,65700,1536,1120,0,3340112863,63
o,1734976874.580263,10.0.2.15,22,192.168.56.1,54756,1073725440,14638,1026,65535,65700,0,0,4,1460,312,0,16777216,230000,33580,1120,65700,1536,0,0,3427598825,63
i,1734976874.584419,10.0.2.15,22,192.168.56.1,54756,1073725440,14638,1026,65535,65700,0,0,4,1460,312,0,16777216,230000,33580,1120,65700,0,1120,0,3427598825,63
i,1734976874.611880,10.0.2.15,22,192.168.56.1,54670,1073725440,15758,1026,65535,65700,0,0,4,1460,312,0,0,230000,33580,0,65700,0,0,0,3340112863,63
i,1734976874.628622,10.0.2.15,22,192.168.56.1,54756,1073725440,15758,1026,65535,65700,0,0,4,1460,312,0,0,230000,33580,0,65700,0,0,0,3427598825,63
o,1734976874.633175,10.0.2.15,22,192.168.56.1,54670,1073725440,15758,1030,65535,65700,0,0,4,1460,312,0,16777216,230000,33580,1532,65700,0,0,0,3340112863,63
o,1734976874.639958,10.0.2.15,22,192.168.56.1,54670,1073725440,15758,1026,65535,65700,0,0,4,1460,312,0,16777216,230000,33580,1532,65700,0,1460,0,3340112863,63
i,1734976874.642995,10.0.2.15,22,192.168.56.1,54670,1073725440,15758,1026,65535,65700,0,0,4,1460,312,0,16777216,230000,33580,1532,65700,0,1532,0,3340112863,63
i,1734976874.643396,10.0.2.15,22,192.168.56.1,54670,1073725440,17218,1026,65535,65700,0,0,4,1460,312,0,0,230000,33580,72,65700,0,72,0,3340112863,63
o,1734976874.653779,10.0.2.15,22,192.168.56.1,54756,1073725440,15758,1030,65535,65700,0,0,4,1460,312,0,16777216,230000,33580,1532,65700,0,0,0,3427598825,63
o,1734976874.654255,10.0.2.15,22,192.168.56.1,54756,1073725440,15758,1026,65535,65700,0,0,4,1460,312,0,16777216,230000,33580,1532,65700,0,1460,0,3427598825,63
i,1734976874.656248,10.0.2.15,22,192.168.56.1,54756,1073725440,15758,1026,65535,65700,0,0,4,1460,312,0,16777216,230000,33580,1532,65700,0,1532,0,3427598825,63
i,1734976874.658177,10.0.2.15,22,192.168.56.1,54670,1073725440,17290,1026,65535,65700,0,0,4,1460,312,0,0,230000,33580,0,65700,0,0,0,3340112863,63
o,1734976874.658915,10.0.2.15,22,192.168.56.1,54670,1073725440,17290,1026,65535,65700,0,0,4,1460,312,0,16777216,230000,33580,44,65700,0,0,0,3340112863,63
i,1734976874.664680,10.0.2.15,22,192.168.56.1,54670,1073725440,17290,1026,65535,65700,0,0,4,1460,312,0,16777216,230000,33580,44,65700,0,44,0,3340112863,63
o,1734976874.668447,10.0.2.15,22,192.168.56.1,54670,1073725440,17334,1026,65535,65700,0,0,4,1460,312,0,16777216,230000,33580,280,65700,0,0,0,3340112863,63
i,1734976874.671958,10.0.2.15,22,192.168.56.1,54670,1073725440,17334,1026,65535,65700,0,0,4,1460,312,0,16777216,230000,33580,280,65700,0,280,0,3340112863,63
i,1734976874.672044,10.0.2.15,22,192.168.56.1,54756,1073725440,17290,1026,65535,65700,0,0,4,1460,312,0,0,230000,33580,0,65700,0,0,0,3427598825,63
o,1734976874.672471,10.0.2.15,22,192.168.56.1,54756,1073725440,17290,1026,65535,65700,0,0,4,1460,312,0,16777216,230000,33580,44,65700,0,0,0,3427598825,63
o,1734976874.674454,10.0.2.15,22,192.168.56.1,54670,1073725440,17614,1026,65535,65700,0,0,4,1460,312,0,16777216,230000,33580,332,65700,0,0,0,3340112863,63
i,1734976874.675667,10.0.2.15,22,192.168.56.1,54756,1073725440,17290,1026,65535,65700,0,0,4,1460,312,0,16777216,230000,33580,44,65700,0,44,0,3427598825,63
i,1734976874.678120,10.0.2.15,22,192.168.56.1,54670,1073725440,17614,1026,65535,65700,0,0,4,1460,312,0,16777216,230000,33580,332,65700,0,332,0,3340112863,63
i,1734976874.678197,10.0.2.15,22,192.168.56.1,54670,1073725440,17946,1026,65535,65700,0,0,4,1460,312,0,0,240000,33580,0,65700,0,0,0,3340112863,63
o,1734976874.680051,10.0.2.15,22,192.168.56.1,54756,1073725440,17334,1026,65535,65700,0,0,4,1460,312,0,16777216,230000,33580,280,65700,0,0,0,3427598825,63
i,1734976874.684250,10.0.2.15,22,192.168.56.1,54756,1073725440,17334,1026,65535,65700,0,0,4,1460,312,0,16777216,230000,33580,280,65700,0,280,0,3427598825,63
o,1734976874.686399,10.0.2.15,22,192.168.56.1,54756,1073725440,17614,1026,65535,65700,0,0,4,1460,312,0,16777216,230000,33580,332,65700,0,0,0,3427598825,63
i,1734976874.692329,10.0.2.15,22,192.168.56.1,54756,1073725440,17614,1026,65535,65700,0,0,4,1460,312,0,16777216,230000,33580,332,65700,0,332,0,3427598825,63
i,1734976874.692431,10.0.2.15,22,192.168.56.1,54756,1073725440,17946,1026,65535,65700,0,0,4,1460,312,0,0,230000,33580,0,65700,0,0,0,3427598825,63
o,1734976874.695764,10.0.2.15,22,192.168.56.1,54670,1073725440,17946,1026,65535,65700,0,0,4,1460,312,0,16777216,240000,33580,28,65700,0,0,0,3340112863,63
i,1734976874.698502,10.0.2.15,22,192.168.56.1,54670,1073725440,17946,1026,65535,65700,0,0,4,1460,312,0,16777216,240000,33580,28,65700,0,28,0,3340112863,63
o,1734976874.700431,10.0.2.15,22,192.168.56.1,54670,1073725440,17974,1026,65535,65700,0,0,4,1460,312,0,16777216,240000,33580,768,65700,112,0,0,3340112863,63
i,1734976874.705444,10.0.2.15,22,192.168.56.1,54670,1073725440,17974,1026,65535,65700,0,0,4,1460,312,0,16777216,240000,33580,952,65700,0,768,0,3340112863,63
o,1734976874.705525,10.0.2.15,22,192.168.56.1,54670,1073725440,18742,1026,65535,65700,0,0,4,1460,312,0,16777216,230000,33580,184,65700,0,0,0,3340112863,63
i,1734976874.707473,10.0.2.15,22,192.168.56.1,54670,1073725440,18742,1026,65535,65700,0,0,4,1460,312,0,16777216,230000,33580,184,65700,0,184,0,3340112863,63
o,1734976874.708072,10.0.2.15,22,192.168.56.1,54756,1073725440,17946,1026,65535,65700,0,0,4,1460,312,0,16777216,230000,33580,28,65700,0,0,0,3427598825,63
i,1734976874.708763,10.0.2.15,22,192.168.56.1,54670,1073725440,18926,1026,65535,65700,0,0,4,1460,312,0,0,230000,33580,0,65700,0,0,0,3340112863,63
i,1734976874.710460,10.0.2.15,22,192.168.56.1,54756,1073725440,17946,1026,65535,65700,0,0,4,1460,312,0,16777216,230000,33580,28,65700,0,28,0,3427598825,63
o,1734976874.711704,10.0.2.15,22,192.168.56.1,54670,1073725440,18926,1026,65535,65700,0,0,4,1460,312,0,16777220,230000,33580,72,65700,0,0,0,3340112863,63
o,1734976874.713173,10.0.2.15,22,192.168.56.1,54756,1073725440,17974,1026,65535,65700,0,0,4,1460,312,0,16777216,230000,33580,768,65700,112,0,0,3427598825,63
i,1734976874.717954,10.0.2.15,22,192.168.56.1,54670,1073725440,18926,1026,65535,65700,0,0,4,1460,312,0,16777220,230000,33580,72,65700,0,72,0,3340112863,63
i,1734976874.720496,10.0.2.15,22,192.168.56.1,54756,1073725440,17974,1026,65535,65700,0,0,4,1460,312,0,16777216,230000,33580,952,65700,0,768,0,3427598825,63
o,1734976874.720574,10.0.2.15,22,192.168.56.1,54756,1073725440,18742,1026,65535,65700,0,0,4,1460,312,0,16777216,230000,33580,184,65700,0,0,0,3427598825,63
i,1734976874.722842,10.0.2.15,22,192.168.56.1,54756,1073725440,18742,1026,65535,65700,0,0,4,1460,312,0,16777216,230000,33580,184,65700,0,184,0,3427598825,63
i,1734976874.725130,10.0.2.15,22,192.168.56.1,54756,1073725440,18926,1026,65535,65700,0,0,4,1460,312,0,0,230000,33580,0,65700,0,0,0,3427598825,63
o,1734976874.727245,10.0.2.15,22,192.168.56.1,54756,1073725440,18926,1026,65535,65700,0,0,4,1460,312,0,16777220,230000,33580,72,65700,0,0,0,3427598825,63
i,1734976874.731272,10.0.2.15,22,192.168.56.1,54756,1073725440,18926,1026,65535,65700,0,0,4,1460,312,0,16777220,230000,33580,72,65700,0,72,0,3427598825,63
o,1734976874.739487,10.0.2.15,22,192.168.56.1,54670,1073725440,18998,1026,65535,65700,0,0,4,1460,312,0,16777220,230000,33580,124,65700,0,0,0,3340112863,63
i,1734976874.743150,10.0.2.15,22,192.168.56.1,54670,1073725440,18998,1026,65535,65700,0,0,4,1460,312,0,16777220,230000,33580,124,65700,0,124,0,3340112863,63
o,1734976874.745305,10.0.2.15,22,192.168.56.1,54670,1073725440,19122,1026,65535,65700,0,0,6,1460,312,0,4,230000,33580,0,65700,0,0,0,3340112863,63
i,1734976874.747629,10.0.2.15,22,192.168.56.1,54670,1073725440,19122,1026,65535,65700,0,0,6,1460,312,0,67108884,230000,33580,0,65700,0,1,0,3340112863,63
o,1734976874.751859,10.0.2.15,22,192.168.56.1,54756,1073725440,18998,1026,65535,65700,0,0,4,1460,312,0,16777220,240000,33580,176,65700,0,0,0,3427598825,63
i,1734976874.756271,10.0.2.15,22,192.168.56.1,54756,1073725440,18998,1026,65535,65700,0,0,4,1460,312,0,16777220,240000,33580,176,65700,0,176,0,3427598825,63
i,1734976874.756350,10.0.2.15,22,192.168.56.1,54756,1073725440,19174,1026,65535,65700,0,0,4,1460,312,0,4,230000,33580,0,65700,0,0,0,3427598825,63
o,1734976874.758202,10.0.2.15,22,192.168.56.1,54756,1073725440,19174,1026,65535,65700,0,0,6,1460,312,0,4,230000,33580,0,65700,0,0,0,3427598825,63
i,1734976874.760538,10.0.2.15,22,192.168.56.1,54756,1073725440,19174,1026,65535,65700,0,0,6,1460,312,0,67108884,230000,33580,0,65700,0,1,0,3427598825,63
i,1734976874.918129,172.16.1.2,5101,172.16.3.2,23770,1073725440,14480,32,65728,65700,6,6,4,1460,344062,1,16778208,1310000,33580,0,65700,0,0,0,3050393209,63
o,1734976874.918311,172.16.1.2,5101,172.16.3.2,23770,1073725440,14480,1058,65728,65700,6,6,4,1460,344062,1,16778212,1310000,33580,1,65700,0,0,0,3050393209,63
i,1734976874.920394,172.16.1.2,5103,172.16.5.2,37961,1073725440,14480,32,65728,65700,6,6,4,1460,348125,1,16778212,1490000,33580,0,65700,0,0,0,246550182,63
o,1734976874.920900,172.16.1.2,5103,172.16.5.2,37961,1073725440,14480,1058,65728,65700,6,6,4,1460,348125,1,16778212,1490000,33580,1,65700,0,0,0,246550182,63
i,1734976875.054510,172.16.1.2,5103,172.16.5.2,37961,1073725440,14480,1058,65728,65700,6,6,4,1460,348125,1,16778212,1490000,33580,1,65700,0,1,0,246550182,63
i,1734976875.054728,172.16.1.2,5103,172.16.5.2,37961,1073725440,14481,1058,65728,65728,6,6,4,1460,320937,1,996,1450000,33580,0,65700,4,0,0,246550182,63
o,1734976875.054861,172.16.1.2,5103,172.16.5.2,37961,1073725440,14481,1058,65728,65728,6,6,4,1460,320937,1,997,1450000,33580,0,65700,130,0,0,246550182,63
i,1734976875.055596,172.16.1.2,5101,172.16.3.2,23770,1073725440,14480,1058,65728,65700,6,6,4,1460,344062,1,16778212,1310000,33580,1,65700,0,1,0,3050393209,63
i,1734976875.055768,172.16.1.2,5101,172.16.3.2,23770,1073725440,14481,1058,65728,65728,6,6,4,1460,317500,1,996,1310000,33580,0,65700,4,0,0,3050393209,63
o,1734976875.055858,172.16.1.2,5101,172.16.3.2,23770,1073725440,14481,1058,65728,65728,6,6,4,1460,317500,1,997,1310000,33580,0,65700,151,0,0,3050393209,63
o,1734976875.055906,172.16.1.2,5103,172.16.5.2,37961,1073725440,14481,1058,65728,65728,6,6,4,1460,320937,1,16778212,1450000,33580,1,65700,0,0,0,246550182,63
o,1734976875.056379,10.0.2.15,22,192.168.56.1,54684,1073725440,14600,1026,65535,65700,0,0,4,1460,312,0,16777220,230000,33580,84,65700,0,0,0,2112089166,63
o,1734976875.058487,172.16.1.2,5101,172.16.3.2,23770,1073725440,14481,1058,65728,65728,6,6,4,1460,317500,1,16778212,1310000,33580,1,65700,0,0,0,3050393209,63
o,1734976875.059879,10.0.2.15,22,192.168.56.1,54666,1073725440,14600,1026,65535,65700,0,0,4,1460,312,0,16777220,240000,33580,84,65700,0,0,0,1868718633,63
i,1734976875.060623,10.0.2.15,22,192.168.56.1,54684,1073725440,14600,1026,65535,65700,0,0,4,1460,312,0,16777220,230000,33580,84,65700,0,84,0,2112089166,63
i,1734976875.061459,10.0.2.15,22,192.168.56.1,54666,1073725440,14600,1026,65535,65700,0,0,4,1460,312,0,16777220,240000,33580,84,65700,0,84,0,1868718633,63
i,1734976875.212227,172.16.1.2,5103,172.16.5.2,37961,1073725440,14481,1058,65728,65728,6,6,4,1460,320937,1,16778212,1450000,33580,1,65700,0,1,0,246550182,63
i,1734976875.213896,172.16.1.2,5101,172.16.3.2,23770,1073725440,14481,1058,65728,65728,6,6,4,1460,317500,1,16778212,1310000,33580,1,65700,0,1,0,3050393209,63
i,1734976875.355798,172.16.1.2,5101,172.16.3.2,36702,1073725440,14480,32,65728,65700,6,6,4,1460,344062,1,16778208,1310000,33580,0,65700,0,0,0,3082452188,63
i,1734976875.358697,172.16.1.2,5103,172.16.5.2,57359,1073725440,14480,32,65728,65700,6,6,4,1460,344375,1,16778208,1520000,33580,0,65700,0,0,0,3697556231,63
o,1734976875.369152,172.16.1.2,5101,172.16.3.2,23770,1073725440,14482,1058,65728,65728,6,6,4,1460,297812,1,16778212,1250000,33580,1,65700,0,0,0,3050393209,63
o,1734976875.370422,172.16.1.2,5101,172.16.3.2,23770,1073725440,14482,1058,65728,65728,6,6,4,1460,297812,1,16778212,1250000,33580,2,65700,0,1,0,3050393209,63
o,1734976875.372392,10.0.2.15,22,192.168.56.1,54666,1073725440,14600,1026,65535,65700,0,0,4,1460,312,0,16777220,240000,33580,108,65700,0,0,0,1868718633,63
i,1734976875.378219,10.0.2.15,22,192.168.56.1,54666,1073725440,14600,1026,65535,65700,0,0,4,1460,312,0,16777220,240000,33580,108,65700,0,108,0,1868718633,63
o,1734976875.379602,10.0.2.15,22,192.168.56.1,54684,1073725440,14600,1026,65535,65700,0,0,4,1460,312,0,16777220,230000,33580,108,65700,0,0,0,2112089166,63
o,1734976875.380197,172.16.1.2,5103,172.16.5.2,37961,1073725440,14482,1058,65728,65728,6,6,4,1460,299687,1,16778212,1360000,33580,1,65700,0,0,0,246550182,63
o,1734976875.381350,172.16.1.2,5103,172.16.5.2,37961,1073725440,14482,1058,65728,65728,6,6,4,1460,299687,1,16778212,1360000,33580,2,65700,0,1,0,246550182,63
i,1734976875.382175,10.0.2.15,22,192.168.56.1,54684,1073725440,14600,1026,65535,65700,0,0,4,1460,312,0,16777220,230000,33580,108,65700,0,108,0,2112089166,63
o,1734976875.396006,172.16.1.2,5103,172.16.5.2,57359,1073725440,14480,34,65728,65700,6,6,4,1460,344375,1,16778209,1520000,33580,0,65700,0,0,0,3697556231,63
o,1734976875.396708,172.16.1.2,5101,172.16.3.2,36702,1073725440,14480,34,65728,65700,6,6,4,1460,344062,1,16778209,1310000,33580,0,65700,0,0,0,3082452188,63
i,1734976875.506301,172.16.1.2,5103,172.16.5.2,57359,1073725440,14480,34,65728,65700,6,6,4,1460,344375,1,16778208,1520000,33580,0,65700,0,0,0,3697556231,63
i,1734976875.506445,172.16.1.2,5103,172.16.5.2,57359,1073725440,14480,34,65728,65700,6,6,4,1460,344375,1,16778208,1520000,33580,0,65700,1448,0,0,3697556231,63
o,1734976875.506525,172.16.1.2,5103,172.16.5.2,57359,1073725440,14480,34,65728,65700,6,6,4,1460,344375,1,16778209,1520000,33580,0,65700,2896,0,0,3697556231,63
i,1734976875.507121,172.16.1.2,5103,172.16.5.2,57359,1073725440,14480,34,65728,65700,6,6,4,1460,344375,1,16778208,1520000,33580,0,65700,0,0,0,3697556231,63
i,1734976875.510372,172.16.1.2,5103,172.16.5.2,57359,1073725440,14480,34,65728,65700,6,6,4,1460,344375,1,16778208,1520000,33580,0,65700,0,0,0,3697556231,63
o,1734976875.510423,172.16.1.2,5103,172.16.5.2,57359,1073725440,14480,34,65728,65700,6,6,4,1460,344375,1,16778209,1520000,33580,0,65700,1448,0,0,3697556231,63
i,1734976875.511131,172.16.1.2,5103,172.16.5.2,57359,1073725440,14480,34,65728,65700,6,6,4,1460,344375,1,16778208,1520000,33580,0,65700,1448,0,0,3697556231,63
o,1734976875.545919,172.16.1.2,5103,172.16.5.2,57359,1073725440,14480,34,65728,65700,6,6,4,1460,344375,1,16778209,1520000,33580,0,65700,0,0,0,3697556231,63
i,1734976875.593155,172.16.1.2,5103,172.16.5.2,57359,1073725440,14480,34,65728,65700,6,6,4,1460,344375,1,16778208,1520000,33580,0,65700,0,0,0,3697556231,63
i,1734976875.593770,172.16.1.2,5103,172.16.5.2,57359,1073725440,14480,34,65728,65700,6,6,4,1460,344375,1,16778208,1520000,33580,0,65700,1448,0,0,3697556231,63
o,1734976875.593852,172.16.1.2,5103,172.16.5.2,57359,1073725440,14480,34,65728,65700,6,6,4,1460,344375,1,16778209,1520000,33580,0,65700,2896,0,0,3697556231,63
i,1734976875.606414,172.16.1.2,5103,172.16.5.2,57359,1073725440,14480,34,65728,65700,6,6,4,1460,344375,1,16778208,1520000,33580,0,65700,0,0,0,3697556231,63
i,1734976875.606596,172.16.1.2,5103,172.16.5.2,57359,1073725440,14480,34,65728,65700,6,6,4,1460,344375,1,16778208,1520000,33580,0,65700,1448,0,0,3697556231,63
o,1734976875.606688,172.16.1.2,5103,172.16.5.2,57359,1073725440,14480,34,65728,65700,6,6,4,1460,344375,1,16778209,1520000,33580,0,65700,2896,0,0,3697556231,63
i,1734976875.607294,172.16.1.2,5103,172.16.5.2,37961,1073725440,14482,1058,65728,65728,6,6,4,1460,299687,1,16778212,1360000,33580,2,65700,0,2,0,246550182,63
i,1734976875.607567,172.16.1.2,5103,172.16.5.2,57359,1073725440,14480,34,65728,65700,6,6,4,1460,344375,1,16778208,1520000,33580,0,65700,2896,0,0,3697556231,63
i,1734976875.610935,172.16.1.2,5101,172.16.3.2,23770,1073725440,14482,1058,65728,65728,6,6,4,1460,297812,1,16778212,1250000,33580,2,65700,0,2,0,3050393209,63
i,1734976875.611078,172.16.1.2,5101,172.16.3.2,36702,1073725440,14480,34,65728,65700,6,6,4,1460,344062,1,16778208,1310000,33580,0,65700,0,0,0,3082452188,63
i,1734976875.612781,172.16.1.2,5101,172.16.3.2,36702,1073725440,14480,34,65728,65700,6,6,4,1460,344062,1,16778208,1310000,33580,0,65700,0,0,0,3082452188,63
o,1734976875.612903,172.16.1.2,5101,172.16.3.2,36702,1073725440,14480,34,65728,65700,6,6,4,1460,344062,1,16778209,1310000,33580,0,65700,1448,0,0,3082452188,63
i,1734976875.614058,172.16.1.2,5101,172.16.3.2,36702,1073725440,14480,34,65728,65700,6,6,4,1460,344062,1,16778208,1310000,33580,0,65700,1448,0,0,3082452188,63
i,1734976875.616090,172.16.1.2,5101,172.16.3.2,36702,1073725440,14480,34,65728,65700,6,6,4,1460,344062,1,16778208,1310000,33580,0,65700,0,0,0,3082452188,63
o,1734976875.616417,172.16.1.2,5101,172.16.3.2,36702,1073725440,14480,34,65728,65700,6,6,4,1460,344062,1,16778209,1310000,33580,0,65700,1448,0,0,3082452188,63
i,1734976875.625680,172.16.1.2,5101,172.16.3.2,36702,1073725440,14480,34,65728,65700,6,6,4,1460,344062,1,16778208,1310000,33580,0,65700,0,0,0,3082452188,63
i,1734976875.625949,172.16.1.2,5101,172.16.3.2,36702,1073725440,14480,34,65728,65700,6,6,4,1460,344062,1,16778208,1310000,33580,0,65700,1448,0,0,3082452188,63
o,1734976875.626076,172.16.1.2,5101,172.16.3.2,36702,1073725440,14480,34,65728,65700,6,6,4,1460,344062,1,16778209,1310000,33580,0,65700,2896,0,0,3082452188,63
i,1734976875.626686,172.16.1.2,5101,172.16.3.2,36702,1073725440,14480,34,65728,65700,6,6,4,1460,344062,1,16778208,1310000,33580,0,65700,2896,0,0,3082452188,63
i,1734976875.628696,172.16.1.2,5101,172.16.3.2,36702,1073725440,14480,34,65728,65700,6,6,4,1460,344062,1,16778208,1310000,33580,0,65700,0,0,0,3082452188,63
o,1734976875.628813,172.16.1.2,5101,172.16.3.2,36702,1073725440,14480,34,65728,65700,6,6,4,1460,344062,1,16778209,1310000,33580,0,65700,1448,0,0,3082452188,63
i,1734976875.629404,172.16.1.2,5101,172.16.3.2,36702,1073725440,14480,34,65728,65700,6,6,4,1460,344062,1,16778208,1310000,33580,0,65700,1448,0,0,3082452188,63
o,1734976875.645516,172.16.1.2,5103,172.16.5.2,57359,1073725440,14480,34,65728,65700,6,6,4,1460,344375,1,16778209,1520000,33580,0,65700,0,0,0,3697556231,63
o,1734976875.668015,172.16.1.2,5101,172.16.3.2,36702,1073725440,14480,34,65728,65700,6,6,4,1460,344062,1,16778209,1310000,33580,0,65700,0,0,0,3082452188,63
i,1734976875.707546,172.16.1.2,5101,172.16.3.2,36702,1073725440,14480,34,65728,65700,6,6,4,1460,344062,1,16778208,1310000,33580,0,65700,0,0,0,3082452188,63
o,1734976875.749001,172.16.1.2,5101,172.16.3.2,36702,1073725440,14480,34,65728,65700,6,6,4,1460,344062,1,16778209,1310000,33580,0,65700,0,0,0,3082452188,63
i,1734976875.800058,172.16.1.2,5103,172.16.5.2,57359,1073725440,14480,34,65728,65700,6,6,4,1460,344375,1,16778208,1520000,33580,0,65700,0,0,0,3697556231,63
i,1734976875.802281,172.16.1.2,5103,172.16.5.2,57359,1073725440,14480,34,65728,65700,6,6,4,1460,344375,1,16778208,1520000,33580,0,65700,0,0,0,3697556231,63
o,1734976875.802556,172.16.1.2,5103,172.16.5.2,57359,1073725440,14480,34,65728,65700,6,6,4,1460,344375,1,16778209,1520000,33580,0,65700,1448,0,0,3697556231,63
i,1734976875.802808,172.16.1.2,5103,172.16.5.2,57359,1073725440,14480,34,65728,65700,6,6,4,1460,344375,1,16778208,1520000,33580,0,65700,1448,0,0,3697556231,63
i,1734976875.806639,172.16.1.2,5103,172.16.5.2,57359,1073725440,14480,34,65728,65700,6,6,4,1460,344375,1,16778208,1520000,33580,0,65700,0,0,0,3697556231,63
o,1734976875.806726,172.16.1.2,5103,172.16.5.2,57359,1073725440,14480,34,65728,65700,6,6,4,1460,344375,1,16778209,1520000,33580,0,65700,1448,0,0,3697556231,63
i,1734976875.825396,172.16.1.2,5101,172.16.3.2,36702,1073725440,14480,34,65728,65700,6,6,4,1460,344062,1,16778208,1310000,33580,0,65700,0,0,0,3082452188,63
i,1734976875.825538,172.16.1.2,5101,172.16.3.2,36702,1073725440,14480,34,65728,65700,6,6,4,1460,344062,1,16778208,1310000,33580,0,65700,1448,0,0,3082452188,63
o,1734976875.825617,172.16.1.2,5101,172.16.3.2,36702,1073725440,14480,34,65728,65700,6,6,4,1460,344062,1,16778209,1310000,33580,0,65700,2896,0,0,3082452188,63
i,1734976875.826188,172.16.1.2,5103,172.16.5.2,57359,1073725440,14480,34,65728,65700,6,6,4,1460,344375,1,16778208,1520000,33580,0,65700,0,0,0,3697556231,63
i,1734976875.826321,172.16.1.2,5101,172.16.3.2,36702,1073725440,14480,34,65728,65700,6,6,4,1460,344062,1,16778208,1310000,33580,0,65700,2896,0,0,3082452188,63
i,1734976875.826449,172.16.1.2,5103,172.16.5.2,57359,1073725440,14480,34,65728,65700,6,6,4,1460,344375,1,16778208,1520000,33580,0,65700,1448,0,0,3697556231,63
o,1734976875.826521,172.16.1.2,5103,172.16.5.2,57359,1073725440,14480,34,65728,65700,6,6,4,1460,344375,1,16778209,1520000,33580,0,65700,2896,0,0,3697556231,63
i,1734976875.827163,172.16.1.2,5103,172.16.5.2,57359,1073725440,14480,34,65728,65700,6,6,4,1460,344375,1,16778208,1520000,33580,0,65700,2896,0,0,3697556231,63
i,1734976875.827292,172.16.1.2,5101,172.16.3.2,36702,1073725440,14480,34,65728,65700,6,6,4,1460,344062,1,16778208,1310000,33580,0,65700,4344,0,0,3082452188,63
o,1734976875.827401,172.16.1.2,5101,172.16.3.2,36702,1073725440,14480,34,65728,65700,6,6,4,1460,344062,1,16778209,1310000,33580,0,65700,5792,0,0,3082452188,63
i,1734976875.827947,172.16.1.2,5103,172.16.5.2,57359,1073725440,14480,34,65728,65700,6,6,4,1460,344375,1,16778208,1520000,33580,0,65700,4344,0,0,3697556231,63
o,1734976875.828020,172.16.1.2,5103,172.16.5.2,57359,1073725440,14480,34,65728,65700,6,6,4,1460,344375,1,16778209,1520000,33580,0,65700,5792,0,0,3697556231,63
i,1734976875.828541,172.16.1.2,5103,172.16.5.2,57359,1073725440,14480,34,65728,65700,6,6,4,1460,344375,1,16778208,1520000,33580,0,65700,5792,0,0,3697556231,63
i,1734976875.828671,172.16.1.2,5101,172.16.3.2,36702,1073725440,14480,34,65728,65700,6,6,4,1460,344062,1,16778208,1310000,33580,0,65700,0,0,0,3082452188,63
i,1734976875.835411,172.16.1.2,5103,172.16.5.2,57359,1073725440,14480,34,65728,65700,6,6,4,1460,344375,1,16778208,1520000,33580,0,65700,0,0,0,3697556231,63
o,1734976875.835505,172.16.1.2,5103,172.16.5.2,57359,1073725440,14480,34,65728,65700,6,6,4,1460,344375,1,16778209,1520000,33580,0,65700,1448,0,0,3697556231,63
i,1734976875.845389,172.16.1.2,5103,172.16.5.2,57359,1073725440,14480,34,65728,65700,6,6,4,1460,344375,1,16778208,1520000,33580,0,65700,0,0,0,3697556231,63
i,1734976875.845560,172.16.1.2,5103,172.16.5.2,57359,1073725440,14480,34,65728,65700,6,6,4,1460,344375,1,16778208,1520000,33580,0,65700,1448,0,0,3697556231,63
o,1734976875.845657,172.16.1.2,5103,172.16.5.2,57359,1073725440,14480,34,65728,65700,6,6,4,1460,344375,1,16778209,1520000,33580,0,65700,2896,0,0,3697556231,63
i,1734976875.846541,172.16.1.2,5101,172.16.3.2,36702,1073725440,14480,34,65728,65700,6,6,4,1460,344062,1,16778208,1310000,33580,0,65700,0,0,0,3082452188,63
o,1734976875.846691,172.16.1.2,5101,172.16.3.2,36702,1073725440,14480,34,65728,65700,6,6,4,1460,344062,1,16778209,1310000,33580,0,65700,1448,0,0,3082452188,63
i,1734976875.847253,172.16.1.2,5101,172.16.3.2,36702,1073725440,14480,34,65728,65700,6,6,4,1460,344062,1,16778208,1310000,33580,0,65700,1448,0,0,3082452188,63
i,1734976875.847403,172.16.1.2,5103,172.16.5.2,57359,1073725440,14480,34,65728,65700,6,6,4,1460,344375,1,16778208,1520000,33580,0,65700,2896,0,0,3697556231,63
i,1734976875.847460,172.16.1.2,5103,172.16.5.2,57359,1073725440,14480,34,65728,65700,6,6,4,1460,344375,1,16778208,1520000,33580,0,65700,4344,0,0,3697556231,63
o,1734976875.847515,172.16.1.2,5103,172.16.5.2,57359,1073725440,14480,34,65728,65700,6,6,4,1460,344375,1,16778209,1520000,33580,0,65700,5792,0,0,3697556231,63
i,1734976875.848076,172.16.1.2,5101,172.16.3.2,36702,1073725440,14480,34,65728,65700,6,6,4,1460,344062,1,16778208,1310000,33580,0,65700,2896,0,0,3082452188,63
o,1734976875.848152,172.16.1.2,5101,172.16.3.2,36702,1073725440,14480,34,65728,65700,6,6,4,1460,344062,1,16778209,1310000,33580,0,65700,4344,0,0,3082452188,63
i,1734976875.849349,172.16.1.2,5103,172.16.5.2,57359,1073725440,14480,34,65728,65700,6,6,4,1460,344375,1,16778208,1520000,33580,0,65700,5792,0,0,3697556231,63
i,1734976875.849478,172.16.1.2,5103,172.16.5.2,57359,1073725440,14480,34,65728,65700,6,6,4,1460,344375,1,16778208,1520000,33580,0,65700,7240,0,0,3697556231,63
o,1734976875.849550,172.16.1.2,5103,172.16.5.2,57359,1073725440,14480,34,65728,65700,6,6,4,1460,344375,1,16778209,1520000,33580,0,65700,8688,0,0,3697556231,63
i,1734976875.850090,172.16.1.2,5101,172.16.3.2,36702,1073725440,14480,34,65728,65700,6,6,4,1460,344062,1,16778208,1310000,33580,0,65700,4344,0,0,3082452188,63
i,1734976875.850218,172.16.1.2,5103,172.16.5.2,57359,1073725440,14480,34,65728,65700,6,6,4,1460,344375,1,16778208,1520000,33580,0,65700,8688,0,0,3697556231,63
i,1734976875.850363,172.16.1.2,5103,172.16.5.2,57359,1073725440,14480,34,65728,65700,6,6,4,1460,344375,1,16778208,1520000,33580,0,65700,10136,0,0,3697556231,63
o,1734976875.850433,172.16.1.2,5103,172.16.5.2,57359,1073725440,14480,34,65728,65700,6,6,4,1460,344375,1,16778209,1520000,33580,0,65700,11584,0,0,3697556231,63
i,1734976875.855056,172.16.1.2,5101,172.16.3.2,36702,1073725440,14480,34,65728,65700,6,6,4,1460,344062,1,16778208,1310000,33580,0,65700,0,0,0,3082452188,63
o,1734976875.855139,172.16.1.2,5101,172.16.3.2,36702,1073725440,14480,34,65728,65700,6,6,4,1460,344062,1,16778209,1310000,33580,0,65700,1448,0,0,3082452188,63
i,1734976875.855568,172.16.1.2,5103,172.16.5.2,57359,1073725440,14480,34,65728,65700,6,6,4,1460,344375,1,16778208,1520000,33580,0,65700,0,0,0,3697556231,63
i,1734976875.855691,172.16.1.2,5103,172.16.5.2,57359,1073725440,14480,34,65728,65700,6,6,4,1460,344375,1,16778208,1520000,33580,0,65700,1448,0,0,3697556231,63
o,1734976875.855721,172.16.1.2,5103,172.16.5.2,57359,1073725440,14480,34,65728,65700,6,6,4,1460,344375,1,16778209,1520000,33580,0,65700,2896,0,0,3697556231,63
i,1734976875.855944,172.16.1.2,5101,172.16.3.2,36702,1073725440,14480,34,65728,65700,6,6,4,1460,344062,1,16778208,1310000,33580,0,65700,1448,0,0,3082452188,63
i,1734976875.856928,172.16.1.2,5101,172.16.3.2,36702,1073725440,14480,34,65728,65700,6,6,4,1460,344062,1,16778208,1310000,33580,0,65700,2896,0,0,3082452188,63
o,1734976875.857043,172.16.1.2,5101,172.16.3.2,36702,1073725440,14480,34,65728,65700,6,6,4,1460,344062,1,16778209,1310000,33580,0,65700,4344,0,0,3082452188,63
i,1734976875.857591,172.16.1.2,5101,172.16.3.2,36702,1073725440,14480,34,65728,65700,6,6,4,1460,344062,1,16778208,1310000,33580,0,65700,4344,0,0,3082452188,63
i,1734976875.857720,172.16.1.2,5101,172.16.3.2,36702,1073725440,14480,34,65728,65700,6,6,4,1460,344062,1,16778208,1310000,33580,0,65700,5792,0,0,3082452188,63
o,1734976875.857792,172.16.1.2,5101,172.16.3.2,36702,1073725440,14480,34,65728,65700,6,6,4,1460,344062,1,16778209,1310000,33580,0,65700,7240,0,0,3082452188,63
i,1734976875.865109,172.16.1.2,5101,172.16.3.2,36702,1073725440,14480,34,65728,65700,6,6,4,1460,344062,1,16778208,1310000,33580,0,65700,0,0,0,3082452188,63
i,1734976875.865248,172.16.1.2,5101,172.16.3.2,36702,1073725440,14480,34,65728,65700,6,6,4,1460,344062,1,16778208,1310000,33580,0,65700,1448,0,0,3082452188,63
o,1734976875.865324,172.16.1.2,5101,172.16.3.2,36702,1073725440,14480,34,65728,65700,6,6,4,1460,344062,1,16778209,1310000,33580,0,65700,2896,0,0,3082452188,63
i,1734976875.865965,172.16.1.2,5101,172.16.3.2,36702,1073725440,14480,34,65728,65700,6,6,4,1460,344062,1,16778208,1310000,33580,0,65700,2896,0,0,3082452188,63
i,1734976875.866203,172.16.1.2,5101,172.16.3.2,36702,1073725440,14480,34,65728,65700,6,6,4,1460,344062,1,16778208,1310000,33580,0,65700,4344,0,0,3082452188,63
o,1734976875.866277,172.16.1.2,5101,172.16.3.2,36702,1073725440,14480,34,65728,65700,6,6,4,1460,344062,1,16778209,1310000,33580,0,65700,5792,0,0,3082452188,63
i,1734976875.969359,172.16.1.2,5103,172.16.5.2,57359,1073725440,14480,34,65728,65700,6,6,4,1460,344375,1,16778208,1520000,33580,0,65700,0,0,0,3697556231,63
i,1734976875.978542,172.16.1.2,5103,172.16.5.2,57359,1073725440,14480,34,65728,65700,6,6,4,1460,344375,1,16778208,1520000,33580,0,65700,0,0,0,3697556231,63
o,1734976875.978660,172.16.1.2,5103,172.16.5.2,57359,1073725440,14480,34,65728,65700,6,6,4,1460,344375,1,16778209,1520000,33580,0,98550,1448,0,0,3697556231,63
i,1734976875.979227,172.16.1.2,5103,172.16.5.2,57359,1073725440,14480,34,65728,65700,6,6,4,1460,344375,1,16778208,1520000,33580,0,98550,0,0,0,3697556231,63
i,1734976875.982498,172.16.1.2,5103,172.16.5.2,57359,1073725440,14480,34,65728,65700,6,6,4,1460,344375,1,16778208,1520000,33580,0,98550,0,0,0,3697556231,63
o,1734976875.982724,172.16.1.2,5103,172.16.5.2,57359,1073725440,14480,34,65728,65700,6,6,4,1460,344375,1,16778209,1520000,33580,0,98550,1448,0,0,3697556231,63
i,1734976875.984365,172.16.1.2,5103,172.16.5.2,57359,1073725440,14480,34,65728,65700,6,6,4,1460,344375,1,16778208,1520000,33580,0,98550,1448,0,0,3697556231,63
i,1734976876.002394,172.16.1.2,5101,172.16.3.2,36702,1073725440,14480,34,65728,65700,6,6,4,1460,344062,1,16778208,1310000,33580,0,65700,0,0,0,3082452188,63
i,1734976876.002515,172.16.1.2,5103,172.16.5.2,57359,1073725440,14480,34,65728,65700,6,6,4,1460,344375,1,16778208,1520000,33580,0,98550,0,0,0,3697556231,63
o,1734976876.002551,172.16.1.2,5103,172.16.5.2,57359,1073725440,14480,34,65728,65700,6,6,4,1460,344375,1,16778209,1520000,33580,0,98550,1448,0,0,3697556231,63
i,1734976876.006081,172.16.1.2,5103,172.16.5.2,57359,1073725440,14480,34,65728,65700,6,6,4,1460,344375,1,16778208,1520000,33580,0,98550,0,0,0,3697556231,63
i,1734976876.006220,172.16.1.2,5101,172.16.3.2,36702,1073725440,14480,34,65728,65700,6,6,4,1460,344062,1,16778208,1310000,33580,0,65700,1448,0,0,3082452188,63
o,1734976876.006367,172.16.1.2,5101,172.16.3.2,36702,1073725440,14480,34,65728,65700,6,6,4,1460,344062,1,16778209,1310000,33580,0,98550,1448,0,0,3082452188,63
i,1734976876.011149,172.16.1.2,5103,172.16.5.2,57359,1073725440,14480,34,65728,65700,6,6,4,1460,344375,1,16778208,1520000,33580,0,98550,0,0,0,3697556231,63
o,1734976876.011232,172.16.1.2,5103,172.16.5.2,57359,1073725440,14480,34,65728,65700,6,6,4,1460,344375,1,16778209,1520000,33580,0,98550,1448,0,0,3697556231,63
i,1734976876.011852,172.16.1.2,5103,172.16.5.2,57359,1073725440,14480,34,65728,65700,6,6,4,1460,344375,1,16778208,1520000,33580,0,98550,1448,0,0,3697556231,63
i,1734976876.012028,172.16.1.2,5101,172.16.3.2,36702,1073725440,14480,34,65728,65700,6,6,4,1460,344062,1,16778208,1310000,33580,0,98550,0,0,0,3082452188,63
i,1734976876.012097,172.16.1.2,5103,172.16.5.2,57359,1073725440,14480,34,65728,65700,6,6,4,1460,344375,1,16778208,1520000,33580,0,98550,2896,0,0,3697556231,63
o,1734976876.012170,172.16.1.2,5103,172.16.5.2,57359,1073725440,14480,34,65728,65700,6,6,4,1460,344375,1,16778209,1520000,33580,0,98550,4344,0,0,3697556231,63
i,1734976876.012613,172.16.1.2,5103,172.16.5.2,57359,1073725440,14480,34,65728,65700,6,6,4,1460,344375,1,16778208,1520000,33580,0,98550,4344,0,0,3697556231,63
i,1734976876.012688,172.16.1.2,5101,172.16.3.2,36702,1073725440,14480,34,65728,65700,6,6,4,1460,344062,1,16778208,1310000,33580,0,98550,1448,0,0,3082452188,63
o,1734976876.012717,172.16.1.2,5101,172.16.3.2,36702,1073725440,14480,34,65728,65700,6,6,4,1460,344062,1,16778209,1310000,33580,0,98550,2896,0,0,3082452188,63
i,1734976876.012965,172.16.1.2,5103,172.16.5.2,57359,1073725440,14480,34,65728,65700,6,6,4,1460,344375,1,16778208,1520000,33580,0,98550,5792,0,0,3697556231,63
o,1734976876.012995,172.16.1.2,5103,172.16.5.2,57359,1073725440,14480,34,65728,65700,6,6,4,1460,344375,1,16778209,1520000,33580,0,98550,7240,0,0,3697556231,63
i,1734976876.014155,172.16.1.2,5101,172.16.3.2,36702,1073725440,14480,34,65728,65700,6,6,4,1460,344062,1,16778208,1310000,33580,0,98550,2896,0,0,3082452188,63
i,1734976876.014217,172.16.1.2,5101,172.16.3.2,36702,1073725440,14480,34,65728,65700,6,6,4,1460,344062,1,16778208,1310000,33580,0,98550,4344,0,0,3082452188,63
o,1734976876.014252,172.16.1.2,5101,172.16.3.2,36702,1073725440,14480,34,65728,65700,6,6,4,1460,344062,1,16778209,1310000,33580,0,98550,5792,0,0,3082452188,63
i,1734976876.014565,172.16.1.2,5101,172.16.3.2,36702,1073725440,14480,34,65728,65700,6,6,4,1460,344062,1,16778208,1310000,33580,0,98550,5792,0,0,3082452188,63
i,1734976876.014689,172.16.1.2,5103,172.16.5.2,57359,1073725440,14480,34,65728,65700,6,6,4,1460,344375,1,16778208,1520000,33580,0,98550,7240,0,0,3697556231,63
i,1734976876.014750,172.16.1.2,5101,172.16.3.2,36702,1073725440,14480,34,65728,65700,6,6,4,1460,344062,1,16778208,1310000,33580,0,98550,7240,0,0,3082452188,63
o,1734976876.014784,172.16.1.2,5101,172.16.3.2,36702,1073725440,14480,34,65728,65700,6,6,4,1460,344062,1,16778209,1310000,33580,0,98550,8688,0,0,3082452188,63
i,1734976876.015180,172.16.1.2,5103,172.16.5.2,57359,1073725440,14480,34,65728,65700,6,6,4,1460,344375,1,16778208,1520000,33580,0,98550,8688,0,0,3697556231,63
o,1734976876.015253,172.16.1.2,5103,172.16.5.2,57359,1073725440,14480,34,65728,65700,6,6,4,1460,344375,1,16778209,1520000,33580,0,98550,10136,0,0,3697556231,63
i,1734976876.015803,172.16.1.2,5103,172.16.5.2,57359,1073725440,14480,34,65728,65700,6,6,4,1460,344375,1,16778208,1520000,33580,0,98550,10136,0,0,3697556231,63
i,1734976876.015936,172.16.1.2,5101,172.16.3.2,36702,1073725440,14480,34,65728,65700,6,6,4,1460,344062,1,16778208,1310000,33580,0,98550,0,0,0,3082452188,63
i,1734976876.016075,172.16.1.2,5103,172.16.5.2,57359,1073725440,14480,34,65728,65700,6,6,4,1460,344375,1,16778208,1520000,33580,0,98550,11584,0,0,3697556231,63
o,1734976876.016150,172.16.1.2,5103,172.16.5.2,57359,1073725440,14480,34,65728,65700,6,6,4,1460,344375,1,16778209,1520000,33580,0,98550,13032,0,0,3697556231,63
i,1734976876.016720,172.16.1.2,5101,172.16.3.2,36702,1073725440,14480,34,65728,65700,6,6,4,1460,344062,1,16778208,1310000,33580,0,98550,0,0,0,3082452188,63
o,1734976876.016798,172.16.1.2,5101,172.16.3.2,36702,1073725440,14480,34,65728,65700,6,6,4,1460,344062,1,16778209,1310000,33580,0,98550,1448,0,0,3082452188,63
i,1734976876.065517,172.16.1.2,5103,172.16.5.2,57359,1073725440,14480,34,65728,65700,6,6,4,1460,344375,1,16778208,1520000,33580,0,98550,0,0,0,3697556231,63
i,1734976876.065739,172.16.1.2,5103,172.16.5.2,57359,1073725440,14480,34,65728,65700,6,6,4,1460,344375,1,16778208,1520000,33580,0,98550,1448,0,0,3697556231,63
o,1734976876.065843,172.16.1.2,5103,172.16.5.2,57359,1073725440,14480,34,65728,65700,6,6,4,1460,344375,1,16778209,1520000,33580,0,98550,2896,0,0,3697556231,63
i,1734976876.066444,172.16.1.2,5103,172.16.5.2,57359,1073725440,14480,34,65728,65700,6,6,4,1460,344375,1,16778208,1520000,33580,0,98550,2896,0,0,3697556231,63
i,1734976876.066619,172.16.1.2,5103,172.16.5.2,57359,1073725440,14480,34,65728,65700,6,6,4,1460,344375,1,16778208,1520000,33580,0,98550,4344,0,0,3697556231,63
o,1734976876.066691,172.16.1.2,5103,172.16.5.2,57359,1073725440,14480,34,65728,65700,6,6,4,1460,344375,1,16778209,1520000,33580,0,98550,5792,0,0,3697556231,63
i,1734976876.067417,172.16.1.2,5103,172.16.5.2,57359,1073725440,14480,34,65728,65700,6,6,4,1460,344375,1,16778208,1520000,33580,0,98550,0,0,0,3697556231,63
i,1734976876.073523,172.16.1.2,5103,172.16.5.2,57359,1073725440,14480,34,65728,65700,6,6,4,1460,344375,1,16778208,1520000,33580,0,98550,0,0,0,3697556231,63
o,1734976876.073623,172.16.1.2,5103,172.16.5.2,57359,1073725440,14480,34,65728,65700,6,6,4,1460,344375,1,16778209,1520000,33580,0,98550,1448,0,0,3697556231,63
i,1734976876.073847,172.16.1.2,5103,172.16.5.2,57359,1073725440,14480,34,65728,65700,6,6,4,1460,344375,1,16778208,1520000,33580,0,98550,1448,0,0,3697556231,63
o,1734976876.115772,172.16.1.2,5103,172.16.5.2,57359,1073725440,14480,34,65728,65700,6,6,4,1460,344375,1,16778209,1520000,33580,0,98550,0,0,0,3697556231,63
i,1734976876.126886,172.16.1.2,5103,172.16.5.2,57359,1073725440,14480,34,65728,65700,6,6,4,1460,344375,1,16778208,1520000,33580,0,98550,0,0,0,3697556231,63
i,1734976876.126983,172.16.1.2,5103,172.16.5.2,57359,1073725440,14480,34,65728,65700,6,6,4,1460,344375,1,16778208,1520000,33580,0,98550,1448,0,0,3697556231,63
o,1734976876.127003,172.16.1.2,5103,172.16.5.2,57359,1073725440,14480,34,65728,65700,6,6,4,1460,344375,1,16778209,1520000,33580,0,98550,2896,0,0,3697556231,63
i,1734976876.128202,172.16.1.2,5103,172.16.5.2,57359,1073725440,14480,34,65728,65700,6,6,4,1460,344375,1,16778208,1520000,33580,0,98550,2896,0,0,3697556231,63
i,1734976876.128370,172.16.1.2,5103,172.16.5.2,57359,1073725440,14480,34,65728,65700,6,6,4,1460,344375,1,16778208,1520000,33580,0,98550,4344,0,0,3697556231,63
o,1734976876.128460,172.16.1.2,5103,172.16.5.2,57359,1073725440,14480,34,65728,65700,6,6,4,1460,344375,1,16778209,1520000,33580,0,98550,5792,0,0,3697556231,63
i,1734976876.138521,172.16.1.2,5101,172.16.3.2,36702,1073725440,14480,34,65728,65700,6,6,4,1460,344062,1,16778208,1310000,33580,0,98550,0,0,0,3082452188,63
i,1734976876.138631,172.16.1.2,5103,172.16.5.2,57359,1073725440,14480,34,65728,65700,6,6,4,1460,344375,1,16778208,1520000,33580,0,98550,0,0,0,3697556231,63
i,1734976876.138726,172.16.1.2,5103,172.16.5.2,57359,1073725440,14480,34,65728,65700,6,6,4,1460,344375,1,16778208,1520000,33580,0,98550,1448,0,0,3697556231,63
o,1734976876.138780,172.16.1.2,5103,172.16.5.2,57359,1073725440,14480,34,65728,65700,6,6,4,1460,344375,1,16778209,1520000,33580,0,98550,2896,0,0,3697556231,63
i,1734976876.139061,172.16.1.2,5101,172.16.3.2,36702,1073725440,14480,34,65728,65700,6,6,4,1460,344062,1,16778208,1310000,33580,0,98550,1448,0,0,3082452188,63
o,1734976876.139105,172.16.1.2,5101,172.16.3.2,36702,1073725440,14480,34,65728,65700,6,6,4,1460,344062,1,16778209,1310000,33580,0,98550,2896,0,0,3082452188,63
i,1734976876.143371,172.16.1.2,5103,172.16.5.2,57359,1073725440,14480,34,65728,65700,6,6,4,1460,344375,1,16778208,1520000,33580,0,98550,0,0,0,3697556231,63
i,1734976876.143503,172.16.1.2,5103,172.16.5.2,57359,1073725440,14480,34,65728,65700,6,6,4,1460,344375,1,16778208,1520000,33580,0,98550,1448,0,0,3697556231,63
o,1734976876.143570,172.16.1.2,5103,172.16.5.2,57359,1073725440,14480,34,65728,65700,6,6,4,1460,344375,1,16778209,1520000,33580,0,98550,2896,0,0,3697556231,63
i,1734976876.144055,172.16.1.2,5101,172.16.3.2,36702,1073725440,14480,34,65728,65700,6,6,4,1460,344062,1,16778208,1310000,33580,0,98550,2896,0,0,3082452188,63
i,1734976876.155175,172.16.1.2,5103,172.16.5.2,57359,1073725440,14480,34,65728,65700,6,6,4,1460,344375,1,16778208,1520000,33580,0,98550,0,0,0,3697556231,63
i,1734976876.155317,172.16.1.2,5103,172.16.5.2,57359,1073725440,14480,34,65728,65700,6,6,4,1460,344375,1,16778208,1520000,33580,0,147825,1448,0,0,3697556231,63
o,1734976876.155595,172.16.1.2,5103,172.16.5.2,57359,1073725440,14480,34,65728,65700,6,6,4,1460,344375,1,16778209,1520000,33580,0,147825,2896,0,0,3697556231,63
i,1734976876.156590,172.16.1.2,5101,172.16.3.2,36702,1073725440,14480,34,65728,65700,6,6,4,1460,344062,1,16778208,1310000,33580,0,98550,0,0,0,3082452188,63
o,1734976876.156673,172.16.1.2,5101,172.16.3.2,36702,1073725440,14480,34,65728,65700,6,6,4,1460,344062,1,16778209,1310000,33580,0,98550,1448,0,0,3082452188,63
i,1734976876.157227,172.16.1.2,5103,172.16.5.2,57359,1073725440,14480,34,65728,65700,6,6,4,1460,344375,1,16778208,1520000,33580,0,147825,2896,0,0,3697556231,63
i,1734976876.157356,172.16.1.2,5103,172.16.5.2,57359,1073725440,14480,34,65728,65700,6,6,4,1460,344375,1,16778208,1520000,33580,0,147825,4344,0,0,3697556231,63
o,1734976876.157430,172.16.1.2,5103,172.16.5.2,57359,1073725440,14480,34,65728,65700,6,6,4,1460,344375,1,16778209,1520000,33580,0,147825,5792,0,0,3697556231,63
i,1734976876.158135,172.16.1.2,5101,172.16.3.2,36702,1073725440,14480,34,65728,65700,6,6,4,1460,344062,1,16778208,1310000,33580,0,98550,1448,0,0,3082452188,63
i,1734976876.158265,172.16.1.2,5103,172.16.5.2,57359,1073725440,14480,34,65728,65700,6,6,4,1460,344375,1,16778208,1520000,33580,0,147825,5792,0,0,3697556231,63
i,1734976876.158392,172.16.1.2,5103,172.16.5.2,57359,1073725440,14480,34,65728,65700,6,6,4,1460,344375,1,16778208,1520000,33580,0,147825,7240,0,0,3697556231,63
o,1734976876.158463,172.16.1.2,5103,172.16.5.2,57359,1073725440,14480,34,65728,65700,6,6,4,1460,344375,1,16778209,1520000,33580,0,147825,8688,0,0,3697556231,63
i,1734976876.159017,172.16.1.2,5101,172.16.3.2,36702,1073725440,14480,34,65728,65700,6,6,4,1460,344062,1,16778208,1310000,33580,0,98550,2896,0,0,3082452188,63
o,1734976876.159090,172.16.1.2,5101,172.16.3.2,36702,1073725440,14480,34,65728,65700,6,6,4,1460,344062,1,16778209,1310000,33580,0,98550,4344,0,0,3082452188,63
i,1734976876.159307,172.16.1.2,5103,172.16.5.2,57359,1073725440,14480,34,65728,65700,6,6,4,1460,344375,1,16778208,1520000,33580,0,147825,8688,0,0,3697556231,63
i,1734976876.159307,172.16.1.2,5101,172.16.3.2,36702,1073725440,14480,34,65728,65700,6,6,4,1460,344062,1,16778208,1310000,33580,0,98550,4344,0,0,3082452188,63
i,1734976876.159307,172.16.1.2,5101,172.16.3.2,36702,1073725440,14480,34,65728,65700,6,6,4,1460,344062,1,16778208,1310000,33580,0,98550,5792,0,0,3082452188,63
o,1734976876.159975,172.16.1.2,5101,172.16.3.2,36702,1073725440,14480,34,65728,65700,6,6,4,1460,344062,1,16778209,1310000,33580,0,98550,7240,0,0,3082452188,63
i,1734976876.160555,172.16.1.2,5101,172.16.3.2,36702,1073725440,14480,34,65728,65700,6,6,4,1460,344062,1,16778208,1310000,33580,0,98550,7240,0,0,3082452188,63
i,1734976876.160798,172.16.1.2,5101,172.16.3.2,36702,1073725440,14480,34,65728,65700,6,6,4,1460,344062,1,16778208,1310000,33580,0,98550,8688,0,0,3082452188,63
o,1734976876.160878,172.16.1.2,5101,172.16.3.2,36702,1073725440,14480,34,65728,65700,6,6,4,1460,344062,1,16778209,1310000,33580,0,98550,10136,0,0,3082452188,63
i,1734976876.161670,172.16.1.2,5101,172.16.3.2,36702,1073725440,14480,34,65728,65700,6,6,4,1460,344062,1,16778208,1310000,33580,0,98550,10136,0,0,3082452188,63
i,1734976876.161803,172.16.1.2,5101,172.16.3.2,36702,1073725440,14480,34,65728,65700,6,6,4,1460,344062,1,16778208,1310000,33580,0,98550,11584,0,0,3082452188,63
o,1734976876.161878,172.16.1.2,5101,172.16.3.2,36702,1073725440,14480,34,65728,65700,6,6,4,1460,344062,1,16778209,1310000,33580,0,98550,13032,0,0,3082452188,63
i,1734976876.162500,172.16.1.2,5101,172.16.3.2,36702,1073725440,14480,34,65728,65700,6,6,4,1460,344062,1,16778208,1310000,33580,0,98550,13032,0,0,3082452188,63
i,1734976876.162628,172.16.1.2,5101,172.16.3.2,36702,1073725440,14480,34,65728,65700,6,6,4,1460,344062,1,16778208,1310000,33580,0,98550,14480,0,0,3082452188,63
o,1734976876.162701,172.16.1.2,5101,172.16.3.2,36702,1073725440,14480,34,65728,65700,6,6,4,1460,344062,1,16778209,1310000,33580,0,98550,15928,0,0,3082452188,63
i,1734976876.168503,172.16.1.2,5101,172.16.3.2,36702,1073725440,14480,34,65728,65700,6,6,4,1460,344062,1,16778208,1310000,33580,0,98550,15928,0,0,3082452188,63
i,1734976876.168636,172.16.1.2,5101,172.16.3.2,36702,1073725440,14480,34,65728,65700,6,6,4,1460,344062,1,16778208,1310000,33580,0,98550,17376,0,0,3082452188,63
o,1734976876.168713,172.16.1.2,5101,172.16.3.2,36702,1073725440,14480,34,65728,65700,6,6,4,1460,344062,1,16778209,1310000,33580,0,98550,18824,0,0,3082452188,63
i,1734976876.169270,172.16.1.2,5101,172.16.3.2,36702,1073725440,14480,34,65728,65700,6,6,4,1460,344062,1,16778208,1310000,33580,0,98550,18824,0,0,3082452188,63
i,1734976876.169400,172.16.1.2,5101,172.16.3.2,36702,1073725440,14480,34,65728,65700,6,6,4,1460,344062,1,16778208,1310000,33580,0,98550,20272,0,0,3082452188,63
o,1734976876.169476,172.16.1.2,5101,172.16.3.2,36702,1073725440,14480,34,65728,65700,6,6,4,1460,344062,1,16778209,1310000,33580,0,98550,21720,0,0,3082452188,63
i,1734976876.170029,172.16.1.2,5101,172.16.3.2,36702,1073725440,14480,34,65728,65700,6,6,4,1460,344062,1,16778208,1310000,33580,0,98550,21720,0,0,3082452188,63
i,1734976876.170162,172.16.1.2,5101,172.16.3.2,36702,1073725440,14480,34,65728,65700,6,6,4,1460,344062,1,16778208,1310000,33580,0,98550,23168,0,0,3082452188,63
o,1734976876.170236,172.16.1.2,5101,172.16.3.2,36702,1073725440,14480,34,65728,65700,6,6,4,1460,344062,1,16778209,1310000,33580,0,98550,24616,0,0,3082452188,63
i,1734976876.184101,172.16.1.2,5103,172.16.5.2,57359,1073725440,14480,34,65728,65700,6,6,4,1460,344375,1,16778208,1520000,33580,0,147825,0,0,0,3697556231,63
o,1734976876.184234,172.16.1.2,5103,172.16.5.2,57359,1073725440,14480,34,65728,65700,6,6,4,1460,344375,1,16778209,1520000,33580,0,147825,1448,0,0,3697556231,63
i,1734976876.195574,172.16.1.2,5103,172.16.5.2,57359,1073725440,14480,34,65728,65700,6,6,4,1460,344375,1,16778208,1520000,33580,0,147825,0,0,0,3697556231,63
i,1734976876.195784,172.16.1.2,5103,172.16.5.2,57359,1073725440,14480,34,65728,65700,6,6,4,1460,344375,1,16778208,1520000,33580,0,147825,1448,0,0,3697556231,63
o,1734976876.195880,172.16.1.2,5103,172.16.5.2,57359,1073725440,14480,34,65728,65700,6,6,4,1460,344375,1,16778209,1520000,33580,0,147825,2896,0,0,3697556231,63
i,1734976876.242257,172.16.1.2,5103,172.16.5.2,57359,1073725440,14480,34,65728,65700,6,6,4,1460,344375,1,16778208,1520000,33580,0,147825,0,0,0,3697556231,63
i,1734976876.242420,172.16.1.2,5103,172.16.5.2,57359,1073725440,14480,34,65728,65700,6,6,4,1460,344375,1,16778208,1520000,33580,0,147825,1448,0,0,3697556231,63
o,1734976876.242508,172.16.1.2,5103,172.16.5.2,57359,1073725440,14480,34,65728,65700,6,6,4,1460,344375,1,16778209,1520000,33580,0,147825,2896,0,0,3697556231,63
i,1734976876.243150,172.16.1.2,5103,172.16.5.2,57359,1073725440,14480,34,65728,65700,6,6,4,1460,344375,1,16778208,1520000,33580,0,147825,2896,0,0,3697556231,63
i,1734976876.244413,172.16.1.2,5103,172.16.5.2,57359,1073725440,14480,34,65728,65700,6,6,4,1460,344375,1,16778208,1520000,33580,0,147825,4344,0,0,3697556231,63
o,1734976876.244494,172.16.1.2,5103,172.16.5.2,57359,1073725440,14480,34,65728,65700,6,6,4,1460,344375,1,16778209,1520000,33580,0,147825,1448,0,0,3697556231,63
i,1734976876.245087,172.16.1.2,5103,172.16.5.2,57359,1073725440,14480,34,65728,65700,6,6,4,1460,344375,1,16778208,1520000,33580,0,147825,0,0,0,3697556231,63
i,1734976876.266383,172.16.1.2,5103,172.16.5.2,57359,1073725440,14480,34,65728,65700,6,6,4,1460,344375,1,16778208,1520000,33580,0,147825,0,0,0,3697556231,63
o,1734976876.266504,172.16.1.2,5103,172.16.5.2,57359,1073725440,14480,34,65728,65700,6,6,4,1460,344375,1,16778209,1520000,33580,0,147825,1448,0,0,3697556231,63
i,1734976876.267051,172.16.1.2,5103,172.16.5.2,57359,1073725440,14480,34,65728,65700,6,6,4,1460,344375,1,16778208,1520000,33580,0,147825,1448,0,0,3697556231,63
i,1734976876.267195,172.16.1.2,5103,172.16.5.2,57359,1073725440,14480,34,65728,65700,6,6,4,1460,344375,1,16778208,1520000,33580,0,147825,2896,0,0,3697556231,63
o,1734976876.267269,172.16.1.2,5103,172.16.5.2,57359,1073725440,14480,34,65728,65700,6,6,4,1460,344375,1,16778209,1520000,33580,0,147825,4344,0,0,3697556231,63
i,1734976876.267928,172.16.1.2,5103,172.16.5.2,57359,1073725440,14480,34,65728,65700,6,6,4,1460,344375,1,16778208,1520000,33580,0,147825,4344,0,0,3697556231,63
i,1734976876.270927,172.16.1.2,5103,172.16.5.2,57359,1073725440,14480,34,65728,65700,6,6,4,1460,344375,1,16778208,1520000,33580,0,147825,0,0,0,3697556231,63
o,1734976876.271032,172.16.1.2,5103,172.16.5.2,57359,1073725440,14480,34,65728,65700,6,6,4,1460,344375,1,16778209,1520000,33580,0,147825,1448,0,0,3697556231,63
i,1734976876.364959,172.16.1.2,5103,172.16.5.2,57359,1073725440,14480,34,65728,65700,6,6,4,1460,344375,1,16778208,1520000,33580,0,147825,0,0,0,3697556231,63
i,1734976876.365112,172.16.1.2,5103,172.16.5.2,57359,1073725440,14480,34,65728,65700,6,6,4,1460,344375,1,16778208,1520000,33580,0,147825,1448,0,0,3697556231,63
o,1734976876.365194,172.16.1.2,5103,172.16.5.2,57359,1073725440,14480,34,65728,65700,6,6,4,1460,344375,1,16778209,1520000,33580,0,147825,2896,0,0,3697556231,63
i,1734976876.365777,172.16.1.2,5103,172.16.5.2,57359,1073725440,14480,34,65728,65700,6,6,4,1460,344375,1,16778208,1520000,33580,0,147825,2896,0,0,3697556231,63
i,1734976876.365910,172.16.1.2,5103,172.16.5.2,57359,1073725440,14480,34,65728,65700,6,6,4,1460,344375,1,16778208,1520000,33580,0,147825,4344,0,0,3697556231,63
o,1734976876.365984,172.16.1.2,5103,172.16.5.2,57359,1073725440,14480,34,65728,65700,6,6,4,1460,344375,1,16778209,1520000,33580,0,147825,5792,0,0,3697556231,63
i,1734976876.366545,172.16.1.2,5103,172.16.5.2,57359,1073725440,14480,34,65728,65700,6,6,4,1460,344375,1,16778208,1520000,33580,0,147825,5792,0,0,3697556231,63
i,1734976876.366678,172.16.1.2,5103,172.16.5.2,57359,1073725440,14480,34,65728,65700,6,6,4,1460,344375,1,16778208,1520000,33580,0,147825,7240,0,0,3697556231,63
o,1734976876.366751,172.16.1.2,5103,172.16.5.2,57359,1073725440,14480,34,65728,65700,6,6,4,1460,344375,1,16778209,1520000,33580,0,147825,8688,0,0,3697556231,63
i,1734976876.367336,172.16.1.2,5103,172.16.5.2,57359,1073725440,14480,34,65728,65700,6,6,4,1460,344375,1,16778208,1520000,33580,0,147825,8688,0,0,3697556231,63
i,1734976876.367573,172.16.1.2,5103,172.16.5.2,57359,1073725440,14480,34,65728,65700,6,6,4,1460,344375,1,16778208,1520000,33580,0,147825,10136,0,0,3697556231,63
o,1734976876.367602,172.16.1.2,5103,172.16.5.2,57359,1073725440,14480,34,65728,65700,6,6,4,1460,344375,1,16778209,1520000,33580,0,147825,11584,0,0,3697556231,63
i,1734976876.367813,172.16.1.2,5103,172.16.5.2,57359,1073725440,14480,34,65728,65700,6,6,4,1460,344375,1,16778208,1520000,33580,0,147825,11584,0,0,3697556231,63
i,1734976876.367866,172.16.1.2,5103,172.16.5.2,57359,1073725440,14480,34,65728,65700,6,6,4,1460,344375,1,16778208,1520000,33580,0,147825,13032,0,0,3697556231,63
o,1734976876.367896,172.16.1.2,5103,172.16.5.2,57359,1073725440,14480,34,65728,65700,6,6,4,1460,344375,1,16778209,1520000,33580,0,147825,14480,0,0,3697556231,63
i,1734976876.368864,172.16.1.2,5103,172.16.5.2,57359,1073725440,14480,34,65728,65700,6,6,4,1460,344375,1,16778208,1520000,33580,0,147825,14480,0,0,3697556231,63
i,1734976876.368997,172.16.1.2,5103,172.16.5.2,57359,1073725440,14480,34,65728,65700,6,6,4,1460,344375,1,16778208,1520000,33580,0,147825,15928,0,0,3697556231,63
o,1734976876.369076,172.16.1.2,5103,172.16.5.2,57359,1073725440,14480,34,65728,65700,6,6,4,1460,344375,1,16778209,1520000,33580,0,147825,17376,0,0,3697556231,63
i,1734976876.369682,172.16.1.2,5103,172.16.5.2,57359,1073725440,14480,34,65728,65700,6,6,4,1460,344375,1,16778208,1520000,33580,0,147825,17376,0,0,3697556231,63
i,1734976876.369811,172.16.1.2,5103,172.16.5.2,57359,1073725440,14480,34,65728,65700,6,6,4,1460,344375,1,16778208,1520000,33580,0,147825,18824,0,0,3697556231,63
o,1734976876.369883,172.16.1.2,5103,172.16.5.2,57359,1073725440,14480,34,65728,65700,6,6,4,1460,344375,1,16778209,1520000,33580,0,147825,20272,0,0,3697556231,63
i,1734976876.371049,172.16.1.2,5103,172.16.5.2,57359,1073725440,14480,34,65728,65700,6,6,4,1460,344375,1,16778208,1520000,33580,0,147825,20272,0,0,3697556231,63
i,1734976876.371196,172.16.1.2,5103,172.16.5.2,57359,1073725440,14480,34,65728,65700,6,6,4,1460,344375,1,16778208,1520000,33580,0,147825,21720,0,0,3697556231,63
