enable_time_secs=1720557181	enable_time_usecs=907609	siftrver=1.2.4	hz=100	tcp_rtt_scale=32	sysname=FreeBSD	sysver=1301000	ipmode=4
o,0x00000000,1720557181.907661,10.0.2.15,22,10.0.2.2,56292,1073725440,17770,0,65535,65700,0,0,4,1460,1,0,4,23,33580,44,65700,0,0,0,0,0
o,0x00000000,1720557181.907807,10.0.2.15,22,10.0.2.2,56292,1073725440,17770,0,65535,65700,0,0,4,1460,1,0,4,23,33580,80,65700,0,44,0,0,0
i,0x00000000,1720557181.908917,10.0.2.15,22,10.0.2.2,56292,1073725440,17770,0,65535,65700,0,0,4,1460,1,0,4,23,33580,80,65700,0,80,0,0,0
i,0x00000000,1720557181.908921,10.0.2.15,22,10.0.2.2,56292,1073725440,17814,0,65535,65700,0,0,4,1460,1,0,4,23,33580,36,65700,0,36,0,0,0
o,0x00000000,1720557181.909033,10.0.2.15,22,10.0.2.2,56292,1073725440,17850,0,65535,65700,0,0,4,1460,1,0,4,23,33580,36,65700,0,0,0,0,0
i,0x00000000,1720557181.909905,10.0.2.15,22,10.0.2.2,56292,1073725440,17850,0,65535,65700,0,0,4,1460,1,0,4,23,33580,36,65700,0,36,0,0,0
o,0x00000000,1720557181.910042,10.0.2.15,22,10.0.2.2,56292,1073725440,17886,0,65535,65700,0,0,4,1460,1,0,4,23,33580,176,65700,0,0,0,0,0
i,0x00000000,1720557181.911254,10.0.2.15,22,10.0.2.2,56292,1073725440,17886,0,65535,65700,0,0,4,1460,1,0,4,23,33580,176,65700,0,176,0,0,0
i,0x00000000,1720557181.911260,10.0.2.15,22,10.0.2.2,56292,1073725440,18062,0,65535,65700,0,0,4,1460,1,0,4,23,33580,0,65700,0,0,0,0,0
i,0x00000000,1720557181.911262,10.0.2.15,22,10.0.2.2,56292,1073725440,18062,0,65535,65700,0,0,4,1460,1,0,4,23,33580,0,65700,96,0,0,0,0
o,0x00000000,1720557181.911265,10.0.2.15,22,10.0.2.2,56292,1073725440,18062,0,65535,65604,0,0,5,1460,1,0,5,23,33580,0,65700,96,0,0,0,0
o,0x00000000,1720557181.911703,10.0.2.15,22,10.0.2.2,56292,1073725440,18062,0,65535,65604,0,0,8,1460,1,0,4,23,33580,0,65700,0,0,0,0,0
i,0x00000000,1720557181.912524,10.0.2.15,22,10.0.2.2,56292,1073725440,18062,0,65535,65604,0,0,8,1460,1,0,20,23,33580,0,65700,0,1,0,0,0
i,0x00000000,1720557184.038166,10.0.2.15,22,10.0.2.2,56294,1073725440,14600,0,65535,65700,0,0,4,1460,1,0,0,27,33580,0,65700,0,0,0,0,0
o,0x00000000,1720557184.060019,10.0.2.15,22,10.0.2.2,56294,1073725440,14600,0,65535,65700,0,0,4,1460,1,0,0,27,33580,38,65700,42,0,0,0,0
i,0x00000000,1720557184.060760,10.0.2.15,22,10.0.2.2,56294,1073725440,14600,0,65535,65700,0,0,4,1460,1,0,0,27,33580,38,65700,42,38,0,0,0
i,0x00000000,1720557184.060768,10.0.2.15,22,10.0.2.2,56294,1073725440,14638,0,65535,65700,0,0,4,1460,1,0,0,24,33580,0,65700,42,0,0,0,0
i,0x00000000,1720557184.060770,10.0.2.15,22,10.0.2.2,56294,1073725440,14638,0,65535,65700,0,0,4,1460,1,0,0,24,33580,0,65700,1502,0,0,0,0
o,0x00000000,1720557184.060774,10.0.2.15,22,10.0.2.2,56294,1073725440,14638,0,65535,65700,0,0,4,1460,1,0,1,24,33580,0,65700,1578,0,0,0,0
o,0x00000000,1720557184.062394,10.0.2.15,22,10.0.2.2,56294,1073725440,14638,0,65535,65700,0,0,4,1460,1,0,0,24,33580,1056,65700,1536,0,0,0,0
i,0x00000000,1720557184.065038,10.0.2.15,22,10.0.2.2,56294,1073725440,14638,0,65535,65700,0,0,4,1460,1,0,0,24,33580,1056,65700,1536,1056,0,0,0
i,0x00000000,1720557184.065056,10.0.2.15,22,10.0.2.2,56294,1073725440,15694,0,65535,65700,0,0,4,1460,1,0,0,24,33580,0,65700,1536,0,0,0,0
o,0x00000000,1720557184.073622,10.0.2.15,22,10.0.2.2,56294,1073725440,15694,0,65535,65700,0,0,4,1460,1,0,0,24,33580,484,65700,0,0,0,0,0
i,0x00000000,1720557184.075379,10.0.2.15,22,10.0.2.2,56294,1073725440,15694,0,65535,65700,0,0,4,1460,1,0,0,24,33580,484,65700,0,484,0,0,0
i,0x00000000,1720557184.079867,10.0.2.15,22,10.0.2.2,56294,1073725440,16178,0,65535,65700,0,0,4,1460,1,0,0,24,33580,0,65700,0,0,0,0,0
i,0x00000000,1720557184.079876,10.0.2.15,22,10.0.2.2,56294,1073725440,16178,0,65535,65700,0,0,4,1460,1,0,0,24,33580,0,65700,16,0,0,0,0
o,0x00000000,1720557184.079880,10.0.2.15,22,10.0.2.2,56294,1073725440,16178,0,65535,65700,0,0,4,1460,1,0,1,24,33580,0,65700,60,0,0,0,0
o,0x00000000,1720557184.080289,10.0.2.15,22,10.0.2.2,56294,1073725440,16178,0,65535,65700,0,0,4,1460,1,0,0,24,33580,44,65700,0,0,0,0,0
i,0x00000000,1720557184.083892,10.0.2.15,22,10.0.2.2,56294,1073725440,16178,0,65535,65700,0,0,4,1460,1,0,0,24,33580,44,65700,0,44,0,0,0
i,0x00000000,1720557184.083921,10.0.2.15,22,10.0.2.2,56294,1073725440,16222,0,65535,65700,0,0,4,1460,1,0,0,24,33580,0,65700,0,0,0,0,0
o,0x00000000,1720557184.094234,10.0.2.15,22,10.0.2.2,56294,1073725440,16222,0,65535,65700,0,0,4,1460,1,0,0,24,33580,68,65700,0,0,0,0,0
i,0x00000000,1720557184.097965,10.0.2.15,22,10.0.2.2,56294,1073725440,16222,0,65535,65700,0,0,4,1460,1,0,0,24,33580,68,65700,0,68,0,0,0
i,0x00000000,1720557184.097988,10.0.2.15,22,10.0.2.2,56294,1073725440,16290,0,65535,65700,0,0,4,1460,1,0,0,23,33580,0,65700,0,0,0,0,0
o,0x00000000,1720557184.103947,10.0.2.15,22,10.0.2.2,56294,1073725440,16290,0,65535,65700,0,0,4,1460,1,0,0,23,33580,332,65700,0,0,0,0,0
i,0x00000000,1720557184.106936,10.0.2.15,22,10.0.2.2,56294,1073725440,16290,0,65535,65700,0,0,4,1460,1,0,0,23,33580,332,65700,0,332,0,0,0
i,0x00000000,1720557184.108280,10.0.2.15,22,10.0.2.2,56294,1073725440,16622,0,65535,65700,0,0,4,1460,1,0,0,23,33580,0,65700,0,0,0,0,0
o,0x00000000,1720557184.121585,10.0.2.15,22,10.0.2.2,56294,1073725440,16622,0,65535,65700,0,0,4,1460,1,0,0,23,33580,28,65700,0,0,0,0,0
i,0x00000000,1720557184.122866,10.0.2.15,22,10.0.2.2,56294,1073725440,16622,0,65535,65700,0,0,4,1460,1,0,0,23,33580,28,65700,0,28,0,0,0
i,0x00000000,1720557184.123691,10.0.2.15,22,10.0.2.2,56294,1073725440,16650,0,65535,65700,0,0,4,1460,1,0,0,23,33580,0,65700,0,0,0,0,0
o,0x00000000,1720557184.124500,10.0.2.15,22,10.0.2.2,56294,1073725440,16650,0,65535,65700,0,0,4,1460,1,0,0,23,33580,768,65700,112,0,0,0,0
i,0x00000000,1720557184.127230,10.0.2.15,22,10.0.2.2,56294,1073725440,16650,0,65535,65700,0,0,4,1460,1,0,0,23,33580,768,65700,112,768,0,0,0
o,0x00000000,1720557184.127682,10.0.2.15,22,10.0.2.2,56294,1073725440,17418,0,65535,65700,0,0,4,1460,1,0,0,23,33580,140,65700,112,0,0,0,0
i,0x00000000,1720557184.129132,10.0.2.15,22,10.0.2.2,56294,1073725440,17418,0,65535,65700,0,0,4,1460,1,0,0,23,33580,140,65700,112,140,0,0,0
o,0x00000000,1720557184.129493,10.0.2.15,22,10.0.2.2,56294,1073725440,17558,0,65535,65700,0,0,4,1460,1,0,0,24,33580,44,65700,0,0,0,0,0
i,0x00000000,1720557184.132229,10.0.2.15,22,10.0.2.2,56294,1073725440,17558,0,65535,65700,0,0,4,1460,1,0,0,24,33580,44,65700,0,44,0,0,0
i,0x00000000,1720557184.132238,10.0.2.15,22,10.0.2.2,56294,1073725440,17602,0,65535,65700,0,0,4,1460,1,0,0,24,33580,0,65700,0,0,0,0,0
o,0x00000000,1720557184.133096,10.0.2.15,22,10.0.2.2,56294,1073725440,17602,0,65535,65700,0,0,4,1460,1,0,4,24,33580,72,65700,0,0,0,0,0
i,0x00000000,1720557184.135194,10.0.2.15,22,10.0.2.2,56294,1073725440,17602,0,65535,65700,0,0,4,1460,1,0,4,24,33580,72,65700,0,72,0,0,0
o,0x00000000,1720557184.143140,10.0.2.15,22,10.0.2.2,56294,1073725440,17674,0,65535,65700,0,0,4,1460,1,0,4,24,33580,44,65700,0,0,0,0,0
i,0x00000000,1720557184.144329,10.0.2.15,22,10.0.2.2,56294,1073725440,17674,0,65535,65700,0,0,4,1460,1,0,4,24,33580,44,65700,0,44,0,0,0
o,0x00000000,1720557184.144482,10.0.2.15,22,10.0.2.2,56294,1073725440,17718,0,65535,65700,0,0,4,1460,1,0,4,24,33580,44,65700,0,0,0,0,0
i,0x00000000,1720557184.145414,10.0.2.15,22,10.0.2.2,56294,1073725440,17718,0,65535,65700,0,0,4,1460,1,0,4,24,33580,44,65700,0,44,0,0,0
o,0x00000000,1720557184.146784,10.0.2.15,22,10.0.2.2,56294,1073725440,17762,0,65535,65700,0,0,4,1460,1,0,4,24,33580,176,65700,0,0,0,0,0
i,0x00000000,1720557184.147687,10.0.2.15,22,10.0.2.2,56294,1073725440,17762,0,65535,65700,0,0,4,1460,1,0,4,24,33580,176,65700,0,176,0,0,0
i,0x00000000,1720557184.150135,10.0.2.15,22,10.0.2.2,56294,1073725440,17938,0,65535,65700,0,0,4,1460,1,0,4,24,33580,0,65700,0,0,0,0,0
i,0x00000000,1720557184.150141,10.0.2.15,22,10.0.2.2,56294,1073725440,17938,0,65535,65700,0,0,4,1460,1,0,4,24,33580,0,65700,96,0,0,0,0
o,0x00000000,1720557184.150145,10.0.2.15,22,10.0.2.2,56294,1073725440,17938,0,65535,65604,0,0,5,1460,1,0,5,24,33580,0,65700,96,0,0,0,0
o,0x00000000,1720557184.272504,10.0.2.15,22,10.0.2.2,56294,1073725440,17938,0,65535,65604,0,0,8,1460,1,0,4,24,33580,0,65700,0,0,0,0,0
i,0x00000000,1720557184.293151,10.0.2.15,22,10.0.2.2,56294,1073725440,17938,0,65535,65604,0,0,8,1460,1,0,20,24,33580,0,65700,0,1,0,0,0
i,0x00000000,1720557184.416101,172.16.3.2,5101,172.16.1.2,37193,10499,14480,0,65728,65700,6,6,4,1460,608,1,992,75,33580,0,65700,0,0,0,0,0
o,0x00000000,1720557184.416517,172.16.3.2,5101,172.16.1.2,37193,10499,14480,0,65728,65700,6,6,4,1460,608,1,996,75,33580,1,65700,0,0,0,0,0
i,0x00000000,1720557184.528837,172.16.3.2,5101,172.16.1.2,37193,10499,14480,0,65728,65700,6,6,4,1460,608,1,996,75,33580,1,65700,0,1,0,0,0
i,0x00000000,1720557184.531445,172.16.3.2,5101,172.16.1.2,37193,10499,14480,0,65728,65728,6,6,4,1460,580,1,996,72,33580,0,65700,0,0,0,0,0
o,0x00000000,1720557184.531483,172.16.3.2,5101,172.16.1.2,37193,10499,14480,0,65728,65728,6,6,4,1460,580,1,997,72,33580,0,65700,124,0,0,0,0
o,0x00000000,1720557184.534582,172.16.3.2,5101,172.16.1.2,37193,10499,14480,0,65728,65728,6,6,4,1460,580,1,996,72,33580,1,65700,0,0,0,0,0
o,0x00000000,1720557184.535531,10.0.2.15,22,10.0.2.2,49435,1073725440,14600,0,65535,65700,0,0,4,1460,1,0,4,24,33580,84,65700,0,0,0,0,0
i,0x00000000,1720557184.537453,10.0.2.15,22,10.0.2.2,49435,1073725440,14600,0,65535,65700,0,0,4,1460,1,0,4,24,33580,84,65700,0,84,0,0,0
i,0x00000000,1720557184.689309,172.16.3.2,5101,172.16.1.2,37193,10499,14480,0,65728,65728,6,6,4,1460,580,1,996,72,33580,1,65700,0,1,0,0,0
i,0x00000000,1720557184.799096,172.16.3.2,5101,172.16.1.2,42029,10499,14480,0,65728,65700,6,6,4,1460,616,1,992,74,33580,0,65700,0,0,0,0,0
o,0x00000000,1720557184.809493,172.16.3.2,5101,172.16.1.2,37193,10499,14480,0,65728,65728,6,6,4,1460,572,1,996,66,33580,1,65700,0,0,0,0,0
o,0x00000000,1720557184.810344,172.16.3.2,5101,172.16.1.2,37193,10499,14480,0,65728,65728,6,6,4,1460,572,1,996,66,33580,2,65700,0,1,0,0,0
o,0x00000000,1720557184.814011,10.0.2.15,22,10.0.2.2,49435,1073725440,14600,0,65535,65700,0,0,4,1460,1,0,4,24,33580,108,65700,0,0,0,0,0
i,0x00000000,1720557184.820499,10.0.2.15,22,10.0.2.2,49435,1073725440,14600,0,65535,65700,0,0,4,1460,1,0,4,24,33580,108,65700,0,108,0,0,0
o,0x00000000,1720557184.838864,172.16.3.2,5101,172.16.1.2,42029,10499,14480,0,65728,65700,6,6,4,1460,616,1,993,74,33580,0,65700,0,0,0,0,0
i,0x00000000,1720557184.938961,172.16.3.2,5101,172.16.1.2,37193,10499,14480,0,65728,65728,6,6,4,1460,572,1,996,66,33580,2,65700,0,2,0,0,0
i,0x00000000,1720557185.029918,172.16.3.2,5101,172.16.1.2,42029,10499,14480,0,65728,65700,6,6,4,1460,616,1,992,74,33580,0,65700,0,0,0,0,0
i,0x00000000,1720557185.040579,172.16.3.2,5101,172.16.1.2,42029,10499,14480,0,65728,65700,6,6,4,1460,616,1,992,74,33580,0,65700,0,0,0,0,0
o,0x00000000,1720557185.040618,172.16.3.2,5101,172.16.1.2,42029,10499,14480,0,65728,65700,6,6,4,1460,616,1,993,74,33580,0,65700,1448,0,0,0,0
i,0x00000000,1720557185.048572,172.16.3.2,5101,172.16.1.2,42029,10499,14480,0,65728,65700,6,6,4,1460,616,1,992,74,33580,0,65700,0,0,0,0,0
i,0x00000000,1720557185.060990,172.16.3.2,5101,172.16.1.2,42029,10499,14480,0,65728,65700,6,6,4,1460,616,1,992,74,33580,0,65700,0,0,0,0,0
o,0x00000000,1720557185.061042,172.16.3.2,5101,172.16.1.2,42029,10499,14480,0,65728,65700,6,6,4,1460,616,1,993,74,33580,0,65700,1448,0,0,0,0
i,0x00000000,1720557185.081326,172.16.3.2,5101,172.16.1.2,42029,10499,14480,0,65728,65700,6,6,4,1460,616,1,992,74,33580,0,65700,0,0,0,0,0
i,0x00000000,1720557185.090627,172.16.3.2,5101,172.16.1.2,42029,10499,14480,0,65728,65700,6,6,4,1460,616,1,992,74,33580,0,65700,0,0,0,0,0
o,0x00000000,1720557185.090640,172.16.3.2,5101,172.16.1.2,42029,10499,14480,0,65728,65700,6,6,4,1460,616,1,993,74,33580,0,65700,1448,0,0,0,0
i,0x00000000,1720557185.098705,172.16.3.2,5101,172.16.1.2,42029,10499,14480,0,65728,65700,6,6,4,1460,616,1,992,74,33580,0,65700,0,0,0,0,0
i,0x00000000,1720557185.111669,172.16.3.2,5101,172.16.1.2,42029,10499,14480,0,65728,65700,6,6,4,1460,616,1,992,74,33580,0,65700,0,0,0,0,0
o,0x00000000,1720557185.111699,172.16.3.2,5101,172.16.1.2,42029,10499,14480,0,65728,65700,6,6,4,1460,616,1,993,74,33580,0,65700,1448,0,0,0,0
i,0x00000000,1720557185.130047,172.16.3.2,5101,172.16.1.2,42029,10499,14480,0,65728,65700,6,6,4,1460,616,1,992,74,33580,0,65700,0,0,0,0,0
i,0x00000000,1720557185.138991,172.16.3.2,5101,172.16.1.2,42029,10499,14480,0,65728,65700,6,6,4,1460,616,1,992,74,33580,0,65700,0,0,0,0,0
o,0x00000000,1720557185.139037,172.16.3.2,5101,172.16.1.2,42029,10499,14480,0,65728,65700,6,6,4,1460,616,1,993,74,33580,0,65700,1448,0,0,0,0
i,0x00000000,1720557185.209930,172.16.3.2,5101,172.16.1.2,42029,10499,14480,0,65728,65700,6,6,4,1460,616,1,992,74,33580,0,65700,0,0,0,0,0
i,0x00000000,1720557185.209966,172.16.3.2,5101,172.16.1.2,42029,10499,14480,0,65728,65700,6,6,4,1460,616,1,992,74,33580,0,65700,1448,0,0,0,0
o,0x00000000,1720557185.209991,172.16.3.2,5101,172.16.1.2,42029,10499,14480,0,65728,65700,6,6,4,1460,616,1,993,74,33580,0,65700,2896,0,0,0,0
i,0x00000000,1720557185.260755,172.16.3.2,5101,172.16.1.2,42029,10499,14480,0,65728,65700,6,6,4,1460,616,1,992,74,33580,0,65700,0,0,0,0,0
i,0x00000000,1720557185.291290,172.16.3.2,5101,172.16.1.2,42029,10499,14480,0,65728,65700,6,6,4,1460,616,1,992,74,33580,0,65700,0,0,0,0,0
o,0x00000000,1720557185.291344,172.16.3.2,5101,172.16.1.2,42029,10499,14480,0,65728,65700,6,6,4,1460,616,1,993,74,33580,0,65700,1448,0,0,0,0
i,0x00000000,1720557185.322695,172.16.3.2,5101,172.16.1.2,42029,10499,14480,0,65728,65700,6,6,4,1460,616,1,992,74,33580,0,65700,0,0,0,0,0
i,0x00000000,1720557185.349939,172.16.3.2,5101,172.16.1.2,42029,10499,14480,0,65728,65700,6,6,4,1460,616,1,992,74,33580,0,65700,0,0,0,0,0
o,0x00000000,1720557185.351090,172.16.3.2,5101,172.16.1.2,42029,10499,14480,0,65728,65700,6,6,4,1460,616,1,993,74,33580,0,65700,1448,0,0,0,0
i,0x00000000,1720557185.360595,172.16.3.2,5101,172.16.1.2,42029,10499,14480,0,65728,65700,6,6,4,1460,616,1,992,74,33580,0,65700,0,0,0,0,0
i,0x00000000,1720557185.369447,172.16.3.2,5101,172.16.1.2,42029,10499,14480,0,65728,65700,6,6,4,1460,616,1,992,74,33580,0,65700,0,0,0,0,0
o,0x00000000,1720557185.369476,172.16.3.2,5101,172.16.1.2,42029,10499,14480,0,65728,65700,6,6,4,1460,616,1,993,74,33580,0,65700,1448,0,0,0,0
i,0x00000000,1720557185.409205,172.16.3.2,5101,172.16.1.2,42029,10499,14480,0,65728,65700,6,6,4,1460,616,1,992,74,33580,0,65700,0,0,0,0,0
i,0x00000000,1720557185.428295,172.16.3.2,5101,172.16.1.2,42029,10499,14480,0,65728,65700,6,6,4,1460,616,1,992,74,33580,0,65700,0,0,0,0,0
o,0x00000000,1720557185.428334,172.16.3.2,5101,172.16.1.2,42029,10499,14480,0,65728,65700,6,6,4,1460,616,1,993,74,33580,0,65700,1448,0,0,0,0
i,0x00000000,1720557185.432920,172.16.3.2,5101,172.16.1.2,42029,10499,14480,0,65728,65700,6,6,4,1460,616,1,992,74,33580,0,65700,0,0,0,0,0
i,0x00000000,1720557185.470676,172.16.3.2,5101,172.16.1.2,42029,10499,14480,0,65728,65700,6,6,4,1460,616,1,992,74,33580,0,65700,0,0,0,0,0
o,0x00000000,1720557185.470739,172.16.3.2,5101,172.16.1.2,42029,10499,14480,0,65728,65700,6,6,4,1460,616,1,993,74,33580,0,65700,1448,0,0,0,0
i,0x00000000,1720557185.489766,172.16.3.2,5101,172.16.1.2,42029,10499,14480,0,65728,65700,6,6,4,1460,616,1,992,74,33580,0,65700,0,0,0,0,0
i,0x00000000,1720557185.528473,172.16.3.2,5101,172.16.1.2,42029,10499,14480,0,65728,65700,6,6,4,1460,616,1,992,74,33580,0,65700,0,0,0,0,0
o,0x00000000,1720557185.528485,172.16.3.2,5101,172.16.1.2,42029,10499,14480,0,65728,65700,6,6,4,1460,616,1,993,74,33580,0,65700,1448,0,0,0,0
i,0x00000000,1720557185.550261,172.16.3.2,5101,172.16.1.2,42029,10499,14480,0,65728,65700,6,6,4,1460,616,1,992,74,33580,0,65700,0,0,0,0,0
i,0x00000000,1720557185.573130,172.16.3.2,5101,172.16.1.2,42029,10499,14480,0,65728,65700,6,6,4,1460,616,1,992,74,33580,0,65700,0,0,0,0,0
o,0x00000000,1720557185.573168,172.16.3.2,5101,172.16.1.2,42029,10499,14480,0,65728,65700,6,6,4,1460,616,1,993,74,33580,0,65700,1448,0,0,0,0
i,0x00000000,1720557185.602649,172.16.3.2,5101,172.16.1.2,42029,10499,14480,0,65728,65700,6,6,4,1460,616,1,992,74,33580,0,65700,0,0,0,0,0
i,0x00000000,1720557185.609391,172.16.3.2,5101,172.16.1.2,42029,10499,14480,0,65728,65700,6,6,4,1460,616,1,992,74,33580,0,65700,0,0,0,0,0
o,0x00000000,1720557185.609423,172.16.3.2,5101,172.16.1.2,42029,10499,14480,0,65728,65700,6,6,4,1460,616,1,993,74,33580,0,65700,1448,0,0,0,0
i,0x00000000,1720557185.659216,172.16.3.2,5101,172.16.1.2,42029,10499,14480,0,65728,65700,6,6,4,1460,616,1,992,74,33580,0,65700,0,0,0,0,0
i,0x00000000,1720557185.680847,172.16.3.2,5101,172.16.1.2,42029,10499,14480,0,65728,65700,6,6,4,1460,616,1,992,74,33580,0,65700,0,0,0,0,0
o,0x00000000,1720557185.680896,172.16.3.2,5101,172.16.1.2,42029,10499,14480,0,65728,65700,6,6,4,1460,616,1,993,74,33580,0,65700,1448,0,0,0,0
i,0x00000000,1720557185.689894,172.16.3.2,5101,172.16.1.2,42029,10499,14480,0,65728,65700,6,6,4,1460,616,1,992,74,33580,0,65700,0,0,0,0,0
i,0x00000000,1720557185.721285,172.16.3.2,5101,172.16.1.2,42029,10499,14480,0,65728,65700,6,6,4,1460,616,1,992,74,33580,0,65700,0,0,0,0,0
o,0x00000000,1720557185.721336,172.16.3.2,5101,172.16.1.2,42029,10499,14480,0,65728,65700,6,6,4,1460,616,1,993,74,33580,0,65700,1448,0,0,0,0
i,0x00000000,1720557185.760217,172.16.3.2,5101,172.16.1.2,42029,10499,14480,0,65728,65700,6,6,4,1460,616,1,992,74,33580,0,65700,0,0,0,0,0
i,0x00000000,1720557185.769895,172.16.3.2,5101,172.16.1.2,42029,10499,14480,0,65728,65700,6,6,4,1460,616,1,992,74,33580,0,65700,0,0,0,0,0
o,0x00000000,1720557185.769906,172.16.3.2,5101,172.16.1.2,42029,10499,14480,0,65728,65700,6,6,4,1460,616,1,993,74,33580,0,65700,1448,0,0,0,0
i,0x00000000,1720557185.810347,172.16.3.2,5101,172.16.1.2,42029,10499,14480,0,65728,65700,6,6,4,1460,616,1,992,74,33580,0,65700,0,0,0,0,0
o,0x00000000,1720557185.819008,10.0.2.15,22,10.0.2.2,49435,1073725440,14600,0,65535,65700,0,0,4,1460,1,0,4,24,33580,156,65700,0,0,0,0,0
i,0x00000000,1720557185.824485,10.0.2.15,22,10.0.2.2,49435,1073725440,14600,0,65535,65700,0,0,4,1460,1,0,4,24,33580,156,65700,0,156,0,0,0
i,0x00000000,1720557185.826737,172.16.3.2,5101,172.16.1.2,42029,10499,14480,0,65728,65700,6,6,4,1460,616,1,992,74,33580,0,65700,0,0,0,0,0
o,0x00000000,1720557185.826781,172.16.3.2,5101,172.16.1.2,42029,10499,14480,0,65728,65700,6,6,4,1460,616,1,993,74,33580,0,65700,1448,0,0,0,0
i,0x00000000,1720557185.845835,172.16.3.2,5101,172.16.1.2,42029,10499,14480,0,65728,65700,6,6,4,1460,616,1,992,74,33580,0,65700,0,0,0,0,0
i,0x00000000,1720557185.874438,172.16.3.2,5101,172.16.1.2,42029,10499,14480,0,65728,65700,6,6,4,1460,616,1,992,74,33580,0,65700,0,0,0,0,0
o,0x00000000,1720557185.874465,172.16.3.2,5101,172.16.1.2,42029,10499,14480,0,65728,65700,6,6,4,1460,616,1,993,74,33580,0,65700,1448,0,0,0,0
i,0x00000000,1720557185.877790,172.16.3.2,5101,172.16.1.2,42029,10499,14480,0,65728,65700,6,6,4,1460,616,1,992,74,33580,0,65700,0,0,0,0,0
o,0x00000000,1720557185.918438,172.16.3.2,5101,172.16.1.2,42029,10499,14480,0,65728,65700,6,6,4,1460,616,1,993,74,33580,0,65700,0,0,0,0,0
i,0x00000000,1720557185.923784,172.16.3.2,5101,172.16.1.2,42029,10499,14480,0,65728,65700,6,6,4,1460,616,1,992,74,33580,0,65700,0,0,0,0,0
o,0x00000000,1720557185.957655,172.16.3.2,5101,172.16.1.2,42029,10499,14480,0,65728,65700,6,6,4,1460,616,1,993,74,33580,0,65700,0,0,0,0,0
i,0x00000000,1720557185.970688,172.16.3.2,5101,172.16.1.2,42029,10499,14480,0,65728,65700,6,6,4,1460,616,1,992,74,33580,0,65700,0,0,0,0,0
i,0x00000000,1720557185.981082,172.16.3.2,5101,172.16.1.2,42029,10499,14480,0,65728,65700,6,6,4,1460,616,1,992,74,33580,0,65700,0,0,0,0,0
o,0x00000000,1720557185.981118,172.16.3.2,5101,172.16.1.2,42029,10499,14480,0,65728,65700,6,6,4,1460,616,1,993,74,33580,0,65700,1448,0,0,0,0
i,0x00000000,1720557186.022697,172.16.3.2,5101,172.16.1.2,42029,10499,14480,0,65728,65700,6,6,4,1460,616,1,992,74,33580,0,65700,0,0,0,0,0
i,0x00000000,1720557186.030088,172.16.3.2,5101,172.16.1.2,42029,10499,14480,0,65728,65700,6,6,4,1460,616,1,992,74,33580,0,65700,0,0,0,0,0
o,0x00000000,1720557186.030120,172.16.3.2,5101,172.16.1.2,42029,10499,14480,0,65728,65700,6,6,4,1460,616,1,993,74,33580,0,65700,1448,0,0,0,0
i,0x00000000,1720557186.038927,172.16.3.2,5101,172.16.1.2,42029,10499,14480,0,65728,65700,6,6,4,1460,616,1,992,74,33580,0,65700,0,0,0,0,0
i,0x00000000,1720557186.049790,172.16.3.2,5101,172.16.1.2,42029,10499,14480,0,65728,65700,6,6,4,1460,616,1,992,74,33580,0,65700,0,0,0,0,0
o,0x00000000,1720557186.049830,172.16.3.2,5101,172.16.1.2,42029,10499,14480,0,65728,65700,6,6,4,1460,616,1,993,74,33580,0,65700,1448,0,0,0,0
i,0x00000000,1720557186.092261,172.16.3.2,5101,172.16.1.2,42029,10499,14480,0,65728,65700,6,6,4,1460,616,1,992,74,33580,0,65700,0,0,0,0,0
i,0x00000000,1720557186.121956,172.16.3.2,5101,172.16.1.2,42029,10499,14480,0,65728,65700,6,6,4,1460,616,1,992,74,33580,0,65700,0,0,0,0,0
o,0x00000000,1720557186.122016,172.16.3.2,5101,172.16.1.2,42029,10499,14480,0,65728,65700,6,6,4,1460,616,1,993,74,33580,0,65700,1448,0,0,0,0
i,0x00000000,1720557186.130053,172.16.3.2,5101,172.16.1.2,42029,10499,14480,0,65728,65700,6,6,4,1460,616,1,992,74,33580,0,65700,0,0,0,0,0
o,0x00000000,1720557186.167285,172.16.3.2,5101,172.16.1.2,42029,10499,14480,0,65728,65700,6,6,4,1460,616,1,993,74,33580,0,65700,0,0,0,0,0
i,0x00000000,1720557186.190539,172.16.3.2,5101,172.16.1.2,42029,10499,14480,0,65728,65700,6,6,4,1460,616,1,992,74,33580,0,65700,0,0,0,0,0
i,0x00000000,1720557186.193302,172.16.3.2,5101,172.16.1.2,42029,10499,14480,0,65728,65700,6,6,4,1460,616,1,992,74,33580,0,65700,0,0,0,0,0
o,0x00000000,1720557186.193337,172.16.3.2,5101,172.16.1.2,42029,10499,14480,0,65728,65700,6,6,4,1460,616,1,993,74,33580,0,65700,1448,0,0,0,0
i,0x00000000,1720557186.199545,172.16.3.2,5101,172.16.1.2,42029,10499,14480,0,65728,65700,6,6,4,1460,616,1,992,74,33580,0,65700,0,0,0,0,0
o,0x00000000,1720557186.238547,172.16.3.2,5101,172.16.1.2,42029,10499,14480,0,65728,65700,6,6,4,1460,616,1,993,74,33580,0,65700,0,0,0,0,0
i,0x00000000,1720557186.259470,172.16.3.2,5101,172.16.1.2,42029,10499,14480,0,65728,65700,6,6,4,1460,616,1,992,74,33580,0,65700,0,0,0,0,0
i,0x00000000,1720557186.272295,172.16.3.2,5101,172.16.1.2,42029,10499,14480,0,65728,65700,6,6,4,1460,616,1,992,74,33580,0,65700,0,0,0,0,0
o,0x00000000,1720557186.272338,172.16.3.2,5101,172.16.1.2,42029,10499,14480,0,65728,65700,6,6,4,1460,616,1,993,74,33580,0,65700,1448,0,0,0,0
i,0x00000000,1720557186.292168,172.16.3.2,5101,172.16.1.2,42029,10499,14480,0,65728,65700,6,6,4,1460,616,1,992,74,33580,0,65700,0,0,0,0,0
o,0x00000000,1720557186.328122,172.16.3.2,5101,172.16.1.2,42029,10499,14480,0,65728,65700,6,6,4,1460,616,1,993,74,33580,0,65700,0,0,0,0,0
i,0x00000000,1720557186.341996,172.16.3.2,5101,172.16.1.2,42029,10499,14480,0,65728,65700,6,6,4,1460,616,1,992,74,33580,0,65700,0,0,0,0,0
i,0x00000000,1720557186.350074,172.16.3.2,5101,172.16.1.2,42029,10499,14480,0,65728,65700,6,6,4,1460,616,1,992,74,33580,0,65700,0,0,0,0,0
o,0x00000000,1720557186.350120,172.16.3.2,5101,172.16.1.2,42029,10499,14480,0,65728,65700,6,6,4,1460,616,1,993,74,33580,0,65700,1448,0,0,0,0
i,0x00000000,1720557186.369057,172.16.3.2,5101,172.16.1.2,42029,10499,14480,0,65728,65700,6,6,4,1460,616,1,992,74,33580,0,65700,0,0,0,0,0
i,0x00000000,1720557186.378585,172.16.3.2,5101,172.16.1.2,42029,10499,14480,0,65728,65700,6,6,4,1460,616,1,992,74,33580,0,65700,0,0,0,0,0
o,0x00000000,1720557186.378604,172.16.3.2,5101,172.16.1.2,42029,10499,14480,0,65728,65700,6,6,4,1460,616,1,993,74,33580,0,65700,1448,0,0,0,0
i,0x00000000,1720557186.428177,172.16.3.2,5101,172.16.1.2,42029,10499,14480,0,65728,65700,6,6,4,1460,616,1,992,74,33580,0,65700,0,0,0,0,0
i,0x00000000,1720557186.440288,172.16.3.2,5101,172.16.1.2,42029,10499,14480,0,65728,65700,6,6,4,1460,616,1,992,74,33580,0,65700,0,0,0,0,0
o,0x00000000,1720557186.440320,172.16.3.2,5101,172.16.1.2,42029,10499,14480,0,65728,65700,6,6,4,1460,616,1,993,74,33580,0,65700,1448,0,0,0,0
i,0x00000000,1720557186.471235,172.16.3.2,5101,172.16.1.2,42029,10499,14480,0,65728,65700,6,6,4,1460,616,1,992,74,33580,0,65700,0,0,0,0,0
i,0x00000000,1720557186.505243,172.16.3.2,5101,172.16.1.2,42029,10499,14480,0,65728,65700,6,6,4,1460,616,1,992,74,33580,0,65700,0,0,0,0,0
o,0x00000000,1720557186.505294,172.16.3.2,5101,172.16.1.2,42029,10499,14480,0,65728,65700,6,6,4,1460,616,1,993,74,33580,0,65700,1448,0,0,0,0
i,0x00000000,1720557186.544493,172.16.3.2,5101,172.16.1.2,42029,10499,14480,0,65728,65700,6,6,4,1460,616,1,992,74,33580,0,65700,0,0,0,0,0
i,0x00000000,1720557186.544706,172.16.3.2,5101,172.16.1.2,42029,10499,14480,0,65728,65700,6,6,4,1460,616,1,992,74,33580,0,65700,1448,0,0,0,0
o,0x00000000,1720557186.544741,172.16.3.2,5101,172.16.1.2,42029,10499,14480,0,65728,65700,6,6,4,1460,616,1,993,74,33580,0,65700,2896,0,0,0,0
i,0x00000000,1720557186.576010,172.16.3.2,5101,172.16.1.2,42029,10499,14480,0,65728,65700,6,6,4,1460,616,1,992,74,33580,0,65700,0,0,0,0,0
i,0x00000000,1720557186.601114,172.16.3.2,5101,172.16.1.2,42029,10499,14480,0,65728,65700,6,6,4,1460,616,1,992,74,33580,0,65700,0,0,0,0,0
o,0x00000000,1720557186.601163,172.16.3.2,5101,172.16.1.2,42029,10499,14480,0,65728,65700,6,6,4,1460,616,1,993,74,33580,0,65700,1448,0,0,0,0
i,0x00000000,1720557186.617764,172.16.3.2,5101,172.16.1.2,42029,10499,14480,0,65728,65700,6,6,4,1460,616,1,992,74,33580,0,65700,0,0,0,0,0
o,0x00000000,1720557186.656921,172.16.3.2,5101,172.16.1.2,42029,10499,14480,0,65728,65700,6,6,4,1460,616,1,993,74,33580,0,65700,0,0,0,0,0
i,0x00000000,1720557186.668872,172.16.3.2,5101,172.16.1.2,42029,10499,14480,0,65728,65700,6,6,4,1460,616,1,992,74,33580,0,65700,0,0,0,0,0
i,0x00000000,1720557186.685779,172.16.3.2,5101,172.16.1.2,42029,10499,14480,0,65728,65700,6,6,4,1460,616,1,992,74,33580,0,65700,0,0,0,0,0
o,0x00000000,1720557186.685797,172.16.3.2,5101,172.16.1.2,42029,10499,14480,0,65728,65700,6,6,4,1460,616,1,993,74,33580,0,65700,1448,0,0,0,0
i,0x00000000,1720557186.690411,172.16.3.2,5101,172.16.1.2,42029,10499,14480,0,65728,65700,6,6,4,1460,616,1,992,74,33580,0,65700,0,0,0,0,0
o,0x00000000,1720557186.727611,172.16.3.2,5101,172.16.1.2,42029,10499,14480,0,65728,65700,6,6,4,1460,616,1,993,74,33580,0,65700,0,0,0,0,0
i,0x00000000,1720557186.734657,172.16.3.2,5101,172.16.1.2,42029,10499,14480,0,65728,65700,6,6,4,1460,616,1,992,74,33580,0,65700,0,0,0,0,0
i,0x00000000,1720557186.748922,172.16.3.2,5101,172.16.1.2,42029,10499,14480,0,65728,65700,6,6,4,1460,616,1,992,74,33580,0,65700,0,0,0,0,0
o,0x00000000,1720557186.748955,172.16.3.2,5101,172.16.1.2,42029,10499,14480,0,65728,65700,6,6,4,1460,616,1,993,74,33580,0,65700,1448,0,0,0,0
i,0x00000000,1720557186.781192,172.16.3.2,5101,172.16.1.2,42029,10499,14480,0,65728,65700,6,6,4,1460,616,1,992,74,33580,0,65700,0,0,0,0,0
i,0x00000000,1720557186.784442,172.16.3.2,5101,172.16.1.2,42029,10499,14480,0,65728,65700,6,6,4,1460,616,1,992,74,33580,0,65700,0,0,0,0,0
o,0x00000000,1720557186.784478,172.16.3.2,5101,172.16.1.2,42029,10499,14480,0,65728,65700,6,6,4,1460,616,1,993,74,33580,0,65700,1448,0,0,0,0
i,0x00000000,1720557186.790925,172.16.3.2,5101,172.16.1.2,42029,10499,14480,0,65728,65700,6,6,4,1460,616,1,992,74,33580,0,65700,0,0,0,0,0
o,0x00000000,1720557186.828012,172.16.3.2,5101,172.16.1.2,42029,10499,14480,0,65728,65700,6,6,4,1460,616,1,993,74,33580,0,65700,0,0,0,0,0
i,0x00000000,1720557186.830323,172.16.3.2,5101,172.16.1.2,42029,10499,14480,0,65728,65700,6,6,4,1460,616,1,992,74,33580,0,65700,0,0,0,0,0
o,0x00000000,1720557186.830926,10.0.2.15,22,10.0.2.2,49435,1073725440,14600,0,65535,65700,0,0,4,1460,1,0,4,24,33580,108,65700,0,0,0,0,0
i,0x00000000,1720557186.834124,10.0.2.15,22,10.0.2.2,49435,1073725440,14600,0,65535,65700,0,0,4,1460,1,0,4,24,33580,108,65700,0,108,0,0,0
i,0x00000000,1720557186.841517,172.16.3.2,5101,172.16.1.2,42029,10499,14480,0,65728,65700,6,6,4,1460,616,1,992,74,33580,0,65700,0,0,0,0,0
o,0x00000000,1720557186.841574,172.16.3.2,5101,172.16.1.2,42029,10499,14480,0,65728,65700,6,6,4,1460,616,1,993,74,33580,0,65700,1448,0,0,0,0
i,0x00000000,1720557186.861060,172.16.3.2,5101,172.16.1.2,42029,10499,14480,0,65728,65700,6,6,4,1460,616,1,992,74,33580,0,65700,0,0,0,0,0
o,0x00000000,1720557186.861097,172.16.3.2,5101,172.16.1.2,42029,10499,14480,0,65728,65700,6,6,4,1460,616,1,993,74,33580,0,65700,0,0,1,0,0
i,0x00000000,1720557186.900833,172.16.3.2,5101,172.16.1.2,42029,10499,14480,0,65728,65700,6,6,4,1460,616,1,992,74,33580,0,65700,0,0,1,0,0
o,0x00000000,1720557186.900885,172.16.3.2,5101,172.16.1.2,42029,10499,14480,0,65728,65728,6,6,4,1460,616,1,993,74,33580,0,65700,0,0,2,0,0
i,0x00000000,1720557186.965362,172.16.3.2,5101,172.16.1.2,42029,10499,14480,0,65728,65728,6,6,4,1460,616,1,992,74,33580,0,65700,0,0,2,0,0
o,0x00000000,1720557186.965406,172.16.3.2,5101,172.16.1.2,42029,10499,14480,0,65728,65728,6,6,4,1460,616,1,993,74,33580,0,65700,0,0,3,0,0
i,0x00000000,1720557186.972120,172.16.3.2,5101,172.16.1.2,42029,10499,14480,0,65728,65728,6,6,4,1460,616,1,992,74,33580,0,65700,0,0,3,0,0
o,0x00000000,1720557186.972182,172.16.3.2,5101,172.16.1.2,42029,10499,14480,0,65728,65728,6,6,4,1460,616,1,993,74,33580,0,65700,0,0,3,0,0
i,0x00000000,1720557187.012039,172.16.3.2,5101,172.16.1.2,42029,10499,14480,0,65728,65728,6,6,4,1460,616,1,992,74,33580,0,65700,0,0,3,0,0
o,0x00000000,1720557187.012072,172.16.3.2,5101,172.16.1.2,42029,10499,14480,0,65728,65728,6,6,4,1460,616,1,993,74,33580,0,65700,0,0,4,0,0
i,0x00000000,1720557187.061668,172.16.3.2,5101,172.16.1.2,42029,10499,14480,0,65728,65728,6,6,4,1460,616,1,992,74,33580,0,65700,0,0,4,0,0
o,0x00000000,1720557187.061695,172.16.3.2,5101,172.16.1.2,42029,10499,14480,0,65728,65728,6,6,4,1460,616,1,993,74,33580,0,65700,0,0,4,0,0
i,0x00000000,1720557187.068513,172.16.3.2,5101,172.16.1.2,42029,10499,14480,0,65728,65728,6,6,4,1460,616,1,992,74,33580,0,65700,0,0,4,0,0
o,0x00000000,1720557187.068536,172.16.3.2,5101,172.16.1.2,42029,10499,14480,0,65728,65728,6,6,4,1460,616,1,993,74,33580,0,65700,0,0,5,0,0
i,0x00000000,1720557187.098520,172.16.3.2,5101,172.16.1.2,42029,10499,14480,0,65728,65728,6,6,4,1460,616,1,992,74,33580,0,65700,0,0,5,0,0
o,0x00000000,1720557187.098557,172.16.3.2,5101,172.16.1.2,42029,10499,14480,0,65728,65728,6,6,4,1460,616,1,993,74,33580,0,65700,0,0,5,0,0
i,0x00000000,1720557187.110447,172.16.3.2,5101,172.16.1.2,42029,10499,14480,0,65728,65728,6,6,4,1460,616,1,992,74,33580,0,65700,0,0,5,0,0
o,0x00000000,1720557187.110479,172.16.3.2,5101,172.16.1.2,42029,10499,14480,0,65728,65728,6,6,4,1460,616,1,993,74,33580,0,65700,0,0,5,0,0
i,0x00000000,1720557187.120268,172.16.3.2,5101,172.16.1.2,42029,10499,14480,0,65728,65728,6,6,4,1460,616,1,992,74,33580,0,65700,0,0,5,0,0
o,0x00000000,1720557187.120292,172.16.3.2,5101,172.16.1.2,42029,10499,14480,0,65728,65728,6,6,4,1460,616,1,993,74,33580,0,65700,0,0,5,0,0
i,0x00000000,1720557187.138942,172.16.3.2,5101,172.16.1.2,42029,10499,14480,0,65728,65728,6,6,4,1460,616,1,992,74,33580,0,65700,0,0,5,0,0
o,0x00000000,1720557187.138953,172.16.3.2,5101,172.16.1.2,42029,10499,14480,0,65728,65728,6,6,4,1460,616,1,993,74,33580,0,65700,0,0,5,0,0
i,0x00000000,1720557187.148435,172.16.3.2,5101,172.16.1.2,42029,10499,14480,0,65728,65728,6,6,4,1460,616,1,992,74,33580,0,65700,0,0,5,0,0
o,0x00000000,1720557187.148448,172.16.3.2,5101,172.16.1.2,42029,10499,14480,0,65728,65728,6,6,4,1460,616,1,993,74,33580,0,65700,0,0,5,0,0
i,0x00000000,1720557187.167828,172.16.3.2,5101,172.16.1.2,42029,10499,14480,0,65728,65728,6,6,4,1460,616,1,992,74,33580,0,65700,0,0,5,0,0
o,0x00000000,1720557187.167839,172.16.3.2,5101,172.16.1.2,42029,10499,14480,0,65728,65728,6,6,4,1460,616,1,993,74,33580,0,65700,0,0,5,0,0
i,0x00000000,1720557187.205470,172.16.3.2,5101,172.16.1.2,42029,10499,14480,0,65728,65728,6,6,4,1460,616,1,992,74,33580,0,65700,0,0,5,0,0
o,0x00000000,1720557187.205481,172.16.3.2,5101,172.16.1.2,42029,10499,14480,0,65728,65728,6,6,4,1460,616,1,993,74,33580,0,65700,0,0,4,0,0
i,0x00000000,1720557187.252299,172.16.3.2,5101,172.16.1.2,42029,10499,14480,0,65728,65728,6,6,4,1460,616,1,992,74,33580,0,65700,0,0,4,0,0
o,0x00000000,1720557187.252346,172.16.3.2,5101,172.16.1.2,42029,10499,14480,0,65728,65728,6,6,4,1460,616,1,993,74,33580,0,65700,0,0,3,0,0
i,0x00000000,1720557187.299984,172.16.3.2,5101,172.16.1.2,42029,10499,14480,0,65728,65728,6,6,4,1460,616,1,992,74,33580,0,65700,0,0,3,0,0
o,0x00000000,1720557187.300027,172.16.3.2,5101,172.16.1.2,42029,10499,14480,0,65728,65728,6,6,4,1460,616,1,993,74,33580,0,65700,0,0,2,0,0
i,0x00000000,1720557187.304956,172.16.3.2,5101,172.16.1.2,42029,10499,14480,0,65728,65728,6,6,4,1460,616,1,992,74,33580,0,65700,0,0,2,0,0
o,0x00000000,1720557187.304982,172.16.3.2,5101,172.16.1.2,42029,10499,14480,0,65728,65728,6,6,4,1460,616,1,993,74,33580,0,65700,0,0,1,0,0
i,0x00000000,1720557187.321663,172.16.3.2,5101,172.16.1.2,42029,10499,14480,0,65728,65728,6,6,4,1460,616,1,992,74,33580,0,65700,0,0,1,0,0
o,0x00000000,1720557187.321696,172.16.3.2,5101,172.16.1.2,42029,10499,14480,0,65728,65728,6,6,4,1460,616,1,993,74,33580,0,65700,0,0,1,0,0
i,0x00000000,1720557187.346156,172.16.3.2,5101,172.16.1.2,42029,10499,14480,0,65728,65728,6,6,4,1460,616,1,992,74,33580,0,65700,0,0,1,0,0
o,0x00000000,1720557187.346198,172.16.3.2,5101,172.16.1.2,42029,10499,14480,0,65728,65728,6,6,4,1460,616,1,993,74,33580,0,65700,0,0,1,0,0
i,0x00000000,1720557187.352360,172.16.3.2,5101,172.16.1.2,42029,10499,14480,0,65728,65728,6,6,4,1460,616,1,992,74,33580,0,65700,0,0,1,0,0
o,0x00000000,1720557187.352390,172.16.3.2,5101,172.16.1.2,42029,10499,14480,0,65728,65728,6,6,4,1460,616,1,993,74,33580,0,65700,0,0,1,0,0
i,0x00000000,1720557187.379624,172.16.3.2,5101,172.16.1.2,42029,10499,14480,0,65728,65728,6,6,4,1460,616,1,992,74,33580,0,65700,0,0,1,0,0
o,0x00000000,1720557187.379658,172.16.3.2,5101,172.16.1.2,42029,10499,14480,0,65728,65728,6,6,4,1460,616,1,993,74,33580,0,65700,0,0,1,0,0
i,0x00000000,1720557187.422719,172.16.3.2,5101,172.16.1.2,42029,10499,14480,0,65728,65728,6,6,4,1460,616,1,992,74,33580,0,65700,0,0,1,0,0
o,0x00000000,1720557187.422753,172.16.3.2,5101,172.16.1.2,42029,10499,14480,0,65728,65728,6,6,4,1460,616,1,993,74,33580,0,65700,0,0,1,0,0
i,0x00000000,1720557187.442356,172.16.3.2,5101,172.16.1.2,42029,10499,14480,0,65728,65728,6,6,4,1460,616,1,992,74,33580,0,65700,0,0,1,0,0
o,0x00000000,1720557187.442388,172.16.3.2,5101,172.16.1.2,42029,10499,14480,0,65728,65728,6,6,4,1460,616,1,993,74,33580,0,65700,0,0,1,0,0
i,0x00000000,1720557187.450595,172.16.3.2,5101,172.16.1.2,42029,10499,14480,0,65728,65728,6,6,4,1460,616,1,992,74,33580,0,65700,0,0,1,0,0
o,0x00000000,1720557187.450637,172.16.3.2,5101,172.16.1.2,42029,10499,14480,0,65728,65728,6,6,4,1460,616,1,993,74,33580,0,65700,0,0,1,0,0
i,0x00000000,1720557187.478967,172.16.3.2,5101,172.16.1.2,42029,10499,14480,0,65728,65728,6,6,4,1460,616,1,992,74,33580,0,65700,0,0,1,0,0
o,0x00000000,1720557187.479008,172.16.3.2,5101,172.16.1.2,42029,10499,14480,0,65728,65728,6,6,4,1460,616,1,993,74,33580,0,65700,0,0,1,0,0
i,0x00000000,1720557187.541687,172.16.3.2,5101,172.16.1.2,42029,10499,14480,0,65728,65728,6,6,4,1460,616,1,992,74,33580,0,65700,0,0,1,0,0
o,0x00000000,1720557187.541731,172.16.3.2,5101,172.16.1.2,42029,10499,14480,0,65728,65728,6,6,4,1460,616,1,993,74,33580,0,65700,0,0,1,0,0
i,0x00000000,1720557187.550441,172.16.3.2,5101,172.16.1.2,42029,10499,14480,0,65728,65728,6,6,4,1460,616,1,992,74,33580,0,65700,0,0,1,0,0
o,0x00000000,1720557187.550475,172.16.3.2,5101,172.16.1.2,42029,10499,14480,0,65728,65728,6,6,4,1460,616,1,993,74,33580,0,65700,0,0,1,0,0
i,0x00000000,1720557187.559806,172.16.3.2,5101,172.16.1.2,42029,10499,14480,0,65728,65728,6,6,4,1460,616,1,992,74,33580,0,65700,0,0,1,0,0
o,0x00000000,1720557187.559849,172.16.3.2,5101,172.16.1.2,42029,10499,14480,0,65728,65728,6,6,4,1460,616,1,993,74,33580,0,65700,0,0,1,0,0
i,0x00000000,1720557187.583638,172.16.3.2,5101,172.16.1.2,42029,10499,14480,0,65728,65728,6,6,4,1460,616,1,992,74,33580,0,65700,0,0,1,0,0
o,0x00000000,1720557187.583676,172.16.3.2,5101,172.16.1.2,42029,10499,14480,0,65728,65728,6,6,4,1460,616,1,993,74,33580,0,65700,0,0,1,0,0
i,0x00000000,1720557187.634556,172.16.3.2,5101,172.16.1.2,42029,10499,14480,0,65728,65728,6,6,4,1460,616,1,992,74,33580,0,65700,0,0,1,0,0
o,0x00000000,1720557187.634591,172.16.3.2,5101,172.16.1.2,42029,10499,14480,0,65728,65728,6,6,4,1460,616,1,993,74,33580,0,65700,0,0,1,0,0
i,0x00000000,1720557187.640445,172.16.3.2,5101,172.16.1.2,42029,10499,14480,0,65728,65728,6,6,4,1460,616,1,992,74,33580,0,65700,0,0,1,0,0
o,0x00000000,1720557187.640473,172.16.3.2,5101,172.16.1.2,42029,10499,14480,0,65728,65728,6,6,4,1460,616,1,993,74,33580,0,65700,0,0,1,0,0
i,0x00000000,1720557187.651571,172.16.3.2,5101,172.16.1.2,42029,10499,14480,0,65728,65728,6,6,4,1460,616,1,992,74,33580,0,65700,0,0,1,0,0
o,0x00000000,1720557187.651604,172.16.3.2,5101,172.16.1.2,42029,10499,14480,0,65728,65728,6,6,4,1460,616,1,993,74,33580,0,65700,0,0,1,0,0
i,0x00000000,1720557187.705853,172.16.3.2,5101,172.16.1.2,42029,10499,14480,0,65728,65728,6,6,4,1460,616,1,992,74,33580,0,65700,0,0,1,0,0
o,0x00000000,1720557187.705895,172.16.3.2,5101,172.16.1.2,42029,10499,14480,0,65728,65728,6,6,4,1460,616,1,993,74,33580,0,65700,0,0,1,0,0
i,0x00000000,1720557187.730978,172.16.3.2,5101,172.16.1.2,42029,10499,14480,0,65728,65728,6,6,4,1460,616,1,992,74,33580,0,65700,0,0,1,0,0
o,0x00000000,1720557187.731011,172.16.3.2,5101,172.16.1.2,42029,10499,14480,0,65728,65728,6,6,4,1460,616,1,993,74,33580,0,65700,0,0,1,0,0
i,0x00000000,1720557187.741057,172.16.3.2,5101,172.16.1.2,42029,10499,14480,0,65728,65728,6,6,4,1460,616,1,992,74,33580,0,65700,0,0,1,0,0
o,0x00000000,1720557187.741091,172.16.3.2,5101,172.16.1.2,42029,10499,14480,0,65728,65728,6,6,4,1460,616,1,993,74,33580,0,65700,0,0,1,0,0
i,0x00000000,1720557187.750541,172.16.3.2,5101,172.16.1.2,42029,10499,14480,0,65728,65728,6,6,4,1460,616,1,992,74,33580,0,65700,0,0,1,0,0
o,0x00000000,1720557187.750574,172.16.3.2,5101,172.16.1.2,42029,10499,14480,0,65728,65728,6,6,4,1460,616,1,993,74,33580,0,65700,0,0,1,0,0
i,0x00000000,1720557187.801299,172.16.3.2,5101,172.16.1.2,42029,10499,14480,0,65728,65728,6,6,4,1460,616,1,992,74,33580,0,65700,0,0,1,0,0
o,0x00000000,1720557187.801355,172.16.3.2,5101,172.16.1.2,42029,10499,14480,0,65728,65728,6,6,4,1460,616,1,993,74,33580,0,65700,53576,0,0,0,0
o,0x00000000,1720557187.802119,172.16.3.2,5101,172.16.1.2,42029,10499,14480,0,65728,65728,6,6,4,1460,616,1,992,74,33580,0,65700,35448,0,0,0,0
o,0x00000000,1720557187.804622,172.16.3.2,5101,172.16.1.2,42029,10499,14480,0,65728,65728,6,6,4,1460,616,1,992,74,33580,0,65700,0,0,0,0,0
o,0x00000000,1720557187.818808,10.0.2.15,22,10.0.2.2,49435,1073725440,14600,0,65535,65700,0,0,4,1460,1,0,4,24,33580,108,65700,0,0,0,0,0
i,0x00000000,1720557187.822528,10.0.2.15,22,10.0.2.2,49435,1073725440,14600,0,65535,65700,0,0,4,1460,1,0,4,24,33580,108,65700,0,108,0,0,0
i,0x00000000,1720557187.832763,172.16.3.2,5101,172.16.1.2,42029,10499,14480,0,65728,65728,6,6,4,1460,616,1,992,74,33580,0,65700,0,0,0,0,0
o,0x00000000,1720557187.832799,172.16.3.2,5101,172.16.1.2,42029,10499,14480,0,65728,65728,6,6,4,1460,616,1,993,74,33580,0,65700,0,0,0,0,0
i,0x00000000,1720557187.841357,172.16.3.2,5101,172.16.1.2,42029,10499,14480,0,65728,65728,6,6,4,1460,616,1,992,74,33580,0,65700,0,0,0,0,0
i,0x00000000,1720557187.855257,172.16.3.2,5101,172.16.1.2,42029,10499,14480,0,65728,65728,6,6,4,1460,616,1,992,74,33580,0,65700,0,0,0,0,0
o,0x00000000,1720557187.855295,172.16.3.2,5101,172.16.1.2,42029,10499,14480,0,65728,65728,6,6,4,1460,616,1,993,74,33580,0,65700,1448,0,0,0,0
i,0x00000000,1720557187.871052,172.16.3.2,5101,172.16.1.2,42029,10499,14480,0,65728,65728,6,6,4,1460,616,1,992,74,33580,0,65700,0,0,0,0,0
o,0x00000000,1720557187.907235,172.16.3.2,5101,172.16.1.2,42029,10499,14480,0,65728,65728,6,6,4,1460,616,1,993,74,33580,0,65700,0,0,0,0,0
i,0x00000000,1720557187.982887,172.16.3.2,5101,172.16.1.2,42029,10499,14480,0,65728,65728,6,6,4,1460,616,1,992,74,33580,0,65700,0,0,0,0,0
i,0x00000000,1720557187.990912,172.16.3.2,5101,172.16.1.2,42029,10499,14480,0,65728,65728,6,6,4,1460,616,1,992,74,33580,0,65700,0,0,0,0,0
o,0x00000000,1720557187.990955,172.16.3.2,5101,172.16.1.2,42029,10499,14480,0,65728,65728,6,6,4,1460,616,1,993,74,33580,0,65700,1448,0,0,0,0
i,0x00000000,1720557188.001308,172.16.3.2,5101,172.16.1.2,42029,10499,14480,0,65728,65728,6,6,4,1460,616,1,992,74,33580,0,65700,0,0,0,0,0
i,0x00000000,1720557188.021579,172.16.3.2,5101,172.16.1.2,42029,10499,14480,0,65728,65728,6,6,4,1460,616,1,992,74,33580,0,65700,0,0,0,0,0
o,0x00000000,1720557188.021610,172.16.3.2,5101,172.16.1.2,42029,10499,14480,0,65728,65728,6,6,4,1460,616,1,993,74,33580,0,65700,1448,0,0,0,0
i,0x00000000,1720557188.030255,172.16.3.2,5101,172.16.1.2,42029,10499,14480,0,65728,65728,6,6,4,1460,616,1,992,74,33580,0,65700,0,0,0,0,0
o,0x00000000,1720557188.068092,172.16.3.2,5101,172.16.1.2,42029,10499,14480,0,65728,65728,6,6,4,1460,616,1,993,74,33580,0,65700,0,0,0,0,0
i,0x00000000,1720557188.082072,172.16.3.2,5101,172.16.1.2,42029,10499,14480,0,65728,65728,6,6,4,1460,616,1,992,74,33580,0,65700,0,0,0,0,0
i,0x00000000,1720557188.093539,172.16.3.2,5101,172.16.1.2,42029,10499,14480,0,65728,65728,6,6,4,1460,616,1,992,74,33580,0,65700,0,0,0,0,0
o,0x00000000,1720557188.093582,172.16.3.2,5101,172.16.1.2,42029,10499,14480,0,65728,65728,6,6,4,1460,616,1,993,74,33580,0,65700,1448,0,0,0,0
i,0x00000000,1720557188.179891,172.16.3.2,5101,172.16.1.2,42029,10499,14480,0,65728,65728,6,6,4,1460,616,1,992,74,33580,0,65700,0,0,0,0,0
i,0x00000000,1720557188.191103,172.16.3.2,5101,172.16.1.2,42029,10499,14480,0,65728,65728,6,6,4,1460,616,1,992,74,33580,0,65700,0,0,0,0,0
o,0x00000000,1720557188.191155,172.16.3.2,5101,172.16.1.2,42029,10499,14480,0,65728,65728,6,6,4,1460,616,1,993,74,33580,0,65700,1448,0,0,0,0
i,0x00000000,1720557188.198965,172.16.3.2,5101,172.16.1.2,42029,10499,14480,0,65728,65728,6,6,4,1460,616,1,992,74,33580,0,65700,0,0,0,0,0
i,0x00000000,1720557188.220264,172.16.3.2,5101,172.16.1.2,42029,10499,14480,0,65728,65728,6,6,4,1460,616,1,992,74,33580,0,65700,0,0,0,0,0
o,0x00000000,1720557188.220280,172.16.3.2,5101,172.16.1.2,42029,10499,14480,0,65728,65728,6,6,4,1460,616,1,993,74,33580,0,65700,1448,0,0,0,0
i,0x00000000,1720557188.250715,172.16.3.2,5101,172.16.1.2,42029,10499,14480,0,65728,65728,6,6,4,1460,616,1,992,74,33580,0,65700,0,0,0,0,0
i,0x00000000,1720557188.261079,172.16.3.2,5101,172.16.1.2,42029,10499,14480,0,65728,65728,6,6,4,1460,616,1,992,74,33580,0,65700,0,0,0,0,0
o,0x00000000,1720557188.261119,172.16.3.2,5101,172.16.1.2,42029,10499,14480,0,65728,65728,6,6,4,1460,616,1,993,74,33580,0,65700,1448,0,0,0,0
i,0x00000000,1720557188.292891,172.16.3.2,5101,172.16.1.2,42029,10499,14480,0,65728,65728,6,6,4,1460,616,1,992,74,33580,0,65700,0,0,0,0,0
i,0x00000000,1720557188.327525,172.16.3.2,5101,172.16.1.2,42029,10499,14480,0,65728,65728,6,6,4,1460,616,1,992,74,33580,0,65700,0,0,0,0,0
o,0x00000000,1720557188.327566,172.16.3.2,5101,172.16.1.2,42029,10499,14480,0,65728,65728,6,6,4,1460,616,1,993,74,33580,0,65700,1448,0,0,0,0
i,0x00000000,1720557188.357232,172.16.3.2,5101,172.16.1.2,42029,10499,14480,0,65728,65728,6,6,4,1460,616,1,992,74,33580,0,65700,0,0,0,0,0
i,0x00000000,1720557188.372384,172.16.3.2,5101,172.16.1.2,42029,10499,14480,0,65728,65728,6,6,4,1460,616,1,992,74,33580,0,65700,0,0,0,0,0
o,0x00000000,1720557188.372419,172.16.3.2,5101,172.16.1.2,42029,10499,14480,0,65728,65728,6,6,4,1460,616,1,993,74,33580,0,65700,1448,0,0,0,0
i,0x00000000,1720557188.381298,172.16.3.2,5101,172.16.1.2,42029,10499,14480,0,65728,65728,6,6,4,1460,616,1,992,74,33580,0,65700,0,0,0,0,0
i,0x00000000,1720557188.391460,172.16.3.2,5101,172.16.1.2,42029,10499,14480,0,65728,65728,6,6,4,1460,616,1,992,74,33580,0,65700,0,0,0,0,0
o,0x00000000,1720557188.391497,172.16.3.2,5101,172.16.1.2,42029,10499,14480,0,65728,65728,6,6,4,1460,616,1,993,74,33580,0,65700,1448,0,0,0,0
i,0x00000000,1720557188.441975,172.16.3.2,5101,172.16.1.2,42029,10499,14480,0,65728,65728,6,6,4,1460,616,1,992,74,33580,0,65700,0,0,0,0,0
o,0x00000000,1720557188.477973,172.16.3.2,5101,172.16.1.2,42029,10499,14480,0,65728,65728,6,6,4,1460,616,1,993,74,33580,0,65700,0,0,0,0,0
i,0x00000000,1720557188.501648,172.16.3.2,5101,172.16.1.2,42029,10499,14480,0,65728,65728,6,6,4,1460,616,1,992,74,33580,0,65700,0,0,0,0,0
i,0x00000000,1720557188.511893,172.16.3.2,5101,172.16.1.2,42029,10499,14480,0,65728,65728,6,6,4,1460,616,1,992,74,33580,0,65700,0,0,0,0,0
o,0x00000000,1720557188.511943,172.16.3.2,5101,172.16.1.2,42029,10499,14480,0,65728,65728,6,6,4,1460,616,1,993,74,33580,0,65700,1448,0,0,0,0
i,0x00000000,1720557188.514643,172.16.3.2,5101,172.16.1.2,42029,10499,14480,0,65728,65728,6,6,4,1460,616,1,992,74,33580,0,65700,1448,0,0,0,0
o,0x00000000,1720557188.548250,172.16.3.2,5101,172.16.1.2,42029,10499,14480,0,65728,65728,6,6,4,1460,616,1,993,74,33580,0,65700,0,0,0,0,0
i,0x00000000,1720557188.553368,172.16.3.2,5101,172.16.1.2,42029,10499,14480,0,65728,65728,6,6,4,1460,616,1,992,74,33580,0,65700,0,0,0,0,0
o,0x00000000,1720557188.588270,172.16.3.2,5101,172.16.1.2,42029,10499,14480,0,65728,65728,6,6,4,1460,616,1,993,74,33580,0,65700,0,0,0,0,0
i,0x00000000,1720557188.595055,172.16.3.2,5101,172.16.1.2,42029,10499,14480,0,65728,65728,6,6,4,1460,616,1,992,74,33580,0,65700,0,0,0,0,0
i,0x00000000,1720557188.595084,172.16.3.2,5101,172.16.1.2,42029,10499,14480,0,65728,65728,6,6,4,1460,616,1,992,74,33580,0,65700,1448,0,0,0,0
o,0x00000000,1720557188.595112,172.16.3.2,5101,172.16.1.2,42029,10499,14480,0,65728,65728,6,6,4,1460,616,1,993,74,33580,0,65700,2896,0,0,0,0
i,0x00000000,1720557188.602708,172.16.3.2,5101,172.16.1.2,42029,10499,14480,0,65728,65728,6,6,4,1460,616,1,992,74,33580,0,65700,0,0,0,0,0
o,0x00000000,1720557188.637746,172.16.3.2,5101,172.16.1.2,42029,10499,14480,0,65728,65728,6,6,4,1460,616,1,993,74,33580,0,65700,0,0,0,0,0
i,0x00000000,1720557188.645781,172.16.3.2,5101,172.16.1.2,42029,10499,14480,0,65728,65728,6,6,4,1460,616,1,992,74,33580,0,65700,0,0,0,0,0
i,0x00000000,1720557188.645819,172.16.3.2,5101,172.16.1.2,42029,10499,14480,0,65728,65728,6,6,4,1460,616,1,992,74,33580,0,65700,1448,0,0,0,0
o,0x00000000,1720557188.645858,172.16.3.2,5101,172.16.1.2,42029,10499,14480,0,65728,65728,6,6,4,1460,616,1,993,74,33580,0,65700,2896,0,0,0,0
i,0x00000000,1720557188.697055,172.16.3.2,5101,172.16.1.2,42029,10499,14480,0,65728,65728,6,6,4,1460,616,1,992,74,33580,0,65700,0,0,0,0,0
i,0x00000000,1720557188.717871,172.16.3.2,5101,172.16.1.2,42029,10499,14480,0,65728,65728,6,6,4,1460,616,1,992,74,33580,0,65700,0,0,0,0,0
o,0x00000000,1720557188.717889,172.16.3.2,5101,172.16.1.2,42029,10499,14480,0,65728,65728,6,6,4,1460,616,1,993,74,33580,0,65700,1448,0,0,0,0
i,0x00000000,1720557188.741226,172.16.3.2,5101,172.16.1.2,42029,10499,14480,0,65728,65728,6,6,4,1460,616,1,992,74,33580,0,65700,0,0,0,0,0
i,0x00000000,1720557188.748523,172.16.3.2,5101,172.16.1.2,42029,10499,14480,0,65728,65728,6,6,4,1460,616,1,992,74,33580,0,65700,0,0,0,0,0
o,0x00000000,1720557188.748554,172.16.3.2,5101,172.16.1.2,42029,10499,14480,0,65728,65728,6,6,4,1460,616,1,993,74,33580,0,65700,1448,0,0,0,0
i,0x00000000,1720557188.805609,172.16.3.2,5101,172.16.1.2,42029,10499,14480,0,65728,65728,6,6,4,1460,616,1,992,74,33580,0,65700,0,0,0,0,0
o,0x00000000,1720557188.828201,10.0.2.15,22,10.0.2.2,49435,1073725440,14600,0,65535,65700,0,0,4,1460,1,0,4,24,33580,108,65700,0,0,0,0,0
i,0x00000000,1720557188.831161,10.0.2.15,22,10.0.2.2,49435,1073725440,14600,0,65535,65700,0,0,4,1460,1,0,4,24,33580,108,65700,0,108,0,0,0
o,0x00000000,1720557188.837483,172.16.3.2,5101,172.16.1.2,42029,10499,14480,0,65728,65728,6,6,4,1460,616,1,993,74,33580,0,65700,0,0,0,0,0
i,0x00000000,1720557188.842836,172.16.3.2,5101,172.16.1.2,42029,10499,14480,0,65728,65728,6,6,4,1460,616,1,992,74,33580,0,65700,0,0,0,0,0
i,0x00000000,1720557188.850330,172.16.3.2,5101,172.16.1.2,42029,10499,14480,0,65728,65728,6,6,4,1460,616,1,992,74,33580,0,65700,0,0,0,0,0
o,0x00000000,1720557188.850371,172.16.3.2,5101,172.16.1.2,42029,10499,14480,0,65728,65728,6,6,4,1460,616,1,993,74,33580,0,65700,1448,0,0,0,0
i,0x00000000,1720557188.859493,172.16.3.2,5101,172.16.1.2,42029,10499,14480,0,65728,65728,6,6,4,1460,616,1,992,74,33580,0,65700,0,0,0,0,0
o,0x00000000,1720557188.898557,172.16.3.2,5101,172.16.1.2,42029,10499,14480,0,65728,65728,6,6,4,1460,616,1,993,74,33580,0,65700,0,0,0,0,0
i,0x00000000,1720557188.903400,172.16.3.2,5101,172.16.1.2,42029,10499,14480,0,65728,65728,6,6,4,1460,616,1,992,74,33580,0,65700,0,0,0,0,0
i,0x00000000,1720557188.910357,172.16.3.2,5101,172.16.1.2,42029,10499,14480,0,65728,65728,6,6,4,1460,616,1,992,74,33580,0,65700,0,0,0,0,0
o,0x00000000,1720557188.910378,172.16.3.2,5101,172.16.1.2,42029,10499,14480,0,65728,65728,6,6,4,1460,616,1,993,74,33580,0,65700,1448,0,0,0,0
i,0x00000000,1720557188.962202,172.16.3.2,5101,172.16.1.2,42029,10499,14480,0,65728,65728,6,6,4,1460,616,1,992,74,33580,0,65700,0,0,0,0,0
i,0x00000000,1720557188.969935,172.16.3.2,5101,172.16.1.2,42029,10499,14480,0,65728,65728,6,6,4,1460,616,1,992,74,33580,0,65700,0,0,0,0,0
o,0x00000000,1720557188.969981,172.16.3.2,5101,172.16.1.2,42029,10499,14480,0,65728,65728,6,6,4,1460,616,1,993,74,33580,0,65700,1448,0,0,0,0
i,0x00000000,1720557188.979915,172.16.3.2,5101,172.16.1.2,42029,10499,14480,0,65728,65728,6,6,4,1460,616,1,992,74,33580,0,65700,0,0,0,0,0
o,0x00000000,1720557189.016873,172.16.3.2,5101,172.16.1.2,42029,10499,14480,0,65728,65728,6,6,4,1460,616,1,993,74,33580,0,65700,0,0,0,0,0
i,0x00000000,1720557189.042396,172.16.3.2,5101,172.16.1.2,42029,10499,14480,0,65728,65728,6,6,4,1460,616,1,992,74,33580,0,65700,0,0,0,0,0
i,0x00000000,1720557189.045880,172.16.3.2,5101,172.16.1.2,42029,10499,14480,0,65728,65728,6,6,4,1460,616,1,992,74,33580,0,65700,0,0,0,0,0
o,0x00000000,1720557189.045926,172.16.3.2,5101,172.16.1.2,42029,10499,14480,0,65728,65728,6,6,4,1460,616,1,993,74,33580,0,65700,1448,0,0,0,0
i,0x00000000,1720557189.071836,172.16.3.2,5101,172.16.1.2,42029,10499,14480,0,65728,65728,6,6,4,1460,616,1,992,74,33580,0,65700,0,0,0,0,0
o,0x00000000,1720557189.108151,172.16.3.2,5101,172.16.1.2,42029,10499,14480,0,65728,65728,6,6,4,1460,616,1,993,74,33580,0,65700,0,0,0,0,0
i,0x00000000,1720557189.110148,172.16.3.2,5101,172.16.1.2,42029,10499,14480,0,65728,65728,6,6,4,1460,616,1,992,74,33580,0,65700,0,0,0,0,0
i,0x00000000,1720557189.122239,172.16.3.2,5101,172.16.1.2,42029,10499,14480,0,65728,65728,6,6,4,1460,616,1,992,74,33580,0,65700,0,0,0,0,0
o,0x00000000,1720557189.122262,172.16.3.2,5101,172.16.1.2,42029,10499,14480,0,65728,65728,6,6,4,1460,616,1,993,74,33580,0,65700,1448,0,0,0,0
i,0x00000000,1720557189.133690,172.16.3.2,5101,172.16.1.2,42029,10499,14480,0,65728,65728,6,6,4,1460,616,1,992,74,33580,0,65700,0,0,0,0,0
o,0x00000000,1720557189.166932,172.16.3.2,5101,172.16.1.2,42029,10499,14480,0,65728,65728,6,6,4,1460,616,1,993,74,33580,0,65700,0,0,0,0,0
i,0x00000000,1720557189.169679,172.16.3.2,5101,172.16.1.2,42029,10499,14480,0,65728,65728,6,6,4,1460,616,1,992,74,33580,0,65700,0,0,0,0,0
i,0x00000000,1720557189.182368,172.16.3.2,5101,172.16.1.2,42029,10499,14480,0,65728,65728,6,6,4,1460,616,1,992,74,33580,0,65700,0,0,0,0,0
o,0x00000000,1720557189.182420,172.16.3.2,5101,172.16.1.2,42029,10499,14480,0,65728,65728,6,6,4,1460,616,1,993,74,33580,0,65700,1448,0,0,0,0
i,0x00000000,1720557189.202706,172.16.3.2,5101,172.16.1.2,42029,10499,14480,0,65728,65728,6,6,4,1460,616,1,992,74,33580,0,65700,0,0,0,0,0
o,0x00000000,1720557189.238656,172.16.3.2,5101,172.16.1.2,42029,10499,14480,0,65728,65728,6,6,4,1460,616,1,993,74,33580,0,65700,0,0,0,0,0
i,0x00000000,1720557189.240213,172.16.3.2,5101,172.16.1.2,42029,10499,14480,0,65728,65728,6,6,4,1460,616,1,992,74,33580,0,65700,0,0,0,0,0
i,0x00000000,1720557189.253170,172.16.3.2,5101,172.16.1.2,42029,10499,14480,0,65728,65728,6,6,4,1460,616,1,992,74,33580,0,65700,0,0,0,0,0
o,0x00000000,1720557189.253211,172.16.3.2,5101,172.16.1.2,42029,10499,14480,0,65728,65728,6,6,4,1460,616,1,993,74,33580,0,65700,1448,0,0,0,0
i,0x00000000,1720557189.319463,172.16.3.2,5101,172.16.1.2,42029,10499,14480,0,65728,65728,6,6,4,1460,616,1,992,74,33580,0,65700,0,0,0,0,0
i,0x00000000,1720557189.333377,172.16.3.2,5101,172.16.1.2,42029,10499,14480,0,65728,65728,6,6,4,1460,616,1,992,74,33580,0,65700,0,0,0,0,0
o,0x00000000,1720557189.333416,172.16.3.2,5101,172.16.1.2,42029,10499,14480,0,65728,65728,6,6,4,1460,616,1,993,74,33580,0,65700,1448,0,0,0,0
i,0x00000000,1720557189.352305,172.16.3.2,5101,172.16.1.2,42029,10499,14480,0,65728,65728,6,6,4,1460,616,1,992,74,33580,0,65700,0,0,0,0,0
o,0x00000000,1720557189.387759,172.16.3.2,5101,172.16.1.2,42029,10499,14480,0,65728,65728,6,6,4,1460,616,1,993,74,33580,0,65700,0,0,0,0,0
i,0x00000000,1720557189.401375,172.16.3.2,5101,172.16.1.2,42029,10499,14480,0,65728,65728,6,6,4,1460,616,1,992,74,33580,0,65700,0,0,0,0,0
i,0x00000000,1720557189.413800,172.16.3.2,5101,172.16.1.2,42029,10499,14480,0,65728,65728,6,6,4,1460,616,1,992,74,33580,0,65700,0,0,0,0,0
o,0x00000000,1720557189.413837,172.16.3.2,5101,172.16.1.2,42029,10499,14480,0,65728,65728,6,6,4,1460,616,1,993,74,33580,0,65700,1448,0,0,0,0
i,0x00000000,1720557189.422592,172.16.3.2,5101,172.16.1.2,42029,10499,14480,0,65728,65728,6,6,4,1460,616,1,992,74,33580,0,65700,0,0,0,0,0
i,0x00000000,1720557189.437801,172.16.3.2,5101,172.16.1.2,42029,10499,14480,0,65728,65728,6,6,4,1460,616,1,992,74,33580,0,65700,0,0,0,0,0
o,0x00000000,1720557189.437839,172.16.3.2,5101,172.16.1.2,42029,10499,14480,0,65728,65728,6,6,4,1460,616,1,993,74,33580,0,65700,1448,0,0,0,0
i,0x00000000,1720557189.473840,172.16.3.2,5101,172.16.1.2,42029,10499,14480,0,65728,65728,6,6,4,1460,616,1,992,74,33580,0,65700,0,0,0,0,0
i,0x00000000,1720557189.492419,172.16.3.2,5101,172.16.1.2,42029,10499,14480,0,65728,65728,6,6,4,1460,616,1,992,74,33580,0,65700,0,0,0,0,0
o,0x00000000,1720557189.492468,172.16.3.2,5101,172.16.1.2,42029,10499,14480,0,65728,65728,6,6,4,1460,616,1,993,74,33580,0,65700,1448,0,0,0,0
i,0x00000000,1720557189.503105,172.16.3.2,5101,172.16.1.2,42029,10499,14480,0,65728,65728,6,6,4,1460,616,1,992,74,33580,0,65700,0,0,0,0,0
i,0x00000000,1720557189.531096,172.16.3.2,5101,172.16.1.2,42029,10499,14480,0,65728,65728,6,6,4,1460,616,1,992,74,33580,0,65700,0,0,0,0,0
o,0x00000000,1720557189.531134,172.16.3.2,5101,172.16.1.2,42029,10499,14480,0,65728,65728,6,6,4,1460,616,1,993,74,33580,0,65700,1448,0,0,0,0
i,0x00000000,1720557189.562132,172.16.3.2,5101,172.16.1.2,42029,10499,14480,0,65728,65728,6,6,4,1460,616,1,992,74,33580,0,65700,0,0,0,0,0
i,0x00000000,1720557189.584537,172.16.3.2,5101,172.16.1.2,42029,10499,14480,0,65728,65728,6,6,4,1460,616,1,992,74,33580,0,65700,0,0,0,0,0
o,0x00000000,1720557189.584589,172.16.3.2,5101,172.16.1.2,42029,10499,14480,0,65728,65728,6,6,4,1460,616,1,993,74,33580,0,65700,1448,0,0,0,0
i,0x00000000,1720557189.645396,172.16.3.2,5101,172.16.1.2,42029,10499,14480,0,65728,65728,6,6,4,1460,616,1,992,74,33580,0,65700,0,0,0,0,0
i,0x00000000,1720557189.662158,172.16.3.2,5101,172.16.1.2,42029,10499,14480,0,65728,65728,6,6,4,1460,616,1,992,74,33580,0,65700,0,0,0,0,0
o,0x00000000,1720557189.662208,172.16.3.2,5101,172.16.1.2,42029,10499,14480,0,65728,65728,6,6,4,1460,616,1,993,74,33580,0,65700,1448,0,0,0,0
i,0x00000000,1720557189.671759,172.16.3.2,5101,172.16.1.2,42029,10499,14480,0,65728,65728,6,6,4,1460,616,1,992,74,33580,0,65700,0,0,0,0,0
o,0x00000000,1720557189.708291,172.16.3.2,5101,172.16.1.2,42029,10499,14480,0,65728,65728,6,6,4,1460,616,1,993,74,33580,0,65700,0,0,0,0,0
i,0x00000000,1720557189.712215,172.16.3.2,5101,172.16.1.2,42029,10499,14480,0,65728,65728,6,6,4,1460,616,1,992,74,33580,0,65700,0,0,0,0,0
i,0x00000000,1720557189.733629,172.16.3.2,5101,172.16.1.2,42029,10499,14480,0,65728,65728,6,6,4,1460,616,1,992,74,33580,0,65700,0,0,0,0,0
o,0x00000000,1720557189.733642,172.16.3.2,5101,172.16.1.2,42029,10499,14480,0,65728,65728,6,6,4,1460,616,1,993,74,33580,0,65700,1448,0,0,0,0
i,0x00000000,1720557189.751074,172.16.3.2,5101,172.16.1.2,42029,10499,14480,0,65728,65728,6,6,4,1460,616,1,992,74,33580,0,65700,0,0,0,0,0
i,0x00000000,1720557189.772105,172.16.3.2,5101,172.16.1.2,42029,10499,14480,0,65728,65728,6,6,4,1460,616,1,992,74,33580,0,65700,0,0,0,0,0
o,0x00000000,1720557189.772145,172.16.3.2,5101,172.16.1.2,42029,10499,14480,0,65728,65728,6,6,4,1460,616,1,993,74,33580,0,65700,1448,0,0,0,0
i,0x00000000,1720557189.781846,172.16.3.2,5101,172.16.1.2,42029,10499,14480,0,65728,65728,6,6,4,1460,616,1,992,74,33580,0,65700,0,0,0,0,0
o,0x00000000,1720557189.818564,172.16.3.2,5101,172.16.1.2,42029,10499,14480,0,65728,65728,6,6,4,1460,616,1,993,74,33580,0,65700,0,0,0,0,0
i,0x00000000,1720557189.819762,172.16.3.2,5101,172.16.1.2,42029,10499,14480,0,65728,65728,6,6,4,1460,616,1,992,74,33580,0,65700,0,0,0,0,0
o,0x00000000,1720557189.827422,10.0.2.15,22,10.0.2.2,49435,1073725440,14600,0,65535,65700,0,0,4,1460,1,0,4,24,33580,108,65700,0,0,0,0,0
i,0x00000000,1720557189.828254,10.0.2.15,22,10.0.2.2,49435,1073725440,14600,0,65535,65700,0,0,4,1460,1,0,4,24,33580,108,65700,0,108,0,0,0
i,0x00000000,1720557189.829205,172.16.3.2,5101,172.16.1.2,42029,10499,14480,0,65728,65728,6,6,4,1460,616,1,992,74,33580,0,65700,0,0,0,0,0
o,0x00000000,1720557189.829218,172.16.3.2,5101,172.16.1.2,42029,10499,14480,0,65728,65728,6,6,4,1460,616,1,993,74,33580,0,65700,1448,0,0,0,0
i,0x00000000,1720557189.839618,172.16.3.2,5101,172.16.1.2,42029,10499,14480,0,65728,65728,6,6,4,1460,616,1,992,74,33580,0,65700,0,0,0,0,0
o,0x00000000,1720557189.878021,172.16.3.2,5101,172.16.1.2,42029,10499,14480,0,65728,65728,6,6,4,1460,616,1,993,74,33580,0,65700,0,0,0,0,0
i,0x00000000,1720557189.882416,172.16.3.2,5101,172.16.1.2,42029,10499,14480,0,65728,65728,6,6,4,1460,616,1,992,74,33580,0,65700,0,0,0,0,0
i,0x00000000,1720557189.901007,172.16.3.2,5101,172.16.1.2,42029,10499,14480,0,65728,65728,6,6,4,1460,616,1,992,74,33580,0,65700,0,0,0,0,0
o,0x00000000,1720557189.901042,172.16.3.2,5101,172.16.1.2,42029,10499,14480,0,65728,65728,6,6,4,1460,616,1,993,74,33580,0,65700,1448,0,0,0,0
i,0x00000000,1720557189.911985,172.16.3.2,5101,172.16.1.2,42029,10499,14480,0,65728,65728,6,6,4,1460,616,1,992,74,33580,0,65700,0,0,0,0,0
o,0x00000000,1720557189.948092,172.16.3.2,5101,172.16.1.2,42029,10499,14480,0,65728,65728,6,6,4,1460,616,1,993,74,33580,0,65700,0,0,0,0,0
i,0x00000000,1720557189.988577,172.16.3.2,5101,172.16.1.2,42029,10499,14480,0,65728,65728,6,6,4,1460,616,1,992,74,33580,0,65700,0,0,0,0,0
i,0x00000000,1720557189.993837,172.16.3.2,5101,172.16.1.2,42029,10499,14480,0,65728,65728,6,6,4,1460,616,1,992,74,33580,0,65700,0,0,0,0,0
o,0x00000000,1720557189.993872,172.16.3.2,5101,172.16.1.2,42029,10499,14480,0,65728,65728,6,6,4,1460,616,1,993,74,33580,0,65700,1448,0,0,0,0
i,0x00000000,1720557190.021509,172.16.3.2,5101,172.16.1.2,42029,10499,14480,0,65728,65728,6,6,4,1460,616,1,992,74,33580,0,65700,0,0,0,0,0
i,0x00000000,1720557190.051631,172.16.3.2,5101,172.16.1.2,42029,10499,14480,0,65728,65728,6,6,4,1460,616,1,992,74,33580,0,65700,0,0,0,0,0
o,0x00000000,1720557190.051665,172.16.3.2,5101,172.16.1.2,42029,10499,14480,0,65728,65700,6,6,4,1460,616,1,993,74,33580,0,65700,0,0,1,0,0
i,0x00000000,1720557190.069622,172.16.3.2,5101,172.16.1.2,42029,10499,14480,0,65728,65700,6,6,4,1460,616,1,992,74,33580,0,65700,0,0,1,0,0
o,0x00000000,1720557190.069632,172.16.3.2,5101,172.16.1.2,42029,10499,14480,0,65728,65728,6,6,4,1460,616,1,993,74,33580,0,65700,0,0,1,0,0
i,0x00000000,1720557190.104233,172.16.3.2,5101,172.16.1.2,42029,10499,14480,0,65728,65728,6,6,4,1460,616,1,992,74,33580,0,65700,0,0,1,0,0
o,0x00000000,1720557190.104262,172.16.3.2,5101,172.16.1.2,42029,10499,14480,0,65728,65728,6,6,4,1460,616,1,993,74,33580,0,65700,0,0,1,0,0
i,0x00000000,1720557190.105329,172.16.3.2,5101,172.16.1.2,42029,10499,14480,0,65728,65728,6,6,4,1460,616,1,992,74,33580,0,65700,0,0,1,0,0
o,0x00000000,1720557190.105343,172.16.3.2,5101,172.16.1.2,42029,10499,14480,0,65728,65728,6,6,4,1460,616,1,993,74,33580,0,65700,0,0,1,0,0
i,0x00000000,1720557190.131924,172.16.3.2,5101,172.16.1.2,42029,10499,14480,0,65728,65728,6,6,4,1460,616,1,992,74,33580,0,65700,0,0,1,0,0
o,0x00000000,1720557190.131946,172.16.3.2,5101,172.16.1.2,42029,10499,14480,0,65728,65728,6,6,4,1460,616,1,993,74,33580,0,65700,0,0,1,0,0
i,0x00000000,1720557190.150104,172.16.3.2,5101,172.16.1.2,42029,10499,14480,0,65728,65728,6,6,4,1460,616,1,992,74,33580,0,65700,0,0,1,0,0
o,0x00000000,1720557190.150115,172.16.3.2,5101,172.16.1.2,42029,10499,14480,0,65728,65728,6,6,4,1460,616,1,993,74,33580,0,65700,0,0,1,0,0
