enable_time_secs=1716945701	enable_time_usecs=209871	siftrver=1.2.4	hz=100	tcp_rtt_scale=32	sysname=FreeBSD	sysver=1301000	ipmode=4
o,0x00000000,1716945701.209904,10.0.2.15,22,10.0.2.2,49217,1073725440,17298,0,65535,65700,0,0,4,1460,1,0,4,24,33580,44,65700,0,0,0,0,0
o,0x00000000,1716945701.210011,10.0.2.15,22,10.0.2.2,49217,1073725440,17298,0,65535,65700,0,0,4,1460,1,0,4,24,33580,80,65700,0,44,0,0,0
i,0x00000000,1716945701.210419,10.0.2.15,22,10.0.2.2,49217,1073725440,17298,0,65535,65700,0,0,4,1460,1,0,4,24,33580,80,65700,0,80,0,0,0
i,0x00000000,1716945701.210422,10.0.2.15,22,10.0.2.2,49217,1073725440,17342,0,65535,65700,0,0,4,1460,1,0,4,24,33580,36,65700,0,36,0,0,0
o,0x00000000,1716945701.210487,10.0.2.15,22,10.0.2.2,49217,1073725440,17378,0,65535,65700,0,0,4,1460,1,0,4,24,33580,36,65700,0,0,0,0,0
i,0x00000000,1716945701.210965,10.0.2.15,22,10.0.2.2,49217,1073725440,17378,0,65535,65700,0,0,4,1460,1,0,4,24,33580,36,65700,0,36,0,0,0
o,0x00000000,1716945701.211114,10.0.2.15,22,10.0.2.2,49217,1073725440,17414,0,65535,65700,0,0,4,1460,1,0,4,24,33580,176,65700,0,0,0,0,0
i,0x00000000,1716945701.212204,10.0.2.15,22,10.0.2.2,49217,1073725440,17414,0,65535,65700,0,0,4,1460,1,0,4,24,33580,176,65700,0,176,0,0,0
i,0x00000000,1716945701.212232,10.0.2.15,22,10.0.2.2,49217,1073725440,17590,0,65535,65700,0,0,4,1460,1,0,4,24,33580,0,65700,0,0,0,0,0
i,0x00000000,1716945701.212234,10.0.2.15,22,10.0.2.2,49217,1073725440,17590,0,65535,65700,0,0,4,1460,1,0,4,24,33580,0,65700,36,0,0,0,0
o,0x00000000,1716945701.212237,10.0.2.15,22,10.0.2.2,49217,1073725440,17590,0,65535,65700,0,0,4,1460,1,0,5,24,33580,0,65700,96,0,0,0,0
i,0x00000000,1716945701.212326,10.0.2.15,22,10.0.2.2,49217,1073725440,17590,0,65535,65700,0,0,4,1460,1,0,4,24,33580,0,65700,96,0,0,0,0
o,0x00000000,1716945701.212330,10.0.2.15,22,10.0.2.2,49217,1073725440,17590,0,65535,65604,0,0,5,1460,1,0,7,24,33580,0,65700,96,0,0,0,0
o,0x00000000,1716945701.212932,10.0.2.15,22,10.0.2.2,49217,1073725440,17590,0,65535,65604,0,0,8,1460,1,0,4,24,33580,0,65700,0,0,0,0,0
i,0x00000000,1716945701.213505,10.0.2.15,22,10.0.2.2,49217,1073725440,17590,0,65535,65604,0,0,8,1460,1,0,20,24,33580,0,65700,0,1,0,0,0
i,0x00000000,1716945703.294286,10.0.2.15,22,10.0.2.2,49219,1073725440,14600,0,65535,65700,0,0,4,1460,1,0,0,27,33580,0,65700,0,0,0,0,0
o,0x00000000,1716945703.300492,10.0.2.15,22,10.0.2.2,49219,1073725440,14600,0,65535,65700,0,0,4,1460,1,0,0,27,33580,38,65700,41,0,0,0,0
i,0x00000000,1716945703.301247,10.0.2.15,22,10.0.2.2,49219,1073725440,14600,0,65535,65700,0,0,4,1460,1,0,0,27,33580,38,65700,0,38,0,0,0
i,0x00000000,1716945703.302045,10.0.2.15,22,10.0.2.2,49219,1073725440,14638,0,65535,65700,0,0,4,1460,1,0,0,24,33580,0,65700,0,0,0,0,0
i,0x00000000,1716945703.302048,10.0.2.15,22,10.0.2.2,49219,1073725440,14638,0,65535,65700,0,0,4,1460,1,0,0,24,33580,0,65700,1460,0,0,0,0
o,0x00000000,1716945703.302051,10.0.2.15,22,10.0.2.2,49219,1073725440,14638,0,65535,65700,0,0,4,1460,1,0,1,24,33580,0,65700,1536,0,0,0,0
o,0x00000000,1716945703.302610,10.0.2.15,22,10.0.2.2,49219,1073725440,14638,0,65535,65700,0,0,4,1460,1,0,0,24,33580,1056,65700,1536,0,0,0,0
i,0x00000000,1716945703.303247,10.0.2.15,22,10.0.2.2,49219,1073725440,14638,0,65535,65700,0,0,4,1460,1,0,0,24,33580,1056,65700,1536,1056,0,0,0
i,0x00000000,1716945703.304888,10.0.2.15,22,10.0.2.2,49219,1073725440,15694,0,65535,65700,0,0,4,1460,1,0,0,24,33580,0,65700,0,0,0,0,0
o,0x00000000,1716945703.307248,10.0.2.15,22,10.0.2.2,49219,1073725440,15694,0,65535,65700,0,0,4,1460,1,0,0,24,33580,484,65700,0,0,0,0,0
i,0x00000000,1716945703.308076,10.0.2.15,22,10.0.2.2,49219,1073725440,15694,0,65535,65700,0,0,4,1460,1,0,0,24,33580,484,65700,0,484,0,0,0
i,0x00000000,1716945703.312608,10.0.2.15,22,10.0.2.2,49219,1073725440,16178,0,65535,65700,0,0,4,1460,1,0,0,24,33580,0,65700,0,0,0,0,0
i,0x00000000,1716945703.317304,10.0.2.15,22,10.0.2.2,49219,1073725440,16178,0,65535,65700,0,0,4,1460,1,0,0,24,33580,0,65700,0,0,0,0,0
o,0x00000000,1716945703.317308,10.0.2.15,22,10.0.2.2,49219,1073725440,16178,0,65535,65700,0,0,4,1460,1,0,1,24,33580,0,65700,44,0,0,0,0
o,0x00000000,1716945703.317460,10.0.2.15,22,10.0.2.2,49219,1073725440,16178,0,65535,65700,0,0,4,1460,1,0,0,24,33580,44,65700,0,0,0,0,0
i,0x00000000,1716945703.318127,10.0.2.15,22,10.0.2.2,49219,1073725440,16178,0,65535,65700,0,0,4,1460,1,0,0,24,33580,44,65700,0,44,0,0,0
i,0x00000000,1716945703.318713,10.0.2.15,22,10.0.2.2,49219,1073725440,16222,0,65535,65700,0,0,4,1460,1,0,0,24,33580,0,65700,0,0,0,0,0
o,0x00000000,1716945703.328287,10.0.2.15,22,10.0.2.2,49219,1073725440,16222,0,65535,65700,0,0,4,1460,1,0,0,24,33580,68,65700,0,0,0,0,0
i,0x00000000,1716945703.328973,10.0.2.15,22,10.0.2.2,49219,1073725440,16222,0,65535,65700,0,0,4,1460,1,0,0,24,33580,68,65700,0,68,0,0,0
i,0x00000000,1716945703.331353,10.0.2.15,22,10.0.2.2,49219,1073725440,16290,0,65535,65700,0,0,4,1460,1,0,0,24,33580,0,65700,0,0,0,0,0
o,0x00000000,1716945703.340841,10.0.2.15,22,10.0.2.2,49219,1073725440,16290,0,65535,65700,0,0,4,1460,1,0,0,24,33580,28,65700,0,0,0,0,0
i,0x00000000,1716945703.341544,10.0.2.15,22,10.0.2.2,49219,1073725440,16290,0,65535,65700,0,0,4,1460,1,0,0,24,33580,28,65700,0,28,0,0,0
i,0x00000000,1716945703.342109,10.0.2.15,22,10.0.2.2,49219,1073725440,16318,0,65535,65700,0,0,4,1460,1,0,0,24,33580,0,65700,0,0,0,0,0
o,0x00000000,1716945703.342769,10.0.2.15,22,10.0.2.2,49219,1073725440,16318,0,65535,65700,0,0,4,1460,1,0,0,24,33580,768,65700,112,0,0,0,0
i,0x00000000,1716945703.343407,10.0.2.15,22,10.0.2.2,49219,1073725440,16318,0,65535,65700,0,0,4,1460,1,0,0,24,33580,768,65700,112,768,0,0,0
o,0x00000000,1716945703.343548,10.0.2.15,22,10.0.2.2,49219,1073725440,17086,0,65535,65700,0,0,4,1460,1,0,0,24,33580,44,65700,0,0,0,0,0
i,0x00000000,1716945703.344156,10.0.2.15,22,10.0.2.2,49219,1073725440,17086,0,65535,65700,0,0,4,1460,1,0,0,24,33580,44,65700,0,44,0,0,0
i,0x00000000,1716945703.344701,10.0.2.15,22,10.0.2.2,49219,1073725440,17130,0,65535,65700,0,0,4,1460,1,0,0,24,33580,0,65700,0,0,0,0,0
o,0x00000000,1716945703.344987,10.0.2.15,22,10.0.2.2,49219,1073725440,17130,0,65535,65700,0,0,4,1460,1,0,4,24,33580,72,65700,0,0,0,0,0
i,0x00000000,1716945703.345775,10.0.2.15,22,10.0.2.2,49219,1073725440,17130,0,65535,65700,0,0,4,1460,1,0,4,24,33580,72,65700,0,72,0,0,0
o,0x00000000,1716945703.348461,10.0.2.15,22,10.0.2.2,49219,1073725440,17202,0,65535,65700,0,0,4,1460,1,0,4,24,33580,44,65700,0,0,0,0,0
i,0x00000000,1716945703.348941,10.0.2.15,22,10.0.2.2,49219,1073725440,17202,0,65535,65700,0,0,4,1460,1,0,4,24,33580,44,65700,0,44,0,0,0
o,0x00000000,1716945703.349292,10.0.2.15,22,10.0.2.2,49219,1073725440,17246,0,65535,65700,0,0,4,1460,1,0,4,24,33580,44,65700,0,0,0,0,0
i,0x00000000,1716945703.349984,10.0.2.15,22,10.0.2.2,49219,1073725440,17246,0,65535,65700,0,0,4,1460,1,0,4,24,33580,44,65700,0,44,0,0,0
o,0x00000000,1716945703.353086,10.0.2.15,22,10.0.2.2,49219,1073725440,17290,0,65535,65700,0,0,4,1460,1,0,4,24,33580,176,65700,0,0,0,0,0
i,0x00000000,1716945703.354007,10.0.2.15,22,10.0.2.2,49219,1073725440,17290,0,65535,65700,0,0,4,1460,1,0,4,24,33580,176,65700,0,176,0,0,0
i,0x00000000,1716945703.354011,10.0.2.15,22,10.0.2.2,49219,1073725440,17466,0,65535,65700,0,0,4,1460,1,0,4,24,33580,0,65700,0,0,0,0,0
i,0x00000000,1716945703.354012,10.0.2.15,22,10.0.2.2,49219,1073725440,17466,0,65535,65700,0,0,4,1460,1,0,4,24,33580,0,65700,36,0,0,0,0
o,0x00000000,1716945703.354014,10.0.2.15,22,10.0.2.2,49219,1073725440,17466,0,65535,65700,0,0,4,1460,1,0,5,24,33580,0,65700,96,0,0,0,0
i,0x00000000,1716945703.354521,10.0.2.15,22,10.0.2.2,49219,1073725440,17466,0,65535,65700,0,0,4,1460,1,0,4,24,33580,0,65700,96,0,0,0,0
o,0x00000000,1716945703.354526,10.0.2.15,22,10.0.2.2,49219,1073725440,17466,0,65535,65604,0,0,5,1460,1,0,7,24,33580,0,65700,96,0,0,0,0
o,0x00000000,1716945703.360254,10.0.2.15,22,10.0.2.2,49219,1073725440,17466,0,65535,65604,0,0,8,1460,1,0,4,24,33580,0,65700,0,0,0,0,0
i,0x00000000,1716945703.360830,10.0.2.15,22,10.0.2.2,49219,1073725440,17466,0,65535,65604,0,0,8,1460,1,0,20,24,33580,0,65700,0,1,0,0,0
i,0x00000000,1716945703.599281,172.16.3.2,5101,172.16.1.2,64271,10054,14480,0,65728,65700,6,6,4,1460,916,1,992,149,33580,0,65700,0,0,0,0,0
o,0x00000000,1716945703.599361,172.16.3.2,5101,172.16.1.2,64271,10054,14480,0,65728,65700,6,6,4,1460,916,1,996,149,33580,1,65700,0,0,0,0,0
i,0x00000000,1716945703.720042,172.16.3.2,5101,172.16.1.2,64271,10054,14480,0,65728,65700,6,6,4,1460,916,1,996,149,33580,1,65700,0,1,0,0,0
i,0x00000000,1716945703.720082,172.16.3.2,5101,172.16.1.2,64271,10054,14480,0,65728,65728,6,6,4,1460,850,1,996,138,33580,0,65700,4,0,0,0,0
o,0x00000000,1716945703.720091,172.16.3.2,5101,172.16.1.2,64271,10054,14480,0,65728,65728,6,6,4,1460,850,1,997,138,33580,0,65700,128,0,0,0,0
o,0x00000000,1716945703.720463,172.16.3.2,5101,172.16.1.2,64271,10054,14480,0,65728,65728,6,6,4,1460,850,1,996,138,33580,1,65700,0,0,0,0,0
o,0x00000000,1716945703.720608,10.0.2.15,22,10.0.2.2,62180,1073725440,14600,0,65535,65700,0,0,4,1460,1,0,4,24,33580,84,65700,0,0,0,0,0
i,0x00000000,1716945703.721352,10.0.2.15,22,10.0.2.2,62180,1073725440,14600,0,65535,65700,0,0,4,1460,1,0,4,24,33580,84,65700,0,84,0,0,0
i,0x00000000,1716945703.869658,172.16.3.2,5101,172.16.1.2,64271,10054,14480,0,65728,65728,6,6,4,1460,850,1,996,138,33580,1,65700,0,1,0,0,0
i,0x00000000,1716945703.959350,172.16.3.2,5101,172.16.1.2,37015,10054,14480,0,65728,65700,6,6,4,1460,916,1,992,149,33580,0,65700,0,0,0,0,0
o,0x00000000,1716945703.962546,172.16.3.2,5101,172.16.1.2,64271,10054,14480,0,65728,65728,6,6,4,1460,804,1,996,125,33580,1,65700,0,0,0,0,0
o,0x00000000,1716945703.962642,172.16.3.2,5101,172.16.1.2,64271,10054,14480,0,65728,65728,6,6,4,1460,804,1,996,125,33580,2,65700,0,1,0,0,0
o,0x00000000,1716945703.963196,10.0.2.15,22,10.0.2.2,62180,1073725440,14600,0,65535,65700,0,0,4,1460,1,0,4,24,33580,108,65700,0,0,0,0,0
i,0x00000000,1716945703.963885,10.0.2.15,22,10.0.2.2,62180,1073725440,14600,0,65535,65700,0,0,4,1460,1,0,4,24,33580,108,65700,0,108,0,0,0
o,0x00000000,1716945703.997585,172.16.3.2,5101,172.16.1.2,37015,10054,14480,0,65728,65700,6,6,4,1460,916,1,993,149,33580,0,65700,0,0,0,0,0
i,0x00000000,1716945704.149693,172.16.3.2,5101,172.16.1.2,64271,10054,14480,0,65728,65728,6,6,4,1460,804,1,996,125,33580,2,65700,0,2,0,0,0
i,0x00000000,1716945704.179480,172.16.3.2,5101,172.16.1.2,37015,10054,14480,0,65728,65700,6,6,4,1460,916,1,992,149,33580,0,65700,0,0,0,0,0
i,0x00000000,1716945704.189161,172.16.3.2,5101,172.16.1.2,37015,10054,14480,0,65728,65700,6,6,4,1460,916,1,992,149,33580,0,65700,0,0,0,0,0
o,0x00000000,1716945704.189171,172.16.3.2,5101,172.16.1.2,37015,10054,14480,0,65728,65700,6,6,4,1460,916,1,993,149,33580,0,65700,1448,0,0,0,0
i,0x00000000,1716945704.198146,172.16.3.2,5101,172.16.1.2,37015,10054,14480,0,65728,65700,6,6,4,1460,916,1,992,149,33580,0,65700,0,0,0,0,0
i,0x00000000,1716945704.208172,172.16.3.2,5101,172.16.1.2,37015,10054,14480,0,65728,65700,6,6,4,1460,916,1,992,149,33580,0,65700,0,0,0,0,0
o,0x00000000,1716945704.208181,172.16.3.2,5101,172.16.1.2,37015,10054,14480,0,65728,65700,6,6,4,1460,916,1,993,149,33580,0,65700,1448,0,0,0,0
i,0x00000000,1716945704.228982,172.16.3.2,5101,172.16.1.2,37015,10054,14480,0,65728,65700,6,6,4,1460,916,1,992,149,33580,0,65700,0,0,0,0,0
i,0x00000000,1716945704.238098,172.16.3.2,5101,172.16.1.2,37015,10054,14480,0,65728,65700,6,6,4,1460,916,1,992,149,33580,0,65700,0,0,0,0,0
o,0x00000000,1716945704.238103,172.16.3.2,5101,172.16.1.2,37015,10054,14480,0,65728,65700,6,6,4,1460,916,1,993,149,33580,0,65700,1448,0,0,0,0
i,0x00000000,1716945704.248968,172.16.3.2,5101,172.16.1.2,37015,10054,14480,0,65728,65700,6,6,4,1460,916,1,992,149,33580,0,65700,0,0,0,0,0
i,0x00000000,1716945704.258204,172.16.3.2,5101,172.16.1.2,37015,10054,14480,0,65728,65700,6,6,4,1460,916,1,992,149,33580,0,65700,0,0,0,0,0
o,0x00000000,1716945704.258220,172.16.3.2,5101,172.16.1.2,37015,10054,14480,0,65728,65700,6,6,4,1460,916,1,993,149,33580,0,65700,1448,0,0,0,0
i,0x00000000,1716945704.269465,172.16.3.2,5101,172.16.1.2,37015,10054,14480,0,65728,65700,6,6,4,1460,916,1,992,149,33580,0,65700,0,0,0,0,0
i,0x00000000,1716945704.289329,172.16.3.2,5101,172.16.1.2,37015,10054,14480,0,65728,65700,6,6,4,1460,916,1,992,149,33580,0,65700,0,0,0,0,0
o,0x00000000,1716945704.289335,172.16.3.2,5101,172.16.1.2,37015,10054,14480,0,65728,65700,6,6,4,1460,916,1,993,149,33580,0,65700,1448,0,0,0,0
i,0x00000000,1716945704.548412,172.16.3.2,5101,172.16.1.2,37015,10054,14480,0,65728,65700,6,6,4,1460,916,1,992,149,33580,0,65700,0,0,0,0,0
i,0x00000000,1716945704.558737,172.16.3.2,5101,172.16.1.2,37015,10054,14480,0,65728,65700,6,6,4,1460,916,1,992,149,33580,0,65700,0,0,0,0,0
o,0x00000000,1716945704.558752,172.16.3.2,5101,172.16.1.2,37015,10054,14480,0,65728,65700,6,6,4,1460,916,1,993,149,33580,0,65700,1448,0,0,0,0
i,0x00000000,1716945704.569071,172.16.3.2,5101,172.16.1.2,37015,10054,14480,0,65728,65700,6,6,4,1460,916,1,992,149,33580,0,65700,0,0,0,0,0
i,0x00000000,1716945704.588742,172.16.3.2,5101,172.16.1.2,37015,10054,14480,0,65728,65700,6,6,4,1460,916,1,992,149,33580,0,65700,0,0,0,0,0
o,0x00000000,1716945704.588749,172.16.3.2,5101,172.16.1.2,37015,10054,14480,0,65728,65700,6,6,4,1460,916,1,993,149,33580,0,65700,1448,0,0,0,0
i,0x00000000,1716945704.598471,172.16.3.2,5101,172.16.1.2,37015,10054,14480,0,65728,65700,6,6,4,1460,916,1,992,149,33580,0,65700,0,0,0,0,0
i,0x00000000,1716945704.608298,172.16.3.2,5101,172.16.1.2,37015,10054,14480,0,65728,65700,6,6,4,1460,916,1,992,149,33580,0,65700,0,0,0,0,0
o,0x00000000,1716945704.608304,172.16.3.2,5101,172.16.1.2,37015,10054,14480,0,65728,65700,6,6,4,1460,916,1,993,149,33580,0,65700,1448,0,0,0,0
i,0x00000000,1716945704.618776,172.16.3.2,5101,172.16.1.2,37015,10054,14480,0,65728,65700,6,6,4,1460,916,1,992,149,33580,0,65700,0,0,0,0,0
i,0x00000000,1716945704.629146,172.16.3.2,5101,172.16.1.2,37015,10054,14480,0,65728,65700,6,6,4,1460,916,1,992,149,33580,0,65700,0,0,0,0,0
o,0x00000000,1716945704.629152,172.16.3.2,5101,172.16.1.2,37015,10054,14480,0,65728,65700,6,6,4,1460,916,1,993,149,33580,0,65700,1448,0,0,0,0
i,0x00000000,1716945704.648841,172.16.3.2,5101,172.16.1.2,37015,10054,14480,0,65728,65700,6,6,4,1460,916,1,992,149,33580,0,65700,0,0,0,0,0
i,0x00000000,1716945704.659048,172.16.3.2,5101,172.16.1.2,37015,10054,14480,0,65728,65700,6,6,4,1460,916,1,992,149,33580,0,65700,0,0,0,0,0
o,0x00000000,1716945704.659056,172.16.3.2,5101,172.16.1.2,37015,10054,14480,0,65728,65700,6,6,4,1460,916,1,993,149,33580,0,65700,1448,0,0,0,0
i,0x00000000,1716945704.669437,172.16.3.2,5101,172.16.1.2,37015,10054,14480,0,65728,65700,6,6,4,1460,916,1,992,149,33580,0,65700,0,0,0,0,0
i,0x00000000,1716945704.678684,172.16.3.2,5101,172.16.1.2,37015,10054,14480,0,65728,65700,6,6,4,1460,916,1,992,149,33580,0,65700,0,0,0,0,0
o,0x00000000,1716945704.678692,172.16.3.2,5101,172.16.1.2,37015,10054,14480,0,65728,65700,6,6,4,1460,916,1,993,149,33580,0,65700,1448,0,0,0,0
i,0x00000000,1716945704.688004,172.16.3.2,5101,172.16.1.2,37015,10054,14480,0,65728,65700,6,6,4,1460,916,1,992,149,33580,0,65700,0,0,0,0,0
i,0x00000000,1716945704.707834,172.16.3.2,5101,172.16.1.2,37015,10054,14480,0,65728,65700,6,6,4,1460,916,1,992,149,33580,0,65700,0,0,0,0,0
o,0x00000000,1716945704.707845,172.16.3.2,5101,172.16.1.2,37015,10054,14480,0,65728,65700,6,6,4,1460,916,1,993,149,33580,0,65700,1448,0,0,0,0
i,0x00000000,1716945704.717999,172.16.3.2,5101,172.16.1.2,37015,10054,14480,0,65728,65700,6,6,4,1460,916,1,992,149,33580,0,65700,0,0,0,0,0
i,0x00000000,1716945704.729357,172.16.3.2,5101,172.16.1.2,37015,10054,14480,0,65728,65700,6,6,4,1460,916,1,992,149,33580,0,65700,0,0,0,0,0
o,0x00000000,1716945704.729363,172.16.3.2,5101,172.16.1.2,37015,10054,14480,0,65728,65700,6,6,4,1460,916,1,993,149,33580,0,65700,1448,0,0,0,0
o,0x00000000,1716945704.976946,10.0.2.15,22,10.0.2.2,62180,1073725440,14600,0,65535,65700,0,0,4,1460,1,0,4,24,33580,156,65700,0,0,0,0,0
i,0x00000000,1716945704.977729,10.0.2.15,22,10.0.2.2,62180,1073725440,14600,0,65535,65700,0,0,4,1460,1,0,4,24,33580,156,65700,0,156,0,0,0
i,0x00000000,1716945704.998935,172.16.3.2,5101,172.16.1.2,37015,10054,14480,0,65728,65700,6,6,4,1460,916,1,992,149,33580,0,65700,0,0,0,0,0
i,0x00000000,1716945705.008057,172.16.3.2,5101,172.16.1.2,37015,10054,14480,0,65728,65700,6,6,4,1460,916,1,992,149,33580,0,65700,0,0,0,0,0
o,0x00000000,1716945705.008069,172.16.3.2,5101,172.16.1.2,37015,10054,14480,0,65728,65700,6,6,4,1460,916,1,993,149,33580,0,65700,1448,0,0,0,0
i,0x00000000,1716945705.027929,172.16.3.2,5101,172.16.1.2,37015,10054,14480,0,65728,65700,6,6,4,1460,916,1,992,149,33580,0,65700,0,0,0,0,0
i,0x00000000,1716945705.038188,172.16.3.2,5101,172.16.1.2,37015,10054,14480,0,65728,65700,6,6,4,1460,916,1,992,149,33580,0,65700,0,0,0,0,0
o,0x00000000,1716945705.038202,172.16.3.2,5101,172.16.1.2,37015,10054,14480,0,65728,65700,6,6,4,1460,916,1,993,149,33580,0,65700,1448,0,0,0,0
i,0x00000000,1716945705.047592,172.16.3.2,5101,172.16.1.2,37015,10054,14480,0,65728,65700,6,6,4,1460,916,1,992,149,33580,0,65700,0,0,0,0,0
i,0x00000000,1716945705.058954,172.16.3.2,5101,172.16.1.2,37015,10054,14480,0,65728,65700,6,6,4,1460,916,1,992,149,33580,0,65700,0,0,0,0,0
o,0x00000000,1716945705.058966,172.16.3.2,5101,172.16.1.2,37015,10054,14480,0,65728,65700,6,6,4,1460,916,1,993,149,33580,0,65700,1448,0,0,0,0
i,0x00000000,1716945705.068105,172.16.3.2,5101,172.16.1.2,37015,10054,14480,0,65728,65700,6,6,4,1460,916,1,992,149,33580,0,65700,0,0,0,0,0
i,0x00000000,1716945705.088840,172.16.3.2,5101,172.16.1.2,37015,10054,14480,0,65728,65700,6,6,4,1460,916,1,992,149,33580,0,65700,0,0,0,0,0
o,0x00000000,1716945705.088846,172.16.3.2,5101,172.16.1.2,37015,10054,14480,0,65728,65700,6,6,4,1460,916,1,993,149,33580,0,65700,1448,0,0,0,0
i,0x00000000,1716945705.098219,172.16.3.2,5101,172.16.1.2,37015,10054,14480,0,65728,65700,6,6,4,1460,916,1,992,149,33580,0,65700,0,0,0,0,0
i,0x00000000,1716945705.108627,172.16.3.2,5101,172.16.1.2,37015,10054,14480,0,65728,65700,6,6,4,1460,916,1,992,149,33580,0,65700,0,0,0,0,0
o,0x00000000,1716945705.108634,172.16.3.2,5101,172.16.1.2,37015,10054,14480,0,65728,65700,6,6,4,1460,916,1,993,149,33580,0,65700,1448,0,0,0,0
i,0x00000000,1716945705.118781,172.16.3.2,5101,172.16.1.2,37015,10054,14480,0,65728,65700,6,6,4,1460,916,1,992,149,33580,0,65700,0,0,0,0,0
i,0x00000000,1716945705.127505,172.16.3.2,5101,172.16.1.2,37015,10054,14480,0,65728,65700,6,6,4,1460,916,1,992,149,33580,0,65700,0,0,0,0,0
o,0x00000000,1716945705.127510,172.16.3.2,5101,172.16.1.2,37015,10054,14480,0,65728,65700,6,6,4,1460,916,1,993,149,33580,0,65700,1448,0,0,0,0
i,0x00000000,1716945705.148171,172.16.3.2,5101,172.16.1.2,37015,10054,14480,0,65728,65700,6,6,4,1460,916,1,992,149,33580,0,65700,0,0,0,0,0
i,0x00000000,1716945705.157560,172.16.3.2,5101,172.16.1.2,37015,10054,14480,0,65728,65700,6,6,4,1460,916,1,992,149,33580,0,65700,0,0,0,0,0
o,0x00000000,1716945705.157567,172.16.3.2,5101,172.16.1.2,37015,10054,14480,0,65728,65700,6,6,4,1460,916,1,993,149,33580,0,65700,1448,0,0,0,0
i,0x00000000,1716945705.168938,172.16.3.2,5101,172.16.1.2,37015,10054,14480,0,65728,65700,6,6,4,1460,916,1,992,149,33580,0,65700,0,0,0,0,0
i,0x00000000,1716945705.177263,172.16.3.2,5101,172.16.1.2,37015,10054,14480,0,65728,65700,6,6,4,1460,916,1,992,149,33580,0,65700,0,0,0,0,0
o,0x00000000,1716945705.177270,172.16.3.2,5101,172.16.1.2,37015,10054,14480,0,65728,65700,6,6,4,1460,916,1,993,149,33580,0,65700,1448,0,0,0,0
i,0x00000000,1716945705.187457,172.16.3.2,5101,172.16.1.2,37015,10054,14480,0,65728,65700,6,6,4,1460,916,1,992,149,33580,0,65700,0,0,0,0,0
o,0x00000000,1716945705.227474,172.16.3.2,5101,172.16.1.2,37015,10054,14480,0,65728,65700,6,6,4,1460,916,1,993,149,33580,0,65700,0,0,0,0,0
i,0x00000000,1716945705.458032,172.16.3.2,5101,172.16.1.2,37015,10054,14480,0,65728,65700,6,6,4,1460,916,1,992,149,33580,0,65700,0,0,0,0,0
i,0x00000000,1716945705.467236,172.16.3.2,5101,172.16.1.2,37015,10054,14480,0,65728,65700,6,6,4,1460,916,1,992,149,33580,0,65700,0,0,0,0,0
o,0x00000000,1716945705.467246,172.16.3.2,5101,172.16.1.2,37015,10054,14480,0,65728,65700,6,6,4,1460,916,1,993,149,33580,0,65700,1448,0,0,0,0
i,0x00000000,1716945705.487935,172.16.3.2,5101,172.16.1.2,37015,10054,14480,0,65728,65700,6,6,4,1460,916,1,992,149,33580,0,65700,0,0,0,0,0
i,0x00000000,1716945705.497153,172.16.3.2,5101,172.16.1.2,37015,10054,14480,0,65728,65700,6,6,4,1460,916,1,992,149,33580,0,65700,0,0,0,0,0
o,0x00000000,1716945705.497158,172.16.3.2,5101,172.16.1.2,37015,10054,14480,0,65728,65700,6,6,4,1460,916,1,993,149,33580,0,65700,1448,0,0,0,0
i,0x00000000,1716945705.508571,172.16.3.2,5101,172.16.1.2,37015,10054,14480,0,65728,65700,6,6,4,1460,916,1,992,149,33580,0,65700,0,0,0,0,0
i,0x00000000,1716945705.517875,172.16.3.2,5101,172.16.1.2,37015,10054,14480,0,65728,65700,6,6,4,1460,916,1,992,149,33580,0,65700,0,0,0,0,0
o,0x00000000,1716945705.517881,172.16.3.2,5101,172.16.1.2,37015,10054,14480,0,65728,65700,6,6,4,1460,916,1,993,149,33580,0,65700,1448,0,0,0,0
i,0x00000000,1716945705.528221,172.16.3.2,5101,172.16.1.2,37015,10054,14480,0,65728,65700,6,6,4,1460,916,1,992,149,33580,0,65700,0,0,0,0,0
i,0x00000000,1716945705.548824,172.16.3.2,5101,172.16.1.2,37015,10054,14480,0,65728,65700,6,6,4,1460,916,1,992,149,33580,0,65700,0,0,0,0,0
o,0x00000000,1716945705.548831,172.16.3.2,5101,172.16.1.2,37015,10054,14480,0,65728,65700,6,6,4,1460,916,1,993,149,33580,0,65700,1448,0,0,0,0
i,0x00000000,1716945705.557232,172.16.3.2,5101,172.16.1.2,37015,10054,14480,0,65728,65700,6,6,4,1460,916,1,992,149,33580,0,65700,0,0,0,0,0
i,0x00000000,1716945705.568526,172.16.3.2,5101,172.16.1.2,37015,10054,14480,0,65728,65700,6,6,4,1460,916,1,992,149,33580,0,65700,0,0,0,0,0
o,0x00000000,1716945705.568533,172.16.3.2,5101,172.16.1.2,37015,10054,14480,0,65728,65700,6,6,4,1460,916,1,993,149,33580,0,65700,1448,0,0,0,0
i,0x00000000,1716945705.577795,172.16.3.2,5101,172.16.1.2,37015,10054,14480,0,65728,65700,6,6,4,1460,916,1,992,149,33580,0,65700,0,0,0,0,0
i,0x00000000,1716945705.587340,172.16.3.2,5101,172.16.1.2,37015,10054,14480,0,65728,65700,6,6,4,1460,916,1,992,149,33580,0,65700,0,0,0,0,0
o,0x00000000,1716945705.587345,172.16.3.2,5101,172.16.1.2,37015,10054,14480,0,65728,65700,6,6,4,1460,916,1,993,149,33580,0,65700,1448,0,0,0,0
i,0x00000000,1716945705.608856,172.16.3.2,5101,172.16.1.2,37015,10054,14480,0,65728,65700,6,6,4,1460,916,1,992,149,33580,0,65700,0,0,0,0,0
i,0x00000000,1716945705.617159,172.16.3.2,5101,172.16.1.2,37015,10054,14480,0,65728,65700,6,6,4,1460,916,1,992,149,33580,0,65700,0,0,0,0,0
o,0x00000000,1716945705.617165,172.16.3.2,5101,172.16.1.2,37015,10054,14480,0,65728,65700,6,6,4,1460,916,1,993,149,33580,0,65700,1448,0,0,0,0
i,0x00000000,1716945705.627596,172.16.3.2,5101,172.16.1.2,37015,10054,14480,0,65728,65700,6,6,4,1460,916,1,992,149,33580,0,65700,0,0,0,0,0
i,0x00000000,1716945705.638005,172.16.3.2,5101,172.16.1.2,37015,10054,14480,0,65728,65700,6,6,4,1460,916,1,992,149,33580,0,65700,0,0,0,0,0
o,0x00000000,1716945705.638011,172.16.3.2,5101,172.16.1.2,37015,10054,14480,0,65728,65700,6,6,4,1460,916,1,993,149,33580,0,65700,1448,0,0,0,0
i,0x00000000,1716945705.647343,172.16.3.2,5101,172.16.1.2,37015,10054,14480,0,65728,65700,6,6,4,1460,916,1,992,149,33580,0,65700,0,0,0,0,0
o,0x00000000,1716945705.687189,172.16.3.2,5101,172.16.1.2,37015,10054,14480,0,65728,65700,6,6,4,1460,916,1,993,149,33580,0,65700,0,0,0,0,0
i,0x00000000,1716945705.757416,172.16.3.2,5101,172.16.1.2,37015,10054,14480,0,65728,65700,6,6,4,1460,916,1,992,149,33580,0,65700,0,0,0,0,0
o,0x00000000,1716945705.797368,172.16.3.2,5101,172.16.1.2,37015,10054,14480,0,65728,65700,6,6,4,1460,916,1,993,149,33580,0,65700,0,0,0,0,0
i,0x00000000,1716945705.928037,172.16.3.2,5101,172.16.1.2,37015,10054,14480,0,65728,65700,6,6,4,1460,916,1,992,149,33580,0,65700,0,0,0,0,0
i,0x00000000,1716945705.947530,172.16.3.2,5101,172.16.1.2,37015,10054,14480,0,65728,65700,6,6,4,1460,916,1,992,149,33580,0,65700,0,0,0,0,0
o,0x00000000,1716945705.947541,172.16.3.2,5101,172.16.1.2,37015,10054,14480,0,65728,65700,6,6,4,1460,916,1,993,149,33580,0,65700,1448,0,0,0,0
i,0x00000000,1716945705.957017,172.16.3.2,5101,172.16.1.2,37015,10054,14480,0,65728,65700,6,6,4,1460,916,1,992,149,33580,0,65700,0,0,0,0,0
i,0x00000000,1716945705.967350,172.16.3.2,5101,172.16.1.2,37015,10054,14480,0,65728,65700,6,6,4,1460,916,1,992,149,33580,0,65700,0,0,0,0,0
o,0x00000000,1716945705.967360,172.16.3.2,5101,172.16.1.2,37015,10054,14480,0,65728,65700,6,6,4,1460,916,1,993,149,33580,0,65700,1448,0,0,0,0
o,0x00000000,1716945705.977337,10.0.2.15,22,10.0.2.2,62180,1073725440,14600,0,65535,65700,0,0,4,1460,1,0,4,24,33580,108,65700,0,0,0,0,0
i,0x00000000,1716945705.977617,172.16.3.2,5101,172.16.1.2,37015,10054,14480,0,65728,65700,6,6,4,1460,916,1,992,149,33580,0,65700,0,0,0,0,0
i,0x00000000,1716945705.978421,10.0.2.15,22,10.0.2.2,62180,1073725440,14600,0,65535,65700,0,0,4,1460,1,0,4,24,33580,108,65700,0,108,0,0,0
i,0x00000000,1716945705.987909,172.16.3.2,5101,172.16.1.2,37015,10054,14480,0,65728,65700,6,6,4,1460,916,1,992,149,33580,0,65700,0,0,0,0,0
o,0x00000000,1716945705.987914,172.16.3.2,5101,172.16.1.2,37015,10054,14480,0,65728,65700,6,6,4,1460,916,1,993,149,33580,0,65700,1448,0,0,0,0
i,0x00000000,1716945706.007545,172.16.3.2,5101,172.16.1.2,37015,10054,14480,0,65728,65700,6,6,4,1460,916,1,992,149,33580,0,65700,0,0,0,0,0
i,0x00000000,1716945706.017188,172.16.3.2,5101,172.16.1.2,37015,10054,14480,0,65728,65700,6,6,4,1460,916,1,992,149,33580,0,65700,0,0,0,0,0
o,0x00000000,1716945706.017194,172.16.3.2,5101,172.16.1.2,37015,10054,14480,0,65728,65700,6,6,4,1460,916,1,993,149,33580,0,65700,1448,0,0,0,0
i,0x00000000,1716945706.027313,172.16.3.2,5101,172.16.1.2,37015,10054,14480,0,65728,65700,6,6,4,1460,916,1,992,149,33580,0,65700,0,0,0,0,0
i,0x00000000,1716945706.037835,172.16.3.2,5101,172.16.1.2,37015,10054,14480,0,65728,65700,6,6,4,1460,916,1,992,149,33580,0,65700,0,0,0,0,0
o,0x00000000,1716945706.037845,172.16.3.2,5101,172.16.1.2,37015,10054,14480,0,65728,65700,6,6,4,1460,916,1,993,149,33580,0,65700,1448,0,0,0,0
i,0x00000000,1716945706.048064,172.16.3.2,5101,172.16.1.2,37015,10054,14480,0,65728,65700,6,6,4,1460,916,1,992,149,33580,0,65700,0,0,0,0,0
i,0x00000000,1716945706.067102,172.16.3.2,5101,172.16.1.2,37015,10054,14480,0,65728,65700,6,6,4,1460,916,1,992,149,33580,0,65700,0,0,0,0,0
o,0x00000000,1716945706.067116,172.16.3.2,5101,172.16.1.2,37015,10054,14480,0,65728,65700,6,6,4,1460,916,1,993,149,33580,0,65700,1448,0,0,0,0
i,0x00000000,1716945706.077295,172.16.3.2,5101,172.16.1.2,37015,10054,14480,0,65728,65700,6,6,4,1460,916,1,992,149,33580,0,65700,0,0,0,0,0
i,0x00000000,1716945706.087681,172.16.3.2,5101,172.16.1.2,37015,10054,14480,0,65728,65700,6,6,4,1460,916,1,992,149,33580,0,65700,0,0,0,0,0
o,0x00000000,1716945706.087686,172.16.3.2,5101,172.16.1.2,37015,10054,14480,0,65728,65700,6,6,4,1460,916,1,993,149,33580,0,65700,1448,0,0,0,0
i,0x00000000,1716945706.098130,172.16.3.2,5101,172.16.1.2,37015,10054,14480,0,65728,65700,6,6,4,1460,916,1,992,149,33580,0,65700,0,0,0,0,0
i,0x00000000,1716945706.107240,172.16.3.2,5101,172.16.1.2,37015,10054,14480,0,65728,65700,6,6,4,1460,916,1,992,149,33580,0,65700,0,0,0,0,0
o,0x00000000,1716945706.107246,172.16.3.2,5101,172.16.1.2,37015,10054,14480,0,65728,65700,6,6,4,1460,916,1,993,149,33580,0,65700,1448,0,0,0,0
i,0x00000000,1716945706.126947,172.16.3.2,5101,172.16.1.2,37015,10054,14480,0,65728,65700,6,6,4,1460,916,1,992,149,33580,0,65700,0,0,0,0,0
o,0x00000000,1716945706.166861,172.16.3.2,5101,172.16.1.2,37015,10054,14480,0,65728,65700,6,6,4,1460,916,1,993,149,33580,0,65700,0,0,0,0,0
i,0x00000000,1716945706.167218,172.16.3.2,5101,172.16.1.2,37015,10054,14480,0,65728,65700,6,6,4,1460,916,1,992,149,33580,0,65700,0,0,0,0,0
o,0x00000000,1716945706.208261,172.16.3.2,5101,172.16.1.2,37015,10054,14480,0,65728,65700,6,6,4,1460,916,1,993,149,33580,0,65700,0,0,0,0,0
i,0x00000000,1716945706.397324,172.16.3.2,5101,172.16.1.2,37015,10054,14480,0,65728,65700,6,6,4,1460,916,1,992,149,33580,0,65700,0,0,0,0,0
i,0x00000000,1716945706.406654,172.16.3.2,5101,172.16.1.2,37015,10054,14480,0,65728,65700,6,6,4,1460,916,1,992,149,33580,0,65700,0,0,0,0,0
o,0x00000000,1716945706.406663,172.16.3.2,5101,172.16.1.2,37015,10054,14480,0,65728,65700,6,6,4,1460,916,1,993,149,33580,0,65700,1448,0,0,0,0
i,0x00000000,1716945706.417044,172.16.3.2,5101,172.16.1.2,37015,10054,14480,0,65728,65700,6,6,4,1460,916,1,992,149,33580,0,65700,0,0,0,0,0
i,0x00000000,1716945706.436630,172.16.3.2,5101,172.16.1.2,37015,10054,14480,0,65728,65700,6,6,4,1460,916,1,992,149,33580,0,65700,0,0,0,0,0
o,0x00000000,1716945706.436637,172.16.3.2,5101,172.16.1.2,37015,10054,14480,0,65728,65700,6,6,4,1460,916,1,993,149,33580,0,65700,1448,0,0,0,0
i,0x00000000,1716945706.447047,172.16.3.2,5101,172.16.1.2,37015,10054,14480,0,65728,65700,6,6,4,1460,916,1,992,149,33580,0,65700,0,0,0,0,0
i,0x00000000,1716945706.457377,172.16.3.2,5101,172.16.1.2,37015,10054,14480,0,65728,65700,6,6,4,1460,916,1,992,149,33580,0,65700,0,0,0,0,0
o,0x00000000,1716945706.457383,172.16.3.2,5101,172.16.1.2,37015,10054,14480,0,65728,65700,6,6,4,1460,916,1,993,149,33580,0,65700,1448,0,0,0,0
i,0x00000000,1716945706.467558,172.16.3.2,5101,172.16.1.2,37015,10054,14480,0,65728,65700,6,6,4,1460,916,1,992,149,33580,0,65700,0,0,0,0,0
i,0x00000000,1716945706.477053,172.16.3.2,5101,172.16.1.2,37015,10054,14480,0,65728,65700,6,6,4,1460,916,1,992,149,33580,0,65700,0,0,0,0,0
o,0x00000000,1716945706.477059,172.16.3.2,5101,172.16.1.2,37015,10054,14480,0,65728,65700,6,6,4,1460,916,1,993,149,33580,0,65700,1448,0,0,0,0
i,0x00000000,1716945706.497585,172.16.3.2,5101,172.16.1.2,37015,10054,14480,0,65728,65700,6,6,4,1460,916,1,992,149,33580,0,65700,0,0,0,0,0
i,0x00000000,1716945706.506977,172.16.3.2,5101,172.16.1.2,37015,10054,14480,0,65728,65700,6,6,4,1460,916,1,992,149,33580,0,65700,0,0,0,0,0
o,0x00000000,1716945706.506982,172.16.3.2,5101,172.16.1.2,37015,10054,14480,0,65728,65700,6,6,4,1460,916,1,993,149,33580,0,65700,1448,0,0,0,0
i,0x00000000,1716945706.517400,172.16.3.2,5101,172.16.1.2,37015,10054,14480,0,65728,65700,6,6,4,1460,916,1,992,149,33580,0,65700,0,0,0,0,0
i,0x00000000,1716945706.527620,172.16.3.2,5101,172.16.1.2,37015,10054,14480,0,65728,65700,6,6,4,1460,916,1,992,149,33580,0,65700,0,0,0,0,0
o,0x00000000,1716945706.527625,172.16.3.2,5101,172.16.1.2,37015,10054,14480,0,65728,65700,6,6,4,1460,916,1,993,149,33580,0,65700,1448,0,0,0,0
i,0x00000000,1716945706.538114,172.16.3.2,5101,172.16.1.2,37015,10054,14480,0,65728,65700,6,6,4,1460,916,1,992,149,33580,0,65700,0,0,0,0,0
i,0x00000000,1716945706.557772,172.16.3.2,5101,172.16.1.2,37015,10054,14480,0,65728,65700,6,6,4,1460,916,1,992,149,33580,0,65700,0,0,0,0,0
o,0x00000000,1716945706.557785,172.16.3.2,5101,172.16.1.2,37015,10054,14480,0,65728,65700,6,6,4,1460,916,1,993,149,33580,0,65700,1448,0,0,0,0
i,0x00000000,1716945706.567022,172.16.3.2,5101,172.16.1.2,37015,10054,14480,0,65728,65700,6,6,4,1460,916,1,992,149,33580,0,65700,0,0,0,0,0
i,0x00000000,1716945706.577390,172.16.3.2,5101,172.16.1.2,37015,10054,14480,0,65728,65700,6,6,4,1460,916,1,992,149,33580,0,65700,0,0,0,0,0
o,0x00000000,1716945706.577396,172.16.3.2,5101,172.16.1.2,37015,10054,14480,0,65728,65700,6,6,4,1460,916,1,993,149,33580,0,65700,1448,0,0,0,0
i,0x00000000,1716945706.586916,172.16.3.2,5101,172.16.1.2,37015,10054,14480,0,65728,65700,6,6,4,1460,916,1,992,149,33580,0,65700,0,0,0,0,0
i,0x00000000,1716945706.597300,172.16.3.2,5101,172.16.1.2,37015,10054,14480,0,65728,65700,6,6,4,1460,916,1,992,149,33580,0,65700,0,0,0,0,0
o,0x00000000,1716945706.597306,172.16.3.2,5101,172.16.1.2,37015,10054,14480,0,65728,65700,6,6,4,1460,916,1,993,149,33580,0,65700,1448,0,0,0,0
i,0x00000000,1716945706.657545,172.16.3.2,5101,172.16.1.2,37015,10054,14480,0,65728,65700,6,6,4,1460,916,1,992,149,33580,0,65700,0,0,0,0,0
o,0x00000000,1716945706.698121,172.16.3.2,5101,172.16.1.2,37015,10054,14480,0,65728,65700,6,6,4,1460,916,1,993,149,33580,0,65700,0,0,0,0,0
i,0x00000000,1716945706.716733,172.16.3.2,5101,172.16.1.2,37015,10054,14480,0,65728,65700,6,6,4,1460,916,1,992,149,33580,0,65700,0,0,0,0,0
o,0x00000000,1716945706.757649,172.16.3.2,5101,172.16.1.2,37015,10054,14480,0,65728,65700,6,6,4,1460,916,1,993,149,33580,0,65700,0,0,0,0,0
i,0x00000000,1716945706.906392,172.16.3.2,5101,172.16.1.2,37015,10054,14480,0,65728,65700,6,6,4,1460,916,1,992,149,33580,0,65700,0,0,0,0,0
i,0x00000000,1716945706.916616,172.16.3.2,5101,172.16.1.2,37015,10054,14480,0,65728,65700,6,6,4,1460,916,1,992,149,33580,0,65700,0,0,0,0,0
o,0x00000000,1716945706.916627,172.16.3.2,5101,172.16.1.2,37015,10054,14480,0,65728,65700,6,6,4,1460,916,1,993,149,33580,0,65700,1448,0,0,0,0
i,0x00000000,1716945706.936540,172.16.3.2,5101,172.16.1.2,37015,10054,14480,0,65728,65700,6,6,4,1460,916,1,992,149,33580,0,65700,0,0,0,0,0
i,0x00000000,1716945706.946740,172.16.3.2,5101,172.16.1.2,37015,10054,14480,0,65728,65700,6,6,4,1460,916,1,992,149,33580,0,65700,0,0,0,0,0
o,0x00000000,1716945706.946746,172.16.3.2,5101,172.16.1.2,37015,10054,14480,0,65728,65700,6,6,4,1460,916,1,993,149,33580,0,65700,1448,0,0,0,0
i,0x00000000,1716945706.957065,172.16.3.2,5101,172.16.1.2,37015,10054,14480,0,65728,65700,6,6,4,1460,916,1,992,149,33580,0,65700,0,0,0,0,0
i,0x00000000,1716945706.967504,172.16.3.2,5101,172.16.1.2,37015,10054,14480,0,65728,65700,6,6,4,1460,916,1,992,149,33580,0,65700,0,0,0,0,0
o,0x00000000,1716945706.967512,172.16.3.2,5101,172.16.1.2,37015,10054,14480,0,65728,65700,6,6,4,1460,916,1,993,149,33580,0,65700,1448,0,0,0,0
i,0x00000000,1716945706.977620,172.16.3.2,5101,172.16.1.2,37015,10054,14480,0,65728,65700,6,6,4,1460,916,1,992,149,33580,0,65700,0,0,0,0,0
o,0x00000000,1716945706.977749,10.0.2.15,22,10.0.2.2,62180,1073725440,14600,0,65535,65700,0,0,4,1460,1,0,4,24,33580,108,65700,0,0,0,0,0
i,0x00000000,1716945706.978538,10.0.2.15,22,10.0.2.2,62180,1073725440,14600,0,65535,65700,0,0,4,1460,1,0,4,24,33580,108,65700,0,108,0,0,0
i,0x00000000,1716945706.996731,172.16.3.2,5101,172.16.1.2,37015,10054,14480,0,65728,65700,6,6,4,1460,916,1,992,149,33580,0,65700,0,0,0,0,0
o,0x00000000,1716945706.996738,172.16.3.2,5101,172.16.1.2,37015,10054,14480,0,65728,65700,6,6,4,1460,916,1,993,149,33580,0,65700,1448,0,0,0,0
i,0x00000000,1716945707.007786,172.16.3.2,5101,172.16.1.2,37015,10054,14480,0,65728,65700,6,6,4,1460,916,1,992,149,33580,0,65700,0,0,0,0,0
i,0x00000000,1716945707.017366,172.16.3.2,5101,172.16.1.2,37015,10054,14480,0,65728,65700,6,6,4,1460,916,1,992,149,33580,0,65700,0,0,0,0,0
o,0x00000000,1716945707.017372,172.16.3.2,5101,172.16.1.2,37015,10054,14480,0,65728,65700,6,6,4,1460,916,1,993,149,33580,0,65700,1448,0,0,0,0
i,0x00000000,1716945707.026710,172.16.3.2,5101,172.16.1.2,37015,10054,14480,0,65728,65700,6,6,4,1460,916,1,992,149,33580,0,65700,0,0,0,0,0
i,0x00000000,1716945707.037159,172.16.3.2,5101,172.16.1.2,37015,10054,14480,0,65728,65700,6,6,4,1460,916,1,992,149,33580,0,65700,0,0,0,0,0
o,0x00000000,1716945707.037165,172.16.3.2,5101,172.16.1.2,37015,10054,14480,0,65728,65700,6,6,4,1460,916,1,993,149,33580,0,65700,1448,0,0,0,0
i,0x00000000,1716945707.056690,172.16.3.2,5101,172.16.1.2,37015,10054,14480,0,65728,65700,6,6,4,1460,916,1,992,149,33580,0,65700,0,0,0,0,0
i,0x00000000,1716945707.066989,172.16.3.2,5101,172.16.1.2,37015,10054,14480,0,65728,65700,6,6,4,1460,916,1,992,149,33580,0,65700,0,0,0,0,0
o,0x00000000,1716945707.066999,172.16.3.2,5101,172.16.1.2,37015,10054,14480,0,65728,65700,6,6,4,1460,916,1,993,149,33580,0,65700,1448,0,0,0,0
i,0x00000000,1716945707.077440,172.16.3.2,5101,172.16.1.2,37015,10054,14480,0,65728,65700,6,6,4,1460,916,1,992,149,33580,0,65700,0,0,0,0,0
i,0x00000000,1716945707.087584,172.16.3.2,5101,172.16.1.2,37015,10054,14480,0,65728,65700,6,6,4,1460,916,1,992,149,33580,0,65700,0,0,0,0,0
o,0x00000000,1716945707.087590,172.16.3.2,5101,172.16.1.2,37015,10054,14480,0,65728,65700,6,6,4,1460,916,1,993,149,33580,0,65700,1448,0,0,0,0
i,0x00000000,1716945707.097095,172.16.3.2,5101,172.16.1.2,37015,10054,14480,0,65728,65700,6,6,4,1460,916,1,992,149,33580,0,65700,0,0,0,0,0
i,0x00000000,1716945707.116650,172.16.3.2,5101,172.16.1.2,37015,10054,14480,0,65728,65700,6,6,4,1460,916,1,992,149,33580,0,65700,0,0,0,0,0
o,0x00000000,1716945707.116655,172.16.3.2,5101,172.16.1.2,37015,10054,14480,0,65728,65700,6,6,4,1460,916,1,993,149,33580,0,65700,1448,0,0,0,0
i,0x00000000,1716945707.126094,172.16.3.2,5101,172.16.1.2,37015,10054,14480,0,65728,65700,6,6,4,1460,916,1,992,149,33580,0,65700,0,0,0,0,0
o,0x00000000,1716945707.156929,172.16.3.2,5101,172.16.1.2,37015,10054,14480,0,65728,65700,6,6,4,1460,916,1,993,149,33580,0,65700,0,0,0,0,0
i,0x00000000,1716945707.376275,172.16.3.2,5101,172.16.1.2,37015,10054,14480,0,65728,65700,6,6,4,1460,916,1,992,149,33580,0,65700,0,0,0,0,0
i,0x00000000,1716945707.386585,172.16.3.2,5101,172.16.1.2,37015,10054,14480,0,65728,65700,6,6,4,1460,916,1,992,149,33580,0,65700,0,0,0,0,0
o,0x00000000,1716945707.386596,172.16.3.2,5101,172.16.1.2,37015,10054,14480,0,65728,65700,6,6,4,1460,916,1,993,149,33580,0,65700,1448,0,0,0,0
i,0x00000000,1716945707.425844,172.16.3.2,5101,172.16.1.2,37015,10054,14480,0,65728,65700,6,6,4,1460,916,1,992,149,33580,0,65700,0,0,0,0,0
i,0x00000000,1716945707.436222,172.16.3.2,5101,172.16.1.2,37015,10054,14480,0,65728,65700,6,6,4,1460,916,1,992,149,33580,0,65700,0,0,0,0,0
o,0x00000000,1716945707.436232,172.16.3.2,5101,172.16.1.2,37015,10054,14480,0,65728,65700,6,6,4,1460,916,1,993,149,33580,0,65700,1448,0,0,0,0
i,0x00000000,1716945707.446545,172.16.3.2,5101,172.16.1.2,37015,10054,14480,0,65728,65700,6,6,4,1460,916,1,992,149,33580,0,65700,0,0,0,0,0
i,0x00000000,1716945707.456865,172.16.3.2,5101,172.16.1.2,37015,10054,14480,0,65728,65700,6,6,4,1460,916,1,992,149,33580,0,65700,0,0,0,0,0
o,0x00000000,1716945707.456874,172.16.3.2,5101,172.16.1.2,37015,10054,14480,0,65728,65700,6,6,4,1460,916,1,993,149,33580,0,65700,1448,0,0,0,0
i,0x00000000,1716945707.467228,172.16.3.2,5101,172.16.1.2,37015,10054,14480,0,65728,65700,6,6,4,1460,916,1,992,149,33580,0,65700,0,0,0,0,0
i,0x00000000,1716945707.485795,172.16.3.2,5101,172.16.1.2,37015,10054,14480,0,65728,65700,6,6,4,1460,916,1,992,149,33580,0,65700,0,0,0,0,0
o,0x00000000,1716945707.485802,172.16.3.2,5101,172.16.1.2,37015,10054,14480,0,65728,65700,6,6,4,1460,916,1,993,149,33580,0,65700,1448,0,0,0,0
i,0x00000000,1716945707.497073,172.16.3.2,5101,172.16.1.2,37015,10054,14480,0,65728,65700,6,6,4,1460,916,1,992,149,33580,0,65700,0,0,0,0,0
i,0x00000000,1716945707.506620,172.16.3.2,5101,172.16.1.2,37015,10054,14480,0,65728,65700,6,6,4,1460,916,1,992,149,33580,0,65700,0,0,0,0,0
o,0x00000000,1716945707.506626,172.16.3.2,5101,172.16.1.2,37015,10054,14480,0,65728,65700,6,6,4,1460,916,1,993,149,33580,0,65700,1448,0,0,0,0
i,0x00000000,1716945707.515786,172.16.3.2,5101,172.16.1.2,37015,10054,14480,0,65728,65700,6,6,4,1460,916,1,992,149,33580,0,65700,0,0,0,0,0
i,0x00000000,1716945707.526340,172.16.3.2,5101,172.16.1.2,37015,10054,14480,0,65728,65700,6,6,4,1460,916,1,992,149,33580,0,65700,0,0,0,0,0
o,0x00000000,1716945707.526346,172.16.3.2,5101,172.16.1.2,37015,10054,14480,0,65728,65700,6,6,4,1460,916,1,993,149,33580,0,65700,1448,0,0,0,0
i,0x00000000,1716945707.546282,172.16.3.2,5101,172.16.1.2,37015,10054,14480,0,65728,65700,6,6,4,1460,916,1,992,149,33580,0,65700,0,0,0,0,0
i,0x00000000,1716945707.556378,172.16.3.2,5101,172.16.1.2,37015,10054,14480,0,65728,65700,6,6,4,1460,916,1,992,149,33580,0,65700,0,0,0,0,0
o,0x00000000,1716945707.556390,172.16.3.2,5101,172.16.1.2,37015,10054,14480,0,65728,65700,6,6,4,1460,916,1,993,149,33580,0,65700,1448,0,0,0,0
i,0x00000000,1716945707.566708,172.16.3.2,5101,172.16.1.2,37015,10054,14480,0,65728,65700,6,6,4,1460,916,1,992,149,33580,0,65700,0,0,0,0,0
i,0x00000000,1716945707.577080,172.16.3.2,5101,172.16.1.2,37015,10054,14480,0,65728,65700,6,6,4,1460,916,1,992,149,33580,0,65700,0,0,0,0,0
o,0x00000000,1716945707.577089,172.16.3.2,5101,172.16.1.2,37015,10054,14480,0,65728,65700,6,6,4,1460,916,1,993,149,33580,0,65700,1448,0,0,0,0
i,0x00000000,1716945707.585738,172.16.3.2,5101,172.16.1.2,37015,10054,14480,0,65728,65700,6,6,4,1460,916,1,992,149,33580,0,65700,0,0,0,0,0
i,0x00000000,1716945707.606668,172.16.3.2,5101,172.16.1.2,37015,10054,14480,0,65728,65700,6,6,4,1460,916,1,992,149,33580,0,65700,0,0,0,0,0
o,0x00000000,1716945707.606674,172.16.3.2,5101,172.16.1.2,37015,10054,14480,0,65728,65700,6,6,4,1460,916,1,993,149,33580,0,65700,1448,0,0,0,0
i,0x00000000,1716945707.616745,172.16.3.2,5101,172.16.1.2,37015,10054,14480,0,65728,65700,6,6,4,1460,916,1,992,149,33580,0,65700,0,0,0,0,0
i,0x00000000,1716945707.626110,172.16.3.2,5101,172.16.1.2,37015,10054,14480,0,65728,65700,6,6,4,1460,916,1,992,149,33580,0,65700,0,0,0,0,0
o,0x00000000,1716945707.626116,172.16.3.2,5101,172.16.1.2,37015,10054,14480,0,65728,65700,6,6,4,1460,916,1,993,149,33580,0,65700,1448,0,0,0,0
i,0x00000000,1716945707.696421,172.16.3.2,5101,172.16.1.2,37015,10054,14480,0,65728,65700,6,6,4,1460,916,1,992,149,33580,0,65700,0,0,0,0,0
i,0x00000000,1716945707.706714,172.16.3.2,5101,172.16.1.2,37015,10054,14480,0,65728,65700,6,6,4,1460,916,1,992,149,33580,0,65700,0,0,0,0,0
o,0x00000000,1716945707.706727,172.16.3.2,5101,172.16.1.2,37015,10054,14480,0,65728,65700,6,6,4,1460,916,1,993,149,33580,0,65700,1448,0,0,0,0
i,0x00000000,1716945707.906135,172.16.3.2,5101,172.16.1.2,37015,10054,14480,0,65728,65700,6,6,4,1460,916,1,992,149,33580,0,65700,0,0,0,0,0
i,0x00000000,1716945707.925759,172.16.3.2,5101,172.16.1.2,37015,10054,14480,0,65728,65700,6,6,4,1460,916,1,992,149,33580,0,65700,0,0,0,0,0
o,0x00000000,1716945707.925772,172.16.3.2,5101,172.16.1.2,37015,10054,14480,0,65728,65700,6,6,4,1460,916,1,993,149,33580,0,65700,1448,0,0,0,0
i,0x00000000,1716945707.956759,172.16.3.2,5101,172.16.1.2,37015,10054,14480,0,65728,65700,6,6,4,1460,916,1,992,149,33580,0,65700,0,0,0,0,0
i,0x00000000,1716945707.966056,172.16.3.2,5101,172.16.1.2,37015,10054,14480,0,65728,65700,6,6,4,1460,916,1,992,149,33580,0,65700,0,0,0,0,0
o,0x00000000,1716945707.966063,172.16.3.2,5101,172.16.1.2,37015,10054,14480,0,65728,65700,6,6,4,1460,916,1,993,149,33580,0,65700,1448,0,0,0,0
o,0x00000000,1716945707.977043,10.0.2.15,22,10.0.2.2,62180,1073725440,14600,0,65535,65700,0,0,4,1460,1,0,4,24,33580,108,65700,0,0,0,0,0
i,0x00000000,1716945707.977771,10.0.2.15,22,10.0.2.2,62180,1073725440,14600,0,65535,65700,0,0,4,1460,1,0,4,24,33580,108,65700,0,108,0,0,0
i,0x00000000,1716945707.985718,172.16.3.2,5101,172.16.1.2,37015,10054,14480,0,65728,65700,6,6,4,1460,916,1,992,149,33580,0,65700,0,0,0,0,0
i,0x00000000,1716945707.996134,172.16.3.2,5101,172.16.1.2,37015,10054,14480,0,65728,65700,6,6,4,1460,916,1,992,149,33580,0,65700,0,0,0,0,0
o,0x00000000,1716945707.996141,172.16.3.2,5101,172.16.1.2,37015,10054,14480,0,65728,65700,6,6,4,1460,916,1,993,149,33580,0,65700,1448,0,0,0,0
i,0x00000000,1716945708.006596,172.16.3.2,5101,172.16.1.2,37015,10054,14480,0,65728,65700,6,6,4,1460,916,1,992,149,33580,0,65700,0,0,0,0,0
i,0x00000000,1716945708.016823,172.16.3.2,5101,172.16.1.2,37015,10054,14480,0,65728,65700,6,6,4,1460,916,1,992,149,33580,0,65700,0,0,0,0,0
o,0x00000000,1716945708.016829,172.16.3.2,5101,172.16.1.2,37015,10054,14480,0,65728,65700,6,6,4,1460,916,1,993,149,33580,0,65700,1448,0,0,0,0
i,0x00000000,1716945708.026090,172.16.3.2,5101,172.16.1.2,37015,10054,14480,0,65728,65700,6,6,4,1460,916,1,992,149,33580,0,65700,0,0,0,0,0
i,0x00000000,1716945708.045970,172.16.3.2,5101,172.16.1.2,37015,10054,14480,0,65728,65700,6,6,4,1460,916,1,992,149,33580,0,65700,0,0,0,0,0
o,0x00000000,1716945708.045977,172.16.3.2,5101,172.16.1.2,37015,10054,14480,0,65728,65700,6,6,4,1460,916,1,993,149,33580,0,65700,1448,0,0,0,0
i,0x00000000,1716945708.056292,172.16.3.2,5101,172.16.1.2,37015,10054,14480,0,65728,65700,6,6,4,1460,916,1,992,149,33580,0,65700,0,0,0,0,0
i,0x00000000,1716945708.066619,172.16.3.2,5101,172.16.1.2,37015,10054,14480,0,65728,65700,6,6,4,1460,916,1,992,149,33580,0,65700,0,0,0,0,0
o,0x00000000,1716945708.066632,172.16.3.2,5101,172.16.1.2,37015,10054,14480,0,65728,65700,6,6,4,1460,916,1,993,149,33580,0,65700,1448,0,0,0,0
i,0x00000000,1716945708.075832,172.16.3.2,5101,172.16.1.2,37015,10054,14480,0,65728,65700,6,6,4,1460,916,1,992,149,33580,0,65700,0,0,0,0,0
i,0x00000000,1716945708.085470,172.16.3.2,5101,172.16.1.2,37015,10054,14480,0,65728,65700,6,6,4,1460,916,1,992,149,33580,0,65700,0,0,0,0,0
o,0x00000000,1716945708.085479,172.16.3.2,5101,172.16.1.2,37015,10054,14480,0,65728,65700,6,6,4,1460,916,1,993,149,33580,0,65700,1448,0,0,0,0
i,0x00000000,1716945708.106170,172.16.3.2,5101,172.16.1.2,37015,10054,14480,0,65728,65700,6,6,4,1460,916,1,992,149,33580,0,65700,0,0,0,0,0
i,0x00000000,1716945708.116617,172.16.3.2,5101,172.16.1.2,37015,10054,14480,0,65728,65700,6,6,4,1460,916,1,992,149,33580,0,65700,0,0,0,0,0
o,0x00000000,1716945708.116623,172.16.3.2,5101,172.16.1.2,37015,10054,14480,0,65728,65700,6,6,4,1460,916,1,993,149,33580,0,65700,1448,0,0,0,0
i,0x00000000,1716945708.126814,172.16.3.2,5101,172.16.1.2,37015,10054,14480,0,65728,65700,6,6,4,1460,916,1,992,149,33580,0,65700,0,0,0,0,0
i,0x00000000,1716945708.136136,172.16.3.2,5101,172.16.1.2,37015,10054,14480,0,65728,65700,6,6,4,1460,916,1,992,149,33580,0,65700,0,0,0,0,0
o,0x00000000,1716945708.136143,172.16.3.2,5101,172.16.1.2,37015,10054,14480,0,65728,65700,6,6,4,1460,916,1,993,149,33580,0,65700,1448,0,0,0,0
i,0x00000000,1716945708.155872,172.16.3.2,5101,172.16.1.2,37015,10054,14480,0,65728,65700,6,6,4,1460,916,1,992,149,33580,0,65700,0,0,0,0,0
i,0x00000000,1716945708.166319,172.16.3.2,5101,172.16.1.2,37015,10054,14480,0,65728,65700,6,6,4,1460,916,1,992,149,33580,0,65700,0,0,0,0,0
o,0x00000000,1716945708.166326,172.16.3.2,5101,172.16.1.2,37015,10054,14480,0,65728,65700,6,6,4,1460,916,1,993,149,33580,0,65700,1448,0,0,0,0
i,0x00000000,1716945708.245150,172.16.3.2,5101,172.16.1.2,37015,10054,14480,0,65728,65700,6,6,4,1460,916,1,992,149,33580,0,65700,0,0,0,0,0
i,0x00000000,1716945708.255523,172.16.3.2,5101,172.16.1.2,37015,10054,14480,0,65728,65700,6,6,4,1460,916,1,992,149,33580,0,65700,0,0,0,0,0
o,0x00000000,1716945708.255531,172.16.3.2,5101,172.16.1.2,37015,10054,14480,0,65728,65700,6,6,4,1460,916,1,993,149,33580,0,65700,1448,0,0,0,0
i,0x00000000,1716945708.265831,172.16.3.2,5101,172.16.1.2,37015,10054,14480,0,65728,65700,6,6,4,1460,916,1,992,149,33580,0,65700,0,0,0,0,0
o,0x00000000,1716945708.297371,172.16.3.2,5101,172.16.1.2,37015,10054,14480,0,65728,65700,6,6,4,1460,916,1,993,149,33580,0,65700,0,0,0,0,0
i,0x00000000,1716945708.475965,172.16.3.2,5101,172.16.1.2,37015,10054,14480,0,65728,65700,6,6,4,1460,916,1,992,149,33580,0,65700,0,0,0,0,0
i,0x00000000,1716945708.486050,172.16.3.2,5101,172.16.1.2,37015,10054,14480,0,65728,65700,6,6,4,1460,916,1,992,149,33580,0,65700,0,0,0,0,0
o,0x00000000,1716945708.486060,172.16.3.2,5101,172.16.1.2,37015,10054,14480,0,65728,65700,6,6,4,1460,916,1,993,149,33580,0,65700,1448,0,0,0,0
i,0x00000000,1716945708.515491,172.16.3.2,5101,172.16.1.2,37015,10054,14480,0,65728,65700,6,6,4,1460,916,1,992,149,33580,0,65700,0,0,0,0,0
i,0x00000000,1716945708.535154,172.16.3.2,5101,172.16.1.2,37015,10054,14480,0,65728,65700,6,6,4,1460,916,1,992,149,33580,0,65700,0,0,0,0,0
o,0x00000000,1716945708.535160,172.16.3.2,5101,172.16.1.2,37015,10054,14480,0,65728,65700,6,6,4,1460,916,1,993,149,33580,0,65700,1448,0,0,0,0
i,0x00000000,1716945708.545482,172.16.3.2,5101,172.16.1.2,37015,10054,14480,0,65728,65700,6,6,4,1460,916,1,992,149,33580,0,65700,0,0,0,0,0
i,0x00000000,1716945708.555755,172.16.3.2,5101,172.16.1.2,37015,10054,14480,0,65728,65700,6,6,4,1460,916,1,992,149,33580,0,65700,0,0,0,0,0
o,0x00000000,1716945708.555761,172.16.3.2,5101,172.16.1.2,37015,10054,14480,0,65728,65700,6,6,4,1460,916,1,993,149,33580,0,65700,1448,0,0,0,0
i,0x00000000,1716945708.566180,172.16.3.2,5101,172.16.1.2,37015,10054,14480,0,65728,65700,6,6,4,1460,916,1,992,149,33580,0,65700,0,0,0,0,0
i,0x00000000,1716945708.576757,172.16.3.2,5101,172.16.1.2,37015,10054,14480,0,65728,65700,6,6,4,1460,916,1,992,149,33580,0,65700,0,0,0,0,0
o,0x00000000,1716945708.576769,172.16.3.2,5101,172.16.1.2,37015,10054,14480,0,65728,65700,6,6,4,1460,916,1,993,149,33580,0,65700,1448,0,0,0,0
i,0x00000000,1716945708.596151,172.16.3.2,5101,172.16.1.2,37015,10054,14480,0,65728,65700,6,6,4,1460,916,1,992,149,33580,0,65700,0,0,0,0,0
i,0x00000000,1716945708.605926,172.16.3.2,5101,172.16.1.2,37015,10054,14480,0,65728,65700,6,6,4,1460,916,1,992,149,33580,0,65700,0,0,0,0,0
o,0x00000000,1716945708.605932,172.16.3.2,5101,172.16.1.2,37015,10054,14480,0,65728,65700,6,6,4,1460,916,1,993,149,33580,0,65700,1448,0,0,0,0
i,0x00000000,1716945708.615758,172.16.3.2,5101,172.16.1.2,37015,10054,14480,0,65728,65700,6,6,4,1460,916,1,992,149,33580,0,65700,0,0,0,0,0
i,0x00000000,1716945708.626040,172.16.3.2,5101,172.16.1.2,37015,10054,14480,0,65728,65700,6,6,4,1460,916,1,992,149,33580,0,65700,0,0,0,0,0
o,0x00000000,1716945708.626046,172.16.3.2,5101,172.16.1.2,37015,10054,14480,0,65728,65700,6,6,4,1460,916,1,993,149,33580,0,65700,1448,0,0,0,0
i,0x00000000,1716945708.635421,172.16.3.2,5101,172.16.1.2,37015,10054,14480,0,65728,65700,6,6,4,1460,916,1,992,149,33580,0,65700,0,0,0,0,0
i,0x00000000,1716945708.656200,172.16.3.2,5101,172.16.1.2,37015,10054,14480,0,65728,65700,6,6,4,1460,916,1,992,149,33580,0,65700,0,0,0,0,0
o,0x00000000,1716945708.656214,172.16.3.2,5101,172.16.1.2,37015,10054,14480,0,65728,65700,6,6,4,1460,916,1,993,149,33580,0,65700,1448,0,0,0,0
i,0x00000000,1716945708.665409,172.16.3.2,5101,172.16.1.2,37015,10054,14480,0,65728,65700,6,6,4,1460,916,1,992,149,33580,0,65700,0,0,0,0,0
i,0x00000000,1716945708.675676,172.16.3.2,5101,172.16.1.2,37015,10054,14480,0,65728,65700,6,6,4,1460,916,1,992,149,33580,0,65700,0,0,0,0,0
o,0x00000000,1716945708.675684,172.16.3.2,5101,172.16.1.2,37015,10054,14480,0,65728,65700,6,6,4,1460,916,1,993,149,33580,0,65700,1448,0,0,0,0
i,0x00000000,1716945708.686061,172.16.3.2,5101,172.16.1.2,37015,10054,14480,0,65728,65700,6,6,4,1460,916,1,992,149,33580,0,65700,0,0,0,0,0
i,0x00000000,1716945708.695436,172.16.3.2,5101,172.16.1.2,37015,10054,14480,0,65728,65700,6,6,4,1460,916,1,992,149,33580,0,65700,0,0,0,0,0
o,0x00000000,1716945708.695448,172.16.3.2,5101,172.16.1.2,37015,10054,14480,0,65728,65700,6,6,4,1460,916,1,993,149,33580,0,65700,1448,0,0,0,0
i,0x00000000,1716945708.716057,172.16.3.2,5101,172.16.1.2,37015,10054,14480,0,65728,65700,6,6,4,1460,916,1,992,149,33580,0,65700,0,0,0,0,0
i,0x00000000,1716945708.725447,172.16.3.2,5101,172.16.1.2,37015,10054,14480,0,65728,65700,6,6,4,1460,916,1,992,149,33580,0,65700,0,0,0,0,0
o,0x00000000,1716945708.725453,172.16.3.2,5101,172.16.1.2,37015,10054,14480,0,65728,65700,6,6,4,1460,916,1,993,149,33580,0,65700,1448,0,0,0,0
i,0x00000000,1716945708.795814,172.16.3.2,5101,172.16.1.2,37015,10054,14480,0,65728,65700,6,6,4,1460,916,1,992,149,33580,0,65700,0,0,0,0,0
i,0x00000000,1716945708.804883,172.16.3.2,5101,172.16.1.2,37015,10054,14480,0,65728,65700,6,6,4,1460,916,1,992,149,33580,0,65700,0,0,0,0,0
o,0x00000000,1716945708.804899,172.16.3.2,5101,172.16.1.2,37015,10054,14480,0,65728,65700,6,6,4,1460,916,1,993,149,33580,0,65700,1448,0,0,0,0
o,0x00000000,1716945708.978057,10.0.2.15,22,10.0.2.2,62180,1073725440,14600,0,65535,65700,0,0,4,1460,1,0,4,24,33580,108,65700,0,0,0,0,0
i,0x00000000,1716945708.978818,10.0.2.15,22,10.0.2.2,62180,1073725440,14600,0,65535,65700,0,0,4,1460,1,0,4,24,33580,108,65700,0,108,0,0,0
i,0x00000000,1716945709.035405,172.16.3.2,5101,172.16.1.2,37015,10054,14480,0,65728,65700,6,6,4,1460,916,1,992,149,33580,0,65700,0,0,0,0,0
i,0x00000000,1716945709.044603,172.16.3.2,5101,172.16.1.2,37015,10054,14480,0,65728,65700,6,6,4,1460,916,1,992,149,33580,0,65700,0,0,0,0,0
o,0x00000000,1716945709.044616,172.16.3.2,5101,172.16.1.2,37015,10054,14480,0,65728,65700,6,6,4,1460,916,1,993,149,33580,0,65700,1448,0,0,0,0
i,0x00000000,1716945709.085918,172.16.3.2,5101,172.16.1.2,37015,10054,14480,0,65728,65700,6,6,4,1460,916,1,992,149,33580,0,65700,0,0,0,0,0
i,0x00000000,1716945709.095471,172.16.3.2,5101,172.16.1.2,37015,10054,14480,0,65728,65700,6,6,4,1460,916,1,992,149,33580,0,65700,0,0,0,0,0
o,0x00000000,1716945709.095481,172.16.3.2,5101,172.16.1.2,37015,10054,14480,0,65728,65700,6,6,4,1460,916,1,993,149,33580,0,65700,1448,0,0,0,0
i,0x00000000,1716945709.105246,172.16.3.2,5101,172.16.1.2,37015,10054,14480,0,65728,65700,6,6,4,1460,916,1,992,149,33580,0,65700,0,0,0,0,0
i,0x00000000,1716945709.116138,172.16.3.2,5101,172.16.1.2,37015,10054,14480,0,65728,65700,6,6,4,1460,916,1,992,149,33580,0,65700,0,0,0,0,0
o,0x00000000,1716945709.116144,172.16.3.2,5101,172.16.1.2,37015,10054,14480,0,65728,65700,6,6,4,1460,916,1,993,149,33580,0,65700,1448,0,0,0,0
i,0x00000000,1716945709.126248,172.16.3.2,5101,172.16.1.2,37015,10054,14480,0,65728,65700,6,6,4,1460,916,1,992,149,33580,0,65700,0,0,0,0,0
i,0x00000000,1716945709.145356,172.16.3.2,5101,172.16.1.2,37015,10054,14480,0,65728,65700,6,6,4,1460,916,1,992,149,33580,0,65700,0,0,0,0,0
o,0x00000000,1716945709.145363,172.16.3.2,5101,172.16.1.2,37015,10054,14480,0,65728,65700,6,6,4,1460,916,1,993,149,33580,0,65700,1448,0,0,0,0
i,0x00000000,1716945709.154712,172.16.3.2,5101,172.16.1.2,37015,10054,14480,0,65728,65700,6,6,4,1460,916,1,992,149,33580,0,65700,0,0,0,0,0
i,0x00000000,1716945709.166008,172.16.3.2,5101,172.16.1.2,37015,10054,14480,0,65728,65700,6,6,4,1460,916,1,992,149,33580,0,65700,0,0,0,0,0
o,0x00000000,1716945709.166015,172.16.3.2,5101,172.16.1.2,37015,10054,14480,0,65728,65700,6,6,4,1460,916,1,993,149,33580,0,65700,1448,0,0,0,0
i,0x00000000,1716945709.175267,172.16.3.2,5101,172.16.1.2,37015,10054,14480,0,65728,65700,6,6,4,1460,916,1,992,149,33580,0,65700,0,0,0,0,0
i,0x00000000,1716945709.184559,172.16.3.2,5101,172.16.1.2,37015,10054,14480,0,65728,65700,6,6,4,1460,916,1,992,149,33580,0,65700,0,0,0,0,0
o,0x00000000,1716945709.184565,172.16.3.2,5101,172.16.1.2,37015,10054,14480,0,65728,65700,6,6,4,1460,916,1,993,149,33580,0,65700,1448,0,0,0,0
i,0x00000000,1716945709.205321,172.16.3.2,5101,172.16.1.2,37015,10054,14480,0,65728,65700,6,6,4,1460,916,1,992,149,33580,0,65700,0,0,0,0,0
i,0x00000000,1716945709.215600,172.16.3.2,5101,172.16.1.2,37015,10054,14480,0,65728,65700,6,6,4,1460,916,1,992,149,33580,0,65700,0,0,0,0,0
o,0x00000000,1716945709.215606,172.16.3.2,5101,172.16.1.2,37015,10054,14480,0,65728,65700,6,6,4,1460,916,1,993,149,33580,0,65700,1448,0,0,0,0
i,0x00000000,1716945709.225955,172.16.3.2,5101,172.16.1.2,37015,10054,14480,0,65728,65700,6,6,4,1460,916,1,992,149,33580,0,65700,0,0,0,0,0
i,0x00000000,1716945709.235329,172.16.3.2,5101,172.16.1.2,37015,10054,14480,0,65728,65700,6,6,4,1460,916,1,992,149,33580,0,65700,0,0,0,0,0
o,0x00000000,1716945709.235334,172.16.3.2,5101,172.16.1.2,37015,10054,14480,0,65728,65700,6,6,4,1460,916,1,993,149,33580,0,65700,1448,0,0,0,0
i,0x00000000,1716945709.244663,172.16.3.2,5101,172.16.1.2,37015,10054,14480,0,65728,65700,6,6,4,1460,916,1,992,149,33580,0,65700,0,0,0,0,0
i,0x00000000,1716945709.265291,172.16.3.2,5101,172.16.1.2,37015,10054,14480,0,65728,65700,6,6,4,1460,916,1,992,149,33580,0,65700,0,0,0,0,0
o,0x00000000,1716945709.265305,172.16.3.2,5101,172.16.1.2,37015,10054,14480,0,65728,65700,6,6,4,1460,916,1,993,149,33580,0,65700,1448,0,0,0,0
i,0x00000000,1716945709.275631,172.16.3.2,5101,172.16.1.2,37015,10054,14480,0,65728,65700,6,6,4,1460,916,1,992,149,33580,0,65700,0,0,0,0,0
i,0x00000000,1716945709.285944,172.16.3.2,5101,172.16.1.2,37015,10054,14480,0,65728,65700,6,6,4,1460,916,1,992,149,33580,0,65700,0,0,0,0,0
o,0x00000000,1716945709.285950,172.16.3.2,5101,172.16.1.2,37015,10054,14480,0,65728,65700,6,6,4,1460,916,1,993,149,33580,0,65700,1448,0,0,0,0
i,0x00000000,1716945709.295280,172.16.3.2,5101,172.16.1.2,37015,10054,14480,0,65728,65700,6,6,4,1460,916,1,992,149,33580,0,65700,0,0,0,0,0
i,0x00000000,1716945709.304606,172.16.3.2,5101,172.16.1.2,37015,10054,14480,0,65728,65700,6,6,4,1460,916,1,992,149,33580,0,65700,0,0,0,0,0
o,0x00000000,1716945709.304612,172.16.3.2,5101,172.16.1.2,37015,10054,14480,0,65728,65700,6,6,4,1460,916,1,993,149,33580,0,65700,1448,0,0,0,0
i,0x00000000,1716945709.395612,172.16.3.2,5101,172.16.1.2,37015,10054,14480,0,65728,65700,6,6,4,1460,916,1,992,149,33580,0,65700,0,0,0,0,0
i,0x00000000,1716945709.405227,172.16.3.2,5101,172.16.1.2,37015,10054,14480,0,65728,65700,6,6,4,1460,916,1,992,149,33580,0,65700,0,0,0,0,0
o,0x00000000,1716945709.405238,172.16.3.2,5101,172.16.1.2,37015,10054,14480,0,65728,65700,6,6,4,1460,916,1,993,149,33580,0,65700,1448,0,0,0,0
i,0x00000000,1716945709.635205,172.16.3.2,5101,172.16.1.2,37015,10054,14480,0,65728,65700,6,6,4,1460,916,1,992,149,33580,0,65700,0,0,0,0,0
i,0x00000000,1716945709.644631,172.16.3.2,5101,172.16.1.2,37015,10054,14480,0,65728,65700,6,6,4,1460,916,1,992,149,33580,0,65700,0,0,0,0,0
o,0x00000000,1716945709.644651,172.16.3.2,5101,172.16.1.2,37015,10054,14480,0,65728,65700,6,6,4,1460,916,1,993,149,33580,0,65700,1448,0,0,0,0
i,0x00000000,1716945709.654634,172.16.3.2,5101,172.16.1.2,37015,10054,14480,0,65728,65700,6,6,4,1460,916,1,992,149,33580,0,65700,0,0,0,0,0
o,0x00000000,1716945709.687139,172.16.3.2,5101,172.16.1.2,37015,10054,14480,0,65728,65700,6,6,4,1460,916,1,993,149,33580,0,65700,0,0,0,0,0
i,0x00000000,1716945709.694952,172.16.3.2,5101,172.16.1.2,37015,10054,14480,0,65728,65700,6,6,4,1460,916,1,992,149,33580,0,65700,0,0,0,0,0
i,0x00000000,1716945709.705254,172.16.3.2,5101,172.16.1.2,37015,10054,14480,0,65728,65700,6,6,4,1460,916,1,992,149,33580,0,65700,0,0,0,0,0
o,0x00000000,1716945709.705265,172.16.3.2,5101,172.16.1.2,37015,10054,14480,0,65728,65700,6,6,4,1460,916,1,993,149,33580,0,65700,1448,0,0,0,0
i,0x00000000,1716945709.714800,172.16.3.2,5101,172.16.1.2,37015,10054,14480,0,65728,65700,6,6,4,1460,916,1,992,149,33580,0,65700,0,0,0,0,0
i,0x00000000,1716945709.725938,172.16.3.2,5101,172.16.1.2,37015,10054,14480,0,65728,65700,6,6,4,1460,916,1,992,149,33580,0,65700,0,0,0,0,0
o,0x00000000,1716945709.725944,172.16.3.2,5101,172.16.1.2,37015,10054,14480,0,65728,65700,6,6,4,1460,916,1,993,149,33580,0,65700,1448,0,0,0,0
i,0x00000000,1716945709.736240,172.16.3.2,5101,172.16.1.2,37015,10054,14480,0,65728,65700,6,6,4,1460,916,1,992,149,33580,0,65700,0,0,0,0,0
i,0x00000000,1716945709.754375,172.16.3.2,5101,172.16.1.2,37015,10054,14480,0,65728,65700,6,6,4,1460,916,1,992,149,33580,0,65700,0,0,0,0,0
o,0x00000000,1716945709.754382,172.16.3.2,5101,172.16.1.2,37015,10054,14480,0,65728,65700,6,6,4,1460,916,1,993,149,33580,0,65700,1448,0,0,0,0
i,0x00000000,1716945709.764793,172.16.3.2,5101,172.16.1.2,37015,10054,14480,0,65728,65700,6,6,4,1460,916,1,992,149,33580,0,65700,0,0,0,0,0
i,0x00000000,1716945709.775179,172.16.3.2,5101,172.16.1.2,37015,10054,14480,0,65728,65700,6,6,4,1460,916,1,992,149,33580,0,65700,0,0,0,0,0
o,0x00000000,1716945709.775187,172.16.3.2,5101,172.16.1.2,37015,10054,14480,0,65728,65700,6,6,4,1460,916,1,993,149,33580,0,65700,1448,0,0,0,0
i,0x00000000,1716945709.785427,172.16.3.2,5101,172.16.1.2,37015,10054,14480,0,65728,65700,6,6,4,1460,916,1,992,149,33580,0,65700,0,0,0,0,0
i,0x00000000,1716945709.794851,172.16.3.2,5101,172.16.1.2,37015,10054,14480,0,65728,65700,6,6,4,1460,916,1,992,149,33580,0,65700,0,0,0,0,0
o,0x00000000,1716945709.794858,172.16.3.2,5101,172.16.1.2,37015,10054,14480,0,65728,65700,6,6,4,1460,916,1,993,149,33580,0,65700,1448,0,0,0,0
i,0x00000000,1716945709.815344,172.16.3.2,5101,172.16.1.2,37015,10054,14480,0,65728,65700,6,6,4,1460,916,1,992,149,33580,0,65700,0,0,0,0,0
i,0x00000000,1716945709.824628,172.16.3.2,5101,172.16.1.2,37015,10054,14480,0,65728,65700,6,6,4,1460,916,1,992,149,33580,0,65700,0,0,0,0,0
o,0x00000000,1716945709.824637,172.16.3.2,5101,172.16.1.2,37015,10054,14480,0,65728,65700,6,6,4,1460,916,1,993,149,33580,0,65700,1448,0,0,0,0
i,0x00000000,1716945709.835021,172.16.3.2,5101,172.16.1.2,37015,10054,14480,0,65728,65700,6,6,4,1460,916,1,992,149,33580,0,65700,0,0,0,0,0
i,0x00000000,1716945709.845385,172.16.3.2,5101,172.16.1.2,37015,10054,14480,0,65728,65700,6,6,4,1460,916,1,992,149,33580,0,65700,0,0,0,0,0
o,0x00000000,1716945709.845400,172.16.3.2,5101,172.16.1.2,37015,10054,14480,0,65728,65700,6,6,4,1460,916,1,993,149,33580,0,65700,1448,0,0,0,0
i,0x00000000,1716945709.854794,172.16.3.2,5101,172.16.1.2,37015,10054,14480,0,65728,65700,6,6,4,1460,916,1,992,149,33580,0,65700,0,0,0,0,0
