enable_time_secs=1716944043	enable_time_usecs=667752	siftrver=1.2.4	hz=100	tcp_rtt_scale=32	sysname=FreeBSD	sysver=1301000	ipmode=4
o,0x00000000,1716944043.667786,10.0.2.15,22,10.0.2.2,64156,1073725440,17262,0,65535,65700,0,0,4,1460,1,0,4,24,33580,80,65700,0,36,0,0,0
o,0x00000000,1716944043.667880,10.0.2.15,22,10.0.2.2,64156,1073725440,17262,0,65535,65700,0,0,4,1460,1,0,4,24,33580,116,65700,0,80,0,0,0
o,0x00000000,1716944043.668282,10.0.2.15,22,10.0.2.2,64156,1073725440,17262,0,65535,65700,0,0,4,1460,1,0,4,24,33580,152,65700,0,116,0,0,0
o,0x00000000,1716944043.668490,10.0.2.15,22,10.0.2.2,64156,1073725440,17262,0,65535,65700,0,0,4,1460,1,0,4,24,33580,328,65700,0,152,0,0,0
i,0x00000000,1716944043.670225,10.0.2.15,22,10.0.2.2,64156,1073725440,17262,0,65535,65700,0,0,4,1460,1,0,4,24,33580,328,65700,0,328,0,0,0
i,0x00000000,1716944043.670229,10.0.2.15,22,10.0.2.2,64156,1073725440,17298,0,65535,65700,0,0,4,1460,1,0,4,24,33580,292,65700,0,292,0,0,0
i,0x00000000,1716944043.670229,10.0.2.15,22,10.0.2.2,64156,1073725440,17342,0,65535,65700,0,0,4,1460,1,0,4,24,33580,248,65700,0,248,0,0,0
i,0x00000000,1716944043.670230,10.0.2.15,22,10.0.2.2,64156,1073725440,17378,0,65535,65700,0,0,4,1460,1,0,4,24,33580,212,65700,0,212,0,0,0
i,0x00000000,1716944043.670230,10.0.2.15,22,10.0.2.2,64156,1073725440,17414,0,65535,65700,0,0,4,1460,1,0,4,24,33580,176,65700,0,176,0,0,0
i,0x00000000,1716944043.671064,10.0.2.15,22,10.0.2.2,64156,1073725440,17590,0,65535,65700,0,0,4,1460,1,0,4,24,33580,0,65700,0,0,0,0,0
i,0x00000000,1716944043.671068,10.0.2.15,22,10.0.2.2,64156,1073725440,17590,0,65535,65700,0,0,4,1460,1,0,4,24,33580,0,65700,96,0,0,0,0
o,0x00000000,1716944043.671071,10.0.2.15,22,10.0.2.2,64156,1073725440,17590,0,65535,65604,0,0,5,1460,1,0,5,24,33580,0,65700,96,0,0,0,0
o,0x00000000,1716944043.671402,10.0.2.15,22,10.0.2.2,64156,1073725440,17590,0,65535,65604,0,0,8,1460,1,0,4,24,33580,0,65700,0,0,0,0,0
i,0x00000000,1716944043.672229,10.0.2.15,22,10.0.2.2,64156,1073725440,17590,0,65535,65604,0,0,8,1460,1,0,20,24,33580,0,65700,0,1,0,0,0
i,0x00000000,1716944045.773157,10.0.2.15,22,10.0.2.2,64158,1073725440,14600,0,65535,65700,0,0,4,1460,1,0,0,27,33580,0,65700,0,0,0,0,0
o,0x00000000,1716944045.779127,10.0.2.15,22,10.0.2.2,64158,1073725440,14600,0,65535,65700,0,0,4,1460,1,0,0,27,33580,38,65700,41,0,0,0,0
i,0x00000000,1716944045.780089,10.0.2.15,22,10.0.2.2,64158,1073725440,14600,0,65535,65700,0,0,4,1460,1,0,0,27,33580,38,65700,41,38,0,0,0
o,0x00000000,1716944045.780857,10.0.2.15,22,10.0.2.2,64158,1073725440,14638,0,65535,65700,0,0,4,1460,1,0,0,24,33580,1056,65700,0,0,0,0,0
i,0x00000000,1716944045.781563,10.0.2.15,22,10.0.2.2,64158,1073725440,14638,0,65535,65700,0,0,4,1460,1,0,0,24,33580,1056,65700,0,1056,0,0,0
i,0x00000000,1716944045.781566,10.0.2.15,22,10.0.2.2,64158,1073725440,14638,0,65535,65700,0,0,4,1460,1,0,0,24,33580,1056,65700,1460,1056,0,0,0
o,0x00000000,1716944045.781568,10.0.2.15,22,10.0.2.2,64158,1073725440,14638,0,65535,65700,0,0,4,1460,1,0,1,24,33580,1056,65700,1536,1056,0,0,0
i,0x00000000,1716944045.781642,10.0.2.15,22,10.0.2.2,64158,1073725440,14638,0,65535,65700,0,0,4,1460,1,0,0,24,33580,1056,65700,1536,1056,0,0,0
i,0x00000000,1716944045.782948,10.0.2.15,22,10.0.2.2,64158,1073725440,15694,0,65535,65700,0,0,4,1460,1,0,0,24,33580,0,65700,0,0,0,0,0
o,0x00000000,1716944045.785339,10.0.2.15,22,10.0.2.2,64158,1073725440,15694,0,65535,65700,0,0,4,1460,1,0,0,24,33580,484,65700,0,0,0,0,0
i,0x00000000,1716944045.786033,10.0.2.15,22,10.0.2.2,64158,1073725440,15694,0,65535,65700,0,0,4,1460,1,0,0,24,33580,484,65700,0,484,0,0,0
i,0x00000000,1716944045.790657,10.0.2.15,22,10.0.2.2,64158,1073725440,16178,0,65535,65700,0,0,4,1460,1,0,0,24,33580,0,65700,0,0,0,0,0
i,0x00000000,1716944045.794882,10.0.2.15,22,10.0.2.2,64158,1073725440,16178,0,65535,65700,0,0,4,1460,1,0,0,24,33580,0,65700,0,0,0,0,0
o,0x00000000,1716944045.794886,10.0.2.15,22,10.0.2.2,64158,1073725440,16178,0,65535,65700,0,0,4,1460,1,0,1,24,33580,0,65700,44,0,0,0,0
o,0x00000000,1716944045.795023,10.0.2.15,22,10.0.2.2,64158,1073725440,16178,0,65535,65700,0,0,4,1460,1,0,0,24,33580,44,65700,0,0,0,0,0
i,0x00000000,1716944045.795691,10.0.2.15,22,10.0.2.2,64158,1073725440,16178,0,65535,65700,0,0,4,1460,1,0,0,24,33580,44,65700,0,44,0,0,0
i,0x00000000,1716944045.796181,10.0.2.15,22,10.0.2.2,64158,1073725440,16222,0,65535,65700,0,0,4,1460,1,0,0,24,33580,0,65700,0,0,0,0,0
o,0x00000000,1716944045.805639,10.0.2.15,22,10.0.2.2,64158,1073725440,16222,0,65535,65700,0,0,4,1460,1,0,0,24,33580,68,65700,0,0,0,0,0
i,0x00000000,1716944045.806153,10.0.2.15,22,10.0.2.2,64158,1073725440,16222,0,65535,65700,0,0,4,1460,1,0,0,24,33580,68,65700,0,68,0,0,0
i,0x00000000,1716944045.808568,10.0.2.15,22,10.0.2.2,64158,1073725440,16290,0,65535,65700,0,0,4,1460,1,0,0,24,33580,0,65700,0,0,0,0,0
o,0x00000000,1716944045.818151,10.0.2.15,22,10.0.2.2,64158,1073725440,16290,0,65535,65700,0,0,4,1460,1,0,0,24,33580,28,65700,0,0,0,0,0
i,0x00000000,1716944045.819013,10.0.2.15,22,10.0.2.2,64158,1073725440,16290,0,65535,65700,0,0,4,1460,1,0,0,24,33580,28,65700,0,28,0,0,0
i,0x00000000,1716944045.819403,10.0.2.15,22,10.0.2.2,64158,1073725440,16318,0,65535,65700,0,0,4,1460,1,0,0,24,33580,0,65700,0,0,0,0,0
o,0x00000000,1716944045.820094,10.0.2.15,22,10.0.2.2,64158,1073725440,16318,0,65535,65700,0,0,4,1460,1,0,0,24,33580,768,65700,112,0,0,0,0
i,0x00000000,1716944045.820777,10.0.2.15,22,10.0.2.2,64158,1073725440,16318,0,65535,65700,0,0,4,1460,1,0,0,24,33580,768,65700,112,768,0,0,0
o,0x00000000,1716944045.820872,10.0.2.15,22,10.0.2.2,64158,1073725440,17086,0,65535,65700,0,0,4,1460,1,0,0,24,33580,44,65700,0,0,0,0,0
i,0x00000000,1716944045.822016,10.0.2.15,22,10.0.2.2,64158,1073725440,17086,0,65535,65700,0,0,4,1460,1,0,0,24,33580,44,65700,0,44,0,0,0
i,0x00000000,1716944045.822019,10.0.2.15,22,10.0.2.2,64158,1073725440,17130,0,65535,65700,0,0,4,1460,1,0,0,24,33580,0,65700,0,0,0,0,0
o,0x00000000,1716944045.822305,10.0.2.15,22,10.0.2.2,64158,1073725440,17130,0,65535,65700,0,0,4,1460,1,0,4,24,33580,72,65700,0,0,0,0,0
i,0x00000000,1716944045.822976,10.0.2.15,22,10.0.2.2,64158,1073725440,17130,0,65535,65700,0,0,4,1460,1,0,4,24,33580,72,65700,0,72,0,0,0
o,0x00000000,1716944045.825364,10.0.2.15,22,10.0.2.2,64158,1073725440,17202,0,65535,65700,0,0,4,1460,1,0,4,24,33580,44,65700,0,0,0,0,0
i,0x00000000,1716944045.826067,10.0.2.15,22,10.0.2.2,64158,1073725440,17202,0,65535,65700,0,0,4,1460,1,0,4,24,33580,44,65700,0,44,0,0,0
o,0x00000000,1716944045.826329,10.0.2.15,22,10.0.2.2,64158,1073725440,17246,0,65535,65700,0,0,4,1460,1,0,4,24,33580,44,65700,0,0,0,0,0
i,0x00000000,1716944045.827101,10.0.2.15,22,10.0.2.2,64158,1073725440,17246,0,65535,65700,0,0,4,1460,1,0,4,24,33580,44,65700,0,44,0,0,0
o,0x00000000,1716944045.830432,10.0.2.15,22,10.0.2.2,64158,1073725440,17290,0,65535,65700,0,0,4,1460,1,0,4,24,33580,176,65700,0,0,0,0,0
i,0x00000000,1716944045.831094,10.0.2.15,22,10.0.2.2,64158,1073725440,17290,0,65535,65700,0,0,4,1460,1,0,4,24,33580,176,65700,0,176,0,0,0
i,0x00000000,1716944045.831420,10.0.2.15,22,10.0.2.2,64158,1073725440,17466,0,65535,65700,0,0,4,1460,1,0,4,24,33580,0,65700,0,0,0,0,0
i,0x00000000,1716944045.831422,10.0.2.15,22,10.0.2.2,64158,1073725440,17466,0,65535,65700,0,0,4,1460,1,0,4,24,33580,0,65700,36,0,0,0,0
o,0x00000000,1716944045.831423,10.0.2.15,22,10.0.2.2,64158,1073725440,17466,0,65535,65700,0,0,4,1460,1,0,5,24,33580,0,65700,96,0,0,0,0
i,0x00000000,1716944045.831495,10.0.2.15,22,10.0.2.2,64158,1073725440,17466,0,65535,65700,0,0,4,1460,1,0,4,24,33580,0,65700,96,0,0,0,0
o,0x00000000,1716944045.831498,10.0.2.15,22,10.0.2.2,64158,1073725440,17466,0,65535,65604,0,0,5,1460,1,0,7,24,33580,0,65700,96,0,0,0,0
o,0x00000000,1716944045.836522,10.0.2.15,22,10.0.2.2,64158,1073725440,17466,0,65535,65604,0,0,8,1460,1,0,4,24,33580,0,65700,0,0,0,0,0
i,0x00000000,1716944045.837223,10.0.2.15,22,10.0.2.2,64158,1073725440,17466,0,65535,65604,0,0,8,1460,1,0,20,24,33580,0,65700,0,1,0,0,0
i,0x00000000,1716944046.074583,172.16.3.2,5101,172.16.1.2,47994,10482,14480,0,65728,65700,6,6,4,1460,4045,1,992,954,33580,0,65700,0,0,0,0,0
o,0x00000000,1716944046.074703,172.16.3.2,5101,172.16.1.2,47994,10482,14480,0,65728,65700,6,6,4,1460,4045,1,996,954,33580,1,65700,0,0,0,0,0
i,0x00000000,1716944046.196809,172.16.3.2,5101,172.16.1.2,47994,10482,14480,0,65728,65700,6,6,4,1460,4045,1,996,954,33580,1,65700,0,1,0,0,0
i,0x00000000,1716944046.196824,172.16.3.2,5101,172.16.1.2,47994,10482,14480,0,65728,65728,6,6,4,1460,3588,1,996,852,33580,0,65700,4,0,0,0,0
o,0x00000000,1716944046.196831,172.16.3.2,5101,172.16.1.2,47994,10482,14480,0,65728,65728,6,6,4,1460,3588,1,997,852,33580,0,65700,128,0,0,0,0
o,0x00000000,1716944046.197269,172.16.3.2,5101,172.16.1.2,47994,10482,14480,0,65728,65728,6,6,4,1460,3588,1,996,852,33580,1,65700,0,0,0,0,0
o,0x00000000,1716944046.197427,10.0.2.15,22,10.0.2.2,62180,1073725440,14600,0,65535,65700,0,0,4,1460,1,0,4,24,33580,84,65700,0,0,0,0,0
i,0x00000000,1716944046.198297,10.0.2.15,22,10.0.2.2,62180,1073725440,14600,0,65535,65700,0,0,4,1460,1,0,4,24,33580,84,65700,0,84,0,0,0
i,0x00000000,1716944046.344196,172.16.3.2,5101,172.16.1.2,47994,10482,14480,0,65728,65728,6,6,4,1460,3588,1,996,852,33580,1,65700,0,1,0,0,0
i,0x00000000,1716944046.434764,172.16.3.2,5101,172.16.1.2,17904,10482,14480,0,65728,65700,6,6,4,1460,4045,1,992,954,33580,0,65700,0,0,0,0,0
o,0x00000000,1716944046.436750,172.16.3.2,5101,172.16.1.2,47994,10482,14480,0,65728,65728,6,6,4,1460,3196,1,996,758,33580,1,65700,0,0,0,0,0
o,0x00000000,1716944046.436982,172.16.3.2,5101,172.16.1.2,47994,10482,14480,0,65728,65728,6,6,4,1460,3196,1,996,758,33580,2,65700,0,1,0,0,0
o,0x00000000,1716944046.437388,10.0.2.15,22,10.0.2.2,62180,1073725440,14600,0,65535,65700,0,0,4,1460,1,0,4,24,33580,108,65700,0,0,0,0,0
i,0x00000000,1716944046.438084,10.0.2.15,22,10.0.2.2,62180,1073725440,14600,0,65535,65700,0,0,4,1460,1,0,4,24,33580,108,65700,0,108,0,0,0
o,0x00000000,1716944046.466920,172.16.3.2,5101,172.16.1.2,17904,10482,14480,0,65728,65700,6,6,4,1460,4045,1,993,954,33580,0,65700,0,0,0,0,0
i,0x00000000,1716944046.624286,172.16.3.2,5101,172.16.1.2,47994,10482,14480,0,65728,65728,6,6,4,1460,3196,1,996,758,33580,2,65700,0,2,0,0,0
i,0x00000000,1716944046.654746,172.16.3.2,5101,172.16.1.2,17904,10482,14480,0,65728,65700,6,6,4,1460,4045,1,992,954,33580,0,65700,0,0,0,0,0
i,0x00000000,1716944046.664931,172.16.3.2,5101,172.16.1.2,17904,10482,14480,0,65728,65700,6,6,4,1460,4045,1,992,954,33580,0,65700,0,0,0,0,0
o,0x00000000,1716944046.664945,172.16.3.2,5101,172.16.1.2,17904,10482,14480,0,65728,65700,6,6,4,1460,4045,1,993,954,33580,0,65700,1448,0,0,0,0
i,0x00000000,1716944046.675803,172.16.3.2,5101,172.16.1.2,17904,10482,14480,0,65728,65700,6,6,4,1460,4045,1,992,954,33580,0,65700,0,0,0,0,0
i,0x00000000,1716944046.684204,172.16.3.2,5101,172.16.1.2,17904,10482,14480,0,65728,65700,6,6,4,1460,4045,1,992,954,33580,0,65700,0,0,0,0,0
o,0x00000000,1716944046.684216,172.16.3.2,5101,172.16.1.2,17904,10482,14480,0,65728,65700,6,6,4,1460,4045,1,993,954,33580,0,65700,1448,0,0,0,0
i,0x00000000,1716944046.704951,172.16.3.2,5101,172.16.1.2,17904,10482,14480,0,65728,65700,6,6,4,1460,4045,1,992,954,33580,0,65700,0,0,0,0,0
i,0x00000000,1716944046.714363,172.16.3.2,5101,172.16.1.2,17904,10482,14480,0,65728,65700,6,6,4,1460,4045,1,992,954,33580,0,65700,0,0,0,0,0
o,0x00000000,1716944046.714370,172.16.3.2,5101,172.16.1.2,17904,10482,14480,0,65728,65700,6,6,4,1460,4045,1,993,954,33580,0,65700,1448,0,0,0,0
i,0x00000000,1716944046.723746,172.16.3.2,5101,172.16.1.2,17904,10482,14480,0,65728,65700,6,6,4,1460,4045,1,992,954,33580,0,65700,0,0,0,0,0
i,0x00000000,1716944046.734129,172.16.3.2,5101,172.16.1.2,17904,10482,14480,0,65728,65700,6,6,4,1460,4045,1,992,954,33580,0,65700,0,0,0,0,0
o,0x00000000,1716944046.734134,172.16.3.2,5101,172.16.1.2,17904,10482,14480,0,65728,65700,6,6,4,1460,4045,1,993,954,33580,0,65700,1448,0,0,0,0
i,0x00000000,1716944046.744551,172.16.3.2,5101,172.16.1.2,17904,10482,14480,0,65728,65700,6,6,4,1460,4045,1,992,954,33580,0,65700,0,0,0,0,0
i,0x00000000,1716944046.763483,172.16.3.2,5101,172.16.1.2,17904,10482,14480,0,65728,65700,6,6,4,1460,4045,1,992,954,33580,0,65700,0,0,0,0,0
o,0x00000000,1716944046.763488,172.16.3.2,5101,172.16.1.2,17904,10482,14480,0,65728,65700,6,6,4,1460,4045,1,993,954,33580,0,65700,1448,0,0,0,0
i,0x00000000,1716944047.043377,172.16.3.2,5101,172.16.1.2,17904,10482,14480,0,65728,65700,6,6,4,1460,4045,1,992,954,33580,0,65700,0,0,0,0,0
i,0x00000000,1716944047.064255,172.16.3.2,5101,172.16.1.2,17904,10482,14480,0,65728,65700,6,6,4,1460,4045,1,992,954,33580,0,65700,0,0,0,0,0
o,0x00000000,1716944047.064271,172.16.3.2,5101,172.16.1.2,17904,10482,14480,0,65728,65700,6,6,4,1460,4045,1,993,954,33580,0,65700,1448,0,0,0,0
i,0x00000000,1716944047.074643,172.16.3.2,5101,172.16.1.2,17904,10482,14480,0,65728,65700,6,6,4,1460,4045,1,992,954,33580,0,65700,0,0,0,0,0
i,0x00000000,1716944047.084077,172.16.3.2,5101,172.16.1.2,17904,10482,14480,0,65728,65700,6,6,4,1460,4045,1,992,954,33580,0,65700,0,0,0,0,0
o,0x00000000,1716944047.084084,172.16.3.2,5101,172.16.1.2,17904,10482,14480,0,65728,65700,6,6,4,1460,4045,1,993,954,33580,0,65700,1448,0,0,0,0
i,0x00000000,1716944047.094510,172.16.3.2,5101,172.16.1.2,17904,10482,14480,0,65728,65700,6,6,4,1460,4045,1,992,954,33580,0,65700,0,0,0,0,0
i,0x00000000,1716944047.103916,172.16.3.2,5101,172.16.1.2,17904,10482,14480,0,65728,65700,6,6,4,1460,4045,1,992,954,33580,0,65700,0,0,0,0,0
o,0x00000000,1716944047.103922,172.16.3.2,5101,172.16.1.2,17904,10482,14480,0,65728,65700,6,6,4,1460,4045,1,993,954,33580,0,65700,1448,0,0,0,0
i,0x00000000,1716944047.123842,172.16.3.2,5101,172.16.1.2,17904,10482,14480,0,65728,65700,6,6,4,1460,4045,1,992,954,33580,0,65700,0,0,0,0,0
i,0x00000000,1716944047.133667,172.16.3.2,5101,172.16.1.2,17904,10482,14480,0,65728,65700,6,6,4,1460,4045,1,992,954,33580,0,65700,0,0,0,0,0
o,0x00000000,1716944047.133671,172.16.3.2,5101,172.16.1.2,17904,10482,14480,0,65728,65700,6,6,4,1460,4045,1,993,954,33580,0,65700,1448,0,0,0,0
i,0x00000000,1716944047.143963,172.16.3.2,5101,172.16.1.2,17904,10482,14480,0,65728,65700,6,6,4,1460,4045,1,992,954,33580,0,65700,0,0,0,0,0
i,0x00000000,1716944047.154190,172.16.3.2,5101,172.16.1.2,17904,10482,14480,0,65728,65700,6,6,4,1460,4045,1,992,954,33580,0,65700,0,0,0,0,0
o,0x00000000,1716944047.154196,172.16.3.2,5101,172.16.1.2,17904,10482,14480,0,65728,65700,6,6,4,1460,4045,1,993,954,33580,0,65700,1448,0,0,0,0
i,0x00000000,1716944047.164346,172.16.3.2,5101,172.16.1.2,17904,10482,14480,0,65728,65700,6,6,4,1460,4045,1,992,954,33580,0,65700,0,0,0,0,0
i,0x00000000,1716944047.185227,172.16.3.2,5101,172.16.1.2,17904,10482,14480,0,65728,65700,6,6,4,1460,4045,1,992,954,33580,0,65700,0,0,0,0,0
o,0x00000000,1716944047.185255,172.16.3.2,5101,172.16.1.2,17904,10482,14480,0,65728,65700,6,6,4,1460,4045,1,993,954,33580,0,65700,1448,0,0,0,0
i,0x00000000,1716944047.193213,172.16.3.2,5101,172.16.1.2,17904,10482,14480,0,65728,65700,6,6,4,1460,4045,1,992,954,33580,0,65700,0,0,0,0,0
i,0x00000000,1716944047.204437,172.16.3.2,5101,172.16.1.2,17904,10482,14480,0,65728,65700,6,6,4,1460,4045,1,992,954,33580,0,65700,0,0,0,0,0
o,0x00000000,1716944047.204444,172.16.3.2,5101,172.16.1.2,17904,10482,14480,0,65728,65700,6,6,4,1460,4045,1,993,954,33580,0,65700,1448,0,0,0,0
i,0x00000000,1716944047.213888,172.16.3.2,5101,172.16.1.2,17904,10482,14480,0,65728,65700,6,6,4,1460,4045,1,992,954,33580,0,65700,0,0,0,0,0
i,0x00000000,1716944047.224308,172.16.3.2,5101,172.16.1.2,17904,10482,14480,0,65728,65700,6,6,4,1460,4045,1,992,954,33580,0,65700,0,0,0,0,0
o,0x00000000,1716944047.224312,172.16.3.2,5101,172.16.1.2,17904,10482,14480,0,65728,65700,6,6,4,1460,4045,1,993,954,33580,0,65700,1448,0,0,0,0
i,0x00000000,1716944047.244160,172.16.3.2,5101,172.16.1.2,17904,10482,14480,0,65728,65700,6,6,4,1460,4045,1,992,954,33580,0,65700,0,0,0,0,0
i,0x00000000,1716944047.253728,172.16.3.2,5101,172.16.1.2,17904,10482,14480,0,65728,65700,6,6,4,1460,4045,1,992,954,33580,0,65700,0,0,0,0,0
o,0x00000000,1716944047.253736,172.16.3.2,5101,172.16.1.2,17904,10482,14480,0,65728,65700,6,6,4,1460,4045,1,993,954,33580,0,65700,1448,0,0,0,0
o,0x00000000,1716944047.447293,10.0.2.15,22,10.0.2.2,62180,1073725440,14600,0,65535,65700,0,0,4,1460,1,0,4,24,33580,156,65700,0,0,0,0,0
i,0x00000000,1716944047.448062,10.0.2.15,22,10.0.2.2,62180,1073725440,14600,0,65535,65700,0,0,4,1460,1,0,4,24,33580,156,65700,0,156,0,0,0
i,0x00000000,1716944047.554215,172.16.3.2,5101,172.16.1.2,17904,10482,14480,0,65728,65700,6,6,4,1460,4045,1,992,954,33580,0,65700,0,0,0,0,0
i,0x00000000,1716944047.563152,172.16.3.2,5101,172.16.1.2,17904,10482,14480,0,65728,65700,6,6,4,1460,4045,1,992,954,33580,0,65700,0,0,0,0,0
o,0x00000000,1716944047.563165,172.16.3.2,5101,172.16.1.2,17904,10482,14480,0,65728,65700,6,6,4,1460,4045,1,993,954,33580,0,65700,1448,0,0,0,0
i,0x00000000,1716944047.573733,172.16.3.2,5101,172.16.1.2,17904,10482,14480,0,65728,65700,6,6,4,1460,4045,1,992,954,33580,0,65700,0,0,0,0,0
i,0x00000000,1716944047.583955,172.16.3.2,5101,172.16.1.2,17904,10482,14480,0,65728,65700,6,6,4,1460,4045,1,992,954,33580,0,65700,0,0,0,0,0
o,0x00000000,1716944047.583965,172.16.3.2,5101,172.16.1.2,17904,10482,14480,0,65728,65700,6,6,4,1460,4045,1,993,954,33580,0,65700,1448,0,0,0,0
i,0x00000000,1716944047.593390,172.16.3.2,5101,172.16.1.2,17904,10482,14480,0,65728,65700,6,6,4,1460,4045,1,992,954,33580,0,65700,0,0,0,0,0
i,0x00000000,1716944047.613268,172.16.3.2,5101,172.16.1.2,17904,10482,14480,0,65728,65700,6,6,4,1460,4045,1,992,954,33580,0,65700,0,0,0,0,0
o,0x00000000,1716944047.613275,172.16.3.2,5101,172.16.1.2,17904,10482,14480,0,65728,65700,6,6,4,1460,4045,1,993,954,33580,0,65700,1448,0,0,0,0
i,0x00000000,1716944047.623694,172.16.3.2,5101,172.16.1.2,17904,10482,14480,0,65728,65700,6,6,4,1460,4045,1,992,954,33580,0,65700,0,0,0,0,0
i,0x00000000,1716944047.633659,172.16.3.2,5101,172.16.1.2,17904,10482,14480,0,65728,65700,6,6,4,1460,4045,1,992,954,33580,0,65700,0,0,0,0,0
o,0x00000000,1716944047.633665,172.16.3.2,5101,172.16.1.2,17904,10482,14480,0,65728,65700,6,6,4,1460,4045,1,993,954,33580,0,65700,1448,0,0,0,0
i,0x00000000,1716944047.643427,172.16.3.2,5101,172.16.1.2,17904,10482,14480,0,65728,65700,6,6,4,1460,4045,1,992,954,33580,0,65700,0,0,0,0,0
i,0x00000000,1716944047.653704,172.16.3.2,5101,172.16.1.2,17904,10482,14480,0,65728,65700,6,6,4,1460,4045,1,992,954,33580,0,65700,0,0,0,0,0
o,0x00000000,1716944047.653709,172.16.3.2,5101,172.16.1.2,17904,10482,14480,0,65728,65700,6,6,4,1460,4045,1,993,954,33580,0,65700,1448,0,0,0,0
i,0x00000000,1716944047.673512,172.16.3.2,5101,172.16.1.2,17904,10482,14480,0,65728,65700,6,6,4,1460,4045,1,992,954,33580,0,65700,0,0,0,0,0
i,0x00000000,1716944047.683669,172.16.3.2,5101,172.16.1.2,17904,10482,14480,0,65728,65700,6,6,4,1460,4045,1,992,954,33580,0,65700,0,0,0,0,0
o,0x00000000,1716944047.683680,172.16.3.2,5101,172.16.1.2,17904,10482,14480,0,65728,65700,6,6,4,1460,4045,1,993,954,33580,0,65700,1448,0,0,0,0
i,0x00000000,1716944047.694198,172.16.3.2,5101,172.16.1.2,17904,10482,14480,0,65728,65700,6,6,4,1460,4045,1,992,954,33580,0,65700,0,0,0,0,0
i,0x00000000,1716944047.703338,172.16.3.2,5101,172.16.1.2,17904,10482,14480,0,65728,65700,6,6,4,1460,4045,1,992,954,33580,0,65700,0,0,0,0,0
o,0x00000000,1716944047.703343,172.16.3.2,5101,172.16.1.2,17904,10482,14480,0,65728,65700,6,6,4,1460,4045,1,993,954,33580,0,65700,1448,0,0,0,0
i,0x00000000,1716944047.713882,172.16.3.2,5101,172.16.1.2,17904,10482,14480,0,65728,65700,6,6,4,1460,4045,1,992,954,33580,0,65700,0,0,0,0,0
i,0x00000000,1716944047.733715,172.16.3.2,5101,172.16.1.2,17904,10482,14480,0,65728,65700,6,6,4,1460,4045,1,992,954,33580,0,65700,0,0,0,0,0
o,0x00000000,1716944047.733720,172.16.3.2,5101,172.16.1.2,17904,10482,14480,0,65728,65700,6,6,4,1460,4045,1,993,954,33580,0,65700,1448,0,0,0,0
i,0x00000000,1716944047.743991,172.16.3.2,5101,172.16.1.2,17904,10482,14480,0,65728,65700,6,6,4,1460,4045,1,992,954,33580,0,65700,0,0,0,0,0
i,0x00000000,1716944047.753560,172.16.3.2,5101,172.16.1.2,17904,10482,14480,0,65728,65700,6,6,4,1460,4045,1,992,954,33580,0,65700,0,0,0,0,0
o,0x00000000,1716944047.753565,172.16.3.2,5101,172.16.1.2,17904,10482,14480,0,65728,65700,6,6,4,1460,4045,1,993,954,33580,0,65700,1448,0,0,0,0
i,0x00000000,1716944047.763859,172.16.3.2,5101,172.16.1.2,17904,10482,14480,0,65728,65700,6,6,4,1460,4045,1,992,954,33580,0,65700,0,0,0,0,0
o,0x00000000,1716944047.797645,172.16.3.2,5101,172.16.1.2,17904,10482,14480,0,65728,65700,6,6,4,1460,4045,1,993,954,33580,0,65700,0,0,0,0,0
i,0x00000000,1716944048.053983,172.16.3.2,5101,172.16.1.2,17904,10482,14480,0,65728,65700,6,6,4,1460,4045,1,992,954,33580,0,65700,0,0,0,0,0
o,0x00000000,1716944048.054064,172.16.3.2,5101,172.16.1.2,17904,10482,14480,0,65728,65700,6,6,4,1460,4045,1,992,954,33580,0,98550,0,0,0,0,0
i,0x00000000,1716944048.063820,172.16.3.2,5101,172.16.1.2,17904,10482,14480,0,65728,65700,6,6,4,1460,4045,1,992,954,33580,0,98550,0,0,0,0,0
i,0x00000000,1716944048.073328,172.16.3.2,5101,172.16.1.2,17904,10482,14480,0,65728,65700,6,6,4,1460,4045,1,992,954,33580,0,98550,0,0,0,0,0
o,0x00000000,1716944048.073344,172.16.3.2,5101,172.16.1.2,17904,10482,14480,0,65728,65700,6,6,4,1460,4045,1,993,954,33580,0,98550,1448,0,0,0,0
i,0x00000000,1716944048.083687,172.16.3.2,5101,172.16.1.2,17904,10482,14480,0,65728,65700,6,6,4,1460,4045,1,992,954,33580,0,98550,0,0,0,0,0
i,0x00000000,1716944048.093186,172.16.3.2,5101,172.16.1.2,17904,10482,14480,0,65728,65700,6,6,4,1460,4045,1,992,954,33580,0,98550,0,0,0,0,0
o,0x00000000,1716944048.093191,172.16.3.2,5101,172.16.1.2,17904,10482,14480,0,65728,65700,6,6,4,1460,4045,1,993,954,33580,0,98550,1448,0,0,0,0
i,0x00000000,1716944048.113094,172.16.3.2,5101,172.16.1.2,17904,10482,14480,0,65728,65700,6,6,4,1460,4045,1,992,954,33580,0,98550,0,0,0,0,0
i,0x00000000,1716944048.123683,172.16.3.2,5101,172.16.1.2,17904,10482,14480,0,65728,65700,6,6,4,1460,4045,1,992,954,33580,0,98550,0,0,0,0,0
o,0x00000000,1716944048.123688,172.16.3.2,5101,172.16.1.2,17904,10482,14480,0,65728,65700,6,6,4,1460,4045,1,993,954,33580,0,98550,1448,0,0,0,0
i,0x00000000,1716944048.133405,172.16.3.2,5101,172.16.1.2,17904,10482,14480,0,65728,65700,6,6,4,1460,4045,1,992,954,33580,0,98550,0,0,0,0,0
i,0x00000000,1716944048.143462,172.16.3.2,5101,172.16.1.2,17904,10482,14480,0,65728,65700,6,6,4,1460,4045,1,992,954,33580,0,98550,0,0,0,0,0
o,0x00000000,1716944048.143467,172.16.3.2,5101,172.16.1.2,17904,10482,14480,0,65728,65700,6,6,4,1460,4045,1,993,954,33580,0,98550,1448,0,0,0,0
i,0x00000000,1716944048.153817,172.16.3.2,5101,172.16.1.2,17904,10482,14480,0,65728,65700,6,6,4,1460,4045,1,992,954,33580,0,98550,0,0,0,0,0
i,0x00000000,1716944048.174683,172.16.3.2,5101,172.16.1.2,17904,10482,14480,0,65728,65700,6,6,4,1460,4045,1,992,954,33580,0,98550,0,0,0,0,0
o,0x00000000,1716944048.174692,172.16.3.2,5101,172.16.1.2,17904,10482,14480,0,65728,65700,6,6,4,1460,4045,1,993,954,33580,0,98550,1448,0,0,0,0
i,0x00000000,1716944048.183414,172.16.3.2,5101,172.16.1.2,17904,10482,14480,0,65728,65700,6,6,4,1460,4045,1,992,954,33580,0,98550,0,0,0,0,0
i,0x00000000,1716944048.192799,172.16.3.2,5101,172.16.1.2,17904,10482,14480,0,65728,65700,6,6,4,1460,4045,1,992,954,33580,0,98550,0,0,0,0,0
o,0x00000000,1716944048.192808,172.16.3.2,5101,172.16.1.2,17904,10482,14480,0,65728,65700,6,6,4,1460,4045,1,993,954,33580,0,98550,1448,0,0,0,0
i,0x00000000,1716944048.203169,172.16.3.2,5101,172.16.1.2,17904,10482,14480,0,65728,65700,6,6,4,1460,4045,1,992,954,33580,0,98550,0,0,0,0,0
i,0x00000000,1716944048.212586,172.16.3.2,5101,172.16.1.2,17904,10482,14480,0,65728,65700,6,6,4,1460,4045,1,992,954,33580,0,98550,0,0,0,0,0
o,0x00000000,1716944048.212592,172.16.3.2,5101,172.16.1.2,17904,10482,14480,0,65728,65700,6,6,4,1460,4045,1,993,954,33580,0,98550,1448,0,0,0,0
i,0x00000000,1716944048.233505,172.16.3.2,5101,172.16.1.2,17904,10482,14480,0,65728,65700,6,6,4,1460,4045,1,992,954,33580,0,98550,0,0,0,0,0
i,0x00000000,1716944048.243812,172.16.3.2,5101,172.16.1.2,17904,10482,14480,0,65728,65700,6,6,4,1460,4045,1,992,954,33580,0,98550,0,0,0,0,0
o,0x00000000,1716944048.243820,172.16.3.2,5101,172.16.1.2,17904,10482,14480,0,65728,65700,6,6,4,1460,4045,1,993,954,33580,0,98550,1448,0,0,0,0
i,0x00000000,1716944048.253253,172.16.3.2,5101,172.16.1.2,17904,10482,14480,0,65728,65700,6,6,4,1460,4045,1,992,954,33580,0,98550,0,0,0,0,0
i,0x00000000,1716944048.262712,172.16.3.2,5101,172.16.1.2,17904,10482,14480,0,65728,65700,6,6,4,1460,4045,1,992,954,33580,0,98550,0,0,0,0,0
o,0x00000000,1716944048.262718,172.16.3.2,5101,172.16.1.2,17904,10482,14480,0,65728,65700,6,6,4,1460,4045,1,993,954,33580,0,98550,1448,0,0,0,0
i,0x00000000,1716944048.312932,172.16.3.2,5101,172.16.1.2,17904,10482,14480,0,65728,65700,6,6,4,1460,4045,1,992,954,33580,0,98550,0,0,0,0,0
o,0x00000000,1716944048.347592,172.16.3.2,5101,172.16.1.2,17904,10482,14480,0,65728,65700,6,6,4,1460,4045,1,993,954,33580,0,98550,0,0,0,0,0
o,0x00000000,1716944048.448042,10.0.2.15,22,10.0.2.2,62180,1073725440,14600,0,65535,65700,0,0,4,1460,1,0,4,24,33580,108,65700,0,0,0,0,0
i,0x00000000,1716944048.448693,10.0.2.15,22,10.0.2.2,62180,1073725440,14600,0,65535,65700,0,0,4,1460,1,0,4,24,33580,108,65700,0,108,0,0,0
i,0x00000000,1716944048.562997,172.16.3.2,5101,172.16.1.2,17904,10482,14480,0,65728,65700,6,6,4,1460,4045,1,992,954,33580,0,98550,0,0,0,0,0
i,0x00000000,1716944048.572389,172.16.3.2,5101,172.16.1.2,17904,10482,14480,0,65728,65700,6,6,4,1460,4045,1,992,954,33580,0,98550,0,0,0,0,0
o,0x00000000,1716944048.572403,172.16.3.2,5101,172.16.1.2,17904,10482,14480,0,65728,65700,6,6,4,1460,4045,1,993,954,33580,0,98550,1448,0,0,0,0
i,0x00000000,1716944048.582732,172.16.3.2,5101,172.16.1.2,17904,10482,14480,0,65728,65700,6,6,4,1460,4045,1,992,954,33580,0,98550,0,0,0,0,0
i,0x00000000,1716944048.602695,172.16.3.2,5101,172.16.1.2,17904,10482,14480,0,65728,65700,6,6,4,1460,4045,1,992,954,33580,0,98550,0,0,0,0,0
o,0x00000000,1716944048.602704,172.16.3.2,5101,172.16.1.2,17904,10482,14480,0,65728,65700,6,6,4,1460,4045,1,993,954,33580,0,98550,1448,0,0,0,0
i,0x00000000,1716944048.613970,172.16.3.2,5101,172.16.1.2,17904,10482,14480,0,65728,65700,6,6,4,1460,4045,1,992,954,33580,0,98550,0,0,0,0,0
i,0x00000000,1716944048.622888,172.16.3.2,5101,172.16.1.2,17904,10482,14480,0,65728,65700,6,6,4,1460,4045,1,992,954,33580,0,98550,0,0,0,0,0
o,0x00000000,1716944048.622896,172.16.3.2,5101,172.16.1.2,17904,10482,14480,0,65728,65700,6,6,4,1460,4045,1,993,954,33580,0,98550,1448,0,0,0,0
i,0x00000000,1716944048.632997,172.16.3.2,5101,172.16.1.2,17904,10482,14480,0,65728,65700,6,6,4,1460,4045,1,992,954,33580,0,98550,0,0,0,0,0
i,0x00000000,1716944048.653770,172.16.3.2,5101,172.16.1.2,17904,10482,14480,0,65728,65700,6,6,4,1460,4045,1,992,954,33580,0,98550,0,0,0,0,0
o,0x00000000,1716944048.653777,172.16.3.2,5101,172.16.1.2,17904,10482,14480,0,65728,65700,6,6,4,1460,4045,1,993,954,33580,0,98550,1448,0,0,0,0
i,0x00000000,1716944048.663038,172.16.3.2,5101,172.16.1.2,17904,10482,14480,0,65728,65700,6,6,4,1460,4045,1,992,954,33580,0,98550,0,0,0,0,0
i,0x00000000,1716944048.673063,172.16.3.2,5101,172.16.1.2,17904,10482,14480,0,65728,65700,6,6,4,1460,4045,1,992,954,33580,0,98550,0,0,0,0,0
o,0x00000000,1716944048.673070,172.16.3.2,5101,172.16.1.2,17904,10482,14480,0,65728,65700,6,6,4,1460,4045,1,993,954,33580,0,98550,1448,0,0,0,0
i,0x00000000,1716944048.682348,172.16.3.2,5101,172.16.1.2,17904,10482,14480,0,65728,65700,6,6,4,1460,4045,1,992,954,33580,0,98550,0,0,0,0,0
i,0x00000000,1716944048.692841,172.16.3.2,5101,172.16.1.2,17904,10482,14480,0,65728,65700,6,6,4,1460,4045,1,992,954,33580,0,98550,0,0,0,0,0
o,0x00000000,1716944048.692848,172.16.3.2,5101,172.16.1.2,17904,10482,14480,0,65728,65700,6,6,4,1460,4045,1,993,954,33580,0,147825,1448,0,0,0,0
i,0x00000000,1716944048.712602,172.16.3.2,5101,172.16.1.2,17904,10482,14480,0,65728,65700,6,6,4,1460,4045,1,992,954,33580,0,147825,0,0,0,0,0
i,0x00000000,1716944048.723075,172.16.3.2,5101,172.16.1.2,17904,10482,14480,0,65728,65700,6,6,4,1460,4045,1,992,954,33580,0,147825,0,0,0,0,0
o,0x00000000,1716944048.723080,172.16.3.2,5101,172.16.1.2,17904,10482,14480,0,65728,65700,6,6,4,1460,4045,1,993,954,33580,0,147825,1448,0,0,0,0
i,0x00000000,1716944048.732499,172.16.3.2,5101,172.16.1.2,17904,10482,14480,0,65728,65700,6,6,4,1460,4045,1,992,954,33580,0,147825,0,0,0,0,0
i,0x00000000,1716944048.742801,172.16.3.2,5101,172.16.1.2,17904,10482,14480,0,65728,65700,6,6,4,1460,4045,1,992,954,33580,0,147825,0,0,0,0,0
o,0x00000000,1716944048.742805,172.16.3.2,5101,172.16.1.2,17904,10482,14480,0,65728,65700,6,6,4,1460,4045,1,993,954,33580,0,147825,1448,0,0,0,0
i,0x00000000,1716944048.752240,172.16.3.2,5101,172.16.1.2,17904,10482,14480,0,65728,65700,6,6,4,1460,4045,1,992,954,33580,0,147825,0,0,0,0,0
i,0x00000000,1716944048.773148,172.16.3.2,5101,172.16.1.2,17904,10482,14480,0,65728,65700,6,6,4,1460,4045,1,992,954,33580,0,147825,0,0,0,0,0
o,0x00000000,1716944048.773155,172.16.3.2,5101,172.16.1.2,17904,10482,14480,0,65728,65700,6,6,4,1460,4045,1,993,954,33580,0,147825,1448,0,0,0,0
i,0x00000000,1716944048.782514,172.16.3.2,5101,172.16.1.2,17904,10482,14480,0,65728,65700,6,6,4,1460,4045,1,992,954,33580,0,147825,0,0,0,0,0
i,0x00000000,1716944048.792004,172.16.3.2,5101,172.16.1.2,17904,10482,14480,0,65728,65700,6,6,4,1460,4045,1,992,954,33580,0,147825,0,0,0,0,0
o,0x00000000,1716944048.792009,172.16.3.2,5101,172.16.1.2,17904,10482,14480,0,65728,65700,6,6,4,1460,4045,1,993,954,33580,0,147825,1448,0,0,0,0
i,0x00000000,1716944049.073240,172.16.3.2,5101,172.16.1.2,17904,10482,14480,0,65728,65700,6,6,4,1460,4045,1,992,954,33580,0,147825,0,0,0,0,0
o,0x00000000,1716944049.108034,172.16.3.2,5101,172.16.1.2,17904,10482,14480,0,65728,65700,6,6,4,1460,4045,1,993,954,33580,0,147825,0,0,0,0,0
i,0x00000000,1716944049.122437,172.16.3.2,5101,172.16.1.2,17904,10482,14480,0,65728,65700,6,6,4,1460,4045,1,992,954,33580,0,147825,0,0,0,0,0
i,0x00000000,1716944049.132839,172.16.3.2,5101,172.16.1.2,17904,10482,14480,0,65728,65700,6,6,4,1460,4045,1,992,954,33580,0,147825,0,0,0,0,0
o,0x00000000,1716944049.132848,172.16.3.2,5101,172.16.1.2,17904,10482,14480,0,65728,65700,6,6,4,1460,4045,1,993,954,33580,0,147825,1448,0,0,0,0
i,0x00000000,1716944049.153649,172.16.3.2,5101,172.16.1.2,17904,10482,14480,0,65728,65700,6,6,4,1460,4045,1,992,954,33580,0,147825,0,0,0,0,0
i,0x00000000,1716944049.161889,172.16.3.2,5101,172.16.1.2,17904,10482,14480,0,65728,65700,6,6,4,1460,4045,1,992,954,33580,0,147825,0,0,0,0,0
o,0x00000000,1716944049.161897,172.16.3.2,5101,172.16.1.2,17904,10482,14480,0,65728,65700,6,6,4,1460,4045,1,993,954,33580,0,147825,1448,0,0,0,0
i,0x00000000,1716944049.171935,172.16.3.2,5101,172.16.1.2,17904,10482,14480,0,65728,65700,6,6,4,1460,4045,1,992,954,33580,0,147825,0,0,0,0,0
i,0x00000000,1716944049.182236,172.16.3.2,5101,172.16.1.2,17904,10482,14480,0,65728,65700,6,6,4,1460,4045,1,992,954,33580,0,147825,0,0,0,0,0
o,0x00000000,1716944049.182246,172.16.3.2,5101,172.16.1.2,17904,10482,14480,0,65728,65700,6,6,4,1460,4045,1,993,954,33580,0,147825,1448,0,0,0,0
i,0x00000000,1716944049.192678,172.16.3.2,5101,172.16.1.2,17904,10482,14480,0,65728,65700,6,6,4,1460,4045,1,992,954,33580,0,147825,0,0,0,0,0
i,0x00000000,1716944049.212553,172.16.3.2,5101,172.16.1.2,17904,10482,14480,0,65728,65700,6,6,4,1460,4045,1,992,954,33580,0,147825,0,0,0,0,0
o,0x00000000,1716944049.212570,172.16.3.2,5101,172.16.1.2,17904,10482,14480,0,65728,65700,6,6,4,1460,4045,1,993,954,33580,0,147825,1448,0,0,0,0
i,0x00000000,1716944049.222938,172.16.3.2,5101,172.16.1.2,17904,10482,14480,0,65728,65700,6,6,4,1460,4045,1,992,954,33580,0,147825,0,0,0,0,0
i,0x00000000,1716944049.232414,172.16.3.2,5101,172.16.1.2,17904,10482,14480,0,65728,65700,6,6,4,1460,4045,1,992,954,33580,0,147825,0,0,0,0,0
o,0x00000000,1716944049.232421,172.16.3.2,5101,172.16.1.2,17904,10482,14480,0,65728,65700,6,6,4,1460,4045,1,993,954,33580,0,147825,1448,0,0,0,0
i,0x00000000,1716944049.241824,172.16.3.2,5101,172.16.1.2,17904,10482,14480,0,65728,65700,6,6,4,1460,4045,1,992,954,33580,0,147825,0,0,0,0,0
i,0x00000000,1716944049.252264,172.16.3.2,5101,172.16.1.2,17904,10482,14480,0,65728,65700,6,6,4,1460,4045,1,992,954,33580,0,147825,0,0,0,0,0
o,0x00000000,1716944049.252270,172.16.3.2,5101,172.16.1.2,17904,10482,14480,0,65728,65700,6,6,4,1460,4045,1,993,954,33580,0,147825,1448,0,0,0,0
i,0x00000000,1716944049.273115,172.16.3.2,5101,172.16.1.2,17904,10482,14480,0,65728,65700,6,6,4,1460,4045,1,992,954,33580,0,147825,0,0,0,0,0
i,0x00000000,1716944049.282596,172.16.3.2,5101,172.16.1.2,17904,10482,14480,0,65728,65700,6,6,4,1460,4045,1,992,954,33580,0,147825,0,0,0,0,0
o,0x00000000,1716944049.282604,172.16.3.2,5101,172.16.1.2,17904,10482,14480,0,65728,65700,6,6,4,1460,4045,1,993,954,33580,0,147825,1448,0,0,0,0
i,0x00000000,1716944049.291965,172.16.3.2,5101,172.16.1.2,17904,10482,14480,0,65728,65700,6,6,4,1460,4045,1,992,954,33580,0,147825,0,0,0,0,0
i,0x00000000,1716944049.302363,172.16.3.2,5101,172.16.1.2,17904,10482,14480,0,65728,65700,6,6,4,1460,4045,1,992,954,33580,0,147825,0,0,0,0,0
o,0x00000000,1716944049.302367,172.16.3.2,5101,172.16.1.2,17904,10482,14480,0,65728,65700,6,6,4,1460,4045,1,993,954,33580,0,147825,1448,0,0,0,0
i,0x00000000,1716944049.312763,172.16.3.2,5101,172.16.1.2,17904,10482,14480,0,65728,65700,6,6,4,1460,4045,1,992,954,33580,0,147825,0,0,0,0,0
i,0x00000000,1716944049.332550,172.16.3.2,5101,172.16.1.2,17904,10482,14480,0,65728,65700,6,6,4,1460,4045,1,992,954,33580,0,147825,0,0,0,0,0
o,0x00000000,1716944049.332556,172.16.3.2,5101,172.16.1.2,17904,10482,14480,0,65728,65700,6,6,4,1460,4045,1,993,954,33580,0,147825,1448,0,0,0,0
i,0x00000000,1716944049.342054,172.16.3.2,5101,172.16.1.2,17904,10482,14480,0,65728,65700,6,6,4,1460,4045,1,992,954,33580,0,147825,0,0,0,0,0
i,0x00000000,1716944049.352402,172.16.3.2,5101,172.16.1.2,17904,10482,14480,0,65728,65700,6,6,4,1460,4045,1,992,954,33580,0,147825,0,0,0,0,0
o,0x00000000,1716944049.352408,172.16.3.2,5101,172.16.1.2,17904,10482,14480,0,65728,65700,6,6,4,1460,4045,1,993,954,33580,0,147825,1448,0,0,0,0
i,0x00000000,1716944049.362363,172.16.3.2,5101,172.16.1.2,17904,10482,14480,0,65728,65700,6,6,4,1460,4045,1,992,954,33580,0,147825,0,0,0,0,0
o,0x00000000,1716944049.397616,172.16.3.2,5101,172.16.1.2,17904,10482,14480,0,65728,65700,6,6,4,1460,4045,1,993,954,33580,0,147825,0,0,0,0,0
o,0x00000000,1716944049.447774,10.0.2.15,22,10.0.2.2,62180,1073725440,14600,0,65535,65700,0,0,4,1460,1,0,4,24,33580,108,65700,0,0,0,0,0
i,0x00000000,1716944049.448696,10.0.2.15,22,10.0.2.2,62180,1073725440,14600,0,65535,65700,0,0,4,1460,1,0,4,24,33580,108,65700,0,108,0,0,0
i,0x00000000,1716944049.671588,172.16.3.2,5101,172.16.1.2,17904,10482,14480,0,65728,65700,6,6,4,1460,4045,1,992,954,33580,0,147825,0,0,0,0,0
i,0x00000000,1716944049.681863,172.16.3.2,5101,172.16.1.2,17904,10482,14480,0,65728,65700,6,6,4,1460,4045,1,992,954,33580,0,147825,0,0,0,0,0
o,0x00000000,1716944049.681881,172.16.3.2,5101,172.16.1.2,17904,10482,14480,0,65728,65700,6,6,4,1460,4045,1,993,954,33580,0,147825,1448,0,0,0,0
i,0x00000000,1716944049.692240,172.16.3.2,5101,172.16.1.2,17904,10482,14480,0,65728,65700,6,6,4,1460,4045,1,992,954,33580,0,147825,0,0,0,0,0
i,0x00000000,1716944049.702685,172.16.3.2,5101,172.16.1.2,17904,10482,14480,0,65728,65700,6,6,4,1460,4045,1,992,954,33580,0,147825,0,0,0,0,0
o,0x00000000,1716944049.702695,172.16.3.2,5101,172.16.1.2,17904,10482,14480,0,65728,65700,6,6,4,1460,4045,1,993,954,33580,0,147825,1448,0,0,0,0
i,0x00000000,1716944049.722617,172.16.3.2,5101,172.16.1.2,17904,10482,14480,0,65728,65700,6,6,4,1460,4045,1,992,954,33580,0,147825,0,0,0,0,0
i,0x00000000,1716944049.732004,172.16.3.2,5101,172.16.1.2,17904,10482,14480,0,65728,65700,6,6,4,1460,4045,1,992,954,33580,0,147825,0,0,0,0,0
o,0x00000000,1716944049.732010,172.16.3.2,5101,172.16.1.2,17904,10482,14480,0,65728,65700,6,6,4,1460,4045,1,993,954,33580,0,147825,1448,0,0,0,0
i,0x00000000,1716944049.742478,172.16.3.2,5101,172.16.1.2,17904,10482,14480,0,65728,65700,6,6,4,1460,4045,1,992,954,33580,0,147825,0,0,0,0,0
i,0x00000000,1716944049.751938,172.16.3.2,5101,172.16.1.2,17904,10482,14480,0,65728,65700,6,6,4,1460,4045,1,992,954,33580,0,147825,0,0,0,0,0
o,0x00000000,1716944049.751943,172.16.3.2,5101,172.16.1.2,17904,10482,14480,0,65728,65700,6,6,4,1460,4045,1,993,954,33580,0,147825,1448,0,0,0,0
i,0x00000000,1716944049.762457,172.16.3.2,5101,172.16.1.2,17904,10482,14480,0,65728,65700,6,6,4,1460,4045,1,992,954,33580,0,147825,0,0,0,0,0
i,0x00000000,1716944049.782178,172.16.3.2,5101,172.16.1.2,17904,10482,14480,0,65728,65700,6,6,4,1460,4045,1,992,954,33580,0,147825,0,0,0,0,0
o,0x00000000,1716944049.782186,172.16.3.2,5101,172.16.1.2,17904,10482,14480,0,65728,65700,6,6,4,1460,4045,1,993,954,33580,0,147825,1448,0,0,0,0
i,0x00000000,1716944049.791791,172.16.3.2,5101,172.16.1.2,17904,10482,14480,0,65728,65700,6,6,4,1460,4045,1,992,954,33580,0,147825,0,0,0,0,0
i,0x00000000,1716944049.802198,172.16.3.2,5101,172.16.1.2,17904,10482,14480,0,65728,65700,6,6,4,1460,4045,1,992,954,33580,0,147825,0,0,0,0,0
o,0x00000000,1716944049.802203,172.16.3.2,5101,172.16.1.2,17904,10482,14480,0,65728,65700,6,6,4,1460,4045,1,993,954,33580,0,147825,1448,0,0,0,0
i,0x00000000,1716944049.812619,172.16.3.2,5101,172.16.1.2,17904,10482,14480,0,65728,65700,6,6,4,1460,4045,1,992,954,33580,0,147825,0,0,0,0,0
i,0x00000000,1716944049.823061,172.16.3.2,5101,172.16.1.2,17904,10482,14480,0,65728,65700,6,6,4,1460,4045,1,992,954,33580,0,147825,0,0,0,0,0
o,0x00000000,1716944049.823065,172.16.3.2,5101,172.16.1.2,17904,10482,14480,0,65728,65700,6,6,4,1460,4045,1,993,954,33580,0,147825,1448,0,0,0,0
i,0x00000000,1716944049.841900,172.16.3.2,5101,172.16.1.2,17904,10482,14480,0,65728,65700,6,6,4,1460,4045,1,992,954,33580,0,147825,0,0,0,0,0
i,0x00000000,1716944049.851929,172.16.3.2,5101,172.16.1.2,17904,10482,14480,0,65728,65700,6,6,4,1460,4045,1,992,954,33580,0,147825,0,0,0,0,0
o,0x00000000,1716944049.851933,172.16.3.2,5101,172.16.1.2,17904,10482,14480,0,65728,65700,6,6,4,1460,4045,1,993,954,33580,0,147825,1448,0,0,0,0
i,0x00000000,1716944049.861897,172.16.3.2,5101,172.16.1.2,17904,10482,14480,0,65728,65700,6,6,4,1460,4045,1,992,954,33580,0,147825,0,0,0,0,0
i,0x00000000,1716944049.872445,172.16.3.2,5101,172.16.1.2,17904,10482,14480,0,65728,65700,6,6,4,1460,4045,1,992,954,33580,0,147825,0,0,0,0,0
o,0x00000000,1716944049.872450,172.16.3.2,5101,172.16.1.2,17904,10482,14480,0,65728,65700,6,6,4,1460,4045,1,993,954,33580,0,147825,1448,0,0,0,0
i,0x00000000,1716944049.882815,172.16.3.2,5101,172.16.1.2,17904,10482,14480,0,65728,65700,6,6,4,1460,4045,1,992,954,33580,0,147825,0,0,0,0,0
i,0x00000000,1716944049.901941,172.16.3.2,5101,172.16.1.2,17904,10482,14480,0,65728,65700,6,6,4,1460,4045,1,992,954,33580,0,147825,0,0,0,0,0
o,0x00000000,1716944049.901949,172.16.3.2,5101,172.16.1.2,17904,10482,14480,0,65728,65700,6,6,4,1460,4045,1,993,954,33580,0,147825,1448,0,0,0,0
i,0x00000000,1716944049.911255,172.16.3.2,5101,172.16.1.2,17904,10482,14480,0,65728,65700,6,6,4,1460,4045,1,992,954,33580,0,147825,0,0,0,0,0
o,0x00000000,1716944049.947659,172.16.3.2,5101,172.16.1.2,17904,10482,14480,0,65728,65700,6,6,4,1460,4045,1,993,954,33580,0,147825,0,0,0,0,0
i,0x00000000,1716944050.181263,172.16.3.2,5101,172.16.1.2,17904,10482,14480,0,65728,65700,6,6,4,1460,4045,1,992,954,33580,0,147825,0,0,0,0,0
i,0x00000000,1716944050.191679,172.16.3.2,5101,172.16.1.2,17904,10482,14480,0,65728,65700,6,6,4,1460,4045,1,992,954,33580,0,147825,0,0,0,0,0
o,0x00000000,1716944050.191697,172.16.3.2,5101,172.16.1.2,17904,10482,14480,0,65728,65700,6,6,4,1460,4045,1,993,954,33580,0,147825,1448,0,0,0,0
i,0x00000000,1716944050.232315,172.16.3.2,5101,172.16.1.2,17904,10482,14480,0,65728,65700,6,6,4,1460,4045,1,992,954,33580,0,147825,0,0,0,0,0
i,0x00000000,1716944050.241503,172.16.3.2,5101,172.16.1.2,17904,10482,14480,0,65728,65700,6,6,4,1460,4045,1,992,954,33580,0,147825,0,0,0,0,0
o,0x00000000,1716944050.241518,172.16.3.2,5101,172.16.1.2,17904,10482,14480,0,65728,65700,6,6,4,1460,4045,1,993,954,33580,0,147825,1448,0,0,0,0
i,0x00000000,1716944050.252021,172.16.3.2,5101,172.16.1.2,17904,10482,14480,0,65728,65700,6,6,4,1460,4045,1,992,954,33580,0,147825,0,0,0,0,0
i,0x00000000,1716944050.271984,172.16.3.2,5101,172.16.1.2,17904,10482,14480,0,65728,65700,6,6,4,1460,4045,1,992,954,33580,0,147825,0,0,0,0,0
o,0x00000000,1716944050.271993,172.16.3.2,5101,172.16.1.2,17904,10482,14480,0,65728,65700,6,6,4,1460,4045,1,993,954,33580,0,147825,1448,0,0,0,0
i,0x00000000,1716944050.282376,172.16.3.2,5101,172.16.1.2,17904,10482,14480,0,65728,65700,6,6,4,1460,4045,1,992,954,33580,0,147825,0,0,0,0,0
i,0x00000000,1716944050.291803,172.16.3.2,5101,172.16.1.2,17904,10482,14480,0,65728,65700,6,6,4,1460,4045,1,992,954,33580,0,147825,0,0,0,0,0
o,0x00000000,1716944050.291810,172.16.3.2,5101,172.16.1.2,17904,10482,14480,0,65728,65700,6,6,4,1460,4045,1,993,954,33580,0,147825,1448,0,0,0,0
i,0x00000000,1716944050.302172,172.16.3.2,5101,172.16.1.2,17904,10482,14480,0,65728,65700,6,6,4,1460,4045,1,992,954,33580,0,147825,0,0,0,0,0
i,0x00000000,1716944050.311556,172.16.3.2,5101,172.16.1.2,17904,10482,14480,0,65728,65700,6,6,4,1460,4045,1,992,954,33580,0,147825,0,0,0,0,0
o,0x00000000,1716944050.311562,172.16.3.2,5101,172.16.1.2,17904,10482,14480,0,65728,65700,6,6,4,1460,4045,1,993,954,33580,0,147825,1448,0,0,0,0
i,0x00000000,1716944050.331650,172.16.3.2,5101,172.16.1.2,17904,10482,14480,0,65728,65700,6,6,4,1460,4045,1,992,954,33580,0,147825,0,0,0,0,0
i,0x00000000,1716944050.341892,172.16.3.2,5101,172.16.1.2,17904,10482,14480,0,65728,65700,6,6,4,1460,4045,1,992,954,33580,0,147825,0,0,0,0,0
o,0x00000000,1716944050.341898,172.16.3.2,5101,172.16.1.2,17904,10482,14480,0,65728,65700,6,6,4,1460,4045,1,993,954,33580,0,147825,1448,0,0,0,0
i,0x00000000,1716944050.351902,172.16.3.2,5101,172.16.1.2,17904,10482,14480,0,65728,65700,6,6,4,1460,4045,1,992,954,33580,0,147825,0,0,0,0,0
i,0x00000000,1716944050.361851,172.16.3.2,5101,172.16.1.2,17904,10482,14480,0,65728,65700,6,6,4,1460,4045,1,992,954,33580,0,147825,0,0,0,0,0
o,0x00000000,1716944050.361856,172.16.3.2,5101,172.16.1.2,17904,10482,14480,0,65728,65700,6,6,4,1460,4045,1,993,954,33580,0,147825,1448,0,0,0,0
i,0x00000000,1716944050.372377,172.16.3.2,5101,172.16.1.2,17904,10482,14480,0,65728,65700,6,6,4,1460,4045,1,992,954,33580,0,147825,0,0,0,0,0
i,0x00000000,1716944050.391535,172.16.3.2,5101,172.16.1.2,17904,10482,14480,0,65728,65700,6,6,4,1460,4045,1,992,954,33580,0,147825,0,0,0,0,0
o,0x00000000,1716944050.391542,172.16.3.2,5101,172.16.1.2,17904,10482,14480,0,65728,65700,6,6,4,1460,4045,1,993,954,33580,0,147825,1448,0,0,0,0
i,0x00000000,1716944050.401915,172.16.3.2,5101,172.16.1.2,17904,10482,14480,0,65728,65700,6,6,4,1460,4045,1,992,954,33580,0,147825,0,0,0,0,0
i,0x00000000,1716944050.411300,172.16.3.2,5101,172.16.1.2,17904,10482,14480,0,65728,65700,6,6,4,1460,4045,1,992,954,33580,0,147825,0,0,0,0,0
o,0x00000000,1716944050.411306,172.16.3.2,5101,172.16.1.2,17904,10482,14480,0,65728,65700,6,6,4,1460,4045,1,993,954,33580,0,147825,1448,0,0,0,0
i,0x00000000,1716944050.421691,172.16.3.2,5101,172.16.1.2,17904,10482,14480,0,65728,65700,6,6,4,1460,4045,1,992,954,33580,0,147825,0,0,0,0,0
i,0x00000000,1716944050.432277,172.16.3.2,5101,172.16.1.2,17904,10482,14480,0,65728,65700,6,6,4,1460,4045,1,992,954,33580,0,147825,0,0,0,0,0
o,0x00000000,1716944050.432284,172.16.3.2,5101,172.16.1.2,17904,10482,14480,0,65728,65700,6,6,4,1460,4045,1,993,954,33580,0,147825,1448,0,0,0,0
i,0x00000000,1716944050.452135,172.16.3.2,5101,172.16.1.2,17904,10482,14480,0,65728,65700,6,6,4,1460,4045,1,992,954,33580,0,147825,0,0,0,0,0
o,0x00000000,1716944050.458687,10.0.2.15,22,10.0.2.2,62180,1073725440,14600,0,65535,65700,0,0,4,1460,1,0,4,24,33580,108,65700,0,0,0,0,0
i,0x00000000,1716944050.459397,10.0.2.15,22,10.0.2.2,62180,1073725440,14600,0,65535,65700,0,0,4,1460,1,0,4,24,33580,108,65700,0,108,0,0,0
i,0x00000000,1716944050.460934,172.16.3.2,5101,172.16.1.2,17904,10482,14480,0,65728,65700,6,6,4,1460,4045,1,992,954,33580,0,147825,0,0,0,0,0
o,0x00000000,1716944050.460940,172.16.3.2,5101,172.16.1.2,17904,10482,14480,0,65728,65700,6,6,4,1460,4045,1,993,954,33580,0,147825,1448,0,0,0,0
i,0x00000000,1716944050.540934,172.16.3.2,5101,172.16.1.2,17904,10482,14480,0,65728,65700,6,6,4,1460,4045,1,992,954,33580,0,147825,0,0,0,0,0
o,0x00000000,1716944050.577586,172.16.3.2,5101,172.16.1.2,17904,10482,14480,0,65728,65700,6,6,4,1460,4045,1,993,954,33580,0,147825,0,0,0,0,0
i,0x00000000,1716944050.770867,172.16.3.2,5101,172.16.1.2,17904,10482,14480,0,65728,65700,6,6,4,1460,4045,1,992,954,33580,0,147825,0,0,0,0,0
i,0x00000000,1716944050.781192,172.16.3.2,5101,172.16.1.2,17904,10482,14480,0,65728,65700,6,6,4,1460,4045,1,992,954,33580,0,147825,0,0,0,0,0
o,0x00000000,1716944050.781202,172.16.3.2,5101,172.16.1.2,17904,10482,14480,0,65728,65700,6,6,4,1460,4045,1,993,954,33580,0,147825,1448,0,0,0,0
i,0x00000000,1716944050.790585,172.16.3.2,5101,172.16.1.2,17904,10482,14480,0,65728,65700,6,6,4,1460,4045,1,992,954,33580,0,147825,0,0,0,0,0
o,0x00000000,1716944050.827273,172.16.3.2,5101,172.16.1.2,17904,10482,14480,0,65728,65700,6,6,4,1460,4045,1,993,954,33580,0,147825,0,0,0,0,0
i,0x00000000,1716944050.831233,172.16.3.2,5101,172.16.1.2,17904,10482,14480,0,65728,65700,6,6,4,1460,4045,1,992,954,33580,0,147825,0,0,0,0,0
i,0x00000000,1716944050.841113,172.16.3.2,5101,172.16.1.2,17904,10482,14480,0,65728,65700,6,6,4,1460,4045,1,992,954,33580,0,147825,0,0,0,0,0
o,0x00000000,1716944050.841119,172.16.3.2,5101,172.16.1.2,17904,10482,14480,0,65728,65700,6,6,4,1460,4045,1,993,954,33580,0,147825,1448,0,0,0,0
i,0x00000000,1716944050.851236,172.16.3.2,5101,172.16.1.2,17904,10482,14480,0,65728,65700,6,6,4,1460,4045,1,992,954,33580,0,147825,0,0,0,0,0
i,0x00000000,1716944050.861665,172.16.3.2,5101,172.16.1.2,17904,10482,14480,0,65728,65700,6,6,4,1460,4045,1,992,954,33580,0,147825,0,0,0,0,0
o,0x00000000,1716944050.861672,172.16.3.2,5101,172.16.1.2,17904,10482,14480,0,65728,65700,6,6,4,1460,4045,1,993,954,33580,0,147825,1448,0,0,0,0
i,0x00000000,1716944050.872159,172.16.3.2,5101,172.16.1.2,17904,10482,14480,0,65728,65700,6,6,4,1460,4045,1,992,954,33580,0,147825,0,0,0,0,0
i,0x00000000,1716944050.891135,172.16.3.2,5101,172.16.1.2,17904,10482,14480,0,65728,65700,6,6,4,1460,4045,1,992,954,33580,0,147825,0,0,0,0,0
o,0x00000000,1716944050.891143,172.16.3.2,5101,172.16.1.2,17904,10482,14480,0,65728,65700,6,6,4,1460,4045,1,993,954,33580,0,147825,1448,0,0,0,0
i,0x00000000,1716944050.901500,172.16.3.2,5101,172.16.1.2,17904,10482,14480,0,65728,65700,6,6,4,1460,4045,1,992,954,33580,0,147825,0,0,0,0,0
i,0x00000000,1716944050.910942,172.16.3.2,5101,172.16.1.2,17904,10482,14480,0,65728,65700,6,6,4,1460,4045,1,992,954,33580,0,147825,0,0,0,0,0
o,0x00000000,1716944050.910947,172.16.3.2,5101,172.16.1.2,17904,10482,14480,0,65728,65700,6,6,4,1460,4045,1,993,954,33580,0,147825,1448,0,0,0,0
i,0x00000000,1716944050.921313,172.16.3.2,5101,172.16.1.2,17904,10482,14480,0,65728,65700,6,6,4,1460,4045,1,992,954,33580,0,147825,0,0,0,0,0
i,0x00000000,1716944050.931704,172.16.3.2,5101,172.16.1.2,17904,10482,14480,0,65728,65700,6,6,4,1460,4045,1,992,954,33580,0,147825,0,0,0,0,0
o,0x00000000,1716944050.931709,172.16.3.2,5101,172.16.1.2,17904,10482,14480,0,65728,65700,6,6,4,1460,4045,1,993,954,33580,0,147825,1448,0,0,0,0
i,0x00000000,1716944050.951580,172.16.3.2,5101,172.16.1.2,17904,10482,14480,0,65728,65700,6,6,4,1460,4045,1,992,954,33580,0,147825,0,0,0,0,0
i,0x00000000,1716944050.962537,172.16.3.2,5101,172.16.1.2,17904,10482,14480,0,65728,65700,6,6,4,1460,4045,1,992,954,33580,0,147825,0,0,0,0,0
o,0x00000000,1716944050.962543,172.16.3.2,5101,172.16.1.2,17904,10482,14480,0,65728,65700,6,6,4,1460,4045,1,993,954,33580,0,147825,1448,0,0,0,0
i,0x00000000,1716944050.970463,172.16.3.2,5101,172.16.1.2,17904,10482,14480,0,65728,65700,6,6,4,1460,4045,1,992,954,33580,0,147825,0,0,0,0,0
i,0x00000000,1716944050.980869,172.16.3.2,5101,172.16.1.2,17904,10482,14480,0,65728,65700,6,6,4,1460,4045,1,992,954,33580,0,147825,0,0,0,0,0
o,0x00000000,1716944050.980874,172.16.3.2,5101,172.16.1.2,17904,10482,14480,0,65728,65700,6,6,4,1460,4045,1,993,954,33580,0,147825,1448,0,0,0,0
i,0x00000000,1716944050.991297,172.16.3.2,5101,172.16.1.2,17904,10482,14480,0,65728,65700,6,6,4,1460,4045,1,992,954,33580,0,147825,0,0,0,0,0
i,0x00000000,1716944051.011091,172.16.3.2,5101,172.16.1.2,17904,10482,14480,0,65728,65700,6,6,4,1460,4045,1,992,954,33580,0,147825,0,0,0,0,0
o,0x00000000,1716944051.011096,172.16.3.2,5101,172.16.1.2,17904,10482,14480,0,65728,65700,6,6,4,1460,4045,1,993,954,33580,0,147825,1448,0,0,0,0
i,0x00000000,1716944051.020521,172.16.3.2,5101,172.16.1.2,17904,10482,14480,0,65728,65700,6,6,4,1460,4045,1,992,954,33580,0,147825,0,0,0,0,0
i,0x00000000,1716944051.030983,172.16.3.2,5101,172.16.1.2,17904,10482,14480,0,65728,65700,6,6,4,1460,4045,1,992,954,33580,0,147825,0,0,0,0,0
o,0x00000000,1716944051.030993,172.16.3.2,5101,172.16.1.2,17904,10482,14480,0,65728,65700,6,6,4,1460,4045,1,993,954,33580,0,147825,1448,0,0,0,0
i,0x00000000,1716944051.041449,172.16.3.2,5101,172.16.1.2,17904,10482,14480,0,65728,65700,6,6,4,1460,4045,1,992,954,33580,0,147825,0,0,0,0,0
i,0x00000000,1716944051.051804,172.16.3.2,5101,172.16.1.2,17904,10482,14480,0,65728,65700,6,6,4,1460,4045,1,992,954,33580,0,147825,0,0,0,0,0
o,0x00000000,1716944051.051810,172.16.3.2,5101,172.16.1.2,17904,10482,14480,0,65728,65700,6,6,4,1460,4045,1,993,954,33580,0,147825,1448,0,0,0,0
i,0x00000000,1716944051.372082,172.16.3.2,5101,172.16.1.2,17904,10482,14480,0,65728,65700,6,6,4,1460,4045,1,992,954,33580,0,147825,0,0,0,0,0
i,0x00000000,1716944051.382384,172.16.3.2,5101,172.16.1.2,17904,10482,14480,0,65728,65700,6,6,4,1460,4045,1,992,954,33580,0,147825,0,0,0,0,0
o,0x00000000,1716944051.382399,172.16.3.2,5101,172.16.1.2,17904,10482,14480,0,65728,65700,6,6,4,1460,4045,1,993,954,33580,0,147825,1448,0,0,0,0
i,0x00000000,1716944051.391074,172.16.3.2,5101,172.16.1.2,17904,10482,14480,0,65728,65700,6,6,4,1460,4045,1,992,954,33580,0,147825,0,0,0,0,0
o,0x00000000,1716944051.427458,172.16.3.2,5101,172.16.1.2,17904,10482,14480,0,65728,65700,6,6,4,1460,4045,1,993,954,33580,0,147825,0,0,0,0,0
i,0x00000000,1716944051.430776,172.16.3.2,5101,172.16.1.2,17904,10482,14480,0,65728,65700,6,6,4,1460,4045,1,992,954,33580,0,147825,0,0,0,0,0
i,0x00000000,1716944051.441272,172.16.3.2,5101,172.16.1.2,17904,10482,14480,0,65728,65700,6,6,4,1460,4045,1,992,954,33580,0,147825,0,0,0,0,0
o,0x00000000,1716944051.441277,172.16.3.2,5101,172.16.1.2,17904,10482,14480,0,65728,65700,6,6,4,1460,4045,1,993,954,33580,0,147825,1448,0,0,0,0
o,0x00000000,1716944051.447333,10.0.2.15,22,10.0.2.2,62180,1073725440,14600,0,65535,65700,0,0,4,1460,1,0,4,24,33580,108,65700,0,0,0,0,0
i,0x00000000,1716944051.448035,10.0.2.15,22,10.0.2.2,62180,1073725440,14600,0,65535,65700,0,0,4,1460,1,0,4,24,33580,108,65700,0,108,0,0,0
i,0x00000000,1716944051.450510,172.16.3.2,5101,172.16.1.2,17904,10482,14480,0,65728,65700,6,6,4,1460,4045,1,992,954,33580,0,147825,0,0,0,0,0
i,0x00000000,1716944051.460559,172.16.3.2,5101,172.16.1.2,17904,10482,14480,0,65728,65700,6,6,4,1460,4045,1,992,954,33580,0,147825,0,0,0,0,0
o,0x00000000,1716944051.460565,172.16.3.2,5101,172.16.1.2,17904,10482,14480,0,65728,65700,6,6,4,1460,4045,1,993,954,33580,0,147825,1448,0,0,0,0
i,0x00000000,1716944051.481037,172.16.3.2,5101,172.16.1.2,17904,10482,14480,0,65728,65700,6,6,4,1460,4045,1,992,954,33580,0,147825,0,0,0,0,0
i,0x00000000,1716944051.491378,172.16.3.2,5101,172.16.1.2,17904,10482,14480,0,65728,65700,6,6,4,1460,4045,1,992,954,33580,0,147825,0,0,0,0,0
o,0x00000000,1716944051.491386,172.16.3.2,5101,172.16.1.2,17904,10482,14480,0,65728,65700,6,6,4,1460,4045,1,993,954,33580,0,147825,1448,0,0,0,0
i,0x00000000,1716944051.500739,172.16.3.2,5101,172.16.1.2,17904,10482,14480,0,65728,65700,6,6,4,1460,4045,1,992,954,33580,0,147825,0,0,0,0,0
i,0x00000000,1716944051.511109,172.16.3.2,5101,172.16.1.2,17904,10482,14480,0,65728,65700,6,6,4,1460,4045,1,992,954,33580,0,147825,0,0,0,0,0
o,0x00000000,1716944051.511115,172.16.3.2,5101,172.16.1.2,17904,10482,14480,0,65728,65700,6,6,4,1460,4045,1,993,954,33580,0,147825,1448,0,0,0,0
i,0x00000000,1716944051.521548,172.16.3.2,5101,172.16.1.2,17904,10482,14480,0,65728,65700,6,6,4,1460,4045,1,992,954,33580,0,147825,0,0,0,0,0
i,0x00000000,1716944051.540457,172.16.3.2,5101,172.16.1.2,17904,10482,14480,0,65728,65700,6,6,4,1460,4045,1,992,954,33580,0,147825,0,0,0,0,0
o,0x00000000,1716944051.540468,172.16.3.2,5101,172.16.1.2,17904,10482,14480,0,65728,65700,6,6,4,1460,4045,1,993,954,33580,0,147825,1448,0,0,0,0
i,0x00000000,1716944051.550936,172.16.3.2,5101,172.16.1.2,17904,10482,14480,0,65728,65700,6,6,4,1460,4045,1,992,954,33580,0,147825,0,0,0,0,0
i,0x00000000,1716944051.560324,172.16.3.2,5101,172.16.1.2,17904,10482,14480,0,65728,65700,6,6,4,1460,4045,1,992,954,33580,0,147825,0,0,0,0,0
o,0x00000000,1716944051.560331,172.16.3.2,5101,172.16.1.2,17904,10482,14480,0,65728,65700,6,6,4,1460,4045,1,993,954,33580,0,147825,1448,0,0,0,0
i,0x00000000,1716944051.570271,172.16.3.2,5101,172.16.1.2,17904,10482,14480,0,65728,65700,6,6,4,1460,4045,1,992,954,33580,0,147825,0,0,0,0,0
i,0x00000000,1716944051.581391,172.16.3.2,5101,172.16.1.2,17904,10482,14480,0,65728,65700,6,6,4,1460,4045,1,992,954,33580,0,147825,0,0,0,0,0
o,0x00000000,1716944051.581397,172.16.3.2,5101,172.16.1.2,17904,10482,14480,0,65728,65700,6,6,4,1460,4045,1,993,954,33580,0,147825,1448,0,0,0,0
i,0x00000000,1716944051.601022,172.16.3.2,5101,172.16.1.2,17904,10482,14480,0,65728,65700,6,6,4,1460,4045,1,992,954,33580,0,147825,0,0,0,0,0
i,0x00000000,1716944051.611448,172.16.3.2,5101,172.16.1.2,17904,10482,14480,0,65728,65700,6,6,4,1460,4045,1,992,954,33580,0,147825,0,0,0,0,0
o,0x00000000,1716944051.611453,172.16.3.2,5101,172.16.1.2,17904,10482,14480,0,65728,65700,6,6,4,1460,4045,1,993,954,33580,0,147825,1448,0,0,0,0
i,0x00000000,1716944051.620284,172.16.3.2,5101,172.16.1.2,17904,10482,14480,0,65728,65700,6,6,4,1460,4045,1,992,954,33580,0,147825,0,0,0,0,0
i,0x00000000,1716944051.632362,172.16.3.2,5101,172.16.1.2,17904,10482,14480,0,65728,65700,6,6,4,1460,4045,1,992,954,33580,0,147825,0,0,0,0,0
o,0x00000000,1716944051.632369,172.16.3.2,5101,172.16.1.2,17904,10482,14480,0,65728,65700,6,6,4,1460,4045,1,993,954,33580,0,147825,1448,0,0,0,0
i,0x00000000,1716944051.641210,172.16.3.2,5101,172.16.1.2,17904,10482,14480,0,65728,65700,6,6,4,1460,4045,1,992,954,33580,0,147825,0,0,0,0,0
i,0x00000000,1716944051.659973,172.16.3.2,5101,172.16.1.2,17904,10482,14480,0,65728,65700,6,6,4,1460,4045,1,992,954,33580,0,147825,0,0,0,0,0
o,0x00000000,1716944051.659977,172.16.3.2,5101,172.16.1.2,17904,10482,14480,0,65728,65700,6,6,4,1460,4045,1,993,954,33580,0,147825,1448,0,0,0,0
i,0x00000000,1716944051.670433,172.16.3.2,5101,172.16.1.2,17904,10482,14480,0,65728,65700,6,6,4,1460,4045,1,992,954,33580,0,147825,0,0,0,0,0
i,0x00000000,1716944051.680973,172.16.3.2,5101,172.16.1.2,17904,10482,14480,0,65728,65700,6,6,4,1460,4045,1,992,954,33580,0,147825,0,0,0,0,0
o,0x00000000,1716944051.680986,172.16.3.2,5101,172.16.1.2,17904,10482,14480,0,65728,65700,6,6,4,1460,4045,1,993,954,33580,0,147825,1448,0,0,0,0
i,0x00000000,1716944051.991203,172.16.3.2,5101,172.16.1.2,17904,10482,14480,0,65728,65700,6,6,4,1460,4045,1,992,954,33580,0,147825,0,0,0,0,0
i,0x00000000,1716944052.000551,172.16.3.2,5101,172.16.1.2,17904,10482,14480,0,65728,65700,6,6,4,1460,4045,1,992,954,33580,0,147825,0,0,0,0,0
o,0x00000000,1716944052.000563,172.16.3.2,5101,172.16.1.2,17904,10482,14480,0,65728,65700,6,6,4,1460,4045,1,993,954,33580,0,147825,1448,0,0,0,0
i,0x00000000,1716944052.060412,172.16.3.2,5101,172.16.1.2,17904,10482,14480,0,65728,65700,6,6,4,1460,4045,1,992,954,33580,0,147825,0,0,0,0,0
i,0x00000000,1716944052.070088,172.16.3.2,5101,172.16.1.2,17904,10482,14480,0,65728,65700,6,6,4,1460,4045,1,992,954,33580,0,147825,0,0,0,0,0
o,0x00000000,1716944052.070107,172.16.3.2,5101,172.16.1.2,17904,10482,14480,0,65728,65700,6,6,4,1460,4045,1,993,954,33580,0,147825,1448,0,0,0,0
i,0x00000000,1716944052.080620,172.16.3.2,5101,172.16.1.2,17904,10482,14480,0,65728,65700,6,6,4,1460,4045,1,992,954,33580,0,147825,0,0,0,0,0
i,0x00000000,1716944052.090474,172.16.3.2,5101,172.16.1.2,17904,10482,14480,0,65728,65700,6,6,4,1460,4045,1,992,954,33580,0,147825,0,0,0,0,0
o,0x00000000,1716944052.090481,172.16.3.2,5101,172.16.1.2,17904,10482,14480,0,65728,65700,6,6,4,1460,4045,1,993,954,33580,0,147825,1448,0,0,0,0
i,0x00000000,1716944052.111357,172.16.3.2,5101,172.16.1.2,17904,10482,14480,0,65728,65700,6,6,4,1460,4045,1,992,954,33580,0,147825,0,0,0,0,0
i,0x00000000,1716944052.121894,172.16.3.2,5101,172.16.1.2,17904,10482,14480,0,65728,65700,6,6,4,1460,4045,1,992,954,33580,0,147825,0,0,0,0,0
o,0x00000000,1716944052.121900,172.16.3.2,5101,172.16.1.2,17904,10482,14480,0,65728,65700,6,6,4,1460,4045,1,993,954,33580,0,147825,1448,0,0,0,0
i,0x00000000,1716944052.130708,172.16.3.2,5101,172.16.1.2,17904,10482,14480,0,65728,65700,6,6,4,1460,4045,1,992,954,33580,0,147825,0,0,0,0,0
i,0x00000000,1716944052.140071,172.16.3.2,5101,172.16.1.2,17904,10482,14480,0,65728,65700,6,6,4,1460,4045,1,992,954,33580,0,147825,0,0,0,0,0
o,0x00000000,1716944052.140077,172.16.3.2,5101,172.16.1.2,17904,10482,14480,0,65728,65700,6,6,4,1460,4045,1,993,954,33580,0,147825,1448,0,0,0,0
i,0x00000000,1716944052.150557,172.16.3.2,5101,172.16.1.2,17904,10482,14480,0,65728,65700,6,6,4,1460,4045,1,992,954,33580,0,147825,0,0,0,0,0
i,0x00000000,1716944052.170406,172.16.3.2,5101,172.16.1.2,17904,10482,14480,0,65728,65700,6,6,4,1460,4045,1,992,954,33580,0,147825,0,0,0,0,0
o,0x00000000,1716944052.170421,172.16.3.2,5101,172.16.1.2,17904,10482,14480,0,65728,65700,6,6,4,1460,4045,1,993,954,33580,0,147825,1448,0,0,0,0
i,0x00000000,1716944052.180718,172.16.3.2,5101,172.16.1.2,17904,10482,14480,0,65728,65700,6,6,4,1460,4045,1,992,954,33580,0,147825,0,0,0,0,0
i,0x00000000,1716944052.190161,172.16.3.2,5101,172.16.1.2,17904,10482,14480,0,65728,65700,6,6,4,1460,4045,1,992,954,33580,0,147825,0,0,0,0,0
o,0x00000000,1716944052.190169,172.16.3.2,5101,172.16.1.2,17904,10482,14480,0,65728,65700,6,6,4,1460,4045,1,993,954,33580,0,147825,1448,0,0,0,0
i,0x00000000,1716944052.199677,172.16.3.2,5101,172.16.1.2,17904,10482,14480,0,65728,65700,6,6,4,1460,4045,1,992,954,33580,0,147825,0,0,0,0,0
i,0x00000000,1716944052.210052,172.16.3.2,5101,172.16.1.2,17904,10482,14480,0,65728,65700,6,6,4,1460,4045,1,992,954,33580,0,147825,0,0,0,0,0
o,0x00000000,1716944052.210057,172.16.3.2,5101,172.16.1.2,17904,10482,14480,0,65728,65700,6,6,4,1460,4045,1,993,954,33580,0,147825,1448,0,0,0,0
i,0x00000000,1716944052.230922,172.16.3.2,5101,172.16.1.2,17904,10482,14480,0,65728,65700,6,6,4,1460,4045,1,992,954,33580,0,147825,0,0,0,0,0
i,0x00000000,1716944052.241223,172.16.3.2,5101,172.16.1.2,17904,10482,14480,0,65728,65700,6,6,4,1460,4045,1,992,954,33580,0,147825,0,0,0,0,0
o,0x00000000,1716944052.241229,172.16.3.2,5101,172.16.1.2,17904,10482,14480,0,65728,65700,6,6,4,1460,4045,1,993,954,33580,0,147825,1448,0,0,0,0
i,0x00000000,1716944052.249823,172.16.3.2,5101,172.16.1.2,17904,10482,14480,0,65728,65700,6,6,4,1460,4045,1,992,954,33580,0,147825,0,0,0,0,0
i,0x00000000,1716944052.260083,172.16.3.2,5101,172.16.1.2,17904,10482,14480,0,65728,65700,6,6,4,1460,4045,1,992,954,33580,0,147825,0,0,0,0,0
o,0x00000000,1716944052.260088,172.16.3.2,5101,172.16.1.2,17904,10482,14480,0,65728,65700,6,6,4,1460,4045,1,993,954,33580,0,147825,1448,0,0,0,0
i,0x00000000,1716944052.270559,172.16.3.2,5101,172.16.1.2,17904,10482,14480,0,65728,65700,6,6,4,1460,4045,1,992,954,33580,0,147825,0,0,0,0,0
i,0x00000000,1716944052.290405,172.16.3.2,5101,172.16.1.2,17904,10482,14480,0,65728,65700,6,6,4,1460,4045,1,992,954,33580,0,147825,0,0,0,0,0
o,0x00000000,1716944052.290413,172.16.3.2,5101,172.16.1.2,17904,10482,14480,0,65728,65700,6,6,4,1460,4045,1,993,954,33580,0,147825,1448,0,0,0,0
i,0x00000000,1716944052.300763,172.16.3.2,5101,172.16.1.2,17904,10482,14480,0,65728,65700,6,6,4,1460,4045,1,992,954,33580,0,147825,0,0,0,0,0
i,0x00000000,1716944052.309676,172.16.3.2,5101,172.16.1.2,17904,10482,14480,0,65728,65700,6,6,4,1460,4045,1,992,954,33580,0,147825,0,0,0,0,0
o,0x00000000,1716944052.309682,172.16.3.2,5101,172.16.1.2,17904,10482,14480,0,65728,65700,6,6,4,1460,4045,1,993,954,33580,0,147825,1448,0,0,0,0
