enable_time_secs=1716941880	enable_time_usecs=131449	siftrver=1.2.4	hz=100	tcp_rtt_scale=32	sysname=FreeBSD	sysver=1301000	ipmode=4
o,0x00000000,1716941880.131493,10.0.2.15,22,10.0.2.2,62321,1073725440,17298,0,65535,65700,0,0,4,1460,1,0,4,24,33580,44,65700,0,0,0,0,0
o,0x00000000,1716941880.131623,10.0.2.15,22,10.0.2.2,62321,1073725440,17298,0,65535,65700,0,0,4,1460,1,0,4,24,33580,80,65700,0,44,0,0,0
i,0x00000000,1716941880.132171,10.0.2.15,22,10.0.2.2,62321,1073725440,17298,0,65535,65700,0,0,4,1460,1,0,4,24,33580,80,65700,0,80,0,0,0
i,0x00000000,1716941880.132177,10.0.2.15,22,10.0.2.2,62321,1073725440,17342,0,65535,65700,0,0,4,1460,1,0,4,24,33580,36,65700,0,36,0,0,0
o,0x00000000,1716941880.132272,10.0.2.15,22,10.0.2.2,62321,1073725440,17378,0,65535,65700,0,0,4,1460,1,0,4,24,33580,36,65700,0,0,0,0,0
i,0x00000000,1716941880.132995,10.0.2.15,22,10.0.2.2,62321,1073725440,17378,0,65535,65700,0,0,4,1460,1,0,4,24,33580,36,65700,0,36,0,0,0
o,0x00000000,1716941880.133584,10.0.2.15,22,10.0.2.2,62321,1073725440,17414,0,65535,65700,0,0,4,1460,1,0,4,24,33580,176,65700,0,0,0,0,0
i,0x00000000,1716941880.134369,10.0.2.15,22,10.0.2.2,62321,1073725440,17414,0,65535,65700,0,0,4,1460,1,0,4,24,33580,176,65700,0,176,0,0,0
i,0x00000000,1716941880.135811,10.0.2.15,22,10.0.2.2,62321,1073725440,17590,0,65535,65700,0,0,4,1460,1,0,4,24,33580,0,65700,0,0,0,0,0
i,0x00000000,1716941880.135816,10.0.2.15,22,10.0.2.2,62321,1073725440,17590,0,65535,65700,0,0,4,1460,1,0,4,24,33580,0,65700,36,0,0,0,0
o,0x00000000,1716941880.135820,10.0.2.15,22,10.0.2.2,62321,1073725440,17590,0,65535,65700,0,0,4,1460,1,0,5,24,33580,0,65700,96,0,0,0,0
i,0x00000000,1716941880.135902,10.0.2.15,22,10.0.2.2,62321,1073725440,17590,0,65535,65700,0,0,4,1460,1,0,4,24,33580,0,65700,96,0,0,0,0
o,0x00000000,1716941880.135906,10.0.2.15,22,10.0.2.2,62321,1073725440,17590,0,65535,65604,0,0,5,1460,1,0,7,24,33580,0,65700,96,0,0,0,0
o,0x00000000,1716941880.138087,10.0.2.15,22,10.0.2.2,62321,1073725440,17590,0,65535,65604,0,0,8,1460,1,0,4,24,33580,0,65700,0,0,0,0,0
i,0x00000000,1716941880.138668,10.0.2.15,22,10.0.2.2,62321,1073725440,17590,0,65535,65604,0,0,8,1460,1,0,20,24,33580,0,65700,0,1,0,0,0
i,0x00000000,1716941882.235493,10.0.2.15,22,10.0.2.2,62325,1073725440,14600,0,65535,65700,0,0,4,1460,1,0,0,27,33580,0,65700,0,0,0,0,0
o,0x00000000,1716941882.251258,10.0.2.15,22,10.0.2.2,62325,1073725440,14600,0,65535,65700,0,0,4,1460,1,0,0,27,33580,38,65700,41,0,0,0,0
i,0x00000000,1716941882.251907,10.0.2.15,22,10.0.2.2,62325,1073725440,14600,0,65535,65700,0,0,4,1460,1,0,0,27,33580,38,65700,0,38,0,0,0
o,0x00000000,1716941882.252507,10.0.2.15,22,10.0.2.2,62325,1073725440,14638,0,65535,65700,0,0,4,1460,1,0,0,23,33580,1056,65700,0,0,0,0,0
i,0x00000000,1716941882.254438,10.0.2.15,22,10.0.2.2,62325,1073725440,14638,0,65535,65700,0,0,4,1460,1,0,0,23,33580,1056,65700,0,1056,0,0,0
i,0x00000000,1716941882.254442,10.0.2.15,22,10.0.2.2,62325,1073725440,14638,0,65535,65700,0,0,4,1460,1,0,0,23,33580,1056,65700,1460,1056,0,0,0
o,0x00000000,1716941882.254445,10.0.2.15,22,10.0.2.2,62325,1073725440,14638,0,65535,65700,0,0,4,1460,1,0,1,23,33580,1056,65700,1536,1056,0,0,0
i,0x00000000,1716941882.254519,10.0.2.15,22,10.0.2.2,62325,1073725440,14638,0,65535,65700,0,0,4,1460,1,0,0,23,33580,1056,65700,1536,1056,0,0,0
i,0x00000000,1716941882.255952,10.0.2.15,22,10.0.2.2,62325,1073725440,15694,0,65535,65700,0,0,4,1460,1,0,0,24,33580,0,65700,0,0,0,0,0
o,0x00000000,1716941882.259024,10.0.2.15,22,10.0.2.2,62325,1073725440,15694,0,65535,65700,0,0,4,1460,1,0,0,24,33580,484,65700,0,0,0,0,0
i,0x00000000,1716941882.259698,10.0.2.15,22,10.0.2.2,62325,1073725440,15694,0,65535,65700,0,0,4,1460,1,0,0,24,33580,484,65700,0,484,0,0,0
i,0x00000000,1716941882.264319,10.0.2.15,22,10.0.2.2,62325,1073725440,16178,0,65535,65700,0,0,4,1460,1,0,0,24,33580,0,65700,0,0,0,0,0
i,0x00000000,1716941882.269132,10.0.2.15,22,10.0.2.2,62325,1073725440,16178,0,65535,65700,0,0,4,1460,1,0,0,24,33580,0,65700,0,0,0,0,0
o,0x00000000,1716941882.269136,10.0.2.15,22,10.0.2.2,62325,1073725440,16178,0,65535,65700,0,0,4,1460,1,0,1,24,33580,0,65700,44,0,0,0,0
o,0x00000000,1716941882.269297,10.0.2.15,22,10.0.2.2,62325,1073725440,16178,0,65535,65700,0,0,4,1460,1,0,0,24,33580,44,65700,0,0,0,0,0
i,0x00000000,1716941882.270068,10.0.2.15,22,10.0.2.2,62325,1073725440,16178,0,65535,65700,0,0,4,1460,1,0,0,24,33580,44,65700,0,44,0,0,0
i,0x00000000,1716941882.270537,10.0.2.15,22,10.0.2.2,62325,1073725440,16222,0,65535,65700,0,0,4,1460,1,0,0,24,33580,0,65700,0,0,0,0,0
o,0x00000000,1716941882.280117,10.0.2.15,22,10.0.2.2,62325,1073725440,16222,0,65535,65700,0,0,4,1460,1,0,0,24,33580,68,65700,0,0,0,0,0
i,0x00000000,1716941882.280622,10.0.2.15,22,10.0.2.2,62325,1073725440,16222,0,65535,65700,0,0,4,1460,1,0,0,24,33580,68,65700,0,68,0,0,0
i,0x00000000,1716941882.283056,10.0.2.15,22,10.0.2.2,62325,1073725440,16290,0,65535,65700,0,0,4,1460,1,0,0,24,33580,0,65700,0,0,0,0,0
o,0x00000000,1716941882.292461,10.0.2.15,22,10.0.2.2,62325,1073725440,16290,0,65535,65700,0,0,4,1460,1,0,0,24,33580,28,65700,0,0,0,0,0
i,0x00000000,1716941882.293101,10.0.2.15,22,10.0.2.2,62325,1073725440,16290,0,65535,65700,0,0,4,1460,1,0,0,24,33580,28,65700,0,28,0,0,0
i,0x00000000,1716941882.293457,10.0.2.15,22,10.0.2.2,62325,1073725440,16318,0,65535,65700,0,0,4,1460,1,0,0,24,33580,0,65700,0,0,0,0,0
o,0x00000000,1716941882.294219,10.0.2.15,22,10.0.2.2,62325,1073725440,16318,0,65535,65700,0,0,4,1460,1,0,0,24,33580,768,65700,112,0,0,0,0
i,0x00000000,1716941882.294659,10.0.2.15,22,10.0.2.2,62325,1073725440,16318,0,65535,65700,0,0,4,1460,1,0,0,24,33580,768,65700,112,768,0,0,0
o,0x00000000,1716941882.294759,10.0.2.15,22,10.0.2.2,62325,1073725440,17086,0,65535,65700,0,0,4,1460,1,0,0,24,33580,44,65700,0,0,0,0,0
i,0x00000000,1716941882.295285,10.0.2.15,22,10.0.2.2,62325,1073725440,17086,0,65535,65700,0,0,4,1460,1,0,0,24,33580,44,65700,0,44,0,0,0
i,0x00000000,1716941882.295929,10.0.2.15,22,10.0.2.2,62325,1073725440,17130,0,65535,65700,0,0,4,1460,1,0,0,24,33580,0,65700,0,0,0,0,0
o,0x00000000,1716941882.296277,10.0.2.15,22,10.0.2.2,62325,1073725440,17130,0,65535,65700,0,0,4,1460,1,0,4,24,33580,72,65700,0,0,0,0,0
i,0x00000000,1716941882.297057,10.0.2.15,22,10.0.2.2,62325,1073725440,17130,0,65535,65700,0,0,4,1460,1,0,4,24,33580,72,65700,0,72,0,0,0
o,0x00000000,1716941882.301808,10.0.2.15,22,10.0.2.2,62325,1073725440,17202,0,65535,65700,0,0,4,1460,1,0,4,24,33580,44,65700,0,0,0,0,0
i,0x00000000,1716941882.302219,10.0.2.15,22,10.0.2.2,62325,1073725440,17202,0,65535,65700,0,0,4,1460,1,0,4,24,33580,44,65700,0,44,0,0,0
o,0x00000000,1716941882.302730,10.0.2.15,22,10.0.2.2,62325,1073725440,17246,0,65535,65700,0,0,4,1460,1,0,4,24,33580,44,65700,0,0,0,0,0
i,0x00000000,1716941882.303372,10.0.2.15,22,10.0.2.2,62325,1073725440,17246,0,65535,65700,0,0,4,1460,1,0,4,24,33580,44,65700,0,44,0,0,0
o,0x00000000,1716941882.306757,10.0.2.15,22,10.0.2.2,62325,1073725440,17290,0,65535,65700,0,0,4,1460,1,0,4,24,33580,176,65700,0,0,0,0,0
i,0x00000000,1716941882.308136,10.0.2.15,22,10.0.2.2,62325,1073725440,17290,0,65535,65700,0,0,4,1460,1,0,4,24,33580,176,65700,0,176,0,0,0
i,0x00000000,1716941882.308171,10.0.2.15,22,10.0.2.2,62325,1073725440,17466,0,65535,65700,0,0,4,1460,1,0,4,24,33580,0,65700,0,0,0,0,0
i,0x00000000,1716941882.308897,10.0.2.15,22,10.0.2.2,62325,1073725440,17466,0,65535,65700,0,0,4,1460,1,0,4,24,33580,0,65700,36,0,0,0,0
o,0x00000000,1716941882.308901,10.0.2.15,22,10.0.2.2,62325,1073725440,17466,0,65535,65700,0,0,4,1460,1,0,5,24,33580,0,65700,96,0,0,0,0
i,0x00000000,1716941882.308976,10.0.2.15,22,10.0.2.2,62325,1073725440,17466,0,65535,65700,0,0,4,1460,1,0,4,24,33580,0,65700,96,0,0,0,0
o,0x00000000,1716941882.308980,10.0.2.15,22,10.0.2.2,62325,1073725440,17466,0,65535,65604,0,0,5,1460,1,0,7,24,33580,0,65700,96,0,0,0,0
o,0x00000000,1716941882.319211,10.0.2.15,22,10.0.2.2,62325,1073725440,17466,0,65535,65604,0,0,8,1460,1,0,4,24,33580,0,65700,0,0,0,0,0
i,0x00000000,1716941882.320041,10.0.2.15,22,10.0.2.2,62325,1073725440,17466,0,65535,65604,0,0,8,1460,1,0,20,24,33580,0,65700,0,1,0,0,0
i,0x00000000,1716941882.558767,172.16.3.2,5101,172.16.1.2,45952,10453,14480,0,65728,65700,6,6,4,1460,426,1,992,43,33580,0,65700,0,0,0,0,0
o,0x00000000,1716941882.558900,172.16.3.2,5101,172.16.1.2,45952,10453,14480,0,65728,65700,6,6,4,1460,426,1,996,43,33580,1,65700,0,0,0,0,0
i,0x00000000,1716941882.679323,172.16.3.2,5101,172.16.1.2,45952,10453,14480,0,65728,65700,6,6,4,1460,426,1,996,43,33580,1,65700,0,1,0,0,0
i,0x00000000,1716941882.679339,172.16.3.2,5101,172.16.1.2,45952,10453,14480,0,65728,65728,6,6,4,1460,421,1,996,42,33580,0,65700,4,0,0,0,0
o,0x00000000,1716941882.679346,172.16.3.2,5101,172.16.1.2,45952,10453,14480,0,65728,65728,6,6,4,1460,421,1,997,42,33580,0,65700,128,0,0,0,0
o,0x00000000,1716941882.679724,172.16.3.2,5101,172.16.1.2,45952,10453,14480,0,65728,65728,6,6,4,1460,421,1,996,42,33580,1,65700,0,0,0,0,0
o,0x00000000,1716941882.679870,10.0.2.15,22,10.0.2.2,62180,1073725440,14600,0,65535,65700,0,0,4,1460,1,0,4,24,33580,84,65700,0,0,0,0,0
i,0x00000000,1716941882.680663,10.0.2.15,22,10.0.2.2,62180,1073725440,14600,0,65535,65700,0,0,4,1460,1,0,4,24,33580,84,65700,0,84,0,0,0
i,0x00000000,1716941882.829110,172.16.3.2,5101,172.16.1.2,45952,10453,14480,0,65728,65728,6,6,4,1460,421,1,996,42,33580,1,65700,0,1,0,0,0
i,0x00000000,1716941882.918905,172.16.3.2,5101,172.16.1.2,46654,10453,14480,0,65728,65700,6,6,4,1460,426,1,992,43,33580,0,65700,0,0,0,0,0
o,0x00000000,1716941882.920554,172.16.3.2,5101,172.16.1.2,45952,10453,14480,0,65728,65728,6,6,4,1460,429,1,996,42,33580,1,65700,0,0,0,0,0
o,0x00000000,1716941882.920778,172.16.3.2,5101,172.16.1.2,45952,10453,14480,0,65728,65728,6,6,4,1460,429,1,996,42,33580,2,65700,0,1,0,0,0
o,0x00000000,1716941882.921204,10.0.2.15,22,10.0.2.2,62180,1073725440,14600,0,65535,65700,0,0,4,1460,1,0,4,24,33580,108,65700,0,0,0,0,0
i,0x00000000,1716941882.921816,10.0.2.15,22,10.0.2.2,62180,1073725440,14600,0,65535,65700,0,0,4,1460,1,0,4,24,33580,108,65700,0,108,0,0,0
o,0x00000000,1716941882.956822,172.16.3.2,5101,172.16.1.2,46654,10453,14480,0,65728,65700,6,6,4,1460,426,1,993,43,33580,0,65700,0,0,0,0,0
i,0x00000000,1716941883.039056,172.16.3.2,5101,172.16.1.2,45952,10453,14480,0,65728,65728,6,6,4,1460,429,1,996,42,33580,2,65700,0,2,0,0,0
i,0x00000000,1716941883.138711,172.16.3.2,5101,172.16.1.2,46654,10453,14480,0,65728,65700,6,6,4,1460,426,1,992,43,33580,0,65700,0,0,0,0,0
i,0x00000000,1716941883.149238,172.16.3.2,5101,172.16.1.2,46654,10453,14480,0,65728,65700,6,6,4,1460,426,1,992,43,33580,0,65700,0,0,0,0,0
o,0x00000000,1716941883.149251,172.16.3.2,5101,172.16.1.2,46654,10453,14480,0,65728,65700,6,6,4,1460,426,1,993,43,33580,0,65700,1448,0,0,0,0
i,0x00000000,1716941883.158203,172.16.3.2,5101,172.16.1.2,46654,10453,14480,0,65728,65700,6,6,4,1460,426,1,992,43,33580,0,65700,0,0,0,0,0
i,0x00000000,1716941883.169418,172.16.3.2,5101,172.16.1.2,46654,10453,14480,0,65728,65700,6,6,4,1460,426,1,992,43,33580,0,65700,0,0,0,0,0
o,0x00000000,1716941883.169432,172.16.3.2,5101,172.16.1.2,46654,10453,14480,0,65728,65700,6,6,4,1460,426,1,993,43,33580,0,65700,1448,0,0,0,0
i,0x00000000,1716941883.188598,172.16.3.2,5101,172.16.1.2,46654,10453,14480,0,65728,65700,6,6,4,1460,426,1,992,43,33580,0,65700,0,0,0,0,0
i,0x00000000,1716941883.198213,172.16.3.2,5101,172.16.1.2,46654,10453,14480,0,65728,65700,6,6,4,1460,426,1,992,43,33580,0,65700,0,0,0,0,0
o,0x00000000,1716941883.198248,172.16.3.2,5101,172.16.1.2,46654,10453,14480,0,65728,65700,6,6,4,1460,426,1,993,43,33580,0,65700,1448,0,0,0,0
i,0x00000000,1716941883.208185,172.16.3.2,5101,172.16.1.2,46654,10453,14480,0,65728,65700,6,6,4,1460,426,1,992,43,33580,0,65700,0,0,0,0,0
i,0x00000000,1716941883.218843,172.16.3.2,5101,172.16.1.2,46654,10453,14480,0,65728,65700,6,6,4,1460,426,1,992,43,33580,0,65700,0,0,0,0,0
o,0x00000000,1716941883.218867,172.16.3.2,5101,172.16.1.2,46654,10453,14480,0,65728,65700,6,6,4,1460,426,1,993,43,33580,0,65700,1448,0,0,0,0
i,0x00000000,1716941883.238525,172.16.3.2,5101,172.16.1.2,46654,10453,14480,0,65728,65700,6,6,4,1460,426,1,992,43,33580,0,65700,0,0,0,0,0
i,0x00000000,1716941883.248536,172.16.3.2,5101,172.16.1.2,46654,10453,14480,0,65728,65700,6,6,4,1460,426,1,992,43,33580,0,65700,0,0,0,0,0
o,0x00000000,1716941883.248547,172.16.3.2,5101,172.16.1.2,46654,10453,14480,0,65728,65700,6,6,4,1460,426,1,993,43,33580,0,65700,1448,0,0,0,0
i,0x00000000,1716941883.357417,172.16.3.2,5101,172.16.1.2,46654,10453,14480,0,65728,65700,6,6,4,1460,426,1,992,43,33580,0,65700,0,0,0,0,0
i,0x00000000,1716941883.367674,172.16.3.2,5101,172.16.1.2,46654,10453,14480,0,65728,65700,6,6,4,1460,426,1,992,43,33580,0,65700,0,0,0,0,0
o,0x00000000,1716941883.367685,172.16.3.2,5101,172.16.1.2,46654,10453,14480,0,65728,65700,6,6,4,1460,426,1,993,43,33580,0,65700,1448,0,0,0,0
i,0x00000000,1716941883.428536,172.16.3.2,5101,172.16.1.2,46654,10453,14480,0,65728,65700,6,6,4,1460,426,1,992,43,33580,0,65700,0,0,0,0,0
o,0x00000000,1716941883.467871,172.16.3.2,5101,172.16.1.2,46654,10453,14480,0,65728,65700,6,6,4,1460,426,1,993,43,33580,0,65700,0,0,0,0,0
i,0x00000000,1716941883.468201,172.16.3.2,5101,172.16.1.2,46654,10453,14480,0,65728,65700,6,6,4,1460,426,1,992,43,33580,0,65700,0,0,0,0,0
i,0x00000000,1716941883.477876,172.16.3.2,5101,172.16.1.2,46654,10453,14480,0,65728,65700,6,6,4,1460,426,1,992,43,33580,0,65700,0,0,0,0,0
o,0x00000000,1716941883.477884,172.16.3.2,5101,172.16.1.2,46654,10453,14480,0,65728,65700,6,6,4,1460,426,1,993,43,33580,0,65700,1448,0,0,0,0
i,0x00000000,1716941883.487705,172.16.3.2,5101,172.16.1.2,46654,10453,14480,0,65728,65700,6,6,4,1460,426,1,992,43,33580,0,65700,0,0,0,0,0
o,0x00000000,1716941883.527441,172.16.3.2,5101,172.16.1.2,46654,10453,14480,0,65728,65700,6,6,4,1460,426,1,993,43,33580,0,65700,0,0,0,0,0
i,0x00000000,1716941883.527900,172.16.3.2,5101,172.16.1.2,46654,10453,14480,0,65728,65700,6,6,4,1460,426,1,992,43,33580,0,65700,0,0,0,0,0
i,0x00000000,1716941883.537254,172.16.3.2,5101,172.16.1.2,46654,10453,14480,0,65728,65700,6,6,4,1460,426,1,992,43,33580,0,65700,0,0,0,0,0
o,0x00000000,1716941883.537260,172.16.3.2,5101,172.16.1.2,46654,10453,14480,0,65728,65700,6,6,4,1460,426,1,993,43,33580,0,65700,1448,0,0,0,0
i,0x00000000,1716941883.547624,172.16.3.2,5101,172.16.1.2,46654,10453,14480,0,65728,65700,6,6,4,1460,426,1,992,43,33580,0,65700,0,0,0,0,0
i,0x00000000,1716941883.557849,172.16.3.2,5101,172.16.1.2,46654,10453,14480,0,65728,65700,6,6,4,1460,426,1,992,43,33580,0,65700,0,0,0,0,0
o,0x00000000,1716941883.557856,172.16.3.2,5101,172.16.1.2,46654,10453,14480,0,65728,65700,6,6,4,1460,426,1,993,43,33580,0,65700,1448,0,0,0,0
i,0x00000000,1716941883.577515,172.16.3.2,5101,172.16.1.2,46654,10453,14480,0,65728,65700,6,6,4,1460,426,1,992,43,33580,0,65700,0,0,0,0,0
i,0x00000000,1716941883.587785,172.16.3.2,5101,172.16.1.2,46654,10453,14480,0,65728,65700,6,6,4,1460,426,1,992,43,33580,0,65700,0,0,0,0,0
o,0x00000000,1716941883.587792,172.16.3.2,5101,172.16.1.2,46654,10453,14480,0,65728,65700,6,6,4,1460,426,1,993,43,33580,0,65700,1448,0,0,0,0
i,0x00000000,1716941883.597179,172.16.3.2,5101,172.16.1.2,46654,10453,14480,0,65728,65700,6,6,4,1460,426,1,992,43,33580,0,65700,0,0,0,0,0
o,0x00000000,1716941883.637146,172.16.3.2,5101,172.16.1.2,46654,10453,14480,0,65728,65700,6,6,4,1460,426,1,993,43,33580,0,65700,0,0,0,0,0
i,0x00000000,1716941883.638071,172.16.3.2,5101,172.16.1.2,46654,10453,14480,0,65728,65700,6,6,4,1460,426,1,992,43,33580,0,65700,0,0,0,0,0
i,0x00000000,1716941883.647851,172.16.3.2,5101,172.16.1.2,46654,10453,14480,0,65728,65700,6,6,4,1460,426,1,992,43,33580,0,65700,0,0,0,0,0
o,0x00000000,1716941883.647861,172.16.3.2,5101,172.16.1.2,46654,10453,14480,0,65728,65700,6,6,4,1460,426,1,993,43,33580,0,65700,1448,0,0,0,0
i,0x00000000,1716941883.657373,172.16.3.2,5101,172.16.1.2,46654,10453,14480,0,65728,65700,6,6,4,1460,426,1,992,43,33580,0,65700,0,0,0,0,0
o,0x00000000,1716941883.697198,172.16.3.2,5101,172.16.1.2,46654,10453,14480,0,65728,65700,6,6,4,1460,426,1,993,43,33580,0,65700,0,0,0,0,0
i,0x00000000,1716941883.747139,172.16.3.2,5101,172.16.1.2,46654,10453,14480,0,65728,65700,6,6,4,1460,426,1,992,43,33580,0,65700,0,0,0,0,0
i,0x00000000,1716941883.756840,172.16.3.2,5101,172.16.1.2,46654,10453,14480,0,65728,65700,6,6,4,1460,426,1,992,43,33580,0,65700,0,0,0,0,0
o,0x00000000,1716941883.756851,172.16.3.2,5101,172.16.1.2,46654,10453,14480,0,65728,65700,6,6,4,1460,426,1,993,43,33580,0,65700,1448,0,0,0,0
i,0x00000000,1716941883.808897,172.16.3.2,5101,172.16.1.2,46654,10453,14480,0,65728,65700,6,6,4,1460,426,1,992,43,33580,0,65700,0,0,0,0,0
i,0x00000000,1716941883.817300,172.16.3.2,5101,172.16.1.2,46654,10453,14480,0,65728,65700,6,6,4,1460,426,1,992,43,33580,0,65700,0,0,0,0,0
o,0x00000000,1716941883.817321,172.16.3.2,5101,172.16.1.2,46654,10453,14480,0,65728,65700,6,6,4,1460,426,1,993,43,33580,0,65700,1448,0,0,0,0
i,0x00000000,1716941883.837826,172.16.3.2,5101,172.16.1.2,46654,10453,14480,0,65728,65700,6,6,4,1460,426,1,992,43,33580,0,65700,0,0,0,0,0
i,0x00000000,1716941883.847387,172.16.3.2,5101,172.16.1.2,46654,10453,14480,0,65728,65700,6,6,4,1460,426,1,992,43,33580,0,65700,0,0,0,0,0
o,0x00000000,1716941883.847396,172.16.3.2,5101,172.16.1.2,46654,10453,14480,0,65728,65700,6,6,4,1460,426,1,993,43,33580,0,65700,1448,0,0,0,0
i,0x00000000,1716941883.896830,172.16.3.2,5101,172.16.1.2,46654,10453,14480,0,65728,65700,6,6,4,1460,426,1,992,43,33580,0,65700,0,0,0,0,0
i,0x00000000,1716941883.908101,172.16.3.2,5101,172.16.1.2,46654,10453,14480,0,65728,65700,6,6,4,1460,426,1,992,43,33580,0,65700,0,0,0,0,0
o,0x00000000,1716941883.908112,172.16.3.2,5101,172.16.1.2,46654,10453,14480,0,65728,65700,6,6,4,1460,426,1,993,43,33580,0,65700,1448,0,0,0,0
i,0x00000000,1716941883.927956,172.16.3.2,5101,172.16.1.2,46654,10453,14480,0,65728,65700,6,6,4,1460,426,1,992,43,33580,0,65700,0,0,0,0,0
o,0x00000000,1716941883.937838,10.0.2.15,22,10.0.2.2,62180,1073725440,14600,0,65535,65700,0,0,4,1460,1,0,4,24,33580,156,65700,0,0,0,0,0
i,0x00000000,1716941883.938700,10.0.2.15,22,10.0.2.2,62180,1073725440,14600,0,65535,65700,0,0,4,1460,1,0,4,24,33580,156,65700,0,156,0,0,0
i,0x00000000,1716941883.947339,172.16.3.2,5101,172.16.1.2,46654,10453,14480,0,65728,65700,6,6,4,1460,426,1,992,43,33580,0,65700,0,0,0,0,0
o,0x00000000,1716941883.947349,172.16.3.2,5101,172.16.1.2,46654,10453,14480,0,65728,65700,6,6,4,1460,426,1,993,43,33580,0,65700,1448,0,0,0,0
i,0x00000000,1716941883.957814,172.16.3.2,5101,172.16.1.2,46654,10453,14480,0,65728,65700,6,6,4,1460,426,1,992,43,33580,0,65700,0,0,0,0,0
o,0x00000000,1716941883.957823,172.16.3.2,5101,172.16.1.2,46654,10453,14480,0,65728,65700,6,6,4,1460,426,1,993,43,33580,0,65700,0,0,1,0,0
i,0x00000000,1716941883.987877,172.16.3.2,5101,172.16.1.2,46654,10453,14480,0,65728,65700,6,6,4,1460,426,1,992,43,33580,0,65700,0,0,1,0,0
o,0x00000000,1716941883.987885,172.16.3.2,5101,172.16.1.2,46654,10453,14480,0,65728,65728,6,6,4,1460,426,1,993,43,33580,0,65700,0,0,1,0,0
i,0x00000000,1716941884.007674,172.16.3.2,5101,172.16.1.2,46654,10453,14480,0,65728,65728,6,6,4,1460,426,1,992,43,33580,0,65700,0,0,1,0,0
o,0x00000000,1716941884.007680,172.16.3.2,5101,172.16.1.2,46654,10453,14480,0,65728,65728,6,6,4,1460,426,1,993,43,33580,0,65700,0,0,2,0,0
i,0x00000000,1716941884.016951,172.16.3.2,5101,172.16.1.2,46654,10453,14480,0,65728,65728,6,6,4,1460,426,1,992,43,33580,0,65700,0,0,2,0,0
o,0x00000000,1716941884.016957,172.16.3.2,5101,172.16.1.2,46654,10453,14480,0,65728,65728,6,6,4,1460,426,1,993,43,33580,0,65700,0,0,2,0,0
i,0x00000000,1716941884.077312,172.16.3.2,5101,172.16.1.2,46654,10453,14480,0,65728,65728,6,6,4,1460,426,1,992,43,33580,0,65700,0,0,2,0,0
o,0x00000000,1716941884.077323,172.16.3.2,5101,172.16.1.2,46654,10453,14480,0,65728,65728,6,6,4,1460,426,1,993,43,33580,0,65700,0,0,2,0,0
i,0x00000000,1716941884.086793,172.16.3.2,5101,172.16.1.2,46654,10453,14480,0,65728,65728,6,6,4,1460,426,1,992,43,33580,0,65700,0,0,2,0,0
o,0x00000000,1716941884.086798,172.16.3.2,5101,172.16.1.2,46654,10453,14480,0,65728,65728,6,6,4,1460,426,1,993,43,33580,0,65700,0,0,2,0,0
i,0x00000000,1716941884.157166,172.16.3.2,5101,172.16.1.2,46654,10453,14480,0,65728,65728,6,6,4,1460,426,1,992,43,33580,0,65700,0,0,2,0,0
o,0x00000000,1716941884.157184,172.16.3.2,5101,172.16.1.2,46654,10453,14480,0,65728,65728,6,6,4,1460,426,1,993,43,33580,0,65700,4344,0,1,0,0
i,0x00000000,1716941884.186976,172.16.3.2,5101,172.16.1.2,46654,10453,14480,0,65728,65728,6,6,4,1460,426,1,992,43,33580,0,65700,0,0,1,0,0
o,0x00000000,1716941884.186985,172.16.3.2,5101,172.16.1.2,46654,10453,14480,0,65728,65700,6,6,4,1460,426,1,993,43,33580,0,65700,0,0,1,0,0
i,0x00000000,1716941884.217442,172.16.3.2,5101,172.16.1.2,46654,10453,14480,0,65728,65700,6,6,4,1460,426,1,992,43,33580,0,65700,0,0,1,0,0
o,0x00000000,1716941884.217453,172.16.3.2,5101,172.16.1.2,46654,10453,14480,0,65728,65728,6,6,4,1460,426,1,993,43,33580,0,65700,0,0,1,0,0
i,0x00000000,1716941884.237166,172.16.3.2,5101,172.16.1.2,46654,10453,14480,0,65728,65728,6,6,4,1460,426,1,992,43,33580,0,65700,0,0,1,0,0
o,0x00000000,1716941884.237171,172.16.3.2,5101,172.16.1.2,46654,10453,14480,0,65728,65728,6,6,4,1460,426,1,993,43,33580,0,65700,0,0,1,0,0
i,0x00000000,1716941884.256889,172.16.3.2,5101,172.16.1.2,46654,10453,14480,0,65728,65728,6,6,4,1460,426,1,992,43,33580,0,65700,0,0,1,0,0
o,0x00000000,1716941884.256902,172.16.3.2,5101,172.16.1.2,46654,10453,14480,0,65728,65728,6,6,4,1460,426,1,993,43,33580,0,65700,7240,0,0,0,0
i,0x00000000,1716941884.266416,172.16.3.2,5101,172.16.1.2,46654,10453,14480,0,65728,65728,6,6,4,1460,426,1,992,43,33580,0,65700,0,0,0,0,0
o,0x00000000,1716941884.266420,172.16.3.2,5101,172.16.1.2,46654,10453,14480,0,65728,65700,6,6,4,1460,426,1,993,43,33580,0,65700,0,0,0,0,0
i,0x00000000,1716941884.277754,172.16.3.2,5101,172.16.1.2,46654,10453,14480,0,65728,65700,6,6,4,1460,426,1,992,43,33580,0,65700,0,0,0,0,0
o,0x00000000,1716941884.277758,172.16.3.2,5101,172.16.1.2,46654,10453,14480,0,65728,65728,6,6,4,1460,426,1,993,43,33580,0,65700,0,0,0,0,0
i,0x00000000,1716941884.287351,172.16.3.2,5101,172.16.1.2,46654,10453,14480,0,65728,65728,6,6,4,1460,426,1,992,43,33580,0,65700,0,0,0,0,0
o,0x00000000,1716941884.287356,172.16.3.2,5101,172.16.1.2,46654,10453,14480,0,65728,65728,6,6,4,1460,426,1,993,43,33580,0,65700,0,0,0,0,0
i,0x00000000,1716941884.287494,172.16.3.2,5101,172.16.1.2,46654,10453,14480,0,65728,65728,6,6,4,1460,426,1,992,43,33580,0,65700,0,0,0,0,0
i,0x00000000,1716941884.306990,172.16.3.2,5101,172.16.1.2,46654,10453,14480,0,65728,65728,6,6,4,1460,426,1,992,43,33580,0,65700,0,0,0,0,0
o,0x00000000,1716941884.306995,172.16.3.2,5101,172.16.1.2,46654,10453,14480,0,65728,65728,6,6,4,1460,426,1,993,43,33580,0,65700,0,0,0,0,0
i,0x00000000,1716941884.366818,172.16.3.2,5101,172.16.1.2,46654,10453,14480,0,65728,65728,6,6,4,1460,426,1,992,43,33580,0,65700,0,0,0,0,0
i,0x00000000,1716941884.417500,172.16.3.2,5101,172.16.1.2,46654,10453,14480,0,65728,65728,6,6,4,1460,426,1,992,43,33580,0,65700,0,0,0,0,0
o,0x00000000,1716941884.417540,172.16.3.2,5101,172.16.1.2,46654,10453,14480,0,65728,65728,6,6,4,1460,426,1,993,43,33580,0,65700,0,0,1,0,0
i,0x00000000,1716941884.427472,172.16.3.2,5101,172.16.1.2,46654,10453,14480,0,65728,65728,6,6,4,1460,426,1,992,43,33580,0,65700,0,0,1,0,0
o,0x00000000,1716941884.427480,172.16.3.2,5101,172.16.1.2,46654,10453,14480,0,65728,65728,6,6,4,1460,426,1,993,43,33580,0,65700,0,0,1,0,0
i,0x00000000,1716941884.646421,172.16.3.2,5101,172.16.1.2,46654,10453,14480,0,65728,65728,6,6,4,1460,426,1,992,43,33580,0,65700,0,0,1,0,0
o,0x00000000,1716941884.646441,172.16.3.2,5101,172.16.1.2,46654,10453,14480,0,65728,65728,6,6,4,1460,426,1,993,43,33580,0,65700,1448,0,1,0,0
i,0x00000000,1716941884.656818,172.16.3.2,5101,172.16.1.2,46654,10453,14480,0,65728,65728,6,6,4,1460,426,1,992,43,33580,0,65700,0,0,1,0,0
o,0x00000000,1716941884.656826,172.16.3.2,5101,172.16.1.2,46654,10453,14480,0,65728,65700,6,6,4,1460,426,1,993,43,33580,0,65700,1448,0,1,0,0
i,0x00000000,1716941884.667432,172.16.3.2,5101,172.16.1.2,46654,10453,14480,0,65728,65700,6,6,4,1460,426,1,992,43,33580,0,65700,0,0,1,0,0
o,0x00000000,1716941884.667439,172.16.3.2,5101,172.16.1.2,46654,10453,14480,0,65728,65700,6,6,4,1460,426,1,993,43,33580,0,65700,1448,0,1,0,0
i,0x00000000,1716941884.676407,172.16.3.2,5101,172.16.1.2,46654,10453,14480,0,65728,65700,6,6,4,1460,426,1,992,43,33580,0,65700,0,0,1,0,0
o,0x00000000,1716941884.676413,172.16.3.2,5101,172.16.1.2,46654,10453,14480,0,65728,65700,6,6,4,1460,426,1,993,43,33580,0,65700,1448,0,1,0,0
i,0x00000000,1716941884.696147,172.16.3.2,5101,172.16.1.2,46654,10453,14480,0,65728,65700,6,6,4,1460,426,1,992,43,33580,0,65700,0,0,1,0,0
o,0x00000000,1716941884.696154,172.16.3.2,5101,172.16.1.2,46654,10453,14480,0,65728,65700,6,6,4,1460,426,1,993,43,33580,0,65700,1448,0,1,0,0
i,0x00000000,1716941884.706768,172.16.3.2,5101,172.16.1.2,46654,10453,14480,0,65728,65700,6,6,4,1460,426,1,992,43,33580,0,65700,0,0,1,0,0
o,0x00000000,1716941884.706782,172.16.3.2,5101,172.16.1.2,46654,10453,14480,0,65728,65700,6,6,4,1460,426,1,993,43,33580,0,65700,1448,0,1,0,0
i,0x00000000,1716941884.716756,172.16.3.2,5101,172.16.1.2,46654,10453,14480,0,65728,65700,6,6,4,1460,426,1,992,43,33580,0,65700,0,0,1,0,0
o,0x00000000,1716941884.716764,172.16.3.2,5101,172.16.1.2,46654,10453,14480,0,65728,65700,6,6,4,1460,426,1,993,43,33580,0,65700,1448,0,1,0,0
i,0x00000000,1716941884.736699,172.16.3.2,5101,172.16.1.2,46654,10453,14480,0,65728,65700,6,6,4,1460,426,1,992,43,33580,0,65700,0,0,1,0,0
o,0x00000000,1716941884.736706,172.16.3.2,5101,172.16.1.2,46654,10453,14480,0,65728,65700,6,6,4,1460,426,1,993,43,33580,0,65700,1448,0,1,0,0
i,0x00000000,1716941884.745717,172.16.3.2,5101,172.16.1.2,46654,10453,14480,0,65728,65700,6,6,4,1460,426,1,992,43,33580,0,65700,0,0,1,0,0
o,0x00000000,1716941884.745723,172.16.3.2,5101,172.16.1.2,46654,10453,14480,0,65728,65700,6,6,4,1460,426,1,993,43,33580,0,65700,1448,0,1,0,0
i,0x00000000,1716941884.756027,172.16.3.2,5101,172.16.1.2,46654,10453,14480,0,65728,65700,6,6,4,1460,426,1,992,43,33580,0,65700,0,0,1,0,0
o,0x00000000,1716941884.756034,172.16.3.2,5101,172.16.1.2,46654,10453,14480,0,65728,65700,6,6,4,1460,426,1,993,43,33580,0,65700,1448,0,1,0,0
i,0x00000000,1716941884.766404,172.16.3.2,5101,172.16.1.2,46654,10453,14480,0,65728,65700,6,6,4,1460,426,1,992,43,33580,0,65700,0,0,1,0,0
o,0x00000000,1716941884.766413,172.16.3.2,5101,172.16.1.2,46654,10453,14480,0,65728,65700,6,6,4,1460,426,1,993,43,33580,0,65700,4344,0,0,0,0
i,0x00000000,1716941884.826277,172.16.3.2,5101,172.16.1.2,46654,10453,14480,0,65728,65700,6,6,4,1460,426,1,992,43,33580,0,65700,0,0,0,0,0
i,0x00000000,1716941884.826282,172.16.3.2,5101,172.16.1.2,46654,10453,14480,0,65728,65700,6,6,4,1460,426,1,992,43,33580,0,65700,0,0,0,0,0
i,0x00000000,1716941884.826691,172.16.3.2,5101,172.16.1.2,46654,10453,14480,0,65728,65700,6,6,4,1460,426,1,992,43,33580,0,65700,0,0,0,0,0
i,0x00000000,1716941884.857396,172.16.3.2,5101,172.16.1.2,46654,10453,14480,0,65728,65700,6,6,4,1460,426,1,992,43,33580,0,65700,0,0,0,0,0
i,0x00000000,1716941884.886426,172.16.3.2,5101,172.16.1.2,46654,10453,14480,0,65728,65700,6,6,4,1460,426,1,992,43,33580,0,65700,0,0,0,0,0
o,0x00000000,1716941884.886442,172.16.3.2,5101,172.16.1.2,46654,10453,14480,0,65728,65700,6,6,4,1460,426,1,993,43,33580,0,65700,1448,0,0,0,0
i,0x00000000,1716941884.895852,172.16.3.2,5101,172.16.1.2,46654,10453,14480,0,65728,65700,6,6,4,1460,426,1,992,43,33580,0,65700,0,0,0,0,0
o,0x00000000,1716941884.927244,172.16.3.2,5101,172.16.1.2,46654,10453,14480,0,65728,65700,6,6,4,1460,426,1,993,43,33580,0,65700,0,0,0,0,0
i,0x00000000,1716941884.935438,172.16.3.2,5101,172.16.1.2,46654,10453,14480,0,65728,65700,6,6,4,1460,426,1,992,43,33580,0,65700,0,0,0,0,0
o,0x00000000,1716941884.937682,10.0.2.15,22,10.0.2.2,62180,1073725440,14600,0,65535,65700,0,0,4,1460,1,0,4,24,33580,108,65700,0,0,0,0,0
i,0x00000000,1716941884.938489,10.0.2.15,22,10.0.2.2,62180,1073725440,14600,0,65535,65700,0,0,4,1460,1,0,4,24,33580,108,65700,0,108,0,0,0
i,0x00000000,1716941884.945818,172.16.3.2,5101,172.16.1.2,46654,10453,14480,0,65728,65700,6,6,4,1460,426,1,992,43,33580,0,65700,0,0,0,0,0
o,0x00000000,1716941884.945827,172.16.3.2,5101,172.16.1.2,46654,10453,14480,0,65728,65700,6,6,4,1460,426,1,993,43,33580,0,65700,1448,0,0,0,0
i,0x00000000,1716941884.966482,172.16.3.2,5101,172.16.1.2,46654,10453,14480,0,65728,65700,6,6,4,1460,426,1,992,43,33580,0,65700,0,0,0,0,0
i,0x00000000,1716941884.975766,172.16.3.2,5101,172.16.1.2,46654,10453,14480,0,65728,65700,6,6,4,1460,426,1,992,43,33580,0,65700,0,0,0,0,0
o,0x00000000,1716941884.975778,172.16.3.2,5101,172.16.1.2,46654,10453,14480,0,65728,65700,6,6,4,1460,426,1,993,43,33580,0,65700,1448,0,0,0,0
i,0x00000000,1716941884.986293,172.16.3.2,5101,172.16.1.2,46654,10453,14480,0,65728,65700,6,6,4,1460,426,1,992,43,33580,0,65700,0,0,0,0,0
o,0x00000000,1716941885.017827,172.16.3.2,5101,172.16.1.2,46654,10453,14480,0,65728,65700,6,6,4,1460,426,1,993,43,33580,0,65700,0,0,0,0,0
i,0x00000000,1716941885.035921,172.16.3.2,5101,172.16.1.2,46654,10453,14480,0,65728,65700,6,6,4,1460,426,1,992,43,33580,0,65700,0,0,0,0,0
i,0x00000000,1716941885.055942,172.16.3.2,5101,172.16.1.2,46654,10453,14480,0,65728,65700,6,6,4,1460,426,1,992,43,33580,0,65700,0,0,0,0,0
o,0x00000000,1716941885.055954,172.16.3.2,5101,172.16.1.2,46654,10453,14480,0,65728,65700,6,6,4,1460,426,1,993,43,33580,0,65700,1448,0,0,0,0
i,0x00000000,1716941885.095867,172.16.3.2,5101,172.16.1.2,46654,10453,14480,0,65728,65700,6,6,4,1460,426,1,992,43,33580,0,65700,0,0,0,0,0
i,0x00000000,1716941885.106046,172.16.3.2,5101,172.16.1.2,46654,10453,14480,0,65728,65700,6,6,4,1460,426,1,992,43,33580,0,65700,0,0,0,0,0
o,0x00000000,1716941885.106054,172.16.3.2,5101,172.16.1.2,46654,10453,14480,0,65728,65700,6,6,4,1460,426,1,993,43,33580,0,65700,1448,0,0,0,0
i,0x00000000,1716941885.155967,172.16.3.2,5101,172.16.1.2,46654,10453,14480,0,65728,65700,6,6,4,1460,426,1,992,43,33580,0,65700,0,0,0,0,0
i,0x00000000,1716941885.186846,172.16.3.2,5101,172.16.1.2,46654,10453,14480,0,65728,65700,6,6,4,1460,426,1,992,43,33580,0,65700,0,0,0,0,0
o,0x00000000,1716941885.186858,172.16.3.2,5101,172.16.1.2,46654,10453,14480,0,65728,65700,6,6,4,1460,426,1,993,43,33580,0,65700,1448,0,0,0,0
i,0x00000000,1716941885.195251,172.16.3.2,5101,172.16.1.2,46654,10453,14480,0,65728,65700,6,6,4,1460,426,1,992,43,33580,0,65700,0,0,0,0,0
i,0x00000000,1716941885.226336,172.16.3.2,5101,172.16.1.2,46654,10453,14480,0,65728,65700,6,6,4,1460,426,1,992,43,33580,0,65700,0,0,0,0,0
o,0x00000000,1716941885.226351,172.16.3.2,5101,172.16.1.2,46654,10453,14480,0,65728,65700,6,6,4,1460,426,1,993,43,33580,0,65700,1448,0,0,0,0
i,0x00000000,1716941885.245173,172.16.3.2,5101,172.16.1.2,46654,10453,14480,0,65728,65700,6,6,4,1460,426,1,992,43,33580,0,65700,0,0,0,0,0
i,0x00000000,1716941885.255584,172.16.3.2,5101,172.16.1.2,46654,10453,14480,0,65728,65700,6,6,4,1460,426,1,992,43,33580,0,65700,0,0,0,0,0
o,0x00000000,1716941885.255590,172.16.3.2,5101,172.16.1.2,46654,10453,14480,0,65728,65700,6,6,4,1460,426,1,993,43,33580,0,65700,1448,0,0,0,0
i,0x00000000,1716941885.295817,172.16.3.2,5101,172.16.1.2,46654,10453,14480,0,65728,65700,6,6,4,1460,426,1,992,43,33580,0,65700,0,0,0,0,0
i,0x00000000,1716941885.306105,172.16.3.2,5101,172.16.1.2,46654,10453,14480,0,65728,65700,6,6,4,1460,426,1,992,43,33580,0,65700,0,0,0,0,0
o,0x00000000,1716941885.306111,172.16.3.2,5101,172.16.1.2,46654,10453,14480,0,65728,65700,6,6,4,1460,426,1,993,43,33580,0,65700,1448,0,0,0,0
i,0x00000000,1716941885.335149,172.16.3.2,5101,172.16.1.2,46654,10453,14480,0,65728,65700,6,6,4,1460,426,1,992,43,33580,0,65700,0,0,0,0,0
i,0x00000000,1716941885.354931,172.16.3.2,5101,172.16.1.2,46654,10453,14480,0,65728,65700,6,6,4,1460,426,1,992,43,33580,0,65700,0,0,0,0,0
o,0x00000000,1716941885.354946,172.16.3.2,5101,172.16.1.2,46654,10453,14480,0,65728,65700,6,6,4,1460,426,1,993,43,33580,0,65700,1448,0,0,0,0
i,0x00000000,1716941885.384932,172.16.3.2,5101,172.16.1.2,46654,10453,14480,0,65728,65700,6,6,4,1460,426,1,992,43,33580,0,65700,0,0,0,0,0
i,0x00000000,1716941885.405549,172.16.3.2,5101,172.16.1.2,46654,10453,14480,0,65728,65700,6,6,4,1460,426,1,992,43,33580,0,65700,0,0,0,0,0
o,0x00000000,1716941885.405559,172.16.3.2,5101,172.16.1.2,46654,10453,14480,0,65728,65700,6,6,4,1460,426,1,993,43,33580,0,65700,1448,0,0,0,0
i,0x00000000,1716941885.445994,172.16.3.2,5101,172.16.1.2,46654,10453,14480,0,65728,65700,6,6,4,1460,426,1,992,43,33580,0,65700,0,0,0,0,0
o,0x00000000,1716941885.476723,172.16.3.2,5101,172.16.1.2,46654,10453,14480,0,65728,65700,6,6,4,1460,426,1,993,43,33580,0,65700,0,0,0,0,0
i,0x00000000,1716941885.485437,172.16.3.2,5101,172.16.1.2,46654,10453,14480,0,65728,65700,6,6,4,1460,426,1,992,43,33580,0,65700,0,0,0,0,0
i,0x00000000,1716941885.494991,172.16.3.2,5101,172.16.1.2,46654,10453,14480,0,65728,65700,6,6,4,1460,426,1,992,43,33580,0,65700,0,0,0,0,0
o,0x00000000,1716941885.494997,172.16.3.2,5101,172.16.1.2,46654,10453,14480,0,65728,65700,6,6,4,1460,426,1,993,43,33580,0,65700,1448,0,0,0,0
i,0x00000000,1716941885.536216,172.16.3.2,5101,172.16.1.2,46654,10453,14480,0,65728,65700,6,6,4,1460,426,1,992,43,33580,0,65700,0,0,0,0,0
i,0x00000000,1716941885.544799,172.16.3.2,5101,172.16.1.2,46654,10453,14480,0,65728,65700,6,6,4,1460,426,1,992,43,33580,0,65700,0,0,0,0,0
o,0x00000000,1716941885.544806,172.16.3.2,5101,172.16.1.2,46654,10453,14480,0,65728,65700,6,6,4,1460,426,1,993,43,33580,0,65700,1448,0,0,0,0
i,0x00000000,1716941885.555318,172.16.3.2,5101,172.16.1.2,46654,10453,14480,0,65728,65700,6,6,4,1460,426,1,992,43,33580,0,65700,0,0,0,0,0
o,0x00000000,1716941885.587326,172.16.3.2,5101,172.16.1.2,46654,10453,14480,0,65728,65700,6,6,4,1460,426,1,993,43,33580,0,65700,0,0,0,0,0
i,0x00000000,1716941885.595593,172.16.3.2,5101,172.16.1.2,46654,10453,14480,0,65728,65700,6,6,4,1460,426,1,992,43,33580,0,65700,0,0,0,0,0
i,0x00000000,1716941885.604845,172.16.3.2,5101,172.16.1.2,46654,10453,14480,0,65728,65700,6,6,4,1460,426,1,992,43,33580,0,65700,0,0,0,0,0
o,0x00000000,1716941885.604861,172.16.3.2,5101,172.16.1.2,46654,10453,14480,0,65728,65700,6,6,4,1460,426,1,993,43,33580,0,65700,1448,0,0,0,0
i,0x00000000,1716941885.625737,172.16.3.2,5101,172.16.1.2,46654,10453,14480,0,65728,65700,6,6,4,1460,426,1,992,43,33580,0,65700,0,0,0,0,0
o,0x00000000,1716941885.657198,172.16.3.2,5101,172.16.1.2,46654,10453,14480,0,65728,65700,6,6,4,1460,426,1,993,43,33580,0,65700,0,0,0,0,0
i,0x00000000,1716941885.665082,172.16.3.2,5101,172.16.1.2,46654,10453,14480,0,65728,65700,6,6,4,1460,426,1,992,43,33580,0,65700,0,0,0,0,0
i,0x00000000,1716941885.685751,172.16.3.2,5101,172.16.1.2,46654,10453,14480,0,65728,65700,6,6,4,1460,426,1,992,43,33580,0,65700,0,0,0,0,0
o,0x00000000,1716941885.685760,172.16.3.2,5101,172.16.1.2,46654,10453,14480,0,65728,65700,6,6,4,1460,426,1,993,43,33580,0,65700,1448,0,0,0,0
i,0x00000000,1716941885.734780,172.16.3.2,5101,172.16.1.2,46654,10453,14480,0,65728,65700,6,6,4,1460,426,1,992,43,33580,0,65700,0,0,0,0,0
i,0x00000000,1716941885.745131,172.16.3.2,5101,172.16.1.2,46654,10453,14480,0,65728,65700,6,6,4,1460,426,1,992,43,33580,0,65700,0,0,0,0,0
o,0x00000000,1716941885.745142,172.16.3.2,5101,172.16.1.2,46654,10453,14480,0,65728,65700,6,6,4,1460,426,1,993,43,33580,0,65700,1448,0,0,0,0
i,0x00000000,1716941885.754492,172.16.3.2,5101,172.16.1.2,46654,10453,14480,0,65728,65700,6,6,4,1460,426,1,992,43,33580,0,65700,0,0,0,0,0
o,0x00000000,1716941885.786888,172.16.3.2,5101,172.16.1.2,46654,10453,14480,0,65728,65700,6,6,4,1460,426,1,993,43,33580,0,65700,0,0,0,0,0
i,0x00000000,1716941885.805372,172.16.3.2,5101,172.16.1.2,46654,10453,14480,0,65728,65700,6,6,4,1460,426,1,992,43,33580,0,65700,0,0,0,0,0
i,0x00000000,1716941885.815583,172.16.3.2,5101,172.16.1.2,46654,10453,14480,0,65728,65700,6,6,4,1460,426,1,992,43,33580,0,65700,0,0,0,0,0
o,0x00000000,1716941885.815602,172.16.3.2,5101,172.16.1.2,46654,10453,14480,0,65728,65700,6,6,4,1460,426,1,993,43,33580,0,65700,1448,0,0,0,0
i,0x00000000,1716941885.826124,172.16.3.2,5101,172.16.1.2,46654,10453,14480,0,65728,65700,6,6,4,1460,426,1,992,43,33580,0,65700,0,0,0,0,0
o,0x00000000,1716941885.857354,172.16.3.2,5101,172.16.1.2,46654,10453,14480,0,65728,65700,6,6,4,1460,426,1,993,43,33580,0,65700,0,0,0,0,0
i,0x00000000,1716941885.875072,172.16.3.2,5101,172.16.1.2,46654,10453,14480,0,65728,65700,6,6,4,1460,426,1,992,43,33580,0,65700,0,0,0,0,0
i,0x00000000,1716941885.894689,172.16.3.2,5101,172.16.1.2,46654,10453,14480,0,65728,65700,6,6,4,1460,426,1,992,43,33580,0,65700,0,0,0,0,0
o,0x00000000,1716941885.894714,172.16.3.2,5101,172.16.1.2,46654,10453,14480,0,65728,65700,6,6,4,1460,426,1,993,43,33580,0,65700,1448,0,0,0,0
i,0x00000000,1716941885.905055,172.16.3.2,5101,172.16.1.2,46654,10453,14480,0,65728,65700,6,6,4,1460,426,1,992,43,33580,0,65700,0,0,0,0,0
i,0x00000000,1716941885.934834,172.16.3.2,5101,172.16.1.2,46654,10453,14480,0,65728,65700,6,6,4,1460,426,1,992,43,33580,0,65700,0,0,0,0,0
o,0x00000000,1716941885.934855,172.16.3.2,5101,172.16.1.2,46654,10453,14480,0,65728,65700,6,6,4,1460,426,1,993,43,33580,0,65700,1448,0,0,0,0
o,0x00000000,1716941885.937458,10.0.2.15,22,10.0.2.2,62180,1073725440,14600,0,65535,65700,0,0,4,1460,1,0,4,24,33580,108,65700,0,0,0,0,0
i,0x00000000,1716941885.938301,10.0.2.15,22,10.0.2.2,62180,1073725440,14600,0,65535,65700,0,0,4,1460,1,0,4,24,33580,108,65700,0,108,0,0,0
i,0x00000000,1716941885.965047,172.16.3.2,5101,172.16.1.2,46654,10453,14480,0,65728,65700,6,6,4,1460,426,1,992,43,33580,0,65700,0,0,0,0,0
i,0x00000000,1716941885.974240,172.16.3.2,5101,172.16.1.2,46654,10453,14480,0,65728,65700,6,6,4,1460,426,1,992,43,33580,0,65700,0,0,0,0,0
o,0x00000000,1716941885.974255,172.16.3.2,5101,172.16.1.2,46654,10453,14480,0,65728,65700,6,6,4,1460,426,1,993,43,33580,0,65700,1448,0,0,0,0
i,0x00000000,1716941886.024846,172.16.3.2,5101,172.16.1.2,46654,10453,14480,0,65728,65700,6,6,4,1460,426,1,992,43,33580,0,65700,0,0,0,0,0
i,0x00000000,1716941886.034125,172.16.3.2,5101,172.16.1.2,46654,10453,14480,0,65728,65700,6,6,4,1460,426,1,992,43,33580,0,65700,0,0,0,0,0
o,0x00000000,1716941886.034147,172.16.3.2,5101,172.16.1.2,46654,10453,14480,0,65728,65700,6,6,4,1460,426,1,993,43,33580,0,65700,1448,0,0,0,0
i,0x00000000,1716941886.065102,172.16.3.2,5101,172.16.1.2,46654,10453,14480,0,65728,65700,6,6,4,1460,426,1,992,43,33580,0,65700,0,0,0,0,0
i,0x00000000,1716941886.094334,172.16.3.2,5101,172.16.1.2,46654,10453,14480,0,65728,65700,6,6,4,1460,426,1,992,43,33580,0,65700,0,0,0,0,0
o,0x00000000,1716941886.094366,172.16.3.2,5101,172.16.1.2,46654,10453,14480,0,65728,65700,6,6,4,1460,426,1,993,43,33580,0,65700,1448,0,0,0,0
i,0x00000000,1716941886.116008,172.16.3.2,5101,172.16.1.2,46654,10453,14480,0,65728,65700,6,6,4,1460,426,1,992,43,33580,0,65700,0,0,0,0,0
i,0x00000000,1716941886.144360,172.16.3.2,5101,172.16.1.2,46654,10453,14480,0,65728,65700,6,6,4,1460,426,1,992,43,33580,0,65700,0,0,0,0,0
o,0x00000000,1716941886.144382,172.16.3.2,5101,172.16.1.2,46654,10453,14480,0,65728,65700,6,6,4,1460,426,1,993,43,33580,0,65700,1448,0,0,0,0
i,0x00000000,1716941886.184593,172.16.3.2,5101,172.16.1.2,46654,10453,14480,0,65728,65700,6,6,4,1460,426,1,992,43,33580,0,65700,0,0,0,0,0
i,0x00000000,1716941886.194861,172.16.3.2,5101,172.16.1.2,46654,10453,14480,0,65728,65700,6,6,4,1460,426,1,992,43,33580,0,65700,0,0,0,0,0
o,0x00000000,1716941886.194887,172.16.3.2,5101,172.16.1.2,46654,10453,14480,0,65728,65700,6,6,4,1460,426,1,993,43,33580,0,65700,1448,0,0,0,0
i,0x00000000,1716941886.204861,172.16.3.2,5101,172.16.1.2,46654,10453,14480,0,65728,65700,6,6,4,1460,426,1,992,43,33580,0,65700,0,0,0,0,0
o,0x00000000,1716941886.238370,172.16.3.2,5101,172.16.1.2,46654,10453,14480,0,65728,65700,6,6,4,1460,426,1,993,43,33580,0,65700,0,0,0,0,0
i,0x00000000,1716941886.244490,172.16.3.2,5101,172.16.1.2,46654,10453,14480,0,65728,65700,6,6,4,1460,426,1,992,43,33580,0,65700,0,0,0,0,0
i,0x00000000,1716941886.253880,172.16.3.2,5101,172.16.1.2,46654,10453,14480,0,65728,65700,6,6,4,1460,426,1,992,43,33580,0,65700,0,0,0,0,0
o,0x00000000,1716941886.253895,172.16.3.2,5101,172.16.1.2,46654,10453,14480,0,65728,65700,6,6,4,1460,426,1,993,43,33580,0,65700,1448,0,0,0,0
i,0x00000000,1716941886.264309,172.16.3.2,5101,172.16.1.2,46654,10453,14480,0,65728,65700,6,6,4,1460,426,1,992,43,33580,0,65700,0,0,0,0,0
o,0x00000000,1716941886.297592,172.16.3.2,5101,172.16.1.2,46654,10453,14480,0,65728,65700,6,6,4,1460,426,1,993,43,33580,0,65700,0,0,0,0,0
i,0x00000000,1716941886.304461,172.16.3.2,5101,172.16.1.2,46654,10453,14480,0,65728,65700,6,6,4,1460,426,1,992,43,33580,0,65700,0,0,0,0,0
o,0x00000000,1716941886.337820,172.16.3.2,5101,172.16.1.2,46654,10453,14480,0,65728,65700,6,6,4,1460,426,1,993,43,33580,0,65700,0,0,0,0,0
i,0x00000000,1716941886.354265,172.16.3.2,5101,172.16.1.2,46654,10453,14480,0,65728,65700,6,6,4,1460,426,1,992,43,33580,0,65700,0,0,0,0,0
i,0x00000000,1716941886.364470,172.16.3.2,5101,172.16.1.2,46654,10453,14480,0,65728,65700,6,6,4,1460,426,1,992,43,33580,0,65700,0,0,0,0,0
o,0x00000000,1716941886.364504,172.16.3.2,5101,172.16.1.2,46654,10453,14480,0,65728,65700,6,6,4,1460,426,1,993,43,33580,0,65700,1448,0,0,0,0
i,0x00000000,1716941886.403951,172.16.3.2,5101,172.16.1.2,46654,10453,14480,0,65728,65700,6,6,4,1460,426,1,992,43,33580,0,65700,0,0,0,0,0
i,0x00000000,1716941886.414271,172.16.3.2,5101,172.16.1.2,46654,10453,14480,0,65728,65700,6,6,4,1460,426,1,992,43,33580,0,65700,0,0,0,0,0
o,0x00000000,1716941886.414305,172.16.3.2,5101,172.16.1.2,46654,10453,14480,0,65728,65700,6,6,4,1460,426,1,993,43,33580,0,65700,1448,0,0,0,0
i,0x00000000,1716941886.445371,172.16.3.2,5101,172.16.1.2,46654,10453,14480,0,65728,65700,6,6,4,1460,426,1,992,43,33580,0,65700,0,0,0,0,0
i,0x00000000,1716941886.473567,172.16.3.2,5101,172.16.1.2,46654,10453,14480,0,65728,65700,6,6,4,1460,426,1,992,43,33580,0,65700,0,0,0,0,0
o,0x00000000,1716941886.473593,172.16.3.2,5101,172.16.1.2,46654,10453,14480,0,65728,65700,6,6,4,1460,426,1,993,43,33580,0,65700,1448,0,0,0,0
i,0x00000000,1716941886.484695,172.16.3.2,5101,172.16.1.2,46654,10453,14480,0,65728,65700,6,6,4,1460,426,1,992,43,33580,0,65700,0,0,0,0,0
i,0x00000000,1716941886.513960,172.16.3.2,5101,172.16.1.2,46654,10453,14480,0,65728,65700,6,6,4,1460,426,1,992,43,33580,0,65700,0,0,0,0,0
o,0x00000000,1716941886.513982,172.16.3.2,5101,172.16.1.2,46654,10453,14480,0,65728,65700,6,6,4,1460,426,1,993,43,33580,0,65700,1448,0,0,0,0
i,0x00000000,1716941886.524246,172.16.3.2,5101,172.16.1.2,46654,10453,14480,0,65728,65700,6,6,4,1460,426,1,992,43,33580,0,65700,0,0,0,0,0
i,0x00000000,1716941886.554624,172.16.3.2,5101,172.16.1.2,46654,10453,14480,0,65728,65700,6,6,4,1460,426,1,992,43,33580,0,65700,0,0,0,0,0
o,0x00000000,1716941886.554650,172.16.3.2,5101,172.16.1.2,46654,10453,14480,0,65728,65700,6,6,4,1460,426,1,993,43,33580,0,65700,1448,0,0,0,0
i,0x00000000,1716941886.573853,172.16.3.2,5101,172.16.1.2,46654,10453,14480,0,65728,65700,6,6,4,1460,426,1,992,43,33580,0,65700,0,0,0,0,0
i,0x00000000,1716941886.583408,172.16.3.2,5101,172.16.1.2,46654,10453,14480,0,65728,65700,6,6,4,1460,426,1,992,43,33580,0,65700,0,0,0,0,0
o,0x00000000,1716941886.583436,172.16.3.2,5101,172.16.1.2,46654,10453,14480,0,65728,65700,6,6,4,1460,426,1,993,43,33580,0,65700,1448,0,0,0,0
i,0x00000000,1716941886.623866,172.16.3.2,5101,172.16.1.2,46654,10453,14480,0,65728,65700,6,6,4,1460,426,1,992,43,33580,0,65700,0,0,0,0,0
i,0x00000000,1716941886.634420,172.16.3.2,5101,172.16.1.2,46654,10453,14480,0,65728,65700,6,6,4,1460,426,1,992,43,33580,0,65700,0,0,0,0,0
o,0x00000000,1716941886.634442,172.16.3.2,5101,172.16.1.2,46654,10453,14480,0,65728,65700,6,6,4,1460,426,1,993,43,33580,0,65700,1448,0,0,0,0
i,0x00000000,1716941886.714659,172.16.3.2,5101,172.16.1.2,46654,10453,14480,0,65728,65700,6,6,4,1460,426,1,992,43,33580,0,65700,0,0,0,0,0
o,0x00000000,1716941886.714682,172.16.3.2,5101,172.16.1.2,46654,10453,14480,0,65728,65700,6,6,4,1460,426,1,993,43,33580,0,65700,0,0,1,0,0
i,0x00000000,1716941886.724803,172.16.3.2,5101,172.16.1.2,46654,10453,14480,0,65728,65700,6,6,4,1460,426,1,992,43,33580,0,65700,0,0,1,0,0
o,0x00000000,1716941886.724810,172.16.3.2,5101,172.16.1.2,46654,10453,14480,0,65728,65728,6,6,4,1460,426,1,993,43,33580,0,65700,0,0,1,0,0
i,0x00000000,1716941886.733953,172.16.3.2,5101,172.16.1.2,46654,10453,14480,0,65728,65728,6,6,4,1460,426,1,992,43,33580,0,65700,0,0,1,0,0
o,0x00000000,1716941886.733962,172.16.3.2,5101,172.16.1.2,46654,10453,14480,0,65728,65728,6,6,4,1460,426,1,993,43,33580,0,65700,0,0,1,0,0
i,0x00000000,1716941886.755579,172.16.3.2,5101,172.16.1.2,46654,10453,14480,0,65728,65728,6,6,4,1460,426,1,992,43,33580,0,65700,0,0,1,0,0
o,0x00000000,1716941886.755606,172.16.3.2,5101,172.16.1.2,46654,10453,14480,0,65728,65728,6,6,4,1460,426,1,993,43,33580,0,65700,0,0,2,0,0
i,0x00000000,1716941886.783735,172.16.3.2,5101,172.16.1.2,46654,10453,14480,0,65728,65728,6,6,4,1460,426,1,992,43,33580,0,65700,0,0,2,0,0
o,0x00000000,1716941886.783762,172.16.3.2,5101,172.16.1.2,46654,10453,14480,0,65728,65728,6,6,4,1460,426,1,993,43,33580,0,65700,0,0,2,0,0
i,0x00000000,1716941886.794119,172.16.3.2,5101,172.16.1.2,46654,10453,14480,0,65728,65728,6,6,4,1460,426,1,992,43,33580,0,65700,0,0,2,0,0
o,0x00000000,1716941886.794152,172.16.3.2,5101,172.16.1.2,46654,10453,14480,0,65728,65728,6,6,4,1460,426,1,993,43,33580,0,65700,0,0,2,0,0
i,0x00000000,1716941886.804465,172.16.3.2,5101,172.16.1.2,46654,10453,14480,0,65728,65728,6,6,4,1460,426,1,992,43,33580,0,65700,0,0,2,0,0
o,0x00000000,1716941886.804501,172.16.3.2,5101,172.16.1.2,46654,10453,14480,0,65728,65728,6,6,4,1460,426,1,993,43,33580,0,65700,0,0,2,0,0
i,0x00000000,1716941886.824032,172.16.3.2,5101,172.16.1.2,46654,10453,14480,0,65728,65728,6,6,4,1460,426,1,992,43,33580,0,65700,0,0,2,0,0
o,0x00000000,1716941886.824055,172.16.3.2,5101,172.16.1.2,46654,10453,14480,0,65728,65728,6,6,4,1460,426,1,993,43,33580,0,65700,0,0,3,0,0
i,0x00000000,1716941886.864359,172.16.3.2,5101,172.16.1.2,46654,10453,14480,0,65728,65728,6,6,4,1460,426,1,992,43,33580,0,65700,0,0,3,0,0
o,0x00000000,1716941886.864379,172.16.3.2,5101,172.16.1.2,46654,10453,14480,0,65728,65728,6,6,4,1460,426,1,993,43,33580,0,65700,0,0,3,0,0
i,0x00000000,1716941886.873680,172.16.3.2,5101,172.16.1.2,46654,10453,14480,0,65728,65728,6,6,4,1460,426,1,992,43,33580,0,65700,0,0,3,0,0
o,0x00000000,1716941886.873701,172.16.3.2,5101,172.16.1.2,46654,10453,14480,0,65728,65728,6,6,4,1460,426,1,993,43,33580,0,65700,0,0,3,0,0
i,0x00000000,1716941886.883983,172.16.3.2,5101,172.16.1.2,46654,10453,14480,0,65728,65728,6,6,4,1460,426,1,992,43,33580,0,65700,0,0,3,0,0
o,0x00000000,1716941886.884010,172.16.3.2,5101,172.16.1.2,46654,10453,14480,0,65728,65728,6,6,4,1460,426,1,993,43,33580,0,65700,5792,0,2,0,0
i,0x00000000,1716941886.913955,172.16.3.2,5101,172.16.1.2,46654,10453,14480,0,65728,65728,6,6,4,1460,426,1,992,43,33580,0,65700,0,0,2,0,0
o,0x00000000,1716941886.913971,172.16.3.2,5101,172.16.1.2,46654,10453,14480,0,65728,65700,6,6,4,1460,426,1,993,43,33580,0,65700,0,0,2,0,0
i,0x00000000,1716941886.923451,172.16.3.2,5101,172.16.1.2,46654,10453,14480,0,65728,65700,6,6,4,1460,426,1,992,43,33580,0,65700,0,0,2,0,0
o,0x00000000,1716941886.923472,172.16.3.2,5101,172.16.1.2,46654,10453,14480,0,65728,65728,6,6,4,1460,426,1,993,43,33580,0,65700,0,0,2,0,0
o,0x00000000,1716941886.938241,10.0.2.15,22,10.0.2.2,62180,1073725440,14600,0,65535,65700,0,0,4,1460,1,0,4,24,33580,108,65700,0,0,0,0,0
i,0x00000000,1716941886.938880,10.0.2.15,22,10.0.2.2,62180,1073725440,14600,0,65535,65700,0,0,4,1460,1,0,4,24,33580,108,65700,0,108,0,0,0
i,0x00000000,1716941886.973338,172.16.3.2,5101,172.16.1.2,46654,10453,14480,0,65728,65728,6,6,4,1460,426,1,992,43,33580,0,65700,0,0,2,0,0
o,0x00000000,1716941886.973360,172.16.3.2,5101,172.16.1.2,46654,10453,14480,0,65728,65728,6,6,4,1460,426,1,993,43,33580,0,65700,7240,0,1,0,0
i,0x00000000,1716941887.013081,172.16.3.2,5101,172.16.1.2,46654,10453,14480,0,65728,65728,6,6,4,1460,426,1,992,43,33580,0,65700,0,0,1,0,0
o,0x00000000,1716941887.013113,172.16.3.2,5101,172.16.1.2,46654,10453,14480,0,65728,65700,6,6,4,1460,426,1,993,43,33580,0,65700,5792,0,0,0,0
i,0x00000000,1716941887.023443,172.16.3.2,5101,172.16.1.2,46654,10453,14480,0,65728,65700,6,6,4,1460,426,1,992,43,33580,0,65700,0,0,0,0,0
o,0x00000000,1716941887.023486,172.16.3.2,5101,172.16.1.2,46654,10453,14480,0,65728,65700,6,6,4,1460,426,1,993,43,33580,0,65700,0,0,1,0,0
i,0x00000000,1716941887.032727,172.16.3.2,5101,172.16.1.2,46654,10453,14480,0,65728,65700,6,6,4,1460,426,1,992,43,33580,0,65700,0,0,1,0,0
o,0x00000000,1716941887.032744,172.16.3.2,5101,172.16.1.2,46654,10453,14480,0,65728,65728,6,6,4,1460,426,1,993,43,33580,0,65700,0,0,1,0,0
i,0x00000000,1716941887.092669,172.16.3.2,5101,172.16.1.2,46654,10453,14480,0,65728,65728,6,6,4,1460,426,1,992,43,33580,0,65700,0,0,1,0,0
o,0x00000000,1716941887.092692,172.16.3.2,5101,172.16.1.2,46654,10453,14480,0,65728,65728,6,6,4,1460,426,1,993,43,33580,0,65700,0,0,1,0,0
i,0x00000000,1716941887.113170,172.16.3.2,5101,172.16.1.2,46654,10453,14480,0,65728,65728,6,6,4,1460,426,1,992,43,33580,0,65700,0,0,1,0,0
i,0x00000000,1716941887.183644,172.16.3.2,5101,172.16.1.2,46654,10453,14480,0,65728,65728,6,6,4,1460,426,1,992,43,33580,0,65700,0,0,1,0,0
o,0x00000000,1716941887.183661,172.16.3.2,5101,172.16.1.2,46654,10453,14480,0,65728,65728,6,6,4,1460,426,1,993,43,33580,0,65700,0,0,1,0,0
i,0x00000000,1716941887.193964,172.16.3.2,5101,172.16.1.2,46654,10453,14480,0,65728,65728,6,6,4,1460,426,1,992,43,33580,0,65700,0,0,1,0,0
o,0x00000000,1716941887.193979,172.16.3.2,5101,172.16.1.2,46654,10453,14480,0,65728,65728,6,6,4,1460,426,1,993,43,33580,0,65700,0,0,1,0,0
i,0x00000000,1716941887.203250,172.16.3.2,5101,172.16.1.2,46654,10453,14480,0,65728,65728,6,6,4,1460,426,1,992,43,33580,0,65700,0,0,1,0,0
o,0x00000000,1716941887.203265,172.16.3.2,5101,172.16.1.2,46654,10453,14480,0,65728,65728,6,6,4,1460,426,1,993,43,33580,0,65700,1448,0,1,0,0
i,0x00000000,1716941887.213546,172.16.3.2,5101,172.16.1.2,46654,10453,14480,0,65728,65728,6,6,4,1460,426,1,992,43,33580,0,65700,0,0,1,0,0
o,0x00000000,1716941887.213554,172.16.3.2,5101,172.16.1.2,46654,10453,14480,0,65728,65700,6,6,4,1460,426,1,993,43,33580,0,65700,1448,0,1,0,0
i,0x00000000,1716941887.233236,172.16.3.2,5101,172.16.1.2,46654,10453,14480,0,65728,65700,6,6,4,1460,426,1,992,43,33580,0,65700,0,0,1,0,0
o,0x00000000,1716941887.233243,172.16.3.2,5101,172.16.1.2,46654,10453,14480,0,65728,65700,6,6,4,1460,426,1,993,43,33580,0,65700,8688,0,0,0,0
i,0x00000000,1716941887.283546,172.16.3.2,5101,172.16.1.2,46654,10453,14480,0,65728,65700,6,6,4,1460,426,1,992,43,33580,0,65700,0,0,0,0,0
i,0x00000000,1716941887.294013,172.16.3.2,5101,172.16.1.2,46654,10453,14480,0,65728,65700,6,6,4,1460,426,1,992,43,33580,0,65700,0,0,0,0,0
o,0x00000000,1716941887.294022,172.16.3.2,5101,172.16.1.2,46654,10453,14480,0,65728,65700,6,6,4,1460,426,1,993,43,33580,0,65700,1448,0,0,0,0
i,0x00000000,1716941887.363085,172.16.3.2,5101,172.16.1.2,46654,10453,14480,0,65728,65700,6,6,4,1460,426,1,992,43,33580,0,65700,0,0,0,0,0
i,0x00000000,1716941887.372919,172.16.3.2,5101,172.16.1.2,46654,10453,14480,0,65728,65700,6,6,4,1460,426,1,992,43,33580,0,65700,0,0,0,0,0
o,0x00000000,1716941887.372933,172.16.3.2,5101,172.16.1.2,46654,10453,14480,0,65728,65700,6,6,4,1460,426,1,993,43,33580,0,65700,1448,0,0,0,0
i,0x00000000,1716941887.392582,172.16.3.2,5101,172.16.1.2,46654,10453,14480,0,65728,65700,6,6,4,1460,426,1,992,43,33580,0,65700,0,0,0,0,0
i,0x00000000,1716941887.402996,172.16.3.2,5101,172.16.1.2,46654,10453,14480,0,65728,65700,6,6,4,1460,426,1,992,43,33580,0,65700,0,0,0,0,0
o,0x00000000,1716941887.403014,172.16.3.2,5101,172.16.1.2,46654,10453,14480,0,65728,65700,6,6,4,1460,426,1,993,43,33580,0,65700,1448,0,0,0,0
i,0x00000000,1716941887.413564,172.16.3.2,5101,172.16.1.2,46654,10453,14480,0,65728,65700,6,6,4,1460,426,1,992,43,33580,0,65700,0,0,0,0,0
o,0x00000000,1716941887.448600,172.16.3.2,5101,172.16.1.2,46654,10453,14480,0,65728,65700,6,6,4,1460,426,1,993,43,33580,0,65700,0,0,0,0,0
i,0x00000000,1716941887.463218,172.16.3.2,5101,172.16.1.2,46654,10453,14480,0,65728,65700,6,6,4,1460,426,1,992,43,33580,0,65700,0,0,0,0,0
i,0x00000000,1716941887.472558,172.16.3.2,5101,172.16.1.2,46654,10453,14480,0,65728,65700,6,6,4,1460,426,1,992,43,33580,0,65700,0,0,0,0,0
o,0x00000000,1716941887.472566,172.16.3.2,5101,172.16.1.2,46654,10453,14480,0,65728,65700,6,6,4,1460,426,1,993,43,33580,0,65700,1448,0,0,0,0
i,0x00000000,1716941887.512862,172.16.3.2,5101,172.16.1.2,46654,10453,14480,0,65728,65700,6,6,4,1460,426,1,992,43,33580,0,65700,0,0,0,0,0
i,0x00000000,1716941887.523114,172.16.3.2,5101,172.16.1.2,46654,10453,14480,0,65728,65700,6,6,4,1460,426,1,992,43,33580,0,65700,0,0,0,0,0
o,0x00000000,1716941887.523120,172.16.3.2,5101,172.16.1.2,46654,10453,14480,0,65728,65700,6,6,4,1460,426,1,993,43,33580,0,65700,1448,0,0,0,0
i,0x00000000,1716941887.562832,172.16.3.2,5101,172.16.1.2,46654,10453,14480,0,65728,65700,6,6,4,1460,426,1,992,43,33580,0,65700,0,0,0,0,0
i,0x00000000,1716941887.583436,172.16.3.2,5101,172.16.1.2,46654,10453,14480,0,65728,65700,6,6,4,1460,426,1,992,43,33580,0,65700,0,0,0,0,0
o,0x00000000,1716941887.583447,172.16.3.2,5101,172.16.1.2,46654,10453,14480,0,65728,65700,6,6,4,1460,426,1,993,43,33580,0,65700,1448,0,0,0,0
i,0x00000000,1716941887.623047,172.16.3.2,5101,172.16.1.2,46654,10453,14480,0,65728,65700,6,6,4,1460,426,1,992,43,33580,0,65700,0,0,0,0,0
i,0x00000000,1716941887.633416,172.16.3.2,5101,172.16.1.2,46654,10453,14480,0,65728,65700,6,6,4,1460,426,1,992,43,33580,0,65700,0,0,0,0,0
o,0x00000000,1716941887.633430,172.16.3.2,5101,172.16.1.2,46654,10453,14480,0,65728,65700,6,6,4,1460,426,1,993,43,33580,0,65700,1448,0,0,0,0
i,0x00000000,1716941887.682899,172.16.3.2,5101,172.16.1.2,46654,10453,14480,0,65728,65700,6,6,4,1460,426,1,992,43,33580,0,65700,0,0,0,0,0
i,0x00000000,1716941887.692463,172.16.3.2,5101,172.16.1.2,46654,10453,14480,0,65728,65700,6,6,4,1460,426,1,992,43,33580,0,65700,0,0,0,0,0
o,0x00000000,1716941887.692475,172.16.3.2,5101,172.16.1.2,46654,10453,14480,0,65728,65700,6,6,4,1460,426,1,993,43,33580,0,65700,1448,0,0,0,0
i,0x00000000,1716941887.702539,172.16.3.2,5101,172.16.1.2,46654,10453,14480,0,65728,65700,6,6,4,1460,426,1,992,43,33580,0,65700,0,0,0,0,0
o,0x00000000,1716941887.737663,172.16.3.2,5101,172.16.1.2,46654,10453,14480,0,65728,65700,6,6,4,1460,426,1,993,43,33580,0,65700,0,0,0,0,0
i,0x00000000,1716941887.742835,172.16.3.2,5101,172.16.1.2,46654,10453,14480,0,65728,65700,6,6,4,1460,426,1,992,43,33580,0,65700,0,0,0,0,0
i,0x00000000,1716941887.752312,172.16.3.2,5101,172.16.1.2,46654,10453,14480,0,65728,65700,6,6,4,1460,426,1,992,43,33580,0,65700,0,0,0,0,0
o,0x00000000,1716941887.752319,172.16.3.2,5101,172.16.1.2,46654,10453,14480,0,65728,65700,6,6,4,1460,426,1,993,43,33580,0,65700,1448,0,0,0,0
i,0x00000000,1716941887.792531,172.16.3.2,5101,172.16.1.2,46654,10453,14480,0,65728,65700,6,6,4,1460,426,1,992,43,33580,0,65700,0,0,0,0,0
i,0x00000000,1716941887.801921,172.16.3.2,5101,172.16.1.2,46654,10453,14480,0,65728,65700,6,6,4,1460,426,1,992,43,33580,0,65700,0,0,0,0,0
o,0x00000000,1716941887.801927,172.16.3.2,5101,172.16.1.2,46654,10453,14480,0,65728,65700,6,6,4,1460,426,1,993,43,33580,0,65700,1448,0,0,0,0
i,0x00000000,1716941887.842207,172.16.3.2,5101,172.16.1.2,46654,10453,14480,0,65728,65700,6,6,4,1460,426,1,992,43,33580,0,65700,0,0,0,0,0
i,0x00000000,1716941887.852446,172.16.3.2,5101,172.16.1.2,46654,10453,14480,0,65728,65700,6,6,4,1460,426,1,992,43,33580,0,65700,0,0,0,0,0
o,0x00000000,1716941887.852454,172.16.3.2,5101,172.16.1.2,46654,10453,14480,0,65728,65700,6,6,4,1460,426,1,993,43,33580,0,65700,1448,0,0,0,0
i,0x00000000,1716941887.882568,172.16.3.2,5101,172.16.1.2,46654,10453,14480,0,65728,65700,6,6,4,1460,426,1,992,43,33580,0,65700,0,0,0,0,0
o,0x00000000,1716941887.917057,172.16.3.2,5101,172.16.1.2,46654,10453,14480,0,65728,65700,6,6,4,1460,426,1,993,43,33580,0,65700,0,0,0,0,0
i,0x00000000,1716941887.922253,172.16.3.2,5101,172.16.1.2,46654,10453,14480,0,65728,65700,6,6,4,1460,426,1,992,43,33580,0,65700,0,0,0,0,0
o,0x00000000,1716941887.937723,10.0.2.15,22,10.0.2.2,62180,1073725440,14600,0,65535,65700,0,0,4,1460,1,0,4,24,33580,108,65700,0,0,0,0,0
i,0x00000000,1716941887.938436,10.0.2.15,22,10.0.2.2,62180,1073725440,14600,0,65535,65700,0,0,4,1460,1,0,4,24,33580,108,65700,0,108,0,0,0
i,0x00000000,1716941887.941943,172.16.3.2,5101,172.16.1.2,46654,10453,14480,0,65728,65700,6,6,4,1460,426,1,992,43,33580,0,65700,0,0,0,0,0
o,0x00000000,1716941887.941951,172.16.3.2,5101,172.16.1.2,46654,10453,14480,0,65728,65700,6,6,4,1460,426,1,993,43,33580,0,65700,1448,0,0,0,0
i,0x00000000,1716941887.972270,172.16.3.2,5101,172.16.1.2,46654,10453,14480,0,65728,65700,6,6,4,1460,426,1,992,43,33580,0,65700,0,0,0,0,0
i,0x00000000,1716941887.992805,172.16.3.2,5101,172.16.1.2,46654,10453,14480,0,65728,65700,6,6,4,1460,426,1,992,43,33580,0,65700,0,0,0,0,0
o,0x00000000,1716941887.992828,172.16.3.2,5101,172.16.1.2,46654,10453,14480,0,65728,65700,6,6,4,1460,426,1,993,43,33580,0,65700,1448,0,0,0,0
i,0x00000000,1716941888.002000,172.16.3.2,5101,172.16.1.2,46654,10453,14480,0,65728,65700,6,6,4,1460,426,1,992,43,33580,0,65700,0,0,0,0,0
i,0x00000000,1716941888.032218,172.16.3.2,5101,172.16.1.2,46654,10453,14480,0,65728,65700,6,6,4,1460,426,1,992,43,33580,0,65700,0,0,0,0,0
o,0x00000000,1716941888.032286,172.16.3.2,5101,172.16.1.2,46654,10453,14480,0,65728,65700,6,6,4,1460,426,1,993,43,33580,0,65700,1448,0,0,0,0
i,0x00000000,1716941888.051798,172.16.3.2,5101,172.16.1.2,46654,10453,14480,0,65728,65700,6,6,4,1460,426,1,992,43,33580,0,65700,0,0,0,0,0
o,0x00000000,1716941888.088312,172.16.3.2,5101,172.16.1.2,46654,10453,14480,0,65728,65700,6,6,4,1460,426,1,993,43,33580,0,65700,0,0,0,0,0
i,0x00000000,1716941888.101859,172.16.3.2,5101,172.16.1.2,46654,10453,14480,0,65728,65700,6,6,4,1460,426,1,992,43,33580,0,65700,0,0,0,0,0
i,0x00000000,1716941888.112306,172.16.3.2,5101,172.16.1.2,46654,10453,14480,0,65728,65700,6,6,4,1460,426,1,992,43,33580,0,65700,0,0,0,0,0
o,0x00000000,1716941888.112327,172.16.3.2,5101,172.16.1.2,46654,10453,14480,0,65728,65700,6,6,4,1460,426,1,993,43,33580,0,65700,1448,0,0,0,0
i,0x00000000,1716941888.161624,172.16.3.2,5101,172.16.1.2,46654,10453,14480,0,65728,65700,6,6,4,1460,426,1,992,43,33580,0,65700,0,0,0,0,0
i,0x00000000,1716941888.172597,172.16.3.2,5101,172.16.1.2,46654,10453,14480,0,65728,65700,6,6,4,1460,426,1,992,43,33580,0,65700,0,0,0,0,0
o,0x00000000,1716941888.172626,172.16.3.2,5101,172.16.1.2,46654,10453,14480,0,65728,65700,6,6,4,1460,426,1,993,43,33580,0,65700,1448,0,0,0,0
i,0x00000000,1716941888.181846,172.16.3.2,5101,172.16.1.2,46654,10453,14480,0,65728,65700,6,6,4,1460,426,1,992,43,33580,0,65700,0,0,0,0,0
o,0x00000000,1716941888.217999,172.16.3.2,5101,172.16.1.2,46654,10453,14480,0,65728,65700,6,6,4,1460,426,1,993,43,33580,0,65700,0,0,0,0,0
i,0x00000000,1716941888.221480,172.16.3.2,5101,172.16.1.2,46654,10453,14480,0,65728,65700,6,6,4,1460,426,1,992,43,33580,0,65700,0,0,0,0,0
i,0x00000000,1716941888.231777,172.16.3.2,5101,172.16.1.2,46654,10453,14480,0,65728,65700,6,6,4,1460,426,1,992,43,33580,0,65700,0,0,0,0,0
o,0x00000000,1716941888.231798,172.16.3.2,5101,172.16.1.2,46654,10453,14480,0,65728,65700,6,6,4,1460,426,1,993,43,33580,0,65700,1448,0,0,0,0
i,0x00000000,1716941888.243725,172.16.3.2,5101,172.16.1.2,46654,10453,14480,0,65728,65700,6,6,4,1460,426,1,992,43,33580,0,65700,0,0,0,0,0
o,0x00000000,1716941888.276885,172.16.3.2,5101,172.16.1.2,46654,10453,14480,0,65728,65700,6,6,4,1460,426,1,993,43,33580,0,65700,0,0,0,0,0
i,0x00000000,1716941888.291582,172.16.3.2,5101,172.16.1.2,46654,10453,14480,0,65728,65700,6,6,4,1460,426,1,992,43,33580,0,65700,0,0,0,0,0
i,0x00000000,1716941888.300927,172.16.3.2,5101,172.16.1.2,46654,10453,14480,0,65728,65700,6,6,4,1460,426,1,992,43,33580,0,65700,0,0,0,0,0
o,0x00000000,1716941888.300940,172.16.3.2,5101,172.16.1.2,46654,10453,14480,0,65728,65700,6,6,4,1460,426,1,993,43,33580,0,65700,1448,0,0,0,0
i,0x00000000,1716941888.342363,172.16.3.2,5101,172.16.1.2,46654,10453,14480,0,65728,65700,6,6,4,1460,426,1,992,43,33580,0,65700,0,0,0,0,0
i,0x00000000,1716941888.352774,172.16.3.2,5101,172.16.1.2,46654,10453,14480,0,65728,65700,6,6,4,1460,426,1,992,43,33580,0,65700,0,0,0,0,0
