enable_time_secs=1716946115	enable_time_usecs=079783	siftrver=1.2.4	hz=100	tcp_rtt_scale=32	sysname=FreeBSD	sysver=1301000	ipmode=4
o,0x00000000,1716946115.079827,10.0.2.15,22,10.0.2.2,49834,1073725440,17298,0,65535,65700,0,0,4,1460,1,0,4,24,33580,44,65700,0,0,0,0,0
o,0x00000000,1716946115.079936,10.0.2.15,22,10.0.2.2,49834,1073725440,17298,0,65535,65700,0,0,4,1460,1,0,4,24,33580,80,65700,0,44,0,0,0
i,0x00000000,1716946115.080533,10.0.2.15,22,10.0.2.2,49834,1073725440,17298,0,65535,65700,0,0,4,1460,1,0,4,24,33580,80,65700,0,80,0,0,0
i,0x00000000,1716946115.080609,10.0.2.15,22,10.0.2.2,49834,1073725440,17342,0,65535,65700,0,0,4,1460,1,0,4,24,33580,36,65700,0,36,0,0,0
o,0x00000000,1716946115.080670,10.0.2.15,22,10.0.2.2,49834,1073725440,17378,0,65535,65700,0,0,4,1460,1,0,4,24,33580,36,65700,0,0,0,0,0
i,0x00000000,1716946115.081168,10.0.2.15,22,10.0.2.2,49834,1073725440,17378,0,65535,65700,0,0,4,1460,1,0,4,24,33580,36,65700,0,36,0,0,0
o,0x00000000,1716946115.081242,10.0.2.15,22,10.0.2.2,49834,1073725440,17414,0,65535,65700,0,0,4,1460,1,0,4,24,33580,36,65700,0,0,0,0,0
i,0x00000000,1716946115.081896,10.0.2.15,22,10.0.2.2,49834,1073725440,17414,0,65535,65700,0,0,4,1460,1,0,4,24,33580,36,65700,0,36,0,0,0
o,0x00000000,1716946115.082005,10.0.2.15,22,10.0.2.2,49834,1073725440,17450,0,65535,65700,0,0,4,1460,1,0,4,24,33580,140,65700,0,0,0,0,0
i,0x00000000,1716946115.082624,10.0.2.15,22,10.0.2.2,49834,1073725440,17450,0,65535,65700,0,0,4,1460,1,0,4,24,33580,140,65700,0,140,0,0,0
i,0x00000000,1716946115.082981,10.0.2.15,22,10.0.2.2,49834,1073725440,17590,0,65535,65700,0,0,4,1460,1,0,4,24,33580,0,65700,0,0,0,0,0
i,0x00000000,1716946115.082983,10.0.2.15,22,10.0.2.2,49834,1073725440,17590,0,65535,65700,0,0,4,1460,1,0,4,24,33580,0,65700,36,0,0,0,0
o,0x00000000,1716946115.082985,10.0.2.15,22,10.0.2.2,49834,1073725440,17590,0,65535,65700,0,0,4,1460,1,0,5,24,33580,0,65700,96,0,0,0,0
i,0x00000000,1716946115.083057,10.0.2.15,22,10.0.2.2,49834,1073725440,17590,0,65535,65700,0,0,4,1460,1,0,4,24,33580,0,65700,96,0,0,0,0
o,0x00000000,1716946115.083060,10.0.2.15,22,10.0.2.2,49834,1073725440,17590,0,65535,65604,0,0,5,1460,1,0,7,24,33580,0,65700,96,0,0,0,0
o,0x00000000,1716946115.083646,10.0.2.15,22,10.0.2.2,49834,1073725440,17590,0,65535,65604,0,0,8,1460,1,0,4,24,33580,0,65700,0,0,0,0,0
i,0x00000000,1716946115.084083,10.0.2.15,22,10.0.2.2,49834,1073725440,17590,0,65535,65604,0,0,8,1460,1,0,20,24,33580,0,65700,0,1,0,0,0
i,0x00000000,1716946117.277242,10.0.2.15,22,10.0.2.2,49836,1073725440,14600,0,65535,65700,0,0,4,1460,1,0,0,27,33580,0,65700,0,0,0,0,0
o,0x00000000,1716946117.286506,10.0.2.15,22,10.0.2.2,49836,1073725440,14600,0,65535,65700,0,0,4,1460,1,0,0,27,33580,38,65700,41,0,0,0,0
i,0x00000000,1716946117.287277,10.0.2.15,22,10.0.2.2,49836,1073725440,14600,0,65535,65700,0,0,4,1460,1,0,0,27,33580,38,65700,0,38,0,0,0
o,0x00000000,1716946117.287752,10.0.2.15,22,10.0.2.2,49836,1073725440,14638,0,65535,65700,0,0,4,1460,1,0,0,24,33580,1056,65700,0,0,0,0,0
i,0x00000000,1716946117.288366,10.0.2.15,22,10.0.2.2,49836,1073725440,14638,0,65535,65700,0,0,4,1460,1,0,0,24,33580,1056,65700,0,1056,0,0,0
i,0x00000000,1716946117.288369,10.0.2.15,22,10.0.2.2,49836,1073725440,14638,0,65535,65700,0,0,4,1460,1,0,0,24,33580,1056,65700,1460,1056,0,0,0
o,0x00000000,1716946117.288372,10.0.2.15,22,10.0.2.2,49836,1073725440,14638,0,65535,65700,0,0,4,1460,1,0,1,24,33580,1056,65700,1536,1056,0,0,0
i,0x00000000,1716946117.288452,10.0.2.15,22,10.0.2.2,49836,1073725440,14638,0,65535,65700,0,0,4,1460,1,0,0,24,33580,1056,65700,1536,1056,0,0,0
i,0x00000000,1716946117.290136,10.0.2.15,22,10.0.2.2,49836,1073725440,15694,0,65535,65700,0,0,4,1460,1,0,0,24,33580,0,65700,0,0,0,0,0
o,0x00000000,1716946117.292509,10.0.2.15,22,10.0.2.2,49836,1073725440,15694,0,65535,65700,0,0,4,1460,1,0,0,24,33580,484,65700,0,0,0,0,0
i,0x00000000,1716946117.293283,10.0.2.15,22,10.0.2.2,49836,1073725440,15694,0,65535,65700,0,0,4,1460,1,0,0,24,33580,484,65700,0,484,0,0,0
i,0x00000000,1716946117.298057,10.0.2.15,22,10.0.2.2,49836,1073725440,16178,0,65535,65700,0,0,4,1460,1,0,0,24,33580,0,65700,0,0,0,0,0
i,0x00000000,1716946117.303145,10.0.2.15,22,10.0.2.2,49836,1073725440,16178,0,65535,65700,0,0,4,1460,1,0,0,24,33580,0,65700,0,0,0,0,0
o,0x00000000,1716946117.303150,10.0.2.15,22,10.0.2.2,49836,1073725440,16178,0,65535,65700,0,0,4,1460,1,0,1,24,33580,0,65700,44,0,0,0,0
o,0x00000000,1716946117.303301,10.0.2.15,22,10.0.2.2,49836,1073725440,16178,0,65535,65700,0,0,4,1460,1,0,0,24,33580,44,65700,0,0,0,0,0
i,0x00000000,1716946117.303940,10.0.2.15,22,10.0.2.2,49836,1073725440,16178,0,65535,65700,0,0,4,1460,1,0,0,24,33580,44,65700,0,44,0,0,0
i,0x00000000,1716946117.304264,10.0.2.15,22,10.0.2.2,49836,1073725440,16222,0,65535,65700,0,0,4,1460,1,0,0,24,33580,0,65700,0,0,0,0,0
o,0x00000000,1716946117.313697,10.0.2.15,22,10.0.2.2,49836,1073725440,16222,0,65535,65700,0,0,4,1460,1,0,0,24,33580,68,65700,0,0,0,0,0
i,0x00000000,1716946117.314415,10.0.2.15,22,10.0.2.2,49836,1073725440,16222,0,65535,65700,0,0,4,1460,1,0,0,24,33580,68,65700,0,68,0,0,0
i,0x00000000,1716946117.316618,10.0.2.15,22,10.0.2.2,49836,1073725440,16290,0,65535,65700,0,0,4,1460,1,0,0,24,33580,0,65700,0,0,0,0,0
o,0x00000000,1716946117.327137,10.0.2.15,22,10.0.2.2,49836,1073725440,16290,0,65535,65700,0,0,4,1460,1,0,0,24,33580,28,65700,0,0,0,0,0
i,0x00000000,1716946117.327787,10.0.2.15,22,10.0.2.2,49836,1073725440,16290,0,65535,65700,0,0,4,1460,1,0,0,24,33580,28,65700,0,28,0,0,0
i,0x00000000,1716946117.328387,10.0.2.15,22,10.0.2.2,49836,1073725440,16318,0,65535,65700,0,0,4,1460,1,0,0,24,33580,0,65700,0,0,0,0,0
o,0x00000000,1716946117.328920,10.0.2.15,22,10.0.2.2,49836,1073725440,16318,0,65535,65700,0,0,4,1460,1,0,0,24,33580,768,65700,112,0,0,0,0
i,0x00000000,1716946117.329559,10.0.2.15,22,10.0.2.2,49836,1073725440,16318,0,65535,65700,0,0,4,1460,1,0,0,24,33580,768,65700,112,768,0,0,0
o,0x00000000,1716946117.329658,10.0.2.15,22,10.0.2.2,49836,1073725440,17086,0,65535,65700,0,0,4,1460,1,0,0,24,33580,44,65700,0,0,0,0,0
i,0x00000000,1716946117.330288,10.0.2.15,22,10.0.2.2,49836,1073725440,17086,0,65535,65700,0,0,4,1460,1,0,0,24,33580,44,65700,0,44,0,0,0
i,0x00000000,1716946117.330817,10.0.2.15,22,10.0.2.2,49836,1073725440,17130,0,65535,65700,0,0,4,1460,1,0,0,24,33580,0,65700,0,0,0,0,0
o,0x00000000,1716946117.331124,10.0.2.15,22,10.0.2.2,49836,1073725440,17130,0,65535,65700,0,0,4,1460,1,0,4,24,33580,72,65700,0,0,0,0,0
i,0x00000000,1716946117.331775,10.0.2.15,22,10.0.2.2,49836,1073725440,17130,0,65535,65700,0,0,4,1460,1,0,4,24,33580,72,65700,0,72,0,0,0
o,0x00000000,1716946117.334291,10.0.2.15,22,10.0.2.2,49836,1073725440,17202,0,65535,65700,0,0,4,1460,1,0,4,24,33580,44,65700,0,0,0,0,0
i,0x00000000,1716946117.334827,10.0.2.15,22,10.0.2.2,49836,1073725440,17202,0,65535,65700,0,0,4,1460,1,0,4,24,33580,44,65700,0,44,0,0,0
o,0x00000000,1716946117.335185,10.0.2.15,22,10.0.2.2,49836,1073725440,17246,0,65535,65700,0,0,4,1460,1,0,4,24,33580,44,65700,0,0,0,0,0
i,0x00000000,1716946117.335941,10.0.2.15,22,10.0.2.2,49836,1073725440,17246,0,65535,65700,0,0,4,1460,1,0,4,24,33580,44,65700,0,44,0,0,0
o,0x00000000,1716946117.338612,10.0.2.15,22,10.0.2.2,49836,1073725440,17290,0,65535,65700,0,0,4,1460,1,0,4,24,33580,176,65700,0,0,0,0,0
i,0x00000000,1716946117.339098,10.0.2.15,22,10.0.2.2,49836,1073725440,17290,0,65535,65700,0,0,4,1460,1,0,4,24,33580,176,65700,0,176,0,0,0
i,0x00000000,1716946117.339685,10.0.2.15,22,10.0.2.2,49836,1073725440,17466,0,65535,65700,0,0,4,1460,1,0,4,24,33580,0,65700,0,0,0,0,0
i,0x00000000,1716946117.339688,10.0.2.15,22,10.0.2.2,49836,1073725440,17466,0,65535,65700,0,0,4,1460,1,0,4,24,33580,0,65700,36,0,0,0,0
o,0x00000000,1716946117.339690,10.0.2.15,22,10.0.2.2,49836,1073725440,17466,0,65535,65700,0,0,4,1460,1,0,5,24,33580,0,65700,96,0,0,0,0
i,0x00000000,1716946117.339764,10.0.2.15,22,10.0.2.2,49836,1073725440,17466,0,65535,65700,0,0,4,1460,1,0,4,24,33580,0,65700,96,0,0,0,0
o,0x00000000,1716946117.339767,10.0.2.15,22,10.0.2.2,49836,1073725440,17466,0,65535,65604,0,0,5,1460,1,0,7,24,33580,0,65700,96,0,0,0,0
o,0x00000000,1716946117.346107,10.0.2.15,22,10.0.2.2,49836,1073725440,17466,0,65535,65604,0,0,8,1460,1,0,4,24,33580,0,65700,0,0,0,0,0
i,0x00000000,1716946117.347139,10.0.2.15,22,10.0.2.2,49836,1073725440,17466,0,65535,65604,0,0,8,1460,1,0,20,24,33580,0,65700,0,1,0,0,0
i,0x00000000,1716946117.584068,172.16.3.2,5101,172.16.1.2,23289,10123,14480,0,65728,65700,6,6,4,1460,852,1,992,136,33580,0,65700,0,0,0,0,0
o,0x00000000,1716946117.584186,172.16.3.2,5101,172.16.1.2,23289,10123,14480,0,65728,65700,6,6,4,1460,852,1,996,136,33580,1,65700,0,0,0,0,0
i,0x00000000,1716946117.702938,172.16.3.2,5101,172.16.1.2,23289,10123,14480,0,65728,65700,6,6,4,1460,852,1,996,136,33580,1,65700,0,1,0,0,0
i,0x00000000,1716946117.702977,172.16.3.2,5101,172.16.1.2,23289,10123,14480,0,65728,65728,6,6,4,1460,794,1,996,126,33580,0,65700,4,0,0,0,0
o,0x00000000,1716946117.702985,172.16.3.2,5101,172.16.1.2,23289,10123,14480,0,65728,65728,6,6,4,1460,794,1,997,126,33580,0,65700,128,0,0,0,0
o,0x00000000,1716946117.703486,172.16.3.2,5101,172.16.1.2,23289,10123,14480,0,65728,65728,6,6,4,1460,794,1,996,126,33580,1,65700,0,0,0,0,0
o,0x00000000,1716946117.703698,10.0.2.15,22,10.0.2.2,62180,1073725440,14600,0,65535,65700,0,0,4,1460,1,0,4,24,33580,84,65700,0,0,0,0,0
i,0x00000000,1716946117.704514,10.0.2.15,22,10.0.2.2,62180,1073725440,14600,0,65535,65700,0,0,4,1460,1,0,4,24,33580,84,65700,0,84,0,0,0
i,0x00000000,1716946117.853047,172.16.3.2,5101,172.16.1.2,23289,10123,14480,0,65728,65728,6,6,4,1460,794,1,996,126,33580,1,65700,0,1,0,0,0
i,0x00000000,1716946117.943544,172.16.3.2,5101,172.16.1.2,38165,10123,14480,0,65728,65700,6,6,4,1460,852,1,992,136,33580,0,65700,0,0,0,0,0
o,0x00000000,1716946117.945927,172.16.3.2,5101,172.16.1.2,23289,10123,14480,0,65728,65728,6,6,4,1460,755,1,996,114,33580,1,65700,0,0,0,0,0
o,0x00000000,1716946117.946042,172.16.3.2,5101,172.16.1.2,23289,10123,14480,0,65728,65728,6,6,4,1460,755,1,996,114,33580,2,65700,0,1,0,0,0
o,0x00000000,1716946117.946455,10.0.2.15,22,10.0.2.2,62180,1073725440,14600,0,65535,65700,0,0,4,1460,1,0,4,24,33580,108,65700,0,0,0,0,0
i,0x00000000,1716946117.947191,10.0.2.15,22,10.0.2.2,62180,1073725440,14600,0,65535,65700,0,0,4,1460,1,0,4,24,33580,108,65700,0,108,0,0,0
o,0x00000000,1716946117.977964,172.16.3.2,5101,172.16.1.2,38165,10123,14480,0,65728,65700,6,6,4,1460,852,1,993,136,33580,0,65700,0,0,0,0,0
i,0x00000000,1716946118.132749,172.16.3.2,5101,172.16.1.2,23289,10123,14480,0,65728,65728,6,6,4,1460,755,1,996,114,33580,2,65700,0,2,0,0,0
i,0x00000000,1716946118.162031,172.16.3.2,5101,172.16.1.2,38165,10123,14480,0,65728,65700,6,6,4,1460,852,1,992,136,33580,0,65700,0,0,0,0,0
i,0x00000000,1716946118.172440,172.16.3.2,5101,172.16.1.2,38165,10123,14480,0,65728,65700,6,6,4,1460,852,1,992,136,33580,0,65700,0,0,0,0,0
o,0x00000000,1716946118.172450,172.16.3.2,5101,172.16.1.2,38165,10123,14480,0,65728,65700,6,6,4,1460,852,1,993,136,33580,0,65700,1448,0,0,0,0
i,0x00000000,1716946118.182708,172.16.3.2,5101,172.16.1.2,38165,10123,14480,0,65728,65700,6,6,4,1460,852,1,992,136,33580,0,65700,0,0,0,0,0
i,0x00000000,1716946118.193109,172.16.3.2,5101,172.16.1.2,38165,10123,14480,0,65728,65700,6,6,4,1460,852,1,992,136,33580,0,65700,0,0,0,0,0
o,0x00000000,1716946118.193117,172.16.3.2,5101,172.16.1.2,38165,10123,14480,0,65728,65700,6,6,4,1460,852,1,993,136,33580,0,65700,1448,0,0,0,0
i,0x00000000,1716946118.212840,172.16.3.2,5101,172.16.1.2,38165,10123,14480,0,65728,65700,6,6,4,1460,852,1,992,136,33580,0,65700,0,0,0,0,0
i,0x00000000,1716946118.222252,172.16.3.2,5101,172.16.1.2,38165,10123,14480,0,65728,65700,6,6,4,1460,852,1,992,136,33580,0,65700,0,0,0,0,0
o,0x00000000,1716946118.222261,172.16.3.2,5101,172.16.1.2,38165,10123,14480,0,65728,65700,6,6,4,1460,852,1,993,136,33580,0,65700,1448,0,0,0,0
i,0x00000000,1716946118.232498,172.16.3.2,5101,172.16.1.2,38165,10123,14480,0,65728,65700,6,6,4,1460,852,1,992,136,33580,0,65700,0,0,0,0,0
i,0x00000000,1716946118.242886,172.16.3.2,5101,172.16.1.2,38165,10123,14480,0,65728,65700,6,6,4,1460,852,1,992,136,33580,0,65700,0,0,0,0,0
o,0x00000000,1716946118.242892,172.16.3.2,5101,172.16.1.2,38165,10123,14480,0,65728,65700,6,6,4,1460,852,1,993,136,33580,0,65700,1448,0,0,0,0
i,0x00000000,1716946118.252391,172.16.3.2,5101,172.16.1.2,38165,10123,14480,0,65728,65700,6,6,4,1460,852,1,992,136,33580,0,65700,0,0,0,0,0
i,0x00000000,1716946118.272995,172.16.3.2,5101,172.16.1.2,38165,10123,14480,0,65728,65700,6,6,4,1460,852,1,992,136,33580,0,65700,0,0,0,0,0
o,0x00000000,1716946118.273001,172.16.3.2,5101,172.16.1.2,38165,10123,14480,0,65728,65700,6,6,4,1460,852,1,993,136,33580,0,65700,1448,0,0,0,0
i,0x00000000,1716946118.512956,172.16.3.2,5101,172.16.1.2,38165,10123,14480,0,65728,65700,6,6,4,1460,852,1,992,136,33580,0,65700,0,0,0,0,0
i,0x00000000,1716946118.522401,172.16.3.2,5101,172.16.1.2,38165,10123,14480,0,65728,65700,6,6,4,1460,852,1,992,136,33580,0,65700,0,0,0,0,0
o,0x00000000,1716946118.522418,172.16.3.2,5101,172.16.1.2,38165,10123,14480,0,65728,65700,6,6,4,1460,852,1,993,136,33580,0,65700,1448,0,0,0,0
i,0x00000000,1716946118.531759,172.16.3.2,5101,172.16.1.2,38165,10123,14480,0,65728,65700,6,6,4,1460,852,1,992,136,33580,0,65700,0,0,0,0,0
i,0x00000000,1716946118.542334,172.16.3.2,5101,172.16.1.2,38165,10123,14480,0,65728,65700,6,6,4,1460,852,1,992,136,33580,0,65700,0,0,0,0,0
o,0x00000000,1716946118.542342,172.16.3.2,5101,172.16.1.2,38165,10123,14480,0,65728,65700,6,6,4,1460,852,1,993,136,33580,0,65700,1448,0,0,0,0
i,0x00000000,1716946118.552587,172.16.3.2,5101,172.16.1.2,38165,10123,14480,0,65728,65700,6,6,4,1460,852,1,992,136,33580,0,65700,0,0,0,0,0
i,0x00000000,1716946118.573201,172.16.3.2,5101,172.16.1.2,38165,10123,14480,0,65728,65700,6,6,4,1460,852,1,992,136,33580,0,65700,0,0,0,0,0
o,0x00000000,1716946118.573207,172.16.3.2,5101,172.16.1.2,38165,10123,14480,0,65728,65700,6,6,4,1460,852,1,993,136,33580,0,65700,1448,0,0,0,0
i,0x00000000,1716946118.581933,172.16.3.2,5101,172.16.1.2,38165,10123,14480,0,65728,65700,6,6,4,1460,852,1,992,136,33580,0,65700,0,0,0,0,0
i,0x00000000,1716946118.592288,172.16.3.2,5101,172.16.1.2,38165,10123,14480,0,65728,65700,6,6,4,1460,852,1,992,136,33580,0,65700,0,0,0,0,0
o,0x00000000,1716946118.592294,172.16.3.2,5101,172.16.1.2,38165,10123,14480,0,65728,65700,6,6,4,1460,852,1,993,136,33580,0,65700,1448,0,0,0,0
i,0x00000000,1716946118.602597,172.16.3.2,5101,172.16.1.2,38165,10123,14480,0,65728,65700,6,6,4,1460,852,1,992,136,33580,0,65700,0,0,0,0,0
i,0x00000000,1716946118.612921,172.16.3.2,5101,172.16.1.2,38165,10123,14480,0,65728,65700,6,6,4,1460,852,1,992,136,33580,0,65700,0,0,0,0,0
o,0x00000000,1716946118.612929,172.16.3.2,5101,172.16.1.2,38165,10123,14480,0,65728,65700,6,6,4,1460,852,1,993,136,33580,0,65700,1448,0,0,0,0
i,0x00000000,1716946118.632617,172.16.3.2,5101,172.16.1.2,38165,10123,14480,0,65728,65700,6,6,4,1460,852,1,992,136,33580,0,65700,0,0,0,0,0
i,0x00000000,1716946118.643093,172.16.3.2,5101,172.16.1.2,38165,10123,14480,0,65728,65700,6,6,4,1460,852,1,992,136,33580,0,65700,0,0,0,0,0
o,0x00000000,1716946118.643101,172.16.3.2,5101,172.16.1.2,38165,10123,14480,0,65728,65700,6,6,4,1460,852,1,993,136,33580,0,65700,1448,0,0,0,0
i,0x00000000,1716946118.652326,172.16.3.2,5101,172.16.1.2,38165,10123,14480,0,65728,65700,6,6,4,1460,852,1,992,136,33580,0,65700,0,0,0,0,0
i,0x00000000,1716946118.662615,172.16.3.2,5101,172.16.1.2,38165,10123,14480,0,65728,65700,6,6,4,1460,852,1,992,136,33580,0,65700,0,0,0,0,0
o,0x00000000,1716946118.662623,172.16.3.2,5101,172.16.1.2,38165,10123,14480,0,65728,65700,6,6,4,1460,852,1,993,136,33580,0,65700,1448,0,0,0,0
i,0x00000000,1716946118.912246,172.16.3.2,5101,172.16.1.2,38165,10123,14480,0,65728,65700,6,6,4,1460,852,1,992,136,33580,0,65700,0,0,0,0,0
i,0x00000000,1716946118.922564,172.16.3.2,5101,172.16.1.2,38165,10123,14480,0,65728,65700,6,6,4,1460,852,1,992,136,33580,0,65700,0,0,0,0,0
o,0x00000000,1716946118.922575,172.16.3.2,5101,172.16.1.2,38165,10123,14480,0,65728,65700,6,6,4,1460,852,1,993,136,33580,0,65700,1448,0,0,0,0
i,0x00000000,1716946118.931834,172.16.3.2,5101,172.16.1.2,38165,10123,14480,0,65728,65700,6,6,4,1460,852,1,992,136,33580,0,65700,0,0,0,0,0
i,0x00000000,1716946118.942171,172.16.3.2,5101,172.16.1.2,38165,10123,14480,0,65728,65700,6,6,4,1460,852,1,992,136,33580,0,65700,0,0,0,0,0
o,0x00000000,1716946118.942177,172.16.3.2,5101,172.16.1.2,38165,10123,14480,0,65728,65700,6,6,4,1460,852,1,993,136,33580,0,65700,1448,0,0,0,0
o,0x00000000,1716946118.957599,10.0.2.15,22,10.0.2.2,62180,1073725440,14600,0,65535,65700,0,0,4,1460,1,0,4,24,33580,156,65700,0,0,0,0,0
i,0x00000000,1716946118.958325,10.0.2.15,22,10.0.2.2,62180,1073725440,14600,0,65535,65700,0,0,4,1460,1,0,4,24,33580,156,65700,0,156,0,0,0
i,0x00000000,1716946118.962784,172.16.3.2,5101,172.16.1.2,38165,10123,14480,0,65728,65700,6,6,4,1460,852,1,992,136,33580,0,65700,0,0,0,0,0
i,0x00000000,1716946118.972124,172.16.3.2,5101,172.16.1.2,38165,10123,14480,0,65728,65700,6,6,4,1460,852,1,992,136,33580,0,65700,0,0,0,0,0
o,0x00000000,1716946118.972132,172.16.3.2,5101,172.16.1.2,38165,10123,14480,0,65728,65700,6,6,4,1460,852,1,993,136,33580,0,65700,1448,0,0,0,0
i,0x00000000,1716946118.982410,172.16.3.2,5101,172.16.1.2,38165,10123,14480,0,65728,65700,6,6,4,1460,852,1,992,136,33580,0,65700,0,0,0,0,0
i,0x00000000,1716946118.991915,172.16.3.2,5101,172.16.1.2,38165,10123,14480,0,65728,65700,6,6,4,1460,852,1,992,136,33580,0,65700,0,0,0,0,0
o,0x00000000,1716946118.991925,172.16.3.2,5101,172.16.1.2,38165,10123,14480,0,65728,65700,6,6,4,1460,852,1,993,136,33580,0,65700,1448,0,0,0,0
i,0x00000000,1716946119.002306,172.16.3.2,5101,172.16.1.2,38165,10123,14480,0,65728,65700,6,6,4,1460,852,1,992,136,33580,0,65700,0,0,0,0,0
i,0x00000000,1716946119.022652,172.16.3.2,5101,172.16.1.2,38165,10123,14480,0,65728,65700,6,6,4,1460,852,1,992,136,33580,0,65700,0,0,0,0,0
o,0x00000000,1716946119.022660,172.16.3.2,5101,172.16.1.2,38165,10123,14480,0,65728,65700,6,6,4,1460,852,1,993,136,33580,0,65700,1448,0,0,0,0
i,0x00000000,1716946119.032501,172.16.3.2,5101,172.16.1.2,38165,10123,14480,0,65728,65700,6,6,4,1460,852,1,992,136,33580,0,65700,0,0,0,0,0
i,0x00000000,1716946119.041835,172.16.3.2,5101,172.16.1.2,38165,10123,14480,0,65728,65700,6,6,4,1460,852,1,992,136,33580,0,65700,0,0,0,0,0
o,0x00000000,1716946119.041843,172.16.3.2,5101,172.16.1.2,38165,10123,14480,0,65728,65700,6,6,4,1460,852,1,993,136,33580,0,65700,1448,0,0,0,0
i,0x00000000,1716946119.052095,172.16.3.2,5101,172.16.1.2,38165,10123,14480,0,65728,65700,6,6,4,1460,852,1,992,136,33580,0,65700,0,0,0,0,0
i,0x00000000,1716946119.062602,172.16.3.2,5101,172.16.1.2,38165,10123,14480,0,65728,65700,6,6,4,1460,852,1,992,136,33580,0,65700,0,0,0,0,0
o,0x00000000,1716946119.062610,172.16.3.2,5101,172.16.1.2,38165,10123,14480,0,65728,65700,6,6,4,1460,852,1,993,136,33580,0,65700,1448,0,0,0,0
i,0x00000000,1716946119.083136,172.16.3.2,5101,172.16.1.2,38165,10123,14480,0,65728,65700,6,6,4,1460,852,1,992,136,33580,0,65700,0,0,0,0,0
o,0x00000000,1716946119.116613,172.16.3.2,5101,172.16.1.2,38165,10123,14480,0,65728,65700,6,6,4,1460,852,1,993,136,33580,0,65700,0,0,0,0,0
i,0x00000000,1716946119.332036,172.16.3.2,5101,172.16.1.2,38165,10123,14480,0,65728,65700,6,6,4,1460,852,1,992,136,33580,0,65700,0,0,0,0,0
i,0x00000000,1716946119.342275,172.16.3.2,5101,172.16.1.2,38165,10123,14480,0,65728,65700,6,6,4,1460,852,1,992,136,33580,0,65700,0,0,0,0,0
o,0x00000000,1716946119.342285,172.16.3.2,5101,172.16.1.2,38165,10123,14480,0,65728,65700,6,6,4,1460,852,1,993,136,33580,0,65700,1448,0,0,0,0
i,0x00000000,1716946119.351722,172.16.3.2,5101,172.16.1.2,38165,10123,14480,0,65728,65700,6,6,4,1460,852,1,992,136,33580,0,65700,0,0,0,0,0
i,0x00000000,1716946119.362047,172.16.3.2,5101,172.16.1.2,38165,10123,14480,0,65728,65700,6,6,4,1460,852,1,992,136,33580,0,65700,0,0,0,0,0
o,0x00000000,1716946119.362053,172.16.3.2,5101,172.16.1.2,38165,10123,14480,0,65728,65700,6,6,4,1460,852,1,993,136,33580,0,65700,1448,0,0,0,0
i,0x00000000,1716946119.381732,172.16.3.2,5101,172.16.1.2,38165,10123,14480,0,65728,65700,6,6,4,1460,852,1,992,136,33580,0,65700,0,0,0,0,0
i,0x00000000,1716946119.392002,172.16.3.2,5101,172.16.1.2,38165,10123,14480,0,65728,65700,6,6,4,1460,852,1,992,136,33580,0,65700,0,0,0,0,0
o,0x00000000,1716946119.392009,172.16.3.2,5101,172.16.1.2,38165,10123,14480,0,65728,65700,6,6,4,1460,852,1,993,136,33580,0,65700,1448,0,0,0,0
i,0x00000000,1716946119.401340,172.16.3.2,5101,172.16.1.2,38165,10123,14480,0,65728,65700,6,6,4,1460,852,1,992,136,33580,0,65700,0,0,0,0,0
i,0x00000000,1716946119.411748,172.16.3.2,5101,172.16.1.2,38165,10123,14480,0,65728,65700,6,6,4,1460,852,1,992,136,33580,0,65700,0,0,0,0,0
o,0x00000000,1716946119.411757,172.16.3.2,5101,172.16.1.2,38165,10123,14480,0,65728,65700,6,6,4,1460,852,1,993,136,33580,0,65700,1448,0,0,0,0
i,0x00000000,1716946119.422084,172.16.3.2,5101,172.16.1.2,38165,10123,14480,0,65728,65700,6,6,4,1460,852,1,992,136,33580,0,65700,0,0,0,0,0
i,0x00000000,1716946119.441693,172.16.3.2,5101,172.16.1.2,38165,10123,14480,0,65728,65700,6,6,4,1460,852,1,992,136,33580,0,65700,0,0,0,0,0
o,0x00000000,1716946119.441699,172.16.3.2,5101,172.16.1.2,38165,10123,14480,0,65728,65700,6,6,4,1460,852,1,993,136,33580,0,65700,1448,0,0,0,0
i,0x00000000,1716946119.452198,172.16.3.2,5101,172.16.1.2,38165,10123,14480,0,65728,65700,6,6,4,1460,852,1,992,136,33580,0,65700,0,0,0,0,0
i,0x00000000,1716946119.462387,172.16.3.2,5101,172.16.1.2,38165,10123,14480,0,65728,65700,6,6,4,1460,852,1,992,136,33580,0,65700,0,0,0,0,0
o,0x00000000,1716946119.462393,172.16.3.2,5101,172.16.1.2,38165,10123,14480,0,65728,65700,6,6,4,1460,852,1,993,136,33580,0,65700,1448,0,0,0,0
i,0x00000000,1716946119.471960,172.16.3.2,5101,172.16.1.2,38165,10123,14480,0,65728,65700,6,6,4,1460,852,1,992,136,33580,0,65700,0,0,0,0,0
i,0x00000000,1716946119.482134,172.16.3.2,5101,172.16.1.2,38165,10123,14480,0,65728,65700,6,6,4,1460,852,1,992,136,33580,0,65700,0,0,0,0,0
o,0x00000000,1716946119.482140,172.16.3.2,5101,172.16.1.2,38165,10123,14480,0,65728,65700,6,6,4,1460,852,1,993,136,33580,0,65700,1448,0,0,0,0
i,0x00000000,1716946119.501469,172.16.3.2,5101,172.16.1.2,38165,10123,14480,0,65728,65700,6,6,4,1460,852,1,992,136,33580,0,65700,0,0,0,0,0
o,0x00000000,1716946119.536678,172.16.3.2,5101,172.16.1.2,38165,10123,14480,0,65728,65700,6,6,4,1460,852,1,993,136,33580,0,65700,0,0,0,0,0
i,0x00000000,1716946119.751710,172.16.3.2,5101,172.16.1.2,38165,10123,14480,0,65728,65700,6,6,4,1460,852,1,992,136,33580,0,65700,0,0,0,0,0
i,0x00000000,1716946119.761756,172.16.3.2,5101,172.16.1.2,38165,10123,14480,0,65728,65700,6,6,4,1460,852,1,992,136,33580,0,65700,0,0,0,0,0
o,0x00000000,1716946119.761767,172.16.3.2,5101,172.16.1.2,38165,10123,14480,0,65728,65700,6,6,4,1460,852,1,993,136,33580,0,65700,1448,0,0,0,0
i,0x00000000,1716946119.771828,172.16.3.2,5101,172.16.1.2,38165,10123,14480,0,65728,65700,6,6,4,1460,852,1,992,136,33580,0,65700,0,0,0,0,0
i,0x00000000,1716946119.782357,172.16.3.2,5101,172.16.1.2,38165,10123,14480,0,65728,65700,6,6,4,1460,852,1,992,136,33580,0,65700,0,0,0,0,0
o,0x00000000,1716946119.782364,172.16.3.2,5101,172.16.1.2,38165,10123,14480,0,65728,65700,6,6,4,1460,852,1,993,136,33580,0,65700,1448,0,0,0,0
i,0x00000000,1716946119.802146,172.16.3.2,5101,172.16.1.2,38165,10123,14480,0,65728,65700,6,6,4,1460,852,1,992,136,33580,0,65700,0,0,0,0,0
i,0x00000000,1716946119.812261,172.16.3.2,5101,172.16.1.2,38165,10123,14480,0,65728,65700,6,6,4,1460,852,1,992,136,33580,0,65700,0,0,0,0,0
o,0x00000000,1716946119.812278,172.16.3.2,5101,172.16.1.2,38165,10123,14480,0,65728,65700,6,6,4,1460,852,1,993,136,33580,0,65700,1448,0,0,0,0
i,0x00000000,1716946119.821704,172.16.3.2,5101,172.16.1.2,38165,10123,14480,0,65728,65700,6,6,4,1460,852,1,992,136,33580,0,65700,0,0,0,0,0
i,0x00000000,1716946119.830958,172.16.3.2,5101,172.16.1.2,38165,10123,14480,0,65728,65700,6,6,4,1460,852,1,992,136,33580,0,65700,0,0,0,0,0
o,0x00000000,1716946119.830967,172.16.3.2,5101,172.16.1.2,38165,10123,14480,0,65728,65700,6,6,4,1460,852,1,993,136,33580,0,65700,1448,0,0,0,0
i,0x00000000,1716946119.841262,172.16.3.2,5101,172.16.1.2,38165,10123,14480,0,65728,65700,6,6,4,1460,852,1,992,136,33580,0,65700,0,0,0,0,0
i,0x00000000,1716946119.860997,172.16.3.2,5101,172.16.1.2,38165,10123,14480,0,65728,65700,6,6,4,1460,852,1,992,136,33580,0,65700,0,0,0,0,0
o,0x00000000,1716946119.861004,172.16.3.2,5101,172.16.1.2,38165,10123,14480,0,65728,65700,6,6,4,1460,852,1,993,136,33580,0,65700,1448,0,0,0,0
i,0x00000000,1716946119.871438,172.16.3.2,5101,172.16.1.2,38165,10123,14480,0,65728,65700,6,6,4,1460,852,1,992,136,33580,0,65700,0,0,0,0,0
i,0x00000000,1716946119.881819,172.16.3.2,5101,172.16.1.2,38165,10123,14480,0,65728,65700,6,6,4,1460,852,1,992,136,33580,0,65700,0,0,0,0,0
o,0x00000000,1716946119.881824,172.16.3.2,5101,172.16.1.2,38165,10123,14480,0,65728,65700,6,6,4,1460,852,1,993,136,33580,0,65700,1448,0,0,0,0
i,0x00000000,1716946119.892019,172.16.3.2,5101,172.16.1.2,38165,10123,14480,0,65728,65700,6,6,4,1460,852,1,992,136,33580,0,65700,0,0,0,0,0
i,0x00000000,1716946119.901510,172.16.3.2,5101,172.16.1.2,38165,10123,14480,0,65728,65700,6,6,4,1460,852,1,992,136,33580,0,65700,0,0,0,0,0
o,0x00000000,1716946119.901517,172.16.3.2,5101,172.16.1.2,38165,10123,14480,0,65728,65700,6,6,4,1460,852,1,993,136,33580,0,65700,1448,0,0,0,0
i,0x00000000,1716946119.921862,172.16.3.2,5101,172.16.1.2,38165,10123,14480,0,65728,65700,6,6,4,1460,852,1,992,136,33580,0,65700,0,0,0,0,0
i,0x00000000,1716946119.931596,172.16.3.2,5101,172.16.1.2,38165,10123,14480,0,65728,65700,6,6,4,1460,852,1,992,136,33580,0,65700,0,0,0,0,0
o,0x00000000,1716946119.931605,172.16.3.2,5101,172.16.1.2,38165,10123,14480,0,65728,65700,6,6,4,1460,852,1,993,136,33580,0,65700,1448,0,0,0,0
o,0x00000000,1716946119.957918,10.0.2.15,22,10.0.2.2,62180,1073725440,14600,0,65535,65700,0,0,4,1460,1,0,4,24,33580,108,65700,0,0,0,0,0
i,0x00000000,1716946119.958670,10.0.2.15,22,10.0.2.2,62180,1073725440,14600,0,65535,65700,0,0,4,1460,1,0,4,24,33580,108,65700,0,108,0,0,0
i,0x00000000,1716946120.181158,172.16.3.2,5101,172.16.1.2,38165,10123,14480,0,65728,65700,6,6,4,1460,852,1,992,136,33580,0,65700,0,0,0,0,0
i,0x00000000,1716946120.211254,172.16.3.2,5101,172.16.1.2,38165,10123,14480,0,65728,65700,6,6,4,1460,852,1,992,136,33580,0,65700,0,0,0,0,0
o,0x00000000,1716946120.211278,172.16.3.2,5101,172.16.1.2,38165,10123,14480,0,65728,65700,6,6,4,1460,852,1,993,136,33580,0,65700,1448,0,0,0,0
i,0x00000000,1716946120.230945,172.16.3.2,5101,172.16.1.2,38165,10123,14480,0,65728,65700,6,6,4,1460,852,1,992,136,33580,0,65700,0,0,0,0,0
i,0x00000000,1716946120.242321,172.16.3.2,5101,172.16.1.2,38165,10123,14480,0,65728,65700,6,6,4,1460,852,1,992,136,33580,0,65700,0,0,0,0,0
o,0x00000000,1716946120.242328,172.16.3.2,5101,172.16.1.2,38165,10123,14480,0,65728,65700,6,6,4,1460,852,1,993,136,33580,0,65700,1448,0,0,0,0
i,0x00000000,1716946120.251698,172.16.3.2,5101,172.16.1.2,38165,10123,14480,0,65728,65700,6,6,4,1460,852,1,992,136,33580,0,65700,0,0,0,0,0
i,0x00000000,1716946120.261056,172.16.3.2,5101,172.16.1.2,38165,10123,14480,0,65728,65700,6,6,4,1460,852,1,992,136,33580,0,65700,0,0,0,0,0
o,0x00000000,1716946120.261064,172.16.3.2,5101,172.16.1.2,38165,10123,14480,0,65728,65700,6,6,4,1460,852,1,993,136,33580,0,65700,1448,0,0,0,0
i,0x00000000,1716946120.271354,172.16.3.2,5101,172.16.1.2,38165,10123,14480,0,65728,65700,6,6,4,1460,852,1,992,136,33580,0,65700,0,0,0,0,0
i,0x00000000,1716946120.291205,172.16.3.2,5101,172.16.1.2,38165,10123,14480,0,65728,65700,6,6,4,1460,852,1,992,136,33580,0,65700,0,0,0,0,0
o,0x00000000,1716946120.291212,172.16.3.2,5101,172.16.1.2,38165,10123,14480,0,65728,65700,6,6,4,1460,852,1,993,136,33580,0,65700,1448,0,0,0,0
i,0x00000000,1716946120.301519,172.16.3.2,5101,172.16.1.2,38165,10123,14480,0,65728,65700,6,6,4,1460,852,1,992,136,33580,0,65700,0,0,0,0,0
i,0x00000000,1716946120.310921,172.16.3.2,5101,172.16.1.2,38165,10123,14480,0,65728,65700,6,6,4,1460,852,1,992,136,33580,0,65700,0,0,0,0,0
o,0x00000000,1716946120.310926,172.16.3.2,5101,172.16.1.2,38165,10123,14480,0,65728,65700,6,6,4,1460,852,1,993,136,33580,0,65700,1448,0,0,0,0
i,0x00000000,1716946120.321241,172.16.3.2,5101,172.16.1.2,38165,10123,14480,0,65728,65700,6,6,4,1460,852,1,992,136,33580,0,65700,0,0,0,0,0
i,0x00000000,1716946120.331088,172.16.3.2,5101,172.16.1.2,38165,10123,14480,0,65728,65700,6,6,4,1460,852,1,992,136,33580,0,65700,0,0,0,0,0
o,0x00000000,1716946120.331094,172.16.3.2,5101,172.16.1.2,38165,10123,14480,0,65728,65700,6,6,4,1460,852,1,993,136,33580,0,65700,1448,0,0,0,0
i,0x00000000,1716946120.350831,172.16.3.2,5101,172.16.1.2,38165,10123,14480,0,65728,65700,6,6,4,1460,852,1,992,136,33580,0,65700,0,0,0,0,0
i,0x00000000,1716946120.361333,172.16.3.2,5101,172.16.1.2,38165,10123,14480,0,65728,65700,6,6,4,1460,852,1,992,136,33580,0,65700,0,0,0,0,0
o,0x00000000,1716946120.361339,172.16.3.2,5101,172.16.1.2,38165,10123,14480,0,65728,65700,6,6,4,1460,852,1,993,136,33580,0,65700,1448,0,0,0,0
i,0x00000000,1716946120.371390,172.16.3.2,5101,172.16.1.2,38165,10123,14480,0,65728,65700,6,6,4,1460,852,1,992,136,33580,0,65700,0,0,0,0,0
i,0x00000000,1716946120.381090,172.16.3.2,5101,172.16.1.2,38165,10123,14480,0,65728,65700,6,6,4,1460,852,1,992,136,33580,0,65700,0,0,0,0,0
o,0x00000000,1716946120.381096,172.16.3.2,5101,172.16.1.2,38165,10123,14480,0,65728,65700,6,6,4,1460,852,1,993,136,33580,0,65700,1448,0,0,0,0
i,0x00000000,1716946120.391110,172.16.3.2,5101,172.16.1.2,38165,10123,14480,0,65728,65700,6,6,4,1460,852,1,992,136,33580,0,65700,0,0,0,0,0
i,0x00000000,1716946120.411871,172.16.3.2,5101,172.16.1.2,38165,10123,14480,0,65728,65700,6,6,4,1460,852,1,992,136,33580,0,65700,0,0,0,0,0
o,0x00000000,1716946120.411882,172.16.3.2,5101,172.16.1.2,38165,10123,14480,0,65728,65700,6,6,4,1460,852,1,993,136,33580,0,65700,1448,0,0,0,0
i,0x00000000,1716946120.710338,172.16.3.2,5101,172.16.1.2,38165,10123,14480,0,65728,65700,6,6,4,1460,852,1,992,136,33580,0,65700,0,0,0,0,0
i,0x00000000,1716946120.720837,172.16.3.2,5101,172.16.1.2,38165,10123,14480,0,65728,65700,6,6,4,1460,852,1,992,136,33580,0,65700,0,0,0,0,0
o,0x00000000,1716946120.720850,172.16.3.2,5101,172.16.1.2,38165,10123,14480,0,65728,65700,6,6,4,1460,852,1,993,136,33580,0,65700,1448,0,0,0,0
i,0x00000000,1716946120.731167,172.16.3.2,5101,172.16.1.2,38165,10123,14480,0,65728,65700,6,6,4,1460,852,1,992,136,33580,0,65700,0,0,0,0,0
i,0x00000000,1716946120.741449,172.16.3.2,5101,172.16.1.2,38165,10123,14480,0,65728,65700,6,6,4,1460,852,1,992,136,33580,0,65700,0,0,0,0,0
o,0x00000000,1716946120.741457,172.16.3.2,5101,172.16.1.2,38165,10123,14480,0,65728,65700,6,6,4,1460,852,1,993,136,33580,0,65700,1448,0,0,0,0
i,0x00000000,1716946120.750933,172.16.3.2,5101,172.16.1.2,38165,10123,14480,0,65728,65700,6,6,4,1460,852,1,992,136,33580,0,65700,0,0,0,0,0
i,0x00000000,1716946120.770728,172.16.3.2,5101,172.16.1.2,38165,10123,14480,0,65728,65700,6,6,4,1460,852,1,992,136,33580,0,65700,0,0,0,0,0
o,0x00000000,1716946120.770740,172.16.3.2,5101,172.16.1.2,38165,10123,14480,0,65728,65700,6,6,4,1460,852,1,993,136,33580,0,65700,1448,0,0,0,0
i,0x00000000,1716946120.780875,172.16.3.2,5101,172.16.1.2,38165,10123,14480,0,65728,65700,6,6,4,1460,852,1,992,136,33580,0,65700,0,0,0,0,0
i,0x00000000,1716946120.790359,172.16.3.2,5101,172.16.1.2,38165,10123,14480,0,65728,65700,6,6,4,1460,852,1,992,136,33580,0,65700,0,0,0,0,0
o,0x00000000,1716946120.790365,172.16.3.2,5101,172.16.1.2,38165,10123,14480,0,65728,65700,6,6,4,1460,852,1,993,136,33580,0,65700,1448,0,0,0,0
i,0x00000000,1716946120.800966,172.16.3.2,5101,172.16.1.2,38165,10123,14480,0,65728,65700,6,6,4,1460,852,1,992,136,33580,0,65700,0,0,0,0,0
i,0x00000000,1716946120.811195,172.16.3.2,5101,172.16.1.2,38165,10123,14480,0,65728,65700,6,6,4,1460,852,1,992,136,33580,0,65700,0,0,0,0,0
o,0x00000000,1716946120.811208,172.16.3.2,5101,172.16.1.2,38165,10123,14480,0,65728,65700,6,6,4,1460,852,1,993,136,33580,0,65700,1448,0,0,0,0
i,0x00000000,1716946120.830990,172.16.3.2,5101,172.16.1.2,38165,10123,14480,0,65728,65700,6,6,4,1460,852,1,992,136,33580,0,65700,0,0,0,0,0
i,0x00000000,1716946120.841158,172.16.3.2,5101,172.16.1.2,38165,10123,14480,0,65728,65700,6,6,4,1460,852,1,992,136,33580,0,65700,0,0,0,0,0
o,0x00000000,1716946120.841164,172.16.3.2,5101,172.16.1.2,38165,10123,14480,0,65728,65700,6,6,4,1460,852,1,993,136,33580,0,65700,1448,0,0,0,0
i,0x00000000,1716946120.851608,172.16.3.2,5101,172.16.1.2,38165,10123,14480,0,65728,65700,6,6,4,1460,852,1,992,136,33580,0,65700,0,0,0,0,0
i,0x00000000,1716946120.860897,172.16.3.2,5101,172.16.1.2,38165,10123,14480,0,65728,65700,6,6,4,1460,852,1,992,136,33580,0,65700,0,0,0,0,0
o,0x00000000,1716946120.860905,172.16.3.2,5101,172.16.1.2,38165,10123,14480,0,65728,65700,6,6,4,1460,852,1,993,136,33580,0,65700,1448,0,0,0,0
i,0x00000000,1716946120.871190,172.16.3.2,5101,172.16.1.2,38165,10123,14480,0,65728,65700,6,6,4,1460,852,1,992,136,33580,0,65700,0,0,0,0,0
i,0x00000000,1716946120.891006,172.16.3.2,5101,172.16.1.2,38165,10123,14480,0,65728,65700,6,6,4,1460,852,1,992,136,33580,0,65700,0,0,0,0,0
o,0x00000000,1716946120.891012,172.16.3.2,5101,172.16.1.2,38165,10123,14480,0,65728,65700,6,6,4,1460,852,1,993,136,33580,0,65700,1448,0,0,0,0
i,0x00000000,1716946120.901070,172.16.3.2,5101,172.16.1.2,38165,10123,14480,0,65728,65700,6,6,4,1460,852,1,992,136,33580,0,65700,0,0,0,0,0
i,0x00000000,1716946120.911268,172.16.3.2,5101,172.16.1.2,38165,10123,14480,0,65728,65700,6,6,4,1460,852,1,992,136,33580,0,65700,0,0,0,0,0
o,0x00000000,1716946120.911278,172.16.3.2,5101,172.16.1.2,38165,10123,14480,0,65728,65700,6,6,4,1460,852,1,993,136,33580,0,65700,1448,0,0,0,0
i,0x00000000,1716946120.921220,172.16.3.2,5101,172.16.1.2,38165,10123,14480,0,65728,65700,6,6,4,1460,852,1,992,136,33580,0,65700,0,0,0,0,0
o,0x00000000,1716946120.957749,172.16.3.2,5101,172.16.1.2,38165,10123,14480,0,65728,65700,6,6,4,1460,852,1,993,136,33580,0,65700,0,0,0,0,0
o,0x00000000,1716946120.958114,10.0.2.15,22,10.0.2.2,62180,1073725440,14600,0,65535,65700,0,0,4,1460,1,0,4,24,33580,108,65700,0,0,0,0,0
i,0x00000000,1716946120.958822,10.0.2.15,22,10.0.2.2,62180,1073725440,14600,0,65535,65700,0,0,4,1460,1,0,4,24,33580,108,65700,0,108,0,0,0
i,0x00000000,1716946121.210732,172.16.3.2,5101,172.16.1.2,38165,10123,14480,0,65728,65700,6,6,4,1460,852,1,992,136,33580,0,65700,0,0,0,0,0
i,0x00000000,1716946121.221497,172.16.3.2,5101,172.16.1.2,38165,10123,14480,0,65728,65700,6,6,4,1460,852,1,992,136,33580,0,65700,0,0,0,0,0
o,0x00000000,1716946121.221508,172.16.3.2,5101,172.16.1.2,38165,10123,14480,0,65728,65700,6,6,4,1460,852,1,993,136,33580,0,65700,1448,0,0,0,0
i,0x00000000,1716946121.230262,172.16.3.2,5101,172.16.1.2,38165,10123,14480,0,65728,65700,6,6,4,1460,852,1,992,136,33580,0,65700,0,0,0,0,0
i,0x00000000,1716946121.240685,172.16.3.2,5101,172.16.1.2,38165,10123,14480,0,65728,65700,6,6,4,1460,852,1,992,136,33580,0,65700,0,0,0,0,0
o,0x00000000,1716946121.240691,172.16.3.2,5101,172.16.1.2,38165,10123,14480,0,65728,65700,6,6,4,1460,852,1,993,136,33580,0,65700,1448,0,0,0,0
i,0x00000000,1716946121.251109,172.16.3.2,5101,172.16.1.2,38165,10123,14480,0,65728,65700,6,6,4,1460,852,1,992,136,33580,0,65700,0,0,0,0,0
i,0x00000000,1716946121.270906,172.16.3.2,5101,172.16.1.2,38165,10123,14480,0,65728,65700,6,6,4,1460,852,1,992,136,33580,0,65700,0,0,0,0,0
o,0x00000000,1716946121.270915,172.16.3.2,5101,172.16.1.2,38165,10123,14480,0,65728,65700,6,6,4,1460,852,1,993,136,33580,0,65700,1448,0,0,0,0
i,0x00000000,1716946121.281061,172.16.3.2,5101,172.16.1.2,38165,10123,14480,0,65728,65700,6,6,4,1460,852,1,992,136,33580,0,65700,0,0,0,0,0
i,0x00000000,1716946121.290528,172.16.3.2,5101,172.16.1.2,38165,10123,14480,0,65728,65700,6,6,4,1460,852,1,992,136,33580,0,65700,0,0,0,0,0
o,0x00000000,1716946121.290535,172.16.3.2,5101,172.16.1.2,38165,10123,14480,0,65728,65700,6,6,4,1460,852,1,993,136,33580,0,65700,1448,0,0,0,0
i,0x00000000,1716946121.300812,172.16.3.2,5101,172.16.1.2,38165,10123,14480,0,65728,65700,6,6,4,1460,852,1,992,136,33580,0,65700,0,0,0,0,0
i,0x00000000,1716946121.311335,172.16.3.2,5101,172.16.1.2,38165,10123,14480,0,65728,65700,6,6,4,1460,852,1,992,136,33580,0,65700,0,0,0,0,0
o,0x00000000,1716946121.311341,172.16.3.2,5101,172.16.1.2,38165,10123,14480,0,65728,65700,6,6,4,1460,852,1,993,136,33580,0,65700,1448,0,0,0,0
i,0x00000000,1716946121.330000,172.16.3.2,5101,172.16.1.2,38165,10123,14480,0,65728,65700,6,6,4,1460,852,1,992,136,33580,0,65700,0,0,0,0,0
i,0x00000000,1716946121.340354,172.16.3.2,5101,172.16.1.2,38165,10123,14480,0,65728,65700,6,6,4,1460,852,1,992,136,33580,0,65700,0,0,0,0,0
o,0x00000000,1716946121.340359,172.16.3.2,5101,172.16.1.2,38165,10123,14480,0,65728,65700,6,6,4,1460,852,1,993,136,33580,0,65700,1448,0,0,0,0
i,0x00000000,1716946121.350889,172.16.3.2,5101,172.16.1.2,38165,10123,14480,0,65728,65700,6,6,4,1460,852,1,992,136,33580,0,65700,0,0,0,0,0
i,0x00000000,1716946121.361091,172.16.3.2,5101,172.16.1.2,38165,10123,14480,0,65728,65700,6,6,4,1460,852,1,992,136,33580,0,65700,0,0,0,0,0
o,0x00000000,1716946121.361096,172.16.3.2,5101,172.16.1.2,38165,10123,14480,0,65728,65700,6,6,4,1460,852,1,993,136,33580,0,65700,1448,0,0,0,0
i,0x00000000,1716946121.370454,172.16.3.2,5101,172.16.1.2,38165,10123,14480,0,65728,65700,6,6,4,1460,852,1,992,136,33580,0,65700,0,0,0,0,0
i,0x00000000,1716946121.391313,172.16.3.2,5101,172.16.1.2,38165,10123,14480,0,65728,65700,6,6,4,1460,852,1,992,136,33580,0,65700,0,0,0,0,0
o,0x00000000,1716946121.391321,172.16.3.2,5101,172.16.1.2,38165,10123,14480,0,65728,65700,6,6,4,1460,852,1,993,136,33580,0,65700,1448,0,0,0,0
i,0x00000000,1716946121.400553,172.16.3.2,5101,172.16.1.2,38165,10123,14480,0,65728,65700,6,6,4,1460,852,1,992,136,33580,0,65700,0,0,0,0,0
i,0x00000000,1716946121.410038,172.16.3.2,5101,172.16.1.2,38165,10123,14480,0,65728,65700,6,6,4,1460,852,1,992,136,33580,0,65700,0,0,0,0,0
o,0x00000000,1716946121.410048,172.16.3.2,5101,172.16.1.2,38165,10123,14480,0,65728,65700,6,6,4,1460,852,1,993,136,33580,0,65700,1448,0,0,0,0
i,0x00000000,1716946121.420340,172.16.3.2,5101,172.16.1.2,38165,10123,14480,0,65728,65700,6,6,4,1460,852,1,992,136,33580,0,65700,0,0,0,0,0
o,0x00000000,1716946121.457936,172.16.3.2,5101,172.16.1.2,38165,10123,14480,0,65728,65700,6,6,4,1460,852,1,993,136,33580,0,65700,0,0,0,0,0
i,0x00000000,1716946121.470803,172.16.3.2,5101,172.16.1.2,38165,10123,14480,0,65728,65700,6,6,4,1460,852,1,992,136,33580,0,65700,0,0,0,0,0
o,0x00000000,1716946121.506720,172.16.3.2,5101,172.16.1.2,38165,10123,14480,0,65728,65700,6,6,4,1460,852,1,993,136,33580,0,65700,0,0,0,0,0
i,0x00000000,1716946121.710424,172.16.3.2,5101,172.16.1.2,38165,10123,14480,0,65728,65700,6,6,4,1460,852,1,992,136,33580,0,65700,0,0,0,0,0
i,0x00000000,1716946121.720685,172.16.3.2,5101,172.16.1.2,38165,10123,14480,0,65728,65700,6,6,4,1460,852,1,992,136,33580,0,65700,0,0,0,0,0
o,0x00000000,1716946121.720695,172.16.3.2,5101,172.16.1.2,38165,10123,14480,0,65728,65700,6,6,4,1460,852,1,993,136,33580,0,65700,1448,0,0,0,0
i,0x00000000,1716946121.730273,172.16.3.2,5101,172.16.1.2,38165,10123,14480,0,65728,65700,6,6,4,1460,852,1,992,136,33580,0,65700,0,0,0,0,0
i,0x00000000,1716946121.750541,172.16.3.2,5101,172.16.1.2,38165,10123,14480,0,65728,65700,6,6,4,1460,852,1,992,136,33580,0,65700,0,0,0,0,0
o,0x00000000,1716946121.750551,172.16.3.2,5101,172.16.1.2,38165,10123,14480,0,65728,65700,6,6,4,1460,852,1,993,136,33580,0,65700,1448,0,0,0,0
i,0x00000000,1716946121.760764,172.16.3.2,5101,172.16.1.2,38165,10123,14480,0,65728,65700,6,6,4,1460,852,1,992,136,33580,0,65700,0,0,0,0,0
i,0x00000000,1716946121.771284,172.16.3.2,5101,172.16.1.2,38165,10123,14480,0,65728,65700,6,6,4,1460,852,1,992,136,33580,0,65700,0,0,0,0,0
o,0x00000000,1716946121.771295,172.16.3.2,5101,172.16.1.2,38165,10123,14480,0,65728,65700,6,6,4,1460,852,1,993,136,33580,0,65700,1448,0,0,0,0
i,0x00000000,1716946121.780407,172.16.3.2,5101,172.16.1.2,38165,10123,14480,0,65728,65700,6,6,4,1460,852,1,992,136,33580,0,65700,0,0,0,0,0
i,0x00000000,1716946121.789711,172.16.3.2,5101,172.16.1.2,38165,10123,14480,0,65728,65700,6,6,4,1460,852,1,992,136,33580,0,65700,0,0,0,0,0
o,0x00000000,1716946121.789718,172.16.3.2,5101,172.16.1.2,38165,10123,14480,0,65728,65700,6,6,4,1460,852,1,993,136,33580,0,65700,1448,0,0,0,0
i,0x00000000,1716946121.809441,172.16.3.2,5101,172.16.1.2,38165,10123,14480,0,65728,65700,6,6,4,1460,852,1,992,136,33580,0,65700,0,0,0,0,0
i,0x00000000,1716946121.820710,172.16.3.2,5101,172.16.1.2,38165,10123,14480,0,65728,65700,6,6,4,1460,852,1,992,136,33580,0,65700,0,0,0,0,0
o,0x00000000,1716946121.820719,172.16.3.2,5101,172.16.1.2,38165,10123,14480,0,65728,65700,6,6,4,1460,852,1,993,136,33580,0,65700,1448,0,0,0,0
i,0x00000000,1716946121.830180,172.16.3.2,5101,172.16.1.2,38165,10123,14480,0,65728,65700,6,6,4,1460,852,1,992,136,33580,0,65700,0,0,0,0,0
i,0x00000000,1716946121.839524,172.16.3.2,5101,172.16.1.2,38165,10123,14480,0,65728,65700,6,6,4,1460,852,1,992,136,33580,0,65700,0,0,0,0,0
o,0x00000000,1716946121.839532,172.16.3.2,5101,172.16.1.2,38165,10123,14480,0,65728,65700,6,6,4,1460,852,1,993,136,33580,0,65700,1448,0,0,0,0
i,0x00000000,1716946121.849913,172.16.3.2,5101,172.16.1.2,38165,10123,14480,0,65728,65700,6,6,4,1460,852,1,992,136,33580,0,65700,0,0,0,0,0
i,0x00000000,1716946121.870533,172.16.3.2,5101,172.16.1.2,38165,10123,14480,0,65728,65700,6,6,4,1460,852,1,992,136,33580,0,65700,0,0,0,0,0
o,0x00000000,1716946121.870539,172.16.3.2,5101,172.16.1.2,38165,10123,14480,0,65728,65700,6,6,4,1460,852,1,993,136,33580,0,65700,1448,0,0,0,0
i,0x00000000,1716946121.879988,172.16.3.2,5101,172.16.1.2,38165,10123,14480,0,65728,65700,6,6,4,1460,852,1,992,136,33580,0,65700,0,0,0,0,0
i,0x00000000,1716946121.890329,172.16.3.2,5101,172.16.1.2,38165,10123,14480,0,65728,65700,6,6,4,1460,852,1,992,136,33580,0,65700,0,0,0,0,0
o,0x00000000,1716946121.890335,172.16.3.2,5101,172.16.1.2,38165,10123,14480,0,65728,65700,6,6,4,1460,852,1,993,136,33580,0,65700,1448,0,0,0,0
i,0x00000000,1716946121.900677,172.16.3.2,5101,172.16.1.2,38165,10123,14480,0,65728,65700,6,6,4,1460,852,1,992,136,33580,0,65700,0,0,0,0,0
i,0x00000000,1716946121.910103,172.16.3.2,5101,172.16.1.2,38165,10123,14480,0,65728,65700,6,6,4,1460,852,1,992,136,33580,0,65700,0,0,0,0,0
o,0x00000000,1716946121.910109,172.16.3.2,5101,172.16.1.2,38165,10123,14480,0,65728,65700,6,6,4,1460,852,1,993,136,33580,0,65700,1448,0,0,0,0
i,0x00000000,1716946121.929856,172.16.3.2,5101,172.16.1.2,38165,10123,14480,0,65728,65700,6,6,4,1460,852,1,992,136,33580,0,65700,0,0,0,0,0
o,0x00000000,1716946121.957663,10.0.2.15,22,10.0.2.2,62180,1073725440,14600,0,65535,65700,0,0,4,1460,1,0,4,24,33580,108,65700,0,0,0,0,0
i,0x00000000,1716946121.958354,10.0.2.15,22,10.0.2.2,62180,1073725440,14600,0,65535,65700,0,0,4,1460,1,0,4,24,33580,108,65700,0,108,0,0,0
o,0x00000000,1716946121.967625,172.16.3.2,5101,172.16.1.2,38165,10123,14480,0,65728,65700,6,6,4,1460,852,1,993,136,33580,0,65700,0,0,0,0,0
i,0x00000000,1716946121.981309,172.16.3.2,5101,172.16.1.2,38165,10123,14480,0,65728,65700,6,6,4,1460,852,1,992,136,33580,0,65700,0,0,0,0,0
o,0x00000000,1716946122.017185,172.16.3.2,5101,172.16.1.2,38165,10123,14480,0,65728,65700,6,6,4,1460,852,1,993,136,33580,0,65700,0,0,0,0,0
i,0x00000000,1716946122.140148,172.16.3.2,5101,172.16.1.2,38165,10123,14480,0,65728,65700,6,6,4,1460,852,1,992,136,33580,0,65700,0,0,0,0,0
o,0x00000000,1716946122.177147,172.16.3.2,5101,172.16.1.2,38165,10123,14480,0,65728,65700,6,6,4,1460,852,1,993,136,33580,0,65700,0,0,0,0,0
i,0x00000000,1716946122.239949,172.16.3.2,5101,172.16.1.2,38165,10123,14480,0,65728,65700,6,6,4,1460,852,1,992,136,33580,0,65700,0,0,0,0,0
i,0x00000000,1716946122.249135,172.16.3.2,5101,172.16.1.2,38165,10123,14480,0,65728,65700,6,6,4,1460,852,1,992,136,33580,0,65700,0,0,0,0,0
o,0x00000000,1716946122.249145,172.16.3.2,5101,172.16.1.2,38165,10123,14480,0,65728,65700,6,6,4,1460,852,1,993,136,33580,0,65700,1448,0,0,0,0
i,0x00000000,1716946122.260454,172.16.3.2,5101,172.16.1.2,38165,10123,14480,0,65728,65700,6,6,4,1460,852,1,992,136,33580,0,65700,0,0,0,0,0
i,0x00000000,1716946122.269924,172.16.3.2,5101,172.16.1.2,38165,10123,14480,0,65728,65700,6,6,4,1460,852,1,992,136,33580,0,65700,0,0,0,0,0
o,0x00000000,1716946122.269930,172.16.3.2,5101,172.16.1.2,38165,10123,14480,0,65728,65700,6,6,4,1460,852,1,993,136,33580,0,65700,1448,0,0,0,0
i,0x00000000,1716946122.280213,172.16.3.2,5101,172.16.1.2,38165,10123,14480,0,65728,65700,6,6,4,1460,852,1,992,136,33580,0,65700,0,0,0,0,0
i,0x00000000,1716946122.299856,172.16.3.2,5101,172.16.1.2,38165,10123,14480,0,65728,65700,6,6,4,1460,852,1,992,136,33580,0,65700,0,0,0,0,0
o,0x00000000,1716946122.299864,172.16.3.2,5101,172.16.1.2,38165,10123,14480,0,65728,65700,6,6,4,1460,852,1,993,136,33580,0,65700,1448,0,0,0,0
i,0x00000000,1716946122.309980,172.16.3.2,5101,172.16.1.2,38165,10123,14480,0,65728,65700,6,6,4,1460,852,1,992,136,33580,0,65700,0,0,0,0,0
i,0x00000000,1716946122.320261,172.16.3.2,5101,172.16.1.2,38165,10123,14480,0,65728,65700,6,6,4,1460,852,1,992,136,33580,0,65700,0,0,0,0,0
o,0x00000000,1716946122.320270,172.16.3.2,5101,172.16.1.2,38165,10123,14480,0,65728,65700,6,6,4,1460,852,1,993,136,33580,0,65700,1448,0,0,0,0
i,0x00000000,1716946122.330623,172.16.3.2,5101,172.16.1.2,38165,10123,14480,0,65728,65700,6,6,4,1460,852,1,992,136,33580,0,65700,0,0,0,0,0
i,0x00000000,1716946122.338997,172.16.3.2,5101,172.16.1.2,38165,10123,14480,0,65728,65700,6,6,4,1460,852,1,992,136,33580,0,65700,0,0,0,0,0
o,0x00000000,1716946122.339002,172.16.3.2,5101,172.16.1.2,38165,10123,14480,0,65728,65700,6,6,4,1460,852,1,993,136,33580,0,65700,1448,0,0,0,0
i,0x00000000,1716946122.359584,172.16.3.2,5101,172.16.1.2,38165,10123,14480,0,65728,65700,6,6,4,1460,852,1,992,136,33580,0,65700,0,0,0,0,0
i,0x00000000,1716946122.370049,172.16.3.2,5101,172.16.1.2,38165,10123,14480,0,65728,65700,6,6,4,1460,852,1,992,136,33580,0,65700,0,0,0,0,0
o,0x00000000,1716946122.370056,172.16.3.2,5101,172.16.1.2,38165,10123,14480,0,65728,65700,6,6,4,1460,852,1,993,136,33580,0,65700,1448,0,0,0,0
i,0x00000000,1716946122.380379,172.16.3.2,5101,172.16.1.2,38165,10123,14480,0,65728,65700,6,6,4,1460,852,1,992,136,33580,0,65700,0,0,0,0,0
i,0x00000000,1716946122.389727,172.16.3.2,5101,172.16.1.2,38165,10123,14480,0,65728,65700,6,6,4,1460,852,1,992,136,33580,0,65700,0,0,0,0,0
o,0x00000000,1716946122.389737,172.16.3.2,5101,172.16.1.2,38165,10123,14480,0,65728,65700,6,6,4,1460,852,1,993,136,33580,0,65700,1448,0,0,0,0
i,0x00000000,1716946122.400056,172.16.3.2,5101,172.16.1.2,38165,10123,14480,0,65728,65700,6,6,4,1460,852,1,992,136,33580,0,65700,0,0,0,0,0
i,0x00000000,1716946122.419764,172.16.3.2,5101,172.16.1.2,38165,10123,14480,0,65728,65700,6,6,4,1460,852,1,992,136,33580,0,65700,0,0,0,0,0
o,0x00000000,1716946122.419772,172.16.3.2,5101,172.16.1.2,38165,10123,14480,0,65728,65700,6,6,4,1460,852,1,993,136,33580,0,65700,1448,0,0,0,0
i,0x00000000,1716946122.430223,172.16.3.2,5101,172.16.1.2,38165,10123,14480,0,65728,65700,6,6,4,1460,852,1,992,136,33580,0,65700,0,0,0,0,0
i,0x00000000,1716946122.439704,172.16.3.2,5101,172.16.1.2,38165,10123,14480,0,65728,65700,6,6,4,1460,852,1,992,136,33580,0,65700,0,0,0,0,0
o,0x00000000,1716946122.439709,172.16.3.2,5101,172.16.1.2,38165,10123,14480,0,65728,65700,6,6,4,1460,852,1,993,136,33580,0,65700,1448,0,0,0,0
i,0x00000000,1716946122.449085,172.16.3.2,5101,172.16.1.2,38165,10123,14480,0,65728,65700,6,6,4,1460,852,1,992,136,33580,0,65700,0,0,0,0,0
o,0x00000000,1716946122.487226,172.16.3.2,5101,172.16.1.2,38165,10123,14480,0,65728,65700,6,6,4,1460,852,1,993,136,33580,0,65700,0,0,0,0,0
i,0x00000000,1716946122.509403,172.16.3.2,5101,172.16.1.2,38165,10123,14480,0,65728,65700,6,6,4,1460,852,1,992,136,33580,0,65700,0,0,0,0,0
o,0x00000000,1716946122.548056,172.16.3.2,5101,172.16.1.2,38165,10123,14480,0,65728,65700,6,6,4,1460,852,1,993,136,33580,0,65700,0,0,0,0,0
i,0x00000000,1716946122.650041,172.16.3.2,5101,172.16.1.2,38165,10123,14480,0,65728,65700,6,6,4,1460,852,1,992,136,33580,0,65700,0,0,0,0,0
o,0x00000000,1716946122.688081,172.16.3.2,5101,172.16.1.2,38165,10123,14480,0,65728,65700,6,6,4,1460,852,1,993,136,33580,0,65700,0,0,0,0,0
i,0x00000000,1716946122.759192,172.16.3.2,5101,172.16.1.2,38165,10123,14480,0,65728,65700,6,6,4,1460,852,1,992,136,33580,0,65700,0,0,0,0,0
i,0x00000000,1716946122.769340,172.16.3.2,5101,172.16.1.2,38165,10123,14480,0,65728,65700,6,6,4,1460,852,1,992,136,33580,0,65700,0,0,0,0,0
o,0x00000000,1716946122.769348,172.16.3.2,5101,172.16.1.2,38165,10123,14480,0,65728,65700,6,6,4,1460,852,1,993,136,33580,0,65700,1448,0,0,0,0
i,0x00000000,1716946122.779963,172.16.3.2,5101,172.16.1.2,38165,10123,14480,0,65728,65700,6,6,4,1460,852,1,992,136,33580,0,65700,0,0,0,0,0
i,0x00000000,1716946122.799685,172.16.3.2,5101,172.16.1.2,38165,10123,14480,0,65728,65700,6,6,4,1460,852,1,992,136,33580,0,65700,0,0,0,0,0
o,0x00000000,1716946122.799700,172.16.3.2,5101,172.16.1.2,38165,10123,14480,0,65728,65700,6,6,4,1460,852,1,993,136,33580,0,65700,1448,0,0,0,0
i,0x00000000,1716946122.808875,172.16.3.2,5101,172.16.1.2,38165,10123,14480,0,65728,65700,6,6,4,1460,852,1,992,136,33580,0,65700,0,0,0,0,0
i,0x00000000,1716946122.820366,172.16.3.2,5101,172.16.1.2,38165,10123,14480,0,65728,65700,6,6,4,1460,852,1,992,136,33580,0,65700,0,0,0,0,0
o,0x00000000,1716946122.820372,172.16.3.2,5101,172.16.1.2,38165,10123,14480,0,65728,65700,6,6,4,1460,852,1,993,136,33580,0,65700,1448,0,0,0,0
i,0x00000000,1716946122.829639,172.16.3.2,5101,172.16.1.2,38165,10123,14480,0,65728,65700,6,6,4,1460,852,1,992,136,33580,0,65700,0,0,0,0,0
i,0x00000000,1716946122.848945,172.16.3.2,5101,172.16.1.2,38165,10123,14480,0,65728,65700,6,6,4,1460,852,1,992,136,33580,0,65700,0,0,0,0,0
o,0x00000000,1716946122.848951,172.16.3.2,5101,172.16.1.2,38165,10123,14480,0,65728,65700,6,6,4,1460,852,1,993,136,33580,0,65700,1448,0,0,0,0
i,0x00000000,1716946122.859087,172.16.3.2,5101,172.16.1.2,38165,10123,14480,0,65728,65700,6,6,4,1460,852,1,992,136,33580,0,65700,0,0,0,0,0
i,0x00000000,1716946122.869457,172.16.3.2,5101,172.16.1.2,38165,10123,14480,0,65728,65700,6,6,4,1460,852,1,992,136,33580,0,65700,0,0,0,0,0
o,0x00000000,1716946122.869463,172.16.3.2,5101,172.16.1.2,38165,10123,14480,0,65728,65700,6,6,4,1460,852,1,993,136,33580,0,65700,1448,0,0,0,0
i,0x00000000,1716946122.879866,172.16.3.2,5101,172.16.1.2,38165,10123,14480,0,65728,65700,6,6,4,1460,852,1,992,136,33580,0,65700,0,0,0,0,0
i,0x00000000,1716946122.890459,172.16.3.2,5101,172.16.1.2,38165,10123,14480,0,65728,65700,6,6,4,1460,852,1,992,136,33580,0,65700,0,0,0,0,0
o,0x00000000,1716946122.890464,172.16.3.2,5101,172.16.1.2,38165,10123,14480,0,65728,65700,6,6,4,1460,852,1,993,136,33580,0,65700,1448,0,0,0,0
i,0x00000000,1716946122.908908,172.16.3.2,5101,172.16.1.2,38165,10123,14480,0,65728,65700,6,6,4,1460,852,1,992,136,33580,0,65700,0,0,0,0,0
i,0x00000000,1716946122.919206,172.16.3.2,5101,172.16.1.2,38165,10123,14480,0,65728,65700,6,6,4,1460,852,1,992,136,33580,0,65700,0,0,0,0,0
o,0x00000000,1716946122.919213,172.16.3.2,5101,172.16.1.2,38165,10123,14480,0,65728,65700,6,6,4,1460,852,1,993,136,33580,0,65700,1448,0,0,0,0
i,0x00000000,1716946122.929692,172.16.3.2,5101,172.16.1.2,38165,10123,14480,0,65728,65700,6,6,4,1460,852,1,992,136,33580,0,65700,0,0,0,0,0
i,0x00000000,1716946122.939908,172.16.3.2,5101,172.16.1.2,38165,10123,14480,0,65728,65700,6,6,4,1460,852,1,992,136,33580,0,65700,0,0,0,0,0
o,0x00000000,1716946122.939914,172.16.3.2,5101,172.16.1.2,38165,10123,14480,0,65728,65700,6,6,4,1460,852,1,993,136,33580,0,65700,1448,0,0,0,0
i,0x00000000,1716946122.949504,172.16.3.2,5101,172.16.1.2,38165,10123,14480,0,65728,65700,6,6,4,1460,852,1,992,136,33580,0,65700,0,0,0,0,0
o,0x00000000,1716946122.957493,10.0.2.15,22,10.0.2.2,62180,1073725440,14600,0,65535,65700,0,0,4,1460,1,0,4,24,33580,108,65700,0,0,0,0,0
i,0x00000000,1716946122.958223,10.0.2.15,22,10.0.2.2,62180,1073725440,14600,0,65535,65700,0,0,4,1460,1,0,4,24,33580,108,65700,0,108,0,0,0
i,0x00000000,1716946122.969093,172.16.3.2,5101,172.16.1.2,38165,10123,14480,0,65728,65700,6,6,4,1460,852,1,992,136,33580,0,65700,0,0,0,0,0
o,0x00000000,1716946122.969098,172.16.3.2,5101,172.16.1.2,38165,10123,14480,0,65728,65700,6,6,4,1460,852,1,993,136,33580,0,65700,1448,0,0,0,0
i,0x00000000,1716946122.979460,172.16.3.2,5101,172.16.1.2,38165,10123,14480,0,65728,65700,6,6,4,1460,852,1,992,136,33580,0,65700,0,0,0,0,0
o,0x00000000,1716946123.017647,172.16.3.2,5101,172.16.1.2,38165,10123,14480,0,65728,65700,6,6,4,1460,852,1,993,136,33580,0,65700,0,0,0,0,0
i,0x00000000,1716946123.029390,172.16.3.2,5101,172.16.1.2,38165,10123,14480,0,65728,65700,6,6,4,1460,852,1,992,136,33580,0,65700,0,0,0,0,0
i,0x00000000,1716946123.038746,172.16.3.2,5101,172.16.1.2,38165,10123,14480,0,65728,65700,6,6,4,1460,852,1,992,136,33580,0,65700,0,0,0,0,0
o,0x00000000,1716946123.038753,172.16.3.2,5101,172.16.1.2,38165,10123,14480,0,65728,65700,6,6,4,1460,852,1,993,136,33580,0,65700,1448,0,0,0,0
i,0x00000000,1716946123.208447,172.16.3.2,5101,172.16.1.2,38165,10123,14480,0,65728,65700,6,6,4,1460,852,1,992,136,33580,0,65700,0,0,0,0,0
o,0x00000000,1716946123.247579,172.16.3.2,5101,172.16.1.2,38165,10123,14480,0,65728,65700,6,6,4,1460,852,1,993,136,33580,0,65700,0,0,0,0,0
i,0x00000000,1716946123.299746,172.16.3.2,5101,172.16.1.2,38165,10123,14480,0,65728,65700,6,6,4,1460,852,1,992,136,33580,0,65700,0,0,0,0,0
i,0x00000000,1716946123.310079,172.16.3.2,5101,172.16.1.2,38165,10123,14480,0,65728,65700,6,6,4,1460,852,1,992,136,33580,0,65700,0,0,0,0,0
o,0x00000000,1716946123.310091,172.16.3.2,5101,172.16.1.2,38165,10123,14480,0,65728,65700,6,6,4,1460,852,1,993,136,33580,0,65700,1448,0,0,0,0
i,0x00000000,1716946123.318505,172.16.3.2,5101,172.16.1.2,38165,10123,14480,0,65728,65700,6,6,4,1460,852,1,992,136,33580,0,65700,0,0,0,0,0
i,0x00000000,1716946123.339134,172.16.3.2,5101,172.16.1.2,38165,10123,14480,0,65728,65700,6,6,4,1460,852,1,992,136,33580,0,65700,0,0,0,0,0
o,0x00000000,1716946123.339140,172.16.3.2,5101,172.16.1.2,38165,10123,14480,0,65728,65700,6,6,4,1460,852,1,993,136,33580,0,65700,1448,0,0,0,0
i,0x00000000,1716946123.349522,172.16.3.2,5101,172.16.1.2,38165,10123,14480,0,65728,65700,6,6,4,1460,852,1,992,136,33580,0,65700,0,0,0,0,0
i,0x00000000,1716946123.358938,172.16.3.2,5101,172.16.1.2,38165,10123,14480,0,65728,65700,6,6,4,1460,852,1,992,136,33580,0,65700,0,0,0,0,0
o,0x00000000,1716946123.358943,172.16.3.2,5101,172.16.1.2,38165,10123,14480,0,65728,65700,6,6,4,1460,852,1,993,136,33580,0,65700,1448,0,0,0,0
i,0x00000000,1716946123.369315,172.16.3.2,5101,172.16.1.2,38165,10123,14480,0,65728,65700,6,6,4,1460,852,1,992,136,33580,0,65700,0,0,0,0,0
i,0x00000000,1716946123.378684,172.16.3.2,5101,172.16.1.2,38165,10123,14480,0,65728,65700,6,6,4,1460,852,1,992,136,33580,0,65700,0,0,0,0,0
o,0x00000000,1716946123.378690,172.16.3.2,5101,172.16.1.2,38165,10123,14480,0,65728,65700,6,6,4,1460,852,1,993,136,33580,0,65700,1448,0,0,0,0
i,0x00000000,1716946123.399452,172.16.3.2,5101,172.16.1.2,38165,10123,14480,0,65728,65700,6,6,4,1460,852,1,992,136,33580,0,65700,0,0,0,0,0
i,0x00000000,1716946123.408800,172.16.3.2,5101,172.16.1.2,38165,10123,14480,0,65728,65700,6,6,4,1460,852,1,992,136,33580,0,65700,0,0,0,0,0
o,0x00000000,1716946123.408809,172.16.3.2,5101,172.16.1.2,38165,10123,14480,0,65728,65700,6,6,4,1460,852,1,993,136,33580,0,65700,1448,0,0,0,0
i,0x00000000,1716946123.419176,172.16.3.2,5101,172.16.1.2,38165,10123,14480,0,65728,65700,6,6,4,1460,852,1,992,136,33580,0,65700,0,0,0,0,0
i,0x00000000,1716946123.429307,172.16.3.2,5101,172.16.1.2,38165,10123,14480,0,65728,65700,6,6,4,1460,852,1,992,136,33580,0,65700,0,0,0,0,0
o,0x00000000,1716946123.429313,172.16.3.2,5101,172.16.1.2,38165,10123,14480,0,65728,65700,6,6,4,1460,852,1,993,136,33580,0,65700,1448,0,0,0,0
i,0x00000000,1716946123.439456,172.16.3.2,5101,172.16.1.2,38165,10123,14480,0,65728,65700,6,6,4,1460,852,1,992,136,33580,0,65700,0,0,0,0,0
i,0x00000000,1716946123.459100,172.16.3.2,5101,172.16.1.2,38165,10123,14480,0,65728,65700,6,6,4,1460,852,1,992,136,33580,0,65700,0,0,0,0,0
o,0x00000000,1716946123.459105,172.16.3.2,5101,172.16.1.2,38165,10123,14480,0,65728,65700,6,6,4,1460,852,1,993,136,33580,0,65700,1448,0,0,0,0
i,0x00000000,1716946123.469574,172.16.3.2,5101,172.16.1.2,38165,10123,14480,0,65728,65700,6,6,4,1460,852,1,992,136,33580,0,65700,0,0,0,0,0
i,0x00000000,1716946123.478748,172.16.3.2,5101,172.16.1.2,38165,10123,14480,0,65728,65700,6,6,4,1460,852,1,992,136,33580,0,65700,0,0,0,0,0
o,0x00000000,1716946123.478753,172.16.3.2,5101,172.16.1.2,38165,10123,14480,0,65728,65700,6,6,4,1460,852,1,993,136,33580,0,65700,1448,0,0,0,0
i,0x00000000,1716946123.489051,172.16.3.2,5101,172.16.1.2,38165,10123,14480,0,65728,65700,6,6,4,1460,852,1,992,136,33580,0,65700,0,0,0,0,0
i,0x00000000,1716946123.498521,172.16.3.2,5101,172.16.1.2,38165,10123,14480,0,65728,65700,6,6,4,1460,852,1,992,136,33580,0,65700,0,0,0,0,0
o,0x00000000,1716946123.498531,172.16.3.2,5101,172.16.1.2,38165,10123,14480,0,65728,65700,6,6,4,1460,852,1,993,136,33580,0,65700,1448,0,0,0,0
i,0x00000000,1716946123.519174,172.16.3.2,5101,172.16.1.2,38165,10123,14480,0,65728,65700,6,6,4,1460,852,1,992,136,33580,0,65700,0,0,0,0,0
o,0x00000000,1716946123.557333,172.16.3.2,5101,172.16.1.2,38165,10123,14480,0,65728,65700,6,6,4,1460,852,1,993,136,33580,0,65700,0,0,0,0,0
i,0x00000000,1716946123.579498,172.16.3.2,5101,172.16.1.2,38165,10123,14480,0,65728,65700,6,6,4,1460,852,1,992,136,33580,0,65700,0,0,0,0,0
i,0x00000000,1716946123.588938,172.16.3.2,5101,172.16.1.2,38165,10123,14480,0,65728,65700,6,6,4,1460,852,1,992,136,33580,0,65700,0,0,0,0,0
o,0x00000000,1716946123.588944,172.16.3.2,5101,172.16.1.2,38165,10123,14480,0,65728,65700,6,6,4,1460,852,1,993,136,33580,0,65700,1448,0,0,0,0
i,0x00000000,1716946123.609575,172.16.3.2,5101,172.16.1.2,38165,10123,14480,0,65728,65700,6,6,4,1460,852,1,992,136,33580,0,65700,0,0,0,0,0
i,0x00000000,1716946123.618834,172.16.3.2,5101,172.16.1.2,38165,10123,14480,0,65728,65700,6,6,4,1460,852,1,992,136,33580,0,65700,0,0,0,0,0
o,0x00000000,1716946123.618843,172.16.3.2,5101,172.16.1.2,38165,10123,14480,0,65728,65700,6,6,4,1460,852,1,993,136,33580,0,65700,1448,0,0,0,0
i,0x00000000,1716946123.859268,172.16.3.2,5101,172.16.1.2,38165,10123,14480,0,65728,65700,6,6,4,1460,852,1,992,136,33580,0,65700,0,0,0,0,0
i,0x00000000,1716946123.868520,172.16.3.2,5101,172.16.1.2,38165,10123,14480,0,65728,65700,6,6,4,1460,852,1,992,136,33580,0,65700,0,0,0,0,0
o,0x00000000,1716946123.868532,172.16.3.2,5101,172.16.1.2,38165,10123,14480,0,65728,65700,6,6,4,1460,852,1,993,136,33580,0,65700,1448,0,0,0,0
i,0x00000000,1716946123.888251,172.16.3.2,5101,172.16.1.2,38165,10123,14480,0,65728,65700,6,6,4,1460,852,1,992,136,33580,0,65700,0,0,0,0,0
i,0x00000000,1716946123.898562,172.16.3.2,5101,172.16.1.2,38165,10123,14480,0,65728,65700,6,6,4,1460,852,1,992,136,33580,0,65700,0,0,0,0,0
o,0x00000000,1716946123.898568,172.16.3.2,5101,172.16.1.2,38165,10123,14480,0,65728,65700,6,6,4,1460,852,1,993,136,33580,0,65700,1448,0,0,0,0
i,0x00000000,1716946123.909026,172.16.3.2,5101,172.16.1.2,38165,10123,14480,0,65728,65700,6,6,4,1460,852,1,992,136,33580,0,65700,0,0,0,0,0
i,0x00000000,1716946123.919368,172.16.3.2,5101,172.16.1.2,38165,10123,14480,0,65728,65700,6,6,4,1460,852,1,992,136,33580,0,65700,0,0,0,0,0
o,0x00000000,1716946123.919375,172.16.3.2,5101,172.16.1.2,38165,10123,14480,0,65728,65700,6,6,4,1460,852,1,993,136,33580,0,65700,1448,0,0,0,0
i,0x00000000,1716946123.928802,172.16.3.2,5101,172.16.1.2,38165,10123,14480,0,65728,65700,6,6,4,1460,852,1,992,136,33580,0,65700,0,0,0,0,0
i,0x00000000,1716946123.948560,172.16.3.2,5101,172.16.1.2,38165,10123,14480,0,65728,65700,6,6,4,1460,852,1,992,136,33580,0,65700,0,0,0,0,0
o,0x00000000,1716946123.948567,172.16.3.2,5101,172.16.1.2,38165,10123,14480,0,65728,65700,6,6,4,1460,852,1,993,136,33580,0,65700,1448,0,0,0,0
o,0x00000000,1716946123.957646,10.0.2.15,22,10.0.2.2,62180,1073725440,14600,0,65535,65700,0,0,4,1460,1,0,4,24,33580,108,65700,0,0,0,0,0
i,0x00000000,1716946123.957882,172.16.3.2,5101,172.16.1.2,38165,10123,14480,0,65728,65700,6,6,4,1460,852,1,992,136,33580,0,65700,0,0,0,0,0
i,0x00000000,1716946123.958661,10.0.2.15,22,10.0.2.2,62180,1073725440,14600,0,65535,65700,0,0,4,1460,1,0,4,24,33580,108,65700,0,108,0,0,0
i,0x00000000,1716946123.969225,172.16.3.2,5101,172.16.1.2,38165,10123,14480,0,65728,65700,6,6,4,1460,852,1,992,136,33580,0,65700,0,0,0,0,0
