enable_time_secs=1720556977	enable_time_usecs=376837	siftrver=1.2.4	hz=100	tcp_rtt_scale=32	sysname=FreeBSD	sysver=1301000	ipmode=4
o,0x00000000,1720556977.376950,10.0.2.15,22,10.0.2.2,56272,1073725440,17770,0,65535,65700,0,0,4,1460,1,0,4,23,33580,44,65700,0,0,0,0,0
o,0x00000000,1720556977.377108,10.0.2.15,22,10.0.2.2,56272,1073725440,17770,0,65535,65700,0,0,4,1460,1,0,4,23,33580,80,65700,0,44,0,0,0
i,0x00000000,1720556977.378324,10.0.2.15,22,10.0.2.2,56272,1073725440,17770,0,65535,65700,0,0,4,1460,1,0,4,23,33580,80,65700,0,80,0,0,0
i,0x00000000,1720556977.378328,10.0.2.15,22,10.0.2.2,56272,1073725440,17814,0,65535,65700,0,0,4,1460,1,0,4,23,33580,36,65700,0,36,0,0,0
o,0x00000000,1720556977.378392,10.0.2.15,22,10.0.2.2,56272,1073725440,17850,0,65535,65700,0,0,4,1460,1,0,4,23,33580,36,65700,0,0,0,0,0
o,0x00000000,1720556977.378684,10.0.2.15,22,10.0.2.2,56272,1073725440,17850,0,65535,65700,0,0,4,1460,1,0,4,23,33580,212,65700,0,36,0,0,0
i,0x00000000,1720556977.380711,10.0.2.15,22,10.0.2.2,56272,1073725440,17850,0,65535,65700,0,0,4,1460,1,0,4,23,33580,212,65700,0,212,0,0,0
i,0x00000000,1720556977.380717,10.0.2.15,22,10.0.2.2,56272,1073725440,17886,0,65535,65700,0,0,4,1460,1,0,4,23,33580,176,65700,0,176,0,0,0
i,0x00000000,1720556977.380719,10.0.2.15,22,10.0.2.2,56272,1073725440,18062,0,65535,65700,0,0,4,1460,1,0,4,23,33580,0,65700,0,0,0,0,0
i,0x00000000,1720556977.380721,10.0.2.15,22,10.0.2.2,56272,1073725440,18062,0,65535,65700,0,0,4,1460,1,0,4,23,33580,0,65700,96,0,0,0,0
o,0x00000000,1720556977.380724,10.0.2.15,22,10.0.2.2,56272,1073725440,18062,0,65535,65604,0,0,5,1460,1,0,5,23,33580,0,65700,96,0,0,0,0
o,0x00000000,1720556977.381119,10.0.2.15,22,10.0.2.2,56272,1073725440,18062,0,65535,65604,0,0,8,1460,1,0,4,23,33580,0,65700,0,0,0,0,0
i,0x00000000,1720556977.381790,10.0.2.15,22,10.0.2.2,56272,1073725440,18062,0,65535,65604,0,0,8,1460,1,0,20,23,33580,0,65700,0,1,0,0,0
i,0x00000000,1720556979.470207,10.0.2.15,22,10.0.2.2,56276,1073725440,14600,0,65535,65700,0,0,4,1460,1,0,0,27,33580,0,65700,0,0,0,0,0
o,0x00000000,1720556979.488634,10.0.2.15,22,10.0.2.2,56276,1073725440,14600,0,65535,65700,0,0,4,1460,1,0,0,27,33580,38,65700,42,0,0,0,0
i,0x00000000,1720556979.490618,10.0.2.15,22,10.0.2.2,56276,1073725440,14600,0,65535,65700,0,0,4,1460,1,0,0,27,33580,38,65700,42,38,0,0,0
i,0x00000000,1720556979.490630,10.0.2.15,22,10.0.2.2,56276,1073725440,14638,0,65535,65700,0,0,4,1460,1,0,0,23,33580,0,65700,42,0,0,0,0
i,0x00000000,1720556979.490633,10.0.2.15,22,10.0.2.2,56276,1073725440,14638,0,65535,65700,0,0,4,1460,1,0,0,23,33580,0,65700,1502,0,0,0,0
o,0x00000000,1720556979.490638,10.0.2.15,22,10.0.2.2,56276,1073725440,14638,0,65535,65700,0,0,4,1460,1,0,1,23,33580,0,65700,1578,0,0,0,0
o,0x00000000,1720556979.492000,10.0.2.15,22,10.0.2.2,56276,1073725440,14638,0,65535,65700,0,0,4,1460,1,0,0,23,33580,1056,65700,1536,0,0,0,0
i,0x00000000,1720556979.493371,10.0.2.15,22,10.0.2.2,56276,1073725440,14638,0,65535,65700,0,0,4,1460,1,0,0,23,33580,1056,65700,1536,1056,0,0,0
i,0x00000000,1720556979.495328,10.0.2.15,22,10.0.2.2,56276,1073725440,15694,0,65535,65700,0,0,4,1460,1,0,0,24,33580,0,65700,0,0,0,0,0
o,0x00000000,1720556979.498450,10.0.2.15,22,10.0.2.2,56276,1073725440,15694,0,65535,65700,0,0,4,1460,1,0,0,24,33580,484,65700,0,0,0,0,0
i,0x00000000,1720556979.500064,10.0.2.15,22,10.0.2.2,56276,1073725440,15694,0,65535,65700,0,0,4,1460,1,0,0,24,33580,484,65700,0,484,0,0,0
i,0x00000000,1720556979.504381,10.0.2.15,22,10.0.2.2,56276,1073725440,16178,0,65535,65700,0,0,4,1460,1,0,0,24,33580,0,65700,0,0,0,0,0
i,0x00000000,1720556979.504390,10.0.2.15,22,10.0.2.2,56276,1073725440,16178,0,65535,65700,0,0,4,1460,1,0,0,24,33580,0,65700,16,0,0,0,0
o,0x00000000,1720556979.504394,10.0.2.15,22,10.0.2.2,56276,1073725440,16178,0,65535,65700,0,0,4,1460,1,0,1,24,33580,0,65700,60,0,0,0,0
o,0x00000000,1720556979.504584,10.0.2.15,22,10.0.2.2,56276,1073725440,16178,0,65535,65700,0,0,4,1460,1,0,0,24,33580,44,65700,0,0,0,0,0
i,0x00000000,1720556979.507007,10.0.2.15,22,10.0.2.2,56276,1073725440,16178,0,65535,65700,0,0,4,1460,1,0,0,24,33580,44,65700,0,44,0,0,0
i,0x00000000,1720556979.507019,10.0.2.15,22,10.0.2.2,56276,1073725440,16222,0,65535,65700,0,0,4,1460,1,0,0,24,33580,0,65700,0,0,0,0,0
o,0x00000000,1720556979.517099,10.0.2.15,22,10.0.2.2,56276,1073725440,16222,0,65535,65700,0,0,4,1460,1,0,0,24,33580,68,65700,0,0,0,0,0
i,0x00000000,1720556979.518670,10.0.2.15,22,10.0.2.2,56276,1073725440,16222,0,65535,65700,0,0,4,1460,1,0,0,24,33580,68,65700,0,68,0,0,0
i,0x00000000,1720556979.518681,10.0.2.15,22,10.0.2.2,56276,1073725440,16290,0,65535,65700,0,0,4,1460,1,0,0,24,33580,0,65700,0,0,0,0,0
o,0x00000000,1720556979.519437,10.0.2.15,22,10.0.2.2,56276,1073725440,16290,0,65535,65700,0,0,4,1460,1,0,0,24,33580,332,65700,0,0,0,0,0
i,0x00000000,1720556979.520978,10.0.2.15,22,10.0.2.2,56276,1073725440,16290,0,65535,65700,0,0,4,1460,1,0,0,24,33580,332,65700,0,332,0,0,0
i,0x00000000,1720556979.523256,10.0.2.15,22,10.0.2.2,56276,1073725440,16622,0,65535,65700,0,0,4,1460,1,0,0,24,33580,0,65700,0,0,0,0,0
o,0x00000000,1720556979.538934,10.0.2.15,22,10.0.2.2,56276,1073725440,16622,0,65535,65700,0,0,4,1460,1,0,0,24,33580,28,65700,0,0,0,0,0
i,0x00000000,1720556979.541619,10.0.2.15,22,10.0.2.2,56276,1073725440,16622,0,65535,65700,0,0,4,1460,1,0,0,24,33580,28,65700,0,28,0,0,0
i,0x00000000,1720556979.541635,10.0.2.15,22,10.0.2.2,56276,1073725440,16650,0,65535,65700,0,0,4,1460,1,0,0,24,33580,0,65700,0,0,0,0,0
o,0x00000000,1720556979.543227,10.0.2.15,22,10.0.2.2,56276,1073725440,16650,0,65535,65700,0,0,4,1460,1,0,0,24,33580,768,65700,112,0,0,0,0
i,0x00000000,1720556979.547509,10.0.2.15,22,10.0.2.2,56276,1073725440,16650,0,65535,65700,0,0,4,1460,1,0,0,24,33580,768,65700,112,768,0,0,0
o,0x00000000,1720556979.547714,10.0.2.15,22,10.0.2.2,56276,1073725440,17418,0,65535,65700,0,0,4,1460,1,0,0,24,33580,140,65700,112,0,0,0,0
i,0x00000000,1720556979.550738,10.0.2.15,22,10.0.2.2,56276,1073725440,17418,0,65535,65700,0,0,4,1460,1,0,0,24,33580,140,65700,112,140,0,0,0
o,0x00000000,1720556979.550935,10.0.2.15,22,10.0.2.2,56276,1073725440,17558,0,65535,65700,0,0,4,1460,1,0,0,24,33580,44,65700,0,0,0,0,0
i,0x00000000,1720556979.552401,10.0.2.15,22,10.0.2.2,56276,1073725440,17558,0,65535,65700,0,0,4,1460,1,0,0,24,33580,44,65700,0,44,0,0,0
i,0x00000000,1720556979.552413,10.0.2.15,22,10.0.2.2,56276,1073725440,17602,0,65535,65700,0,0,4,1460,1,0,0,24,33580,0,65700,0,0,0,0,0
o,0x00000000,1720556979.553226,10.0.2.15,22,10.0.2.2,56276,1073725440,17602,0,65535,65700,0,0,4,1460,1,0,4,24,33580,72,65700,0,0,0,0,0
i,0x00000000,1720556979.556823,10.0.2.15,22,10.0.2.2,56276,1073725440,17602,0,65535,65700,0,0,4,1460,1,0,4,24,33580,72,65700,0,72,0,0,0
o,0x00000000,1720556979.563170,10.0.2.15,22,10.0.2.2,56276,1073725440,17674,0,65535,65700,0,0,4,1460,1,0,4,24,33580,44,65700,0,0,0,0,0
i,0x00000000,1720556979.563715,10.0.2.15,22,10.0.2.2,56276,1073725440,17674,0,65535,65700,0,0,4,1460,1,0,4,24,33580,44,65700,0,44,0,0,0
o,0x00000000,1720556979.564189,10.0.2.15,22,10.0.2.2,56276,1073725440,17718,0,65535,65700,0,0,4,1460,1,0,4,24,33580,44,65700,0,0,0,0,0
i,0x00000000,1720556979.564980,10.0.2.15,22,10.0.2.2,56276,1073725440,17718,0,65535,65700,0,0,4,1460,1,0,4,24,33580,44,65700,0,44,0,0,0
o,0x00000000,1720556979.566814,10.0.2.15,22,10.0.2.2,56276,1073725440,17762,0,65535,65700,0,0,4,1460,1,0,4,24,33580,176,65700,0,0,0,0,0
i,0x00000000,1720556979.567768,10.0.2.15,22,10.0.2.2,56276,1073725440,17762,0,65535,65700,0,0,4,1460,1,0,4,24,33580,176,65700,0,176,0,0,0
i,0x00000000,1720556979.567783,10.0.2.15,22,10.0.2.2,56276,1073725440,17938,0,65535,65700,0,0,4,1460,1,0,4,24,33580,0,65700,0,0,0,0,0
i,0x00000000,1720556979.567786,10.0.2.15,22,10.0.2.2,56276,1073725440,17938,0,65535,65700,0,0,4,1460,1,0,4,24,33580,0,65700,96,0,0,0,0
o,0x00000000,1720556979.567793,10.0.2.15,22,10.0.2.2,56276,1073725440,17938,0,65535,65604,0,0,5,1460,1,0,5,24,33580,0,65700,96,0,0,0,0
o,0x00000000,1720556979.581692,10.0.2.15,22,10.0.2.2,56276,1073725440,17938,0,65535,65604,0,0,8,1460,1,0,4,24,33580,0,65700,0,0,0,0,0
i,0x00000000,1720556979.582652,10.0.2.15,22,10.0.2.2,56276,1073725440,17938,0,65535,65604,0,0,8,1460,1,0,20,24,33580,0,65700,0,1,0,0,0
i,0x00000000,1720556979.819258,172.16.3.2,5101,172.16.1.2,34653,10499,14480,0,65728,65700,6,6,4,1460,479,1,992,47,33580,0,65700,0,0,0,0,0
o,0x00000000,1720556979.820029,172.16.3.2,5101,172.16.1.2,34653,10499,14480,0,65728,65700,6,6,4,1460,479,1,996,47,33580,1,65700,0,0,0,0,0
i,0x00000000,1720556979.942412,172.16.3.2,5101,172.16.1.2,34653,10499,14480,0,65728,65700,6,6,4,1460,479,1,996,47,33580,1,65700,0,1,0,0,0
i,0x00000000,1720556979.942434,172.16.3.2,5101,172.16.1.2,34653,10499,14480,0,65728,65728,6,6,4,1460,468,1,996,47,33580,0,65700,4,0,0,0,0
o,0x00000000,1720556979.942444,172.16.3.2,5101,172.16.1.2,34653,10499,14480,0,65728,65728,6,6,4,1460,468,1,997,47,33580,0,65700,128,0,0,0,0
o,0x00000000,1720556979.942820,172.16.3.2,5101,172.16.1.2,34653,10499,14480,0,65728,65728,6,6,4,1460,468,1,996,47,33580,1,65700,0,0,0,0,0
o,0x00000000,1720556979.943467,10.0.2.15,22,10.0.2.2,49435,1073725440,14600,0,65535,65700,0,0,4,1460,1,0,4,24,33580,84,65700,0,0,0,0,0
i,0x00000000,1720556979.944273,10.0.2.15,22,10.0.2.2,49435,1073725440,14600,0,65535,65700,0,0,4,1460,1,0,4,24,33580,84,65700,0,84,0,0,0
i,0x00000000,1720556980.100477,172.16.3.2,5101,172.16.1.2,34653,10499,14480,0,65728,65728,6,6,4,1460,468,1,996,47,33580,1,65700,0,1,0,0,0
i,0x00000000,1720556980.186655,172.16.3.2,5101,172.16.1.2,18627,10499,14480,0,65728,65700,6,6,4,1460,479,1,992,47,33580,0,65700,0,0,0,0,0
o,0x00000000,1720556980.195696,172.16.3.2,5101,172.16.1.2,34653,10499,14480,0,65728,65728,6,6,4,1460,474,1,996,45,33580,1,65700,0,0,0,0,0
o,0x00000000,1720556980.198160,172.16.3.2,5101,172.16.1.2,34653,10499,14480,0,65728,65728,6,6,4,1460,474,1,996,45,33580,2,65700,0,1,0,0,0
o,0x00000000,1720556980.198785,10.0.2.15,22,10.0.2.2,49435,1073725440,14600,0,65535,65700,0,0,4,1460,1,0,4,24,33580,108,65700,0,0,0,0,0
i,0x00000000,1720556980.201978,10.0.2.15,22,10.0.2.2,49435,1073725440,14600,0,65535,65700,0,0,4,1460,1,0,4,24,33580,108,65700,0,108,0,0,0
o,0x00000000,1720556980.218006,172.16.3.2,5101,172.16.1.2,18627,10499,14480,0,65728,65700,6,6,4,1460,479,1,993,47,33580,0,65700,0,0,0,0,0
i,0x00000000,1720556980.320871,172.16.3.2,5101,172.16.1.2,34653,10499,14480,0,65728,65728,6,6,4,1460,474,1,996,45,33580,2,65700,0,2,0,0,0
i,0x00000000,1720556980.404155,172.16.3.2,5101,172.16.1.2,18627,10499,14480,0,65728,65700,6,6,4,1460,479,1,992,47,33580,0,65700,0,0,0,0,0
i,0x00000000,1720556980.423522,172.16.3.2,5101,172.16.1.2,18627,10499,14480,0,65728,65700,6,6,4,1460,479,1,992,47,33580,0,65700,0,0,0,0,0
o,0x00000000,1720556980.423552,172.16.3.2,5101,172.16.1.2,18627,10499,14480,0,65728,65700,6,6,4,1460,479,1,993,47,33580,0,65700,1448,0,0,0,0
i,0x00000000,1720556980.429160,172.16.3.2,5101,172.16.1.2,18627,10499,14480,0,65728,65700,6,6,4,1460,479,1,992,47,33580,0,65700,0,0,0,0,0
i,0x00000000,1720556980.443898,172.16.3.2,5101,172.16.1.2,18627,10499,14480,0,65728,65700,6,6,4,1460,479,1,992,47,33580,0,65700,0,0,0,0,0
o,0x00000000,1720556980.443920,172.16.3.2,5101,172.16.1.2,18627,10499,14480,0,65728,65700,6,6,4,1460,479,1,993,47,33580,0,65700,1448,0,0,0,0
i,0x00000000,1720556980.468859,172.16.3.2,5101,172.16.1.2,18627,10499,14480,0,65728,65700,6,6,4,1460,479,1,992,47,33580,0,65700,0,0,0,0,0
i,0x00000000,1720556980.484927,172.16.3.2,5101,172.16.1.2,18627,10499,14480,0,65728,65700,6,6,4,1460,479,1,992,47,33580,0,65700,0,0,0,0,0
o,0x00000000,1720556980.484946,172.16.3.2,5101,172.16.1.2,18627,10499,14480,0,65728,65700,6,6,4,1460,479,1,993,47,33580,0,65700,1448,0,0,0,0
i,0x00000000,1720556980.485854,172.16.3.2,5101,172.16.1.2,18627,10499,14480,0,65728,65700,6,6,4,1460,479,1,992,47,33580,0,65700,0,0,0,0,0
i,0x00000000,1720556980.489541,172.16.3.2,5101,172.16.1.2,18627,10499,14480,0,65728,65700,6,6,4,1460,479,1,992,47,33580,0,65700,0,0,0,0,0
o,0x00000000,1720556980.489565,172.16.3.2,5101,172.16.1.2,18627,10499,14480,0,65728,65700,6,6,4,1460,479,1,993,47,33580,0,65700,1448,0,0,0,0
i,0x00000000,1720556980.509029,172.16.3.2,5101,172.16.1.2,18627,10499,14480,0,65728,65700,6,6,4,1460,479,1,992,47,33580,0,65700,0,0,0,0,0
i,0x00000000,1720556980.522043,172.16.3.2,5101,172.16.1.2,18627,10499,14480,0,65728,65700,6,6,4,1460,479,1,992,47,33580,0,65700,0,0,0,0,0
o,0x00000000,1720556980.522072,172.16.3.2,5101,172.16.1.2,18627,10499,14480,0,65728,65700,6,6,4,1460,479,1,993,47,33580,0,65700,1448,0,0,0,0
i,0x00000000,1720556980.640743,172.16.3.2,5101,172.16.1.2,18627,10499,14480,0,65728,65700,6,6,4,1460,479,1,992,47,33580,0,65700,0,0,0,0,0
i,0x00000000,1720556980.640757,172.16.3.2,5101,172.16.1.2,18627,10499,14480,0,65728,65700,6,6,4,1460,479,1,992,47,33580,0,65700,1448,0,0,0,0
o,0x00000000,1720556980.640766,172.16.3.2,5101,172.16.1.2,18627,10499,14480,0,65728,65700,6,6,4,1460,479,1,993,47,33580,0,65700,2896,0,0,0,0
i,0x00000000,1720556980.703381,172.16.3.2,5101,172.16.1.2,18627,10499,14480,0,65728,65700,6,6,4,1460,479,1,992,47,33580,0,65700,0,0,0,0,0
o,0x00000000,1720556980.737212,172.16.3.2,5101,172.16.1.2,18627,10499,14480,0,65728,65700,6,6,4,1460,479,1,993,47,33580,0,65700,0,0,0,0,0
i,0x00000000,1720556980.775889,172.16.3.2,5101,172.16.1.2,18627,10499,14480,0,65728,65700,6,6,4,1460,479,1,992,47,33580,0,65700,0,0,0,0,0
i,0x00000000,1720556980.775904,172.16.3.2,5101,172.16.1.2,18627,10499,14480,0,65728,65700,6,6,4,1460,479,1,992,47,33580,0,65700,1448,0,0,0,0
o,0x00000000,1720556980.775910,172.16.3.2,5101,172.16.1.2,18627,10499,14480,0,65728,65700,6,6,4,1460,479,1,993,47,33580,0,65700,2896,0,0,0,0
i,0x00000000,1720556980.796039,172.16.3.2,5101,172.16.1.2,18627,10499,14480,0,65728,65700,6,6,4,1460,479,1,992,47,33580,0,65700,0,0,0,0,0
o,0x00000000,1720556980.827577,172.16.3.2,5101,172.16.1.2,18627,10499,14480,0,65728,65700,6,6,4,1460,479,1,993,47,33580,0,65700,0,0,0,0,0
i,0x00000000,1720556980.851410,172.16.3.2,5101,172.16.1.2,18627,10499,14480,0,65728,65700,6,6,4,1460,479,1,992,47,33580,0,65700,0,0,0,0,0
i,0x00000000,1720556980.858253,172.16.3.2,5101,172.16.1.2,18627,10499,14480,0,65728,65700,6,6,4,1460,479,1,992,47,33580,0,65700,0,0,0,0,0
o,0x00000000,1720556980.858268,172.16.3.2,5101,172.16.1.2,18627,10499,14480,0,65728,65700,6,6,4,1460,479,1,993,47,33580,0,65700,1448,0,0,0,0
i,0x00000000,1720556980.872113,172.16.3.2,5101,172.16.1.2,18627,10499,14480,0,65728,65700,6,6,4,1460,479,1,992,47,33580,0,65700,0,0,0,0,0
i,0x00000000,1720556980.879660,172.16.3.2,5101,172.16.1.2,18627,10499,14480,0,65728,65700,6,6,4,1460,479,1,992,47,33580,0,65700,0,0,0,0,0
o,0x00000000,1720556980.879677,172.16.3.2,5101,172.16.1.2,18627,10499,14480,0,65728,65700,6,6,4,1460,479,1,993,47,33580,0,65700,1448,0,0,0,0
i,0x00000000,1720556980.899477,172.16.3.2,5101,172.16.1.2,18627,10499,14480,0,65728,65700,6,6,4,1460,479,1,992,47,33580,0,65700,0,0,0,0,0
i,0x00000000,1720556980.909337,172.16.3.2,5101,172.16.1.2,18627,10499,14480,0,65728,65700,6,6,4,1460,479,1,992,47,33580,0,65700,0,0,0,0,0
o,0x00000000,1720556980.909352,172.16.3.2,5101,172.16.1.2,18627,10499,14480,0,65728,65700,6,6,4,1460,479,1,993,47,33580,0,65700,1448,0,0,0,0
i,0x00000000,1720556980.920495,172.16.3.2,5101,172.16.1.2,18627,10499,14480,0,65728,65700,6,6,4,1460,479,1,992,47,33580,0,65700,0,0,0,0,0
o,0x00000000,1720556980.956914,172.16.3.2,5101,172.16.1.2,18627,10499,14480,0,65728,65700,6,6,4,1460,479,1,993,47,33580,0,65700,0,0,0,0,0
i,0x00000000,1720556980.958007,172.16.3.2,5101,172.16.1.2,18627,10499,14480,0,65728,65700,6,6,4,1460,479,1,992,47,33580,0,65700,0,0,0,0,0
i,0x00000000,1720556980.982279,172.16.3.2,5101,172.16.1.2,18627,10499,14480,0,65728,65700,6,6,4,1460,479,1,992,47,33580,0,65700,0,0,0,0,0
o,0x00000000,1720556980.982298,172.16.3.2,5101,172.16.1.2,18627,10499,14480,0,65728,65700,6,6,4,1460,479,1,993,47,33580,0,65700,1448,0,0,0,0
i,0x00000000,1720556980.989172,172.16.3.2,5101,172.16.1.2,18627,10499,14480,0,65728,65700,6,6,4,1460,479,1,992,47,33580,0,65700,0,0,0,0,0
i,0x00000000,1720556981.021935,172.16.3.2,5101,172.16.1.2,18627,10499,14480,0,65728,65700,6,6,4,1460,479,1,992,47,33580,0,65700,0,0,0,0,0
o,0x00000000,1720556981.021998,172.16.3.2,5101,172.16.1.2,18627,10499,14480,0,65728,65700,6,6,4,1460,479,1,993,47,33580,0,65700,1448,0,0,0,0
i,0x00000000,1720556981.030865,172.16.3.2,5101,172.16.1.2,18627,10499,14480,0,65728,65700,6,6,4,1460,479,1,992,47,33580,0,65700,0,0,0,0,0
i,0x00000000,1720556981.045912,172.16.3.2,5101,172.16.1.2,18627,10499,14480,0,65728,65700,6,6,4,1460,479,1,992,47,33580,0,65700,0,0,0,0,0
o,0x00000000,1720556981.045928,172.16.3.2,5101,172.16.1.2,18627,10499,14480,0,65728,65700,6,6,4,1460,479,1,993,47,33580,0,65700,1448,0,0,0,0
i,0x00000000,1720556981.046197,172.16.3.2,5101,172.16.1.2,18627,10499,14480,0,65728,65700,6,6,4,1460,479,1,992,47,33580,0,65700,1448,0,0,0,0
o,0x00000000,1720556981.077758,172.16.3.2,5101,172.16.1.2,18627,10499,14480,0,65728,65700,6,6,4,1460,479,1,993,47,33580,0,65700,0,0,0,0,0
i,0x00000000,1720556981.099734,172.16.3.2,5101,172.16.1.2,18627,10499,14480,0,65728,65700,6,6,4,1460,479,1,992,47,33580,0,65700,0,0,0,0,0
o,0x00000000,1720556981.139520,172.16.3.2,5101,172.16.1.2,18627,10499,14480,0,65728,65700,6,6,4,1460,479,1,993,47,33580,0,65700,0,0,0,0,0
i,0x00000000,1720556981.193772,172.16.3.2,5101,172.16.1.2,18627,10499,14480,0,65728,65700,6,6,4,1460,479,1,992,47,33580,0,65700,0,0,0,0,0
o,0x00000000,1720556981.193831,172.16.3.2,5101,172.16.1.2,18627,10499,14480,0,65728,65728,6,6,4,1460,479,1,993,47,33580,0,65700,0,0,1,0,0
o,0x00000000,1720556981.209771,10.0.2.15,22,10.0.2.2,49435,1073725440,14600,0,65535,65700,0,0,4,1460,1,0,4,24,33580,156,65700,0,0,0,0,0
i,0x00000000,1720556981.214484,10.0.2.15,22,10.0.2.2,49435,1073725440,14600,0,65535,65700,0,0,4,1460,1,0,4,24,33580,156,65700,0,156,0,0,0
i,0x00000000,1720556981.221209,172.16.3.2,5101,172.16.1.2,18627,10499,14480,0,65728,65728,6,6,4,1460,479,1,992,47,33580,0,65700,0,0,1,0,0
o,0x00000000,1720556981.221229,172.16.3.2,5101,172.16.1.2,18627,10499,14480,0,65728,65728,6,6,4,1460,479,1,993,47,33580,0,65700,0,0,1,0,0
i,0x00000000,1720556981.250801,172.16.3.2,5101,172.16.1.2,18627,10499,14480,0,65728,65728,6,6,4,1460,479,1,992,47,33580,0,65700,0,0,1,0,0
o,0x00000000,1720556981.250827,172.16.3.2,5101,172.16.1.2,18627,10499,14480,0,65728,65728,6,6,4,1460,479,1,993,47,33580,0,65700,0,0,2,0,0
i,0x00000000,1720556981.292490,172.16.3.2,5101,172.16.1.2,18627,10499,14480,0,65728,65728,6,6,4,1460,479,1,992,47,33580,0,65700,0,0,2,0,0
o,0x00000000,1720556981.292542,172.16.3.2,5101,172.16.1.2,18627,10499,14480,0,65728,65728,6,6,4,1460,479,1,993,47,33580,0,65700,0,0,2,0,0
i,0x00000000,1720556981.301565,172.16.3.2,5101,172.16.1.2,18627,10499,14480,0,65728,65728,6,6,4,1460,479,1,992,47,33580,0,65700,0,0,2,0,0
o,0x00000000,1720556981.301609,172.16.3.2,5101,172.16.1.2,18627,10499,14480,0,65728,65728,6,6,4,1460,479,1,993,47,33580,0,65700,0,0,3,0,0
i,0x00000000,1720556981.340412,172.16.3.2,5101,172.16.1.2,18627,10499,14480,0,65728,65728,6,6,4,1460,479,1,992,47,33580,0,65700,0,0,3,0,0
o,0x00000000,1720556981.340452,172.16.3.2,5101,172.16.1.2,18627,10499,14480,0,65728,65728,6,6,4,1460,479,1,993,47,33580,0,65700,0,0,4,0,0
i,0x00000000,1720556981.345282,172.16.3.2,5101,172.16.1.2,18627,10499,14480,0,65728,65728,6,6,4,1460,479,1,992,47,33580,0,65700,0,0,4,0,0
o,0x00000000,1720556981.345313,172.16.3.2,5101,172.16.1.2,18627,10499,14480,0,65728,65728,6,6,4,1460,479,1,993,47,33580,0,65700,0,0,4,0,0
i,0x00000000,1720556981.348914,172.16.3.2,5101,172.16.1.2,18627,10499,14480,0,65728,65728,6,6,4,1460,479,1,992,47,33580,0,65700,0,0,4,0,0
o,0x00000000,1720556981.348927,172.16.3.2,5101,172.16.1.2,18627,10499,14480,0,65728,65728,6,6,4,1460,479,1,993,47,33580,0,65700,0,0,5,0,0
i,0x00000000,1720556981.399648,172.16.3.2,5101,172.16.1.2,18627,10499,14480,0,65728,65728,6,6,4,1460,479,1,992,47,33580,0,65700,0,0,5,0,0
o,0x00000000,1720556981.399659,172.16.3.2,5101,172.16.1.2,18627,10499,14480,0,65728,65728,6,6,4,1460,479,1,993,47,33580,0,65700,0,0,5,0,0
i,0x00000000,1720556981.401056,172.16.3.2,5101,172.16.1.2,18627,10499,14480,0,65728,65728,6,6,4,1460,479,1,992,47,33580,0,65700,0,0,5,0,0
o,0x00000000,1720556981.401062,172.16.3.2,5101,172.16.1.2,18627,10499,14480,0,65728,65728,6,6,4,1460,479,1,993,47,33580,0,65700,0,0,5,0,0
i,0x00000000,1720556981.445404,172.16.3.2,5101,172.16.1.2,18627,10499,14480,0,65728,65728,6,6,4,1460,479,1,992,47,33580,0,65700,0,0,5,0,0
o,0x00000000,1720556981.445445,172.16.3.2,5101,172.16.1.2,18627,10499,14480,0,65728,65728,6,6,4,1460,479,1,993,47,33580,0,65700,0,0,6,0,0
i,0x00000000,1720556981.462686,172.16.3.2,5101,172.16.1.2,18627,10499,14480,0,65728,65728,6,6,4,1460,479,1,992,47,33580,0,65700,0,0,6,0,0
o,0x00000000,1720556981.462731,172.16.3.2,5101,172.16.1.2,18627,10499,14480,0,65728,65728,6,6,4,1460,479,1,993,47,33580,0,65700,0,0,6,0,0
i,0x00000000,1720556981.487402,172.16.3.2,5101,172.16.1.2,18627,10499,14480,0,65728,65728,6,6,4,1460,479,1,992,47,33580,0,65700,0,0,6,0,0
o,0x00000000,1720556981.487427,172.16.3.2,5101,172.16.1.2,18627,10499,14480,0,65728,65728,6,6,4,1460,479,1,993,47,33580,0,65700,0,0,6,0,0
i,0x00000000,1720556981.493150,172.16.3.2,5101,172.16.1.2,18627,10499,14480,0,65728,65728,6,6,4,1460,479,1,992,47,33580,0,65700,0,0,6,0,0
o,0x00000000,1720556981.493197,172.16.3.2,5101,172.16.1.2,18627,10499,14480,0,65728,65728,6,6,4,1460,479,1,993,47,33580,0,65700,0,0,6,0,0
i,0x00000000,1720556981.502154,172.16.3.2,5101,172.16.1.2,18627,10499,14480,0,65728,65728,6,6,4,1460,479,1,992,47,33580,0,65700,0,0,6,0,0
o,0x00000000,1720556981.502187,172.16.3.2,5101,172.16.1.2,18627,10499,14480,0,65728,65728,6,6,4,1460,479,1,993,47,33580,0,65700,0,0,6,0,0
i,0x00000000,1720556981.568648,172.16.3.2,5101,172.16.1.2,18627,10499,14480,0,65728,65728,6,6,4,1460,479,1,992,47,33580,0,65700,0,0,6,0,0
o,0x00000000,1720556981.568690,172.16.3.2,5101,172.16.1.2,18627,10499,14480,0,65728,65728,6,6,4,1460,479,1,993,47,33580,0,65700,0,0,5,0,0
i,0x00000000,1720556981.599078,172.16.3.2,5101,172.16.1.2,18627,10499,14480,0,65728,65728,6,6,4,1460,479,1,992,47,33580,0,65700,0,0,5,0,0
o,0x00000000,1720556981.599095,172.16.3.2,5101,172.16.1.2,18627,10499,14480,0,65728,65728,6,6,4,1460,479,1,993,47,33580,0,65700,0,0,4,0,0
i,0x00000000,1720556981.642344,172.16.3.2,5101,172.16.1.2,18627,10499,14480,0,65728,65728,6,6,4,1460,479,1,992,47,33580,0,65700,0,0,4,0,0
o,0x00000000,1720556981.642396,172.16.3.2,5101,172.16.1.2,18627,10499,14480,0,65728,65728,6,6,4,1460,479,1,993,47,33580,0,65700,0,0,3,0,0
i,0x00000000,1720556981.644877,172.16.3.2,5101,172.16.1.2,18627,10499,14480,0,65728,65728,6,6,4,1460,479,1,992,47,33580,0,65700,0,0,3,0,0
o,0x00000000,1720556981.644934,172.16.3.2,5101,172.16.1.2,18627,10499,14480,0,65728,65728,6,6,4,1460,479,1,993,47,33580,0,65700,0,0,2,0,0
i,0x00000000,1720556981.654387,172.16.3.2,5101,172.16.1.2,18627,10499,14480,0,65728,65728,6,6,4,1460,479,1,992,47,33580,0,65700,0,0,2,0,0
o,0x00000000,1720556981.654421,172.16.3.2,5101,172.16.1.2,18627,10499,14480,0,65728,65728,6,6,4,1460,479,1,993,47,33580,0,65700,0,0,3,0,0
i,0x00000000,1720556981.662969,172.16.3.2,5101,172.16.1.2,18627,10499,14480,0,65728,65728,6,6,4,1460,479,1,992,47,33580,0,65700,0,0,3,0,0
o,0x00000000,1720556981.663003,172.16.3.2,5101,172.16.1.2,18627,10499,14480,0,65728,65728,6,6,4,1460,479,1,993,47,33580,0,65700,0,0,3,0,0
i,0x00000000,1720556981.732120,172.16.3.2,5101,172.16.1.2,18627,10499,14480,0,65728,65728,6,6,4,1460,479,1,992,47,33580,0,65700,0,0,3,0,0
o,0x00000000,1720556981.732157,172.16.3.2,5101,172.16.1.2,18627,10499,14480,0,65728,65728,6,6,4,1460,479,1,993,47,33580,0,65700,0,0,3,0,0
i,0x00000000,1720556981.795099,172.16.3.2,5101,172.16.1.2,18627,10499,14480,0,65728,65728,6,6,4,1460,479,1,992,47,33580,0,65700,0,0,3,0,0
o,0x00000000,1720556981.795142,172.16.3.2,5101,172.16.1.2,18627,10499,14480,0,65728,65728,6,6,4,1460,479,1,993,47,33580,0,65700,0,0,3,0,0
i,0x00000000,1720556981.821813,172.16.3.2,5101,172.16.1.2,18627,10499,14480,0,65728,65728,6,6,4,1460,479,1,992,47,33580,0,65700,0,0,3,0,0
o,0x00000000,1720556981.821841,172.16.3.2,5101,172.16.1.2,18627,10499,14480,0,65728,65728,6,6,4,1460,479,1,993,47,33580,0,65700,0,0,3,0,0
i,0x00000000,1720556981.832248,172.16.3.2,5101,172.16.1.2,18627,10499,14480,0,65728,65728,6,6,4,1460,479,1,992,47,33580,0,65700,0,0,3,0,0
o,0x00000000,1720556981.832302,172.16.3.2,5101,172.16.1.2,18627,10499,14480,0,65728,65728,6,6,4,1460,479,1,993,47,33580,0,65700,0,0,3,0,0
i,0x00000000,1720556981.842551,172.16.3.2,5101,172.16.1.2,18627,10499,14480,0,65728,65728,6,6,4,1460,479,1,992,47,33580,0,65700,0,0,3,0,0
o,0x00000000,1720556981.842602,172.16.3.2,5101,172.16.1.2,18627,10499,14480,0,65728,65728,6,6,4,1460,479,1,993,47,33580,0,65700,0,0,2,0,0
i,0x00000000,1720556981.852427,172.16.3.2,5101,172.16.1.2,18627,10499,14480,0,65728,65728,6,6,4,1460,479,1,992,47,33580,0,65700,0,0,2,0,0
o,0x00000000,1720556981.852472,172.16.3.2,5101,172.16.1.2,18627,10499,14480,0,65728,65728,6,6,4,1460,479,1,993,47,33580,0,65700,0,0,2,0,0
i,0x00000000,1720556981.863858,172.16.3.2,5101,172.16.1.2,18627,10499,14480,0,65728,65728,6,6,4,1460,479,1,992,47,33580,0,65700,0,0,2,0,0
o,0x00000000,1720556981.863901,172.16.3.2,5101,172.16.1.2,18627,10499,14480,0,65728,65728,6,6,4,1460,479,1,993,47,33580,0,65700,0,0,2,0,0
i,0x00000000,1720556981.922522,172.16.3.2,5101,172.16.1.2,18627,10499,14480,0,65728,65728,6,6,4,1460,479,1,992,47,33580,0,65700,0,0,2,0,0
o,0x00000000,1720556981.922560,172.16.3.2,5101,172.16.1.2,18627,10499,14480,0,65728,65728,6,6,4,1460,479,1,993,47,33580,0,65700,0,0,2,0,0
i,0x00000000,1720556981.974244,172.16.3.2,5101,172.16.1.2,18627,10499,14480,0,65728,65728,6,6,4,1460,479,1,992,47,33580,0,65700,0,0,2,0,0
o,0x00000000,1720556981.974272,172.16.3.2,5101,172.16.1.2,18627,10499,14480,0,65728,65728,6,6,4,1460,479,1,993,47,33580,0,65700,0,0,2,0,0
i,0x00000000,1720556982.013950,172.16.3.2,5101,172.16.1.2,18627,10499,14480,0,65728,65728,6,6,4,1460,479,1,992,47,33580,0,65700,0,0,2,0,0
o,0x00000000,1720556982.013986,172.16.3.2,5101,172.16.1.2,18627,10499,14480,0,65728,65728,6,6,4,1460,479,1,993,47,33580,0,65700,0,0,2,0,0
i,0x00000000,1720556982.020211,172.16.3.2,5101,172.16.1.2,18627,10499,14480,0,65728,65728,6,6,4,1460,479,1,992,47,33580,0,65700,0,0,2,0,0
o,0x00000000,1720556982.020230,172.16.3.2,5101,172.16.1.2,18627,10499,14480,0,65728,65728,6,6,4,1460,479,1,993,47,33580,0,65700,0,0,2,0,0
i,0x00000000,1720556982.050904,172.16.3.2,5101,172.16.1.2,18627,10499,14480,0,65728,65728,6,6,4,1460,479,1,992,47,33580,0,65700,0,0,2,0,0
o,0x00000000,1720556982.050939,172.16.3.2,5101,172.16.1.2,18627,10499,14480,0,65728,65728,6,6,4,1460,479,1,993,47,33580,0,65700,0,0,2,0,0
i,0x00000000,1720556982.051424,172.16.3.2,5101,172.16.1.2,18627,10499,14480,0,65728,65728,6,6,4,1460,479,1,992,47,33580,0,65700,0,0,2,0,0
o,0x00000000,1720556982.051448,172.16.3.2,5101,172.16.1.2,18627,10499,14480,0,65728,65728,6,6,4,1460,479,1,993,47,33580,0,65700,0,0,2,0,0
i,0x00000000,1720556982.072255,172.16.3.2,5101,172.16.1.2,18627,10499,14480,0,65728,65728,6,6,4,1460,479,1,992,47,33580,0,65700,0,0,2,0,0
o,0x00000000,1720556982.072310,172.16.3.2,5101,172.16.1.2,18627,10499,14480,0,65728,65728,6,6,4,1460,479,1,993,47,33580,0,65700,0,0,2,0,0
i,0x00000000,1720556982.091269,172.16.3.2,5101,172.16.1.2,18627,10499,14480,0,65728,65728,6,6,4,1460,479,1,992,47,33580,0,65700,0,0,2,0,0
o,0x00000000,1720556982.091292,172.16.3.2,5101,172.16.1.2,18627,10499,14480,0,65728,65728,6,6,4,1460,479,1,993,47,33580,0,65700,0,0,2,0,0
i,0x00000000,1720556982.121855,172.16.3.2,5101,172.16.1.2,18627,10499,14480,0,65728,65728,6,6,4,1460,479,1,992,47,33580,0,65700,0,0,2,0,0
o,0x00000000,1720556982.121881,172.16.3.2,5101,172.16.1.2,18627,10499,14480,0,65728,65728,6,6,4,1460,479,1,993,47,33580,0,65700,0,0,2,0,0
i,0x00000000,1720556982.170762,172.16.3.2,5101,172.16.1.2,18627,10499,14480,0,65728,65728,6,6,4,1460,479,1,992,47,33580,0,65700,0,0,2,0,0
o,0x00000000,1720556982.170783,172.16.3.2,5101,172.16.1.2,18627,10499,14480,0,65728,65728,6,6,4,1460,479,1,993,47,33580,0,65700,0,0,2,0,0
i,0x00000000,1720556982.193866,172.16.3.2,5101,172.16.1.2,18627,10499,14480,0,65728,65728,6,6,4,1460,479,1,992,47,33580,0,65700,0,0,2,0,0
o,0x00000000,1720556982.193953,172.16.3.2,5101,172.16.1.2,18627,10499,14480,0,65728,65728,6,6,4,1460,479,1,993,47,33580,0,65700,0,0,2,0,0
o,0x00000000,1720556982.208035,10.0.2.15,22,10.0.2.2,49435,1073725440,14600,0,65535,65700,0,0,4,1460,1,0,4,24,33580,108,65700,0,0,0,0,0
i,0x00000000,1720556982.210492,10.0.2.15,22,10.0.2.2,49435,1073725440,14600,0,65535,65700,0,0,4,1460,1,0,4,24,33580,108,65700,0,108,0,0,0
i,0x00000000,1720556982.211475,172.16.3.2,5101,172.16.1.2,18627,10499,14480,0,65728,65728,6,6,4,1460,479,1,992,47,33580,0,65700,0,0,2,0,0
o,0x00000000,1720556982.211497,172.16.3.2,5101,172.16.1.2,18627,10499,14480,0,65728,65728,6,6,4,1460,479,1,993,47,33580,0,65700,0,0,2,0,0
i,0x00000000,1720556982.219639,172.16.3.2,5101,172.16.1.2,18627,10499,14480,0,65728,65728,6,6,4,1460,479,1,992,47,33580,0,65700,0,0,2,0,0
o,0x00000000,1720556982.219651,172.16.3.2,5101,172.16.1.2,18627,10499,14480,0,65728,65728,6,6,4,1460,479,1,993,47,33580,0,65700,0,0,2,0,0
i,0x00000000,1720556982.232288,172.16.3.2,5101,172.16.1.2,18627,10499,14480,0,65728,65728,6,6,4,1460,479,1,992,47,33580,0,65700,0,0,2,0,0
o,0x00000000,1720556982.232299,172.16.3.2,5101,172.16.1.2,18627,10499,14480,0,65728,65728,6,6,4,1460,479,1,993,47,33580,0,65700,0,0,2,0,0
i,0x00000000,1720556982.491780,172.16.3.2,5101,172.16.1.2,18627,10499,14480,0,65728,65728,6,6,4,1460,479,1,992,47,33580,0,65700,0,0,2,0,0
o,0x00000000,1720556982.491851,172.16.3.2,5101,172.16.1.2,18627,10499,14480,0,65728,65728,6,6,4,1460,479,1,993,47,33580,0,65700,4344,0,1,0,0
i,0x00000000,1720556982.627650,172.16.3.2,5101,172.16.1.2,18627,10499,14480,0,65728,65728,6,6,4,1460,479,1,992,47,33580,0,65700,0,0,1,0,0
o,0x00000000,1720556982.627698,172.16.3.2,5101,172.16.1.2,18627,10499,14480,0,65728,65700,6,6,4,1460,479,1,993,47,33580,0,65700,1448,0,1,0,0
i,0x00000000,1720556982.633953,172.16.3.2,5101,172.16.1.2,18627,10499,14480,0,65728,65700,6,6,4,1460,479,1,992,47,33580,0,65700,0,0,1,0,0
o,0x00000000,1720556982.634104,172.16.3.2,5101,172.16.1.2,18627,10499,14480,0,65728,65700,6,6,4,1460,479,1,993,47,33580,0,65700,59368,0,0,0,0
o,0x00000000,1720556982.634910,172.16.3.2,5101,172.16.1.2,18627,10499,14480,0,65728,65700,6,6,4,1460,479,1,992,47,33580,0,65700,0,0,0,0,0
i,0x00000000,1720556982.771137,172.16.3.2,5101,172.16.1.2,18627,10499,14480,0,65728,65700,6,6,4,1460,479,1,992,47,33580,0,65700,0,0,0,0,0
o,0x00000000,1720556982.771201,172.16.3.2,5101,172.16.1.2,18627,10499,14480,0,65728,65728,6,6,4,1460,479,1,993,47,33580,0,65700,0,0,0,0,0
i,0x00000000,1720556982.771492,172.16.3.2,5101,172.16.1.2,18627,10499,14480,0,65728,65728,6,6,4,1460,479,1,992,47,33580,0,65700,0,0,0,0,0
o,0x00000000,1720556982.771692,172.16.3.2,5101,172.16.1.2,18627,10499,14480,0,65728,65728,6,6,4,1460,479,1,993,47,33580,0,65700,0,0,0,0,0
i,0x00000000,1720556982.783525,172.16.3.2,5101,172.16.1.2,18627,10499,14480,0,65728,65728,6,6,4,1460,479,1,992,47,33580,0,65700,0,0,0,0,0
i,0x00000000,1720556982.790952,172.16.3.2,5101,172.16.1.2,18627,10499,14480,0,65728,65728,6,6,4,1460,479,1,992,47,33580,0,65700,0,0,0,0,0
o,0x00000000,1720556982.790987,172.16.3.2,5101,172.16.1.2,18627,10499,14480,0,65728,65728,6,6,4,1460,479,1,993,47,33580,0,65700,1448,0,0,0,0
i,0x00000000,1720556982.931491,172.16.3.2,5101,172.16.1.2,18627,10499,14480,0,65728,65728,6,6,4,1460,479,1,992,47,33580,0,65700,0,0,0,0,0
i,0x00000000,1720556982.933361,172.16.3.2,5101,172.16.1.2,18627,10499,14480,0,65728,65728,6,6,4,1460,479,1,992,47,33580,0,65700,1448,0,0,0,0
o,0x00000000,1720556982.933400,172.16.3.2,5101,172.16.1.2,18627,10499,14480,0,65728,65728,6,6,4,1460,479,1,993,47,33580,0,65700,2896,0,0,0,0
i,0x00000000,1720556982.950341,172.16.3.2,5101,172.16.1.2,18627,10499,14480,0,65728,65728,6,6,4,1460,479,1,992,47,33580,0,65700,0,0,0,0,0
i,0x00000000,1720556982.969679,172.16.3.2,5101,172.16.1.2,18627,10499,14480,0,65728,65728,6,6,4,1460,479,1,992,47,33580,0,65700,0,0,0,0,0
o,0x00000000,1720556982.969710,172.16.3.2,5101,172.16.1.2,18627,10499,14480,0,65728,65728,6,6,4,1460,479,1,993,47,33580,0,65700,1448,0,0,0,0
i,0x00000000,1720556983.102122,172.16.3.2,5101,172.16.1.2,18627,10499,14480,0,65728,65728,6,6,4,1460,479,1,992,47,33580,0,65700,0,0,0,0,0
i,0x00000000,1720556983.110704,172.16.3.2,5101,172.16.1.2,18627,10499,14480,0,65728,65728,6,6,4,1460,479,1,992,47,33580,0,65700,0,0,0,0,0
o,0x00000000,1720556983.110725,172.16.3.2,5101,172.16.1.2,18627,10499,14480,0,65728,65728,6,6,4,1460,479,1,993,47,33580,0,65700,1448,0,0,0,0
i,0x00000000,1720556983.121502,172.16.3.2,5101,172.16.1.2,18627,10499,14480,0,65728,65728,6,6,4,1460,479,1,992,47,33580,0,65700,0,0,0,0,0
i,0x00000000,1720556983.144528,172.16.3.2,5101,172.16.1.2,18627,10499,14480,0,65728,65728,6,6,4,1460,479,1,992,47,33580,0,65700,0,0,0,0,0
o,0x00000000,1720556983.146125,172.16.3.2,5101,172.16.1.2,18627,10499,14480,0,65728,65728,6,6,4,1460,479,1,993,47,33580,0,65700,1448,0,0,0,0
i,0x00000000,1720556983.151795,172.16.3.2,5101,172.16.1.2,18627,10499,14480,0,65728,65728,6,6,4,1460,479,1,992,47,33580,0,65700,0,0,0,0,0
i,0x00000000,1720556983.181824,172.16.3.2,5101,172.16.1.2,18627,10499,14480,0,65728,65728,6,6,4,1460,479,1,992,47,33580,0,65700,0,0,0,0,0
o,0x00000000,1720556983.181872,172.16.3.2,5101,172.16.1.2,18627,10499,14480,0,65728,65728,6,6,4,1460,479,1,993,47,33580,0,65700,1448,0,0,0,0
o,0x00000000,1720556983.208882,10.0.2.15,22,10.0.2.2,49435,1073725440,14600,0,65535,65700,0,0,4,1460,1,0,4,24,33580,108,65700,0,0,0,0,0
i,0x00000000,1720556983.213532,10.0.2.15,22,10.0.2.2,49435,1073725440,14600,0,65535,65700,0,0,4,1460,1,0,4,24,33580,108,65700,0,108,0,0,0
i,0x00000000,1720556983.294143,172.16.3.2,5101,172.16.1.2,18627,10499,14480,0,65728,65728,6,6,4,1460,479,1,992,47,33580,0,65700,0,0,0,0,0
i,0x00000000,1720556983.304930,172.16.3.2,5101,172.16.1.2,18627,10499,14480,0,65728,65728,6,6,4,1460,479,1,992,47,33580,0,65700,0,0,0,0,0
o,0x00000000,1720556983.304998,172.16.3.2,5101,172.16.1.2,18627,10499,14480,0,65728,65728,6,6,4,1460,479,1,993,47,33580,0,65700,1448,0,0,0,0
i,0x00000000,1720556983.314757,172.16.3.2,5101,172.16.1.2,18627,10499,14480,0,65728,65728,6,6,4,1460,479,1,992,47,33580,0,65700,0,0,0,0,0
o,0x00000000,1720556983.348718,172.16.3.2,5101,172.16.1.2,18627,10499,14480,0,65728,65728,6,6,4,1460,479,1,993,47,33580,0,65700,0,0,0,0,0
i,0x00000000,1720556983.365343,172.16.3.2,5101,172.16.1.2,18627,10499,14480,0,65728,65728,6,6,4,1460,479,1,992,47,33580,0,65700,0,0,0,0,0
i,0x00000000,1720556983.388139,172.16.3.2,5101,172.16.1.2,18627,10499,14480,0,65728,65728,6,6,4,1460,479,1,992,47,33580,0,65700,0,0,0,0,0
o,0x00000000,1720556983.388185,172.16.3.2,5101,172.16.1.2,18627,10499,14480,0,65728,65728,6,6,4,1460,479,1,993,47,33580,0,65700,1448,0,0,0,0
i,0x00000000,1720556983.395515,172.16.3.2,5101,172.16.1.2,18627,10499,14480,0,65728,65728,6,6,4,1460,479,1,992,47,33580,0,65700,0,0,0,0,0
i,0x00000000,1720556983.412296,172.16.3.2,5101,172.16.1.2,18627,10499,14480,0,65728,65728,6,6,4,1460,479,1,992,47,33580,0,65700,0,0,0,0,0
o,0x00000000,1720556983.412343,172.16.3.2,5101,172.16.1.2,18627,10499,14480,0,65728,65728,6,6,4,1460,479,1,993,47,33580,0,65700,1448,0,0,0,0
i,0x00000000,1720556983.413869,172.16.3.2,5101,172.16.1.2,18627,10499,14480,0,65728,65728,6,6,4,1460,479,1,992,47,33580,0,65700,1448,0,0,0,0
i,0x00000000,1720556983.422174,172.16.3.2,5101,172.16.1.2,18627,10499,14480,0,65728,65728,6,6,4,1460,479,1,992,47,33580,0,65700,0,0,0,0,0
o,0x00000000,1720556983.422215,172.16.3.2,5101,172.16.1.2,18627,10499,14480,0,65728,65728,6,6,4,1460,479,1,993,47,33580,0,65700,1448,0,0,0,0
i,0x00000000,1720556983.491863,172.16.3.2,5101,172.16.1.2,18627,10499,14480,0,65728,65728,6,6,4,1460,479,1,992,47,33580,0,65700,0,0,0,0,0
i,0x00000000,1720556983.502327,172.16.3.2,5101,172.16.1.2,18627,10499,14480,0,65728,65728,6,6,4,1460,479,1,992,47,33580,0,65700,0,0,0,0,0
o,0x00000000,1720556983.502367,172.16.3.2,5101,172.16.1.2,18627,10499,14480,0,65728,65728,6,6,4,1460,479,1,993,47,33580,0,65700,1448,0,0,0,0
i,0x00000000,1720556983.514667,172.16.3.2,5101,172.16.1.2,18627,10499,14480,0,65728,65728,6,6,4,1460,479,1,992,47,33580,0,65700,0,0,0,0,0
o,0x00000000,1720556983.547417,172.16.3.2,5101,172.16.1.2,18627,10499,14480,0,65728,65728,6,6,4,1460,479,1,993,47,33580,0,65700,0,0,0,0,0
i,0x00000000,1720556983.573901,172.16.3.2,5101,172.16.1.2,18627,10499,14480,0,65728,65728,6,6,4,1460,479,1,992,47,33580,0,65700,0,0,0,0,0
o,0x00000000,1720556983.607815,172.16.3.2,5101,172.16.1.2,18627,10499,14480,0,65728,65728,6,6,4,1460,479,1,993,47,33580,0,65700,0,0,0,0,0
i,0x00000000,1720556983.634638,172.16.3.2,5101,172.16.1.2,18627,10499,14480,0,65728,65728,6,6,4,1460,479,1,992,47,33580,0,65700,0,0,0,0,0
i,0x00000000,1720556983.634649,172.16.3.2,5101,172.16.1.2,18627,10499,14480,0,65728,65728,6,6,4,1460,479,1,992,47,33580,0,65700,1448,0,0,0,0
o,0x00000000,1720556983.634657,172.16.3.2,5101,172.16.1.2,18627,10499,14480,0,65728,65728,6,6,4,1460,479,1,993,47,33580,0,65700,2896,0,0,0,0
i,0x00000000,1720556983.639656,172.16.3.2,5101,172.16.1.2,18627,10499,14480,0,65728,65728,6,6,4,1460,479,1,992,47,33580,0,65700,0,0,0,0,0
i,0x00000000,1720556983.665409,172.16.3.2,5101,172.16.1.2,18627,10499,14480,0,65728,65728,6,6,4,1460,479,1,992,47,33580,0,65700,0,0,0,0,0
o,0x00000000,1720556983.665423,172.16.3.2,5101,172.16.1.2,18627,10499,14480,0,65728,65728,6,6,4,1460,479,1,993,47,33580,0,65700,1448,0,0,0,0
i,0x00000000,1720556983.695980,172.16.3.2,5101,172.16.1.2,18627,10499,14480,0,65728,65728,6,6,4,1460,479,1,992,47,33580,0,65700,0,0,0,0,0
i,0x00000000,1720556983.711656,172.16.3.2,5101,172.16.1.2,18627,10499,14480,0,65728,65728,6,6,4,1460,479,1,992,47,33580,0,65700,0,0,0,0,0
o,0x00000000,1720556983.711677,172.16.3.2,5101,172.16.1.2,18627,10499,14480,0,65728,65728,6,6,4,1460,479,1,993,47,33580,0,65700,1448,0,0,0,0
i,0x00000000,1720556983.740391,172.16.3.2,5101,172.16.1.2,18627,10499,14480,0,65728,65728,6,6,4,1460,479,1,992,47,33580,0,65700,0,0,0,0,0
i,0x00000000,1720556983.758874,172.16.3.2,5101,172.16.1.2,18627,10499,14480,0,65728,65728,6,6,4,1460,479,1,992,47,33580,0,65700,0,0,0,0,0
o,0x00000000,1720556983.758897,172.16.3.2,5101,172.16.1.2,18627,10499,14480,0,65728,65728,6,6,4,1460,479,1,993,47,33580,0,65700,1448,0,0,0,0
i,0x00000000,1720556983.770910,172.16.3.2,5101,172.16.1.2,18627,10499,14480,0,65728,65728,6,6,4,1460,479,1,992,47,33580,0,65700,0,0,0,0,0
o,0x00000000,1720556983.808070,172.16.3.2,5101,172.16.1.2,18627,10499,14480,0,65728,65728,6,6,4,1460,479,1,993,47,33580,0,65700,0,0,0,0,0
i,0x00000000,1720556983.841004,172.16.3.2,5101,172.16.1.2,18627,10499,14480,0,65728,65728,6,6,4,1460,479,1,992,47,33580,0,65700,0,0,0,0,0
i,0x00000000,1720556983.850396,172.16.3.2,5101,172.16.1.2,18627,10499,14480,0,65728,65728,6,6,4,1460,479,1,992,47,33580,0,65700,0,0,0,0,0
o,0x00000000,1720556983.850411,172.16.3.2,5101,172.16.1.2,18627,10499,14480,0,65728,65728,6,6,4,1460,479,1,993,47,33580,0,65700,1448,0,0,0,0
i,0x00000000,1720556983.892531,172.16.3.2,5101,172.16.1.2,18627,10499,14480,0,65728,65728,6,6,4,1460,479,1,992,47,33580,0,65700,0,0,0,0,0
o,0x00000000,1720556983.928526,172.16.3.2,5101,172.16.1.2,18627,10499,14480,0,65728,65728,6,6,4,1460,479,1,993,47,33580,0,65700,0,0,0,0,0
i,0x00000000,1720556983.932323,172.16.3.2,5101,172.16.1.2,18627,10499,14480,0,65728,65728,6,6,4,1460,479,1,992,47,33580,0,65700,0,0,0,0,0
i,0x00000000,1720556983.932356,172.16.3.2,5101,172.16.1.2,18627,10499,14480,0,65728,65728,6,6,4,1460,479,1,992,47,33580,0,65700,1448,0,0,0,0
o,0x00000000,1720556983.932379,172.16.3.2,5101,172.16.1.2,18627,10499,14480,0,65728,65728,6,6,4,1460,479,1,993,47,33580,0,65700,2896,0,0,0,0
i,0x00000000,1720556983.940961,172.16.3.2,5101,172.16.1.2,18627,10499,14480,0,65728,65728,6,6,4,1460,479,1,992,47,33580,0,65700,0,0,0,0,0
i,0x00000000,1720556983.960472,172.16.3.2,5101,172.16.1.2,18627,10499,14480,0,65728,65728,6,6,4,1460,479,1,992,47,33580,0,65700,0,0,0,0,0
o,0x00000000,1720556983.960498,172.16.3.2,5101,172.16.1.2,18627,10499,14480,0,65728,65728,6,6,4,1460,479,1,993,47,33580,0,65700,1448,0,0,0,0
i,0x00000000,1720556983.970892,172.16.3.2,5101,172.16.1.2,18627,10499,14480,0,65728,65728,6,6,4,1460,479,1,992,47,33580,0,65700,0,0,0,0,0
i,0x00000000,1720556984.001770,172.16.3.2,5101,172.16.1.2,18627,10499,14480,0,65728,65728,6,6,4,1460,479,1,992,47,33580,0,65700,0,0,0,0,0
o,0x00000000,1720556984.001784,172.16.3.2,5101,172.16.1.2,18627,10499,14480,0,65728,65728,6,6,4,1460,479,1,993,47,33580,0,65700,1448,0,0,0,0
i,0x00000000,1720556984.039907,172.16.3.2,5101,172.16.1.2,18627,10499,14480,0,65728,65728,6,6,4,1460,479,1,992,47,33580,0,65700,0,0,0,0,0
i,0x00000000,1720556984.060265,172.16.3.2,5101,172.16.1.2,18627,10499,14480,0,65728,65728,6,6,4,1460,479,1,992,47,33580,0,65700,0,0,0,0,0
o,0x00000000,1720556984.060290,172.16.3.2,5101,172.16.1.2,18627,10499,14480,0,65728,65728,6,6,4,1460,479,1,993,47,33580,0,65700,1448,0,0,0,0
i,0x00000000,1720556984.070962,172.16.3.2,5101,172.16.1.2,18627,10499,14480,0,65728,65728,6,6,4,1460,479,1,992,47,33580,0,65700,0,0,0,0,0
o,0x00000000,1720556984.107647,172.16.3.2,5101,172.16.1.2,18627,10499,14480,0,65728,65728,6,6,4,1460,479,1,993,47,33580,0,65700,0,0,0,0,0
i,0x00000000,1720556984.130474,172.16.3.2,5101,172.16.1.2,18627,10499,14480,0,65728,65728,6,6,4,1460,479,1,992,47,33580,0,65700,0,0,0,0,0
i,0x00000000,1720556984.140649,172.16.3.2,5101,172.16.1.2,18627,10499,14480,0,65728,65728,6,6,4,1460,479,1,992,47,33580,0,65700,0,0,0,0,0
o,0x00000000,1720556984.140688,172.16.3.2,5101,172.16.1.2,18627,10499,14480,0,65728,65728,6,6,4,1460,479,1,993,47,33580,0,65700,1448,0,0,0,0
i,0x00000000,1720556984.172194,172.16.3.2,5101,172.16.1.2,18627,10499,14480,0,65728,65728,6,6,4,1460,479,1,992,47,33580,0,65700,0,0,0,0,0
o,0x00000000,1720556984.207486,172.16.3.2,5101,172.16.1.2,18627,10499,14480,0,65728,65728,6,6,4,1460,479,1,993,47,33580,0,65700,0,0,0,0,0
i,0x00000000,1720556984.210191,172.16.3.2,5101,172.16.1.2,18627,10499,14480,0,65728,65728,6,6,4,1460,479,1,992,47,33580,0,65700,0,0,0,0,0
o,0x00000000,1720556984.218274,10.0.2.15,22,10.0.2.2,49435,1073725440,14600,0,65535,65700,0,0,4,1460,1,0,4,24,33580,108,65700,0,0,0,0,0
i,0x00000000,1720556984.218800,10.0.2.15,22,10.0.2.2,49435,1073725440,14600,0,65535,65700,0,0,4,1460,1,0,4,24,33580,108,65700,0,108,0,0,0
i,0x00000000,1720556984.233687,172.16.3.2,5101,172.16.1.2,18627,10499,14480,0,65728,65728,6,6,4,1460,479,1,992,47,33580,0,65700,0,0,0,0,0
o,0x00000000,1720556984.233702,172.16.3.2,5101,172.16.1.2,18627,10499,14480,0,65728,65728,6,6,4,1460,479,1,993,47,33580,0,65700,1448,0,0,0,0
i,0x00000000,1720556984.233795,172.16.3.2,5101,172.16.1.2,18627,10499,14480,0,65728,65728,6,6,4,1460,479,1,992,47,33580,0,65700,1448,0,0,0,0
o,0x00000000,1720556984.267540,172.16.3.2,5101,172.16.1.2,18627,10499,14480,0,65728,65728,6,6,4,1460,479,1,993,47,33580,0,65700,0,0,0,0,0
i,0x00000000,1720556984.270731,172.16.3.2,5101,172.16.1.2,18627,10499,14480,0,65728,65728,6,6,4,1460,479,1,992,47,33580,0,65700,0,0,0,0,0
i,0x00000000,1720556984.284856,172.16.3.2,5101,172.16.1.2,18627,10499,14480,0,65728,65728,6,6,4,1460,479,1,992,47,33580,0,65700,0,0,0,0,0
o,0x00000000,1720556984.284870,172.16.3.2,5101,172.16.1.2,18627,10499,14480,0,65728,65728,6,6,4,1460,479,1,993,47,33580,0,65700,1448,0,0,0,0
i,0x00000000,1720556984.317681,172.16.3.2,5101,172.16.1.2,18627,10499,14480,0,65728,65728,6,6,4,1460,479,1,992,47,33580,0,65700,0,0,0,0,0
i,0x00000000,1720556984.324274,172.16.3.2,5101,172.16.1.2,18627,10499,14480,0,65728,65728,6,6,4,1460,479,1,992,47,33580,0,65700,0,0,0,0,0
o,0x00000000,1720556984.324291,172.16.3.2,5101,172.16.1.2,18627,10499,14480,0,65728,65728,6,6,4,1460,479,1,993,47,33580,0,65700,1448,0,0,0,0
i,0x00000000,1720556984.361238,172.16.3.2,5101,172.16.1.2,18627,10499,14480,0,65728,65728,6,6,4,1460,479,1,992,47,33580,0,65700,0,0,0,0,0
i,0x00000000,1720556984.370322,172.16.3.2,5101,172.16.1.2,18627,10499,14480,0,65728,65728,6,6,4,1460,479,1,992,47,33580,0,65700,0,0,0,0,0
o,0x00000000,1720556984.370341,172.16.3.2,5101,172.16.1.2,18627,10499,14480,0,65728,65728,6,6,4,1460,479,1,993,47,33580,0,65700,1448,0,0,0,0
i,0x00000000,1720556984.400437,172.16.3.2,5101,172.16.1.2,18627,10499,14480,0,65728,65728,6,6,4,1460,479,1,992,47,33580,0,65700,0,0,0,0,0
o,0x00000000,1720556984.437480,172.16.3.2,5101,172.16.1.2,18627,10499,14480,0,65728,65728,6,6,4,1460,479,1,993,47,33580,0,65700,0,0,0,0,0
i,0x00000000,1720556984.450856,172.16.3.2,5101,172.16.1.2,18627,10499,14480,0,65728,65728,6,6,4,1460,479,1,992,47,33580,0,65700,0,0,0,0,0
i,0x00000000,1720556984.481605,172.16.3.2,5101,172.16.1.2,18627,10499,14480,0,65728,65728,6,6,4,1460,479,1,992,47,33580,0,65700,0,0,0,0,0
o,0x00000000,1720556984.481620,172.16.3.2,5101,172.16.1.2,18627,10499,14480,0,65728,65728,6,6,4,1460,479,1,993,47,33580,0,65700,1448,0,0,0,0
i,0x00000000,1720556984.502435,172.16.3.2,5101,172.16.1.2,18627,10499,14480,0,65728,65728,6,6,4,1460,479,1,992,47,33580,0,65700,0,0,0,0,0
o,0x00000000,1720556984.536967,172.16.3.2,5101,172.16.1.2,18627,10499,14480,0,65728,65728,6,6,4,1460,479,1,993,47,33580,0,65700,0,0,0,0,0
i,0x00000000,1720556984.540664,172.16.3.2,5101,172.16.1.2,18627,10499,14480,0,65728,65728,6,6,4,1460,479,1,992,47,33580,0,65700,0,0,0,0,0
i,0x00000000,1720556984.552044,172.16.3.2,5101,172.16.1.2,18627,10499,14480,0,65728,65728,6,6,4,1460,479,1,992,47,33580,0,65700,0,0,0,0,0
o,0x00000000,1720556984.552057,172.16.3.2,5101,172.16.1.2,18627,10499,14480,0,65728,65728,6,6,4,1460,479,1,993,47,33580,0,65700,1448,0,0,0,0
i,0x00000000,1720556984.561777,172.16.3.2,5101,172.16.1.2,18627,10499,14480,0,65728,65728,6,6,4,1460,479,1,992,47,33580,0,65700,0,0,0,0,0
i,0x00000000,1720556984.575740,172.16.3.2,5101,172.16.1.2,18627,10499,14480,0,65728,65728,6,6,4,1460,479,1,992,47,33580,0,65700,0,0,0,0,0
o,0x00000000,1720556984.575785,172.16.3.2,5101,172.16.1.2,18627,10499,14480,0,65728,65728,6,6,4,1460,479,1,993,47,33580,0,65700,1448,0,0,0,0
i,0x00000000,1720556984.617385,172.16.3.2,5101,172.16.1.2,18627,10499,14480,0,65728,65728,6,6,4,1460,479,1,992,47,33580,0,65700,0,0,0,0,0
i,0x00000000,1720556984.641574,172.16.3.2,5101,172.16.1.2,18627,10499,14480,0,65728,65728,6,6,4,1460,479,1,992,47,33580,0,65700,0,0,0,0,0
o,0x00000000,1720556984.641611,172.16.3.2,5101,172.16.1.2,18627,10499,14480,0,65728,65728,6,6,4,1460,479,1,993,47,33580,0,65700,1448,0,0,0,0
i,0x00000000,1720556984.651257,172.16.3.2,5101,172.16.1.2,18627,10499,14480,0,65728,65728,6,6,4,1460,479,1,992,47,33580,0,65700,0,0,0,0,0
i,0x00000000,1720556984.668035,172.16.3.2,5101,172.16.1.2,18627,10499,14480,0,65728,65728,6,6,4,1460,479,1,992,47,33580,0,65700,0,0,0,0,0
o,0x00000000,1720556984.668049,172.16.3.2,5101,172.16.1.2,18627,10499,14480,0,65728,65728,6,6,4,1460,479,1,993,47,33580,0,65700,1448,0,0,0,0
i,0x00000000,1720556984.720785,172.16.3.2,5101,172.16.1.2,18627,10499,14480,0,65728,65728,6,6,4,1460,479,1,992,47,33580,0,65700,0,0,0,0,0
i,0x00000000,1720556984.723051,172.16.3.2,5101,172.16.1.2,18627,10499,14480,0,65728,65728,6,6,4,1460,479,1,992,47,33580,0,65700,0,0,0,0,0
o,0x00000000,1720556984.723079,172.16.3.2,5101,172.16.1.2,18627,10499,14480,0,65728,65728,6,6,4,1460,479,1,993,47,33580,0,65700,1448,0,0,0,0
i,0x00000000,1720556984.731094,172.16.3.2,5101,172.16.1.2,18627,10499,14480,0,65728,65728,6,6,4,1460,479,1,992,47,33580,0,65700,0,0,0,0,0
o,0x00000000,1720556984.767823,172.16.3.2,5101,172.16.1.2,18627,10499,14480,0,65728,65728,6,6,4,1460,479,1,993,47,33580,0,65700,0,0,0,0,0
i,0x00000000,1720556984.806021,172.16.3.2,5101,172.16.1.2,18627,10499,14480,0,65728,65728,6,6,4,1460,479,1,992,47,33580,0,65700,0,0,0,0,0
i,0x00000000,1720556984.811135,172.16.3.2,5101,172.16.1.2,18627,10499,14480,0,65728,65728,6,6,4,1460,479,1,992,47,33580,0,65700,0,0,0,0,0
o,0x00000000,1720556984.811149,172.16.3.2,5101,172.16.1.2,18627,10499,14480,0,65728,65728,6,6,4,1460,479,1,993,47,33580,0,65700,1448,0,0,0,0
i,0x00000000,1720556984.820801,172.16.3.2,5101,172.16.1.2,18627,10499,14480,0,65728,65728,6,6,4,1460,479,1,992,47,33580,0,65700,0,0,0,0,0
o,0x00000000,1720556984.857299,172.16.3.2,5101,172.16.1.2,18627,10499,14480,0,65728,65728,6,6,4,1460,479,1,993,47,33580,0,65700,0,0,0,0,0
i,0x00000000,1720556984.871672,172.16.3.2,5101,172.16.1.2,18627,10499,14480,0,65728,65728,6,6,4,1460,479,1,992,47,33580,0,65700,0,0,0,0,0
i,0x00000000,1720556984.886273,172.16.3.2,5101,172.16.1.2,18627,10499,14480,0,65728,65728,6,6,4,1460,479,1,992,47,33580,0,65700,0,0,0,0,0
o,0x00000000,1720556984.886292,172.16.3.2,5101,172.16.1.2,18627,10499,14480,0,65728,65728,6,6,4,1460,479,1,993,47,33580,0,65700,1448,0,0,0,0
i,0x00000000,1720556984.897206,172.16.3.2,5101,172.16.1.2,18627,10499,14480,0,65728,65728,6,6,4,1460,479,1,992,47,33580,0,65700,0,0,0,0,0
i,0x00000000,1720556984.911204,172.16.3.2,5101,172.16.1.2,18627,10499,14480,0,65728,65728,6,6,4,1460,479,1,992,47,33580,0,65700,0,0,0,0,0
o,0x00000000,1720556984.911236,172.16.3.2,5101,172.16.1.2,18627,10499,14480,0,65728,65728,6,6,4,1460,479,1,993,47,33580,0,65700,1448,0,0,0,0
i,0x00000000,1720556984.934061,172.16.3.2,5101,172.16.1.2,18627,10499,14480,0,65728,65728,6,6,4,1460,479,1,992,47,33580,0,65700,0,0,0,0,0
o,0x00000000,1720556984.934082,172.16.3.2,5101,172.16.1.2,18627,10499,14480,0,65728,65700,6,6,4,1460,479,1,993,47,33580,0,65700,0,0,1,0,0
i,0x00000000,1720556984.968878,172.16.3.2,5101,172.16.1.2,18627,10499,14480,0,65728,65700,6,6,4,1460,479,1,992,47,33580,0,65700,0,0,1,0,0
o,0x00000000,1720556984.968890,172.16.3.2,5101,172.16.1.2,18627,10499,14480,0,65728,65728,6,6,4,1460,479,1,993,47,33580,0,65700,0,0,1,0,0
i,0x00000000,1720556984.969652,172.16.3.2,5101,172.16.1.2,18627,10499,14480,0,65728,65728,6,6,4,1460,479,1,992,47,33580,0,65700,0,0,1,0,0
o,0x00000000,1720556984.969661,172.16.3.2,5101,172.16.1.2,18627,10499,14480,0,65728,65728,6,6,4,1460,479,1,993,47,33580,0,65700,0,0,1,0,0
i,0x00000000,1720556985.032559,172.16.3.2,5101,172.16.1.2,18627,10499,14480,0,65728,65728,6,6,4,1460,479,1,992,47,33580,0,65700,0,0,1,0,0
o,0x00000000,1720556985.032596,172.16.3.2,5101,172.16.1.2,18627,10499,14480,0,65728,65728,6,6,4,1460,479,1,993,47,33580,0,65700,0,0,2,0,0
i,0x00000000,1720556985.033561,172.16.3.2,5101,172.16.1.2,18627,10499,14480,0,65728,65728,6,6,4,1460,479,1,992,47,33580,0,65700,0,0,2,0,0
o,0x00000000,1720556985.033571,172.16.3.2,5101,172.16.1.2,18627,10499,14480,0,65728,65728,6,6,4,1460,479,1,993,47,33580,0,65700,0,0,3,0,0
i,0x00000000,1720556985.081432,172.16.3.2,5101,172.16.1.2,18627,10499,14480,0,65728,65728,6,6,4,1460,479,1,992,47,33580,0,65700,0,0,3,0,0
o,0x00000000,1720556985.081477,172.16.3.2,5101,172.16.1.2,18627,10499,14480,0,65728,65728,6,6,4,1460,479,1,993,47,33580,0,65700,0,0,3,0,0
i,0x00000000,1720556985.094078,172.16.3.2,5101,172.16.1.2,18627,10499,14480,0,65728,65728,6,6,4,1460,479,1,992,47,33580,0,65700,0,0,3,0,0
o,0x00000000,1720556985.094110,172.16.3.2,5101,172.16.1.2,18627,10499,14480,0,65728,65728,6,6,4,1460,479,1,993,47,33580,0,65700,0,0,3,0,0
i,0x00000000,1720556985.122698,172.16.3.2,5101,172.16.1.2,18627,10499,14480,0,65728,65728,6,6,4,1460,479,1,992,47,33580,0,65700,0,0,3,0,0
o,0x00000000,1720556985.122718,172.16.3.2,5101,172.16.1.2,18627,10499,14480,0,65728,65728,6,6,4,1460,479,1,993,47,33580,0,65700,0,0,3,0,0
i,0x00000000,1720556985.132834,172.16.3.2,5101,172.16.1.2,18627,10499,14480,0,65728,65728,6,6,4,1460,479,1,992,47,33580,0,65700,0,0,3,0,0
o,0x00000000,1720556985.132847,172.16.3.2,5101,172.16.1.2,18627,10499,14480,0,65728,65728,6,6,4,1460,479,1,993,47,33580,0,65700,0,0,4,0,0
i,0x00000000,1720556985.141531,172.16.3.2,5101,172.16.1.2,18627,10499,14480,0,65728,65728,6,6,4,1460,479,1,992,47,33580,0,65700,0,0,4,0,0
o,0x00000000,1720556985.141564,172.16.3.2,5101,172.16.1.2,18627,10499,14480,0,65728,65728,6,6,4,1460,479,1,993,47,33580,0,65700,0,0,4,0,0
i,0x00000000,1720556985.200169,172.16.3.2,5101,172.16.1.2,18627,10499,14480,0,65728,65728,6,6,4,1460,479,1,992,47,33580,0,65700,0,0,4,0,0
o,0x00000000,1720556985.200183,172.16.3.2,5101,172.16.1.2,18627,10499,14480,0,65728,65728,6,6,4,1460,479,1,993,47,33580,0,65700,0,0,4,0,0
i,0x00000000,1720556985.212263,172.16.3.2,5101,172.16.1.2,18627,10499,14480,0,65728,65728,6,6,4,1460,479,1,992,47,33580,0,65700,0,0,4,0,0
o,0x00000000,1720556985.212305,172.16.3.2,5101,172.16.1.2,18627,10499,14480,0,65728,65728,6,6,4,1460,479,1,993,47,33580,0,65700,0,0,5,0,0
o,0x00000000,1720556985.218535,10.0.2.15,22,10.0.2.2,49435,1073725440,14600,0,65535,65700,0,0,4,1460,1,0,4,24,33580,108,65700,0,0,0,0,0
i,0x00000000,1720556985.219341,10.0.2.15,22,10.0.2.2,49435,1073725440,14600,0,65535,65700,0,0,4,1460,1,0,4,24,33580,108,65700,0,108,0,0,0
i,0x00000000,1720556985.229474,172.16.3.2,5101,172.16.1.2,18627,10499,14480,0,65728,65728,6,6,4,1460,479,1,992,47,33580,0,65700,0,0,5,0,0
o,0x00000000,1720556985.229488,172.16.3.2,5101,172.16.1.2,18627,10499,14480,0,65728,65728,6,6,4,1460,479,1,993,47,33580,0,65700,5792,0,4,0,0
i,0x00000000,1720556985.230494,172.16.3.2,5101,172.16.1.2,18627,10499,14480,0,65728,65728,6,6,4,1460,479,1,992,47,33580,0,65700,0,0,4,0,0
o,0x00000000,1720556985.230513,172.16.3.2,5101,172.16.1.2,18627,10499,14480,0,65728,65700,6,6,4,1460,479,1,993,47,33580,0,65700,2896,0,3,0,0
i,0x00000000,1720556985.273540,172.16.3.2,5101,172.16.1.2,18627,10499,14480,0,65728,65700,6,6,4,1460,479,1,992,47,33580,0,65700,0,0,3,0,0
o,0x00000000,1720556985.273583,172.16.3.2,5101,172.16.1.2,18627,10499,14480,0,65728,65700,6,6,4,1460,479,1,993,47,33580,0,65700,7240,0,2,0,0
i,0x00000000,1720556985.305744,172.16.3.2,5101,172.16.1.2,18627,10499,14480,0,65728,65700,6,6,4,1460,479,1,992,47,33580,0,65700,0,0,2,0,0
o,0x00000000,1720556985.305786,172.16.3.2,5101,172.16.1.2,18627,10499,14480,0,65728,65700,6,6,4,1460,479,1,993,47,33580,0,65700,5792,0,1,0,0
i,0x00000000,1720556985.352562,172.16.3.2,5101,172.16.1.2,18627,10499,14480,0,65728,65700,6,6,4,1460,479,1,992,47,33580,0,65700,0,0,1,0,0
o,0x00000000,1720556985.352582,172.16.3.2,5101,172.16.1.2,18627,10499,14480,0,65728,65700,6,6,4,1460,479,1,993,47,33580,0,65700,0,0,1,0,0
i,0x00000000,1720556985.386027,172.16.3.2,5101,172.16.1.2,18627,10499,14480,0,65728,65700,6,6,4,1460,479,1,992,47,33580,0,65700,0,0,1,0,0
o,0x00000000,1720556985.386043,172.16.3.2,5101,172.16.1.2,18627,10499,14480,0,65728,65728,6,6,4,1460,479,1,993,47,33580,0,65700,4344,0,0,0,0
i,0x00000000,1720556985.411447,172.16.3.2,5101,172.16.1.2,18627,10499,14480,0,65728,65728,6,6,4,1460,479,1,992,47,33580,0,65700,0,0,0,0,0
i,0x00000000,1720556985.423347,172.16.3.2,5101,172.16.1.2,18627,10499,14480,0,65728,65728,6,6,4,1460,479,1,992,47,33580,0,65700,0,0,0,0,0
o,0x00000000,1720556985.423382,172.16.3.2,5101,172.16.1.2,18627,10499,14480,0,65728,65728,6,6,4,1460,479,1,993,47,33580,0,65700,1448,0,0,0,0
i,0x00000000,1720556985.432421,172.16.3.2,5101,172.16.1.2,18627,10499,14480,0,65728,65728,6,6,4,1460,479,1,992,47,33580,0,65700,0,0,0,0,0
i,0x00000000,1720556985.461350,172.16.3.2,5101,172.16.1.2,18627,10499,14480,0,65728,65728,6,6,4,1460,479,1,992,47,33580,0,65700,0,0,0,0,0
o,0x00000000,1720556985.461370,172.16.3.2,5101,172.16.1.2,18627,10499,14480,0,65728,65728,6,6,4,1460,479,1,993,47,33580,0,65700,1448,0,0,0,0
i,0x00000000,1720556985.489664,172.16.3.2,5101,172.16.1.2,18627,10499,14480,0,65728,65728,6,6,4,1460,479,1,992,47,33580,0,65700,0,0,0,0,0
i,0x00000000,1720556985.513217,172.16.3.2,5101,172.16.1.2,18627,10499,14480,0,65728,65728,6,6,4,1460,479,1,992,47,33580,0,65700,0,0,0,0,0
o,0x00000000,1720556985.513284,172.16.3.2,5101,172.16.1.2,18627,10499,14480,0,65728,65728,6,6,4,1460,479,1,993,47,33580,0,65700,1448,0,0,0,0
i,0x00000000,1720556985.522545,172.16.3.2,5101,172.16.1.2,18627,10499,14480,0,65728,65728,6,6,4,1460,479,1,992,47,33580,0,65700,0,0,0,0,0
o,0x00000000,1720556985.558418,172.16.3.2,5101,172.16.1.2,18627,10499,14480,0,65728,65728,6,6,4,1460,479,1,993,47,33580,0,65700,0,0,0,0,0
i,0x00000000,1720556985.588395,172.16.3.2,5101,172.16.1.2,18627,10499,14480,0,65728,65728,6,6,4,1460,479,1,992,47,33580,0,65700,0,0,0,0,0
i,0x00000000,1720556985.594102,172.16.3.2,5101,172.16.1.2,18627,10499,14480,0,65728,65728,6,6,4,1460,479,1,992,47,33580,0,65700,0,0,0,0,0
o,0x00000000,1720556985.594116,172.16.3.2,5101,172.16.1.2,18627,10499,14480,0,65728,65728,6,6,4,1460,479,1,993,47,33580,0,65700,1448,0,0,0,0
i,0x00000000,1720556985.618237,172.16.3.2,5101,172.16.1.2,18627,10499,14480,0,65728,65728,6,6,4,1460,479,1,992,47,33580,0,65700,0,0,0,0,0
i,0x00000000,1720556985.622589,172.16.3.2,5101,172.16.1.2,18627,10499,14480,0,65728,65728,6,6,4,1460,479,1,992,47,33580,0,65700,0,0,0,0,0
o,0x00000000,1720556985.622633,172.16.3.2,5101,172.16.1.2,18627,10499,14480,0,65728,65728,6,6,4,1460,479,1,993,47,33580,0,65700,1448,0,0,0,0
i,0x00000000,1720556985.688117,172.16.3.2,5101,172.16.1.2,18627,10499,14480,0,65728,65728,6,6,4,1460,479,1,992,47,33580,0,65700,0,0,0,0,0
i,0x00000000,1720556985.693753,172.16.3.2,5101,172.16.1.2,18627,10499,14480,0,65728,65728,6,6,4,1460,479,1,992,47,33580,0,65700,0,0,0,0,0
o,0x00000000,1720556985.693784,172.16.3.2,5101,172.16.1.2,18627,10499,14480,0,65728,65728,6,6,4,1460,479,1,993,47,33580,0,65700,1448,0,0,0,0
i,0x00000000,1720556985.703261,172.16.3.2,5101,172.16.1.2,18627,10499,14480,0,65728,65728,6,6,4,1460,479,1,992,47,33580,0,65700,0,0,0,0,0
o,0x00000000,1720556985.737614,172.16.3.2,5101,172.16.1.2,18627,10499,14480,0,65728,65728,6,6,4,1460,479,1,993,47,33580,0,65700,0,0,0,0,0
i,0x00000000,1720556985.744080,172.16.3.2,5101,172.16.1.2,18627,10499,14480,0,65728,65728,6,6,4,1460,479,1,992,47,33580,0,65700,0,0,0,0,0
o,0x00000000,1720556985.777144,172.16.3.2,5101,172.16.1.2,18627,10499,14480,0,65728,65728,6,6,4,1460,479,1,993,47,33580,0,65700,0,0,0,0,0
i,0x00000000,1720556985.780984,172.16.3.2,5101,172.16.1.2,18627,10499,14480,0,65728,65728,6,6,4,1460,479,1,992,47,33580,0,65700,0,0,0,0,0
i,0x00000000,1720556985.791338,172.16.3.2,5101,172.16.1.2,18627,10499,14480,0,65728,65728,6,6,4,1460,479,1,992,47,33580,0,65700,0,0,0,0,0
o,0x00000000,1720556985.791360,172.16.3.2,5101,172.16.1.2,18627,10499,14480,0,65728,65728,6,6,4,1460,479,1,993,47,33580,0,65700,1448,0,0,0,0
i,0x00000000,1720556985.802259,172.16.3.2,5101,172.16.1.2,18627,10499,14480,0,65728,65728,6,6,4,1460,479,1,992,47,33580,0,65700,0,0,0,0,0
o,0x00000000,1720556985.837563,172.16.3.2,5101,172.16.1.2,18627,10499,14480,0,65728,65728,6,6,4,1460,479,1,993,47,33580,0,65700,0,0,0,0,0
i,0x00000000,1720556985.857687,172.16.3.2,5101,172.16.1.2,18627,10499,14480,0,65728,65728,6,6,4,1460,479,1,992,47,33580,0,65700,0,0,0,0,0
o,0x00000000,1720556985.897696,172.16.3.2,5101,172.16.1.2,18627,10499,14480,0,65728,65728,6,6,4,1460,479,1,993,47,33580,0,65700,0,0,0,0,0
i,0x00000000,1720556985.899226,172.16.3.2,5101,172.16.1.2,18627,10499,14480,0,65728,65728,6,6,4,1460,479,1,992,47,33580,0,65700,0,0,0,0,0
i,0x00000000,1720556985.925464,172.16.3.2,5101,172.16.1.2,18627,10499,14480,0,65728,65728,6,6,4,1460,479,1,992,47,33580,0,65700,0,0,0,0,0
o,0x00000000,1720556985.925493,172.16.3.2,5101,172.16.1.2,18627,10499,14480,0,65728,65728,6,6,4,1460,479,1,993,47,33580,0,65700,1448,0,0,0,0
i,0x00000000,1720556985.925622,172.16.3.2,5101,172.16.1.2,18627,10499,14480,0,65728,65728,6,6,4,1460,479,1,992,47,33580,0,65700,1448,0,0,0,0
i,0x00000000,1720556985.931985,172.16.3.2,5101,172.16.1.2,18627,10499,14480,0,65728,65728,6,6,4,1460,479,1,992,47,33580,0,65700,0,0,0,0,0
o,0x00000000,1720556985.932006,172.16.3.2,5101,172.16.1.2,18627,10499,14480,0,65728,65728,6,6,4,1460,479,1,993,47,33580,0,65700,1448,0,0,0,0
i,0x00000000,1720556985.962106,172.16.3.2,5101,172.16.1.2,18627,10499,14480,0,65728,65728,6,6,4,1460,479,1,992,47,33580,0,65700,0,0,0,0,0
i,0x00000000,1720556985.971607,172.16.3.2,5101,172.16.1.2,18627,10499,14480,0,65728,65728,6,6,4,1460,479,1,992,47,33580,0,65700,0,0,0,0,0
o,0x00000000,1720556985.971629,172.16.3.2,5101,172.16.1.2,18627,10499,14480,0,65728,65728,6,6,4,1460,479,1,993,47,33580,0,65700,1448,0,0,0,0
i,0x00000000,1720556985.992160,172.16.3.2,5101,172.16.1.2,18627,10499,14480,0,65728,65728,6,6,4,1460,479,1,992,47,33580,0,65700,0,0,0,0,0
o,0x00000000,1720556986.028531,172.16.3.2,5101,172.16.1.2,18627,10499,14480,0,65728,65728,6,6,4,1460,479,1,993,47,33580,0,65700,0,0,0,0,0
