enable_time_secs=1720557790	enable_time_usecs=628740	siftrver=1.2.4	hz=100	tcp_rtt_scale=32	sysname=FreeBSD	sysver=1301000	ipmode=4
o,0x00000000,1720557790.628941,10.0.2.15,22,10.0.2.2,56306,1073725440,17770,0,65535,65700,0,0,4,1460,1,0,4,23,33580,44,65700,0,0,0,0,0
o,0x00000000,1720557790.629742,10.0.2.15,22,10.0.2.2,56306,1073725440,17770,0,65535,65700,0,0,4,1460,1,0,4,23,33580,80,65700,0,44,0,0,0
i,0x00000000,1720557790.630690,10.0.2.15,22,10.0.2.2,56306,1073725440,17770,0,65535,65700,0,0,4,1460,1,0,4,23,33580,80,65700,0,80,0,0,0
i,0x00000000,1720557790.631008,10.0.2.15,22,10.0.2.2,56306,1073725440,17814,0,65535,65700,0,0,4,1460,1,0,4,23,33580,36,65700,0,36,0,0,0
o,0x00000000,1720557790.631133,10.0.2.15,22,10.0.2.2,56306,1073725440,17850,0,65535,65700,0,0,4,1460,1,0,4,23,33580,36,65700,0,0,0,0,0
i,0x00000000,1720557790.631594,10.0.2.15,22,10.0.2.2,56306,1073725440,17850,0,65535,65700,0,0,4,1460,1,0,4,23,33580,36,65700,0,36,0,0,0
o,0x00000000,1720557790.632227,10.0.2.15,22,10.0.2.2,56306,1073725440,17886,0,65535,65700,0,0,4,1460,1,0,4,23,33580,176,65700,0,0,0,0,0
i,0x00000000,1720557790.634372,10.0.2.15,22,10.0.2.2,56306,1073725440,17886,0,65535,65700,0,0,4,1460,1,0,4,23,33580,176,65700,0,176,0,0,0
i,0x00000000,1720557790.634381,10.0.2.15,22,10.0.2.2,56306,1073725440,18062,0,65535,65700,0,0,4,1460,1,0,4,23,33580,0,65700,0,0,0,0,0
i,0x00000000,1720557790.634383,10.0.2.15,22,10.0.2.2,56306,1073725440,18062,0,65535,65700,0,0,4,1460,1,0,4,23,33580,0,65700,96,0,0,0,0
o,0x00000000,1720557790.634388,10.0.2.15,22,10.0.2.2,56306,1073725440,18062,0,65535,65604,0,0,5,1460,1,0,5,23,33580,0,65700,96,0,0,0,0
o,0x00000000,1720557790.634879,10.0.2.15,22,10.0.2.2,56306,1073725440,18062,0,65535,65604,0,0,8,1460,1,0,4,23,33580,0,65700,0,0,0,0,0
i,0x00000000,1720557790.635627,10.0.2.15,22,10.0.2.2,56306,1073725440,18062,0,65535,65604,0,0,8,1460,1,0,20,23,33580,0,65700,0,1,0,0,0
i,0x00000000,1720557792.726331,10.0.2.15,22,10.0.2.2,56314,1073725440,14600,0,65535,65700,0,0,4,1460,1,0,0,27,33580,0,65700,0,0,0,0,0
o,0x00000000,1720557792.740565,10.0.2.15,22,10.0.2.2,56314,1073725440,14600,0,65535,65700,0,0,4,1460,1,0,0,27,33580,38,65700,42,0,0,0,0
i,0x00000000,1720557792.741656,10.0.2.15,22,10.0.2.2,56314,1073725440,14600,0,65535,65700,0,0,4,1460,1,0,0,27,33580,38,65700,42,38,0,0,0
i,0x00000000,1720557792.741664,10.0.2.15,22,10.0.2.2,56314,1073725440,14638,0,65535,65700,0,0,4,1460,1,0,0,24,33580,0,65700,42,0,0,0,0
i,0x00000000,1720557792.741666,10.0.2.15,22,10.0.2.2,56314,1073725440,14638,0,65535,65700,0,0,4,1460,1,0,0,24,33580,0,65700,1502,0,0,0,0
o,0x00000000,1720557792.741670,10.0.2.15,22,10.0.2.2,56314,1073725440,14638,0,65535,65700,0,0,4,1460,1,0,1,24,33580,0,65700,1578,0,0,0,0
o,0x00000000,1720557792.742704,10.0.2.15,22,10.0.2.2,56314,1073725440,14638,0,65535,65700,0,0,4,1460,1,0,0,24,33580,1056,65700,1536,0,0,0,0
i,0x00000000,1720557792.743582,10.0.2.15,22,10.0.2.2,56314,1073725440,14638,0,65535,65700,0,0,4,1460,1,0,0,24,33580,1056,65700,1536,1056,0,0,0
i,0x00000000,1720557792.746545,10.0.2.15,22,10.0.2.2,56314,1073725440,15694,0,65535,65700,0,0,4,1460,1,0,0,24,33580,0,65700,0,0,0,0,0
o,0x00000000,1720557792.749220,10.0.2.15,22,10.0.2.2,56314,1073725440,15694,0,65535,65700,0,0,4,1460,1,0,0,24,33580,484,65700,0,0,0,0,0
i,0x00000000,1720557792.749989,10.0.2.15,22,10.0.2.2,56314,1073725440,15694,0,65535,65700,0,0,4,1460,1,0,0,24,33580,484,65700,0,484,0,0,0
i,0x00000000,1720557792.754175,10.0.2.15,22,10.0.2.2,56314,1073725440,16178,0,65535,65700,0,0,4,1460,1,0,0,24,33580,0,65700,0,0,0,0,0
i,0x00000000,1720557792.754188,10.0.2.15,22,10.0.2.2,56314,1073725440,16178,0,65535,65700,0,0,4,1460,1,0,0,24,33580,0,65700,16,0,0,0,0
o,0x00000000,1720557792.754194,10.0.2.15,22,10.0.2.2,56314,1073725440,16178,0,65535,65700,0,0,4,1460,1,0,1,24,33580,0,65700,60,0,0,0,0
o,0x00000000,1720557792.754770,10.0.2.15,22,10.0.2.2,56314,1073725440,16178,0,65535,65700,0,0,4,1460,1,0,0,24,33580,44,65700,0,0,0,0,0
i,0x00000000,1720557792.756808,10.0.2.15,22,10.0.2.2,56314,1073725440,16178,0,65535,65700,0,0,4,1460,1,0,0,24,33580,44,65700,0,44,0,0,0
i,0x00000000,1720557792.756824,10.0.2.15,22,10.0.2.2,56314,1073725440,16222,0,65535,65700,0,0,4,1460,1,0,0,24,33580,0,65700,0,0,0,0,0
o,0x00000000,1720557792.768145,10.0.2.15,22,10.0.2.2,56314,1073725440,16222,0,65535,65700,0,0,4,1460,1,0,0,24,33580,68,65700,0,0,0,0,0
i,0x00000000,1720557792.769165,10.0.2.15,22,10.0.2.2,56314,1073725440,16222,0,65535,65700,0,0,4,1460,1,0,0,24,33580,68,65700,0,68,0,0,0
i,0x00000000,1720557792.769172,10.0.2.15,22,10.0.2.2,56314,1073725440,16290,0,65535,65700,0,0,4,1460,1,0,0,24,33580,0,65700,0,0,0,0,0
o,0x00000000,1720557792.769524,10.0.2.15,22,10.0.2.2,56314,1073725440,16290,0,65535,65700,0,0,4,1460,1,0,0,24,33580,332,65700,0,0,0,0,0
i,0x00000000,1720557792.770271,10.0.2.15,22,10.0.2.2,56314,1073725440,16290,0,65535,65700,0,0,4,1460,1,0,0,24,33580,332,65700,0,332,0,0,0
i,0x00000000,1720557792.771572,10.0.2.15,22,10.0.2.2,56314,1073725440,16622,0,65535,65700,0,0,4,1460,1,0,0,24,33580,0,65700,0,0,0,0,0
o,0x00000000,1720557792.788835,10.0.2.15,22,10.0.2.2,56314,1073725440,16622,0,65535,65700,0,0,4,1460,1,0,0,24,33580,28,65700,0,0,0,0,0
i,0x00000000,1720557792.789810,10.0.2.15,22,10.0.2.2,56314,1073725440,16622,0,65535,65700,0,0,4,1460,1,0,0,24,33580,28,65700,0,28,0,0,0
i,0x00000000,1720557792.789816,10.0.2.15,22,10.0.2.2,56314,1073725440,16650,0,65535,65700,0,0,4,1460,1,0,0,24,33580,0,65700,0,0,0,0,0
o,0x00000000,1720557792.790469,10.0.2.15,22,10.0.2.2,56314,1073725440,16650,0,65535,65700,0,0,4,1460,1,0,0,24,33580,768,65700,112,0,0,0,0
i,0x00000000,1720557792.791235,10.0.2.15,22,10.0.2.2,56314,1073725440,16650,0,65535,65700,0,0,4,1460,1,0,0,24,33580,768,65700,112,768,0,0,0
o,0x00000000,1720557792.791357,10.0.2.15,22,10.0.2.2,56314,1073725440,17418,0,65535,65700,0,0,4,1460,1,0,0,24,33580,140,65700,112,0,0,0,0
i,0x00000000,1720557792.791813,10.0.2.15,22,10.0.2.2,56314,1073725440,17418,0,65535,65700,0,0,4,1460,1,0,0,24,33580,140,65700,112,140,0,0,0
o,0x00000000,1720557792.791938,10.0.2.15,22,10.0.2.2,56314,1073725440,17558,0,65535,65700,0,0,4,1460,1,0,0,24,33580,44,65700,0,0,0,0,0
i,0x00000000,1720557792.792825,10.0.2.15,22,10.0.2.2,56314,1073725440,17558,0,65535,65700,0,0,4,1460,1,0,0,24,33580,44,65700,0,44,0,0,0
i,0x00000000,1720557792.792829,10.0.2.15,22,10.0.2.2,56314,1073725440,17602,0,65535,65700,0,0,4,1460,1,0,0,24,33580,0,65700,0,0,0,0,0
o,0x00000000,1720557792.793158,10.0.2.15,22,10.0.2.2,56314,1073725440,17602,0,65535,65700,0,0,4,1460,1,0,4,24,33580,72,65700,0,0,0,0,0
i,0x00000000,1720557792.793922,10.0.2.15,22,10.0.2.2,56314,1073725440,17602,0,65535,65700,0,0,4,1460,1,0,4,24,33580,72,65700,0,72,0,0,0
o,0x00000000,1720557792.798408,10.0.2.15,22,10.0.2.2,56314,1073725440,17674,0,65535,65700,0,0,4,1460,1,0,4,24,33580,44,65700,0,0,0,0,0
i,0x00000000,1720557792.799116,10.0.2.15,22,10.0.2.2,56314,1073725440,17674,0,65535,65700,0,0,4,1460,1,0,4,24,33580,44,65700,0,44,0,0,0
o,0x00000000,1720557792.799483,10.0.2.15,22,10.0.2.2,56314,1073725440,17718,0,65535,65700,0,0,4,1460,1,0,4,24,33580,44,65700,0,0,0,0,0
i,0x00000000,1720557792.799971,10.0.2.15,22,10.0.2.2,56314,1073725440,17718,0,65535,65700,0,0,4,1460,1,0,4,24,33580,44,65700,0,44,0,0,0
o,0x00000000,1720557792.803738,10.0.2.15,22,10.0.2.2,56314,1073725440,17762,0,65535,65700,0,0,4,1460,1,0,4,24,33580,176,65700,0,0,0,0,0
i,0x00000000,1720557792.804757,10.0.2.15,22,10.0.2.2,56314,1073725440,17762,0,65535,65700,0,0,4,1460,1,0,4,24,33580,176,65700,0,176,0,0,0
i,0x00000000,1720557792.804765,10.0.2.15,22,10.0.2.2,56314,1073725440,17938,0,65535,65700,0,0,4,1460,1,0,4,24,33580,0,65700,0,0,0,0,0
i,0x00000000,1720557792.804767,10.0.2.15,22,10.0.2.2,56314,1073725440,17938,0,65535,65700,0,0,4,1460,1,0,4,24,33580,0,65700,36,0,0,0,0
o,0x00000000,1720557792.804771,10.0.2.15,22,10.0.2.2,56314,1073725440,17938,0,65535,65700,0,0,4,1460,1,0,5,24,33580,0,65700,96,0,0,0,0
i,0x00000000,1720557792.804872,10.0.2.15,22,10.0.2.2,56314,1073725440,17938,0,65535,65700,0,0,4,1460,1,0,4,24,33580,0,65700,96,0,0,0,0
o,0x00000000,1720557792.804876,10.0.2.15,22,10.0.2.2,56314,1073725440,17938,0,65535,65604,0,0,5,1460,1,0,7,24,33580,0,65700,96,0,0,0,0
o,0x00000000,1720557792.811179,10.0.2.15,22,10.0.2.2,56314,1073725440,17938,0,65535,65604,0,0,8,1460,1,0,4,24,33580,0,65700,0,0,0,0,0
i,0x00000000,1720557792.811831,10.0.2.15,22,10.0.2.2,56314,1073725440,17938,0,65535,65604,0,0,8,1460,1,0,20,24,33580,0,65700,0,1,0,0,0
i,0x00000000,1720557793.050648,172.16.3.2,5101,172.16.1.2,54234,10499,14480,0,65728,65700,6,6,4,1460,578,1,996,64,33580,0,65700,0,0,0,0,0
o,0x00000000,1720557793.050733,172.16.3.2,5101,172.16.1.2,54234,10499,14480,0,65728,65700,6,6,4,1460,578,1,996,64,33580,1,65700,0,0,0,0,0
i,0x00000000,1720557793.172515,172.16.3.2,5101,172.16.1.2,54234,10499,14480,0,65728,65700,6,6,4,1460,578,1,996,64,33580,1,65700,0,1,0,0,0
i,0x00000000,1720557793.172530,172.16.3.2,5101,172.16.1.2,54234,10499,14480,0,65728,65728,6,6,4,1460,554,1,996,62,33580,0,65700,4,0,0,0,0
o,0x00000000,1720557793.172536,172.16.3.2,5101,172.16.1.2,54234,10499,14480,0,65728,65728,6,6,4,1460,554,1,997,62,33580,0,65700,128,0,0,0,0
o,0x00000000,1720557793.172746,172.16.3.2,5101,172.16.1.2,54234,10499,14480,0,65728,65728,6,6,4,1460,554,1,996,62,33580,1,65700,0,0,0,0,0
o,0x00000000,1720557793.173252,10.0.2.15,22,10.0.2.2,49435,1073725440,14600,0,65535,65700,0,0,4,1460,1,0,4,24,33580,84,65700,0,0,0,0,0
i,0x00000000,1720557793.173970,10.0.2.15,22,10.0.2.2,49435,1073725440,14600,0,65535,65700,0,0,4,1460,1,0,4,24,33580,84,65700,0,84,0,0,0
i,0x00000000,1720557793.340207,172.16.3.2,5101,172.16.1.2,54234,10499,14480,0,65728,65728,6,6,4,1460,554,1,996,62,33580,1,65700,0,1,0,0,0
i,0x00000000,1720557793.423520,172.16.3.2,5101,172.16.1.2,25211,10499,14480,0,65728,65700,6,6,4,1460,582,1,992,63,33580,0,65700,0,0,0,0,0
o,0x00000000,1720557793.467269,172.16.3.2,5101,172.16.1.2,25211,10499,14480,0,65728,65700,6,6,4,1460,582,1,993,63,33580,0,65700,0,0,0,0,0
o,0x00000000,1720557793.475105,172.16.3.2,5101,172.16.1.2,54234,10499,14480,0,65728,65728,6,6,4,1460,553,1,996,56,33580,1,65700,0,0,0,0,0
o,0x00000000,1720557793.475425,172.16.3.2,5101,172.16.1.2,54234,10499,14480,0,65728,65728,6,6,4,1460,553,1,996,56,33580,2,65700,0,1,0,0,0
o,0x00000000,1720557793.476906,10.0.2.15,22,10.0.2.2,49435,1073725440,14600,0,65535,65700,0,0,4,1460,1,0,4,24,33580,108,65700,0,0,0,0,0
i,0x00000000,1720557793.477702,10.0.2.15,22,10.0.2.2,49435,1073725440,14600,0,65535,65700,0,0,4,1460,1,0,4,24,33580,108,65700,0,108,0,0,0
i,0x00000000,1720557793.589327,172.16.3.2,5101,172.16.1.2,54234,10499,14480,0,65728,65728,6,6,4,1460,553,1,996,56,33580,2,65700,0,2,0,0,0
i,0x00000000,1720557793.691760,172.16.3.2,5101,172.16.1.2,25211,10499,14480,0,65728,65700,6,6,4,1460,582,1,992,63,33580,0,65700,0,0,0,0,0
i,0x00000000,1720557793.699471,172.16.3.2,5101,172.16.1.2,25211,10499,14480,0,65728,65700,6,6,4,1460,582,1,992,63,33580,0,65700,0,0,0,0,0
o,0x00000000,1720557793.699487,172.16.3.2,5101,172.16.1.2,25211,10499,14480,0,65728,65700,6,6,4,1460,582,1,993,63,33580,0,65700,1448,0,0,0,0
i,0x00000000,1720557793.712117,172.16.3.2,5101,172.16.1.2,25211,10499,14480,0,65728,65700,6,6,4,1460,582,1,992,63,33580,0,65700,0,0,0,0,0
i,0x00000000,1720557793.722632,172.16.3.2,5101,172.16.1.2,25211,10499,14480,0,65728,65700,6,6,4,1460,582,1,992,63,33580,0,65700,0,0,0,0,0
o,0x00000000,1720557793.722650,172.16.3.2,5101,172.16.1.2,25211,10499,14480,0,65728,65700,6,6,4,1460,582,1,993,63,33580,0,65700,1448,0,0,0,0
i,0x00000000,1720557793.742837,172.16.3.2,5101,172.16.1.2,25211,10499,14480,0,65728,65700,6,6,4,1460,582,1,992,63,33580,0,65700,0,0,0,0,0
i,0x00000000,1720557793.753483,172.16.3.2,5101,172.16.1.2,25211,10499,14480,0,65728,65700,6,6,4,1460,582,1,992,63,33580,0,65700,0,0,0,0,0
o,0x00000000,1720557793.753497,172.16.3.2,5101,172.16.1.2,25211,10499,14480,0,65728,65700,6,6,4,1460,582,1,993,63,33580,0,65700,1448,0,0,0,0
i,0x00000000,1720557793.763580,172.16.3.2,5101,172.16.1.2,25211,10499,14480,0,65728,65700,6,6,4,1460,582,1,992,63,33580,0,65700,0,0,0,0,0
i,0x00000000,1720557793.773699,172.16.3.2,5101,172.16.1.2,25211,10499,14480,0,65728,65700,6,6,4,1460,582,1,992,63,33580,0,65700,0,0,0,0,0
o,0x00000000,1720557793.773719,172.16.3.2,5101,172.16.1.2,25211,10499,14480,0,65728,65700,6,6,4,1460,582,1,993,63,33580,0,65700,1448,0,0,0,0
i,0x00000000,1720557793.794035,172.16.3.2,5101,172.16.1.2,25211,10499,14480,0,65728,65700,6,6,4,1460,582,1,992,63,33580,0,65700,0,0,0,0,0
i,0x00000000,1720557793.798932,172.16.3.2,5101,172.16.1.2,25211,10499,14480,0,65728,65700,6,6,4,1460,582,1,992,63,33580,0,65700,0,0,0,0,0
o,0x00000000,1720557793.798944,172.16.3.2,5101,172.16.1.2,25211,10499,14480,0,65728,65700,6,6,4,1460,582,1,993,63,33580,0,65700,1448,0,0,0,0
i,0x00000000,1720557793.912247,172.16.3.2,5101,172.16.1.2,25211,10499,14480,0,65728,65700,6,6,4,1460,582,1,992,63,33580,0,65700,0,0,0,0,0
i,0x00000000,1720557793.922593,172.16.3.2,5101,172.16.1.2,25211,10499,14480,0,65728,65700,6,6,4,1460,582,1,992,63,33580,0,65700,0,0,0,0,0
o,0x00000000,1720557793.922645,172.16.3.2,5101,172.16.1.2,25211,10499,14480,0,65728,65700,6,6,4,1460,582,1,993,63,33580,0,65700,1448,0,0,0,0
i,0x00000000,1720557793.962955,172.16.3.2,5101,172.16.1.2,25211,10499,14480,0,65728,65700,6,6,4,1460,582,1,992,63,33580,0,65700,0,0,0,0,0
i,0x00000000,1720557793.995395,172.16.3.2,5101,172.16.1.2,25211,10499,14480,0,65728,65700,6,6,4,1460,582,1,992,63,33580,0,65700,0,0,0,0,0
o,0x00000000,1720557793.995452,172.16.3.2,5101,172.16.1.2,25211,10499,14480,0,65728,65700,6,6,4,1460,582,1,993,63,33580,0,65700,1448,0,0,0,0
i,0x00000000,1720557794.000923,172.16.3.2,5101,172.16.1.2,25211,10499,14480,0,65728,65700,6,6,4,1460,582,1,992,63,33580,0,65700,0,0,0,0,0
i,0x00000000,1720557794.025006,172.16.3.2,5101,172.16.1.2,25211,10499,14480,0,65728,65700,6,6,4,1460,582,1,992,63,33580,0,65700,0,0,0,0,0
o,0x00000000,1720557794.025039,172.16.3.2,5101,172.16.1.2,25211,10499,14480,0,65728,65700,6,6,4,1460,582,1,993,63,33580,0,65700,1448,0,0,0,0
i,0x00000000,1720557794.053505,172.16.3.2,5101,172.16.1.2,25211,10499,14480,0,65728,65700,6,6,4,1460,582,1,992,63,33580,0,65700,0,0,0,0,0
i,0x00000000,1720557794.077973,172.16.3.2,5101,172.16.1.2,25211,10499,14480,0,65728,65700,6,6,4,1460,582,1,992,63,33580,0,65700,0,0,0,0,0
o,0x00000000,1720557794.078022,172.16.3.2,5101,172.16.1.2,25211,10499,14480,0,65728,65700,6,6,4,1460,582,1,993,63,33580,0,65700,1448,0,0,0,0
i,0x00000000,1720557794.082291,172.16.3.2,5101,172.16.1.2,25211,10499,14480,0,65728,65700,6,6,4,1460,582,1,992,63,33580,0,65700,0,0,0,0,0
i,0x00000000,1720557794.089604,172.16.3.2,5101,172.16.1.2,25211,10499,14480,0,65728,65700,6,6,4,1460,582,1,992,63,33580,0,65700,0,0,0,0,0
o,0x00000000,1720557794.089621,172.16.3.2,5101,172.16.1.2,25211,10499,14480,0,65728,65700,6,6,4,1460,582,1,993,63,33580,0,65700,1448,0,0,0,0
i,0x00000000,1720557794.101861,172.16.3.2,5101,172.16.1.2,25211,10499,14480,0,65728,65700,6,6,4,1460,582,1,992,63,33580,0,65700,0,0,0,0,0
i,0x00000000,1720557794.111288,172.16.3.2,5101,172.16.1.2,25211,10499,14480,0,65728,65700,6,6,4,1460,582,1,992,63,33580,0,65700,0,0,0,0,0
o,0x00000000,1720557794.111319,172.16.3.2,5101,172.16.1.2,25211,10499,14480,0,65728,65700,6,6,4,1460,582,1,993,63,33580,0,65700,1448,0,0,0,0
i,0x00000000,1720557794.172367,172.16.3.2,5101,172.16.1.2,25211,10499,14480,0,65728,65700,6,6,4,1460,582,1,992,63,33580,0,65700,0,0,0,0,0
i,0x00000000,1720557794.174631,172.16.3.2,5101,172.16.1.2,25211,10499,14480,0,65728,65700,6,6,4,1460,582,1,992,63,33580,0,65700,0,0,0,0,0
o,0x00000000,1720557794.174684,172.16.3.2,5101,172.16.1.2,25211,10499,14480,0,65728,65700,6,6,4,1460,582,1,993,63,33580,0,65700,1448,0,0,0,0
i,0x00000000,1720557794.233537,172.16.3.2,5101,172.16.1.2,25211,10499,14480,0,65728,65700,6,6,4,1460,582,1,992,63,33580,0,65700,0,0,0,0,0
i,0x00000000,1720557794.262198,172.16.3.2,5101,172.16.1.2,25211,10499,14480,0,65728,65700,6,6,4,1460,582,1,992,63,33580,0,65700,0,0,0,0,0
o,0x00000000,1720557794.262257,172.16.3.2,5101,172.16.1.2,25211,10499,14480,0,65728,65700,6,6,4,1460,582,1,993,63,33580,0,65700,1448,0,0,0,0
i,0x00000000,1720557794.311372,172.16.3.2,5101,172.16.1.2,25211,10499,14480,0,65728,65700,6,6,4,1460,582,1,992,63,33580,0,65700,0,0,0,0,0
o,0x00000000,1720557794.348757,172.16.3.2,5101,172.16.1.2,25211,10499,14480,0,65728,65700,6,6,4,1460,582,1,993,63,33580,0,65700,0,0,0,0,0
i,0x00000000,1720557794.361592,172.16.3.2,5101,172.16.1.2,25211,10499,14480,0,65728,65700,6,6,4,1460,582,1,992,63,33580,0,65700,0,0,0,0,0
i,0x00000000,1720557794.381141,172.16.3.2,5101,172.16.1.2,25211,10499,14480,0,65728,65700,6,6,4,1460,582,1,992,63,33580,0,65700,0,0,0,0,0
o,0x00000000,1720557794.381179,172.16.3.2,5101,172.16.1.2,25211,10499,14480,0,65728,65700,6,6,4,1460,582,1,993,63,33580,0,65700,1448,0,0,0,0
i,0x00000000,1720557794.381599,172.16.3.2,5101,172.16.1.2,25211,10499,14480,0,65728,65700,6,6,4,1460,582,1,992,63,33580,0,65700,1448,0,0,0,0
i,0x00000000,1720557794.385529,172.16.3.2,5101,172.16.1.2,25211,10499,14480,0,65728,65700,6,6,4,1460,582,1,992,63,33580,0,65700,0,0,0,0,0
o,0x00000000,1720557794.385558,172.16.3.2,5101,172.16.1.2,25211,10499,14480,0,65728,65700,6,6,4,1460,582,1,993,63,33580,0,65700,1448,0,0,0,0
i,0x00000000,1720557794.428655,172.16.3.2,5101,172.16.1.2,25211,10499,14480,0,65728,65700,6,6,4,1460,582,1,992,63,33580,0,65700,0,0,0,0,0
i,0x00000000,1720557794.437474,172.16.3.2,5101,172.16.1.2,25211,10499,14480,0,65728,65700,6,6,4,1460,582,1,992,63,33580,0,65700,0,0,0,0,0
o,0x00000000,1720557794.437490,172.16.3.2,5101,172.16.1.2,25211,10499,14480,0,65728,65700,6,6,4,1460,582,1,993,63,33580,0,65700,1448,0,0,0,0
i,0x00000000,1720557794.440268,172.16.3.2,5101,172.16.1.2,25211,10499,14480,0,65728,65700,6,6,4,1460,582,1,992,63,33580,0,65700,0,0,0,0,0
i,0x00000000,1720557794.461504,172.16.3.2,5101,172.16.1.2,25211,10499,14480,0,65728,65700,6,6,4,1460,582,1,992,63,33580,0,65700,0,0,0,0,0
o,0x00000000,1720557794.461529,172.16.3.2,5101,172.16.1.2,25211,10499,14480,0,65728,65700,6,6,4,1460,582,1,993,63,33580,0,65700,1448,0,0,0,0
i,0x00000000,1720557794.471631,172.16.3.2,5101,172.16.1.2,25211,10499,14480,0,65728,65700,6,6,4,1460,582,1,992,63,33580,0,65700,0,0,0,0,0
o,0x00000000,1720557794.488116,10.0.2.15,22,10.0.2.2,49435,1073725440,14600,0,65535,65700,0,0,4,1460,1,0,4,24,33580,156,65700,0,0,0,0,0
i,0x00000000,1720557794.490625,10.0.2.15,22,10.0.2.2,49435,1073725440,14600,0,65535,65700,0,0,4,1460,1,0,4,24,33580,156,65700,0,156,0,0,0
o,0x00000000,1720557794.508366,172.16.3.2,5101,172.16.1.2,25211,10499,14480,0,65728,65700,6,6,4,1460,582,1,993,63,33580,0,65700,0,0,0,0,0
i,0x00000000,1720557794.515921,172.16.3.2,5101,172.16.1.2,25211,10499,14480,0,65728,65700,6,6,4,1460,582,1,992,63,33580,0,65700,0,0,0,0,0
i,0x00000000,1720557794.520989,172.16.3.2,5101,172.16.1.2,25211,10499,14480,0,65728,65700,6,6,4,1460,582,1,992,63,33580,0,65700,0,0,0,0,0
o,0x00000000,1720557794.521012,172.16.3.2,5101,172.16.1.2,25211,10499,14480,0,65728,65700,6,6,4,1460,582,1,993,63,33580,0,65700,1448,0,0,0,0
i,0x00000000,1720557794.541640,172.16.3.2,5101,172.16.1.2,25211,10499,14480,0,65728,65700,6,6,4,1460,582,1,992,63,33580,0,65700,0,0,0,0,0
o,0x00000000,1720557794.577640,172.16.3.2,5101,172.16.1.2,25211,10499,14480,0,65728,65700,6,6,4,1460,582,1,993,63,33580,0,65700,0,0,0,0,0
i,0x00000000,1720557794.591716,172.16.3.2,5101,172.16.1.2,25211,10499,14480,0,65728,65700,6,6,4,1460,582,1,992,63,33580,0,65700,0,0,0,0,0
i,0x00000000,1720557794.606111,172.16.3.2,5101,172.16.1.2,25211,10499,14480,0,65728,65700,6,6,4,1460,582,1,992,63,33580,0,65700,0,0,0,0,0
o,0x00000000,1720557794.606157,172.16.3.2,5101,172.16.1.2,25211,10499,14480,0,65728,65700,6,6,4,1460,582,1,993,63,33580,0,65700,1448,0,0,0,0
i,0x00000000,1720557794.624369,172.16.3.2,5101,172.16.1.2,25211,10499,14480,0,65728,65700,6,6,4,1460,582,1,992,63,33580,0,65700,0,0,0,0,0
i,0x00000000,1720557794.639045,172.16.3.2,5101,172.16.1.2,25211,10499,14480,0,65728,65700,6,6,4,1460,582,1,992,63,33580,0,65700,0,0,0,0,0
o,0x00000000,1720557794.639067,172.16.3.2,5101,172.16.1.2,25211,10499,14480,0,65728,65700,6,6,4,1460,582,1,993,63,33580,0,65700,0,0,1,0,0
i,0x00000000,1720557794.664413,172.16.3.2,5101,172.16.1.2,25211,10499,14480,0,65728,65700,6,6,4,1460,582,1,992,63,33580,0,65700,0,0,1,0,0
o,0x00000000,1720557794.664427,172.16.3.2,5101,172.16.1.2,25211,10499,14480,0,65728,65728,6,6,4,1460,582,1,993,63,33580,0,65700,0,0,1,0,0
i,0x00000000,1720557794.671370,172.16.3.2,5101,172.16.1.2,25211,10499,14480,0,65728,65728,6,6,4,1460,582,1,992,63,33580,0,65700,0,0,1,0,0
o,0x00000000,1720557794.671408,172.16.3.2,5101,172.16.1.2,25211,10499,14480,0,65728,65728,6,6,4,1460,582,1,993,63,33580,0,65700,0,0,1,0,0
i,0x00000000,1720557794.710861,172.16.3.2,5101,172.16.1.2,25211,10499,14480,0,65728,65728,6,6,4,1460,582,1,992,63,33580,0,65700,0,0,1,0,0
o,0x00000000,1720557794.710873,172.16.3.2,5101,172.16.1.2,25211,10499,14480,0,65728,65728,6,6,4,1460,582,1,993,63,33580,0,65700,0,0,1,0,0
i,0x00000000,1720557794.776056,172.16.3.2,5101,172.16.1.2,25211,10499,14480,0,65728,65728,6,6,4,1460,582,1,992,63,33580,0,65700,0,0,1,0,0
o,0x00000000,1720557794.776090,172.16.3.2,5101,172.16.1.2,25211,10499,14480,0,65728,65728,6,6,4,1460,582,1,993,63,33580,0,65700,0,0,1,0,0
i,0x00000000,1720557794.797959,172.16.3.2,5101,172.16.1.2,25211,10499,14480,0,65728,65728,6,6,4,1460,582,1,992,63,33580,0,65700,0,0,1,0,0
o,0x00000000,1720557794.797993,172.16.3.2,5101,172.16.1.2,25211,10499,14480,0,65728,65728,6,6,4,1460,582,1,993,63,33580,0,65700,0,0,1,0,0
i,0x00000000,1720557794.804407,172.16.3.2,5101,172.16.1.2,25211,10499,14480,0,65728,65728,6,6,4,1460,582,1,992,63,33580,0,65700,0,0,1,0,0
o,0x00000000,1720557794.804445,172.16.3.2,5101,172.16.1.2,25211,10499,14480,0,65728,65728,6,6,4,1460,582,1,993,63,33580,0,65700,1448,0,1,0,0
i,0x00000000,1720557794.925347,172.16.3.2,5101,172.16.1.2,25211,10499,14480,0,65728,65728,6,6,4,1460,582,1,992,63,33580,0,65700,0,0,1,0,0
o,0x00000000,1720557794.925396,172.16.3.2,5101,172.16.1.2,25211,10499,14480,0,65728,65700,6,6,4,1460,582,1,993,63,33580,0,65700,10136,0,0,0,0
i,0x00000000,1720557794.934451,172.16.3.2,5101,172.16.1.2,25211,10499,14480,0,65728,65700,6,6,4,1460,582,1,992,63,33580,0,65700,10136,0,0,0,0
i,0x00000000,1720557794.934913,172.16.3.2,5101,172.16.1.2,25211,10499,14480,0,65728,65700,6,6,4,1460,582,1,993,63,33580,0,65700,11584,0,0,0,0
o,0x00000000,1720557794.934940,172.16.3.2,5101,172.16.1.2,25211,10499,14480,0,65728,65700,6,6,4,1460,582,1,993,63,33580,0,65700,13032,0,0,0,0
i,0x00000000,1720557794.941434,172.16.3.2,5101,172.16.1.2,25211,10499,14480,0,65728,65700,6,6,4,1460,582,1,992,63,33580,0,65700,0,0,0,0,0
i,0x00000000,1720557794.966368,172.16.3.2,5101,172.16.1.2,25211,10499,14480,0,65728,65700,6,6,4,1460,582,1,992,63,33580,0,65700,0,0,0,0,0
o,0x00000000,1720557794.966408,172.16.3.2,5101,172.16.1.2,25211,10499,14480,0,65728,65700,6,6,4,1460,582,1,993,63,33580,0,65700,1448,0,0,0,0
i,0x00000000,1720557794.971223,172.16.3.2,5101,172.16.1.2,25211,10499,14480,0,65728,65700,6,6,4,1460,582,1,992,63,33580,0,65700,1448,0,0,0,0
i,0x00000000,1720557795.003090,172.16.3.2,5101,172.16.1.2,25211,10499,14480,0,65728,65700,6,6,4,1460,582,1,992,63,33580,0,65700,0,0,0,0,0
o,0x00000000,1720557795.003144,172.16.3.2,5101,172.16.1.2,25211,10499,14480,0,65728,65700,6,6,4,1460,582,1,993,63,33580,0,65700,1448,0,0,0,0
i,0x00000000,1720557795.088690,172.16.3.2,5101,172.16.1.2,25211,10499,14480,0,65728,65700,6,6,4,1460,582,1,992,63,33580,0,65700,0,0,0,0,0
i,0x00000000,1720557795.113371,172.16.3.2,5101,172.16.1.2,25211,10499,14480,0,65728,65700,6,6,4,1460,582,1,992,63,33580,0,65700,0,0,0,0,0
o,0x00000000,1720557795.113412,172.16.3.2,5101,172.16.1.2,25211,10499,14480,0,65728,65700,6,6,4,1460,582,1,993,63,33580,0,65700,1448,0,0,0,0
i,0x00000000,1720557795.121753,172.16.3.2,5101,172.16.1.2,25211,10499,14480,0,65728,65700,6,6,4,1460,582,1,992,63,33580,0,65700,0,0,0,0,0
o,0x00000000,1720557795.158782,172.16.3.2,5101,172.16.1.2,25211,10499,14480,0,65728,65700,6,6,4,1460,582,1,993,63,33580,0,65700,0,0,0,0,0
i,0x00000000,1720557795.164200,172.16.3.2,5101,172.16.1.2,25211,10499,14480,0,65728,65700,6,6,4,1460,582,1,992,63,33580,0,65700,0,0,0,0,0
i,0x00000000,1720557795.173045,172.16.3.2,5101,172.16.1.2,25211,10499,14480,0,65728,65700,6,6,4,1460,582,1,992,63,33580,0,65700,0,0,0,0,0
o,0x00000000,1720557795.173095,172.16.3.2,5101,172.16.1.2,25211,10499,14480,0,65728,65700,6,6,4,1460,582,1,993,63,33580,0,65700,1448,0,0,0,0
i,0x00000000,1720557795.203865,172.16.3.2,5101,172.16.1.2,25211,10499,14480,0,65728,65700,6,6,4,1460,582,1,992,63,33580,0,65700,0,0,0,0,0
i,0x00000000,1720557795.214333,172.16.3.2,5101,172.16.1.2,25211,10499,14480,0,65728,65700,6,6,4,1460,582,1,992,63,33580,0,65700,0,0,0,0,0
o,0x00000000,1720557795.214376,172.16.3.2,5101,172.16.1.2,25211,10499,14480,0,65728,65700,6,6,4,1460,582,1,993,63,33580,0,65700,1448,0,0,0,0
i,0x00000000,1720557795.214877,172.16.3.2,5101,172.16.1.2,25211,10499,14480,0,65728,65700,6,6,4,1460,582,1,992,63,33580,0,65700,1448,0,0,0,0
o,0x00000000,1720557795.247287,172.16.3.2,5101,172.16.1.2,25211,10499,14480,0,65728,65700,6,6,4,1460,582,1,993,63,33580,0,65700,0,0,0,0,0
i,0x00000000,1720557795.253166,172.16.3.2,5101,172.16.1.2,25211,10499,14480,0,65728,65700,6,6,4,1460,582,1,992,63,33580,0,65700,0,0,0,0,0
i,0x00000000,1720557795.264961,172.16.3.2,5101,172.16.1.2,25211,10499,14480,0,65728,65700,6,6,4,1460,582,1,992,63,33580,0,65700,0,0,0,0,0
o,0x00000000,1720557795.264998,172.16.3.2,5101,172.16.1.2,25211,10499,14480,0,65728,65700,6,6,4,1460,582,1,993,63,33580,0,65700,1448,0,0,0,0
i,0x00000000,1720557795.322985,172.16.3.2,5101,172.16.1.2,25211,10499,14480,0,65728,65700,6,6,4,1460,582,1,992,63,33580,0,65700,0,0,0,0,0
o,0x00000000,1720557795.357716,172.16.3.2,5101,172.16.1.2,25211,10499,14480,0,65728,65700,6,6,4,1460,582,1,993,63,33580,0,65700,0,0,0,0,0
i,0x00000000,1720557795.362681,172.16.3.2,5101,172.16.1.2,25211,10499,14480,0,65728,65700,6,6,4,1460,582,1,992,63,33580,0,65700,0,0,0,0,0
i,0x00000000,1720557795.372472,172.16.3.2,5101,172.16.1.2,25211,10499,14480,0,65728,65700,6,6,4,1460,582,1,992,63,33580,0,65700,0,0,0,0,0
o,0x00000000,1720557795.372518,172.16.3.2,5101,172.16.1.2,25211,10499,14480,0,65728,65700,6,6,4,1460,582,1,993,63,33580,0,65700,1448,0,0,0,0
i,0x00000000,1720557795.383305,172.16.3.2,5101,172.16.1.2,25211,10499,14480,0,65728,65700,6,6,4,1460,582,1,992,63,33580,0,65700,0,0,0,0,0
i,0x00000000,1720557795.416574,172.16.3.2,5101,172.16.1.2,25211,10499,14480,0,65728,65700,6,6,4,1460,582,1,992,63,33580,0,65700,0,0,0,0,0
o,0x00000000,1720557795.416597,172.16.3.2,5101,172.16.1.2,25211,10499,14480,0,65728,65700,6,6,4,1460,582,1,993,63,33580,0,65700,1448,0,0,0,0
i,0x00000000,1720557795.453884,172.16.3.2,5101,172.16.1.2,25211,10499,14480,0,65728,65700,6,6,4,1460,582,1,992,63,33580,0,65700,0,0,0,0,0
i,0x00000000,1720557795.475223,172.16.3.2,5101,172.16.1.2,25211,10499,14480,0,65728,65700,6,6,4,1460,582,1,992,63,33580,0,65700,0,0,0,0,0
o,0x00000000,1720557795.475248,172.16.3.2,5101,172.16.1.2,25211,10499,14480,0,65728,65700,6,6,4,1460,582,1,993,63,33580,0,65700,1448,0,0,0,0
i,0x00000000,1720557795.475537,172.16.3.2,5101,172.16.1.2,25211,10499,14480,0,65728,65700,6,6,4,1460,582,1,992,63,33580,0,65700,1448,0,0,0,0
o,0x00000000,1720557795.487862,10.0.2.15,22,10.0.2.2,49435,1073725440,14600,0,65535,65700,0,0,4,1460,1,0,4,24,33580,108,65700,0,0,0,0,0
i,0x00000000,1720557795.490060,10.0.2.15,22,10.0.2.2,49435,1073725440,14600,0,65535,65700,0,0,4,1460,1,0,4,24,33580,108,65700,0,108,0,0,0
i,0x00000000,1720557795.492564,172.16.3.2,5101,172.16.1.2,25211,10499,14480,0,65728,65700,6,6,4,1460,582,1,992,63,33580,0,65700,0,0,0,0,0
o,0x00000000,1720557795.492582,172.16.3.2,5101,172.16.1.2,25211,10499,14480,0,65728,65700,6,6,4,1460,582,1,993,63,33580,0,65700,1448,0,0,0,0
i,0x00000000,1720557795.571913,172.16.3.2,5101,172.16.1.2,25211,10499,14480,0,65728,65700,6,6,4,1460,582,1,992,63,33580,0,65700,0,0,0,0,0
i,0x00000000,1720557795.582184,172.16.3.2,5101,172.16.1.2,25211,10499,14480,0,65728,65700,6,6,4,1460,582,1,992,63,33580,0,65700,0,0,0,0,0
o,0x00000000,1720557795.582232,172.16.3.2,5101,172.16.1.2,25211,10499,14480,0,65728,65700,6,6,4,1460,582,1,993,63,33580,0,65700,1448,0,0,0,0
i,0x00000000,1720557795.594942,172.16.3.2,5101,172.16.1.2,25211,10499,14480,0,65728,65700,6,6,4,1460,582,1,992,63,33580,0,65700,0,0,0,0,0
i,0x00000000,1720557795.603810,172.16.3.2,5101,172.16.1.2,25211,10499,14480,0,65728,65700,6,6,4,1460,582,1,992,63,33580,0,65700,0,0,0,0,0
o,0x00000000,1720557795.603852,172.16.3.2,5101,172.16.1.2,25211,10499,14480,0,65728,65700,6,6,4,1460,582,1,993,63,33580,0,65700,1448,0,0,0,0
i,0x00000000,1720557795.614427,172.16.3.2,5101,172.16.1.2,25211,10499,14480,0,65728,65700,6,6,4,1460,582,1,992,63,33580,0,65700,0,0,0,0,0
o,0x00000000,1720557795.647844,172.16.3.2,5101,172.16.1.2,25211,10499,14480,0,65728,65700,6,6,4,1460,582,1,993,63,33580,0,65700,0,0,0,0,0
i,0x00000000,1720557795.652999,172.16.3.2,5101,172.16.1.2,25211,10499,14480,0,65728,65700,6,6,4,1460,582,1,992,63,33580,0,65700,0,0,0,0,0
o,0x00000000,1720557795.686932,172.16.3.2,5101,172.16.1.2,25211,10499,14480,0,65728,65700,6,6,4,1460,582,1,993,63,33580,0,65700,0,0,0,0,0
i,0x00000000,1720557795.690718,172.16.3.2,5101,172.16.1.2,25211,10499,14480,0,65728,65700,6,6,4,1460,582,1,992,63,33580,0,65700,0,0,0,0,0
i,0x00000000,1720557795.710209,172.16.3.2,5101,172.16.1.2,25211,10499,14480,0,65728,65700,6,6,4,1460,582,1,992,63,33580,0,65700,0,0,0,0,0
o,0x00000000,1720557795.710222,172.16.3.2,5101,172.16.1.2,25211,10499,14480,0,65728,65700,6,6,4,1460,582,1,993,63,33580,0,65700,1448,0,0,0,0
i,0x00000000,1720557795.754307,172.16.3.2,5101,172.16.1.2,25211,10499,14480,0,65728,65700,6,6,4,1460,582,1,992,63,33580,0,65700,0,0,0,0,0
o,0x00000000,1720557795.786734,172.16.3.2,5101,172.16.1.2,25211,10499,14480,0,65728,65700,6,6,4,1460,582,1,993,63,33580,0,65700,0,0,0,0,0
i,0x00000000,1720557795.791298,172.16.3.2,5101,172.16.1.2,25211,10499,14480,0,65728,65700,6,6,4,1460,582,1,992,63,33580,0,65700,0,0,0,0,0
i,0x00000000,1720557795.811436,172.16.3.2,5101,172.16.1.2,25211,10499,14480,0,65728,65700,6,6,4,1460,582,1,992,63,33580,0,65700,0,0,0,0,0
o,0x00000000,1720557795.811451,172.16.3.2,5101,172.16.1.2,25211,10499,14480,0,65728,65700,6,6,4,1460,582,1,993,63,33580,0,65700,1448,0,0,0,0
i,0x00000000,1720557795.820283,172.16.3.2,5101,172.16.1.2,25211,10499,14480,0,65728,65700,6,6,4,1460,582,1,992,63,33580,0,65700,0,0,0,0,0
i,0x00000000,1720557795.837012,172.16.3.2,5101,172.16.1.2,25211,10499,14480,0,65728,65700,6,6,4,1460,582,1,992,63,33580,0,65700,0,0,0,0,0
o,0x00000000,1720557795.837025,172.16.3.2,5101,172.16.1.2,25211,10499,14480,0,65728,65700,6,6,4,1460,582,1,993,63,33580,0,65700,1448,0,0,0,0
i,0x00000000,1720557795.863136,172.16.3.2,5101,172.16.1.2,25211,10499,14480,0,65728,65700,6,6,4,1460,582,1,992,63,33580,0,65700,0,0,0,0,0
i,0x00000000,1720557795.884067,172.16.3.2,5101,172.16.1.2,25211,10499,14480,0,65728,65700,6,6,4,1460,582,1,992,63,33580,0,65700,0,0,0,0,0
o,0x00000000,1720557795.884103,172.16.3.2,5101,172.16.1.2,25211,10499,14480,0,65728,65700,6,6,4,1460,582,1,993,63,33580,0,65700,1448,0,0,0,0
i,0x00000000,1720557795.924238,172.16.3.2,5101,172.16.1.2,25211,10499,14480,0,65728,65700,6,6,4,1460,582,1,992,63,33580,0,65700,0,0,0,0,0
i,0x00000000,1720557795.935855,172.16.3.2,5101,172.16.1.2,25211,10499,14480,0,65728,65700,6,6,4,1460,582,1,992,63,33580,0,65700,0,0,0,0,0
o,0x00000000,1720557795.935901,172.16.3.2,5101,172.16.1.2,25211,10499,14480,0,65728,65700,6,6,4,1460,582,1,993,63,33580,0,65700,1448,0,0,0,0
i,0x00000000,1720557795.953455,172.16.3.2,5101,172.16.1.2,25211,10499,14480,0,65728,65700,6,6,4,1460,582,1,992,63,33580,0,65700,0,0,0,0,0
i,0x00000000,1720557795.987510,172.16.3.2,5101,172.16.1.2,25211,10499,14480,0,65728,65700,6,6,4,1460,582,1,992,63,33580,0,65700,0,0,0,0,0
o,0x00000000,1720557795.987560,172.16.3.2,5101,172.16.1.2,25211,10499,14480,0,65728,65700,6,6,4,1460,582,1,993,63,33580,0,65700,1448,0,0,0,0
i,0x00000000,1720557796.024945,172.16.3.2,5101,172.16.1.2,25211,10499,14480,0,65728,65700,6,6,4,1460,582,1,992,63,33580,0,65700,0,0,0,0,0
o,0x00000000,1720557796.057327,172.16.3.2,5101,172.16.1.2,25211,10499,14480,0,65728,65700,6,6,4,1460,582,1,993,63,33580,0,65700,0,0,0,0,0
i,0x00000000,1720557796.083299,172.16.3.2,5101,172.16.1.2,25211,10499,14480,0,65728,65700,6,6,4,1460,582,1,992,63,33580,0,65700,0,0,0,0,0
i,0x00000000,1720557796.083328,172.16.3.2,5101,172.16.1.2,25211,10499,14480,0,65728,65700,6,6,4,1460,582,1,992,63,33580,0,65700,1448,0,0,0,0
o,0x00000000,1720557796.083347,172.16.3.2,5101,172.16.1.2,25211,10499,14480,0,65728,65700,6,6,4,1460,582,1,993,63,33580,0,65700,2896,0,0,0,0
i,0x00000000,1720557796.093981,172.16.3.2,5101,172.16.1.2,25211,10499,14480,0,65728,65700,6,6,4,1460,582,1,992,63,33580,0,65700,0,0,0,0,0
o,0x00000000,1720557796.127456,172.16.3.2,5101,172.16.1.2,25211,10499,14480,0,65728,65700,6,6,4,1460,582,1,993,63,33580,0,65700,0,0,0,0,0
i,0x00000000,1720557796.133488,172.16.3.2,5101,172.16.1.2,25211,10499,14480,0,65728,65700,6,6,4,1460,582,1,992,63,33580,0,65700,0,0,0,0,0
i,0x00000000,1720557796.153600,172.16.3.2,5101,172.16.1.2,25211,10499,14480,0,65728,65700,6,6,4,1460,582,1,992,63,33580,0,65700,0,0,0,0,0
o,0x00000000,1720557796.153654,172.16.3.2,5101,172.16.1.2,25211,10499,14480,0,65728,65700,6,6,4,1460,582,1,993,63,33580,0,65700,1448,0,0,0,0
i,0x00000000,1720557796.163970,172.16.3.2,5101,172.16.1.2,25211,10499,14480,0,65728,65700,6,6,4,1460,582,1,992,63,33580,0,65700,0,0,0,0,0
i,0x00000000,1720557796.193538,172.16.3.2,5101,172.16.1.2,25211,10499,14480,0,65728,65700,6,6,4,1460,582,1,992,63,33580,0,65700,0,0,0,0,0
o,0x00000000,1720557796.193625,172.16.3.2,5101,172.16.1.2,25211,10499,14480,0,65728,65700,6,6,4,1460,582,1,993,63,33580,0,65700,1448,0,0,0,0
i,0x00000000,1720557796.206321,172.16.3.2,5101,172.16.1.2,25211,10499,14480,0,65728,65700,6,6,4,1460,582,1,992,63,33580,0,65700,0,0,0,0,0
i,0x00000000,1720557796.214051,172.16.3.2,5101,172.16.1.2,25211,10499,14480,0,65728,65700,6,6,4,1460,582,1,992,63,33580,0,65700,0,0,0,0,0
o,0x00000000,1720557796.214084,172.16.3.2,5101,172.16.1.2,25211,10499,14480,0,65728,65700,6,6,4,1460,582,1,993,63,33580,0,65700,1448,0,0,0,0
i,0x00000000,1720557796.269141,172.16.3.2,5101,172.16.1.2,25211,10499,14480,0,65728,65700,6,6,4,1460,582,1,992,63,33580,0,65700,0,0,0,0,0
i,0x00000000,1720557796.283154,172.16.3.2,5101,172.16.1.2,25211,10499,14480,0,65728,65700,6,6,4,1460,582,1,992,63,33580,0,65700,0,0,0,0,0
o,0x00000000,1720557796.283190,172.16.3.2,5101,172.16.1.2,25211,10499,14480,0,65728,65700,6,6,4,1460,582,1,993,63,33580,0,65700,1448,0,0,0,0
i,0x00000000,1720557796.325297,172.16.3.2,5101,172.16.1.2,25211,10499,14480,0,65728,65700,6,6,4,1460,582,1,992,63,33580,0,65700,0,0,0,0,0
o,0x00000000,1720557796.358661,172.16.3.2,5101,172.16.1.2,25211,10499,14480,0,65728,65700,6,6,4,1460,582,1,993,63,33580,0,65700,0,0,0,0,0
i,0x00000000,1720557796.369342,172.16.3.2,5101,172.16.1.2,25211,10499,14480,0,65728,65700,6,6,4,1460,582,1,992,63,33580,0,65700,0,0,0,0,0
i,0x00000000,1720557796.369560,172.16.3.2,5101,172.16.1.2,25211,10499,14480,0,65728,65700,6,6,4,1460,582,1,992,63,33580,0,65700,1448,0,0,0,0
o,0x00000000,1720557796.369591,172.16.3.2,5101,172.16.1.2,25211,10499,14480,0,65728,65700,6,6,4,1460,582,1,993,63,33580,0,65700,2896,0,0,0,0
i,0x00000000,1720557796.433809,172.16.3.2,5101,172.16.1.2,25211,10499,14480,0,65728,65700,6,6,4,1460,582,1,992,63,33580,0,65700,0,0,0,0,0
i,0x00000000,1720557796.433830,172.16.3.2,5101,172.16.1.2,25211,10499,14480,0,65728,65700,6,6,4,1460,582,1,992,63,33580,0,65700,1448,0,0,0,0
o,0x00000000,1720557796.433861,172.16.3.2,5101,172.16.1.2,25211,10499,14480,0,65728,65700,6,6,4,1460,582,1,993,63,33580,0,65700,2896,0,0,0,0
i,0x00000000,1720557796.451479,172.16.3.2,5101,172.16.1.2,25211,10499,14480,0,65728,65700,6,6,4,1460,582,1,992,63,33580,0,65700,0,0,0,0,0
i,0x00000000,1720557796.464905,172.16.3.2,5101,172.16.1.2,25211,10499,14480,0,65728,65700,6,6,4,1460,582,1,992,63,33580,0,65700,0,0,0,0,0
o,0x00000000,1720557796.464923,172.16.3.2,5101,172.16.1.2,25211,10499,14480,0,65728,65700,6,6,4,1460,582,1,993,63,33580,0,65700,1448,0,0,0,0
o,0x00000000,1720557796.488310,10.0.2.15,22,10.0.2.2,49435,1073725440,14600,0,65535,65700,0,0,4,1460,1,0,4,24,33580,108,65700,0,0,0,0,0
i,0x00000000,1720557796.490319,10.0.2.15,22,10.0.2.2,49435,1073725440,14600,0,65535,65700,0,0,4,1460,1,0,4,24,33580,108,65700,0,108,0,0,0
i,0x00000000,1720557796.495608,172.16.3.2,5101,172.16.1.2,25211,10499,14480,0,65728,65700,6,6,4,1460,582,1,992,63,33580,0,65700,0,0,0,0,0
i,0x00000000,1720557796.512175,172.16.3.2,5101,172.16.1.2,25211,10499,14480,0,65728,65700,6,6,4,1460,582,1,992,63,33580,0,65700,0,0,0,0,0
o,0x00000000,1720557796.512188,172.16.3.2,5101,172.16.1.2,25211,10499,14480,0,65728,65700,6,6,4,1460,582,1,993,63,33580,0,65700,1448,0,0,0,0
i,0x00000000,1720557796.529388,172.16.3.2,5101,172.16.1.2,25211,10499,14480,0,65728,65700,6,6,4,1460,582,1,992,63,33580,0,65700,0,0,0,0,0
i,0x00000000,1720557796.537859,172.16.3.2,5101,172.16.1.2,25211,10499,14480,0,65728,65700,6,6,4,1460,582,1,992,63,33580,0,65700,0,0,0,0,0
o,0x00000000,1720557796.537875,172.16.3.2,5101,172.16.1.2,25211,10499,14480,0,65728,65700,6,6,4,1460,582,1,993,63,33580,0,65700,1448,0,0,0,0
i,0x00000000,1720557796.583787,172.16.3.2,5101,172.16.1.2,25211,10499,14480,0,65728,65700,6,6,4,1460,582,1,992,63,33580,0,65700,0,0,0,0,0
i,0x00000000,1720557796.592002,172.16.3.2,5101,172.16.1.2,25211,10499,14480,0,65728,65700,6,6,4,1460,582,1,992,63,33580,0,65700,0,0,0,0,0
o,0x00000000,1720557796.592030,172.16.3.2,5101,172.16.1.2,25211,10499,14480,0,65728,65700,6,6,4,1460,582,1,993,63,33580,0,65700,1448,0,0,0,0
i,0x00000000,1720557796.691562,172.16.3.2,5101,172.16.1.2,25211,10499,14480,0,65728,65700,6,6,4,1460,582,1,992,63,33580,0,65700,0,0,0,0,0
i,0x00000000,1720557796.691575,172.16.3.2,5101,172.16.1.2,25211,10499,14480,0,65728,65700,6,6,4,1460,582,1,992,63,33580,0,65700,1448,0,0,0,0
o,0x00000000,1720557796.691584,172.16.3.2,5101,172.16.1.2,25211,10499,14480,0,65728,65700,6,6,4,1460,582,1,993,63,33580,0,65700,2896,0,0,0,0
i,0x00000000,1720557796.696112,172.16.3.2,5101,172.16.1.2,25211,10499,14480,0,65728,65700,6,6,4,1460,582,1,992,63,33580,0,65700,0,0,0,0,0
o,0x00000000,1720557796.728592,172.16.3.2,5101,172.16.1.2,25211,10499,14480,0,65728,65700,6,6,4,1460,582,1,993,63,33580,0,65700,0,0,0,0,0
i,0x00000000,1720557796.754133,172.16.3.2,5101,172.16.1.2,25211,10499,14480,0,65728,65700,6,6,4,1460,582,1,992,63,33580,0,65700,0,0,0,0,0
i,0x00000000,1720557796.764208,172.16.3.2,5101,172.16.1.2,25211,10499,14480,0,65728,65700,6,6,4,1460,582,1,992,63,33580,0,65700,0,0,0,0,0
o,0x00000000,1720557796.764237,172.16.3.2,5101,172.16.1.2,25211,10499,14480,0,65728,65700,6,6,4,1460,582,1,993,63,33580,0,65700,1448,0,0,0,0
i,0x00000000,1720557796.781880,172.16.3.2,5101,172.16.1.2,25211,10499,14480,0,65728,65700,6,6,4,1460,582,1,992,63,33580,0,65700,0,0,0,0,0
i,0x00000000,1720557796.793134,172.16.3.2,5101,172.16.1.2,25211,10499,14480,0,65728,65700,6,6,4,1460,582,1,992,63,33580,0,65700,0,0,0,0,0
o,0x00000000,1720557796.793168,172.16.3.2,5101,172.16.1.2,25211,10499,14480,0,65728,65700,6,6,4,1460,582,1,993,63,33580,0,65700,1448,0,0,0,0
i,0x00000000,1720557796.825171,172.16.3.2,5101,172.16.1.2,25211,10499,14480,0,65728,65700,6,6,4,1460,582,1,992,63,33580,0,65700,0,0,0,0,0
o,0x00000000,1720557796.857208,172.16.3.2,5101,172.16.1.2,25211,10499,14480,0,65728,65700,6,6,4,1460,582,1,993,63,33580,0,65700,0,0,0,0,0
i,0x00000000,1720557796.864921,172.16.3.2,5101,172.16.1.2,25211,10499,14480,0,65728,65700,6,6,4,1460,582,1,992,63,33580,0,65700,0,0,0,0,0
i,0x00000000,1720557796.864950,172.16.3.2,5101,172.16.1.2,25211,10499,14480,0,65728,65700,6,6,4,1460,582,1,992,63,33580,0,65700,1448,0,0,0,0
o,0x00000000,1720557796.864968,172.16.3.2,5101,172.16.1.2,25211,10499,14480,0,65728,65700,6,6,4,1460,582,1,993,63,33580,0,65700,2896,0,0,0,0
i,0x00000000,1720557796.872795,172.16.3.2,5101,172.16.1.2,25211,10499,14480,0,65728,65700,6,6,4,1460,582,1,992,63,33580,0,65700,0,0,0,0,0
i,0x00000000,1720557796.887220,172.16.3.2,5101,172.16.1.2,25211,10499,14480,0,65728,65700,6,6,4,1460,582,1,992,63,33580,0,65700,0,0,0,0,0
o,0x00000000,1720557796.887265,172.16.3.2,5101,172.16.1.2,25211,10499,14480,0,65728,65700,6,6,4,1460,582,1,993,63,33580,0,65700,1448,0,0,0,0
i,0x00000000,1720557796.926047,172.16.3.2,5101,172.16.1.2,25211,10499,14480,0,65728,65700,6,6,4,1460,582,1,992,63,33580,0,65700,0,0,0,0,0
i,0x00000000,1720557796.933775,172.16.3.2,5101,172.16.1.2,25211,10499,14480,0,65728,65700,6,6,4,1460,582,1,992,63,33580,0,65700,0,0,0,0,0
o,0x00000000,1720557796.933819,172.16.3.2,5101,172.16.1.2,25211,10499,14480,0,65728,65700,6,6,4,1460,582,1,993,63,33580,0,65700,1448,0,0,0,0
i,0x00000000,1720557797.005321,172.16.3.2,5101,172.16.1.2,25211,10499,14480,0,65728,65700,6,6,4,1460,582,1,992,63,33580,0,65700,0,0,0,0,0
i,0x00000000,1720557797.014655,172.16.3.2,5101,172.16.1.2,25211,10499,14480,0,65728,65700,6,6,4,1460,582,1,992,63,33580,0,65700,0,0,0,0,0
o,0x00000000,1720557797.014695,172.16.3.2,5101,172.16.1.2,25211,10499,14480,0,65728,65700,6,6,4,1460,582,1,993,63,33580,0,65700,1448,0,0,0,0
i,0x00000000,1720557797.034205,172.16.3.2,5101,172.16.1.2,25211,10499,14480,0,65728,65700,6,6,4,1460,582,1,992,63,33580,0,65700,0,0,0,0,0
o,0x00000000,1720557797.067809,172.16.3.2,5101,172.16.1.2,25211,10499,14480,0,65728,65700,6,6,4,1460,582,1,993,63,33580,0,65700,0,0,0,0,0
i,0x00000000,1720557797.084783,172.16.3.2,5101,172.16.1.2,25211,10499,14480,0,65728,65700,6,6,4,1460,582,1,992,63,33580,0,65700,0,0,0,0,0
o,0x00000000,1720557797.119099,172.16.3.2,5101,172.16.1.2,25211,10499,14480,0,65728,65700,6,6,4,1460,582,1,993,63,33580,0,65700,0,0,0,0,0
i,0x00000000,1720557797.124024,172.16.3.2,5101,172.16.1.2,25211,10499,14480,0,65728,65700,6,6,4,1460,582,1,992,63,33580,0,65700,0,0,0,0,0
i,0x00000000,1720557797.134782,172.16.3.2,5101,172.16.1.2,25211,10499,14480,0,65728,65700,6,6,4,1460,582,1,992,63,33580,0,65700,0,0,0,0,0
o,0x00000000,1720557797.134830,172.16.3.2,5101,172.16.1.2,25211,10499,14480,0,65728,65700,6,6,4,1460,582,1,993,63,33580,0,65700,1448,0,0,0,0
i,0x00000000,1720557797.143399,172.16.3.2,5101,172.16.1.2,25211,10499,14480,0,65728,65700,6,6,4,1460,582,1,992,63,33580,0,65700,0,0,0,0,0
o,0x00000000,1720557797.178450,172.16.3.2,5101,172.16.1.2,25211,10499,14480,0,65728,65700,6,6,4,1460,582,1,993,63,33580,0,65700,0,0,0,0,0
i,0x00000000,1720557797.183651,172.16.3.2,5101,172.16.1.2,25211,10499,14480,0,65728,65700,6,6,4,1460,582,1,992,63,33580,0,65700,0,0,0,0,0
i,0x00000000,1720557797.196969,172.16.3.2,5101,172.16.1.2,25211,10499,14480,0,65728,65700,6,6,4,1460,582,1,992,63,33580,0,65700,0,0,0,0,0
o,0x00000000,1720557797.197010,172.16.3.2,5101,172.16.1.2,25211,10499,14480,0,65728,65700,6,6,4,1460,582,1,993,63,33580,0,65700,1448,0,0,0,0
i,0x00000000,1720557797.202705,172.16.3.2,5101,172.16.1.2,25211,10499,14480,0,65728,65700,6,6,4,1460,582,1,992,63,33580,0,65700,0,0,0,0,0
i,0x00000000,1720557797.234410,172.16.3.2,5101,172.16.1.2,25211,10499,14480,0,65728,65700,6,6,4,1460,582,1,992,63,33580,0,65700,0,0,0,0,0
o,0x00000000,1720557797.234450,172.16.3.2,5101,172.16.1.2,25211,10499,14480,0,65728,65700,6,6,4,1460,582,1,993,63,33580,0,65700,1448,0,0,0,0
i,0x00000000,1720557797.243923,172.16.3.2,5101,172.16.1.2,25211,10499,14480,0,65728,65700,6,6,4,1460,582,1,992,63,33580,0,65700,0,0,0,0,0
i,0x00000000,1720557797.280603,172.16.3.2,5101,172.16.1.2,25211,10499,14480,0,65728,65700,6,6,4,1460,582,1,992,63,33580,0,65700,0,0,0,0,0
o,0x00000000,1720557797.280650,172.16.3.2,5101,172.16.1.2,25211,10499,14480,0,65728,65700,6,6,4,1460,582,1,993,63,33580,0,65700,1448,0,0,0,0
i,0x00000000,1720557797.294414,172.16.3.2,5101,172.16.1.2,25211,10499,14480,0,65728,65700,6,6,4,1460,582,1,992,63,33580,0,65700,0,0,0,0,0
i,0x00000000,1720557797.305386,172.16.3.2,5101,172.16.1.2,25211,10499,14480,0,65728,65700,6,6,4,1460,582,1,992,63,33580,0,65700,0,0,0,0,0
o,0x00000000,1720557797.305425,172.16.3.2,5101,172.16.1.2,25211,10499,14480,0,65728,65700,6,6,4,1460,582,1,993,63,33580,0,65700,1448,0,0,0,0
i,0x00000000,1720557797.356088,172.16.3.2,5101,172.16.1.2,25211,10499,14480,0,65728,65700,6,6,4,1460,582,1,992,63,33580,0,65700,0,0,0,0,0
i,0x00000000,1720557797.383945,172.16.3.2,5101,172.16.1.2,25211,10499,14480,0,65728,65700,6,6,4,1460,582,1,992,63,33580,0,65700,0,0,0,0,0
o,0x00000000,1720557797.383997,172.16.3.2,5101,172.16.1.2,25211,10499,14480,0,65728,65700,6,6,4,1460,582,1,993,63,33580,0,65700,1448,0,0,0,0
i,0x00000000,1720557797.413686,172.16.3.2,5101,172.16.1.2,25211,10499,14480,0,65728,65700,6,6,4,1460,582,1,992,63,33580,0,65700,0,0,0,0,0
o,0x00000000,1720557797.446663,172.16.3.2,5101,172.16.1.2,25211,10499,14480,0,65728,65700,6,6,4,1460,582,1,993,63,33580,0,65700,0,0,0,0,0
i,0x00000000,1720557797.452710,172.16.3.2,5101,172.16.1.2,25211,10499,14480,0,65728,65700,6,6,4,1460,582,1,992,63,33580,0,65700,0,0,0,0,0
i,0x00000000,1720557797.464489,172.16.3.2,5101,172.16.1.2,25211,10499,14480,0,65728,65700,6,6,4,1460,582,1,992,63,33580,0,65700,0,0,0,0,0
o,0x00000000,1720557797.464528,172.16.3.2,5101,172.16.1.2,25211,10499,14480,0,65728,65700,6,6,4,1460,582,1,993,63,33580,0,65700,1448,0,0,0,0
i,0x00000000,1720557797.475719,172.16.3.2,5101,172.16.1.2,25211,10499,14480,0,65728,65700,6,6,4,1460,582,1,992,63,33580,0,65700,0,0,0,0,0
o,0x00000000,1720557797.488305,10.0.2.15,22,10.0.2.2,49435,1073725440,14600,0,65535,65700,0,0,4,1460,1,0,4,24,33580,108,65700,0,0,0,0,0
i,0x00000000,1720557797.492289,10.0.2.15,22,10.0.2.2,49435,1073725440,14600,0,65535,65700,0,0,4,1460,1,0,4,24,33580,108,65700,0,108,0,0,0
o,0x00000000,1720557797.507927,172.16.3.2,5101,172.16.1.2,25211,10499,14480,0,65728,65700,6,6,4,1460,582,1,993,63,33580,0,65700,0,0,0,0,0
i,0x00000000,1720557797.516520,172.16.3.2,5101,172.16.1.2,25211,10499,14480,0,65728,65700,6,6,4,1460,582,1,992,63,33580,0,65700,0,0,0,0,0
o,0x00000000,1720557797.548633,172.16.3.2,5101,172.16.1.2,25211,10499,14480,0,65728,65700,6,6,4,1460,582,1,993,63,33580,0,65700,0,0,0,0,0
i,0x00000000,1720557797.553677,172.16.3.2,5101,172.16.1.2,25211,10499,14480,0,65728,65700,6,6,4,1460,582,1,992,63,33580,0,65700,0,0,0,0,0
i,0x00000000,1720557797.580821,172.16.3.2,5101,172.16.1.2,25211,10499,14480,0,65728,65700,6,6,4,1460,582,1,992,63,33580,0,65700,0,0,0,0,0
o,0x00000000,1720557797.580861,172.16.3.2,5101,172.16.1.2,25211,10499,14480,0,65728,65700,6,6,4,1460,582,1,993,63,33580,0,65700,1448,0,0,0,0
i,0x00000000,1720557797.582307,172.16.3.2,5101,172.16.1.2,25211,10499,14480,0,65728,65700,6,6,4,1460,582,1,992,63,33580,0,65700,1448,0,0,0,0
i,0x00000000,1720557797.593181,172.16.3.2,5101,172.16.1.2,25211,10499,14480,0,65728,65700,6,6,4,1460,582,1,992,63,33580,0,65700,0,0,0,0,0
o,0x00000000,1720557797.593301,172.16.3.2,5101,172.16.1.2,25211,10499,14480,0,65728,65700,6,6,4,1460,582,1,993,63,33580,0,65700,1448,0,0,0,0
i,0x00000000,1720557797.634413,172.16.3.2,5101,172.16.1.2,25211,10499,14480,0,65728,65700,6,6,4,1460,582,1,992,63,33580,0,65700,0,0,0,0,0
o,0x00000000,1720557797.634435,172.16.3.2,5101,172.16.1.2,25211,10499,14480,0,65728,65700,6,6,4,1460,582,1,993,63,33580,0,65700,0,0,1,0,0
i,0x00000000,1720557797.655709,172.16.3.2,5101,172.16.1.2,25211,10499,14480,0,65728,65700,6,6,4,1460,582,1,992,63,33580,0,65700,0,0,1,0,0
o,0x00000000,1720557797.655753,172.16.3.2,5101,172.16.1.2,25211,10499,14480,0,65728,65728,6,6,4,1460,582,1,993,63,33580,0,65700,0,0,1,0,0
i,0x00000000,1720557797.676771,172.16.3.2,5101,172.16.1.2,25211,10499,14480,0,65728,65728,6,6,4,1460,582,1,992,63,33580,0,65700,0,0,1,0,0
o,0x00000000,1720557797.676805,172.16.3.2,5101,172.16.1.2,25211,10499,14480,0,65728,65728,6,6,4,1460,582,1,993,63,33580,0,65700,0,0,1,0,0
i,0x00000000,1720557797.716375,172.16.3.2,5101,172.16.1.2,25211,10499,14480,0,65728,65728,6,6,4,1460,582,1,992,63,33580,0,65700,0,0,1,0,0
o,0x00000000,1720557797.716420,172.16.3.2,5101,172.16.1.2,25211,10499,14480,0,65728,65728,6,6,4,1460,582,1,993,63,33580,0,65700,0,0,1,0,0
i,0x00000000,1720557797.734126,172.16.3.2,5101,172.16.1.2,25211,10499,14480,0,65728,65728,6,6,4,1460,582,1,992,63,33580,0,65700,0,0,1,0,0
o,0x00000000,1720557797.734162,172.16.3.2,5101,172.16.1.2,25211,10499,14480,0,65728,65728,6,6,4,1460,582,1,993,63,33580,0,65700,0,0,2,0,0
i,0x00000000,1720557797.794987,172.16.3.2,5101,172.16.1.2,25211,10499,14480,0,65728,65728,6,6,4,1460,582,1,992,63,33580,0,65700,0,0,2,0,0
o,0x00000000,1720557797.795023,172.16.3.2,5101,172.16.1.2,25211,10499,14480,0,65728,65728,6,6,4,1460,582,1,993,63,33580,0,65700,0,0,2,0,0
i,0x00000000,1720557797.813721,172.16.3.2,5101,172.16.1.2,25211,10499,14480,0,65728,65728,6,6,4,1460,582,1,992,63,33580,0,65700,0,0,2,0,0
o,0x00000000,1720557797.813764,172.16.3.2,5101,172.16.1.2,25211,10499,14480,0,65728,65728,6,6,4,1460,582,1,993,63,33580,0,65700,1448,0,2,0,0
i,0x00000000,1720557797.824058,172.16.3.2,5101,172.16.1.2,25211,10499,14480,0,65728,65728,6,6,4,1460,582,1,992,63,33580,0,65700,0,0,2,0,0
o,0x00000000,1720557797.824079,172.16.3.2,5101,172.16.1.2,25211,10499,14480,0,65728,65700,6,6,4,1460,582,1,993,63,33580,0,65700,0,0,2,0,0
i,0x00000000,1720557797.867057,172.16.3.2,5101,172.16.1.2,25211,10499,14480,0,65728,65700,6,6,4,1460,582,1,992,63,33580,0,65700,0,0,2,0,0
o,0x00000000,1720557797.867089,172.16.3.2,5101,172.16.1.2,25211,10499,14480,0,65728,65728,6,6,4,1460,582,1,993,63,33580,0,65700,0,0,2,0,0
i,0x00000000,1720557797.887382,172.16.3.2,5101,172.16.1.2,25211,10499,14480,0,65728,65728,6,6,4,1460,582,1,992,63,33580,0,65700,0,0,2,0,0
o,0x00000000,1720557797.887437,172.16.3.2,5101,172.16.1.2,25211,10499,14480,0,65728,65728,6,6,4,1460,582,1,993,63,33580,0,65700,7240,0,1,0,0
i,0x00000000,1720557797.908073,172.16.3.2,5101,172.16.1.2,25211,10499,14480,0,65728,65728,6,6,4,1460,582,1,992,63,33580,0,65700,0,0,1,0,0
o,0x00000000,1720557797.908106,172.16.3.2,5101,172.16.1.2,25211,10499,14480,0,65728,65700,6,6,4,1460,582,1,993,63,33580,0,65700,0,0,1,0,0
i,0x00000000,1720557797.925458,172.16.3.2,5101,172.16.1.2,25211,10499,14480,0,65728,65700,6,6,4,1460,582,1,992,63,33580,0,65700,0,0,1,0,0
o,0x00000000,1720557797.925493,172.16.3.2,5101,172.16.1.2,25211,10499,14480,0,65728,65728,6,6,4,1460,582,1,993,63,33580,0,65700,0,0,1,0,0
i,0x00000000,1720557797.934899,172.16.3.2,5101,172.16.1.2,25211,10499,14480,0,65728,65728,6,6,4,1460,582,1,992,63,33580,0,65700,0,0,1,0,0
o,0x00000000,1720557797.934924,172.16.3.2,5101,172.16.1.2,25211,10499,14480,0,65728,65728,6,6,4,1460,582,1,993,63,33580,0,65700,0,0,1,0,0
i,0x00000000,1720557797.944141,172.16.3.2,5101,172.16.1.2,25211,10499,14480,0,65728,65728,6,6,4,1460,582,1,992,63,33580,0,65700,0,0,1,0,0
o,0x00000000,1720557797.944170,172.16.3.2,5101,172.16.1.2,25211,10499,14480,0,65728,65728,6,6,4,1460,582,1,993,63,33580,0,65700,0,0,1,0,0
i,0x00000000,1720557797.949650,172.16.3.2,5101,172.16.1.2,25211,10499,14480,0,65728,65728,6,6,4,1460,582,1,992,63,33580,0,65700,0,0,1,0,0
i,0x00000000,1720557798.004229,172.16.3.2,5101,172.16.1.2,25211,10499,14480,0,65728,65728,6,6,4,1460,582,1,992,63,33580,0,65700,0,0,1,0,0
o,0x00000000,1720557798.004287,172.16.3.2,5101,172.16.1.2,25211,10499,14480,0,65728,65728,6,6,4,1460,582,1,993,63,33580,0,65700,4344,0,0,0,0
i,0x00000000,1720557798.125046,172.16.3.2,5101,172.16.1.2,25211,10499,14480,0,65728,65728,6,6,4,1460,582,1,992,63,33580,0,65700,0,0,0,0,0
o,0x00000000,1720557798.487462,10.0.2.15,22,10.0.2.2,49435,1073725440,14600,0,65535,65700,0,0,4,1460,1,0,4,24,33580,108,65700,0,0,0,0,0
i,0x00000000,1720557798.489647,10.0.2.15,22,10.0.2.2,49435,1073725440,14600,0,65535,65700,0,0,4,1460,1,0,4,24,33580,108,65700,0,108,0,0,0
i,0x00000000,1720557799.125459,172.16.3.2,5101,172.16.1.2,25211,10499,14480,0,65728,65700,6,6,4,1460,582,1,992,63,33580,0,65700,0,0,0,0,0
o,0x00000000,1720557799.158104,172.16.3.2,5101,172.16.1.2,25211,10499,14480,0,65728,65700,6,6,4,1460,582,1,993,63,33580,0,65700,0,0,0,0,0
i,0x00000000,1720557799.301825,172.16.3.2,5101,172.16.1.2,25211,10499,14480,0,65728,65700,6,6,4,1460,582,1,992,63,33580,0,65700,0,0,0,0,0
i,0x00000000,1720557799.314975,172.16.3.2,5101,172.16.1.2,25211,10499,14480,0,65728,65700,6,6,4,1460,582,1,992,63,33580,0,65700,0,0,0,0,0
o,0x00000000,1720557799.315023,172.16.3.2,5101,172.16.1.2,25211,10499,14480,0,65728,65700,6,6,4,1460,582,1,993,63,33580,0,65700,1448,0,0,0,0
o,0x00000000,1720557799.487830,10.0.2.15,22,10.0.2.2,49435,1073725440,14600,0,65535,65700,0,0,4,1460,1,0,4,24,33580,108,65700,0,0,0,0,0
i,0x00000000,1720557799.489389,172.16.3.2,5101,172.16.1.2,25211,10499,14480,0,65728,65700,6,6,4,1460,582,1,992,63,33580,0,65700,0,0,0,0,0
i,0x00000000,1720557799.489405,172.16.3.2,5101,172.16.1.2,25211,10499,14480,0,65728,65700,6,6,4,1460,582,1,992,63,33580,0,65700,1448,0,0,0,0
o,0x00000000,1720557799.489416,172.16.3.2,5101,172.16.1.2,25211,10499,14480,0,65728,65700,6,6,4,1460,582,1,993,63,33580,0,65700,2896,0,0,0,0
i,0x00000000,1720557799.489552,172.16.3.2,5101,172.16.1.2,25211,10499,14480,0,65728,65700,6,6,4,1460,582,1,992,63,33580,0,65700,2896,0,0,0,0
i,0x00000000,1720557799.489558,172.16.3.2,5101,172.16.1.2,25211,10499,14480,0,65728,65700,6,6,4,1460,582,1,992,63,33580,0,65700,4344,0,0,0,0
o,0x00000000,1720557799.489564,172.16.3.2,5101,172.16.1.2,25211,10499,14480,0,65728,65700,6,6,4,1460,582,1,993,63,33580,0,65700,4356,0,0,0,0
i,0x00000000,1720557799.490058,10.0.2.15,22,10.0.2.2,49435,1073725440,14600,0,65535,65700,0,0,4,1460,1,0,4,24,33580,108,65700,0,108,0,0,0
i,0x00000000,1720557799.624285,172.16.3.2,5101,172.16.1.2,25211,10499,14480,0,65728,65700,6,6,4,1460,582,1,992,63,33580,0,65700,0,0,0,0,0
i,0x00000000,1720557799.651973,172.16.3.2,5101,172.16.1.2,25211,10499,14480,0,65728,65700,6,6,4,1460,582,1,992,63,33580,0,65700,0,0,0,0,0
o,0x00000000,1720557799.652014,172.16.3.2,5101,172.16.1.2,25211,10499,14480,0,65728,65700,6,6,4,1460,582,1,993,63,33580,0,65700,1448,0,0,0,0
i,0x00000000,1720557799.658121,172.16.3.2,5101,172.16.1.2,25211,10499,14480,0,65728,65700,6,6,4,1460,582,1,992,63,33580,0,65700,0,0,0,0,0
i,0x00000000,1720557799.665614,172.16.3.2,5101,172.16.1.2,25211,10499,14480,0,65728,65700,6,6,4,1460,582,1,992,63,33580,0,65700,0,0,0,0,0
o,0x00000000,1720557799.665659,172.16.3.2,5101,172.16.1.2,25211,10499,14480,0,65728,65700,6,6,4,1460,582,1,993,63,33580,0,65700,1448,0,0,0,0
i,0x00000000,1720557799.785981,172.16.3.2,5101,172.16.1.2,25211,10499,14480,0,65728,65700,6,6,4,1460,582,1,992,63,33580,0,65700,0,0,0,0,0
o,0x00000000,1720557799.786561,172.16.3.2,5101,172.16.1.2,25211,10499,14480,0,65728,65700,6,6,4,1460,582,1,993,63,33580,0,65700,0,0,0,0,0
i,0x00000000,1720557799.794779,172.16.3.2,5101,172.16.1.2,25211,10499,14480,0,65728,65700,6,6,4,1460,582,1,992,63,33580,0,65700,0,0,0,0,0
i,0x00000000,1720557799.809965,172.16.3.2,5101,172.16.1.2,25211,10499,14480,0,65728,65700,6,6,4,1460,582,1,992,63,33580,0,65700,0,0,0,0,0
o,0x00000000,1720557799.810005,172.16.3.2,5101,172.16.1.2,25211,10499,14480,0,65728,65700,6,6,4,1460,582,1,993,63,33580,0,65700,1448,0,0,0,0
i,0x00000000,1720557799.815553,172.16.3.2,5101,172.16.1.2,25211,10499,14480,0,65728,65700,6,6,4,1460,582,1,992,63,33580,0,65700,1448,0,0,0,0
o,0x00000000,1720557799.848194,172.16.3.2,5101,172.16.1.2,25211,10499,14480,0,65728,65700,6,6,4,1460,582,1,993,63,33580,0,65700,0,0,0,0,0
i,0x00000000,1720557799.903103,172.16.3.2,5101,172.16.1.2,25211,10499,14480,0,65728,65700,6,6,4,1460,582,1,992,63,33580,0,65700,0,0,0,0,0
i,0x00000000,1720557799.926957,172.16.3.2,5101,172.16.1.2,25211,10499,14480,0,65728,65700,6,6,4,1460,582,1,992,63,33580,0,65700,0,0,0,0,0
o,0x00000000,1720557799.927008,172.16.3.2,5101,172.16.1.2,25211,10499,14480,0,65728,65700,6,6,4,1460,582,1,993,63,33580,0,65700,1448,0,0,0,0
i,0x00000000,1720557799.995537,172.16.3.2,5101,172.16.1.2,25211,10499,14480,0,65728,65700,6,6,4,1460,582,1,992,63,33580,0,65700,0,0,0,0,0
i,0x00000000,1720557800.018855,172.16.3.2,5101,172.16.1.2,25211,10499,14480,0,65728,65700,6,6,4,1460,582,1,992,63,33580,0,65700,0,0,0,0,0
o,0x00000000,1720557800.018906,172.16.3.2,5101,172.16.1.2,25211,10499,14480,0,65728,65700,6,6,4,1460,582,1,993,63,33580,0,65700,1448,0,0,0,0
i,0x00000000,1720557800.026022,172.16.3.2,5101,172.16.1.2,25211,10499,14480,0,65728,65700,6,6,4,1460,582,1,992,63,33580,0,65700,0,0,0,0,0
o,0x00000000,1720557800.058328,172.16.3.2,5101,172.16.1.2,25211,10499,14480,0,65728,65700,6,6,4,1460,582,1,993,63,33580,0,65700,0,0,0,0,0
i,0x00000000,1720557800.079413,172.16.3.2,5101,172.16.1.2,25211,10499,14480,0,65728,65700,6,6,4,1460,582,1,992,63,33580,0,65700,0,0,0,0,0
i,0x00000000,1720557800.095710,172.16.3.2,5101,172.16.1.2,25211,10499,14480,0,65728,65700,6,6,4,1460,582,1,992,63,33580,0,65700,0,0,0,0,0
o,0x00000000,1720557800.095766,172.16.3.2,5101,172.16.1.2,25211,10499,14480,0,65728,65700,6,6,4,1460,582,1,993,63,33580,0,65700,1448,0,0,0,0
i,0x00000000,1720557800.107339,172.16.3.2,5101,172.16.1.2,25211,10499,14480,0,65728,65700,6,6,4,1460,582,1,992,63,33580,0,65700,0,0,0,0,0
o,0x00000000,1720557800.147808,172.16.3.2,5101,172.16.1.2,25211,10499,14480,0,65728,65700,6,6,4,1460,582,1,993,63,33580,0,65700,0,0,0,0,0
i,0x00000000,1720557800.165886,172.16.3.2,5101,172.16.1.2,25211,10499,14480,0,65728,65700,6,6,4,1460,582,1,992,63,33580,0,65700,0,0,0,0,0
i,0x00000000,1720557800.188225,172.16.3.2,5101,172.16.1.2,25211,10499,14480,0,65728,65700,6,6,4,1460,582,1,992,63,33580,0,65700,0,0,0,0,0
o,0x00000000,1720557800.188266,172.16.3.2,5101,172.16.1.2,25211,10499,14480,0,65728,65700,6,6,4,1460,582,1,993,63,33580,0,65700,1448,0,0,0,0
i,0x00000000,1720557800.216493,172.16.3.2,5101,172.16.1.2,25211,10499,14480,0,65728,65700,6,6,4,1460,582,1,992,63,33580,0,65700,0,0,0,0,0
i,0x00000000,1720557800.236238,172.16.3.2,5101,172.16.1.2,25211,10499,14480,0,65728,65700,6,6,4,1460,582,1,992,63,33580,0,65700,0,0,0,0,0
o,0x00000000,1720557800.236287,172.16.3.2,5101,172.16.1.2,25211,10499,14480,0,65728,65700,6,6,4,1460,582,1,993,63,33580,0,65700,1448,0,0,0,0
i,0x00000000,1720557800.245036,172.16.3.2,5101,172.16.1.2,25211,10499,14480,0,65728,65700,6,6,4,1460,582,1,992,63,33580,0,65700,0,0,0,0,0
o,0x00000000,1720557800.279477,172.16.3.2,5101,172.16.1.2,25211,10499,14480,0,65728,65700,6,6,4,1460,582,1,993,63,33580,0,65700,0,0,0,0,0
i,0x00000000,1720557800.326259,172.16.3.2,5101,172.16.1.2,25211,10499,14480,0,65728,65700,6,6,4,1460,582,1,992,63,33580,0,65700,0,0,0,0,0
i,0x00000000,1720557800.334950,172.16.3.2,5101,172.16.1.2,25211,10499,14480,0,65728,65700,6,6,4,1460,582,1,992,63,33580,0,65700,0,0,0,0,0
o,0x00000000,1720557800.334989,172.16.3.2,5101,172.16.1.2,25211,10499,14480,0,65728,65700,6,6,4,1460,582,1,993,63,33580,0,65700,1448,0,0,0,0
i,0x00000000,1720557800.361960,172.16.3.2,5101,172.16.1.2,25211,10499,14480,0,65728,65700,6,6,4,1460,582,1,992,63,33580,0,65700,0,0,0,0,0
i,0x00000000,1720557800.393532,172.16.3.2,5101,172.16.1.2,25211,10499,14480,0,65728,65700,6,6,4,1460,582,1,992,63,33580,0,65700,0,0,0,0,0
o,0x00000000,1720557800.393582,172.16.3.2,5101,172.16.1.2,25211,10499,14480,0,65728,65700,6,6,4,1460,582,1,993,63,33580,0,65700,1448,0,0,0,0
i,0x00000000,1720557800.406544,172.16.3.2,5101,172.16.1.2,25211,10499,14480,0,65728,65700,6,6,4,1460,582,1,992,63,33580,0,65700,0,0,0,0,0
i,0x00000000,1720557800.415282,172.16.3.2,5101,172.16.1.2,25211,10499,14480,0,65728,65700,6,6,4,1460,582,1,992,63,33580,0,65700,0,0,0,0,0
o,0x00000000,1720557800.415308,172.16.3.2,5101,172.16.1.2,25211,10499,14480,0,65728,65700,6,6,4,1460,582,1,993,63,33580,0,65700,1448,0,0,0,0
i,0x00000000,1720557800.442678,172.16.3.2,5101,172.16.1.2,25211,10499,14480,0,65728,65700,6,6,4,1460,582,1,992,63,33580,0,65700,0,0,0,0,0
i,0x00000000,1720557800.477159,172.16.3.2,5101,172.16.1.2,25211,10499,14480,0,65728,65700,6,6,4,1460,582,1,992,63,33580,0,65700,0,0,0,0,0
o,0x00000000,1720557800.477180,172.16.3.2,5101,172.16.1.2,25211,10499,14480,0,65728,65700,6,6,4,1460,582,1,993,63,33580,0,65700,1448,0,0,0,0
o,0x00000000,1720557800.488119,10.0.2.15,22,10.0.2.2,49435,1073725440,14600,0,65535,65700,0,0,4,1460,1,0,4,24,33580,108,65700,0,0,0,0,0
i,0x00000000,1720557800.490137,10.0.2.15,22,10.0.2.2,49435,1073725440,14600,0,65535,65700,0,0,4,1460,1,0,4,24,33580,108,65700,0,108,0,0,0
