enable_time_secs=1720600173	enable_time_usecs=868091	siftrver=1.2.4	hz=100	tcp_rtt_scale=32	sysname=FreeBSD	sysver=1301000	ipmode=4
o,0x00000000,1720600173.868139,10.0.2.15,22,10.0.2.2,56306,1073725440,17770,0,65535,65700,0,0,4,1460,1,0,4,23,33580,44,65700,0,0,0,0,0
o,0x00000000,1720600173.868276,10.0.2.15,22,10.0.2.2,56306,1073725440,17770,0,65535,65700,0,0,4,1460,1,0,4,23,33580,80,65700,0,44,0,0,0
i,0x00000000,1720600173.869166,10.0.2.15,22,10.0.2.2,56306,1073725440,17770,0,65535,65700,0,0,4,1460,1,0,4,23,33580,80,65700,0,80,0,0,0
i,0x00000000,1720600173.869171,10.0.2.15,22,10.0.2.2,56306,1073725440,17814,0,65535,65700,0,0,4,1460,1,0,4,23,33580,36,65700,0,36,0,0,0
o,0x00000000,1720600173.869297,10.0.2.15,22,10.0.2.2,56306,1073725440,17850,0,65535,65700,0,0,4,1460,1,0,4,23,33580,36,65700,0,0,0,0,0
i,0x00000000,1720600173.869889,10.0.2.15,22,10.0.2.2,56306,1073725440,17850,0,65535,65700,0,0,4,1460,1,0,4,23,33580,36,65700,0,36,0,0,0
o,0x00000000,1720600173.869975,10.0.2.15,22,10.0.2.2,56306,1073725440,17886,0,65535,65700,0,0,4,1460,1,0,4,24,33580,36,65700,0,0,0,0,0
i,0x00000000,1720600173.870770,10.0.2.15,22,10.0.2.2,56306,1073725440,17886,0,65535,65700,0,0,4,1460,1,0,4,24,33580,36,65700,0,36,0,0,0
o,0x00000000,1720600173.870869,10.0.2.15,22,10.0.2.2,56306,1073725440,17922,0,65535,65700,0,0,4,1460,1,0,4,24,33580,140,65700,0,0,0,0,0
i,0x00000000,1720600173.871854,10.0.2.15,22,10.0.2.2,56306,1073725440,17922,0,65535,65700,0,0,4,1460,1,0,4,24,33580,140,65700,0,140,0,0,0
i,0x00000000,1720600173.871884,10.0.2.15,22,10.0.2.2,56306,1073725440,18062,0,65535,65700,0,0,4,1460,1,0,4,24,33580,0,65700,0,0,0,0,0
i,0x00000000,1720600173.871887,10.0.2.15,22,10.0.2.2,56306,1073725440,18062,0,65535,65700,0,0,4,1460,1,0,4,24,33580,0,65700,96,0,0,0,0
o,0x00000000,1720600173.871890,10.0.2.15,22,10.0.2.2,56306,1073725440,18062,0,65535,65604,0,0,5,1460,1,0,5,24,33580,0,65700,96,0,0,0,0
o,0x00000000,1720600173.872283,10.0.2.15,22,10.0.2.2,56306,1073725440,18062,0,65535,65604,0,0,8,1460,1,0,4,24,33580,0,65700,0,0,0,0,0
i,0x00000000,1720600173.872952,10.0.2.15,22,10.0.2.2,56306,1073725440,18062,0,65535,65604,0,0,8,1460,1,0,20,24,33580,0,65700,0,1,0,0,0
i,0x00000000,1720600176.044539,10.0.2.15,22,10.0.2.2,56316,1073725440,14600,0,65535,65700,0,0,4,1460,1,0,0,27,33580,0,65700,0,0,0,0,0
o,0x00000000,1720600176.052688,10.0.2.15,22,10.0.2.2,56316,1073725440,14600,0,65535,65700,0,0,4,1460,1,0,0,27,33580,38,65700,42,0,0,0,0
i,0x00000000,1720600176.053623,10.0.2.15,22,10.0.2.2,56316,1073725440,14600,0,65535,65700,0,0,4,1460,1,0,0,27,33580,38,65700,42,38,0,0,0
i,0x00000000,1720600176.053737,10.0.2.15,22,10.0.2.2,56316,1073725440,14638,0,65535,65700,0,0,4,1460,1,0,0,24,33580,0,65700,42,0,0,0,0
i,0x00000000,1720600176.053741,10.0.2.15,22,10.0.2.2,56316,1073725440,14638,0,65535,65700,0,0,4,1460,1,0,0,24,33580,0,65700,1502,0,0,0,0
o,0x00000000,1720600176.053744,10.0.2.15,22,10.0.2.2,56316,1073725440,14638,0,65535,65700,0,0,4,1460,1,0,1,24,33580,0,65700,1578,0,0,0,0
o,0x00000000,1720600176.054626,10.0.2.15,22,10.0.2.2,56316,1073725440,14638,0,65535,65700,0,0,4,1460,1,0,0,24,33580,1056,65700,1536,0,0,0,0
i,0x00000000,1720600176.055807,10.0.2.15,22,10.0.2.2,56316,1073725440,14638,0,65535,65700,0,0,4,1460,1,0,0,24,33580,1056,65700,1536,1056,0,0,0
i,0x00000000,1720600176.056646,10.0.2.15,22,10.0.2.2,56316,1073725440,15694,0,65535,65700,0,0,4,1460,1,0,0,24,33580,0,65700,0,0,0,0,0
o,0x00000000,1720600176.059039,10.0.2.15,22,10.0.2.2,56316,1073725440,15694,0,65535,65700,0,0,4,1460,1,0,0,24,33580,484,65700,0,0,0,0,0
i,0x00000000,1720600176.059703,10.0.2.15,22,10.0.2.2,56316,1073725440,15694,0,65535,65700,0,0,4,1460,1,0,0,24,33580,484,65700,0,484,0,0,0
i,0x00000000,1720600176.064323,10.0.2.15,22,10.0.2.2,56316,1073725440,16178,0,65535,65700,0,0,4,1460,1,0,0,24,33580,0,65700,0,0,0,0,0
i,0x00000000,1720600176.064334,10.0.2.15,22,10.0.2.2,56316,1073725440,16178,0,65535,65700,0,0,4,1460,1,0,0,24,33580,0,65700,16,0,0,0,0
o,0x00000000,1720600176.064338,10.0.2.15,22,10.0.2.2,56316,1073725440,16178,0,65535,65700,0,0,4,1460,1,0,1,24,33580,0,65700,60,0,0,0,0
o,0x00000000,1720600176.064633,10.0.2.15,22,10.0.2.2,56316,1073725440,16178,0,65535,65700,0,0,4,1460,1,0,0,24,33580,44,65700,0,0,0,0,0
i,0x00000000,1720600176.065914,10.0.2.15,22,10.0.2.2,56316,1073725440,16178,0,65535,65700,0,0,4,1460,1,0,0,24,33580,44,65700,0,44,0,0,0
i,0x00000000,1720600176.065929,10.0.2.15,22,10.0.2.2,56316,1073725440,16222,0,65535,65700,0,0,4,1460,1,0,0,24,33580,0,65700,0,0,0,0,0
o,0x00000000,1720600176.075298,10.0.2.15,22,10.0.2.2,56316,1073725440,16222,0,65535,65700,0,0,4,1460,1,0,0,24,33580,68,65700,0,0,0,0,0
i,0x00000000,1720600176.077183,10.0.2.15,22,10.0.2.2,56316,1073725440,16222,0,65535,65700,0,0,4,1460,1,0,0,24,33580,68,65700,0,68,0,0,0
i,0x00000000,1720600176.077192,10.0.2.15,22,10.0.2.2,56316,1073725440,16290,0,65535,65700,0,0,4,1460,1,0,0,24,33580,0,65700,0,0,0,0,0
o,0x00000000,1720600176.077804,10.0.2.15,22,10.0.2.2,56316,1073725440,16290,0,65535,65700,0,0,4,1460,1,0,0,24,33580,332,65700,0,0,0,0,0
i,0x00000000,1720600176.079496,10.0.2.15,22,10.0.2.2,56316,1073725440,16290,0,65535,65700,0,0,4,1460,1,0,0,24,33580,332,65700,0,332,0,0,0
i,0x00000000,1720600176.082815,10.0.2.15,22,10.0.2.2,56316,1073725440,16622,0,65535,65700,0,0,4,1460,1,0,0,24,33580,0,65700,0,0,0,0,0
o,0x00000000,1720600176.098989,10.0.2.15,22,10.0.2.2,56316,1073725440,16622,0,65535,65700,0,0,4,1460,1,0,0,24,33580,28,65700,0,0,0,0,0
i,0x00000000,1720600176.102147,10.0.2.15,22,10.0.2.2,56316,1073725440,16622,0,65535,65700,0,0,4,1460,1,0,0,24,33580,28,65700,0,28,0,0,0
i,0x00000000,1720600176.102166,10.0.2.15,22,10.0.2.2,56316,1073725440,16650,0,65535,65700,0,0,4,1460,1,0,0,24,33580,0,65700,0,0,0,0,0
o,0x00000000,1720600176.103756,10.0.2.15,22,10.0.2.2,56316,1073725440,16650,0,65535,65700,0,0,4,1460,1,0,0,24,33580,768,65700,112,0,0,0,0
i,0x00000000,1720600176.106176,10.0.2.15,22,10.0.2.2,56316,1073725440,16650,0,65535,65700,0,0,4,1460,1,0,0,24,33580,768,65700,112,768,0,0,0
o,0x00000000,1720600176.106457,10.0.2.15,22,10.0.2.2,56316,1073725440,17418,0,65535,65700,0,0,4,1460,1,0,0,24,33580,140,65700,112,0,0,0,0
i,0x00000000,1720600176.108545,10.0.2.15,22,10.0.2.2,56316,1073725440,17418,0,65535,65700,0,0,4,1460,1,0,0,24,33580,140,65700,112,140,0,0,0
o,0x00000000,1720600176.109024,10.0.2.15,22,10.0.2.2,56316,1073725440,17558,0,65535,65700,0,0,4,1460,1,0,0,24,33580,44,65700,0,0,0,0,0
i,0x00000000,1720600176.112200,10.0.2.15,22,10.0.2.2,56316,1073725440,17558,0,65535,65700,0,0,4,1460,1,0,0,24,33580,44,65700,0,44,0,0,0
i,0x00000000,1720600176.112212,10.0.2.15,22,10.0.2.2,56316,1073725440,17602,0,65535,65700,0,0,4,1460,1,0,0,24,33580,0,65700,0,0,0,0,0
o,0x00000000,1720600176.113078,10.0.2.15,22,10.0.2.2,56316,1073725440,17602,0,65535,65700,0,0,4,1460,1,0,4,24,33580,72,65700,0,0,0,0,0
i,0x00000000,1720600176.114908,10.0.2.15,22,10.0.2.2,56316,1073725440,17602,0,65535,65700,0,0,4,1460,1,0,4,24,33580,72,65700,0,72,0,0,0
o,0x00000000,1720600176.153418,10.0.2.15,22,10.0.2.2,56316,1073725440,17674,0,65535,65700,0,0,4,1460,1,0,4,24,33580,44,65700,0,0,0,0,0
i,0x00000000,1720600176.159474,10.0.2.15,22,10.0.2.2,56316,1073725440,17674,0,65535,65700,0,0,4,1460,1,0,4,24,33580,44,65700,0,44,0,0,0
o,0x00000000,1720600176.160711,10.0.2.15,22,10.0.2.2,56316,1073725440,17718,0,65535,65700,0,0,4,1460,1,0,4,24,33580,44,65700,0,0,0,0,0
i,0x00000000,1720600176.163601,10.0.2.15,22,10.0.2.2,56316,1073725440,17718,0,65535,65700,0,0,4,1460,1,0,4,24,33580,44,65700,0,44,0,0,0
o,0x00000000,1720600176.170432,10.0.2.15,22,10.0.2.2,56316,1073725440,17762,0,65535,65700,0,0,4,1460,1,0,4,24,33580,176,65700,0,0,0,0,0
i,0x00000000,1720600176.175987,10.0.2.15,22,10.0.2.2,56316,1073725440,17762,0,65535,65700,0,0,4,1460,1,0,4,24,33580,176,65700,0,176,0,0,0
i,0x00000000,1720600176.176000,10.0.2.15,22,10.0.2.2,56316,1073725440,17938,0,65535,65700,0,0,4,1460,1,0,4,24,33580,0,65700,0,0,0,0,0
i,0x00000000,1720600176.176003,10.0.2.15,22,10.0.2.2,56316,1073725440,17938,0,65535,65700,0,0,4,1460,1,0,4,24,33580,0,65700,96,0,0,0,0
o,0x00000000,1720600176.176010,10.0.2.15,22,10.0.2.2,56316,1073725440,17938,0,65535,65604,0,0,5,1460,1,0,5,24,33580,0,65700,96,0,0,0,0
o,0x00000000,1720600176.206593,10.0.2.15,22,10.0.2.2,56316,1073725440,17938,0,65535,65604,0,0,8,1460,1,0,4,24,33580,0,65700,0,0,0,0,0
i,0x00000000,1720600176.208389,10.0.2.15,22,10.0.2.2,56316,1073725440,17938,0,65535,65604,0,0,8,1460,1,0,20,24,33580,0,65700,0,1,0,0,0
i,0x00000000,1720600176.491783,172.16.3.2,5101,172.16.1.2,41050,3749,14480,0,65728,65700,6,6,4,1460,779,1,992,120,33580,0,65700,0,0,0,0,0
o,0x00000000,1720600176.492201,172.16.3.2,5101,172.16.1.2,41050,3749,14480,0,65728,65700,6,6,4,1460,779,1,996,120,33580,1,65700,0,0,0,0,0
i,0x00000000,1720600176.618910,172.16.3.2,5101,172.16.1.2,41050,3749,14480,0,65728,65700,6,6,4,1460,779,1,996,120,33580,1,65700,0,1,0,0,0
i,0x00000000,1720600176.618942,172.16.3.2,5101,172.16.1.2,41050,3749,14480,0,65728,65728,6,6,4,1460,734,1,996,111,33580,0,65700,4,0,0,0,0
o,0x00000000,1720600176.618958,172.16.3.2,5101,172.16.1.2,41050,3749,14480,0,65728,65728,6,6,4,1460,734,1,997,111,33580,0,65700,128,0,0,0,0
o,0x00000000,1720600176.619762,172.16.3.2,5101,172.16.1.2,41050,3749,14480,0,65728,65728,6,6,4,1460,734,1,996,111,33580,1,65700,0,0,0,0,0
o,0x00000000,1720600176.621780,10.0.2.15,22,10.0.2.2,61908,1073725440,14600,0,65535,65700,0,0,4,1460,1,0,4,24,33580,84,65700,0,0,0,0,0
i,0x00000000,1720600176.624828,10.0.2.15,22,10.0.2.2,61908,1073725440,14600,0,65535,65700,0,0,4,1460,1,0,4,24,33580,84,65700,0,84,0,0,0
i,0x00000000,1720600176.782847,172.16.3.2,5101,172.16.1.2,41050,3749,14480,0,65728,65728,6,6,4,1460,734,1,996,111,33580,1,65700,0,1,0,0,0
i,0x00000000,1720600176.870024,172.16.3.2,5101,172.16.1.2,53210,3749,14480,0,65728,65700,6,6,4,1460,783,1,992,119,33580,0,65700,0,0,0,0,0
o,0x00000000,1720600176.874206,172.16.3.2,5101,172.16.1.2,41050,3749,14480,0,65728,65728,6,6,4,1460,707,1,996,100,33580,1,65700,0,0,0,0,0
o,0x00000000,1720600176.875225,172.16.3.2,5101,172.16.1.2,41050,3749,14480,0,65728,65728,6,6,4,1460,707,1,996,100,33580,2,65700,0,1,0,0,0
o,0x00000000,1720600176.875529,10.0.2.15,22,10.0.2.2,61908,1073725440,14600,0,65535,65700,0,0,4,1460,1,0,4,24,33580,108,65700,0,0,0,0,0
i,0x00000000,1720600176.876458,10.0.2.15,22,10.0.2.2,61908,1073725440,14600,0,65535,65700,0,0,4,1460,1,0,4,24,33580,108,65700,0,108,0,0,0
o,0x00000000,1720600176.904461,172.16.3.2,5101,172.16.1.2,53210,3749,14480,0,65728,65700,6,6,4,1460,783,1,993,119,33580,0,65700,0,0,0,0,0
i,0x00000000,1720600177.062618,172.16.3.2,5101,172.16.1.2,41050,3749,14480,0,65728,65728,6,6,4,1460,707,1,996,100,33580,2,65700,0,2,0,0,0
i,0x00000000,1720600177.093043,172.16.3.2,5101,172.16.1.2,53210,3749,14480,0,65728,65700,6,6,4,1460,783,1,992,119,33580,0,65700,0,0,0,0,0
o,0x00000000,1720600177.093079,172.16.3.2,5101,172.16.1.2,53210,3749,14480,0,65728,65728,6,6,4,1460,783,1,993,119,33580,0,65700,0,0,1,0,0
i,0x00000000,1720600177.102098,172.16.3.2,5101,172.16.1.2,53210,3749,14480,0,65728,65728,6,6,4,1460,783,1,992,119,33580,0,65700,0,0,1,0,0
o,0x00000000,1720600177.102132,172.16.3.2,5101,172.16.1.2,53210,3749,14480,0,65728,65728,6,6,4,1460,783,1,993,119,33580,0,65700,0,0,1,0,0
i,0x00000000,1720600177.112769,172.16.3.2,5101,172.16.1.2,53210,3749,14480,0,65728,65728,6,6,4,1460,783,1,992,119,33580,0,65700,0,0,1,0,0
o,0x00000000,1720600177.112810,172.16.3.2,5101,172.16.1.2,53210,3749,14480,0,65728,65728,6,6,4,1460,783,1,993,119,33580,0,65700,0,0,1,0,0
i,0x00000000,1720600177.122722,172.16.3.2,5101,172.16.1.2,53210,3749,14480,0,65728,65728,6,6,4,1460,783,1,992,119,33580,0,65700,0,0,1,0,0
o,0x00000000,1720600177.122751,172.16.3.2,5101,172.16.1.2,53210,3749,14480,0,65728,65728,6,6,4,1460,783,1,993,119,33580,0,65700,0,0,1,0,0
i,0x00000000,1720600177.148379,172.16.3.2,5101,172.16.1.2,53210,3749,14480,0,65728,65728,6,6,4,1460,783,1,992,119,33580,0,65700,0,0,1,0,0
o,0x00000000,1720600177.148419,172.16.3.2,5101,172.16.1.2,53210,3749,14480,0,65728,65728,6,6,4,1460,783,1,993,119,33580,0,65700,0,0,1,0,0
i,0x00000000,1720600177.151489,172.16.3.2,5101,172.16.1.2,53210,3749,14480,0,65728,65728,6,6,4,1460,783,1,992,119,33580,0,65700,0,0,1,0,0
o,0x00000000,1720600177.151524,172.16.3.2,5101,172.16.1.2,53210,3749,14480,0,65728,65728,6,6,4,1460,783,1,993,119,33580,0,65700,0,0,1,0,0
i,0x00000000,1720600177.161954,172.16.3.2,5101,172.16.1.2,53210,3749,14480,0,65728,65728,6,6,4,1460,783,1,992,119,33580,0,65700,0,0,1,0,0
o,0x00000000,1720600177.161987,172.16.3.2,5101,172.16.1.2,53210,3749,14480,0,65728,65728,6,6,4,1460,783,1,993,119,33580,0,65700,0,0,1,0,0
i,0x00000000,1720600177.172505,172.16.3.2,5101,172.16.1.2,53210,3749,14480,0,65728,65728,6,6,4,1460,783,1,992,119,33580,0,65700,0,0,1,0,0
o,0x00000000,1720600177.172537,172.16.3.2,5101,172.16.1.2,53210,3749,14480,0,65728,65728,6,6,4,1460,783,1,993,119,33580,0,65700,0,0,1,0,0
i,0x00000000,1720600177.182370,172.16.3.2,5101,172.16.1.2,53210,3749,14480,0,65728,65728,6,6,4,1460,783,1,992,119,33580,0,65700,0,0,1,0,0
o,0x00000000,1720600177.182386,172.16.3.2,5101,172.16.1.2,53210,3749,14480,0,65728,65728,6,6,4,1460,783,1,993,119,33580,0,65700,0,0,1,0,0
i,0x00000000,1720600177.317062,172.16.3.2,5101,172.16.1.2,53210,3749,14480,0,65728,65728,6,6,4,1460,783,1,992,119,33580,0,65700,0,0,1,0,0
o,0x00000000,1720600177.317097,172.16.3.2,5101,172.16.1.2,53210,3749,14480,0,65728,65728,6,6,4,1460,783,1,993,119,33580,0,65700,0,0,1,0,0
i,0x00000000,1720600177.324841,172.16.3.2,5101,172.16.1.2,53210,3749,14480,0,65728,65728,6,6,4,1460,783,1,992,119,33580,0,65700,0,0,1,0,0
o,0x00000000,1720600177.324876,172.16.3.2,5101,172.16.1.2,53210,3749,14480,0,65728,65728,6,6,4,1460,783,1,993,119,33580,0,65700,0,0,1,0,0
i,0x00000000,1720600177.332403,172.16.3.2,5101,172.16.1.2,53210,3749,14480,0,65728,65728,6,6,4,1460,783,1,992,119,33580,0,65700,0,0,1,0,0
o,0x00000000,1720600177.332440,172.16.3.2,5101,172.16.1.2,53210,3749,14480,0,65728,65728,6,6,4,1460,783,1,993,119,33580,0,65700,17376,0,0,0,0
o,0x00000000,1720600177.333687,172.16.3.2,5101,172.16.1.2,53210,3749,14480,0,65728,65728,6,6,4,1460,783,1,992,119,33580,0,65700,0,0,0,0,0
i,0x00000000,1720600177.341820,172.16.3.2,5101,172.16.1.2,53210,3749,14480,0,65728,65728,6,6,4,1460,783,1,992,119,33580,0,65700,0,0,0,0,0
i,0x00000000,1720600177.363964,172.16.3.2,5101,172.16.1.2,53210,3749,14480,0,65728,65728,6,6,4,1460,783,1,992,119,33580,0,65700,0,0,0,0,0
o,0x00000000,1720600177.364003,172.16.3.2,5101,172.16.1.2,53210,3749,14480,0,65728,65728,6,6,4,1460,783,1,993,119,33580,0,65700,1448,0,0,0,0
i,0x00000000,1720600177.506931,172.16.3.2,5101,172.16.1.2,53210,3749,14480,0,65728,65728,6,6,4,1460,783,1,992,119,33580,0,65700,0,0,0,0,0
i,0x00000000,1720600177.513217,172.16.3.2,5101,172.16.1.2,53210,3749,14480,0,65728,65728,6,6,4,1460,783,1,992,119,33580,0,65700,0,0,0,0,0
o,0x00000000,1720600177.513262,172.16.3.2,5101,172.16.1.2,53210,3749,14480,0,65728,65728,6,6,4,1460,783,1,993,119,33580,0,65700,1448,0,0,0,0
i,0x00000000,1720600177.522888,172.16.3.2,5101,172.16.1.2,53210,3749,14480,0,65728,65728,6,6,4,1460,783,1,992,119,33580,0,65700,0,0,0,0,0
i,0x00000000,1720600177.543743,172.16.3.2,5101,172.16.1.2,53210,3749,14480,0,65728,65728,6,6,4,1460,783,1,992,119,33580,0,65700,0,0,0,0,0
o,0x00000000,1720600177.543785,172.16.3.2,5101,172.16.1.2,53210,3749,14480,0,65728,65728,6,6,4,1460,783,1,993,119,33580,0,65700,1448,0,0,0,0
i,0x00000000,1720600177.553750,172.16.3.2,5101,172.16.1.2,53210,3749,14480,0,65728,65728,6,6,4,1460,783,1,992,119,33580,0,65700,0,0,0,0,0
i,0x00000000,1720600177.569575,172.16.3.2,5101,172.16.1.2,53210,3749,14480,0,65728,65728,6,6,4,1460,783,1,992,119,33580,0,65700,0,0,0,0,0
o,0x00000000,1720600177.569625,172.16.3.2,5101,172.16.1.2,53210,3749,14480,0,65728,65728,6,6,4,1460,783,1,993,119,33580,0,65700,1448,0,0,0,0
i,0x00000000,1720600177.714021,172.16.3.2,5101,172.16.1.2,53210,3749,14480,0,65728,65728,6,6,4,1460,783,1,992,119,33580,0,65700,0,0,0,0,0
i,0x00000000,1720600177.724324,172.16.3.2,5101,172.16.1.2,53210,3749,14480,0,65728,65728,6,6,4,1460,783,1,992,119,33580,0,65700,0,0,0,0,0
o,0x00000000,1720600177.724343,172.16.3.2,5101,172.16.1.2,53210,3749,14480,0,65728,65728,6,6,4,1460,783,1,993,119,33580,0,65700,1448,0,0,0,0
i,0x00000000,1720600177.744124,172.16.3.2,5101,172.16.1.2,53210,3749,14480,0,65728,65728,6,6,4,1460,783,1,992,119,33580,0,65700,0,0,0,0,0
o,0x00000000,1720600177.744157,172.16.3.2,5101,172.16.1.2,53210,3749,14480,0,65728,65700,6,6,4,1460,783,1,993,119,33580,0,65700,0,0,1,0,0
i,0x00000000,1720600177.753381,172.16.3.2,5101,172.16.1.2,53210,3749,14480,0,65728,65700,6,6,4,1460,783,1,992,119,33580,0,65700,0,0,1,0,0
o,0x00000000,1720600177.753398,172.16.3.2,5101,172.16.1.2,53210,3749,14480,0,65728,65728,6,6,4,1460,783,1,993,119,33580,0,65700,0,0,1,0,0
i,0x00000000,1720600177.763133,172.16.3.2,5101,172.16.1.2,53210,3749,14480,0,65728,65728,6,6,4,1460,783,1,992,119,33580,0,65700,0,0,1,0,0
o,0x00000000,1720600177.763144,172.16.3.2,5101,172.16.1.2,53210,3749,14480,0,65728,65728,6,6,4,1460,783,1,993,119,33580,0,65700,0,0,1,0,0
i,0x00000000,1720600177.772034,172.16.3.2,5101,172.16.1.2,53210,3749,14480,0,65728,65728,6,6,4,1460,783,1,992,119,33580,0,65700,0,0,1,0,0
o,0x00000000,1720600177.772045,172.16.3.2,5101,172.16.1.2,53210,3749,14480,0,65728,65728,6,6,4,1460,783,1,993,119,33580,0,65700,0,0,1,0,0
o,0x00000000,1720600177.885026,10.0.2.15,22,10.0.2.2,61908,1073725440,14600,0,65535,65700,0,0,4,1460,1,0,4,24,33580,156,65700,0,0,0,0,0
i,0x00000000,1720600177.887900,10.0.2.15,22,10.0.2.2,61908,1073725440,14600,0,65535,65700,0,0,4,1460,1,0,4,24,33580,156,65700,0,156,0,0,0
i,0x00000000,1720600177.903616,172.16.3.2,5101,172.16.1.2,53210,3749,14480,0,65728,65728,6,6,4,1460,783,1,992,119,33580,0,65700,0,0,1,0,0
o,0x00000000,1720600177.903646,172.16.3.2,5101,172.16.1.2,53210,3749,14480,0,65728,65728,6,6,4,1460,783,1,993,119,33580,0,65700,0,0,1,0,0
i,0x00000000,1720600177.906167,172.16.3.2,5101,172.16.1.2,53210,3749,14480,0,65728,65728,6,6,4,1460,783,1,992,119,33580,0,65700,0,0,1,0,0
o,0x00000000,1720600177.906192,172.16.3.2,5101,172.16.1.2,53210,3749,14480,0,65728,65728,6,6,4,1460,783,1,993,119,33580,0,65700,0,0,1,0,0
i,0x00000000,1720600177.913514,172.16.3.2,5101,172.16.1.2,53210,3749,14480,0,65728,65728,6,6,4,1460,783,1,992,119,33580,0,65700,0,0,1,0,0
o,0x00000000,1720600177.913548,172.16.3.2,5101,172.16.1.2,53210,3749,14480,0,65728,65728,6,6,4,1460,783,1,993,119,33580,0,65700,0,0,1,0,0
i,0x00000000,1720600177.925175,172.16.3.2,5101,172.16.1.2,53210,3749,14480,0,65728,65728,6,6,4,1460,783,1,992,119,33580,0,65700,0,0,1,0,0
o,0x00000000,1720600177.925212,172.16.3.2,5101,172.16.1.2,53210,3749,14480,0,65728,65728,6,6,4,1460,783,1,993,119,33580,0,65700,0,0,1,0,0
i,0x00000000,1720600177.946774,172.16.3.2,5101,172.16.1.2,53210,3749,14480,0,65728,65728,6,6,4,1460,783,1,992,119,33580,0,65700,0,0,1,0,0
o,0x00000000,1720600177.946832,172.16.3.2,5101,172.16.1.2,53210,3749,14480,0,65728,65728,6,6,4,1460,783,1,993,119,33580,0,65700,13032,0,0,0,0
i,0x00000000,1720600178.055650,172.16.3.2,5101,172.16.1.2,53210,3749,14480,0,65728,65728,6,6,4,1460,783,1,992,119,33580,0,65700,0,0,0,0,0
i,0x00000000,1720600178.083442,172.16.3.2,5101,172.16.1.2,53210,3749,14480,0,65728,65728,6,6,4,1460,783,1,992,119,33580,0,65700,0,0,0,0,0
o,0x00000000,1720600178.083491,172.16.3.2,5101,172.16.1.2,53210,3749,14480,0,65728,65728,6,6,4,1460,783,1,993,119,33580,0,65700,1448,0,0,0,0
i,0x00000000,1720600178.113391,172.16.3.2,5101,172.16.1.2,53210,3749,14480,0,65728,65728,6,6,4,1460,783,1,992,119,33580,0,65700,0,0,0,0,0
o,0x00000000,1720600178.145505,172.16.3.2,5101,172.16.1.2,53210,3749,14480,0,65728,65728,6,6,4,1460,783,1,993,119,33580,0,65700,0,0,0,0,0
i,0x00000000,1720600178.193970,172.16.3.2,5101,172.16.1.2,53210,3749,14480,0,65728,65728,6,6,4,1460,783,1,992,119,33580,0,65700,0,0,0,0,0
i,0x00000000,1720600178.220128,172.16.3.2,5101,172.16.1.2,53210,3749,14480,0,65728,65728,6,6,4,1460,783,1,992,119,33580,0,65700,0,0,0,0,0
o,0x00000000,1720600178.220180,172.16.3.2,5101,172.16.1.2,53210,3749,14480,0,65728,65728,6,6,4,1460,783,1,993,119,33580,0,65700,1448,0,0,0,0
i,0x00000000,1720600178.224137,172.16.3.2,5101,172.16.1.2,53210,3749,14480,0,65728,65728,6,6,4,1460,783,1,992,119,33580,0,65700,1448,0,0,0,0
o,0x00000000,1720600178.256157,172.16.3.2,5101,172.16.1.2,53210,3749,14480,0,65728,65728,6,6,4,1460,783,1,993,119,33580,0,65700,0,0,0,0,0
i,0x00000000,1720600178.304816,172.16.3.2,5101,172.16.1.2,53210,3749,14480,0,65728,65728,6,6,4,1460,783,1,992,119,33580,0,65700,0,0,0,0,0
i,0x00000000,1720600178.314199,172.16.3.2,5101,172.16.1.2,53210,3749,14480,0,65728,65728,6,6,4,1460,783,1,992,119,33580,0,65700,0,0,0,0,0
o,0x00000000,1720600178.314255,172.16.3.2,5101,172.16.1.2,53210,3749,14480,0,65728,65728,6,6,4,1460,783,1,993,119,33580,0,65700,1448,0,0,0,0
i,0x00000000,1720600178.365827,172.16.3.2,5101,172.16.1.2,53210,3749,14480,0,65728,65728,6,6,4,1460,783,1,992,119,33580,0,65700,0,0,0,0,0
i,0x00000000,1720600178.376355,172.16.3.2,5101,172.16.1.2,53210,3749,14480,0,65728,65728,6,6,4,1460,783,1,992,119,33580,0,65700,0,0,0,0,0
o,0x00000000,1720600178.376417,172.16.3.2,5101,172.16.1.2,53210,3749,14480,0,65728,65728,6,6,4,1460,783,1,993,119,33580,0,65700,1448,0,0,0,0
i,0x00000000,1720600178.386158,172.16.3.2,5101,172.16.1.2,53210,3749,14480,0,65728,65728,6,6,4,1460,783,1,992,119,33580,0,65700,0,0,0,0,0
o,0x00000000,1720600178.425804,172.16.3.2,5101,172.16.1.2,53210,3749,14480,0,65728,65728,6,6,4,1460,783,1,993,119,33580,0,65700,0,0,0,0,0
i,0x00000000,1720600178.444259,172.16.3.2,5101,172.16.1.2,53210,3749,14480,0,65728,65728,6,6,4,1460,783,1,992,119,33580,0,65700,0,0,0,0,0
i,0x00000000,1720600178.466350,172.16.3.2,5101,172.16.1.2,53210,3749,14480,0,65728,65728,6,6,4,1460,783,1,992,119,33580,0,65700,0,0,0,0,0
o,0x00000000,1720600178.466399,172.16.3.2,5101,172.16.1.2,53210,3749,14480,0,65728,65728,6,6,4,1460,783,1,993,119,33580,0,65700,1448,0,0,0,0
i,0x00000000,1720600178.476373,172.16.3.2,5101,172.16.1.2,53210,3749,14480,0,65728,65728,6,6,4,1460,783,1,992,119,33580,0,65700,0,0,0,0,0
o,0x00000000,1720600178.516308,172.16.3.2,5101,172.16.1.2,53210,3749,14480,0,65728,65728,6,6,4,1460,783,1,993,119,33580,0,65700,0,0,0,0,0
i,0x00000000,1720600178.526001,172.16.3.2,5101,172.16.1.2,53210,3749,14480,0,65728,65728,6,6,4,1460,783,1,992,119,33580,0,65700,0,0,0,0,0
i,0x00000000,1720600178.541133,172.16.3.2,5101,172.16.1.2,53210,3749,14480,0,65728,65728,6,6,4,1460,783,1,992,119,33580,0,65700,0,0,0,0,0
o,0x00000000,1720600178.541148,172.16.3.2,5101,172.16.1.2,53210,3749,14480,0,65728,65728,6,6,4,1460,783,1,993,119,33580,0,65700,1448,0,0,0,0
i,0x00000000,1720600178.588919,172.16.3.2,5101,172.16.1.2,53210,3749,14480,0,65728,65728,6,6,4,1460,783,1,992,119,33580,0,65700,0,0,0,0,0
i,0x00000000,1720600178.625608,172.16.3.2,5101,172.16.1.2,53210,3749,14480,0,65728,65728,6,6,4,1460,783,1,992,119,33580,0,65700,0,0,0,0,0
o,0x00000000,1720600178.625633,172.16.3.2,5101,172.16.1.2,53210,3749,14480,0,65728,65728,6,6,4,1460,783,1,993,119,33580,0,65700,1448,0,0,0,0
i,0x00000000,1720600178.644944,172.16.3.2,5101,172.16.1.2,53210,3749,14480,0,65728,65728,6,6,4,1460,783,1,992,119,33580,0,65700,0,0,0,0,0
i,0x00000000,1720600178.654385,172.16.3.2,5101,172.16.1.2,53210,3749,14480,0,65728,65728,6,6,4,1460,783,1,992,119,33580,0,65700,0,0,0,0,0
o,0x00000000,1720600178.654398,172.16.3.2,5101,172.16.1.2,53210,3749,14480,0,65728,65728,6,6,4,1460,783,1,993,119,33580,0,65700,1448,0,0,0,0
i,0x00000000,1720600178.696950,172.16.3.2,5101,172.16.1.2,53210,3749,14480,0,65728,65728,6,6,4,1460,783,1,992,119,33580,0,65700,0,0,0,0,0
i,0x00000000,1720600178.707407,172.16.3.2,5101,172.16.1.2,53210,3749,14480,0,65728,65728,6,6,4,1460,783,1,992,119,33580,0,65700,0,0,0,0,0
o,0x00000000,1720600178.707424,172.16.3.2,5101,172.16.1.2,53210,3749,14480,0,65728,65728,6,6,4,1460,783,1,993,119,33580,0,65700,1448,0,0,0,0
i,0x00000000,1720600178.713904,172.16.3.2,5101,172.16.1.2,53210,3749,14480,0,65728,65728,6,6,4,1460,783,1,992,119,33580,0,65700,0,0,0,0,0
o,0x00000000,1720600178.745153,172.16.3.2,5101,172.16.1.2,53210,3749,14480,0,65728,65728,6,6,4,1460,783,1,993,119,33580,0,65700,0,0,0,0,0
i,0x00000000,1720600178.805914,172.16.3.2,5101,172.16.1.2,53210,3749,14480,0,65728,65728,6,6,4,1460,783,1,992,119,33580,0,65700,0,0,0,0,0
i,0x00000000,1720600178.817718,172.16.3.2,5101,172.16.1.2,53210,3749,14480,0,65728,65728,6,6,4,1460,783,1,992,119,33580,0,65700,0,0,0,0,0
o,0x00000000,1720600178.817759,172.16.3.2,5101,172.16.1.2,53210,3749,14480,0,65728,65728,6,6,4,1460,783,1,993,119,33580,0,65700,1448,0,0,0,0
i,0x00000000,1720600178.827338,172.16.3.2,5101,172.16.1.2,53210,3749,14480,0,65728,65728,6,6,4,1460,783,1,992,119,33580,0,65700,0,0,0,0,0
i,0x00000000,1720600178.836068,172.16.3.2,5101,172.16.1.2,53210,3749,14480,0,65728,65728,6,6,4,1460,783,1,992,119,33580,0,65700,0,0,0,0,0
o,0x00000000,1720600178.836090,172.16.3.2,5101,172.16.1.2,53210,3749,14480,0,65728,65728,6,6,4,1460,783,1,993,119,33580,0,65700,1448,0,0,0,0
i,0x00000000,1720600178.855976,172.16.3.2,5101,172.16.1.2,53210,3749,14480,0,65728,65728,6,6,4,1460,783,1,992,119,33580,0,65700,0,0,0,0,0
o,0x00000000,1720600178.886178,10.0.2.15,22,10.0.2.2,61908,1073725440,14600,0,65535,65700,0,0,4,1460,1,0,4,24,33580,108,65700,0,0,0,0,0
i,0x00000000,1720600178.888888,10.0.2.15,22,10.0.2.2,61908,1073725440,14600,0,65535,65700,0,0,4,1460,1,0,4,24,33580,108,65700,0,108,0,0,0
o,0x00000000,1720600178.895792,172.16.3.2,5101,172.16.1.2,53210,3749,14480,0,65728,65728,6,6,4,1460,783,1,993,119,33580,0,65700,0,0,0,0,0
i,0x00000000,1720600178.907219,172.16.3.2,5101,172.16.1.2,53210,3749,14480,0,65728,65728,6,6,4,1460,783,1,992,119,33580,0,65700,0,0,0,0,0
i,0x00000000,1720600178.917021,172.16.3.2,5101,172.16.1.2,53210,3749,14480,0,65728,65728,6,6,4,1460,783,1,992,119,33580,0,65700,0,0,0,0,0
o,0x00000000,1720600178.917066,172.16.3.2,5101,172.16.1.2,53210,3749,14480,0,65728,65728,6,6,4,1460,783,1,993,119,33580,0,65700,1448,0,0,0,0
i,0x00000000,1720600178.987119,172.16.3.2,5101,172.16.1.2,53210,3749,14480,0,65728,65728,6,6,4,1460,783,1,992,119,33580,0,65700,0,0,0,0,0
i,0x00000000,1720600179.016918,172.16.3.2,5101,172.16.1.2,53210,3749,14480,0,65728,65728,6,6,4,1460,783,1,992,119,33580,0,65700,0,0,0,0,0
o,0x00000000,1720600179.016943,172.16.3.2,5101,172.16.1.2,53210,3749,14480,0,65728,65728,6,6,4,1460,783,1,993,119,33580,0,65700,1448,0,0,0,0
i,0x00000000,1720600179.026754,172.16.3.2,5101,172.16.1.2,53210,3749,14480,0,65728,65728,6,6,4,1460,783,1,992,119,33580,0,65700,0,0,0,0,0
i,0x00000000,1720600179.037093,172.16.3.2,5101,172.16.1.2,53210,3749,14480,0,65728,65728,6,6,4,1460,783,1,992,119,33580,0,65700,0,0,0,0,0
o,0x00000000,1720600179.037111,172.16.3.2,5101,172.16.1.2,53210,3749,14480,0,65728,65728,6,6,4,1460,783,1,993,119,33580,0,65700,1448,0,0,0,0
i,0x00000000,1720600179.073897,172.16.3.2,5101,172.16.1.2,53210,3749,14480,0,65728,65728,6,6,4,1460,783,1,992,119,33580,0,65700,0,0,0,0,0
i,0x00000000,1720600179.104574,172.16.3.2,5101,172.16.1.2,53210,3749,14480,0,65728,65728,6,6,4,1460,783,1,992,119,33580,0,65700,0,0,0,0,0
o,0x00000000,1720600179.104615,172.16.3.2,5101,172.16.1.2,53210,3749,14480,0,65728,65728,6,6,4,1460,783,1,993,119,33580,0,65700,1448,0,0,0,0
i,0x00000000,1720600179.117507,172.16.3.2,5101,172.16.1.2,53210,3749,14480,0,65728,65728,6,6,4,1460,783,1,992,119,33580,0,65700,0,0,0,0,0
o,0x00000000,1720600179.117545,172.16.3.2,5101,172.16.1.2,53210,3749,14480,0,65728,65700,6,6,4,1460,783,1,993,119,33580,0,65700,0,0,1,0,0
i,0x00000000,1720600179.127714,172.16.3.2,5101,172.16.1.2,53210,3749,14480,0,65728,65700,6,6,4,1460,783,1,992,119,33580,0,65700,0,0,1,0,0
o,0x00000000,1720600179.127757,172.16.3.2,5101,172.16.1.2,53210,3749,14480,0,65728,65728,6,6,4,1460,783,1,993,119,33580,0,65700,0,0,1,0,0
i,0x00000000,1720600179.230161,172.16.3.2,5101,172.16.1.2,53210,3749,14480,0,65728,65728,6,6,4,1460,783,1,992,119,33580,0,65700,0,0,1,0,0
o,0x00000000,1720600179.230180,172.16.3.2,5101,172.16.1.2,53210,3749,14480,0,65728,65728,6,6,4,1460,783,1,993,119,33580,0,65700,0,0,1,0,0
i,0x00000000,1720600179.237337,172.16.3.2,5101,172.16.1.2,53210,3749,14480,0,65728,65728,6,6,4,1460,783,1,992,119,33580,0,65700,0,0,1,0,0
o,0x00000000,1720600179.237357,172.16.3.2,5101,172.16.1.2,53210,3749,14480,0,65728,65728,6,6,4,1460,783,1,993,119,33580,0,65700,0,0,1,0,0
i,0x00000000,1720600179.257298,172.16.3.2,5101,172.16.1.2,53210,3749,14480,0,65728,65728,6,6,4,1460,783,1,992,119,33580,0,65700,0,0,1,0,0
o,0x00000000,1720600179.257328,172.16.3.2,5101,172.16.1.2,53210,3749,14480,0,65728,65728,6,6,4,1460,783,1,993,119,33580,0,65700,0,0,1,0,0
i,0x00000000,1720600179.267236,172.16.3.2,5101,172.16.1.2,53210,3749,14480,0,65728,65728,6,6,4,1460,783,1,992,119,33580,0,65700,0,0,1,0,0
o,0x00000000,1720600179.267270,172.16.3.2,5101,172.16.1.2,53210,3749,14480,0,65728,65728,6,6,4,1460,783,1,993,119,33580,0,65700,0,0,1,0,0
i,0x00000000,1720600179.288549,172.16.3.2,5101,172.16.1.2,53210,3749,14480,0,65728,65728,6,6,4,1460,783,1,992,119,33580,0,65700,0,0,1,0,0
o,0x00000000,1720600179.288586,172.16.3.2,5101,172.16.1.2,53210,3749,14480,0,65728,65728,6,6,4,1460,783,1,993,119,33580,0,65700,0,0,1,0,0
i,0x00000000,1720600179.299738,172.16.3.2,5101,172.16.1.2,53210,3749,14480,0,65728,65728,6,6,4,1460,783,1,992,119,33580,0,65700,0,0,1,0,0
o,0x00000000,1720600179.299772,172.16.3.2,5101,172.16.1.2,53210,3749,14480,0,65728,65728,6,6,4,1460,783,1,993,119,33580,0,65700,0,0,1,0,0
i,0x00000000,1720600179.326851,172.16.3.2,5101,172.16.1.2,53210,3749,14480,0,65728,65728,6,6,4,1460,783,1,992,119,33580,0,65700,0,0,1,0,0
o,0x00000000,1720600179.326891,172.16.3.2,5101,172.16.1.2,53210,3749,14480,0,65728,65728,6,6,4,1460,783,1,993,119,33580,0,65700,0,0,1,0,0
i,0x00000000,1720600179.407641,172.16.3.2,5101,172.16.1.2,53210,3749,14480,0,65728,65728,6,6,4,1460,783,1,992,119,33580,0,65700,0,0,1,0,0
o,0x00000000,1720600179.407675,172.16.3.2,5101,172.16.1.2,53210,3749,14480,0,65728,65728,6,6,4,1460,783,1,993,119,33580,0,65700,14480,0,0,0,0
i,0x00000000,1720600179.418909,172.16.3.2,5101,172.16.1.2,53210,3749,14480,0,65728,65728,6,6,4,1460,783,1,992,119,33580,0,65700,0,0,0,0,0
o,0x00000000,1720600179.418943,172.16.3.2,5101,172.16.1.2,53210,3749,14480,0,65728,65700,6,6,4,1460,783,1,993,119,33580,0,65700,0,0,1,0,0
i,0x00000000,1720600179.459004,172.16.3.2,5101,172.16.1.2,53210,3749,14480,0,65728,65700,6,6,4,1460,783,1,992,119,33580,0,65700,0,0,1,0,0
o,0x00000000,1720600179.459034,172.16.3.2,5101,172.16.1.2,53210,3749,14480,0,65728,65728,6,6,4,1460,783,1,993,119,33580,0,65700,0,0,1,0,0
i,0x00000000,1720600179.516098,172.16.3.2,5101,172.16.1.2,53210,3749,14480,0,65728,65728,6,6,4,1460,783,1,992,119,33580,0,65700,0,0,1,0,0
i,0x00000000,1720600179.538894,172.16.3.2,5101,172.16.1.2,53210,3749,14480,0,65728,65728,6,6,4,1460,783,1,992,119,33580,0,65700,0,0,1,0,0
o,0x00000000,1720600179.538933,172.16.3.2,5101,172.16.1.2,53210,3749,14480,0,65728,65728,6,6,4,1460,783,1,993,119,33580,0,65700,0,0,1,0,0
i,0x00000000,1720600179.571793,172.16.3.2,5101,172.16.1.2,53210,3749,14480,0,65728,65728,6,6,4,1460,783,1,992,119,33580,0,65700,0,0,1,0,0
o,0x00000000,1720600179.571823,172.16.3.2,5101,172.16.1.2,53210,3749,14480,0,65728,65728,6,6,4,1460,783,1,993,119,33580,0,65700,5792,0,0,0,0
i,0x00000000,1720600179.578369,172.16.3.2,5101,172.16.1.2,53210,3749,14480,0,65728,65728,6,6,4,1460,783,1,992,119,33580,0,65700,0,0,0,0,0
i,0x00000000,1720600179.597949,172.16.3.2,5101,172.16.1.2,53210,3749,14480,0,65728,65728,6,6,4,1460,783,1,992,119,33580,0,65700,0,0,0,0,0
o,0x00000000,1720600179.597998,172.16.3.2,5101,172.16.1.2,53210,3749,14480,0,65728,65728,6,6,4,1460,783,1,993,119,33580,0,65700,1448,0,0,0,0
i,0x00000000,1720600179.680873,172.16.3.2,5101,172.16.1.2,53210,3749,14480,0,65728,65728,6,6,4,1460,783,1,992,119,33580,0,65700,0,0,0,0,0
i,0x00000000,1720600179.688992,172.16.3.2,5101,172.16.1.2,53210,3749,14480,0,65728,65728,6,6,4,1460,783,1,992,119,33580,0,65700,0,0,0,0,0
o,0x00000000,1720600179.689018,172.16.3.2,5101,172.16.1.2,53210,3749,14480,0,65728,65728,6,6,4,1460,783,1,993,119,33580,0,65700,1448,0,0,0,0
i,0x00000000,1720600179.742106,172.16.3.2,5101,172.16.1.2,53210,3749,14480,0,65728,65728,6,6,4,1460,783,1,992,119,33580,0,65700,0,0,0,0,0
i,0x00000000,1720600179.752002,172.16.3.2,5101,172.16.1.2,53210,3749,14480,0,65728,65728,6,6,4,1460,783,1,992,119,33580,0,65700,0,0,0,0,0
o,0x00000000,1720600179.752017,172.16.3.2,5101,172.16.1.2,53210,3749,14480,0,65728,65728,6,6,4,1460,783,1,993,119,33580,0,65700,1448,0,0,0,0
i,0x00000000,1720600179.757626,172.16.3.2,5101,172.16.1.2,53210,3749,14480,0,65728,65728,6,6,4,1460,783,1,992,119,33580,0,65700,0,0,0,0,0
o,0x00000000,1720600179.795151,172.16.3.2,5101,172.16.1.2,53210,3749,14480,0,65728,65728,6,6,4,1460,783,1,993,119,33580,0,65700,0,0,0,0,0
i,0x00000000,1720600179.826268,172.16.3.2,5101,172.16.1.2,53210,3749,14480,0,65728,65728,6,6,4,1460,783,1,992,119,33580,0,65700,0,0,0,0,0
i,0x00000000,1720600179.837781,172.16.3.2,5101,172.16.1.2,53210,3749,14480,0,65728,65728,6,6,4,1460,783,1,992,119,33580,0,65700,0,0,0,0,0
o,0x00000000,1720600179.837808,172.16.3.2,5101,172.16.1.2,53210,3749,14480,0,65728,65728,6,6,4,1460,783,1,993,119,33580,0,65700,1448,0,0,0,0
o,0x00000000,1720600179.886027,10.0.2.15,22,10.0.2.2,61908,1073725440,14600,0,65535,65700,0,0,4,1460,1,0,4,24,33580,108,65700,0,0,0,0,0
i,0x00000000,1720600179.888002,10.0.2.15,22,10.0.2.2,61908,1073725440,14600,0,65535,65700,0,0,4,1460,1,0,4,24,33580,108,65700,0,108,0,0,0
i,0x00000000,1720600179.888119,172.16.3.2,5101,172.16.1.2,53210,3749,14480,0,65728,65728,6,6,4,1460,783,1,992,119,33580,0,65700,0,0,0,0,0
i,0x00000000,1720600179.897645,172.16.3.2,5101,172.16.1.2,53210,3749,14480,0,65728,65728,6,6,4,1460,783,1,992,119,33580,0,65700,0,0,0,0,0
o,0x00000000,1720600179.897672,172.16.3.2,5101,172.16.1.2,53210,3749,14480,0,65728,65728,6,6,4,1460,783,1,993,119,33580,0,65700,1448,0,0,0,0
i,0x00000000,1720600179.909491,172.16.3.2,5101,172.16.1.2,53210,3749,14480,0,65728,65728,6,6,4,1460,783,1,992,119,33580,0,65700,0,0,0,0,0
o,0x00000000,1720600179.944560,172.16.3.2,5101,172.16.1.2,53210,3749,14480,0,65728,65728,6,6,4,1460,783,1,993,119,33580,0,65700,0,0,0,0,0
i,0x00000000,1720600179.959311,172.16.3.2,5101,172.16.1.2,53210,3749,14480,0,65728,65728,6,6,4,1460,783,1,992,119,33580,0,65700,0,0,0,0,0
i,0x00000000,1720600179.966710,172.16.3.2,5101,172.16.1.2,53210,3749,14480,0,65728,65728,6,6,4,1460,783,1,992,119,33580,0,65700,0,0,0,0,0
o,0x00000000,1720600179.966721,172.16.3.2,5101,172.16.1.2,53210,3749,14480,0,65728,65728,6,6,4,1460,783,1,993,119,33580,0,65700,1448,0,0,0,0
i,0x00000000,1720600179.987406,172.16.3.2,5101,172.16.1.2,53210,3749,14480,0,65728,65728,6,6,4,1460,783,1,992,119,33580,0,65700,0,0,0,0,0
o,0x00000000,1720600180.025467,172.16.3.2,5101,172.16.1.2,53210,3749,14480,0,65728,65728,6,6,4,1460,783,1,993,119,33580,0,65700,0,0,0,0,0
i,0x00000000,1720600180.039280,172.16.3.2,5101,172.16.1.2,53210,3749,14480,0,65728,65728,6,6,4,1460,783,1,992,119,33580,0,65700,0,0,0,0,0
i,0x00000000,1720600180.048607,172.16.3.2,5101,172.16.1.2,53210,3749,14480,0,65728,65728,6,6,4,1460,783,1,992,119,33580,0,65700,0,0,0,0,0
o,0x00000000,1720600180.048649,172.16.3.2,5101,172.16.1.2,53210,3749,14480,0,65728,65728,6,6,4,1460,783,1,993,119,33580,0,65700,1448,0,0,0,0
i,0x00000000,1720600180.119893,172.16.3.2,5101,172.16.1.2,53210,3749,14480,0,65728,65728,6,6,4,1460,783,1,992,119,33580,0,65700,0,0,0,0,0
i,0x00000000,1720600180.128906,172.16.3.2,5101,172.16.1.2,53210,3749,14480,0,65728,65728,6,6,4,1460,783,1,992,119,33580,0,65700,0,0,0,0,0
o,0x00000000,1720600180.128960,172.16.3.2,5101,172.16.1.2,53210,3749,14480,0,65728,65728,6,6,4,1460,783,1,993,119,33580,0,65700,1448,0,0,0,0
i,0x00000000,1720600180.149993,172.16.3.2,5101,172.16.1.2,53210,3749,14480,0,65728,65728,6,6,4,1460,783,1,992,119,33580,0,65700,0,0,0,0,0
i,0x00000000,1720600180.159208,172.16.3.2,5101,172.16.1.2,53210,3749,14480,0,65728,65728,6,6,4,1460,783,1,992,119,33580,0,65700,0,0,0,0,0
o,0x00000000,1720600180.159244,172.16.3.2,5101,172.16.1.2,53210,3749,14480,0,65728,65728,6,6,4,1460,783,1,993,119,33580,0,65700,1448,0,0,0,0
i,0x00000000,1720600180.212962,172.16.3.2,5101,172.16.1.2,53210,3749,14480,0,65728,65728,6,6,4,1460,783,1,992,119,33580,0,65700,0,0,0,0,0
i,0x00000000,1720600180.222645,172.16.3.2,5101,172.16.1.2,53210,3749,14480,0,65728,65728,6,6,4,1460,783,1,992,119,33580,0,65700,0,0,0,0,0
o,0x00000000,1720600180.222664,172.16.3.2,5101,172.16.1.2,53210,3749,14480,0,65728,65728,6,6,4,1460,783,1,993,119,33580,0,65700,1448,0,0,0,0
i,0x00000000,1720600180.230805,172.16.3.2,5101,172.16.1.2,53210,3749,14480,0,65728,65728,6,6,4,1460,783,1,992,119,33580,0,65700,0,0,0,0,0
o,0x00000000,1720600180.266313,172.16.3.2,5101,172.16.1.2,53210,3749,14480,0,65728,65728,6,6,4,1460,783,1,993,119,33580,0,65700,0,0,0,0,0
i,0x00000000,1720600180.301253,172.16.3.2,5101,172.16.1.2,53210,3749,14480,0,65728,65728,6,6,4,1460,783,1,992,119,33580,0,65700,0,0,0,0,0
i,0x00000000,1720600180.326681,172.16.3.2,5101,172.16.1.2,53210,3749,14480,0,65728,65728,6,6,4,1460,783,1,992,119,33580,0,65700,0,0,0,0,0
o,0x00000000,1720600180.326718,172.16.3.2,5101,172.16.1.2,53210,3749,14480,0,65728,65728,6,6,4,1460,783,1,993,119,33580,0,65700,1448,0,0,0,0
i,0x00000000,1720600180.331624,172.16.3.2,5101,172.16.1.2,53210,3749,14480,0,65728,65728,6,6,4,1460,783,1,992,119,33580,0,65700,0,0,0,0,0
i,0x00000000,1720600180.340404,172.16.3.2,5101,172.16.1.2,53210,3749,14480,0,65728,65728,6,6,4,1460,783,1,992,119,33580,0,65700,0,0,0,0,0
o,0x00000000,1720600180.340449,172.16.3.2,5101,172.16.1.2,53210,3749,14480,0,65728,65728,6,6,4,1460,783,1,993,119,33580,0,65700,1448,0,0,0,0
i,0x00000000,1720600180.349816,172.16.3.2,5101,172.16.1.2,53210,3749,14480,0,65728,65728,6,6,4,1460,783,1,992,119,33580,0,65700,0,0,0,0,0
o,0x00000000,1720600180.385390,172.16.3.2,5101,172.16.1.2,53210,3749,14480,0,65728,65728,6,6,4,1460,783,1,993,119,33580,0,65700,0,0,0,0,0
i,0x00000000,1720600180.399162,172.16.3.2,5101,172.16.1.2,53210,3749,14480,0,65728,65728,6,6,4,1460,783,1,992,119,33580,0,65700,0,0,0,0,0
i,0x00000000,1720600180.410012,172.16.3.2,5101,172.16.1.2,53210,3749,14480,0,65728,65728,6,6,4,1460,783,1,992,119,33580,0,65700,0,0,0,0,0
o,0x00000000,1720600180.410037,172.16.3.2,5101,172.16.1.2,53210,3749,14480,0,65728,65728,6,6,4,1460,783,1,993,119,33580,0,65700,1448,0,0,0,0
i,0x00000000,1720600180.428502,172.16.3.2,5101,172.16.1.2,53210,3749,14480,0,65728,65728,6,6,4,1460,783,1,992,119,33580,0,65700,0,0,0,0,0
o,0x00000000,1720600180.465216,172.16.3.2,5101,172.16.1.2,53210,3749,14480,0,65728,65728,6,6,4,1460,783,1,993,119,33580,0,65700,0,0,0,0,0
i,0x00000000,1720600180.500487,172.16.3.2,5101,172.16.1.2,53210,3749,14480,0,65728,65728,6,6,4,1460,783,1,992,119,33580,0,65700,0,0,0,0,0
i,0x00000000,1720600180.508942,172.16.3.2,5101,172.16.1.2,53210,3749,14480,0,65728,65728,6,6,4,1460,783,1,992,119,33580,0,65700,0,0,0,0,0
o,0x00000000,1720600180.508977,172.16.3.2,5101,172.16.1.2,53210,3749,14480,0,65728,65728,6,6,4,1460,783,1,993,119,33580,0,65700,1448,0,0,0,0
i,0x00000000,1720600180.539981,172.16.3.2,5101,172.16.1.2,53210,3749,14480,0,65728,65728,6,6,4,1460,783,1,992,119,33580,0,65700,0,0,0,0,0
i,0x00000000,1720600180.558119,172.16.3.2,5101,172.16.1.2,53210,3749,14480,0,65728,65728,6,6,4,1460,783,1,992,119,33580,0,65700,0,0,0,0,0
o,0x00000000,1720600180.558170,172.16.3.2,5101,172.16.1.2,53210,3749,14480,0,65728,65728,6,6,4,1460,783,1,993,119,33580,0,65700,1448,0,0,0,0
i,0x00000000,1720600180.560272,172.16.3.2,5101,172.16.1.2,53210,3749,14480,0,65728,65728,6,6,4,1460,783,1,992,119,33580,0,65700,0,0,0,0,0
o,0x00000000,1720600180.596540,172.16.3.2,5101,172.16.1.2,53210,3749,14480,0,65728,65728,6,6,4,1460,783,1,993,119,33580,0,65700,0,0,0,0,0
i,0x00000000,1720600180.600496,172.16.3.2,5101,172.16.1.2,53210,3749,14480,0,65728,65728,6,6,4,1460,783,1,992,119,33580,0,65700,0,0,0,0,0
i,0x00000000,1720600180.609585,172.16.3.2,5101,172.16.1.2,53210,3749,14480,0,65728,65728,6,6,4,1460,783,1,992,119,33580,0,65700,0,0,0,0,0
o,0x00000000,1720600180.609625,172.16.3.2,5101,172.16.1.2,53210,3749,14480,0,65728,65728,6,6,4,1460,783,1,993,119,33580,0,65700,1448,0,0,0,0
i,0x00000000,1720600180.618799,172.16.3.2,5101,172.16.1.2,53210,3749,14480,0,65728,65728,6,6,4,1460,783,1,992,119,33580,0,65700,0,0,0,0,0
i,0x00000000,1720600180.744626,172.16.3.2,5101,172.16.1.2,53210,3749,14480,0,65728,65728,6,6,4,1460,783,1,992,119,33580,0,65700,0,0,0,0,0
o,0x00000000,1720600180.744642,172.16.3.2,5101,172.16.1.2,53210,3749,14480,0,65728,65728,6,6,4,1460,783,1,993,119,33580,0,65700,1448,0,0,0,0
i,0x00000000,1720600180.745392,172.16.3.2,5101,172.16.1.2,53210,3749,14480,0,65728,65728,6,6,4,1460,783,1,992,119,33580,0,65700,1448,0,0,0,0
i,0x00000000,1720600180.749617,172.16.3.2,5101,172.16.1.2,53210,3749,14480,0,65728,65728,6,6,4,1460,783,1,992,119,33580,0,65700,0,0,0,0,0
o,0x00000000,1720600180.749629,172.16.3.2,5101,172.16.1.2,53210,3749,14480,0,65728,65728,6,6,4,1460,783,1,993,119,33580,0,65700,1448,0,0,0,0
i,0x00000000,1720600180.769866,172.16.3.2,5101,172.16.1.2,53210,3749,14480,0,65728,65728,6,6,4,1460,783,1,992,119,33580,0,65700,0,0,0,0,0
o,0x00000000,1720600180.769900,172.16.3.2,5101,172.16.1.2,53210,3749,14480,0,65728,65700,6,6,4,1460,783,1,993,119,33580,0,65700,0,0,1,0,0
i,0x00000000,1720600180.780078,172.16.3.2,5101,172.16.1.2,53210,3749,14480,0,65728,65700,6,6,4,1460,783,1,992,119,33580,0,65700,0,0,1,0,0
o,0x00000000,1720600180.780112,172.16.3.2,5101,172.16.1.2,53210,3749,14480,0,65728,65728,6,6,4,1460,783,1,993,119,33580,0,65700,0,0,1,0,0
i,0x00000000,1720600180.815822,172.16.3.2,5101,172.16.1.2,53210,3749,14480,0,65728,65728,6,6,4,1460,783,1,992,119,33580,0,65700,0,0,1,0,0
o,0x00000000,1720600180.815834,172.16.3.2,5101,172.16.1.2,53210,3749,14480,0,65728,65728,6,6,4,1460,783,1,993,119,33580,0,65700,0,0,1,0,0
i,0x00000000,1720600180.828591,172.16.3.2,5101,172.16.1.2,53210,3749,14480,0,65728,65728,6,6,4,1460,783,1,992,119,33580,0,65700,0,0,1,0,0
o,0x00000000,1720600180.828602,172.16.3.2,5101,172.16.1.2,53210,3749,14480,0,65728,65728,6,6,4,1460,783,1,993,119,33580,0,65700,0,0,1,0,0
i,0x00000000,1720600180.840005,172.16.3.2,5101,172.16.1.2,53210,3749,14480,0,65728,65728,6,6,4,1460,783,1,992,119,33580,0,65700,0,0,1,0,0
o,0x00000000,1720600180.840024,172.16.3.2,5101,172.16.1.2,53210,3749,14480,0,65728,65728,6,6,4,1460,783,1,993,119,33580,0,65700,0,0,1,0,0
o,0x00000000,1720600180.886508,10.0.2.15,22,10.0.2.2,61908,1073725440,14600,0,65535,65700,0,0,4,1460,1,0,4,24,33580,108,65700,0,0,0,0,0
i,0x00000000,1720600180.887724,10.0.2.15,22,10.0.2.2,61908,1073725440,14600,0,65535,65700,0,0,4,1460,1,0,4,24,33580,108,65700,0,108,0,0,0
i,0x00000000,1720600180.950129,172.16.3.2,5101,172.16.1.2,53210,3749,14480,0,65728,65728,6,6,4,1460,783,1,992,119,33580,0,65700,0,0,1,0,0
o,0x00000000,1720600180.950140,172.16.3.2,5101,172.16.1.2,53210,3749,14480,0,65728,65728,6,6,4,1460,783,1,993,119,33580,0,65700,0,0,1,0,0
i,0x00000000,1720600180.969819,172.16.3.2,5101,172.16.1.2,53210,3749,14480,0,65728,65728,6,6,4,1460,783,1,992,119,33580,0,65700,0,0,1,0,0
o,0x00000000,1720600180.969830,172.16.3.2,5101,172.16.1.2,53210,3749,14480,0,65728,65728,6,6,4,1460,783,1,993,119,33580,0,65700,0,0,1,0,0
i,0x00000000,1720600180.978978,172.16.3.2,5101,172.16.1.2,53210,3749,14480,0,65728,65728,6,6,4,1460,783,1,992,119,33580,0,65700,0,0,1,0,0
o,0x00000000,1720600180.978990,172.16.3.2,5101,172.16.1.2,53210,3749,14480,0,65728,65728,6,6,4,1460,783,1,993,119,33580,0,65700,0,0,2,0,0
i,0x00000000,1720600180.988929,172.16.3.2,5101,172.16.1.2,53210,3749,14480,0,65728,65728,6,6,4,1460,783,1,992,119,33580,0,65700,0,0,2,0,0
o,0x00000000,1720600180.988940,172.16.3.2,5101,172.16.1.2,53210,3749,14480,0,65728,65728,6,6,4,1460,783,1,993,119,33580,0,65700,0,0,2,0,0
i,0x00000000,1720600181.001778,172.16.3.2,5101,172.16.1.2,53210,3749,14480,0,65728,65728,6,6,4,1460,783,1,992,119,33580,0,65700,0,0,2,0,0
o,0x00000000,1720600181.001806,172.16.3.2,5101,172.16.1.2,53210,3749,14480,0,65728,65728,6,6,4,1460,783,1,993,119,33580,0,65700,0,0,2,0,0
i,0x00000000,1720600181.030541,172.16.3.2,5101,172.16.1.2,53210,3749,14480,0,65728,65728,6,6,4,1460,783,1,992,119,33580,0,65700,0,0,2,0,0
o,0x00000000,1720600181.030582,172.16.3.2,5101,172.16.1.2,53210,3749,14480,0,65728,65728,6,6,4,1460,783,1,993,119,33580,0,65700,11584,0,1,0,0
i,0x00000000,1720600181.039073,172.16.3.2,5101,172.16.1.2,53210,3749,14480,0,65728,65728,6,6,4,1460,783,1,992,119,33580,0,65700,0,0,1,0,0
o,0x00000000,1720600181.039085,172.16.3.2,5101,172.16.1.2,53210,3749,14480,0,65728,65700,6,6,4,1460,783,1,993,119,33580,0,65700,0,0,1,0,0
i,0x00000000,1720600181.169791,172.16.3.2,5101,172.16.1.2,53210,3749,14480,0,65728,65700,6,6,4,1460,783,1,992,119,33580,0,65700,0,0,1,0,0
o,0x00000000,1720600181.169810,172.16.3.2,5101,172.16.1.2,53210,3749,14480,0,65728,65728,6,6,4,1460,783,1,993,119,33580,0,65700,7240,0,0,0,0
i,0x00000000,1720600181.170190,172.16.3.2,5101,172.16.1.2,53210,3749,14480,0,65728,65728,6,6,4,1460,783,1,992,119,33580,0,65700,7240,0,0,0,0
i,0x00000000,1720600181.180001,172.16.3.2,5101,172.16.1.2,53210,3749,14480,0,65728,65728,6,6,4,1460,783,1,992,119,33580,0,65700,0,0,0,0,0
o,0x00000000,1720600181.180015,172.16.3.2,5101,172.16.1.2,53210,3749,14480,0,65728,65728,6,6,4,1460,783,1,993,119,33580,0,65700,1448,0,0,0,0
i,0x00000000,1720600181.191785,172.16.3.2,5101,172.16.1.2,53210,3749,14480,0,65728,65728,6,6,4,1460,783,1,992,119,33580,0,65700,0,0,0,0,0
i,0x00000000,1720600181.210888,172.16.3.2,5101,172.16.1.2,53210,3749,14480,0,65728,65728,6,6,4,1460,783,1,992,119,33580,0,65700,0,0,0,0,0
o,0x00000000,1720600181.210904,172.16.3.2,5101,172.16.1.2,53210,3749,14480,0,65728,65728,6,6,4,1460,783,1,993,119,33580,0,65700,1448,0,0,0,0
i,0x00000000,1720600181.351358,172.16.3.2,5101,172.16.1.2,53210,3749,14480,0,65728,65728,6,6,4,1460,783,1,992,119,33580,0,65700,0,0,0,0,0
i,0x00000000,1720600181.365368,172.16.3.2,5101,172.16.1.2,53210,3749,14480,0,65728,65728,6,6,4,1460,783,1,992,119,33580,0,65700,0,0,0,0,0
o,0x00000000,1720600181.365381,172.16.3.2,5101,172.16.1.2,53210,3749,14480,0,65728,65728,6,6,4,1460,783,1,993,119,33580,0,65700,1448,0,0,0,0
i,0x00000000,1720600181.371002,172.16.3.2,5101,172.16.1.2,53210,3749,14480,0,65728,65728,6,6,4,1460,783,1,992,119,33580,0,65700,0,0,0,0,0
i,0x00000000,1720600181.395798,172.16.3.2,5101,172.16.1.2,53210,3749,14480,0,65728,65728,6,6,4,1460,783,1,992,119,33580,0,65700,0,0,0,0,0
o,0x00000000,1720600181.395813,172.16.3.2,5101,172.16.1.2,53210,3749,14480,0,65728,65728,6,6,4,1460,783,1,993,119,33580,0,65700,1448,0,0,0,0
i,0x00000000,1720600181.400988,172.16.3.2,5101,172.16.1.2,53210,3749,14480,0,65728,65728,6,6,4,1460,783,1,992,119,33580,0,65700,0,0,0,0,0
i,0x00000000,1720600181.410343,172.16.3.2,5101,172.16.1.2,53210,3749,14480,0,65728,65728,6,6,4,1460,783,1,992,119,33580,0,65700,0,0,0,0,0
o,0x00000000,1720600181.410356,172.16.3.2,5101,172.16.1.2,53210,3749,14480,0,65728,65728,6,6,4,1460,783,1,993,119,33580,0,65700,1448,0,0,0,0
i,0x00000000,1720600181.561597,172.16.3.2,5101,172.16.1.2,53210,3749,14480,0,65728,65728,6,6,4,1460,783,1,992,119,33580,0,65700,0,0,0,0,0
i,0x00000000,1720600181.570781,172.16.3.2,5101,172.16.1.2,53210,3749,14480,0,65728,65728,6,6,4,1460,783,1,992,119,33580,0,65700,0,0,0,0,0
o,0x00000000,1720600181.570795,172.16.3.2,5101,172.16.1.2,53210,3749,14480,0,65728,65728,6,6,4,1460,783,1,993,119,33580,0,65700,1448,0,0,0,0
i,0x00000000,1720600181.592937,172.16.3.2,5101,172.16.1.2,53210,3749,14480,0,65728,65728,6,6,4,1460,783,1,992,119,33580,0,65700,0,0,0,0,0
o,0x00000000,1720600181.592953,172.16.3.2,5101,172.16.1.2,53210,3749,14480,0,65728,65700,6,6,4,1460,783,1,993,119,33580,0,65700,0,0,1,0,0
i,0x00000000,1720600181.600444,172.16.3.2,5101,172.16.1.2,53210,3749,14480,0,65728,65700,6,6,4,1460,783,1,992,119,33580,0,65700,0,0,1,0,0
o,0x00000000,1720600181.600455,172.16.3.2,5101,172.16.1.2,53210,3749,14480,0,65728,65728,6,6,4,1460,783,1,993,119,33580,0,65700,0,0,1,0,0
i,0x00000000,1720600181.610589,172.16.3.2,5101,172.16.1.2,53210,3749,14480,0,65728,65728,6,6,4,1460,783,1,992,119,33580,0,65700,0,0,1,0,0
o,0x00000000,1720600181.610601,172.16.3.2,5101,172.16.1.2,53210,3749,14480,0,65728,65728,6,6,4,1460,783,1,993,119,33580,0,65700,0,0,1,0,0
i,0x00000000,1720600181.620783,172.16.3.2,5101,172.16.1.2,53210,3749,14480,0,65728,65728,6,6,4,1460,783,1,992,119,33580,0,65700,0,0,1,0,0
o,0x00000000,1720600181.620804,172.16.3.2,5101,172.16.1.2,53210,3749,14480,0,65728,65728,6,6,4,1460,783,1,993,119,33580,0,65700,0,0,1,0,0
i,0x00000000,1720600181.748203,172.16.3.2,5101,172.16.1.2,53210,3749,14480,0,65728,65728,6,6,4,1460,783,1,992,119,33580,0,65700,0,0,1,0,0
o,0x00000000,1720600181.748231,172.16.3.2,5101,172.16.1.2,53210,3749,14480,0,65728,65728,6,6,4,1460,783,1,993,119,33580,0,65700,0,0,1,0,0
i,0x00000000,1720600181.754888,172.16.3.2,5101,172.16.1.2,53210,3749,14480,0,65728,65728,6,6,4,1460,783,1,992,119,33580,0,65700,0,0,1,0,0
o,0x00000000,1720600181.754961,172.16.3.2,5101,172.16.1.2,53210,3749,14480,0,65728,65728,6,6,4,1460,783,1,993,119,33580,0,65700,0,0,1,0,0
i,0x00000000,1720600181.760601,172.16.3.2,5101,172.16.1.2,53210,3749,14480,0,65728,65728,6,6,4,1460,783,1,992,119,33580,0,65700,0,0,1,0,0
o,0x00000000,1720600181.760623,172.16.3.2,5101,172.16.1.2,53210,3749,14480,0,65728,65728,6,6,4,1460,783,1,993,119,33580,0,65700,0,0,1,0,0
i,0x00000000,1720600181.773312,172.16.3.2,5101,172.16.1.2,53210,3749,14480,0,65728,65728,6,6,4,1460,783,1,992,119,33580,0,65700,0,0,1,0,0
o,0x00000000,1720600181.773340,172.16.3.2,5101,172.16.1.2,53210,3749,14480,0,65728,65728,6,6,4,1460,783,1,993,119,33580,0,65700,0,0,1,0,0
i,0x00000000,1720600181.791796,172.16.3.2,5101,172.16.1.2,53210,3749,14480,0,65728,65728,6,6,4,1460,783,1,992,119,33580,0,65700,0,0,1,0,0
o,0x00000000,1720600181.791831,172.16.3.2,5101,172.16.1.2,53210,3749,14480,0,65728,65728,6,6,4,1460,783,1,993,119,33580,0,65700,13032,0,0,0,0
o,0x00000000,1720600181.886699,10.0.2.15,22,10.0.2.2,61908,1073725440,14600,0,65535,65700,0,0,4,1460,1,0,4,24,33580,108,65700,0,0,0,0,0
i,0x00000000,1720600181.888270,10.0.2.15,22,10.0.2.2,61908,1073725440,14600,0,65535,65700,0,0,4,1460,1,0,4,24,33580,108,65700,0,108,0,0,0
i,0x00000000,1720600181.892198,172.16.3.2,5101,172.16.1.2,53210,3749,14480,0,65728,65728,6,6,4,1460,783,1,992,119,33580,0,65700,0,0,0,0,0
i,0x00000000,1720600181.912431,172.16.3.2,5101,172.16.1.2,53210,3749,14480,0,65728,65728,6,6,4,1460,783,1,992,119,33580,0,65700,0,0,0,0,0
o,0x00000000,1720600181.912445,172.16.3.2,5101,172.16.1.2,53210,3749,14480,0,65728,65728,6,6,4,1460,783,1,993,119,33580,0,65700,1448,0,0,0,0
i,0x00000000,1720600181.923068,172.16.3.2,5101,172.16.1.2,53210,3749,14480,0,65728,65728,6,6,4,1460,783,1,992,119,33580,0,65700,0,0,0,0,0
o,0x00000000,1720600181.955170,172.16.3.2,5101,172.16.1.2,53210,3749,14480,0,65728,65728,6,6,4,1460,783,1,993,119,33580,0,65700,0,0,0,0,0
i,0x00000000,1720600182.073197,172.16.3.2,5101,172.16.1.2,53210,3749,14480,0,65728,65728,6,6,4,1460,783,1,992,119,33580,0,65700,0,0,0,0,0
i,0x00000000,1720600182.090013,172.16.3.2,5101,172.16.1.2,53210,3749,14480,0,65728,65728,6,6,4,1460,783,1,992,119,33580,0,65700,0,0,0,0,0
o,0x00000000,1720600182.090062,172.16.3.2,5101,172.16.1.2,53210,3749,14480,0,65728,65728,6,6,4,1460,783,1,993,119,33580,0,65700,1448,0,0,0,0
i,0x00000000,1720600182.094075,172.16.3.2,5101,172.16.1.2,53210,3749,14480,0,65728,65728,6,6,4,1460,783,1,992,119,33580,0,65700,0,0,0,0,0
i,0x00000000,1720600182.103793,172.16.3.2,5101,172.16.1.2,53210,3749,14480,0,65728,65728,6,6,4,1460,783,1,992,119,33580,0,65700,0,0,0,0,0
o,0x00000000,1720600182.103811,172.16.3.2,5101,172.16.1.2,53210,3749,14480,0,65728,65728,6,6,4,1460,783,1,993,119,33580,0,65700,1448,0,0,0,0
i,0x00000000,1720600182.129998,172.16.3.2,5101,172.16.1.2,53210,3749,14480,0,65728,65728,6,6,4,1460,783,1,992,119,33580,0,65700,0,0,0,0,0
o,0x00000000,1720600182.165409,172.16.3.2,5101,172.16.1.2,53210,3749,14480,0,65728,65728,6,6,4,1460,783,1,993,119,33580,0,65700,0,0,0,0,0
i,0x00000000,1720600182.254029,172.16.3.2,5101,172.16.1.2,53210,3749,14480,0,65728,65728,6,6,4,1460,783,1,992,119,33580,0,65700,0,0,0,0,0
i,0x00000000,1720600182.264288,172.16.3.2,5101,172.16.1.2,53210,3749,14480,0,65728,65728,6,6,4,1460,783,1,992,119,33580,0,65700,0,0,0,0,0
o,0x00000000,1720600182.264301,172.16.3.2,5101,172.16.1.2,53210,3749,14480,0,65728,65728,6,6,4,1460,783,1,993,119,33580,0,65700,1448,0,0,0,0
i,0x00000000,1720600182.271796,172.16.3.2,5101,172.16.1.2,53210,3749,14480,0,65728,65728,6,6,4,1460,783,1,992,119,33580,0,65700,0,0,0,0,0
i,0x00000000,1720600182.282240,172.16.3.2,5101,172.16.1.2,53210,3749,14480,0,65728,65728,6,6,4,1460,783,1,992,119,33580,0,65700,0,0,0,0,0
o,0x00000000,1720600182.282255,172.16.3.2,5101,172.16.1.2,53210,3749,14480,0,65728,65728,6,6,4,1460,783,1,993,119,33580,0,65700,1448,0,0,0,0
i,0x00000000,1720600182.302737,172.16.3.2,5101,172.16.1.2,53210,3749,14480,0,65728,65728,6,6,4,1460,783,1,992,119,33580,0,65700,0,0,0,0,0
o,0x00000000,1720600182.335354,172.16.3.2,5101,172.16.1.2,53210,3749,14480,0,65728,65728,6,6,4,1460,783,1,993,119,33580,0,65700,0,0,0,0,0
i,0x00000000,1720600182.429981,172.16.3.2,5101,172.16.1.2,53210,3749,14480,0,65728,65728,6,6,4,1460,783,1,992,119,33580,0,65700,0,0,0,0,0
i,0x00000000,1720600182.435588,172.16.3.2,5101,172.16.1.2,53210,3749,14480,0,65728,65728,6,6,4,1460,783,1,992,119,33580,0,65700,0,0,0,0,0
o,0x00000000,1720600182.435621,172.16.3.2,5101,172.16.1.2,53210,3749,14480,0,65728,65728,6,6,4,1460,783,1,993,119,33580,0,65700,1448,0,0,0,0
i,0x00000000,1720600182.443403,172.16.3.2,5101,172.16.1.2,53210,3749,14480,0,65728,65728,6,6,4,1460,783,1,992,119,33580,0,65700,0,0,0,0,0
i,0x00000000,1720600182.461142,172.16.3.2,5101,172.16.1.2,53210,3749,14480,0,65728,65728,6,6,4,1460,783,1,992,119,33580,0,65700,0,0,0,0,0
o,0x00000000,1720600182.461163,172.16.3.2,5101,172.16.1.2,53210,3749,14480,0,65728,65728,6,6,4,1460,783,1,993,119,33580,0,65700,1448,0,0,0,0
i,0x00000000,1720600182.463481,172.16.3.2,5101,172.16.1.2,53210,3749,14480,0,65728,65728,6,6,4,1460,783,1,992,119,33580,0,65700,0,0,0,0,0
o,0x00000000,1720600182.495489,172.16.3.2,5101,172.16.1.2,53210,3749,14480,0,65728,65728,6,6,4,1460,783,1,993,119,33580,0,65700,0,0,0,0,0
i,0x00000000,1720600182.523184,172.16.3.2,5101,172.16.1.2,53210,3749,14480,0,65728,65728,6,6,4,1460,783,1,992,119,33580,0,65700,0,0,0,0,0
i,0x00000000,1720600182.533702,172.16.3.2,5101,172.16.1.2,53210,3749,14480,0,65728,65728,6,6,4,1460,783,1,992,119,33580,0,65700,0,0,0,0,0
o,0x00000000,1720600182.533720,172.16.3.2,5101,172.16.1.2,53210,3749,14480,0,65728,65728,6,6,4,1460,783,1,993,119,33580,0,65700,1448,0,0,0,0
i,0x00000000,1720600182.635867,172.16.3.2,5101,172.16.1.2,53210,3749,14480,0,65728,65728,6,6,4,1460,783,1,992,119,33580,0,65700,0,0,0,0,0
i,0x00000000,1720600182.648083,172.16.3.2,5101,172.16.1.2,53210,3749,14480,0,65728,65728,6,6,4,1460,783,1,992,119,33580,0,65700,0,0,0,0,0
o,0x00000000,1720600182.648104,172.16.3.2,5101,172.16.1.2,53210,3749,14480,0,65728,65728,6,6,4,1460,783,1,993,119,33580,0,65700,1448,0,0,0,0
i,0x00000000,1720600182.654217,172.16.3.2,5101,172.16.1.2,53210,3749,14480,0,65728,65728,6,6,4,1460,783,1,992,119,33580,0,65700,0,0,0,0,0
i,0x00000000,1720600182.668720,172.16.3.2,5101,172.16.1.2,53210,3749,14480,0,65728,65728,6,6,4,1460,783,1,992,119,33580,0,65700,0,0,0,0,0
o,0x00000000,1720600182.668737,172.16.3.2,5101,172.16.1.2,53210,3749,14480,0,65728,65728,6,6,4,1460,783,1,993,119,33580,0,65700,1448,0,0,0,0
i,0x00000000,1720600182.717604,172.16.3.2,5101,172.16.1.2,53210,3749,14480,0,65728,65728,6,6,4,1460,783,1,992,119,33580,0,65700,0,0,0,0,0
i,0x00000000,1720600182.734743,172.16.3.2,5101,172.16.1.2,53210,3749,14480,0,65728,65728,6,6,4,1460,783,1,992,119,33580,0,65700,0,0,0,0,0
o,0x00000000,1720600182.734756,172.16.3.2,5101,172.16.1.2,53210,3749,14480,0,65728,65728,6,6,4,1460,783,1,993,119,33580,0,65700,1448,0,0,0,0
i,0x00000000,1720600182.743138,172.16.3.2,5101,172.16.1.2,53210,3749,14480,0,65728,65728,6,6,4,1460,783,1,992,119,33580,0,65700,0,0,0,0,0
i,0x00000000,1720600182.753698,172.16.3.2,5101,172.16.1.2,53210,3749,14480,0,65728,65728,6,6,4,1460,783,1,992,119,33580,0,65700,0,0,0,0,0
o,0x00000000,1720600182.753715,172.16.3.2,5101,172.16.1.2,53210,3749,14480,0,65728,65728,6,6,4,1460,783,1,993,119,33580,0,65700,1448,0,0,0,0
i,0x00000000,1720600182.865063,172.16.3.2,5101,172.16.1.2,53210,3749,14480,0,65728,65728,6,6,4,1460,783,1,992,119,33580,0,65700,0,0,0,0,0
i,0x00000000,1720600182.876869,172.16.3.2,5101,172.16.1.2,53210,3749,14480,0,65728,65728,6,6,4,1460,783,1,992,119,33580,0,65700,0,0,0,0,0
o,0x00000000,1720600182.876960,172.16.3.2,5101,172.16.1.2,53210,3749,14480,0,65728,65728,6,6,4,1460,783,1,993,119,33580,0,65700,1448,0,0,0,0
i,0x00000000,1720600182.884319,172.16.3.2,5101,172.16.1.2,53210,3749,14480,0,65728,65728,6,6,4,1460,783,1,992,119,33580,0,65700,0,0,0,0,0
o,0x00000000,1720600182.895414,10.0.2.15,22,10.0.2.2,61908,1073725440,14600,0,65535,65700,0,0,4,1460,1,0,4,24,33580,108,65700,0,0,0,0,0
i,0x00000000,1720600182.896090,10.0.2.15,22,10.0.2.2,61908,1073725440,14600,0,65535,65700,0,0,4,1460,1,0,4,24,33580,108,65700,0,108,0,0,0
i,0x00000000,1720600182.906762,172.16.3.2,5101,172.16.1.2,53210,3749,14480,0,65728,65728,6,6,4,1460,783,1,992,119,33580,0,65700,0,0,0,0,0
o,0x00000000,1720600182.906777,172.16.3.2,5101,172.16.1.2,53210,3749,14480,0,65728,65728,6,6,4,1460,783,1,993,119,33580,0,65700,1448,0,0,0,0
i,0x00000000,1720600182.944114,172.16.3.2,5101,172.16.1.2,53210,3749,14480,0,65728,65728,6,6,4,1460,783,1,992,119,33580,0,65700,0,0,0,0,0
i,0x00000000,1720600182.969352,172.16.3.2,5101,172.16.1.2,53210,3749,14480,0,65728,65728,6,6,4,1460,783,1,992,119,33580,0,65700,0,0,0,0,0
o,0x00000000,1720600182.969370,172.16.3.2,5101,172.16.1.2,53210,3749,14480,0,65728,65700,6,6,4,1460,783,1,993,119,33580,0,65700,0,0,1,0,0
i,0x00000000,1720600182.975448,172.16.3.2,5101,172.16.1.2,53210,3749,14480,0,65728,65700,6,6,4,1460,783,1,992,119,33580,0,65700,0,0,1,0,0
o,0x00000000,1720600182.975466,172.16.3.2,5101,172.16.1.2,53210,3749,14480,0,65728,65728,6,6,4,1460,783,1,993,119,33580,0,65700,0,0,1,0,0
i,0x00000000,1720600182.985351,172.16.3.2,5101,172.16.1.2,53210,3749,14480,0,65728,65728,6,6,4,1460,783,1,992,119,33580,0,65700,0,0,1,0,0
o,0x00000000,1720600182.985369,172.16.3.2,5101,172.16.1.2,53210,3749,14480,0,65728,65728,6,6,4,1460,783,1,993,119,33580,0,65700,0,0,1,0,0
i,0x00000000,1720600183.075624,172.16.3.2,5101,172.16.1.2,53210,3749,14480,0,65728,65728,6,6,4,1460,783,1,992,119,33580,0,65700,0,0,1,0,0
o,0x00000000,1720600183.075657,172.16.3.2,5101,172.16.1.2,53210,3749,14480,0,65728,65728,6,6,4,1460,783,1,993,119,33580,0,65700,0,0,1,0,0
i,0x00000000,1720600183.083869,172.16.3.2,5101,172.16.1.2,53210,3749,14480,0,65728,65728,6,6,4,1460,783,1,992,119,33580,0,65700,0,0,1,0,0
o,0x00000000,1720600183.083880,172.16.3.2,5101,172.16.1.2,53210,3749,14480,0,65728,65728,6,6,4,1460,783,1,993,119,33580,0,65700,0,0,1,0,0
i,0x00000000,1720600183.094224,172.16.3.2,5101,172.16.1.2,53210,3749,14480,0,65728,65728,6,6,4,1460,783,1,992,119,33580,0,65700,0,0,1,0,0
o,0x00000000,1720600183.094235,172.16.3.2,5101,172.16.1.2,53210,3749,14480,0,65728,65728,6,6,4,1460,783,1,993,119,33580,0,65700,0,0,1,0,0
i,0x00000000,1720600183.114375,172.16.3.2,5101,172.16.1.2,53210,3749,14480,0,65728,65728,6,6,4,1460,783,1,992,119,33580,0,65700,0,0,1,0,0
o,0x00000000,1720600183.114391,172.16.3.2,5101,172.16.1.2,53210,3749,14480,0,65728,65728,6,6,4,1460,783,1,993,119,33580,0,65700,0,0,1,0,0
i,0x00000000,1720600183.124692,172.16.3.2,5101,172.16.1.2,53210,3749,14480,0,65728,65728,6,6,4,1460,783,1,992,119,33580,0,65700,0,0,1,0,0
o,0x00000000,1720600183.124703,172.16.3.2,5101,172.16.1.2,53210,3749,14480,0,65728,65728,6,6,4,1460,783,1,993,119,33580,0,65700,0,0,1,0,0
i,0x00000000,1720600183.168552,172.16.3.2,5101,172.16.1.2,53210,3749,14480,0,65728,65728,6,6,4,1460,783,1,992,119,33580,0,65700,0,0,1,0,0
o,0x00000000,1720600183.168613,172.16.3.2,5101,172.16.1.2,53210,3749,14480,0,65728,65728,6,6,4,1460,783,1,993,119,33580,0,65700,13032,0,0,0,0
i,0x00000000,1720600183.225232,172.16.3.2,5101,172.16.1.2,53210,3749,14480,0,65728,65728,6,6,4,1460,783,1,992,119,33580,0,65700,0,0,0,0,0
