enable_time_secs=1724817460	enable_time_usecs=649688	siftrver=1.3.0	sysname=FreeBSD	sysver=1401000	ipmode=4
o,1724817460.650109,10.0.2.15,22,10.0.2.2,51170,1073725440,17746,1026,65535,65700,0,0,4,1460,312,0,16777220,240000,33580,172,65700,0,0,0,409590883,63
o,1724817460.651260,10.0.2.15,22,10.0.2.2,51170,1073725440,17746,1026,65535,65700,0,0,4,1460,312,0,16777220,240000,33580,244,65700,0,172,0,409590883,63
i,1724817460.651356,10.0.2.15,22,10.0.2.2,51170,1073725440,17746,1026,65535,65700,0,0,4,1460,312,0,16777220,240000,33580,244,65700,0,244,0,409590883,63
i,1724817460.652055,10.0.2.15,22,10.0.2.2,51170,1073725440,17918,1026,65535,65700,0,0,4,1460,312,0,4,240000,33580,72,65700,0,72,0,409590883,63
i,1724817460.652095,10.0.2.15,22,10.0.2.2,51170,1073725440,17990,1026,65535,65700,0,0,4,1460,312,0,4,240000,33580,0,65700,0,0,0,409590883,63
i,1724817460.652112,10.0.2.15,22,10.0.2.2,51170,1073725440,17990,1026,65535,65700,0,0,4,1460,312,0,4,240000,33580,0,65700,96,0,0,409590883,63
o,1724817460.652131,10.0.2.15,22,10.0.2.2,51170,1073725440,17990,1026,65535,65604,0,0,5,1460,312,0,5,240000,33580,0,65700,96,0,0,409590883,63
o,1724817460.652980,10.0.2.15,22,10.0.2.2,51170,1073725440,17990,1026,65535,65604,0,0,8,1460,312,0,4,240000,33580,0,65700,0,0,0,409590883,63
i,1724817460.653697,10.0.2.15,22,10.0.2.2,51170,1073725440,17990,1026,65535,65604,0,0,8,1460,312,0,67108884,240000,33580,0,65700,0,1,0,409590883,63
i,1724817463.771209,10.0.2.15,22,10.0.2.2,51174,1073725440,14600,0,65535,65700,0,0,4,1460,312,0,16777216,260000,33580,0,65700,0,0,0,2954734997,63
o,1724817463.780677,10.0.2.15,22,10.0.2.2,51174,1073725440,14600,1026,65535,65700,0,0,4,1460,312,0,16777216,260000,33580,38,65700,42,0,0,2954734997,63
i,1724817463.781331,10.0.2.15,22,10.0.2.2,51174,1073725440,14600,1026,65535,65700,0,0,4,1460,312,0,16777216,260000,33580,38,65700,0,38,0,2954734997,63
i,1724817463.781847,10.0.2.15,22,10.0.2.2,51174,1073725440,14638,1026,65535,65700,0,0,4,1460,312,0,0,230000,33580,0,65700,0,0,0,2954734997,63
i,1724817463.781866,10.0.2.15,22,10.0.2.2,51174,1073725440,14638,1026,65535,65700,0,0,4,1460,312,0,0,230000,33580,0,65700,1460,0,0,2954734997,63
o,1724817463.781886,10.0.2.15,22,10.0.2.2,51174,1073725440,14638,1026,65535,65700,0,0,4,1460,312,0,1,230000,33580,0,65700,1536,0,0,2954734997,63
o,1724817463.782637,10.0.2.15,22,10.0.2.2,51174,1073725440,14638,1026,65535,65700,0,0,4,1460,312,0,16777216,230000,33580,1120,65700,1536,0,0,2954734997,63
i,1724817463.783749,10.0.2.15,22,10.0.2.2,51174,1073725440,14638,1026,65535,65700,0,0,4,1460,312,0,16777216,230000,33580,1120,65700,0,1120,0,2954734997,63
i,1724817463.784572,10.0.2.15,22,10.0.2.2,51174,1073725440,15758,1026,65535,65700,0,0,4,1460,312,0,0,230000,33580,0,65700,0,0,0,2954734997,63
o,1724817463.787549,10.0.2.15,22,10.0.2.2,51174,1073725440,15758,1026,65535,65700,0,0,4,1460,312,0,16777216,230000,33580,492,65700,0,0,0,2954734997,63
i,1724817463.788163,10.0.2.15,22,10.0.2.2,51174,1073725440,15758,1026,65535,65700,0,0,4,1460,312,0,16777216,230000,33580,492,65700,0,492,0,2954734997,63
i,1724817463.792708,10.0.2.15,22,10.0.2.2,51174,1073725440,16250,1026,65535,65700,0,0,4,1460,312,0,0,240000,33580,0,65700,0,0,0,2954734997,63
o,1724817463.792857,10.0.2.15,22,10.0.2.2,51174,1073725440,16250,1026,65535,65700,0,0,4,1460,312,0,16777216,240000,33580,44,65700,0,0,0,2954734997,63
i,1724817463.795403,10.0.2.15,22,10.0.2.2,51174,1073725440,16250,1026,65535,65700,0,0,4,1460,312,0,16777216,240000,33580,44,65700,0,44,0,2954734997,63
i,1724817463.795423,10.0.2.15,22,10.0.2.2,51174,1073725440,16294,1026,65535,65700,0,0,4,1460,312,0,0,230000,33580,0,65700,0,0,0,2954734997,63
o,1724817463.796430,10.0.2.15,22,10.0.2.2,51174,1073725440,16294,1026,65535,65700,0,0,4,1460,312,0,16777216,230000,33580,68,65700,0,0,0,2954734997,63
i,1724817463.797447,10.0.2.15,22,10.0.2.2,51174,1073725440,16294,1026,65535,65700,0,0,4,1460,312,0,16777216,230000,33580,68,65700,0,68,0,2954734997,63
i,1724817463.797503,10.0.2.15,22,10.0.2.2,51174,1073725440,16362,1026,65535,65700,0,0,4,1460,312,0,0,230000,33580,0,65700,0,0,0,2954734997,63
o,1724817463.798357,10.0.2.15,22,10.0.2.2,51174,1073725440,16362,1026,65535,65700,0,0,4,1460,312,0,16777216,230000,33580,332,65700,0,0,0,2954734997,63
i,1724817463.799149,10.0.2.15,22,10.0.2.2,51174,1073725440,16362,1026,65535,65700,0,0,4,1460,312,0,16777216,230000,33580,332,65700,0,332,0,2954734997,63
i,1724817463.800536,10.0.2.15,22,10.0.2.2,51174,1073725440,16694,1026,65535,65700,0,0,4,1460,312,0,0,230000,33580,0,65700,0,0,0,2954734997,63
o,1724817463.818504,10.0.2.15,22,10.0.2.2,51174,1073725440,16694,1026,65535,65700,0,0,4,1460,312,0,16777216,230000,33580,28,65700,0,0,0,2954734997,63
i,1724817463.819232,10.0.2.15,22,10.0.2.2,51174,1073725440,16694,1026,65535,65700,0,0,4,1460,312,0,16777216,230000,33580,28,65700,0,28,0,2954734997,63
i,1724817463.819284,10.0.2.15,22,10.0.2.2,51174,1073725440,16722,1026,65535,65700,0,0,4,1460,312,0,0,230000,33580,0,65700,0,0,0,2954734997,63
o,1724817463.820811,10.0.2.15,22,10.0.2.2,51174,1073725440,16722,1026,65535,65700,0,0,4,1460,312,0,16777216,230000,33580,768,65700,112,0,0,2954734997,63
i,1724817463.821831,10.0.2.15,22,10.0.2.2,51174,1073725440,16722,1026,65535,65700,0,0,4,1460,312,0,16777216,230000,33580,908,65700,112,768,0,2954734997,63
o,1724817463.821853,10.0.2.15,22,10.0.2.2,51174,1073725440,17490,1026,65535,65700,0,0,4,1460,312,0,16777216,240000,33580,140,65700,112,0,0,2954734997,63
i,1724817463.822215,10.0.2.15,22,10.0.2.2,51174,1073725440,17490,1026,65535,65700,0,0,4,1460,312,0,16777216,240000,33580,140,65700,112,140,0,2954734997,63
o,1724817463.822498,10.0.2.15,22,10.0.2.2,51174,1073725440,17630,1026,65535,65700,0,0,4,1460,312,0,16777216,240000,33580,44,65700,0,0,0,2954734997,63
i,1724817463.823033,10.0.2.15,22,10.0.2.2,51174,1073725440,17630,1026,65535,65700,0,0,4,1460,312,0,16777216,240000,33580,44,65700,0,44,0,2954734997,63
i,1724817463.823080,10.0.2.15,22,10.0.2.2,51174,1073725440,17674,1026,65535,65700,0,0,4,1460,312,0,0,240000,33580,0,65700,0,0,0,2954734997,63
o,1724817463.823781,10.0.2.15,22,10.0.2.2,51174,1073725440,17674,1026,65535,65700,0,0,4,1460,312,0,16777220,240000,33580,72,65700,0,0,0,2954734997,63
i,1724817463.824193,10.0.2.15,22,10.0.2.2,51174,1073725440,17674,1026,65535,65700,0,0,4,1460,312,0,16777220,240000,33580,72,65700,0,72,0,2954734997,63
o,1724817463.826563,10.0.2.15,22,10.0.2.2,51174,1073725440,17746,1026,65535,65700,0,0,4,1460,312,0,16777220,240000,33580,104,65700,0,0,0,2954734997,63
i,1724817463.827242,10.0.2.15,22,10.0.2.2,51174,1073725440,17746,1026,65535,65700,0,0,4,1460,312,0,16777220,240000,33580,104,65700,0,104,0,2954734997,63
o,1724817463.833746,10.0.2.15,22,10.0.2.2,51174,1073725440,17850,1026,65535,65700,0,0,4,1460,312,0,16777220,240000,33580,72,65700,0,0,0,2954734997,63
i,1724817463.834854,10.0.2.15,22,10.0.2.2,51174,1073725440,17850,1026,65535,65700,0,0,4,1460,312,0,16777220,240000,33580,72,65700,0,72,0,2954734997,63
i,1724817463.834922,10.0.2.15,22,10.0.2.2,51174,1073725440,17922,1026,65535,65700,0,0,4,1460,312,0,4,240000,33580,0,65700,0,0,0,2954734997,63
i,1724817463.835002,10.0.2.15,22,10.0.2.2,51174,1073725440,17922,1026,65535,65700,0,0,4,1460,312,0,4,240000,33580,0,65700,96,0,0,2954734997,63
o,1724817463.835023,10.0.2.15,22,10.0.2.2,51174,1073725440,17922,1026,65535,65604,0,0,5,1460,312,0,5,240000,33580,0,65700,96,0,0,2954734997,63
o,1724817463.835965,10.0.2.15,22,10.0.2.2,51174,1073725440,17922,1026,65535,65604,0,0,8,1460,312,0,4,240000,33580,0,65700,0,0,0,2954734997,63
i,1724817463.836509,10.0.2.15,22,10.0.2.2,51174,1073725440,17922,1026,65535,65604,0,0,8,1460,312,0,67108884,240000,33580,0,65700,0,1,0,2954734997,63
i,1724817464.922535,10.0.2.15,22,10.0.2.2,51182,1073725440,14600,0,65535,65700,0,0,4,1460,312,0,16777216,270000,33580,0,65700,0,0,0,1680315758,63
o,1724817464.933742,10.0.2.15,22,10.0.2.2,51182,1073725440,14600,1026,65535,65700,0,0,4,1460,312,0,16777216,270000,33580,38,65700,42,0,0,1680315758,63
i,1724817464.934587,10.0.2.15,22,10.0.2.2,51182,1073725440,14600,1026,65535,65700,0,0,4,1460,312,0,16777216,270000,33580,38,65700,0,38,0,1680315758,63
i,1724817464.935704,10.0.2.15,22,10.0.2.2,51182,1073725440,14638,1026,65535,65700,0,0,4,1460,312,0,0,230000,33580,0,65700,0,0,0,1680315758,63
i,1724817464.935727,10.0.2.15,22,10.0.2.2,51182,1073725440,14638,1026,65535,65700,0,0,4,1460,312,0,0,230000,33580,0,65700,1460,0,0,1680315758,63
o,1724817464.935752,10.0.2.15,22,10.0.2.2,51182,1073725440,14638,1026,65535,65700,0,0,4,1460,312,0,1,230000,33580,0,65700,1536,0,0,1680315758,63
o,1724817464.936849,10.0.2.15,22,10.0.2.2,51182,1073725440,14638,1026,65535,65700,0,0,4,1460,312,0,16777216,230000,33580,1120,65700,1536,0,0,1680315758,63
i,1724817464.938232,10.0.2.15,22,10.0.2.2,51182,1073725440,14638,1026,65535,65700,0,0,4,1460,312,0,16777216,230000,33580,1120,65700,0,1120,0,1680315758,63
i,1724817464.939063,10.0.2.15,22,10.0.2.2,51182,1073725440,15758,1026,65535,65700,0,0,4,1460,312,0,0,240000,33580,0,65700,0,0,0,1680315758,63
o,1724817464.942299,10.0.2.15,22,10.0.2.2,51182,1073725440,15758,1026,65535,65700,0,0,4,1460,312,0,16777216,240000,33580,492,65700,0,0,0,1680315758,63
i,1724817464.942842,10.0.2.15,22,10.0.2.2,51182,1073725440,15758,1026,65535,65700,0,0,4,1460,312,0,16777216,240000,33580,492,65700,0,492,0,1680315758,63
i,1724817464.946754,10.0.2.15,22,10.0.2.2,51182,1073725440,16250,1026,65535,65700,0,0,4,1460,312,0,0,240000,33580,0,65700,0,0,0,1680315758,63
i,1724817464.946782,10.0.2.15,22,10.0.2.2,51182,1073725440,16250,1026,65535,65700,0,0,4,1460,312,0,0,240000,33580,0,65700,16,0,0,1680315758,63
o,1724817464.946807,10.0.2.15,22,10.0.2.2,51182,1073725440,16250,1026,65535,65700,0,0,4,1460,312,0,1,240000,33580,0,65700,60,0,0,1680315758,63
o,1724817464.947066,10.0.2.15,22,10.0.2.2,51182,1073725440,16250,1026,65535,65700,0,0,4,1460,312,0,16777216,240000,33580,44,65700,0,0,0,1680315758,63
i,1724817464.947987,10.0.2.15,22,10.0.2.2,51182,1073725440,16250,1026,65535,65700,0,0,4,1460,312,0,16777216,240000,33580,44,65700,0,44,0,1680315758,63
i,1724817464.948009,10.0.2.15,22,10.0.2.2,51182,1073725440,16294,1026,65535,65700,0,0,4,1460,312,0,0,240000,33580,0,65700,0,0,0,1680315758,63
o,1724817464.950181,10.0.2.15,22,10.0.2.2,51182,1073725440,16294,1026,65535,65700,0,0,4,1460,312,0,16777216,240000,33580,68,65700,0,0,0,1680315758,63
i,1724817464.950686,10.0.2.15,22,10.0.2.2,51182,1073725440,16294,1026,65535,65700,0,0,4,1460,312,0,16777216,240000,33580,68,65700,0,68,0,1680315758,63
i,1724817464.950709,10.0.2.15,22,10.0.2.2,51182,1073725440,16362,1026,65535,65700,0,0,4,1460,312,0,0,240000,33580,0,65700,0,0,0,1680315758,63
o,1724817464.952397,10.0.2.15,22,10.0.2.2,51182,1073725440,16362,1026,65535,65700,0,0,4,1460,312,0,16777216,240000,33580,332,65700,0,0,0,1680315758,63
i,1724817464.953276,10.0.2.15,22,10.0.2.2,51182,1073725440,16362,1026,65535,65700,0,0,4,1460,312,0,16777216,240000,33580,332,65700,0,332,0,1680315758,63
i,1724817464.954632,10.0.2.15,22,10.0.2.2,51182,1073725440,16694,1026,65535,65700,0,0,4,1460,312,0,0,240000,33580,0,65700,0,0,0,1680315758,63
o,1724817464.971702,10.0.2.15,22,10.0.2.2,51182,1073725440,16694,1026,65535,65700,0,0,4,1460,312,0,16777216,240000,33580,28,65700,0,0,0,1680315758,63
i,1724817464.972351,10.0.2.15,22,10.0.2.2,51182,1073725440,16694,1026,65535,65700,0,0,4,1460,312,0,16777216,240000,33580,28,65700,0,28,0,1680315758,63
i,1724817464.972371,10.0.2.15,22,10.0.2.2,51182,1073725440,16722,1026,65535,65700,0,0,4,1460,312,0,0,240000,33580,0,65700,0,0,0,1680315758,63
o,1724817464.974311,10.0.2.15,22,10.0.2.2,51182,1073725440,16722,1026,65535,65700,0,0,4,1460,312,0,16777216,240000,33580,768,65700,112,0,0,1680315758,63
i,1724817464.975649,10.0.2.15,22,10.0.2.2,51182,1073725440,16722,1026,65535,65700,0,0,4,1460,312,0,16777216,240000,33580,908,65700,112,768,0,1680315758,63
o,1724817464.975669,10.0.2.15,22,10.0.2.2,51182,1073725440,17490,1026,65535,65700,0,0,4,1460,312,0,16777216,240000,33580,140,65700,112,0,0,1680315758,63
i,1724817464.976474,10.0.2.15,22,10.0.2.2,51182,1073725440,17490,1026,65535,65700,0,0,4,1460,312,0,16777216,240000,33580,140,65700,112,140,0,1680315758,63
o,1724817464.977645,10.0.2.15,22,10.0.2.2,51182,1073725440,17630,1026,65535,65700,0,0,4,1460,312,0,16777216,240000,33580,44,65700,0,0,0,1680315758,63
i,1724817464.978430,10.0.2.15,22,10.0.2.2,51182,1073725440,17630,1026,65535,65700,0,0,4,1460,312,0,16777216,240000,33580,44,65700,0,44,0,1680315758,63
i,1724817464.978453,10.0.2.15,22,10.0.2.2,51182,1073725440,17674,1026,65535,65700,0,0,4,1460,312,0,0,240000,33580,0,65700,0,0,0,1680315758,63
o,1724817464.979182,10.0.2.15,22,10.0.2.2,51182,1073725440,17674,1026,65535,65700,0,0,4,1460,312,0,16777220,240000,33580,72,65700,0,0,0,1680315758,63
i,1724817464.979578,10.0.2.15,22,10.0.2.2,51182,1073725440,17674,1026,65535,65700,0,0,4,1460,312,0,16777220,240000,33580,72,65700,0,72,0,1680315758,63
o,1724817465.178529,172.16.5.2,27491,172.16.1.2,5102,28673,14480,2082,65535,65700,6,6,4,1460,224687,1,16778209,600000,33580,0,65700,0,0,0,2752649754,63
o,1724817465.178687,172.16.5.2,27491,172.16.1.2,5102,28673,14480,2082,65535,65700,6,6,4,1460,224687,1,16778212,600000,33580,37,65700,0,0,0,2752649754,63
i,1724817465.379779,172.16.5.2,27491,172.16.1.2,5102,28673,14480,2082,65535,65700,6,6,4,1460,224687,1,16778212,600000,33580,37,65700,0,37,0,2752649754,63
o,1724817465.380155,172.16.5.2,27491,172.16.1.2,5102,28673,14517,3106,65728,65728,6,6,4,1460,221875,1,16778212,570000,33580,4,65700,0,0,0,2752649754,63
o,1724817465.380276,172.16.5.2,27491,172.16.1.2,5102,28673,14517,3106,65728,65728,6,6,4,1460,221875,1,16778212,570000,33580,130,65700,0,4,0,2752649754,63
i,1724817465.582009,172.16.5.2,27491,172.16.1.2,5102,28673,14517,3106,65728,65728,6,6,4,1460,221875,1,16778212,570000,33580,130,65700,0,130,0,2752649754,63
i,1724817465.582077,172.16.5.2,27491,172.16.1.2,5102,28673,14647,3106,65600,65728,6,6,4,1460,219375,1,996,550000,33580,0,65700,0,0,0,2752649754,63
o,1724817465.669768,172.16.5.2,27491,172.16.1.2,5102,28673,14647,3106,65728,65728,6,6,4,1460,219375,1,997,550000,33580,0,65700,0,0,0,2752649754,63
o,1724817465.784256,172.16.5.2,44940,172.16.1.2,5102,28673,14480,2082,65535,65700,6,6,4,1460,227187,1,16778209,580000,33580,0,65700,0,0,0,3011636552,63
o,1724817465.784415,172.16.5.2,44940,172.16.1.2,5102,28673,14480,2082,65535,65700,6,6,4,1460,227187,1,16778208,580000,33580,37,65700,0,0,0,3011636552,63
i,1724817465.975219,172.16.5.2,27491,172.16.1.2,5102,28673,14647,3106,65728,65728,6,6,4,1460,219375,1,996,550000,33580,0,65700,0,0,0,2752649754,63
i,1724817465.975307,172.16.5.2,27491,172.16.1.2,5102,28673,14647,3106,65728,65728,6,6,4,1460,219375,1,996,550000,33580,0,65700,1,0,0,2752649754,63
o,1724817465.975330,172.16.5.2,27491,172.16.1.2,5102,28673,14480,3106,65728,65728,6,6,4,1460,219375,1,997,550000,33580,0,65700,2,0,0,2752649754,63
o,1724817465.975842,172.16.5.2,44940,172.16.1.2,5102,28673,14480,2086,65535,65700,6,6,4,1460,227187,1,16778208,580000,33580,33580,65700,0,37,0,3011636552,63
i,1724817466.017377,172.16.5.2,44940,172.16.1.2,5102,28673,14480,2086,65535,65700,6,6,4,1460,227187,1,16778208,580000,33580,33580,65700,0,13069,0,3011636552,63
o,1724817466.017487,172.16.5.2,44940,172.16.1.2,5102,28673,14517,2086,65728,65728,6,6,4,1460,227812,1,16778208,550000,33580,33543,65700,0,13032,0,3011636552,63
i,1724817466.161691,172.16.5.2,44940,172.16.1.2,5102,28673,14517,2086,65728,65728,6,6,4,1460,227812,1,16778208,550000,33580,33543,65700,0,14480,0,3011636552,63
o,1724817466.161729,172.16.5.2,44940,172.16.1.2,5102,28673,17413,2086,62848,65728,6,6,4,1460,221875,1,16778208,560000,33580,30647,65700,0,11584,0,3011636552,63
i,1724817466.161969,172.16.5.2,44940,172.16.1.2,5102,28673,17413,2086,62848,65728,6,6,4,1460,221875,1,16778208,560000,41772,30647,65700,0,17376,0,3011636552,63
o,1724817466.161988,172.16.5.2,44940,172.16.1.2,5102,28673,20309,2086,64256,65728,6,6,4,1460,216875,1,16778208,560000,41772,27751,65700,0,14480,0,3011636552,63
i,1724817466.162170,172.16.5.2,44940,172.16.1.2,5102,28673,20309,2086,64256,65728,6,6,4,1460,216875,1,16778208,560000,41772,27751,65700,0,20272,0,3011636552,63
o,1724817466.162187,172.16.5.2,44940,172.16.1.2,5102,28673,23205,2086,62848,65728,6,6,4,1460,212500,1,16778208,560000,41772,24855,65700,0,17376,0,3011636552,63
i,1724817466.181451,172.16.5.2,44940,172.16.1.2,5102,28673,23205,2086,62848,65728,6,6,4,1460,212500,1,16778208,560000,49964,49964,65700,0,23168,0,3011636552,63
o,1724817466.181533,172.16.5.2,44940,172.16.1.2,5102,28673,26101,2086,64256,65728,6,6,4,1460,210937,1,16778208,530000,49964,47068,65700,0,20272,0,3011636552,63
i,1724817466.210387,172.16.5.2,44940,172.16.1.2,5102,28673,26101,2086,64256,65728,6,6,4,1460,210937,1,16778208,530000,58156,58156,65700,0,26064,0,3011636552,63
o,1724817466.210411,172.16.5.2,44940,172.16.1.2,5102,28673,28997,2086,64256,65728,6,6,4,1460,213437,1,16778208,520000,58156,55260,65700,0,23168,0,3011636552,63
o,1724817466.210568,172.16.5.2,44940,172.16.1.2,5102,28673,28997,2086,64256,65728,6,6,4,1460,213437,1,16778208,520000,58156,55260,65700,0,24616,0,3011636552,63
i,1724817466.343181,172.16.5.2,44940,172.16.1.2,5102,28673,28997,2086,64256,65728,6,6,4,1460,213437,1,16778208,520000,66348,66348,65700,0,28960,0,3011636552,63
o,1724817466.343212,172.16.5.2,44940,172.16.1.2,5102,28673,28997,2086,62848,65728,6,6,4,1460,209375,1,16778208,520000,66348,63452,65700,0,26064,0,3011636552,63
i,1724817466.343335,172.16.5.2,44940,172.16.1.2,5102,28673,28997,2086,62848,65728,6,6,4,1460,209375,1,16778208,520000,66348,63452,65700,0,28960,0,3011636552,63
o,1724817466.343608,172.16.5.2,44940,172.16.1.2,5102,28673,28997,2086,59968,65728,6,6,4,1460,205937,1,16778208,520000,66348,60556,65700,0,26064,0,3011636552,63
i,1724817466.372848,172.16.5.2,44940,172.16.1.2,5102,28673,28997,2086,59968,65728,6,6,4,1460,205937,1,16778208,520000,66348,66348,65700,0,28960,0,3011636552,63
o,1724817466.372929,172.16.5.2,44940,172.16.1.2,5102,28673,28997,2086,62848,65728,6,6,4,1460,206562,1,16778208,500000,66348,63452,65700,0,26064,0,3011636552,63
i,1724817466.373114,172.16.5.2,44940,172.16.1.2,5102,28673,28997,2086,62848,65728,6,6,4,1460,206562,1,16778208,500000,66348,63452,65700,0,28960,0,3011636552,63
o,1724817466.373131,172.16.5.2,44940,172.16.1.2,5102,28673,28997,2086,59968,65728,6,6,4,1460,207187,1,16778208,480000,66348,60556,65700,0,26064,0,3011636552,63
i,1724817466.393907,172.16.5.2,44940,172.16.1.2,5102,28673,28997,2086,59968,65728,6,6,4,1460,207187,1,16778208,480000,66348,66348,65700,0,28960,0,3011636552,63
o,1724817466.393994,172.16.5.2,44940,172.16.1.2,5102,28673,28997,2086,62848,65728,6,6,4,1460,210312,1,16778208,490000,66348,63452,65700,0,26064,0,3011636552,63
i,1724817466.394121,172.16.5.2,44940,172.16.1.2,5102,28673,28997,2086,62848,65728,6,6,4,1460,210312,1,16778208,490000,66348,63452,65700,0,28960,0,3011636552,63
o,1724817466.394137,172.16.5.2,44940,172.16.1.2,5102,28673,28997,2086,64256,65728,6,6,4,1460,212812,1,16778208,490000,66348,60556,65700,0,26064,0,3011636552,63
i,1724817466.396109,172.16.5.2,44940,172.16.1.2,5102,28673,28997,2086,64256,65728,6,6,4,1460,212812,1,16778208,490000,66348,66348,65700,0,28960,0,3011636552,63
o,1724817466.396171,172.16.5.2,44940,172.16.1.2,5102,28673,28997,2086,62848,65728,6,6,4,1460,212500,1,16778208,480000,66348,63452,65700,0,26064,0,3011636552,63
i,1724817466.396310,172.16.5.2,44940,172.16.1.2,5102,28673,28997,2086,62848,65728,6,6,4,1460,212500,1,16778208,480000,66348,63452,65700,0,28960,0,3011636552,63
o,1724817466.396326,172.16.5.2,44940,172.16.1.2,5102,28673,28997,2086,62848,65728,6,6,4,1460,212187,1,16778208,460000,66348,60556,65700,0,26064,0,3011636552,63
i,1724817466.427998,172.16.5.2,44940,172.16.1.2,5102,28673,28997,2086,62848,65728,6,6,4,1460,212187,1,16778208,460000,66348,66348,65700,0,28960,0,3011636552,63
o,1724817466.428020,172.16.5.2,44940,172.16.1.2,5102,28673,28997,2086,64256,65728,6,6,4,1460,213437,1,16778208,460000,66348,63452,65700,0,26064,0,3011636552,63
o,1724817466.428159,172.16.5.2,44940,172.16.1.2,5102,28673,28997,2086,64256,65728,6,6,4,1460,213437,1,16778208,460000,66348,63452,65700,0,27512,0,3011636552,63
i,1724817466.428299,172.16.5.2,44940,172.16.1.2,5102,28673,28997,2086,64256,65728,6,6,4,1460,213437,1,16778208,460000,66348,63452,65700,0,28960,0,3011636552,63
o,1724817466.428332,172.16.5.2,44940,172.16.1.2,5102,28673,28997,2086,64256,65728,6,6,4,1460,214375,1,16778208,460000,66348,60556,65700,0,26064,0,3011636552,63
i,1724817466.543726,172.16.5.2,44940,172.16.1.2,5102,28673,28997,2086,64256,65728,6,6,4,1460,214375,1,16778208,460000,66348,66348,65700,0,28960,0,3011636552,63
o,1724817466.543767,172.16.5.2,44940,172.16.1.2,5102,28673,30457,2086,95680,65728,6,6,4,1460,212812,1,16778208,460000,66348,63452,65700,0,26064,0,3011636552,63
i,1724817466.543960,172.16.5.2,44940,172.16.1.2,5102,28673,30457,2086,95680,65728,6,6,4,1460,212812,1,16778208,460000,66348,63452,65700,0,30408,0,3011636552,63
o,1724817466.543981,172.16.5.2,44940,172.16.1.2,5102,28673,30457,2086,95680,65728,6,6,4,1460,211250,1,16778208,460000,66348,60556,65700,0,27512,0,3011636552,63
i,1724817466.572781,172.16.5.2,44940,172.16.1.2,5102,28673,30457,2086,95680,65728,6,6,4,1460,211250,1,16778208,460000,74540,74540,65700,0,30408,0,3011636552,63
o,1724817466.572872,172.16.5.2,44940,172.16.1.2,5102,28673,30457,2086,97152,65728,6,6,4,1460,210000,1,16778208,450000,74540,71644,65700,0,27512,0,3011636552,63
i,1724817466.573176,172.16.5.2,44940,172.16.1.2,5102,28673,30457,2086,97152,65728,6,6,4,1460,210000,1,16778208,450000,74540,71644,65700,0,30408,0,3011636552,63
o,1724817466.573195,172.16.5.2,44940,172.16.1.2,5102,28673,30457,2086,94272,65728,6,6,4,1460,208750,1,16778208,450000,74540,68748,65700,0,27512,0,3011636552,63
i,1724817466.593814,172.16.5.2,44940,172.16.1.2,5102,28673,30457,2086,94272,65728,6,6,4,1460,208750,1,16778208,450000,74540,74540,65700,0,30408,0,3011636552,63
o,1724817466.593843,172.16.5.2,44940,172.16.1.2,5102,28673,30457,2086,95680,65728,6,6,4,1460,207812,1,16778208,450000,74540,71644,65700,0,27512,0,3011636552,63
i,1724817466.594768,172.16.5.2,44940,172.16.1.2,5102,28673,30457,2086,95680,65728,6,6,4,1460,207812,1,16778208,450000,74540,73152,65700,0,30408,0,3011636552,63
o,1724817466.594789,172.16.5.2,44940,172.16.1.2,5102,28673,30457,2086,95680,65728,6,6,4,1460,206875,1,16778208,440000,74540,70256,65700,0,27512,0,3011636552,63
i,1724817466.594949,172.16.5.2,44940,172.16.1.2,5102,28673,30457,2086,95680,65728,6,6,4,1460,206875,1,16778208,440000,74540,70256,65700,0,30408,0,3011636552,63
o,1724817466.594967,172.16.5.2,44940,172.16.1.2,5102,28673,30457,2086,95680,65728,6,6,4,1460,206250,1,16778208,440000,74540,67360,65700,0,27512,0,3011636552,63
i,1724817466.595210,172.16.5.2,44940,172.16.1.2,5102,28673,30457,2086,95680,65728,6,6,4,1460,206250,1,16778208,440000,74540,67360,65700,0,30408,0,3011636552,63
o,1724817466.595229,172.16.5.2,44940,172.16.1.2,5102,28673,30457,2086,95680,65728,6,6,4,1460,205625,1,16778208,440000,74540,64464,65700,0,27512,0,3011636552,63
i,1724817466.624655,172.16.5.2,44940,172.16.1.2,5102,28673,30457,2086,95680,65728,6,6,4,1460,205625,1,16778208,440000,74540,74540,65700,0,30408,0,3011636552,63
o,1724817466.624691,172.16.5.2,44940,172.16.1.2,5102,28673,30457,2086,95680,65728,6,6,4,1460,205000,1,16778208,430000,74540,71644,65700,0,27512,0,3011636552,63
o,1724817466.624860,172.16.5.2,44940,172.16.1.2,5102,28673,30457,2086,95680,65728,6,6,4,1460,205000,1,16778208,430000,74540,71644,65700,0,28960,0,3011636552,63
i,1724817466.625007,172.16.5.2,44940,172.16.1.2,5102,28673,30457,2086,95680,65728,6,6,4,1460,205000,1,16778208,430000,74540,71644,65700,0,30408,0,3011636552,63
o,1724817466.625023,172.16.5.2,44940,172.16.1.2,5102,28673,30457,2086,92800,65728,6,6,4,1460,204375,1,16778208,430000,74540,68748,65700,0,27512,0,3011636552,63
i,1724817466.738360,172.16.5.2,44940,172.16.1.2,5102,28673,30457,2086,92800,65728,6,6,4,1460,204375,1,16778208,430000,74540,74540,65700,0,30408,0,3011636552,63
o,1724817466.738441,172.16.5.2,44940,172.16.1.2,5102,28673,31917,2086,97152,65728,6,6,4,1460,202812,1,16778208,430000,74540,71644,65700,0,27512,0,3011636552,63
i,1724817466.738633,172.16.5.2,44940,172.16.1.2,5102,28673,31917,2086,97152,65728,6,6,4,1460,202812,1,16778208,430000,74540,71644,65700,0,31856,0,3011636552,63
o,1724817466.738649,172.16.5.2,44940,172.16.1.2,5102,28673,31917,2086,95680,65728,6,6,4,1460,201250,1,16778208,440000,74540,68748,65700,0,28960,0,3011636552,63
i,1724817466.769166,172.16.5.2,44940,172.16.1.2,5102,28673,31917,2086,95680,65728,6,6,4,1460,201250,1,16778208,440000,74540,74540,65700,0,31856,0,3011636552,63
o,1724817466.769240,172.16.5.2,44940,172.16.1.2,5102,28673,31917,2086,97152,65728,6,6,4,1460,203750,1,16778208,450000,74540,71644,65700,0,28960,0,3011636552,63
i,1724817466.769406,172.16.5.2,44940,172.16.1.2,5102,28673,31917,2086,97152,65728,6,6,4,1460,203750,1,16778208,450000,74540,71644,65700,0,31856,0,3011636552,63
o,1724817466.769423,172.16.5.2,44940,172.16.1.2,5102,28673,31917,2086,97152,65728,6,6,4,1460,203437,1,16778208,440000,74540,68748,65700,0,28960,0,3011636552,63
i,1724817466.784659,172.16.5.2,44940,172.16.1.2,5102,28673,31917,2086,97152,65728,6,6,4,1460,203437,1,16778208,440000,74540,74540,65700,0,31856,0,3011636552,63
o,1724817466.784682,172.16.5.2,44940,172.16.1.2,5102,28673,31917,2086,97152,65728,6,6,4,1460,205625,1,16778208,450000,74540,71644,65700,0,28960,0,3011636552,63
i,1724817466.784863,172.16.5.2,44940,172.16.1.2,5102,28673,31917,2086,97152,65728,6,6,4,1460,205625,1,16778208,450000,74540,71644,65700,0,31856,0,3011636552,63
o,1724817466.784881,172.16.5.2,44940,172.16.1.2,5102,28673,31917,2086,97152,65728,6,6,4,1460,203750,1,16778208,450000,74540,68748,65700,0,28960,0,3011636552,63
i,1724817466.785137,172.16.5.2,44940,172.16.1.2,5102,28673,31917,2086,97152,65728,6,6,4,1460,203750,1,16778208,450000,74540,68748,65700,0,31856,0,3011636552,63
o,1724817466.785155,172.16.5.2,44940,172.16.1.2,5102,28673,31917,2086,97152,65728,6,6,4,1460,202187,1,16778208,450000,74540,65852,65700,0,28960,0,3011636552,63
i,1724817466.785327,172.16.5.2,44940,172.16.1.2,5102,28673,31917,2086,97152,65728,6,6,4,1460,202187,1,16778208,450000,74540,65852,65700,0,31856,0,3011636552,63
o,1724817466.785346,172.16.5.2,44940,172.16.1.2,5102,28673,31917,2086,94272,65728,6,6,4,1460,200937,1,16778208,450000,74540,62956,65700,0,28960,0,3011636552,63
i,1724817466.815026,172.16.5.2,44940,172.16.1.2,5102,28673,31917,2086,94272,65728,6,6,4,1460,200937,1,16778208,450000,74540,74540,65700,0,31856,0,3011636552,63
o,1724817466.815049,172.16.5.2,44940,172.16.1.2,5102,28673,31917,2086,97152,65728,6,6,4,1460,203437,1,16778208,460000,74540,71644,65700,0,28960,0,3011636552,63
o,1724817466.815249,172.16.5.2,44940,172.16.1.2,5102,28673,31917,2086,97152,65728,6,6,4,1460,203437,1,16778208,460000,74540,71644,65700,0,30408,0,3011636552,63
i,1724817466.815399,172.16.5.2,44940,172.16.1.2,5102,28673,31917,2086,97152,65728,6,6,4,1460,203437,1,16778208,460000,74540,71644,65700,0,31856,0,3011636552,63
o,1724817466.815415,172.16.5.2,44940,172.16.1.2,5102,28673,31917,2086,97152,65728,6,6,4,1460,201875,1,16778208,450000,74540,68748,65700,0,28960,0,3011636552,63
i,1724817466.846719,172.16.5.2,44940,172.16.1.2,5102,28673,31917,2086,97152,65728,6,6,4,1460,201875,1,16778208,450000,74540,74540,65700,0,31856,0,3011636552,63
o,1724817466.846786,172.16.5.2,44940,172.16.1.2,5102,28673,31917,2086,98560,65728,6,6,4,1460,204375,1,16778208,460000,74540,73092,65700,0,30408,0,3011636552,63
i,1724817466.933526,172.16.5.2,44940,172.16.1.2,5102,28673,31917,2086,98560,65728,6,6,4,1460,204375,1,16778208,460000,74540,73092,65700,0,31856,0,3011636552,63
o,1724817466.933562,172.16.5.2,44940,172.16.1.2,5102,28673,31917,2086,95680,65728,6,6,4,1460,202812,1,16778208,460000,74540,70196,65700,0,28960,0,3011636552,63
i,1724817466.933728,172.16.5.2,44940,172.16.1.2,5102,28673,31917,2086,95680,65728,6,6,4,1460,202812,1,16778208,460000,74540,70196,65700,0,31856,0,3011636552,63
o,1724817466.933745,172.16.5.2,44940,172.16.1.2,5102,28673,33377,2086,92800,65728,6,6,4,1460,201250,1,16778208,460000,74540,67300,65700,0,28960,0,3011636552,63
i,1724817466.963199,172.16.5.2,44940,172.16.1.2,5102,28673,33377,2086,92800,65728,6,6,4,1460,201250,1,16778208,460000,74540,74540,65700,0,33304,0,3011636552,63
o,1724817466.963234,172.16.5.2,44940,172.16.1.2,5102,28673,33377,2086,95680,65728,6,6,4,1460,203750,1,16778208,460000,74540,71644,65700,0,30408,0,3011636552,63
i,1724817466.963689,172.16.5.2,44940,172.16.1.2,5102,28673,33377,2086,95680,65728,6,6,4,1460,203750,1,16778208,460000,74540,71644,65700,0,33304,0,3011636552,63
o,1724817466.963710,172.16.5.2,44940,172.16.1.2,5102,28673,33377,2086,97152,65728,6,6,4,1460,202187,1,16778208,460000,74540,68748,65700,0,30408,0,3011636552,63
i,1724817466.983438,172.16.5.2,44940,172.16.1.2,5102,28673,33377,2086,97152,65728,6,6,4,1460,202187,1,16778208,460000,74540,74540,65700,0,33304,0,3011636552,63
o,1724817466.983475,172.16.5.2,44940,172.16.1.2,5102,28673,33377,2086,97152,65728,6,6,4,1460,203437,1,16778208,460000,74540,71644,65700,0,30408,0,3011636552,63
i,1724817466.983652,172.16.5.2,44940,172.16.1.2,5102,28673,33377,2086,97152,65728,6,6,4,1460,203437,1,16778208,460000,74540,71644,65700,0,33304,0,3011636552,63
o,1724817466.983674,172.16.5.2,44940,172.16.1.2,5102,28673,33377,2086,94272,65728,6,6,4,1460,201875,1,16778208,450000,74540,68748,65700,0,30408,0,3011636552,63
i,1724817466.983823,172.16.5.2,44940,172.16.1.2,5102,28673,33377,2086,94272,65728,6,6,4,1460,201875,1,16778208,450000,74540,68748,65700,0,33304,0,3011636552,63
o,1724817466.983841,172.16.5.2,44940,172.16.1.2,5102,28673,33377,2086,97152,65728,6,6,4,1460,200625,1,16778208,450000,74540,65852,65700,0,30408,0,3011636552,63
i,1724817466.984397,172.16.5.2,44940,172.16.1.2,5102,28673,33377,2086,97152,65728,6,6,4,1460,200625,1,16778208,450000,82732,65852,65700,0,33304,0,3011636552,63
o,1724817466.984416,172.16.5.2,44940,172.16.1.2,5102,28673,33377,2086,94272,65728,6,6,4,1460,199375,1,16778208,450000,82732,62956,65700,0,30408,0,3011636552,63
i,1724817467.016558,172.16.5.2,44940,172.16.1.2,5102,28673,33377,2086,94272,65728,6,6,4,1460,199375,1,16778208,450000,82732,82732,65700,0,33304,0,3011636552,63
o,1724817467.016585,172.16.5.2,44940,172.16.1.2,5102,28673,33377,2086,97152,65728,6,6,4,1460,203437,1,16778208,470000,82732,79836,65700,0,30408,0,3011636552,63
o,1724817467.016743,172.16.5.2,44940,172.16.1.2,5102,28673,33377,2086,97152,65728,6,6,4,1460,203437,1,16778208,470000,82732,79836,65700,0,31856,0,3011636552,63
i,1724817467.016896,172.16.5.2,44940,172.16.1.2,5102,28673,33377,2086,97152,65728,6,6,4,1460,203437,1,16778208,470000,82732,79836,65700,0,33304,0,3011636552,63
o,1724817467.016916,172.16.5.2,44940,172.16.1.2,5102,28673,33377,2086,97152,65728,6,6,4,1460,203125,1,16778208,460000,82732,76940,65700,0,30408,0,3011636552,63
i,1724817467.034645,172.16.5.2,44940,172.16.1.2,5102,28673,33377,2086,97152,65728,6,6,4,1460,203125,1,16778208,460000,82732,82732,65700,0,33304,0,3011636552,63
o,1724817467.034669,172.16.5.2,44940,172.16.1.2,5102,28673,33377,2086,97152,65728,6,6,4,1460,205312,1,16778208,460000,82732,79836,65700,0,30408,0,3011636552,63
i,1724817467.145852,172.16.5.2,44940,172.16.1.2,5102,28673,33377,2086,97152,65728,6,6,4,1460,205312,1,16778208,460000,82732,82732,65700,0,33304,0,3011636552,63
o,1724817467.145894,172.16.5.2,44940,172.16.1.2,5102,28673,33377,2086,95680,65728,6,6,4,1460,205937,1,16778208,450000,82732,79836,65700,0,30408,0,3011636552,63
i,1724817467.146075,172.16.5.2,44940,172.16.1.2,5102,28673,33377,2086,95680,65728,6,6,4,1460,205937,1,16778208,450000,82732,79836,65700,0,33304,0,3011636552,63
o,1724817467.146095,172.16.5.2,44940,172.16.1.2,5102,28673,34837,2086,97152,65728,6,6,4,1460,206562,1,16778208,450000,82732,76940,65700,0,30408,0,3011636552,63
i,1724817467.146280,172.16.5.2,44940,172.16.1.2,5102,28673,34837,2086,97152,65728,6,6,4,1460,206562,1,16778208,450000,82732,76940,65700,0,34752,0,3011636552,63
o,1724817467.146298,172.16.5.2,44940,172.16.1.2,5102,28673,34837,2086,95680,65728,6,6,4,1460,207187,1,16778208,440000,82732,74044,65700,0,31856,0,3011636552,63
i,1724817467.146455,172.16.5.2,44940,172.16.1.2,5102,28673,34837,2086,95680,65728,6,6,4,1460,207187,1,16778208,440000,82732,74044,65700,0,34752,0,3011636552,63
o,1724817467.146481,172.16.5.2,44940,172.16.1.2,5102,28673,34837,2086,95680,65728,6,6,4,1460,205312,1,16778208,450000,82732,71148,65700,0,31856,0,3011636552,63
i,1724817467.166098,172.16.5.2,44940,172.16.1.2,5102,28673,34837,2086,95680,65728,6,6,4,1460,205312,1,16778208,450000,82732,82732,65700,0,34752,0,3011636552,63
o,1724817467.166123,172.16.5.2,44940,172.16.1.2,5102,28673,34837,2086,97152,65728,6,6,4,1460,204687,1,16778208,440000,82732,79836,65700,0,31856,0,3011636552,63
i,1724817467.166267,172.16.5.2,44940,172.16.1.2,5102,28673,34837,2086,97152,65728,6,6,4,1460,204687,1,16778208,440000,82732,79836,65700,0,34752,0,3011636552,63
o,1724817467.166284,172.16.5.2,44940,172.16.1.2,5102,28673,34837,2086,97152,65728,6,6,4,1460,201875,1,16778208,450000,82732,76940,65700,0,31856,0,3011636552,63
i,1724817467.166426,172.16.5.2,44940,172.16.1.2,5102,28673,34837,2086,97152,65728,6,6,4,1460,201875,1,16778208,450000,82732,76940,65700,0,34752,0,3011636552,63
o,1724817467.166448,172.16.5.2,44940,172.16.1.2,5102,28673,34837,2086,97152,65728,6,6,4,1460,199375,1,16778208,450000,82732,74044,65700,0,31856,0,3011636552,63
i,1724817467.166605,172.16.5.2,44940,172.16.1.2,5102,28673,34837,2086,97152,65728,6,6,4,1460,199375,1,16778208,450000,82732,74044,65700,0,34752,0,3011636552,63
o,1724817467.166621,172.16.5.2,44940,172.16.1.2,5102,28673,34837,2086,94272,65728,6,6,4,1460,197187,1,16778208,450000,82732,71148,65700,0,31856,0,3011636552,63
i,1724817467.200745,172.16.5.2,44940,172.16.1.2,5102,28673,34837,2086,94272,65728,6,6,4,1460,197187,1,16778208,450000,82732,82732,65700,0,34752,0,3011636552,63
o,1724817467.200840,172.16.5.2,44940,172.16.1.2,5102,28673,34837,2086,97152,65728,6,6,4,1460,199062,1,16778208,460000,82732,79836,65700,0,31856,0,3011636552,63
o,1724817467.201013,172.16.5.2,44940,172.16.1.2,5102,28673,34837,2086,97152,65728,6,6,4,1460,199062,1,16778208,460000,82732,79836,65700,0,33304,0,3011636552,63
i,1724817467.201160,172.16.5.2,44940,172.16.1.2,5102,28673,34837,2086,97152,65728,6,6,4,1460,199062,1,16778208,460000,82732,79836,65700,0,34752,0,3011636552,63
o,1724817467.201196,172.16.5.2,44940,172.16.1.2,5102,28673,34837,2086,94272,65728,6,6,4,1460,196875,1,16778208,460000,82732,76940,65700,0,31856,0,3011636552,63
i,1724817467.210515,172.16.5.2,44940,172.16.1.2,5102,28673,34837,2086,94272,65728,6,6,4,1460,196875,1,16778208,460000,82732,82732,65700,0,34752,0,3011636552,63
o,1724817467.210643,172.16.5.2,44940,172.16.1.2,5102,28673,34837,2086,97152,65728,6,6,4,1460,196250,1,16778208,450000,82732,79836,65700,0,31856,0,3011636552,63
i,1724817467.254782,172.16.5.2,44940,172.16.1.2,5102,28673,34837,2086,97152,65728,6,6,4,1460,196250,1,16778208,450000,82732,82732,65700,0,34752,0,3011636552,63
o,1724817467.254866,172.16.5.2,44940,172.16.1.2,5102,28673,34837,2086,98560,65728,6,6,4,1460,199375,1,16778208,460000,82732,81284,65700,0,33304,0,3011636552,63
i,1724817467.320016,172.16.5.2,44940,172.16.1.2,5102,28673,34837,2086,98560,65728,6,6,4,1460,199375,1,16778208,460000,82732,81284,65700,0,34752,0,3011636552,63
o,1724817467.320098,172.16.5.2,44940,172.16.1.2,5102,28673,34837,2086,95680,65728,6,6,4,1460,195937,1,16778208,470000,82732,78388,65700,0,31856,0,3011636552,63
i,1724817467.320275,172.16.5.2,44940,172.16.1.2,5102,28673,34837,2086,95680,65728,6,6,4,1460,195937,1,16778208,470000,82732,78388,65700,0,34752,0,3011636552,63
o,1724817467.320291,172.16.5.2,44940,172.16.1.2,5102,28673,34837,2086,97152,65728,6,6,4,1460,192812,1,16778208,470000,82732,75492,65700,0,31856,0,3011636552,63
i,1724817467.339482,172.16.5.2,44940,172.16.1.2,5102,28673,34837,2086,97152,65728,6,6,4,1460,192812,1,16778208,470000,82732,82732,65700,0,34752,0,3011636552,63
o,1724817467.339512,172.16.5.2,44940,172.16.1.2,5102,28673,36297,2086,95680,65728,6,6,4,1460,192500,1,16778208,460000,82732,79836,65700,0,31856,0,3011636552,63
i,1724817467.339688,172.16.5.2,44940,172.16.1.2,5102,28673,36297,2086,95680,65728,6,6,4,1460,192500,1,16778208,460000,82732,79836,65700,0,36200,0,3011636552,63
o,1724817467.339704,172.16.5.2,44940,172.16.1.2,5102,28673,36297,2086,97152,65728,6,6,4,1460,192187,1,16778208,440000,82732,76940,65700,0,33304,0,3011636552,63
i,1724817467.340546,172.16.5.2,44940,172.16.1.2,5102,28673,36297,2086,97152,65728,6,6,4,1460,192187,1,16778208,440000,82732,82592,65700,0,36200,0,3011636552,63
o,1724817467.340564,172.16.5.2,44940,172.16.1.2,5102,28673,36297,2086,97152,65728,6,6,4,1460,192187,1,16778208,430000,82732,79696,65700,0,33304,0,3011636552,63
i,1724817467.341567,172.16.5.2,44940,172.16.1.2,5102,28673,36297,2086,97152,65728,6,6,4,1460,192187,1,16778208,430000,82732,82732,65700,0,36200,0,3011636552,63
o,1724817467.341587,172.16.5.2,44940,172.16.1.2,5102,28673,36297,2086,97152,65728,6,6,4,1460,189687,1,16778208,440000,82732,79836,65700,0,33304,0,3011636552,63
i,1724817467.378876,172.16.5.2,44940,172.16.1.2,5102,28673,36297,2086,97152,65728,6,6,4,1460,189687,1,16778208,440000,82732,82732,65700,0,36200,0,3011636552,63
o,1724817467.378908,172.16.5.2,44940,172.16.1.2,5102,28673,36297,2086,97152,65728,6,6,4,1460,192500,1,16778208,450000,82732,79836,65700,0,33304,0,3011636552,63
i,1724817467.379084,172.16.5.2,44940,172.16.1.2,5102,28673,36297,2086,97152,65728,6,6,4,1460,192500,1,16778208,450000,82732,79836,65700,0,36200,0,3011636552,63
o,1724817467.379103,172.16.5.2,44940,172.16.1.2,5102,28673,36297,2086,94272,65728,6,6,4,1460,194687,1,16778208,450000,82732,76940,65700,0,33304,0,3011636552,63
i,1724817467.398927,172.16.5.2,44940,172.16.1.2,5102,28673,36297,2086,94272,65728,6,6,4,1460,194687,1,16778208,450000,82732,82732,65700,0,36200,0,3011636552,63
o,1724817467.399006,172.16.5.2,44940,172.16.1.2,5102,28673,36297,2086,97152,65728,6,6,4,1460,199375,1,16778208,480000,82732,79836,65700,0,33304,0,3011636552,63
o,1724817467.399161,172.16.5.2,44940,172.16.1.2,5102,28673,36297,2086,97152,65728,6,6,4,1460,199375,1,16778208,480000,82732,79836,65700,0,34752,0,3011636552,63
i,1724817467.399305,172.16.5.2,44940,172.16.1.2,5102,28673,36297,2086,97152,65728,6,6,4,1460,199375,1,16778208,480000,82732,79836,65700,0,36200,0,3011636552,63
o,1724817467.399322,172.16.5.2,44940,172.16.1.2,5102,28673,36297,2086,97152,65728,6,6,4,1460,199687,1,16778208,460000,82732,76940,65700,0,33304,0,3011636552,63
i,1724817467.414257,172.16.5.2,44940,172.16.1.2,5102,28673,36297,2086,97152,65728,6,6,4,1460,199687,1,16778208,460000,82732,82732,65700,0,36200,0,3011636552,63
o,1724817467.414357,172.16.5.2,44940,172.16.1.2,5102,28673,36297,2086,97152,65728,6,6,4,1460,202500,1,16778208,470000,82732,79836,65700,0,33304,0,3011636552,63
i,1724817467.444812,172.16.5.2,44940,172.16.1.2,5102,28673,36297,2086,97152,65728,6,6,4,1460,202500,1,16778208,470000,82732,82732,65700,0,36200,0,3011636552,63
o,1724817467.444846,172.16.5.2,44940,172.16.1.2,5102,28673,36297,2086,97152,65728,6,6,4,1460,207187,1,16778208,500000,82732,79836,65700,0,33304,0,3011636552,63
i,1724817467.506605,172.16.5.2,44940,172.16.1.2,5102,28673,36297,2086,97152,65728,6,6,4,1460,207187,1,16778208,500000,82732,82732,65700,0,36200,0,3011636552,63
o,1724817467.506646,172.16.5.2,44940,172.16.1.2,5102,28673,36297,2086,95680,65728,6,6,4,1460,205312,1,16778208,490000,82732,79836,65700,0,33304,0,3011636552,63
i,1724817467.521651,172.16.5.2,44940,172.16.1.2,5102,28673,36297,2086,95680,65728,6,6,4,1460,205312,1,16778208,490000,82732,82732,65700,0,36200,0,3011636552,63
o,1724817467.521673,172.16.5.2,44940,172.16.1.2,5102,28673,36297,2086,97152,65728,6,6,4,1460,204687,1,16778208,470000,82732,79836,65700,0,33304,0,3011636552,63
i,1724817467.542691,172.16.5.2,44940,172.16.1.2,5102,28673,36297,2086,97152,65728,6,6,4,1460,204687,1,16778208,470000,82732,82732,65700,0,36200,0,3011636552,63
o,1724817467.542723,172.16.5.2,44940,172.16.1.2,5102,28673,37757,2086,95680,65728,6,6,4,1460,204375,1,16778208,460000,82732,79836,65700,0,33304,0,3011636552,63
i,1724817467.542976,172.16.5.2,44940,172.16.1.2,5102,28673,37757,2086,95680,65728,6,6,4,1460,204375,1,16778208,460000,82732,79836,65700,0,37648,0,3011636552,63
o,1724817467.542995,172.16.5.2,44940,172.16.1.2,5102,28673,37757,2086,95680,65728,6,6,4,1460,204062,1,16778208,450000,82732,76940,65700,0,34752,0,3011636552,63
i,1724817467.543413,172.16.5.2,44940,172.16.1.2,5102,28673,37757,2086,95680,65728,6,6,4,1460,204062,1,16778208,450000,82732,76940,65700,0,37648,0,3011636552,63
o,1724817467.543430,172.16.5.2,44940,172.16.1.2,5102,28673,37757,2086,95680,65728,6,6,4,1460,203750,1,16778208,440000,82732,74044,65700,0,34752,0,3011636552,63
i,1724817467.552725,172.16.5.2,44940,172.16.1.2,5102,28673,37757,2086,95680,65728,6,6,4,1460,203750,1,16778208,440000,90924,90924,65700,0,37648,0,3011636552,63
o,1724817467.552825,172.16.5.2,44940,172.16.1.2,5102,28673,37757,2086,97152,65728,6,6,4,1460,203437,1,16778208,430000,90924,88028,65700,0,34752,0,3011636552,63
i,1724817467.564760,172.16.5.2,44940,172.16.1.2,5102,28673,37757,2086,97152,65728,6,6,4,1460,203437,1,16778208,430000,90924,90924,65700,0,37648,0,3011636552,63
o,1724817467.564784,172.16.5.2,44940,172.16.1.2,5102,28673,37757,2086,95680,65728,6,6,4,1460,206875,1,16778208,450000,90924,88028,65700,0,34752,0,3011636552,63
i,1724817467.564911,172.16.5.2,44940,172.16.1.2,5102,28673,37757,2086,95680,65728,6,6,4,1460,206875,1,16778208,450000,90924,88028,65700,0,37648,0,3011636552,63
o,1724817467.564927,172.16.5.2,44940,172.16.1.2,5102,28673,37757,2086,92800,65728,6,6,4,1460,205000,1,16778208,460000,90924,85132,65700,0,34752,0,3011636552,63
i,1724817467.584849,172.16.5.2,44940,172.16.1.2,5102,28673,37757,2086,92800,65728,6,6,4,1460,205000,1,16778208,460000,90924,90924,65700,0,37648,0,3011636552,63
o,1724817467.584941,172.16.5.2,44940,172.16.1.2,5102,28673,37757,2086,97152,65728,6,6,4,1460,205625,1,16778208,450000,90924,88028,65700,0,34752,0,3011636552,63
o,1724817467.585080,172.16.5.2,44940,172.16.1.2,5102,28673,37757,2086,97152,65728,6,6,4,1460,205625,1,16778208,450000,90924,88028,65700,0,36200,0,3011636552,63
i,1724817467.585218,172.16.5.2,44940,172.16.1.2,5102,28673,37757,2086,97152,65728,6,6,4,1460,205625,1,16778208,450000,90924,88028,65700,0,37648,0,3011636552,63
o,1724817467.585235,172.16.5.2,44940,172.16.1.2,5102,28673,37757,2086,97152,65728,6,6,4,1460,203750,1,16778208,450000,90924,85132,65700,0,34752,0,3011636552,63
i,1724817467.608768,172.16.5.2,44940,172.16.1.2,5102,28673,37757,2086,97152,65728,6,6,4,1460,203750,1,16778208,450000,90924,90924,65700,0,37648,0,3011636552,63
o,1724817467.608873,172.16.5.2,44940,172.16.1.2,5102,28673,37757,2086,97152,65728,6,6,4,1460,204687,1,16778208,450000,90924,88028,65700,0,34752,0,3011636552,63
i,1724817467.637835,172.16.5.2,44940,172.16.1.2,5102,28673,37757,2086,97152,65728,6,6,4,1460,204687,1,16778208,450000,90924,90924,65700,0,37648,0,3011636552,63
o,1724817467.637913,172.16.5.2,44940,172.16.1.2,5102,28673,37757,2086,97152,65728,6,6,4,1460,206875,1,16778208,460000,90924,88028,65700,0,34752,0,3011636552,63
i,1724817467.667114,172.16.5.2,44940,172.16.1.2,5102,28673,37757,2086,97152,65728,6,6,4,1460,206875,1,16778208,460000,90924,90924,65700,0,37648,0,3011636552,63
o,1724817467.667143,172.16.5.2,44940,172.16.1.2,5102,28673,37757,2086,98560,65728,6,6,4,1460,208750,1,16778208,460000,90924,89476,65700,0,36200,0,3011636552,63
i,1724817467.695607,172.16.5.2,44940,172.16.1.2,5102,28673,37757,2086,98560,65728,6,6,4,1460,208750,1,16778208,460000,90924,89476,65700,0,37648,0,3011636552,63
o,1724817467.695701,172.16.5.2,44940,172.16.1.2,5102,28673,37757,2086,97152,65728,6,6,4,1460,206562,1,16778208,460000,90924,86580,65700,0,34752,0,3011636552,63
i,1724817467.715119,172.16.5.2,44940,172.16.1.2,5102,28673,37757,2086,97152,65728,6,6,4,1460,206562,1,16778208,460000,90924,90924,65700,0,37648,0,3011636552,63
o,1724817467.715177,172.16.5.2,44940,172.16.1.2,5102,28673,37757,2086,97152,65728,6,6,4,1460,205937,1,16778208,450000,90924,88028,65700,0,34752,0,3011636552,63
i,1724817467.730460,172.16.5.2,44940,172.16.1.2,5102,28673,37757,2086,97152,65728,6,6,4,1460,205937,1,16778208,450000,90924,90924,65700,0,37648,0,3011636552,63
o,1724817467.730496,172.16.5.2,44940,172.16.1.2,5102,28673,37757,2086,95680,65728,6,6,4,1460,204062,1,16778208,450000,90924,88028,65700,0,34752,0,3011636552,63
i,1724817467.730683,172.16.5.2,44940,172.16.1.2,5102,28673,37757,2086,95680,65728,6,6,4,1460,204062,1,16778208,450000,90924,88028,65700,0,37648,0,3011636552,63
o,1724817467.730702,172.16.5.2,44940,172.16.1.2,5102,28673,39217,2086,92800,65728,6,6,4,1460,202500,1,16778208,450000,90924,85132,65700,0,34752,0,3011636552,63
i,1724817467.732305,172.16.5.2,44940,172.16.1.2,5102,28673,39217,2086,92800,65728,6,6,4,1460,202500,1,16778208,450000,90924,90924,65700,0,39096,0,3011636552,63
o,1724817467.732326,172.16.5.2,44940,172.16.1.2,5102,28673,39217,2086,95680,65728,6,6,4,1460,200937,1,16778208,450000,90924,88028,65700,0,36200,0,3011636552,63
i,1724817467.732554,172.16.5.2,44940,172.16.1.2,5102,28673,39217,2086,95680,65728,6,6,4,1460,200937,1,16778208,450000,90924,88028,65700,0,39096,0,3011636552,63
o,1724817467.732579,172.16.5.2,44940,172.16.1.2,5102,28673,39217,2086,95680,65728,6,6,4,1460,198437,1,16778208,460000,90924,85132,65700,0,36200,0,3011636552,63
i,1724817467.761815,172.16.5.2,44940,172.16.1.2,5102,28673,39217,2086,95680,65728,6,6,4,1460,198437,1,16778208,460000,90924,90924,65700,0,39096,0,3011636552,63
o,1724817467.762438,172.16.5.2,44940,172.16.1.2,5102,28673,39217,2086,95680,65728,6,6,4,1460,200000,1,16778208,460000,90924,88028,65700,0,36200,0,3011636552,63
i,1724817467.762651,172.16.5.2,44940,172.16.1.2,5102,28673,39217,2086,95680,65728,6,6,4,1460,200000,1,16778208,460000,90924,88028,65700,0,39096,0,3011636552,63
o,1724817467.762690,172.16.5.2,44940,172.16.1.2,5102,28673,39217,2086,97152,65728,6,6,4,1460,198750,1,16778208,450000,90924,85132,65700,0,36200,0,3011636552,63
i,1724817467.780259,172.16.5.2,44940,172.16.1.2,5102,28673,39217,2086,97152,65728,6,6,4,1460,198750,1,16778208,450000,90924,90924,65700,0,39096,0,3011636552,63
o,1724817467.780286,172.16.5.2,44940,172.16.1.2,5102,28673,39217,2086,97152,65728,6,6,4,1460,200312,1,16778208,450000,90924,88028,65700,0,36200,0,3011636552,63
o,1724817467.780400,172.16.5.2,44940,172.16.1.2,5102,28673,39217,2086,97152,65728,6,6,4,1460,200312,1,16778208,450000,90924,88028,65700,0,37648,0,3011636552,63
i,1724817467.780576,172.16.5.2,44940,172.16.1.2,5102,28673,39217,2086,97152,65728,6,6,4,1460,200312,1,16778208,450000,90924,88028,65700,0,39096,0,3011636552,63
o,1724817467.780593,172.16.5.2,44940,172.16.1.2,5102,28673,39217,2086,97152,65728,6,6,4,1460,199062,1,16778208,450000,90924,85132,65700,0,36200,0,3011636552,63
i,1724817467.800843,172.16.5.2,44940,172.16.1.2,5102,28673,39217,2086,97152,65728,6,6,4,1460,199062,1,16778208,450000,90924,90924,65700,0,39096,0,3011636552,63
o,1724817467.800883,172.16.5.2,44940,172.16.1.2,5102,28673,39217,2086,97152,65728,6,6,4,1460,200625,1,16778208,450000,90924,88028,65700,0,36200,0,3011636552,63
i,1724817467.834267,172.16.5.2,44940,172.16.1.2,5102,28673,39217,2086,97152,65728,6,6,4,1460,200625,1,16778208,450000,90924,90924,65700,0,39096,0,3011636552,63
o,1724817467.834400,172.16.5.2,44940,172.16.1.2,5102,28673,39217,2086,97152,65728,6,6,4,1460,204375,1,16778208,470000,90924,88028,65700,0,36200,0,3011636552,63
i,1724817467.866682,172.16.5.2,44940,172.16.1.2,5102,28673,39217,2086,97152,65728,6,6,4,1460,204375,1,16778208,470000,90924,90924,65700,0,39096,0,3011636552,63
o,1724817467.866782,172.16.5.2,44940,172.16.1.2,5102,28673,39217,2086,97152,65728,6,6,4,1460,207812,1,16778208,480000,90924,88028,65700,0,36200,0,3011636552,63
i,1724817467.895146,172.16.5.2,44940,172.16.1.2,5102,28673,39217,2086,97152,65728,6,6,4,1460,207812,1,16778208,480000,90924,90924,65700,0,39096,0,3011636552,63
o,1724817467.895267,172.16.5.2,44940,172.16.1.2,5102,28673,39217,2086,95680,65728,6,6,4,1460,206875,1,16778208,470000,90924,88028,65700,0,36200,0,3011636552,63
i,1724817467.915967,172.16.5.2,44940,172.16.1.2,5102,28673,39217,2086,95680,65728,6,6,4,1460,206875,1,16778208,470000,90924,90924,65700,0,39096,0,3011636552,63
o,1724817467.916110,172.16.5.2,44940,172.16.1.2,5102,28673,39217,2086,97152,65728,6,6,4,1460,206250,1,16778208,460000,90924,88028,65700,0,36200,0,3011636552,63
i,1724817467.935389,172.16.5.2,44940,172.16.1.2,5102,28673,39217,2086,97152,65728,6,6,4,1460,206250,1,16778208,460000,90924,90924,65700,0,39096,0,3011636552,63
o,1724817467.935553,172.16.5.2,44940,172.16.1.2,5102,28673,39217,2086,95680,65728,6,6,4,1460,206875,1,16778208,450000,90924,88028,65700,0,36200,0,3011636552,63
i,1724817467.935742,172.16.5.2,44940,172.16.1.2,5102,28673,39217,2086,95680,65728,6,6,4,1460,206875,1,16778208,450000,90924,88028,65700,0,39096,0,3011636552,63
o,1724817467.935763,172.16.5.2,44940,172.16.1.2,5102,28673,40677,2086,92800,65728,6,6,4,1460,207500,1,16778208,450000,90924,85132,65700,0,36200,0,3011636552,63
i,1724817467.935914,172.16.5.2,44940,172.16.1.2,5102,28673,40677,2086,92800,65728,6,6,4,1460,207500,1,16778208,450000,90924,85132,65700,0,40544,0,3011636552,63
o,1724817467.935931,172.16.5.2,44940,172.16.1.2,5102,28673,40677,2086,95680,65728,6,6,4,1460,207812,1,16778208,440000,90924,82236,65700,0,37648,0,3011636552,63
i,1724817467.937280,172.16.5.2,44940,172.16.1.2,5102,28673,40677,2086,95680,65728,6,6,4,1460,207812,1,16778208,440000,90924,90924,65700,0,40544,0,3011636552,63
o,1724817467.937309,172.16.5.2,44940,172.16.1.2,5102,28673,40677,2086,97152,65728,6,6,4,1460,208125,1,16778208,430000,90924,88028,65700,0,37648,0,3011636552,63
i,1724817467.966006,172.16.5.2,44940,172.16.1.2,5102,28673,40677,2086,97152,65728,6,6,4,1460,208125,1,16778208,430000,90924,90924,65700,0,40544,0,3011636552,63
o,1724817467.966040,172.16.5.2,44940,172.16.1.2,5102,28673,40677,2086,97152,65728,6,6,4,1460,212187,1,16778208,460000,90924,88028,65700,0,37648,0,3011636552,63
i,1724817467.966319,172.16.5.2,44940,172.16.1.2,5102,28673,40677,2086,97152,65728,6,6,4,1460,212187,1,16778208,460000,90924,88028,65700,0,40544,0,3011636552,63
o,1724817467.966350,172.16.5.2,44940,172.16.1.2,5102,28673,40677,2086,94272,65728,6,6,4,1460,212187,1,16778208,450000,90924,85132,65700,0,37648,0,3011636552,63
i,1724817467.985935,172.16.5.2,44940,172.16.1.2,5102,28673,40677,2086,94272,65728,6,6,4,1460,212187,1,16778208,450000,90924,90924,65700,0,40544,0,3011636552,63
o,1724817467.985969,172.16.5.2,44940,172.16.1.2,5102,28673,40677,2086,97152,65728,6,6,4,1460,214687,1,16778208,460000,90924,88028,65700,0,37648,0,3011636552,63
o,1724817467.986136,172.16.5.2,44940,172.16.1.2,5102,28673,40677,2086,97152,65728,6,6,4,1460,214687,1,16778208,460000,90924,88028,65700,0,39096,0,3011636552,63
i,1724817467.986300,172.16.5.2,44940,172.16.1.2,5102,28673,40677,2086,97152,65728,6,6,4,1460,214687,1,16778208,460000,90924,88028,65700,0,40544,0,3011636552,63
o,1724817467.986319,172.16.5.2,44940,172.16.1.2,5102,28673,40677,2086,97152,65728,6,6,4,1460,214375,1,16778208,450000,90924,85132,65700,0,37648,0,3011636552,63
i,1724817468.004239,172.16.5.2,44940,172.16.1.2,5102,28673,40677,2086,97152,65728,6,6,4,1460,214375,1,16778208,450000,90924,90924,65700,0,40544,0,3011636552,63
o,1724817468.004268,172.16.5.2,44940,172.16.1.2,5102,28673,40677,2086,97152,65728,6,6,4,1460,215312,1,16778208,450000,90924,88028,65700,0,37648,0,3011636552,63
i,1724817468.037846,172.16.5.2,44940,172.16.1.2,5102,28673,40677,2086,97152,65728,6,6,4,1460,215312,1,16778208,450000,90924,90924,65700,0,40544,0,3011636552,63
o,1724817468.037911,172.16.5.2,44940,172.16.1.2,5102,28673,40677,2086,97152,65728,6,6,4,1460,218437,1,16778208,470000,90924,88028,65700,0,37648,0,3011636552,63
i,1724817468.067956,172.16.5.2,44940,172.16.1.2,5102,28673,40677,2086,97152,65728,6,6,4,1460,218437,1,16778208,470000,90924,90924,65700,0,40544,0,3011636552,63
o,1724817468.067997,172.16.5.2,44940,172.16.1.2,5102,28673,40677,2086,97152,65728,6,6,4,1460,220000,1,16778208,470000,90924,88028,65700,0,37648,0,3011636552,63
i,1724817468.098783,172.16.5.2,44940,172.16.1.2,5102,28673,40677,2086,97152,65728,6,6,4,1460,220000,1,16778208,470000,90924,90924,65700,0,40544,0,3011636552,63
o,1724817468.098900,172.16.5.2,44940,172.16.1.2,5102,28673,40677,2086,97152,65728,6,6,4,1460,221250,1,16778208,470000,90924,88028,65700,0,37648,0,3011636552,63
i,1724817468.116179,172.16.5.2,44940,172.16.1.2,5102,28673,40677,2086,97152,65728,6,6,4,1460,221250,1,16778208,470000,90924,90924,65700,0,40544,0,3011636552,63
o,1724817468.116219,172.16.5.2,44940,172.16.1.2,5102,28673,40677,2086,97152,65728,6,6,4,1460,221250,1,16778208,460000,90924,88028,65700,0,37648,0,3011636552,63
i,1724817468.135352,172.16.5.2,44940,172.16.1.2,5102,28673,40677,2086,97152,65728,6,6,4,1460,221250,1,16778208,460000,90924,90924,65700,0,40544,0,3011636552,63
o,1724817468.135385,172.16.5.2,44940,172.16.1.2,5102,28673,40677,2086,97152,65728,6,6,4,1460,221250,1,16778208,450000,90924,88028,65700,0,37648,0,3011636552,63
i,1724817468.135605,172.16.5.2,44940,172.16.1.2,5102,28673,40677,2086,97152,65728,6,6,4,1460,221250,1,16778208,450000,90924,88028,65700,0,40544,0,3011636552,63
o,1724817468.135623,172.16.5.2,44940,172.16.1.2,5102,28673,40677,2086,94272,65728,6,6,4,1460,218750,1,16778208,460000,90924,85132,65700,0,37648,0,3011636552,63
i,1724817468.146694,172.16.5.2,44940,172.16.1.2,5102,28673,40677,2086,94272,65728,6,6,4,1460,218750,1,16778208,460000,90924,90924,65700,0,40544,0,3011636552,63
o,1724817468.146729,172.16.5.2,44940,172.16.1.2,5102,28673,42137,2086,97152,65728,6,6,4,1460,217812,1,16778208,450000,90924,88028,65700,0,37648,0,3011636552,63
i,1724817468.146872,172.16.5.2,44940,172.16.1.2,5102,28673,42137,2086,97152,65728,6,6,4,1460,217812,1,16778208,450000,90924,88028,65700,0,41992,0,3011636552,63
o,1724817468.146889,172.16.5.2,44940,172.16.1.2,5102,28673,42137,2086,94272,65728,6,6,4,1460,216875,1,16778208,450000,90924,85132,65700,0,39096,0,3011636552,63
i,1724817468.166445,172.16.5.2,44940,172.16.1.2,5102,28673,42137,2086,94272,65728,6,6,4,1460,216875,1,16778208,450000,90924,90924,65700,0,41992,0,3011636552,63
o,1724817468.166472,172.16.5.2,44940,172.16.1.2,5102,28673,42137,2086,97152,65728,6,6,4,1460,218750,1,16778208,460000,90924,88028,65700,0,39096,0,3011636552,63
i,1724817468.166626,172.16.5.2,44940,172.16.1.2,5102,28673,42137,2086,97152,65728,6,6,4,1460,218750,1,16778208,460000,90924,88028,65700,0,41992,0,3011636552,63
o,1724817468.166644,172.16.5.2,44940,172.16.1.2,5102,28673,42137,2086,94272,65728,6,6,4,1460,216562,1,16778208,460000,90924,85132,65700,0,39096,0,3011636552,63
i,1724817468.166783,172.16.5.2,44940,172.16.1.2,5102,28673,42137,2086,94272,65728,6,6,4,1460,216562,1,16778208,460000,90924,85132,65700,0,41992,0,3011636552,63
o,1724817468.166802,172.16.5.2,44940,172.16.1.2,5102,28673,42137,2086,91392,65728,6,6,4,1460,214687,1,16778208,460000,90924,82236,65700,0,39096,0,3011636552,63
i,1724817468.194253,172.16.5.2,44940,172.16.1.2,5102,28673,42137,2086,91392,65728,6,6,4,1460,214687,1,16778208,460000,99116,99116,65700,0,41992,0,3011636552,63
o,1724817468.194346,172.16.5.2,44940,172.16.1.2,5102,28673,42137,2086,95680,65728,6,6,4,1460,214375,1,16778208,450000,99116,96220,65700,0,39096,0,3011636552,63
o,1724817468.194510,172.16.5.2,44940,172.16.1.2,5102,28673,42137,2086,95680,65728,6,6,4,1460,214375,1,16778208,450000,99116,96220,65700,0,40544,0,3011636552,63
i,1724817468.194682,172.16.5.2,44940,172.16.1.2,5102,28673,42137,2086,95680,65728,6,6,4,1460,214375,1,16778208,450000,99116,96220,65700,0,41992,0,3011636552,63
o,1724817468.194701,172.16.5.2,44940,172.16.1.2,5102,28673,42137,2086,97152,65728,6,6,4,1460,214062,1,16778208,450000,99116,93324,65700,0,39096,0,3011636552,63
i,1724817468.214874,172.16.5.2,44940,172.16.1.2,5102,28673,42137,2086,97152,65728,6,6,4,1460,214062,1,16778208,450000,99116,99116,65700,0,41992,0,3011636552,63
o,1724817468.214915,172.16.5.2,44940,172.16.1.2,5102,28673,42137,2086,95680,65728,6,6,4,1460,213750,1,16778208,440000,99116,96220,65700,0,39096,0,3011636552,63
i,1724817468.243267,172.16.5.2,44940,172.16.1.2,5102,28673,42137,2086,95680,65728,6,6,4,1460,213750,1,16778208,440000,99116,99116,65700,0,41992,0,3011636552,63
o,1724817468.243281,172.16.5.2,44940,172.16.1.2,5102,28673,42137,2086,97152,65728,6,6,4,1460,212187,1,16778208,440000,99116,96220,65700,0,39096,0,3011636552,63
i,1724817468.278096,172.16.5.2,44940,172.16.1.2,5102,28673,42137,2086,97152,65728,6,6,4,1460,212187,1,16778208,440000,99116,99116,65700,0,41992,0,3011636552,63
o,1724817468.278178,172.16.5.2,44940,172.16.1.2,5102,28673,42137,2086,97152,65728,6,6,4,1460,212187,1,16778208,440000,99116,96220,65700,0,39096,0,3011636552,63
i,1724817468.292626,172.16.5.2,44940,172.16.1.2,5102,28673,42137,2086,97152,65728,6,6,4,1460,212187,1,16778208,440000,99116,99116,65700,0,41992,0,3011636552,63
o,1724817468.292653,172.16.5.2,44940,172.16.1.2,5102,28673,42137,2086,95680,65728,6,6,4,1460,209687,1,16778208,450000,99116,96220,65700,0,39096,0,3011636552,63
i,1724817468.323936,172.16.5.2,44940,172.16.1.2,5102,28673,42137,2086,95680,65728,6,6,4,1460,209687,1,16778208,450000,99116,99116,65700,0,41992,0,3011636552,63
o,1724817468.324068,172.16.5.2,44940,172.16.1.2,5102,28673,42137,2086,95680,65728,6,6,4,1460,208750,1,16778208,440000,99116,96220,65700,0,39096,0,3011636552,63
i,1724817468.340899,172.16.5.2,44940,172.16.1.2,5102,28673,42137,2086,95680,65728,6,6,4,1460,208750,1,16778208,440000,99116,99116,65700,0,41992,0,3011636552,63
o,1724817468.340942,172.16.5.2,44940,172.16.1.2,5102,28673,42137,2086,95680,65728,6,6,4,1460,207812,1,16778208,440000,99116,96220,65700,0,39096,0,3011636552,63
i,1724817468.341192,172.16.5.2,44940,172.16.1.2,5102,28673,42137,2086,95680,65728,6,6,4,1460,207812,1,16778208,440000,99116,96220,65700,0,41992,0,3011636552,63
o,1724817468.341216,172.16.5.2,44940,172.16.1.2,5102,28673,42137,2086,95680,65728,6,6,4,1460,206875,1,16778208,440000,99116,93324,65700,0,39096,0,3011636552,63
i,1724817468.342799,172.16.5.2,44940,172.16.1.2,5102,28673,42137,2086,95680,65728,6,6,4,1460,206875,1,16778208,440000,99116,99116,65700,0,41992,0,3011636552,63
o,1724817468.342835,172.16.5.2,44940,172.16.1.2,5102,28673,42137,2086,95680,65728,6,6,4,1460,205000,1,16778208,450000,99116,96220,65700,0,39096,0,3011636552,63
i,1724817468.352746,172.16.5.2,44940,172.16.1.2,5102,28673,42137,2086,95680,65728,6,6,4,1460,205000,1,16778208,450000,99116,99116,65700,0,41992,0,3011636552,63
o,1724817468.352851,172.16.5.2,44940,172.16.1.2,5102,28673,43597,2086,92800,65728,6,6,4,1460,203125,1,16778208,450000,99116,96220,65700,0,39096,0,3011636552,63
i,1724817468.373450,172.16.5.2,44940,172.16.1.2,5102,28673,43597,2086,92800,65728,6,6,4,1460,203125,1,16778208,450000,99116,99116,65700,0,43440,0,3011636552,63
o,1724817468.373483,172.16.5.2,44940,172.16.1.2,5102,28673,43597,2086,95680,65728,6,6,4,1460,205312,1,16778208,460000,99116,96220,65700,0,40544,0,3011636552,63
i,1724817468.373650,172.16.5.2,44940,172.16.1.2,5102,28673,43597,2086,95680,65728,6,6,4,1460,205312,1,16778208,460000,99116,96220,65700,0,43440,0,3011636552,63
o,1724817468.373669,172.16.5.2,44940,172.16.1.2,5102,28673,43597,2086,97152,65728,6,6,4,1460,204687,1,16778208,450000,99116,93324,65700,0,40544,0,3011636552,63
i,1724817468.373840,172.16.5.2,44940,172.16.1.2,5102,28673,43597,2086,97152,65728,6,6,4,1460,204687,1,16778208,450000,99116,93324,65700,0,43440,0,3011636552,63
o,1724817468.373889,172.16.5.2,44940,172.16.1.2,5102,28673,43597,2086,97152,65728,6,6,4,1460,204375,1,16778208,440000,99116,90428,65700,0,40544,0,3011636552,63
i,1724817468.394463,172.16.5.2,44940,172.16.1.2,5102,28673,43597,2086,97152,65728,6,6,4,1460,204375,1,16778208,440000,99116,99116,65700,0,43440,0,3011636552,63
o,1724817468.394500,172.16.5.2,44940,172.16.1.2,5102,28673,43597,2086,97152,65728,6,6,4,1460,207812,1,16778208,460000,99116,96220,65700,0,40544,0,3011636552,63
