enable_time_secs=1724817635	enable_time_usecs=884956	siftrver=1.3.0	sysname=FreeBSD	sysver=1401000	ipmode=4
o,1724817635.885303,10.0.2.15,22,10.0.2.2,51098,1073725440,17746,1026,65535,65700,0,0,4,1460,312,0,16777220,240000,33580,172,65700,0,0,0,2848403908,63
o,1724817635.885474,10.0.2.15,22,10.0.2.2,51098,1073725440,17746,1026,65535,65700,0,0,4,1460,312,0,16777220,240000,33580,244,65700,0,172,0,2848403908,63
i,1724817635.885844,10.0.2.15,22,10.0.2.2,51098,1073725440,17746,1026,65535,65700,0,0,4,1460,312,0,16777220,240000,33580,244,65700,0,244,0,2848403908,63
i,1724817635.885871,10.0.2.15,22,10.0.2.2,51098,1073725440,17918,1026,65535,65700,0,0,4,1460,312,0,4,240000,33580,72,65700,0,72,0,2848403908,63
i,1724817635.885887,10.0.2.15,22,10.0.2.2,51098,1073725440,17990,1026,65535,65700,0,0,4,1460,312,0,4,240000,33580,0,65700,0,0,0,2848403908,63
i,1724817635.885902,10.0.2.15,22,10.0.2.2,51098,1073725440,17990,1026,65535,65700,0,0,4,1460,312,0,4,240000,33580,0,65700,96,0,0,2848403908,63
o,1724817635.885920,10.0.2.15,22,10.0.2.2,51098,1073725440,17990,1026,65535,65604,0,0,5,1460,312,0,5,240000,33580,0,65700,96,0,0,2848403908,63
o,1724817635.886459,10.0.2.15,22,10.0.2.2,51098,1073725440,17990,1026,65535,65604,0,0,8,1460,312,0,4,240000,33580,0,65700,0,0,0,2848403908,63
i,1724817635.886965,10.0.2.15,22,10.0.2.2,51098,1073725440,17990,1026,65535,65604,0,0,8,1460,312,0,67108884,240000,33580,0,65700,0,1,0,2848403908,63
i,1724817639.046459,10.0.2.15,22,10.0.2.2,51110,1073725440,14600,0,65535,65700,0,0,4,1460,312,0,16777216,270000,33580,0,65700,0,0,0,3399150218,63
o,1724817639.060088,10.0.2.15,22,10.0.2.2,51110,1073725440,14600,1026,65535,65700,0,0,4,1460,312,0,16777216,270000,33580,38,65700,42,0,0,3399150218,63
i,1724817639.060769,10.0.2.15,22,10.0.2.2,51110,1073725440,14600,1026,65535,65700,0,0,4,1460,312,0,16777216,270000,33580,38,65700,0,38,0,3399150218,63
i,1724817639.060833,10.0.2.15,22,10.0.2.2,51110,1073725440,14638,1026,65535,65700,0,0,4,1460,312,0,0,240000,33580,0,65700,0,0,0,3399150218,63
i,1724817639.060884,10.0.2.15,22,10.0.2.2,51110,1073725440,14638,1026,65535,65700,0,0,4,1460,312,0,0,240000,33580,0,65700,1460,0,0,3399150218,63
o,1724817639.060907,10.0.2.15,22,10.0.2.2,51110,1073725440,14638,1026,65535,65700,0,0,4,1460,312,0,1,240000,33580,0,65700,1536,0,0,3399150218,63
o,1724817639.061933,10.0.2.15,22,10.0.2.2,51110,1073725440,14638,1026,65535,65700,0,0,4,1460,312,0,16777216,240000,33580,1120,65700,1536,0,0,3399150218,63
i,1724817639.062391,10.0.2.15,22,10.0.2.2,51110,1073725440,14638,1026,65535,65700,0,0,4,1460,312,0,16777216,240000,33580,1120,65700,0,1120,0,3399150218,63
i,1724817639.063563,10.0.2.15,22,10.0.2.2,51110,1073725440,15758,1026,65535,65700,0,0,4,1460,312,0,0,240000,33580,0,65700,0,0,0,3399150218,63
o,1724817639.066650,10.0.2.15,22,10.0.2.2,51110,1073725440,15758,1026,65535,65700,0,0,4,1460,312,0,16777216,240000,33580,492,65700,0,0,0,3399150218,63
i,1724817639.067115,10.0.2.15,22,10.0.2.2,51110,1073725440,15758,1026,65535,65700,0,0,4,1460,312,0,16777216,240000,33580,492,65700,0,492,0,3399150218,63
i,1724817639.071688,10.0.2.15,22,10.0.2.2,51110,1073725440,16250,1026,65535,65700,0,0,4,1460,312,0,0,240000,33580,0,65700,0,0,0,3399150218,63
i,1724817639.071709,10.0.2.15,22,10.0.2.2,51110,1073725440,16250,1026,65535,65700,0,0,4,1460,312,0,0,240000,33580,0,65700,16,0,0,3399150218,63
o,1724817639.071728,10.0.2.15,22,10.0.2.2,51110,1073725440,16250,1026,65535,65700,0,0,4,1460,312,0,1,240000,33580,0,65700,60,0,0,3399150218,63
o,1724817639.071976,10.0.2.15,22,10.0.2.2,51110,1073725440,16250,1026,65535,65700,0,0,4,1460,312,0,16777216,240000,33580,44,65700,0,0,0,3399150218,63
i,1724817639.074466,10.0.2.15,22,10.0.2.2,51110,1073725440,16250,1026,65535,65700,0,0,4,1460,312,0,16777216,240000,33580,44,65700,0,44,0,3399150218,63
i,1724817639.074488,10.0.2.15,22,10.0.2.2,51110,1073725440,16294,1026,65535,65700,0,0,4,1460,312,0,0,230000,33580,0,65700,0,0,0,3399150218,63
o,1724817639.075503,10.0.2.15,22,10.0.2.2,51110,1073725440,16294,1026,65535,65700,0,0,4,1460,312,0,16777216,230000,33580,68,65700,0,0,0,3399150218,63
i,1724817639.076004,10.0.2.15,22,10.0.2.2,51110,1073725440,16294,1026,65535,65700,0,0,4,1460,312,0,16777216,230000,33580,68,65700,0,68,0,3399150218,63
i,1724817639.076029,10.0.2.15,22,10.0.2.2,51110,1073725440,16362,1026,65535,65700,0,0,4,1460,312,0,0,230000,33580,0,65700,0,0,0,3399150218,63
o,1724817639.077045,10.0.2.15,22,10.0.2.2,51110,1073725440,16362,1026,65535,65700,0,0,4,1460,312,0,16777216,230000,33580,332,65700,0,0,0,3399150218,63
i,1724817639.077822,10.0.2.15,22,10.0.2.2,51110,1073725440,16362,1026,65535,65700,0,0,4,1460,312,0,16777216,230000,33580,332,65700,0,332,0,3399150218,63
i,1724817639.079074,10.0.2.15,22,10.0.2.2,51110,1073725440,16694,1026,65535,65700,0,0,4,1460,312,0,0,230000,33580,0,65700,0,0,0,3399150218,63
o,1724817639.097737,10.0.2.15,22,10.0.2.2,51110,1073725440,16694,1026,65535,65700,0,0,4,1460,312,0,16777216,230000,33580,28,65700,0,0,0,3399150218,63
i,1724817639.098287,10.0.2.15,22,10.0.2.2,51110,1073725440,16694,1026,65535,65700,0,0,4,1460,312,0,16777216,230000,33580,28,65700,0,28,0,3399150218,63
i,1724817639.098793,10.0.2.15,22,10.0.2.2,51110,1073725440,16722,1026,65535,65700,0,0,4,1460,312,0,0,230000,33580,0,65700,0,0,0,3399150218,63
o,1724817639.099861,10.0.2.15,22,10.0.2.2,51110,1073725440,16722,1026,65535,65700,0,0,4,1460,312,0,16777216,230000,33580,768,65700,112,0,0,3399150218,63
i,1724817639.100248,10.0.2.15,22,10.0.2.2,51110,1073725440,16722,1026,65535,65700,0,0,4,1460,312,0,16777216,230000,33580,908,65700,112,768,0,3399150218,63
o,1724817639.100270,10.0.2.15,22,10.0.2.2,51110,1073725440,17490,1026,65535,65700,0,0,4,1460,312,0,16777216,240000,33580,140,65700,112,0,0,3399150218,63
i,1724817639.100705,10.0.2.15,22,10.0.2.2,51110,1073725440,17490,1026,65535,65700,0,0,4,1460,312,0,16777216,240000,33580,140,65700,112,140,0,3399150218,63
o,1724817639.100940,10.0.2.15,22,10.0.2.2,51110,1073725440,17630,1026,65535,65700,0,0,4,1460,312,0,16777216,240000,33580,44,65700,0,0,0,3399150218,63
i,1724817639.101499,10.0.2.15,22,10.0.2.2,51110,1073725440,17630,1026,65535,65700,0,0,4,1460,312,0,16777216,240000,33580,44,65700,0,44,0,3399150218,63
i,1724817639.101522,10.0.2.15,22,10.0.2.2,51110,1073725440,17674,1026,65535,65700,0,0,4,1460,312,0,0,240000,33580,0,65700,0,0,0,3399150218,63
o,1724817639.102879,10.0.2.15,22,10.0.2.2,51110,1073725440,17674,1026,65535,65700,0,0,4,1460,312,0,16777220,240000,33580,72,65700,0,0,0,3399150218,63
i,1724817639.103539,10.0.2.15,22,10.0.2.2,51110,1073725440,17674,1026,65535,65700,0,0,4,1460,312,0,16777220,240000,33580,72,65700,0,72,0,3399150218,63
o,1724817639.106489,10.0.2.15,22,10.0.2.2,51110,1073725440,17746,1026,65535,65700,0,0,4,1460,312,0,16777220,230000,33580,104,65700,0,0,0,3399150218,63
i,1724817639.106936,10.0.2.15,22,10.0.2.2,51110,1073725440,17746,1026,65535,65700,0,0,4,1460,312,0,16777220,230000,33580,104,65700,0,104,0,3399150218,63
o,1724817639.109971,10.0.2.15,22,10.0.2.2,51110,1073725440,17850,1026,65535,65700,0,0,4,1460,312,0,16777220,230000,33580,72,65700,0,0,0,3399150218,63
i,1724817639.110999,10.0.2.15,22,10.0.2.2,51110,1073725440,17850,1026,65535,65700,0,0,4,1460,312,0,16777220,230000,33580,72,65700,0,72,0,3399150218,63
i,1724817639.111063,10.0.2.15,22,10.0.2.2,51110,1073725440,17922,1026,65535,65700,0,0,4,1460,312,0,4,230000,33580,0,65700,0,0,0,3399150218,63
i,1724817639.111084,10.0.2.15,22,10.0.2.2,51110,1073725440,17922,1026,65535,65700,0,0,4,1460,312,0,4,230000,33580,0,65700,96,0,0,3399150218,63
o,1724817639.111110,10.0.2.15,22,10.0.2.2,51110,1073725440,17922,1026,65535,65604,0,0,5,1460,312,0,5,230000,33580,0,65700,96,0,0,3399150218,63
o,1724817639.120168,10.0.2.15,22,10.0.2.2,51110,1073725440,17922,1026,65535,65604,0,0,8,1460,312,0,4,230000,33580,0,65700,0,0,0,3399150218,63
i,1724817639.122546,10.0.2.15,22,10.0.2.2,51110,1073725440,17922,1026,65535,65604,0,0,8,1460,312,0,67108884,230000,33580,0,65700,0,1,0,3399150218,63
i,1724817640.175444,10.0.2.15,22,10.0.2.2,51100,1073725440,14600,0,65535,65700,0,0,4,1460,312,0,16777216,270000,33580,0,65700,0,0,0,1364960222,63
o,1724817640.188712,10.0.2.15,22,10.0.2.2,51100,1073725440,14600,1026,65535,65700,0,0,4,1460,312,0,16777216,270000,33580,38,65700,42,0,0,1364960222,63
i,1724817640.189841,10.0.2.15,22,10.0.2.2,51100,1073725440,14600,1026,65535,65700,0,0,4,1460,312,0,16777216,270000,33580,38,65700,0,38,0,1364960222,63
i,1724817640.189886,10.0.2.15,22,10.0.2.2,51100,1073725440,14638,1026,65535,65700,0,0,4,1460,312,0,0,240000,33580,0,65700,0,0,0,1364960222,63
i,1724817640.189904,10.0.2.15,22,10.0.2.2,51100,1073725440,14638,1026,65535,65700,0,0,4,1460,312,0,0,240000,33580,0,65700,1460,0,0,1364960222,63
o,1724817640.189924,10.0.2.15,22,10.0.2.2,51100,1073725440,14638,1026,65535,65700,0,0,4,1460,312,0,1,240000,33580,0,65700,1536,0,0,1364960222,63
o,1724817640.191604,10.0.2.15,22,10.0.2.2,51100,1073725440,14638,1026,65535,65700,0,0,4,1460,312,0,16777216,240000,33580,1120,65700,1536,0,0,1364960222,63
i,1724817640.192526,10.0.2.15,22,10.0.2.2,51100,1073725440,14638,1026,65535,65700,0,0,4,1460,312,0,16777216,240000,33580,1120,65700,0,1120,0,1364960222,63
i,1724817640.193663,10.0.2.15,22,10.0.2.2,51100,1073725440,15758,1026,65535,65700,0,0,4,1460,312,0,0,240000,33580,0,65700,0,0,0,1364960222,63
o,1724817640.197027,10.0.2.15,22,10.0.2.2,51100,1073725440,15758,1026,65535,65700,0,0,4,1460,312,0,16777216,240000,33580,492,65700,0,0,0,1364960222,63
i,1724817640.197833,10.0.2.15,22,10.0.2.2,51100,1073725440,15758,1026,65535,65700,0,0,4,1460,312,0,16777216,240000,33580,492,65700,0,492,0,1364960222,63
i,1724817640.202128,10.0.2.15,22,10.0.2.2,51100,1073725440,16250,1026,65535,65700,0,0,4,1460,312,0,0,240000,33580,0,65700,0,0,0,1364960222,63
i,1724817640.202147,10.0.2.15,22,10.0.2.2,51100,1073725440,16250,1026,65535,65700,0,0,4,1460,312,0,0,240000,33580,0,65700,16,0,0,1364960222,63
o,1724817640.202165,10.0.2.15,22,10.0.2.2,51100,1073725440,16250,1026,65535,65700,0,0,4,1460,312,0,1,240000,33580,0,65700,60,0,0,1364960222,63
o,1724817640.202342,10.0.2.15,22,10.0.2.2,51100,1073725440,16250,1026,65535,65700,0,0,4,1460,312,0,16777216,240000,33580,44,65700,0,0,0,1364960222,63
i,1724817640.203471,10.0.2.15,22,10.0.2.2,51100,1073725440,16250,1026,65535,65700,0,0,4,1460,312,0,16777216,240000,33580,44,65700,0,44,0,1364960222,63
i,1724817640.203489,10.0.2.15,22,10.0.2.2,51100,1073725440,16294,1026,65535,65700,0,0,4,1460,312,0,0,230000,33580,0,65700,0,0,0,1364960222,63
o,1724817640.205565,10.0.2.15,22,10.0.2.2,51100,1073725440,16294,1026,65535,65700,0,0,4,1460,312,0,16777216,230000,33580,68,65700,0,0,0,1364960222,63
i,1724817640.206436,10.0.2.15,22,10.0.2.2,51100,1073725440,16294,1026,65535,65700,0,0,4,1460,312,0,16777216,230000,33580,68,65700,0,68,0,1364960222,63
i,1724817640.206459,10.0.2.15,22,10.0.2.2,51100,1073725440,16362,1026,65535,65700,0,0,4,1460,312,0,0,230000,33580,0,65700,0,0,0,1364960222,63
o,1724817640.208573,10.0.2.15,22,10.0.2.2,51100,1073725440,16362,1026,65535,65700,0,0,4,1460,312,0,16777216,230000,33580,332,65700,0,0,0,1364960222,63
i,1724817640.209461,10.0.2.15,22,10.0.2.2,51100,1073725440,16362,1026,65535,65700,0,0,4,1460,312,0,16777216,230000,33580,332,65700,0,332,0,1364960222,63
i,1724817640.210988,10.0.2.15,22,10.0.2.2,51100,1073725440,16694,1026,65535,65700,0,0,4,1460,312,0,0,230000,33580,0,65700,0,0,0,1364960222,63
o,1724817640.227607,10.0.2.15,22,10.0.2.2,51100,1073725440,16694,1026,65535,65700,0,0,4,1460,312,0,16777216,230000,33580,28,65700,0,0,0,1364960222,63
i,1724817640.228170,10.0.2.15,22,10.0.2.2,51100,1073725440,16694,1026,65535,65700,0,0,4,1460,312,0,16777216,230000,33580,28,65700,0,28,0,1364960222,63
i,1724817640.228796,10.0.2.15,22,10.0.2.2,51100,1073725440,16722,1026,65535,65700,0,0,4,1460,312,0,0,230000,33580,0,65700,0,0,0,1364960222,63
o,1724817640.230292,10.0.2.15,22,10.0.2.2,51100,1073725440,16722,1026,65535,65700,0,0,4,1460,312,0,16777216,230000,33580,768,65700,112,0,0,1364960222,63
i,1724817640.232368,10.0.2.15,22,10.0.2.2,51100,1073725440,16722,1026,65535,65700,0,0,4,1460,312,0,16777216,230000,33580,908,65700,112,768,0,1364960222,63
o,1724817640.232400,10.0.2.15,22,10.0.2.2,51100,1073725440,17490,1026,65535,65700,0,0,4,1460,312,0,16777216,240000,33580,140,65700,112,0,0,1364960222,63
i,1724817640.232888,10.0.2.15,22,10.0.2.2,51100,1073725440,17490,1026,65535,65700,0,0,4,1460,312,0,16777216,240000,33580,140,65700,112,140,0,1364960222,63
o,1724817640.234361,10.0.2.15,22,10.0.2.2,51100,1073725440,17630,1026,65535,65700,0,0,4,1460,312,0,16777216,240000,33580,44,65700,0,0,0,1364960222,63
i,1724817640.234847,10.0.2.15,22,10.0.2.2,51100,1073725440,17630,1026,65535,65700,0,0,4,1460,312,0,16777216,240000,33580,44,65700,0,44,0,1364960222,63
i,1724817640.234867,10.0.2.15,22,10.0.2.2,51100,1073725440,17674,1026,65535,65700,0,0,4,1460,312,0,0,240000,33580,0,65700,0,0,0,1364960222,63
o,1724817640.235553,10.0.2.15,22,10.0.2.2,51100,1073725440,17674,1026,65535,65700,0,0,4,1460,312,0,16777220,240000,33580,72,65700,0,0,0,1364960222,63
i,1724817640.236207,10.0.2.15,22,10.0.2.2,51100,1073725440,17674,1026,65535,65700,0,0,4,1460,312,0,16777220,240000,33580,72,65700,0,72,0,1364960222,63
o,1724817640.306945,172.16.5.2,18690,172.16.1.2,5102,52586,14480,2082,65535,65700,6,6,4,1460,245937,1,16778209,730000,33580,0,65700,0,0,0,940044263,63
o,1724817640.307159,172.16.5.2,18690,172.16.1.2,5102,52586,14480,2082,65535,65700,6,6,4,1460,245937,1,16778212,730000,33580,37,65700,0,0,0,940044263,63
i,1724817640.386319,172.16.5.2,18690,172.16.1.2,5102,52586,14480,2082,65535,65700,6,6,4,1460,245937,1,16778212,730000,33580,37,65700,0,37,0,940044263,63
o,1724817640.386594,172.16.5.2,18690,172.16.1.2,5102,52586,14517,3106,65728,65728,6,6,4,1460,225312,1,16778212,800000,33580,4,65700,0,0,0,940044263,63
o,1724817640.386765,172.16.5.2,18690,172.16.1.2,5102,52586,14517,3106,65728,65728,6,6,4,1460,225312,1,16778212,800000,33580,130,65700,0,4,0,940044263,63
i,1724817640.467928,172.16.5.2,18690,172.16.1.2,5102,52586,14517,3106,65728,65728,6,6,4,1460,225312,1,16778212,800000,33580,130,65700,0,130,0,940044263,63
i,1724817640.467967,172.16.5.2,18690,172.16.1.2,5102,52586,14647,3106,65600,65728,6,6,4,1460,207187,1,996,830000,33580,0,65700,0,0,0,940044263,63
o,1724817640.545725,172.16.5.2,18690,172.16.1.2,5102,52586,14647,3106,65728,65728,6,6,4,1460,207187,1,997,830000,33580,0,65700,0,0,0,940044263,63
o,1724817640.545741,172.16.5.2,55772,172.16.1.2,5102,52586,14480,2082,65535,65700,6,6,4,1460,247187,1,16778209,720000,33580,0,65700,0,0,0,3181666895,63
o,1724817640.545873,172.16.5.2,55772,172.16.1.2,5102,52586,14480,2082,65535,65700,6,6,4,1460,247187,1,16778208,720000,33580,37,65700,0,0,0,3181666895,63
i,1724817640.624241,172.16.5.2,18690,172.16.1.2,5102,52586,14647,3106,65728,65728,6,6,4,1460,207187,1,996,830000,33580,0,65700,0,0,0,940044263,63
i,1724817640.624287,172.16.5.2,18690,172.16.1.2,5102,52586,14647,3106,65728,65728,6,6,4,1460,207187,1,996,830000,33580,0,65700,1,0,0,940044263,63
o,1724817640.624310,172.16.5.2,18690,172.16.1.2,5102,52586,14647,3106,65728,65728,6,6,4,1460,207187,1,997,830000,33580,0,65700,2,0,0,940044263,63
o,1724817640.624866,172.16.5.2,55772,172.16.1.2,5102,52586,14480,2086,65535,65700,6,6,4,1460,247187,1,16778208,720000,33580,33580,65700,0,37,0,3181666895,63
i,1724817640.666890,172.16.5.2,55772,172.16.1.2,5102,52586,14480,2086,65535,65700,6,6,4,1460,247187,1,16778208,720000,33580,33580,65700,0,13069,0,3181666895,63
o,1724817640.666954,172.16.5.2,55772,172.16.1.2,5102,52586,14517,2086,65728,65728,6,6,4,1460,231562,1,16778208,760000,33580,33543,65700,0,13032,0,3181666895,63
i,1724817640.706903,172.16.5.2,55772,172.16.1.2,5102,52586,14517,2086,65728,65728,6,6,4,1460,231562,1,16778208,760000,33580,33543,65700,0,14480,0,3181666895,63
o,1724817640.706955,172.16.5.2,55772,172.16.1.2,5102,52586,17413,2086,62848,65728,6,6,4,1460,212812,1,16778208,810000,33580,30647,65700,0,11584,0,3181666895,63
i,1724817640.707148,172.16.5.2,55772,172.16.1.2,5102,52586,17413,2086,62848,65728,6,6,4,1460,212812,1,16778208,810000,41772,30647,65700,0,17376,0,3181666895,63
o,1724817640.707170,172.16.5.2,55772,172.16.1.2,5102,52586,20309,2086,64256,65728,6,6,4,1460,196250,1,16778208,830000,41772,27751,65700,0,14480,0,3181666895,63
i,1724817640.707311,172.16.5.2,55772,172.16.1.2,5102,52586,20309,2086,64256,65728,6,6,4,1460,196250,1,16778208,830000,41772,27751,65700,0,20272,0,3181666895,63
o,1724817640.707329,172.16.5.2,55772,172.16.1.2,5102,52586,23205,2086,61376,65728,6,6,4,1460,181875,1,16778208,820000,41772,24855,65700,0,17376,0,3181666895,63
i,1724817640.707473,172.16.5.2,55772,172.16.1.2,5102,52586,23205,2086,61376,65728,6,6,4,1460,181875,1,16778208,820000,41772,24855,65700,0,23168,0,3181666895,63
o,1724817640.707508,172.16.5.2,55772,172.16.1.2,5102,52586,26101,2086,62848,65728,6,6,4,1460,169375,1,16778208,800000,41772,21959,65700,0,20272,0,3181666895,63
o,1724817640.707719,172.16.5.2,55772,172.16.1.2,5102,52586,26101,2086,62848,65728,6,6,4,1460,169375,1,16778208,800000,41772,24892,65700,0,21959,0,3181666895,63
i,1724817640.745050,172.16.5.2,55772,172.16.1.2,5102,52586,26101,2086,62848,65728,6,6,4,1460,169375,1,16778208,800000,58156,58156,65700,0,24892,0,3181666895,63
o,1724817640.745080,172.16.5.2,55772,172.16.1.2,5102,52586,28997,2086,64256,65728,6,6,4,1460,163437,1,16778208,730000,58156,55260,65700,0,21996,0,3181666895,63
o,1724817640.745222,172.16.5.2,55772,172.16.1.2,5102,52586,28997,2086,64256,65728,6,6,4,1460,163437,1,16778208,730000,58156,55260,65700,0,23444,0,3181666895,63
i,1724817640.802326,172.16.5.2,55772,172.16.1.2,5102,52586,28997,2086,64256,65728,6,6,4,1460,163437,1,16778208,730000,66348,66348,65700,0,27788,0,3181666895,63
o,1724817640.802366,172.16.5.2,55772,172.16.1.2,5102,52586,31893,2086,64256,65728,6,6,4,1460,154375,1,16778208,700000,66348,63452,65700,0,24892,0,3181666895,63
i,1724817640.802529,172.16.5.2,55772,172.16.1.2,5102,52586,31893,2086,64256,65728,6,6,4,1460,154375,1,16778208,700000,66348,63452,65700,0,30684,0,3181666895,63
o,1724817640.802551,172.16.5.2,55772,172.16.1.2,5102,52586,34789,2086,61376,65728,6,6,4,1460,146562,1,16778208,670000,74540,60556,65700,0,27788,0,3181666895,63
i,1724817640.805067,172.16.5.2,55772,172.16.1.2,5102,52586,34789,2086,61376,65728,6,6,4,1460,146562,1,16778208,670000,74540,74540,65700,0,33580,0,3181666895,63
o,1724817640.805094,172.16.5.2,55772,172.16.1.2,5102,52586,37685,2086,64256,65728,6,6,4,1460,139687,1,16778208,640000,74540,71644,65700,0,30684,0,3181666895,63
i,1724817640.805256,172.16.5.2,55772,172.16.1.2,5102,52586,37685,2086,64256,65728,6,6,4,1460,139687,1,16778208,640000,82732,71644,65700,0,36476,0,3181666895,63
o,1724817640.805275,172.16.5.2,55772,172.16.1.2,5102,52586,40581,2086,61376,65728,6,6,4,1460,133750,1,16778208,600000,82732,68748,65700,0,33580,0,3181666895,63
i,1724817640.822251,172.16.5.2,55772,172.16.1.2,5102,52586,40581,2086,61376,65728,6,6,4,1460,133750,1,16778208,600000,82732,82732,65700,0,39372,0,3181666895,63
o,1724817640.822287,172.16.5.2,55772,172.16.1.2,5102,52586,43477,2086,64256,65728,6,6,4,1460,130937,1,16778208,560000,82732,79836,65700,0,36476,0,3181666895,63
i,1724817640.822470,172.16.5.2,55772,172.16.1.2,5102,52586,43477,2086,64256,65728,6,6,4,1460,130937,1,16778208,560000,82732,79836,65700,0,42268,0,3181666895,63
o,1724817640.822500,172.16.5.2,55772,172.16.1.2,5102,52586,46373,2086,64256,65728,6,6,4,1460,128437,1,16778208,520000,82732,76940,65700,0,39372,0,3181666895,63
i,1724817640.831295,172.16.5.2,55772,172.16.1.2,5102,52586,46373,2086,64256,65728,6,6,4,1460,128437,1,16778208,520000,82732,82732,65700,0,45164,0,3181666895,63
o,1724817640.831323,172.16.5.2,55772,172.16.1.2,5102,52586,48060,2086,64064,65728,6,6,4,1460,127500,1,16778208,480000,82732,81045,65700,0,43477,0,3181666895,63
i,1724817640.840084,172.16.5.2,55772,172.16.1.2,5102,52586,48060,2086,64064,65728,6,6,4,1460,127500,1,16778208,480000,82732,81045,65700,0,47821,0,3181666895,63
o,1724817640.840109,172.16.5.2,55772,172.16.1.2,5102,52586,50956,2086,62848,65728,6,6,4,1460,127812,1,16778208,440000,82732,78149,65700,0,44925,0,3181666895,63
i,1724817640.840311,172.16.5.2,55772,172.16.1.2,5102,52586,50956,2086,62848,65728,6,6,4,1460,127812,1,16778208,440000,82732,78149,65700,0,50717,0,3181666895,63
o,1724817640.840332,172.16.5.2,55772,172.16.1.2,5102,52586,52441,2086,64256,65728,6,6,4,1460,128125,1,16778208,420000,82732,76664,65700,0,49232,0,3181666895,63
o,1724817640.840519,172.16.5.2,55772,172.16.1.2,5102,52586,52441,2086,64256,65728,6,6,4,1460,128125,1,16778208,420000,82732,76664,65700,0,50680,0,3181666895,63
i,1724817640.850188,172.16.5.2,55772,172.16.1.2,5102,52586,52441,2086,64256,65728,6,6,4,1460,128125,1,16778208,420000,82732,82732,65700,0,52128,0,3181666895,63
o,1724817640.850212,172.16.5.2,55772,172.16.1.2,5102,52586,55337,2086,64256,65728,6,6,4,1460,124687,1,16778208,420000,82732,79836,65700,0,49232,0,3181666895,63
i,1724817640.897737,172.16.5.2,55772,172.16.1.2,5102,52586,55337,2086,64256,65728,6,6,4,1460,124687,1,16778208,420000,82732,82732,65700,0,55024,0,3181666895,63
o,1724817640.897766,172.16.5.2,55772,172.16.1.2,5102,52586,55337,2086,97152,65728,6,6,4,1460,128125,1,16778208,430000,90924,79836,65700,0,52128,0,3181666895,63
i,1724817640.908458,172.16.5.2,55772,172.16.1.2,5102,52586,55337,2086,97152,65728,6,6,4,1460,128125,1,16778208,430000,115500,115500,65700,0,55024,0,3181666895,63
o,1724817640.908564,172.16.5.2,55772,172.16.1.2,5102,52586,55337,2086,95680,65728,6,6,4,1460,125937,1,16778208,420000,115500,112604,65700,0,52128,0,3181666895,63
i,1724817640.908772,172.16.5.2,55772,172.16.1.2,5102,52586,55337,2086,95680,65728,6,6,4,1460,125937,1,16778208,420000,115500,112604,65700,0,55024,0,3181666895,63
o,1724817640.908802,172.16.5.2,55772,172.16.1.2,5102,52586,55337,2086,92800,65728,6,6,4,1460,124062,1,16778208,410000,115500,109708,65700,0,52128,0,3181666895,63
i,1724817640.939713,172.16.5.2,55772,172.16.1.2,5102,52586,55337,2086,92800,65728,6,6,4,1460,124062,1,16778208,410000,123692,123692,65700,0,55024,0,3181666895,63
o,1724817640.939749,172.16.5.2,55772,172.16.1.2,5102,52586,55337,2086,97152,65728,6,6,4,1460,126250,1,16778208,410000,123692,120796,65700,0,52128,0,3181666895,63
i,1724817640.939938,172.16.5.2,55772,172.16.1.2,5102,52586,55337,2086,97152,65728,6,6,4,1460,126250,1,16778208,410000,123692,120796,65700,0,55024,0,3181666895,63
o,1724817640.939961,172.16.5.2,55772,172.16.1.2,5102,52586,55337,2086,97152,65728,6,6,4,1460,128125,1,16778208,400000,123692,117900,65700,0,52128,0,3181666895,63
i,1724817640.970179,172.16.5.2,55772,172.16.1.2,5102,52586,55337,2086,97152,65728,6,6,4,1460,128125,1,16778208,400000,123692,123692,65700,0,55024,0,3181666895,63
o,1724817640.970260,172.16.5.2,55772,172.16.1.2,5102,52586,55337,2086,97152,65728,6,6,4,1460,132187,1,16778208,420000,123692,120796,65700,0,52128,0,3181666895,63
i,1724817640.970435,172.16.5.2,55772,172.16.1.2,5102,52586,55337,2086,97152,65728,6,6,4,1460,132187,1,16778208,420000,123692,120796,65700,0,55024,0,3181666895,63
o,1724817640.970453,172.16.5.2,55772,172.16.1.2,5102,52586,55337,2086,97152,65728,6,6,4,1460,135937,1,16778208,430000,123692,117900,65700,0,52128,0,3181666895,63
i,1724817640.979838,172.16.5.2,55772,172.16.1.2,5102,52586,55337,2086,97152,65728,6,6,4,1460,135937,1,16778208,430000,123692,123692,65700,0,55024,0,3181666895,63
o,1724817640.979862,172.16.5.2,55772,172.16.1.2,5102,52586,55337,2086,97152,65728,6,6,4,1460,140312,1,16778208,450000,123692,120796,65700,0,52128,0,3181666895,63
i,1724817640.993268,172.16.5.2,55772,172.16.1.2,5102,52586,55337,2086,97152,65728,6,6,4,1460,140312,1,16778208,450000,123692,123692,65700,0,55024,0,3181666895,63
o,1724817640.993448,172.16.5.2,55772,172.16.1.2,5102,52586,55337,2086,97152,65728,6,6,4,1460,146562,1,16778208,470000,123692,120796,65700,0,52128,0,3181666895,63
i,1724817641.002016,172.16.5.2,55772,172.16.1.2,5102,52586,55337,2086,97152,65728,6,6,4,1460,146562,1,16778208,470000,123692,123692,65700,0,55024,0,3181666895,63
o,1724817641.002041,172.16.5.2,55772,172.16.1.2,5102,52586,55337,2086,95680,65728,6,6,4,1460,149687,1,16778208,470000,123692,120796,65700,0,52128,0,3181666895,63
i,1724817641.002198,172.16.5.2,55772,172.16.1.2,5102,52586,55337,2086,95680,65728,6,6,4,1460,149687,1,16778208,470000,123692,120796,65700,0,55024,0,3181666895,63
o,1724817641.002219,172.16.5.2,55772,172.16.1.2,5102,52586,55337,2086,97152,65728,6,6,4,1460,152500,1,16778208,470000,123692,117900,65700,0,52128,0,3181666895,63
i,1724817641.012077,172.16.5.2,55772,172.16.1.2,5102,52586,55337,2086,97152,65728,6,6,4,1460,152500,1,16778208,470000,123692,123692,65700,0,55024,0,3181666895,63
o,1724817641.012158,172.16.5.2,55772,172.16.1.2,5102,52586,55337,2086,97152,65728,6,6,4,1460,157187,1,16778208,480000,123692,120796,65700,0,52128,0,3181666895,63
i,1724817641.020582,172.16.5.2,55772,172.16.1.2,5102,52586,55337,2086,97152,65728,6,6,4,1460,157187,1,16778208,480000,123692,123692,65700,0,55024,0,3181666895,63
o,1724817641.020582,172.16.5.2,55772,172.16.1.2,5102,52586,55337,2086,97152,65728,6,6,4,1460,162812,1,16778208,500000,123692,120796,65700,0,52128,0,3181666895,63
i,1724817641.020862,172.16.5.2,55772,172.16.1.2,5102,52586,55337,2086,97152,65728,6,6,4,1460,162812,1,16778208,500000,123692,120796,65700,0,55024,0,3181666895,63
o,1724817641.020915,172.16.5.2,55772,172.16.1.2,5102,52586,55337,2086,97152,65728,6,6,4,1460,166250,1,16778208,500000,123692,117900,65700,0,52128,0,3181666895,63
i,1724817641.040622,172.16.5.2,55772,172.16.1.2,5102,52586,55337,2086,97152,65728,6,6,4,1460,166250,1,16778208,500000,123692,123692,65700,0,55024,0,3181666895,63
o,1724817641.040678,172.16.5.2,55772,172.16.1.2,5102,52586,55337,2086,97152,65728,6,6,4,1460,170625,1,16778208,500000,123692,120796,65700,0,52128,0,3181666895,63
i,1724817641.040912,172.16.5.2,55772,172.16.1.2,5102,52586,55337,2086,97152,65728,6,6,4,1460,170625,1,16778208,500000,123692,120796,65700,0,55024,0,3181666895,63
o,1724817641.040934,172.16.5.2,55772,172.16.1.2,5102,52586,55337,2086,94272,65728,6,6,4,1460,174375,1,16778208,500000,123692,117900,65700,0,52128,0,3181666895,63
i,1724817641.050509,172.16.5.2,55772,172.16.1.2,5102,52586,55337,2086,94272,65728,6,6,4,1460,174375,1,16778208,500000,123692,123692,65700,0,55024,0,3181666895,63
o,1724817641.050534,172.16.5.2,55772,172.16.1.2,5102,32533,55024,2086,97152,65728,6,6,4,1460,179062,1,553649120,510000,123692,120796,65700,0,52128,0,3181666895,63
o,1724817641.050666,172.16.5.2,55772,172.16.1.2,5102,32533,55024,2082,97152,65728,6,6,4,1460,179062,1,553649120,510000,123692,120796,65700,0,53576,0,3181666895,63
i,1724817641.059692,172.16.5.2,55772,172.16.1.2,5102,32533,55024,2082,97152,65728,6,6,4,1460,179062,1,553649120,510000,123692,123692,65700,0,55024,0,3181666895,63
o,1724817641.059713,172.16.5.2,55772,172.16.1.2,5102,32533,53576,2082,97152,65728,6,6,4,1460,183125,1,553649120,520000,123692,120796,65700,0,52128,0,3181666895,63
i,1724817641.069583,172.16.5.2,55772,172.16.1.2,5102,32533,53576,2082,97152,65728,6,6,4,1460,183125,1,553649120,520000,123692,123692,65700,0,53576,0,3181666895,63
o,1724817641.069658,172.16.5.2,55772,172.16.1.2,5102,32533,53588,2086,97152,65728,6,6,4,1460,187812,1,553649120,530000,123692,120796,65700,0,50680,0,3181666895,63
i,1724817641.079470,172.16.5.2,55772,172.16.1.2,5102,32533,53588,2086,97152,65728,6,6,4,1460,187812,1,553649120,530000,123692,123692,65700,0,53576,0,3181666895,63
i,1724817641.089467,172.16.5.2,55772,172.16.1.2,5102,32533,50680,2086,95680,65728,6,6,4,1460,186875,1,553649120,500000,123692,123692,65700,0,50680,0,3181666895,63
o,1724817641.089492,172.16.5.2,55772,172.16.1.2,5102,32533,49232,2082,95680,65728,6,6,4,1460,186250,1,553649120,470000,123692,120796,65700,0,47784,0,3181666895,63
i,1724817641.102384,172.16.5.2,55772,172.16.1.2,5102,32533,49232,2082,95680,65728,6,6,4,1460,186250,1,553649120,470000,123692,123692,65700,0,49232,0,3181666895,63
o,1724817641.102455,172.16.5.2,55772,172.16.1.2,5102,32533,49232,2086,97152,65728,6,6,4,1460,186875,1,553649120,460000,123692,120796,65700,0,46336,0,3181666895,63
i,1724817641.120340,172.16.5.2,55772,172.16.1.2,5102,32533,49232,2086,97152,65728,6,6,4,1460,186875,1,553649120,460000,123692,123692,65700,0,49232,0,3181666895,63
o,1724817641.120374,172.16.5.2,55772,172.16.1.2,5102,32533,47784,2082,95680,65728,6,6,4,1460,186250,1,553649120,440000,123692,120796,65700,0,46336,0,3181666895,63
i,1724817641.120619,172.16.5.2,55772,172.16.1.2,5102,32533,47784,2082,95680,65728,6,6,4,1460,186250,1,553649120,440000,123692,120796,65700,0,47784,0,3181666895,63
o,1724817641.120660,172.16.5.2,55772,172.16.1.2,5102,32533,46336,2082,95680,65728,6,6,4,1460,185625,1,553649120,430000,123692,117900,65700,0,44888,0,3181666895,63
i,1724817641.139219,172.16.5.2,55772,172.16.1.2,5102,32533,46336,2082,95680,65728,6,6,4,1460,185625,1,553649120,430000,123692,123692,65700,0,46336,0,3181666895,63
o,1724817641.139243,172.16.5.2,55772,172.16.1.2,5102,32533,44888,2082,97152,65728,6,6,4,1460,183750,1,553649120,430000,123692,120796,65700,0,43440,0,3181666895,63
i,1724817641.139436,172.16.5.2,55772,172.16.1.2,5102,32533,44888,2082,97152,65728,6,6,4,1460,183750,1,553649120,430000,123692,120796,65700,0,44888,0,3181666895,63
o,1724817641.139457,172.16.5.2,55772,172.16.1.2,5102,32533,43440,2082,95680,65728,6,6,4,1460,182187,1,553649120,430000,123692,117900,65700,0,41992,0,3181666895,63
i,1724817641.149999,172.16.5.2,55772,172.16.1.2,5102,32533,43440,2082,95680,65728,6,6,4,1460,182187,1,553649120,430000,123692,123692,65700,0,43440,0,3181666895,63
o,1724817641.150020,172.16.5.2,55772,172.16.1.2,5102,32533,43440,2086,95680,65728,6,6,4,1460,180937,1,553649120,430000,123692,120796,65700,0,40544,0,3181666895,63
i,1724817641.160647,172.16.5.2,55772,172.16.1.2,5102,32533,43440,2086,95680,65728,6,6,4,1460,180937,1,553649120,430000,123692,123692,65700,0,43440,0,3181666895,63
o,1724817641.160668,172.16.5.2,55772,172.16.1.2,5102,32533,41992,2082,97152,65728,6,6,4,1460,178437,1,553649120,430000,123692,120796,65700,0,40544,0,3181666895,63
i,1724817641.160799,172.16.5.2,55772,172.16.1.2,5102,32533,41992,2082,97152,65728,6,6,4,1460,178437,1,553649120,430000,123692,120796,65700,0,41992,0,3181666895,63
o,1724817641.160815,172.16.5.2,55772,172.16.1.2,5102,32533,40544,2082,94272,65728,6,6,4,1460,176250,1,553649120,430000,123692,117900,65700,0,39096,0,3181666895,63
i,1724817641.169042,172.16.5.2,55772,172.16.1.2,5102,32533,40544,2082,94272,65728,6,6,4,1460,176250,1,553649120,430000,123692,123692,65700,0,40544,0,3181666895,63
o,1724817641.169064,172.16.5.2,55772,172.16.1.2,5102,32533,39096,2082,97152,65728,6,6,4,1460,175625,1,553649120,420000,123692,120796,65700,0,37648,0,3181666895,63
i,1724817641.169214,172.16.5.2,55772,172.16.1.2,5102,32533,39096,2082,97152,65728,6,6,4,1460,175625,1,553649120,420000,123692,120796,65700,0,39096,0,3181666895,63
o,1724817641.169234,172.16.5.2,55772,172.16.1.2,5102,32533,39108,2086,94272,65728,6,6,4,1460,173750,1,553649120,420000,123692,117900,65700,0,36200,0,3181666895,63
i,1724817641.178923,172.16.5.2,55772,172.16.1.2,5102,32533,39108,2086,94272,65728,6,6,4,1460,173750,1,553649120,420000,123692,123692,65700,0,39096,0,3181666895,63
i,1724817641.179013,172.16.5.2,55772,172.16.1.2,5102,32533,36200,2086,97152,65728,6,6,4,1460,172187,1,553649120,420000,123692,120796,65700,0,36200,0,3181666895,63
o,1724817641.179033,172.16.5.2,55772,172.16.1.2,5102,32533,36200,2086,97152,65728,6,6,4,1460,170937,1,553649120,420000,123692,117900,65700,0,33304,0,3181666895,63
i,1724817641.188703,172.16.5.2,55772,172.16.1.2,5102,32533,36200,2086,97152,65728,6,6,4,1460,170937,1,553649120,420000,123692,123692,65700,0,36200,0,3181666895,63
o,1724817641.188728,172.16.5.2,55772,172.16.1.2,5102,32533,34752,2082,95680,65728,6,6,4,1460,168437,1,553649120,420000,123692,120796,65700,0,33304,0,3181666895,63
i,1724817641.189149,172.16.5.2,55772,172.16.1.2,5102,32533,34752,2082,95680,65728,6,6,4,1460,168437,1,553649120,420000,123692,120796,65700,0,34752,0,3181666895,63
o,1724817641.189169,172.16.5.2,55772,172.16.1.2,5102,32533,33304,2082,92800,65728,6,6,4,1460,166250,1,553649120,420000,123692,117900,65700,0,31856,0,3181666895,63
i,1724817641.189367,172.16.5.2,55772,172.16.1.2,5102,32533,33304,2082,92800,65728,6,6,4,1460,166250,1,553649120,420000,123692,117900,65700,0,33304,0,3181666895,63
o,1724817641.189388,172.16.5.2,55772,172.16.1.2,5102,32533,33304,2082,98560,65728,6,6,4,1460,163125,1,16778208,430000,123692,116452,65700,0,31856,0,3181666895,63
i,1724817641.198597,172.16.5.2,55772,172.16.1.2,5102,32533,33304,2082,98560,65728,6,6,4,1460,163125,1,16778208,430000,123692,123692,65700,0,33304,0,3181666895,63
o,1724817641.198617,172.16.5.2,55772,172.16.1.2,5102,32533,33304,2086,97152,65728,6,6,4,1460,161562,1,16778208,420000,123692,120796,65700,0,30408,0,3181666895,63
i,1724817641.199668,172.16.5.2,55772,172.16.1.2,5102,32533,33304,2086,97152,65728,6,6,4,1460,161562,1,16778208,420000,123692,123692,65700,0,33304,0,3181666895,63
o,1724817641.199689,172.16.5.2,55772,172.16.1.2,5102,32533,33304,2086,97152,65728,6,6,4,1460,157812,1,16778208,440000,123692,120796,65700,0,30408,0,3181666895,63
i,1724817641.209729,172.16.5.2,55772,172.16.1.2,5102,32533,33304,2086,97152,65728,6,6,4,1460,157812,1,16778208,440000,123692,123692,65700,0,33304,0,3181666895,63
o,1724817641.209759,172.16.5.2,55772,172.16.1.2,5102,32533,33304,2086,146432,65728,6,6,4,1460,153125,1,16778208,450000,123692,120796,65700,0,30408,0,3181666895,63
i,1724817641.210752,172.16.5.2,55772,172.16.1.2,5102,32533,33304,2086,146432,65728,6,6,4,1460,153125,1,16778208,450000,123692,123692,65700,0,33304,0,3181666895,63
o,1724817641.210771,172.16.5.2,55772,172.16.1.2,5102,21011,31856,2082,144960,65728,6,6,4,1460,147812,1,553649120,460000,123692,120796,65700,0,30408,0,3181666895,63
i,1724817641.228383,172.16.5.2,55772,172.16.1.2,5102,21011,31856,2082,144960,65728,6,6,4,1460,147812,1,553649120,460000,123692,123692,65700,0,31856,0,3181666895,63
o,1724817641.228458,172.16.5.2,55772,172.16.1.2,5102,21011,30408,2082,146432,65728,6,6,4,1460,143125,1,553649120,470000,123692,120796,65700,0,28960,0,3181666895,63
i,1724817641.238392,172.16.5.2,55772,172.16.1.2,5102,21011,30408,2082,146432,65728,6,6,4,1460,143125,1,553649120,470000,123692,123692,65700,0,30408,0,3181666895,63
o,1724817641.238413,172.16.5.2,55772,172.16.1.2,5102,21011,28960,2082,146432,65728,6,6,4,1460,137812,1,553649120,470000,123692,120796,65700,0,27512,0,3181666895,63
i,1724817641.238541,172.16.5.2,55772,172.16.1.2,5102,21011,28960,2082,146432,65728,6,6,4,1460,137812,1,553649120,470000,123692,120796,65700,0,28960,0,3181666895,63
o,1724817641.238559,172.16.5.2,55772,172.16.1.2,5102,21011,27512,2082,146432,65728,6,6,4,1460,131875,1,553649120,480000,123692,117900,65700,0,26064,0,3181666895,63
i,1724817641.248475,172.16.5.2,55772,172.16.1.2,5102,21011,27512,2082,146432,65728,6,6,4,1460,131875,1,553649120,480000,123692,123692,65700,0,27512,0,3181666895,63
i,1724817641.248507,172.16.5.2,55772,172.16.1.2,5102,21011,24616,2082,144960,65728,6,6,4,1460,126875,1,553649120,480000,123692,120796,65700,0,24616,0,3181666895,63
o,1724817641.248532,172.16.5.2,55772,172.16.1.2,5102,21011,24628,2086,142080,65728,6,6,4,1460,121250,1,553649120,480000,123692,117900,65700,0,21720,0,3181666895,63
i,1724817641.249864,172.16.5.2,55772,172.16.1.2,5102,21011,24628,2086,142080,65728,6,6,4,1460,121250,1,553649120,480000,123692,123692,65700,0,24616,0,3181666895,63
i,1724817641.259160,172.16.5.2,55772,172.16.1.2,5102,21011,21720,2086,144960,65728,6,6,4,1460,115000,1,553649120,480000,123692,123692,65700,0,21720,0,3181666895,63
o,1724817641.259186,172.16.5.2,55772,172.16.1.2,5102,21011,23168,2086,144960,65728,6,6,4,1460,109375,1,553649120,480000,123692,120796,65700,0,18824,0,3181666895,63
i,1724817641.269246,172.16.5.2,55772,172.16.1.2,5102,21011,23168,2086,144960,65728,6,6,4,1460,109375,1,553649120,480000,123692,123692,65700,0,23168,0,3181666895,63
o,1724817641.269267,172.16.5.2,55772,172.16.1.2,5102,21011,23168,2086,146432,65728,6,6,4,1460,105937,1,553649120,460000,123692,120796,65700,0,20272,0,3181666895,63
o,1724817641.269448,172.16.5.2,55772,172.16.1.2,5102,21011,23168,2082,146432,65728,6,6,4,1460,105937,1,553649120,460000,123692,120796,65700,0,21720,0,3181666895,63
i,1724817641.271033,172.16.5.2,55772,172.16.1.2,5102,21011,23168,2082,146432,65728,6,6,4,1460,105937,1,553649120,460000,123692,123692,65700,0,23168,0,3181666895,63
o,1724817641.271060,172.16.5.2,55772,172.16.1.2,5102,21011,23168,2086,146432,65728,6,6,4,1460,101562,1,553649120,450000,123692,120796,65700,0,20272,0,3181666895,63
i,1724817641.278237,172.16.5.2,55772,172.16.1.2,5102,21011,23168,2086,146432,65728,6,6,4,1460,101562,1,553649120,450000,123692,123692,65700,0,23168,0,3181666895,63
o,1724817641.278261,172.16.5.2,55772,172.16.1.2,5102,21011,23168,2086,146432,65728,6,6,4,1460,99062,1,553649120,430000,123692,120796,65700,0,20272,0,3181666895,63
i,1724817641.278445,172.16.5.2,55772,172.16.1.2,5102,21011,23168,2086,146432,65728,6,6,4,1460,99062,1,553649120,430000,123692,120796,65700,0,23168,0,3181666895,63
o,1724817641.278465,172.16.5.2,55772,172.16.1.2,5102,21011,23168,2086,144960,65728,6,6,4,1460,95625,1,16778208,420000,123692,117900,65700,0,20272,0,3181666895,63
i,1724817641.306613,172.16.5.2,55772,172.16.1.2,5102,21011,23168,2086,144960,65728,6,6,4,1460,95625,1,16778208,420000,123692,123692,65700,0,23168,0,3181666895,63
o,1724817641.306641,172.16.5.2,55772,172.16.1.2,5102,21011,23168,2086,146432,65728,6,6,4,1460,93750,1,16778208,400000,123692,120796,65700,0,20272,0,3181666895,63
i,1724817641.306826,172.16.5.2,55772,172.16.1.2,5102,21011,23168,2086,146432,65728,6,6,4,1460,93750,1,16778208,400000,123692,120796,65700,0,23168,0,3181666895,63
o,1724817641.306856,172.16.5.2,55772,172.16.1.2,5102,21011,23168,2086,146432,65728,6,6,4,1460,90937,1,16778208,400000,123692,117900,65700,0,20272,0,3181666895,63
i,1724817641.316967,172.16.5.2,55772,172.16.1.2,5102,21011,23168,2086,146432,65728,6,6,4,1460,90937,1,16778208,400000,123692,123692,65700,0,23168,0,3181666895,63
o,1724817641.316987,172.16.5.2,55772,172.16.1.2,5102,21011,23168,2086,146432,65728,6,6,4,1460,88437,1,16778208,390000,123692,120796,65700,0,20272,0,3181666895,63
i,1724817641.324869,172.16.5.2,55772,172.16.1.2,5102,21011,23168,2086,146432,65728,6,6,4,1460,88437,1,16778208,390000,123692,123692,65700,0,23168,0,3181666895,63
o,1724817641.324942,172.16.5.2,55772,172.16.1.2,5102,21011,23168,2086,144960,65728,6,6,4,1460,86250,1,16778208,380000,123692,120796,65700,0,20272,0,3181666895,63
i,1724817641.327293,172.16.5.2,55772,172.16.1.2,5102,21011,23168,2086,144960,65728,6,6,4,1460,86250,1,16778208,380000,123692,123692,65700,0,23168,0,3181666895,63
o,1724817641.327368,172.16.5.2,55772,172.16.1.2,5102,21011,23168,2086,146432,65728,6,6,4,1460,83125,1,16778208,380000,123692,120796,65700,0,20272,0,3181666895,63
o,1724817641.327515,172.16.5.2,55772,172.16.1.2,5102,21011,23168,2082,146432,65728,6,6,4,1460,83125,1,16778208,380000,123692,120796,65700,0,21720,0,3181666895,63
i,1724817641.327666,172.16.5.2,55772,172.16.1.2,5102,21011,23168,2082,146432,65728,6,6,4,1460,83125,1,16778208,380000,123692,120796,65700,0,23168,0,3181666895,63
o,1724817641.327704,172.16.5.2,55772,172.16.1.2,5102,21011,23168,2086,143552,65728,6,6,4,1460,80312,1,16778208,370000,123692,117900,65700,0,20272,0,3181666895,63
i,1724817641.334987,172.16.5.2,55772,172.16.1.2,5102,21011,23168,2086,143552,65728,6,6,4,1460,80312,1,16778208,370000,123692,123692,65700,0,23168,0,3181666895,63
o,1724817641.335006,172.16.5.2,55772,172.16.1.2,5102,21011,23168,2086,146432,65728,6,6,4,1460,77812,1,16778208,370000,123692,120796,65700,0,20272,0,3181666895,63
i,1724817641.344569,172.16.5.2,55772,172.16.1.2,5102,21011,23168,2086,146432,65728,6,6,4,1460,77812,1,16778208,370000,123692,123692,65700,0,23168,0,3181666895,63
o,1724817641.344647,172.16.5.2,55772,172.16.1.2,5102,21011,24628,2086,146432,65728,6,6,4,1460,76875,1,16778208,350000,123692,120796,65700,0,20272,0,3181666895,63
i,1724817641.364969,172.16.5.2,55772,172.16.1.2,5102,21011,24628,2086,146432,65728,6,6,4,1460,76875,1,16778208,350000,123692,123692,65700,0,24616,0,3181666895,63
o,1724817641.365074,172.16.5.2,55772,172.16.1.2,5102,21011,24628,2086,144960,65728,6,6,4,1460,75000,1,16778208,350000,123692,120796,65700,0,21720,0,3181666895,63
i,1724817641.365242,172.16.5.2,55772,172.16.1.2,5102,21011,24628,2086,144960,65728,6,6,4,1460,75000,1,16778208,350000,123692,120796,65700,0,24616,0,3181666895,63
o,1724817641.365264,172.16.5.2,55772,172.16.1.2,5102,21011,24628,2086,142080,65728,6,6,4,1460,73125,1,16778208,340000,123692,117900,65700,0,21720,0,3181666895,63
i,1724817641.379668,172.16.5.2,55772,172.16.1.2,5102,21011,24628,2086,142080,65728,6,6,4,1460,73125,1,16778208,340000,123692,123692,65700,0,24616,0,3181666895,63
o,1724817641.379703,172.16.5.2,55772,172.16.1.2,5102,21011,24628,2086,146432,65728,6,6,4,1460,71562,1,16778208,330000,123692,120796,65700,0,21720,0,3181666895,63
i,1724817641.379882,172.16.5.2,55772,172.16.1.2,5102,21011,24628,2086,146432,65728,6,6,4,1460,71562,1,16778208,330000,123692,120796,65700,0,24616,0,3181666895,63
o,1724817641.379898,172.16.5.2,55772,172.16.1.2,5102,21011,24628,2086,146432,65728,6,6,4,1460,69062,1,16778208,340000,123692,117900,65700,0,21720,0,3181666895,63
i,1724817641.389913,172.16.5.2,55772,172.16.1.2,5102,21011,24628,2086,146432,65728,6,6,4,1460,69062,1,16778208,340000,123692,123692,65700,0,24616,0,3181666895,63
o,1724817641.389946,172.16.5.2,55772,172.16.1.2,5102,21011,24628,2086,144960,65728,6,6,4,1460,68125,1,16778208,330000,123692,120796,65700,0,21720,0,3181666895,63
o,1724817641.390065,172.16.5.2,55772,172.16.1.2,5102,21011,24628,2086,144960,65728,6,6,4,1460,68125,1,16778208,330000,123692,120796,65700,0,23168,0,3181666895,63
i,1724817641.390196,172.16.5.2,55772,172.16.1.2,5102,21011,24628,2086,144960,65728,6,6,4,1460,68125,1,16778208,330000,123692,120796,65700,0,24616,0,3181666895,63
o,1724817641.390213,172.16.5.2,55772,172.16.1.2,5102,21011,24628,2086,144960,65728,6,6,4,1460,67187,1,16778208,320000,123692,117900,65700,0,21720,0,3181666895,63
i,1724817641.398115,172.16.5.2,55772,172.16.1.2,5102,21011,24628,2086,144960,65728,6,6,4,1460,67187,1,16778208,320000,123692,123692,65700,0,24616,0,3181666895,63
o,1724817641.398159,172.16.5.2,55772,172.16.1.2,5102,21011,24628,2086,144960,65728,6,6,4,1460,66562,1,16778208,310000,123692,120796,65700,0,21720,0,3181666895,63
i,1724817641.408260,172.16.5.2,55772,172.16.1.2,5102,21011,24628,2086,144960,65728,6,6,4,1460,66562,1,16778208,310000,123692,123692,65700,0,24616,0,3181666895,63
o,1724817641.408289,172.16.5.2,55772,172.16.1.2,5102,21011,24628,2086,144960,65728,6,6,4,1460,65937,1,16778208,300000,123692,120796,65700,0,21720,0,3181666895,63
i,1724817641.419271,172.16.5.2,55772,172.16.1.2,5102,21011,24628,2086,144960,65728,6,6,4,1460,65937,1,16778208,300000,123692,123692,65700,0,24616,0,3181666895,63
o,1724817641.419297,172.16.5.2,55772,172.16.1.2,5102,21011,26088,2086,146432,65728,6,6,4,1460,66562,1,16778208,300000,123692,120796,65700,0,21720,0,3181666895,63
i,1724817641.419424,172.16.5.2,55772,172.16.1.2,5102,21011,26088,2086,146432,65728,6,6,4,1460,66562,1,16778208,300000,123692,120796,65700,0,26064,0,3181666895,63
o,1724817641.419441,172.16.5.2,55772,172.16.1.2,5102,21011,26088,2086,146432,65728,6,6,4,1460,64687,1,16778208,300000,123692,117900,65700,0,23168,0,3181666895,63
i,1724817641.439597,172.16.5.2,55772,172.16.1.2,5102,21011,26088,2086,146432,65728,6,6,4,1460,64687,1,16778208,300000,123692,123692,65700,0,26064,0,3181666895,63
o,1724817641.439637,172.16.5.2,55772,172.16.1.2,5102,21011,26088,2086,146432,65728,6,6,4,1460,65625,1,16778208,300000,123692,120796,65700,0,23168,0,3181666895,63
i,1724817641.439766,172.16.5.2,55772,172.16.1.2,5102,21011,26088,2086,146432,65728,6,6,4,1460,65625,1,16778208,300000,123692,120796,65700,0,26064,0,3181666895,63
o,1724817641.439784,172.16.5.2,55772,172.16.1.2,5102,21011,26088,2086,143552,65728,6,6,4,1460,65000,1,16778208,300000,123692,117900,65700,0,23168,0,3181666895,63
i,1724817641.460561,172.16.5.2,55772,172.16.1.2,5102,21011,26088,2086,143552,65728,6,6,4,1460,65000,1,16778208,300000,123692,123692,65700,0,26064,0,3181666895,63
o,1724817641.460599,172.16.5.2,55772,172.16.1.2,5102,21011,26088,2086,146432,65728,6,6,4,1460,66875,1,16778208,310000,123692,120796,65700,0,23168,0,3181666895,63
o,1724817641.460804,172.16.5.2,55772,172.16.1.2,5102,21011,26088,2086,146432,65728,6,6,4,1460,66875,1,16778208,310000,123692,120796,65700,0,24616,0,3181666895,63
i,1724817641.460932,172.16.5.2,55772,172.16.1.2,5102,21011,26088,2086,146432,65728,6,6,4,1460,66875,1,16778208,310000,123692,120796,65700,0,26064,0,3181666895,63
o,1724817641.460950,172.16.5.2,55772,172.16.1.2,5102,21011,26088,2086,144960,65728,6,6,4,1460,67500,1,16778208,300000,123692,117900,65700,0,23168,0,3181666895,63
i,1724817641.468291,172.16.5.2,55772,172.16.1.2,5102,21011,26088,2086,144960,65728,6,6,4,1460,67500,1,16778208,300000,123692,123692,65700,0,26064,0,3181666895,63
o,1724817641.468401,172.16.5.2,55772,172.16.1.2,5102,21011,26088,2086,146432,65728,6,6,4,1460,69062,1,16778208,310000,123692,120796,65700,0,23168,0,3181666895,63
i,1724817641.470282,172.16.5.2,55772,172.16.1.2,5102,21011,26088,2086,146432,65728,6,6,4,1460,69062,1,16778208,310000,123692,123692,65700,0,26064,0,3181666895,63
o,1724817641.470381,172.16.5.2,55772,172.16.1.2,5102,21011,26088,2086,146432,65728,6,6,4,1460,69375,1,16778208,300000,123692,120796,65700,0,23168,0,3181666895,63
i,1724817641.478024,172.16.5.2,55772,172.16.1.2,5102,21011,26088,2086,146432,65728,6,6,4,1460,69375,1,16778208,300000,123692,123692,65700,0,26064,0,3181666895,63
o,1724817641.478048,172.16.5.2,55772,172.16.1.2,5102,21011,26088,2086,146432,65728,6,6,4,1460,69687,1,16778208,290000,123692,120796,65700,0,23168,0,3181666895,63
i,1724817641.478214,172.16.5.2,55772,172.16.1.2,5102,21011,26088,2086,146432,65728,6,6,4,1460,69687,1,16778208,290000,123692,120796,65700,0,26064,0,3181666895,63
o,1724817641.478232,172.16.5.2,55772,172.16.1.2,5102,21011,27548,2086,146432,65728,6,6,4,1460,68750,1,16778208,290000,123692,117900,65700,0,23168,0,3181666895,63
i,1724817641.478951,172.16.5.2,55772,172.16.1.2,5102,21011,27548,2086,146432,65728,6,6,4,1460,68750,1,16778208,290000,123692,123692,65700,0,27512,0,3181666895,63
o,1724817641.479032,172.16.5.2,55772,172.16.1.2,5102,21011,27548,2086,143552,65728,6,6,4,1460,67812,1,16778208,290000,123692,120796,65700,0,24616,0,3181666895,63
i,1724817641.509111,172.16.5.2,55772,172.16.1.2,5102,21011,27548,2086,143552,65728,6,6,4,1460,67812,1,16778208,290000,123692,123692,65700,0,27512,0,3181666895,63
o,1724817641.509156,172.16.5.2,55772,172.16.1.2,5102,21011,27548,2086,144960,65728,6,6,4,1460,68125,1,16778208,290000,123692,120796,65700,0,24616,0,3181666895,63
i,1724817641.509381,172.16.5.2,55772,172.16.1.2,5102,21011,27548,2086,144960,65728,6,6,4,1460,68125,1,16778208,290000,123692,120796,65700,0,27512,0,3181666895,63
o,1724817641.509402,172.16.5.2,55772,172.16.1.2,5102,21011,27548,2086,146432,65728,6,6,4,1460,68437,1,16778208,290000,123692,117900,65700,0,24616,0,3181666895,63
i,1724817641.520818,172.16.5.2,55772,172.16.1.2,5102,21011,27548,2086,146432,65728,6,6,4,1460,68437,1,16778208,290000,123692,122164,65700,0,27512,0,3181666895,63
o,1724817641.520843,172.16.5.2,55772,172.16.1.2,5102,21011,27548,2086,144960,65728,6,6,4,1460,67500,1,16778208,290000,123692,119268,65700,0,24616,0,3181666895,63
o,1724817641.520957,172.16.5.2,55772,172.16.1.2,5102,21011,27548,2086,144960,65728,6,6,4,1460,67500,1,16778208,290000,123692,119268,65700,0,26064,0,3181666895,63
i,1724817641.538414,172.16.5.2,55772,172.16.1.2,5102,21011,27548,2086,144960,65728,6,6,4,1460,67500,1,16778208,290000,123692,123692,65700,0,27512,0,3181666895,63
o,1724817641.538441,172.16.5.2,55772,172.16.1.2,5102,21011,27548,2086,144960,65728,6,6,4,1460,69062,1,16778208,300000,123692,120796,65700,0,24616,0,3181666895,63
i,1724817641.548115,172.16.5.2,55772,172.16.1.2,5102,21011,27548,2086,144960,65728,6,6,4,1460,69062,1,16778208,300000,123692,123692,65700,0,27512,0,3181666895,63
o,1724817641.548153,172.16.5.2,55772,172.16.1.2,5102,21011,27548,2086,144960,65728,6,6,4,1460,70625,1,16778208,300000,123692,120796,65700,0,24616,0,3181666895,63
i,1724817641.549664,172.16.5.2,55772,172.16.1.2,5102,21011,27548,2086,144960,65728,6,6,4,1460,70625,1,16778208,300000,123692,123692,65700,0,27512,0,3181666895,63
o,1724817641.549690,172.16.5.2,55772,172.16.1.2,5102,21011,27548,2086,146432,65728,6,6,4,1460,71875,1,16778208,310000,123692,120796,65700,0,24616,0,3181666895,63
i,1724817641.549882,172.16.5.2,55772,172.16.1.2,5102,21011,27548,2086,146432,65728,6,6,4,1460,71875,1,16778208,310000,123692,120796,65700,0,27512,0,3181666895,63
o,1724817641.549898,172.16.5.2,55772,172.16.1.2,5102,21011,27548,2086,144960,65728,6,6,4,1460,71875,1,16778208,300000,123692,117900,65700,0,24616,0,3181666895,63
i,1724817641.551024,172.16.5.2,55772,172.16.1.2,5102,21011,27548,2086,144960,65728,6,6,4,1460,71875,1,16778208,300000,123692,123692,65700,0,27512,0,3181666895,63
o,1724817641.551046,172.16.5.2,55772,172.16.1.2,5102,21011,27548,2086,142080,65728,6,6,4,1460,71875,1,16778208,290000,123692,120796,65700,0,24616,0,3181666895,63
i,1724817641.577242,172.16.5.2,55772,172.16.1.2,5102,21011,27548,2086,142080,65728,6,6,4,1460,71875,1,16778208,290000,123692,123692,65700,0,27512,0,3181666895,63
o,1724817641.577242,172.16.5.2,55772,172.16.1.2,5102,21011,29008,2086,144960,65728,6,6,4,1460,75625,1,16778208,320000,123692,120796,65700,0,24616,0,3181666895,63
i,1724817641.577957,172.16.5.2,55772,172.16.1.2,5102,21011,29008,2086,144960,65728,6,6,4,1460,75625,1,16778208,320000,123692,120796,65700,0,28960,0,3181666895,63
o,1724817641.577987,172.16.5.2,55772,172.16.1.2,5102,21011,29008,2086,146432,65728,6,6,4,1460,78750,1,16778208,340000,123692,117900,65700,0,26064,0,3181666895,63
i,1724817641.578227,172.16.5.2,55772,172.16.1.2,5102,21011,29008,2086,146432,65728,6,6,4,1460,78750,1,16778208,340000,123692,117900,65700,0,28960,0,3181666895,63
o,1724817641.578246,172.16.5.2,55772,172.16.1.2,5102,21011,29008,2086,144960,65728,6,6,4,1460,77812,1,16778208,330000,123692,115004,65700,0,26064,0,3181666895,63
i,1724817641.599179,172.16.5.2,55772,172.16.1.2,5102,21011,29008,2086,144960,65728,6,6,4,1460,77812,1,16778208,330000,123692,123692,65700,0,28960,0,3181666895,63
o,1724817641.599179,172.16.5.2,55772,172.16.1.2,5102,21011,29008,2086,146432,65728,6,6,4,1460,79375,1,16778208,330000,123692,120796,65700,0,26064,0,3181666895,63
o,1724817641.599179,172.16.5.2,55772,172.16.1.2,5102,21011,29008,2086,146432,65728,6,6,4,1460,79375,1,16778208,330000,123692,120796,65700,0,27512,0,3181666895,63
i,1724817641.607999,172.16.5.2,55772,172.16.1.2,5102,21011,29008,2086,146432,65728,6,6,4,1460,79375,1,16778208,330000,123692,123692,65700,0,28960,0,3181666895,63
o,1724817641.608031,172.16.5.2,55772,172.16.1.2,5102,21011,29008,2086,146432,65728,6,6,4,1460,80937,1,16778208,330000,123692,120796,65700,0,26064,0,3181666895,63
i,1724817641.608222,172.16.5.2,55772,172.16.1.2,5102,21011,29008,2086,146432,65728,6,6,4,1460,80937,1,16778208,330000,123692,120796,65700,0,28960,0,3181666895,63
o,1724817641.608244,172.16.5.2,55772,172.16.1.2,5102,21011,29008,2086,143552,65728,6,6,4,1460,79687,1,16778208,330000,123692,117900,65700,0,26064,0,3181666895,63
i,1724817641.619205,172.16.5.2,55772,172.16.1.2,5102,21011,29008,2086,143552,65728,6,6,4,1460,79687,1,16778208,330000,123692,123692,65700,0,28960,0,3181666895,63
o,1724817641.619238,172.16.5.2,55772,172.16.1.2,5102,21011,29008,2086,146432,65728,6,6,4,1460,78750,1,16778208,320000,123692,120796,65700,0,26064,0,3181666895,63
i,1724817641.620029,172.16.5.2,55772,172.16.1.2,5102,21011,29008,2086,146432,65728,6,6,4,1460,78750,1,16778208,320000,123692,123692,65700,0,28960,0,3181666895,63
o,1724817641.620105,172.16.5.2,55772,172.16.1.2,5102,21011,29008,2086,146432,65728,6,6,4,1460,77812,1,16778208,320000,123692,120796,65700,0,26064,0,3181666895,63
i,1724817641.628040,172.16.5.2,55772,172.16.1.2,5102,21011,29008,2086,146432,65728,6,6,4,1460,77812,1,16778208,320000,123692,123692,65700,0,28960,0,3181666895,63
o,1724817641.628061,172.16.5.2,55772,172.16.1.2,5102,21011,29008,2086,146432,65728,6,6,4,1460,78125,1,16778208,310000,123692,120796,65700,0,26064,0,3181666895,63
i,1724817641.646047,172.16.5.2,55772,172.16.1.2,5102,21011,29008,2086,146432,65728,6,6,4,1460,78125,1,16778208,310000,123692,123692,65700,0,28960,0,3181666895,63
o,1724817641.646069,172.16.5.2,55772,172.16.1.2,5102,21011,29008,2086,146432,65728,6,6,4,1460,80937,1,16778208,330000,123692,120796,65700,0,26064,0,3181666895,63
i,1724817641.656161,172.16.5.2,55772,172.16.1.2,5102,21011,29008,2086,146432,65728,6,6,4,1460,80937,1,16778208,330000,123692,123692,65700,0,28960,0,3181666895,63
o,1724817641.656552,172.16.5.2,55772,172.16.1.2,5102,21011,30468,2086,144960,65728,6,6,4,1460,80937,1,16778208,320000,123692,120796,65700,0,26064,0,3181666895,63
i,1724817641.656957,172.16.5.2,55772,172.16.1.2,5102,21011,30468,2086,144960,65728,6,6,4,1460,80937,1,16778208,320000,123692,123692,65700,0,30408,0,3181666895,63
o,1724817641.656977,172.16.5.2,55772,172.16.1.2,5102,21011,30468,2086,146432,65728,6,6,4,1460,80937,1,16778208,310000,123692,120796,65700,0,27512,0,3181666895,63
i,1724817641.665828,172.16.5.2,55772,172.16.1.2,5102,21011,30468,2086,146432,65728,6,6,4,1460,80937,1,16778208,310000,123692,123692,65700,0,30408,0,3181666895,63
o,1724817641.665851,172.16.5.2,55772,172.16.1.2,5102,21011,30468,2086,146432,65728,6,6,4,1460,82187,1,16778208,310000,123692,120796,65700,0,27512,0,3181666895,63
i,1724817641.666136,172.16.5.2,55772,172.16.1.2,5102,21011,30468,2086,146432,65728,6,6,4,1460,82187,1,16778208,310000,123692,120796,65700,0,30408,0,3181666895,63
o,1724817641.666157,172.16.5.2,55772,172.16.1.2,5102,21011,30468,2086,146432,65728,6,6,4,1460,80937,1,16778208,310000,123692,117900,65700,0,27512,0,3181666895,63
o,1724817641.666289,172.16.5.2,55772,172.16.1.2,5102,21011,30468,2086,146432,65728,6,6,4,1460,80937,1,16778208,310000,123692,117900,65700,0,28960,0,3181666895,63
i,1724817641.684386,172.16.5.2,55772,172.16.1.2,5102,21011,30468,2086,146432,65728,6,6,4,1460,80937,1,16778208,310000,123692,123692,65700,0,30408,0,3181666895,63
o,1724817641.684429,172.16.5.2,55772,172.16.1.2,5102,21011,30468,2086,146432,65728,6,6,4,1460,80937,1,16778208,300000,123692,120796,65700,0,27512,0,3181666895,63
i,1724817641.694326,172.16.5.2,55772,172.16.1.2,5102,21011,30468,2086,146432,65728,6,6,4,1460,80937,1,16778208,300000,123692,123692,65700,0,30408,0,3181666895,63
o,1724817641.694356,172.16.5.2,55772,172.16.1.2,5102,21011,30468,2086,144960,65728,6,6,4,1460,82187,1,16778208,310000,123692,120796,65700,0,27512,0,3181666895,63
i,1724817641.697441,172.16.5.2,55772,172.16.1.2,5102,21011,30468,2086,144960,65728,6,6,4,1460,82187,1,16778208,310000,123692,123692,65700,0,30408,0,3181666895,63
o,1724817641.697481,172.16.5.2,55772,172.16.1.2,5102,21011,30468,2086,144960,65728,6,6,4,1460,82187,1,16778208,300000,123692,120796,65700,0,27512,0,3181666895,63
i,1724817641.697641,172.16.5.2,55772,172.16.1.2,5102,21011,30468,2086,144960,65728,6,6,4,1460,82187,1,16778208,300000,123692,120796,65700,0,30408,0,3181666895,63
o,1724817641.697665,172.16.5.2,55772,172.16.1.2,5102,21011,30468,2086,146432,65728,6,6,4,1460,82187,1,16778208,300000,123692,117900,65700,0,27512,0,3181666895,63
i,1724817641.698684,172.16.5.2,55772,172.16.1.2,5102,21011,30468,2086,146432,65728,6,6,4,1460,82187,1,16778208,300000,123692,123692,65700,0,30408,0,3181666895,63
o,1724817641.698709,172.16.5.2,55772,172.16.1.2,5102,21011,30468,2086,146432,65728,6,6,4,1460,80937,1,16778208,300000,123692,120796,65700,0,27512,0,3181666895,63
i,1724817641.734637,172.16.5.2,55772,172.16.1.2,5102,21011,30468,2086,146432,65728,6,6,4,1460,80937,1,16778208,300000,123692,123692,65700,0,30408,0,3181666895,63
o,1724817641.734743,172.16.5.2,55772,172.16.1.2,5102,21011,30468,2086,146432,65728,6,6,4,1460,82187,1,16778208,310000,123692,120796,65700,0,27512,0,3181666895,63
i,1724817641.734897,172.16.5.2,55772,172.16.1.2,5102,21011,30468,2086,146432,65728,6,6,4,1460,82187,1,16778208,310000,123692,120796,65700,0,30408,0,3181666895,63
o,1724817641.734913,172.16.5.2,55772,172.16.1.2,5102,21011,31928,2086,146432,65728,6,6,4,1460,82187,1,16778208,300000,123692,117900,65700,0,27512,0,3181666895,63
i,1724817641.736516,172.16.5.2,55772,172.16.1.2,5102,21011,31928,2086,146432,65728,6,6,4,1460,82187,1,16778208,300000,123692,123692,65700,0,31856,0,3181666895,63
o,1724817641.736546,172.16.5.2,55772,172.16.1.2,5102,21011,31928,2086,144960,65728,6,6,4,1460,82187,1,16778208,290000,123692,120796,65700,0,28960,0,3181666895,63
i,1724817641.743710,172.16.5.2,55772,172.16.1.2,5102,21011,31928,2086,144960,65728,6,6,4,1460,82187,1,16778208,290000,123692,123692,65700,0,31856,0,3181666895,63
o,1724817641.743773,172.16.5.2,55772,172.16.1.2,5102,21011,31928,2086,146432,65728,6,6,4,1460,82187,1,16778208,290000,123692,120796,65700,0,28960,0,3181666895,63
i,1724817641.744096,172.16.5.2,55772,172.16.1.2,5102,21011,31928,2086,146432,65728,6,6,4,1460,82187,1,16778208,290000,123692,120796,65700,0,31856,0,3181666895,63
o,1724817641.744118,172.16.5.2,55772,172.16.1.2,5102,21011,31928,2086,143552,65728,6,6,4,1460,80937,1,16778208,300000,123692,117900,65700,0,28960,0,3181666895,63
o,1724817641.744296,172.16.5.2,55772,172.16.1.2,5102,21011,31928,2086,143552,65728,6,6,4,1460,80937,1,16778208,300000,123692,117900,65700,0,30408,0,3181666895,63
i,1724817641.774830,172.16.5.2,55772,172.16.1.2,5102,21011,31928,2086,143552,65728,6,6,4,1460,80937,1,16778208,300000,123692,123692,65700,0,31856,0,3181666895,63
o,1724817641.774865,172.16.5.2,55772,172.16.1.2,5102,21011,31928,2086,146432,65728,6,6,4,1460,84687,1,16778208,330000,123692,120796,65700,0,28960,0,3181666895,63
i,1724817641.775854,172.16.5.2,55772,172.16.1.2,5102,21011,31928,2086,146432,65728,6,6,4,1460,84687,1,16778208,330000,123692,123692,65700,0,31856,0,3181666895,63
o,1724817641.775882,172.16.5.2,55772,172.16.1.2,5102,21011,31928,2086,146432,65728,6,6,4,1460,85625,1,16778208,330000,123692,120796,65700,0,28960,0,3181666895,63
i,1724817641.784740,172.16.5.2,55772,172.16.1.2,5102,21011,31928,2086,146432,65728,6,6,4,1460,85625,1,16778208,330000,123692,123692,65700,0,31856,0,3181666895,63
o,1724817641.784845,172.16.5.2,55772,172.16.1.2,5102,21011,31928,2086,146432,65728,6,6,4,1460,86250,1,16778208,320000,123692,120796,65700,0,28960,0,3181666895,63
i,1724817641.785121,172.16.5.2,55772,172.16.1.2,5102,21011,31928,2086,146432,65728,6,6,4,1460,86250,1,16778208,320000,123692,120796,65700,0,31856,0,3181666895,63
o,1724817641.785151,172.16.5.2,55772,172.16.1.2,5102,21011,31928,2086,146432,65728,6,6,4,1460,86875,1,16778208,320000,123692,117900,65700,0,28960,0,3181666895,63
i,1724817641.786257,172.16.5.2,55772,172.16.1.2,5102,21011,31928,2086,146432,65728,6,6,4,1460,86875,1,16778208,320000,123692,123692,65700,0,31856,0,3181666895,63
o,1724817641.786357,172.16.5.2,55772,172.16.1.2,5102,21011,31928,2086,146432,65728,6,6,4,1460,87500,1,16778208,320000,123692,120796,65700,0,28960,0,3181666895,63
i,1724817641.813646,172.16.5.2,55772,172.16.1.2,5102,21011,31928,2086,146432,65728,6,6,4,1460,87500,1,16778208,320000,123692,123692,65700,0,31856,0,3181666895,63
o,1724817641.813748,172.16.5.2,55772,172.16.1.2,5102,21011,31928,2086,146432,65728,6,6,4,1460,90312,1,16778208,330000,123692,120796,65700,0,28960,0,3181666895,63
i,1724817641.813913,172.16.5.2,55772,172.16.1.2,5102,21011,31928,2086,146432,65728,6,6,4,1460,90312,1,16778208,330000,123692,120796,65700,0,31856,0,3181666895,63
o,1724817641.813937,172.16.5.2,55772,172.16.1.2,5102,21011,31928,2086,144960,65728,6,6,4,1460,87812,1,16778208,340000,123692,117900,65700,0,28960,0,3181666895,63
i,1724817641.814492,172.16.5.2,55772,172.16.1.2,5102,21011,31928,2086,144960,65728,6,6,4,1460,87812,1,16778208,340000,123692,123692,65700,0,31856,0,3181666895,63
o,1724817641.814569,172.16.5.2,55772,172.16.1.2,5102,21011,33388,2086,144960,65728,6,6,4,1460,85625,1,16778208,340000,123692,120796,65700,0,28960,0,3181666895,63
