enable_time_secs=1724816937	enable_time_usecs=337208	siftrver=1.3.0	sysname=FreeBSD	sysver=1401000	ipmode=4
o,1724816937.337668,10.0.2.15,22,10.0.2.2,51132,1073725440,17746,1026,65535,65700,0,0,4,1460,312,0,16777220,240000,33580,172,65700,0,0,0,2757045728,63
o,1724816937.337833,10.0.2.15,22,10.0.2.2,51132,1073725440,17746,1026,65535,65700,0,0,4,1460,312,0,16777220,240000,33580,244,65700,0,172,0,2757045728,63
i,1724816937.338057,10.0.2.15,22,10.0.2.2,51132,1073725440,17746,1026,65535,65700,0,0,4,1460,312,0,16777220,240000,33580,244,65700,0,244,0,2757045728,63
i,1724816937.338074,10.0.2.15,22,10.0.2.2,51132,1073725440,17918,1026,65535,65700,0,0,4,1460,312,0,4,240000,33580,72,65700,0,72,0,2757045728,63
i,1724816937.338641,10.0.2.15,22,10.0.2.2,51132,1073725440,17990,1026,65535,65700,0,0,4,1460,312,0,4,240000,33580,0,65700,0,0,0,2757045728,63
i,1724816937.338662,10.0.2.15,22,10.0.2.2,51132,1073725440,17990,1026,65535,65700,0,0,4,1460,312,0,4,240000,33580,0,65700,96,0,0,2757045728,63
o,1724816937.338686,10.0.2.15,22,10.0.2.2,51132,1073725440,17990,1026,65535,65604,0,0,5,1460,312,0,5,240000,33580,0,65700,96,0,0,2757045728,63
o,1724816937.339739,10.0.2.15,22,10.0.2.2,51132,1073725440,17990,1026,65535,65604,0,0,8,1460,312,0,4,240000,33580,0,65700,0,0,0,2757045728,63
i,1724816937.340285,10.0.2.15,22,10.0.2.2,51132,1073725440,17990,1026,65535,65604,0,0,8,1460,312,0,67108884,240000,33580,0,65700,0,1,0,2757045728,63
i,1724816940.495912,10.0.2.15,22,10.0.2.2,51144,1073725440,14600,0,65535,65700,0,0,4,1460,312,0,16777216,270000,33580,0,65700,0,0,0,1773504842,63
o,1724816940.508830,10.0.2.15,22,10.0.2.2,51144,1073725440,14600,1026,65535,65700,0,0,4,1460,312,0,16777216,270000,33580,38,65700,42,0,0,1773504842,63
i,1724816940.509382,10.0.2.15,22,10.0.2.2,51144,1073725440,14600,1026,65535,65700,0,0,4,1460,312,0,16777216,270000,33580,38,65700,0,38,0,1773504842,63
i,1724816940.509448,10.0.2.15,22,10.0.2.2,51144,1073725440,14638,1026,65535,65700,0,0,4,1460,312,0,0,240000,33580,0,65700,0,0,0,1773504842,63
i,1724816940.509467,10.0.2.15,22,10.0.2.2,51144,1073725440,14638,1026,65535,65700,0,0,4,1460,312,0,0,240000,33580,0,65700,1460,0,0,1773504842,63
o,1724816940.509487,10.0.2.15,22,10.0.2.2,51144,1073725440,14638,1026,65535,65700,0,0,4,1460,312,0,1,240000,33580,0,65700,1536,0,0,1773504842,63
o,1724816940.510358,10.0.2.15,22,10.0.2.2,51144,1073725440,14638,1026,65535,65700,0,0,4,1460,312,0,16777216,240000,33580,1120,65700,1536,0,0,1773504842,63
i,1724816940.510827,10.0.2.15,22,10.0.2.2,51144,1073725440,14638,1026,65535,65700,0,0,4,1460,312,0,16777216,240000,33580,1120,65700,0,1120,0,1773504842,63
i,1724816940.512187,10.0.2.15,22,10.0.2.2,51144,1073725440,15758,1026,65535,65700,0,0,4,1460,312,0,0,240000,33580,0,65700,0,0,0,1773504842,63
o,1724816940.515253,10.0.2.15,22,10.0.2.2,51144,1073725440,15758,1026,65535,65700,0,0,4,1460,312,0,16777216,240000,33580,492,65700,0,0,0,1773504842,63
i,1724816940.515764,10.0.2.15,22,10.0.2.2,51144,1073725440,15758,1026,65535,65700,0,0,4,1460,312,0,16777216,240000,33580,492,65700,0,492,0,1773504842,63
i,1724816940.520108,10.0.2.15,22,10.0.2.2,51144,1073725440,16250,1026,65535,65700,0,0,4,1460,312,0,0,240000,33580,0,65700,0,0,0,1773504842,63
i,1724816940.520189,10.0.2.15,22,10.0.2.2,51144,1073725440,16250,1026,65535,65700,0,0,4,1460,312,0,0,240000,33580,0,65700,16,0,0,1773504842,63
o,1724816940.520212,10.0.2.15,22,10.0.2.2,51144,1073725440,16250,1026,65535,65700,0,0,4,1460,312,0,1,240000,33580,0,65700,60,0,0,1773504842,63
o,1724816940.520383,10.0.2.15,22,10.0.2.2,51144,1073725440,16250,1026,65535,65700,0,0,4,1460,312,0,16777216,240000,33580,44,65700,0,0,0,1773504842,63
i,1724816940.521757,10.0.2.15,22,10.0.2.2,51144,1073725440,16250,1026,65535,65700,0,0,4,1460,312,0,16777216,240000,33580,44,65700,0,44,0,1773504842,63
i,1724816940.521777,10.0.2.15,22,10.0.2.2,51144,1073725440,16294,1026,65535,65700,0,0,4,1460,312,0,0,240000,33580,0,65700,0,0,0,1773504842,63
o,1724816940.522702,10.0.2.15,22,10.0.2.2,51144,1073725440,16294,1026,65535,65700,0,0,4,1460,312,0,16777216,240000,33580,68,65700,0,0,0,1773504842,63
i,1724816940.523226,10.0.2.15,22,10.0.2.2,51144,1073725440,16294,1026,65535,65700,0,0,4,1460,312,0,16777216,240000,33580,68,65700,0,68,0,1773504842,63
i,1724816940.523244,10.0.2.15,22,10.0.2.2,51144,1073725440,16362,1026,65535,65700,0,0,4,1460,312,0,0,240000,33580,0,65700,0,0,0,1773504842,63
o,1724816940.524707,10.0.2.15,22,10.0.2.2,51144,1073725440,16362,1026,65535,65700,0,0,4,1460,312,0,16777216,240000,33580,332,65700,0,0,0,1773504842,63
i,1724816940.525595,10.0.2.15,22,10.0.2.2,51144,1073725440,16362,1026,65535,65700,0,0,4,1460,312,0,16777216,240000,33580,332,65700,0,332,0,1773504842,63
i,1724816940.526777,10.0.2.15,22,10.0.2.2,51144,1073725440,16694,1026,65535,65700,0,0,4,1460,312,0,0,240000,33580,0,65700,0,0,0,1773504842,63
o,1724816940.544834,10.0.2.15,22,10.0.2.2,51144,1073725440,16694,1026,65535,65700,0,0,4,1460,312,0,16777216,240000,33580,28,65700,0,0,0,1773504842,63
i,1724816940.545540,10.0.2.15,22,10.0.2.2,51144,1073725440,16694,1026,65535,65700,0,0,4,1460,312,0,16777216,240000,33580,28,65700,0,28,0,1773504842,63
i,1724816940.545606,10.0.2.15,22,10.0.2.2,51144,1073725440,16722,1026,65535,65700,0,0,4,1460,312,0,0,240000,33580,0,65700,0,0,0,1773504842,63
o,1724816940.546487,10.0.2.15,22,10.0.2.2,51144,1073725440,16722,1026,65535,65700,0,0,4,1460,312,0,16777216,240000,33580,768,65700,112,0,0,1773504842,63
i,1724816940.547379,10.0.2.15,22,10.0.2.2,51144,1073725440,16722,1026,65535,65700,0,0,4,1460,312,0,16777216,240000,33580,908,65700,112,768,0,1773504842,63
o,1724816940.547399,10.0.2.15,22,10.0.2.2,51144,1073725440,17490,1026,65535,65700,0,0,4,1460,312,0,16777216,240000,33580,140,65700,112,0,0,1773504842,63
i,1724816940.549333,10.0.2.15,22,10.0.2.2,51144,1073725440,17490,1026,65535,65700,0,0,4,1460,312,0,16777216,240000,33580,184,65700,0,140,0,1773504842,63
o,1724816940.549353,10.0.2.15,22,10.0.2.2,51144,1073725440,17630,1026,65535,65700,0,0,4,1460,312,0,16777216,240000,33580,44,65700,0,0,0,1773504842,63
i,1724816940.549942,10.0.2.15,22,10.0.2.2,51144,1073725440,17630,1026,65535,65700,0,0,4,1460,312,0,16777216,240000,33580,44,65700,0,44,0,1773504842,63
i,1724816940.549960,10.0.2.15,22,10.0.2.2,51144,1073725440,17674,1026,65535,65700,0,0,4,1460,312,0,0,240000,33580,0,65700,0,0,0,1773504842,63
o,1724816940.550541,10.0.2.15,22,10.0.2.2,51144,1073725440,17674,1026,65535,65700,0,0,4,1460,312,0,16777220,240000,33580,72,65700,0,0,0,1773504842,63
i,1724816940.551002,10.0.2.15,22,10.0.2.2,51144,1073725440,17674,1026,65535,65700,0,0,4,1460,312,0,16777220,240000,33580,72,65700,0,72,0,1773504842,63
o,1724816940.556227,10.0.2.15,22,10.0.2.2,51144,1073725440,17746,1026,65535,65700,0,0,4,1460,312,0,16777220,240000,33580,104,65700,0,0,0,1773504842,63
i,1724816940.556731,10.0.2.15,22,10.0.2.2,51144,1073725440,17746,1026,65535,65700,0,0,4,1460,312,0,16777220,240000,33580,104,65700,0,104,0,1773504842,63
o,1724816940.572253,10.0.2.15,22,10.0.2.2,51144,1073725440,17850,1026,65535,65700,0,0,4,1460,312,0,16777220,240000,33580,72,65700,0,0,0,1773504842,63
i,1724816940.574405,10.0.2.15,22,10.0.2.2,51144,1073725440,17850,1026,65535,65700,0,0,4,1460,312,0,16777220,240000,33580,72,65700,0,72,0,1773504842,63
i,1724816940.574429,10.0.2.15,22,10.0.2.2,51144,1073725440,17922,1026,65535,65700,0,0,4,1460,312,0,4,230000,33580,0,65700,0,0,0,1773504842,63
i,1724816940.574510,10.0.2.15,22,10.0.2.2,51144,1073725440,17922,1026,65535,65700,0,0,4,1460,312,0,4,230000,33580,0,65700,96,0,0,1773504842,63
o,1724816940.574531,10.0.2.15,22,10.0.2.2,51144,1073725440,17922,1026,65535,65604,0,0,5,1460,312,0,5,230000,33580,0,65700,96,0,0,1773504842,63
o,1724816940.576297,10.0.2.15,22,10.0.2.2,51144,1073725440,17922,1026,65535,65604,0,0,8,1460,312,0,4,230000,33580,0,65700,0,0,0,1773504842,63
i,1724816940.577081,10.0.2.15,22,10.0.2.2,51144,1073725440,17922,1026,65535,65604,0,0,8,1460,312,0,67108884,230000,33580,0,65700,0,1,0,1773504842,63
i,1724816941.635974,10.0.2.15,22,10.0.2.2,51128,1073725440,14600,0,65535,65700,0,0,4,1460,312,0,16777216,270000,33580,0,65700,0,0,0,203512854,63
o,1724816941.649510,10.0.2.15,22,10.0.2.2,51128,1073725440,14600,1026,65535,65700,0,0,4,1460,312,0,16777216,270000,33580,38,65700,42,0,0,203512854,63
i,1724816941.649990,10.0.2.15,22,10.0.2.2,51128,1073725440,14600,1026,65535,65700,0,0,4,1460,312,0,16777216,270000,33580,38,65700,0,38,0,203512854,63
i,1724816941.650490,10.0.2.15,22,10.0.2.2,51128,1073725440,14638,1026,65535,65700,0,0,4,1460,312,0,0,230000,33580,0,65700,0,0,0,203512854,63
i,1724816941.650511,10.0.2.15,22,10.0.2.2,51128,1073725440,14638,1026,65535,65700,0,0,4,1460,312,0,0,230000,33580,0,65700,1460,0,0,203512854,63
o,1724816941.650534,10.0.2.15,22,10.0.2.2,51128,1073725440,14638,1026,65535,65700,0,0,4,1460,312,0,1,230000,33580,0,65700,1536,0,0,203512854,63
o,1724816941.652458,10.0.2.15,22,10.0.2.2,51128,1073725440,14638,1026,65535,65700,0,0,4,1460,312,0,16777216,230000,33580,1120,65700,1536,0,0,203512854,63
i,1724816941.653839,10.0.2.15,22,10.0.2.2,51128,1073725440,14638,1026,65535,65700,0,0,4,1460,312,0,16777216,230000,33580,1120,65700,0,1120,0,203512854,63
i,1724816941.654470,10.0.2.15,22,10.0.2.2,51128,1073725440,15758,1026,65535,65700,0,0,4,1460,312,0,0,240000,33580,0,65700,0,0,0,203512854,63
o,1724816941.658462,10.0.2.15,22,10.0.2.2,51128,1073725440,15758,1026,65535,65700,0,0,4,1460,312,0,16777216,240000,33580,492,65700,0,0,0,203512854,63
i,1724816941.658925,10.0.2.15,22,10.0.2.2,51128,1073725440,15758,1026,65535,65700,0,0,4,1460,312,0,16777216,240000,33580,492,65700,0,492,0,203512854,63
i,1724816941.663201,10.0.2.15,22,10.0.2.2,51128,1073725440,16250,1026,65535,65700,0,0,4,1460,312,0,0,240000,33580,0,65700,0,0,0,203512854,63
i,1724816941.663218,10.0.2.15,22,10.0.2.2,51128,1073725440,16250,1026,65535,65700,0,0,4,1460,312,0,0,240000,33580,0,65700,16,0,0,203512854,63
o,1724816941.663233,10.0.2.15,22,10.0.2.2,51128,1073725440,16250,1026,65535,65700,0,0,4,1460,312,0,1,240000,33580,0,65700,60,0,0,203512854,63
o,1724816941.663827,10.0.2.15,22,10.0.2.2,51128,1073725440,16250,1026,65535,65700,0,0,4,1460,312,0,16777216,240000,33580,44,65700,0,0,0,203512854,63
i,1724816941.664941,10.0.2.15,22,10.0.2.2,51128,1073725440,16250,1026,65535,65700,0,0,4,1460,312,0,16777216,240000,33580,44,65700,0,44,0,203512854,63
i,1724816941.664959,10.0.2.15,22,10.0.2.2,51128,1073725440,16294,1026,65535,65700,0,0,4,1460,312,0,0,240000,33580,0,65700,0,0,0,203512854,63
o,1724816941.668314,10.0.2.15,22,10.0.2.2,51128,1073725440,16294,1026,65535,65700,0,0,4,1460,312,0,16777216,240000,33580,68,65700,0,0,0,203512854,63
i,1724816941.668887,10.0.2.15,22,10.0.2.2,51128,1073725440,16294,1026,65535,65700,0,0,4,1460,312,0,16777216,240000,33580,68,65700,0,68,0,203512854,63
i,1724816941.668908,10.0.2.15,22,10.0.2.2,51128,1073725440,16362,1026,65535,65700,0,0,4,1460,312,0,0,240000,33580,0,65700,0,0,0,203512854,63
o,1724816941.670566,10.0.2.15,22,10.0.2.2,51128,1073725440,16362,1026,65535,65700,0,0,4,1460,312,0,16777216,240000,33580,332,65700,0,0,0,203512854,63
i,1724816941.671443,10.0.2.15,22,10.0.2.2,51128,1073725440,16362,1026,65535,65700,0,0,4,1460,312,0,16777216,240000,33580,332,65700,0,332,0,203512854,63
i,1724816941.672631,10.0.2.15,22,10.0.2.2,51128,1073725440,16694,1026,65535,65700,0,0,4,1460,312,0,0,240000,33580,0,65700,0,0,0,203512854,63
o,1724816941.689790,10.0.2.15,22,10.0.2.2,51128,1073725440,16694,1026,65535,65700,0,0,4,1460,312,0,16777216,240000,33580,28,65700,0,0,0,203512854,63
i,1724816941.690147,10.0.2.15,22,10.0.2.2,51128,1073725440,16694,1026,65535,65700,0,0,4,1460,312,0,16777216,240000,33580,28,65700,0,28,0,203512854,63
i,1724816941.690147,10.0.2.15,22,10.0.2.2,51128,1073725440,16722,1026,65535,65700,0,0,4,1460,312,0,0,240000,33580,0,65700,0,0,0,203512854,63
o,1724816941.693942,10.0.2.15,22,10.0.2.2,51128,1073725440,16722,1026,65535,65700,0,0,4,1460,312,0,16777216,240000,33580,768,65700,112,0,0,203512854,63
i,1724816941.694412,10.0.2.15,22,10.0.2.2,51128,1073725440,16722,1026,65535,65700,0,0,4,1460,312,0,16777216,240000,33580,908,65700,112,768,0,203512854,63
o,1724816941.694436,10.0.2.15,22,10.0.2.2,51128,1073725440,17490,1026,65535,65700,0,0,4,1460,312,0,16777216,240000,33580,140,65700,112,0,0,203512854,63
i,1724816941.694799,10.0.2.15,22,10.0.2.2,51128,1073725440,17490,1026,65535,65700,0,0,4,1460,312,0,16777216,240000,33580,140,65700,112,140,0,203512854,63
o,1724816941.695027,10.0.2.15,22,10.0.2.2,51128,1073725440,17630,1026,65535,65700,0,0,4,1460,312,0,16777216,240000,33580,44,65700,0,0,0,203512854,63
i,1724816941.695807,10.0.2.15,22,10.0.2.2,51128,1073725440,17630,1026,65535,65700,0,0,4,1460,312,0,16777216,240000,33580,44,65700,0,44,0,203512854,63
i,1724816941.695827,10.0.2.15,22,10.0.2.2,51128,1073725440,17674,1026,65535,65700,0,0,4,1460,312,0,0,240000,33580,0,65700,0,0,0,203512854,63
o,1724816941.696565,10.0.2.15,22,10.0.2.2,51128,1073725440,17674,1026,65535,65700,0,0,4,1460,312,0,16777220,240000,33580,72,65700,0,0,0,203512854,63
i,1724816941.698755,10.0.2.15,22,10.0.2.2,51128,1073725440,17674,1026,65535,65700,0,0,4,1460,312,0,16777220,240000,33580,72,65700,0,72,0,203512854,63
o,1724816941.893026,172.16.5.2,60631,172.16.1.2,5102,15575,14480,2082,65535,65700,6,6,4,1460,193750,1,16778209,560000,33580,0,65700,0,0,0,99992410,63
o,1724816941.893582,172.16.5.2,60631,172.16.1.2,5102,15575,14480,2082,65535,65700,6,6,4,1460,193750,1,16778212,560000,33580,37,65700,0,0,0,99992410,63
i,1724816942.102397,172.16.5.2,60631,172.16.1.2,5102,15575,14480,2082,65535,65700,6,6,4,1460,193750,1,16778212,560000,33580,37,65700,0,37,0,99992410,63
o,1724816942.102622,172.16.5.2,60631,172.16.1.2,5102,15575,14517,3106,65728,65728,6,6,4,1460,194687,1,16778212,530000,33580,4,65700,0,0,0,99992410,63
o,1724816942.102819,172.16.5.2,60631,172.16.1.2,5102,15575,14517,3106,65728,65728,6,6,4,1460,194687,1,16778212,530000,33580,130,65700,0,4,0,99992410,63
i,1724816942.308499,172.16.5.2,60631,172.16.1.2,5102,15575,14517,3106,65728,65728,6,6,4,1460,194687,1,16778212,530000,33580,130,65700,0,130,0,99992410,63
i,1724816942.308577,172.16.5.2,60631,172.16.1.2,5102,15575,14647,3106,65600,65728,6,6,4,1460,196875,1,996,510000,33580,0,65700,0,0,0,99992410,63
o,1724816942.369939,172.16.5.2,60631,172.16.1.2,5102,15575,14647,3106,65728,65728,6,6,4,1460,196875,1,997,510000,33580,0,65700,0,0,0,99992410,63
o,1724816942.521157,172.16.5.2,63076,172.16.1.2,5102,15575,14480,2082,65535,65700,6,6,4,1460,198750,1,16778209,560000,33580,0,65700,0,0,0,3627951453,63
o,1724816942.521291,172.16.5.2,63076,172.16.1.2,5102,15575,14480,2082,65535,65700,6,6,4,1460,198750,1,16778208,560000,33580,37,65700,0,0,0,3627951453,63
i,1724816942.729917,172.16.5.2,60631,172.16.1.2,5102,15575,14647,3106,65728,65728,6,6,4,1460,196875,1,996,510000,33580,0,65700,0,0,0,99992410,63
i,1724816942.730021,172.16.5.2,60631,172.16.1.2,5102,15575,14647,3106,65728,65728,6,6,4,1460,196875,1,996,510000,33580,0,65700,1,0,0,99992410,63
o,1724816942.730047,172.16.5.2,60631,172.16.1.2,5102,15575,14480,3106,65728,65728,6,6,4,1460,196875,1,997,510000,33580,0,65700,2,0,0,99992410,63
o,1724816942.731289,172.16.5.2,63076,172.16.1.2,5102,15575,14480,2086,65535,65700,6,6,4,1460,198750,1,16778208,560000,33580,33580,65700,0,37,0,3627951453,63
i,1724816942.756586,172.16.5.2,63076,172.16.1.2,5102,15575,14480,2086,65535,65700,6,6,4,1460,198750,1,16778208,560000,33580,33580,65700,0,13069,0,3627951453,63
o,1724816942.756669,172.16.5.2,63076,172.16.1.2,5102,15575,14517,2086,65728,65728,6,6,4,1460,204062,1,16778208,570000,33580,33543,65700,0,13032,0,3627951453,63
i,1724816943.156693,172.16.5.2,63076,172.16.1.2,5102,15575,14517,2086,65728,65728,6,6,4,1460,204062,1,16778208,570000,33580,33543,65700,0,14480,0,3627951453,63
o,1724816943.156790,172.16.5.2,63076,172.16.1.2,5102,7713,14480,2086,64256,65728,6,6,4,1460,232500,1,553649120,780000,33580,30647,65700,0,11584,0,3627951453,63
i,1724816943.208415,172.16.5.2,63076,172.16.1.2,5102,7713,14480,2086,64256,65728,6,6,4,1460,232500,1,553649120,780000,33580,33580,65700,0,14480,0,3627951453,63
o,1724816943.208496,172.16.5.2,63076,172.16.1.2,5102,7713,13032,2082,64256,65728,6,6,4,1460,263437,1,553649120,970000,33580,30684,65700,0,11584,0,3627951453,63
i,1724816943.257597,172.16.5.2,63076,172.16.1.2,5102,7713,13032,2082,64256,65728,6,6,4,1460,263437,1,553649120,970000,33580,33580,65700,0,13032,0,3627951453,63
o,1724816943.257684,172.16.5.2,63076,172.16.1.2,5102,7713,11584,2082,64256,65728,6,6,4,1460,296875,1,553649120,1150000,33580,30684,65700,0,10136,0,3627951453,63
i,1724816943.309185,172.16.5.2,63076,172.16.1.2,5102,7713,11584,2082,64256,65728,6,6,4,1460,296875,1,553649120,1150000,33580,33580,65700,0,11584,0,3627951453,63
o,1724816943.309220,172.16.5.2,63076,172.16.1.2,5102,7713,11596,2086,64256,65728,6,6,4,1460,332500,1,553649120,1310000,33580,30684,65700,0,8688,0,3627951453,63
i,1724816943.355505,172.16.5.2,63076,172.16.1.2,5102,7713,11596,2086,64256,65728,6,6,4,1460,332500,1,553649120,1310000,33580,33580,65700,0,11584,0,3627951453,63
i,1724816943.481052,172.16.5.2,63076,172.16.1.2,5102,7713,8688,2086,64256,65728,6,6,4,1460,369687,1,536871904,1450000,33580,33580,65700,0,8688,0,3627951453,63
i,1724816943.505290,172.16.5.2,63076,172.16.1.2,5102,4629,7240,2150,65728,65728,6,6,4,1460,363750,1,536871904,1270000,33580,32132,65700,0,7240,0,3627951453,63
o,1724816943.505351,172.16.5.2,63076,172.16.1.2,5102,4629,7252,2086,65728,65728,6,6,4,1460,362187,1,553649120,1100000,33580,30684,65700,0,5792,0,3627951453,63
i,1724816943.603684,172.16.5.2,63076,172.16.1.2,5102,4629,7252,2086,65728,65728,6,6,4,1460,362187,1,553649120,1100000,33580,33580,65700,0,7240,0,3627951453,63
o,1724816943.603783,172.16.5.2,63076,172.16.1.2,5102,4629,7240,2086,64256,65728,6,6,4,1460,365937,1,553649120,1000000,33580,30684,65700,0,4344,0,3627951453,63
i,1724816943.633066,172.16.5.2,63076,172.16.1.2,5102,4629,7240,2086,64256,65728,6,6,4,1460,365937,1,553649120,1000000,33580,33580,65700,0,7240,0,3627951453,63
o,1724816943.633095,172.16.5.2,63076,172.16.1.2,5102,4629,7240,2086,64256,65728,6,6,4,1460,360312,1,553649120,930000,33580,30684,65700,0,4344,0,3627951453,63
i,1724816943.725884,172.16.5.2,63076,172.16.1.2,5102,4629,7240,2086,64256,65728,6,6,4,1460,360312,1,553649120,930000,33580,33580,65700,0,7240,0,3627951453,63
o,1724816943.725960,172.16.5.2,63076,172.16.1.2,5102,4629,7240,2082,65728,65728,6,6,4,1460,342812,1,16778208,960000,33580,32132,65700,0,5792,0,3627951453,63
i,1724816943.807647,172.16.5.2,63076,172.16.1.2,5102,4629,7240,2082,65728,65728,6,6,4,1460,342812,1,16778208,960000,33580,32132,65700,0,7240,0,3627951453,63
o,1724816943.807685,172.16.5.2,63076,172.16.1.2,5102,4629,7240,2086,64256,65728,6,6,4,1460,325000,1,16778208,980000,33580,29236,65700,0,4344,0,3627951453,63
i,1724816943.855542,172.16.5.2,63076,172.16.1.2,5102,4629,7240,2086,64256,65728,6,6,4,1460,325000,1,16778208,980000,33580,33580,65700,0,7240,0,3627951453,63
o,1724816943.855571,172.16.5.2,63076,172.16.1.2,5102,4629,7240,2086,64256,65728,6,6,4,1460,313125,1,16778208,950000,33580,30684,65700,0,4344,0,3627951453,63
i,1724816943.998349,172.16.5.2,63076,172.16.1.2,5102,4629,7240,2086,64256,65728,6,6,4,1460,313125,1,16778208,950000,33580,33580,65700,0,7240,0,3627951453,63
o,1724816943.998392,172.16.5.2,63076,172.16.1.2,5102,4629,8700,2086,65728,65728,6,6,4,1460,307812,1,16778208,880000,33580,32132,65700,0,5792,0,3627951453,63
o,1724816943.998531,172.16.5.2,63076,172.16.1.2,5102,4629,8700,2086,65728,65728,6,6,4,1460,307812,1,16778208,880000,33580,32132,65700,0,7240,0,3627951453,63
i,1724816944.080990,172.16.5.2,63076,172.16.1.2,5102,4629,8700,2086,65728,65728,6,6,4,1460,307812,1,16778208,880000,33580,32132,65700,0,8688,0,3627951453,63
o,1724816944.081018,172.16.5.2,63076,172.16.1.2,5102,4629,8700,2086,64256,65728,6,6,4,1460,303125,1,16778208,820000,33580,29236,65700,0,5792,0,3627951453,63
i,1724816944.081194,172.16.5.2,63076,172.16.1.2,5102,4629,8700,2086,64256,65728,6,6,4,1460,303125,1,16778208,820000,33580,29236,65700,0,8688,0,3627951453,63
o,1724816944.081210,172.16.5.2,63076,172.16.1.2,5102,4629,8700,2086,64256,65728,6,6,4,1460,292812,1,16778208,810000,33580,26340,65700,0,5792,0,3627951453,63
i,1724816944.243411,172.16.5.2,63076,172.16.1.2,5102,4629,8700,2086,64256,65728,6,6,4,1460,292812,1,16778208,810000,33580,33580,65700,0,8688,0,3627951453,63
o,1724816944.243445,172.16.5.2,63076,172.16.1.2,5102,4629,8700,2086,64256,65728,6,6,4,1460,286250,1,16778208,780000,33580,30684,65700,0,5792,0,3627951453,63
o,1724816944.243571,172.16.5.2,63076,172.16.1.2,5102,4629,8700,2086,64256,65728,6,6,4,1460,286250,1,16778208,780000,33580,30684,65700,0,7240,0,3627951453,63
i,1724816944.344159,172.16.5.2,63076,172.16.1.2,5102,4629,8700,2086,64256,65728,6,6,4,1460,286250,1,16778208,780000,33580,33580,65700,0,8688,0,3627951453,63
o,1724816944.344277,172.16.5.2,63076,172.16.1.2,5102,4629,10160,2086,64256,65728,6,6,4,1460,284375,1,16778208,720000,33580,30684,65700,0,5792,0,3627951453,63
i,1724816944.404603,172.16.5.2,63076,172.16.1.2,5102,4629,10160,2086,64256,65728,6,6,4,1460,284375,1,16778208,720000,33580,33580,65700,0,10136,0,3627951453,63
o,1724816944.404643,172.16.5.2,63076,172.16.1.2,5102,4629,10160,2086,64256,65728,6,6,4,1460,290312,1,16778208,710000,33580,30684,65700,0,7240,0,3627951453,63
i,1724816944.541318,172.16.5.2,63076,172.16.1.2,5102,4629,10160,2086,64256,65728,6,6,4,1460,290312,1,16778208,710000,33580,33580,65700,0,10136,0,3627951453,63
o,1724816944.541426,172.16.5.2,63076,172.16.1.2,5102,4629,10160,2086,65728,65728,6,6,4,1460,290312,1,16778208,660000,33580,32132,65700,0,8688,0,3627951453,63
i,1724816944.551240,172.16.5.2,63076,172.16.1.2,5102,4629,10160,2086,65728,65728,6,6,4,1460,290312,1,16778208,660000,33580,32132,65700,0,10136,0,3627951453,63
o,1724816944.551264,172.16.5.2,63076,172.16.1.2,5102,4629,10160,2086,64256,65728,6,6,4,1460,291562,1,16778208,630000,33580,29236,65700,0,7240,0,3627951453,63
i,1724816944.651329,172.16.5.2,63076,172.16.1.2,5102,4629,10160,2086,64256,65728,6,6,4,1460,291562,1,16778208,630000,33580,33580,65700,0,10136,0,3627951453,63
o,1724816944.651363,172.16.5.2,63076,172.16.1.2,5102,4629,11620,2086,65728,65728,6,6,4,1460,292812,1,16778208,600000,33580,32132,65700,0,8688,0,3627951453,63
i,1724816944.701480,172.16.5.2,63076,172.16.1.2,5102,4629,11620,2086,65728,65728,6,6,4,1460,292812,1,16778208,600000,33580,32132,65700,0,11584,0,3627951453,63
o,1724816944.701569,172.16.5.2,63076,172.16.1.2,5102,4629,11620,2086,64256,65728,6,6,4,1460,300000,1,16778208,640000,33580,29236,65700,0,8688,0,3627951453,63
i,1724816944.765838,172.16.5.2,63076,172.16.1.2,5102,4629,11620,2086,64256,65728,6,6,4,1460,300000,1,16778208,640000,33580,33580,65700,0,11584,0,3627951453,63
o,1724816944.765889,172.16.5.2,63076,172.16.1.2,5102,4629,11620,2086,64256,65728,6,6,4,1460,307500,1,16778208,670000,33580,30684,65700,0,8688,0,3627951453,63
o,1724816944.766096,172.16.5.2,63076,172.16.1.2,5102,4629,11620,2086,64256,65728,6,6,4,1460,307500,1,16778208,670000,33580,30684,65700,0,10136,0,3627951453,63
i,1724816944.815096,172.16.5.2,63076,172.16.1.2,5102,4629,11620,2086,64256,65728,6,6,4,1460,307500,1,16778208,670000,33580,33580,65700,0,11584,0,3627951453,63
o,1724816944.815166,172.16.5.2,63076,172.16.1.2,5102,4629,11620,2086,65728,65728,6,6,4,1460,302812,1,16778208,660000,33580,32132,65700,0,10136,0,3627951453,63
i,1724816944.854814,172.16.5.2,63076,172.16.1.2,5102,4629,11620,2086,65728,65728,6,6,4,1460,302812,1,16778208,660000,33580,32132,65700,0,11584,0,3627951453,63
o,1724816944.854838,172.16.5.2,63076,172.16.1.2,5102,4629,11620,2086,65728,65728,6,6,4,1460,303750,1,16778208,630000,33580,30684,65700,0,10136,0,3627951453,63
i,1724816944.938224,172.16.5.2,63076,172.16.1.2,5102,4629,11620,2086,65728,65728,6,6,4,1460,303750,1,16778208,630000,33580,33580,65700,0,11584,0,3627951453,63
o,1724816944.938258,172.16.5.2,63076,172.16.1.2,5102,4629,13080,2086,64256,65728,6,6,4,1460,302187,1,16778208,610000,33580,30684,65700,0,8688,0,3627951453,63
i,1724816945.022054,172.16.5.2,63076,172.16.1.2,5102,4629,13080,2086,64256,65728,6,6,4,1460,302187,1,16778208,610000,33580,33580,65700,0,13032,0,3627951453,63
o,1724816945.022129,172.16.5.2,63076,172.16.1.2,5102,4629,13080,2086,64256,65728,6,6,4,1460,304687,1,16778208,600000,33580,30684,65700,0,10136,0,3627951453,63
i,1724816945.075984,172.16.5.2,63076,172.16.1.2,5102,4629,13080,2086,64256,65728,6,6,4,1460,304687,1,16778208,600000,33580,33580,65700,0,13032,0,3627951453,63
o,1724816945.076068,172.16.5.2,63076,172.16.1.2,5102,4629,13080,2086,65728,65728,6,6,4,1460,305625,1,16778208,590000,33580,32132,65700,0,11584,0,3627951453,63
i,1724816945.113576,172.16.5.2,63076,172.16.1.2,5102,4629,13080,2086,65728,65728,6,6,4,1460,305625,1,16778208,590000,33580,32132,65700,0,13032,0,3627951453,63
o,1724816945.113610,172.16.5.2,63076,172.16.1.2,5102,4629,13080,2086,64256,65728,6,6,4,1460,310000,1,16778208,610000,33580,29236,65700,0,10136,0,3627951453,63
i,1724816945.235951,172.16.5.2,63076,172.16.1.2,5102,4629,13080,2086,64256,65728,6,6,4,1460,310000,1,16778208,610000,33580,33580,65700,0,13032,0,3627951453,63
o,1724816945.236051,172.16.5.2,63076,172.16.1.2,5102,4629,13080,2086,65728,65728,6,6,4,1460,318750,1,16778208,660000,33580,32132,65700,0,11584,0,3627951453,63
i,1724816945.236448,172.16.5.2,63076,172.16.1.2,5102,4629,13080,2086,65728,65728,6,6,4,1460,318750,1,16778208,660000,33580,32132,65700,0,13032,0,3627951453,63
o,1724816945.236475,172.16.5.2,63076,172.16.1.2,5102,4629,13080,2086,64256,65728,6,6,4,1460,316562,1,16778208,640000,33580,29236,65700,0,10136,0,3627951453,63
i,1724816945.305059,172.16.5.2,63076,172.16.1.2,5102,4629,13080,2086,64256,65728,6,6,4,1460,316562,1,16778208,640000,33580,33580,65700,0,13032,0,3627951453,63
o,1724816945.305145,172.16.5.2,63076,172.16.1.2,5102,9127,14492,2086,64256,65728,6,6,4,1460,323437,1,553649120,670000,33580,30684,65700,0,10136,0,3627951453,63
i,1724816945.416342,172.16.5.2,63076,172.16.1.2,5102,9127,14492,2086,64256,65728,6,6,4,1460,323437,1,553649120,670000,33580,33580,65700,0,14480,0,3627951453,63
i,1724816945.435209,172.16.5.2,63076,172.16.1.2,5102,9127,13032,2086,65728,65728,6,6,4,1460,333125,1,553649120,720000,33580,32132,65700,0,13032,0,3627951453,63
i,1724816945.499215,172.16.5.2,63076,172.16.1.2,5102,9127,11584,2086,65728,65728,6,6,4,1460,336562,1,536871904,700000,33580,33580,65700,0,11584,0,3627951453,63
o,1724816945.499311,172.16.5.2,63076,172.16.1.2,5102,9127,10136,2082,64256,65728,6,6,4,1460,342187,1,553649120,710000,33580,30684,65700,0,8688,0,3627951453,63
i,1724816945.646290,172.16.5.2,63076,172.16.1.2,5102,9127,10136,2082,64256,65728,6,6,4,1460,342187,1,553649120,710000,33580,33580,65700,0,10136,0,3627951453,63
o,1724816945.646323,172.16.5.2,63076,172.16.1.2,5102,9127,11596,2086,64256,65728,6,6,4,1460,350937,1,553649120,750000,33580,30684,65700,0,7240,0,3627951453,63
i,1724816945.675801,172.16.5.2,63076,172.16.1.2,5102,9127,11596,2086,64256,65728,6,6,4,1460,350937,1,553649120,750000,33580,33580,65700,0,11584,0,3627951453,63
i,1724816945.719258,172.16.5.2,63076,172.16.1.2,5102,8188,8688,2150,64256,65728,6,6,4,1460,362187,1,553649120,800000,33580,33580,65700,0,8688,0,3627951453,63
o,1724816945.719335,172.16.5.2,63076,172.16.1.2,5102,8188,8688,2082,65728,65728,6,6,4,1460,368437,1,553649120,800000,33580,32132,65700,0,7240,0,3627951453,63
i,1724816945.719459,172.16.5.2,63076,172.16.1.2,5102,8188,8688,2082,65728,65728,6,6,4,1460,368437,1,553649120,800000,33580,32132,65700,0,8688,0,3627951453,63
o,1724816945.719475,172.16.5.2,63076,172.16.1.2,5102,8188,8688,2082,65728,65728,6,6,4,1460,373750,1,553649120,790000,33580,30684,65700,0,7240,0,3627951453,63
i,1724816945.841720,172.16.5.2,63076,172.16.1.2,5102,8188,8688,2082,65728,65728,6,6,4,1460,373750,1,553649120,790000,33580,33580,65700,0,8688,0,3627951453,63
o,1724816945.841822,172.16.5.2,63076,172.16.1.2,5102,8188,8688,2082,65728,65728,6,6,4,1460,369687,1,553649120,760000,33580,32132,65700,0,7240,0,3627951453,63
i,1724816945.926561,172.16.5.2,63076,172.16.1.2,5102,8188,8688,2082,65728,65728,6,6,4,1460,369687,1,553649120,760000,33580,32132,65700,0,8688,0,3627951453,63
o,1724816945.926593,172.16.5.2,63076,172.16.1.2,5102,8188,8688,2082,65728,65728,6,6,4,1460,358750,1,553649120,790000,33580,30684,65700,0,7240,0,3627951453,63
i,1724816945.946181,172.16.5.2,63076,172.16.1.2,5102,8188,8688,2082,65728,65728,6,6,4,1460,358750,1,553649120,790000,33580,33580,65700,0,8688,0,3627951453,63
o,1724816945.946251,172.16.5.2,63076,172.16.1.2,5102,8188,8688,2086,64256,65728,6,6,4,1460,351562,1,553649120,780000,33580,30684,65700,0,5792,0,3627951453,63
i,1724816946.021290,172.16.5.2,63076,172.16.1.2,5102,8188,8688,2086,64256,65728,6,6,4,1460,351562,1,553649120,780000,33580,32608,65700,0,8688,0,3627951453,63
o,1724816946.021315,172.16.5.2,63076,172.16.1.2,5102,8188,8688,2082,65728,65728,6,6,4,1460,345312,1,16778208,770000,33580,31160,65700,0,7240,0,3627951453,63
i,1724816946.090973,172.16.5.2,63076,172.16.1.2,5102,8188,8688,2082,65728,65728,6,6,4,1460,345312,1,16778208,770000,33580,33580,65700,0,8688,0,3627951453,63
o,1724816946.091079,172.16.5.2,63076,172.16.1.2,5102,8188,8688,2082,65728,65728,6,6,4,1460,348437,1,16778208,740000,33580,32132,65700,0,7240,0,3627951453,63
i,1724816946.168280,172.16.5.2,63076,172.16.1.2,5102,8188,8688,2082,65728,65728,6,6,4,1460,348437,1,16778208,740000,33580,32132,65700,0,8688,0,3627951453,63
o,1724816946.168307,172.16.5.2,63076,172.16.1.2,5102,8188,8688,2082,65728,65728,6,6,4,1460,346250,1,16778208,710000,33580,30684,65700,0,7240,0,3627951453,63
i,1724816946.189792,172.16.5.2,63076,172.16.1.2,5102,8188,8688,2082,65728,65728,6,6,4,1460,346250,1,16778208,710000,33580,33580,65700,0,8688,0,3627951453,63
o,1724816946.189792,172.16.5.2,63076,172.16.1.2,5102,8188,8688,2086,64256,65728,6,6,4,1460,335625,1,16778208,740000,33580,30684,65700,0,5792,0,3627951453,63
i,1724816946.266250,172.16.5.2,63076,172.16.1.2,5102,8188,8688,2086,64256,65728,6,6,4,1460,335625,1,16778208,740000,33580,33580,65700,0,8688,0,3627951453,63
o,1724816946.266282,172.16.5.2,63076,172.16.1.2,5102,8188,10148,2086,64256,65728,6,6,4,1460,333750,1,16778208,700000,33580,30684,65700,0,5792,0,3627951453,63
i,1724816946.371988,172.16.5.2,63076,172.16.1.2,5102,8188,10148,2086,64256,65728,6,6,4,1460,333750,1,16778208,700000,33580,33580,65700,0,10136,0,3627951453,63
o,1724816946.372068,172.16.5.2,63076,172.16.1.2,5102,8188,10148,2086,65728,65728,6,6,4,1460,327187,1,16778208,710000,33580,32132,65700,0,8688,0,3627951453,63
i,1724816946.434140,172.16.5.2,63076,172.16.1.2,5102,8188,10148,2086,65728,65728,6,6,4,1460,327187,1,16778208,710000,33580,32132,65700,0,10136,0,3627951453,63
o,1724816946.434173,172.16.5.2,63076,172.16.1.2,5102,8188,10148,2086,64256,65728,6,6,4,1460,320312,1,16778208,710000,33580,29236,65700,0,7240,0,3627951453,63
o,1724816946.434307,172.16.5.2,63076,172.16.1.2,5102,8188,10148,2086,64256,65728,6,6,4,1460,320312,1,16778208,710000,33580,29236,65700,0,8688,0,3627951453,63
i,1724816946.560773,172.16.5.2,63076,172.16.1.2,5102,8188,10148,2086,64256,65728,6,6,4,1460,320312,1,16778208,710000,33580,33580,65700,0,10136,0,3627951453,63
o,1724816946.560857,172.16.5.2,63076,172.16.1.2,5102,8188,10148,2086,64256,65728,6,6,4,1460,326562,1,16778208,720000,33580,30684,65700,0,7240,0,3627951453,63
i,1724816946.675045,172.16.5.2,63076,172.16.1.2,5102,8188,10148,2086,64256,65728,6,6,4,1460,326562,1,16778208,720000,33580,33580,65700,0,10136,0,3627951453,63
o,1724816946.675145,172.16.5.2,63076,172.16.1.2,5102,8188,10148,2086,64256,65728,6,6,4,1460,335937,1,16778208,760000,33580,30684,65700,0,7240,0,3627951453,63
i,1724816946.746110,172.16.5.2,63076,172.16.1.2,5102,8188,10148,2086,64256,65728,6,6,4,1460,335937,1,16778208,760000,33580,33580,65700,0,10136,0,3627951453,63
o,1724816946.746185,172.16.5.2,63076,172.16.1.2,5102,7636,11596,2086,64256,65728,6,6,4,1460,341562,1,553649120,750000,33580,30684,65700,0,7240,0,3627951453,63
o,1724816946.746917,172.16.5.2,63076,172.16.1.2,5102,7636,11596,2086,64256,65728,6,6,4,1460,341562,1,553649120,750000,33580,30684,65700,0,8688,0,3627951453,63
i,1724816946.856434,172.16.5.2,63076,172.16.1.2,5102,7636,11596,2086,64256,65728,6,6,4,1460,341562,1,553649120,750000,33580,33580,65700,0,11584,0,3627951453,63
i,1724816946.967830,172.16.5.2,63076,172.16.1.2,5102,7636,8688,2086,64256,65728,6,6,4,1460,351562,1,553649120,790000,33580,33580,65700,0,8688,0,3627951453,63
o,1724816946.967954,172.16.5.2,63076,172.16.1.2,5102,7636,8688,2082,65728,65728,6,6,4,1460,359062,1,553649120,800000,33580,32132,65700,0,7240,0,3627951453,63
i,1724816947.034642,172.16.5.2,63076,172.16.1.2,5102,7636,8688,2082,65728,65728,6,6,4,1460,359062,1,553649120,800000,33580,32132,65700,0,8688,0,3627951453,63
o,1724816947.034679,172.16.5.2,63076,172.16.1.2,5102,7636,8688,2086,64256,65728,6,6,4,1460,359375,1,553649120,740000,33580,29236,65700,0,5792,0,3627951453,63
i,1724816947.076616,172.16.5.2,63076,172.16.1.2,5102,7636,8688,2086,64256,65728,6,6,4,1460,359375,1,553649120,740000,33580,33580,65700,0,8688,0,3627951453,63
i,1724816947.110693,172.16.5.2,63076,172.16.1.2,5102,6538,7240,2150,65728,65728,6,6,4,1460,355937,1,536871904,720000,33580,32132,65700,0,7240,0,3627951453,63
o,1724816947.110762,172.16.5.2,63076,172.16.1.2,5102,6538,7240,2086,64256,65728,6,6,4,1460,356562,1,553649120,680000,33580,29236,65700,0,4344,0,3627951453,63
o,1724816947.110886,172.16.5.2,63076,172.16.1.2,5102,6538,7240,2082,64256,65728,6,6,4,1460,356562,1,553649120,680000,33580,29236,65700,0,5792,0,3627951453,63
i,1724816947.247873,172.16.5.2,63076,172.16.1.2,5102,6538,7240,2082,64256,65728,6,6,4,1460,356562,1,553649120,680000,33580,33580,65700,0,7240,0,3627951453,63
o,1724816947.247950,172.16.5.2,63076,172.16.1.2,5102,6538,7240,2082,65728,65728,6,6,4,1460,347187,1,553649120,720000,33580,32132,65700,0,5792,0,3627951453,63
i,1724816947.300042,172.16.5.2,63076,172.16.1.2,5102,6538,7240,2082,65728,65728,6,6,4,1460,347187,1,553649120,720000,33580,32132,65700,0,7240,0,3627951453,63
o,1724816947.300085,172.16.5.2,63076,172.16.1.2,5102,6538,7240,2082,65728,65728,6,6,4,1460,336562,1,553649120,750000,33580,30684,65700,0,5792,0,3627951453,63
i,1724816947.365433,172.16.5.2,63076,172.16.1.2,5102,6538,7240,2082,65728,65728,6,6,4,1460,336562,1,553649120,750000,33580,33580,65700,0,7240,0,3627951453,63
o,1724816947.365459,172.16.5.2,63076,172.16.1.2,5102,6538,7240,2086,64256,65728,6,6,4,1460,335937,1,16778208,700000,33580,30684,65700,0,4344,0,3627951453,63
o,1724816947.365593,172.16.5.2,63076,172.16.1.2,5102,6538,7240,2082,64256,65728,6,6,4,1460,335937,1,16778208,700000,33580,30684,65700,0,5792,0,3627951453,63
i,1724816947.423496,172.16.5.2,63076,172.16.1.2,5102,6538,7240,2082,64256,65728,6,6,4,1460,335937,1,16778208,700000,33580,33580,65700,0,7240,0,3627951453,63
o,1724816947.423520,172.16.5.2,63076,172.16.1.2,5102,6538,7240,2082,65728,65728,6,6,4,1460,332812,1,16778208,680000,33580,32132,65700,0,5792,0,3627951453,63
i,1724816947.535506,172.16.5.2,63076,172.16.1.2,5102,6538,7240,2082,65728,65728,6,6,4,1460,332812,1,16778208,680000,33580,32132,65700,0,7240,0,3627951453,63
o,1724816947.535583,172.16.5.2,63076,172.16.1.2,5102,6538,7240,2082,65728,65728,6,6,4,1460,327500,1,16778208,680000,33580,30684,65700,0,5792,0,3627951453,63
i,1724816947.544739,172.16.5.2,63076,172.16.1.2,5102,6538,7240,2082,65728,65728,6,6,4,1460,327500,1,16778208,680000,33580,33580,65700,0,7240,0,3627951453,63
o,1724816947.544804,172.16.5.2,63076,172.16.1.2,5102,6538,7240,2082,65728,65728,6,6,4,1460,317812,1,16778208,710000,33580,32132,65700,0,5792,0,3627951453,63
i,1724816947.625955,172.16.5.2,63076,172.16.1.2,5102,6538,7240,2082,65728,65728,6,6,4,1460,317812,1,16778208,710000,33580,32132,65700,0,7240,0,3627951453,63
o,1724816947.625982,172.16.5.2,63076,172.16.1.2,5102,6538,7240,2082,65728,65728,6,6,4,1460,310625,1,16778208,710000,33580,30684,65700,0,5792,0,3627951453,63
i,1724816947.632265,172.16.5.2,63076,172.16.1.2,5102,6538,7240,2082,65728,65728,6,6,4,1460,310625,1,16778208,710000,33580,33580,65700,0,7240,0,3627951453,63
o,1724816947.632348,172.16.5.2,63076,172.16.1.2,5102,6538,8700,2086,64256,65728,6,6,4,1460,304375,1,16778208,710000,33580,30684,65700,0,4344,0,3627951453,63
i,1724816947.786141,172.16.5.2,63076,172.16.1.2,5102,6538,8700,2086,64256,65728,6,6,4,1460,304375,1,16778208,710000,33580,33580,65700,0,8688,0,3627951453,63
o,1724816947.786217,172.16.5.2,63076,172.16.1.2,5102,6538,8700,2086,64256,65728,6,6,4,1460,297812,1,16778208,700000,33580,30684,65700,0,5792,0,3627951453,63
i,1724816947.859580,172.16.5.2,63076,172.16.1.2,5102,6538,8700,2086,64256,65728,6,6,4,1460,297812,1,16778208,700000,33580,33580,65700,0,8688,0,3627951453,63
o,1724816947.859651,172.16.5.2,63076,172.16.1.2,5102,6538,8700,2086,64256,65728,6,6,4,1460,289375,1,16778208,710000,33580,30684,65700,0,5792,0,3627951453,63
o,1724816947.859764,172.16.5.2,63076,172.16.1.2,5102,6538,8700,2086,64256,65728,6,6,4,1460,289375,1,16778208,710000,33580,30684,65700,0,7240,0,3627951453,63
i,1724816947.921968,172.16.5.2,63076,172.16.1.2,5102,6538,8700,2086,64256,65728,6,6,4,1460,289375,1,16778208,710000,33580,33580,65700,0,8688,0,3627951453,63
o,1724816947.921999,172.16.5.2,63076,172.16.1.2,5102,6538,8700,2086,65728,65728,6,6,4,1460,289687,1,16778208,660000,33580,32132,65700,0,7240,0,3627951453,63
i,1724816947.987495,172.16.5.2,63076,172.16.1.2,5102,6538,8700,2086,65728,65728,6,6,4,1460,289687,1,16778208,660000,33580,32132,65700,0,8688,0,3627951453,63
o,1724816947.987569,172.16.5.2,63076,172.16.1.2,5102,6538,10160,2086,65728,65728,6,6,4,1460,298750,1,16778208,700000,33580,30684,65700,0,7240,0,3627951453,63
i,1724816948.046661,172.16.5.2,63076,172.16.1.2,5102,6538,10160,2086,65728,65728,6,6,4,1460,298750,1,16778208,700000,33580,33580,65700,0,10136,0,3627951453,63
o,1724816948.046691,172.16.5.2,63076,172.16.1.2,5102,6538,10160,2086,65728,65728,6,6,4,1460,294062,1,16778208,680000,33580,32132,65700,0,8688,0,3627951453,63
i,1724816948.085032,172.16.5.2,63076,172.16.1.2,5102,6538,10160,2086,65728,65728,6,6,4,1460,294062,1,16778208,680000,33580,32132,65700,0,10136,0,3627951453,63
o,1724816948.085067,172.16.5.2,63076,172.16.1.2,5102,6538,10160,2086,64256,65728,6,6,4,1460,295000,1,16778208,640000,33580,29236,65700,0,7240,0,3627951453,63
o,1724816948.085234,172.16.5.2,63076,172.16.1.2,5102,6538,10160,2086,64256,65728,6,6,4,1460,295000,1,16778208,640000,33580,29236,65700,0,8688,0,3627951453,63
i,1724816948.132670,172.16.5.2,63076,172.16.1.2,5102,6538,10160,2086,64256,65728,6,6,4,1460,295000,1,16778208,640000,33580,33580,65700,0,10136,0,3627951453,63
o,1724816948.132745,172.16.5.2,63076,172.16.1.2,5102,6538,10160,2086,64256,65728,6,6,4,1460,291875,1,16778208,620000,33580,30684,65700,0,7240,0,3627951453,63
i,1724816948.239205,172.16.5.2,63076,172.16.1.2,5102,6538,10160,2086,64256,65728,6,6,4,1460,291875,1,16778208,620000,33580,33580,65700,0,10136,0,3627951453,63
o,1724816948.239242,172.16.5.2,63076,172.16.1.2,5102,6538,10160,2086,65728,65728,6,6,4,1460,286875,1,16778208,630000,33580,32132,65700,0,8688,0,3627951453,63
i,1724816948.311113,172.16.5.2,63076,172.16.1.2,5102,6538,10160,2086,65728,65728,6,6,4,1460,286875,1,16778208,630000,33580,32132,65700,0,10136,0,3627951453,63
o,1724816948.311199,172.16.5.2,63076,172.16.1.2,5102,6538,11620,2086,65728,65728,6,6,4,1460,291250,1,16778208,630000,33580,30684,65700,0,8688,0,3627951453,63
i,1724816948.370151,172.16.5.2,63076,172.16.1.2,5102,6538,11620,2086,65728,65728,6,6,4,1460,291250,1,16778208,630000,33580,33580,65700,0,11584,0,3627951453,63
o,1724816948.370179,172.16.5.2,63076,172.16.1.2,5102,6538,11620,2086,65728,65728,6,6,4,1460,295000,1,16778208,630000,33580,32132,65700,0,10136,0,3627951453,63
i,1724816948.406867,172.16.5.2,63076,172.16.1.2,5102,6538,11620,2086,65728,65728,6,6,4,1460,295000,1,16778208,630000,33580,32132,65700,0,11584,0,3627951453,63
o,1724816948.406932,172.16.5.2,63076,172.16.1.2,5102,6538,11620,2086,64256,65728,6,6,4,1460,298125,1,16778208,620000,33580,29236,65700,0,8688,0,3627951453,63
o,1724816948.407040,172.16.5.2,63076,172.16.1.2,5102,6538,11620,2086,64256,65728,6,6,4,1460,298125,1,16778208,620000,33580,29236,65700,0,10136,0,3627951453,63
i,1724816948.407150,172.16.5.2,63076,172.16.1.2,5102,6538,11620,2086,64256,65728,6,6,4,1460,298125,1,16778208,620000,33580,29236,65700,0,11584,0,3627951453,63
o,1724816948.407166,172.16.5.2,63076,172.16.1.2,5102,6538,11620,2086,64256,65728,6,6,4,1460,295937,1,16778208,610000,33580,26340,65700,0,8688,0,3627951453,63
i,1724816948.504143,172.16.5.2,63076,172.16.1.2,5102,6538,11620,2086,64256,65728,6,6,4,1460,295937,1,16778208,610000,33580,33580,65700,0,11584,0,3627951453,63
o,1724816948.504172,172.16.5.2,63076,172.16.1.2,5102,6538,11620,2086,65728,65728,6,6,4,1460,291562,1,16778208,610000,33580,32132,65700,0,10136,0,3627951453,63
i,1724816948.555446,172.16.5.2,63076,172.16.1.2,5102,6538,11620,2086,65728,65728,6,6,4,1460,291562,1,16778208,610000,33580,32132,65700,0,11584,0,3627951453,63
o,1724816948.555550,172.16.5.2,63076,172.16.1.2,5102,6538,13080,2086,64256,65728,6,6,4,1460,286562,1,16778208,610000,33580,29236,65700,0,8688,0,3627951453,63
i,1724816948.656874,172.16.5.2,63076,172.16.1.2,5102,6538,13080,2086,64256,65728,6,6,4,1460,286562,1,16778208,610000,33580,33580,65700,0,13032,0,3627951453,63
o,1724816948.656912,172.16.5.2,63076,172.16.1.2,5102,6538,13080,2086,64256,65728,6,6,4,1460,287187,1,16778208,590000,33580,30684,65700,0,10136,0,3627951453,63
o,1724816948.657053,172.16.5.2,63076,172.16.1.2,5102,6538,13080,2086,64256,65728,6,6,4,1460,287187,1,16778208,590000,33580,30684,65700,0,11584,0,3627951453,63
i,1724816948.714705,172.16.5.2,63076,172.16.1.2,5102,6538,13080,2086,64256,65728,6,6,4,1460,287187,1,16778208,590000,33580,33580,65700,0,13032,0,3627951453,63
o,1724816948.714736,172.16.5.2,63076,172.16.1.2,5102,6538,13080,2086,65728,65728,6,6,4,1460,289062,1,16778208,580000,33580,32132,65700,0,11584,0,3627951453,63
i,1724816948.742139,172.16.5.2,63076,172.16.1.2,5102,6538,13080,2086,65728,65728,6,6,4,1460,289062,1,16778208,580000,33580,32132,65700,0,13032,0,3627951453,63
o,1724816948.742163,172.16.5.2,63076,172.16.1.2,5102,6538,13080,2086,65728,65728,6,6,4,1460,294375,1,16778208,600000,33580,30684,65700,0,11584,0,3627951453,63
i,1724816948.790168,172.16.5.2,63076,172.16.1.2,5102,6538,13080,2086,65728,65728,6,6,4,1460,294375,1,16778208,600000,33580,33580,65700,0,13032,0,3627951453,63
o,1724816948.790200,172.16.5.2,63076,172.16.1.2,5102,6538,13080,2086,65728,65728,6,6,4,1460,305312,1,16778208,680000,33580,32132,65700,0,11584,0,3627951453,63
i,1724816948.871142,172.16.5.2,63076,172.16.1.2,5102,6538,13080,2086,65728,65728,6,6,4,1460,305312,1,16778208,680000,33580,32132,65700,0,13032,0,3627951453,63
o,1724816948.871188,172.16.5.2,63076,172.16.1.2,5102,6538,13080,2086,65728,65728,6,6,4,1460,312187,1,16778208,690000,33580,30684,65700,0,11584,0,3627951453,63
i,1724816948.871389,172.16.5.2,63076,172.16.1.2,5102,6538,13080,2086,65728,65728,6,6,4,1460,312187,1,16778208,690000,33580,30684,65700,0,13032,0,3627951453,63
o,1724816948.871412,172.16.5.2,63076,172.16.1.2,5102,10532,13032,2086,64256,65728,6,6,4,1460,312187,1,553649120,650000,33580,27788,65700,0,10136,0,3627951453,63
i,1724816948.937343,172.16.5.2,63076,172.16.1.2,5102,10532,13032,2086,64256,65728,6,6,4,1460,312187,1,553649120,650000,33580,33580,65700,0,13032,0,3627951453,63
o,1724816948.937417,172.16.5.2,63076,172.16.1.2,5102,10532,14492,2086,65728,65728,6,6,4,1460,320937,1,553649120,690000,33580,32132,65700,0,11584,0,3627951453,63
i,1724816948.984168,172.16.5.2,63076,172.16.1.2,5102,10532,14492,2086,65728,65728,6,6,4,1460,320937,1,553649120,690000,33580,32132,65700,0,14480,0,3627951453,63
i,1724816949.074174,172.16.5.2,63076,172.16.1.2,5102,10532,11584,2086,64256,65728,6,6,4,1460,322187,1,536871904,660000,33580,33580,65700,0,11584,0,3627951453,63
o,1724816949.074220,172.16.5.2,63076,172.16.1.2,5102,10532,11584,2082,65728,65728,6,6,4,1460,327187,1,553649120,670000,33580,32132,65700,0,10136,0,3627951453,63
i,1724816949.115895,172.16.5.2,63076,172.16.1.2,5102,10532,11584,2082,65728,65728,6,6,4,1460,327187,1,553649120,670000,33580,32132,65700,0,11584,0,3627951453,63
o,1724816949.115996,172.16.5.2,63076,172.16.1.2,5102,10532,11584,2082,65728,65728,6,6,4,1460,334062,1,553649120,700000,33580,30684,65700,0,10136,0,3627951453,63
i,1724816949.170448,172.16.5.2,63076,172.16.1.2,5102,10532,11584,2082,65728,65728,6,6,4,1460,334062,1,553649120,700000,33580,33580,65700,0,11584,0,3627951453,63
o,1724816949.170525,172.16.5.2,63076,172.16.1.2,5102,10532,11584,2082,65728,65728,6,6,4,1460,340000,1,553649120,710000,33580,32132,65700,0,10136,0,3627951453,63
i,1724816949.200210,172.16.5.2,63076,172.16.1.2,5102,10532,11584,2082,65728,65728,6,6,4,1460,340000,1,553649120,710000,33580,32132,65700,0,11584,0,3627951453,63
o,1724816949.200244,172.16.5.2,63076,172.16.1.2,5102,10532,11584,2086,64256,65728,6,6,4,1460,338750,1,16778208,680000,33580,29236,65700,0,8688,0,3627951453,63
i,1724816949.240326,172.16.5.2,63076,172.16.1.2,5102,10532,11584,2086,64256,65728,6,6,4,1460,338750,1,16778208,680000,33580,33580,65700,0,11584,0,3627951453,63
o,1724816949.240402,172.16.5.2,63076,172.16.1.2,5102,10532,11584,2082,65728,65728,6,6,4,1460,342812,1,16778208,680000,33580,32132,65700,0,10136,0,3627951453,63
i,1724816949.281736,172.16.5.2,63076,172.16.1.2,5102,10532,11584,2082,65728,65728,6,6,4,1460,342812,1,16778208,680000,33580,32132,65700,0,11584,0,3627951453,63
o,1724816949.281835,172.16.5.2,63076,172.16.1.2,5102,9158,11584,2086,64256,65728,6,6,4,1460,342500,1,553649120,650000,33580,29236,65700,0,8688,0,3627951453,63
i,1724816949.365318,172.16.5.2,63076,172.16.1.2,5102,9158,11584,2086,64256,65728,6,6,4,1460,342500,1,553649120,650000,33580,33580,65700,0,11584,0,3627951453,63
i,1724816949.412666,172.16.5.2,63076,172.16.1.2,5102,9158,10136,2086,65728,65728,6,6,4,1460,335937,1,536871904,670000,33580,32132,65700,0,10136,0,3627951453,63
o,1724816949.412770,172.16.5.2,63076,172.16.1.2,5102,9158,10136,2082,65728,65728,6,6,4,1460,330312,1,553649120,670000,33580,30684,65700,0,8688,0,3627951453,63
i,1724816949.504641,172.16.5.2,63076,172.16.1.2,5102,9158,10136,2082,65728,65728,6,6,4,1460,330312,1,553649120,670000,33580,33580,65700,0,10136,0,3627951453,63
o,1724816949.504641,172.16.5.2,63076,172.16.1.2,5102,9158,10136,2082,65728,65728,6,6,4,1460,331562,1,553649120,650000,33580,32132,65700,0,8688,0,3627951453,63
i,1724816949.554098,172.16.5.2,63076,172.16.1.2,5102,9158,10136,2082,65728,65728,6,6,4,1460,331562,1,553649120,650000,33580,32132,65700,0,10136,0,3627951453,63
o,1724816949.554123,172.16.5.2,63076,172.16.1.2,5102,9158,11584,2086,64256,65728,6,6,4,1460,335312,1,553649120,650000,33580,29236,65700,0,7240,0,3627951453,63
i,1724816949.611703,172.16.5.2,63076,172.16.1.2,5102,9158,11584,2086,64256,65728,6,6,4,1460,335312,1,553649120,650000,33580,33580,65700,0,11584,0,3627951453,63
i,1724816949.611746,172.16.5.2,63076,172.16.1.2,5102,9158,10136,2086,65728,65728,6,6,4,1460,339687,1,553649120,660000,33580,32132,65700,0,10136,0,3627951453,63
o,1724816949.611764,172.16.5.2,63076,172.16.1.2,5102,9158,10136,2082,65728,65728,6,6,4,1460,338750,1,16778208,640000,33580,30684,65700,0,8688,0,3627951453,63
i,1724816949.618499,172.16.5.2,63076,172.16.1.2,5102,9158,10136,2082,65728,65728,6,6,4,1460,338750,1,16778208,640000,33580,33580,65700,0,10136,0,3627951453,63
o,1724816949.618563,172.16.5.2,63076,172.16.1.2,5102,9158,10136,2082,65728,65728,6,6,4,1460,339062,1,16778208,620000,33580,32132,65700,0,8688,0,3627951453,63
i,1724816949.796837,172.16.5.2,63076,172.16.1.2,5102,9158,10136,2082,65728,65728,6,6,4,1460,339062,1,16778208,620000,33580,32132,65700,0,10136,0,3627951453,63
o,1724816949.796932,172.16.5.2,63076,172.16.1.2,5102,9158,10136,2086,64256,65728,6,6,4,1460,345625,1,16778208,660000,33580,29236,65700,0,7240,0,3627951453,63
o,1724816949.797064,172.16.5.2,63076,172.16.1.2,5102,9158,10136,2082,64256,65728,6,6,4,1460,345625,1,16778208,660000,33580,29236,65700,0,8688,0,3627951453,63
i,1724816949.867407,172.16.5.2,63076,172.16.1.2,5102,9158,10136,2082,64256,65728,6,6,4,1460,345625,1,16778208,660000,33580,33580,65700,0,10136,0,3627951453,63
o,1724816949.867449,172.16.5.2,63076,172.16.1.2,5102,9158,10136,2082,65728,65728,6,6,4,1460,341250,1,16778208,660000,33580,32132,65700,0,8688,0,3627951453,63
i,1724816949.917405,172.16.5.2,63076,172.16.1.2,5102,9158,10136,2082,65728,65728,6,6,4,1460,341250,1,16778208,660000,33580,32132,65700,0,10136,0,3627951453,63
o,1724816949.917428,172.16.5.2,63076,172.16.1.2,5102,9158,10136,2086,64256,65728,6,6,4,1460,343750,1,16778208,650000,33580,29236,65700,0,7240,0,3627951453,63
i,1724816949.964194,172.16.5.2,63076,172.16.1.2,5102,9158,10136,2086,64256,65728,6,6,4,1460,343750,1,16778208,650000,33580,33580,65700,0,10136,0,3627951453,63
o,1724816949.964219,172.16.5.2,63076,172.16.1.2,5102,7890,11596,2086,64256,65728,6,6,4,1460,345937,1,553649120,640000,33580,30684,65700,0,7240,0,3627951453,63
i,1724816950.102606,172.16.5.2,63076,172.16.1.2,5102,7890,11596,2086,64256,65728,6,6,4,1460,345937,1,553649120,640000,33580,33580,65700,0,11584,0,3627951453,63
i,1724816950.195084,172.16.5.2,63076,172.16.1.2,5102,7890,8688,2086,64256,65728,6,6,4,1460,340312,1,536871904,660000,33580,31912,65700,0,8688,0,3627951453,63
o,1724816950.195115,172.16.5.2,63076,172.16.1.2,5102,7890,8688,2082,65728,65728,6,6,4,1460,339062,1,553649120,640000,33580,30464,65700,0,7240,0,3627951453,63
i,1724816950.304697,172.16.5.2,63076,172.16.1.2,5102,7890,8688,2082,65728,65728,6,6,4,1460,339062,1,553649120,640000,33580,33580,65700,0,8688,0,3627951453,63
o,1724816950.304737,172.16.5.2,63076,172.16.1.2,5102,7890,8688,2086,64256,65728,6,6,4,1460,345625,1,553649120,670000,33580,30684,65700,0,5792,0,3627951453,63
i,1724816950.324922,172.16.5.2,63076,172.16.1.2,5102,7890,8688,2086,64256,65728,6,6,4,1460,345625,1,553649120,670000,33580,33580,65700,0,8688,0,3627951453,63
i,1724816950.383754,172.16.5.2,63076,172.16.1.2,5102,6852,7240,2150,65728,65728,6,6,4,1460,347500,1,553649120,660000,33580,32132,65700,0,7240,0,3627951453,63
o,1724816950.383782,172.16.5.2,63076,172.16.1.2,5102,6852,7240,2082,65728,65728,6,6,4,1460,355312,1,553649120,700000,33580,30684,65700,0,5792,0,3627951453,63
i,1724816950.394149,172.16.5.2,63076,172.16.1.2,5102,6852,7240,2082,65728,65728,6,6,4,1460,355312,1,553649120,700000,33580,33580,65700,0,7240,0,3627951453,63
o,1724816950.394169,172.16.5.2,63076,172.16.1.2,5102,6852,7240,2082,65728,65728,6,6,4,1460,364687,1,553649120,750000,33580,32132,65700,0,5792,0,3627951453,63
i,1724816950.504811,172.16.5.2,63076,172.16.1.2,5102,6852,7240,2082,65728,65728,6,6,4,1460,364687,1,553649120,750000,33580,32132,65700,0,7240,0,3627951453,63
o,1724816950.504811,172.16.5.2,63076,172.16.1.2,5102,6852,7240,2082,65728,65728,6,6,4,1460,358125,1,553649120,750000,33580,30684,65700,0,5792,0,3627951453,63
i,1724816950.562394,172.16.5.2,63076,172.16.1.2,5102,6852,7240,2082,65728,65728,6,6,4,1460,358125,1,553649120,750000,33580,33580,65700,0,7240,0,3627951453,63
o,1724816950.562423,172.16.5.2,63076,172.16.1.2,5102,6852,7240,2086,64256,65728,6,6,4,1460,344687,1,553649120,790000,33580,30684,65700,0,4344,0,3627951453,63
i,1724816950.618242,172.16.5.2,63076,172.16.1.2,5102,6852,7240,2086,64256,65728,6,6,4,1460,344687,1,553649120,790000,33580,33580,65700,0,7240,0,3627951453,63
o,1724816950.618272,172.16.5.2,63076,172.16.1.2,5102,6852,7240,2082,65728,65728,6,6,4,1460,330625,1,16778208,830000,33580,32132,65700,0,5792,0,3627951453,63
i,1724816950.719825,172.16.5.2,63076,172.16.1.2,5102,6852,7240,2082,65728,65728,6,6,4,1460,330625,1,16778208,830000,33580,32132,65700,0,7240,0,3627951453,63
o,1724816950.719857,172.16.5.2,63076,172.16.1.2,5102,6852,7240,2082,65728,65728,6,6,4,1460,329375,1,16778208,760000,33580,30684,65700,0,5792,0,3627951453,63
i,1724816950.772378,172.16.5.2,63076,172.16.1.2,5102,6852,7240,2082,65728,65728,6,6,4,1460,329375,1,16778208,760000,33580,33580,65700,0,7240,0,3627951453,63
o,1724816950.772457,172.16.5.2,63076,172.16.1.2,5102,6852,7240,2082,65728,65728,6,6,4,1460,320937,1,16778208,760000,33580,32132,65700,0,5792,0,3627951453,63
i,1724816950.802120,172.16.5.2,63076,172.16.1.2,5102,6852,7240,2082,65728,65728,6,6,4,1460,320937,1,16778208,760000,33580,32132,65700,0,7240,0,3627951453,63
o,1724816950.802296,172.16.5.2,63076,172.16.1.2,5102,6852,7240,2082,65728,65728,6,6,4,1460,310937,1,16778208,770000,33580,30684,65700,0,5792,0,3627951453,63
i,1724816950.859256,172.16.5.2,63076,172.16.1.2,5102,6852,7240,2082,65728,65728,6,6,4,1460,310937,1,16778208,770000,33580,33580,65700,0,7240,0,3627951453,63
o,1724816950.859341,172.16.5.2,63076,172.16.1.2,5102,6852,8700,2086,64256,65728,6,6,4,1460,309687,1,16778208,720000,33580,30684,65700,0,4344,0,3627951453,63
i,1724816951.002618,172.16.5.2,63076,172.16.1.2,5102,6852,8700,2086,64256,65728,6,6,4,1460,309687,1,16778208,720000,33580,33580,65700,0,8688,0,3627951453,63
o,1724816951.002618,172.16.5.2,63076,172.16.1.2,5102,6852,8700,2086,65728,65728,6,6,4,1460,306250,1,16778208,690000,33580,32132,65700,0,7240,0,3627951453,63
i,1724816951.047327,172.16.5.2,63076,172.16.1.2,5102,6852,8700,2086,65728,65728,6,6,4,1460,306250,1,16778208,690000,33580,32132,65700,0,8688,0,3627951453,63
o,1724816951.047359,172.16.5.2,63076,172.16.1.2,5102,6852,8700,2086,65728,65728,6,6,4,1460,303125,1,16778208,670000,33580,30684,65700,0,7240,0,3627951453,63
i,1724816951.117237,172.16.5.2,63076,172.16.1.2,5102,6852,8700,2086,65728,65728,6,6,4,1460,303125,1,16778208,670000,33580,33580,65700,0,8688,0,3627951453,63
o,1724816951.117263,172.16.5.2,63076,172.16.1.2,5102,6852,8700,2086,64256,65728,6,6,4,1460,305312,1,16778208,650000,33580,30684,65700,0,5792,0,3627951453,63
i,1724816951.173697,172.16.5.2,63076,172.16.1.2,5102,6852,8700,2086,64256,65728,6,6,4,1460,305312,1,16778208,650000,33580,33580,65700,0,8688,0,3627951453,63
o,1724816951.173727,172.16.5.2,63076,172.16.1.2,5102,6852,8700,2086,64256,65728,6,6,4,1460,305937,1,16778208,620000,33580,30684,65700,0,5792,0,3627951453,63
i,1724816951.264000,172.16.5.2,63076,172.16.1.2,5102,6852,8700,2086,64256,65728,6,6,4,1460,305937,1,16778208,620000,33580,33580,65700,0,8688,0,3627951453,63
o,1724816951.264032,172.16.5.2,63076,172.16.1.2,5102,6852,10160,2086,64256,65728,6,6,4,1460,300312,1,16778208,630000,33580,30684,65700,0,5792,0,3627951453,63
o,1724816951.264300,172.16.5.2,63076,172.16.1.2,5102,6852,10160,2086,64256,65728,6,6,4,1460,300312,1,16778208,630000,33580,30684,65700,0,7240,0,3627951453,63
i,1724816951.395542,172.16.5.2,63076,172.16.1.2,5102,6852,10160,2086,64256,65728,6,6,4,1460,300312,1,16778208,630000,33580,33580,65700,0,10136,0,3627951453,63
o,1724816951.395578,172.16.5.2,63076,172.16.1.2,5102,6852,10160,2086,64256,65728,6,6,4,1460,297812,1,16778208,610000,33580,30684,65700,0,7240,0,3627951453,63
i,1724816951.428749,172.16.5.2,63076,172.16.1.2,5102,6852,10160,2086,64256,65728,6,6,4,1460,297812,1,16778208,610000,33580,33580,65700,0,10136,0,3627951453,63
o,1724816951.428819,172.16.5.2,63076,172.16.1.2,5102,6852,10160,2086,64256,65728,6,6,4,1460,291875,1,16778208,620000,33580,30684,65700,0,7240,0,3627951453,63
i,1724816951.561349,172.16.5.2,63076,172.16.1.2,5102,6852,10160,2086,64256,65728,6,6,4,1460,291875,1,16778208,620000,33580,33580,65700,0,10136,0,3627951453,63
o,1724816951.561429,172.16.5.2,63076,172.16.1.2,5102,6852,11620,2086,64256,65728,6,6,4,1460,291875,1,16778208,590000,33580,30684,65700,0,7240,0,3627951453,63
o,1724816951.561550,172.16.5.2,63076,172.16.1.2,5102,6852,11620,2086,64256,65728,6,6,4,1460,291875,1,16778208,590000,33580,30684,65700,0,8688,0,3627951453,63
i,1724816951.680984,172.16.5.2,63076,172.16.1.2,5102,6852,11620,2086,64256,65728,6,6,4,1460,291875,1,16778208,590000,33580,33580,65700,0,11584,0,3627951453,63
o,1724816951.681015,172.16.5.2,63076,172.16.1.2,5102,6852,11620,2086,65728,65728,6,6,4,1460,306875,1,16778208,700000,33580,32132,65700,0,10136,0,3627951453,63
i,1724816951.719727,172.16.5.2,63076,172.16.1.2,5102,6852,11620,2086,65728,65728,6,6,4,1460,306875,1,16778208,700000,33580,32132,65700,0,11584,0,3627951453,63
o,1724816951.719758,172.16.5.2,63076,172.16.1.2,5102,6852,11620,2086,64256,65728,6,6,4,1460,308750,1,16778208,670000,33580,29236,65700,0,8688,0,3627951453,63
i,1724816951.789117,172.16.5.2,63076,172.16.1.2,5102,6852,11620,2086,64256,65728,6,6,4,1460,308750,1,16778208,670000,33580,33580,65700,0,11584,0,3627951453,63
o,1724816951.789196,172.16.5.2,63076,172.16.1.2,5102,6852,11620,2086,65728,65728,6,6,4,1460,315312,1,16778208,690000,33580,32132,65700,0,10136,0,3627951453,63
i,1724816951.866620,172.16.5.2,63076,172.16.1.2,5102,6852,11620,2086,65728,65728,6,6,4,1460,315312,1,16778208,690000,33580,32132,65700,0,11584,0,3627951453,63
o,1724816951.866656,172.16.5.2,63076,172.16.1.2,5102,9794,11584,2086,64256,65728,6,6,4,1460,330937,1,553649120,790000,33580,29236,65700,0,8688,0,3627951453,63
o,1724816951.866983,172.16.5.2,63076,172.16.1.2,5102,9794,11584,2082,64256,65728,6,6,4,1460,330937,1,553649120,790000,33580,29236,65700,0,10136,0,3627951453,63
i,1724816951.945618,172.16.5.2,63076,172.16.1.2,5102,9794,11584,2082,64256,65728,6,6,4,1460,330937,1,553649120,790000,33580,33580,65700,0,11584,0,3627951453,63
o,1724816951.945727,172.16.5.2,63076,172.16.1.2,5102,9794,11584,2082,65728,65728,6,6,4,1460,338437,1,553649120,790000,33580,32132,65700,0,10136,0,3627951453,63
i,1724816952.037866,172.16.5.2,63076,172.16.1.2,5102,9794,11584,2082,65728,65728,6,6,4,1460,338437,1,553649120,790000,33580,32132,65700,0,11584,0,3627951453,63
o,1724816952.037899,172.16.5.2,63076,172.16.1.2,5102,9794,11596,2086,64256,65728,6,6,4,1460,356250,1,553649120,890000,33580,29236,65700,0,8688,0,3627951453,63
i,1724816952.084516,172.16.5.2,63076,172.16.1.2,5102,9794,11596,2086,64256,65728,6,6,4,1460,356250,1,553649120,890000,33580,33580,65700,0,11584,0,3627951453,63
o,1724816952.084545,172.16.5.2,63076,172.16.1.2,5102,9794,11584,2086,64256,65728,6,6,4,1460,358125,1,553649120,820000,33580,30684,65700,0,8688,0,3627951453,63
i,1724816952.189468,172.16.5.2,63076,172.16.1.2,5102,9794,11584,2086,64256,65728,6,6,4,1460,358125,1,553649120,820000,33580,33580,65700,0,11584,0,3627951453,63
i,1724816952.199521,172.16.5.2,63076,172.16.1.2,5102,9794,10136,2086,65728,65728,6,6,4,1460,363437,1,553649120,800000,33580,32132,65700,0,10136,0,3627951453,63
o,1724816952.199626,172.16.5.2,63076,172.16.1.2,5102,9794,10136,2082,65728,65728,6,6,4,1460,359375,1,16778208,770000,33580,30684,65700,0,8688,0,3627951453,63
i,1724816952.248087,172.16.5.2,63076,172.16.1.2,5102,9794,10136,2082,65728,65728,6,6,4,1460,359375,1,16778208,770000,33580,33580,65700,0,10136,0,3627951453,63
o,1724816952.248119,172.16.5.2,63076,172.16.1.2,5102,8355,10136,2082,65728,65728,6,6,4,1460,362187,1,553649120,740000,33580,32132,65700,0,8688,0,3627951453,63
i,1724816952.345912,172.16.5.2,63076,172.16.1.2,5102,8355,10136,2082,65728,65728,6,6,4,1460,362187,1,553649120,740000,33580,32132,65700,0,10136,0,3627951453,63
o,1724816952.346028,172.16.5.2,63076,172.16.1.2,5102,8355,10136,2082,65728,65728,6,6,4,1460,367187,1,553649120,740000,33580,30684,65700,0,8688,0,3627951453,63
i,1724816952.399093,172.16.5.2,63076,172.16.1.2,5102,8355,10136,2082,65728,65728,6,6,4,1460,367187,1,553649120,740000,33580,33580,65700,0,10136,0,3627951453,63
o,1724816952.399118,172.16.5.2,63076,172.16.1.2,5102,8355,8688,2082,64256,65728,6,6,4,1460,366562,1,553649120,700000,33580,30684,65700,0,7240,0,3627951453,63
i,1724816952.465882,172.16.5.2,63076,172.16.1.2,5102,8355,8688,2082,64256,65728,6,6,4,1460,366562,1,553649120,700000,33580,33580,65700,0,8688,0,3627951453,63
o,1724816952.465911,172.16.5.2,63076,172.16.1.2,5102,8355,10136,2086,64256,65728,6,6,4,1460,368437,1,553649120,690000,33580,30684,65700,0,5792,0,3627951453,63
i,1724816952.560299,172.16.5.2,63076,172.16.1.2,5102,8355,10136,2086,64256,65728,6,6,4,1460,368437,1,553649120,690000,33580,33580,65700,0,10136,0,3627951453,63
i,1724816952.567423,172.16.5.2,63076,172.16.1.2,5102,8355,8688,2086,65728,65728,6,6,4,1460,367500,1,536871904,660000,33580,32132,65700,0,8688,0,3627951453,63
