enable_time_secs=1724817112	enable_time_usecs=337005	siftrver=1.3.0	sysname=FreeBSD	sysver=1401000	ipmode=4
o,1724817112.337495,10.0.2.15,22,10.0.2.2,51146,1073725440,17746,1026,65535,65700,0,0,4,1460,312,0,16777220,230000,33580,172,65700,0,0,0,962423462,63
i,1724817112.338528,10.0.2.15,22,10.0.2.2,51146,1073725440,17746,1026,65535,65700,0,0,4,1460,312,0,16777220,230000,33580,172,65700,0,172,0,962423462,63
o,1724817112.338622,10.0.2.15,22,10.0.2.2,51146,1073725440,17918,1026,65535,65700,0,0,4,1460,312,0,16777220,230000,33580,72,65700,0,0,0,962423462,63
i,1724817112.339271,10.0.2.15,22,10.0.2.2,51146,1073725440,17918,1026,65535,65700,0,0,4,1460,312,0,16777220,230000,33580,72,65700,0,72,0,962423462,63
i,1724817112.339564,10.0.2.15,22,10.0.2.2,51146,1073725440,17990,1026,65535,65700,0,0,4,1460,312,0,4,230000,33580,0,65700,0,0,0,962423462,63
i,1724817112.339564,10.0.2.15,22,10.0.2.2,51146,1073725440,17990,1026,65535,65700,0,0,4,1460,312,0,4,230000,33580,0,65700,96,0,0,962423462,63
o,1724817112.339564,10.0.2.15,22,10.0.2.2,51146,1073725440,17990,1026,65535,65604,0,0,5,1460,312,0,5,230000,33580,0,65700,96,0,0,962423462,63
o,1724817112.341584,10.0.2.15,22,10.0.2.2,51146,1073725440,17990,1026,65535,65604,0,0,8,1460,312,0,4,230000,33580,0,65700,0,0,0,962423462,63
i,1724817112.342399,10.0.2.15,22,10.0.2.2,51146,1073725440,17990,1026,65535,65604,0,0,8,1460,312,0,67108884,230000,33580,0,65700,0,1,0,962423462,63
i,1724817115.478277,10.0.2.15,22,10.0.2.2,51158,1073725440,14600,0,65535,65700,0,0,4,1460,312,0,16777216,270000,33580,0,65700,0,0,0,2936946646,63
o,1724817115.488303,10.0.2.15,22,10.0.2.2,51158,1073725440,14600,1026,65535,65700,0,0,4,1460,312,0,16777216,270000,33580,38,65700,42,0,0,2936946646,63
i,1724817115.488892,10.0.2.15,22,10.0.2.2,51158,1073725440,14600,1026,65535,65700,0,0,4,1460,312,0,16777216,270000,33580,38,65700,0,38,0,2936946646,63
i,1724817115.488913,10.0.2.15,22,10.0.2.2,51158,1073725440,14638,1026,65535,65700,0,0,4,1460,312,0,0,240000,33580,0,65700,0,0,0,2936946646,63
i,1724817115.488938,10.0.2.15,22,10.0.2.2,51158,1073725440,14638,1026,65535,65700,0,0,4,1460,312,0,0,240000,33580,0,65700,1460,0,0,2936946646,63
o,1724817115.488956,10.0.2.15,22,10.0.2.2,51158,1073725440,14638,1026,65535,65700,0,0,4,1460,312,0,1,240000,33580,0,65700,1536,0,0,2936946646,63
o,1724817115.492245,10.0.2.15,22,10.0.2.2,51158,1073725440,14638,1026,65535,65700,0,0,4,1460,312,0,16777216,240000,33580,1120,65700,1536,0,0,2936946646,63
i,1724817115.492673,10.0.2.15,22,10.0.2.2,51158,1073725440,14638,1026,65535,65700,0,0,4,1460,312,0,16777216,240000,33580,1120,65700,0,1120,0,2936946646,63
i,1724817115.494151,10.0.2.15,22,10.0.2.2,51158,1073725440,15758,1026,65535,65700,0,0,4,1460,312,0,0,240000,33580,0,65700,0,0,0,2936946646,63
o,1724817115.497176,10.0.2.15,22,10.0.2.2,51158,1073725440,15758,1026,65535,65700,0,0,4,1460,312,0,16777216,240000,33580,492,65700,0,0,0,2936946646,63
i,1724817115.497710,10.0.2.15,22,10.0.2.2,51158,1073725440,15758,1026,65535,65700,0,0,4,1460,312,0,16777216,240000,33580,492,65700,0,492,0,2936946646,63
i,1724817115.502075,10.0.2.15,22,10.0.2.2,51158,1073725440,16250,1026,65535,65700,0,0,4,1460,312,0,0,240000,33580,0,65700,0,0,0,2936946646,63
i,1724817115.502104,10.0.2.15,22,10.0.2.2,51158,1073725440,16250,1026,65535,65700,0,0,4,1460,312,0,0,240000,33580,0,65700,16,0,0,2936946646,63
o,1724817115.502126,10.0.2.15,22,10.0.2.2,51158,1073725440,16250,1026,65535,65700,0,0,4,1460,312,0,1,240000,33580,0,65700,60,0,0,2936946646,63
o,1724817115.502333,10.0.2.15,22,10.0.2.2,51158,1073725440,16250,1026,65535,65700,0,0,4,1460,312,0,16777216,240000,33580,44,65700,0,0,0,2936946646,63
i,1724817115.503243,10.0.2.15,22,10.0.2.2,51158,1073725440,16250,1026,65535,65700,0,0,4,1460,312,0,16777216,240000,33580,44,65700,0,44,0,2936946646,63
i,1724817115.503264,10.0.2.15,22,10.0.2.2,51158,1073725440,16294,1026,65535,65700,0,0,4,1460,312,0,0,240000,33580,0,65700,0,0,0,2936946646,63
o,1724817115.505383,10.0.2.15,22,10.0.2.2,51158,1073725440,16294,1026,65535,65700,0,0,4,1460,312,0,16777216,240000,33580,68,65700,0,0,0,2936946646,63
i,1724817115.505823,10.0.2.15,22,10.0.2.2,51158,1073725440,16294,1026,65535,65700,0,0,4,1460,312,0,16777216,240000,33580,68,65700,0,68,0,2936946646,63
i,1724817115.505841,10.0.2.15,22,10.0.2.2,51158,1073725440,16362,1026,65535,65700,0,0,4,1460,312,0,0,240000,33580,0,65700,0,0,0,2936946646,63
o,1724817115.507057,10.0.2.15,22,10.0.2.2,51158,1073725440,16362,1026,65535,65700,0,0,4,1460,312,0,16777216,240000,33580,332,65700,0,0,0,2936946646,63
i,1724817115.507700,10.0.2.15,22,10.0.2.2,51158,1073725440,16362,1026,65535,65700,0,0,4,1460,312,0,16777216,240000,33580,332,65700,0,332,0,2936946646,63
i,1724817115.510356,10.0.2.15,22,10.0.2.2,51158,1073725440,16694,1026,65535,65700,0,0,4,1460,312,0,0,240000,33580,0,65700,0,0,0,2936946646,63
o,1724817115.526849,10.0.2.15,22,10.0.2.2,51158,1073725440,16694,1026,65535,65700,0,0,4,1460,312,0,16777216,240000,33580,28,65700,0,0,0,2936946646,63
i,1724817115.527652,10.0.2.15,22,10.0.2.2,51158,1073725440,16694,1026,65535,65700,0,0,4,1460,312,0,16777216,240000,33580,28,65700,0,28,0,2936946646,63
i,1724817115.527673,10.0.2.15,22,10.0.2.2,51158,1073725440,16722,1026,65535,65700,0,0,4,1460,312,0,0,240000,33580,0,65700,0,0,0,2936946646,63
o,1724817115.529172,10.0.2.15,22,10.0.2.2,51158,1073725440,16722,1026,65535,65700,0,0,4,1460,312,0,16777216,240000,33580,768,65700,112,0,0,2936946646,63
i,1724817115.530067,10.0.2.15,22,10.0.2.2,51158,1073725440,16722,1026,65535,65700,0,0,4,1460,312,0,16777216,240000,33580,908,65700,112,768,0,2936946646,63
o,1724817115.530086,10.0.2.15,22,10.0.2.2,51158,1073725440,17490,1026,65535,65700,0,0,4,1460,312,0,16777216,240000,33580,140,65700,112,0,0,2936946646,63
i,1724817115.530999,10.0.2.15,22,10.0.2.2,51158,1073725440,17490,1026,65535,65700,0,0,4,1460,312,0,16777216,240000,33580,140,65700,112,140,0,2936946646,63
o,1724817115.531793,10.0.2.15,22,10.0.2.2,51158,1073725440,17630,1026,65535,65700,0,0,4,1460,312,0,16777216,240000,33580,44,65700,0,0,0,2936946646,63
i,1724817115.532433,10.0.2.15,22,10.0.2.2,51158,1073725440,17630,1026,65535,65700,0,0,4,1460,312,0,16777216,240000,33580,44,65700,0,44,0,2936946646,63
i,1724817115.532452,10.0.2.15,22,10.0.2.2,51158,1073725440,17674,1026,65535,65700,0,0,4,1460,312,0,0,240000,33580,0,65700,0,0,0,2936946646,63
o,1724817115.533027,10.0.2.15,22,10.0.2.2,51158,1073725440,17674,1026,65535,65700,0,0,4,1460,312,0,16777220,240000,33580,72,65700,0,0,0,2936946646,63
i,1724817115.534150,10.0.2.15,22,10.0.2.2,51158,1073725440,17674,1026,65535,65700,0,0,4,1460,312,0,16777220,240000,33580,72,65700,0,72,0,2936946646,63
o,1724817115.537566,10.0.2.15,22,10.0.2.2,51158,1073725440,17746,1026,65535,65700,0,0,4,1460,312,0,16777220,230000,33580,104,65700,0,0,0,2936946646,63
i,1724817115.538137,10.0.2.15,22,10.0.2.2,51158,1073725440,17746,1026,65535,65700,0,0,4,1460,312,0,16777220,230000,33580,104,65700,0,104,0,2936946646,63
o,1724817115.548087,10.0.2.15,22,10.0.2.2,51158,1073725440,17850,1026,65535,65700,0,0,4,1460,312,0,16777220,230000,33580,72,65700,0,0,0,2936946646,63
i,1724817115.549201,10.0.2.15,22,10.0.2.2,51158,1073725440,17850,1026,65535,65700,0,0,4,1460,312,0,16777220,230000,33580,72,65700,0,72,0,2936946646,63
i,1724817115.549222,10.0.2.15,22,10.0.2.2,51158,1073725440,17922,1026,65535,65700,0,0,4,1460,312,0,4,230000,33580,0,65700,0,0,0,2936946646,63
i,1724817115.549241,10.0.2.15,22,10.0.2.2,51158,1073725440,17922,1026,65535,65700,0,0,4,1460,312,0,4,230000,33580,0,65700,96,0,0,2936946646,63
o,1724817115.549260,10.0.2.15,22,10.0.2.2,51158,1073725440,17922,1026,65535,65604,0,0,5,1460,312,0,5,230000,33580,0,65700,96,0,0,2936946646,63
o,1724817115.563156,10.0.2.15,22,10.0.2.2,51158,1073725440,17922,1026,65535,65604,0,0,8,1460,312,0,4,230000,33580,0,65700,0,0,0,2936946646,63
i,1724817115.564574,10.0.2.15,22,10.0.2.2,51158,1073725440,17922,1026,65535,65604,0,0,8,1460,312,0,67108884,230000,33580,0,65700,0,1,0,2936946646,63
i,1724817116.572581,10.0.2.15,22,10.0.2.2,51160,1073725440,14600,0,65535,65700,0,0,4,1460,312,0,16777216,270000,33580,0,65700,0,0,0,2208863543,63
o,1724817116.587976,10.0.2.15,22,10.0.2.2,51160,1073725440,14600,1026,65535,65700,0,0,4,1460,312,0,16777216,270000,33580,38,65700,42,0,0,2208863543,63
i,1724817116.588429,10.0.2.15,22,10.0.2.2,51160,1073725440,14600,1026,65535,65700,0,0,4,1460,312,0,16777216,270000,33580,38,65700,0,38,0,2208863543,63
i,1724817116.589423,10.0.2.15,22,10.0.2.2,51160,1073725440,14638,1026,65535,65700,0,0,4,1460,312,0,0,240000,33580,0,65700,0,0,0,2208863543,63
i,1724817116.589445,10.0.2.15,22,10.0.2.2,51160,1073725440,14638,1026,65535,65700,0,0,4,1460,312,0,0,240000,33580,0,65700,1460,0,0,2208863543,63
o,1724817116.589467,10.0.2.15,22,10.0.2.2,51160,1073725440,14638,1026,65535,65700,0,0,4,1460,312,0,1,240000,33580,0,65700,1536,0,0,2208863543,63
o,1724817116.589750,10.0.2.15,22,10.0.2.2,51160,1073725440,14638,1026,65535,65700,0,0,4,1460,312,0,16777216,240000,33580,1120,65700,1536,0,0,2208863543,63
i,1724817116.591461,10.0.2.15,22,10.0.2.2,51160,1073725440,14638,1026,65535,65700,0,0,4,1460,312,0,16777216,240000,33580,1120,65700,0,1120,0,2208863543,63
i,1724817116.591480,10.0.2.15,22,10.0.2.2,51160,1073725440,15758,1026,65535,65700,0,0,4,1460,312,0,0,240000,33580,0,65700,0,0,0,2208863543,63
o,1724817116.595444,10.0.2.15,22,10.0.2.2,51160,1073725440,15758,1026,65535,65700,0,0,4,1460,312,0,16777216,240000,33580,492,65700,0,0,0,2208863543,63
i,1724817116.596386,10.0.2.15,22,10.0.2.2,51160,1073725440,15758,1026,65535,65700,0,0,4,1460,312,0,16777216,240000,33580,492,65700,0,492,0,2208863543,63
i,1724817116.600516,10.0.2.15,22,10.0.2.2,51160,1073725440,16250,1026,65535,65700,0,0,4,1460,312,0,0,240000,33580,0,65700,0,0,0,2208863543,63
i,1724817116.600538,10.0.2.15,22,10.0.2.2,51160,1073725440,16250,1026,65535,65700,0,0,4,1460,312,0,0,240000,33580,0,65700,16,0,0,2208863543,63
o,1724817116.600558,10.0.2.15,22,10.0.2.2,51160,1073725440,16250,1026,65535,65700,0,0,4,1460,312,0,1,240000,33580,0,65700,60,0,0,2208863543,63
o,1724817116.600818,10.0.2.15,22,10.0.2.2,51160,1073725440,16250,1026,65535,65700,0,0,4,1460,312,0,16777216,240000,33580,44,65700,0,0,0,2208863543,63
i,1724817116.601326,10.0.2.15,22,10.0.2.2,51160,1073725440,16250,1026,65535,65700,0,0,4,1460,312,0,16777216,240000,33580,44,65700,0,44,0,2208863543,63
i,1724817116.601370,10.0.2.15,22,10.0.2.2,51160,1073725440,16294,1026,65535,65700,0,0,4,1460,312,0,0,240000,33580,0,65700,0,0,0,2208863543,63
o,1724817116.605553,10.0.2.15,22,10.0.2.2,51160,1073725440,16294,1026,65535,65700,0,0,4,1460,312,0,16777216,240000,33580,68,65700,0,0,0,2208863543,63
i,1724817116.606426,10.0.2.15,22,10.0.2.2,51160,1073725440,16294,1026,65535,65700,0,0,4,1460,312,0,16777216,240000,33580,68,65700,0,68,0,2208863543,63
i,1724817116.606445,10.0.2.15,22,10.0.2.2,51160,1073725440,16362,1026,65535,65700,0,0,4,1460,312,0,0,240000,33580,0,65700,0,0,0,2208863543,63
o,1724817116.608185,10.0.2.15,22,10.0.2.2,51160,1073725440,16362,1026,65535,65700,0,0,4,1460,312,0,16777216,240000,33580,332,65700,0,0,0,2208863543,63
i,1724817116.609093,10.0.2.15,22,10.0.2.2,51160,1073725440,16362,1026,65535,65700,0,0,4,1460,312,0,16777216,240000,33580,332,65700,0,332,0,2208863543,63
i,1724817116.610536,10.0.2.15,22,10.0.2.2,51160,1073725440,16694,1026,65535,65700,0,0,4,1460,312,0,0,240000,33580,0,65700,0,0,0,2208863543,63
o,1724817116.628293,10.0.2.15,22,10.0.2.2,51160,1073725440,16694,1026,65535,65700,0,0,4,1460,312,0,16777216,240000,33580,28,65700,0,0,0,2208863543,63
i,1724817116.628895,10.0.2.15,22,10.0.2.2,51160,1073725440,16694,1026,65535,65700,0,0,4,1460,312,0,16777216,240000,33580,28,65700,0,28,0,2208863543,63
i,1724817116.628918,10.0.2.15,22,10.0.2.2,51160,1073725440,16722,1026,65535,65700,0,0,4,1460,312,0,0,240000,33580,0,65700,0,0,0,2208863543,63
o,1724817116.630799,10.0.2.15,22,10.0.2.2,51160,1073725440,16722,1026,65535,65700,0,0,4,1460,312,0,16777216,240000,33580,768,65700,112,0,0,2208863543,63
i,1724817116.631867,10.0.2.15,22,10.0.2.2,51160,1073725440,16722,1026,65535,65700,0,0,4,1460,312,0,16777216,240000,33580,908,65700,112,768,0,2208863543,63
o,1724817116.631891,10.0.2.15,22,10.0.2.2,51160,1073725440,17490,1026,65535,65700,0,0,4,1460,312,0,16777216,240000,33580,140,65700,112,0,0,2208863543,63
i,1724817116.633563,10.0.2.15,22,10.0.2.2,51160,1073725440,17490,1026,65535,65700,0,0,4,1460,312,0,16777216,240000,33580,140,65700,112,140,0,2208863543,63
o,1724817116.638014,10.0.2.15,22,10.0.2.2,51160,1073725440,17630,1026,65535,65700,0,0,4,1460,312,0,16777216,230000,33580,44,65700,0,0,0,2208863543,63
i,1724817116.638629,10.0.2.15,22,10.0.2.2,51160,1073725440,17630,1026,65535,65700,0,0,4,1460,312,0,16777216,230000,33580,44,65700,0,44,0,2208863543,63
i,1724817116.638649,10.0.2.15,22,10.0.2.2,51160,1073725440,17674,1026,65535,65700,0,0,4,1460,312,0,0,230000,33580,0,65700,0,0,0,2208863543,63
o,1724817116.639528,10.0.2.15,22,10.0.2.2,51160,1073725440,17674,1026,65535,65700,0,0,4,1460,312,0,16777220,230000,33580,72,65700,0,0,0,2208863543,63
i,1724817116.640251,10.0.2.15,22,10.0.2.2,51160,1073725440,17674,1026,65535,65700,0,0,4,1460,312,0,16777220,230000,33580,72,65700,0,72,0,2208863543,63
o,1724817116.715023,172.16.5.2,16660,172.16.1.2,5102,14768,14480,2082,65535,65700,6,6,4,1460,214062,1,16778209,660000,33580,0,65700,0,0,0,984919730,63
o,1724817116.715461,172.16.5.2,16660,172.16.1.2,5102,14768,14480,2082,65535,65700,6,6,4,1460,214062,1,16778212,660000,33580,37,65700,0,0,0,984919730,63
i,1724817116.789516,172.16.5.2,16660,172.16.1.2,5102,14768,14480,2082,65535,65700,6,6,4,1460,214062,1,16778212,660000,33580,37,65700,0,37,0,984919730,63
o,1724817116.789890,172.16.5.2,16660,172.16.1.2,5102,14768,14517,3106,65728,65728,6,6,4,1460,196250,1,16778212,720000,33580,4,65700,0,0,0,984919730,63
o,1724817116.790300,172.16.5.2,16660,172.16.1.2,5102,14768,14517,3106,65728,65728,6,6,4,1460,196250,1,16778212,720000,33580,130,65700,0,4,0,984919730,63
i,1724817116.862536,172.16.5.2,16660,172.16.1.2,5102,14768,14517,3106,65728,65728,6,6,4,1460,196250,1,16778212,720000,33580,130,65700,0,130,0,984919730,63
i,1724817116.862575,172.16.5.2,16660,172.16.1.2,5102,14768,14647,3106,65600,65728,6,6,4,1460,180625,1,996,750000,33580,0,65700,0,0,0,984919730,63
o,1724817116.937639,172.16.5.2,16660,172.16.1.2,5102,14768,14647,3106,65728,65728,6,6,4,1460,180625,1,997,750000,33580,0,65700,0,0,0,984919730,63
o,1724817116.937791,172.16.5.2,25481,172.16.1.2,5102,14768,14480,2082,65535,65700,6,6,4,1460,215312,1,16778209,650000,33580,0,65700,0,0,0,1015513046,63
o,1724817116.937890,172.16.5.2,25481,172.16.1.2,5102,14768,14480,2082,65535,65700,6,6,4,1460,215312,1,16778208,650000,33580,37,65700,0,0,0,1015513046,63
i,1724817117.020674,172.16.5.2,16660,172.16.1.2,5102,14768,14647,3106,65728,65728,6,6,4,1460,180625,1,996,750000,33580,0,65700,0,0,0,984919730,63
i,1724817117.020712,172.16.5.2,16660,172.16.1.2,5102,14768,14647,3106,65728,65728,6,6,4,1460,180625,1,996,750000,33580,0,65700,1,0,0,984919730,63
o,1724817117.020731,172.16.5.2,16660,172.16.1.2,5102,14768,14647,3106,65728,65728,6,6,4,1460,180625,1,997,750000,33580,0,65700,2,0,0,984919730,63
o,1724817117.021445,172.16.5.2,25481,172.16.1.2,5102,14768,14480,2086,65535,65700,6,6,4,1460,215312,1,16778208,650000,33580,33580,65700,0,37,0,1015513046,63
i,1724817117.086055,172.16.5.2,25481,172.16.1.2,5102,14768,14480,2086,65535,65700,6,6,4,1460,215312,1,16778208,650000,33580,33580,65700,0,13069,0,1015513046,63
o,1724817117.086141,172.16.5.2,25481,172.16.1.2,5102,14768,14517,2086,65728,65728,6,6,4,1460,207187,1,16778208,650000,33580,33543,65700,0,13032,0,1015513046,63
i,1724817117.341769,172.16.5.2,25481,172.16.1.2,5102,14768,14517,2086,65728,65728,6,6,4,1460,207187,1,16778208,650000,33580,33543,65700,0,14480,0,1015513046,63
o,1724817117.341850,172.16.5.2,25481,172.16.1.2,5102,7713,14480,2086,64256,65728,6,6,4,1460,221562,1,553649120,720000,33580,30647,65700,0,11584,0,1015513046,63
i,1724817117.411578,172.16.5.2,25481,172.16.1.2,5102,7713,14480,2086,64256,65728,6,6,4,1460,221562,1,553649120,720000,33580,33580,65700,0,14480,0,1015513046,63
o,1724817117.411653,172.16.5.2,25481,172.16.1.2,5102,7713,13032,2082,64256,65728,6,6,4,1460,242812,1,553649120,830000,33580,30684,65700,0,11584,0,1015513046,63
i,1724817117.457069,172.16.5.2,25481,172.16.1.2,5102,7713,13032,2082,64256,65728,6,6,4,1460,242812,1,553649120,830000,33580,33580,65700,0,13032,0,1015513046,63
o,1724817117.457101,172.16.5.2,25481,172.16.1.2,5102,7713,11584,2082,64256,65728,6,6,4,1460,267500,1,553649120,960000,33580,30684,65700,0,10136,0,1015513046,63
i,1724817117.487497,172.16.5.2,25481,172.16.1.2,5102,7713,11584,2082,64256,65728,6,6,4,1460,267500,1,553649120,960000,33580,33580,65700,0,11584,0,1015513046,63
o,1724817117.487579,172.16.5.2,25481,172.16.1.2,5102,7713,11596,2086,64256,65728,6,6,4,1460,292812,1,553649120,1060000,33580,30684,65700,0,8688,0,1015513046,63
i,1724817117.537732,172.16.5.2,25481,172.16.1.2,5102,7713,11596,2086,64256,65728,6,6,4,1460,292812,1,553649120,1060000,33580,33580,65700,0,11584,0,1015513046,63
i,1724817117.707628,172.16.5.2,25481,172.16.1.2,5102,7713,8688,2086,64256,65728,6,6,4,1460,321250,1,536871904,1180000,33580,33580,65700,0,8688,0,1015513046,63
i,1724817117.726683,172.16.5.2,25481,172.16.1.2,5102,4629,7240,2150,65728,65728,6,6,4,1460,327500,1,536871904,1070000,33580,32132,65700,0,7240,0,1015513046,63
o,1724817117.726753,172.16.5.2,25481,172.16.1.2,5102,4629,7252,2086,65728,65728,6,6,4,1460,335312,1,553649120,1000000,33580,30684,65700,0,5792,0,1015513046,63
i,1724817117.761607,172.16.5.2,25481,172.16.1.2,5102,4629,7252,2086,65728,65728,6,6,4,1460,335312,1,553649120,1000000,33580,33580,65700,0,7240,0,1015513046,63
o,1724817117.761680,172.16.5.2,25481,172.16.1.2,5102,4629,7240,2086,64256,65728,6,6,4,1460,337187,1,553649120,900000,33580,30684,65700,0,4344,0,1015513046,63
i,1724817117.808602,172.16.5.2,25481,172.16.1.2,5102,4629,7240,2086,64256,65728,6,6,4,1460,337187,1,553649120,900000,33580,33580,65700,0,7240,0,1015513046,63
o,1724817117.808683,172.16.5.2,25481,172.16.1.2,5102,4629,7240,2086,64256,65728,6,6,4,1460,335312,1,553649120,820000,33580,30684,65700,0,4344,0,1015513046,63
i,1724817117.861801,172.16.5.2,25481,172.16.1.2,5102,4629,7240,2086,64256,65728,6,6,4,1460,335312,1,553649120,820000,33580,33580,65700,0,7240,0,1015513046,63
o,1724817117.861871,172.16.5.2,25481,172.16.1.2,5102,4629,7240,2082,65728,65728,6,6,4,1460,309687,1,16778208,930000,33580,32132,65700,0,5792,0,1015513046,63
i,1724817117.903553,172.16.5.2,25481,172.16.1.2,5102,4629,7240,2082,65728,65728,6,6,4,1460,309687,1,16778208,930000,33580,32132,65700,0,7240,0,1015513046,63
o,1724817117.903580,172.16.5.2,25481,172.16.1.2,5102,4629,7240,2086,64256,65728,6,6,4,1460,288750,1,16778208,970000,33580,29236,65700,0,4344,0,1015513046,63
i,1724817117.961170,172.16.5.2,25481,172.16.1.2,5102,4629,7240,2086,64256,65728,6,6,4,1460,288750,1,16778208,970000,33580,33580,65700,0,7240,0,1015513046,63
o,1724817117.961253,172.16.5.2,25481,172.16.1.2,5102,4629,7240,2086,64256,65728,6,6,4,1460,271562,1,16778208,970000,33580,30684,65700,0,4344,0,1015513046,63
i,1724817118.018763,172.16.5.2,25481,172.16.1.2,5102,4629,7240,2086,64256,65728,6,6,4,1460,271562,1,16778208,970000,33580,33580,65700,0,7240,0,1015513046,63
o,1724817118.018788,172.16.5.2,25481,172.16.1.2,5102,4629,8700,2086,65728,65728,6,6,4,1460,257812,1,16778208,940000,33580,32132,65700,0,5792,0,1015513046,63
o,1724817118.018950,172.16.5.2,25481,172.16.1.2,5102,4629,8700,2086,65728,65728,6,6,4,1460,257812,1,16778208,940000,33580,32132,65700,0,7240,0,1015513046,63
i,1724817118.058441,172.16.5.2,25481,172.16.1.2,5102,4629,8700,2086,65728,65728,6,6,4,1460,257812,1,16778208,940000,33580,32132,65700,0,8688,0,1015513046,63
o,1724817118.058468,172.16.5.2,25481,172.16.1.2,5102,4629,8700,2086,65728,65728,6,6,4,1460,244375,1,16778208,910000,33580,30684,65700,0,7240,0,1015513046,63
i,1724817118.076609,172.16.5.2,25481,172.16.1.2,5102,4629,8700,2086,65728,65728,6,6,4,1460,244375,1,16778208,910000,33580,33580,65700,0,8688,0,1015513046,63
o,1724817118.076632,172.16.5.2,25481,172.16.1.2,5102,4629,8700,2086,64256,65728,6,6,4,1460,235312,1,16778208,860000,33580,30684,65700,0,5792,0,1015513046,63
i,1724817118.134154,172.16.5.2,25481,172.16.1.2,5102,4629,8700,2086,64256,65728,6,6,4,1460,235312,1,16778208,860000,33580,33580,65700,0,8688,0,1015513046,63
o,1724817118.134226,172.16.5.2,25481,172.16.1.2,5102,4629,8700,2086,65728,65728,6,6,4,1460,228437,1,16778208,800000,33580,32132,65700,0,7240,0,1015513046,63
i,1724817118.212046,172.16.5.2,25481,172.16.1.2,5102,4629,8700,2086,65728,65728,6,6,4,1460,228437,1,16778208,800000,33580,32132,65700,0,8688,0,1015513046,63
o,1724817118.212086,172.16.5.2,25481,172.16.1.2,5102,4629,8700,2086,64256,65728,6,6,4,1460,223750,1,16778208,740000,33580,29236,65700,0,5792,0,1015513046,63
o,1724817118.212246,172.16.5.2,25481,172.16.1.2,5102,4629,8700,2086,64256,65728,6,6,4,1460,223750,1,16778208,740000,33580,29236,65700,0,7240,0,1015513046,63
i,1724817118.284684,172.16.5.2,25481,172.16.1.2,5102,4629,8700,2086,64256,65728,6,6,4,1460,223750,1,16778208,740000,33580,33580,65700,0,8688,0,1015513046,63
o,1724817118.284717,172.16.5.2,25481,172.16.1.2,5102,5362,10148,2086,65728,65728,6,6,4,1460,224687,1,553649120,670000,33580,32132,65700,0,7240,0,1015513046,63
i,1724817118.322369,172.16.5.2,25481,172.16.1.2,5102,5362,10148,2086,65728,65728,6,6,4,1460,224687,1,553649120,670000,33580,32132,65700,0,10136,0,1015513046,63
i,1724817118.416683,172.16.5.2,25481,172.16.1.2,5102,5362,7240,2086,64256,65728,6,6,4,1460,226875,1,553649120,630000,33580,33580,65700,0,7240,0,1015513046,63
o,1724817118.416772,172.16.5.2,25481,172.16.1.2,5102,5362,7252,2086,65728,65728,6,6,4,1460,233750,1,553649120,640000,33580,32132,65700,0,5792,0,1015513046,63
i,1724817118.464936,172.16.5.2,25481,172.16.1.2,5102,5362,7252,2086,65728,65728,6,6,4,1460,233750,1,553649120,640000,33580,32132,65700,0,7240,0,1015513046,63
o,1724817118.464961,172.16.5.2,25481,172.16.1.2,5102,5362,7240,2086,64256,65728,6,6,4,1460,237187,1,553649120,620000,33580,29236,65700,0,4344,0,1015513046,63
o,1724817118.465086,172.16.5.2,25481,172.16.1.2,5102,5362,7240,2082,64256,65728,6,6,4,1460,237187,1,553649120,620000,33580,29236,65700,0,5792,0,1015513046,63
i,1724817118.488240,172.16.5.2,25481,172.16.1.2,5102,5362,7240,2082,64256,65728,6,6,4,1460,237187,1,553649120,620000,33580,33580,65700,0,7240,0,1015513046,63
i,1724817118.506717,172.16.5.2,25481,172.16.1.2,5102,4409,5792,2146,65728,65728,6,6,4,1460,232812,1,553649120,600000,33580,32132,65700,0,5792,0,1015513046,63
o,1724817118.506797,172.16.5.2,25481,172.16.1.2,5102,4409,5792,2082,65728,65728,6,6,4,1460,231250,1,553649120,570000,33580,30684,65700,0,4344,0,1015513046,63
i,1724817118.638517,172.16.5.2,25481,172.16.1.2,5102,4409,5792,2082,65728,65728,6,6,4,1460,231250,1,553649120,570000,33580,33580,65700,0,5792,0,1015513046,63
o,1724817118.638551,172.16.5.2,25481,172.16.1.2,5102,4409,5792,2082,65728,65728,6,6,4,1460,230000,1,553649120,550000,33580,32132,65700,0,4344,0,1015513046,63
i,1724817118.699504,172.16.5.2,25481,172.16.1.2,5102,4409,5792,2082,65728,65728,6,6,4,1460,230000,1,553649120,550000,33580,32132,65700,0,5792,0,1015513046,63
o,1724817118.699539,172.16.5.2,25481,172.16.1.2,5102,4409,5792,2086,64256,65728,6,6,4,1460,230000,1,553649120,520000,33580,29236,65700,0,2896,0,1015513046,63
o,1724817118.699679,172.16.5.2,25481,172.16.1.2,5102,4409,5792,2082,64256,65728,6,6,4,1460,230000,1,553649120,520000,33580,29236,65700,0,4344,0,1015513046,63
i,1724817118.744866,172.16.5.2,25481,172.16.1.2,5102,4409,5792,2082,64256,65728,6,6,4,1460,230000,1,553649120,520000,33580,33580,65700,0,5792,0,1015513046,63
o,1724817118.744940,172.16.5.2,25481,172.16.1.2,5102,4409,5792,2082,65728,65728,6,6,4,1460,231250,1,16778208,500000,33580,32132,65700,0,4344,0,1015513046,63
i,1724817118.796545,172.16.5.2,25481,172.16.1.2,5102,4409,5792,2082,65728,65728,6,6,4,1460,231250,1,16778208,500000,33580,32132,65700,0,5792,0,1015513046,63
o,1724817118.796654,172.16.5.2,25481,172.16.1.2,5102,4409,5792,2082,65728,65728,6,6,4,1460,222500,1,16778208,550000,33580,30684,65700,0,4344,0,1015513046,63
i,1724817118.854142,172.16.5.2,25481,172.16.1.2,5102,4409,5792,2082,65728,65728,6,6,4,1460,222500,1,16778208,550000,33580,33580,65700,0,5792,0,1015513046,63
o,1724817118.854166,172.16.5.2,25481,172.16.1.2,5102,4409,5792,2082,65728,65728,6,6,4,1460,213437,1,16778208,580000,33580,32132,65700,0,4344,0,1015513046,63
i,1724817118.899555,172.16.5.2,25481,172.16.1.2,5102,4409,5792,2082,65728,65728,6,6,4,1460,213437,1,16778208,580000,33580,32132,65700,0,5792,0,1015513046,63
o,1724817118.899655,172.16.5.2,25481,172.16.1.2,5102,4409,5792,2082,65728,65728,6,6,4,1460,211875,1,16778208,550000,33580,30684,65700,0,4344,0,1015513046,63
i,1724817118.936611,172.16.5.2,25481,172.16.1.2,5102,4409,5792,2082,65728,65728,6,6,4,1460,211875,1,16778208,550000,33580,33580,65700,0,5792,0,1015513046,63
o,1724817118.936641,172.16.5.2,25481,172.16.1.2,5102,4409,7252,2086,64256,65728,6,6,4,1460,209375,1,16778208,530000,33580,30684,65700,0,2896,0,1015513046,63
i,1724817119.028914,172.16.5.2,25481,172.16.1.2,5102,4409,7252,2086,64256,65728,6,6,4,1460,209375,1,16778208,530000,33580,33580,65700,0,7240,0,1015513046,63
o,1724817119.028986,172.16.5.2,25481,172.16.1.2,5102,4409,7252,2086,64256,65728,6,6,4,1460,204687,1,16778208,530000,33580,30684,65700,0,4344,0,1015513046,63
o,1724817119.029105,172.16.5.2,25481,172.16.1.2,5102,4409,7252,2086,64256,65728,6,6,4,1460,204687,1,16778208,530000,33580,30684,65700,0,5792,0,1015513046,63
i,1724817119.176494,172.16.5.2,25481,172.16.1.2,5102,4409,7252,2086,64256,65728,6,6,4,1460,204687,1,16778208,530000,33580,33580,65700,0,7240,0,1015513046,63
o,1724817119.176528,172.16.5.2,25481,172.16.1.2,5102,4409,7252,2086,65728,65728,6,6,4,1460,209375,1,16778208,540000,33580,32132,65700,0,5792,0,1015513046,63
i,1724817119.240426,172.16.5.2,25481,172.16.1.2,5102,4409,7252,2086,65728,65728,6,6,4,1460,209375,1,16778208,540000,33580,32132,65700,0,7240,0,1015513046,63
o,1724817119.240499,172.16.5.2,25481,172.16.1.2,5102,4866,7252,2086,64256,65728,6,6,4,1460,220937,1,553649120,610000,33580,29236,65700,0,4344,0,1015513046,63
i,1724817119.286598,172.16.5.2,25481,172.16.1.2,5102,4866,7252,2086,64256,65728,6,6,4,1460,220937,1,553649120,610000,33580,33580,65700,0,7240,0,1015513046,63
o,1724817119.286679,172.16.5.2,25481,172.16.1.2,5102,4866,7240,2086,64256,65728,6,6,4,1460,225937,1,553649120,610000,33580,30684,65700,0,4344,0,1015513046,63
o,1724817119.286796,172.16.5.2,25481,172.16.1.2,5102,4866,7240,2082,64256,65728,6,6,4,1460,225937,1,553649120,610000,33580,30684,65700,0,5792,0,1015513046,63
i,1724817119.389333,172.16.5.2,25481,172.16.1.2,5102,4866,7240,2082,64256,65728,6,6,4,1460,225937,1,553649120,610000,33580,33580,65700,0,7240,0,1015513046,63
o,1724817119.389411,172.16.5.2,25481,172.16.1.2,5102,4866,7240,2086,64256,65728,6,6,4,1460,224062,1,16778208,580000,33580,30684,65700,0,4344,0,1015513046,63
i,1724817119.470390,172.16.5.2,25481,172.16.1.2,5102,4866,7240,2086,64256,65728,6,6,4,1460,224062,1,16778208,580000,33580,33580,65700,0,7240,0,1015513046,63
o,1724817119.470426,172.16.5.2,25481,172.16.1.2,5102,4866,7240,2082,65728,65728,6,6,4,1460,225000,1,16778208,550000,33580,32132,65700,0,5792,0,1015513046,63
i,1724817119.518839,172.16.5.2,25481,172.16.1.2,5102,4866,7240,2082,65728,65728,6,6,4,1460,225000,1,16778208,550000,33580,32132,65700,0,7240,0,1015513046,63
o,1724817119.518868,172.16.5.2,25481,172.16.1.2,5102,4866,7240,2082,65728,65728,6,6,4,1460,225625,1,16778208,520000,33580,30684,65700,0,5792,0,1015513046,63
i,1724817119.575005,172.16.5.2,25481,172.16.1.2,5102,4866,7240,2082,65728,65728,6,6,4,1460,225625,1,16778208,520000,33580,33580,65700,0,7240,0,1015513046,63
o,1724817119.575081,172.16.5.2,25481,172.16.1.2,5102,4866,7240,2086,64256,65728,6,6,4,1460,233750,1,16778208,570000,33580,30684,65700,0,4344,0,1015513046,63
i,1724817119.647258,172.16.5.2,25481,172.16.1.2,5102,4866,7240,2086,64256,65728,6,6,4,1460,233750,1,16778208,570000,33580,33580,65700,0,7240,0,1015513046,63
o,1724817119.647287,172.16.5.2,25481,172.16.1.2,5102,4866,8700,2086,64256,65728,6,6,4,1460,237187,1,16778208,570000,33580,30684,65700,0,4344,0,1015513046,63
i,1724817119.731533,172.16.5.2,25481,172.16.1.2,5102,4866,8700,2086,64256,65728,6,6,4,1460,237187,1,16778208,570000,33580,33580,65700,0,8688,0,1015513046,63
o,1724817119.731626,172.16.5.2,25481,172.16.1.2,5102,4866,8700,2086,64256,65728,6,6,4,1460,234062,1,16778208,560000,33580,30684,65700,0,5792,0,1015513046,63
o,1724817119.731781,172.16.5.2,25481,172.16.1.2,5102,4866,8700,2086,64256,65728,6,6,4,1460,234062,1,16778208,560000,33580,30684,65700,0,7240,0,1015513046,63
i,1724817119.794692,172.16.5.2,25481,172.16.1.2,5102,4866,8700,2086,64256,65728,6,6,4,1460,234062,1,16778208,560000,33580,33580,65700,0,8688,0,1015513046,63
o,1724817119.794730,172.16.5.2,25481,172.16.1.2,5102,4866,8700,2086,65728,65728,6,6,4,1460,232500,1,16778208,540000,33580,32132,65700,0,7240,0,1015513046,63
i,1724817119.948552,172.16.5.2,25481,172.16.1.2,5102,4866,8700,2086,65728,65728,6,6,4,1460,232500,1,16778208,540000,33580,32132,65700,0,8688,0,1015513046,63
o,1724817119.948585,172.16.5.2,25481,172.16.1.2,5102,6339,8700,2086,64256,65728,6,6,4,1460,240937,1,553649120,590000,33580,29236,65700,0,5792,0,1015513046,63
i,1724817120.006828,172.16.5.2,25481,172.16.1.2,5102,6339,8700,2086,64256,65728,6,6,4,1460,240937,1,553649120,590000,33580,33580,65700,0,8688,0,1015513046,63
i,1724817120.036998,172.16.5.2,25481,172.16.1.2,5102,6339,7240,2086,65728,65728,6,6,4,1460,255937,1,553649120,680000,33580,32132,65700,0,7240,0,1015513046,63
o,1724817120.037029,172.16.5.2,25481,172.16.1.2,5102,6339,7240,2082,65728,65728,6,6,4,1460,262812,1,553649120,690000,33580,30684,65700,0,5792,0,1015513046,63
i,1724817120.066267,172.16.5.2,25481,172.16.1.2,5102,6339,7240,2082,65728,65728,6,6,4,1460,262812,1,553649120,690000,33580,33580,65700,0,7240,0,1015513046,63
o,1724817120.066341,172.16.5.2,25481,172.16.1.2,5102,6339,7240,2086,64256,65728,6,6,4,1460,272500,1,553649120,720000,33580,30684,65700,0,4344,0,1015513046,63
i,1724817120.159481,172.16.5.2,25481,172.16.1.2,5102,6339,7240,2086,64256,65728,6,6,4,1460,272500,1,553649120,720000,33580,33580,65700,0,7240,0,1015513046,63
o,1724817120.159574,172.16.5.2,25481,172.16.1.2,5102,6339,7240,2082,65728,65728,6,6,4,1460,264687,1,16778208,710000,33580,32132,65700,0,5792,0,1015513046,63
i,1724817120.247793,172.16.5.2,25481,172.16.1.2,5102,6339,7240,2082,65728,65728,6,6,4,1460,264687,1,16778208,710000,33580,32132,65700,0,7240,0,1015513046,63
o,1724817120.247893,172.16.5.2,25481,172.16.1.2,5102,6339,7240,2082,65728,65728,6,6,4,1460,269375,1,16778208,690000,33580,30684,65700,0,5792,0,1015513046,63
i,1724817120.291409,172.16.5.2,25481,172.16.1.2,5102,6339,7240,2082,65728,65728,6,6,4,1460,269375,1,16778208,690000,33580,33580,65700,0,7240,0,1015513046,63
o,1724817120.291489,172.16.5.2,25481,172.16.1.2,5102,5236,5792,2082,64256,65728,6,6,4,1460,267187,1,553649120,650000,33580,30684,65700,0,4344,0,1015513046,63
i,1724817120.354441,172.16.5.2,25481,172.16.1.2,5102,5236,5792,2082,64256,65728,6,6,4,1460,267187,1,553649120,650000,33580,33580,65700,0,5792,0,1015513046,63
o,1724817120.354520,172.16.5.2,25481,172.16.1.2,5102,5236,7252,2086,65728,65728,6,6,4,1460,270312,1,553649120,630000,33580,32132,65700,0,4344,0,1015513046,63
i,1724817120.395644,172.16.5.2,25481,172.16.1.2,5102,5236,7252,2086,65728,65728,6,6,4,1460,270312,1,553649120,630000,33580,32132,65700,0,7240,0,1015513046,63
i,1724817120.464834,172.16.5.2,25481,172.16.1.2,5102,5236,5792,2086,65728,65728,6,6,4,1460,266562,1,553649120,620000,33580,33580,65700,0,5792,0,1015513046,63
o,1724817120.464907,172.16.5.2,25481,172.16.1.2,5102,5236,5792,2082,65728,65728,6,6,4,1460,260937,1,553649120,620000,33580,32132,65700,0,4344,0,1015513046,63
i,1724817120.502753,172.16.5.2,25481,172.16.1.2,5102,5236,5792,2082,65728,65728,6,6,4,1460,260937,1,553649120,620000,33580,32132,65700,0,5792,0,1015513046,63
o,1724817120.502779,172.16.5.2,25481,172.16.1.2,5102,5236,5792,2082,65728,65728,6,6,4,1460,254687,1,16778208,620000,33580,30684,65700,0,4344,0,1015513046,63
i,1724817120.549139,172.16.5.2,25481,172.16.1.2,5102,5236,5792,2082,65728,65728,6,6,4,1460,254687,1,16778208,620000,33580,33580,65700,0,5792,0,1015513046,63
o,1724817120.549215,172.16.5.2,25481,172.16.1.2,5102,5236,5792,2086,64256,65728,6,6,4,1460,246875,1,16778208,640000,33580,30684,65700,0,2896,0,1015513046,63
i,1724817120.634743,172.16.5.2,25481,172.16.1.2,5102,5236,5792,2086,64256,65728,6,6,4,1460,246875,1,16778208,640000,33580,33580,65700,0,5792,0,1015513046,63
o,1724817120.634812,172.16.5.2,25481,172.16.1.2,5102,5236,7252,2086,64256,65728,6,6,4,1460,237500,1,16778208,660000,33580,30684,65700,0,2896,0,1015513046,63
o,1724817120.634944,172.16.5.2,25481,172.16.1.2,5102,5236,7252,2086,64256,65728,6,6,4,1460,237500,1,16778208,660000,33580,30684,65700,0,4344,0,1015513046,63
i,1724817120.715056,172.16.5.2,25481,172.16.1.2,5102,5236,7252,2086,64256,65728,6,6,4,1460,237500,1,16778208,660000,33580,33580,65700,0,7240,0,1015513046,63
o,1724817120.715132,172.16.5.2,25481,172.16.1.2,5102,5236,7252,2086,64256,65728,6,6,4,1460,229062,1,16778208,660000,33580,30684,65700,0,4344,0,1015513046,63
i,1724817120.853202,172.16.5.2,25481,172.16.1.2,5102,5236,7252,2086,64256,65728,6,6,4,1460,229062,1,16778208,660000,33580,33580,65700,0,7240,0,1015513046,63
o,1724817120.853282,172.16.5.2,25481,172.16.1.2,5102,5236,7252,2086,65728,65728,6,6,4,1460,226875,1,16778208,620000,33580,32132,65700,0,5792,0,1015513046,63
i,1724817120.862822,172.16.5.2,25481,172.16.1.2,5102,5236,7252,2086,65728,65728,6,6,4,1460,226875,1,16778208,620000,33580,32132,65700,0,7240,0,1015513046,63
o,1724817120.862843,172.16.5.2,25481,172.16.1.2,5102,5236,7252,2086,64256,65728,6,6,4,1460,225000,1,16778208,580000,33580,29236,65700,0,4344,0,1015513046,63
i,1724817120.924591,172.16.5.2,25481,172.16.1.2,5102,5236,7252,2086,64256,65728,6,6,4,1460,225000,1,16778208,580000,33580,33580,65700,0,7240,0,1015513046,63
o,1724817120.924618,172.16.5.2,25481,172.16.1.2,5102,5236,8712,2086,64256,65728,6,6,4,1460,223125,1,16778208,560000,33580,30684,65700,0,4344,0,1015513046,63
i,1724817121.001543,172.16.5.2,25481,172.16.1.2,5102,5236,8712,2086,64256,65728,6,6,4,1460,223125,1,16778208,560000,33580,33580,65700,0,8688,0,1015513046,63
o,1724817121.001569,172.16.5.2,25481,172.16.1.2,5102,5236,8712,2086,64256,65728,6,6,4,1460,214062,1,16778208,590000,33580,30684,65700,0,5792,0,1015513046,63
o,1724817121.001700,172.16.5.2,25481,172.16.1.2,5102,5236,8712,2086,64256,65728,6,6,4,1460,214062,1,16778208,590000,33580,30684,65700,0,7240,0,1015513046,63
i,1724817121.048337,172.16.5.2,25481,172.16.1.2,5102,5236,8712,2086,64256,65728,6,6,4,1460,214062,1,16778208,590000,33580,33580,65700,0,8688,0,1015513046,63
o,1724817121.048374,172.16.5.2,25481,172.16.1.2,5102,5236,8712,2086,65728,65728,6,6,4,1460,211250,1,16778208,560000,33580,32132,65700,0,7240,0,1015513046,63
i,1724817121.126771,172.16.5.2,25481,172.16.1.2,5102,5236,8712,2086,65728,65728,6,6,4,1460,211250,1,16778208,560000,33580,32132,65700,0,8688,0,1015513046,63
o,1724817121.126861,172.16.5.2,25481,172.16.1.2,5102,5236,10172,2086,64256,65728,6,6,4,1460,210000,1,16778208,540000,33580,29236,65700,0,5792,0,1015513046,63
i,1724817121.224205,172.16.5.2,25481,172.16.1.2,5102,5236,10172,2086,64256,65728,6,6,4,1460,210000,1,16778208,540000,33580,33580,65700,0,10136,0,1015513046,63
o,1724817121.224281,172.16.5.2,25481,172.16.1.2,5102,5236,10172,2086,65728,65728,6,6,4,1460,221250,1,16778208,600000,33580,32132,65700,0,8688,0,1015513046,63
i,1724817121.293185,172.16.5.2,25481,172.16.1.2,5102,5236,10172,2086,65728,65728,6,6,4,1460,221250,1,16778208,600000,33580,32132,65700,0,10136,0,1015513046,63
o,1724817121.293222,172.16.5.2,25481,172.16.1.2,5102,5236,10172,2086,65728,65728,6,6,4,1460,230000,1,16778208,640000,33580,30684,65700,0,8688,0,1015513046,63
i,1724817121.384157,172.16.5.2,25481,172.16.1.2,5102,5236,10172,2086,65728,65728,6,6,4,1460,230000,1,16778208,640000,33580,33580,65700,0,10136,0,1015513046,63
o,1724817121.384191,172.16.5.2,25481,172.16.1.2,5102,7992,10136,2086,64256,65728,6,6,4,1460,250000,1,553649120,770000,33580,30684,65700,0,7240,0,1015513046,63
i,1724817121.436743,172.16.5.2,25481,172.16.1.2,5102,7992,10136,2086,64256,65728,6,6,4,1460,250000,1,553649120,770000,33580,33580,65700,0,10136,0,1015513046,63
o,1724817121.436774,172.16.5.2,25481,172.16.1.2,5102,7992,10148,2086,64256,65728,6,6,4,1460,257500,1,553649120,750000,33580,30684,65700,0,7240,0,1015513046,63
i,1724817121.484813,172.16.5.2,25481,172.16.1.2,5102,7992,10148,2086,64256,65728,6,6,4,1460,257500,1,553649120,750000,33580,33580,65700,0,10136,0,1015513046,63
i,1724817121.541940,172.16.5.2,25481,172.16.1.2,5102,7992,8688,2086,65728,65728,6,6,4,1460,270312,1,553649120,790000,33580,32132,65700,0,8688,0,1015513046,63
o,1724817121.542010,172.16.5.2,25481,172.16.1.2,5102,7992,8688,2082,65728,65728,6,6,4,1460,275312,1,553649120,760000,33580,30684,65700,0,7240,0,1015513046,63
i,1724817121.639854,172.16.5.2,25481,172.16.1.2,5102,7992,8688,2082,65728,65728,6,6,4,1460,275312,1,553649120,760000,33580,33580,65700,0,8688,0,1015513046,63
o,1724817121.639854,172.16.5.2,25481,172.16.1.2,5102,6826,8688,2086,64256,65728,6,6,4,1460,284687,1,553649120,770000,33580,30684,65700,0,5792,0,1015513046,63
o,1724817121.640763,172.16.5.2,25481,172.16.1.2,5102,6826,8688,2082,64256,65728,6,6,4,1460,284687,1,553649120,770000,33580,30684,65700,0,7240,0,1015513046,63
i,1724817121.677674,172.16.5.2,25481,172.16.1.2,5102,6826,8688,2082,64256,65728,6,6,4,1460,284687,1,553649120,770000,33580,33580,65700,0,8688,0,1015513046,63
i,1724817121.727660,172.16.5.2,25481,172.16.1.2,5102,6826,7240,2082,65728,65728,6,6,4,1460,285625,1,553649120,710000,33580,32132,65700,0,7240,0,1015513046,63
o,1724817121.727728,172.16.5.2,25481,172.16.1.2,5102,6826,7240,2082,65728,65728,6,6,4,1460,286250,1,553649120,660000,33580,30684,65700,0,5792,0,1015513046,63
i,1724817121.773627,172.16.5.2,25481,172.16.1.2,5102,6826,7240,2082,65728,65728,6,6,4,1460,286250,1,553649120,660000,33580,33580,65700,0,7240,0,1015513046,63
o,1724817121.773661,172.16.5.2,25481,172.16.1.2,5102,6826,7240,2082,65728,65728,6,6,4,1460,291875,1,553649120,670000,33580,32132,65700,0,5792,0,1015513046,63
i,1724817121.835289,172.16.5.2,25481,172.16.1.2,5102,6826,7240,2082,65728,65728,6,6,4,1460,291875,1,553649120,670000,33580,32132,65700,0,7240,0,1015513046,63
o,1724817121.835405,172.16.5.2,25481,172.16.1.2,5102,5590,7240,2086,64256,65728,6,6,4,1460,293125,1,553649120,630000,33580,29236,65700,0,4344,0,1015513046,63
o,1724817121.835531,172.16.5.2,25481,172.16.1.2,5102,5590,7240,2082,64256,65728,6,6,4,1460,293125,1,553649120,630000,33580,29236,65700,0,5792,0,1015513046,63
i,1724817121.911344,172.16.5.2,25481,172.16.1.2,5102,5590,7240,2082,64256,65728,6,6,4,1460,293125,1,553649120,630000,33580,33580,65700,0,7240,0,1015513046,63
o,1724817121.911374,172.16.5.2,25481,172.16.1.2,5102,5590,7240,2086,64256,65728,6,6,4,1460,290312,1,553649120,620000,33580,30684,65700,0,4344,0,1015513046,63
i,1724817122.012395,172.16.5.2,25481,172.16.1.2,5102,5590,7240,2086,64256,65728,6,6,4,1460,290312,1,553649120,620000,33580,33580,65700,0,7240,0,1015513046,63
o,1724817122.012504,172.16.5.2,25481,172.16.1.2,5102,5590,7240,2086,64256,65728,6,6,4,1460,282812,1,16778208,640000,33580,30684,65700,0,4344,0,1015513046,63
o,1724817122.012619,172.16.5.2,25481,172.16.1.2,5102,5590,7240,2082,64256,65728,6,6,4,1460,282812,1,16778208,640000,33580,30684,65700,0,5792,0,1015513046,63
i,1724817122.120096,172.16.5.2,25481,172.16.1.2,5102,5590,7240,2082,64256,65728,6,6,4,1460,282812,1,16778208,640000,33580,33580,65700,0,7240,0,1015513046,63
o,1724817122.120137,172.16.5.2,25481,172.16.1.2,5102,5519,5792,2082,64256,65728,6,6,4,1460,282500,1,553649120,600000,33580,30684,65700,0,4344,0,1015513046,63
i,1724817122.199626,172.16.5.2,25481,172.16.1.2,5102,5519,5792,2082,64256,65728,6,6,4,1460,282500,1,553649120,600000,33580,33580,65700,0,5792,0,1015513046,63
o,1724817122.199700,172.16.5.2,25481,172.16.1.2,5102,5519,7240,2086,64256,65728,6,6,4,1460,283437,1,553649120,580000,33580,30684,65700,0,2896,0,1015513046,63
o,1724817122.199816,172.16.5.2,25481,172.16.1.2,5102,5519,7240,2086,64256,65728,6,6,4,1460,283437,1,553649120,580000,33580,30684,65700,0,4344,0,1015513046,63
i,1724817122.280160,172.16.5.2,25481,172.16.1.2,5102,5519,7240,2086,64256,65728,6,6,4,1460,283437,1,553649120,580000,33580,33580,65700,0,7240,0,1015513046,63
i,1724817122.354660,172.16.5.2,25481,172.16.1.2,5102,5519,5792,2086,65728,65728,6,6,4,1460,281875,1,553649120,560000,33580,32132,65700,0,5792,0,1015513046,63
o,1724817122.354743,172.16.5.2,25481,172.16.1.2,5102,5519,5792,2082,65728,65728,6,6,4,1460,276875,1,16778208,580000,33580,30684,65700,0,4344,0,1015513046,63
i,1724817122.405428,172.16.5.2,25481,172.16.1.2,5102,5519,5792,2082,65728,65728,6,6,4,1460,276875,1,16778208,580000,33580,33580,65700,0,5792,0,1015513046,63
o,1724817122.405453,172.16.5.2,25481,172.16.1.2,5102,5519,5792,2086,64256,65728,6,6,4,1460,268750,1,16778208,610000,33580,30684,65700,0,2896,0,1015513046,63
o,1724817122.405583,172.16.5.2,25481,172.16.1.2,5102,5519,5792,2082,64256,65728,6,6,4,1460,268750,1,16778208,610000,33580,30684,65700,0,4344,0,1015513046,63
i,1724817122.482215,172.16.5.2,25481,172.16.1.2,5102,5519,5792,2082,64256,65728,6,6,4,1460,268750,1,16778208,610000,33580,33580,65700,0,5792,0,1015513046,63
o,1724817122.482243,172.16.5.2,25481,172.16.1.2,5102,5519,5792,2082,65728,65728,6,6,4,1460,270312,1,16778208,590000,33580,32132,65700,0,4344,0,1015513046,63
i,1724817122.519445,172.16.5.2,25481,172.16.1.2,5102,5519,5792,2082,65728,65728,6,6,4,1460,270312,1,16778208,590000,33580,32132,65700,0,5792,0,1015513046,63
o,1724817122.519466,172.16.5.2,25481,172.16.1.2,5102,5519,7252,2086,64256,65728,6,6,4,1460,256562,1,16778208,660000,33580,29236,65700,0,2896,0,1015513046,63
o,1724817122.519944,172.16.5.2,25481,172.16.1.2,5102,5519,7252,2086,64256,65728,6,6,4,1460,256562,1,16778208,660000,33580,29236,65700,0,4344,0,1015513046,63
i,1724817122.604175,172.16.5.2,25481,172.16.1.2,5102,5519,7252,2086,64256,65728,6,6,4,1460,256562,1,16778208,660000,33580,33580,65700,0,7240,0,1015513046,63
o,1724817122.604199,172.16.5.2,25481,172.16.1.2,5102,5519,7252,2086,65728,65728,6,6,4,1460,249687,1,16778208,650000,33580,32132,65700,0,5792,0,1015513046,63
i,1724817122.624603,172.16.5.2,25481,172.16.1.2,5102,5519,7252,2086,65728,65728,6,6,4,1460,249687,1,16778208,650000,33580,32132,65700,0,7240,0,1015513046,63
o,1724817122.624672,172.16.5.2,25481,172.16.1.2,5102,5519,7252,2086,65728,65728,6,6,4,1460,237500,1,16778208,690000,33580,30684,65700,0,5792,0,1015513046,63
i,1724817122.720194,172.16.5.2,25481,172.16.1.2,5102,5519,7252,2086,65728,65728,6,6,4,1460,237500,1,16778208,690000,33580,33580,65700,0,7240,0,1015513046,63
o,1724817122.720264,172.16.5.2,25481,172.16.1.2,5102,5519,7252,2086,64256,65728,6,6,4,1460,232812,1,16778208,660000,33580,30684,65700,0,4344,0,1015513046,63
o,1724817122.720372,172.16.5.2,25481,172.16.1.2,5102,5519,7252,2086,64256,65728,6,6,4,1460,232812,1,16778208,660000,33580,30684,65700,0,5792,0,1015513046,63
i,1724817122.817677,172.16.5.2,25481,172.16.1.2,5102,5519,7252,2086,64256,65728,6,6,4,1460,232812,1,16778208,660000,33580,33580,65700,0,7240,0,1015513046,63
o,1724817122.817753,172.16.5.2,25481,172.16.1.2,5102,5519,8712,2086,65728,65728,6,6,4,1460,241250,1,16778208,680000,33580,32132,65700,0,5792,0,1015513046,63
i,1724817122.858359,172.16.5.2,25481,172.16.1.2,5102,5519,8712,2086,65728,65728,6,6,4,1460,241250,1,16778208,680000,33580,32132,65700,0,8688,0,1015513046,63
o,1724817122.858385,172.16.5.2,25481,172.16.1.2,5102,5519,8712,2086,65728,65728,6,6,4,1460,242500,1,16778208,630000,33580,30684,65700,0,7240,0,1015513046,63
i,1724817122.901932,172.16.5.2,25481,172.16.1.2,5102,5519,8712,2086,65728,65728,6,6,4,1460,242500,1,16778208,630000,33580,33580,65700,0,8688,0,1015513046,63
o,1724817122.901959,172.16.5.2,25481,172.16.1.2,5102,5519,8712,2086,64256,65728,6,6,4,1460,245937,1,16778208,610000,33580,30684,65700,0,5792,0,1015513046,63
o,1724817122.902071,172.16.5.2,25481,172.16.1.2,5102,5519,8712,2086,64256,65728,6,6,4,1460,245937,1,16778208,610000,33580,30684,65700,0,7240,0,1015513046,63
i,1724817122.949777,172.16.5.2,25481,172.16.1.2,5102,5519,8712,2086,64256,65728,6,6,4,1460,245937,1,16778208,610000,33580,33580,65700,0,8688,0,1015513046,63
o,1724817122.949807,172.16.5.2,25481,172.16.1.2,5102,5519,8712,2086,65728,65728,6,6,4,1460,244062,1,16778208,580000,33580,32132,65700,0,7240,0,1015513046,63
i,1724817123.074903,172.16.5.2,25481,172.16.1.2,5102,5519,8712,2086,65728,65728,6,6,4,1460,244062,1,16778208,580000,33580,32132,65700,0,8688,0,1015513046,63
o,1724817123.074951,172.16.5.2,25481,172.16.1.2,5102,6934,8700,2086,64256,65728,6,6,4,1460,246250,1,553649120,570000,33580,29236,65700,0,5792,0,1015513046,63
i,1724817123.122414,172.16.5.2,25481,172.16.1.2,5102,6934,8700,2086,64256,65728,6,6,4,1460,246250,1,553649120,570000,33580,33580,65700,0,8688,0,1015513046,63
o,1724817123.122491,172.16.5.2,25481,172.16.1.2,5102,6934,8688,2086,64256,65728,6,6,4,1460,248125,1,553649120,550000,33580,30684,65700,0,5792,0,1015513046,63
o,1724817123.122626,172.16.5.2,25481,172.16.1.2,5102,6934,8688,2082,64256,65728,6,6,4,1460,248125,1,553649120,550000,33580,30684,65700,0,7240,0,1015513046,63
i,1724817123.179118,172.16.5.2,25481,172.16.1.2,5102,6934,8688,2082,64256,65728,6,6,4,1460,248125,1,553649120,550000,33580,33580,65700,0,8688,0,1015513046,63
o,1724817123.179143,172.16.5.2,25481,172.16.1.2,5102,6934,8688,2086,64256,65728,6,6,4,1460,252187,1,553649120,560000,33580,30684,65700,0,5792,0,1015513046,63
i,1724817123.306038,172.16.5.2,25481,172.16.1.2,5102,6934,8688,2086,64256,65728,6,6,4,1460,252187,1,553649120,560000,33580,33580,65700,0,8688,0,1015513046,63
o,1724817123.306122,172.16.5.2,25481,172.16.1.2,5102,6934,8688,2082,65728,65728,6,6,4,1460,249687,1,16778208,550000,33580,32132,65700,0,7240,0,1015513046,63
i,1724817123.370483,172.16.5.2,25481,172.16.1.2,5102,6934,8688,2082,65728,65728,6,6,4,1460,249687,1,16778208,550000,33580,32132,65700,0,8688,0,1015513046,63
o,1724817123.370553,172.16.5.2,25481,172.16.1.2,5102,6934,8688,2082,65728,65728,6,6,4,1460,255000,1,16778208,580000,33580,30684,65700,0,7240,0,1015513046,63
i,1724817123.426744,172.16.5.2,25481,172.16.1.2,5102,6934,8688,2082,65728,65728,6,6,4,1460,255000,1,16778208,580000,33580,33580,65700,0,8688,0,1015513046,63
o,1724817123.426780,172.16.5.2,25481,172.16.1.2,5102,6796,7240,2082,64256,65728,6,6,4,1460,261875,1,553649120,610000,33580,30684,65700,0,5792,0,1015513046,63
i,1724817123.474313,172.16.5.2,25481,172.16.1.2,5102,6796,7240,2082,64256,65728,6,6,4,1460,261875,1,553649120,610000,33580,33580,65700,0,7240,0,1015513046,63
o,1724817123.474341,172.16.5.2,25481,172.16.1.2,5102,6796,7240,2082,65728,65728,6,6,4,1460,266875,1,553649120,610000,33580,32132,65700,0,5792,0,1015513046,63
i,1724817123.524214,172.16.5.2,25481,172.16.1.2,5102,6796,7240,2082,65728,65728,6,6,4,1460,266875,1,553649120,610000,33580,32132,65700,0,7240,0,1015513046,63
o,1724817123.524288,172.16.5.2,25481,172.16.1.2,5102,6796,7240,2082,65728,65728,6,6,4,1460,277500,1,553649120,670000,33580,30684,65700,0,5792,0,1015513046,63
i,1724817123.577355,172.16.5.2,25481,172.16.1.2,5102,6796,7240,2082,65728,65728,6,6,4,1460,277500,1,553649120,670000,33580,33580,65700,0,7240,0,1015513046,63
o,1724817123.577431,172.16.5.2,25481,172.16.1.2,5102,6796,7240,2082,65728,65728,6,6,4,1460,276562,1,553649120,630000,33580,32132,65700,0,5792,0,1015513046,63
i,1724817123.625166,172.16.5.2,25481,172.16.1.2,5102,6796,7240,2082,65728,65728,6,6,4,1460,276562,1,553649120,630000,33580,32132,65700,0,7240,0,1015513046,63
o,1724817123.625191,172.16.5.2,25481,172.16.1.2,5102,6796,7240,2082,65728,65728,6,6,4,1460,274687,1,553649120,600000,33580,30684,65700,0,5792,0,1015513046,63
i,1724817123.625355,172.16.5.2,25481,172.16.1.2,5102,6796,7240,2082,65728,65728,6,6,4,1460,274687,1,553649120,600000,33580,30684,65700,0,7240,0,1015513046,63
o,1724817123.625390,172.16.5.2,25481,172.16.1.2,5102,6796,7240,2082,65728,65728,6,6,4,1460,265625,1,16778208,640000,33580,29236,65700,0,5792,0,1015513046,63
i,1724817123.719584,172.16.5.2,25481,172.16.1.2,5102,6796,7240,2082,65728,65728,6,6,4,1460,265625,1,16778208,640000,33580,32132,65700,0,7240,0,1015513046,63
o,1724817123.719664,172.16.5.2,25481,172.16.1.2,5102,6796,7240,2082,65728,65728,6,6,4,1460,262500,1,16778208,620000,33580,30684,65700,0,5792,0,1015513046,63
i,1724817123.747566,172.16.5.2,25481,172.16.1.2,5102,6796,7240,2082,65728,65728,6,6,4,1460,262500,1,16778208,620000,33580,33580,65700,0,7240,0,1015513046,63
o,1724817123.747587,172.16.5.2,25481,172.16.1.2,5102,6796,7240,2082,65728,65728,6,6,4,1460,257187,1,16778208,610000,33580,32132,65700,0,5792,0,1015513046,63
i,1724817123.824167,172.16.5.2,25481,172.16.1.2,5102,6796,7240,2082,65728,65728,6,6,4,1460,257187,1,16778208,610000,33580,32132,65700,0,7240,0,1015513046,63
o,1724817123.824258,172.16.5.2,25481,172.16.1.2,5102,6796,7240,2086,64256,65728,6,6,4,1460,256562,1,16778208,580000,33580,29236,65700,0,4344,0,1015513046,63
i,1724817123.900400,172.16.5.2,25481,172.16.1.2,5102,6796,7240,2086,64256,65728,6,6,4,1460,256562,1,16778208,580000,33580,33580,65700,0,7240,0,1015513046,63
o,1724817123.900475,172.16.5.2,25481,172.16.1.2,5102,6796,8700,2086,65728,65728,6,6,4,1460,258437,1,16778208,570000,33580,32132,65700,0,5792,0,1015513046,63
o,1724817123.900587,172.16.5.2,25481,172.16.1.2,5102,6796,8700,2086,65728,65728,6,6,4,1460,258437,1,16778208,570000,33580,32132,65700,0,7240,0,1015513046,63
i,1724817123.931385,172.16.5.2,25481,172.16.1.2,5102,6796,8700,2086,65728,65728,6,6,4,1460,258437,1,16778208,570000,33580,32132,65700,0,8688,0,1015513046,63
o,1724817123.931477,172.16.5.2,25481,172.16.1.2,5102,6796,8700,2086,65728,65728,6,6,4,1460,252500,1,16778208,580000,33580,30684,65700,0,7240,0,1015513046,63
i,1724817123.993619,172.16.5.2,25481,172.16.1.2,5102,6796,8700,2086,65728,65728,6,6,4,1460,252500,1,16778208,580000,33580,33580,65700,0,8688,0,1015513046,63
o,1724817123.993650,172.16.5.2,25481,172.16.1.2,5102,6796,8700,2086,65728,65728,6,6,4,1460,250937,1,16778208,560000,33580,32132,65700,0,7240,0,1015513046,63
i,1724817124.046844,172.16.5.2,25481,172.16.1.2,5102,6796,8700,2086,65728,65728,6,6,4,1460,250937,1,16778208,560000,33580,32132,65700,0,8688,0,1015513046,63
o,1724817124.046921,172.16.5.2,25481,172.16.1.2,5102,6848,8688,2082,65728,65728,6,6,4,1460,247187,1,553649120,560000,33580,30684,65700,0,7240,0,1015513046,63
i,1724817124.086030,172.16.5.2,25481,172.16.1.2,5102,6848,8688,2082,65728,65728,6,6,4,1460,247187,1,553649120,560000,33580,33580,65700,0,8688,0,1015513046,63
i,1724817124.119133,172.16.5.2,25481,172.16.1.2,5102,6848,7240,2082,65728,65728,6,6,4,1460,249062,1,553649120,550000,33580,32132,65700,0,7240,0,1015513046,63
o,1724817124.119209,172.16.5.2,25481,172.16.1.2,5102,6848,8688,2086,64256,65728,6,6,4,1460,245625,1,553649120,550000,33580,29236,65700,0,4344,0,1015513046,63
o,1724817124.119327,172.16.5.2,25481,172.16.1.2,5102,6848,8688,2086,64256,65728,6,6,4,1460,245625,1,553649120,550000,33580,29236,65700,0,5792,0,1015513046,63
i,1724817124.182955,172.16.5.2,25481,172.16.1.2,5102,6848,8688,2086,64256,65728,6,6,4,1460,245625,1,553649120,550000,33580,33360,65700,0,8688,0,1015513046,63
i,1724817124.201055,172.16.5.2,25481,172.16.1.2,5102,6848,7240,2086,65728,65728,6,6,4,1460,246250,1,553649120,530000,33580,31912,65700,0,7240,0,1015513046,63
o,1724817124.201121,172.16.5.2,25481,172.16.1.2,5102,6848,7240,2086,64256,65728,6,6,4,1460,240625,1,16778208,550000,33580,29016,65700,0,4344,0,1015513046,63
i,1724817124.266853,172.16.5.2,25481,172.16.1.2,5102,6848,7240,2086,64256,65728,6,6,4,1460,240625,1,16778208,550000,33580,33580,65700,0,7240,0,1015513046,63
o,1724817124.266882,172.16.5.2,25481,172.16.1.2,5102,6848,7240,2086,64256,65728,6,6,4,1460,229375,1,16778208,600000,33580,30684,65700,0,4344,0,1015513046,63
o,1724817124.267043,172.16.5.2,25481,172.16.1.2,5102,6848,7240,2082,64256,65728,6,6,4,1460,229375,1,16778208,600000,33580,30684,65700,0,5792,0,1015513046,63
i,1724817124.342173,172.16.5.2,25481,172.16.1.2,5102,6848,7240,2082,64256,65728,6,6,4,1460,229375,1,16778208,600000,33580,33580,65700,0,7240,0,1015513046,63
o,1724817124.342201,172.16.5.2,25481,172.16.1.2,5102,6848,7240,2082,65728,65728,6,6,4,1460,228437,1,16778208,560000,33580,32132,65700,0,5792,0,1015513046,63
i,1724817124.445634,172.16.5.2,25481,172.16.1.2,5102,6848,7240,2082,65728,65728,6,6,4,1460,228437,1,16778208,560000,33580,32132,65700,0,7240,0,1015513046,63
o,1724817124.445670,172.16.5.2,25481,172.16.1.2,5102,6848,8700,2086,64256,65728,6,6,4,1460,231250,1,16778208,550000,33580,29236,65700,0,4344,0,1015513046,63
i,1724817124.496556,172.16.5.2,25481,172.16.1.2,5102,6848,8700,2086,64256,65728,6,6,4,1460,231250,1,16778208,550000,33580,33580,65700,0,8688,0,1015513046,63
o,1724817124.496668,172.16.5.2,25481,172.16.1.2,5102,6848,8688,2082,65728,65728,6,6,4,1460,231250,1,553649120,520000,33580,32132,65700,0,7240,0,1015513046,63
i,1724817124.530323,172.16.5.2,25481,172.16.1.2,5102,6848,8688,2082,65728,65728,6,6,4,1460,231250,1,553649120,520000,33580,32132,65700,0,8688,0,1015513046,63
i,1724817124.620070,172.16.5.2,25481,172.16.1.2,5102,6848,7240,2082,65728,65728,6,6,4,1460,235000,1,553649120,540000,33580,33580,65700,0,7240,0,1015513046,63
o,1724817124.620149,172.16.5.2,25481,172.16.1.2,5102,6848,8688,2086,64256,65728,6,6,4,1460,240625,1,553649120,560000,33580,30684,65700,0,4344,0,1015513046,63
i,1724817124.672847,172.16.5.2,25481,172.16.1.2,5102,6848,8688,2086,64256,65728,6,6,4,1460,240625,1,553649120,560000,33580,33580,65700,0,8688,0,1015513046,63
o,1724817124.672876,172.16.5.2,25481,172.16.1.2,5102,6848,8688,2086,64256,65728,6,6,4,1460,238125,1,553649120,550000,33580,30684,65700,0,5792,0,1015513046,63
i,1724817124.694830,172.16.5.2,25481,172.16.1.2,5102,6848,8688,2086,64256,65728,6,6,4,1460,238125,1,553649120,550000,33580,33580,65700,0,8688,0,1015513046,63
o,1724817124.694855,172.16.5.2,25481,172.16.1.2,5102,6848,8688,2082,65728,65728,6,6,4,1460,233437,1,16778208,550000,33580,32132,65700,0,7240,0,1015513046,63
i,1724817124.865135,172.16.5.2,25481,172.16.1.2,5102,6848,8688,2082,65728,65728,6,6,4,1460,233437,1,16778208,550000,33580,32132,65700,0,8688,0,1015513046,63
o,1724817124.865217,172.16.5.2,25481,172.16.1.2,5102,6848,8688,2082,65728,65728,6,6,4,1460,235625,1,16778208,540000,33580,30684,65700,0,7240,0,1015513046,63
i,1724817124.894272,172.16.5.2,25481,172.16.1.2,5102,6848,8688,2082,65728,65728,6,6,4,1460,235625,1,16778208,540000,33580,33580,65700,0,8688,0,1015513046,63
o,1724817124.894295,172.16.5.2,25481,172.16.1.2,5102,6627,7240,2082,64256,65728,6,6,4,1460,241250,1,553649120,570000,33580,30684,65700,0,5792,0,1015513046,63
i,1724817124.944139,172.16.5.2,25481,172.16.1.2,5102,6627,7240,2082,64256,65728,6,6,4,1460,241250,1,553649120,570000,33580,33580,65700,0,7240,0,1015513046,63
o,1724817124.944216,172.16.5.2,25481,172.16.1.2,5102,6627,8688,2086,64256,65728,6,6,4,1460,246250,1,553649120,580000,33580,30684,65700,0,4344,0,1015513046,63
i,1724817125.039806,172.16.5.2,25481,172.16.1.2,5102,6627,8688,2086,64256,65728,6,6,4,1460,246250,1,553649120,580000,33580,33580,65700,0,8688,0,1015513046,63
o,1724817125.039842,172.16.5.2,25481,172.16.1.2,5102,6627,8688,2086,64256,65728,6,6,4,1460,258125,1,553649120,650000,33580,30684,65700,0,5792,0,1015513046,63
o,1724817125.039957,172.16.5.2,25481,172.16.1.2,5102,6627,8688,2082,64256,65728,6,6,4,1460,258125,1,553649120,650000,33580,30684,65700,0,7240,0,1015513046,63
i,1724817125.040110,172.16.5.2,25481,172.16.1.2,5102,6627,8688,2082,64256,65728,6,6,4,1460,258125,1,553649120,650000,33580,30684,65700,0,8688,0,1015513046,63
o,1724817125.040127,172.16.5.2,25481,172.16.1.2,5102,6627,8688,2082,65728,65728,6,6,4,1460,243437,1,16778208,710000,33580,29236,65700,0,7240,0,1015513046,63
i,1724817125.095763,172.16.5.2,25481,172.16.1.2,5102,6627,8688,2082,65728,65728,6,6,4,1460,243437,1,16778208,710000,33580,33580,65700,0,8688,0,1015513046,63
o,1724817125.095763,172.16.5.2,25481,172.16.1.2,5102,6627,8688,2086,64256,65728,6,6,4,1460,231875,1,16778208,720000,33580,30684,65700,0,5792,0,1015513046,63
i,1724817125.151616,172.16.5.2,25481,172.16.1.2,5102,6627,8688,2086,64256,65728,6,6,4,1460,231875,1,16778208,720000,33580,33580,65700,0,8688,0,1015513046,63
o,1724817125.151681,172.16.5.2,25481,172.16.1.2,5102,6627,8688,2082,65728,65728,6,6,4,1460,228125,1,16778208,680000,33580,32132,65700,0,7240,0,1015513046,63
i,1724817125.184741,172.16.5.2,25481,172.16.1.2,5102,6627,8688,2082,65728,65728,6,6,4,1460,228125,1,16778208,680000,33580,32132,65700,0,8688,0,1015513046,63
o,1724817125.184765,172.16.5.2,25481,172.16.1.2,5102,6627,8688,2086,64256,65728,6,6,4,1460,218437,1,16778208,680000,33580,29236,65700,0,5792,0,1015513046,63
o,1724817125.184901,172.16.5.2,25481,172.16.1.2,5102,6627,8688,2082,64256,65728,6,6,4,1460,218437,1,16778208,680000,33580,29236,65700,0,7240,0,1015513046,63
i,1724817125.229501,172.16.5.2,25481,172.16.1.2,5102,6627,8688,2082,64256,65728,6,6,4,1460,218437,1,16778208,680000,33580,33580,65700,0,8688,0,1015513046,63
o,1724817125.229527,172.16.5.2,25481,172.16.1.2,5102,6627,10148,2086,65728,65728,6,6,4,1460,215000,1,16778208,640000,33580,32132,65700,0,7240,0,1015513046,63
i,1724817125.252119,172.16.5.2,25481,172.16.1.2,5102,6627,10148,2086,65728,65728,6,6,4,1460,215000,1,16778208,640000,33580,32132,65700,0,10136,0,1015513046,63
o,1724817125.252142,172.16.5.2,25481,172.16.1.2,5102,6627,10148,2086,64256,65728,6,6,4,1460,206875,1,16778208,640000,33580,29236,65700,0,7240,0,1015513046,63
i,1724817125.355685,172.16.5.2,25481,172.16.1.2,5102,6627,10148,2086,64256,65728,6,6,4,1460,206875,1,16778208,640000,33580,33580,65700,0,10136,0,1015513046,63
o,1724817125.355725,172.16.5.2,25481,172.16.1.2,5102,7963,10136,2086,64256,65728,6,6,4,1460,207500,1,553649120,590000,33580,30684,65700,0,7240,0,1015513046,63
o,1724817125.355861,172.16.5.2,25481,172.16.1.2,5102,7963,10136,2082,64256,65728,6,6,4,1460,207500,1,553649120,590000,33580,30684,65700,0,8688,0,1015513046,63
i,1724817125.453121,172.16.5.2,25481,172.16.1.2,5102,7963,10136,2082,64256,65728,6,6,4,1460,207500,1,553649120,590000,33580,33580,65700,0,10136,0,1015513046,63
o,1724817125.453210,172.16.5.2,25481,172.16.1.2,5102,7963,10148,2086,64256,65728,6,6,4,1460,214062,1,553649120,600000,33580,30684,65700,0,7240,0,1015513046,63
i,1724817125.511038,172.16.5.2,25481,172.16.1.2,5102,7963,10148,2086,64256,65728,6,6,4,1460,214062,1,553649120,600000,33580,33580,65700,0,10136,0,1015513046,63
o,1724817125.511066,172.16.5.2,25481,172.16.1.2,5102,7963,10136,2086,64256,65728,6,6,4,1460,222500,1,553649120,630000,33580,30684,65700,0,7240,0,1015513046,63
i,1724817125.569128,172.16.5.2,25481,172.16.1.2,5102,7963,10136,2086,64256,65728,6,6,4,1460,222500,1,553649120,630000,33580,33580,65700,0,10136,0,1015513046,63
i,1724817125.655845,172.16.5.2,25481,172.16.1.2,5102,7963,8688,2086,65728,65728,6,6,4,1460,234687,1,553649120,690000,33580,32132,65700,0,8688,0,1015513046,63
i,1724817125.717595,172.16.5.2,25481,172.16.1.2,5102,6801,7240,2150,65728,65728,6,6,4,1460,243125,1,536871904,700000,33580,33580,65700,0,7240,0,1015513046,63
o,1724817125.717629,172.16.5.2,25481,172.16.1.2,5102,6801,7240,2086,64256,65728,6,6,4,1460,257812,1,553649120,770000,33580,30684,65700,0,4344,0,1015513046,63
o,1724817125.717762,172.16.5.2,25481,172.16.1.2,5102,6801,7240,2082,64256,65728,6,6,4,1460,257812,1,553649120,770000,33580,30684,65700,0,5792,0,1015513046,63
i,1724817125.778650,172.16.5.2,25481,172.16.1.2,5102,6801,7240,2082,64256,65728,6,6,4,1460,257812,1,553649120,770000,33580,33580,65700,0,7240,0,1015513046,63
o,1724817125.778689,172.16.5.2,25481,172.16.1.2,5102,6801,7240,2086,64256,65728,6,6,4,1460,266875,1,553649120,770000,33580,30684,65700,0,4344,0,1015513046,63
