enable_time_secs=1724817286	enable_time_usecs=286418	siftrver=1.3.0	sysname=FreeBSD	sysver=1401000	ipmode=4
o,1724817286.286934,10.0.2.15,22,10.0.2.2,51138,1073725440,17746,1026,65535,65700,0,0,4,1460,312,0,16777220,240000,33580,172,65700,0,0,0,3982971485,63
o,1724817286.287917,10.0.2.15,22,10.0.2.2,51138,1073725440,17746,1026,65535,65700,0,0,4,1460,312,0,16777220,240000,33580,244,65700,0,172,0,3982971485,63
i,1724817286.288019,10.0.2.15,22,10.0.2.2,51138,1073725440,17746,1026,65535,65700,0,0,4,1460,312,0,16777220,240000,33580,244,65700,0,244,0,3982971485,63
i,1724817286.288773,10.0.2.15,22,10.0.2.2,51138,1073725440,17918,1026,65535,65700,0,0,4,1460,312,0,4,240000,33580,72,65700,0,72,0,3982971485,63
i,1724817286.288793,10.0.2.15,22,10.0.2.2,51138,1073725440,17990,1026,65535,65700,0,0,4,1460,312,0,4,240000,33580,0,65700,0,0,0,3982971485,63
i,1724817286.288812,10.0.2.15,22,10.0.2.2,51138,1073725440,17990,1026,65535,65700,0,0,4,1460,312,0,4,240000,33580,0,65700,96,0,0,3982971485,63
o,1724817286.288832,10.0.2.15,22,10.0.2.2,51138,1073725440,17990,1026,65535,65604,0,0,5,1460,312,0,5,240000,33580,0,65700,96,0,0,3982971485,63
o,1724817286.289768,10.0.2.15,22,10.0.2.2,51138,1073725440,17990,1026,65535,65604,0,0,8,1460,312,0,4,240000,33580,0,65700,0,0,0,3982971485,63
i,1724817286.290618,10.0.2.15,22,10.0.2.2,51138,1073725440,17990,1026,65535,65604,0,0,8,1460,312,0,67108884,240000,33580,0,65700,0,1,0,3982971485,63
i,1724817289.465884,10.0.2.15,22,10.0.2.2,51142,1073725440,14600,0,65535,65700,0,0,4,1460,312,0,16777216,270000,33580,0,65700,0,0,0,1158882219,63
o,1724817289.481618,10.0.2.15,22,10.0.2.2,51142,1073725440,14600,1026,65535,65700,0,0,4,1460,312,0,16777216,270000,33580,38,65700,42,0,0,1158882219,63
i,1724817289.482382,10.0.2.15,22,10.0.2.2,51142,1073725440,14600,1026,65535,65700,0,0,4,1460,312,0,16777216,270000,33580,38,65700,0,38,0,1158882219,63
i,1724817289.483024,10.0.2.15,22,10.0.2.2,51142,1073725440,14638,1026,65535,65700,0,0,4,1460,312,0,0,240000,33580,0,65700,0,0,0,1158882219,63
i,1724817289.483051,10.0.2.15,22,10.0.2.2,51142,1073725440,14638,1026,65535,65700,0,0,4,1460,312,0,0,240000,33580,0,65700,1460,0,0,1158882219,63
o,1724817289.483079,10.0.2.15,22,10.0.2.2,51142,1073725440,14638,1026,65535,65700,0,0,4,1460,312,0,1,240000,33580,0,65700,1536,0,0,1158882219,63
o,1724817289.485027,10.0.2.15,22,10.0.2.2,51142,1073725440,14638,1026,65535,65700,0,0,4,1460,312,0,16777216,240000,33580,1120,65700,1536,0,0,1158882219,63
i,1724817289.485968,10.0.2.15,22,10.0.2.2,51142,1073725440,14638,1026,65535,65700,0,0,4,1460,312,0,16777216,240000,33580,1120,65700,0,1120,0,1158882219,63
i,1724817289.487100,10.0.2.15,22,10.0.2.2,51142,1073725440,15758,1026,65535,65700,0,0,4,1460,312,0,0,240000,33580,0,65700,0,0,0,1158882219,63
o,1724817289.489149,10.0.2.15,22,10.0.2.2,51142,1073725440,15758,1026,65535,65700,0,0,4,1460,312,0,16777216,240000,33580,492,65700,0,0,0,1158882219,63
i,1724817289.489702,10.0.2.15,22,10.0.2.2,51142,1073725440,15758,1026,65535,65700,0,0,4,1460,312,0,16777216,240000,33580,492,65700,0,492,0,1158882219,63
i,1724817289.494179,10.0.2.15,22,10.0.2.2,51142,1073725440,16250,1026,65535,65700,0,0,4,1460,312,0,0,240000,33580,0,65700,0,0,0,1158882219,63
i,1724817289.494199,10.0.2.15,22,10.0.2.2,51142,1073725440,16250,1026,65535,65700,0,0,4,1460,312,0,0,240000,33580,0,65700,16,0,0,1158882219,63
o,1724817289.494217,10.0.2.15,22,10.0.2.2,51142,1073725440,16250,1026,65535,65700,0,0,4,1460,312,0,1,240000,33580,0,65700,60,0,0,1158882219,63
o,1724817289.494412,10.0.2.15,22,10.0.2.2,51142,1073725440,16250,1026,65535,65700,0,0,4,1460,312,0,16777216,240000,33580,44,65700,0,0,0,1158882219,63
i,1724817289.495380,10.0.2.15,22,10.0.2.2,51142,1073725440,16250,1026,65535,65700,0,0,4,1460,312,0,16777216,240000,33580,44,65700,0,44,0,1158882219,63
i,1724817289.495396,10.0.2.15,22,10.0.2.2,51142,1073725440,16294,1026,65535,65700,0,0,4,1460,312,0,0,240000,33580,0,65700,0,0,0,1158882219,63
o,1724817289.496669,10.0.2.15,22,10.0.2.2,51142,1073725440,16294,1026,65535,65700,0,0,4,1460,312,0,16777216,240000,33580,68,65700,0,0,0,1158882219,63
i,1724817289.497340,10.0.2.15,22,10.0.2.2,51142,1073725440,16294,1026,65535,65700,0,0,4,1460,312,0,16777216,240000,33580,68,65700,0,68,0,1158882219,63
i,1724817289.497340,10.0.2.15,22,10.0.2.2,51142,1073725440,16362,1026,65535,65700,0,0,4,1460,312,0,0,240000,33580,0,65700,0,0,0,1158882219,63
o,1724817289.498272,10.0.2.15,22,10.0.2.2,51142,1073725440,16362,1026,65535,65700,0,0,4,1460,312,0,16777216,240000,33580,332,65700,0,0,0,1158882219,63
i,1724817289.498610,10.0.2.15,22,10.0.2.2,51142,1073725440,16362,1026,65535,65700,0,0,4,1460,312,0,16777216,240000,33580,332,65700,0,332,0,1158882219,63
i,1724817289.500376,10.0.2.15,22,10.0.2.2,51142,1073725440,16694,1026,65535,65700,0,0,4,1460,312,0,0,240000,33580,0,65700,0,0,0,1158882219,63
o,1724817289.517686,10.0.2.15,22,10.0.2.2,51142,1073725440,16694,1026,65535,65700,0,0,4,1460,312,0,16777216,240000,33580,28,65700,0,0,0,1158882219,63
i,1724817289.518423,10.0.2.15,22,10.0.2.2,51142,1073725440,16694,1026,65535,65700,0,0,4,1460,312,0,16777216,240000,33580,28,65700,0,28,0,1158882219,63
i,1724817289.518444,10.0.2.15,22,10.0.2.2,51142,1073725440,16722,1026,65535,65700,0,0,4,1460,312,0,0,240000,33580,0,65700,0,0,0,1158882219,63
o,1724817289.519725,10.0.2.15,22,10.0.2.2,51142,1073725440,16722,1026,65535,65700,0,0,4,1460,312,0,16777216,240000,33580,768,65700,112,0,0,1158882219,63
i,1724817289.520557,10.0.2.15,22,10.0.2.2,51142,1073725440,16722,1026,65535,65700,0,0,4,1460,312,0,16777216,240000,33580,908,65700,112,768,0,1158882219,63
o,1724817289.520577,10.0.2.15,22,10.0.2.2,51142,1073725440,17490,1026,65535,65700,0,0,4,1460,312,0,16777216,240000,33580,140,65700,112,0,0,1158882219,63
i,1724817289.520729,10.0.2.15,22,10.0.2.2,51142,1073725440,17490,1026,65535,65700,0,0,4,1460,312,0,16777216,240000,33580,140,65700,112,140,0,1158882219,63
o,1724817289.521910,10.0.2.15,22,10.0.2.2,51142,1073725440,17630,1026,65535,65700,0,0,4,1460,312,0,16777216,240000,33580,44,65700,0,0,0,1158882219,63
i,1724817289.522464,10.0.2.15,22,10.0.2.2,51142,1073725440,17630,1026,65535,65700,0,0,4,1460,312,0,16777216,240000,33580,44,65700,0,44,0,1158882219,63
i,1724817289.522483,10.0.2.15,22,10.0.2.2,51142,1073725440,17674,1026,65535,65700,0,0,4,1460,312,0,0,240000,33580,0,65700,0,0,0,1158882219,63
o,1724817289.523773,10.0.2.15,22,10.0.2.2,51142,1073725440,17674,1026,65535,65700,0,0,4,1460,312,0,16777220,240000,33580,72,65700,0,0,0,1158882219,63
i,1724817289.524276,10.0.2.15,22,10.0.2.2,51142,1073725440,17674,1026,65535,65700,0,0,4,1460,312,0,16777220,240000,33580,72,65700,0,72,0,1158882219,63
o,1724817289.526505,10.0.2.15,22,10.0.2.2,51142,1073725440,17746,1026,65535,65700,0,0,4,1460,312,0,16777220,240000,33580,104,65700,0,0,0,1158882219,63
i,1724817289.526936,10.0.2.15,22,10.0.2.2,51142,1073725440,17746,1026,65535,65700,0,0,4,1460,312,0,16777220,240000,33580,104,65700,0,104,0,1158882219,63
o,1724817289.535658,10.0.2.15,22,10.0.2.2,51142,1073725440,17850,1026,65535,65700,0,0,4,1460,312,0,16777220,240000,33580,72,65700,0,0,0,1158882219,63
i,1724817289.536690,10.0.2.15,22,10.0.2.2,51142,1073725440,17850,1026,65535,65700,0,0,4,1460,312,0,16777220,240000,33580,72,65700,0,72,0,1158882219,63
i,1724817289.536712,10.0.2.15,22,10.0.2.2,51142,1073725440,17922,1026,65535,65700,0,0,4,1460,312,0,4,240000,33580,0,65700,0,0,0,1158882219,63
i,1724817289.536781,10.0.2.15,22,10.0.2.2,51142,1073725440,17922,1026,65535,65700,0,0,4,1460,312,0,4,240000,33580,0,65700,96,0,0,1158882219,63
o,1724817289.536801,10.0.2.15,22,10.0.2.2,51142,1073725440,17922,1026,65535,65604,0,0,5,1460,312,0,5,240000,33580,0,65700,96,0,0,1158882219,63
o,1724817289.539554,10.0.2.15,22,10.0.2.2,51142,1073725440,17922,1026,65535,65604,0,0,8,1460,312,0,4,240000,33580,0,65700,0,0,0,1158882219,63
i,1724817289.540193,10.0.2.15,22,10.0.2.2,51142,1073725440,17922,1026,65535,65604,0,0,8,1460,312,0,67108884,240000,33580,0,65700,0,1,0,1158882219,63
i,1724817290.581815,10.0.2.15,22,10.0.2.2,51122,1073725440,14600,0,65535,65700,0,0,4,1460,312,0,16777216,270000,33580,0,65700,0,0,0,2297661185,63
o,1724817290.594528,10.0.2.15,22,10.0.2.2,51122,1073725440,14600,1026,65535,65700,0,0,4,1460,312,0,16777216,270000,33580,38,65700,42,0,0,2297661185,63
i,1724817290.595077,10.0.2.15,22,10.0.2.2,51122,1073725440,14600,1026,65535,65700,0,0,4,1460,312,0,16777216,270000,33580,38,65700,0,38,0,2297661185,63
i,1724817290.596317,10.0.2.15,22,10.0.2.2,51122,1073725440,14638,1026,65535,65700,0,0,4,1460,312,0,0,240000,33580,0,65700,0,0,0,2297661185,63
i,1724817290.596336,10.0.2.15,22,10.0.2.2,51122,1073725440,14638,1026,65535,65700,0,0,4,1460,312,0,0,240000,33580,0,65700,1460,0,0,2297661185,63
o,1724817290.596353,10.0.2.15,22,10.0.2.2,51122,1073725440,14638,1026,65535,65700,0,0,4,1460,312,0,1,240000,33580,0,65700,1536,0,0,2297661185,63
o,1724817290.598265,10.0.2.15,22,10.0.2.2,51122,1073725440,14638,1026,65535,65700,0,0,4,1460,312,0,16777216,240000,33580,1120,65700,1536,0,0,2297661185,63
i,1724817290.598750,10.0.2.15,22,10.0.2.2,51122,1073725440,14638,1026,65535,65700,0,0,4,1460,312,0,16777216,240000,33580,1120,65700,1536,1120,0,2297661185,63
i,1724817290.600207,10.0.2.15,22,10.0.2.2,51122,1073725440,15758,1026,65535,65700,0,0,4,1460,312,0,0,240000,33580,0,65700,0,0,0,2297661185,63
o,1724817290.603742,10.0.2.15,22,10.0.2.2,51122,1073725440,15758,1026,65535,65700,0,0,4,1460,312,0,16777216,240000,33580,492,65700,0,0,0,2297661185,63
i,1724817290.604688,10.0.2.15,22,10.0.2.2,51122,1073725440,15758,1026,65535,65700,0,0,4,1460,312,0,16777216,240000,33580,492,65700,0,492,0,2297661185,63
i,1724817290.608797,10.0.2.15,22,10.0.2.2,51122,1073725440,16250,1026,65535,65700,0,0,4,1460,312,0,0,240000,33580,0,65700,0,0,0,2297661185,63
i,1724817290.608815,10.0.2.15,22,10.0.2.2,51122,1073725440,16250,1026,65535,65700,0,0,4,1460,312,0,0,240000,33580,0,65700,16,0,0,2297661185,63
o,1724817290.608831,10.0.2.15,22,10.0.2.2,51122,1073725440,16250,1026,65535,65700,0,0,4,1460,312,0,1,240000,33580,0,65700,60,0,0,2297661185,63
o,1724817290.609031,10.0.2.15,22,10.0.2.2,51122,1073725440,16250,1026,65535,65700,0,0,4,1460,312,0,16777216,240000,33580,44,65700,0,0,0,2297661185,63
i,1724817290.609839,10.0.2.15,22,10.0.2.2,51122,1073725440,16250,1026,65535,65700,0,0,4,1460,312,0,16777216,240000,33580,44,65700,0,44,0,2297661185,63
i,1724817290.609885,10.0.2.15,22,10.0.2.2,51122,1073725440,16294,1026,65535,65700,0,0,4,1460,312,0,0,240000,33580,0,65700,0,0,0,2297661185,63
o,1724817290.613839,10.0.2.15,22,10.0.2.2,51122,1073725440,16294,1026,65535,65700,0,0,4,1460,312,0,16777216,240000,33580,68,65700,0,0,0,2297661185,63
i,1724817290.614557,10.0.2.15,22,10.0.2.2,51122,1073725440,16294,1026,65535,65700,0,0,4,1460,312,0,16777216,240000,33580,68,65700,0,68,0,2297661185,63
i,1724817290.614575,10.0.2.15,22,10.0.2.2,51122,1073725440,16362,1026,65535,65700,0,0,4,1460,312,0,0,240000,33580,0,65700,0,0,0,2297661185,63
o,1724817290.616810,10.0.2.15,22,10.0.2.2,51122,1073725440,16362,1026,65535,65700,0,0,4,1460,312,0,16777216,240000,33580,332,65700,0,0,0,2297661185,63
i,1724817290.617766,10.0.2.15,22,10.0.2.2,51122,1073725440,16362,1026,65535,65700,0,0,4,1460,312,0,16777216,240000,33580,332,65700,0,332,0,2297661185,63
i,1724817290.619087,10.0.2.15,22,10.0.2.2,51122,1073725440,16694,1026,65535,65700,0,0,4,1460,312,0,0,240000,33580,0,65700,0,0,0,2297661185,63
o,1724817290.634993,10.0.2.15,22,10.0.2.2,51122,1073725440,16694,1026,65535,65700,0,0,4,1460,312,0,16777216,240000,33580,28,65700,0,0,0,2297661185,63
i,1724817290.636994,10.0.2.15,22,10.0.2.2,51122,1073725440,16694,1026,65535,65700,0,0,4,1460,312,0,16777216,240000,33580,28,65700,0,28,0,2297661185,63
i,1724817290.637047,10.0.2.15,22,10.0.2.2,51122,1073725440,16722,1026,65535,65700,0,0,4,1460,312,0,0,240000,33580,0,65700,0,0,0,2297661185,63
o,1724817290.638369,10.0.2.15,22,10.0.2.2,51122,1073725440,16722,1026,65535,65700,0,0,4,1460,312,0,16777216,240000,33580,768,65700,112,0,0,2297661185,63
i,1724817290.638556,10.0.2.15,22,10.0.2.2,51122,1073725440,16722,1026,65535,65700,0,0,4,1460,312,0,16777216,240000,33580,908,65700,112,768,0,2297661185,63
o,1724817290.638556,10.0.2.15,22,10.0.2.2,51122,1073725440,17490,1026,65535,65700,0,0,4,1460,312,0,16777216,240000,33580,140,65700,112,0,0,2297661185,63
i,1724817290.638556,10.0.2.15,22,10.0.2.2,51122,1073725440,17490,1026,65535,65700,0,0,4,1460,312,0,16777216,240000,33580,140,65700,112,140,0,2297661185,63
o,1724817290.640121,10.0.2.15,22,10.0.2.2,51122,1073725440,17630,1026,65535,65700,0,0,4,1460,312,0,16777216,240000,33580,44,65700,0,0,0,2297661185,63
i,1724817290.640694,10.0.2.15,22,10.0.2.2,51122,1073725440,17630,1026,65535,65700,0,0,4,1460,312,0,16777216,240000,33580,44,65700,0,44,0,2297661185,63
i,1724817290.640713,10.0.2.15,22,10.0.2.2,51122,1073725440,17674,1026,65535,65700,0,0,4,1460,312,0,0,240000,33580,0,65700,0,0,0,2297661185,63
o,1724817290.641381,10.0.2.15,22,10.0.2.2,51122,1073725440,17674,1026,65535,65700,0,0,4,1460,312,0,16777220,240000,33580,72,65700,0,0,0,2297661185,63
i,1724817290.641937,10.0.2.15,22,10.0.2.2,51122,1073725440,17674,1026,65535,65700,0,0,4,1460,312,0,16777220,240000,33580,72,65700,0,72,0,2297661185,63
o,1724817290.760005,172.16.5.2,58600,172.16.1.2,5102,12692,14480,2082,65535,65700,6,6,4,1460,186562,1,16778209,640000,33580,0,65700,0,0,0,2065629930,63
o,1724817290.760192,172.16.5.2,58600,172.16.1.2,5102,12692,14480,2082,65535,65700,6,6,4,1460,186562,1,16778212,640000,33580,37,65700,0,0,0,2065629930,63
i,1724817290.878657,172.16.5.2,58600,172.16.1.2,5102,12692,14480,2082,65535,65700,6,6,4,1460,186562,1,16778212,640000,33580,37,65700,0,37,0,2065629930,63
o,1724817290.879050,172.16.5.2,58600,172.16.1.2,5102,12692,14480,3106,65728,65728,6,6,4,1460,178437,1,16778212,630000,33580,4,65700,0,0,0,2065629930,63
o,1724817290.879174,172.16.5.2,58600,172.16.1.2,5102,12692,14480,3106,65728,65728,6,6,4,1460,178437,1,16778212,630000,33580,130,65700,0,4,0,2065629930,63
i,1724817291.005557,172.16.5.2,58600,172.16.1.2,5102,12692,14480,3106,65728,65728,6,6,4,1460,178437,1,16778212,630000,33580,130,65700,0,130,0,2065629930,63
i,1724817291.005608,172.16.5.2,58600,172.16.1.2,5102,12692,14480,3106,65600,65728,6,6,4,1460,172500,1,996,610000,33580,0,65700,0,0,0,2065629930,63
o,1724817291.064337,172.16.5.2,58600,172.16.1.2,5102,12692,14480,3106,65728,65728,6,6,4,1460,172500,1,997,610000,33580,0,65700,0,0,0,2065629930,63
o,1724817291.123101,172.16.5.2,32801,172.16.1.2,5102,12692,14480,2082,65535,65700,6,6,4,1460,186562,1,16778209,640000,33580,0,65700,0,0,0,2567653858,63
o,1724817291.123271,172.16.5.2,32801,172.16.1.2,5102,12692,14480,2082,65535,65700,6,6,4,1460,186562,1,16778208,640000,33580,37,65700,0,0,0,2567653858,63
i,1724817291.238622,172.16.5.2,58600,172.16.1.2,5102,12692,14480,3106,65728,65728,6,6,4,1460,172500,1,996,610000,33580,0,65700,0,0,0,2065629930,63
i,1724817291.238728,172.16.5.2,58600,172.16.1.2,5102,12692,14480,3106,65728,65728,6,6,4,1460,172500,1,996,610000,33580,0,65700,1,0,0,2065629930,63
o,1724817291.238750,172.16.5.2,58600,172.16.1.2,5102,12692,14480,3106,65728,65728,6,6,4,1460,172500,1,997,610000,33580,0,65700,2,0,0,2065629930,63
o,1724817291.239431,172.16.5.2,32801,172.16.1.2,5102,12692,14480,2086,65535,65700,6,6,4,1460,186562,1,16778208,640000,33580,33580,65700,0,37,0,2567653858,63
i,1724817291.268745,172.16.5.2,32801,172.16.1.2,5102,12692,14480,2086,65535,65700,6,6,4,1460,186562,1,16778208,640000,33580,33580,65700,0,13069,0,2567653858,63
o,1724817291.268816,172.16.5.2,32801,172.16.1.2,5102,12692,14480,2082,65728,65728,6,6,4,1460,182187,1,16778208,610000,33580,33543,65700,0,13032,0,2567653858,63
i,1724817291.335312,172.16.5.2,32801,172.16.1.2,5102,12692,14480,2082,65728,65728,6,6,4,1460,182187,1,16778208,610000,33580,33543,65700,0,14480,0,2567653858,63
o,1724817291.335346,172.16.5.2,32801,172.16.1.2,5102,12692,14480,2086,62848,65728,6,6,4,1460,172187,1,16778208,620000,33580,30647,65700,0,11584,0,2567653858,63
i,1724817291.365439,172.16.5.2,32801,172.16.1.2,5102,12692,14480,2086,62848,65728,6,6,4,1460,172187,1,16778208,620000,33580,33580,65700,0,14480,0,2567653858,63
o,1724817291.365506,172.16.5.2,32801,172.16.1.2,5102,12692,14480,2086,64256,65728,6,6,4,1460,167187,1,16778208,590000,33580,30684,65700,0,11584,0,2567653858,63
i,1724817291.365677,172.16.5.2,32801,172.16.1.2,5102,12692,14480,2086,64256,65728,6,6,4,1460,167187,1,16778208,590000,33580,30684,65700,0,14480,0,2567653858,63
o,1724817291.365699,172.16.5.2,32801,172.16.1.2,5102,12692,14480,2086,61376,65728,6,6,4,1460,162812,1,16778208,570000,33580,27788,65700,0,11584,0,2567653858,63
i,1724817291.365880,172.16.5.2,32801,172.16.1.2,5102,12692,14480,2086,61376,65728,6,6,4,1460,162812,1,16778208,570000,33580,27788,65700,0,14480,0,2567653858,63
o,1724817291.365895,172.16.5.2,32801,172.16.1.2,5102,12692,14480,2086,64256,65728,6,6,4,1460,158750,1,16778208,540000,33580,24892,65700,0,11584,0,2567653858,63
i,1724817291.396753,172.16.5.2,32801,172.16.1.2,5102,12692,14480,2086,64256,65728,6,6,4,1460,158750,1,16778208,540000,33580,33580,65700,0,14480,0,2567653858,63
o,1724817291.396776,172.16.5.2,32801,172.16.1.2,5102,12692,15940,2086,64256,65728,6,6,4,1460,159062,1,16778208,500000,33580,30684,65700,0,11584,0,2567653858,63
o,1724817291.396905,172.16.5.2,32801,172.16.1.2,5102,12692,15940,2086,64256,65728,6,6,4,1460,159062,1,16778208,500000,33580,30684,65700,0,13032,0,2567653858,63
i,1724817291.449426,172.16.5.2,32801,172.16.1.2,5102,12692,15940,2086,64256,65728,6,6,4,1460,159062,1,16778208,500000,41772,41772,65700,0,15928,0,2567653858,63
o,1724817291.449496,172.16.5.2,32801,172.16.1.2,5102,12692,15940,2086,62848,65728,6,6,4,1460,153125,1,16778208,510000,41772,38876,65700,0,13032,0,2567653858,63
i,1724817291.468432,172.16.5.2,32801,172.16.1.2,5102,12692,15940,2086,62848,65728,6,6,4,1460,153125,1,16778208,510000,41772,41772,65700,0,15928,0,2567653858,63
o,1724817291.468456,172.16.5.2,32801,172.16.1.2,5102,12692,15940,2086,62848,65728,6,6,4,1460,146562,1,16778208,510000,41772,38876,65700,0,13032,0,2567653858,63
i,1724817291.468611,172.16.5.2,32801,172.16.1.2,5102,12692,15940,2086,62848,65728,6,6,4,1460,146562,1,16778208,510000,41772,38876,65700,0,15928,0,2567653858,63
o,1724817291.468628,172.16.5.2,32801,172.16.1.2,5102,12692,15940,2086,62848,65728,6,6,4,1460,140937,1,16778208,510000,41772,35980,65700,0,13032,0,2567653858,63
i,1724817291.468761,172.16.5.2,32801,172.16.1.2,5102,12692,15940,2086,62848,65728,6,6,4,1460,140937,1,16778208,510000,41772,35980,65700,0,15928,0,2567653858,63
o,1724817291.468778,172.16.5.2,32801,172.16.1.2,5102,12692,15940,2086,64256,65728,6,6,4,1460,135937,1,16778208,500000,41772,33084,65700,0,13032,0,2567653858,63
i,1724817291.501654,172.16.5.2,32801,172.16.1.2,5102,12692,15940,2086,64256,65728,6,6,4,1460,135937,1,16778208,500000,41772,41772,65700,0,15928,0,2567653858,63
o,1724817291.501679,172.16.5.2,32801,172.16.1.2,5102,12692,15940,2086,62848,65728,6,6,4,1460,131562,1,16778208,490000,41772,38876,65700,0,13032,0,2567653858,63
o,1724817291.501856,172.16.5.2,32801,172.16.1.2,5102,12692,15940,2086,62848,65728,6,6,4,1460,131562,1,16778208,490000,41772,38876,65700,0,14480,0,2567653858,63
i,1724817291.541299,172.16.5.2,32801,172.16.1.2,5102,12692,15940,2086,62848,65728,6,6,4,1460,131562,1,16778208,490000,41772,41772,65700,0,15928,0,2567653858,63
o,1724817291.541372,172.16.5.2,32801,172.16.1.2,5102,12692,17400,2086,65728,65728,6,6,4,1460,132812,1,16778208,460000,41772,40324,65700,0,14480,0,2567653858,63
i,1724817291.559353,172.16.5.2,32801,172.16.1.2,5102,12692,17400,2086,65728,65728,6,6,4,1460,132812,1,16778208,460000,41772,40324,65700,0,17376,0,2567653858,63
o,1724817291.559448,172.16.5.2,32801,172.16.1.2,5102,12692,17400,2086,62848,65728,6,6,4,1460,130000,1,16778208,450000,41772,37428,65700,0,14480,0,2567653858,63
i,1724817291.589941,172.16.5.2,32801,172.16.1.2,5102,12692,17400,2086,62848,65728,6,6,4,1460,130000,1,16778208,450000,41772,41772,65700,0,17376,0,2567653858,63
o,1724817291.590053,172.16.5.2,32801,172.16.1.2,5102,12692,17400,2086,62848,65728,6,6,4,1460,128750,1,16778208,430000,41772,38876,65700,0,14480,0,2567653858,63
i,1724817291.590216,172.16.5.2,32801,172.16.1.2,5102,12692,17400,2086,62848,65728,6,6,4,1460,128750,1,16778208,430000,41772,38876,65700,0,17376,0,2567653858,63
o,1724817291.590239,172.16.5.2,32801,172.16.1.2,5102,12692,17400,2086,62848,65728,6,6,4,1460,127812,1,16778208,410000,41772,35980,65700,0,14480,0,2567653858,63
i,1724817291.590379,172.16.5.2,32801,172.16.1.2,5102,12692,17400,2086,62848,65728,6,6,4,1460,127812,1,16778208,410000,41772,35980,65700,0,17376,0,2567653858,63
o,1724817291.590395,172.16.5.2,32801,172.16.1.2,5102,12692,17400,2086,62848,65728,6,6,4,1460,126875,1,16778208,400000,41772,33084,65700,0,14480,0,2567653858,63
i,1724817291.620720,172.16.5.2,32801,172.16.1.2,5102,12692,17400,2086,62848,65728,6,6,4,1460,126875,1,16778208,400000,41772,41772,65700,0,17376,0,2567653858,63
o,1724817291.620740,172.16.5.2,32801,172.16.1.2,5102,12692,17400,2086,62848,65728,6,6,4,1460,126250,1,16778208,380000,41772,38876,65700,0,14480,0,2567653858,63
o,1724817291.620874,172.16.5.2,32801,172.16.1.2,5102,12692,17400,2086,62848,65728,6,6,4,1460,126250,1,16778208,380000,41772,38876,65700,0,15928,0,2567653858,63
i,1724817291.650764,172.16.5.2,32801,172.16.1.2,5102,12692,17400,2086,62848,65728,6,6,4,1460,126250,1,16778208,380000,41772,41772,65700,0,17376,0,2567653858,63
o,1724817291.650824,172.16.5.2,32801,172.16.1.2,5102,12692,18860,2086,62848,65728,6,6,4,1460,124375,1,16778208,380000,41772,38876,65700,0,14480,0,2567653858,63
i,1724817291.678294,172.16.5.2,32801,172.16.1.2,5102,12692,18860,2086,62848,65728,6,6,4,1460,124375,1,16778208,380000,41772,41772,65700,0,18824,0,2567653858,63
o,1724817291.678895,172.16.5.2,32801,172.16.1.2,5102,12692,18860,2086,64256,65728,6,6,4,1460,124062,1,16778208,370000,41772,38876,65700,0,15928,0,2567653858,63
i,1724817291.698744,172.16.5.2,32801,172.16.1.2,5102,12692,18860,2086,64256,65728,6,6,4,1460,124062,1,16778208,370000,41772,41772,65700,0,18824,0,2567653858,63
o,1724817291.698987,172.16.5.2,32801,172.16.1.2,5102,12692,18860,2086,62848,65728,6,6,4,1460,122500,1,16778208,370000,41772,38876,65700,0,15928,0,2567653858,63
i,1724817291.719584,172.16.5.2,32801,172.16.1.2,5102,12692,18860,2086,62848,65728,6,6,4,1460,122500,1,16778208,370000,41772,41772,65700,0,18824,0,2567653858,63
o,1724817291.719611,172.16.5.2,32801,172.16.1.2,5102,12692,18860,2086,62848,65728,6,6,4,1460,123437,1,16778208,360000,41772,38876,65700,0,15928,0,2567653858,63
i,1724817291.719775,172.16.5.2,32801,172.16.1.2,5102,12692,18860,2086,62848,65728,6,6,4,1460,123437,1,16778208,360000,41772,38876,65700,0,18824,0,2567653858,63
o,1724817291.719792,172.16.5.2,32801,172.16.1.2,5102,12692,18860,2086,59968,65728,6,6,4,1460,124375,1,16778208,360000,41772,35980,65700,0,15928,0,2567653858,63
i,1724817291.720941,172.16.5.2,32801,172.16.1.2,5102,12692,18860,2086,59968,65728,6,6,4,1460,124375,1,16778208,360000,41772,41772,65700,0,18824,0,2567653858,63
o,1724817291.721004,172.16.5.2,32801,172.16.1.2,5102,12692,18860,2086,62848,65728,6,6,4,1460,121562,1,16778208,370000,41772,38876,65700,0,15928,0,2567653858,63
o,1724817291.721115,172.16.5.2,32801,172.16.1.2,5102,12692,18860,2086,62848,65728,6,6,4,1460,121562,1,16778208,370000,41772,38876,65700,0,17376,0,2567653858,63
i,1724817291.751237,172.16.5.2,32801,172.16.1.2,5102,12692,18860,2086,62848,65728,6,6,4,1460,121562,1,16778208,370000,41772,41772,65700,0,18824,0,2567653858,63
o,1724817291.751311,172.16.5.2,32801,172.16.1.2,5102,12692,18860,2086,62848,65728,6,6,4,1460,119062,1,16778208,380000,41772,38876,65700,0,15928,0,2567653858,63
i,1724817291.769759,172.16.5.2,32801,172.16.1.2,5102,12692,18860,2086,62848,65728,6,6,4,1460,119062,1,16778208,380000,41772,41772,65700,0,18824,0,2567653858,63
o,1724817291.769827,172.16.5.2,32801,172.16.1.2,5102,12692,20320,2086,64256,65728,6,6,4,1460,119375,1,16778208,360000,41772,38876,65700,0,15928,0,2567653858,63
i,1724817291.804721,172.16.5.2,32801,172.16.1.2,5102,12692,20320,2086,64256,65728,6,6,4,1460,119375,1,16778208,360000,49964,49964,65700,0,20272,0,2567653858,63
o,1724817291.804795,172.16.5.2,32801,172.16.1.2,5102,12692,20320,2086,64256,65728,6,6,4,1460,120937,1,16778208,370000,49964,47068,65700,0,17376,0,2567653858,63
i,1724817291.822557,172.16.5.2,32801,172.16.1.2,5102,12692,20320,2086,64256,65728,6,6,4,1460,120937,1,16778208,370000,49964,49964,65700,0,20272,0,2567653858,63
o,1724817291.822618,172.16.5.2,32801,172.16.1.2,5102,12692,20320,2086,64256,65728,6,6,4,1460,120937,1,16778208,350000,49964,47068,65700,0,17376,0,2567653858,63
i,1724817291.824802,172.16.5.2,32801,172.16.1.2,5102,12692,20320,2086,64256,65728,6,6,4,1460,120937,1,16778208,350000,49964,49964,65700,0,20272,0,2567653858,63
o,1724817291.824825,172.16.5.2,32801,172.16.1.2,5102,12692,20320,2086,64256,65728,6,6,4,1460,119687,1,16778208,350000,49964,47068,65700,0,17376,0,2567653858,63
i,1724817291.825047,172.16.5.2,32801,172.16.1.2,5102,12692,20320,2086,64256,65728,6,6,4,1460,119687,1,16778208,350000,49964,47068,65700,0,20272,0,2567653858,63
o,1724817291.825073,172.16.5.2,32801,172.16.1.2,5102,12692,20320,2086,64256,65728,6,6,4,1460,118750,1,16778208,350000,49964,44172,65700,0,17376,0,2567653858,63
o,1724817291.825213,172.16.5.2,32801,172.16.1.2,5102,12692,20320,2086,64256,65728,6,6,4,1460,118750,1,16778208,350000,49964,44172,65700,0,18824,0,2567653858,63
i,1724817291.853037,172.16.5.2,32801,172.16.1.2,5102,12692,20320,2086,64256,65728,6,6,4,1460,118750,1,16778208,350000,49964,49964,65700,0,20272,0,2567653858,63
o,1724817291.853111,172.16.5.2,32801,172.16.1.2,5102,12692,20320,2086,64256,65728,6,6,4,1460,120312,1,16778208,360000,49964,47068,65700,0,17376,0,2567653858,63
i,1724817291.869902,172.16.5.2,32801,172.16.1.2,5102,12692,20320,2086,64256,65728,6,6,4,1460,120312,1,16778208,360000,49964,48536,65700,0,20272,0,2567653858,63
o,1724817291.869902,172.16.5.2,32801,172.16.1.2,5102,12692,20320,2086,64256,65728,6,6,4,1460,120312,1,16778208,350000,49964,45640,65700,0,17376,0,2567653858,63
i,1724817291.869902,172.16.5.2,32801,172.16.1.2,5102,12692,20320,2086,64256,65728,6,6,4,1460,120312,1,16778208,350000,49964,45640,65700,0,20272,0,2567653858,63
o,1724817291.869902,172.16.5.2,32801,172.16.1.2,5102,12692,21780,2086,61376,65728,6,6,4,1460,117812,1,16778208,360000,49964,42744,65700,0,17376,0,2567653858,63
i,1724817291.917717,172.16.5.2,32801,172.16.1.2,5102,12692,21780,2086,61376,65728,6,6,4,1460,117812,1,16778208,360000,49964,49964,65700,0,21720,0,2567653858,63
o,1724817291.917806,172.16.5.2,32801,172.16.1.2,5102,12692,21780,2086,62848,65728,6,6,4,1460,116875,1,16778208,350000,49964,47068,65700,0,18824,0,2567653858,63
i,1724817291.917967,172.16.5.2,32801,172.16.1.2,5102,12692,21780,2086,62848,65728,6,6,4,1460,116875,1,16778208,350000,49964,47068,65700,0,21720,0,2567653858,63
o,1724817291.917984,172.16.5.2,32801,172.16.1.2,5102,12692,21780,2086,62848,65728,6,6,4,1460,115000,1,16778208,360000,49964,44172,65700,0,18824,0,2567653858,63
i,1724817291.939155,172.16.5.2,32801,172.16.1.2,5102,12692,21780,2086,62848,65728,6,6,4,1460,115000,1,16778208,360000,49964,49964,65700,0,21720,0,2567653858,63
o,1724817291.939175,172.16.5.2,32801,172.16.1.2,5102,12692,21780,2086,62848,65728,6,6,4,1460,114375,1,16778208,350000,49964,47068,65700,0,18824,0,2567653858,63
i,1724817291.939359,172.16.5.2,32801,172.16.1.2,5102,12692,21780,2086,62848,65728,6,6,4,1460,114375,1,16778208,350000,49964,47068,65700,0,21720,0,2567653858,63
o,1724817291.939380,172.16.5.2,32801,172.16.1.2,5102,12692,21780,2086,62848,65728,6,6,4,1460,114062,1,16778208,340000,49964,44172,65700,0,18824,0,2567653858,63
o,1724817291.939533,172.16.5.2,32801,172.16.1.2,5102,12692,21780,2086,62848,65728,6,6,4,1460,114062,1,16778208,340000,49964,44172,65700,0,20272,0,2567653858,63
i,1724817291.966911,172.16.5.2,32801,172.16.1.2,5102,12692,21780,2086,62848,65728,6,6,4,1460,114062,1,16778208,340000,49964,49964,65700,0,21720,0,2567653858,63
o,1724817291.966935,172.16.5.2,32801,172.16.1.2,5102,12692,21780,2086,62848,65728,6,6,4,1460,115000,1,16778208,350000,49964,47068,65700,0,18824,0,2567653858,63
i,1724817291.967203,172.16.5.2,32801,172.16.1.2,5102,12692,21780,2086,62848,65728,6,6,4,1460,115000,1,16778208,350000,49964,47068,65700,0,21720,0,2567653858,63
o,1724817291.967225,172.16.5.2,32801,172.16.1.2,5102,12692,21780,2086,62848,65728,6,6,4,1460,113125,1,16778208,350000,49964,44172,65700,0,18824,0,2567653858,63
i,1724817291.967353,172.16.5.2,32801,172.16.1.2,5102,12692,21780,2086,62848,65728,6,6,4,1460,113125,1,16778208,350000,49964,44172,65700,0,21720,0,2567653858,63
o,1724817291.967369,172.16.5.2,32801,172.16.1.2,5102,12692,21780,2086,64256,65728,6,6,4,1460,111562,1,16778208,350000,49964,41276,65700,0,18824,0,2567653858,63
i,1724817292.033043,172.16.5.2,32801,172.16.1.2,5102,12692,21780,2086,64256,65728,6,6,4,1460,111562,1,16778208,350000,49964,49964,65700,0,21720,0,2567653858,63
o,1724817292.033068,172.16.5.2,32801,172.16.1.2,5102,12692,23240,2086,64256,65728,6,6,4,1460,117812,1,16778208,400000,49964,47068,65700,0,18824,0,2567653858,63
i,1724817292.033214,172.16.5.2,32801,172.16.1.2,5102,12692,23240,2086,64256,65728,6,6,4,1460,117812,1,16778208,400000,49964,47068,65700,0,23168,0,2567653858,63
o,1724817292.033231,172.16.5.2,32801,172.16.1.2,5102,12692,23240,2086,61376,65728,6,6,4,1460,116875,1,16778208,380000,49964,44172,65700,0,20272,0,2567653858,63
i,1724817292.056613,172.16.5.2,32801,172.16.1.2,5102,12692,23240,2086,61376,65728,6,6,4,1460,116875,1,16778208,380000,58156,58156,65700,0,23168,0,2567653858,63
o,1724817292.056638,172.16.5.2,32801,172.16.1.2,5102,12692,23240,2086,64256,65728,6,6,4,1460,120000,1,16778208,400000,58156,55260,65700,0,20272,0,2567653858,63
i,1724817292.058664,172.16.5.2,32801,172.16.1.2,5102,12692,23240,2086,64256,65728,6,6,4,1460,120000,1,16778208,400000,58156,55260,65700,0,23168,0,2567653858,63
o,1724817292.058686,172.16.5.2,32801,172.16.1.2,5102,12692,23240,2086,61376,65728,6,6,4,1460,120000,1,16778208,380000,58156,52364,65700,0,20272,0,2567653858,63
o,1724817292.058830,172.16.5.2,32801,172.16.1.2,5102,12692,23240,2086,61376,65728,6,6,4,1460,120000,1,16778208,380000,58156,52364,65700,0,21720,0,2567653858,63
i,1724817292.059035,172.16.5.2,32801,172.16.1.2,5102,12692,23240,2086,61376,65728,6,6,4,1460,120000,1,16778208,380000,58156,52364,65700,0,23168,0,2567653858,63
o,1724817292.059054,172.16.5.2,32801,172.16.1.2,5102,12692,23240,2086,64256,65728,6,6,4,1460,120000,1,16778208,360000,58156,49468,65700,0,20272,0,2567653858,63
i,1724817292.059195,172.16.5.2,32801,172.16.1.2,5102,12692,23240,2086,64256,65728,6,6,4,1460,120000,1,16778208,360000,58156,49468,65700,0,23168,0,2567653858,63
o,1724817292.059212,172.16.5.2,32801,172.16.1.2,5102,12692,23240,2086,64256,65728,6,6,4,1460,116250,1,16778208,380000,58156,46572,65700,0,20272,0,2567653858,63
i,1724817292.083052,172.16.5.2,32801,172.16.1.2,5102,12692,23240,2086,64256,65728,6,6,4,1460,116250,1,16778208,380000,58156,58156,65700,0,23168,0,2567653858,63
o,1724817292.083074,172.16.5.2,32801,172.16.1.2,5102,12692,23240,2086,64256,65728,6,6,4,1460,115625,1,16778208,370000,58156,55260,65700,0,20272,0,2567653858,63
i,1724817292.104727,172.16.5.2,32801,172.16.1.2,5102,12692,23240,2086,64256,65728,6,6,4,1460,115625,1,16778208,370000,58156,58156,65700,0,23168,0,2567653858,63
o,1724817292.104748,172.16.5.2,32801,172.16.1.2,5102,12692,23240,2086,65728,65728,6,6,4,1460,118750,1,16778208,380000,58156,56708,65700,0,21720,0,2567653858,63
i,1724817292.147172,172.16.5.2,32801,172.16.1.2,5102,12692,23240,2086,65728,65728,6,6,4,1460,118750,1,16778208,380000,58156,56708,65700,0,23168,0,2567653858,63
o,1724817292.147198,172.16.5.2,32801,172.16.1.2,5102,12692,24700,2086,62848,65728,6,6,4,1460,119062,1,16778208,370000,58156,53812,65700,0,20272,0,2567653858,63
i,1724817292.147520,172.16.5.2,32801,172.16.1.2,5102,12692,24700,2086,62848,65728,6,6,4,1460,119062,1,16778208,370000,58156,53812,65700,0,24616,0,2567653858,63
o,1724817292.147546,172.16.5.2,32801,172.16.1.2,5102,12692,24700,2086,64256,65728,6,6,4,1460,119375,1,16778208,360000,58156,50916,65700,0,21720,0,2567653858,63
i,1724817292.179678,172.16.5.2,32801,172.16.1.2,5102,12692,24700,2086,64256,65728,6,6,4,1460,119375,1,16778208,360000,58156,58156,65700,0,24616,0,2567653858,63
o,1724817292.179703,172.16.5.2,32801,172.16.1.2,5102,12692,24700,2086,64256,65728,6,6,4,1460,123437,1,16778208,390000,58156,55260,65700,0,21720,0,2567653858,63
i,1724817292.179935,172.16.5.2,32801,172.16.1.2,5102,12692,24700,2086,64256,65728,6,6,4,1460,123437,1,16778208,390000,58156,55260,65700,0,24616,0,2567653858,63
o,1724817292.179952,172.16.5.2,32801,172.16.1.2,5102,12692,24700,2086,61376,65728,6,6,4,1460,123125,1,16778208,370000,58156,52364,65700,0,21720,0,2567653858,63
o,1724817292.180069,172.16.5.2,32801,172.16.1.2,5102,12692,24700,2086,61376,65728,6,6,4,1460,123125,1,16778208,370000,58156,52364,65700,0,23168,0,2567653858,63
i,1724817292.189396,172.16.5.2,32801,172.16.1.2,5102,12692,24700,2086,61376,65728,6,6,4,1460,123125,1,16778208,370000,58156,58156,65700,0,24616,0,2567653858,63
o,1724817292.189427,172.16.5.2,32801,172.16.1.2,5102,12692,24700,2086,62848,65728,6,6,4,1460,124062,1,16778208,370000,58156,55260,65700,0,21720,0,2567653858,63
i,1724817292.189564,172.16.5.2,32801,172.16.1.2,5102,12692,24700,2086,62848,65728,6,6,4,1460,124062,1,16778208,370000,58156,55260,65700,0,24616,0,2567653858,63
o,1724817292.189580,172.16.5.2,32801,172.16.1.2,5102,12692,24700,2086,62848,65728,6,6,4,1460,125000,1,16778208,370000,58156,52364,65700,0,21720,0,2567653858,63
i,1724817292.205808,172.16.5.2,32801,172.16.1.2,5102,12692,24700,2086,62848,65728,6,6,4,1460,125000,1,16778208,370000,58156,58156,65700,0,24616,0,2567653858,63
o,1724817292.205901,172.16.5.2,32801,172.16.1.2,5102,12692,24700,2086,64256,65728,6,6,4,1460,128125,1,16778208,380000,58156,55260,65700,0,21720,0,2567653858,63
i,1724817292.224758,172.16.5.2,32801,172.16.1.2,5102,12692,24700,2086,64256,65728,6,6,4,1460,128125,1,16778208,380000,58156,58156,65700,0,24616,0,2567653858,63
o,1724817292.224778,172.16.5.2,32801,172.16.1.2,5102,12692,24700,2086,64256,65728,6,6,4,1460,130937,1,16778208,390000,58156,55260,65700,0,21720,0,2567653858,63
i,1724817292.255621,172.16.5.2,32801,172.16.1.2,5102,12692,24700,2086,64256,65728,6,6,4,1460,130937,1,16778208,390000,58156,58156,65700,0,24616,0,2567653858,63
o,1724817292.255707,172.16.5.2,32801,172.16.1.2,5102,12692,24700,2086,62848,65728,6,6,4,1460,128437,1,16778208,400000,58156,55260,65700,0,21720,0,2567653858,63
i,1724817292.265076,172.16.5.2,32801,172.16.1.2,5102,12692,24700,2086,62848,65728,6,6,4,1460,128437,1,16778208,400000,58156,58156,65700,0,24616,0,2567653858,63
o,1724817292.265155,172.16.5.2,32801,172.16.1.2,5102,12692,26160,2086,62848,65728,6,6,4,1460,127500,1,16778208,390000,58156,55260,65700,0,21720,0,2567653858,63
i,1724817292.304211,172.16.5.2,32801,172.16.1.2,5102,12692,26160,2086,62848,65728,6,6,4,1460,127500,1,16778208,390000,58156,58156,65700,0,26064,0,2567653858,63
o,1724817292.304269,172.16.5.2,32801,172.16.1.2,5102,12692,26160,2086,64256,65728,6,6,4,1460,130312,1,16778208,400000,58156,55260,65700,0,23168,0,2567653858,63
i,1724817292.304525,172.16.5.2,32801,172.16.1.2,5102,12692,26160,2086,64256,65728,6,6,4,1460,130312,1,16778208,400000,58156,55260,65700,0,26064,0,2567653858,63
o,1724817292.304545,172.16.5.2,32801,172.16.1.2,5102,12692,26160,2086,64256,65728,6,6,4,1460,129062,1,16778208,390000,58156,52364,65700,0,23168,0,2567653858,63
o,1724817292.304706,172.16.5.2,32801,172.16.1.2,5102,12692,26160,2086,64256,65728,6,6,4,1460,129062,1,16778208,390000,58156,52364,65700,0,24616,0,2567653858,63
i,1724817292.305933,172.16.5.2,32801,172.16.1.2,5102,12692,26160,2086,64256,65728,6,6,4,1460,129062,1,16778208,390000,58156,58156,65700,0,26064,0,2567653858,63
o,1724817292.305961,172.16.5.2,32801,172.16.1.2,5102,12692,26160,2086,62848,65728,6,6,4,1460,128125,1,16778208,380000,58156,55260,65700,0,23168,0,2567653858,63
i,1724817292.306151,172.16.5.2,32801,172.16.1.2,5102,12692,26160,2086,62848,65728,6,6,4,1460,128125,1,16778208,380000,58156,55260,65700,0,26064,0,2567653858,63
o,1724817292.306217,172.16.5.2,32801,172.16.1.2,5102,12692,26160,2086,59968,65728,6,6,4,1460,125937,1,16778208,380000,58156,52364,65700,0,23168,0,2567653858,63
i,1724817292.307370,172.16.5.2,32801,172.16.1.2,5102,12692,26160,2086,59968,65728,6,6,4,1460,125937,1,16778208,380000,58156,58156,65700,0,26064,0,2567653858,63
o,1724817292.307478,172.16.5.2,32801,172.16.1.2,5102,12692,26160,2086,64256,65728,6,6,4,1460,124062,1,16778208,380000,58156,55260,65700,0,23168,0,2567653858,63
i,1724817292.334837,172.16.5.2,32801,172.16.1.2,5102,12692,26160,2086,64256,65728,6,6,4,1460,124062,1,16778208,380000,58156,58156,65700,0,26064,0,2567653858,63
o,1724817292.334921,172.16.5.2,32801,172.16.1.2,5102,12692,26160,2086,64256,65728,6,6,4,1460,125000,1,16778208,370000,58156,55260,65700,0,23168,0,2567653858,63
i,1724817292.355320,172.16.5.2,32801,172.16.1.2,5102,12692,26160,2086,64256,65728,6,6,4,1460,125000,1,16778208,370000,58156,58156,65700,0,26064,0,2567653858,63
o,1724817292.355397,172.16.5.2,32801,172.16.1.2,5102,12692,26160,2086,64256,65728,6,6,4,1460,125625,1,16778208,370000,58156,55260,65700,0,23168,0,2567653858,63
i,1724817292.356661,172.16.5.2,32801,172.16.1.2,5102,12692,26160,2086,64256,65728,6,6,4,1460,125625,1,16778208,370000,58156,58156,65700,0,26064,0,2567653858,63
o,1724817292.356731,172.16.5.2,32801,172.16.1.2,5102,12692,26160,2086,64256,65728,6,6,4,1460,122500,1,16778208,380000,58156,55260,65700,0,23168,0,2567653858,63
i,1724817292.356871,172.16.5.2,32801,172.16.1.2,5102,12692,26160,2086,64256,65728,6,6,4,1460,122500,1,16778208,380000,58156,55260,65700,0,26064,0,2567653858,63
o,1724817292.356887,172.16.5.2,32801,172.16.1.2,5102,12692,27620,2086,62848,65728,6,6,4,1460,118437,1,16778208,390000,58156,52364,65700,0,23168,0,2567653858,63
i,1724817292.404790,172.16.5.2,32801,172.16.1.2,5102,12692,27620,2086,62848,65728,6,6,4,1460,118437,1,16778208,390000,66348,66348,65700,0,27512,0,2567653858,63
o,1724817292.404816,172.16.5.2,32801,172.16.1.2,5102,12692,27620,2086,62848,65728,6,6,4,1460,116250,1,16778208,390000,66348,63452,65700,0,24616,0,2567653858,63
i,1724817292.406606,172.16.5.2,32801,172.16.1.2,5102,12692,27620,2086,62848,65728,6,6,4,1460,116250,1,16778208,390000,66348,66348,65700,0,27512,0,2567653858,63
o,1724817292.406687,172.16.5.2,32801,172.16.1.2,5102,12692,27620,2086,62848,65728,6,6,4,1460,114375,1,16778208,380000,66348,63452,65700,0,24616,0,2567653858,63
o,1724817292.406834,172.16.5.2,32801,172.16.1.2,5102,12692,27620,2086,62848,65728,6,6,4,1460,114375,1,16778208,380000,66348,63452,65700,0,26064,0,2567653858,63
i,1724817292.415824,172.16.5.2,32801,172.16.1.2,5102,12692,27620,2086,62848,65728,6,6,4,1460,114375,1,16778208,380000,66348,66348,65700,0,27512,0,2567653858,63
o,1724817292.415895,172.16.5.2,32801,172.16.1.2,5102,12692,27620,2086,62848,65728,6,6,4,1460,114062,1,16778208,370000,66348,63452,65700,0,24616,0,2567653858,63
i,1724817292.416047,172.16.5.2,32801,172.16.1.2,5102,12692,27620,2086,62848,65728,6,6,4,1460,114062,1,16778208,370000,66348,63452,65700,0,27512,0,2567653858,63
o,1724817292.416074,172.16.5.2,32801,172.16.1.2,5102,12692,27620,2086,59968,65728,6,6,4,1460,113750,1,16778208,360000,66348,60556,65700,0,24616,0,2567653858,63
i,1724817292.437079,172.16.5.2,32801,172.16.1.2,5102,12692,27620,2086,59968,65728,6,6,4,1460,113750,1,16778208,360000,66348,65216,65700,0,27512,0,2567653858,63
o,1724817292.437107,172.16.5.2,32801,172.16.1.2,5102,12692,27620,2086,62848,65728,6,6,4,1460,115937,1,16778208,370000,66348,62320,65700,0,24616,0,2567653858,63
i,1724817292.446699,172.16.5.2,32801,172.16.1.2,5102,12692,27620,2086,62848,65728,6,6,4,1460,115937,1,16778208,370000,66348,66348,65700,0,27512,0,2567653858,63
o,1724817292.446721,172.16.5.2,32801,172.16.1.2,5102,12692,27620,2086,62848,65728,6,6,4,1460,115312,1,16778208,360000,66348,63452,65700,0,24616,0,2567653858,63
i,1724817292.467767,172.16.5.2,32801,172.16.1.2,5102,12692,27620,2086,62848,65728,6,6,4,1460,115312,1,16778208,360000,66348,66348,65700,0,27512,0,2567653858,63
o,1724817292.467858,172.16.5.2,32801,172.16.1.2,5102,12692,27620,2086,62848,65728,6,6,4,1460,114687,1,16778208,350000,66348,63452,65700,0,24616,0,2567653858,63
i,1724817292.468041,172.16.5.2,32801,172.16.1.2,5102,12692,27620,2086,62848,65728,6,6,4,1460,114687,1,16778208,350000,66348,63452,65700,0,27512,0,2567653858,63
o,1724817292.468067,172.16.5.2,32801,172.16.1.2,5102,12692,27620,2086,64256,65728,6,6,4,1460,114375,1,16778208,340000,66348,60556,65700,0,24616,0,2567653858,63
i,1724817292.468240,172.16.5.2,32801,172.16.1.2,5102,12692,27620,2086,64256,65728,6,6,4,1460,114375,1,16778208,340000,66348,60556,65700,0,27512,0,2567653858,63
o,1724817292.468264,172.16.5.2,32801,172.16.1.2,5102,12692,29080,2086,64256,65728,6,6,4,1460,114062,1,16778208,340000,66348,57660,65700,0,24616,0,2567653858,63
i,1724817292.512228,172.16.5.2,32801,172.16.1.2,5102,12692,29080,2086,64256,65728,6,6,4,1460,114062,1,16778208,340000,66348,66348,65700,0,28960,0,2567653858,63
o,1724817292.512304,172.16.5.2,32801,172.16.1.2,5102,12692,29080,2086,65728,65728,6,6,4,1460,118750,1,16778208,370000,66348,64900,65700,0,27512,0,2567653858,63
i,1724817292.522793,172.16.5.2,32801,172.16.1.2,5102,12692,29080,2086,65728,65728,6,6,4,1460,118750,1,16778208,370000,66348,64900,65700,0,28960,0,2567653858,63
o,1724817292.522861,172.16.5.2,32801,172.16.1.2,5102,12692,29080,2086,62848,65728,6,6,4,1460,117812,1,16778208,370000,66348,62004,65700,0,26064,0,2567653858,63
i,1724817292.523045,172.16.5.2,32801,172.16.1.2,5102,12692,29080,2086,62848,65728,6,6,4,1460,117812,1,16778208,370000,66348,62004,65700,0,28960,0,2567653858,63
o,1724817292.523073,172.16.5.2,32801,172.16.1.2,5102,12692,29080,2086,62848,65728,6,6,4,1460,116875,1,16778208,360000,66348,59108,65700,0,26064,0,2567653858,63
o,1724817292.523197,172.16.5.2,32801,172.16.1.2,5102,12692,29080,2086,62848,65728,6,6,4,1460,116875,1,16778208,360000,66348,59108,65700,0,27512,0,2567653858,63
i,1724817292.532848,172.16.5.2,32801,172.16.1.2,5102,12692,29080,2086,62848,65728,6,6,4,1460,116875,1,16778208,360000,66348,66348,65700,0,28960,0,2567653858,63
o,1724817292.532915,172.16.5.2,32801,172.16.1.2,5102,12692,29080,2086,62848,65728,6,6,4,1460,115000,1,16778208,360000,66348,63452,65700,0,26064,0,2567653858,63
i,1724817292.534236,172.16.5.2,32801,172.16.1.2,5102,12692,29080,2086,62848,65728,6,6,4,1460,115000,1,16778208,360000,66348,66348,65700,0,28960,0,2567653858,63
o,1724817292.534257,172.16.5.2,32801,172.16.1.2,5102,12692,29080,2086,62848,65728,6,6,4,1460,115625,1,16778208,360000,66348,63452,65700,0,26064,0,2567653858,63
i,1724817292.575339,172.16.5.2,32801,172.16.1.2,5102,12692,29080,2086,62848,65728,6,6,4,1460,115625,1,16778208,360000,66348,66348,65700,0,28960,0,2567653858,63
o,1724817292.575368,172.16.5.2,32801,172.16.1.2,5102,12692,29080,2086,64256,65728,6,6,4,1460,118750,1,16778208,370000,66348,63452,65700,0,26064,0,2567653858,63
i,1724817292.575573,172.16.5.2,32801,172.16.1.2,5102,12692,29080,2086,64256,65728,6,6,4,1460,118750,1,16778208,370000,66348,63452,65700,0,28960,0,2567653858,63
o,1724817292.575594,172.16.5.2,32801,172.16.1.2,5102,12692,29080,2086,64256,65728,6,6,4,1460,120312,1,16778208,370000,66348,60556,65700,0,26064,0,2567653858,63
i,1724817292.585172,172.16.5.2,32801,172.16.1.2,5102,12692,29080,2086,64256,65728,6,6,4,1460,120312,1,16778208,370000,66348,66348,65700,0,28960,0,2567653858,63
o,1724817292.585211,172.16.5.2,32801,172.16.1.2,5102,12692,29080,2086,64256,65728,6,6,4,1460,120312,1,16778208,360000,66348,63452,65700,0,26064,0,2567653858,63
i,1724817292.585385,172.16.5.2,32801,172.16.1.2,5102,12692,29080,2086,64256,65728,6,6,4,1460,120312,1,16778208,360000,66348,63452,65700,0,28960,0,2567653858,63
o,1724817292.585401,172.16.5.2,32801,172.16.1.2,5102,12692,29080,2086,64256,65728,6,6,4,1460,120312,1,16778208,350000,66348,60556,65700,0,26064,0,2567653858,63
i,1724817292.585521,172.16.5.2,32801,172.16.1.2,5102,12692,29080,2086,64256,65728,6,6,4,1460,120312,1,16778208,350000,66348,60556,65700,0,28960,0,2567653858,63
o,1724817292.585536,172.16.5.2,32801,172.16.1.2,5102,12692,29080,2086,62848,65728,6,6,4,1460,120312,1,16778208,340000,66348,57660,65700,0,26064,0,2567653858,63
i,1724817292.621236,172.16.5.2,32801,172.16.1.2,5102,12692,29080,2086,62848,65728,6,6,4,1460,120312,1,16778208,340000,66348,66348,65700,0,28960,0,2567653858,63
o,1724817292.621259,172.16.5.2,32801,172.16.1.2,5102,12692,30540,2086,65728,65728,6,6,4,1460,124062,1,16778208,370000,66348,64900,65700,0,27512,0,2567653858,63
i,1724817292.621398,172.16.5.2,32801,172.16.1.2,5102,12692,30540,2086,65728,65728,6,6,4,1460,124062,1,16778208,370000,66348,64900,65700,0,30408,0,2567653858,63
o,1724817292.621415,172.16.5.2,32801,172.16.1.2,5102,12692,30540,2086,62848,65728,6,6,4,1460,122500,1,16778208,370000,66348,62004,65700,0,27512,0,2567653858,63
i,1724817292.621534,172.16.5.2,32801,172.16.1.2,5102,12692,30540,2086,62848,65728,6,6,4,1460,122500,1,16778208,370000,66348,62004,65700,0,30408,0,2567653858,63
o,1724817292.621548,172.16.5.2,32801,172.16.1.2,5102,12692,30540,2086,64256,65728,6,6,4,1460,119687,1,16778208,380000,66348,59108,65700,0,27512,0,2567653858,63
o,1724817292.621669,172.16.5.2,32801,172.16.1.2,5102,12692,30540,2086,64256,65728,6,6,4,1460,119687,1,16778208,380000,74540,59108,65700,0,28960,0,2567653858,63
i,1724817292.631002,172.16.5.2,32801,172.16.1.2,5102,12692,30540,2086,64256,65728,6,6,4,1460,119687,1,16778208,380000,74540,74540,65700,0,30408,0,2567653858,63
o,1724817292.631065,172.16.5.2,32801,172.16.1.2,5102,12692,30540,2086,62848,65728,6,6,4,1460,118750,1,16778208,370000,74540,71644,65700,0,27512,0,2567653858,63
i,1724817292.640778,172.16.5.2,32801,172.16.1.2,5102,12692,30540,2086,62848,65728,6,6,4,1460,118750,1,16778208,370000,74540,74540,65700,0,30408,0,2567653858,63
o,1724817292.640841,172.16.5.2,32801,172.16.1.2,5102,12692,30540,2086,62848,65728,6,6,4,1460,117812,1,16778208,360000,74540,71644,65700,0,27512,0,2567653858,63
i,1724817292.671344,172.16.5.2,32801,172.16.1.2,5102,12692,30540,2086,62848,65728,6,6,4,1460,117812,1,16778208,360000,74540,74540,65700,0,30408,0,2567653858,63
o,1724817292.671368,172.16.5.2,32801,172.16.1.2,5102,12692,30540,2086,65728,65728,6,6,4,1460,119375,1,16778208,360000,74540,73092,65700,0,28960,0,2567653858,63
i,1724817292.680033,172.16.5.2,32801,172.16.1.2,5102,12692,30540,2086,65728,65728,6,6,4,1460,119375,1,16778208,360000,74540,73092,65700,0,30408,0,2567653858,63
o,1724817292.680095,172.16.5.2,32801,172.16.1.2,5102,12692,30540,2086,62848,65728,6,6,4,1460,115937,1,16778208,380000,74540,70196,65700,0,27512,0,2567653858,63
i,1724817292.680434,172.16.5.2,32801,172.16.1.2,5102,12692,30540,2086,62848,65728,6,6,4,1460,115937,1,16778208,380000,74540,70196,65700,0,30408,0,2567653858,63
o,1724817292.680450,172.16.5.2,32801,172.16.1.2,5102,12692,30540,2086,59968,65728,6,6,4,1460,112812,1,16778208,380000,74540,67300,65700,0,27512,0,2567653858,63
i,1724817292.700384,172.16.5.2,32801,172.16.1.2,5102,12692,30540,2086,59968,65728,6,6,4,1460,112812,1,16778208,380000,74540,74540,65700,0,30408,0,2567653858,63
o,1724817292.700480,172.16.5.2,32801,172.16.1.2,5102,12692,30540,2086,62848,65728,6,6,4,1460,112500,1,16778208,370000,74540,71644,65700,0,27512,0,2567653858,63
i,1724817292.700913,172.16.5.2,32801,172.16.1.2,5102,12692,30540,2086,62848,65728,6,6,4,1460,112500,1,16778208,370000,74540,71644,65700,0,30408,0,2567653858,63
o,1724817292.700931,172.16.5.2,32801,172.16.1.2,5102,12692,30540,2086,62848,65728,6,6,4,1460,112187,1,16778208,350000,74540,68748,65700,0,27512,0,2567653858,63
i,1724817292.704172,172.16.5.2,32801,172.16.1.2,5102,12692,30540,2086,62848,65728,6,6,4,1460,112187,1,16778208,350000,74540,74540,65700,0,30408,0,2567653858,63
o,1724817292.704190,172.16.5.2,32801,172.16.1.2,5102,12692,30540,2086,64256,65728,6,6,4,1460,113437,1,16778208,360000,74540,71644,65700,0,27512,0,2567653858,63
i,1724817292.725804,172.16.5.2,32801,172.16.1.2,5102,12692,30540,2086,64256,65728,6,6,4,1460,113437,1,16778208,360000,74540,74540,65700,0,30408,0,2567653858,63
o,1724817292.725825,172.16.5.2,32801,172.16.1.2,5102,12692,32000,2086,64256,65728,6,6,4,1460,113125,1,16778208,350000,74540,71644,65700,0,27512,0,2567653858,63
i,1724817292.735928,172.16.5.2,32801,172.16.1.2,5102,12692,32000,2086,64256,65728,6,6,4,1460,113125,1,16778208,350000,74540,74540,65700,0,31856,0,2567653858,63
o,1724817292.736030,172.16.5.2,32801,172.16.1.2,5102,12692,32000,2086,64256,65728,6,6,4,1460,114062,1,16778208,350000,74540,71644,65700,0,28960,0,2567653858,63
i,1724817292.736198,172.16.5.2,32801,172.16.1.2,5102,12692,32000,2086,64256,65728,6,6,4,1460,114062,1,16778208,350000,74540,71644,65700,0,31856,0,2567653858,63
o,1724817292.736215,172.16.5.2,32801,172.16.1.2,5102,12692,32000,2086,61376,65728,6,6,4,1460,115000,1,16778208,350000,74540,68748,65700,0,28960,0,2567653858,63
o,1724817292.736357,172.16.5.2,32801,172.16.1.2,5102,12692,32000,2086,61376,65728,6,6,4,1460,115000,1,16778208,350000,74540,68748,65700,0,30408,0,2567653858,63
i,1724817292.755227,172.16.5.2,32801,172.16.1.2,5102,12692,32000,2086,61376,65728,6,6,4,1460,115000,1,16778208,350000,74540,74540,65700,0,31856,0,2567653858,63
o,1724817292.755293,172.16.5.2,32801,172.16.1.2,5102,12692,32000,2086,64256,65728,6,6,4,1460,116875,1,16778208,360000,74540,71644,65700,0,28960,0,2567653858,63
i,1724817292.756738,172.16.5.2,32801,172.16.1.2,5102,12692,32000,2086,64256,65728,6,6,4,1460,116875,1,16778208,360000,74540,71644,65700,0,31856,0,2567653858,63
o,1724817292.756766,172.16.5.2,32801,172.16.1.2,5102,12692,32000,2086,62848,65728,6,6,4,1460,117500,1,16778208,350000,74540,68748,65700,0,28960,0,2567653858,63
i,1724817292.789424,172.16.5.2,32801,172.16.1.2,5102,12692,32000,2086,62848,65728,6,6,4,1460,117500,1,16778208,350000,74540,74540,65700,0,31856,0,2567653858,63
o,1724817292.789508,172.16.5.2,32801,172.16.1.2,5102,12692,32000,2086,62848,65728,6,6,4,1460,117812,1,16778208,350000,74540,71644,65700,0,28960,0,2567653858,63
i,1724817292.790039,172.16.5.2,32801,172.16.1.2,5102,12692,32000,2086,62848,65728,6,6,4,1460,117812,1,16778208,350000,74540,74540,65700,0,31856,0,2567653858,63
o,1724817292.790118,172.16.5.2,32801,172.16.1.2,5102,12692,32000,2086,64256,65728,6,6,4,1460,116875,1,16778208,340000,74540,71644,65700,0,28960,0,2567653858,63
i,1724817292.793612,172.16.5.2,32801,172.16.1.2,5102,12692,32000,2086,64256,65728,6,6,4,1460,116875,1,16778208,340000,74540,71644,65700,0,31856,0,2567653858,63
o,1724817292.793633,172.16.5.2,32801,172.16.1.2,5102,12692,32000,2086,64256,65728,6,6,4,1460,116250,1,16778208,340000,74540,68748,65700,0,28960,0,2567653858,63
i,1724817292.793845,172.16.5.2,32801,172.16.1.2,5102,12692,32000,2086,64256,65728,6,6,4,1460,116250,1,16778208,340000,74540,68748,65700,0,31856,0,2567653858,63
o,1724817292.793861,172.16.5.2,32801,172.16.1.2,5102,12692,32000,2086,64256,65728,6,6,4,1460,113125,1,16778208,360000,74540,65852,65700,0,28960,0,2567653858,63
i,1724817292.801609,172.16.5.2,32801,172.16.1.2,5102,12692,32000,2086,64256,65728,6,6,4,1460,113125,1,16778208,360000,74540,74540,65700,0,31856,0,2567653858,63
o,1724817292.801714,172.16.5.2,32801,172.16.1.2,5102,12692,32000,2086,64256,65728,6,6,4,1460,110312,1,16778208,370000,74540,71644,65700,0,28960,0,2567653858,63
i,1724817292.817716,172.16.5.2,32801,172.16.1.2,5102,12692,32000,2086,64256,65728,6,6,4,1460,110312,1,16778208,370000,74540,74540,65700,0,31856,0,2567653858,63
o,1724817292.817792,172.16.5.2,32801,172.16.1.2,5102,12692,32000,2086,64256,65728,6,6,4,1460,110312,1,16778208,350000,74540,71644,65700,0,28960,0,2567653858,63
i,1724817292.827035,172.16.5.2,32801,172.16.1.2,5102,12692,32000,2086,64256,65728,6,6,4,1460,110312,1,16778208,350000,74540,74540,65700,0,31856,0,2567653858,63
o,1724817292.827104,172.16.5.2,32801,172.16.1.2,5102,12692,33460,2086,62848,65728,6,6,4,1460,109062,1,16778208,350000,74540,71644,65700,0,28960,0,2567653858,63
i,1724817292.827331,172.16.5.2,32801,172.16.1.2,5102,12692,33460,2086,62848,65728,6,6,4,1460,109062,1,16778208,350000,74540,71644,65700,0,33304,0,2567653858,63
o,1724817292.827350,172.16.5.2,32801,172.16.1.2,5102,12692,33460,2086,64256,65728,6,6,4,1460,106875,1,16778208,350000,74540,68748,65700,0,30408,0,2567653858,63
i,1724817292.837815,172.16.5.2,32801,172.16.1.2,5102,12692,33460,2086,64256,65728,6,6,4,1460,106875,1,16778208,350000,74540,74540,65700,0,33304,0,2567653858,63
o,1724817292.837876,172.16.5.2,32801,172.16.1.2,5102,12692,33460,2086,64256,65728,6,6,4,1460,106250,1,16778208,350000,74540,71644,65700,0,30408,0,2567653858,63
o,1724817292.837981,172.16.5.2,32801,172.16.1.2,5102,12692,33460,2086,64256,65728,6,6,4,1460,106250,1,16778208,350000,74540,71644,65700,0,31856,0,2567653858,63
i,1724817292.838133,172.16.5.2,32801,172.16.1.2,5102,12692,33460,2086,64256,65728,6,6,4,1460,106250,1,16778208,350000,74540,71644,65700,0,33304,0,2567653858,63
o,1724817292.838149,172.16.5.2,32801,172.16.1.2,5102,12692,33460,2086,62848,65728,6,6,4,1460,103125,1,16778208,360000,74540,68748,65700,0,30408,0,2567653858,63
i,1724817292.838269,172.16.5.2,32801,172.16.1.2,5102,12692,33460,2086,62848,65728,6,6,4,1460,103125,1,16778208,360000,74540,68748,65700,0,33304,0,2567653858,63
o,1724817292.838284,172.16.5.2,32801,172.16.1.2,5102,12692,33460,2086,64256,65728,6,6,4,1460,100312,1,16778208,360000,74540,65852,65700,0,30408,0,2567653858,63
i,1724817292.886521,172.16.5.2,32801,172.16.1.2,5102,12692,33460,2086,64256,65728,6,6,4,1460,100312,1,16778208,360000,82732,82732,65700,0,33304,0,2567653858,63
o,1724817292.886602,172.16.5.2,32801,172.16.1.2,5102,12692,33460,2086,95680,65728,6,6,4,1460,100312,1,16778208,350000,82732,79836,65700,0,30408,0,2567653858,63
i,1724817292.896315,172.16.5.2,32801,172.16.1.2,5102,12692,33460,2086,95680,65728,6,6,4,1460,100312,1,16778208,350000,82732,82732,65700,0,33304,0,2567653858,63
o,1724817292.896335,172.16.5.2,32801,172.16.1.2,5102,12692,33460,2086,95680,65728,6,6,4,1460,101562,1,16778208,350000,82732,79836,65700,0,30408,0,2567653858,63
i,1724817292.898695,172.16.5.2,32801,172.16.1.2,5102,12692,33460,2086,95680,65728,6,6,4,1460,101562,1,16778208,350000,82732,82732,65700,0,33304,0,2567653858,63
o,1724817292.898717,172.16.5.2,32801,172.16.1.2,5102,12692,33460,2086,95680,65728,6,6,4,1460,101562,1,16778208,330000,82732,79836,65700,0,30408,0,2567653858,63
i,1724817292.898858,172.16.5.2,32801,172.16.1.2,5102,12692,33460,2086,95680,65728,6,6,4,1460,101562,1,16778208,330000,82732,79836,65700,0,33304,0,2567653858,63
o,1724817292.898877,172.16.5.2,32801,172.16.1.2,5102,12692,33460,2086,97152,65728,6,6,4,1460,101562,1,16778208,330000,82732,76940,65700,0,30408,0,2567653858,63
i,1724817292.907181,172.16.5.2,32801,172.16.1.2,5102,12692,33460,2086,97152,65728,6,6,4,1460,101562,1,16778208,330000,82732,82732,65700,0,33304,0,2567653858,63
o,1724817292.907242,172.16.5.2,32801,172.16.1.2,5102,12692,33460,2086,95680,65728,6,6,4,1460,102812,1,16778208,330000,82732,79836,65700,0,30408,0,2567653858,63
i,1724817292.921437,172.16.5.2,32801,172.16.1.2,5102,12692,33460,2086,95680,65728,6,6,4,1460,102812,1,16778208,330000,82732,82732,65700,0,33304,0,2567653858,63
o,1724817292.921509,172.16.5.2,32801,172.16.1.2,5102,12692,33460,2086,95680,65728,6,6,4,1460,102500,1,16778208,330000,82732,79836,65700,0,30408,0,2567653858,63
i,1724817292.930761,172.16.5.2,32801,172.16.1.2,5102,12692,33460,2086,95680,65728,6,6,4,1460,102500,1,16778208,330000,82732,82732,65700,0,33304,0,2567653858,63
o,1724817292.930832,172.16.5.2,32801,172.16.1.2,5102,12692,33460,2086,95680,65728,6,6,4,1460,102187,1,16778208,320000,82732,79836,65700,0,30408,0,2567653858,63
i,1724817292.941480,172.16.5.2,32801,172.16.1.2,5102,12692,33460,2086,95680,65728,6,6,4,1460,102187,1,16778208,320000,82732,82732,65700,0,33304,0,2567653858,63
o,1724817292.941563,172.16.5.2,32801,172.16.1.2,5102,12692,34920,2086,97152,65728,6,6,4,1460,103437,1,16778208,330000,82732,79836,65700,0,30408,0,2567653858,63
i,1724817292.941793,172.16.5.2,32801,172.16.1.2,5102,12692,34920,2086,97152,65728,6,6,4,1460,103437,1,16778208,330000,82732,79836,65700,0,34752,0,2567653858,63
o,1724817292.941815,172.16.5.2,32801,172.16.1.2,5102,12692,34920,2086,94272,65728,6,6,4,1460,104375,1,16778208,330000,82732,76940,65700,0,31856,0,2567653858,63
o,1724817292.942008,172.16.5.2,32801,172.16.1.2,5102,12692,34920,2086,94272,65728,6,6,4,1460,104375,1,16778208,330000,82732,76940,65700,0,33304,0,2567653858,63
i,1724817292.943498,172.16.5.2,32801,172.16.1.2,5102,12692,34920,2086,94272,65728,6,6,4,1460,104375,1,16778208,330000,82732,82732,65700,0,34752,0,2567653858,63
o,1724817292.943517,172.16.5.2,32801,172.16.1.2,5102,12692,34920,2086,97152,65728,6,6,4,1460,104062,1,16778208,320000,82732,79836,65700,0,31856,0,2567653858,63
i,1724817292.950142,172.16.5.2,32801,172.16.1.2,5102,12692,34920,2086,97152,65728,6,6,4,1460,104062,1,16778208,320000,82732,82732,65700,0,34752,0,2567653858,63
o,1724817292.950211,172.16.5.2,32801,172.16.1.2,5102,12692,34920,2086,95680,65728,6,6,4,1460,103750,1,16778208,320000,82732,79836,65700,0,31856,0,2567653858,63
i,1724817292.989166,172.16.5.2,32801,172.16.1.2,5102,12692,34920,2086,95680,65728,6,6,4,1460,103750,1,16778208,320000,82732,82732,65700,0,34752,0,2567653858,63
o,1724817292.989183,172.16.5.2,32801,172.16.1.2,5102,12692,34920,2086,97152,65728,6,6,4,1460,109687,1,16778208,370000,82732,79836,65700,0,31856,0,2567653858,63
i,1724817292.998332,172.16.5.2,32801,172.16.1.2,5102,12692,34920,2086,97152,65728,6,6,4,1460,109687,1,16778208,370000,82732,82732,65700,0,34752,0,2567653858,63
o,1724817292.998350,172.16.5.2,32801,172.16.1.2,5102,12692,34920,2086,97152,65728,6,6,4,1460,110000,1,16778208,360000,82732,79836,65700,0,31856,0,2567653858,63
i,1724817292.998516,172.16.5.2,32801,172.16.1.2,5102,12692,34920,2086,97152,65728,6,6,4,1460,110000,1,16778208,360000,82732,79836,65700,0,34752,0,2567653858,63
o,1724817292.998538,172.16.5.2,32801,172.16.1.2,5102,12692,34920,2086,97152,65728,6,6,4,1460,108750,1,16778208,350000,82732,76940,65700,0,31856,0,2567653858,63
i,1724817292.998723,172.16.5.2,32801,172.16.1.2,5102,12692,34920,2086,97152,65728,6,6,4,1460,108750,1,16778208,350000,82732,76940,65700,0,34752,0,2567653858,63
o,1724817292.998743,172.16.5.2,32801,172.16.1.2,5102,12692,34920,2086,94272,65728,6,6,4,1460,107812,1,16778208,350000,82732,74044,65700,0,31856,0,2567653858,63
i,1724817293.009521,172.16.5.2,32801,172.16.1.2,5102,12692,34920,2086,94272,65728,6,6,4,1460,107812,1,16778208,350000,82732,82732,65700,0,34752,0,2567653858,63
o,1724817293.009596,172.16.5.2,32801,172.16.1.2,5102,12692,34920,2086,97152,65728,6,6,4,1460,108125,1,16778208,340000,82732,79836,65700,0,31856,0,2567653858,63
i,1724817293.027090,172.16.5.2,32801,172.16.1.2,5102,12692,34920,2086,97152,65728,6,6,4,1460,108125,1,16778208,340000,82732,82732,65700,0,34752,0,2567653858,63
o,1724817293.027169,172.16.5.2,32801,172.16.1.2,5102,12692,34920,2086,97152,65728,6,6,4,1460,109687,1,16778208,350000,82732,79836,65700,0,31856,0,2567653858,63
i,1724817293.043609,172.16.5.2,32801,172.16.1.2,5102,12692,34920,2086,97152,65728,6,6,4,1460,109687,1,16778208,350000,82732,82732,65700,0,34752,0,2567653858,63
o,1724817293.043631,172.16.5.2,32801,172.16.1.2,5102,12692,34920,2086,97152,65728,6,6,4,1460,111250,1,16778208,350000,82732,79836,65700,0,31856,0,2567653858,63
i,1724817293.043797,172.16.5.2,32801,172.16.1.2,5102,12692,34920,2086,97152,65728,6,6,4,1460,111250,1,16778208,350000,82732,79836,65700,0,34752,0,2567653858,63
o,1724817293.043815,172.16.5.2,32801,172.16.1.2,5102,12692,34920,2086,97152,65728,6,6,4,1460,111250,1,16778208,340000,82732,76940,65700,0,31856,0,2567653858,63
i,1724817293.043966,172.16.5.2,32801,172.16.1.2,5102,12692,34920,2086,97152,65728,6,6,4,1460,111250,1,16778208,340000,82732,76940,65700,0,34752,0,2567653858,63
o,1724817293.043981,172.16.5.2,32801,172.16.1.2,5102,12692,36380,2086,97152,65728,6,6,4,1460,110000,1,16778208,340000,82732,74044,65700,0,31856,0,2567653858,63
