enable_time_secs=1724818159	enable_time_usecs=053252	siftrver=1.3.0	sysname=FreeBSD	sysver=1401000	ipmode=4
o,1724818159.053844,10.0.2.15,22,10.0.2.2,51098,1073725440,17746,1026,65535,65700,0,0,4,1460,312,0,16777220,240000,33580,68,65700,0,0,0,2848403908,63
o,1724818159.054093,10.0.2.15,22,10.0.2.2,51098,1073725440,17746,1026,65535,65700,0,0,4,1460,312,0,16777220,240000,33580,244,65700,0,68,0,2848403908,63
i,1724818159.055168,10.0.2.15,22,10.0.2.2,51098,1073725440,17746,1026,65535,65700,0,0,4,1460,312,0,16777220,240000,33580,244,65700,0,244,0,2848403908,63
i,1724818159.055224,10.0.2.15,22,10.0.2.2,51098,1073725440,17814,1026,65535,65700,0,0,4,1460,312,0,4,240000,33580,176,65700,0,176,0,2848403908,63
i,1724818159.055303,10.0.2.15,22,10.0.2.2,51098,1073725440,17990,1026,65535,65700,0,0,4,1460,312,0,4,240000,33580,0,65700,0,0,0,2848403908,63
i,1724818159.055336,10.0.2.15,22,10.0.2.2,51098,1073725440,17990,1026,65535,65700,0,0,4,1460,312,0,4,240000,33580,0,65700,96,0,0,2848403908,63
o,1724818159.055353,10.0.2.15,22,10.0.2.2,51098,1073725440,17990,1026,65535,65604,0,0,5,1460,312,0,5,240000,33580,0,65700,96,0,0,2848403908,63
o,1724818159.055906,10.0.2.15,22,10.0.2.2,51098,1073725440,17990,1026,65535,65604,0,0,8,1460,312,0,4,240000,33580,0,65700,0,0,0,2848403908,63
i,1724818159.056321,10.0.2.15,22,10.0.2.2,51098,1073725440,17990,1026,65535,65604,0,0,8,1460,312,0,67108884,240000,33580,0,65700,0,1,0,2848403908,63
i,1724818162.179006,10.0.2.15,22,10.0.2.2,51188,1073725440,14600,0,65535,65700,0,0,4,1460,312,0,16777216,270000,33580,0,65700,0,0,0,182997508,63
o,1724818162.194531,10.0.2.15,22,10.0.2.2,51188,1073725440,14600,1026,65535,65700,0,0,4,1460,312,0,16777216,270000,33580,38,65700,42,0,0,182997508,63
i,1724818162.195379,10.0.2.15,22,10.0.2.2,51188,1073725440,14600,1026,65535,65700,0,0,4,1460,312,0,16777216,270000,33580,38,65700,0,38,0,182997508,63
i,1724818162.196265,10.0.2.15,22,10.0.2.2,51188,1073725440,14638,1026,65535,65700,0,0,4,1460,312,0,0,240000,33580,0,65700,0,0,0,182997508,63
i,1724818162.196284,10.0.2.15,22,10.0.2.2,51188,1073725440,14638,1026,65535,65700,0,0,4,1460,312,0,0,240000,33580,0,65700,1460,0,0,182997508,63
o,1724818162.196303,10.0.2.15,22,10.0.2.2,51188,1073725440,14638,1026,65535,65700,0,0,4,1460,312,0,1,240000,33580,0,65700,1536,0,0,182997508,63
o,1724818162.196581,10.0.2.15,22,10.0.2.2,51188,1073725440,14638,1026,65535,65700,0,0,4,1460,312,0,16777216,240000,33580,1120,65700,1536,0,0,182997508,63
i,1724818162.197478,10.0.2.15,22,10.0.2.2,51188,1073725440,14638,1026,65535,65700,0,0,4,1460,312,0,16777216,240000,33580,1120,65700,0,1120,0,182997508,63
i,1724818162.198494,10.0.2.15,22,10.0.2.2,51188,1073725440,15758,1026,65535,65700,0,0,4,1460,312,0,0,240000,33580,0,65700,0,0,0,182997508,63
o,1724818162.201583,10.0.2.15,22,10.0.2.2,51188,1073725440,15758,1026,65535,65700,0,0,4,1460,312,0,16777216,240000,33580,492,65700,0,0,0,182997508,63
i,1724818162.201774,10.0.2.15,22,10.0.2.2,51188,1073725440,15758,1026,65535,65700,0,0,4,1460,312,0,16777216,240000,33580,492,65700,0,492,0,182997508,63
i,1724818162.206265,10.0.2.15,22,10.0.2.2,51188,1073725440,16250,1026,65535,65700,0,0,4,1460,312,0,0,240000,33580,0,65700,0,0,0,182997508,63
i,1724818162.206283,10.0.2.15,22,10.0.2.2,51188,1073725440,16250,1026,65535,65700,0,0,4,1460,312,0,0,240000,33580,0,65700,16,0,0,182997508,63
o,1724818162.206301,10.0.2.15,22,10.0.2.2,51188,1073725440,16250,1026,65535,65700,0,0,4,1460,312,0,1,240000,33580,0,65700,60,0,0,182997508,63
o,1724818162.206448,10.0.2.15,22,10.0.2.2,51188,1073725440,16250,1026,65535,65700,0,0,4,1460,312,0,16777216,240000,33580,44,65700,0,0,0,182997508,63
i,1724818162.207306,10.0.2.15,22,10.0.2.2,51188,1073725440,16250,1026,65535,65700,0,0,4,1460,312,0,16777216,240000,33580,44,65700,0,44,0,182997508,63
i,1724818162.207325,10.0.2.15,22,10.0.2.2,51188,1073725440,16294,1026,65535,65700,0,0,4,1460,312,0,0,240000,33580,0,65700,0,0,0,182997508,63
o,1724818162.208983,10.0.2.15,22,10.0.2.2,51188,1073725440,16294,1026,65535,65700,0,0,4,1460,312,0,16777216,240000,33580,68,65700,0,0,0,182997508,63
i,1724818162.209501,10.0.2.15,22,10.0.2.2,51188,1073725440,16294,1026,65535,65700,0,0,4,1460,312,0,16777216,240000,33580,68,65700,0,68,0,182997508,63
i,1724818162.209549,10.0.2.15,22,10.0.2.2,51188,1073725440,16362,1026,65535,65700,0,0,4,1460,312,0,0,240000,33580,0,65700,0,0,0,182997508,63
o,1724818162.211416,10.0.2.15,22,10.0.2.2,51188,1073725440,16362,1026,65535,65700,0,0,4,1460,312,0,16777216,240000,33580,332,65700,0,0,0,182997508,63
i,1724818162.212145,10.0.2.15,22,10.0.2.2,51188,1073725440,16362,1026,65535,65700,0,0,4,1460,312,0,16777216,240000,33580,332,65700,0,332,0,182997508,63
i,1724818162.213532,10.0.2.15,22,10.0.2.2,51188,1073725440,16694,1026,65535,65700,0,0,4,1460,312,0,0,240000,33580,0,65700,0,0,0,182997508,63
o,1724818162.230290,10.0.2.15,22,10.0.2.2,51188,1073725440,16694,1026,65535,65700,0,0,4,1460,312,0,16777216,240000,33580,28,65700,0,0,0,182997508,63
i,1724818162.230888,10.0.2.15,22,10.0.2.2,51188,1073725440,16694,1026,65535,65700,0,0,4,1460,312,0,16777216,240000,33580,28,65700,0,28,0,182997508,63
i,1724818162.230908,10.0.2.15,22,10.0.2.2,51188,1073725440,16722,1026,65535,65700,0,0,4,1460,312,0,0,240000,33580,0,65700,0,0,0,182997508,63
o,1724818162.232585,10.0.2.15,22,10.0.2.2,51188,1073725440,16722,1026,65535,65700,0,0,4,1460,312,0,16777216,240000,33580,768,65700,112,0,0,182997508,63
i,1724818162.233578,10.0.2.15,22,10.0.2.2,51188,1073725440,16722,1026,65535,65700,0,0,4,1460,312,0,16777216,240000,33580,908,65700,112,768,0,182997508,63
o,1724818162.233578,10.0.2.15,22,10.0.2.2,51188,1073725440,17490,1026,65535,65700,0,0,4,1460,312,0,16777216,230000,33580,140,65700,112,0,0,182997508,63
i,1724818162.234332,10.0.2.15,22,10.0.2.2,51188,1073725440,17490,1026,65535,65700,0,0,4,1460,312,0,16777216,230000,33580,140,65700,112,140,0,182997508,63
o,1724818162.234522,10.0.2.15,22,10.0.2.2,51188,1073725440,17630,1026,65535,65700,0,0,4,1460,312,0,16777216,230000,33580,44,65700,0,0,0,182997508,63
i,1724818162.235003,10.0.2.15,22,10.0.2.2,51188,1073725440,17630,1026,65535,65700,0,0,4,1460,312,0,16777216,230000,33580,44,65700,0,44,0,182997508,63
i,1724818162.235029,10.0.2.15,22,10.0.2.2,51188,1073725440,17674,1026,65535,65700,0,0,4,1460,312,0,0,230000,33580,0,65700,0,0,0,182997508,63
o,1724818162.235588,10.0.2.15,22,10.0.2.2,51188,1073725440,17674,1026,65535,65700,0,0,4,1460,312,0,16777220,230000,33580,72,65700,0,0,0,182997508,63
i,1724818162.236052,10.0.2.15,22,10.0.2.2,51188,1073725440,17674,1026,65535,65700,0,0,4,1460,312,0,16777220,230000,33580,72,65700,0,72,0,182997508,63
o,1724818162.239501,10.0.2.15,22,10.0.2.2,51188,1073725440,17746,1026,65535,65700,0,0,4,1460,312,0,16777220,230000,33580,104,65700,0,0,0,182997508,63
i,1724818162.239954,10.0.2.15,22,10.0.2.2,51188,1073725440,17746,1026,65535,65700,0,0,4,1460,312,0,16777220,230000,33580,104,65700,0,104,0,182997508,63
o,1724818162.247781,10.0.2.15,22,10.0.2.2,51188,1073725440,17850,1026,65535,65700,0,0,4,1460,312,0,16777220,240000,33580,72,65700,0,0,0,182997508,63
i,1724818162.249360,10.0.2.15,22,10.0.2.2,51188,1073725440,17850,1026,65535,65700,0,0,4,1460,312,0,16777220,240000,33580,72,65700,0,72,0,182997508,63
i,1724818162.249449,10.0.2.15,22,10.0.2.2,51188,1073725440,17922,1026,65535,65700,0,0,4,1460,312,0,4,240000,33580,0,65700,0,0,0,182997508,63
i,1724818162.249537,10.0.2.15,22,10.0.2.2,51188,1073725440,17922,1026,65535,65700,0,0,4,1460,312,0,4,240000,33580,0,65700,96,0,0,182997508,63
o,1724818162.249567,10.0.2.15,22,10.0.2.2,51188,1073725440,17922,1026,65535,65604,0,0,5,1460,312,0,5,240000,33580,0,65700,96,0,0,182997508,63
o,1724818162.253965,10.0.2.15,22,10.0.2.2,51188,1073725440,17922,1026,65535,65604,0,0,8,1460,312,0,4,240000,33580,0,65700,0,0,0,182997508,63
i,1724818162.255754,10.0.2.15,22,10.0.2.2,51188,1073725440,17922,1026,65535,65604,0,0,8,1460,312,0,67108884,240000,33580,0,65700,0,1,0,182997508,63
i,1724818163.287877,10.0.2.15,22,10.0.2.2,51192,1073725440,14600,0,65535,65700,0,0,4,1460,312,0,16777216,270000,33580,0,65700,0,0,0,1990597385,63
o,1724818163.301370,10.0.2.15,22,10.0.2.2,51192,1073725440,14600,1026,65535,65700,0,0,4,1460,312,0,16777216,270000,33580,38,65700,42,0,0,1990597385,63
i,1724818163.301744,10.0.2.15,22,10.0.2.2,51192,1073725440,14600,1026,65535,65700,0,0,4,1460,312,0,16777216,270000,33580,38,65700,0,38,0,1990597385,63
i,1724818163.302099,10.0.2.15,22,10.0.2.2,51192,1073725440,14638,1026,65535,65700,0,0,4,1460,312,0,0,240000,33580,0,65700,0,0,0,1990597385,63
i,1724818163.302118,10.0.2.15,22,10.0.2.2,51192,1073725440,14638,1026,65535,65700,0,0,4,1460,312,0,0,240000,33580,0,65700,1460,0,0,1990597385,63
o,1724818163.302136,10.0.2.15,22,10.0.2.2,51192,1073725440,14638,1026,65535,65700,0,0,4,1460,312,0,1,240000,33580,0,65700,1536,0,0,1990597385,63
o,1724818163.302990,10.0.2.15,22,10.0.2.2,51192,1073725440,14638,1026,65535,65700,0,0,4,1460,312,0,16777216,240000,33580,1120,65700,1536,0,0,1990597385,63
i,1724818163.303943,10.0.2.15,22,10.0.2.2,51192,1073725440,14638,1026,65535,65700,0,0,4,1460,312,0,16777216,240000,33580,1120,65700,0,1120,0,1990597385,63
i,1724818163.304917,10.0.2.15,22,10.0.2.2,51192,1073725440,15758,1026,65535,65700,0,0,4,1460,312,0,0,240000,33580,0,65700,0,0,0,1990597385,63
o,1724818163.308127,10.0.2.15,22,10.0.2.2,51192,1073725440,15758,1026,65535,65700,0,0,4,1460,312,0,16777216,240000,33580,492,65700,0,0,0,1990597385,63
i,1724818163.309120,10.0.2.15,22,10.0.2.2,51192,1073725440,15758,1026,65535,65700,0,0,4,1460,312,0,16777216,240000,33580,492,65700,0,492,0,1990597385,63
i,1724818163.313051,10.0.2.15,22,10.0.2.2,51192,1073725440,16250,1026,65535,65700,0,0,4,1460,312,0,0,240000,33580,0,65700,0,0,0,1990597385,63
i,1724818163.313070,10.0.2.15,22,10.0.2.2,51192,1073725440,16250,1026,65535,65700,0,0,4,1460,312,0,0,240000,33580,0,65700,16,0,0,1990597385,63
o,1724818163.313086,10.0.2.15,22,10.0.2.2,51192,1073725440,16250,1026,65535,65700,0,0,4,1460,312,0,1,240000,33580,0,65700,60,0,0,1990597385,63
o,1724818163.313254,10.0.2.15,22,10.0.2.2,51192,1073725440,16250,1026,65535,65700,0,0,4,1460,312,0,16777216,240000,33580,44,65700,0,0,0,1990597385,63
i,1724818163.314021,10.0.2.15,22,10.0.2.2,51192,1073725440,16250,1026,65535,65700,0,0,4,1460,312,0,16777216,240000,33580,44,65700,0,44,0,1990597385,63
i,1724818163.314045,10.0.2.15,22,10.0.2.2,51192,1073725440,16294,1026,65535,65700,0,0,4,1460,312,0,0,240000,33580,0,65700,0,0,0,1990597385,63
o,1724818163.315606,10.0.2.15,22,10.0.2.2,51192,1073725440,16294,1026,65535,65700,0,0,4,1460,312,0,16777216,240000,33580,68,65700,0,0,0,1990597385,63
i,1724818163.316045,10.0.2.15,22,10.0.2.2,51192,1073725440,16294,1026,65535,65700,0,0,4,1460,312,0,16777216,240000,33580,68,65700,0,68,0,1990597385,63
i,1724818163.316066,10.0.2.15,22,10.0.2.2,51192,1073725440,16362,1026,65535,65700,0,0,4,1460,312,0,0,240000,33580,0,65700,0,0,0,1990597385,63
o,1724818163.318213,10.0.2.15,22,10.0.2.2,51192,1073725440,16362,1026,65535,65700,0,0,4,1460,312,0,16777216,240000,33580,332,65700,0,0,0,1990597385,63
i,1724818163.318975,10.0.2.15,22,10.0.2.2,51192,1073725440,16362,1026,65535,65700,0,0,4,1460,312,0,16777216,240000,33580,332,65700,0,332,0,1990597385,63
i,1724818163.320338,10.0.2.15,22,10.0.2.2,51192,1073725440,16694,1026,65535,65700,0,0,4,1460,312,0,0,240000,33580,0,65700,0,0,0,1990597385,63
o,1724818163.336884,10.0.2.15,22,10.0.2.2,51192,1073725440,16694,1026,65535,65700,0,0,4,1460,312,0,16777216,240000,33580,28,65700,0,0,0,1990597385,63
i,1724818163.337609,10.0.2.15,22,10.0.2.2,51192,1073725440,16694,1026,65535,65700,0,0,4,1460,312,0,16777216,240000,33580,28,65700,0,28,0,1990597385,63
i,1724818163.337907,10.0.2.15,22,10.0.2.2,51192,1073725440,16722,1026,65535,65700,0,0,4,1460,312,0,0,240000,33580,0,65700,0,0,0,1990597385,63
o,1724818163.339354,10.0.2.15,22,10.0.2.2,51192,1073725440,16722,1026,65535,65700,0,0,4,1460,312,0,16777216,240000,33580,768,65700,112,0,0,1990597385,63
i,1724818163.339695,10.0.2.15,22,10.0.2.2,51192,1073725440,16722,1026,65535,65700,0,0,4,1460,312,0,16777216,240000,33580,908,65700,112,768,0,1990597385,63
o,1724818163.339717,10.0.2.15,22,10.0.2.2,51192,1073725440,17490,1026,65535,65700,0,0,4,1460,312,0,16777216,240000,33580,140,65700,112,0,0,1990597385,63
i,1724818163.340068,10.0.2.15,22,10.0.2.2,51192,1073725440,17490,1026,65535,65700,0,0,4,1460,312,0,16777216,240000,33580,140,65700,112,140,0,1990597385,63
o,1724818163.341181,10.0.2.15,22,10.0.2.2,51192,1073725440,17630,1026,65535,65700,0,0,4,1460,312,0,16777216,240000,33580,44,65700,0,0,0,1990597385,63
i,1724818163.341971,10.0.2.15,22,10.0.2.2,51192,1073725440,17630,1026,65535,65700,0,0,4,1460,312,0,16777216,240000,33580,44,65700,0,44,0,1990597385,63
i,1724818163.341991,10.0.2.15,22,10.0.2.2,51192,1073725440,17674,1026,65535,65700,0,0,4,1460,312,0,0,240000,33580,0,65700,0,0,0,1990597385,63
o,1724818163.342467,10.0.2.15,22,10.0.2.2,51192,1073725440,17674,1026,65535,65700,0,0,4,1460,312,0,16777220,240000,33580,72,65700,0,0,0,1990597385,63
i,1724818163.343106,10.0.2.15,22,10.0.2.2,51192,1073725440,17674,1026,65535,65700,0,0,4,1460,312,0,16777220,240000,33580,72,65700,0,72,0,1990597385,63
o,1724818163.439084,172.16.5.2,51193,172.16.1.2,5102,15198,14480,2082,65535,65700,6,6,4,1460,258750,1,16778209,810000,33580,0,65700,0,0,0,1064242210,63
o,1724818163.439254,172.16.5.2,51193,172.16.1.2,5102,15198,14480,2082,65535,65700,6,6,4,1460,258750,1,16778212,810000,33580,37,65700,0,0,0,1064242210,63
i,1724818163.532916,172.16.5.2,51193,172.16.1.2,5102,15198,14480,2082,65535,65700,6,6,4,1460,258750,1,16778212,810000,33580,37,65700,0,37,0,1064242210,63
o,1724818163.533225,172.16.5.2,51193,172.16.1.2,5102,15198,14517,3106,65728,65728,6,6,4,1460,237812,1,16778212,870000,33580,4,65700,0,0,0,1064242210,63
o,1724818163.533522,172.16.5.2,51193,172.16.1.2,5102,15198,14517,3106,65728,65728,6,6,4,1460,237812,1,16778212,870000,33580,130,65700,0,4,0,1064242210,63
i,1724818163.611174,172.16.5.2,51193,172.16.1.2,5102,15198,14517,3106,65728,65728,6,6,4,1460,237812,1,16778212,870000,33580,130,65700,0,130,0,1064242210,63
i,1724818163.611249,172.16.5.2,51193,172.16.1.2,5102,15198,14647,3106,65600,65728,6,6,4,1460,218125,1,996,900000,33580,0,65700,0,0,0,1064242210,63
o,1724818163.664208,172.16.5.2,51193,172.16.1.2,5102,15198,14647,3106,65728,65728,6,6,4,1460,218125,1,997,900000,33580,0,65700,0,0,0,1064242210,63
o,1724818163.696278,172.16.5.2,37993,172.16.1.2,5102,15198,14480,2082,65535,65700,6,6,4,1460,258750,1,16778209,810000,33580,0,65700,0,0,0,47147293,63
o,1724818163.696505,172.16.5.2,37993,172.16.1.2,5102,15198,14480,2082,65535,65700,6,6,4,1460,258750,1,16778208,810000,33580,37,65700,0,0,0,47147293,63
i,1724818163.787039,172.16.5.2,51193,172.16.1.2,5102,15198,14647,3106,65728,65728,6,6,4,1460,218125,1,996,900000,33580,0,65700,0,0,0,1064242210,63
i,1724818163.787079,172.16.5.2,51193,172.16.1.2,5102,15198,14647,3106,65728,65728,6,6,4,1460,218125,1,996,900000,33580,0,65700,1,0,0,1064242210,63
o,1724818163.787097,172.16.5.2,51193,172.16.1.2,5102,15198,14647,3106,65728,65728,6,6,4,1460,218125,1,997,900000,33580,0,65700,2,0,0,1064242210,63
o,1724818163.787840,172.16.5.2,37993,172.16.1.2,5102,15198,14480,2086,65535,65700,6,6,4,1460,258750,1,16778208,810000,33580,33580,65700,0,37,0,47147293,63
i,1724818163.884318,172.16.5.2,37993,172.16.1.2,5102,15198,14480,2086,65535,65700,6,6,4,1460,258750,1,16778208,810000,33580,33580,65700,0,13069,0,47147293,63
o,1724818163.884417,172.16.5.2,37993,172.16.1.2,5102,15198,14517,2086,65728,65728,6,6,4,1460,250312,1,16778208,780000,33580,33543,65700,0,13032,0,47147293,63
i,1724818164.158668,172.16.5.2,37993,172.16.1.2,5102,15198,14517,2086,65728,65728,6,6,4,1460,250312,1,16778208,780000,33580,33543,65700,0,14480,0,47147293,63
o,1724818164.158764,172.16.5.2,37993,172.16.1.2,5102,15198,17413,2086,64256,65728,6,6,4,1460,265312,1,16778208,840000,33580,30647,65700,0,11584,0,47147293,63
i,1724818164.224160,172.16.5.2,37993,172.16.1.2,5102,15198,17413,2086,64256,65728,6,6,4,1460,265312,1,16778208,840000,41772,41772,65700,0,17376,0,47147293,63
o,1724818164.224263,172.16.5.2,37993,172.16.1.2,5102,15198,17413,2086,65728,65728,6,6,4,1460,285937,1,16778208,930000,41772,40324,65700,0,15928,0,47147293,63
i,1724818164.280435,172.16.5.2,37993,172.16.1.2,5102,15198,17413,2086,65728,65728,6,6,4,1460,285937,1,16778208,930000,41772,40324,65700,0,17376,0,47147293,63
o,1724818164.280522,172.16.5.2,37993,172.16.1.2,5102,15198,17413,2086,64256,65728,6,6,4,1460,311562,1,16778208,1050000,41772,37428,65700,0,14480,0,47147293,63
i,1724818164.353945,172.16.5.2,37993,172.16.1.2,5102,15198,17413,2086,64256,65728,6,6,4,1460,311562,1,16778208,1050000,41772,41772,65700,0,17376,0,47147293,63
o,1724818164.353973,172.16.5.2,37993,172.16.1.2,5102,15198,17413,2086,64256,65728,6,6,4,1460,342812,1,16778208,1200000,41772,38876,65700,0,14480,0,47147293,63
i,1724818164.410202,172.16.5.2,37993,172.16.1.2,5102,15198,17413,2086,64256,65728,6,6,4,1460,342812,1,16778208,1200000,41772,41772,65700,0,17376,0,47147293,63
o,1724818164.410233,172.16.5.2,37993,172.16.1.2,5102,15198,17413,2086,64256,65728,6,6,4,1460,377500,1,16778208,1350000,41772,38876,65700,0,14480,0,47147293,63
i,1724818164.461252,172.16.5.2,37993,172.16.1.2,5102,15198,17413,2086,64256,65728,6,6,4,1460,377500,1,16778208,1350000,41772,41772,65700,0,17376,0,47147293,63
o,1724818164.461329,172.16.5.2,37993,172.16.1.2,5102,15198,17413,2086,65728,65728,6,6,4,1460,401562,1,16778208,1370000,41772,40324,65700,0,15928,0,47147293,63
i,1724818164.683405,172.16.5.2,37993,172.16.1.2,5102,15198,17413,2086,65728,65728,6,6,4,1460,401562,1,16778208,1370000,41772,40324,65700,0,17376,0,47147293,63
o,1724818164.683455,172.16.5.2,37993,172.16.1.2,5102,15198,17413,2086,65728,65728,6,6,4,1460,416562,1,16778208,1310000,41772,38876,65700,0,15928,0,47147293,63
i,1724818164.707567,172.16.5.2,37993,172.16.1.2,5102,15198,17413,2086,65728,65728,6,6,4,1460,416562,1,16778208,1310000,41772,41772,65700,0,17376,0,47147293,63
o,1724818164.707587,172.16.5.2,37993,172.16.1.2,5102,15198,18824,2082,65728,65728,6,6,4,1460,416562,1,16778208,1310000,41772,41772,65700,0,17376,0,47147293,63
i,1724818164.782640,172.16.5.2,37993,172.16.1.2,5102,15198,17413,2082,65728,65728,6,6,4,1460,416562,1,16778208,1310000,41772,41772,65700,0,18824,0,47147293,63
o,1724818164.782713,172.16.5.2,37993,172.16.1.2,5102,15198,20272,2082,65728,65728,6,6,4,1460,416562,1,16778208,1310000,41772,41772,65700,0,18824,0,47147293,63
i,1724818164.815971,172.16.5.2,37993,172.16.1.2,5102,15198,17413,2082,65728,65728,6,6,4,1460,416562,1,16778208,1310000,41772,41772,65700,0,20272,0,47147293,63
o,1724818164.816003,172.16.5.2,37993,172.16.1.2,5102,8706,1448,2146,65728,65728,6,6,4,1460,416562,1,554697696,1310000,41772,41772,65700,0,20272,0,47147293,63
i,1724818164.835846,172.16.5.2,37993,172.16.1.2,5102,8706,1448,2146,65728,65728,6,6,4,1460,416562,1,554697696,1310000,41772,41772,65700,0,20272,0,47147293,63
i,1724818164.855846,172.16.5.2,37993,172.16.1.2,5102,8706,1448,2146,65728,65728,6,6,4,1460,416562,1,554697696,1310000,41772,41772,65700,0,20272,0,47147293,63
o,1724818164.855868,172.16.5.2,37993,172.16.1.2,5102,8706,2896,2146,65728,65728,6,6,4,1460,416562,1,554697696,1310000,41772,41772,65700,0,20272,0,47147293,63
i,1724818164.916643,172.16.5.2,37993,172.16.1.2,5102,8706,2896,2146,65728,65728,6,6,4,1460,416562,1,554697696,1310000,41772,41772,65700,0,20272,0,47147293,63
i,1724818165.046049,172.16.5.2,37993,172.16.1.2,5102,8706,2896,2146,65728,65728,6,6,4,1460,416562,1,537920480,1310000,41772,41772,65700,0,20272,0,47147293,63
o,1724818165.046079,172.16.5.2,37993,172.16.1.2,5102,8706,4344,2146,65728,65728,6,6,4,1460,416562,1,554697696,1310000,41772,41772,65700,0,20272,0,47147293,63
i,1724818165.070650,172.16.5.2,37993,172.16.1.2,5102,8706,4344,2146,65728,65728,6,6,4,1460,416562,1,554697696,1310000,41772,41772,65700,0,20272,0,47147293,63
o,1724818165.070679,172.16.5.2,37993,172.16.1.2,5102,8706,2896,2146,65728,65728,6,6,4,1460,416562,1,554697697,1310000,41772,41772,65700,0,20272,0,47147293,63
i,1724818165.089996,172.16.5.2,37993,172.16.1.2,5102,8706,2896,2146,61440,65728,6,6,4,1460,395937,1,554697696,1280000,41772,41772,65700,0,15928,0,47147293,63
o,1724818165.090040,172.16.5.2,37993,172.16.1.2,5102,8706,2896,2146,61440,65728,6,6,4,1460,395937,1,554697697,1280000,41772,41772,65700,0,15928,0,47147293,63
i,1724818165.182177,172.16.5.2,37993,172.16.1.2,5102,8706,2896,2146,61376,65728,6,6,4,1460,375312,1,554697696,1250000,41772,41772,65700,0,11584,0,47147293,63
o,1724818165.182223,172.16.5.2,37993,172.16.1.2,5102,8706,1448,2146,61376,65728,6,6,4,1460,375312,1,537920481,1250000,41772,41772,65700,0,11584,0,47147293,63
i,1724818165.220607,172.16.5.2,37993,172.16.1.2,5102,8706,1448,2146,64256,65728,6,6,4,1460,344687,1,537920480,1300000,41772,40324,65700,0,10136,0,47147293,63
o,1724818165.220644,172.16.5.2,37993,172.16.1.2,5102,8706,1448,2146,64256,65728,6,6,4,1460,344687,1,554697697,1300000,41772,40324,65700,0,10136,0,47147293,63
i,1724818165.299591,172.16.5.2,37993,172.16.1.2,5102,8706,1448,2146,62848,65728,6,6,4,1460,318125,1,554697696,1300000,41772,41772,65700,0,7240,0,47147293,63
o,1724818165.299618,172.16.5.2,37993,172.16.1.2,5102,8706,2896,2146,62848,65728,6,6,4,1460,318125,1,554697697,1300000,41772,41772,65700,0,7240,0,47147293,63
o,1724818165.299757,172.16.5.2,37993,172.16.1.2,5102,8706,2896,2082,62848,65728,6,6,4,1460,318125,1,554697696,1300000,41772,41772,65700,0,7240,0,47147293,63
i,1724818165.376857,172.16.5.2,37993,172.16.1.2,5102,8706,2896,2082,62848,65728,6,6,4,1460,288437,1,554697696,1310000,41772,41772,65700,0,5792,0,47147293,63
o,1724818165.376889,172.16.5.2,37993,172.16.1.2,5102,8706,4344,2082,62848,65728,6,6,4,1460,288437,1,554697697,1310000,41772,41772,65700,0,5792,0,47147293,63
o,1724818165.377028,172.16.5.2,37993,172.16.1.2,5102,8706,4344,2082,62848,65728,6,6,4,1460,288437,1,554697696,1310000,41772,41772,65700,0,5792,0,47147293,63
i,1724818165.396882,172.16.5.2,37993,172.16.1.2,5102,8706,4344,2082,62848,65728,6,6,4,1460,262500,1,554697696,1290000,41772,41772,65700,0,4344,0,47147293,63
o,1724818165.396904,172.16.5.2,37993,172.16.1.2,5102,8706,7240,2082,62848,65728,6,6,4,1460,262500,1,554697696,1290000,41772,41772,65700,0,4344,0,47147293,63
o,1724818165.397034,172.16.5.2,37993,172.16.1.2,5102,8706,7240,2082,62848,65728,6,6,4,1460,262500,1,554697696,1290000,41772,41772,65700,0,4344,0,47147293,63
i,1724818165.484854,172.16.5.2,37993,172.16.1.2,5102,8706,7240,2082,62848,65728,6,6,4,1460,262500,1,554697696,1290000,41772,41772,65700,0,5792,0,47147293,63
o,1724818165.484926,172.16.5.2,37993,172.16.1.2,5102,8706,5804,2086,62848,65728,6,6,4,1460,243437,1,16778208,1210000,41772,38876,65700,0,2896,0,47147293,63
o,1724818165.485041,172.16.5.2,37993,172.16.1.2,5102,8706,5804,2086,62848,65728,6,6,4,1460,243437,1,16778208,1210000,41772,38876,65700,0,4344,0,47147293,63
i,1724818165.504852,172.16.5.2,37993,172.16.1.2,5102,8706,5804,2086,62848,65728,6,6,4,1460,243437,1,16778208,1210000,41772,41772,65700,0,5792,0,47147293,63
o,1724818165.504872,172.16.5.2,37993,172.16.1.2,5102,8706,7252,2086,65728,65728,6,6,4,1460,229375,1,16778208,1120000,41772,40324,65700,0,4344,0,47147293,63
i,1724818165.574746,172.16.5.2,37993,172.16.1.2,5102,8706,7252,2086,65728,65728,6,6,4,1460,229375,1,16778208,1120000,41772,40324,65700,0,7240,0,47147293,63
o,1724818165.574776,172.16.5.2,37993,172.16.1.2,5102,8706,8700,2086,65728,65728,6,6,4,1460,223437,1,16778208,990000,41772,38876,65700,0,5792,0,47147293,63
i,1724818165.641641,172.16.5.2,37993,172.16.1.2,5102,8706,8700,2086,65728,65728,6,6,4,1460,223437,1,16778208,990000,41772,41772,65700,0,8688,0,47147293,63
o,1724818165.641670,172.16.5.2,37993,172.16.1.2,5102,8706,11596,2086,64256,65728,6,6,4,1460,214375,1,16778208,910000,41772,38876,65700,0,5792,0,47147293,63
o,1724818165.641796,172.16.5.2,37993,172.16.1.2,5102,8706,11596,2086,64256,65728,6,6,4,1460,214375,1,16778208,910000,41772,38876,65700,0,7240,0,47147293,63
i,1724818165.670138,172.16.5.2,37993,172.16.1.2,5102,8706,11596,2086,64256,65728,6,6,4,1460,214375,1,16778208,910000,41772,41772,65700,0,11584,0,47147293,63
o,1724818165.670182,172.16.5.2,37993,172.16.1.2,5102,8706,11596,2086,64256,65728,6,6,4,1460,207812,1,16778208,830000,41772,38876,65700,0,8688,0,47147293,63
i,1724818165.718393,172.16.5.2,37993,172.16.1.2,5102,8706,11596,2086,64256,65728,6,6,4,1460,207812,1,16778208,830000,41772,41772,65700,0,11584,0,47147293,63
o,1724818165.718424,172.16.5.2,37993,172.16.1.2,5102,8706,11596,2086,64256,65728,6,6,4,1460,199375,1,16778208,780000,41772,38876,65700,0,8688,0,47147293,63
i,1724818165.814792,172.16.5.2,37993,172.16.1.2,5102,8706,11596,2086,64256,65728,6,6,4,1460,199375,1,16778208,780000,41772,41772,65700,0,11584,0,47147293,63
o,1724818165.814831,172.16.5.2,37993,172.16.1.2,5102,8706,11596,2086,65728,65728,6,6,4,1460,197187,1,16778208,700000,41772,40324,65700,0,10136,0,47147293,63
i,1724818165.834872,172.16.5.2,37993,172.16.1.2,5102,8706,11596,2086,65728,65728,6,6,4,1460,197187,1,16778208,700000,41772,40324,65700,0,11584,0,47147293,63
o,1724818165.834953,172.16.5.2,37993,172.16.1.2,5102,8706,11596,2086,64256,65728,6,6,4,1460,197812,1,16778208,630000,41772,37428,65700,0,8688,0,47147293,63
i,1724818165.871506,172.16.5.2,37993,172.16.1.2,5102,8706,11596,2086,64256,65728,6,6,4,1460,197812,1,16778208,630000,41772,41772,65700,0,11584,0,47147293,63
o,1724818165.871532,172.16.5.2,37993,172.16.1.2,5102,8706,11596,2086,65728,65728,6,6,4,1460,201875,1,16778208,610000,41772,40324,65700,0,10136,0,47147293,63
i,1724818165.890356,172.16.5.2,37993,172.16.1.2,5102,8706,11596,2086,65728,65728,6,6,4,1460,201875,1,16778208,610000,41772,40324,65700,0,11584,0,47147293,63
o,1724818165.890377,172.16.5.2,37993,172.16.1.2,5102,8706,13056,2086,64256,65728,6,6,4,1460,204375,1,16778208,580000,41772,37428,65700,0,8688,0,47147293,63
i,1724818165.927662,172.16.5.2,37993,172.16.1.2,5102,8706,13056,2086,64256,65728,6,6,4,1460,204375,1,16778208,580000,41772,41772,65700,0,13032,0,47147293,63
o,1724818165.927724,172.16.5.2,37993,172.16.1.2,5102,8706,13056,2086,64256,65728,6,6,4,1460,205312,1,16778208,540000,41772,38876,65700,0,10136,0,47147293,63
i,1724818166.005942,172.16.5.2,37993,172.16.1.2,5102,8706,13056,2086,64256,65728,6,6,4,1460,205312,1,16778208,540000,41772,41772,65700,0,13032,0,47147293,63
o,1724818166.006013,172.16.5.2,37993,172.16.1.2,5102,8706,13056,2086,64256,65728,6,6,4,1460,203437,1,16778208,520000,41772,38876,65700,0,10136,0,47147293,63
o,1724818166.006124,172.16.5.2,37993,172.16.1.2,5102,8706,13056,2086,64256,65728,6,6,4,1460,203437,1,16778208,520000,41772,38876,65700,0,11584,0,47147293,63
i,1724818166.087511,172.16.5.2,37993,172.16.1.2,5102,8706,13056,2086,64256,65728,6,6,4,1460,203437,1,16778208,520000,41772,41772,65700,0,13032,0,47147293,63
o,1724818166.087541,172.16.5.2,37993,172.16.1.2,5102,8706,13056,2086,64256,65728,6,6,4,1460,209375,1,16778208,540000,41772,38876,65700,0,10136,0,47147293,63
i,1724818166.117713,172.16.5.2,37993,172.16.1.2,5102,8706,13056,2086,64256,65728,6,6,4,1460,209375,1,16778208,540000,41772,41772,65700,0,13032,0,47147293,63
o,1724818166.117741,172.16.5.2,37993,172.16.1.2,5102,8706,14516,2086,64256,65728,6,6,4,1460,212187,1,16778208,530000,41772,38876,65700,0,10136,0,47147293,63
i,1724818166.164147,172.16.5.2,37993,172.16.1.2,5102,8706,14516,2086,64256,65728,6,6,4,1460,212187,1,16778208,530000,41772,41772,65700,0,14480,0,47147293,63
o,1724818166.164175,172.16.5.2,37993,172.16.1.2,5102,8706,14516,2086,65728,65728,6,6,4,1460,220937,1,16778208,580000,41772,40324,65700,0,13032,0,47147293,63
i,1724818166.185416,172.16.5.2,37993,172.16.1.2,5102,8706,14516,2086,65728,65728,6,6,4,1460,220937,1,16778208,580000,41772,40324,65700,0,14480,0,47147293,63
o,1724818166.185495,172.16.5.2,37993,172.16.1.2,5102,8706,14516,2086,64256,65728,6,6,4,1460,225937,1,16778208,590000,41772,37428,65700,0,11584,0,47147293,63
i,1724818166.229991,172.16.5.2,37993,172.16.1.2,5102,8706,14516,2086,64256,65728,6,6,4,1460,225937,1,16778208,590000,41772,41772,65700,0,14480,0,47147293,63
o,1724818166.230075,172.16.5.2,37993,172.16.1.2,5102,8706,14516,2086,65728,65728,6,6,4,1460,225312,1,16778208,550000,41772,40324,65700,0,13032,0,47147293,63
i,1724818166.283452,172.16.5.2,37993,172.16.1.2,5102,8706,14516,2086,65728,65728,6,6,4,1460,225312,1,16778208,550000,41772,40324,65700,0,14480,0,47147293,63
o,1724818166.283475,172.16.5.2,37993,172.16.1.2,5102,8706,14516,2086,65728,65728,6,6,4,1460,230937,1,16778208,570000,41772,38876,65700,0,13032,0,47147293,63
i,1724818166.304111,172.16.5.2,37993,172.16.1.2,5102,8706,14516,2086,65728,65728,6,6,4,1460,230937,1,16778208,570000,41772,41772,65700,0,14480,0,47147293,63
o,1724818166.304135,172.16.5.2,37993,172.16.1.2,5102,8706,14516,2086,64256,65728,6,6,4,1460,229687,1,16778208,540000,41772,38876,65700,0,11584,0,47147293,63
i,1724818166.358307,172.16.5.2,37993,172.16.1.2,5102,8706,14516,2086,64256,65728,6,6,4,1460,229687,1,16778208,540000,41772,41772,65700,0,14480,0,47147293,63
o,1724818166.358338,172.16.5.2,37993,172.16.1.2,5102,8706,14516,2086,64256,65728,6,6,4,1460,231250,1,16778208,530000,41772,38876,65700,0,11584,0,47147293,63
i,1724818166.405547,172.16.5.2,37993,172.16.1.2,5102,8706,14516,2086,64256,65728,6,6,4,1460,231250,1,16778208,530000,41772,41772,65700,0,14480,0,47147293,63
o,1724818166.405614,172.16.5.2,37993,172.16.1.2,5102,8706,15976,2086,64256,65728,6,6,4,1460,238750,1,16778208,570000,41772,38876,65700,0,11584,0,47147293,63
i,1724818166.458437,172.16.5.2,37993,172.16.1.2,5102,8706,15976,2086,64256,65728,6,6,4,1460,238750,1,16778208,570000,41772,41772,65700,0,15928,0,47147293,63
o,1724818166.458478,172.16.5.2,37993,172.16.1.2,5102,8706,15976,2086,65728,65728,6,6,4,1460,242812,1,16778208,580000,41772,40324,65700,0,14480,0,47147293,63
i,1724818166.478700,172.16.5.2,37993,172.16.1.2,5102,8706,15976,2086,65728,65728,6,6,4,1460,242812,1,16778208,580000,41772,40324,65700,0,15928,0,47147293,63
o,1724818166.478719,172.16.5.2,37993,172.16.1.2,5102,8706,15976,2086,65728,65728,6,6,4,1460,248750,1,16778208,600000,41772,38876,65700,0,14480,0,47147293,63
i,1724818166.527656,172.16.5.2,37993,172.16.1.2,5102,8706,15976,2086,65728,65728,6,6,4,1460,248750,1,16778208,600000,41772,41772,65700,0,15928,0,47147293,63
o,1724818166.527683,172.16.5.2,37993,172.16.1.2,5102,8706,15976,2086,65728,65728,6,6,4,1460,255312,1,16778208,620000,41772,40324,65700,0,14480,0,47147293,63
i,1724818166.570693,172.16.5.2,37993,172.16.1.2,5102,8706,15976,2086,65728,65728,6,6,4,1460,255312,1,16778208,620000,41772,41296,65700,0,15928,0,47147293,63
o,1724818166.570770,172.16.5.2,37993,172.16.1.2,5102,8706,15976,2086,65728,65728,6,6,4,1460,258437,1,16778208,610000,41772,39848,65700,0,14480,0,47147293,63
i,1724818166.616525,172.16.5.2,37993,172.16.1.2,5102,8706,15976,2086,65728,65728,6,6,4,1460,258437,1,16778208,610000,41772,39848,65700,0,15928,0,47147293,63
o,1724818166.616545,172.16.5.2,37993,172.16.1.2,5102,8706,15976,2086,64256,65728,6,6,4,1460,265000,1,16778208,630000,41772,36952,65700,0,13032,0,47147293,63
i,1724818166.648665,172.16.5.2,37993,172.16.1.2,5102,8706,15976,2086,64256,65728,6,6,4,1460,265000,1,16778208,630000,41772,41772,65700,0,15928,0,47147293,63
o,1724818166.648727,172.16.5.2,37993,172.16.1.2,5102,8706,15976,2086,64256,65728,6,6,4,1460,268125,1,16778208,620000,41772,38876,65700,0,13032,0,47147293,63
i,1724818166.742917,172.16.5.2,37993,172.16.1.2,5102,8706,15976,2086,64256,65728,6,6,4,1460,268125,1,16778208,620000,41772,41772,65700,0,15928,0,47147293,63
o,1724818166.743050,172.16.5.2,37993,172.16.1.2,5102,8706,15976,2086,65728,65728,6,6,4,1460,275937,1,16778208,650000,41772,40324,65700,0,14480,0,47147293,63
i,1724818166.782642,172.16.5.2,37993,172.16.1.2,5102,8706,15976,2086,65728,65728,6,6,4,1460,275937,1,16778208,650000,41772,40324,65700,0,15928,0,47147293,63
o,1724818166.782665,172.16.5.2,37993,172.16.1.2,5102,8706,17436,2086,64256,65728,6,6,4,1460,287812,1,16778208,710000,41772,37428,65700,0,13032,0,47147293,63
i,1724818166.858624,172.16.5.2,37993,172.16.1.2,5102,8706,17436,2086,64256,65728,6,6,4,1460,287812,1,16778208,710000,41772,41772,65700,0,17376,0,47147293,63
o,1724818166.858665,172.16.5.2,37993,172.16.1.2,5102,8706,17436,2086,65728,65728,6,6,4,1460,301875,1,16778208,780000,41772,40324,65700,0,15928,0,47147293,63
i,1724818166.894198,172.16.5.2,37993,172.16.1.2,5102,8706,17436,2086,65728,65728,6,6,4,1460,301875,1,16778208,780000,41772,40324,65700,0,17376,0,47147293,63
o,1724818166.894234,172.16.5.2,37993,172.16.1.2,5102,8706,17436,2086,65728,65728,6,6,4,1460,315625,1,16778208,840000,41772,38876,65700,0,15928,0,47147293,63
i,1724818167.018335,172.16.5.2,37993,172.16.1.2,5102,8706,17436,2086,65728,65728,6,6,4,1460,315625,1,16778208,840000,41772,41772,65700,0,17376,0,47147293,63
o,1724818167.018411,172.16.5.2,37993,172.16.1.2,5102,8706,17436,2086,65728,65728,6,6,4,1460,337500,1,16778208,950000,41772,40324,65700,0,15928,0,47147293,63
i,1724818167.089341,172.16.5.2,37993,172.16.1.2,5102,8706,17436,2086,65728,65728,6,6,4,1460,337500,1,16778208,950000,41772,40324,65700,0,17376,0,47147293,63
o,1724818167.089434,172.16.5.2,37993,172.16.1.2,5102,8706,17436,2086,65728,65728,6,6,4,1460,360312,1,16778208,1050000,41772,38876,65700,0,15928,0,47147293,63
i,1724818167.141374,172.16.5.2,37993,172.16.1.2,5102,8706,17436,2086,65728,65728,6,6,4,1460,360312,1,16778208,1050000,41772,41772,65700,0,17376,0,47147293,63
o,1724818167.141502,172.16.5.2,37993,172.16.1.2,5102,8706,17436,2086,65728,65728,6,6,4,1460,380312,1,16778208,1110000,41772,40324,65700,0,15928,0,47147293,63
i,1724818167.161689,172.16.5.2,37993,172.16.1.2,5102,8706,17436,2086,65728,65728,6,6,4,1460,380312,1,16778208,1110000,41772,40324,65700,0,17376,0,47147293,63
o,1724818167.161710,172.16.5.2,37993,172.16.1.2,5102,8706,18824,2082,65728,65728,6,6,4,1460,380312,1,16778208,1110000,41772,40324,65700,0,17376,0,47147293,63
i,1724818167.205161,172.16.5.2,37993,172.16.1.2,5102,8706,17436,2082,65728,65728,6,6,4,1460,380312,1,16778208,1110000,41772,40324,65700,0,18824,0,47147293,63
o,1724818167.205204,172.16.5.2,37993,172.16.1.2,5102,8706,20272,2082,65728,65728,6,6,4,1460,380312,1,16778208,1110000,41772,40324,65700,0,18824,0,47147293,63
i,1724818167.214823,172.16.5.2,37993,172.16.1.2,5102,8706,17436,2082,65728,65728,6,6,4,1460,380312,1,16778208,1110000,41772,40324,65700,0,20272,0,47147293,63
i,1724818167.237998,172.16.5.2,37993,172.16.1.2,5102,8718,1448,2146,65728,65728,6,6,4,1460,380312,1,554697696,1110000,41772,40324,65700,0,20272,0,47147293,63
o,1724818167.238027,172.16.5.2,37993,172.16.1.2,5102,8718,2896,2146,65728,65728,6,6,4,1460,380312,1,554697696,1110000,41772,40324,65700,0,20272,0,47147293,63
i,1724818167.291367,172.16.5.2,37993,172.16.1.2,5102,8718,2896,2146,65728,65728,6,6,4,1460,380312,1,554697696,1110000,41772,40324,65700,0,20272,0,47147293,63
o,1724818167.291410,172.16.5.2,37993,172.16.1.2,5102,8718,4344,2146,65728,65728,6,6,4,1460,380312,1,554697696,1110000,41772,40324,65700,0,20272,0,47147293,63
i,1724818167.347355,172.16.5.2,37993,172.16.1.2,5102,8718,4344,2146,65728,65728,6,6,4,1460,380312,1,554697696,1110000,41772,40324,65700,0,20272,0,47147293,63
i,1724818167.408941,172.16.5.2,37993,172.16.1.2,5102,8718,4344,2146,65728,65728,6,6,4,1460,380312,1,537920480,1110000,41772,40324,65700,0,20272,0,47147293,63
o,1724818167.408974,172.16.5.2,37993,172.16.1.2,5102,8718,5792,2146,65728,65728,6,6,4,1460,380312,1,554697696,1110000,41772,40324,65700,0,20272,0,47147293,63
i,1724818167.473200,172.16.5.2,37993,172.16.1.2,5102,8718,5792,2146,65728,65728,6,6,4,1460,380312,1,554697696,1110000,41772,40324,65700,0,20272,0,47147293,63
i,1724818167.483077,172.16.5.2,37993,172.16.1.2,5102,8718,5792,2146,65728,65728,6,6,4,1460,380312,1,554697696,1110000,41772,40324,65700,0,20272,0,47147293,63
o,1724818167.483110,172.16.5.2,37993,172.16.1.2,5102,8718,5792,2146,65728,65728,6,6,4,1460,380312,1,554697697,1110000,41772,40324,65700,0,20272,0,47147293,63
i,1724818167.483615,172.16.5.2,37993,172.16.1.2,5102,8718,5792,2146,61440,65728,6,6,4,1460,362812,1,554697696,1100000,41772,35980,65700,0,15928,0,47147293,63
o,1724818167.483635,172.16.5.2,37993,172.16.1.2,5102,8718,4344,2146,61440,65728,6,6,4,1460,362812,1,554697697,1100000,41772,35980,65700,0,15928,0,47147293,63
i,1724818167.542491,172.16.5.2,37993,172.16.1.2,5102,8718,4344,2146,61376,65728,6,6,4,1460,341250,1,554697696,1120000,41772,41772,65700,0,11584,0,47147293,63
o,1724818167.542529,172.16.5.2,37993,172.16.1.2,5102,8718,2896,2146,61376,65728,6,6,4,1460,341250,1,537920481,1120000,41772,41772,65700,0,11584,0,47147293,63
i,1724818167.565644,172.16.5.2,37993,172.16.1.2,5102,8718,2896,2146,64256,65728,6,6,4,1460,315000,1,537920480,1160000,41772,40324,65700,0,10136,0,47147293,63
o,1724818167.565666,172.16.5.2,37993,172.16.1.2,5102,8718,2896,2146,64256,65728,6,6,4,1460,315000,1,554697697,1160000,41772,40324,65700,0,10136,0,47147293,63
i,1724818167.705764,172.16.5.2,37993,172.16.1.2,5102,8718,2896,2146,59968,65728,6,6,4,1460,286875,1,554697696,1190000,41772,41772,65700,0,4344,0,47147293,63
o,1724818167.705797,172.16.5.2,37993,172.16.1.2,5102,8718,5792,2146,59968,65728,6,6,4,1460,286875,1,554697697,1190000,41772,41772,65700,0,4344,0,47147293,63
o,1724818167.705940,172.16.5.2,37993,172.16.1.2,5102,8718,5792,2086,59968,65728,6,6,4,1460,286875,1,554697696,1190000,41772,41772,65700,0,4344,0,47147293,63
i,1724818167.836328,172.16.5.2,37993,172.16.1.2,5102,8718,5792,2086,64256,65728,6,6,4,1460,268750,1,554697696,1140000,41772,40324,65700,0,5792,0,47147293,63
o,1724818167.836539,172.16.5.2,37993,172.16.1.2,5102,8718,5804,2086,62848,65728,6,6,4,1460,251562,1,16778208,1090000,41772,37428,65700,0,2896,0,47147293,63
o,1724818167.836773,172.16.5.2,37993,172.16.1.2,5102,8718,5804,2086,62848,65728,6,6,4,1460,251562,1,16778208,1090000,41772,37428,65700,0,4344,0,47147293,63
i,1724818167.871508,172.16.5.2,37993,172.16.1.2,5102,8718,5804,2086,62848,65728,6,6,4,1460,251562,1,16778208,1090000,41772,41772,65700,0,5792,0,47147293,63
o,1724818167.871561,172.16.5.2,37993,172.16.1.2,5102,8718,7252,2086,65728,65728,6,6,4,1460,240312,1,16778208,1010000,41772,40324,65700,0,4344,0,47147293,63
i,1724818167.871732,172.16.5.2,37993,172.16.1.2,5102,8718,7252,2086,65728,65728,6,6,4,1460,240312,1,16778208,1010000,41772,40324,65700,0,7240,0,47147293,63
o,1724818167.871747,172.16.5.2,37993,172.16.1.2,5102,8718,8700,2086,65024,65728,6,6,4,1460,230312,1,16778208,940000,41772,38876,65700,0,5792,0,47147293,63
i,1724818167.971799,172.16.5.2,37993,172.16.1.2,5102,8718,8700,2086,65024,65728,6,6,4,1460,230312,1,16778208,940000,41772,41772,65700,0,8688,0,47147293,63
o,1724818167.971899,172.16.5.2,37993,172.16.1.2,5102,8718,11596,2086,64256,65728,6,6,4,1460,217812,1,16778208,900000,41772,38876,65700,0,5792,0,47147293,63
o,1724818167.972070,172.16.5.2,37993,172.16.1.2,5102,8718,11596,2086,64256,65728,6,6,4,1460,217812,1,16778208,900000,41772,38876,65700,0,7240,0,47147293,63
i,1724818168.104154,172.16.5.2,37993,172.16.1.2,5102,8718,11596,2086,64256,65728,6,6,4,1460,217812,1,16778208,900000,41772,41772,65700,0,11584,0,47147293,63
o,1724818168.104223,172.16.5.2,37993,172.16.1.2,5102,8718,11596,2086,64256,65728,6,6,4,1460,220625,1,16778208,810000,41772,38876,65700,0,8688,0,47147293,63
i,1724818168.235233,172.16.5.2,37993,172.16.1.2,5102,8718,11596,2086,64256,65728,6,6,4,1460,220625,1,16778208,810000,41772,41772,65700,0,11584,0,47147293,63
o,1724818168.235328,172.16.5.2,37993,172.16.1.2,5102,8718,11596,2086,65728,65728,6,6,4,1460,239375,1,16778208,880000,41772,40324,65700,0,10136,0,47147293,63
i,1724818168.251984,172.16.5.2,37993,172.16.1.2,5102,8718,11596,2086,65728,65728,6,6,4,1460,239375,1,16778208,880000,41772,40324,65700,0,11584,0,47147293,63
o,1724818168.252015,172.16.5.2,37993,172.16.1.2,5102,8718,11596,2086,64256,65728,6,6,4,1460,257187,1,16778208,930000,41772,37428,65700,0,8688,0,47147293,63
o,1724818168.252138,172.16.5.2,37993,172.16.1.2,5102,8718,11596,2086,64256,65728,6,6,4,1460,257187,1,16778208,930000,41772,37428,65700,0,10136,0,47147293,63
i,1724818168.297638,172.16.5.2,37993,172.16.1.2,5102,8718,11596,2086,64256,65728,6,6,4,1460,257187,1,16778208,930000,41772,41772,65700,0,11584,0,47147293,63
o,1724818168.297679,172.16.5.2,37993,172.16.1.2,5102,8718,11596,2086,64256,65728,6,6,4,1460,266562,1,16778208,890000,41772,38876,65700,0,8688,0,47147293,63
i,1724818168.385968,172.16.5.2,37993,172.16.1.2,5102,8718,11596,2086,64256,65728,6,6,4,1460,266562,1,16778208,890000,41772,41772,65700,0,11584,0,47147293,63
o,1724818168.386005,172.16.5.2,37993,172.16.1.2,5102,8718,13056,2086,64256,65728,6,6,4,1460,285937,1,16778208,960000,41772,38876,65700,0,8688,0,47147293,63
i,1724818168.548860,172.16.5.2,37993,172.16.1.2,5102,8718,13056,2086,64256,65728,6,6,4,1460,285937,1,16778208,960000,41772,41772,65700,0,13032,0,47147293,63
o,1724818168.548993,172.16.5.2,37993,172.16.1.2,5102,8718,13056,2086,64256,65728,6,6,4,1460,305312,1,16778208,1020000,41772,38876,65700,0,10136,0,47147293,63
i,1724818168.564931,172.16.5.2,37993,172.16.1.2,5102,8718,13056,2086,64256,65728,6,6,4,1460,305312,1,16778208,1020000,41772,41772,65700,0,13032,0,47147293,63
o,1724818168.564975,172.16.5.2,37993,172.16.1.2,5102,8718,13056,2086,64256,65728,6,6,4,1460,307187,1,16778208,900000,41772,38876,65700,0,10136,0,47147293,63
o,1724818168.565195,172.16.5.2,37993,172.16.1.2,5102,8718,13056,2086,64256,65728,6,6,4,1460,307187,1,16778208,900000,41772,38876,65700,0,11584,0,47147293,63
i,1724818168.725065,172.16.5.2,37993,172.16.1.2,5102,8718,13056,2086,64256,65728,6,6,4,1460,307187,1,16778208,900000,41772,41772,65700,0,13032,0,47147293,63
o,1724818168.725150,172.16.5.2,37993,172.16.1.2,5102,8718,13056,2086,64256,65728,6,6,4,1460,322812,1,16778208,950000,41772,38876,65700,0,10136,0,47147293,63
i,1724818168.798137,172.16.5.2,37993,172.16.1.2,5102,8718,13056,2086,64256,65728,6,6,4,1460,322812,1,16778208,950000,41772,41772,65700,0,13032,0,47147293,63
o,1724818168.798165,172.16.5.2,37993,172.16.1.2,5102,8718,13056,2086,64256,65728,6,6,4,1460,333750,1,16778208,940000,41772,38876,65700,0,10136,0,47147293,63
i,1724818168.934143,172.16.5.2,37993,172.16.1.2,5102,8718,13056,2086,64256,65728,6,6,4,1460,333750,1,16778208,940000,41772,41772,65700,0,13032,0,47147293,63
o,1724818168.934175,172.16.5.2,37993,172.16.1.2,5102,8718,14516,2086,64256,65728,6,6,4,1460,359687,1,16778208,1070000,41772,38876,65700,0,10136,0,47147293,63
i,1724818168.995061,172.16.5.2,37993,172.16.1.2,5102,8718,14516,2086,64256,65728,6,6,4,1460,359687,1,16778208,1070000,41772,41772,65700,0,14480,0,47147293,63
o,1724818168.995211,172.16.5.2,37993,172.16.1.2,5102,8718,14516,2086,65728,65728,6,6,4,1460,371250,1,16778208,1050000,41772,40324,65700,0,13032,0,47147293,63
i,1724818169.114867,172.16.5.2,37993,172.16.1.2,5102,8718,14516,2086,65728,65728,6,6,4,1460,371250,1,16778208,1050000,41772,40324,65700,0,14480,0,47147293,63
o,1724818169.114948,172.16.5.2,37993,172.16.1.2,5102,8718,14516,2086,65728,65728,6,6,4,1460,393750,1,16778208,1130000,41772,38876,65700,0,13032,0,47147293,63
i,1724818169.178467,172.16.5.2,37993,172.16.1.2,5102,8718,14516,2086,65728,65728,6,6,4,1460,393750,1,16778208,1130000,41772,41772,65700,0,14480,0,47147293,63
o,1724818169.178491,172.16.5.2,37993,172.16.1.2,5102,8718,14516,2086,65728,65728,6,6,4,1460,420937,1,16778208,1240000,41772,40324,65700,0,13032,0,47147293,63
i,1724818169.327632,172.16.5.2,37993,172.16.1.2,5102,8718,14516,2086,65728,65728,6,6,4,1460,420937,1,16778208,1240000,41772,40324,65700,0,14480,0,47147293,63
o,1724818169.327666,172.16.5.2,37993,172.16.1.2,5102,8718,14516,2086,64256,65728,6,6,4,1460,443437,1,16778208,1290000,41772,37428,65700,0,11584,0,47147293,63
i,1724818169.402810,172.16.5.2,37993,172.16.1.2,5102,8718,14516,2086,64256,65728,6,6,4,1460,443437,1,16778208,1290000,41772,41772,65700,0,14480,0,47147293,63
o,1724818169.402839,172.16.5.2,37993,172.16.1.2,5102,8718,14516,2086,64256,65728,6,6,4,1460,463125,1,16778208,1300000,41772,38876,65700,0,11584,0,47147293,63
i,1724818169.457490,172.16.5.2,37993,172.16.1.2,5102,8718,14516,2086,64256,65728,6,6,4,1460,463125,1,16778208,1300000,41772,41772,65700,0,14480,0,47147293,63
o,1724818169.457524,172.16.5.2,37993,172.16.1.2,5102,8718,14516,2086,65728,65728,6,6,4,1460,470312,1,16778208,1210000,41772,40324,65700,0,13032,0,47147293,63
i,1724818169.512038,172.16.5.2,37993,172.16.1.2,5102,8718,14516,2086,65728,65728,6,6,4,1460,470312,1,16778208,1210000,41772,40324,65700,0,14480,0,47147293,63
o,1724818169.512072,172.16.5.2,37993,172.16.1.2,5102,8718,15976,2086,65728,65728,6,6,4,1460,482812,1,16778208,1190000,41772,38876,65700,0,13032,0,47147293,63
i,1724818169.612288,172.16.5.2,37993,172.16.1.2,5102,8718,15976,2086,65728,65728,6,6,4,1460,482812,1,16778208,1190000,41772,41772,65700,0,15928,0,47147293,63
o,1724818169.612320,172.16.5.2,37993,172.16.1.2,5102,8718,17376,2082,65728,65728,6,6,4,1460,482812,1,16778208,1190000,41772,41772,65700,0,15928,0,47147293,63
i,1724818169.692213,172.16.5.2,37993,172.16.1.2,5102,8718,15976,2082,65728,65728,6,6,4,1460,482812,1,16778208,1190000,41772,41772,65700,0,17376,0,47147293,63
o,1724818169.692243,172.16.5.2,37993,172.16.1.2,5102,8718,18824,2082,65728,65728,6,6,4,1460,482812,1,16778208,1190000,41772,41772,65700,0,17376,0,47147293,63
i,1724818169.733102,172.16.5.2,37993,172.16.1.2,5102,8718,15976,2082,65728,65728,6,6,4,1460,482812,1,16778208,1190000,41772,41772,65700,0,18824,0,47147293,63
i,1724818169.815837,172.16.5.2,37993,172.16.1.2,5102,7988,1448,2146,65728,65728,6,6,4,1460,482812,1,554697696,1190000,41772,41772,65700,0,18824,0,47147293,63
o,1724818169.815880,172.16.5.2,37993,172.16.1.2,5102,7988,2896,2146,65728,65728,6,6,4,1460,482812,1,554697696,1190000,41772,41772,65700,0,18824,0,47147293,63
i,1724818169.868504,172.16.5.2,37993,172.16.1.2,5102,7988,2896,2146,65728,65728,6,6,4,1460,482812,1,554697696,1190000,41772,41772,65700,0,18824,0,47147293,63
o,1724818169.868533,172.16.5.2,37993,172.16.1.2,5102,7988,4344,2146,65728,65728,6,6,4,1460,482812,1,554697696,1190000,41772,41772,65700,0,18824,0,47147293,63
i,1724818169.878196,172.16.5.2,37993,172.16.1.2,5102,7988,4344,2146,65728,65728,6,6,4,1460,482812,1,554697696,1190000,41772,41772,65700,0,18824,0,47147293,63
i,1724818169.961448,172.16.5.2,37993,172.16.1.2,5102,7988,4344,2146,65728,65728,6,6,4,1460,482812,1,554697696,1190000,41772,41772,65700,0,18824,0,47147293,63
o,1724818169.961490,172.16.5.2,37993,172.16.1.2,5102,7988,5792,2146,65728,65728,6,6,4,1460,482812,1,554697696,1190000,41772,41772,65700,0,18824,0,47147293,63
i,1724818170.004947,172.16.5.2,37993,172.16.1.2,5102,7988,5792,2146,65728,65728,6,6,4,1460,482812,1,554697696,1190000,41772,41772,65700,0,18824,0,47147293,63
i,1724818170.037469,172.16.5.2,37993,172.16.1.2,5102,7988,5792,2146,65728,65728,6,6,4,1460,482812,1,554697696,1190000,41772,41772,65700,0,18824,0,47147293,63
i,1724818170.105243,172.16.5.2,37993,172.16.1.2,5102,7988,5792,2146,65728,65728,6,6,4,1460,482812,1,537920480,1190000,41772,41772,65700,0,18824,0,47147293,63
o,1724818170.105281,172.16.5.2,37993,172.16.1.2,5102,7988,5792,2082,65728,65728,6,6,4,1460,482812,1,554697696,1190000,41772,41772,65700,0,18824,0,47147293,63
i,1724818170.145758,172.16.5.2,37993,172.16.1.2,5102,7988,5792,2082,65728,65728,6,6,4,1460,482812,1,554697696,1190000,41772,41772,65700,0,20272,0,47147293,63
i,1724818170.215274,172.16.5.2,37993,172.16.1.2,5102,7988,4344,2082,65728,65728,6,6,4,1460,482812,1,554697696,1190000,41772,41772,65700,0,20272,0,47147293,63
o,1724818170.215314,172.16.5.2,37993,172.16.1.2,5102,7988,5792,2082,65728,65728,6,6,4,1460,482812,1,554697696,1190000,41772,41772,65700,0,20272,0,47147293,63
i,1724818170.338823,172.16.5.2,37993,172.16.1.2,5102,7988,5792,2082,65728,65728,6,6,4,1460,482812,1,554697696,1190000,41772,41772,65700,0,20272,0,47147293,63
o,1724818170.338854,172.16.5.2,37993,172.16.1.2,5102,7988,7240,2086,65728,65728,6,6,4,1460,482812,1,554697696,1190000,41772,41772,65700,0,20272,0,47147293,63
o,1724818170.338973,172.16.5.2,37993,172.16.1.2,5102,7988,7240,2082,65728,65728,6,6,4,1460,482812,1,554697696,1190000,41772,41772,65700,0,21720,0,47147293,63
i,1724818170.437597,172.16.5.2,37993,172.16.1.2,5102,7988,7240,2082,65728,65728,6,6,4,1460,482812,1,554697696,1190000,41772,41772,65700,0,23168,0,47147293,63
o,1724818170.437630,172.16.5.2,37993,172.16.1.2,5102,7988,8688,2082,65728,65728,6,6,4,1460,482812,1,554697696,1190000,41772,41772,65700,0,23168,0,47147293,63
i,1724818170.457660,172.16.5.2,37993,172.16.1.2,5102,7988,8688,2082,65728,65728,6,6,4,1460,482812,1,554697696,1190000,41772,41772,65700,0,24616,0,47147293,63
o,1724818170.457680,172.16.5.2,37993,172.16.1.2,5102,7988,10136,2082,65728,65728,6,6,4,1460,482812,1,554697696,1190000,41772,41772,65700,0,24616,0,47147293,63
i,1724818170.553457,172.16.5.2,37993,172.16.1.2,5102,7988,10136,2082,65728,65728,6,6,4,1460,482812,1,554697696,1190000,41772,41772,65700,0,26064,0,47147293,63
o,1724818170.553493,172.16.5.2,37993,172.16.1.2,5102,7988,11584,2082,65728,65728,6,6,4,1460,482812,1,554697696,1190000,41772,41772,65700,0,26064,0,47147293,63
i,1724818170.573739,172.16.5.2,37993,172.16.1.2,5102,7988,11584,2082,65728,65728,6,6,4,1460,482812,1,554697696,1190000,41772,41772,65700,0,27512,0,47147293,63
o,1724818170.573760,172.16.5.2,37993,172.16.1.2,5102,7988,13032,2082,65728,65728,6,6,4,1460,482812,1,554697696,1190000,41772,41772,65700,0,27512,0,47147293,63
i,1724818170.672765,172.16.5.2,37993,172.16.1.2,5102,7988,13032,2082,65728,65728,6,6,4,1460,482812,1,554697696,1190000,41772,41772,65700,0,28960,0,47147293,63
o,1724818170.672794,172.16.5.2,37993,172.16.1.2,5102,7988,14480,2082,65728,65728,6,6,4,1460,482812,1,554697696,1190000,49964,41772,65700,0,28960,0,47147293,63
i,1724818170.739093,172.16.5.2,37993,172.16.1.2,5102,7988,14480,2082,65728,65728,6,6,4,1460,482812,1,554697696,1190000,49964,41772,65700,0,30408,0,47147293,63
o,1724818170.739127,172.16.5.2,37993,172.16.1.2,5102,7988,15928,2082,65728,65728,6,6,4,1460,482812,1,554697696,1190000,49964,41772,65700,0,30408,0,47147293,63
i,1724818170.834845,172.16.5.2,37993,172.16.1.2,5102,7988,15928,2082,65728,65728,6,6,4,1460,482812,1,554697696,1190000,49964,41772,65700,0,31856,0,47147293,63
o,1724818170.834938,172.16.5.2,37993,172.16.1.2,5102,7988,17376,2082,65728,65728,6,6,4,1460,482812,1,554697696,1190000,49964,41772,65700,0,31856,0,47147293,63
i,1724818170.861091,172.16.5.2,37993,172.16.1.2,5102,7988,17376,2082,65728,65728,6,6,4,1460,482812,1,554697696,1190000,49964,41772,65700,0,33304,0,47147293,63
o,1724818170.861114,172.16.5.2,37993,172.16.1.2,5102,7988,18824,2082,65728,65728,6,6,4,1460,482812,1,554697696,1190000,49964,41772,65700,0,33304,0,47147293,63
o,1724818170.954819,172.16.5.2,37993,172.16.1.2,5102,8688,1448,2146,65728,65728,6,6,4,1460,482812,1,1092625377,2180000,49964,41772,65700,0,34752,0,47147293,63
i,1724818170.955571,172.16.5.2,37993,172.16.1.2,5102,8688,1448,2146,65728,65728,6,6,4,1460,482812,1,1092625376,2180000,49964,41772,65700,0,34752,0,47147293,63
o,1724818170.955596,172.16.5.2,37993,172.16.1.2,5102,7988,20272,2146,65728,65728,6,6,4,1460,482812,1,1630536672,2180000,49964,41772,65700,0,34752,0,47147293,63
o,1724818170.955758,172.16.5.2,37993,172.16.1.2,5102,7988,20272,2086,65728,65728,6,6,4,1460,482812,1,1630536672,2180000,49964,41772,65700,0,34752,0,47147293,63
i,1724818170.984636,172.16.5.2,37993,172.16.1.2,5102,7988,20272,2086,65728,65728,6,6,4,1460,482812,1,1630536672,2180000,49964,41772,65700,0,37648,0,47147293,63
o,1724818170.984654,172.16.5.2,37993,172.16.1.2,5102,7988,21720,2082,65728,65728,6,6,4,1460,482812,1,1630536672,2180000,49964,41772,65700,0,37648,0,47147293,63
i,1724818171.167174,172.16.5.2,37993,172.16.1.2,5102,7988,21720,2082,65728,65728,6,6,4,1460,482812,1,1630536672,2180000,49964,41772,65700,0,39096,0,47147293,63
o,1724818171.167265,172.16.5.2,37993,172.16.1.2,5102,7988,5804,2086,30976,65728,6,6,4,1460,448750,1,1092617184,1300000,49964,7020,65700,0,4344,0,47147293,63
i,1724818171.167407,172.16.5.2,37993,172.16.1.2,5102,7988,5804,2086,30976,65728,6,6,4,1460,448750,1,1092617184,1300000,49964,7020,65700,0,5792,0,47147293,63
i,1724818171.190211,172.16.5.2,37993,172.16.1.2,5102,7988,5804,2086,30976,65728,6,6,4,1460,448750,1,1092617184,1300000,49964,49964,65700,0,5792,0,47147293,63
i,1724818171.237162,172.16.5.2,37993,172.16.1.2,5102,7988,5804,2086,65728,65728,6,6,4,1460,448750,1,1092617184,1300000,49964,49964,65700,0,5792,0,47147293,63
o,1724818171.237238,172.16.5.2,37993,172.16.1.2,5102,7988,7252,2086,65728,65728,6,6,4,1460,427812,1,1092617184,1280000,49964,48516,65700,0,4344,0,47147293,63
i,1724818171.268008,172.16.5.2,37993,172.16.1.2,5102,7988,7252,2086,65728,65728,6,6,4,1460,427812,1,1092617184,1280000,49964,48516,65700,0,7240,0,47147293,63
o,1724818171.268033,172.16.5.2,37993,172.16.1.2,5102,7988,8700,2086,65728,65728,6,6,4,1460,413125,1,1092617184,1220000,49964,47068,65700,0,5792,0,47147293,63
i,1724818171.312154,172.16.5.2,37993,172.16.1.2,5102,7988,8700,2086,65728,65728,6,6,4,1460,413125,1,1092617184,1220000,49964,49288,65700,0,8688,0,47147293,63
o,1724818171.312176,172.16.5.2,37993,172.16.1.2,5102,7988,8700,2086,65728,65728,6,6,4,1460,401562,1,1092617184,1150000,49964,47840,65700,0,7240,0,47147293,63
i,1724818171.423463,172.16.5.2,37993,172.16.1.2,5102,7988,8700,2086,65728,65728,6,6,4,1460,401562,1,1092617184,1150000,49964,49964,65700,0,8688,0,47147293,63
o,1724818171.423531,172.16.5.2,37993,172.16.1.2,5102,7988,8700,2086,65728,65728,6,6,4,1460,382812,1,1092617184,1140000,49964,48516,65700,0,7240,0,47147293,63
i,1724818171.495045,172.16.5.2,37993,172.16.1.2,5102,7988,8700,2086,65728,65728,6,6,4,1460,382812,1,1092617184,1140000,49964,48516,65700,0,8688,0,47147293,63
o,1724818171.495120,172.16.5.2,37993,172.16.1.2,5102,7988,8700,2086,64256,65728,6,6,4,1460,367500,1,1092617184,1110000,49964,45620,65700,0,5792,0,47147293,63
i,1724818171.566300,172.16.5.2,37993,172.16.1.2,5102,7988,8700,2086,64256,65728,6,6,4,1460,367500,1,1092617184,1110000,49964,49964,65700,0,8688,0,47147293,63
o,1724818171.566343,172.16.5.2,37993,172.16.1.2,5102,7988,8700,2086,64256,65728,6,6,4,1460,359062,1,1092617184,1030000,49964,47068,65700,0,5792,0,47147293,63
i,1724818171.649812,172.16.5.2,37993,172.16.1.2,5102,7988,8700,2086,64256,65728,6,6,4,1460,359062,1,1092617184,1030000,49964,49964,65700,0,8688,0,47147293,63
o,1724818171.649921,172.16.5.2,37993,172.16.1.2,5102,7988,10160,2086,65728,65728,6,6,4,1460,356875,1,1092617184,930000,49964,48516,65700,0,7240,0,47147293,63
i,1724818171.734533,172.16.5.2,37993,172.16.1.2,5102,7988,10160,2086,65728,65728,6,6,4,1460,356875,1,1092617184,930000,49964,48516,65700,0,10136,0,47147293,63
o,1724818171.734571,172.16.5.2,37993,172.16.1.2,5102,7988,10160,2086,65728,65728,6,6,4,1460,351250,1,1092617184,880000,49964,47068,65700,0,8688,0,47147293,63
i,1724818171.838859,172.16.5.2,37993,172.16.1.2,5102,7988,10160,2086,65728,65728,6,6,4,1460,351250,1,1092617184,880000,49964,49964,65700,0,10136,0,47147293,63
o,1724818171.838925,172.16.5.2,37993,172.16.1.2,5102,7988,10160,2086,64256,65728,6,6,4,1460,350000,1,1092617184,800000,49964,47068,65700,0,7240,0,47147293,63
i,1724818171.968016,172.16.5.2,37993,172.16.1.2,5102,7988,10160,2086,64256,65728,6,6,4,1460,350000,1,1092617184,800000,49964,49964,65700,0,10136,0,47147293,63
o,1724818171.968050,172.16.5.2,37993,172.16.1.2,5102,7988,10160,2086,64256,65728,6,6,4,1460,356250,1,1092617184,800000,49964,47068,65700,0,7240,0,47147293,63
i,1724818172.055534,172.16.5.2,37993,172.16.1.2,5102,7988,10160,2086,64256,65728,6,6,4,1460,356250,1,1092617184,800000,49964,49964,65700,0,10136,0,47147293,63
o,1724818172.055608,172.16.5.2,37993,172.16.1.2,5102,7988,10160,2086,65728,65728,6,6,4,1460,363125,1,1092617184,800000,49964,48516,65700,0,8688,0,47147293,63
i,1724818172.106474,172.16.5.2,37993,172.16.1.2,5102,7988,10160,2086,65728,65728,6,6,4,1460,363125,1,1092617184,800000,49964,48516,65700,0,10136,0,47147293,63
o,1724818172.106503,172.16.5.2,37993,172.16.1.2,5102,7988,11584,2082,65728,65728,6,6,4,1460,363125,1,1092617184,800000,49964,48516,65700,0,10136,0,47147293,63
i,1724818172.173833,172.16.5.2,37993,172.16.1.2,5102,7988,10160,2082,65728,65728,6,6,4,1460,363125,1,1092617184,800000,49964,48516,65700,0,11584,0,47147293,63
o,1724818172.173874,172.16.5.2,37993,172.16.1.2,5102,7988,13032,2082,65728,65728,6,6,4,1460,363125,1,1092617184,800000,49964,48516,65700,0,11584,0,47147293,63
i,1724818172.219950,172.16.5.2,37993,172.16.1.2,5102,7988,10160,2082,65728,65728,6,6,4,1460,363125,1,1092617184,800000,49964,48516,65700,0,13032,0,47147293,63
o,1724818172.219979,172.16.5.2,37993,172.16.1.2,5102,5080,1448,2146,65728,65728,6,6,4,1460,363125,1,1630536672,800000,49964,48516,65700,0,13032,0,47147293,63
i,1724818172.275279,172.16.5.2,37993,172.16.1.2,5102,5080,1448,2146,65728,65728,6,6,4,1460,363125,1,1630536672,800000,49964,48516,65700,0,13032,0,47147293,63
i,1724818172.296647,172.16.5.2,37993,172.16.1.2,5102,5080,1448,2146,65728,65728,6,6,4,1460,363125,1,1630536672,800000,49964,48516,65700,0,13032,0,47147293,63
o,1724818172.296668,172.16.5.2,37993,172.16.1.2,5102,5080,2896,2082,65728,65728,6,6,4,1460,363125,1,1630536672,800000,49964,48516,65700,0,13032,0,47147293,63
i,1724818172.415236,172.16.5.2,37993,172.16.1.2,5102,5080,2896,2082,65728,65728,6,6,4,1460,363125,1,1630536672,800000,49964,48516,65700,0,14480,0,47147293,63
o,1724818172.415265,172.16.5.2,37993,172.16.1.2,5102,5080,2896,2082,65728,65728,6,6,4,1460,363125,1,1630536672,800000,49964,48516,65700,0,14480,0,47147293,63
i,1724818172.434134,172.16.5.2,37993,172.16.1.2,5102,5080,2896,2082,65728,65728,6,6,4,1460,363125,1,1630536672,800000,49964,48516,65700,0,14480,0,47147293,63
o,1724818172.434155,172.16.5.2,37993,172.16.1.2,5102,5080,2896,2082,65728,65728,6,6,4,1460,363125,1,1630536673,800000,49964,48516,65700,0,14480,0,47147293,63
i,1724818172.461648,172.16.5.2,37993,172.16.1.2,5102,5080,2896,2082,57088,65728,6,6,4,1460,345312,1,1630536672,860000,49964,49964,65700,0,5792,0,47147293,63
o,1724818172.461671,172.16.5.2,37993,172.16.1.2,5102,5080,2896,2082,57088,65728,6,6,4,1460,345312,1,1630536672,860000,49964,49964,65700,0,5792,0,47147293,63
i,1724818172.524415,172.16.5.2,37993,172.16.1.2,5102,5080,2896,2082,57088,65728,6,6,4,1460,345312,1,1630536672,860000,49964,49964,65700,0,5792,0,47147293,63
o,1724818172.524434,172.16.5.2,37993,172.16.1.2,5102,5080,2896,2082,57088,65728,6,6,4,1460,345312,1,1613759457,860000,49964,49964,65700,0,5792,0,47147293,63
i,1724818172.567544,172.16.5.2,37993,172.16.1.2,5102,5080,2896,2082,62848,65728,6,6,4,1460,315937,1,1613759456,990000,49964,49964,65700,0,2896,0,47147293,63
o,1724818172.567623,172.16.5.2,37993,172.16.1.2,5102,5080,2920,2086,62848,65728,6,6,4,1460,290312,1,1092617184,1050000,49964,47068,65700,0,0,0,47147293,63
o,1724818172.567755,172.16.5.2,37993,172.16.1.2,5102,5080,2920,2086,62848,65728,6,6,4,1460,290312,1,1092617184,1050000,49964,47068,65700,0,1448,0,47147293,63
i,1724818172.687424,172.16.5.2,37993,172.16.1.2,5102,5080,2920,2086,62848,65728,6,6,4,1460,290312,1,1092617184,1050000,49964,49964,65700,0,2896,0,47147293,63
o,1724818172.687462,172.16.5.2,37993,172.16.1.2,5102,5080,5816,2086,64256,65728,6,6,4,1460,269062,1,1092617184,1060000,49964,47068,65700,0,0,0,47147293,63
o,1724818172.687601,172.16.5.2,37993,172.16.1.2,5102,5080,5816,2086,64256,65728,6,6,4,1460,269062,1,1092617184,1060000,49964,47068,65700,0,1448,0,47147293,63
i,1724818172.823889,172.16.5.2,37993,172.16.1.2,5102,5080,5816,2086,64256,65728,6,6,4,1460,269062,1,1092617184,1060000,49964,49964,65700,0,5792,0,47147293,63
o,1724818172.823927,172.16.5.2,37993,172.16.1.2,5102,5080,5816,2086,64256,65728,6,6,4,1460,251875,1,1092617184,1030000,49964,47068,65700,0,2896,0,47147293,63
o,1724818172.824063,172.16.5.2,37993,172.16.1.2,5102,5080,5816,2086,64256,65728,6,6,4,1460,251875,1,1092617184,1030000,49964,47068,65700,0,4344,0,47147293,63
i,1724818172.844601,172.16.5.2,37993,172.16.1.2,5102,5080,5816,2086,64256,65728,6,6,4,1460,251875,1,1092617184,1030000,49964,49964,65700,0,5792,0,47147293,63
o,1724818172.844635,172.16.5.2,37993,172.16.1.2,5102,5080,5816,2086,64256,65728,6,6,4,1460,240625,1,1092617184,970000,49964,47068,65700,0,2896,0,47147293,63
