enable_time_secs=1724817809	enable_time_usecs=892017	siftrver=1.3.0	sysname=FreeBSD	sysver=1401000	ipmode=4
o,1724817809.892538,10.0.2.15,22,10.0.2.2,51120,1073725440,17746,1026,65535,65700,0,0,4,1460,312,0,16777220,230000,33580,172,65700,0,0,0,3625673965,63
o,1724817809.893871,10.0.2.15,22,10.0.2.2,51120,1073725440,17746,1026,65535,65700,0,0,4,1460,312,0,16777220,230000,33580,244,65700,0,172,0,3625673965,63
i,1724817809.894031,10.0.2.15,22,10.0.2.2,51120,1073725440,17746,1026,65535,65700,0,0,4,1460,312,0,16777220,230000,33580,244,65700,0,244,0,3625673965,63
i,1724817809.894595,10.0.2.15,22,10.0.2.2,51120,1073725440,17918,1026,65535,65700,0,0,4,1460,312,0,4,240000,33580,72,65700,0,72,0,3625673965,63
i,1724817809.897060,10.0.2.15,22,10.0.2.2,51120,1073725440,17990,1026,65535,65700,0,0,4,1460,312,0,4,240000,33580,0,65700,0,0,0,3625673965,63
i,1724817809.897078,10.0.2.15,22,10.0.2.2,51120,1073725440,17990,1026,65535,65700,0,0,4,1460,312,0,4,240000,33580,0,65700,96,0,0,3625673965,63
o,1724817809.897095,10.0.2.15,22,10.0.2.2,51120,1073725440,17990,1026,65535,65604,0,0,5,1460,312,0,5,240000,33580,0,65700,96,0,0,3625673965,63
o,1724817809.898083,10.0.2.15,22,10.0.2.2,51120,1073725440,17990,1026,65535,65604,0,0,8,1460,312,0,4,240000,33580,0,65700,0,0,0,3625673965,63
i,1724817809.898552,10.0.2.15,22,10.0.2.2,51120,1073725440,17990,1026,65535,65604,0,0,8,1460,312,0,67108884,240000,33580,0,65700,0,1,0,3625673965,63
i,1724817813.031522,10.0.2.15,22,10.0.2.2,51182,1073725440,14600,0,65535,65700,0,0,4,1460,312,0,16777216,270000,33580,0,65700,0,0,0,1680315758,63
o,1724817813.042627,10.0.2.15,22,10.0.2.2,51182,1073725440,14600,1026,65535,65700,0,0,4,1460,312,0,16777216,270000,33580,38,65700,42,0,0,1680315758,63
i,1724817813.043610,10.0.2.15,22,10.0.2.2,51182,1073725440,14600,1026,65535,65700,0,0,4,1460,312,0,16777216,270000,33580,38,65700,0,38,0,1680315758,63
i,1724817813.043667,10.0.2.15,22,10.0.2.2,51182,1073725440,14638,1026,65535,65700,0,0,4,1460,312,0,0,230000,33580,0,65700,0,0,0,1680315758,63
i,1724817813.043684,10.0.2.15,22,10.0.2.2,51182,1073725440,14638,1026,65535,65700,0,0,4,1460,312,0,0,230000,33580,0,65700,1460,0,0,1680315758,63
o,1724817813.043704,10.0.2.15,22,10.0.2.2,51182,1073725440,14638,1026,65535,65700,0,0,4,1460,312,0,1,230000,33580,0,65700,1536,0,0,1680315758,63
o,1724817813.044649,10.0.2.15,22,10.0.2.2,51182,1073725440,14638,1026,65535,65700,0,0,4,1460,312,0,16777216,230000,33580,1120,65700,1536,0,0,1680315758,63
i,1724817813.045526,10.0.2.15,22,10.0.2.2,51182,1073725440,14638,1026,65535,65700,0,0,4,1460,312,0,16777216,230000,33580,1120,65700,0,1120,0,1680315758,63
i,1724817813.046631,10.0.2.15,22,10.0.2.2,51182,1073725440,15758,1026,65535,65700,0,0,4,1460,312,0,0,230000,33580,0,65700,0,0,0,1680315758,63
o,1724817813.048242,10.0.2.15,22,10.0.2.2,51182,1073725440,15758,1026,65535,65700,0,0,4,1460,312,0,16777216,230000,33580,492,65700,0,0,0,1680315758,63
i,1724817813.049138,10.0.2.15,22,10.0.2.2,51182,1073725440,15758,1026,65535,65700,0,0,4,1460,312,0,16777216,230000,33580,492,65700,0,492,0,1680315758,63
i,1724817813.053095,10.0.2.15,22,10.0.2.2,51182,1073725440,16250,1026,65535,65700,0,0,4,1460,312,0,0,230000,33580,0,65700,0,0,0,1680315758,63
i,1724817813.053114,10.0.2.15,22,10.0.2.2,51182,1073725440,16250,1026,65535,65700,0,0,4,1460,312,0,0,230000,33580,0,65700,16,0,0,1680315758,63
o,1724817813.053132,10.0.2.15,22,10.0.2.2,51182,1073725440,16250,1026,65535,65700,0,0,4,1460,312,0,1,230000,33580,0,65700,60,0,0,1680315758,63
o,1724817813.053577,10.0.2.15,22,10.0.2.2,51182,1073725440,16250,1026,65535,65700,0,0,4,1460,312,0,16777216,230000,33580,44,65700,0,0,0,1680315758,63
i,1724817813.054516,10.0.2.15,22,10.0.2.2,51182,1073725440,16250,1026,65535,65700,0,0,4,1460,312,0,16777216,230000,33580,44,65700,0,44,0,1680315758,63
i,1724817813.054535,10.0.2.15,22,10.0.2.2,51182,1073725440,16294,1026,65535,65700,0,0,4,1460,312,0,0,230000,33580,0,65700,0,0,0,1680315758,63
o,1724817813.055761,10.0.2.15,22,10.0.2.2,51182,1073725440,16294,1026,65535,65700,0,0,4,1460,312,0,16777216,230000,33580,68,65700,0,0,0,1680315758,63
i,1724817813.056574,10.0.2.15,22,10.0.2.2,51182,1073725440,16294,1026,65535,65700,0,0,4,1460,312,0,16777216,230000,33580,68,65700,0,68,0,1680315758,63
i,1724817813.056593,10.0.2.15,22,10.0.2.2,51182,1073725440,16362,1026,65535,65700,0,0,4,1460,312,0,0,240000,33580,0,65700,0,0,0,1680315758,63
o,1724817813.057433,10.0.2.15,22,10.0.2.2,51182,1073725440,16362,1026,65535,65700,0,0,4,1460,312,0,16777216,240000,33580,332,65700,0,0,0,1680315758,63
i,1724817813.058416,10.0.2.15,22,10.0.2.2,51182,1073725440,16362,1026,65535,65700,0,0,4,1460,312,0,16777216,240000,33580,332,65700,0,332,0,1680315758,63
i,1724817813.059595,10.0.2.15,22,10.0.2.2,51182,1073725440,16694,1026,65535,65700,0,0,4,1460,312,0,0,240000,33580,0,65700,0,0,0,1680315758,63
o,1724817813.077142,10.0.2.15,22,10.0.2.2,51182,1073725440,16694,1026,65535,65700,0,0,4,1460,312,0,16777216,240000,33580,28,65700,0,0,0,1680315758,63
i,1724817813.077826,10.0.2.15,22,10.0.2.2,51182,1073725440,16694,1026,65535,65700,0,0,4,1460,312,0,16777216,240000,33580,28,65700,0,28,0,1680315758,63
i,1724817813.077845,10.0.2.15,22,10.0.2.2,51182,1073725440,16722,1026,65535,65700,0,0,4,1460,312,0,0,240000,33580,0,65700,0,0,0,1680315758,63
o,1724817813.078924,10.0.2.15,22,10.0.2.2,51182,1073725440,16722,1026,65535,65700,0,0,4,1460,312,0,16777216,240000,33580,768,65700,112,0,0,1680315758,63
i,1724817813.079759,10.0.2.15,22,10.0.2.2,51182,1073725440,16722,1026,65535,65700,0,0,4,1460,312,0,16777216,240000,33580,908,65700,112,768,0,1680315758,63
o,1724817813.079778,10.0.2.15,22,10.0.2.2,51182,1073725440,17490,1026,65535,65700,0,0,4,1460,312,0,16777216,240000,33580,140,65700,112,0,0,1680315758,63
i,1724817813.080162,10.0.2.15,22,10.0.2.2,51182,1073725440,17490,1026,65535,65700,0,0,4,1460,312,0,16777216,240000,33580,140,65700,112,140,0,1680315758,63
o,1724817813.082278,10.0.2.15,22,10.0.2.2,51182,1073725440,17630,1026,65535,65700,0,0,4,1460,312,0,16777216,240000,33580,44,65700,0,0,0,1680315758,63
i,1724817813.082994,10.0.2.15,22,10.0.2.2,51182,1073725440,17630,1026,65535,65700,0,0,4,1460,312,0,16777216,240000,33580,44,65700,0,44,0,1680315758,63
i,1724817813.083010,10.0.2.15,22,10.0.2.2,51182,1073725440,17674,1026,65535,65700,0,0,4,1460,312,0,0,240000,33580,0,65700,0,0,0,1680315758,63
o,1724817813.084159,10.0.2.15,22,10.0.2.2,51182,1073725440,17674,1026,65535,65700,0,0,4,1460,312,0,16777220,240000,33580,72,65700,0,0,0,1680315758,63
i,1724817813.084570,10.0.2.15,22,10.0.2.2,51182,1073725440,17674,1026,65535,65700,0,0,4,1460,312,0,16777220,240000,33580,72,65700,0,72,0,1680315758,63
o,1724817813.088058,10.0.2.15,22,10.0.2.2,51182,1073725440,17746,1026,65535,65700,0,0,4,1460,312,0,16777220,240000,33580,104,65700,0,0,0,1680315758,63
i,1724817813.088560,10.0.2.15,22,10.0.2.2,51182,1073725440,17746,1026,65535,65700,0,0,4,1460,312,0,16777220,240000,33580,104,65700,0,104,0,1680315758,63
o,1724817813.090360,10.0.2.15,22,10.0.2.2,51182,1073725440,17850,1026,65535,65700,0,0,4,1460,312,0,16777220,240000,33580,72,65700,0,0,0,1680315758,63
i,1724817813.091601,10.0.2.15,22,10.0.2.2,51182,1073725440,17850,1026,65535,65700,0,0,4,1460,312,0,16777220,240000,33580,72,65700,0,72,0,1680315758,63
i,1724817813.091682,10.0.2.15,22,10.0.2.2,51182,1073725440,17922,1026,65535,65700,0,0,4,1460,312,0,4,240000,33580,0,65700,0,0,0,1680315758,63
i,1724817813.091754,10.0.2.15,22,10.0.2.2,51182,1073725440,17922,1026,65535,65700,0,0,4,1460,312,0,4,240000,33580,0,65700,96,0,0,1680315758,63
o,1724817813.091774,10.0.2.15,22,10.0.2.2,51182,1073725440,17922,1026,65535,65604,0,0,5,1460,312,0,5,240000,33580,0,65700,96,0,0,1680315758,63
o,1724817813.093968,10.0.2.15,22,10.0.2.2,51182,1073725440,17922,1026,65535,65604,0,0,8,1460,312,0,4,240000,33580,0,65700,0,0,0,1680315758,63
i,1724817813.094782,10.0.2.15,22,10.0.2.2,51182,1073725440,17922,1026,65535,65604,0,0,8,1460,312,0,67108884,240000,33580,0,65700,0,1,0,1680315758,63
i,1724817814.165409,10.0.2.15,22,10.0.2.2,51096,1073725440,14600,0,65535,65700,0,0,4,1460,312,0,16777216,270000,33580,0,65700,0,0,0,4180660776,63
o,1724817814.176266,10.0.2.15,22,10.0.2.2,51096,1073725440,14600,1026,65535,65700,0,0,4,1460,312,0,16777216,270000,33580,38,65700,42,0,0,4180660776,63
i,1724817814.177178,10.0.2.15,22,10.0.2.2,51096,1073725440,14600,1026,65535,65700,0,0,4,1460,312,0,16777216,270000,33580,38,65700,0,38,0,4180660776,63
i,1724817814.177205,10.0.2.15,22,10.0.2.2,51096,1073725440,14638,1026,65535,65700,0,0,4,1460,312,0,0,240000,33580,0,65700,0,0,0,4180660776,63
i,1724817814.177222,10.0.2.15,22,10.0.2.2,51096,1073725440,14638,1026,65535,65700,0,0,4,1460,312,0,0,240000,33580,0,65700,1460,0,0,4180660776,63
o,1724817814.177243,10.0.2.15,22,10.0.2.2,51096,1073725440,14638,1026,65535,65700,0,0,4,1460,312,0,1,240000,33580,0,65700,1536,0,0,4180660776,63
o,1724817814.183612,10.0.2.15,22,10.0.2.2,51096,1073725440,14638,1026,65535,65700,0,0,4,1460,312,0,16777216,240000,33580,1120,65700,1536,0,0,4180660776,63
i,1724817814.184633,10.0.2.15,22,10.0.2.2,51096,1073725440,14638,1026,65535,65700,0,0,4,1460,312,0,16777216,240000,33580,1120,65700,0,1120,0,4180660776,63
i,1724817814.185487,10.0.2.15,22,10.0.2.2,51096,1073725440,15758,1026,65535,65700,0,0,4,1460,312,0,0,240000,33580,0,65700,0,0,0,4180660776,63
o,1724817814.188665,10.0.2.15,22,10.0.2.2,51096,1073725440,15758,1026,65535,65700,0,0,4,1460,312,0,16777216,240000,33580,492,65700,0,0,0,4180660776,63
i,1724817814.189685,10.0.2.15,22,10.0.2.2,51096,1073725440,15758,1026,65535,65700,0,0,4,1460,312,0,16777216,240000,33580,492,65700,0,492,0,4180660776,63
i,1724817814.193725,10.0.2.15,22,10.0.2.2,51096,1073725440,16250,1026,65535,65700,0,0,4,1460,312,0,0,240000,33580,0,65700,0,0,0,4180660776,63
i,1724817814.193748,10.0.2.15,22,10.0.2.2,51096,1073725440,16250,1026,65535,65700,0,0,4,1460,312,0,0,240000,33580,0,65700,16,0,0,4180660776,63
o,1724817814.193767,10.0.2.15,22,10.0.2.2,51096,1073725440,16250,1026,65535,65700,0,0,4,1460,312,0,1,240000,33580,0,65700,44,0,0,4180660776,63
o,1724817814.193912,10.0.2.15,22,10.0.2.2,51096,1073725440,16250,1026,65535,65700,0,0,4,1460,312,0,16777216,240000,33580,44,65700,0,0,0,4180660776,63
i,1724817814.194762,10.0.2.15,22,10.0.2.2,51096,1073725440,16250,1026,65535,65700,0,0,4,1460,312,0,16777216,240000,33580,44,65700,0,44,0,4180660776,63
i,1724817814.194786,10.0.2.15,22,10.0.2.2,51096,1073725440,16294,1026,65535,65700,0,0,4,1460,312,0,0,240000,33580,0,65700,0,0,0,4180660776,63
o,1724817814.196901,10.0.2.15,22,10.0.2.2,51096,1073725440,16294,1026,65535,65700,0,0,4,1460,312,0,16777216,240000,33580,68,65700,0,0,0,4180660776,63
i,1724817814.197449,10.0.2.15,22,10.0.2.2,51096,1073725440,16294,1026,65535,65700,0,0,4,1460,312,0,16777216,240000,33580,68,65700,0,68,0,4180660776,63
i,1724817814.197486,10.0.2.15,22,10.0.2.2,51096,1073725440,16362,1026,65535,65700,0,0,4,1460,312,0,0,240000,33580,0,65700,0,0,0,4180660776,63
o,1724817814.198549,10.0.2.15,22,10.0.2.2,51096,1073725440,16362,1026,65535,65700,0,0,4,1460,312,0,16777216,240000,33580,332,65700,0,0,0,4180660776,63
i,1724817814.199217,10.0.2.15,22,10.0.2.2,51096,1073725440,16362,1026,65535,65700,0,0,4,1460,312,0,16777216,240000,33580,332,65700,0,332,0,4180660776,63
i,1724817814.200725,10.0.2.15,22,10.0.2.2,51096,1073725440,16694,1026,65535,65700,0,0,4,1460,312,0,0,240000,33580,0,65700,0,0,0,4180660776,63
o,1724817814.218922,10.0.2.15,22,10.0.2.2,51096,1073725440,16694,1026,65535,65700,0,0,4,1460,312,0,16777216,240000,33580,28,65700,0,0,0,4180660776,63
i,1724817814.219654,10.0.2.15,22,10.0.2.2,51096,1073725440,16694,1026,65535,65700,0,0,4,1460,312,0,16777216,240000,33580,28,65700,0,28,0,4180660776,63
i,1724817814.219674,10.0.2.15,22,10.0.2.2,51096,1073725440,16722,1026,65535,65700,0,0,4,1460,312,0,0,240000,33580,0,65700,0,0,0,4180660776,63
o,1724817814.221217,10.0.2.15,22,10.0.2.2,51096,1073725440,16722,1026,65535,65700,0,0,4,1460,312,0,16777216,240000,33580,768,65700,112,0,0,4180660776,63
i,1724817814.221576,10.0.2.15,22,10.0.2.2,51096,1073725440,16722,1026,65535,65700,0,0,4,1460,312,0,16777216,240000,33580,908,65700,112,768,0,4180660776,63
o,1724817814.221598,10.0.2.15,22,10.0.2.2,51096,1073725440,17490,1026,65535,65700,0,0,4,1460,312,0,16777216,240000,33580,140,65700,112,0,0,4180660776,63
i,1724817814.222023,10.0.2.15,22,10.0.2.2,51096,1073725440,17490,1026,65535,65700,0,0,4,1460,312,0,16777216,240000,33580,140,65700,0,140,0,4180660776,63
o,1724817814.222167,10.0.2.15,22,10.0.2.2,51096,1073725440,17630,1026,65535,65700,0,0,4,1460,312,0,16777216,240000,33580,44,65700,0,0,0,4180660776,63
i,1724817814.222167,10.0.2.15,22,10.0.2.2,51096,1073725440,17630,1026,65535,65700,0,0,4,1460,312,0,16777216,240000,33580,44,65700,0,44,0,4180660776,63
i,1724817814.222167,10.0.2.15,22,10.0.2.2,51096,1073725440,17674,1026,65535,65700,0,0,4,1460,312,0,0,240000,33580,0,65700,0,0,0,4180660776,63
o,1724817814.223679,10.0.2.15,22,10.0.2.2,51096,1073725440,17674,1026,65535,65700,0,0,4,1460,312,0,16777220,240000,33580,72,65700,0,0,0,4180660776,63
i,1724817814.224093,10.0.2.15,22,10.0.2.2,51096,1073725440,17674,1026,65535,65700,0,0,4,1460,312,0,16777220,240000,33580,72,65700,0,72,0,4180660776,63
o,1724817814.346425,172.16.5.2,40997,172.16.1.2,5102,39793,14480,2082,65535,65700,6,6,4,1460,166875,1,16778209,630000,33580,0,65700,0,0,0,2016441699,63
o,1724817814.346915,172.16.5.2,40997,172.16.1.2,5102,39793,14480,2082,65535,65700,6,6,4,1460,166875,1,16778212,630000,33580,37,65700,0,0,0,2016441699,63
i,1724817814.684474,172.16.5.2,40997,172.16.1.2,5102,39793,14480,2082,65535,65700,6,6,4,1460,166875,1,16778212,630000,33580,37,65700,0,37,0,2016441699,63
o,1724817814.684846,172.16.5.2,40997,172.16.1.2,5102,39793,14517,3106,65728,65728,6,6,4,1460,188750,1,16778212,760000,33580,4,65700,0,0,0,2016441699,63
o,1724817814.685446,172.16.5.2,40997,172.16.1.2,5102,39793,14517,3106,65728,65728,6,6,4,1460,188750,1,16778212,760000,33580,130,65700,0,4,0,2016441699,63
i,1724817814.809176,172.16.5.2,40997,172.16.1.2,5102,39793,14517,3106,65728,65728,6,6,4,1460,188750,1,16778212,760000,33580,130,65700,0,130,0,2016441699,63
i,1724817814.809225,172.16.5.2,40997,172.16.1.2,5102,39793,14647,3106,65600,65728,6,6,4,1460,180312,1,996,730000,33580,0,65700,0,0,0,2016441699,63
o,1724817814.869765,172.16.5.2,40997,172.16.1.2,5102,39793,14647,3106,65728,65728,6,6,4,1460,180312,1,997,730000,33580,0,65700,0,0,0,2016441699,63
o,1724817814.919271,172.16.5.2,62717,172.16.1.2,5102,39793,14480,2082,65535,65700,6,6,4,1460,166875,1,16778209,630000,33580,0,65700,0,0,0,1060554936,63
o,1724817814.919480,172.16.5.2,62717,172.16.1.2,5102,39793,14480,2082,65535,65700,6,6,4,1460,166875,1,16778208,630000,33580,37,65700,0,0,0,1060554936,63
i,1724817815.038507,172.16.5.2,40997,172.16.1.2,5102,39793,14647,3106,65728,65728,6,6,4,1460,180312,1,996,730000,33580,0,65700,0,0,0,2016441699,63
i,1724817815.038607,172.16.5.2,40997,172.16.1.2,5102,39793,14647,3106,65728,65728,6,6,4,1460,180312,1,996,730000,33580,0,65700,1,0,0,2016441699,63
o,1724817815.038633,172.16.5.2,40997,172.16.1.2,5102,39793,14647,3106,65728,65728,6,6,4,1460,180312,1,997,730000,33580,0,65700,2,0,0,2016441699,63
o,1724817815.039447,172.16.5.2,62717,172.16.1.2,5102,39793,14480,2086,65535,65700,6,6,4,1460,166875,1,16778208,630000,33580,33580,65700,0,37,0,1060554936,63
i,1724817815.074182,172.16.5.2,62717,172.16.1.2,5102,39793,14480,2086,65535,65700,6,6,4,1460,166875,1,16778208,630000,33580,33580,65700,0,13069,0,1060554936,63
o,1724817815.074211,172.16.5.2,62717,172.16.1.2,5102,39793,14517,2086,65728,65728,6,6,4,1460,166250,1,16778208,570000,33580,33543,65700,0,13032,0,1060554936,63
i,1724817815.414279,172.16.5.2,62717,172.16.1.2,5102,39793,14517,2086,65728,65728,6,6,4,1460,166250,1,16778208,570000,33580,33543,65700,0,14480,0,1060554936,63
o,1724817815.414279,172.16.5.2,62717,172.16.1.2,5102,39793,17413,2086,64256,65728,6,6,4,1460,193125,1,16778208,760000,33580,30647,65700,0,11584,0,1060554936,63
i,1724817815.466701,172.16.5.2,62717,172.16.1.2,5102,39793,17413,2086,64256,65728,6,6,4,1460,193125,1,16778208,760000,41772,41772,65700,0,17376,0,1060554936,63
o,1724817815.466734,172.16.5.2,62717,172.16.1.2,5102,39793,20309,2086,64256,65728,6,6,4,1460,222812,1,16778208,940000,41772,38876,65700,0,14480,0,1060554936,63
i,1724817815.512771,172.16.5.2,62717,172.16.1.2,5102,39793,20309,2086,64256,65728,6,6,4,1460,222812,1,16778208,940000,49964,49964,65700,0,20272,0,1060554936,63
o,1724817815.512840,172.16.5.2,62717,172.16.1.2,5102,39793,23205,2086,64256,65728,6,6,4,1460,253750,1,16778208,1090000,49964,47068,65700,0,17376,0,1060554936,63
i,1724817815.569745,172.16.5.2,62717,172.16.1.2,5102,39793,23205,2086,64256,65728,6,6,4,1460,253750,1,16778208,1090000,49964,49964,65700,0,23168,0,1060554936,63
o,1724817815.569772,172.16.5.2,62717,172.16.1.2,5102,39793,26101,2086,64256,65728,6,6,4,1460,288437,1,16778208,1240000,49964,47068,65700,0,20272,0,1060554936,63
i,1724817815.625026,172.16.5.2,62717,172.16.1.2,5102,39793,26101,2086,64256,65728,6,6,4,1460,288437,1,16778208,1240000,58156,58156,65700,0,26064,0,1060554936,63
o,1724817815.625064,172.16.5.2,62717,172.16.1.2,5102,39793,28997,2086,64256,65728,6,6,4,1460,326250,1,16778208,1390000,58156,55260,65700,0,23168,0,1060554936,63
o,1724817815.625191,172.16.5.2,62717,172.16.1.2,5102,39793,28997,2086,64256,65728,6,6,4,1460,326250,1,16778208,1390000,58156,55260,65700,0,24616,0,1060554936,63
i,1724817816.041281,172.16.5.2,62717,172.16.1.2,5102,39793,28997,2086,64256,65728,6,6,4,1460,326250,1,16778208,1390000,66348,66348,65700,0,28960,0,1060554936,63
o,1724817816.041323,172.16.5.2,62717,172.16.1.2,5102,39793,31893,2086,64256,65728,6,6,4,1460,363125,1,16778208,1510000,66348,63452,65700,0,26064,0,1060554936,63
i,1724817816.155931,172.16.5.2,62717,172.16.1.2,5102,39793,31893,2086,64256,65728,6,6,4,1460,363125,1,16778208,1510000,74540,74540,65700,0,31856,0,1060554936,63
o,1724817816.155931,172.16.5.2,62717,172.16.1.2,5102,39793,33341,2086,65728,65728,6,6,4,1460,410312,1,16778208,1700000,74540,73092,65700,0,30408,0,1060554936,63
i,1724817816.185437,172.16.5.2,62717,172.16.1.2,5102,39793,33341,2086,65728,65728,6,6,4,1460,410312,1,16778208,1700000,74540,73092,65700,0,33304,0,1060554936,63
o,1724817816.185475,172.16.5.2,62717,172.16.1.2,5102,39793,34752,2082,65728,65728,6,6,4,1460,410312,1,16778208,1700000,74540,73092,65700,0,33304,0,1060554936,63
i,1724817816.185475,172.16.5.2,62717,172.16.1.2,5102,39793,33341,2082,65728,65728,6,6,4,1460,410312,1,16778208,1700000,74540,73092,65700,0,34752,0,1060554936,63
o,1724817816.185475,172.16.5.2,62717,172.16.1.2,5102,39793,36200,2082,65728,65728,6,6,4,1460,410312,1,16778208,1700000,74540,73092,65700,0,34752,0,1060554936,63
i,1724817816.234965,172.16.5.2,62717,172.16.1.2,5102,39793,33341,2082,65728,65728,6,6,4,1460,410312,1,16778208,1700000,74540,73092,65700,0,36200,0,1060554936,63
o,1724817816.235003,172.16.5.2,62717,172.16.1.2,5102,16670,1448,2146,65728,65728,6,6,4,1460,410312,1,554697696,1700000,74540,73092,65700,0,36200,0,1060554936,63
i,1724817816.274906,172.16.5.2,62717,172.16.1.2,5102,16670,1448,2146,65728,65728,6,6,4,1460,410312,1,554697696,1700000,74540,73092,65700,0,36200,0,1060554936,63
i,1724817816.274946,172.16.5.2,62717,172.16.1.2,5102,16670,1448,2146,65728,65728,6,6,4,1460,410312,1,554697696,1700000,74540,73092,65700,0,36200,0,1060554936,63
o,1724817816.274964,172.16.5.2,62717,172.16.1.2,5102,16670,2896,2146,65728,65728,6,6,4,1460,410312,1,554697696,1700000,74540,73092,65700,0,36200,0,1060554936,63
i,1724817816.309453,172.16.5.2,62717,172.16.1.2,5102,16670,2896,2146,65728,65728,6,6,4,1460,410312,1,554697696,1700000,74540,73092,65700,0,36200,0,1060554936,63
i,1724817816.326916,172.16.5.2,62717,172.16.1.2,5102,16670,2896,2146,65728,65728,6,6,4,1460,410312,1,554697696,1700000,74540,73092,65700,0,36200,0,1060554936,63
o,1724817816.326962,172.16.5.2,62717,172.16.1.2,5102,16670,4344,2146,65728,65728,6,6,4,1460,410312,1,554697696,1700000,74540,73092,65700,0,36200,0,1060554936,63
i,1724817816.366706,172.16.5.2,62717,172.16.1.2,5102,16670,4344,2146,65728,65728,6,6,4,1460,410312,1,554697696,1700000,74540,73092,65700,0,36200,0,1060554936,63
i,1724817816.461027,172.16.5.2,62717,172.16.1.2,5102,16670,4344,2146,65728,65728,6,6,4,1460,410312,1,537920480,1700000,74540,73092,65700,0,36200,0,1060554936,63
o,1724817816.461078,172.16.5.2,62717,172.16.1.2,5102,16670,5792,2146,65728,65728,6,6,4,1460,410312,1,554697696,1700000,74540,73092,65700,0,36200,0,1060554936,63
i,1724817816.543119,172.16.5.2,62717,172.16.1.2,5102,16670,5792,2146,65728,65728,6,6,4,1460,410312,1,554697696,1700000,74540,73092,65700,0,36200,0,1060554936,63
i,1724817816.580740,172.16.5.2,62717,172.16.1.2,5102,16670,5792,2146,65728,65728,6,6,4,1460,410312,1,554697696,1700000,74540,73092,65700,0,36200,0,1060554936,63
o,1724817816.580772,172.16.5.2,62717,172.16.1.2,5102,16670,7240,2146,65728,65728,6,6,4,1460,410312,1,554697696,1700000,74540,73092,65700,0,36200,0,1060554936,63
i,1724817816.580908,172.16.5.2,62717,172.16.1.2,5102,16670,7240,2146,65728,65728,6,6,4,1460,410312,1,554697696,1700000,74540,73092,65700,0,36200,0,1060554936,63
i,1724817816.632172,172.16.5.2,62717,172.16.1.2,5102,16670,5792,2146,65728,65728,6,6,4,1460,410312,1,537920480,1700000,74540,73092,65700,0,36200,0,1060554936,63
o,1724817816.632172,172.16.5.2,62717,172.16.1.2,5102,16670,5792,2146,65728,65728,6,6,4,1460,410312,1,554697696,1700000,74540,73092,65700,0,36200,0,1060554936,63
i,1724817816.734128,172.16.5.2,62717,172.16.1.2,5102,16670,5792,2146,65728,65728,6,6,4,1460,410312,1,554697696,1700000,74540,73092,65700,0,36200,0,1060554936,63
i,1724817816.801590,172.16.5.2,62717,172.16.1.2,5102,16670,4344,2146,65728,65728,6,6,4,1460,410312,1,554697696,1700000,74540,73092,65700,0,36200,0,1060554936,63
o,1724817817.964320,172.16.5.2,62717,172.16.1.2,5102,2896,1448,2146,65728,65728,6,6,4,1460,410312,1,1092625377,3200000,74540,73092,65700,0,36200,0,1060554936,63
i,1724817818.111556,172.16.5.2,62717,172.16.1.2,5102,2896,1448,2146,65728,65728,6,6,4,1460,410312,1,1092625376,3200000,74540,73092,65700,0,36200,0,1060554936,63
o,1724817818.111638,172.16.5.2,62717,172.16.1.2,5102,2896,2908,2150,57088,65728,6,6,4,1460,376562,1,1092625376,1660000,74540,64404,65700,0,27512,0,1060554936,63
o,1724817818.111814,172.16.5.2,62717,172.16.1.2,5102,2896,2908,2150,57088,65728,6,6,4,1460,376562,1,1092625376,1660000,74540,64404,65700,0,27512,0,1060554936,63
o,1724817818.111976,172.16.5.2,62717,172.16.1.2,5102,2896,2908,2146,57088,65728,6,6,4,1460,376562,1,1092625376,1660000,74540,64404,65700,0,27512,0,1060554936,63
i,1724817818.270464,172.16.5.2,62717,172.16.1.2,5102,2896,2908,2146,57088,65728,6,6,4,1460,376562,1,1092625376,1660000,74540,74540,65700,0,27512,0,1060554936,63
o,1724817818.270504,172.16.5.2,62717,172.16.1.2,5102,2896,4368,2150,55616,65728,6,6,4,1460,349687,1,1092625376,1580000,74540,64404,65700,0,17376,0,1060554936,63
o,1724817818.270645,172.16.5.2,62717,172.16.1.2,5102,2896,4368,2150,55616,65728,6,6,4,1460,349687,1,1092625376,1580000,74540,64404,65700,0,17376,0,1060554936,63
o,1724817818.270771,172.16.5.2,62717,172.16.1.2,5102,2896,4368,2146,55616,65728,6,6,4,1460,349687,1,1092625376,1580000,74540,64404,65700,0,17376,0,1060554936,63
i,1724817818.295089,172.16.5.2,62717,172.16.1.2,5102,2896,4368,2146,55616,65728,6,6,4,1460,349687,1,1092625376,1580000,74540,74540,65700,0,17376,0,1060554936,63
i,1724817818.295122,172.16.5.2,62717,172.16.1.2,5102,2896,4368,2146,65728,65728,6,6,4,1460,349687,1,1075848160,1580000,74540,74540,65700,0,17376,0,1060554936,63
i,1724817818.465235,172.16.5.2,62717,172.16.1.2,5102,2896,4368,2146,65728,65728,6,6,4,1460,349687,1,1075848160,1580000,74540,74540,65700,0,17376,0,1060554936,63
o,1724817818.465269,172.16.5.2,62717,172.16.1.2,5102,2896,5828,2150,62848,65728,6,6,4,1460,331250,1,1092625376,1450000,74540,71644,65700,0,14480,0,1060554936,63
o,1724817818.465423,172.16.5.2,62717,172.16.1.2,5102,2896,5828,2150,62848,65728,6,6,4,1460,331250,1,1092625376,1450000,74540,71644,65700,0,14480,0,1060554936,63
o,1724817818.465536,172.16.5.2,62717,172.16.1.2,5102,2896,5828,2146,62848,65728,6,6,4,1460,331250,1,1092625376,1450000,74540,71644,65700,0,14480,0,1060554936,63
i,1724817818.484838,172.16.5.2,62717,172.16.1.2,5102,2896,5828,2146,62848,65728,6,6,4,1460,331250,1,1092625376,1450000,74540,74540,65700,0,14480,0,1060554936,63
i,1724817818.534139,172.16.5.2,62717,172.16.1.2,5102,2896,5828,2146,65728,65728,6,6,4,1460,331250,1,1075848160,1450000,74540,74540,65700,0,14480,0,1060554936,63
o,1724817818.534165,172.16.5.2,62717,172.16.1.2,5102,2896,7288,2150,62848,65728,6,6,4,1460,323750,1,1092625376,1270000,74540,71644,65700,0,11584,0,1060554936,63
o,1724817818.534278,172.16.5.2,62717,172.16.1.2,5102,2896,7288,2150,62848,65728,6,6,4,1460,323750,1,1092625376,1270000,74540,71644,65700,0,11584,0,1060554936,63
o,1724817818.534395,172.16.5.2,62717,172.16.1.2,5102,2896,7288,2146,62848,65728,6,6,4,1460,323750,1,1092625376,1270000,74540,71644,65700,0,11584,0,1060554936,63
i,1724817818.534506,172.16.5.2,62717,172.16.1.2,5102,2896,7288,2146,62848,65728,6,6,4,1460,323750,1,1092625376,1270000,74540,71644,65700,0,11584,0,1060554936,63
i,1724817818.661931,172.16.5.2,62717,172.16.1.2,5102,2896,7288,2146,65728,65728,6,6,4,1460,323750,1,1075848160,1270000,74540,74540,65700,0,11584,0,1060554936,63
o,1724817818.661966,172.16.5.2,62717,172.16.1.2,5102,2896,7288,2146,65728,65728,6,6,4,1460,307187,1,1092625376,1200000,74540,74516,65700,0,11560,0,1060554936,63
i,1724817818.693498,172.16.5.2,62717,172.16.1.2,5102,2896,7288,2146,65728,65728,6,6,4,1460,307187,1,1092625376,1200000,74540,74516,65700,0,11560,0,1060554936,63
o,1724817818.693527,172.16.5.2,62717,172.16.1.2,5102,2896,7288,2146,64320,65728,6,6,4,1460,296562,1,1092625376,1100000,74540,73068,65700,0,10112,0,1060554936,63
i,1724817818.797929,172.16.5.2,62717,172.16.1.2,5102,2896,7288,2146,64320,65728,6,6,4,1460,296562,1,1092625376,1100000,74540,73068,65700,0,10112,0,1060554936,63
o,1724817818.798005,172.16.5.2,62717,172.16.1.2,5102,2896,7288,2146,64256,65728,6,6,4,1460,300937,1,1092625376,990000,74540,71620,65700,0,8664,0,1060554936,63
i,1724817818.851563,172.16.5.2,62717,172.16.1.2,5102,2896,7288,2146,64256,65728,6,6,4,1460,300937,1,1092625376,990000,74540,74540,65700,0,8664,0,1060554936,63
i,1724817818.851606,172.16.5.2,62717,172.16.1.2,5102,2896,7288,2146,65728,65728,6,6,4,1460,310937,1,1092625376,960000,74540,74528,65700,0,8652,0,1060554936,63
i,1724817818.896416,172.16.5.2,62717,172.16.1.2,5102,2896,7288,2146,64320,65728,6,6,4,1460,310937,1,1092625376,840000,74540,73080,65700,0,7204,0,1060554936,63
o,1724817818.896443,172.16.5.2,62717,172.16.1.2,5102,2896,8748,2086,62848,65728,6,6,4,1460,317187,1,1092625376,820000,74540,70220,65700,0,4344,0,1060554936,63
i,1724817818.896613,172.16.5.2,62717,172.16.1.2,5102,2896,8748,2086,62848,65728,6,6,4,1460,317187,1,1092625376,820000,74540,70220,65700,0,8688,0,1060554936,63
i,1724817818.926805,172.16.5.2,62717,172.16.1.2,5102,2896,8748,2086,65664,65728,6,6,4,1460,322812,1,1092625376,790000,74540,74504,65700,0,8652,0,1060554936,63
i,1724817818.946679,172.16.5.2,62717,172.16.1.2,5102,2896,8748,2086,65728,65728,6,6,4,1460,331250,1,1092625376,800000,74540,74492,65700,0,8640,0,1060554936,63
i,1724817818.976911,172.16.5.2,62717,172.16.1.2,5102,2896,8748,2086,65728,65728,6,6,4,1460,326250,1,1075848160,770000,74540,74468,65700,0,8616,0,1060554936,63
o,1724817818.976982,172.16.5.2,62717,172.16.1.2,5102,2896,8748,2086,64320,65728,6,6,4,1460,320625,1,1092625376,750000,74540,73020,65700,0,7168,0,1060554936,63
i,1724817819.009129,172.16.5.2,62717,172.16.1.2,5102,2896,8748,2086,64320,65728,6,6,4,1460,320625,1,1092625376,750000,74540,73020,65700,0,8616,0,1060554936,63
o,1724817819.009153,172.16.5.2,62717,172.16.1.2,5102,2896,8748,2086,62912,65728,6,6,4,1460,306875,1,1092625376,790000,74540,70196,65700,0,5792,0,1060554936,63
i,1724817819.116305,172.16.5.2,62717,172.16.1.2,5102,2896,8748,2086,62912,65728,6,6,4,1460,306875,1,1092625376,790000,74540,74540,65700,0,8688,0,1060554936,63
o,1724817819.116305,172.16.5.2,62717,172.16.1.2,5102,2896,8748,2086,65728,65728,6,6,4,1460,296250,1,1092625376,790000,74540,73092,65700,0,7240,0,1060554936,63
i,1724817819.181739,172.16.5.2,62717,172.16.1.2,5102,2896,8748,2086,65728,65728,6,6,4,1460,296250,1,1092625376,790000,74540,73092,65700,0,8688,0,1060554936,63
o,1724817819.181768,172.16.5.2,62717,172.16.1.2,5102,2896,10208,2086,65728,65728,6,6,4,1460,294375,1,1092625376,730000,74540,71644,65700,0,7240,0,1060554936,63
i,1724817819.274336,172.16.5.2,62717,172.16.1.2,5102,2896,10208,2086,65728,65728,6,6,4,1460,294375,1,1092625376,730000,74540,73152,65700,0,10136,0,1060554936,63
o,1724817819.274366,172.16.5.2,62717,172.16.1.2,5102,2896,10208,2086,65728,65728,6,6,4,1460,305312,1,1092625376,770000,74540,71704,65700,0,8688,0,1060554936,63
i,1724817819.324915,172.16.5.2,62717,172.16.1.2,5102,2896,10208,2086,65728,65728,6,6,4,1460,305312,1,1092625376,770000,74540,74540,65700,0,10136,0,1060554936,63
o,1724817819.325001,172.16.5.2,62717,172.16.1.2,5102,2896,10208,2086,65728,65728,6,6,4,1460,310937,1,1092625376,750000,74540,73092,65700,0,8688,0,1060554936,63
i,1724817819.396282,172.16.5.2,62717,172.16.1.2,5102,2896,10208,2086,65728,65728,6,6,4,1460,310937,1,1092625376,750000,74540,73092,65700,0,10136,0,1060554936,63
o,1724817819.396314,172.16.5.2,62717,172.16.1.2,5102,2896,10208,2086,64256,65728,6,6,4,1460,320937,1,1092625376,780000,74540,70196,65700,0,7240,0,1060554936,63
i,1724817819.457827,172.16.5.2,62717,172.16.1.2,5102,2896,10208,2086,64256,65728,6,6,4,1460,320937,1,1092625376,780000,74540,74540,65700,0,10136,0,1060554936,63
o,1724817819.457912,172.16.5.2,62717,172.16.1.2,5102,2896,10208,2086,65728,65728,6,6,4,1460,323437,1,1092625376,740000,74540,73092,65700,0,8688,0,1060554936,63
i,1724817819.553417,172.16.5.2,62717,172.16.1.2,5102,2896,10208,2086,65728,65728,6,6,4,1460,323437,1,1092625376,740000,74540,73092,65700,0,10136,0,1060554936,63
o,1724817819.553465,172.16.5.2,62717,172.16.1.2,5102,2896,10208,2086,65728,65728,6,6,4,1460,329375,1,1092625376,740000,74540,71644,65700,0,8688,0,1060554936,63
i,1724817819.582136,172.16.5.2,62717,172.16.1.2,5102,2896,10208,2086,65728,65728,6,6,4,1460,329375,1,1092625376,740000,74540,74540,65700,0,10136,0,1060554936,63
o,1724817819.582173,172.16.5.2,62717,172.16.1.2,5102,2896,11668,2086,64256,65728,6,6,4,1460,338437,1,1092625376,770000,74540,71644,65700,0,7240,0,1060554936,63
i,1724817819.688603,172.16.5.2,62717,172.16.1.2,5102,2896,11668,2086,64256,65728,6,6,4,1460,338437,1,1092625376,770000,74540,74540,65700,0,11584,0,1060554936,63
o,1724817819.688693,172.16.5.2,62717,172.16.1.2,5102,2896,11668,2086,65728,65728,6,6,4,1460,341250,1,1092625376,740000,74540,73092,65700,0,10136,0,1060554936,63
i,1724817819.744633,172.16.5.2,62717,172.16.1.2,5102,2896,11668,2086,65728,65728,6,6,4,1460,341250,1,1092625376,740000,74540,73092,65700,0,11584,0,1060554936,63
o,1724817819.744670,172.16.5.2,62717,172.16.1.2,5102,2896,11668,2086,65728,65728,6,6,4,1460,342500,1,1092625376,700000,74540,71644,65700,0,10136,0,1060554936,63
i,1724817819.798052,172.16.5.2,62717,172.16.1.2,5102,2896,11668,2086,65728,65728,6,6,4,1460,342500,1,1092625376,700000,74540,74540,65700,0,11584,0,1060554936,63
o,1724817819.798134,172.16.5.2,62717,172.16.1.2,5102,2896,11668,2086,65728,65728,6,6,4,1460,349687,1,1092625376,720000,74540,73092,65700,0,10136,0,1060554936,63
i,1724817819.897679,172.16.5.2,62717,172.16.1.2,5102,2896,11668,2086,65728,65728,6,6,4,1460,349687,1,1092625376,720000,74540,73092,65700,0,11584,0,1060554936,63
o,1724817819.897757,172.16.5.2,62717,172.16.1.2,5102,2896,11668,2086,64256,65728,6,6,4,1460,361250,1,1092625376,780000,74540,70196,65700,0,8688,0,1060554936,63
i,1724817819.964822,172.16.5.2,62717,172.16.1.2,5102,2896,11668,2086,64256,65728,6,6,4,1460,361250,1,1092625376,780000,74540,74540,65700,0,11584,0,1060554936,63
o,1724817819.964862,172.16.5.2,62717,172.16.1.2,5102,2896,11668,2086,65728,65728,6,6,4,1460,365000,1,1092625376,760000,74540,73092,65700,0,10136,0,1060554936,63
i,1724817820.077281,172.16.5.2,62717,172.16.1.2,5102,2896,11668,2086,65728,65728,6,6,4,1460,365000,1,1092625376,760000,74540,73092,65700,0,11584,0,1060554936,63
o,1724817820.077365,172.16.5.2,62717,172.16.1.2,5102,2896,13128,2086,64256,65728,6,6,4,1460,381875,1,1092625376,860000,74540,70196,65700,0,8688,0,1060554936,63
i,1724817820.138672,172.16.5.2,62717,172.16.1.2,5102,2896,13128,2086,64256,65728,6,6,4,1460,381875,1,1092625376,860000,74540,74540,65700,0,13032,0,1060554936,63
o,1724817820.138749,172.16.5.2,62717,172.16.1.2,5102,2896,13128,2086,65728,65728,6,6,4,1460,390625,1,1092625376,870000,74540,73092,65700,0,11584,0,1060554936,63
i,1724817820.166524,172.16.5.2,62717,172.16.1.2,5102,2896,13128,2086,65728,65728,6,6,4,1460,390625,1,1092625376,870000,74540,73092,65700,0,13032,0,1060554936,63
o,1724817820.166590,172.16.5.2,62717,172.16.1.2,5102,2896,13128,2086,65728,65728,6,6,4,1460,394375,1,1092625376,840000,74540,71644,65700,0,11584,0,1060554936,63
i,1724817820.192070,172.16.5.2,62717,172.16.1.2,5102,2896,13128,2086,65728,65728,6,6,4,1460,394375,1,1092625376,840000,74540,74540,65700,0,13032,0,1060554936,63
o,1724817820.192094,172.16.5.2,62717,172.16.1.2,5102,2896,13128,2086,65728,65728,6,6,4,1460,394062,1,1092625376,780000,74540,73092,65700,0,11584,0,1060554936,63
i,1724817820.215781,172.16.5.2,62717,172.16.1.2,5102,2896,13128,2086,65728,65728,6,6,4,1460,394062,1,1092625376,780000,74540,73092,65700,0,13032,0,1060554936,63
o,1724817820.215801,172.16.5.2,62717,172.16.1.2,5102,2896,13128,2086,64256,65728,6,6,4,1460,385000,1,1092625376,800000,74540,70196,65700,0,10136,0,1060554936,63
i,1724817820.363610,172.16.5.2,62717,172.16.1.2,5102,2896,13128,2086,64256,65728,6,6,4,1460,385000,1,1092625376,800000,74540,74540,65700,0,13032,0,1060554936,63
o,1724817820.363641,172.16.5.2,62717,172.16.1.2,5102,2896,13128,2086,65728,65728,6,6,4,1460,385625,1,1092625376,750000,74540,73092,65700,0,11584,0,1060554936,63
i,1724817820.424191,172.16.5.2,62717,172.16.1.2,5102,2896,13128,2086,65728,65728,6,6,4,1460,385625,1,1092625376,750000,74540,73092,65700,0,13032,0,1060554936,63
o,1724817820.424277,172.16.5.2,62717,172.16.1.2,5102,2896,13128,2086,65728,65728,6,6,4,1460,381250,1,1092625376,740000,74540,71644,65700,0,11584,0,1060554936,63
i,1724817820.484831,172.16.5.2,62717,172.16.1.2,5102,2896,13128,2086,65728,65728,6,6,4,1460,381250,1,1092625376,740000,74540,74540,65700,0,13032,0,1060554936,63
o,1724817820.484863,172.16.5.2,62717,172.16.1.2,5102,2896,14588,2086,64256,65728,6,6,4,1460,385000,1,1092625376,730000,74540,71644,65700,0,10136,0,1060554936,63
i,1724817820.625156,172.16.5.2,62717,172.16.1.2,5102,2896,14588,2086,64256,65728,6,6,4,1460,385000,1,1092625376,730000,74540,74540,65700,0,14480,0,1060554936,63
i,1724817820.676830,172.16.5.2,62717,172.16.1.2,5102,11198,13032,2150,65728,65728,6,6,4,1460,398125,1,1612719072,810000,74540,73092,65700,0,13032,0,1060554936,63
o,1724817820.676860,172.16.5.2,62717,172.16.1.2,5102,11198,14480,2082,65728,65728,6,6,4,1460,398125,1,1629496288,810000,74540,73092,65700,0,13032,0,1060554936,63
i,1724817820.719829,172.16.5.2,62717,172.16.1.2,5102,11198,13032,2082,65728,65728,6,6,4,1460,398125,1,1629496288,810000,74540,73092,65700,0,14480,0,1060554936,63
o,1724817820.719870,172.16.5.2,62717,172.16.1.2,5102,11198,15928,2082,65728,65728,6,6,4,1460,398125,1,1629496288,810000,74540,73092,65700,0,14480,0,1060554936,63
i,1724817820.837701,172.16.5.2,62717,172.16.1.2,5102,11198,13032,2082,65728,65728,6,6,4,1460,398125,1,1629496288,810000,74540,73092,65700,0,15928,0,1060554936,63
o,1724817820.837727,172.16.5.2,62717,172.16.1.2,5102,6516,1448,2146,65728,65728,6,6,4,1460,398125,1,1630544864,810000,74540,73092,65700,0,15928,0,1060554936,63
i,1724817820.861084,172.16.5.2,62717,172.16.1.2,5102,6516,1448,2146,65728,65728,6,6,4,1460,398125,1,1630544864,810000,74540,73092,65700,0,15928,0,1060554936,63
i,1724817820.916671,172.16.5.2,62717,172.16.1.2,5102,6516,1448,2146,65728,65728,6,6,4,1460,398125,1,1630544864,810000,74540,73092,65700,0,15928,0,1060554936,63
i,1724817820.978250,172.16.5.2,62717,172.16.1.2,5102,6516,1448,2146,65728,65728,6,6,4,1460,398125,1,1630544864,810000,74540,73092,65700,0,15928,0,1060554936,63
i,1724817821.009740,172.16.5.2,62717,172.16.1.2,5102,6516,1448,2146,65728,65728,6,6,4,1460,398125,1,1630544864,810000,74540,73092,65700,0,15928,0,1060554936,63
i,1724817821.041779,172.16.5.2,62717,172.16.1.2,5102,6516,1448,2146,65728,65728,6,6,4,1460,398125,1,1613767648,810000,74540,73092,65700,0,15928,0,1060554936,63
o,1724817821.654914,172.16.5.2,62717,172.16.1.2,5102,2896,1448,2146,65728,65728,6,6,4,1460,398125,1,1092625377,1420000,74540,73092,65700,0,15928,0,1060554936,63
i,1724817821.832547,172.16.5.2,62717,172.16.1.2,5102,2896,1448,2146,65728,65728,6,6,4,1460,398125,1,1092625376,1420000,74540,73092,65700,0,15928,0,1060554936,63
o,1724817821.832589,172.16.5.2,62717,172.16.1.2,5102,2896,2896,2150,62848,65728,6,6,4,1460,369687,1,1092625376,960000,74540,70196,65700,0,13032,0,1060554936,63
i,1724817822.015768,172.16.5.2,62717,172.16.1.2,5102,2896,2896,2150,62848,65728,6,6,4,1460,369687,1,1092625376,960000,74540,74540,65700,0,13032,0,1060554936,63
o,1724817822.015829,172.16.5.2,62717,172.16.1.2,5102,2896,2920,2150,62848,65728,6,6,4,1460,347500,1,1092625376,1020000,74540,71644,65700,0,10136,0,1060554936,63
i,1724817822.175683,172.16.5.2,62717,172.16.1.2,5102,2896,2920,2150,62848,65728,6,6,4,1460,347500,1,1092625376,1020000,74540,74540,65700,0,10136,0,1060554936,63
o,1724817822.175719,172.16.5.2,62717,172.16.1.2,5102,3285,4380,2086,55616,65728,6,6,4,1460,324062,1,1092625376,1060000,74540,64404,65700,0,0,0,1060554936,63
o,1724817822.175855,172.16.5.2,62717,172.16.1.2,5102,3285,4380,2086,55616,65728,6,6,4,1460,324062,1,1092625376,1060000,74540,64404,65700,0,1448,0,1060554936,63
i,1724817822.390283,172.16.5.2,62717,172.16.1.2,5102,3285,4380,2086,55616,65728,6,6,4,1460,324062,1,1092625376,1060000,74540,74540,65700,0,4344,0,1060554936,63
o,1724817822.390317,172.16.5.2,62717,172.16.1.2,5102,3285,5840,2086,65728,65728,6,6,4,1460,310000,1,1092625376,1030000,74540,73092,65700,0,2896,0,1060554936,63
o,1724817822.390430,172.16.5.2,62717,172.16.1.2,5102,3285,5840,2086,65728,65728,6,6,4,1460,310000,1,1092625376,1030000,74540,73092,65700,0,4344,0,1060554936,63
i,1724817822.427731,172.16.5.2,62717,172.16.1.2,5102,3285,5840,2086,65728,65728,6,6,4,1460,310000,1,1092625376,1030000,74540,73092,65700,0,5792,0,1060554936,63
o,1724817822.427831,172.16.5.2,62717,172.16.1.2,5102,3285,5840,2086,65728,65728,6,6,4,1460,302500,1,1092625376,950000,74540,71644,65700,0,4344,0,1060554936,63
i,1724817822.502587,172.16.5.2,62717,172.16.1.2,5102,3285,5840,2086,65728,65728,6,6,4,1460,302500,1,1092625376,950000,74540,74540,65700,0,5792,0,1060554936,63
o,1724817822.502667,172.16.5.2,62717,172.16.1.2,5102,3285,7300,2086,65728,65728,6,6,4,1460,304687,1,1092625376,850000,74540,73092,65700,0,4344,0,1060554936,63
i,1724817822.594767,172.16.5.2,62717,172.16.1.2,5102,3285,7300,2086,65728,65728,6,6,4,1460,304687,1,1092625376,850000,74540,73092,65700,0,7240,0,1060554936,63
o,1724817822.594840,172.16.5.2,62717,172.16.1.2,5102,3285,7300,2086,64256,65728,6,6,4,1460,293125,1,1092625376,850000,74540,70196,65700,0,4344,0,1060554936,63
o,1724817822.594952,172.16.5.2,62717,172.16.1.2,5102,3285,7300,2086,64256,65728,6,6,4,1460,293125,1,1092625376,850000,74540,70196,65700,0,5792,0,1060554936,63
i,1724817822.625099,172.16.5.2,62717,172.16.1.2,5102,3285,7300,2086,64256,65728,6,6,4,1460,293125,1,1092625376,850000,74540,74540,65700,0,7240,0,1060554936,63
o,1724817822.625164,172.16.5.2,62717,172.16.1.2,5102,3285,7300,2086,65728,65728,6,6,4,1460,281562,1,1092625376,840000,74540,73092,65700,0,5792,0,1060554936,63
i,1724817822.716726,172.16.5.2,62717,172.16.1.2,5102,3285,7300,2086,65728,65728,6,6,4,1460,281562,1,1092625376,840000,74540,73092,65700,0,7240,0,1060554936,63
o,1724817822.716762,172.16.5.2,62717,172.16.1.2,5102,3285,8760,2086,64256,65728,6,6,4,1460,274062,1,1092625376,800000,74540,70196,65700,0,4344,0,1060554936,63
i,1724817822.875010,172.16.5.2,62717,172.16.1.2,5102,3285,8760,2086,64256,65728,6,6,4,1460,274062,1,1092625376,800000,74540,74540,65700,0,8688,0,1060554936,63
o,1724817822.875121,172.16.5.2,62717,172.16.1.2,5102,3285,8760,2086,64256,65728,6,6,4,1460,275000,1,1092625376,730000,74540,71644,65700,0,5792,0,1060554936,63
o,1724817822.875302,172.16.5.2,62717,172.16.1.2,5102,3285,8760,2086,64256,65728,6,6,4,1460,275000,1,1092625376,730000,74540,71644,65700,0,7240,0,1060554936,63
i,1724817823.007110,172.16.5.2,62717,172.16.1.2,5102,3285,8760,2086,64256,65728,6,6,4,1460,275000,1,1092625376,730000,74540,74540,65700,0,8688,0,1060554936,63
o,1724817823.007215,172.16.5.2,62717,172.16.1.2,5102,3285,8760,2086,65728,65728,6,6,4,1460,288125,1,1092625376,780000,74540,73092,65700,0,7240,0,1060554936,63
i,1724817823.032325,172.16.5.2,62717,172.16.1.2,5102,3285,8760,2086,65728,65728,6,6,4,1460,288125,1,1092625376,780000,74540,73092,65700,0,8688,0,1060554936,63
o,1724817823.032398,172.16.5.2,62717,172.16.1.2,5102,3285,8760,2086,64256,65728,6,6,4,1460,290937,1,1092625376,730000,74540,70196,65700,0,5792,0,1060554936,63
i,1724817823.158349,172.16.5.2,62717,172.16.1.2,5102,3285,8760,2086,64256,65728,6,6,4,1460,290937,1,1092625376,730000,74540,74540,65700,0,8688,0,1060554936,63
o,1724817823.158450,172.16.5.2,62717,172.16.1.2,5102,3285,10220,2086,64256,65728,6,6,4,1460,309687,1,1092625376,840000,74540,71644,65700,0,5792,0,1060554936,63
o,1724817823.158593,172.16.5.2,62717,172.16.1.2,5102,3285,10220,2086,64256,65728,6,6,4,1460,309687,1,1092625376,840000,74540,71644,65700,0,7240,0,1060554936,63
i,1724817823.245219,172.16.5.2,62717,172.16.1.2,5102,3285,10220,2086,64256,65728,6,6,4,1460,309687,1,1092625376,840000,74540,74540,65700,0,10136,0,1060554936,63
o,1724817823.245251,172.16.5.2,62717,172.16.1.2,5102,3285,10220,2086,65728,65728,6,6,4,1460,317500,1,1092625376,830000,74540,73092,65700,0,8688,0,1060554936,63
i,1724817823.315038,172.16.5.2,62717,172.16.1.2,5102,3285,10220,2086,65728,65728,6,6,4,1460,317500,1,1092625376,830000,74540,73092,65700,0,10136,0,1060554936,63
o,1724817823.315068,172.16.5.2,62717,172.16.1.2,5102,3285,10220,2086,64256,65728,6,6,4,1460,316562,1,1092625376,760000,74540,70196,65700,0,7240,0,1060554936,63
i,1724817823.473223,172.16.5.2,62717,172.16.1.2,5102,3285,10220,2086,64256,65728,6,6,4,1460,316562,1,1092625376,760000,74540,74540,65700,0,10136,0,1060554936,63
o,1724817823.473263,172.16.5.2,62717,172.16.1.2,5102,3285,10220,2086,65728,65728,6,6,4,1460,332187,1,1092625376,840000,74540,73092,65700,0,8688,0,1060554936,63
i,1724817823.525297,172.16.5.2,62717,172.16.1.2,5102,3285,10220,2086,65728,65728,6,6,4,1460,332187,1,1092625376,840000,74540,73092,65700,0,10136,0,1060554936,63
o,1724817823.525403,172.16.5.2,62717,172.16.1.2,5102,3285,11680,2086,64256,65728,6,6,4,1460,337187,1,1092625376,810000,74540,70196,65700,0,7240,0,1060554936,63
o,1724817823.525610,172.16.5.2,62717,172.16.1.2,5102,3285,11680,2086,64256,65728,6,6,4,1460,337187,1,1092625376,810000,74540,70196,65700,0,8688,0,1060554936,63
i,1724817823.628278,172.16.5.2,62717,172.16.1.2,5102,3285,11680,2086,64256,65728,6,6,4,1460,337187,1,1092625376,810000,74540,74540,65700,0,11584,0,1060554936,63
o,1724817823.628352,172.16.5.2,62717,172.16.1.2,5102,3285,11680,2086,64256,65728,6,6,4,1460,354062,1,1092625376,890000,74540,71644,65700,0,8688,0,1060554936,63
i,1724817823.669124,172.16.5.2,62717,172.16.1.2,5102,3285,11680,2086,64256,65728,6,6,4,1460,354062,1,1092625376,890000,74540,74540,65700,0,11584,0,1060554936,63
o,1724817823.669131,172.16.5.2,62717,172.16.1.2,5102,3285,11680,2086,65728,65728,6,6,4,1460,353750,1,1092625376,810000,74540,73092,65700,0,10136,0,1060554936,63
i,1724817823.728156,172.16.5.2,62717,172.16.1.2,5102,3285,11680,2086,65728,65728,6,6,4,1460,353750,1,1092625376,810000,74540,73092,65700,0,11584,0,1060554936,63
o,1724817823.728233,172.16.5.2,62717,172.16.1.2,5102,3285,11680,2086,65728,65728,6,6,4,1460,360937,1,1092625376,810000,74540,71644,65700,0,10136,0,1060554936,63
i,1724817823.845241,172.16.5.2,62717,172.16.1.2,5102,3285,11680,2086,65728,65728,6,6,4,1460,360937,1,1092625376,810000,74540,74540,65700,0,11584,0,1060554936,63
o,1724817823.845334,172.16.5.2,62717,172.16.1.2,5102,3285,11680,2086,65728,65728,6,6,4,1460,363437,1,1092625376,770000,74540,73092,65700,0,10136,0,1060554936,63
i,1724817823.962932,172.16.5.2,62717,172.16.1.2,5102,3285,11680,2086,65728,65728,6,6,4,1460,363437,1,1092625376,770000,74540,73092,65700,0,11584,0,1060554936,63
o,1724817823.963026,172.16.5.2,62717,172.16.1.2,5102,3285,11680,2086,64256,65728,6,6,4,1460,371875,1,1092625376,790000,74540,70196,65700,0,8688,0,1060554936,63
o,1724817823.963146,172.16.5.2,62717,172.16.1.2,5102,3285,11680,2086,64256,65728,6,6,4,1460,371875,1,1092625376,790000,74540,70196,65700,0,10136,0,1060554936,63
i,1724817824.030692,172.16.5.2,62717,172.16.1.2,5102,3285,11680,2086,64256,65728,6,6,4,1460,371875,1,1092625376,790000,74540,74540,65700,0,11584,0,1060554936,63
o,1724817824.030778,172.16.5.2,62717,172.16.1.2,5102,3285,13140,2086,64256,65728,6,6,4,1460,388125,1,1092625376,880000,74540,71644,65700,0,8688,0,1060554936,63
i,1724817824.085109,172.16.5.2,62717,172.16.1.2,5102,3285,13140,2086,64256,65728,6,6,4,1460,388125,1,1092625376,880000,74540,74540,65700,0,13032,0,1060554936,63
o,1724817824.085141,172.16.5.2,62717,172.16.1.2,5102,3285,13140,2086,64256,65728,6,6,4,1460,397187,1,1092625376,890000,74540,71644,65700,0,10136,0,1060554936,63
i,1724817824.138323,172.16.5.2,62717,172.16.1.2,5102,3285,13140,2086,64256,65728,6,6,4,1460,397187,1,1092625376,890000,74540,74540,65700,0,13032,0,1060554936,63
o,1724817824.138364,172.16.5.2,62717,172.16.1.2,5102,3285,13140,2086,65728,65728,6,6,4,1460,399062,1,1092625376,830000,74540,73092,65700,0,11584,0,1060554936,63
i,1724817824.246073,172.16.5.2,62717,172.16.1.2,5102,3285,13140,2086,65728,65728,6,6,4,1460,399062,1,1092625376,830000,74540,73092,65700,0,13032,0,1060554936,63
o,1724817824.246148,172.16.5.2,62717,172.16.1.2,5102,3285,13140,2086,65728,65728,6,6,4,1460,399375,1,1092625376,780000,74540,71644,65700,0,11584,0,1060554936,63
i,1724817824.340285,172.16.5.2,62717,172.16.1.2,5102,3285,13140,2086,65728,65728,6,6,4,1460,399375,1,1092625376,780000,74540,74540,65700,0,13032,0,1060554936,63
o,1724817824.340315,172.16.5.2,62717,172.16.1.2,5102,3285,13140,2086,65728,65728,6,6,4,1460,397187,1,1092625376,750000,74540,73092,65700,0,11584,0,1060554936,63
i,1724817824.419549,172.16.5.2,62717,172.16.1.2,5102,3285,13140,2086,65728,65728,6,6,4,1460,397187,1,1092625376,750000,74540,73092,65700,0,13032,0,1060554936,63
o,1724817824.419652,172.16.5.2,62717,172.16.1.2,5102,3285,13140,2086,65728,65728,6,6,4,1460,405312,1,1092625376,780000,74540,71644,65700,0,11584,0,1060554936,63
i,1724817824.472121,172.16.5.2,62717,172.16.1.2,5102,3285,13140,2086,65728,65728,6,6,4,1460,405312,1,1092625376,780000,74540,74540,65700,0,13032,0,1060554936,63
o,1724817824.472195,172.16.5.2,62717,172.16.1.2,5102,3285,14600,2086,64256,65728,6,6,4,1460,409687,1,1092625376,780000,74540,71644,65700,0,10136,0,1060554936,63
i,1724817824.539690,172.16.5.2,62717,172.16.1.2,5102,3285,14600,2086,64256,65728,6,6,4,1460,409687,1,1092625376,780000,74540,74540,65700,0,14480,0,1060554936,63
o,1724817824.539717,172.16.5.2,62717,172.16.1.2,5102,3285,14600,2086,65728,65728,6,6,4,1460,422500,1,1092625376,850000,74540,73092,65700,0,13032,0,1060554936,63
i,1724817824.585322,172.16.5.2,62717,172.16.1.2,5102,3285,14600,2086,65728,65728,6,6,4,1460,422500,1,1092625376,850000,74540,73092,65700,0,14480,0,1060554936,63
o,1724817824.585364,172.16.5.2,62717,172.16.1.2,5102,3285,15928,2082,65728,65728,6,6,4,1460,422500,1,1092625376,850000,74540,73092,65700,0,14480,0,1060554936,63
i,1724817824.595291,172.16.5.2,62717,172.16.1.2,5102,3285,14600,2082,65728,65728,6,6,4,1460,422500,1,1092625376,850000,74540,73092,65700,0,15928,0,1060554936,63
o,1724817824.595312,172.16.5.2,62717,172.16.1.2,5102,3285,17376,2082,65728,65728,6,6,4,1460,422500,1,1092625376,850000,74540,73092,65700,0,15928,0,1060554936,63
i,1724817824.645217,172.16.5.2,62717,172.16.1.2,5102,3285,14600,2082,65728,65728,6,6,4,1460,422500,1,1092625376,850000,74540,73092,65700,0,17376,0,1060554936,63
o,1724817824.645244,172.16.5.2,62717,172.16.1.2,5102,7300,1448,2146,65728,65728,6,6,4,1460,422500,1,1630544864,850000,74540,73092,65700,0,17376,0,1060554936,63
i,1724817824.760872,172.16.5.2,62717,172.16.1.2,5102,7300,1448,2146,65728,65728,6,6,4,1460,422500,1,1630544864,850000,74540,73092,65700,0,17376,0,1060554936,63
i,1724817824.831003,172.16.5.2,62717,172.16.1.2,5102,7300,1448,2146,65728,65728,6,6,4,1460,422500,1,1613767648,850000,74540,73092,65700,0,17376,0,1060554936,63
o,1724817824.831040,172.16.5.2,62717,172.16.1.2,5102,7300,2896,2146,65728,65728,6,6,4,1460,422500,1,1630544864,850000,74540,73092,65700,0,17376,0,1060554936,63
i,1724817824.849583,172.16.5.2,62717,172.16.1.2,5102,7300,2896,2146,65728,65728,6,6,4,1460,422500,1,1630544864,850000,74540,73092,65700,0,17376,0,1060554936,63
i,1724817824.904173,172.16.5.2,62717,172.16.1.2,5102,7300,2896,2146,65728,65728,6,6,4,1460,422500,1,1630544864,850000,74540,73092,65700,0,17376,0,1060554936,63
o,1724817824.904196,172.16.5.2,62717,172.16.1.2,5102,7300,4344,2146,65728,65728,6,6,4,1460,422500,1,1630544864,850000,74540,73092,65700,0,17376,0,1060554936,63
i,1724817824.957436,172.16.5.2,62717,172.16.1.2,5102,7300,4344,2146,65728,65728,6,6,4,1460,422500,1,1630544864,850000,74540,73092,65700,0,17376,0,1060554936,63
o,1724817824.957472,172.16.5.2,62717,172.16.1.2,5102,7300,2896,2146,65728,65728,6,6,4,1460,422500,1,1630544865,850000,74540,73092,65700,0,17376,0,1060554936,63
i,1724817825.017272,172.16.5.2,62717,172.16.1.2,5102,7300,2896,2146,59968,65728,6,6,4,1460,408437,1,1630544864,890000,74540,74540,65700,0,11584,0,1060554936,63
o,1724817825.017302,172.16.5.2,62717,172.16.1.2,5102,7300,1448,2146,59968,65728,6,6,4,1460,408437,1,1613767649,890000,74540,74540,65700,0,11584,0,1060554936,63
i,1724817825.082720,172.16.5.2,62717,172.16.1.2,5102,7300,1448,2146,62848,65728,6,6,4,1460,381250,1,1613767648,1010000,74540,74540,65700,0,8688,0,1060554936,63
o,1724817825.083222,172.16.5.2,62717,172.16.1.2,5102,7300,2896,2146,62848,65728,6,6,4,1460,381250,1,1630544865,1010000,74540,74540,65700,0,8688,0,1060554936,63
o,1724817825.083649,172.16.5.2,62717,172.16.1.2,5102,7300,2896,2082,62848,65728,6,6,4,1460,381250,1,1630544864,1010000,74540,74540,65700,0,8688,0,1060554936,63
i,1724817825.253062,172.16.5.2,62717,172.16.1.2,5102,7300,2896,2082,59968,65728,6,6,4,1460,355000,1,1630544864,1090000,74540,74540,65700,0,4344,0,1060554936,63
o,1724817825.253091,172.16.5.2,62717,172.16.1.2,5102,7300,5792,2082,59968,65728,6,6,4,1460,355000,1,1630544864,1090000,74540,74540,65700,0,4344,0,1060554936,63
o,1724817825.253218,172.16.5.2,62717,172.16.1.2,5102,7300,5792,2082,59968,65728,6,6,4,1460,355000,1,1630544864,1090000,74540,74540,65700,0,4344,0,1060554936,63
i,1724817825.266386,172.16.5.2,62717,172.16.1.2,5102,7300,5792,2082,59968,65728,6,6,4,1460,355000,1,1630544864,1090000,74540,74540,65700,0,5792,0,1060554936,63
o,1724817825.266408,172.16.5.2,62717,172.16.1.2,5102,7300,7240,2082,59968,65728,6,6,4,1460,355000,1,1630544864,1090000,74540,74540,65700,0,5792,0,1060554936,63
i,1724817825.425419,172.16.5.2,62717,172.16.1.2,5102,7300,7240,2082,59968,65728,6,6,4,1460,355000,1,1630544864,1090000,74540,74540,65700,0,7240,0,1060554936,63
o,1724817825.425499,172.16.5.2,62717,172.16.1.2,5102,7300,5804,2086,61440,65728,6,6,4,1460,333125,1,1092625376,1110000,74540,70196,65700,0,2896,0,1060554936,63
o,1724817825.425619,172.16.5.2,62717,172.16.1.2,5102,7300,5804,2086,61440,65728,6,6,4,1460,333125,1,1092625376,1110000,74540,70196,65700,0,4344,0,1060554936,63
i,1724817825.486472,172.16.5.2,62717,172.16.1.2,5102,7300,5804,2086,61440,65728,6,6,4,1460,333125,1,1092625376,1110000,74540,74540,65700,0,5792,0,1060554936,63
o,1724817825.486510,172.16.5.2,62717,172.16.1.2,5102,7300,8700,2086,64256,65728,6,6,4,1460,321562,1,1092625376,1040000,74540,71644,65700,0,2896,0,1060554936,63
i,1724817825.602231,172.16.5.2,62717,172.16.1.2,5102,7300,8700,2086,64256,65728,6,6,4,1460,321562,1,1092625376,1040000,74540,74540,65700,0,8688,0,1060554936,63
o,1724817825.602272,172.16.5.2,62717,172.16.1.2,5102,7300,8700,2086,64256,65728,6,6,4,1460,302812,1,1092625376,1050000,74540,71644,65700,0,5792,0,1060554936,63
o,1724817825.602409,172.16.5.2,62717,172.16.1.2,5102,7300,8700,2086,64256,65728,6,6,4,1460,302812,1,1092625376,1050000,74540,71644,65700,0,7240,0,1060554936,63
i,1724817825.758055,172.16.5.2,62717,172.16.1.2,5102,7300,8700,2086,64256,65728,6,6,4,1460,302812,1,1092625376,1050000,74540,74540,65700,0,8688,0,1060554936,63
o,1724817825.758135,172.16.5.2,62717,172.16.1.2,5102,7300,8700,2086,65728,65728,6,6,4,1460,298750,1,1092625376,940000,74540,73092,65700,0,7240,0,1060554936,63
i,1724817825.781263,172.16.5.2,62717,172.16.1.2,5102,7300,8700,2086,65728,65728,6,6,4,1460,298750,1,1092625376,940000,74540,73092,65700,0,8688,0,1060554936,63
o,1724817825.781349,172.16.5.2,62717,172.16.1.2,5102,7300,8700,2086,64256,65728,6,6,4,1460,297812,1,1092625376,840000,74540,70196,65700,0,5792,0,1060554936,63
i,1724817825.900457,172.16.5.2,62717,172.16.1.2,5102,7300,8700,2086,64256,65728,6,6,4,1460,297812,1,1092625376,840000,74540,74540,65700,0,8688,0,1060554936,63
o,1724817825.900535,172.16.5.2,62717,172.16.1.2,5102,7300,10160,2086,64256,65728,6,6,4,1460,311875,1,1092625376,880000,74540,71644,65700,0,5792,0,1060554936,63
o,1724817825.900645,172.16.5.2,62717,172.16.1.2,5102,7300,10160,2086,64256,65728,6,6,4,1460,311875,1,1092625376,880000,74540,71644,65700,0,7240,0,1060554936,63
i,1724817825.967609,172.16.5.2,62717,172.16.1.2,5102,7300,10160,2086,64256,65728,6,6,4,1460,311875,1,1092625376,880000,74540,74540,65700,0,10136,0,1060554936,63
o,1724817825.967694,172.16.5.2,62717,172.16.1.2,5102,7300,10160,2086,65728,65728,6,6,4,1460,319375,1,1092625376,850000,74540,73092,65700,0,8688,0,1060554936,63
i,1724817826.075907,172.16.5.2,62717,172.16.1.2,5102,7300,10160,2086,65728,65728,6,6,4,1460,319375,1,1092625376,850000,74540,73092,65700,0,10136,0,1060554936,63
o,1724817826.076009,172.16.5.2,62717,172.16.1.2,5102,7300,10160,2086,65728,65728,6,6,4,1460,319687,1,1092625376,770000,74540,71644,65700,0,8688,0,1060554936,63
i,1724817826.175886,172.16.5.2,62717,172.16.1.2,5102,7300,10160,2086,65728,65728,6,6,4,1460,319687,1,1092625376,770000,74540,74540,65700,0,10136,0,1060554936,63
o,1724817826.175915,172.16.5.2,62717,172.16.1.2,5102,7300,10160,2086,64256,65728,6,6,4,1460,330000,1,1092625376,800000,74540,71644,65700,0,7240,0,1060554936,63
i,1724817826.273491,172.16.5.2,62717,172.16.1.2,5102,7300,10160,2086,64256,65728,6,6,4,1460,330000,1,1092625376,800000,74540,74540,65700,0,10136,0,1060554936,63
o,1724817826.273568,172.16.5.2,62717,172.16.1.2,5102,7300,10160,2086,65728,65728,6,6,4,1460,335000,1,1092625376,780000,74540,73092,65700,0,8688,0,1060554936,63
i,1724817826.283191,172.16.5.2,62717,172.16.1.2,5102,7300,10160,2086,65728,65728,6,6,4,1460,335000,1,1092625376,780000,74540,73092,65700,0,10136,0,1060554936,63
o,1724817826.283215,172.16.5.2,62717,172.16.1.2,5102,7300,11620,2086,64256,65728,6,6,4,1460,339375,1,1092625376,760000,74540,70196,65700,0,7240,0,1060554936,63
i,1724817826.396005,172.16.5.2,62717,172.16.1.2,5102,7300,11620,2086,64256,65728,6,6,4,1460,339375,1,1092625376,760000,74540,74540,65700,0,11584,0,1060554936,63
o,1724817826.396042,172.16.5.2,62717,172.16.1.2,5102,7300,11620,2086,65728,65728,6,6,4,1460,350937,1,1092625376,810000,74540,73092,65700,0,10136,0,1060554936,63
i,1724817826.438447,172.16.5.2,62717,172.16.1.2,5102,7300,11620,2086,65728,65728,6,6,4,1460,350937,1,1092625376,810000,74540,73092,65700,0,11584,0,1060554936,63
o,1724817826.438563,172.16.5.2,62717,172.16.1.2,5102,7300,11620,2086,65728,65728,6,6,4,1460,352187,1,1092625376,750000,74540,71644,65700,0,10136,0,1060554936,63
i,1724817826.468504,172.16.5.2,62717,172.16.1.2,5102,7300,11620,2086,65728,65728,6,6,4,1460,352187,1,1092625376,750000,74540,74540,65700,0,11584,0,1060554936,63
o,1724817826.468526,172.16.5.2,62717,172.16.1.2,5102,7300,11620,2086,65728,65728,6,6,4,1460,344687,1,1092625376,750000,74540,73092,65700,0,10136,0,1060554936,63
i,1724817826.536503,172.16.5.2,62717,172.16.1.2,5102,7300,11620,2086,65728,65728,6,6,4,1460,344687,1,1092625376,750000,74540,73092,65700,0,11584,0,1060554936,63
o,1724817826.536531,172.16.5.2,62717,172.16.1.2,5102,7300,11620,2086,64256,65728,6,6,4,1460,346875,1,1092625376,720000,74540,70196,65700,0,8688,0,1060554936,63
o,1724817826.536663,172.16.5.2,62717,172.16.1.2,5102,7300,11620,2086,64256,65728,6,6,4,1460,346875,1,1092625376,720000,74540,70196,65700,0,10136,0,1060554936,63
i,1724817826.572589,172.16.5.2,62717,172.16.1.2,5102,7300,11620,2086,64256,65728,6,6,4,1460,346875,1,1092625376,720000,74540,74540,65700,0,11584,0,1060554936,63
o,1724817826.572661,172.16.5.2,62717,172.16.1.2,5102,7300,11620,2086,65728,65728,6,6,4,1460,340000,1,1092625376,730000,74540,73092,65700,0,10136,0,1060554936,63
i,1724817826.606737,172.16.5.2,62717,172.16.1.2,5102,7300,11620,2086,65728,65728,6,6,4,1460,340000,1,1092625376,730000,74540,73092,65700,0,11584,0,1060554936,63
o,1724817826.606769,172.16.5.2,62717,172.16.1.2,5102,7300,13080,2086,64256,65728,6,6,4,1460,338750,1,1092625376,690000,74540,70196,65700,0,8688,0,1060554936,63
i,1724817826.709291,172.16.5.2,62717,172.16.1.2,5102,7300,13080,2086,64256,65728,6,6,4,1460,338750,1,1092625376,690000,74540,74540,65700,0,13032,0,1060554936,63
o,1724817826.709366,172.16.5.2,62717,172.16.1.2,5102,7300,13080,2086,64256,65728,6,6,4,1460,335312,1,1092625376,670000,74540,71644,65700,0,10136,0,1060554936,63
i,1724817826.753874,172.16.5.2,62717,172.16.1.2,5102,7300,13080,2086,64256,65728,6,6,4,1460,335312,1,1092625376,670000,74540,74540,65700,0,13032,0,1060554936,63
o,1724817826.753936,172.16.5.2,62717,172.16.1.2,5102,7300,13080,2086,64256,65728,6,6,4,1460,328437,1,1092625376,690000,74540,71644,65700,0,10136,0,1060554936,63
o,1724817826.754061,172.16.5.2,62717,172.16.1.2,5102,7300,13080,2086,64256,65728,6,6,4,1460,328437,1,1092625376,690000,74540,71644,65700,0,11584,0,1060554936,63
i,1724817826.886798,172.16.5.2,62717,172.16.1.2,5102,7300,13080,2086,64256,65728,6,6,4,1460,328437,1,1092625376,690000,74540,74540,65700,0,13032,0,1060554936,63
o,1724817826.886828,172.16.5.2,62717,172.16.1.2,5102,7300,14480,2082,64256,65728,6,6,4,1460,328437,1,1092625376,690000,74540,74540,65700,0,13032,0,1060554936,63
i,1724817826.933281,172.16.5.2,62717,172.16.1.2,5102,7300,13080,2082,64256,65728,6,6,4,1460,328437,1,1092625376,690000,74540,74540,65700,0,14480,0,1060554936,63
o,1724817826.933627,172.16.5.2,62717,172.16.1.2,5102,7300,15928,2082,64256,65728,6,6,4,1460,328437,1,1092625376,690000,74540,74540,65700,0,14480,0,1060554936,63
i,1724817826.975357,172.16.5.2,62717,172.16.1.2,5102,7300,13080,2082,64256,65728,6,6,4,1460,328437,1,1092625376,690000,74540,74540,65700,0,15928,0,1060554936,63
i,1724817826.984940,172.16.5.2,62717,172.16.1.2,5102,6540,1448,2146,64256,65728,6,6,4,1460,328437,1,1630544864,690000,74540,74540,65700,0,15928,0,1060554936,63
o,1724817826.984961,172.16.5.2,62717,172.16.1.2,5102,6540,2896,2146,64256,65728,6,6,4,1460,328437,1,1630544864,690000,74540,74540,65700,0,15928,0,1060554936,63
i,1724817827.027836,172.16.5.2,62717,172.16.1.2,5102,6540,2896,2146,64256,65728,6,6,4,1460,328437,1,1630544864,690000,74540,74540,65700,0,15928,0,1060554936,63
o,1724817827.027870,172.16.5.2,62717,172.16.1.2,5102,6540,4344,2146,64256,65728,6,6,4,1460,328437,1,1630544864,690000,74540,74540,65700,0,15928,0,1060554936,63
i,1724817827.028040,172.16.5.2,62717,172.16.1.2,5102,6540,4344,2146,64256,65728,6,6,4,1460,328437,1,1630544864,690000,74540,74540,65700,0,15928,0,1060554936,63
i,1724817827.058798,172.16.5.2,62717,172.16.1.2,5102,6540,4344,2146,64256,65728,6,6,4,1460,328437,1,1613767648,690000,74540,74540,65700,0,15928,0,1060554936,63
