enable_time_secs=1724818682	enable_time_usecs=111615	siftrver=1.3.0	sysname=FreeBSD	sysver=1401000	ipmode=4
o,1724818682.111983,10.0.2.15,22,10.0.2.2,51102,1073725440,17746,1026,65535,65700,0,0,4,1460,312,0,16777220,240000,33580,172,65700,0,0,0,28524594,63
i,1724818682.112993,10.0.2.15,22,10.0.2.2,51102,1073725440,17746,1026,65535,65700,0,0,4,1460,312,0,16777220,240000,33580,172,65700,0,172,0,28524594,63
o,1724818682.113035,10.0.2.15,22,10.0.2.2,51102,1073725440,17918,1026,65535,65700,0,0,4,1460,312,0,16777220,240000,33580,72,65700,0,0,0,28524594,63
i,1724818682.113881,10.0.2.15,22,10.0.2.2,51102,1073725440,17918,1026,65535,65700,0,0,4,1460,312,0,16777220,240000,33580,72,65700,0,72,0,28524594,63
i,1724818682.113907,10.0.2.15,22,10.0.2.2,51102,1073725440,17990,1026,65535,65700,0,0,4,1460,312,0,4,230000,33580,0,65700,0,0,0,28524594,63
i,1724818682.113925,10.0.2.15,22,10.0.2.2,51102,1073725440,17990,1026,65535,65700,0,0,4,1460,312,0,4,230000,33580,0,65700,96,0,0,28524594,63
o,1724818682.113943,10.0.2.15,22,10.0.2.2,51102,1073725440,17990,1026,65535,65604,0,0,5,1460,312,0,5,230000,33580,0,65700,96,0,0,28524594,63
o,1724818682.114591,10.0.2.15,22,10.0.2.2,51102,1073725440,17990,1026,65535,65604,0,0,8,1460,312,0,4,230000,33580,0,65700,0,0,0,28524594,63
i,1724818682.115084,10.0.2.15,22,10.0.2.2,51102,1073725440,17990,1026,65535,65604,0,0,8,1460,312,0,67108884,230000,33580,0,65700,0,1,0,28524594,63
i,1724818685.240367,10.0.2.15,22,10.0.2.2,51104,1073725440,14600,0,65535,65700,0,0,4,1460,312,0,16777216,260000,33580,0,65700,0,0,0,839284880,63
o,1724818685.249398,10.0.2.15,22,10.0.2.2,51104,1073725440,14600,1026,65535,65700,0,0,4,1460,312,0,16777216,260000,33580,38,65700,42,0,0,839284880,63
i,1724818685.250692,10.0.2.15,22,10.0.2.2,51104,1073725440,14600,1026,65535,65700,0,0,4,1460,312,0,16777216,260000,33580,38,65700,0,38,0,839284880,63
i,1724818685.251260,10.0.2.15,22,10.0.2.2,51104,1073725440,14638,1026,65535,65700,0,0,4,1460,312,0,0,230000,33580,0,65700,0,0,0,839284880,63
i,1724818685.251278,10.0.2.15,22,10.0.2.2,51104,1073725440,14638,1026,65535,65700,0,0,4,1460,312,0,0,230000,33580,0,65700,1460,0,0,839284880,63
o,1724818685.251297,10.0.2.15,22,10.0.2.2,51104,1073725440,14638,1026,65535,65700,0,0,4,1460,312,0,1,230000,33580,0,65700,1536,0,0,839284880,63
o,1724818685.252642,10.0.2.15,22,10.0.2.2,51104,1073725440,14638,1026,65535,65700,0,0,4,1460,312,0,16777216,230000,33580,1120,65700,1536,0,0,839284880,63
i,1724818685.253102,10.0.2.15,22,10.0.2.2,51104,1073725440,14638,1026,65535,65700,0,0,4,1460,312,0,16777216,230000,33580,1120,65700,0,1120,0,839284880,63
i,1724818685.254243,10.0.2.15,22,10.0.2.2,51104,1073725440,15758,1026,65535,65700,0,0,4,1460,312,0,0,230000,33580,0,65700,0,0,0,839284880,63
o,1724818685.257133,10.0.2.15,22,10.0.2.2,51104,1073725440,15758,1026,65535,65700,0,0,4,1460,312,0,16777216,230000,33580,492,65700,0,0,0,839284880,63
i,1724818685.258075,10.0.2.15,22,10.0.2.2,51104,1073725440,15758,1026,65535,65700,0,0,4,1460,312,0,16777216,230000,33580,492,65700,0,492,0,839284880,63
i,1724818685.262050,10.0.2.15,22,10.0.2.2,51104,1073725440,16250,1026,65535,65700,0,0,4,1460,312,0,0,240000,33580,0,65700,0,0,0,839284880,63
i,1724818685.262070,10.0.2.15,22,10.0.2.2,51104,1073725440,16250,1026,65535,65700,0,0,4,1460,312,0,0,240000,33580,0,65700,16,0,0,839284880,63
o,1724818685.262088,10.0.2.15,22,10.0.2.2,51104,1073725440,16250,1026,65535,65700,0,0,4,1460,312,0,1,240000,33580,0,65700,60,0,0,839284880,63
o,1724818685.262298,10.0.2.15,22,10.0.2.2,51104,1073725440,16250,1026,65535,65700,0,0,4,1460,312,0,16777216,240000,33580,44,65700,0,0,0,839284880,63
i,1724818685.262964,10.0.2.15,22,10.0.2.2,51104,1073725440,16250,1026,65535,65700,0,0,4,1460,312,0,16777216,240000,33580,44,65700,0,44,0,839284880,63
i,1724818685.262981,10.0.2.15,22,10.0.2.2,51104,1073725440,16294,1026,65535,65700,0,0,4,1460,312,0,0,240000,33580,0,65700,0,0,0,839284880,63
o,1724818685.263857,10.0.2.15,22,10.0.2.2,51104,1073725440,16294,1026,65535,65700,0,0,4,1460,312,0,16777216,240000,33580,68,65700,0,0,0,839284880,63
i,1724818685.264427,10.0.2.15,22,10.0.2.2,51104,1073725440,16294,1026,65535,65700,0,0,4,1460,312,0,16777216,240000,33580,68,65700,0,68,0,839284880,63
i,1724818685.264451,10.0.2.15,22,10.0.2.2,51104,1073725440,16362,1026,65535,65700,0,0,4,1460,312,0,0,240000,33580,0,65700,0,0,0,839284880,63
o,1724818685.265519,10.0.2.15,22,10.0.2.2,51104,1073725440,16362,1026,65535,65700,0,0,4,1460,312,0,16777216,240000,33580,332,65700,0,0,0,839284880,63
i,1724818685.266511,10.0.2.15,22,10.0.2.2,51104,1073725440,16362,1026,65535,65700,0,0,4,1460,312,0,16777216,240000,33580,332,65700,0,332,0,839284880,63
i,1724818685.267761,10.0.2.15,22,10.0.2.2,51104,1073725440,16694,1026,65535,65700,0,0,4,1460,312,0,0,240000,33580,0,65700,0,0,0,839284880,63
o,1724818685.285760,10.0.2.15,22,10.0.2.2,51104,1073725440,16694,1026,65535,65700,0,0,4,1460,312,0,16777216,240000,33580,28,65700,0,0,0,839284880,63
i,1724818685.286256,10.0.2.15,22,10.0.2.2,51104,1073725440,16694,1026,65535,65700,0,0,4,1460,312,0,16777216,240000,33580,28,65700,0,28,0,839284880,63
i,1724818685.286866,10.0.2.15,22,10.0.2.2,51104,1073725440,16722,1026,65535,65700,0,0,4,1460,312,0,0,240000,33580,0,65700,0,0,0,839284880,63
o,1724818685.287609,10.0.2.15,22,10.0.2.2,51104,1073725440,16722,1026,65535,65700,0,0,4,1460,312,0,16777216,240000,33580,768,65700,112,0,0,839284880,63
i,1724818685.288515,10.0.2.15,22,10.0.2.2,51104,1073725440,16722,1026,65535,65700,0,0,4,1460,312,0,16777216,240000,33580,908,65700,112,768,0,839284880,63
o,1724818685.288533,10.0.2.15,22,10.0.2.2,51104,1073725440,17490,1026,65535,65700,0,0,4,1460,312,0,16777216,240000,33580,140,65700,112,0,0,839284880,63
i,1724818685.289377,10.0.2.15,22,10.0.2.2,51104,1073725440,17490,1026,65535,65700,0,0,4,1460,312,0,16777216,240000,33580,184,65700,0,140,0,839284880,63
o,1724818685.289396,10.0.2.15,22,10.0.2.2,51104,1073725440,17630,1026,65535,65700,0,0,4,1460,312,0,16777216,240000,33580,44,65700,0,0,0,839284880,63
i,1724818685.289965,10.0.2.15,22,10.0.2.2,51104,1073725440,17630,1026,65535,65700,0,0,4,1460,312,0,16777216,240000,33580,44,65700,0,44,0,839284880,63
i,1724818685.290444,10.0.2.15,22,10.0.2.2,51104,1073725440,17674,1026,65535,65700,0,0,4,1460,312,0,0,240000,33580,0,65700,0,0,0,839284880,63
o,1724818685.290967,10.0.2.15,22,10.0.2.2,51104,1073725440,17674,1026,65535,65700,0,0,4,1460,312,0,16777220,240000,33580,72,65700,0,0,0,839284880,63
i,1724818685.292146,10.0.2.15,22,10.0.2.2,51104,1073725440,17674,1026,65535,65700,0,0,4,1460,312,0,16777220,240000,33580,72,65700,0,72,0,839284880,63
o,1724818685.297530,10.0.2.15,22,10.0.2.2,51104,1073725440,17746,1026,65535,65700,0,0,4,1460,312,0,16777220,240000,33580,104,65700,0,0,0,839284880,63
i,1724818685.298037,10.0.2.15,22,10.0.2.2,51104,1073725440,17746,1026,65535,65700,0,0,4,1460,312,0,16777220,240000,33580,104,65700,0,104,0,839284880,63
o,1724818685.303678,10.0.2.15,22,10.0.2.2,51104,1073725440,17850,1026,65535,65700,0,0,4,1460,312,0,16777220,240000,33580,72,65700,0,0,0,839284880,63
i,1724818685.304951,10.0.2.15,22,10.0.2.2,51104,1073725440,17850,1026,65535,65700,0,0,4,1460,312,0,16777220,240000,33580,72,65700,0,72,0,839284880,63
i,1724818685.305010,10.0.2.15,22,10.0.2.2,51104,1073725440,17922,1026,65535,65700,0,0,4,1460,312,0,4,240000,33580,0,65700,0,0,0,839284880,63
i,1724818685.305089,10.0.2.15,22,10.0.2.2,51104,1073725440,17922,1026,65535,65700,0,0,4,1460,312,0,4,240000,33580,0,65700,96,0,0,839284880,63
o,1724818685.305109,10.0.2.15,22,10.0.2.2,51104,1073725440,17922,1026,65535,65604,0,0,5,1460,312,0,5,240000,33580,0,65700,96,0,0,839284880,63
o,1724818685.305766,10.0.2.15,22,10.0.2.2,51104,1073725440,17922,1026,65535,65604,0,0,8,1460,312,0,4,240000,33580,0,65700,0,0,0,839284880,63
i,1724818685.306665,10.0.2.15,22,10.0.2.2,51104,1073725440,17922,1026,65535,65604,0,0,8,1460,312,0,67108884,240000,33580,0,65700,0,1,0,839284880,63
i,1724818686.384093,10.0.2.15,22,10.0.2.2,51118,1073725440,14600,0,65535,65700,0,0,4,1460,312,0,16777216,270000,33580,0,65700,0,0,0,513856113,63
o,1724818686.398686,10.0.2.15,22,10.0.2.2,51118,1073725440,14600,1026,65535,65700,0,0,4,1460,312,0,16777216,270000,33580,38,65700,42,0,0,513856113,63
i,1724818686.399271,10.0.2.15,22,10.0.2.2,51118,1073725440,14600,1026,65535,65700,0,0,4,1460,312,0,16777216,270000,33580,38,65700,0,38,0,513856113,63
i,1724818686.399935,10.0.2.15,22,10.0.2.2,51118,1073725440,14638,1026,65535,65700,0,0,4,1460,312,0,0,230000,33580,0,65700,0,0,0,513856113,63
i,1724818686.399966,10.0.2.15,22,10.0.2.2,51118,1073725440,14638,1026,65535,65700,0,0,4,1460,312,0,0,230000,33580,0,65700,1460,0,0,513856113,63
o,1724818686.399993,10.0.2.15,22,10.0.2.2,51118,1073725440,14638,1026,65535,65700,0,0,4,1460,312,0,1,230000,33580,0,65700,1536,0,0,513856113,63
o,1724818686.401168,10.0.2.15,22,10.0.2.2,51118,1073725440,14638,1026,65535,65700,0,0,4,1460,312,0,16777216,230000,33580,1120,65700,1536,0,0,513856113,63
i,1724818686.401507,10.0.2.15,22,10.0.2.2,51118,1073725440,14638,1026,65535,65700,0,0,4,1460,312,0,16777216,230000,33580,1120,65700,0,1120,0,513856113,63
i,1724818686.402933,10.0.2.15,22,10.0.2.2,51118,1073725440,15758,1026,65535,65700,0,0,4,1460,312,0,0,240000,33580,0,65700,0,0,0,513856113,63
o,1724818686.405837,10.0.2.15,22,10.0.2.2,51118,1073725440,15758,1026,65535,65700,0,0,4,1460,312,0,16777216,240000,33580,492,65700,0,0,0,513856113,63
i,1724818686.406789,10.0.2.15,22,10.0.2.2,51118,1073725440,15758,1026,65535,65700,0,0,4,1460,312,0,16777216,240000,33580,492,65700,0,492,0,513856113,63
i,1724818686.410978,10.0.2.15,22,10.0.2.2,51118,1073725440,16250,1026,65535,65700,0,0,4,1460,312,0,0,240000,33580,0,65700,0,0,0,513856113,63
i,1724818686.410997,10.0.2.15,22,10.0.2.2,51118,1073725440,16250,1026,65535,65700,0,0,4,1460,312,0,0,240000,33580,0,65700,16,0,0,513856113,63
o,1724818686.411015,10.0.2.15,22,10.0.2.2,51118,1073725440,16250,1026,65535,65700,0,0,4,1460,312,0,1,240000,33580,0,65700,60,0,0,513856113,63
o,1724818686.411173,10.0.2.15,22,10.0.2.2,51118,1073725440,16250,1026,65535,65700,0,0,4,1460,312,0,16777216,240000,33580,44,65700,0,0,0,513856113,63
i,1724818686.412137,10.0.2.15,22,10.0.2.2,51118,1073725440,16250,1026,65535,65700,0,0,4,1460,312,0,16777216,240000,33580,44,65700,0,44,0,513856113,63
i,1724818686.412156,10.0.2.15,22,10.0.2.2,51118,1073725440,16294,1026,65535,65700,0,0,4,1460,312,0,0,240000,33580,0,65700,0,0,0,513856113,63
o,1724818686.414196,10.0.2.15,22,10.0.2.2,51118,1073725440,16294,1026,65535,65700,0,0,4,1460,312,0,16777216,240000,33580,68,65700,0,0,0,513856113,63
i,1724818686.414818,10.0.2.15,22,10.0.2.2,51118,1073725440,16294,1026,65535,65700,0,0,4,1460,312,0,16777216,240000,33580,68,65700,0,68,0,513856113,63
i,1724818686.414839,10.0.2.15,22,10.0.2.2,51118,1073725440,16362,1026,65535,65700,0,0,4,1460,312,0,0,240000,33580,0,65700,0,0,0,513856113,63
o,1724818686.416228,10.0.2.15,22,10.0.2.2,51118,1073725440,16362,1026,65535,65700,0,0,4,1460,312,0,16777216,240000,33580,332,65700,0,0,0,513856113,63
i,1724818686.417078,10.0.2.15,22,10.0.2.2,51118,1073725440,16362,1026,65535,65700,0,0,4,1460,312,0,16777216,240000,33580,332,65700,0,332,0,513856113,63
i,1724818686.419282,10.0.2.15,22,10.0.2.2,51118,1073725440,16694,1026,65535,65700,0,0,4,1460,312,0,0,240000,33580,0,65700,0,0,0,513856113,63
o,1724818686.435886,10.0.2.15,22,10.0.2.2,51118,1073725440,16694,1026,65535,65700,0,0,4,1460,312,0,16777216,240000,33580,28,65700,0,0,0,513856113,63
i,1724818686.436452,10.0.2.15,22,10.0.2.2,51118,1073725440,16694,1026,65535,65700,0,0,4,1460,312,0,16777216,240000,33580,28,65700,0,28,0,513856113,63
i,1724818686.436477,10.0.2.15,22,10.0.2.2,51118,1073725440,16722,1026,65535,65700,0,0,4,1460,312,0,0,240000,33580,0,65700,0,0,0,513856113,63
o,1724818686.438122,10.0.2.15,22,10.0.2.2,51118,1073725440,16722,1026,65535,65700,0,0,4,1460,312,0,16777216,240000,33580,768,65700,112,0,0,513856113,63
i,1724818686.438976,10.0.2.15,22,10.0.2.2,51118,1073725440,16722,1026,65535,65700,0,0,4,1460,312,0,16777216,240000,33580,908,65700,112,768,0,513856113,63
o,1724818686.438996,10.0.2.15,22,10.0.2.2,51118,1073725440,17490,1026,65535,65700,0,0,4,1460,312,0,16777216,240000,33580,140,65700,112,0,0,513856113,63
i,1724818686.439375,10.0.2.15,22,10.0.2.2,51118,1073725440,17490,1026,65535,65700,0,0,4,1460,312,0,16777216,240000,33580,140,65700,112,140,0,513856113,63
o,1724818686.439787,10.0.2.15,22,10.0.2.2,51118,1073725440,17630,1026,65535,65700,0,0,4,1460,312,0,16777216,240000,33580,44,65700,0,0,0,513856113,63
i,1724818686.440320,10.0.2.15,22,10.0.2.2,51118,1073725440,17630,1026,65535,65700,0,0,4,1460,312,0,16777216,240000,33580,44,65700,0,44,0,513856113,63
i,1724818686.440339,10.0.2.15,22,10.0.2.2,51118,1073725440,17674,1026,65535,65700,0,0,4,1460,312,0,0,240000,33580,0,65700,0,0,0,513856113,63
o,1724818686.441076,10.0.2.15,22,10.0.2.2,51118,1073725440,17674,1026,65535,65700,0,0,4,1460,312,0,16777220,240000,33580,72,65700,0,0,0,513856113,63
i,1724818686.441763,10.0.2.15,22,10.0.2.2,51118,1073725440,17674,1026,65535,65700,0,0,4,1460,312,0,16777220,240000,33580,72,65700,0,72,0,513856113,63
o,1724818686.524731,172.16.5.2,28133,172.16.1.2,5102,31599,14480,2082,65535,65700,6,6,4,1460,189062,1,16778209,610000,33580,0,65700,0,0,0,2616342333,63
o,1724818686.525185,172.16.5.2,28133,172.16.1.2,5102,31599,14480,2082,65535,65700,6,6,4,1460,189062,1,16778212,610000,33580,37,65700,0,0,0,2616342333,63
i,1724818686.624785,172.16.5.2,28133,172.16.1.2,5102,31599,14480,2082,65535,65700,6,6,4,1460,189062,1,16778212,610000,33580,37,65700,0,37,0,2616342333,63
o,1724818686.625114,172.16.5.2,28133,172.16.1.2,5102,31599,14517,3106,65728,65728,6,6,4,1460,178125,1,16778212,630000,33580,4,65700,0,0,0,2616342333,63
o,1724818686.625493,172.16.5.2,28133,172.16.1.2,5102,31599,14517,3106,65728,65728,6,6,4,1460,178125,1,16778212,630000,33580,130,65700,0,4,0,2616342333,63
i,1724818686.924600,172.16.5.2,28133,172.16.1.2,5102,31599,14517,3106,65728,65728,6,6,4,1460,178125,1,16778212,630000,33580,130,65700,0,130,0,2616342333,63
i,1724818686.931239,172.16.5.2,28133,172.16.1.2,5102,31599,14647,3106,65600,65728,6,6,4,1460,193437,1,996,710000,33580,0,65700,0,0,0,2616342333,63
o,1724818686.980040,172.16.5.2,28133,172.16.1.2,5102,31599,14647,3106,65728,65728,6,6,4,1460,193437,1,997,710000,33580,0,65700,0,0,0,2616342333,63
o,1724818687.023172,172.16.5.2,31606,172.16.1.2,5102,31599,14480,2082,65535,65700,6,6,4,1460,190312,1,16778209,600000,33580,0,65700,0,0,0,3762016328,63
o,1724818687.023459,172.16.5.2,31606,172.16.1.2,5102,31599,14480,2082,65535,65700,6,6,4,1460,190312,1,16778208,600000,33580,37,65700,0,0,0,3762016328,63
i,1724818687.094894,172.16.5.2,28133,172.16.1.2,5102,31599,14647,3106,65728,65728,6,6,4,1460,193437,1,996,710000,33580,0,65700,0,0,0,2616342333,63
i,1724818687.095107,172.16.5.2,28133,172.16.1.2,5102,31599,14647,3106,65728,65728,6,6,4,1460,193437,1,996,710000,33580,0,65700,1,0,0,2616342333,63
o,1724818687.095132,172.16.5.2,28133,172.16.1.2,5102,31599,14647,3106,65728,65728,6,6,4,1460,193437,1,997,710000,33580,0,65700,2,0,0,2616342333,63
o,1724818687.095422,172.16.5.2,31606,172.16.1.2,5102,31599,14480,2086,65535,65700,6,6,4,1460,190312,1,16778208,600000,33580,33580,65700,0,37,0,3762016328,63
i,1724818687.124772,172.16.5.2,31606,172.16.1.2,5102,31599,14480,2086,65535,65700,6,6,4,1460,190312,1,16778208,600000,33580,33580,65700,0,13069,0,3762016328,63
o,1724818687.124853,172.16.5.2,31606,172.16.1.2,5102,31599,14517,2086,65728,65728,6,6,4,1460,179062,1,16778208,630000,33580,33543,65700,0,13032,0,3762016328,63
i,1724818687.157900,172.16.5.2,31606,172.16.1.2,5102,31599,14517,2086,65728,65728,6,6,4,1460,179062,1,16778208,630000,33580,33543,65700,0,14480,0,3762016328,63
o,1724818687.158011,172.16.5.2,31606,172.16.1.2,5102,31599,17413,2086,64256,65728,6,6,4,1460,164375,1,16778208,670000,33580,30647,65700,0,11584,0,3762016328,63
i,1724818687.167038,172.16.5.2,31606,172.16.1.2,5102,31599,17413,2086,64256,65728,6,6,4,1460,164375,1,16778208,670000,41772,41772,65700,0,17376,0,3762016328,63
o,1724818687.167066,172.16.5.2,31606,172.16.1.2,5102,31599,20309,2086,64256,65728,6,6,4,1460,152812,1,16778208,670000,41772,38876,65700,0,14480,0,3762016328,63
i,1724818687.167276,172.16.5.2,31606,172.16.1.2,5102,31599,20309,2086,64256,65728,6,6,4,1460,152812,1,16778208,670000,49964,38876,65700,0,20272,0,3762016328,63
o,1724818687.167297,172.16.5.2,31606,172.16.1.2,5102,31599,23205,2086,61376,65728,6,6,4,1460,142500,1,16778208,670000,49964,35980,65700,0,17376,0,3762016328,63
i,1724818687.167477,172.16.5.2,31606,172.16.1.2,5102,31599,23205,2086,61376,65728,6,6,4,1460,142500,1,16778208,670000,49964,35980,65700,0,23168,0,3762016328,63
o,1724818687.167510,172.16.5.2,31606,172.16.1.2,5102,31599,26101,2086,64256,65728,6,6,4,1460,133437,1,16778208,650000,49964,33084,65700,0,20272,0,3762016328,63
i,1724818687.194934,172.16.5.2,31606,172.16.1.2,5102,31599,26101,2086,64256,65728,6,6,4,1460,133437,1,16778208,650000,58156,58156,65700,0,26064,0,3762016328,63
o,1724818687.194959,172.16.5.2,31606,172.16.1.2,5102,31599,28997,2086,64256,65728,6,6,4,1460,129375,1,16778208,600000,58156,55260,65700,0,23168,0,3762016328,63
o,1724818687.195134,172.16.5.2,31606,172.16.1.2,5102,31599,28997,2086,64256,65728,6,6,4,1460,129375,1,16778208,600000,58156,55260,65700,0,24616,0,3762016328,63
i,1724818687.257955,172.16.5.2,31606,172.16.1.2,5102,31599,28997,2086,64256,65728,6,6,4,1460,129375,1,16778208,600000,66348,66348,65700,0,28960,0,3762016328,63
o,1724818687.258044,172.16.5.2,31606,172.16.1.2,5102,31599,31893,2086,64256,65728,6,6,4,1460,125937,1,16778208,550000,66348,63452,65700,0,26064,0,3762016328,63
i,1724818687.258238,172.16.5.2,31606,172.16.1.2,5102,31599,31893,2086,64256,65728,6,6,4,1460,125937,1,16778208,550000,74540,63452,65700,0,31856,0,3762016328,63
o,1724818687.258263,172.16.5.2,31606,172.16.1.2,5102,31599,31893,2086,62848,65728,6,6,4,1460,122812,1,16778208,520000,74540,60556,65700,0,28960,0,3762016328,63
i,1724818687.267739,172.16.5.2,31606,172.16.1.2,5102,31599,31893,2086,62848,65728,6,6,4,1460,122812,1,16778208,520000,74540,74540,65700,0,31856,0,3762016328,63
o,1724818687.267811,172.16.5.2,31606,172.16.1.2,5102,31599,31893,2086,62848,65728,6,6,4,1460,120000,1,16778208,490000,74540,71644,65700,0,28960,0,3762016328,63
i,1724818687.267961,172.16.5.2,31606,172.16.1.2,5102,31599,31893,2086,62848,65728,6,6,4,1460,120000,1,16778208,490000,74540,71644,65700,0,31856,0,3762016328,63
o,1724818687.267978,172.16.5.2,31606,172.16.1.2,5102,31599,31893,2086,59968,65728,6,6,4,1460,117500,1,16778208,460000,74540,68748,65700,0,28960,0,3762016328,63
i,1724818687.278365,172.16.5.2,31606,172.16.1.2,5102,31599,31893,2086,59968,65728,6,6,4,1460,117500,1,16778208,460000,74540,74540,65700,0,31856,0,3762016328,63
o,1724818687.278442,172.16.5.2,31606,172.16.1.2,5102,31599,31893,2086,64256,65728,6,6,4,1460,116562,1,16778208,430000,74540,71644,65700,0,28960,0,3762016328,63
i,1724818687.278559,172.16.5.2,31606,172.16.1.2,5102,31599,31893,2086,64256,65728,6,6,4,1460,116562,1,16778208,430000,74540,71644,65700,0,31856,0,3762016328,63
o,1724818687.278574,172.16.5.2,31606,172.16.1.2,5102,31599,31893,2086,61376,65728,6,6,4,1460,115937,1,16778208,410000,74540,68748,65700,0,28960,0,3762016328,63
i,1724818687.288012,172.16.5.2,31606,172.16.1.2,5102,31599,31893,2086,61376,65728,6,6,4,1460,115937,1,16778208,410000,74540,74540,65700,0,31856,0,3762016328,63
o,1724818687.288086,172.16.5.2,31606,172.16.1.2,5102,31599,31893,2086,62848,65728,6,6,4,1460,116562,1,16778208,390000,74540,71644,65700,0,28960,0,3762016328,63
i,1724818687.298670,172.16.5.2,31606,172.16.1.2,5102,31599,31893,2086,62848,65728,6,6,4,1460,116562,1,16778208,390000,74540,74540,65700,0,31856,0,3762016328,63
o,1724818687.298732,172.16.5.2,31606,172.16.1.2,5102,31599,31893,2086,64256,65728,6,6,4,1460,118437,1,16778208,390000,74540,71644,65700,0,28960,0,3762016328,63
i,1724818687.309646,172.16.5.2,31606,172.16.1.2,5102,31599,31893,2086,64256,65728,6,6,4,1460,118437,1,16778208,390000,74540,74540,65700,0,31856,0,3762016328,63
o,1724818687.309726,172.16.5.2,31606,172.16.1.2,5102,31599,31893,2086,64256,65728,6,6,4,1460,117500,1,16778208,380000,74540,71644,65700,0,28960,0,3762016328,63
o,1724818687.309868,172.16.5.2,31606,172.16.1.2,5102,31599,31893,2086,64256,65728,6,6,4,1460,117500,1,16778208,380000,74540,71644,65700,0,30408,0,3762016328,63
i,1724818687.310003,172.16.5.2,31606,172.16.1.2,5102,31599,31893,2086,64256,65728,6,6,4,1460,117500,1,16778208,380000,74540,71644,65700,0,31856,0,3762016328,63
o,1724818687.310020,172.16.5.2,31606,172.16.1.2,5102,31599,31893,2086,61376,65728,6,6,4,1460,116562,1,16778208,370000,74540,68748,65700,0,28960,0,3762016328,63
i,1724818687.342250,172.16.5.2,31606,172.16.1.2,5102,31599,31893,2086,61376,65728,6,6,4,1460,116562,1,16778208,370000,74540,74540,65700,0,31856,0,3762016328,63
o,1724818687.342317,172.16.5.2,31606,172.16.1.2,5102,31599,31893,2086,95680,65728,6,6,4,1460,112187,1,16778208,390000,74540,71644,65700,0,28960,0,3762016328,63
i,1724818687.354297,172.16.5.2,31606,172.16.1.2,5102,31599,31893,2086,95680,65728,6,6,4,1460,112187,1,16778208,390000,74540,74540,65700,0,31856,0,3762016328,63
o,1724818687.354317,172.16.5.2,31606,172.16.1.2,5102,31599,31893,2086,97152,65728,6,6,4,1460,110937,1,16778208,380000,74540,71644,65700,0,28960,0,3762016328,63
i,1724818687.363442,172.16.5.2,31606,172.16.1.2,5102,31599,31893,2086,97152,65728,6,6,4,1460,110937,1,16778208,380000,74540,74540,65700,0,31856,0,3762016328,63
o,1724818687.363462,172.16.5.2,31606,172.16.1.2,5102,31599,33353,2086,97152,65728,6,6,4,1460,109687,1,16778208,370000,74540,71644,65700,0,28960,0,3762016328,63
i,1724818687.375826,172.16.5.2,31606,172.16.1.2,5102,31599,33353,2086,97152,65728,6,6,4,1460,109687,1,16778208,370000,74540,74540,65700,0,33304,0,3762016328,63
o,1724818687.375914,172.16.5.2,31606,172.16.1.2,5102,31599,33353,2086,97152,65728,6,6,4,1460,110000,1,16778208,360000,74540,71644,65700,0,30408,0,3762016328,63
i,1724818687.384201,172.16.5.2,31606,172.16.1.2,5102,31599,33353,2086,97152,65728,6,6,4,1460,110000,1,16778208,360000,74540,74540,65700,0,33304,0,3762016328,63
o,1724818687.384223,172.16.5.2,31606,172.16.1.2,5102,31599,33353,2086,97152,65728,6,6,4,1460,110000,1,16778208,340000,74540,71644,65700,0,30408,0,3762016328,63
i,1724818687.393407,172.16.5.2,31606,172.16.1.2,5102,31599,33353,2086,97152,65728,6,6,4,1460,110000,1,16778208,340000,74540,73152,65700,0,33304,0,3762016328,63
o,1724818687.393427,172.16.5.2,31606,172.16.1.2,5102,31599,33353,2086,95680,65728,6,6,4,1460,110000,1,16778208,340000,74540,70256,65700,0,30408,0,3762016328,63
i,1724818687.403805,172.16.5.2,31606,172.16.1.2,5102,31599,33353,2086,95680,65728,6,6,4,1460,110000,1,16778208,340000,74540,74540,65700,0,33304,0,3762016328,63
o,1724818687.403828,172.16.5.2,31606,172.16.1.2,5102,31599,33353,2086,97152,65728,6,6,4,1460,111250,1,16778208,340000,74540,71644,65700,0,30408,0,3762016328,63
i,1724818687.403989,172.16.5.2,31606,172.16.1.2,5102,31599,33353,2086,97152,65728,6,6,4,1460,111250,1,16778208,340000,74540,71644,65700,0,33304,0,3762016328,63
o,1724818687.404012,172.16.5.2,31606,172.16.1.2,5102,31599,33353,2086,94272,65728,6,6,4,1460,111250,1,16778208,330000,74540,68748,65700,0,30408,0,3762016328,63
i,1724818687.414452,172.16.5.2,31606,172.16.1.2,5102,31599,33353,2086,94272,65728,6,6,4,1460,111250,1,16778208,330000,74540,74540,65700,0,33304,0,3762016328,63
o,1724818687.414473,172.16.5.2,31606,172.16.1.2,5102,31599,33353,2086,97152,65728,6,6,4,1460,112500,1,16778208,340000,74540,71644,65700,0,30408,0,3762016328,63
i,1724818687.424670,172.16.5.2,31606,172.16.1.2,5102,31599,33353,2086,97152,65728,6,6,4,1460,112500,1,16778208,340000,74540,74540,65700,0,33304,0,3762016328,63
o,1724818687.424689,172.16.5.2,31606,172.16.1.2,5102,31599,33353,2086,97152,65728,6,6,4,1460,113437,1,16778208,340000,74540,71644,65700,0,30408,0,3762016328,63
o,1724818687.424829,172.16.5.2,31606,172.16.1.2,5102,31599,33353,2086,97152,65728,6,6,4,1460,113437,1,16778208,340000,74540,71644,65700,0,31856,0,3762016328,63
i,1724818687.434739,172.16.5.2,31606,172.16.1.2,5102,31599,33353,2086,97152,65728,6,6,4,1460,113437,1,16778208,340000,74540,74540,65700,0,33304,0,3762016328,63
o,1724818687.434799,172.16.5.2,31606,172.16.1.2,5102,31599,33353,2086,97152,65728,6,6,4,1460,115625,1,16778208,350000,74540,71644,65700,0,30408,0,3762016328,63
i,1724818687.454124,172.16.5.2,31606,172.16.1.2,5102,31599,33353,2086,97152,65728,6,6,4,1460,115625,1,16778208,350000,74540,74540,65700,0,33304,0,3762016328,63
o,1724818687.454144,172.16.5.2,31606,172.16.1.2,5102,31599,33353,2086,97152,65728,6,6,4,1460,115000,1,16778208,350000,74540,71644,65700,0,30408,0,3762016328,63
i,1724818687.471419,172.16.5.2,31606,172.16.1.2,5102,31599,33353,2086,97152,65728,6,6,4,1460,115000,1,16778208,350000,74540,74540,65700,0,33304,0,3762016328,63
o,1724818687.471441,172.16.5.2,31606,172.16.1.2,5102,31599,33353,2086,97152,65728,6,6,4,1460,114375,1,16778208,340000,74540,71644,65700,0,30408,0,3762016328,63
i,1724818687.482559,172.16.5.2,31606,172.16.1.2,5102,31599,33353,2086,97152,65728,6,6,4,1460,114375,1,16778208,340000,74540,74540,65700,0,33304,0,3762016328,63
o,1724818687.482597,172.16.5.2,31606,172.16.1.2,5102,31599,34813,2086,97152,65728,6,6,4,1460,114062,1,16778208,340000,74540,71644,65700,0,30408,0,3762016328,63
i,1724818687.482792,172.16.5.2,31606,172.16.1.2,5102,31599,34813,2086,97152,65728,6,6,4,1460,114062,1,16778208,340000,74540,71644,65700,0,34752,0,3762016328,63
o,1724818687.482820,172.16.5.2,31606,172.16.1.2,5102,31599,34813,2086,97152,65728,6,6,4,1460,113750,1,16778208,330000,74540,68748,65700,0,31856,0,3762016328,63
i,1724818687.504792,172.16.5.2,31606,172.16.1.2,5102,31599,34813,2086,97152,65728,6,6,4,1460,113750,1,16778208,330000,82732,82732,65700,0,34752,0,3762016328,63
o,1724818687.504872,172.16.5.2,31606,172.16.1.2,5102,31599,34813,2086,97152,65728,6,6,4,1460,115937,1,16778208,350000,82732,79836,65700,0,31856,0,3762016328,63
i,1724818687.515156,172.16.5.2,31606,172.16.1.2,5102,31599,34813,2086,97152,65728,6,6,4,1460,115937,1,16778208,350000,82732,82732,65700,0,34752,0,3762016328,63
o,1724818687.515176,172.16.5.2,31606,172.16.1.2,5102,31599,34813,2086,97152,65728,6,6,4,1460,117812,1,16778208,360000,82732,79836,65700,0,31856,0,3762016328,63
i,1724818687.525408,172.16.5.2,31606,172.16.1.2,5102,31599,34813,2086,97152,65728,6,6,4,1460,117812,1,16778208,360000,82732,82732,65700,0,34752,0,3762016328,63
o,1724818687.525477,172.16.5.2,31606,172.16.1.2,5102,31599,34813,2086,97152,65728,6,6,4,1460,119375,1,16778208,360000,82732,79836,65700,0,31856,0,3762016328,63
i,1724818687.535055,172.16.5.2,31606,172.16.1.2,5102,31599,34813,2086,97152,65728,6,6,4,1460,119375,1,16778208,360000,82732,82732,65700,0,34752,0,3762016328,63
o,1724818687.535074,172.16.5.2,31606,172.16.1.2,5102,31599,34813,2086,97152,65728,6,6,4,1460,120937,1,16778208,370000,82732,79836,65700,0,31856,0,3762016328,63
i,1724818687.544782,172.16.5.2,31606,172.16.1.2,5102,31599,34813,2086,97152,65728,6,6,4,1460,120937,1,16778208,370000,82732,82732,65700,0,34752,0,3762016328,63
o,1724818687.544805,172.16.5.2,31606,172.16.1.2,5102,31599,34813,2086,97152,65728,6,6,4,1460,123437,1,16778208,380000,82732,79836,65700,0,31856,0,3762016328,63
i,1724818687.544981,172.16.5.2,31606,172.16.1.2,5102,31599,34813,2086,97152,65728,6,6,4,1460,123437,1,16778208,380000,82732,79836,65700,0,34752,0,3762016328,63
o,1724818687.545009,172.16.5.2,31606,172.16.1.2,5102,31599,34813,2086,95680,65728,6,6,4,1460,124375,1,16778208,370000,82732,76940,65700,0,31856,0,3762016328,63
o,1724818687.545163,172.16.5.2,31606,172.16.1.2,5102,31599,34813,2086,95680,65728,6,6,4,1460,124375,1,16778208,370000,82732,76940,65700,0,33304,0,3762016328,63
i,1724818687.554805,172.16.5.2,31606,172.16.1.2,5102,31599,34813,2086,95680,65728,6,6,4,1460,124375,1,16778208,370000,82732,82732,65700,0,34752,0,3762016328,63
o,1724818687.554880,172.16.5.2,31606,172.16.1.2,5102,31599,34813,2086,97152,65728,6,6,4,1460,125312,1,16778208,370000,82732,79836,65700,0,31856,0,3762016328,63
i,1724818687.575015,172.16.5.2,31606,172.16.1.2,5102,31599,34813,2086,97152,65728,6,6,4,1460,125312,1,16778208,370000,82732,82732,65700,0,34752,0,3762016328,63
o,1724818687.575136,172.16.5.2,31606,172.16.1.2,5102,31599,34813,2086,97152,65728,6,6,4,1460,127187,1,16778208,370000,82732,79836,65700,0,31856,0,3762016328,63
i,1724818687.585151,172.16.5.2,31606,172.16.1.2,5102,31599,34813,2086,97152,65728,6,6,4,1460,127187,1,16778208,370000,82732,82732,65700,0,34752,0,3762016328,63
o,1724818687.585232,172.16.5.2,31606,172.16.1.2,5102,31599,34813,2086,97152,65728,6,6,4,1460,127812,1,16778208,370000,82732,79836,65700,0,31856,0,3762016328,63
i,1724818687.595806,172.16.5.2,31606,172.16.1.2,5102,31599,34813,2086,97152,65728,6,6,4,1460,127812,1,16778208,370000,82732,82732,65700,0,34752,0,3762016328,63
o,1724818687.595806,172.16.5.2,31606,172.16.1.2,5102,31599,34813,2086,97152,65728,6,6,4,1460,128125,1,16778208,360000,82732,79836,65700,0,31856,0,3762016328,63
i,1724818687.606295,172.16.5.2,31606,172.16.1.2,5102,31599,34813,2086,97152,65728,6,6,4,1460,128125,1,16778208,360000,82732,82732,65700,0,34752,0,3762016328,63
o,1724818687.606320,172.16.5.2,31606,172.16.1.2,5102,31599,36273,2086,97152,65728,6,6,4,1460,128437,1,16778208,360000,82732,79836,65700,0,31856,0,3762016328,63
i,1724818687.606480,172.16.5.2,31606,172.16.1.2,5102,31599,36273,2086,97152,65728,6,6,4,1460,128437,1,16778208,360000,82732,79836,65700,0,36200,0,3762016328,63
o,1724818687.606498,172.16.5.2,31606,172.16.1.2,5102,31599,36273,2086,97152,65728,6,6,4,1460,128750,1,16778208,350000,82732,76940,65700,0,33304,0,3762016328,63
i,1724818687.614817,172.16.5.2,31606,172.16.1.2,5102,31599,36273,2086,97152,65728,6,6,4,1460,128750,1,16778208,350000,82732,82732,65700,0,36200,0,3762016328,63
o,1724818687.614844,172.16.5.2,31606,172.16.1.2,5102,31599,36273,2086,97152,65728,6,6,4,1460,126562,1,16778208,360000,82732,79836,65700,0,33304,0,3762016328,63
i,1724818687.615007,172.16.5.2,31606,172.16.1.2,5102,31599,36273,2086,97152,65728,6,6,4,1460,126562,1,16778208,360000,82732,79836,65700,0,36200,0,3762016328,63
o,1724818687.615024,172.16.5.2,31606,172.16.1.2,5102,31599,36273,2086,97152,65728,6,6,4,1460,123437,1,16778208,370000,82732,76940,65700,0,33304,0,3762016328,63
i,1724818687.636266,172.16.5.2,31606,172.16.1.2,5102,31599,36273,2086,97152,65728,6,6,4,1460,123437,1,16778208,370000,82732,82732,65700,0,36200,0,3762016328,63
o,1724818687.636292,172.16.5.2,31606,172.16.1.2,5102,31599,36273,2086,95680,65728,6,6,4,1460,121875,1,16778208,370000,82732,79836,65700,0,33304,0,3762016328,63
i,1724818687.646319,172.16.5.2,31606,172.16.1.2,5102,31599,36273,2086,95680,65728,6,6,4,1460,121875,1,16778208,370000,82732,82732,65700,0,36200,0,3762016328,63
o,1724818687.646343,172.16.5.2,31606,172.16.1.2,5102,31599,36273,2086,97152,65728,6,6,4,1460,120625,1,16778208,370000,82732,79836,65700,0,33304,0,3762016328,63
i,1724818687.654881,172.16.5.2,31606,172.16.1.2,5102,31599,36273,2086,97152,65728,6,6,4,1460,120625,1,16778208,370000,82732,82732,65700,0,36200,0,3762016328,63
o,1724818687.654916,172.16.5.2,31606,172.16.1.2,5102,31599,36273,2086,97152,65728,6,6,4,1460,119375,1,16778208,360000,82732,79836,65700,0,33304,0,3762016328,63
i,1724818687.655142,172.16.5.2,31606,172.16.1.2,5102,31599,36273,2086,97152,65728,6,6,4,1460,119375,1,16778208,360000,82732,79836,65700,0,36200,0,3762016328,63
o,1724818687.655158,172.16.5.2,31606,172.16.1.2,5102,31599,36273,2086,97152,65728,6,6,4,1460,118437,1,16778208,360000,82732,76940,65700,0,33304,0,3762016328,63
o,1724818687.655286,172.16.5.2,31606,172.16.1.2,5102,31599,36273,2086,97152,65728,6,6,4,1460,118437,1,16778208,360000,82732,76940,65700,0,34752,0,3762016328,63
i,1724818687.663649,172.16.5.2,31606,172.16.1.2,5102,31599,36273,2086,97152,65728,6,6,4,1460,118437,1,16778208,360000,82732,82732,65700,0,36200,0,3762016328,63
o,1724818687.663668,172.16.5.2,31606,172.16.1.2,5102,31599,36273,2086,97152,65728,6,6,4,1460,116250,1,16778208,360000,82732,79836,65700,0,33304,0,3762016328,63
i,1724818687.696298,172.16.5.2,31606,172.16.1.2,5102,31599,36273,2086,97152,65728,6,6,4,1460,116250,1,16778208,360000,82732,82732,65700,0,36200,0,3762016328,63
o,1724818687.696328,172.16.5.2,31606,172.16.1.2,5102,31599,36273,2086,97152,65728,6,6,4,1460,116875,1,16778208,360000,82732,79836,65700,0,33304,0,3762016328,63
i,1724818687.709247,172.16.5.2,31606,172.16.1.2,5102,31599,36273,2086,97152,65728,6,6,4,1460,116875,1,16778208,360000,82732,82732,65700,0,36200,0,3762016328,63
o,1724818687.709321,172.16.5.2,31606,172.16.1.2,5102,31599,36273,2086,95680,65728,6,6,4,1460,117500,1,16778208,350000,82732,79836,65700,0,33304,0,3762016328,63
i,1724818687.718512,172.16.5.2,31606,172.16.1.2,5102,31599,36273,2086,95680,65728,6,6,4,1460,117500,1,16778208,350000,82732,82732,65700,0,36200,0,3762016328,63
o,1724818687.718595,172.16.5.2,31606,172.16.1.2,5102,31599,36273,2086,97152,65728,6,6,4,1460,117812,1,16778208,350000,82732,79836,65700,0,33304,0,3762016328,63
i,1724818687.721172,172.16.5.2,31606,172.16.1.2,5102,31599,36273,2086,97152,65728,6,6,4,1460,117812,1,16778208,350000,82732,79836,65700,0,36200,0,3762016328,63
o,1724818687.721196,172.16.5.2,31606,172.16.1.2,5102,31599,36273,2086,95680,65728,6,6,4,1460,116875,1,16778208,340000,82732,76940,65700,0,33304,0,3762016328,63
i,1724818687.729484,172.16.5.2,31606,172.16.1.2,5102,31599,36273,2086,95680,65728,6,6,4,1460,116875,1,16778208,340000,82732,82732,65700,0,36200,0,3762016328,63
o,1724818687.729512,172.16.5.2,31606,172.16.1.2,5102,31599,37733,2086,95680,65728,6,6,4,1460,117500,1,16778208,340000,82732,79836,65700,0,33304,0,3762016328,63
i,1724818687.748527,172.16.5.2,31606,172.16.1.2,5102,31599,37733,2086,95680,65728,6,6,4,1460,117500,1,16778208,340000,82732,82732,65700,0,37648,0,3762016328,63
o,1724818687.748567,172.16.5.2,31606,172.16.1.2,5102,31599,37733,2086,97152,65728,6,6,4,1460,120312,1,16778208,360000,82732,79836,65700,0,34752,0,3762016328,63
i,1724818687.748733,172.16.5.2,31606,172.16.1.2,5102,31599,37733,2086,97152,65728,6,6,4,1460,120312,1,16778208,360000,82732,79836,65700,0,37648,0,3762016328,63
o,1724818687.748749,172.16.5.2,31606,172.16.1.2,5102,31599,37733,2086,94272,65728,6,6,4,1460,121562,1,16778208,360000,82732,76940,65700,0,34752,0,3762016328,63
i,1724818687.758448,172.16.5.2,31606,172.16.1.2,5102,31599,37733,2086,94272,65728,6,6,4,1460,121562,1,16778208,360000,82732,82732,65700,0,37648,0,3762016328,63
o,1724818687.758488,172.16.5.2,31606,172.16.1.2,5102,31599,37733,2086,97152,65728,6,6,4,1460,124062,1,16778208,370000,82732,79836,65700,0,34752,0,3762016328,63
i,1724818687.768161,172.16.5.2,31606,172.16.1.2,5102,31599,37733,2086,97152,65728,6,6,4,1460,124062,1,16778208,370000,82732,82732,65700,0,37648,0,3762016328,63
o,1724818687.768182,172.16.5.2,31606,172.16.1.2,5102,31599,37733,2086,97152,65728,6,6,4,1460,125000,1,16778208,370000,82732,79836,65700,0,34752,0,3762016328,63
i,1724818687.768366,172.16.5.2,31606,172.16.1.2,5102,31599,37733,2086,97152,65728,6,6,4,1460,125000,1,16778208,370000,82732,79836,65700,0,37648,0,3762016328,63
o,1724818687.768383,172.16.5.2,31606,172.16.1.2,5102,31599,37733,2086,94272,65728,6,6,4,1460,124375,1,16778208,360000,82732,76940,65700,0,34752,0,3762016328,63
i,1724818687.776915,172.16.5.2,31606,172.16.1.2,5102,31599,37733,2086,94272,65728,6,6,4,1460,124375,1,16778208,360000,82732,82732,65700,0,37648,0,3762016328,63
o,1724818687.776989,172.16.5.2,31606,172.16.1.2,5102,31599,37733,2086,95680,65728,6,6,4,1460,124062,1,16778208,350000,82732,79836,65700,0,34752,0,3762016328,63
o,1724818687.777136,172.16.5.2,31606,172.16.1.2,5102,31599,37733,2086,95680,65728,6,6,4,1460,124062,1,16778208,350000,82732,79836,65700,0,36200,0,3762016328,63
i,1724818687.789539,172.16.5.2,31606,172.16.1.2,5102,31599,37733,2086,95680,65728,6,6,4,1460,124062,1,16778208,350000,82732,82732,65700,0,37648,0,3762016328,63
o,1724818687.789611,172.16.5.2,31606,172.16.1.2,5102,31599,37733,2086,97152,65728,6,6,4,1460,125000,1,16778208,360000,82732,79836,65700,0,34752,0,3762016328,63
i,1724818687.821332,172.16.5.2,31606,172.16.1.2,5102,31599,37733,2086,97152,65728,6,6,4,1460,125000,1,16778208,360000,82732,82732,65700,0,37648,0,3762016328,63
o,1724818687.821353,172.16.5.2,31606,172.16.1.2,5102,31599,37733,2086,97152,65728,6,6,4,1460,128125,1,16778208,380000,82732,79836,65700,0,34752,0,3762016328,63
i,1724818687.821503,172.16.5.2,31606,172.16.1.2,5102,31599,37733,2086,97152,65728,6,6,4,1460,128125,1,16778208,380000,82732,79836,65700,0,37648,0,3762016328,63
o,1724818687.821520,172.16.5.2,31606,172.16.1.2,5102,31599,37733,2086,95680,65728,6,6,4,1460,127187,1,16778208,370000,82732,76940,65700,0,34752,0,3762016328,63
i,1724818687.841500,172.16.5.2,31606,172.16.1.2,5102,31599,37733,2086,95680,65728,6,6,4,1460,127187,1,16778208,370000,82732,82732,65700,0,37648,0,3762016328,63
o,1724818687.841578,172.16.5.2,31606,172.16.1.2,5102,31599,37733,2086,97152,65728,6,6,4,1460,127812,1,16778208,370000,82732,79836,65700,0,34752,0,3762016328,63
i,1724818687.851698,172.16.5.2,31606,172.16.1.2,5102,31599,37733,2086,97152,65728,6,6,4,1460,127812,1,16778208,370000,82732,82732,65700,0,37648,0,3762016328,63
o,1724818687.851716,172.16.5.2,31606,172.16.1.2,5102,31599,37733,2086,97152,65728,6,6,4,1460,128125,1,16778208,360000,82732,79836,65700,0,34752,0,3762016328,63
i,1724818687.851874,172.16.5.2,31606,172.16.1.2,5102,31599,37733,2086,97152,65728,6,6,4,1460,128125,1,16778208,360000,82732,79836,65700,0,37648,0,3762016328,63
o,1724818687.851893,172.16.5.2,31606,172.16.1.2,5102,31599,37733,2086,97152,65728,6,6,4,1460,128437,1,16778208,350000,82732,76940,65700,0,34752,0,3762016328,63
i,1724818687.861494,172.16.5.2,31606,172.16.1.2,5102,31599,37733,2086,97152,65728,6,6,4,1460,128437,1,16778208,350000,82732,82732,65700,0,37648,0,3762016328,63
o,1724818687.861556,172.16.5.2,31606,172.16.1.2,5102,31599,39193,2086,95680,65728,6,6,4,1460,128750,1,16778208,350000,82732,79836,65700,0,34752,0,3762016328,63
i,1724818687.871172,172.16.5.2,31606,172.16.1.2,5102,31599,39193,2086,95680,65728,6,6,4,1460,128750,1,16778208,350000,82732,82732,65700,0,39096,0,3762016328,63
o,1724818687.871202,172.16.5.2,31606,172.16.1.2,5102,31599,39193,2086,95680,65728,6,6,4,1460,127812,1,16778208,350000,82732,79836,65700,0,36200,0,3762016328,63
i,1724818687.881345,172.16.5.2,31606,172.16.1.2,5102,31599,39193,2086,95680,65728,6,6,4,1460,127812,1,16778208,350000,82732,82732,65700,0,39096,0,3762016328,63
o,1724818687.881366,172.16.5.2,31606,172.16.1.2,5102,31599,39193,2086,95680,65728,6,6,4,1460,128125,1,16778208,350000,82732,79836,65700,0,36200,0,3762016328,63
i,1724818687.889404,172.16.5.2,31606,172.16.1.2,5102,31599,39193,2086,95680,65728,6,6,4,1460,128125,1,16778208,350000,82732,82732,65700,0,39096,0,3762016328,63
o,1724818687.889426,172.16.5.2,31606,172.16.1.2,5102,31599,39193,2086,97152,65728,6,6,4,1460,128437,1,16778208,350000,82732,79836,65700,0,36200,0,3762016328,63
i,1724818687.889884,172.16.5.2,31606,172.16.1.2,5102,31599,39193,2086,97152,65728,6,6,4,1460,128437,1,16778208,350000,82732,79836,65700,0,39096,0,3762016328,63
o,1724818687.889902,172.16.5.2,31606,172.16.1.2,5102,31599,39193,2086,95680,65728,6,6,4,1460,127500,1,16778208,350000,82732,76940,65700,0,36200,0,3762016328,63
i,1724818687.900196,172.16.5.2,31606,172.16.1.2,5102,31599,39193,2086,95680,65728,6,6,4,1460,127500,1,16778208,350000,90924,90924,65700,0,39096,0,3762016328,63
o,1724818687.900272,172.16.5.2,31606,172.16.1.2,5102,31599,39193,2086,97152,65728,6,6,4,1460,127812,1,16778208,350000,90924,88028,65700,0,36200,0,3762016328,63
i,1724818687.910739,172.16.5.2,31606,172.16.1.2,5102,31599,39193,2086,97152,65728,6,6,4,1460,127812,1,16778208,350000,90924,90924,65700,0,39096,0,3762016328,63
o,1724818687.910811,172.16.5.2,31606,172.16.1.2,5102,31599,39193,2086,95680,65728,6,6,4,1460,128125,1,16778208,340000,90924,88028,65700,0,36200,0,3762016328,63
o,1724818687.910952,172.16.5.2,31606,172.16.1.2,5102,31599,39193,2086,95680,65728,6,6,4,1460,128125,1,16778208,340000,90924,88028,65700,0,37648,0,3762016328,63
i,1724818687.920899,172.16.5.2,31606,172.16.1.2,5102,31599,39193,2086,95680,65728,6,6,4,1460,128125,1,16778208,340000,90924,90924,65700,0,39096,0,3762016328,63
o,1724818687.920987,172.16.5.2,31606,172.16.1.2,5102,31599,39193,2086,97152,65728,6,6,4,1460,128437,1,16778208,340000,90924,88028,65700,0,36200,0,3762016328,63
i,1724818687.940407,172.16.5.2,31606,172.16.1.2,5102,31599,39193,2086,97152,65728,6,6,4,1460,128437,1,16778208,340000,90924,90924,65700,0,39096,0,3762016328,63
o,1724818687.940449,172.16.5.2,31606,172.16.1.2,5102,31599,39193,2086,95680,65728,6,6,4,1460,127500,1,16778208,350000,90924,88028,65700,0,36200,0,3762016328,63
i,1724818687.950649,172.16.5.2,31606,172.16.1.2,5102,31599,39193,2086,95680,65728,6,6,4,1460,127500,1,16778208,350000,90924,90924,65700,0,39096,0,3762016328,63
o,1724818687.950733,172.16.5.2,31606,172.16.1.2,5102,31599,39193,2086,95680,65728,6,6,4,1460,127812,1,16778208,340000,90924,88028,65700,0,36200,0,3762016328,63
i,1724818687.967616,172.16.5.2,31606,172.16.1.2,5102,31599,39193,2086,95680,65728,6,6,4,1460,127812,1,16778208,340000,90924,90924,65700,0,39096,0,3762016328,63
o,1724818687.967640,172.16.5.2,31606,172.16.1.2,5102,31599,39193,2086,95680,65728,6,6,4,1460,128125,1,16778208,340000,90924,88028,65700,0,36200,0,3762016328,63
i,1724818687.975819,172.16.5.2,31606,172.16.1.2,5102,31599,39193,2086,95680,65728,6,6,4,1460,128125,1,16778208,340000,90924,90924,65700,0,39096,0,3762016328,63
o,1724818687.975891,172.16.5.2,31606,172.16.1.2,5102,31599,39193,2086,95680,65728,6,6,4,1460,128437,1,16778208,340000,90924,88028,65700,0,36200,0,3762016328,63
i,1724818687.976466,172.16.5.2,31606,172.16.1.2,5102,31599,39193,2086,95680,65728,6,6,4,1460,128437,1,16778208,340000,90924,88028,65700,0,39096,0,3762016328,63
o,1724818687.976489,172.16.5.2,31606,172.16.1.2,5102,31599,39193,2086,97152,65728,6,6,4,1460,128750,1,16778208,340000,90924,85132,65700,0,36200,0,3762016328,63
i,1724818687.998161,172.16.5.2,31606,172.16.1.2,5102,31599,39193,2086,97152,65728,6,6,4,1460,128750,1,16778208,340000,90924,90924,65700,0,39096,0,3762016328,63
o,1724818687.998182,172.16.5.2,31606,172.16.1.2,5102,31599,40653,2086,97152,65728,6,6,4,1460,130312,1,16778208,350000,90924,88028,65700,0,36200,0,3762016328,63
i,1724818688.006740,172.16.5.2,31606,172.16.1.2,5102,31599,40653,2086,97152,65728,6,6,4,1460,130312,1,16778208,350000,90924,90924,65700,0,40544,0,3762016328,63
o,1724818688.006822,172.16.5.2,31606,172.16.1.2,5102,31599,40653,2086,97152,65728,6,6,4,1460,132812,1,16778208,370000,90924,88028,65700,0,37648,0,3762016328,63
i,1724818688.018385,172.16.5.2,31606,172.16.1.2,5102,31599,40653,2086,97152,65728,6,6,4,1460,132812,1,16778208,370000,90924,90924,65700,0,40544,0,3762016328,63
o,1724818688.018449,172.16.5.2,31606,172.16.1.2,5102,31599,40653,2086,95680,65728,6,6,4,1460,135000,1,16778208,380000,90924,88028,65700,0,37648,0,3762016328,63
i,1724818688.028626,172.16.5.2,31606,172.16.1.2,5102,31599,40653,2086,95680,65728,6,6,4,1460,135000,1,16778208,380000,90924,90924,65700,0,40544,0,3762016328,63
o,1724818688.028670,172.16.5.2,31606,172.16.1.2,5102,31599,40653,2086,95680,65728,6,6,4,1460,136875,1,16778208,380000,90924,88028,65700,0,37648,0,3762016328,63
i,1724818688.028849,172.16.5.2,31606,172.16.1.2,5102,31599,40653,2086,95680,65728,6,6,4,1460,136875,1,16778208,380000,90924,88028,65700,0,40544,0,3762016328,63
o,1724818688.028867,172.16.5.2,31606,172.16.1.2,5102,31599,40653,2086,97152,65728,6,6,4,1460,137500,1,16778208,380000,90924,85132,65700,0,37648,0,3762016328,63
i,1724818688.048827,172.16.5.2,31606,172.16.1.2,5102,31599,40653,2086,97152,65728,6,6,4,1460,137500,1,16778208,380000,90924,90924,65700,0,40544,0,3762016328,63
o,1724818688.048852,172.16.5.2,31606,172.16.1.2,5102,31599,40653,2086,97152,65728,6,6,4,1460,140312,1,16778208,390000,90924,88028,65700,0,37648,0,3762016328,63
i,1724818688.049032,172.16.5.2,31606,172.16.1.2,5102,31599,40653,2086,97152,65728,6,6,4,1460,140312,1,16778208,390000,90924,88028,65700,0,40544,0,3762016328,63
o,1724818688.049049,172.16.5.2,31606,172.16.1.2,5102,31599,40653,2086,97152,65728,6,6,4,1460,141562,1,16778208,390000,90924,85132,65700,0,37648,0,3762016328,63
o,1724818688.049164,172.16.5.2,31606,172.16.1.2,5102,31599,40653,2086,97152,65728,6,6,4,1460,141562,1,16778208,390000,90924,85132,65700,0,39096,0,3762016328,63
i,1724818688.057533,172.16.5.2,31606,172.16.1.2,5102,31599,40653,2086,97152,65728,6,6,4,1460,141562,1,16778208,390000,90924,90924,65700,0,40544,0,3762016328,63
o,1724818688.057553,172.16.5.2,31606,172.16.1.2,5102,31599,40653,2086,95680,65728,6,6,4,1460,142812,1,16778208,390000,90924,88028,65700,0,37648,0,3762016328,63
i,1724818688.078518,172.16.5.2,31606,172.16.1.2,5102,31599,40653,2086,95680,65728,6,6,4,1460,142812,1,16778208,390000,90924,90924,65700,0,40544,0,3762016328,63
o,1724818688.078616,172.16.5.2,31606,172.16.1.2,5102,31599,40653,2086,97152,65728,6,6,4,1460,145000,1,16778208,400000,90924,88028,65700,0,37648,0,3762016328,63
i,1724818688.078998,172.16.5.2,31606,172.16.1.2,5102,31599,40653,2086,97152,65728,6,6,4,1460,145000,1,16778208,400000,90924,88028,65700,0,40544,0,3762016328,63
o,1724818688.079016,172.16.5.2,31606,172.16.1.2,5102,31599,40653,2086,97152,65728,6,6,4,1460,144375,1,16778208,390000,90924,85132,65700,0,37648,0,3762016328,63
i,1724818688.097800,172.16.5.2,31606,172.16.1.2,5102,31599,40653,2086,97152,65728,6,6,4,1460,144375,1,16778208,390000,90924,90924,65700,0,40544,0,3762016328,63
o,1724818688.097833,172.16.5.2,31606,172.16.1.2,5102,31599,40653,2086,97152,65728,6,6,4,1460,145312,1,16778208,390000,90924,88028,65700,0,37648,0,3762016328,63
i,1724818688.107974,172.16.5.2,31606,172.16.1.2,5102,31599,40653,2086,97152,65728,6,6,4,1460,145312,1,16778208,390000,90924,90924,65700,0,40544,0,3762016328,63
o,1724818688.107999,172.16.5.2,31606,172.16.1.2,5102,31599,40653,2086,97152,65728,6,6,4,1460,144687,1,16778208,380000,90924,88028,65700,0,37648,0,3762016328,63
i,1724818688.108206,172.16.5.2,31606,172.16.1.2,5102,31599,40653,2086,97152,65728,6,6,4,1460,144687,1,16778208,380000,90924,88028,65700,0,40544,0,3762016328,63
o,1724818688.108242,172.16.5.2,31606,172.16.1.2,5102,31599,40653,2086,97152,65728,6,6,4,1460,143125,1,16778208,380000,90924,85132,65700,0,37648,0,3762016328,63
i,1724818688.125628,172.16.5.2,31606,172.16.1.2,5102,31599,40653,2086,97152,65728,6,6,4,1460,143125,1,16778208,380000,90924,90924,65700,0,40544,0,3762016328,63
o,1724818688.125650,172.16.5.2,31606,172.16.1.2,5102,31599,40653,2086,95680,65728,6,6,4,1460,144062,1,16778208,380000,90924,88028,65700,0,37648,0,3762016328,63
i,1724818688.125773,172.16.5.2,31606,172.16.1.2,5102,31599,40653,2086,95680,65728,6,6,4,1460,144062,1,16778208,380000,90924,88028,65700,0,40544,0,3762016328,63
o,1724818688.125789,172.16.5.2,31606,172.16.1.2,5102,31599,42113,2086,97152,65728,6,6,4,1460,142500,1,16778208,380000,90924,85132,65700,0,37648,0,3762016328,63
i,1724818688.148533,172.16.5.2,31606,172.16.1.2,5102,31599,42113,2086,97152,65728,6,6,4,1460,142500,1,16778208,380000,90924,90924,65700,0,41992,0,3762016328,63
o,1724818688.148612,172.16.5.2,31606,172.16.1.2,5102,31599,42113,2086,97152,65728,6,6,4,1460,142187,1,16778208,370000,90924,88028,65700,0,39096,0,3762016328,63
i,1724818688.158708,172.16.5.2,31606,172.16.1.2,5102,31599,42113,2086,97152,65728,6,6,4,1460,142187,1,16778208,370000,90924,90924,65700,0,41992,0,3762016328,63
o,1724818688.158782,172.16.5.2,31606,172.16.1.2,5102,31599,42113,2086,97152,65728,6,6,4,1460,142187,1,16778208,360000,90924,88028,65700,0,39096,0,3762016328,63
i,1724818688.158922,172.16.5.2,31606,172.16.1.2,5102,31599,42113,2086,97152,65728,6,6,4,1460,142187,1,16778208,360000,90924,88028,65700,0,41992,0,3762016328,63
o,1724818688.158939,172.16.5.2,31606,172.16.1.2,5102,31599,42113,2086,97152,65728,6,6,4,1460,140937,1,16778208,370000,90924,85132,65700,0,39096,0,3762016328,63
i,1724818688.168644,172.16.5.2,31606,172.16.1.2,5102,31599,42113,2086,97152,65728,6,6,4,1460,140937,1,16778208,370000,90924,90924,65700,0,41992,0,3762016328,63
o,1724818688.168714,172.16.5.2,31606,172.16.1.2,5102,31599,42113,2086,97152,65728,6,6,4,1460,140937,1,16778208,360000,90924,88028,65700,0,39096,0,3762016328,63
i,1724818688.176540,172.16.5.2,31606,172.16.1.2,5102,31599,42113,2086,97152,65728,6,6,4,1460,140937,1,16778208,360000,90924,90924,65700,0,41992,0,3762016328,63
o,1724818688.176604,172.16.5.2,31606,172.16.1.2,5102,31599,42113,2086,95680,65728,6,6,4,1460,139687,1,16778208,360000,90924,88028,65700,0,39096,0,3762016328,63
i,1724818688.186862,172.16.5.2,31606,172.16.1.2,5102,31599,42113,2086,95680,65728,6,6,4,1460,139687,1,16778208,360000,90924,90924,65700,0,41992,0,3762016328,63
o,1724818688.186930,172.16.5.2,31606,172.16.1.2,5102,31599,42113,2086,97152,65728,6,6,4,1460,140000,1,16778208,360000,90924,88028,65700,0,39096,0,3762016328,63
o,1724818688.187076,172.16.5.2,31606,172.16.1.2,5102,31599,42113,2086,97152,65728,6,6,4,1460,140000,1,16778208,360000,90924,88028,65700,0,40544,0,3762016328,63
i,1724818688.207424,172.16.5.2,31606,172.16.1.2,5102,31599,42113,2086,97152,65728,6,6,4,1460,140000,1,16778208,360000,90924,90924,65700,0,41992,0,3762016328,63
o,1724818688.207498,172.16.5.2,31606,172.16.1.2,5102,31599,42113,2086,97152,65728,6,6,4,1460,141250,1,16778208,370000,90924,88028,65700,0,39096,0,3762016328,63
i,1724818688.217690,172.16.5.2,31606,172.16.1.2,5102,31599,42113,2086,97152,65728,6,6,4,1460,141250,1,16778208,370000,90924,90924,65700,0,41992,0,3762016328,63
o,1724818688.217755,172.16.5.2,31606,172.16.1.2,5102,31599,42113,2086,95680,65728,6,6,4,1460,141250,1,16778208,360000,90924,88028,65700,0,39096,0,3762016328,63
i,1724818688.226076,172.16.5.2,31606,172.16.1.2,5102,31599,42113,2086,95680,65728,6,6,4,1460,141250,1,16778208,360000,90924,90924,65700,0,41992,0,3762016328,63
o,1724818688.226102,172.16.5.2,31606,172.16.1.2,5102,31599,42113,2086,97152,65728,6,6,4,1460,142500,1,16778208,370000,90924,88028,65700,0,39096,0,3762016328,63
i,1724818688.226305,172.16.5.2,31606,172.16.1.2,5102,31599,42113,2086,97152,65728,6,6,4,1460,142500,1,16778208,370000,90924,88028,65700,0,41992,0,3762016328,63
o,1724818688.226343,172.16.5.2,31606,172.16.1.2,5102,31599,42113,2086,94272,65728,6,6,4,1460,140937,1,16778208,370000,90924,85132,65700,0,39096,0,3762016328,63
i,1724818688.236345,172.16.5.2,31606,172.16.1.2,5102,31599,42113,2086,94272,65728,6,6,4,1460,140937,1,16778208,370000,90924,90924,65700,0,41992,0,3762016328,63
o,1724818688.236723,172.16.5.2,31606,172.16.1.2,5102,31599,42113,2086,97152,65728,6,6,4,1460,139687,1,16778208,370000,90924,88028,65700,0,39096,0,3762016328,63
i,1724818688.260409,172.16.5.2,31606,172.16.1.2,5102,31599,42113,2086,97152,65728,6,6,4,1460,139687,1,16778208,370000,90924,89136,65700,0,41992,0,3762016328,63
o,1724818688.260499,172.16.5.2,31606,172.16.1.2,5102,31599,42113,2086,97152,65728,6,6,4,1460,141250,1,16778208,380000,90924,86240,65700,0,39096,0,3762016328,63
i,1724818688.270785,172.16.5.2,31606,172.16.1.2,5102,31599,42113,2086,97152,65728,6,6,4,1460,141250,1,16778208,380000,90924,90924,65700,0,41992,0,3762016328,63
o,1724818688.270805,172.16.5.2,31606,172.16.1.2,5102,31599,42113,2086,97152,65728,6,6,4,1460,141250,1,16778208,370000,90924,88028,65700,0,39096,0,3762016328,63
i,1724818688.271051,172.16.5.2,31606,172.16.1.2,5102,31599,42113,2086,97152,65728,6,6,4,1460,141250,1,16778208,370000,90924,88028,65700,0,41992,0,3762016328,63
o,1724818688.271068,172.16.5.2,31606,172.16.1.2,5102,31599,42113,2086,95680,65728,6,6,4,1460,141250,1,16778208,360000,90924,85132,65700,0,39096,0,3762016328,63
i,1724818688.290436,172.16.5.2,31606,172.16.1.2,5102,31599,42113,2086,95680,65728,6,6,4,1460,141250,1,16778208,360000,90924,90924,65700,0,41992,0,3762016328,63
o,1724818688.290457,172.16.5.2,31606,172.16.1.2,5102,31599,43573,2086,97152,65728,6,6,4,1460,143750,1,16778208,380000,90924,88028,65700,0,39096,0,3762016328,63
i,1724818688.290609,172.16.5.2,31606,172.16.1.2,5102,31599,43573,2086,97152,65728,6,6,4,1460,143750,1,16778208,380000,90924,88028,65700,0,43440,0,3762016328,63
o,1724818688.290626,172.16.5.2,31606,172.16.1.2,5102,31599,43573,2086,95680,65728,6,6,4,1460,143437,1,16778208,370000,90924,85132,65700,0,40544,0,3762016328,63
i,1724818688.296390,172.16.5.2,31606,172.16.1.2,5102,31599,43573,2086,95680,65728,6,6,4,1460,143437,1,16778208,370000,99116,99116,65700,0,43440,0,3762016328,63
o,1724818688.296427,172.16.5.2,31606,172.16.1.2,5102,31599,43573,2086,97152,65728,6,6,4,1460,141875,1,16778208,370000,99116,96220,65700,0,40544,0,3762016328,63
i,1724818688.305324,172.16.5.2,31606,172.16.1.2,5102,31599,43573,2086,97152,65728,6,6,4,1460,141875,1,16778208,370000,99116,99116,65700,0,43440,0,3762016328,63
o,1724818688.305344,172.16.5.2,31606,172.16.1.2,5102,31599,43573,2086,97152,65728,6,6,4,1460,143125,1,16778208,380000,99116,96220,65700,0,40544,0,3762016328,63
i,1724818688.324848,172.16.5.2,31606,172.16.1.2,5102,31599,43573,2086,97152,65728,6,6,4,1460,143125,1,16778208,380000,99116,99116,65700,0,43440,0,3762016328,63
o,1724818688.324874,172.16.5.2,31606,172.16.1.2,5102,31599,43573,2086,97152,65728,6,6,4,1460,145312,1,16778208,390000,99116,96220,65700,0,40544,0,3762016328,63
i,1724818688.325025,172.16.5.2,31606,172.16.1.2,5102,31599,43573,2086,97152,65728,6,6,4,1460,145312,1,16778208,390000,99116,96220,65700,0,43440,0,3762016328,63
o,1724818688.325047,172.16.5.2,31606,172.16.1.2,5102,31599,43573,2086,97152,65728,6,6,4,1460,145937,1,16778208,380000,99116,93324,65700,0,40544,0,3762016328,63
o,1724818688.325160,172.16.5.2,31606,172.16.1.2,5102,31599,43573,2086,97152,65728,6,6,4,1460,145937,1,16778208,380000,99116,93324,65700,0,41992,0,3762016328,63
i,1724818688.334373,172.16.5.2,31606,172.16.1.2,5102,31599,43573,2086,97152,65728,6,6,4,1460,145937,1,16778208,380000,99116,99116,65700,0,43440,0,3762016328,63
o,1724818688.334395,172.16.5.2,31606,172.16.1.2,5102,31599,43573,2086,97152,65728,6,6,4,1460,146562,1,16778208,380000,99116,96220,65700,0,40544,0,3762016328,63
i,1724818688.355038,172.16.5.2,31606,172.16.1.2,5102,31599,43573,2086,97152,65728,6,6,4,1460,146562,1,16778208,380000,99116,99116,65700,0,43440,0,3762016328,63
o,1724818688.355065,172.16.5.2,31606,172.16.1.2,5102,31599,43573,2086,97152,65728,6,6,4,1460,145937,1,16778208,380000,99116,96220,65700,0,40544,0,3762016328,63
i,1724818688.368578,172.16.5.2,31606,172.16.1.2,5102,31599,43573,2086,97152,65728,6,6,4,1460,145937,1,16778208,380000,99116,99116,65700,0,43440,0,3762016328,63
o,1724818688.368600,172.16.5.2,31606,172.16.1.2,5102,31599,43573,2086,97152,65728,6,6,4,1460,146562,1,16778208,370000,99116,96220,65700,0,40544,0,3762016328,63
i,1724818688.368761,172.16.5.2,31606,172.16.1.2,5102,31599,43573,2086,97152,65728,6,6,4,1460,146562,1,16778208,370000,99116,96220,65700,0,43440,0,3762016328,63
o,1724818688.368787,172.16.5.2,31606,172.16.1.2,5102,31599,43573,2086,97152,65728,6,6,4,1460,145937,1,16778208,370000,99116,93324,65700,0,40544,0,3762016328,63
i,1724818688.388592,172.16.5.2,31606,172.16.1.2,5102,31599,43573,2086,97152,65728,6,6,4,1460,145937,1,16778208,370000,99116,99116,65700,0,43440,0,3762016328,63
o,1724818688.388673,172.16.5.2,31606,172.16.1.2,5102,31599,43573,2086,97152,65728,6,6,4,1460,147812,1,16778208,380000,99116,96220,65700,0,40544,0,3762016328,63
i,1724818688.398867,172.16.5.2,31606,172.16.1.2,5102,31599,43573,2086,97152,65728,6,6,4,1460,147812,1,16778208,380000,99116,99116,65700,0,43440,0,3762016328,63
o,1724818688.398889,172.16.5.2,31606,172.16.1.2,5102,31599,43573,2086,95680,65728,6,6,4,1460,149375,1,16778208,390000,99116,96220,65700,0,40544,0,3762016328,63
i,1724818688.398928,172.16.5.2,31606,172.16.1.2,5102,31599,43573,2086,95680,65728,6,6,4,1460,149375,1,16778208,390000,99116,96220,65700,0,43440,0,3762016328,63
o,1724818688.398928,172.16.5.2,31606,172.16.1.2,5102,31599,43573,2086,97152,65728,6,6,4,1460,148437,1,16778208,380000,99116,93324,65700,0,40544,0,3762016328,63
i,1724818688.408623,172.16.5.2,31606,172.16.1.2,5102,31599,43573,2086,97152,65728,6,6,4,1460,148437,1,16778208,380000,99116,99116,65700,0,43440,0,3762016328,63
o,1724818688.408657,172.16.5.2,31606,172.16.1.2,5102,31599,43573,2086,95680,65728,6,6,4,1460,147500,1,16778208,380000,99116,96220,65700,0,40544,0,3762016328,63
i,1724818688.428687,172.16.5.2,31606,172.16.1.2,5102,31599,43573,2086,95680,65728,6,6,4,1460,147500,1,16778208,380000,99116,99116,65700,0,43440,0,3762016328,63
o,1724818688.428708,172.16.5.2,31606,172.16.1.2,5102,31599,43573,2086,97152,65728,6,6,4,1460,149062,1,16778208,390000,99116,96220,65700,0,40544,0,3762016328,63
i,1724818688.428904,172.16.5.2,31606,172.16.1.2,5102,31599,43573,2086,97152,65728,6,6,4,1460,149062,1,16778208,390000,99116,96220,65700,0,43440,0,3762016328,63
o,1724818688.428920,172.16.5.2,31606,172.16.1.2,5102,31599,45033,2086,97152,65728,6,6,4,1460,148125,1,16778208,380000,99116,93324,65700,0,40544,0,3762016328,63
i,1724818688.438259,172.16.5.2,31606,172.16.1.2,5102,31599,45033,2086,97152,65728,6,6,4,1460,148125,1,16778208,380000,99116,99116,65700,0,44888,0,3762016328,63
o,1724818688.438332,172.16.5.2,31606,172.16.1.2,5102,31599,45033,2086,97152,65728,6,6,4,1460,148437,1,16778208,380000,99116,96220,65700,0,41992,0,3762016328,63
i,1724818688.449671,172.16.5.2,31606,172.16.1.2,5102,31599,45033,2086,97152,65728,6,6,4,1460,148437,1,16778208,380000,99116,99116,65700,0,44888,0,3762016328,63
o,1724818688.449734,172.16.5.2,31606,172.16.1.2,5102,31599,45033,2086,97152,65728,6,6,4,1460,148750,1,16778208,370000,99116,96220,65700,0,41992,0,3762016328,63
i,1724818688.457141,172.16.5.2,31606,172.16.1.2,5102,31599,45033,2086,97152,65728,6,6,4,1460,148750,1,16778208,370000,99116,99116,65700,0,44888,0,3762016328,63
o,1724818688.457207,172.16.5.2,31606,172.16.1.2,5102,31599,45033,2086,97152,65728,6,6,4,1460,149062,1,16778208,370000,99116,96220,65700,0,41992,0,3762016328,63
i,1724818688.468373,172.16.5.2,31606,172.16.1.2,5102,31599,45033,2086,97152,65728,6,6,4,1460,149062,1,16778208,370000,99116,99116,65700,0,44888,0,3762016328,63
o,1724818688.468396,172.16.5.2,31606,172.16.1.2,5102,31599,45033,2086,97152,65728,6,6,4,1460,148125,1,16778208,370000,99116,96220,65700,0,41992,0,3762016328,63
i,1724818688.468571,172.16.5.2,31606,172.16.1.2,5102,31599,45033,2086,97152,65728,6,6,4,1460,148125,1,16778208,370000,99116,96220,65700,0,44888,0,3762016328,63
o,1724818688.468592,172.16.5.2,31606,172.16.1.2,5102,31599,45033,2086,94272,65728,6,6,4,1460,147187,1,16778208,370000,99116,93324,65700,0,41992,0,3762016328,63
o,1724818688.468735,172.16.5.2,31606,172.16.1.2,5102,31599,45033,2086,94272,65728,6,6,4,1460,147187,1,16778208,370000,99116,93324,65700,0,43440,0,3762016328,63
i,1724818688.488156,172.16.5.2,31606,172.16.1.2,5102,31599,45033,2086,94272,65728,6,6,4,1460,147187,1,16778208,370000,99116,99116,65700,0,44888,0,3762016328,63
o,1724818688.488176,172.16.5.2,31606,172.16.1.2,5102,31599,45033,2086,97152,65728,6,6,4,1460,147812,1,16778208,370000,99116,96220,65700,0,41992,0,3762016328,63
i,1724818688.498689,172.16.5.2,31606,172.16.1.2,5102,31599,45033,2086,97152,65728,6,6,4,1460,147812,1,16778208,370000,99116,99116,65700,0,44888,0,3762016328,63
o,1724818688.498775,172.16.5.2,31606,172.16.1.2,5102,31599,45033,2086,97152,65728,6,6,4,1460,146875,1,16778208,370000,99116,96220,65700,0,41992,0,3762016328,63
i,1724818688.508567,172.16.5.2,31606,172.16.1.2,5102,31599,45033,2086,97152,65728,6,6,4,1460,146875,1,16778208,370000,99116,99116,65700,0,44888,0,3762016328,63
o,1724818688.508630,172.16.5.2,31606,172.16.1.2,5102,31599,45033,2086,97152,65728,6,6,4,1460,146250,1,16778208,370000,99116,96220,65700,0,41992,0,3762016328,63
i,1724818688.508783,172.16.5.2,31606,172.16.1.2,5102,31599,45033,2086,97152,65728,6,6,4,1460,146250,1,16778208,370000,99116,96220,65700,0,44888,0,3762016328,63
o,1724818688.508801,172.16.5.2,31606,172.16.1.2,5102,31599,45033,2086,94272,65728,6,6,4,1460,145625,1,16778208,370000,99116,93324,65700,0,41992,0,3762016328,63
i,1724818688.528399,172.16.5.2,31606,172.16.1.2,5102,31599,45033,2086,94272,65728,6,6,4,1460,145625,1,16778208,370000,99116,99116,65700,0,44888,0,3762016328,63
