enable_time_secs=1724817984	enable_time_usecs=281853	siftrver=1.3.0	sysname=FreeBSD	sysver=1401000	ipmode=4
o,1724817984.282186,10.0.2.15,22,10.0.2.2,51182,1073725440,17746,1026,65535,65700,0,0,4,1460,312,0,16777220,240000,33580,172,65700,0,0,0,1680315758,63
i,1724817984.283064,10.0.2.15,22,10.0.2.2,51182,1073725440,17746,1026,65535,65700,0,0,4,1460,312,0,16777220,240000,33580,172,65700,0,172,0,1680315758,63
o,1724817984.283135,10.0.2.15,22,10.0.2.2,51182,1073725440,17918,1026,65535,65700,0,0,4,1460,312,0,16777220,240000,33580,72,65700,0,0,0,1680315758,63
i,1724817984.283796,10.0.2.15,22,10.0.2.2,51182,1073725440,17918,1026,65535,65700,0,0,4,1460,312,0,16777220,240000,33580,72,65700,0,72,0,1680315758,63
i,1724817984.284500,10.0.2.15,22,10.0.2.2,51182,1073725440,17990,1026,65535,65700,0,0,4,1460,312,0,4,240000,33580,0,65700,0,0,0,1680315758,63
i,1724817984.284528,10.0.2.15,22,10.0.2.2,51182,1073725440,17990,1026,65535,65700,0,0,4,1460,312,0,4,240000,33580,0,65700,96,0,0,1680315758,63
o,1724817984.284549,10.0.2.15,22,10.0.2.2,51182,1073725440,17990,1026,65535,65604,0,0,5,1460,312,0,5,240000,33580,0,65700,96,0,0,1680315758,63
o,1724817984.285517,10.0.2.15,22,10.0.2.2,51182,1073725440,17990,1026,65535,65604,0,0,8,1460,312,0,4,240000,33580,0,65700,0,0,0,1680315758,63
i,1724817984.286036,10.0.2.15,22,10.0.2.2,51182,1073725440,17990,1026,65535,65604,0,0,8,1460,312,0,67108884,240000,33580,0,65700,0,1,0,1680315758,63
i,1724817987.464741,10.0.2.15,22,10.0.2.2,51104,1073725440,14600,0,65535,65700,0,0,4,1460,312,0,16777216,270000,33580,0,65700,0,0,0,839284880,63
o,1724817987.473649,10.0.2.15,22,10.0.2.2,51104,1073725440,14600,1026,65535,65700,0,0,4,1460,312,0,16777216,270000,33580,38,65700,42,0,0,839284880,63
i,1724817987.474224,10.0.2.15,22,10.0.2.2,51104,1073725440,14600,1026,65535,65700,0,0,4,1460,312,0,16777216,270000,33580,38,65700,0,38,0,839284880,63
i,1724817987.474901,10.0.2.15,22,10.0.2.2,51104,1073725440,14638,1026,65535,65700,0,0,4,1460,312,0,0,240000,33580,0,65700,0,0,0,839284880,63
i,1724817987.474920,10.0.2.15,22,10.0.2.2,51104,1073725440,14638,1026,65535,65700,0,0,4,1460,312,0,0,240000,33580,0,65700,1460,0,0,839284880,63
o,1724817987.474940,10.0.2.15,22,10.0.2.2,51104,1073725440,14638,1026,65535,65700,0,0,4,1460,312,0,1,240000,33580,0,65700,1536,0,0,839284880,63
o,1724817987.477380,10.0.2.15,22,10.0.2.2,51104,1073725440,14638,1026,65535,65700,0,0,4,1460,312,0,16777216,240000,33580,1120,65700,1536,0,0,839284880,63
i,1724817987.478286,10.0.2.15,22,10.0.2.2,51104,1073725440,14638,1026,65535,65700,0,0,4,1460,312,0,16777216,240000,33580,1120,65700,0,1120,0,839284880,63
i,1724817987.479135,10.0.2.15,22,10.0.2.2,51104,1073725440,15758,1026,65535,65700,0,0,4,1460,312,0,0,240000,33580,0,65700,0,0,0,839284880,63
o,1724817987.481247,10.0.2.15,22,10.0.2.2,51104,1073725440,15758,1026,65535,65700,0,0,4,1460,312,0,16777216,240000,33580,492,65700,0,0,0,839284880,63
i,1724817987.481697,10.0.2.15,22,10.0.2.2,51104,1073725440,15758,1026,65535,65700,0,0,4,1460,312,0,16777216,240000,33580,492,65700,0,492,0,839284880,63
i,1724817987.485514,10.0.2.15,22,10.0.2.2,51104,1073725440,16250,1026,65535,65700,0,0,4,1460,312,0,0,240000,33580,0,65700,0,0,0,839284880,63
i,1724817987.485533,10.0.2.15,22,10.0.2.2,51104,1073725440,16250,1026,65535,65700,0,0,4,1460,312,0,0,240000,33580,0,65700,16,0,0,839284880,63
o,1724817987.485550,10.0.2.15,22,10.0.2.2,51104,1073725440,16250,1026,65535,65700,0,0,4,1460,312,0,1,240000,33580,0,65700,60,0,0,839284880,63
o,1724817987.485822,10.0.2.15,22,10.0.2.2,51104,1073725440,16250,1026,65535,65700,0,0,4,1460,312,0,16777216,240000,33580,44,65700,0,0,0,839284880,63
i,1724817987.486265,10.0.2.15,22,10.0.2.2,51104,1073725440,16250,1026,65535,65700,0,0,4,1460,312,0,16777216,240000,33580,44,65700,0,44,0,839284880,63
i,1724817987.486299,10.0.2.15,22,10.0.2.2,51104,1073725440,16294,1026,65535,65700,0,0,4,1460,312,0,0,240000,33580,0,65700,0,0,0,839284880,63
o,1724817987.487424,10.0.2.15,22,10.0.2.2,51104,1073725440,16294,1026,65535,65700,0,0,4,1460,312,0,16777216,240000,33580,68,65700,0,0,0,839284880,63
i,1724817987.487959,10.0.2.15,22,10.0.2.2,51104,1073725440,16294,1026,65535,65700,0,0,4,1460,312,0,16777216,240000,33580,68,65700,0,68,0,839284880,63
i,1724817987.487978,10.0.2.15,22,10.0.2.2,51104,1073725440,16362,1026,65535,65700,0,0,4,1460,312,0,0,240000,33580,0,65700,0,0,0,839284880,63
o,1724817987.489332,10.0.2.15,22,10.0.2.2,51104,1073725440,16362,1026,65535,65700,0,0,4,1460,312,0,16777216,240000,33580,332,65700,0,0,0,839284880,63
i,1724817987.490244,10.0.2.15,22,10.0.2.2,51104,1073725440,16362,1026,65535,65700,0,0,4,1460,312,0,16777216,240000,33580,332,65700,0,332,0,839284880,63
i,1724817987.491281,10.0.2.15,22,10.0.2.2,51104,1073725440,16694,1026,65535,65700,0,0,4,1460,312,0,0,240000,33580,0,65700,0,0,0,839284880,63
o,1724817987.509610,10.0.2.15,22,10.0.2.2,51104,1073725440,16694,1026,65535,65700,0,0,4,1460,312,0,16777216,240000,33580,28,65700,0,0,0,839284880,63
i,1724817987.510369,10.0.2.15,22,10.0.2.2,51104,1073725440,16694,1026,65535,65700,0,0,4,1460,312,0,16777216,240000,33580,28,65700,0,28,0,839284880,63
i,1724817987.510429,10.0.2.15,22,10.0.2.2,51104,1073725440,16722,1026,65535,65700,0,0,4,1460,312,0,0,240000,33580,0,65700,0,0,0,839284880,63
o,1724817987.511786,10.0.2.15,22,10.0.2.2,51104,1073725440,16722,1026,65535,65700,0,0,4,1460,312,0,16777216,240000,33580,768,65700,112,0,0,839284880,63
i,1724817987.512475,10.0.2.15,22,10.0.2.2,51104,1073725440,16722,1026,65535,65700,0,0,4,1460,312,0,16777216,240000,33580,908,65700,112,768,0,839284880,63
o,1724817987.512492,10.0.2.15,22,10.0.2.2,51104,1073725440,17490,1026,65535,65700,0,0,4,1460,312,0,16777216,240000,33580,140,65700,112,0,0,839284880,63
i,1724817987.513224,10.0.2.15,22,10.0.2.2,51104,1073725440,17490,1026,65535,65700,0,0,4,1460,312,0,16777216,240000,33580,140,65700,112,140,0,839284880,63
o,1724817987.515982,10.0.2.15,22,10.0.2.2,51104,1073725440,17630,1026,65535,65700,0,0,4,1460,312,0,16777216,240000,33580,44,65700,0,0,0,839284880,63
i,1724817987.516607,10.0.2.15,22,10.0.2.2,51104,1073725440,17630,1026,65535,65700,0,0,4,1460,312,0,16777216,240000,33580,44,65700,0,44,0,839284880,63
i,1724817987.517020,10.0.2.15,22,10.0.2.2,51104,1073725440,17674,1026,65535,65700,0,0,4,1460,312,0,0,240000,33580,0,65700,0,0,0,839284880,63
o,1724817987.517673,10.0.2.15,22,10.0.2.2,51104,1073725440,17674,1026,65535,65700,0,0,4,1460,312,0,16777220,240000,33580,72,65700,0,0,0,839284880,63
i,1724817987.518650,10.0.2.15,22,10.0.2.2,51104,1073725440,17674,1026,65535,65700,0,0,4,1460,312,0,16777220,240000,33580,72,65700,0,72,0,839284880,63
o,1724817987.521941,10.0.2.15,22,10.0.2.2,51104,1073725440,17746,1026,65535,65700,0,0,4,1460,312,0,16777220,240000,33580,104,65700,0,0,0,839284880,63
i,1724817987.522088,10.0.2.15,22,10.0.2.2,51104,1073725440,17746,1026,65535,65700,0,0,4,1460,312,0,16777220,240000,33580,104,65700,0,104,0,839284880,63
o,1724817987.522713,10.0.2.15,22,10.0.2.2,51104,1073725440,17850,1026,65535,65700,0,0,4,1460,312,0,16777220,240000,33580,72,65700,0,0,0,839284880,63
i,1724817987.523051,10.0.2.15,22,10.0.2.2,51104,1073725440,17850,1026,65535,65700,0,0,4,1460,312,0,16777220,240000,33580,72,65700,0,72,0,839284880,63
i,1724817987.523843,10.0.2.15,22,10.0.2.2,51104,1073725440,17922,1026,65535,65700,0,0,4,1460,312,0,4,240000,33580,0,65700,0,0,0,839284880,63
i,1724817987.523875,10.0.2.15,22,10.0.2.2,51104,1073725440,17922,1026,65535,65700,0,0,4,1460,312,0,4,240000,33580,0,65700,96,0,0,839284880,63
o,1724817987.523892,10.0.2.15,22,10.0.2.2,51104,1073725440,17922,1026,65535,65604,0,0,5,1460,312,0,5,240000,33580,0,65700,96,0,0,839284880,63
o,1724817987.525392,10.0.2.15,22,10.0.2.2,51104,1073725440,17922,1026,65535,65604,0,0,8,1460,312,0,4,240000,33580,0,65700,0,0,0,839284880,63
i,1724817987.525770,10.0.2.15,22,10.0.2.2,51104,1073725440,17922,1026,65535,65604,0,0,8,1460,312,0,67108884,240000,33580,0,65700,0,1,0,839284880,63
i,1724817988.588190,10.0.2.15,22,10.0.2.2,51116,1073725440,14600,0,65535,65700,0,0,4,1460,312,0,16777216,270000,33580,0,65700,0,0,0,1313354141,63
o,1724817988.601195,10.0.2.15,22,10.0.2.2,51116,1073725440,14600,1026,65535,65700,0,0,4,1460,312,0,16777216,270000,33580,38,65700,42,0,0,1313354141,63
i,1724817988.601619,10.0.2.15,22,10.0.2.2,51116,1073725440,14600,1026,65535,65700,0,0,4,1460,312,0,16777216,270000,33580,38,65700,0,38,0,1313354141,63
i,1724817988.602031,10.0.2.15,22,10.0.2.2,51116,1073725440,14638,1026,65535,65700,0,0,4,1460,312,0,0,240000,33580,0,65700,0,0,0,1313354141,63
i,1724817988.602052,10.0.2.15,22,10.0.2.2,51116,1073725440,14638,1026,65535,65700,0,0,4,1460,312,0,0,240000,33580,0,65700,1460,0,0,1313354141,63
o,1724817988.602073,10.0.2.15,22,10.0.2.2,51116,1073725440,14638,1026,65535,65700,0,0,4,1460,312,0,1,240000,33580,0,65700,1536,0,0,1313354141,63
o,1724817988.603273,10.0.2.15,22,10.0.2.2,51116,1073725440,14638,1026,65535,65700,0,0,4,1460,312,0,16777216,240000,33580,1120,65700,1536,0,0,1313354141,63
i,1724817988.604131,10.0.2.15,22,10.0.2.2,51116,1073725440,14638,1026,65535,65700,0,0,4,1460,312,0,16777216,240000,33580,1120,65700,0,1120,0,1313354141,63
i,1724817988.605824,10.0.2.15,22,10.0.2.2,51116,1073725440,15758,1026,65535,65700,0,0,4,1460,312,0,0,240000,33580,0,65700,0,0,0,1313354141,63
o,1724817988.607401,10.0.2.15,22,10.0.2.2,51116,1073725440,15758,1026,65535,65700,0,0,4,1460,312,0,16777216,240000,33580,492,65700,0,0,0,1313354141,63
i,1724817988.607885,10.0.2.15,22,10.0.2.2,51116,1073725440,15758,1026,65535,65700,0,0,4,1460,312,0,16777216,240000,33580,492,65700,0,492,0,1313354141,63
i,1724817988.614176,10.0.2.15,22,10.0.2.2,51116,1073725440,16250,1026,65535,65700,0,0,4,1460,312,0,0,240000,33580,0,65700,0,0,0,1313354141,63
i,1724817988.614197,10.0.2.15,22,10.0.2.2,51116,1073725440,16250,1026,65535,65700,0,0,4,1460,312,0,0,240000,33580,0,65700,16,0,0,1313354141,63
o,1724817988.614216,10.0.2.15,22,10.0.2.2,51116,1073725440,16250,1026,65535,65700,0,0,4,1460,312,0,1,240000,33580,0,65700,60,0,0,1313354141,63
o,1724817988.614457,10.0.2.15,22,10.0.2.2,51116,1073725440,16250,1026,65535,65700,0,0,4,1460,312,0,16777216,240000,33580,44,65700,0,0,0,1313354141,63
i,1724817988.615303,10.0.2.15,22,10.0.2.2,51116,1073725440,16250,1026,65535,65700,0,0,4,1460,312,0,16777216,240000,33580,44,65700,0,44,0,1313354141,63
i,1724817988.615324,10.0.2.15,22,10.0.2.2,51116,1073725440,16294,1026,65535,65700,0,0,4,1460,312,0,0,240000,33580,0,65700,0,0,0,1313354141,63
o,1724817988.617269,10.0.2.15,22,10.0.2.2,51116,1073725440,16294,1026,65535,65700,0,0,4,1460,312,0,16777216,240000,33580,68,65700,0,0,0,1313354141,63
i,1724817988.617807,10.0.2.15,22,10.0.2.2,51116,1073725440,16294,1026,65535,65700,0,0,4,1460,312,0,16777216,240000,33580,68,65700,0,68,0,1313354141,63
i,1724817988.617828,10.0.2.15,22,10.0.2.2,51116,1073725440,16362,1026,65535,65700,0,0,4,1460,312,0,0,240000,33580,0,65700,0,0,0,1313354141,63
o,1724817988.619042,10.0.2.15,22,10.0.2.2,51116,1073725440,16362,1026,65535,65700,0,0,4,1460,312,0,16777216,240000,33580,332,65700,0,0,0,1313354141,63
i,1724817988.619850,10.0.2.15,22,10.0.2.2,51116,1073725440,16362,1026,65535,65700,0,0,4,1460,312,0,16777216,240000,33580,332,65700,0,332,0,1313354141,63
i,1724817988.621281,10.0.2.15,22,10.0.2.2,51116,1073725440,16694,1026,65535,65700,0,0,4,1460,312,0,0,240000,33580,0,65700,0,0,0,1313354141,63
o,1724817988.638750,10.0.2.15,22,10.0.2.2,51116,1073725440,16694,1026,65535,65700,0,0,4,1460,312,0,16777216,240000,33580,28,65700,0,0,0,1313354141,63
i,1724817988.639388,10.0.2.15,22,10.0.2.2,51116,1073725440,16694,1026,65535,65700,0,0,4,1460,312,0,16777216,240000,33580,28,65700,0,28,0,1313354141,63
i,1724817988.640324,10.0.2.15,22,10.0.2.2,51116,1073725440,16722,1026,65535,65700,0,0,4,1460,312,0,0,240000,33580,0,65700,0,0,0,1313354141,63
o,1724817988.641899,10.0.2.15,22,10.0.2.2,51116,1073725440,16722,1026,65535,65700,0,0,4,1460,312,0,16777216,240000,33580,768,65700,112,0,0,1313354141,63
i,1724817988.642378,10.0.2.15,22,10.0.2.2,51116,1073725440,16722,1026,65535,65700,0,0,4,1460,312,0,16777216,240000,33580,908,65700,112,768,0,1313354141,63
o,1724817988.642395,10.0.2.15,22,10.0.2.2,51116,1073725440,17490,1026,65535,65700,0,0,4,1460,312,0,16777216,240000,33580,140,65700,112,0,0,1313354141,63
i,1724817988.642892,10.0.2.15,22,10.0.2.2,51116,1073725440,17490,1026,65535,65700,0,0,4,1460,312,0,16777216,240000,33580,140,65700,112,140,0,1313354141,63
o,1724817988.643690,10.0.2.15,22,10.0.2.2,51116,1073725440,17630,1026,65535,65700,0,0,4,1460,312,0,16777216,240000,33580,44,65700,0,0,0,1313354141,63
i,1724817988.644450,10.0.2.15,22,10.0.2.2,51116,1073725440,17630,1026,65535,65700,0,0,4,1460,312,0,16777216,240000,33580,44,65700,0,44,0,1313354141,63
i,1724817988.644466,10.0.2.15,22,10.0.2.2,51116,1073725440,17674,1026,65535,65700,0,0,4,1460,312,0,0,240000,33580,0,65700,0,0,0,1313354141,63
o,1724817988.645061,10.0.2.15,22,10.0.2.2,51116,1073725440,17674,1026,65535,65700,0,0,4,1460,312,0,16777220,240000,33580,72,65700,0,0,0,1313354141,63
i,1724817988.645739,10.0.2.15,22,10.0.2.2,51116,1073725440,17674,1026,65535,65700,0,0,4,1460,312,0,16777220,240000,33580,72,65700,0,72,0,1313354141,63
o,1724817988.836069,172.16.5.2,25682,172.16.1.2,5102,22896,14480,2082,65535,65700,6,6,4,1460,197812,1,16778209,590000,33580,0,65700,0,0,0,1140621653,63
o,1724817988.836231,172.16.5.2,25682,172.16.1.2,5102,22896,14480,2082,65535,65700,6,6,4,1460,197812,1,16778212,590000,33580,37,65700,0,0,0,1140621653,63
i,1724817989.035642,172.16.5.2,25682,172.16.1.2,5102,22896,14480,2082,65535,65700,6,6,4,1460,197812,1,16778212,590000,33580,37,65700,0,37,0,1140621653,63
o,1724817989.036079,172.16.5.2,25682,172.16.1.2,5102,22896,14517,3106,65728,65728,6,6,4,1460,198125,1,16778212,540000,33580,4,65700,0,0,0,1140621653,63
o,1724817989.036228,172.16.5.2,25682,172.16.1.2,5102,22896,14517,3106,65728,65728,6,6,4,1460,198125,1,16778212,540000,33580,130,65700,0,4,0,1140621653,63
i,1724817989.224268,172.16.5.2,25682,172.16.1.2,5102,22896,14517,3106,65728,65728,6,6,4,1460,198125,1,16778212,540000,33580,130,65700,0,130,0,1140621653,63
i,1724817989.224333,172.16.5.2,25682,172.16.1.2,5102,22896,14647,3106,65600,65728,6,6,4,1460,197187,1,996,510000,33580,0,65700,0,0,0,1140621653,63
o,1724817989.264131,172.16.5.2,25682,172.16.1.2,5102,22896,14647,3106,65728,65728,6,6,4,1460,197187,1,997,510000,33580,0,65700,0,0,0,1140621653,63
o,1724817989.415562,172.16.5.2,49825,172.16.1.2,5102,22896,14480,2082,65535,65700,6,6,4,1460,197812,1,16778209,590000,33580,0,65700,0,0,0,623473035,63
o,1724817989.415715,172.16.5.2,49825,172.16.1.2,5102,22896,14480,2082,65535,65700,6,6,4,1460,197812,1,16778208,590000,33580,37,65700,0,0,0,623473035,63
i,1724817989.593832,172.16.5.2,25682,172.16.1.2,5102,22896,14647,3106,65728,65728,6,6,4,1460,197187,1,996,510000,33580,0,65700,0,0,0,1140621653,63
i,1724817989.593916,172.16.5.2,25682,172.16.1.2,5102,22896,14647,3106,65728,65728,6,6,4,1460,197187,1,996,510000,33580,0,65700,1,0,0,1140621653,63
o,1724817989.593942,172.16.5.2,25682,172.16.1.2,5102,22896,14480,3106,65728,65728,6,6,4,1460,197187,1,997,510000,33580,0,65700,2,0,0,1140621653,63
o,1724817989.594487,172.16.5.2,49825,172.16.1.2,5102,22896,14480,2086,65535,65700,6,6,4,1460,197812,1,16778208,590000,33580,33580,65700,0,37,0,623473035,63
i,1724817989.647792,172.16.5.2,49825,172.16.1.2,5102,22896,14480,2086,65535,65700,6,6,4,1460,197812,1,16778208,590000,33580,33580,65700,0,13069,0,623473035,63
o,1724817989.647869,172.16.5.2,49825,172.16.1.2,5102,22896,14517,2086,65728,65728,6,6,4,1460,201875,1,16778208,580000,33580,33543,65700,0,13032,0,623473035,63
i,1724817990.076883,172.16.5.2,49825,172.16.1.2,5102,22896,14517,2086,65728,65728,6,6,4,1460,201875,1,16778208,580000,33580,33543,65700,0,14480,0,623473035,63
o,1724817990.076961,172.16.5.2,49825,172.16.1.2,5102,22896,17413,2086,64256,65728,6,6,4,1460,236875,1,16778208,850000,33580,30647,65700,0,11584,0,623473035,63
i,1724817990.105016,172.16.5.2,49825,172.16.1.2,5102,22896,17413,2086,64256,65728,6,6,4,1460,236875,1,16778208,850000,41772,41772,65700,0,17376,0,623473035,63
o,1724817990.105079,172.16.5.2,49825,172.16.1.2,5102,22896,20309,2086,64256,65728,6,6,4,1460,271250,1,16778208,1050000,41772,38876,65700,0,14480,0,623473035,63
i,1724817990.161012,172.16.5.2,49825,172.16.1.2,5102,22896,20309,2086,64256,65728,6,6,4,1460,271250,1,16778208,1050000,49964,49964,65700,0,20272,0,623473035,63
o,1724817990.161096,172.16.5.2,49825,172.16.1.2,5102,22896,23205,2086,64256,65728,6,6,4,1460,307500,1,16778208,1240000,49964,47068,65700,0,17376,0,623473035,63
i,1724817990.240460,172.16.5.2,49825,172.16.1.2,5102,22896,23205,2086,64256,65728,6,6,4,1460,307500,1,16778208,1240000,49964,49964,65700,0,23168,0,623473035,63
o,1724817990.240488,172.16.5.2,49825,172.16.1.2,5102,22896,23205,2086,64256,65728,6,6,4,1460,349062,1,16778208,1430000,49964,47068,65700,0,20272,0,623473035,63
i,1724817990.292363,172.16.5.2,49825,172.16.1.2,5102,22896,23205,2086,64256,65728,6,6,4,1460,349062,1,16778208,1430000,49964,49964,65700,0,23168,0,623473035,63
o,1724817990.292388,172.16.5.2,49825,172.16.1.2,5102,22896,23205,2086,64256,65728,6,6,4,1460,391875,1,16778208,1590000,49964,47068,65700,0,20272,0,623473035,63
o,1724817990.292519,172.16.5.2,49825,172.16.1.2,5102,22896,23205,2086,64256,65728,6,6,4,1460,391875,1,16778208,1590000,49964,47068,65700,0,21720,0,623473035,63
i,1724817990.545615,172.16.5.2,49825,172.16.1.2,5102,22896,23205,2086,64256,65728,6,6,4,1460,391875,1,16778208,1590000,49964,49964,65700,0,23168,0,623473035,63
o,1724817990.545652,172.16.5.2,49825,172.16.1.2,5102,22896,24616,2082,64256,65728,6,6,4,1460,391875,1,16778208,1590000,49964,49964,65700,0,23168,0,623473035,63
i,1724817990.586425,172.16.5.2,49825,172.16.1.2,5102,22896,23205,2082,64256,65728,6,6,4,1460,391875,1,16778208,1590000,49964,49964,65700,0,24616,0,623473035,63
o,1724817990.586425,172.16.5.2,49825,172.16.1.2,5102,22896,26064,2082,64256,65728,6,6,4,1460,391875,1,16778208,1590000,58156,49964,65700,0,24616,0,623473035,63
i,1724817990.617022,172.16.5.2,49825,172.16.1.2,5102,22896,23205,2082,64256,65728,6,6,4,1460,391875,1,16778208,1590000,58156,49964,65700,0,26064,0,623473035,63
o,1724817990.617063,172.16.5.2,49825,172.16.1.2,5102,11602,1448,2146,64256,65728,6,6,4,1460,391875,1,554697696,1590000,58156,49964,65700,0,26064,0,623473035,63
i,1724817990.724124,172.16.5.2,49825,172.16.1.2,5102,11602,1448,2146,64256,65728,6,6,4,1460,391875,1,554697696,1590000,58156,49964,65700,0,26064,0,623473035,63
i,1724817990.744136,172.16.5.2,49825,172.16.1.2,5102,11602,1448,2146,64256,65728,6,6,4,1460,391875,1,554697696,1590000,58156,49964,65700,0,26064,0,623473035,63
o,1724817990.744163,172.16.5.2,49825,172.16.1.2,5102,11602,2896,2146,64256,65728,6,6,4,1460,391875,1,554697696,1590000,58156,49964,65700,0,26064,0,623473035,63
i,1724817990.792257,172.16.5.2,49825,172.16.1.2,5102,11602,2896,2146,64256,65728,6,6,4,1460,391875,1,554697696,1590000,58156,49964,65700,0,26064,0,623473035,63
i,1724817990.834894,172.16.5.2,49825,172.16.1.2,5102,11602,2896,2146,64256,65728,6,6,4,1460,391875,1,554697696,1590000,58156,49964,65700,0,26064,0,623473035,63
o,1724817990.834919,172.16.5.2,49825,172.16.1.2,5102,11602,4344,2146,64256,65728,6,6,4,1460,391875,1,554697696,1590000,58156,49964,65700,0,26064,0,623473035,63
i,1724817990.855196,172.16.5.2,49825,172.16.1.2,5102,11602,4344,2146,64256,65728,6,6,4,1460,391875,1,554697696,1590000,58156,49964,65700,0,26064,0,623473035,63
i,1724817990.917089,172.16.5.2,49825,172.16.1.2,5102,11602,4344,2146,64256,65728,6,6,4,1460,391875,1,537920480,1590000,58156,49964,65700,0,26064,0,623473035,63
o,1724817990.917113,172.16.5.2,49825,172.16.1.2,5102,11602,5792,2146,64256,65728,6,6,4,1460,391875,1,554697696,1590000,58156,49964,65700,0,26064,0,623473035,63
i,1724817990.964319,172.16.5.2,49825,172.16.1.2,5102,11602,5792,2146,64256,65728,6,6,4,1460,391875,1,554697696,1590000,58156,49964,65700,0,26064,0,623473035,63
i,1724817991.029954,172.16.5.2,49825,172.16.1.2,5102,11602,5792,2146,64256,65728,6,6,4,1460,391875,1,554697696,1590000,58156,49964,65700,0,26064,0,623473035,63
o,1724817991.029989,172.16.5.2,49825,172.16.1.2,5102,11602,7240,2146,64256,65728,6,6,4,1460,391875,1,554697696,1590000,58156,49964,65700,0,26064,0,623473035,63
i,1724817991.110496,172.16.5.2,49825,172.16.1.2,5102,11602,7240,2146,64256,65728,6,6,4,1460,391875,1,554697696,1590000,58156,49964,65700,0,26064,0,623473035,63
i,1724817991.130571,172.16.5.2,49825,172.16.1.2,5102,11602,5792,2146,64256,65728,6,6,4,1460,391875,1,537920480,1590000,58156,49964,65700,0,26064,0,623473035,63
i,1724817991.202461,172.16.5.2,49825,172.16.1.2,5102,11602,4344,2146,64256,65728,6,6,4,1460,391875,1,537920480,1590000,58156,49964,65700,0,26064,0,623473035,63
o,1724817991.202499,172.16.5.2,49825,172.16.1.2,5102,11602,5792,2146,64256,65728,6,6,4,1460,391875,1,554697696,1590000,58156,49964,65700,0,26064,0,623473035,63
o,1724817991.202651,172.16.5.2,49825,172.16.1.2,5102,11602,5792,2146,64256,65728,6,6,4,1460,391875,1,554697696,1590000,58156,49964,65700,0,26064,0,623473035,63
i,1724817991.282535,172.16.5.2,49825,172.16.1.2,5102,11602,5792,2146,64256,65728,6,6,4,1460,391875,1,554697696,1590000,58156,49964,65700,0,26064,0,623473035,63
o,1724817991.282557,172.16.5.2,49825,172.16.1.2,5102,11602,7240,2086,64256,65728,6,6,4,1460,391875,1,554697696,1590000,58156,49964,65700,0,26064,0,623473035,63
o,1724817991.282674,172.16.5.2,49825,172.16.1.2,5102,11602,7240,2082,64256,65728,6,6,4,1460,391875,1,554697696,1590000,58156,49964,65700,0,27512,0,623473035,63
i,1724817991.424990,172.16.5.2,49825,172.16.1.2,5102,11602,7240,2082,64256,65728,6,6,4,1460,391875,1,554697696,1590000,58156,49964,65700,0,28960,0,623473035,63
o,1724817991.425254,172.16.5.2,49825,172.16.1.2,5102,11602,8688,2086,64256,65728,6,6,4,1460,391875,1,554697696,1590000,58156,49964,65700,0,28960,0,623473035,63
i,1724817991.425466,172.16.5.2,49825,172.16.1.2,5102,11602,8688,2086,64256,65728,6,6,4,1460,391875,1,554697696,1590000,58156,49964,65700,0,31856,0,623473035,63
o,1724817991.425481,172.16.5.2,49825,172.16.1.2,5102,11602,10136,2086,64256,65728,6,6,4,1460,391875,1,554697696,1590000,58156,49964,65700,0,31856,0,623473035,63
i,1724817991.526622,172.16.5.2,49825,172.16.1.2,5102,11602,10136,2086,64256,65728,6,6,4,1460,391875,1,554697696,1590000,58156,49964,65700,0,34752,0,623473035,63
o,1724817991.526652,172.16.5.2,49825,172.16.1.2,5102,11602,11584,2082,64256,65728,6,6,4,1460,391875,1,554697696,1590000,58156,49964,65700,0,34752,0,623473035,63
i,1724817991.526844,172.16.5.2,49825,172.16.1.2,5102,11602,11584,2082,64256,65728,6,6,4,1460,391875,1,554697696,1590000,58156,49964,65700,0,36200,0,623473035,63
o,1724817991.526862,172.16.5.2,49825,172.16.1.2,5102,11602,13032,2082,64256,65728,6,6,4,1460,391875,1,554697696,1590000,58156,49964,65700,0,36200,0,623473035,63
i,1724817991.666528,172.16.5.2,49825,172.16.1.2,5102,11602,13032,2082,64256,65728,6,6,4,1460,391875,1,554697696,1590000,58156,49964,65700,0,37648,0,623473035,63
o,1724817991.666559,172.16.5.2,49825,172.16.1.2,5102,11602,14480,2082,64256,65728,6,6,4,1460,391875,1,554697696,1590000,58156,49964,65700,0,37648,0,623473035,63
i,1724817991.666717,172.16.5.2,49825,172.16.1.2,5102,11602,14480,2082,64256,65728,6,6,4,1460,391875,1,554697696,1590000,58156,49964,65700,0,39096,0,623473035,63
o,1724817991.666744,172.16.5.2,49825,172.16.1.2,5102,11602,15928,2082,64256,65728,6,6,4,1460,391875,1,554697696,1590000,58156,49964,65700,0,39096,0,623473035,63
i,1724817991.666892,172.16.5.2,49825,172.16.1.2,5102,11602,15928,2082,64256,65728,6,6,4,1460,391875,1,554697696,1590000,58156,49964,65700,0,40544,0,623473035,63
o,1724817991.666906,172.16.5.2,49825,172.16.1.2,5102,11602,17376,2082,64256,65728,6,6,4,1460,391875,1,554697696,1590000,58156,49964,65700,0,40544,0,623473035,63
i,1724817991.667767,172.16.5.2,49825,172.16.1.2,5102,11602,17376,2082,64256,65728,6,6,4,1460,391875,1,554697696,1590000,58156,49964,65700,0,41992,0,623473035,63
o,1724817991.667787,172.16.5.2,49825,172.16.1.2,5102,11602,18824,2082,64256,65728,6,6,4,1460,391875,1,554697696,1590000,58156,49964,65700,0,41992,0,623473035,63
i,1724817991.792583,172.16.5.2,49825,172.16.1.2,5102,11602,18824,2082,64256,65728,6,6,4,1460,391875,1,554697696,1590000,58156,49964,65700,0,43440,0,623473035,63
o,1724817991.792611,172.16.5.2,49825,172.16.1.2,5102,11602,20272,2082,64256,65728,6,6,4,1460,391875,1,554697696,1590000,58156,49964,65700,0,43440,0,623473035,63
i,1724817991.812136,172.16.5.2,49825,172.16.1.2,5102,11602,20272,2082,64256,65728,6,6,4,1460,391875,1,554697696,1590000,58156,49964,65700,0,44888,0,623473035,63
o,1724817991.812159,172.16.5.2,49825,172.16.1.2,5102,11602,21720,2082,64256,65728,6,6,4,1460,391875,1,554697696,1590000,58156,49964,65700,0,44888,0,623473035,63
i,1724817991.920195,172.16.5.2,49825,172.16.1.2,5102,11602,21720,2082,64256,65728,6,6,4,1460,391875,1,554697696,1590000,58156,49964,65700,0,46336,0,623473035,63
o,1724817991.920221,172.16.5.2,49825,172.16.1.2,5102,11602,23168,2082,64256,65728,6,6,4,1460,391875,1,554697696,1590000,58156,49964,65700,0,46336,0,623473035,63
i,1724817991.942484,172.16.5.2,49825,172.16.1.2,5102,11602,23168,2082,64256,65728,6,6,4,1460,391875,1,554697696,1590000,58156,49964,65700,0,47784,0,623473035,63
o,1724817991.942509,172.16.5.2,49825,172.16.1.2,5102,11602,24616,2082,64256,65728,6,6,4,1460,391875,1,554697696,1590000,58156,49964,65700,0,47784,0,623473035,63
i,1724817991.964539,172.16.5.2,49825,172.16.1.2,5102,11602,24616,2082,64256,65728,6,6,4,1460,391875,1,554697696,1590000,58156,49964,65700,0,49232,0,623473035,63
i,1724817992.028571,172.16.5.2,49825,172.16.1.2,5102,11602,26064,2082,64256,65728,6,6,4,1460,391875,1,554697696,1590000,58156,49964,65700,0,49232,0,623473035,63
i,1724817992.028620,172.16.5.2,49825,172.16.1.2,5102,11602,27512,2082,64256,65728,6,6,4,1460,391875,1,554697696,1590000,58156,49964,65700,0,49232,0,623473035,63
i,1724817992.037154,172.16.5.2,49825,172.16.1.2,5102,11602,28960,2082,64256,65728,6,6,4,1460,391875,1,537920480,1590000,58156,49964,65700,0,49232,0,623473035,63
i,1724817992.162973,172.16.5.2,49825,172.16.1.2,5102,11602,30408,2082,64256,65728,6,6,4,1460,391875,1,537920480,1590000,58156,49964,65700,0,49232,0,623473035,63
i,1724817992.189616,172.16.5.2,49825,172.16.1.2,5102,11602,31856,2082,64256,65728,6,6,4,1460,391875,1,537920480,1590000,58156,49964,65700,0,49232,0,623473035,63
o,1724817992.204499,172.16.5.2,49825,172.16.1.2,5102,15928,1448,2146,64256,65728,6,6,4,1460,391875,1,1092625377,2980000,58156,49964,65700,0,49232,0,623473035,63
i,1724817992.406468,172.16.5.2,49825,172.16.1.2,5102,15928,1448,2146,64256,65728,6,6,4,1460,391875,1,1092625376,2980000,58156,49964,65700,0,49232,0,623473035,63
o,1724817992.406527,172.16.5.2,49825,172.16.1.2,5102,15928,2908,2082,16512,65728,6,6,4,1460,368125,1,1092625376,1510000,58156,732,65700,0,0,0,623473035,63
i,1724817992.406873,172.16.5.2,49825,172.16.1.2,5102,15928,2908,2082,16512,65728,6,6,4,1460,368125,1,1092625376,1510000,58156,732,65700,0,732,0,623473035,63
o,1724817992.406992,172.16.5.2,49825,172.16.1.2,5102,15928,2908,2086,16512,65728,6,6,4,1460,368125,1,1092625376,1510000,58156,58156,65700,0,732,0,623473035,63
i,1724817992.614966,172.16.5.2,49825,172.16.1.2,5102,15928,2908,2086,16512,65728,6,6,4,1460,368125,1,1092625376,1510000,58156,58156,65700,0,2180,0,623473035,63
o,1724817992.615063,172.16.5.2,49825,172.16.1.2,5102,15928,3640,2086,65728,65728,6,6,4,1460,348437,1,1092625376,1410000,58156,57424,65700,0,1448,0,623473035,63
i,1724817992.674626,172.16.5.2,49825,172.16.1.2,5102,15928,3640,2086,65728,65728,6,6,4,1460,348437,1,1092625376,1410000,58156,57424,65700,0,2896,0,623473035,63
o,1724817992.674706,172.16.5.2,49825,172.16.1.2,5102,15928,5088,2086,65728,65728,6,6,4,1460,338750,1,1092625376,1260000,58156,55976,65700,0,1448,0,623473035,63
i,1724817992.924812,172.16.5.2,49825,172.16.1.2,5102,15928,5088,2086,65728,65728,6,6,4,1460,338750,1,1092625376,1260000,58156,58156,65700,0,4344,0,623473035,63
o,1724817992.924912,172.16.5.2,49825,172.16.1.2,5102,15928,6536,2086,65728,65728,6,6,4,1460,335312,1,1092625376,1110000,58156,56708,65700,0,2896,0,623473035,63
o,1724817992.925038,172.16.5.2,49825,172.16.1.2,5102,15928,6536,2086,65728,65728,6,6,4,1460,335312,1,1092625376,1110000,58156,56708,65700,0,4344,0,623473035,63
i,1724817992.957819,172.16.5.2,49825,172.16.1.2,5102,15928,6536,2086,65728,65728,6,6,4,1460,335312,1,1092625376,1110000,58156,56708,65700,0,5792,0,623473035,63
o,1724817992.957910,172.16.5.2,49825,172.16.1.2,5102,15928,9432,2086,64256,65728,6,6,4,1460,328437,1,1092625376,1010000,58156,53812,65700,0,2896,0,623473035,63
i,1724817993.280986,172.16.5.2,49825,172.16.1.2,5102,15928,9432,2086,64256,65728,6,6,4,1460,328437,1,1092625376,1010000,58156,58156,65700,0,8688,0,623473035,63
o,1724817993.281063,172.16.5.2,49825,172.16.1.2,5102,15928,10880,2086,65728,65728,6,6,4,1460,331250,1,1092625376,920000,58156,56708,65700,0,7240,0,623473035,63
o,1724817993.281180,172.16.5.2,49825,172.16.1.2,5102,15928,10880,2086,65728,65728,6,6,4,1460,331250,1,1092625376,920000,58156,56708,65700,0,8688,0,623473035,63
i,1724817993.315901,172.16.5.2,49825,172.16.1.2,5102,15928,10880,2086,65728,65728,6,6,4,1460,331250,1,1092625376,920000,58156,56708,65700,0,10136,0,623473035,63
o,1724817993.315948,172.16.5.2,49825,172.16.1.2,5102,15928,13776,2086,64256,65728,6,6,4,1460,338750,1,1092625376,890000,58156,53812,65700,0,7240,0,623473035,63
i,1724817993.372760,172.16.5.2,49825,172.16.1.2,5102,15928,13776,2086,64256,65728,6,6,4,1460,338750,1,1092625376,890000,58156,56492,65700,0,13032,0,623473035,63
o,1724817993.372838,172.16.5.2,49825,172.16.1.2,5102,15928,15224,2086,65728,65728,6,6,4,1460,347812,1,1092625376,880000,58156,55044,65700,0,11584,0,623473035,63
i,1724817993.397643,172.16.5.2,49825,172.16.1.2,5102,15928,15224,2086,65728,65728,6,6,4,1460,347812,1,1092625376,880000,58156,58156,65700,0,14480,0,623473035,63
o,1724817993.397707,172.16.5.2,49825,172.16.1.2,5102,15928,18120,2086,64256,65728,6,6,4,1460,359375,1,1092625376,900000,58156,55260,65700,0,11584,0,623473035,63
i,1724817993.591486,172.16.5.2,49825,172.16.1.2,5102,15928,18120,2086,64256,65728,6,6,4,1460,359375,1,1092625376,900000,58156,58156,65700,0,17376,0,623473035,63
o,1724817993.591596,172.16.5.2,49825,172.16.1.2,5102,15928,18120,2086,64256,65728,6,6,4,1460,353437,1,1092625376,860000,58156,55260,65700,0,14480,0,623473035,63
o,1724817993.591712,172.16.5.2,49825,172.16.1.2,5102,15928,18120,2086,64256,65728,6,6,4,1460,353437,1,1092625376,860000,58156,55260,65700,0,15928,0,623473035,63
i,1724817993.685358,172.16.5.2,49825,172.16.1.2,5102,15928,18120,2086,64256,65728,6,6,4,1460,353437,1,1092625376,860000,58156,58156,65700,0,17376,0,623473035,63
o,1724817993.685444,172.16.5.2,49825,172.16.1.2,5102,15928,18120,2086,65728,65728,6,6,4,1460,355625,1,1092625376,800000,58156,56708,65700,0,15928,0,623473035,63
i,1724817993.738675,172.16.5.2,49825,172.16.1.2,5102,15928,18120,2086,65728,65728,6,6,4,1460,355625,1,1092625376,800000,58156,56708,65700,0,17376,0,623473035,63
o,1724817993.738744,172.16.5.2,49825,172.16.1.2,5102,15928,18120,2086,65728,65728,6,6,4,1460,363750,1,1092625376,810000,58156,55260,65700,0,15928,0,623473035,63
i,1724817993.763827,172.16.5.2,49825,172.16.1.2,5102,15928,18120,2086,65728,65728,6,6,4,1460,363750,1,1092625376,810000,58156,58156,65700,0,17376,0,623473035,63
o,1724817993.763850,172.16.5.2,49825,172.16.1.2,5102,15928,18120,2086,64256,65728,6,6,4,1460,373437,1,1092625376,840000,58156,55260,65700,0,14480,0,623473035,63
i,1724817993.785582,172.16.5.2,49825,172.16.1.2,5102,15928,18120,2086,64256,65728,6,6,4,1460,373437,1,1092625376,840000,58156,58156,65700,0,17376,0,623473035,63
o,1724817993.785606,172.16.5.2,49825,172.16.1.2,5102,15928,18120,2086,65728,65728,6,6,4,1460,379375,1,1092625376,820000,58156,56708,65700,0,15928,0,623473035,63
i,1724817993.822069,172.16.5.2,49825,172.16.1.2,5102,15928,18120,2086,65728,65728,6,6,4,1460,379375,1,1092625376,820000,58156,56708,65700,0,17376,0,623473035,63
o,1724817993.822106,172.16.5.2,49825,172.16.1.2,5102,15928,18120,2086,64256,65728,6,6,4,1460,388437,1,1092625376,840000,58156,53812,65700,0,14480,0,623473035,63
i,1724817993.867437,172.16.5.2,49825,172.16.1.2,5102,15928,18120,2086,64256,65728,6,6,4,1460,388437,1,1092625376,840000,58156,58156,65700,0,17376,0,623473035,63
o,1724817993.867470,172.16.5.2,49825,172.16.1.2,5102,15928,18120,2086,64256,65728,6,6,4,1460,398750,1,1092625376,870000,58156,55260,65700,0,14480,0,623473035,63
i,1724817993.916618,172.16.5.2,49825,172.16.1.2,5102,15928,18120,2086,64256,65728,6,6,4,1460,398750,1,1092625376,870000,58156,58156,65700,0,17376,0,623473035,63
o,1724817993.916650,172.16.5.2,49825,172.16.1.2,5102,15928,18120,2086,65728,65728,6,6,4,1460,414062,1,1092625376,940000,58156,56708,65700,0,15928,0,623473035,63
i,1724817993.964816,172.16.5.2,49825,172.16.1.2,5102,15928,18120,2086,65728,65728,6,6,4,1460,414062,1,1092625376,940000,58156,56708,65700,0,17376,0,623473035,63
o,1724817993.964866,172.16.5.2,49825,172.16.1.2,5102,15928,19580,2086,65728,65728,6,6,4,1460,410000,1,1092625376,890000,58156,55260,65700,0,15928,0,623473035,63
o,1724817993.965059,172.16.5.2,49825,172.16.1.2,5102,15928,19580,2086,65728,65728,6,6,4,1460,410000,1,1092625376,890000,58156,55260,65700,0,17376,0,623473035,63
i,1724817993.985013,172.16.5.2,49825,172.16.1.2,5102,15928,19580,2086,65728,65728,6,6,4,1460,410000,1,1092625376,890000,58156,58156,65700,0,18824,0,623473035,63
o,1724817993.985084,172.16.5.2,49825,172.16.1.2,5102,15928,19580,2086,64256,65728,6,6,4,1460,408750,1,1092625376,830000,58156,55260,65700,0,15928,0,623473035,63
i,1724817994.045187,172.16.5.2,49825,172.16.1.2,5102,15928,19580,2086,64256,65728,6,6,4,1460,408750,1,1092625376,830000,58156,58156,65700,0,18824,0,623473035,63
o,1724817994.045265,172.16.5.2,49825,172.16.1.2,5102,15928,19580,2086,64256,65728,6,6,4,1460,396562,1,1092625376,860000,58156,55260,65700,0,15928,0,623473035,63
i,1724817994.164138,172.16.5.2,49825,172.16.1.2,5102,15928,19580,2086,64256,65728,6,6,4,1460,396562,1,1092625376,860000,58156,58156,65700,0,18824,0,623473035,63
o,1724817994.164187,172.16.5.2,49825,172.16.1.2,5102,15928,19580,2086,65728,65728,6,6,4,1460,397187,1,1092625376,800000,58156,56708,65700,0,17376,0,623473035,63
i,1724817994.178603,172.16.5.2,49825,172.16.1.2,5102,15928,19580,2086,65728,65728,6,6,4,1460,397187,1,1092625376,800000,58156,56708,65700,0,18824,0,623473035,63
o,1724817994.178668,172.16.5.2,49825,172.16.1.2,5102,15928,19580,2086,64256,65728,6,6,4,1460,396562,1,1092625376,750000,58156,53812,65700,0,15928,0,623473035,63
i,1724817994.259855,172.16.5.2,49825,172.16.1.2,5102,15928,19580,2086,64256,65728,6,6,4,1460,396562,1,1092625376,750000,58156,58156,65700,0,18824,0,623473035,63
o,1724817994.259885,172.16.5.2,49825,172.16.1.2,5102,15928,19580,2086,65728,65728,6,6,4,1460,402187,1,1092625376,760000,58156,56708,65700,0,17376,0,623473035,63
i,1724817994.301141,172.16.5.2,49825,172.16.1.2,5102,15928,19580,2086,65728,65728,6,6,4,1460,402187,1,1092625376,760000,58156,56708,65700,0,18824,0,623473035,63
o,1724817994.301141,172.16.5.2,49825,172.16.1.2,5102,15928,19580,2086,64256,65728,6,6,4,1460,405937,1,1092625376,760000,58156,53812,65700,0,15928,0,623473035,63
i,1724817994.342701,172.16.5.2,49825,172.16.1.2,5102,15928,19580,2086,64256,65728,6,6,4,1460,405937,1,1092625376,760000,58156,58156,65700,0,18824,0,623473035,63
o,1724817994.342726,172.16.5.2,49825,172.16.1.2,5102,15928,19580,2086,65728,65728,6,6,4,1460,407812,1,1092625376,740000,58156,56708,65700,0,17376,0,623473035,63
i,1724817994.364163,172.16.5.2,49825,172.16.1.2,5102,15928,19580,2086,65728,65728,6,6,4,1460,407812,1,1092625376,740000,58156,56708,65700,0,18824,0,623473035,63
o,1724817994.364181,172.16.5.2,49825,172.16.1.2,5102,15928,19580,2086,64256,65728,6,6,4,1460,405625,1,1092625376,720000,58156,53812,65700,0,15928,0,623473035,63
o,1724817994.364454,172.16.5.2,49825,172.16.1.2,5102,15928,19580,2086,64256,65728,6,6,4,1460,405625,1,1092625376,720000,58156,53812,65700,0,17376,0,623473035,63
i,1724817994.405075,172.16.5.2,49825,172.16.1.2,5102,15928,19580,2086,64256,65728,6,6,4,1460,405625,1,1092625376,720000,58156,58156,65700,0,18824,0,623473035,63
o,1724817994.405098,172.16.5.2,49825,172.16.1.2,5102,15928,21040,2086,64256,65728,6,6,4,1460,407500,1,1092625376,710000,58156,55260,65700,0,15928,0,623473035,63
i,1724817994.474919,172.16.5.2,49825,172.16.1.2,5102,15928,21040,2086,64256,65728,6,6,4,1460,407500,1,1092625376,710000,58156,58156,65700,0,20272,0,623473035,63
o,1724817994.475005,172.16.5.2,49825,172.16.1.2,5102,15928,21040,2086,64256,65728,6,6,4,1460,410312,1,1092625376,710000,58156,55260,65700,0,17376,0,623473035,63
i,1724817994.571217,172.16.5.2,49825,172.16.1.2,5102,15928,21040,2086,64256,65728,6,6,4,1460,410312,1,1092625376,710000,58156,58156,65700,0,20272,0,623473035,63
o,1724817994.571255,172.16.5.2,49825,172.16.1.2,5102,15928,21040,2086,65728,65728,6,6,4,1460,409062,1,1092625376,690000,58156,56708,65700,0,18824,0,623473035,63
i,1724817994.591278,172.16.5.2,49825,172.16.1.2,5102,15928,21040,2086,65728,65728,6,6,4,1460,409062,1,1092625376,690000,58156,56708,65700,0,20272,0,623473035,63
o,1724817994.591365,172.16.5.2,49825,172.16.1.2,5102,15928,21040,2086,64256,65728,6,6,4,1460,409375,1,1092625376,670000,58156,53812,65700,0,17376,0,623473035,63
i,1724817994.703925,172.16.5.2,49825,172.16.1.2,5102,15928,21040,2086,64256,65728,6,6,4,1460,409375,1,1092625376,670000,58156,58156,65700,0,20272,0,623473035,63
o,1724817994.704001,172.16.5.2,49825,172.16.1.2,5102,15928,21040,2086,64256,65728,6,6,4,1460,413437,1,1092625376,690000,58156,55260,65700,0,17376,0,623473035,63
i,1724817994.754909,172.16.5.2,49825,172.16.1.2,5102,15928,21040,2086,64256,65728,6,6,4,1460,413437,1,1092625376,690000,58156,58156,65700,0,20272,0,623473035,63
o,1724817994.754933,172.16.5.2,49825,172.16.1.2,5102,15928,21040,2086,64256,65728,6,6,4,1460,419375,1,1092625376,730000,58156,55260,65700,0,17376,0,623473035,63
i,1724817994.838866,172.16.5.2,49825,172.16.1.2,5102,15928,21040,2086,64256,65728,6,6,4,1460,419375,1,1092625376,730000,58156,58156,65700,0,20272,0,623473035,63
o,1724817994.838943,172.16.5.2,49825,172.16.1.2,5102,15928,21040,2086,64256,65728,6,6,4,1460,425937,1,1092625376,760000,58156,55260,65700,0,17376,0,623473035,63
o,1724817994.839083,172.16.5.2,49825,172.16.1.2,5102,15928,21040,2086,64256,65728,6,6,4,1460,425937,1,1092625376,760000,58156,55260,65700,0,18824,0,623473035,63
i,1724817994.874804,172.16.5.2,49825,172.16.1.2,5102,15928,21040,2086,64256,65728,6,6,4,1460,425937,1,1092625376,760000,58156,58156,65700,0,20272,0,623473035,63
o,1724817994.874871,172.16.5.2,49825,172.16.1.2,5102,15928,22500,2086,64256,65728,6,6,4,1460,431562,1,1092625376,780000,58156,55260,65700,0,17376,0,623473035,63
i,1724817994.950989,172.16.5.2,49825,172.16.1.2,5102,15928,22500,2086,64256,65728,6,6,4,1460,431562,1,1092625376,780000,58156,58156,65700,0,21720,0,623473035,63
o,1724817994.951085,172.16.5.2,49825,172.16.1.2,5102,15928,22500,2086,65728,65728,6,6,4,1460,445312,1,1092625376,860000,58156,56708,65700,0,20272,0,623473035,63
i,1724817994.970711,172.16.5.2,49825,172.16.1.2,5102,15928,22500,2086,65728,65728,6,6,4,1460,445312,1,1092625376,860000,58156,56708,65700,0,21720,0,623473035,63
o,1724817994.970781,172.16.5.2,49825,172.16.1.2,5102,15928,22500,2086,64256,65728,6,6,4,1460,450937,1,1092625376,860000,58156,53812,65700,0,18824,0,623473035,63
i,1724817995.069466,172.16.5.2,49825,172.16.1.2,5102,15928,22500,2086,64256,65728,6,6,4,1460,450937,1,1092625376,860000,58156,58156,65700,0,21720,0,623473035,63
o,1724817995.069646,172.16.5.2,49825,172.16.1.2,5102,15928,22500,2086,64256,65728,6,6,4,1460,457187,1,1092625376,860000,58156,55260,65700,0,18824,0,623473035,63
i,1724817995.120929,172.16.5.2,49825,172.16.1.2,5102,15928,22500,2086,64256,65728,6,6,4,1460,457187,1,1092625376,860000,58156,58156,65700,0,21720,0,623473035,63
o,1724817995.121021,172.16.5.2,49825,172.16.1.2,5102,15928,22500,2086,65728,65728,6,6,4,1460,466562,1,1092625376,890000,58156,56708,65700,0,20272,0,623473035,63
i,1724817995.144606,172.16.5.2,49825,172.16.1.2,5102,15928,22500,2086,65728,65728,6,6,4,1460,466562,1,1092625376,890000,58156,56708,65700,0,21720,0,623473035,63
o,1724817995.144629,172.16.5.2,49825,172.16.1.2,5102,15928,22500,2086,64256,65728,6,6,4,1460,463437,1,1092625376,860000,58156,53812,65700,0,18824,0,623473035,63
i,1724817995.221214,172.16.5.2,49825,172.16.1.2,5102,15928,22500,2086,64256,65728,6,6,4,1460,463437,1,1092625376,860000,58156,58156,65700,0,21720,0,623473035,63
i,1724817995.305234,172.16.5.2,49825,172.16.1.2,5102,17271,18824,2150,64256,65728,6,6,4,1460,463125,1,1629496288,810000,58156,58156,65700,0,18824,0,623473035,63
o,1724817995.305268,172.16.5.2,49825,172.16.1.2,5102,17271,18836,2086,64256,65728,6,6,4,1460,464062,1,1629496288,780000,58156,55260,65700,0,15928,0,623473035,63
o,1724817995.305402,172.16.5.2,49825,172.16.1.2,5102,17271,18836,2086,64256,65728,6,6,4,1460,464062,1,1629496288,780000,58156,55260,65700,0,17376,0,623473035,63
i,1724817995.361399,172.16.5.2,49825,172.16.1.2,5102,17271,18836,2086,64256,65728,6,6,4,1460,464062,1,1629496288,780000,58156,58156,65700,0,18824,0,623473035,63
i,1724817995.414974,172.16.5.2,49825,172.16.1.2,5102,17271,17376,2086,65728,65728,6,6,4,1460,466250,1,1629496288,770000,58156,56708,65700,0,17376,0,623473035,63
o,1724817995.415045,172.16.5.2,49825,172.16.1.2,5102,17271,17376,2082,65728,65728,6,6,4,1460,475625,1,1629496288,830000,58156,55260,65700,0,15928,0,623473035,63
i,1724817995.415167,172.16.5.2,49825,172.16.1.2,5102,17271,17376,2082,65728,65728,6,6,4,1460,475625,1,1629496288,830000,58156,55260,65700,0,17376,0,623473035,63
o,1724817995.415183,172.16.5.2,49825,172.16.1.2,5102,17271,18824,2082,65728,65728,6,6,4,1460,475625,1,1629496288,830000,58156,55260,65700,0,17376,0,623473035,63
i,1724817995.435919,172.16.5.2,49825,172.16.1.2,5102,17271,17376,2082,65728,65728,6,6,4,1460,475625,1,1629496288,830000,58156,58156,65700,0,18824,0,623473035,63
o,1724817995.435940,172.16.5.2,49825,172.16.1.2,5102,17271,20272,2082,65728,65728,6,6,4,1460,475625,1,1629496288,830000,58156,58156,65700,0,18824,0,623473035,63
i,1724817995.458570,172.16.5.2,49825,172.16.1.2,5102,17271,17376,2082,65728,65728,6,6,4,1460,475625,1,1629496288,830000,58156,58156,65700,0,20272,0,623473035,63
o,1724817995.458589,172.16.5.2,49825,172.16.1.2,5102,8688,1448,2146,65728,65728,6,6,4,1460,475625,1,1630544864,830000,58156,58156,65700,0,20272,0,623473035,63
i,1724817995.493720,172.16.5.2,49825,172.16.1.2,5102,8688,1448,2146,65728,65728,6,6,4,1460,475625,1,1630544864,830000,58156,58156,65700,0,20272,0,623473035,63
i,1724817995.514438,172.16.5.2,49825,172.16.1.2,5102,8688,1448,2146,65728,65728,6,6,4,1460,475625,1,1630544864,830000,58156,58156,65700,0,20272,0,623473035,63
i,1724817995.564716,172.16.5.2,49825,172.16.1.2,5102,8688,1448,2146,65728,65728,6,6,4,1460,475625,1,1630544864,830000,58156,58156,65700,0,20272,0,623473035,63
i,1724817995.564758,172.16.5.2,49825,172.16.1.2,5102,8688,1448,2146,65728,65728,6,6,4,1460,475625,1,1630544864,830000,58156,58156,65700,0,20272,0,623473035,63
i,1724817995.570725,172.16.5.2,49825,172.16.1.2,5102,8688,1448,2146,65728,65728,6,6,4,1460,475625,1,1630544864,830000,58156,58156,65700,0,20272,0,623473035,63
i,1724817995.624805,172.16.5.2,49825,172.16.1.2,5102,8688,1448,2146,65728,65728,6,6,4,1460,475625,1,1613767648,830000,58156,58156,65700,0,20272,0,623473035,63
i,1724817995.675679,172.16.5.2,49825,172.16.1.2,5102,8688,1448,2146,65728,65728,6,6,4,1460,475625,1,1613767648,830000,58156,58156,65700,0,20272,0,623473035,63
o,1724817995.675705,172.16.5.2,49825,172.16.1.2,5102,8688,2896,2146,65728,65728,6,6,4,1460,475625,1,1630544864,830000,58156,58156,65700,0,20272,0,623473035,63
i,1724817995.675849,172.16.5.2,49825,172.16.1.2,5102,8688,2896,2146,65728,65728,6,6,4,1460,475625,1,1630544864,830000,58156,58156,65700,0,20272,0,623473035,63
o,1724817995.675865,172.16.5.2,49825,172.16.1.2,5102,8688,4344,2082,65728,65728,6,6,4,1460,475625,1,1630544864,830000,58156,58156,65700,0,20272,0,623473035,63
i,1724817995.742120,172.16.5.2,49825,172.16.1.2,5102,8688,4344,2082,65728,65728,6,6,4,1460,475625,1,1630544864,830000,58156,58156,65700,0,21720,0,623473035,63
o,1724817995.742143,172.16.5.2,49825,172.16.1.2,5102,8688,5792,2082,65728,65728,6,6,4,1460,475625,1,1630544864,830000,58156,58156,65700,0,21720,0,623473035,63
i,1724817995.742290,172.16.5.2,49825,172.16.1.2,5102,8688,5792,2082,65728,65728,6,6,4,1460,475625,1,1630544864,830000,58156,58156,65700,0,23168,0,623473035,63
o,1724817995.742309,172.16.5.2,49825,172.16.1.2,5102,8688,4344,2082,65728,65728,6,6,4,1460,475625,1,1630544865,830000,58156,58156,65700,0,23168,0,623473035,63
i,1724817995.917712,172.16.5.2,49825,172.16.1.2,5102,8688,4344,2082,58496,65728,6,6,4,1460,451250,1,1630544864,960000,58156,58156,65700,0,15928,0,623473035,63
o,1724817995.917791,172.16.5.2,49825,172.16.1.2,5102,8688,4356,2086,52672,65728,6,6,4,1460,425000,1,1092625376,1070000,58156,45124,65700,0,2896,0,623473035,63
i,1724817995.917914,172.16.5.2,49825,172.16.1.2,5102,8688,4356,2086,52672,65728,6,6,4,1460,425000,1,1092625376,1070000,58156,45124,65700,0,4344,0,623473035,63
o,1724817995.917930,172.16.5.2,49825,172.16.1.2,5102,8688,5804,2086,65728,65728,6,6,4,1460,401875,1,1092625376,1120000,58156,43676,65700,0,2896,0,623473035,63
i,1724817996.024773,172.16.5.2,49825,172.16.1.2,5102,8688,5804,2086,65728,65728,6,6,4,1460,401875,1,1092625376,1120000,58156,58156,65700,0,5792,0,623473035,63
o,1724817996.024812,172.16.5.2,49825,172.16.1.2,5102,8688,7252,2086,65728,65728,6,6,4,1460,388125,1,1092625376,1090000,58156,56708,65700,0,4344,0,623473035,63
i,1724817996.168353,172.16.5.2,49825,172.16.1.2,5102,8688,7252,2086,65728,65728,6,6,4,1460,388125,1,1092625376,1090000,58156,56708,65700,0,7240,0,623473035,63
o,1724817996.168388,172.16.5.2,49825,172.16.1.2,5102,8688,10148,2086,64256,65728,6,6,4,1460,370937,1,1092625376,1080000,58156,53812,65700,0,4344,0,623473035,63
o,1724817996.168605,172.16.5.2,49825,172.16.1.2,5102,8688,10148,2086,64256,65728,6,6,4,1460,370937,1,1092625376,1080000,58156,53812,65700,0,5792,0,623473035,63
i,1724817996.211397,172.16.5.2,49825,172.16.1.2,5102,8688,10148,2086,64256,65728,6,6,4,1460,370937,1,1092625376,1080000,58156,58156,65700,0,10136,0,623473035,63
o,1724817996.211479,172.16.5.2,49825,172.16.1.2,5102,8688,10148,2086,65728,65728,6,6,4,1460,360937,1,1092625376,1020000,58156,56708,65700,0,8688,0,623473035,63
i,1724817996.265510,172.16.5.2,49825,172.16.1.2,5102,8688,10148,2086,65728,65728,6,6,4,1460,360937,1,1092625376,1020000,58156,56708,65700,0,10136,0,623473035,63
o,1724817996.265537,172.16.5.2,49825,172.16.1.2,5102,8688,10148,2086,64256,65728,6,6,4,1460,345937,1,1092625376,1010000,58156,53812,65700,0,7240,0,623473035,63
i,1724817996.414174,172.16.5.2,49825,172.16.1.2,5102,8688,10148,2086,64256,65728,6,6,4,1460,345937,1,1092625376,1010000,58156,58156,65700,0,10136,0,623473035,63
o,1724817996.414213,172.16.5.2,49825,172.16.1.2,5102,8688,10148,2086,64256,65728,6,6,4,1460,334062,1,1092625376,980000,58156,55260,65700,0,7240,0,623473035,63
o,1724817996.414356,172.16.5.2,49825,172.16.1.2,5102,8688,10148,2086,64256,65728,6,6,4,1460,334062,1,1092625376,980000,58156,55260,65700,0,8688,0,623473035,63
i,1724817996.452215,172.16.5.2,49825,172.16.1.2,5102,8688,10148,2086,64256,65728,6,6,4,1460,334062,1,1092625376,980000,58156,58156,65700,0,10136,0,623473035,63
o,1724817996.452322,172.16.5.2,49825,172.16.1.2,5102,8688,10148,2086,64256,65728,6,6,4,1460,327500,1,1092625376,910000,58156,55260,65700,0,7240,0,623473035,63
i,1724817996.541736,172.16.5.2,49825,172.16.1.2,5102,8688,10148,2086,64256,65728,6,6,4,1460,327500,1,1092625376,910000,58156,58156,65700,0,10136,0,623473035,63
o,1724817996.541769,172.16.5.2,49825,172.16.1.2,5102,8688,11608,2086,64256,65728,6,6,4,1460,327812,1,1092625376,820000,58156,55260,65700,0,7240,0,623473035,63
i,1724817996.589204,172.16.5.2,49825,172.16.1.2,5102,8688,11608,2086,64256,65728,6,6,4,1460,327812,1,1092625376,820000,58156,58156,65700,0,11584,0,623473035,63
o,1724817996.589229,172.16.5.2,49825,172.16.1.2,5102,8688,11608,2086,65728,65728,6,6,4,1460,326875,1,1092625376,750000,58156,56708,65700,0,10136,0,623473035,63
i,1724817996.641332,172.16.5.2,49825,172.16.1.2,5102,8688,11608,2086,65728,65728,6,6,4,1460,326875,1,1092625376,750000,58156,56708,65700,0,11584,0,623473035,63
o,1724817996.641362,172.16.5.2,49825,172.16.1.2,5102,8688,11608,2086,64256,65728,6,6,4,1460,313750,1,1092625376,790000,58156,53812,65700,0,8688,0,623473035,63
o,1724817996.641510,172.16.5.2,49825,172.16.1.2,5102,8688,11608,2086,64256,65728,6,6,4,1460,313750,1,1092625376,790000,58156,53812,65700,0,10136,0,623473035,63
i,1724817996.681695,172.16.5.2,49825,172.16.1.2,5102,8688,11608,2086,64256,65728,6,6,4,1460,313750,1,1092625376,790000,58156,58156,65700,0,11584,0,623473035,63
o,1724817996.681762,172.16.5.2,49825,172.16.1.2,5102,8688,11608,2086,64256,65728,6,6,4,1460,303437,1,1092625376,790000,58156,55260,65700,0,8688,0,623473035,63
i,1724817996.854825,172.16.5.2,49825,172.16.1.2,5102,8688,11608,2086,64256,65728,6,6,4,1460,303437,1,1092625376,790000,58156,57244,65700,0,11584,0,623473035,63
o,1724817996.854911,172.16.5.2,49825,172.16.1.2,5102,8688,13068,2086,64256,65728,6,6,4,1460,305625,1,1092625376,740000,58156,54348,65700,0,8688,0,623473035,63
i,1724817996.874709,172.16.5.2,49825,172.16.1.2,5102,8688,13068,2086,64256,65728,6,6,4,1460,305625,1,1092625376,740000,58156,58156,65700,0,13032,0,623473035,63
o,1724817996.874740,172.16.5.2,49825,172.16.1.2,5102,8688,13068,2086,64256,65728,6,6,4,1460,310000,1,1092625376,720000,58156,55260,65700,0,10136,0,623473035,63
i,1724817996.927578,172.16.5.2,49825,172.16.1.2,5102,8688,13068,2086,64256,65728,6,6,4,1460,310000,1,1092625376,720000,58156,58156,65700,0,13032,0,623473035,63
o,1724817996.927690,172.16.5.2,49825,172.16.1.2,5102,8688,13068,2086,64256,65728,6,6,4,1460,307500,1,1092625376,690000,58156,55260,65700,0,10136,0,623473035,63
o,1724817996.927831,172.16.5.2,49825,172.16.1.2,5102,8688,13068,2086,64256,65728,6,6,4,1460,307500,1,1092625376,690000,58156,55260,65700,0,11584,0,623473035,63
i,1724817996.988867,172.16.5.2,49825,172.16.1.2,5102,8688,13068,2086,64256,65728,6,6,4,1460,307500,1,1092625376,690000,58156,58156,65700,0,13032,0,623473035,63
o,1724817996.988904,172.16.5.2,49825,172.16.1.2,5102,8688,13068,2086,64256,65728,6,6,4,1460,307812,1,1092625376,640000,58156,55260,65700,0,10136,0,623473035,63
i,1724817997.175810,172.16.5.2,49825,172.16.1.2,5102,8688,13068,2086,64256,65728,6,6,4,1460,307812,1,1092625376,640000,58156,58156,65700,0,13032,0,623473035,63
o,1724817997.175849,172.16.5.2,49825,172.16.1.2,5102,8688,13068,2086,64256,65728,6,6,4,1460,309375,1,1092625376,620000,58156,55260,65700,0,10136,0,623473035,63
i,1724817997.277695,172.16.5.2,49825,172.16.1.2,5102,8688,13068,2086,64256,65728,6,6,4,1460,309375,1,1092625376,620000,58156,58156,65700,0,13032,0,623473035,63
o,1724817997.277772,172.16.5.2,49825,172.16.1.2,5102,8688,14528,2086,65728,65728,6,6,4,1460,323437,1,1092625376,720000,58156,56708,65700,0,11584,0,623473035,63
i,1724817997.321167,172.16.5.2,49825,172.16.1.2,5102,8688,14528,2086,65728,65728,6,6,4,1460,323437,1,1092625376,720000,58156,56708,65700,0,14480,0,623473035,63
o,1724817997.321190,172.16.5.2,49825,172.16.1.2,5102,8688,14528,2086,64256,65728,6,6,4,1460,338125,1,1092625376,800000,58156,53812,65700,0,11584,0,623473035,63
i,1724817997.387047,172.16.5.2,49825,172.16.1.2,5102,8688,14528,2086,64256,65728,6,6,4,1460,338125,1,1092625376,800000,58156,58156,65700,0,14480,0,623473035,63
o,1724817997.387156,172.16.5.2,49825,172.16.1.2,5102,8688,14528,2086,64256,65728,6,6,4,1460,353437,1,1092625376,870000,58156,55260,65700,0,11584,0,623473035,63
o,1724817997.387323,172.16.5.2,49825,172.16.1.2,5102,8688,14528,2086,64256,65728,6,6,4,1460,353437,1,1092625376,870000,58156,55260,65700,0,13032,0,623473035,63
i,1724817997.424956,172.16.5.2,49825,172.16.1.2,5102,8688,14528,2086,64256,65728,6,6,4,1460,353437,1,1092625376,870000,58156,58156,65700,0,14480,0,623473035,63
o,1724817997.424981,172.16.5.2,49825,172.16.1.2,5102,8688,14528,2086,64256,65728,6,6,4,1460,364375,1,1092625376,890000,58156,55260,65700,0,11584,0,623473035,63
i,1724817997.648660,172.16.5.2,49825,172.16.1.2,5102,8688,14528,2086,64256,65728,6,6,4,1460,364375,1,1092625376,890000,58156,58156,65700,0,14480,0,623473035,63
o,1724817997.648699,172.16.5.2,49825,172.16.1.2,5102,8688,14528,2086,64256,65728,6,6,4,1460,377812,1,1092625376,930000,58156,55260,65700,0,11584,0,623473035,63
i,1724817997.723639,172.16.5.2,49825,172.16.1.2,5102,8688,14528,2086,64256,65728,6,6,4,1460,377812,1,1092625376,930000,58156,58156,65700,0,14480,0,623473035,63
o,1724817997.723669,172.16.5.2,49825,172.16.1.2,5102,8688,14528,2086,65728,65728,6,6,4,1460,385625,1,1092625376,910000,58156,56708,65700,0,13032,0,623473035,63
i,1724817997.865356,172.16.5.2,49825,172.16.1.2,5102,8688,14528,2086,65728,65728,6,6,4,1460,385625,1,1092625376,910000,58156,56708,65700,0,14480,0,623473035,63
o,1724817997.865403,172.16.5.2,49825,172.16.1.2,5102,8688,15988,2086,64256,65728,6,6,4,1460,411250,1,1092625376,1060000,58156,53812,65700,0,11584,0,623473035,63
i,1724817997.896501,172.16.5.2,49825,172.16.1.2,5102,8688,15988,2086,64256,65728,6,6,4,1460,411250,1,1092625376,1060000,58156,58156,65700,0,15928,0,623473035,63
o,1724817997.896528,172.16.5.2,49825,172.16.1.2,5102,8688,15988,2086,64256,65728,6,6,4,1460,432500,1,1092625376,1140000,58156,55260,65700,0,13032,0,623473035,63
o,1724817997.896661,172.16.5.2,49825,172.16.1.2,5102,8688,15988,2086,64256,65728,6,6,4,1460,432500,1,1092625376,1140000,58156,55260,65700,0,14480,0,623473035,63
i,1724817997.950936,172.16.5.2,49825,172.16.1.2,5102,8688,15988,2086,64256,65728,6,6,4,1460,432500,1,1092625376,1140000,58156,58156,65700,0,15928,0,623473035,63
o,1724817997.951026,172.16.5.2,49825,172.16.1.2,5102,8688,15988,2086,64256,65728,6,6,4,1460,448437,1,1092625376,1160000,58156,55260,65700,0,13032,0,623473035,63
i,1724817998.076950,172.16.5.2,49825,172.16.1.2,5102,8688,15988,2086,64256,65728,6,6,4,1460,448437,1,1092625376,1160000,58156,58156,65700,0,15928,0,623473035,63
o,1724817998.077048,172.16.5.2,49825,172.16.1.2,5102,8688,15988,2086,65728,65728,6,6,4,1460,473750,1,1092625376,1260000,58156,56708,65700,0,14480,0,623473035,63
i,1724817998.195675,172.16.5.2,49825,172.16.1.2,5102,8688,15988,2086,65728,65728,6,6,4,1460,473750,1,1092625376,1260000,58156,56708,65700,0,15928,0,623473035,63
o,1724817998.195718,172.16.5.2,49825,172.16.1.2,5102,8688,15988,2086,64256,65728,6,6,4,1460,483437,1,1092625376,1200000,58156,53812,65700,0,13032,0,623473035,63
i,1724817998.284158,172.16.5.2,49825,172.16.1.2,5102,8688,15988,2086,64256,65728,6,6,4,1460,483437,1,1092625376,1200000,58156,58156,65700,0,15928,0,623473035,63
o,1724817998.284194,172.16.5.2,49825,172.16.1.2,5102,8688,15988,2086,65728,65728,6,6,4,1460,493125,1,1092625376,1160000,58156,56708,65700,0,14480,0,623473035,63
i,1724817998.355227,172.16.5.2,49825,172.16.1.2,5102,8688,15988,2086,65728,65728,6,6,4,1460,493125,1,1092625376,1160000,58156,56708,65700,0,15928,0,623473035,63
o,1724817998.355311,172.16.5.2,49825,172.16.1.2,5102,8688,17448,2086,64256,65728,6,6,4,1460,492812,1,1092625376,1040000,58156,53812,65700,0,13032,0,623473035,63
i,1724817998.419531,172.16.5.2,49825,172.16.1.2,5102,8688,17448,2086,64256,65728,6,6,4,1460,492812,1,1092625376,1040000,58156,58156,65700,0,17376,0,623473035,63
o,1724817998.419624,172.16.5.2,49825,172.16.1.2,5102,8688,17448,2086,65728,65728,6,6,4,1460,500000,1,1092625376,1020000,58156,56708,65700,0,15928,0,623473035,63
i,1724817998.477903,172.16.5.2,49825,172.16.1.2,5102,8688,17448,2086,65728,65728,6,6,4,1460,500000,1,1092625376,1020000,58156,56708,65700,0,17376,0,623473035,63
o,1724817998.477979,172.16.5.2,49825,172.16.1.2,5102,8688,17448,2086,65728,65728,6,6,4,1460,510000,1,1092625376,1030000,58156,55260,65700,0,15928,0,623473035,63
i,1724817998.499656,172.16.5.2,49825,172.16.1.2,5102,8688,17448,2086,65728,65728,6,6,4,1460,510000,1,1092625376,1030000,58156,58156,65700,0,17376,0,623473035,63
i,1724817998.581379,172.16.5.2,49825,172.16.1.2,5102,8688,17448,2086,65728,65728,6,6,4,1460,510000,1,1092625376,1030000,58156,58156,65700,0,17376,0,623473035,63
o,1724817998.581415,172.16.5.2,49825,172.16.1.2,5102,8724,1448,2146,65728,65728,6,6,4,1460,510000,1,1630544864,1030000,58156,58156,65700,0,17376,0,623473035,63
i,1724817998.654870,172.16.5.2,49825,172.16.1.2,5102,8724,1448,2146,65728,65728,6,6,4,1460,510000,1,1630544864,1030000,58156,58156,65700,0,17376,0,623473035,63
o,1724817998.654899,172.16.5.2,49825,172.16.1.2,5102,8724,2896,2082,65728,65728,6,6,4,1460,510000,1,1630544864,1030000,58156,58156,65700,0,17376,0,623473035,63
i,1724817998.749405,172.16.5.2,49825,172.16.1.2,5102,8724,2896,2082,65728,65728,6,6,4,1460,510000,1,1630544864,1030000,58156,58156,65700,0,18824,0,623473035,63
o,1724817998.749435,172.16.5.2,49825,172.16.1.2,5102,8724,2896,2082,65728,65728,6,6,4,1460,510000,1,1630544864,1030000,58156,58156,65700,0,18824,0,623473035,63
i,1724817998.759145,172.16.5.2,49825,172.16.1.2,5102,8724,2896,2082,65728,65728,6,6,4,1460,510000,1,1630544864,1030000,58156,58156,65700,0,18824,0,623473035,63
o,1724817998.759167,172.16.5.2,49825,172.16.1.2,5102,8724,4344,2082,65728,65728,6,6,4,1460,510000,1,1630544864,1030000,58156,58156,65700,0,18824,0,623473035,63
i,1724817998.810233,172.16.5.2,49825,172.16.1.2,5102,8724,4344,2082,65728,65728,6,6,4,1460,510000,1,1630544864,1030000,58156,58156,65700,0,18824,0,623473035,63
o,1724817998.810260,172.16.5.2,49825,172.16.1.2,5102,8724,5792,2082,65728,65728,6,6,4,1460,510000,1,1630544864,1030000,58156,58156,65700,0,18824,0,623473035,63
i,1724817998.810389,172.16.5.2,49825,172.16.1.2,5102,8724,5792,2082,65728,65728,6,6,4,1460,510000,1,1630544864,1030000,58156,58156,65700,0,18824,0,623473035,63
i,1724817998.926819,172.16.5.2,49825,172.16.1.2,5102,8724,7240,2082,65728,65728,6,6,4,1460,510000,1,1613767648,1030000,58156,58156,65700,0,18824,0,623473035,63
i,1724817999.007474,172.16.5.2,49825,172.16.1.2,5102,8724,7240,2082,65728,65728,6,6,4,1460,510000,1,1613767648,1030000,58156,58156,65700,0,18824,0,623473035,63
i,1724817999.027275,172.16.5.2,49825,172.16.1.2,5102,8724,5792,2082,65728,65728,6,6,4,1460,510000,1,1613767648,1030000,58156,58156,65700,0,18824,0,623473035,63
o,1724817999.027304,172.16.5.2,49825,172.16.1.2,5102,8724,7240,2086,65728,65728,6,6,4,1460,510000,1,1630544864,1030000,58156,58156,65700,0,18824,0,623473035,63
o,1724817999.027559,172.16.5.2,49825,172.16.1.2,5102,8724,7240,2082,65728,65728,6,6,4,1460,510000,1,1630544864,1030000,58156,58156,65700,0,20272,0,623473035,63
i,1724817999.080457,172.16.5.2,49825,172.16.1.2,5102,8724,7240,2082,65728,65728,6,6,4,1460,510000,1,1630544864,1030000,58156,58156,65700,0,21720,0,623473035,63
o,1724817999.080492,172.16.5.2,49825,172.16.1.2,5102,8724,8688,2086,65728,65728,6,6,4,1460,510000,1,1630544864,1030000,58156,58156,65700,0,21720,0,623473035,63
i,1724817999.283018,172.16.5.2,49825,172.16.1.2,5102,8724,8688,2086,65728,65728,6,6,4,1460,510000,1,1630544864,1030000,58156,58156,65700,0,24616,0,623473035,63
o,1724817999.283057,172.16.5.2,49825,172.16.1.2,5102,8724,10136,2082,65728,65728,6,6,4,1460,510000,1,1630544864,1030000,58156,58156,65700,0,24616,0,623473035,63
i,1724817999.309656,172.16.5.2,49825,172.16.1.2,5102,8724,10136,2082,65728,65728,6,6,4,1460,510000,1,1630544864,1030000,58156,58156,65700,0,26064,0,623473035,63
o,1724817999.309707,172.16.5.2,49825,172.16.1.2,5102,8724,11584,2082,65728,65728,6,6,4,1460,510000,1,1630544864,1030000,58156,58156,65700,0,26064,0,623473035,63
i,1724817999.341484,172.16.5.2,49825,172.16.1.2,5102,8724,11584,2082,65728,65728,6,6,4,1460,510000,1,1630544864,1030000,58156,58156,65700,0,27512,0,623473035,63
o,1724817999.341510,172.16.5.2,49825,172.16.1.2,5102,8724,13032,2082,65728,65728,6,6,4,1460,510000,1,1630544864,1030000,58156,58156,65700,0,27512,0,623473035,63
i,1724817999.396674,172.16.5.2,49825,172.16.1.2,5102,8724,13032,2082,65728,65728,6,6,4,1460,510000,1,1630544864,1030000,58156,58156,65700,0,28960,0,623473035,63
