enable_time_secs=1724818333	enable_time_usecs=068984	siftrver=1.3.0	sysname=FreeBSD	sysver=1401000	ipmode=4
o,1724818333.069402,10.0.2.15,22,10.0.2.2,51124,1073725440,17746,1026,65535,65700,0,0,4,1460,312,0,16777220,240000,33580,172,65700,0,0,0,1886328091,63
o,1724818333.070354,10.0.2.15,22,10.0.2.2,51124,1073725440,17746,1026,65535,65700,0,0,4,1460,312,0,16777220,240000,33580,244,65700,0,172,0,1886328091,63
i,1724818333.070452,10.0.2.15,22,10.0.2.2,51124,1073725440,17746,1026,65535,65700,0,0,4,1460,312,0,16777220,240000,33580,244,65700,0,244,0,1886328091,63
i,1724818333.070658,10.0.2.15,22,10.0.2.2,51124,1073725440,17918,1026,65535,65700,0,0,4,1460,312,0,4,240000,33580,72,65700,0,72,0,1886328091,63
i,1724818333.070872,10.0.2.15,22,10.0.2.2,51124,1073725440,17990,1026,65535,65700,0,0,4,1460,312,0,4,240000,33580,0,65700,0,0,0,1886328091,63
i,1724818333.070890,10.0.2.15,22,10.0.2.2,51124,1073725440,17990,1026,65535,65700,0,0,4,1460,312,0,4,240000,33580,0,65700,96,0,0,1886328091,63
o,1724818333.070909,10.0.2.15,22,10.0.2.2,51124,1073725440,17990,1026,65535,65604,0,0,5,1460,312,0,5,240000,33580,0,65700,96,0,0,1886328091,63
o,1724818333.071819,10.0.2.15,22,10.0.2.2,51124,1073725440,17990,1026,65535,65604,0,0,8,1460,312,0,4,240000,33580,0,65700,0,0,0,1886328091,63
i,1724818333.072516,10.0.2.15,22,10.0.2.2,51124,1073725440,17990,1026,65535,65604,0,0,8,1460,312,0,67108884,240000,33580,0,65700,0,1,0,1886328091,63
i,1724818336.208685,10.0.2.15,22,10.0.2.2,51138,1073725440,14600,0,65535,65700,0,0,4,1460,312,0,16777216,270000,33580,0,65700,0,0,0,3982971485,63
o,1724818336.217990,10.0.2.15,22,10.0.2.2,51138,1073725440,14600,1026,65535,65700,0,0,4,1460,312,0,16777216,270000,33580,38,65700,42,0,0,3982971485,63
i,1724818336.218699,10.0.2.15,22,10.0.2.2,51138,1073725440,14600,1026,65535,65700,0,0,4,1460,312,0,16777216,270000,33580,38,65700,0,38,0,3982971485,63
i,1724818336.219189,10.0.2.15,22,10.0.2.2,51138,1073725440,14638,1026,65535,65700,0,0,4,1460,312,0,0,240000,33580,0,65700,0,0,0,3982971485,63
i,1724818336.219207,10.0.2.15,22,10.0.2.2,51138,1073725440,14638,1026,65535,65700,0,0,4,1460,312,0,0,240000,33580,0,65700,1460,0,0,3982971485,63
o,1724818336.219228,10.0.2.15,22,10.0.2.2,51138,1073725440,14638,1026,65535,65700,0,0,4,1460,312,0,1,240000,33580,0,65700,1536,0,0,3982971485,63
o,1724818336.223109,10.0.2.15,22,10.0.2.2,51138,1073725440,14638,1026,65535,65700,0,0,4,1460,312,0,16777216,240000,33580,1120,65700,1536,0,0,3982971485,63
i,1724818336.224230,10.0.2.15,22,10.0.2.2,51138,1073725440,14638,1026,65535,65700,0,0,4,1460,312,0,16777216,240000,33580,1120,65700,0,1120,0,3982971485,63
i,1724818336.225069,10.0.2.15,22,10.0.2.2,51138,1073725440,15758,1026,65535,65700,0,0,4,1460,312,0,0,240000,33580,0,65700,0,0,0,3982971485,63
o,1724818336.228131,10.0.2.15,22,10.0.2.2,51138,1073725440,15758,1026,65535,65700,0,0,4,1460,312,0,16777216,240000,33580,492,65700,0,0,0,3982971485,63
i,1724818336.228752,10.0.2.15,22,10.0.2.2,51138,1073725440,15758,1026,65535,65700,0,0,4,1460,312,0,16777216,240000,33580,492,65700,0,492,0,3982971485,63
i,1724818336.232531,10.0.2.15,22,10.0.2.2,51138,1073725440,16250,1026,65535,65700,0,0,4,1460,312,0,0,240000,33580,0,65700,0,0,0,3982971485,63
i,1724818336.232550,10.0.2.15,22,10.0.2.2,51138,1073725440,16250,1026,65535,65700,0,0,4,1460,312,0,0,240000,33580,0,65700,16,0,0,3982971485,63
o,1724818336.232568,10.0.2.15,22,10.0.2.2,51138,1073725440,16250,1026,65535,65700,0,0,4,1460,312,0,1,240000,33580,0,65700,60,0,0,3982971485,63
o,1724818336.232777,10.0.2.15,22,10.0.2.2,51138,1073725440,16250,1026,65535,65700,0,0,4,1460,312,0,16777216,240000,33580,44,65700,0,0,0,3982971485,63
i,1724818336.233500,10.0.2.15,22,10.0.2.2,51138,1073725440,16250,1026,65535,65700,0,0,4,1460,312,0,16777216,240000,33580,44,65700,0,44,0,3982971485,63
i,1724818336.233520,10.0.2.15,22,10.0.2.2,51138,1073725440,16294,1026,65535,65700,0,0,4,1460,312,0,0,230000,33580,0,65700,0,0,0,3982971485,63
o,1724818336.234612,10.0.2.15,22,10.0.2.2,51138,1073725440,16294,1026,65535,65700,0,0,4,1460,312,0,16777216,230000,33580,68,65700,0,0,0,3982971485,63
i,1724818336.235114,10.0.2.15,22,10.0.2.2,51138,1073725440,16294,1026,65535,65700,0,0,4,1460,312,0,16777216,230000,33580,68,65700,0,68,0,3982971485,63
i,1724818336.235168,10.0.2.15,22,10.0.2.2,51138,1073725440,16362,1026,65535,65700,0,0,4,1460,312,0,0,230000,33580,0,65700,0,0,0,3982971485,63
o,1724818336.236484,10.0.2.15,22,10.0.2.2,51138,1073725440,16362,1026,65535,65700,0,0,4,1460,312,0,16777216,230000,33580,332,65700,0,0,0,3982971485,63
i,1724818336.237342,10.0.2.15,22,10.0.2.2,51138,1073725440,16362,1026,65535,65700,0,0,4,1460,312,0,16777216,230000,33580,332,65700,0,332,0,3982971485,63
i,1724818336.238603,10.0.2.15,22,10.0.2.2,51138,1073725440,16694,1026,65535,65700,0,0,4,1460,312,0,0,230000,33580,0,65700,0,0,0,3982971485,63
o,1724818336.256274,10.0.2.15,22,10.0.2.2,51138,1073725440,16694,1026,65535,65700,0,0,4,1460,312,0,16777216,230000,33580,28,65700,0,0,0,3982971485,63
i,1724818336.256840,10.0.2.15,22,10.0.2.2,51138,1073725440,16694,1026,65535,65700,0,0,4,1460,312,0,16777216,230000,33580,28,65700,0,28,0,3982971485,63
i,1724818336.257218,10.0.2.15,22,10.0.2.2,51138,1073725440,16722,1026,65535,65700,0,0,4,1460,312,0,0,230000,33580,0,65700,0,0,0,3982971485,63
o,1724818336.258517,10.0.2.15,22,10.0.2.2,51138,1073725440,16722,1026,65535,65700,0,0,4,1460,312,0,16777216,230000,33580,768,65700,112,0,0,3982971485,63
i,1724818336.259472,10.0.2.15,22,10.0.2.2,51138,1073725440,16722,1026,65535,65700,0,0,4,1460,312,0,16777216,230000,33580,952,65700,0,768,0,3982971485,63
o,1724818336.259491,10.0.2.15,22,10.0.2.2,51138,1073725440,17490,1026,65535,65700,0,0,4,1460,312,0,16777216,240000,33580,184,65700,0,0,0,3982971485,63
i,1724818336.260018,10.0.2.15,22,10.0.2.2,51138,1073725440,17490,1026,65535,65700,0,0,4,1460,312,0,16777216,240000,33580,184,65700,0,184,0,3982971485,63
i,1724818336.260671,10.0.2.15,22,10.0.2.2,51138,1073725440,17674,1026,65535,65700,0,0,4,1460,312,0,0,240000,33580,0,65700,0,0,0,3982971485,63
o,1724818336.261250,10.0.2.15,22,10.0.2.2,51138,1073725440,17674,1026,65535,65700,0,0,4,1460,312,0,16777220,240000,33580,72,65700,0,0,0,3982971485,63
i,1724818336.261902,10.0.2.15,22,10.0.2.2,51138,1073725440,17674,1026,65535,65700,0,0,4,1460,312,0,16777220,240000,33580,72,65700,0,72,0,3982971485,63
o,1724818336.265133,10.0.2.15,22,10.0.2.2,51138,1073725440,17746,1026,65535,65700,0,0,4,1460,312,0,16777220,240000,33580,104,65700,0,0,0,3982971485,63
i,1724818336.265578,10.0.2.15,22,10.0.2.2,51138,1073725440,17746,1026,65535,65700,0,0,4,1460,312,0,16777220,240000,33580,104,65700,0,104,0,3982971485,63
o,1724818336.274517,10.0.2.15,22,10.0.2.2,51138,1073725440,17850,1026,65535,65700,0,0,4,1460,312,0,16777220,240000,33580,72,65700,0,0,0,3982971485,63
i,1724818336.276021,10.0.2.15,22,10.0.2.2,51138,1073725440,17850,1026,65535,65700,0,0,4,1460,312,0,16777220,240000,33580,72,65700,0,72,0,3982971485,63
i,1724818336.276041,10.0.2.15,22,10.0.2.2,51138,1073725440,17922,1026,65535,65700,0,0,4,1460,312,0,4,240000,33580,0,65700,0,0,0,3982971485,63
i,1724818336.276060,10.0.2.15,22,10.0.2.2,51138,1073725440,17922,1026,65535,65700,0,0,4,1460,312,0,4,240000,33580,0,65700,96,0,0,3982971485,63
o,1724818336.276094,10.0.2.15,22,10.0.2.2,51138,1073725440,17922,1026,65535,65604,0,0,5,1460,312,0,5,240000,33580,0,65700,96,0,0,3982971485,63
o,1724818336.277623,10.0.2.15,22,10.0.2.2,51138,1073725440,17922,1026,65535,65604,0,0,8,1460,312,0,4,240000,33580,0,65700,0,0,0,3982971485,63
i,1724818336.278328,10.0.2.15,22,10.0.2.2,51138,1073725440,17922,1026,65535,65604,0,0,8,1460,312,0,67108884,240000,33580,0,65700,0,1,0,3982971485,63
i,1724818337.315141,10.0.2.15,22,10.0.2.2,51126,1073725440,14600,0,65535,65700,0,0,4,1460,312,0,16777216,270000,33580,0,65700,0,0,0,545781495,63
o,1724818337.327147,10.0.2.15,22,10.0.2.2,51126,1073725440,14600,1026,65535,65700,0,0,4,1460,312,0,16777216,270000,33580,38,65700,42,0,0,545781495,63
i,1724818337.327702,10.0.2.15,22,10.0.2.2,51126,1073725440,14600,1026,65535,65700,0,0,4,1460,312,0,16777216,270000,33580,38,65700,0,38,0,545781495,63
i,1724818337.328118,10.0.2.15,22,10.0.2.2,51126,1073725440,14638,1026,65535,65700,0,0,4,1460,312,0,0,240000,33580,0,65700,0,0,0,545781495,63
i,1724818337.328136,10.0.2.15,22,10.0.2.2,51126,1073725440,14638,1026,65535,65700,0,0,4,1460,312,0,0,240000,33580,0,65700,1460,0,0,545781495,63
o,1724818337.328168,10.0.2.15,22,10.0.2.2,51126,1073725440,14638,1026,65535,65700,0,0,4,1460,312,0,1,240000,33580,0,65700,1536,0,0,545781495,63
o,1724818337.329087,10.0.2.15,22,10.0.2.2,51126,1073725440,14638,1026,65535,65700,0,0,4,1460,312,0,16777216,240000,33580,1120,65700,1536,0,0,545781495,63
i,1724818337.329656,10.0.2.15,22,10.0.2.2,51126,1073725440,14638,1026,65535,65700,0,0,4,1460,312,0,16777216,240000,33580,1120,65700,0,1120,0,545781495,63
i,1724818337.331090,10.0.2.15,22,10.0.2.2,51126,1073725440,15758,1026,65535,65700,0,0,4,1460,312,0,0,240000,33580,0,65700,0,0,0,545781495,63
o,1724818337.334239,10.0.2.15,22,10.0.2.2,51126,1073725440,15758,1026,65535,65700,0,0,4,1460,312,0,16777216,240000,33580,492,65700,0,0,0,545781495,63
i,1724818337.334749,10.0.2.15,22,10.0.2.2,51126,1073725440,15758,1026,65535,65700,0,0,4,1460,312,0,16777216,240000,33580,492,65700,0,492,0,545781495,63
i,1724818337.339289,10.0.2.15,22,10.0.2.2,51126,1073725440,16250,1026,65535,65700,0,0,4,1460,312,0,0,240000,33580,0,65700,0,0,0,545781495,63
i,1724818337.339306,10.0.2.15,22,10.0.2.2,51126,1073725440,16250,1026,65535,65700,0,0,4,1460,312,0,0,240000,33580,0,65700,16,0,0,545781495,63
o,1724818337.339340,10.0.2.15,22,10.0.2.2,51126,1073725440,16250,1026,65535,65700,0,0,4,1460,312,0,1,240000,33580,0,65700,60,0,0,545781495,63
o,1724818337.339565,10.0.2.15,22,10.0.2.2,51126,1073725440,16250,1026,65535,65700,0,0,4,1460,312,0,16777216,240000,33580,44,65700,0,0,0,545781495,63
i,1724818337.340045,10.0.2.15,22,10.0.2.2,51126,1073725440,16250,1026,65535,65700,0,0,4,1460,312,0,16777216,240000,33580,44,65700,0,44,0,545781495,63
i,1724818337.340113,10.0.2.15,22,10.0.2.2,51126,1073725440,16294,1026,65535,65700,0,0,4,1460,312,0,0,240000,33580,0,65700,0,0,0,545781495,63
o,1724818337.341654,10.0.2.15,22,10.0.2.2,51126,1073725440,16294,1026,65535,65700,0,0,4,1460,312,0,16777216,240000,33580,68,65700,0,0,0,545781495,63
i,1724818337.342241,10.0.2.15,22,10.0.2.2,51126,1073725440,16294,1026,65535,65700,0,0,4,1460,312,0,16777216,240000,33580,68,65700,0,68,0,545781495,63
i,1724818337.342261,10.0.2.15,22,10.0.2.2,51126,1073725440,16362,1026,65535,65700,0,0,4,1460,312,0,0,240000,33580,0,65700,0,0,0,545781495,63
o,1724818337.344168,10.0.2.15,22,10.0.2.2,51126,1073725440,16362,1026,65535,65700,0,0,4,1460,312,0,16777216,240000,33580,332,65700,0,0,0,545781495,63
i,1724818337.345315,10.0.2.15,22,10.0.2.2,51126,1073725440,16362,1026,65535,65700,0,0,4,1460,312,0,16777216,240000,33580,332,65700,0,332,0,545781495,63
i,1724818337.346450,10.0.2.15,22,10.0.2.2,51126,1073725440,16694,1026,65535,65700,0,0,4,1460,312,0,0,240000,33580,0,65700,0,0,0,545781495,63
o,1724818337.362685,10.0.2.15,22,10.0.2.2,51126,1073725440,16694,1026,65535,65700,0,0,4,1460,312,0,16777216,240000,33580,28,65700,0,0,0,545781495,63
i,1724818337.363630,10.0.2.15,22,10.0.2.2,51126,1073725440,16694,1026,65535,65700,0,0,4,1460,312,0,16777216,240000,33580,28,65700,0,28,0,545781495,63
i,1724818337.363649,10.0.2.15,22,10.0.2.2,51126,1073725440,16722,1026,65535,65700,0,0,4,1460,312,0,0,230000,33580,0,65700,0,0,0,545781495,63
o,1724818337.367413,10.0.2.15,22,10.0.2.2,51126,1073725440,16722,1026,65535,65700,0,0,4,1460,312,0,16777216,230000,33580,768,65700,112,0,0,545781495,63
i,1724818337.367851,10.0.2.15,22,10.0.2.2,51126,1073725440,16722,1026,65535,65700,0,0,4,1460,312,0,16777216,230000,33580,908,65700,112,768,0,545781495,63
o,1724818337.367873,10.0.2.15,22,10.0.2.2,51126,1073725440,17490,1026,65535,65700,0,0,4,1460,312,0,16777216,230000,33580,140,65700,112,0,0,545781495,63
i,1724818337.368413,10.0.2.15,22,10.0.2.2,51126,1073725440,17490,1026,65535,65700,0,0,4,1460,312,0,16777216,230000,33580,140,65700,112,140,0,545781495,63
o,1724818337.368814,10.0.2.15,22,10.0.2.2,51126,1073725440,17630,1026,65535,65700,0,0,4,1460,312,0,16777216,230000,33580,44,65700,0,0,0,545781495,63
i,1724818337.369330,10.0.2.15,22,10.0.2.2,51126,1073725440,17630,1026,65535,65700,0,0,4,1460,312,0,16777216,230000,33580,44,65700,0,44,0,545781495,63
i,1724818337.369352,10.0.2.15,22,10.0.2.2,51126,1073725440,17674,1026,65535,65700,0,0,4,1460,312,0,0,230000,33580,0,65700,0,0,0,545781495,63
o,1724818337.370280,10.0.2.15,22,10.0.2.2,51126,1073725440,17674,1026,65535,65700,0,0,4,1460,312,0,16777220,230000,33580,72,65700,0,0,0,545781495,63
i,1724818337.372112,10.0.2.15,22,10.0.2.2,51126,1073725440,17674,1026,65535,65700,0,0,4,1460,312,0,16777220,230000,33580,72,65700,0,72,0,545781495,63
o,1724818337.488249,172.16.5.2,33693,172.16.1.2,5102,12799,14480,2082,65535,65700,6,6,4,1460,228125,1,16778209,840000,33580,0,65700,0,0,0,658294285,63
o,1724818337.488723,172.16.5.2,33693,172.16.1.2,5102,12799,14480,2082,65535,65700,6,6,4,1460,228125,1,16778212,840000,33580,37,65700,0,0,0,658294285,63
i,1724818337.622134,172.16.5.2,33693,172.16.1.2,5102,12799,14480,2082,65535,65700,6,6,4,1460,228125,1,16778212,840000,33580,37,65700,0,37,0,658294285,63
o,1724818337.622493,172.16.5.2,33693,172.16.1.2,5102,12799,14480,3106,65728,65728,6,6,4,1460,215937,1,16778212,820000,33580,4,65700,0,0,0,658294285,63
o,1724818337.622963,172.16.5.2,33693,172.16.1.2,5102,12799,14480,3106,65728,65728,6,6,4,1460,215937,1,16778212,820000,33580,130,65700,0,4,0,658294285,63
i,1724818337.743180,172.16.5.2,33693,172.16.1.2,5102,12799,14480,3106,65728,65728,6,6,4,1460,215937,1,16778212,820000,33580,130,65700,0,130,0,658294285,63
i,1724818337.743221,172.16.5.2,33693,172.16.1.2,5102,12799,14480,3106,65600,65728,6,6,4,1460,204062,1,996,800000,33580,0,65700,0,0,0,658294285,63
o,1724818337.784826,172.16.5.2,33693,172.16.1.2,5102,12799,14480,3106,65728,65728,6,6,4,1460,204062,1,997,800000,33580,0,65700,0,0,0,658294285,63
o,1724818337.864619,172.16.5.2,26898,172.16.1.2,5102,12799,14480,2082,65535,65700,6,6,4,1460,229375,1,16778209,830000,33580,0,65700,0,0,0,78811407,63
o,1724818337.864836,172.16.5.2,26898,172.16.1.2,5102,12799,14480,2082,65535,65700,6,6,4,1460,229375,1,16778208,830000,33580,37,65700,0,0,0,78811407,63
i,1724818337.970317,172.16.5.2,33693,172.16.1.2,5102,12799,14480,3106,65728,65728,6,6,4,1460,204062,1,996,800000,33580,0,65700,0,0,0,658294285,63
i,1724818337.970364,172.16.5.2,33693,172.16.1.2,5102,12799,14480,3106,65728,65728,6,6,4,1460,204062,1,996,800000,33580,0,65700,1,0,0,658294285,63
o,1724818337.970387,172.16.5.2,33693,172.16.1.2,5102,12799,14480,3106,65728,65728,6,6,4,1460,204062,1,997,800000,33580,0,65700,2,0,0,658294285,63
o,1724818337.972906,172.16.5.2,26898,172.16.1.2,5102,12799,14480,2086,65535,65700,6,6,4,1460,229375,1,16778208,830000,33580,33580,65700,0,37,0,78811407,63
i,1724818338.014618,172.16.5.2,26898,172.16.1.2,5102,12799,14480,2086,65535,65700,6,6,4,1460,229375,1,16778208,830000,33580,33580,65700,0,13069,0,78811407,63
o,1724818338.014687,172.16.5.2,26898,172.16.1.2,5102,12799,14480,2082,65728,65728,6,6,4,1460,219687,1,16778208,800000,33580,33543,65700,0,13032,0,78811407,63
i,1724818338.075366,172.16.5.2,26898,172.16.1.2,5102,12799,14480,2082,65728,65728,6,6,4,1460,219687,1,16778208,800000,33580,33543,65700,0,14480,0,78811407,63
o,1724818338.075437,172.16.5.2,26898,172.16.1.2,5102,12799,14480,2086,64256,65728,6,6,4,1460,206250,1,16778208,800000,33580,30647,65700,0,11584,0,78811407,63
i,1724818338.107973,172.16.5.2,26898,172.16.1.2,5102,12799,14480,2086,64256,65728,6,6,4,1460,206250,1,16778208,800000,33580,33580,65700,0,14480,0,78811407,63
o,1724818338.108019,172.16.5.2,26898,172.16.1.2,5102,12799,14480,2086,64256,65728,6,6,4,1460,198125,1,16778208,760000,33580,30684,65700,0,11584,0,78811407,63
i,1724818338.108276,172.16.5.2,26898,172.16.1.2,5102,12799,14480,2086,64256,65728,6,6,4,1460,198125,1,16778208,760000,33580,30684,65700,0,14480,0,78811407,63
o,1724818338.108295,172.16.5.2,26898,172.16.1.2,5102,12799,14480,2086,62848,65728,6,6,4,1460,190937,1,16778208,720000,33580,27788,65700,0,11584,0,78811407,63
i,1724818338.111183,172.16.5.2,26898,172.16.1.2,5102,12799,14480,2086,62848,65728,6,6,4,1460,190937,1,16778208,720000,33580,33580,65700,0,14480,0,78811407,63
o,1724818338.111257,172.16.5.2,26898,172.16.1.2,5102,12799,14480,2086,62848,65728,6,6,4,1460,184687,1,16778208,680000,33580,30684,65700,0,11584,0,78811407,63
i,1724818338.148871,172.16.5.2,26898,172.16.1.2,5102,12799,14480,2086,62848,65728,6,6,4,1460,184687,1,16778208,680000,33580,33580,65700,0,14480,0,78811407,63
o,1724818338.148979,172.16.5.2,26898,172.16.1.2,5102,12799,15940,2086,64256,65728,6,6,4,1460,184375,1,16778208,610000,33580,30684,65700,0,11584,0,78811407,63
o,1724818338.149154,172.16.5.2,26898,172.16.1.2,5102,12799,15940,2086,64256,65728,6,6,4,1460,184375,1,16778208,610000,33580,30684,65700,0,13032,0,78811407,63
i,1724818338.204559,172.16.5.2,26898,172.16.1.2,5102,12799,15940,2086,64256,65728,6,6,4,1460,184375,1,16778208,610000,41772,41772,65700,0,15928,0,78811407,63
o,1724818338.204735,172.16.5.2,26898,172.16.1.2,5102,12799,15940,2086,62848,65728,6,6,4,1460,177812,1,16778208,600000,41772,38876,65700,0,13032,0,78811407,63
i,1724818338.224666,172.16.5.2,26898,172.16.1.2,5102,12799,15940,2086,62848,65728,6,6,4,1460,177812,1,16778208,600000,41772,41772,65700,0,15928,0,78811407,63
o,1724818338.224705,172.16.5.2,26898,172.16.1.2,5102,12799,15940,2086,62848,65728,6,6,4,1460,170625,1,16778208,590000,41772,38876,65700,0,13032,0,78811407,63
i,1724818338.224879,172.16.5.2,26898,172.16.1.2,5102,12799,15940,2086,62848,65728,6,6,4,1460,170625,1,16778208,590000,41772,38876,65700,0,15928,0,78811407,63
o,1724818338.224900,172.16.5.2,26898,172.16.1.2,5102,12799,15940,2086,59968,65728,6,6,4,1460,164375,1,16778208,580000,41772,35980,65700,0,13032,0,78811407,63
i,1724818338.259192,172.16.5.2,26898,172.16.1.2,5102,12799,15940,2086,59968,65728,6,6,4,1460,164375,1,16778208,580000,41772,41772,65700,0,15928,0,78811407,63
o,1724818338.259267,172.16.5.2,26898,172.16.1.2,5102,12799,15940,2086,64256,65728,6,6,4,1460,162812,1,16778208,540000,41772,38876,65700,0,13032,0,78811407,63
i,1724818338.259414,172.16.5.2,26898,172.16.1.2,5102,12799,15940,2086,64256,65728,6,6,4,1460,162812,1,16778208,540000,41772,38876,65700,0,15928,0,78811407,63
o,1724818338.259433,172.16.5.2,26898,172.16.1.2,5102,12799,15940,2086,64256,65728,6,6,4,1460,156250,1,16778208,540000,41772,35980,65700,0,13032,0,78811407,63
o,1724818338.259564,172.16.5.2,26898,172.16.1.2,5102,12799,15940,2086,64256,65728,6,6,4,1460,156250,1,16778208,540000,41772,35980,65700,0,14480,0,78811407,63
i,1724818338.296501,172.16.5.2,26898,172.16.1.2,5102,12799,15940,2086,64256,65728,6,6,4,1460,156250,1,16778208,540000,41772,41772,65700,0,15928,0,78811407,63
o,1724818338.296534,172.16.5.2,26898,172.16.1.2,5102,12799,17400,2086,65728,65728,6,6,4,1460,155625,1,16778208,500000,41772,40324,65700,0,14480,0,78811407,63
i,1724818338.317738,172.16.5.2,26898,172.16.1.2,5102,12799,17400,2086,65728,65728,6,6,4,1460,155625,1,16778208,500000,41772,40324,65700,0,17376,0,78811407,63
o,1724818338.317738,172.16.5.2,26898,172.16.1.2,5102,12799,17400,2086,62848,65728,6,6,4,1460,150000,1,16778208,500000,41772,37428,65700,0,14480,0,78811407,63
i,1724818338.335437,172.16.5.2,26898,172.16.1.2,5102,12799,17400,2086,62848,65728,6,6,4,1460,150000,1,16778208,500000,41772,41772,65700,0,17376,0,78811407,63
o,1724818338.335457,172.16.5.2,26898,172.16.1.2,5102,12799,17400,2086,62848,65728,6,6,4,1460,145000,1,16778208,500000,41772,38876,65700,0,14480,0,78811407,63
i,1724818338.335600,172.16.5.2,26898,172.16.1.2,5102,12799,17400,2086,62848,65728,6,6,4,1460,145000,1,16778208,500000,41772,38876,65700,0,17376,0,78811407,63
o,1724818338.335616,172.16.5.2,26898,172.16.1.2,5102,12799,17400,2086,64256,65728,6,6,4,1460,140625,1,16778208,490000,41772,35980,65700,0,14480,0,78811407,63
i,1724818338.394135,172.16.5.2,26898,172.16.1.2,5102,12799,17400,2086,64256,65728,6,6,4,1460,140625,1,16778208,490000,41772,41772,65700,0,17376,0,78811407,63
o,1724818338.394208,172.16.5.2,26898,172.16.1.2,5102,12799,17400,2086,62848,65728,6,6,4,1460,139375,1,16778208,460000,41772,38876,65700,0,14480,0,78811407,63
i,1724818338.394382,172.16.5.2,26898,172.16.1.2,5102,12799,17400,2086,62848,65728,6,6,4,1460,139375,1,16778208,460000,41772,38876,65700,0,17376,0,78811407,63
o,1724818338.394418,172.16.5.2,26898,172.16.1.2,5102,12799,17400,2086,64256,65728,6,6,4,1460,138437,1,16778208,440000,41772,35980,65700,0,14480,0,78811407,63
o,1724818338.394548,172.16.5.2,26898,172.16.1.2,5102,12799,17400,2086,64256,65728,6,6,4,1460,138437,1,16778208,440000,41772,35980,65700,0,15928,0,78811407,63
i,1724818338.424894,172.16.5.2,26898,172.16.1.2,5102,12799,17400,2086,64256,65728,6,6,4,1460,138437,1,16778208,440000,41772,41772,65700,0,17376,0,78811407,63
o,1724818338.424916,172.16.5.2,26898,172.16.1.2,5102,12799,18860,2086,62848,65728,6,6,4,1460,137500,1,16778208,420000,41772,38876,65700,0,14480,0,78811407,63
i,1724818338.425225,172.16.5.2,26898,172.16.1.2,5102,12799,18860,2086,62848,65728,6,6,4,1460,137500,1,16778208,420000,41772,38876,65700,0,18824,0,78811407,63
o,1724818338.425242,172.16.5.2,26898,172.16.1.2,5102,12799,18860,2086,62848,65728,6,6,4,1460,134062,1,16778208,420000,41772,35980,65700,0,15928,0,78811407,63
i,1724818338.451933,172.16.5.2,26898,172.16.1.2,5102,12799,18860,2086,62848,65728,6,6,4,1460,134062,1,16778208,420000,41772,41772,65700,0,18824,0,78811407,63
o,1724818338.452006,172.16.5.2,26898,172.16.1.2,5102,12799,18860,2086,62848,65728,6,6,4,1460,131250,1,16778208,420000,41772,38876,65700,0,15928,0,78811407,63
i,1724818338.467770,172.16.5.2,26898,172.16.1.2,5102,12799,18860,2086,62848,65728,6,6,4,1460,131250,1,16778208,420000,41772,41772,65700,0,18824,0,78811407,63
o,1724818338.467791,172.16.5.2,26898,172.16.1.2,5102,12799,18860,2086,64256,65728,6,6,4,1460,131250,1,16778208,400000,41772,38876,65700,0,15928,0,78811407,63
i,1724818338.505682,172.16.5.2,26898,172.16.1.2,5102,12799,18860,2086,64256,65728,6,6,4,1460,131250,1,16778208,400000,41772,41772,65700,0,18824,0,78811407,63
o,1724818338.505705,172.16.5.2,26898,172.16.1.2,5102,12799,18860,2086,62848,65728,6,6,4,1460,128750,1,16778208,400000,41772,38876,65700,0,15928,0,78811407,63
i,1724818338.505862,172.16.5.2,26898,172.16.1.2,5102,12799,18860,2086,62848,65728,6,6,4,1460,128750,1,16778208,400000,41772,38876,65700,0,18824,0,78811407,63
o,1724818338.505881,172.16.5.2,26898,172.16.1.2,5102,12799,18860,2086,62848,65728,6,6,4,1460,126562,1,16778208,400000,41772,35980,65700,0,15928,0,78811407,63
o,1724818338.506029,172.16.5.2,26898,172.16.1.2,5102,12799,18860,2086,62848,65728,6,6,4,1460,126562,1,16778208,400000,41772,35980,65700,0,17376,0,78811407,63
i,1724818338.550311,172.16.5.2,26898,172.16.1.2,5102,12799,18860,2086,62848,65728,6,6,4,1460,126562,1,16778208,400000,41772,41772,65700,0,18824,0,78811407,63
o,1724818338.550341,172.16.5.2,26898,172.16.1.2,5102,12799,18860,2086,64256,65728,6,6,4,1460,125937,1,16778208,380000,41772,38876,65700,0,15928,0,78811407,63
i,1724818338.550505,172.16.5.2,26898,172.16.1.2,5102,12799,18860,2086,64256,65728,6,6,4,1460,125937,1,16778208,380000,41772,38876,65700,0,18824,0,78811407,63
o,1724818338.550523,172.16.5.2,26898,172.16.1.2,5102,12799,20320,2086,64256,65728,6,6,4,1460,125312,1,16778208,370000,41772,35980,65700,0,15928,0,78811407,63
i,1724818338.550655,172.16.5.2,26898,172.16.1.2,5102,12799,20320,2086,64256,65728,6,6,4,1460,125312,1,16778208,370000,41772,35980,65700,0,20272,0,78811407,63
o,1724818338.550670,172.16.5.2,26898,172.16.1.2,5102,12799,20320,2086,62848,65728,6,6,4,1460,124687,1,16778208,360000,41772,33084,65700,0,17376,0,78811407,63
i,1724818338.590508,172.16.5.2,26898,172.16.1.2,5102,12799,20320,2086,62848,65728,6,6,4,1460,124687,1,16778208,360000,41772,41772,65700,0,20272,0,78811407,63
o,1724818338.590530,172.16.5.2,26898,172.16.1.2,5102,12799,20320,2086,64256,65728,6,6,4,1460,126875,1,16778208,370000,41772,38876,65700,0,17376,0,78811407,63
i,1724818338.611601,172.16.5.2,26898,172.16.1.2,5102,12799,20320,2086,64256,65728,6,6,4,1460,126875,1,16778208,370000,49964,49964,65700,0,20272,0,78811407,63
o,1724818338.611691,172.16.5.2,26898,172.16.1.2,5102,12799,20320,2086,65728,65728,6,6,4,1460,128750,1,16778208,380000,49964,48516,65700,0,18824,0,78811407,63
i,1724818338.618686,172.16.5.2,26898,172.16.1.2,5102,12799,20320,2086,65728,65728,6,6,4,1460,128750,1,16778208,380000,49964,48516,65700,0,20272,0,78811407,63
o,1724818338.618704,172.16.5.2,26898,172.16.1.2,5102,12799,20320,2086,62848,65728,6,6,4,1460,126562,1,16778208,380000,49964,45620,65700,0,17376,0,78811407,63
i,1724818338.618852,172.16.5.2,26898,172.16.1.2,5102,12799,20320,2086,62848,65728,6,6,4,1460,126562,1,16778208,380000,49964,45620,65700,0,20272,0,78811407,63
o,1724818338.618869,172.16.5.2,26898,172.16.1.2,5102,12799,20320,2086,64256,65728,6,6,4,1460,124687,1,16778208,380000,49964,42724,65700,0,17376,0,78811407,63
o,1724818338.618988,172.16.5.2,26898,172.16.1.2,5102,12799,20320,2086,64256,65728,6,6,4,1460,124687,1,16778208,380000,49964,42724,65700,0,18824,0,78811407,63
i,1724818338.671889,172.16.5.2,26898,172.16.1.2,5102,12799,20320,2086,64256,65728,6,6,4,1460,124687,1,16778208,380000,49964,49964,65700,0,20272,0,78811407,63
o,1724818338.671916,172.16.5.2,26898,172.16.1.2,5102,12799,20320,2086,62848,65728,6,6,4,1460,124375,1,16778208,370000,49964,47068,65700,0,17376,0,78811407,63
i,1724818338.672062,172.16.5.2,26898,172.16.1.2,5102,12799,20320,2086,62848,65728,6,6,4,1460,124375,1,16778208,370000,49964,47068,65700,0,20272,0,78811407,63
o,1724818338.672081,172.16.5.2,26898,172.16.1.2,5102,12799,20320,2086,64256,65728,6,6,4,1460,124062,1,16778208,360000,49964,44172,65700,0,17376,0,78811407,63
i,1724818338.672196,172.16.5.2,26898,172.16.1.2,5102,12799,20320,2086,64256,65728,6,6,4,1460,124062,1,16778208,360000,49964,44172,65700,0,20272,0,78811407,63
o,1724818338.672212,172.16.5.2,26898,172.16.1.2,5102,12799,21780,2086,62848,65728,6,6,4,1460,123750,1,16778208,350000,49964,41276,65700,0,17376,0,78811407,63
i,1724818338.711831,172.16.5.2,26898,172.16.1.2,5102,12799,21780,2086,62848,65728,6,6,4,1460,123750,1,16778208,350000,49964,49964,65700,0,21720,0,78811407,63
o,1724818338.711909,172.16.5.2,26898,172.16.1.2,5102,12799,21780,2086,64256,65728,6,6,4,1460,128437,1,16778208,390000,49964,47068,65700,0,18824,0,78811407,63
i,1724818338.722411,172.16.5.2,26898,172.16.1.2,5102,12799,21780,2086,64256,65728,6,6,4,1460,128437,1,16778208,390000,49964,49964,65700,0,21720,0,78811407,63
o,1724818338.722505,172.16.5.2,26898,172.16.1.2,5102,12799,21780,2086,64256,65728,6,6,4,1460,128750,1,16778208,370000,49964,47068,65700,0,18824,0,78811407,63
i,1724818338.732505,172.16.5.2,26898,172.16.1.2,5102,12799,21780,2086,64256,65728,6,6,4,1460,128750,1,16778208,370000,49964,49964,65700,0,21720,0,78811407,63
o,1724818338.732598,172.16.5.2,26898,172.16.1.2,5102,12799,21780,2086,64256,65728,6,6,4,1460,126562,1,16778208,380000,49964,47068,65700,0,18824,0,78811407,63
i,1724818338.751451,172.16.5.2,26898,172.16.1.2,5102,12799,21780,2086,64256,65728,6,6,4,1460,126562,1,16778208,380000,49964,49964,65700,0,21720,0,78811407,63
o,1724818338.751540,172.16.5.2,26898,172.16.1.2,5102,12799,21780,2086,64256,65728,6,6,4,1460,127187,1,16778208,370000,49964,47068,65700,0,18824,0,78811407,63
o,1724818338.751692,172.16.5.2,26898,172.16.1.2,5102,12799,21780,2086,64256,65728,6,6,4,1460,127187,1,16778208,370000,49964,47068,65700,0,20272,0,78811407,63
i,1724818338.784350,172.16.5.2,26898,172.16.1.2,5102,12799,21780,2086,64256,65728,6,6,4,1460,127187,1,16778208,370000,49964,49964,65700,0,21720,0,78811407,63
o,1724818338.784390,172.16.5.2,26898,172.16.1.2,5102,12799,21780,2086,64256,65728,6,6,4,1460,126562,1,16778208,360000,49964,47068,65700,0,18824,0,78811407,63
i,1724818338.784705,172.16.5.2,26898,172.16.1.2,5102,12799,21780,2086,64256,65728,6,6,4,1460,126562,1,16778208,360000,49964,47068,65700,0,21720,0,78811407,63
o,1724818338.784728,172.16.5.2,26898,172.16.1.2,5102,12799,21780,2086,61376,65728,6,6,4,1460,125937,1,16778208,360000,49964,44172,65700,0,18824,0,78811407,63
i,1724818338.784938,172.16.5.2,26898,172.16.1.2,5102,12799,21780,2086,61376,65728,6,6,4,1460,125937,1,16778208,360000,49964,44172,65700,0,21720,0,78811407,63
o,1724818338.784963,172.16.5.2,26898,172.16.1.2,5102,12799,23240,2086,58496,65728,6,6,4,1460,125312,1,16778208,360000,49964,41276,65700,0,18824,0,78811407,63
i,1724818338.823153,172.16.5.2,26898,172.16.1.2,5102,12799,23240,2086,58496,65728,6,6,4,1460,125312,1,16778208,360000,49964,49964,65700,0,23168,0,78811407,63
o,1724818338.823218,172.16.5.2,26898,172.16.1.2,5102,12799,23240,2086,64256,65728,6,6,4,1460,128437,1,16778208,380000,49964,47068,65700,0,20272,0,78811407,63
i,1724818338.835196,172.16.5.2,26898,172.16.1.2,5102,12799,23240,2086,64256,65728,6,6,4,1460,128437,1,16778208,380000,49964,49964,65700,0,23168,0,78811407,63
o,1724818338.835273,172.16.5.2,26898,172.16.1.2,5102,12799,23240,2086,64256,65728,6,6,4,1460,128750,1,16778208,370000,49964,47068,65700,0,20272,0,78811407,63
i,1724818338.843699,172.16.5.2,26898,172.16.1.2,5102,12799,23240,2086,64256,65728,6,6,4,1460,128750,1,16778208,370000,49964,49964,65700,0,23168,0,78811407,63
o,1724818338.843699,172.16.5.2,26898,172.16.1.2,5102,12799,23240,2086,64256,65728,6,6,4,1460,127812,1,16778208,360000,49964,47068,65700,0,20272,0,78811407,63
i,1724818338.863561,172.16.5.2,26898,172.16.1.2,5102,12799,23240,2086,64256,65728,6,6,4,1460,127812,1,16778208,360000,49964,49964,65700,0,23168,0,78811407,63
o,1724818338.863586,172.16.5.2,26898,172.16.1.2,5102,12799,23240,2086,64256,65728,6,6,4,1460,128125,1,16778208,360000,49964,47068,65700,0,20272,0,78811407,63
o,1724818338.863760,172.16.5.2,26898,172.16.1.2,5102,12799,23240,2086,64256,65728,6,6,4,1460,128125,1,16778208,360000,49964,47068,65700,0,21720,0,78811407,63
i,1724818338.896945,172.16.5.2,26898,172.16.1.2,5102,12799,23240,2086,64256,65728,6,6,4,1460,128125,1,16778208,360000,49964,49964,65700,0,23168,0,78811407,63
o,1724818338.896970,172.16.5.2,26898,172.16.1.2,5102,12799,23240,2086,64256,65728,6,6,4,1460,130937,1,16778208,370000,49964,47068,65700,0,20272,0,78811407,63
i,1724818338.897118,172.16.5.2,26898,172.16.1.2,5102,12799,23240,2086,64256,65728,6,6,4,1460,130937,1,16778208,370000,49964,47068,65700,0,23168,0,78811407,63
o,1724818338.897142,172.16.5.2,26898,172.16.1.2,5102,12799,23240,2086,64256,65728,6,6,4,1460,128437,1,16778208,380000,49964,44172,65700,0,20272,0,78811407,63
i,1724818338.897310,172.16.5.2,26898,172.16.1.2,5102,12799,23240,2086,64256,65728,6,6,4,1460,128437,1,16778208,380000,58156,44172,65700,0,23168,0,78811407,63
o,1724818338.897326,172.16.5.2,26898,172.16.1.2,5102,12799,23240,2086,61376,65728,6,6,4,1460,126250,1,16778208,380000,58156,41276,65700,0,20272,0,78811407,63
i,1724818338.897790,172.16.5.2,26898,172.16.1.2,5102,12799,23240,2086,61376,65728,6,6,4,1460,126250,1,16778208,380000,58156,58156,65700,0,23168,0,78811407,63
o,1724818338.897807,172.16.5.2,26898,172.16.1.2,5102,12799,24700,2086,64256,65728,6,6,4,1460,124375,1,16778208,380000,58156,55260,65700,0,20272,0,78811407,63
i,1724818338.943676,172.16.5.2,26898,172.16.1.2,5102,12799,24700,2086,64256,65728,6,6,4,1460,124375,1,16778208,380000,58156,58156,65700,0,24616,0,78811407,63
o,1724818338.943710,172.16.5.2,26898,172.16.1.2,5102,12799,24700,2086,64256,65728,6,6,4,1460,124062,1,16778208,370000,58156,55260,65700,0,21720,0,78811407,63
i,1724818338.965549,172.16.5.2,26898,172.16.1.2,5102,12799,24700,2086,64256,65728,6,6,4,1460,124062,1,16778208,370000,58156,58156,65700,0,24616,0,78811407,63
o,1724818338.965572,172.16.5.2,26898,172.16.1.2,5102,12799,24700,2086,64256,65728,6,6,4,1460,125000,1,16778208,370000,58156,55260,65700,0,21720,0,78811407,63
i,1724818338.975471,172.16.5.2,26898,172.16.1.2,5102,12799,24700,2086,64256,65728,6,6,4,1460,125000,1,16778208,370000,58156,58156,65700,0,24616,0,78811407,63
o,1724818338.975532,172.16.5.2,26898,172.16.1.2,5102,12799,24700,2086,64256,65728,6,6,4,1460,125625,1,16778208,360000,58156,55260,65700,0,21720,0,78811407,63
i,1724818338.997618,172.16.5.2,26898,172.16.1.2,5102,12799,24700,2086,64256,65728,6,6,4,1460,125625,1,16778208,360000,58156,58156,65700,0,24616,0,78811407,63
o,1724818338.997685,172.16.5.2,26898,172.16.1.2,5102,12799,24700,2086,64256,65728,6,6,4,1460,126250,1,16778208,360000,58156,55260,65700,0,21720,0,78811407,63
o,1724818338.997802,172.16.5.2,26898,172.16.1.2,5102,12799,24700,2086,64256,65728,6,6,4,1460,126250,1,16778208,360000,58156,55260,65700,0,23168,0,78811407,63
i,1724818339.028594,172.16.5.2,26898,172.16.1.2,5102,12799,24700,2086,64256,65728,6,6,4,1460,126250,1,16778208,360000,58156,58156,65700,0,24616,0,78811407,63
o,1724818339.028617,172.16.5.2,26898,172.16.1.2,5102,12799,24700,2086,62848,65728,6,6,4,1460,126875,1,16778208,350000,58156,55260,65700,0,21720,0,78811407,63
i,1724818339.028752,172.16.5.2,26898,172.16.1.2,5102,12799,24700,2086,62848,65728,6,6,4,1460,126875,1,16778208,350000,58156,55260,65700,0,24616,0,78811407,63
o,1724818339.028771,172.16.5.2,26898,172.16.1.2,5102,12799,24700,2086,64256,65728,6,6,4,1460,127500,1,16778208,350000,58156,52364,65700,0,21720,0,78811407,63
i,1724818339.028920,172.16.5.2,26898,172.16.1.2,5102,12799,24700,2086,64256,65728,6,6,4,1460,127500,1,16778208,350000,58156,52364,65700,0,24616,0,78811407,63
o,1724818339.028938,172.16.5.2,26898,172.16.1.2,5102,12799,24700,2086,61376,65728,6,6,4,1460,127812,1,16778208,350000,58156,49468,65700,0,21720,0,78811407,63
i,1724818339.034650,172.16.5.2,26898,172.16.1.2,5102,12799,24700,2086,61376,65728,6,6,4,1460,127812,1,16778208,350000,58156,58156,65700,0,24616,0,78811407,63
o,1724818339.034714,172.16.5.2,26898,172.16.1.2,5102,12799,24700,2086,64256,65728,6,6,4,1460,129375,1,16778208,360000,58156,55260,65700,0,21720,0,78811407,63
i,1724818339.057980,172.16.5.2,26898,172.16.1.2,5102,12799,24700,2086,64256,65728,6,6,4,1460,129375,1,16778208,360000,58156,58156,65700,0,24616,0,78811407,63
o,1724818339.058062,172.16.5.2,26898,172.16.1.2,5102,12799,26160,2086,64256,65728,6,6,4,1460,133437,1,16778208,390000,58156,55260,65700,0,21720,0,78811407,63
i,1724818339.087419,172.16.5.2,26898,172.16.1.2,5102,12799,26160,2086,64256,65728,6,6,4,1460,133437,1,16778208,390000,58156,58156,65700,0,26064,0,78811407,63
o,1724818339.087524,172.16.5.2,26898,172.16.1.2,5102,12799,26160,2086,64256,65728,6,6,4,1460,134375,1,16778208,380000,58156,55260,65700,0,23168,0,78811407,63
i,1724818339.095764,172.16.5.2,26898,172.16.1.2,5102,12799,26160,2086,64256,65728,6,6,4,1460,134375,1,16778208,380000,58156,58156,65700,0,26064,0,78811407,63
o,1724818339.095825,172.16.5.2,26898,172.16.1.2,5102,12799,26160,2086,64256,65728,6,6,4,1460,134062,1,16778208,370000,58156,55260,65700,0,23168,0,78811407,63
i,1724818339.114563,172.16.5.2,26898,172.16.1.2,5102,12799,26160,2086,64256,65728,6,6,4,1460,134062,1,16778208,370000,58156,58156,65700,0,26064,0,78811407,63
o,1724818339.114587,172.16.5.2,26898,172.16.1.2,5102,12799,26160,2086,64256,65728,6,6,4,1460,135000,1,16778208,370000,58156,55260,65700,0,23168,0,78811407,63
o,1724818339.114722,172.16.5.2,26898,172.16.1.2,5102,12799,26160,2086,64256,65728,6,6,4,1460,135000,1,16778208,370000,58156,55260,65700,0,24616,0,78811407,63
i,1724818339.148336,172.16.5.2,26898,172.16.1.2,5102,12799,26160,2086,64256,65728,6,6,4,1460,135000,1,16778208,370000,58156,58156,65700,0,26064,0,78811407,63
o,1724818339.148362,172.16.5.2,26898,172.16.1.2,5102,12799,26160,2086,64256,65728,6,6,4,1460,136875,1,16778208,380000,58156,55260,65700,0,23168,0,78811407,63
i,1724818339.148498,172.16.5.2,26898,172.16.1.2,5102,12799,26160,2086,64256,65728,6,6,4,1460,136875,1,16778208,380000,58156,55260,65700,0,26064,0,78811407,63
o,1724818339.148513,172.16.5.2,26898,172.16.1.2,5102,12799,26160,2086,64256,65728,6,6,4,1460,135000,1,16778208,380000,58156,52364,65700,0,23168,0,78811407,63
i,1724818339.148626,172.16.5.2,26898,172.16.1.2,5102,12799,26160,2086,64256,65728,6,6,4,1460,135000,1,16778208,380000,58156,52364,65700,0,26064,0,78811407,63
o,1724818339.148653,172.16.5.2,26898,172.16.1.2,5102,12799,26160,2086,61376,65728,6,6,4,1460,133125,1,16778208,380000,58156,49468,65700,0,23168,0,78811407,63
i,1724818339.158843,172.16.5.2,26898,172.16.1.2,5102,12799,26160,2086,61376,65728,6,6,4,1460,133125,1,16778208,380000,58156,58156,65700,0,26064,0,78811407,63
o,1724818339.158908,172.16.5.2,26898,172.16.1.2,5102,12799,26160,2086,64256,65728,6,6,4,1460,132812,1,16778208,370000,58156,55260,65700,0,23168,0,78811407,63
i,1724818339.168700,172.16.5.2,26898,172.16.1.2,5102,12799,26160,2086,64256,65728,6,6,4,1460,132812,1,16778208,370000,58156,58156,65700,0,26064,0,78811407,63
o,1724818339.168777,172.16.5.2,26898,172.16.1.2,5102,12799,26160,2086,64256,65728,6,6,4,1460,132500,1,16778208,360000,58156,55260,65700,0,23168,0,78811407,63
i,1724818339.190025,172.16.5.2,26898,172.16.1.2,5102,12799,26160,2086,64256,65728,6,6,4,1460,132500,1,16778208,360000,58156,58156,65700,0,26064,0,78811407,63
o,1724818339.190048,172.16.5.2,26898,172.16.1.2,5102,12799,27620,2086,64256,65728,6,6,4,1460,132187,1,16778208,360000,58156,55260,65700,0,23168,0,78811407,63
i,1724818339.212771,172.16.5.2,26898,172.16.1.2,5102,12799,27620,2086,64256,65728,6,6,4,1460,132187,1,16778208,360000,58156,58156,65700,0,27512,0,78811407,63
o,1724818339.212794,172.16.5.2,26898,172.16.1.2,5102,12799,27620,2086,64256,65728,6,6,4,1460,130937,1,16778208,360000,58156,55260,65700,0,24616,0,78811407,63
i,1724818339.222156,172.16.5.2,26898,172.16.1.2,5102,12799,27620,2086,64256,65728,6,6,4,1460,130937,1,16778208,360000,58156,58156,65700,0,27512,0,78811407,63
o,1724818339.222178,172.16.5.2,26898,172.16.1.2,5102,12799,27620,2086,62848,65728,6,6,4,1460,129687,1,16778208,360000,58156,55260,65700,0,24616,0,78811407,63
i,1724818339.242149,172.16.5.2,26898,172.16.1.2,5102,12799,27620,2086,62848,65728,6,6,4,1460,129687,1,16778208,360000,58156,58156,65700,0,27512,0,78811407,63
o,1724818339.242213,172.16.5.2,26898,172.16.1.2,5102,12799,27620,2086,64256,65728,6,6,4,1460,128750,1,16778208,360000,58156,55260,65700,0,24616,0,78811407,63
o,1724818339.242332,172.16.5.2,26898,172.16.1.2,5102,12799,27620,2086,64256,65728,6,6,4,1460,128750,1,16778208,360000,58156,55260,65700,0,26064,0,78811407,63
i,1724818339.282926,172.16.5.2,26898,172.16.1.2,5102,12799,27620,2086,64256,65728,6,6,4,1460,128750,1,16778208,360000,58156,58156,65700,0,27512,0,78811407,63
o,1724818339.283018,172.16.5.2,26898,172.16.1.2,5102,12799,27620,2086,62848,65728,6,6,4,1460,129062,1,16778208,350000,58156,55260,65700,0,24616,0,78811407,63
i,1724818339.283218,172.16.5.2,26898,172.16.1.2,5102,12799,27620,2086,62848,65728,6,6,4,1460,129062,1,16778208,350000,58156,55260,65700,0,27512,0,78811407,63
o,1724818339.283235,172.16.5.2,26898,172.16.1.2,5102,12799,27620,2086,64256,65728,6,6,4,1460,129375,1,16778208,350000,58156,52364,65700,0,24616,0,78811407,63
i,1724818339.292671,172.16.5.2,26898,172.16.1.2,5102,12799,27620,2086,64256,65728,6,6,4,1460,129375,1,16778208,350000,66348,66348,65700,0,27512,0,78811407,63
o,1724818339.292691,172.16.5.2,26898,172.16.1.2,5102,12799,27620,2086,64256,65728,6,6,4,1460,129687,1,16778208,350000,66348,63452,65700,0,24616,0,78811407,63
i,1724818339.292830,172.16.5.2,26898,172.16.1.2,5102,12799,27620,2086,64256,65728,6,6,4,1460,129687,1,16778208,350000,66348,63452,65700,0,27512,0,78811407,63
o,1724818339.292851,172.16.5.2,26898,172.16.1.2,5102,12799,27620,2086,61376,65728,6,6,4,1460,128750,1,16778208,350000,66348,60556,65700,0,24616,0,78811407,63
i,1724818339.293018,172.16.5.2,26898,172.16.1.2,5102,12799,27620,2086,61376,65728,6,6,4,1460,128750,1,16778208,350000,66348,60556,65700,0,27512,0,78811407,63
o,1724818339.293044,172.16.5.2,26898,172.16.1.2,5102,12799,27620,2086,64256,65728,6,6,4,1460,126562,1,16778208,360000,66348,57660,65700,0,24616,0,78811407,63
i,1724818339.301217,172.16.5.2,26898,172.16.1.2,5102,12799,27620,2086,64256,65728,6,6,4,1460,126562,1,16778208,360000,66348,66348,65700,0,27512,0,78811407,63
o,1724818339.301217,172.16.5.2,26898,172.16.1.2,5102,12799,29080,2086,64256,65728,6,6,4,1460,123437,1,16778208,370000,66348,63452,65700,0,24616,0,78811407,63
i,1724818339.344541,172.16.5.2,26898,172.16.1.2,5102,12799,29080,2086,64256,65728,6,6,4,1460,123437,1,16778208,370000,66348,66348,65700,0,28960,0,78811407,63
o,1724818339.344562,172.16.5.2,26898,172.16.1.2,5102,12799,29080,2086,64256,65728,6,6,4,1460,126875,1,16778208,390000,66348,63452,65700,0,26064,0,78811407,63
i,1724818339.354994,172.16.5.2,26898,172.16.1.2,5102,12799,29080,2086,64256,65728,6,6,4,1460,126875,1,16778208,390000,66348,66348,65700,0,28960,0,78811407,63
o,1724818339.355091,172.16.5.2,26898,172.16.1.2,5102,12799,29080,2086,64256,65728,6,6,4,1460,130000,1,16778208,400000,66348,63452,65700,0,26064,0,78811407,63
i,1724818339.366070,172.16.5.2,26898,172.16.1.2,5102,12799,29080,2086,64256,65728,6,6,4,1460,130000,1,16778208,400000,66348,66348,65700,0,28960,0,78811407,63
o,1724818339.366092,172.16.5.2,26898,172.16.1.2,5102,12799,29080,2086,64256,65728,6,6,4,1460,132500,1,16778208,410000,66348,63452,65700,0,26064,0,78811407,63
o,1724818339.366465,172.16.5.2,26898,172.16.1.2,5102,12799,29080,2086,64256,65728,6,6,4,1460,132500,1,16778208,410000,66348,63452,65700,0,27512,0,78811407,63
i,1724818339.408033,172.16.5.2,26898,172.16.1.2,5102,12799,29080,2086,64256,65728,6,6,4,1460,132500,1,16778208,410000,66348,66348,65700,0,28960,0,78811407,63
o,1724818339.408122,172.16.5.2,26898,172.16.1.2,5102,12799,29080,2086,64256,65728,6,6,4,1460,137187,1,16778208,430000,66348,63452,65700,0,26064,0,78811407,63
i,1724818339.408570,172.16.5.2,26898,172.16.1.2,5102,12799,29080,2086,64256,65728,6,6,4,1460,137187,1,16778208,430000,66348,63452,65700,0,28960,0,78811407,63
o,1724818339.408588,172.16.5.2,26898,172.16.1.2,5102,12799,29080,2086,62848,65728,6,6,4,1460,136562,1,16778208,410000,66348,60556,65700,0,26064,0,78811407,63
i,1724818339.414706,172.16.5.2,26898,172.16.1.2,5102,12799,29080,2086,62848,65728,6,6,4,1460,136562,1,16778208,410000,66348,66348,65700,0,28960,0,78811407,63
o,1724818339.414733,172.16.5.2,26898,172.16.1.2,5102,12799,29080,2086,64256,65728,6,6,4,1460,137187,1,16778208,400000,66348,63452,65700,0,26064,0,78811407,63
i,1724818339.414871,172.16.5.2,26898,172.16.1.2,5102,12799,29080,2086,64256,65728,6,6,4,1460,137187,1,16778208,400000,66348,63452,65700,0,28960,0,78811407,63
o,1724818339.414891,172.16.5.2,26898,172.16.1.2,5102,12799,29080,2086,64256,65728,6,6,4,1460,136562,1,16778208,390000,66348,60556,65700,0,26064,0,78811407,63
i,1724818339.415048,172.16.5.2,26898,172.16.1.2,5102,12799,29080,2086,64256,65728,6,6,4,1460,136562,1,16778208,390000,66348,60556,65700,0,28960,0,78811407,63
o,1724818339.415071,172.16.5.2,26898,172.16.1.2,5102,12799,29080,2086,64256,65728,6,6,4,1460,135937,1,16778208,380000,66348,57660,65700,0,26064,0,78811407,63
i,1724818339.438264,172.16.5.2,26898,172.16.1.2,5102,12799,29080,2086,64256,65728,6,6,4,1460,135937,1,16778208,380000,66348,66348,65700,0,28960,0,78811407,63
o,1724818339.438284,172.16.5.2,26898,172.16.1.2,5102,12799,29080,2086,64256,65728,6,6,4,1460,137812,1,16778208,390000,66348,63452,65700,0,26064,0,78811407,63
i,1724818339.438414,172.16.5.2,26898,172.16.1.2,5102,12799,29080,2086,64256,65728,6,6,4,1460,137812,1,16778208,390000,66348,63452,65700,0,28960,0,78811407,63
o,1724818339.438430,172.16.5.2,26898,172.16.1.2,5102,12799,30540,2086,62848,65728,6,6,4,1460,138125,1,16778208,380000,66348,60556,65700,0,26064,0,78811407,63
i,1724818339.469058,172.16.5.2,26898,172.16.1.2,5102,12799,30540,2086,62848,65728,6,6,4,1460,138125,1,16778208,380000,74540,74540,65700,0,30408,0,78811407,63
o,1724818339.469093,172.16.5.2,26898,172.16.1.2,5102,12799,30540,2086,62848,65728,6,6,4,1460,135937,1,16778208,380000,74540,71644,65700,0,27512,0,78811407,63
i,1724818339.479699,172.16.5.2,26898,172.16.1.2,5102,12799,30540,2086,62848,65728,6,6,4,1460,135937,1,16778208,380000,74540,74540,65700,0,30408,0,78811407,63
o,1724818339.479776,172.16.5.2,26898,172.16.1.2,5102,12799,30540,2086,62848,65728,6,6,4,1460,134062,1,16778208,380000,74540,71644,65700,0,27512,0,78811407,63
i,1724818339.493440,172.16.5.2,26898,172.16.1.2,5102,12799,30540,2086,62848,65728,6,6,4,1460,134062,1,16778208,380000,74540,74540,65700,0,30408,0,78811407,63
o,1724818339.493462,172.16.5.2,26898,172.16.1.2,5102,12799,30540,2086,62848,65728,6,6,4,1460,132500,1,16778208,380000,74540,71644,65700,0,27512,0,78811407,63
o,1724818339.493598,172.16.5.2,26898,172.16.1.2,5102,12799,30540,2086,62848,65728,6,6,4,1460,132500,1,16778208,380000,74540,71644,65700,0,28960,0,78811407,63
i,1724818339.515259,172.16.5.2,26898,172.16.1.2,5102,12799,30540,2086,62848,65728,6,6,4,1460,132500,1,16778208,380000,74540,74540,65700,0,30408,0,78811407,63
o,1724818339.515329,172.16.5.2,26898,172.16.1.2,5102,12799,30540,2086,62848,65728,6,6,4,1460,129687,1,16778208,390000,74540,71644,65700,0,27512,0,78811407,63
i,1724818339.549364,172.16.5.2,26898,172.16.1.2,5102,12799,30540,2086,62848,65728,6,6,4,1460,129687,1,16778208,390000,74540,74540,65700,0,30408,0,78811407,63
o,1724818339.549401,172.16.5.2,26898,172.16.1.2,5102,12799,30540,2086,64256,65728,6,6,4,1460,131250,1,16778208,390000,74540,71644,65700,0,27512,0,78811407,63
i,1724818339.549593,172.16.5.2,26898,172.16.1.2,5102,12799,30540,2086,64256,65728,6,6,4,1460,131250,1,16778208,390000,74540,71644,65700,0,30408,0,78811407,63
o,1724818339.549611,172.16.5.2,26898,172.16.1.2,5102,12799,30540,2086,64256,65728,6,6,4,1460,131250,1,16778208,370000,74540,68748,65700,0,27512,0,78811407,63
i,1724818339.549759,172.16.5.2,26898,172.16.1.2,5102,12799,30540,2086,64256,65728,6,6,4,1460,131250,1,16778208,370000,74540,68748,65700,0,30408,0,78811407,63
o,1724818339.549775,172.16.5.2,26898,172.16.1.2,5102,12799,30540,2086,61376,65728,6,6,4,1460,131250,1,16778208,360000,74540,65852,65700,0,27512,0,78811407,63
i,1724818339.549932,172.16.5.2,26898,172.16.1.2,5102,12799,30540,2086,61376,65728,6,6,4,1460,131250,1,16778208,360000,74540,65852,65700,0,30408,0,78811407,63
o,1724818339.549947,172.16.5.2,26898,172.16.1.2,5102,12799,30540,2086,62848,65728,6,6,4,1460,131250,1,16778208,350000,74540,62956,65700,0,27512,0,78811407,63
i,1724818339.558623,172.16.5.2,26898,172.16.1.2,5102,12799,30540,2086,62848,65728,6,6,4,1460,131250,1,16778208,350000,74540,74540,65700,0,30408,0,78811407,63
o,1724818339.558687,172.16.5.2,26898,172.16.1.2,5102,12799,30540,2086,62848,65728,6,6,4,1460,130000,1,16778208,360000,74540,71644,65700,0,27512,0,78811407,63
i,1724818339.558804,172.16.5.2,26898,172.16.1.2,5102,12799,30540,2086,62848,65728,6,6,4,1460,130000,1,16778208,360000,74540,71644,65700,0,30408,0,78811407,63
o,1724818339.558820,172.16.5.2,26898,172.16.1.2,5102,12799,30540,2086,64256,65728,6,6,4,1460,128750,1,16778208,360000,74540,68748,65700,0,27512,0,78811407,63
i,1724818339.578794,172.16.5.2,26898,172.16.1.2,5102,12799,30540,2086,64256,65728,6,6,4,1460,128750,1,16778208,360000,74540,74540,65700,0,30408,0,78811407,63
o,1724818339.578872,172.16.5.2,26898,172.16.1.2,5102,12799,32000,2086,64256,65728,6,6,4,1460,130312,1,16778208,370000,74540,71644,65700,0,27512,0,78811407,63
i,1724818339.595614,172.16.5.2,26898,172.16.1.2,5102,12799,32000,2086,64256,65728,6,6,4,1460,130312,1,16778208,370000,74540,74540,65700,0,31856,0,78811407,63
o,1724818339.595691,172.16.5.2,26898,172.16.1.2,5102,12799,32000,2086,64256,65728,6,6,4,1460,130312,1,16778208,360000,74540,71644,65700,0,28960,0,78811407,63
i,1724818339.617855,172.16.5.2,26898,172.16.1.2,5102,12799,32000,2086,64256,65728,6,6,4,1460,130312,1,16778208,360000,74540,74540,65700,0,31856,0,78811407,63
o,1724818339.617855,172.16.5.2,26898,172.16.1.2,5102,12799,32000,2086,64256,65728,6,6,4,1460,131562,1,16778208,360000,74540,71644,65700,0,28960,0,78811407,63
o,1724818339.618421,172.16.5.2,26898,172.16.1.2,5102,12799,32000,2086,64256,65728,6,6,4,1460,131562,1,16778208,360000,74540,71644,65700,0,30408,0,78811407,63
i,1724818339.651503,172.16.5.2,26898,172.16.1.2,5102,12799,32000,2086,64256,65728,6,6,4,1460,131562,1,16778208,360000,74540,74540,65700,0,31856,0,78811407,63
o,1724818339.651577,172.16.5.2,26898,172.16.1.2,5102,12799,32000,2086,64256,65728,6,6,4,1460,134062,1,16778208,370000,74540,71644,65700,0,28960,0,78811407,63
i,1724818339.671937,172.16.5.2,26898,172.16.1.2,5102,12799,32000,2086,64256,65728,6,6,4,1460,134062,1,16778208,370000,74540,74540,65700,0,31856,0,78811407,63
o,1724818339.672000,172.16.5.2,26898,172.16.1.2,5102,12799,32000,2086,64256,65728,6,6,4,1460,136250,1,16778208,380000,74540,71644,65700,0,28960,0,78811407,63
i,1724818339.672126,172.16.5.2,26898,172.16.1.2,5102,12799,32000,2086,64256,65728,6,6,4,1460,136250,1,16778208,380000,74540,71644,65700,0,31856,0,78811407,63
o,1724818339.672143,172.16.5.2,26898,172.16.1.2,5102,12799,32000,2086,62848,65728,6,6,4,1460,134375,1,16778208,380000,74540,68748,65700,0,28960,0,78811407,63
i,1724818339.701158,172.16.5.2,26898,172.16.1.2,5102,12799,32000,2086,62848,65728,6,6,4,1460,134375,1,16778208,380000,74540,74540,65700,0,31856,0,78811407,63
o,1724818339.701190,172.16.5.2,26898,172.16.1.2,5102,12799,32000,2086,64256,65728,6,6,4,1460,136562,1,16778208,390000,74540,71644,65700,0,28960,0,78811407,63
i,1724818339.701314,172.16.5.2,26898,172.16.1.2,5102,12799,32000,2086,64256,65728,6,6,4,1460,136562,1,16778208,390000,74540,71644,65700,0,31856,0,78811407,63
o,1724818339.701330,172.16.5.2,26898,172.16.1.2,5102,12799,32000,2086,64256,65728,6,6,4,1460,138437,1,16778208,390000,74540,68748,65700,0,28960,0,78811407,63
i,1724818339.701467,172.16.5.2,26898,172.16.1.2,5102,12799,32000,2086,64256,65728,6,6,4,1460,138437,1,16778208,390000,74540,68748,65700,0,31856,0,78811407,63
o,1724818339.701482,172.16.5.2,26898,172.16.1.2,5102,12799,32000,2086,64256,65728,6,6,4,1460,140000,1,16778208,390000,74540,65852,65700,0,28960,0,78811407,63
i,1724818339.701593,172.16.5.2,26898,172.16.1.2,5102,12799,32000,2086,64256,65728,6,6,4,1460,140000,1,16778208,390000,74540,65852,65700,0,31856,0,78811407,63
o,1724818339.701625,172.16.5.2,26898,172.16.1.2,5102,12799,32000,2086,64256,65728,6,6,4,1460,140000,1,16778208,380000,74540,62956,65700,0,28960,0,78811407,63
i,1724818339.711838,172.16.5.2,26898,172.16.1.2,5102,12799,32000,2086,64256,65728,6,6,4,1460,140000,1,16778208,380000,74540,74540,65700,0,31856,0,78811407,63
o,1724818339.711858,172.16.5.2,26898,172.16.1.2,5102,12799,32000,2086,64256,65728,6,6,4,1460,141250,1,16778208,380000,74540,71644,65700,0,28960,0,78811407,63
i,1724818339.712022,172.16.5.2,26898,172.16.1.2,5102,12799,32000,2086,64256,65728,6,6,4,1460,141250,1,16778208,380000,74540,71644,65700,0,31856,0,78811407,63
o,1724818339.712038,172.16.5.2,26898,172.16.1.2,5102,12799,33460,2086,64256,65728,6,6,4,1460,140000,1,16778208,380000,74540,68748,65700,0,28960,0,78811407,63
i,1724818339.721582,172.16.5.2,26898,172.16.1.2,5102,12799,33460,2086,64256,65728,6,6,4,1460,140000,1,16778208,380000,74540,74540,65700,0,33304,0,78811407,63
o,1724818339.721651,172.16.5.2,26898,172.16.1.2,5102,12799,33460,2086,62848,65728,6,6,4,1460,137500,1,16778208,390000,74540,71644,65700,0,30408,0,78811407,63
i,1724818339.721864,172.16.5.2,26898,172.16.1.2,5102,12799,33460,2086,62848,65728,6,6,4,1460,137500,1,16778208,390000,74540,71644,65700,0,33304,0,78811407,63
o,1724818339.721895,172.16.5.2,26898,172.16.1.2,5102,12799,33460,2086,64256,65728,6,6,4,1460,132812,1,16778208,410000,74540,68748,65700,0,30408,0,78811407,63
o,1724818339.722044,172.16.5.2,26898,172.16.1.2,5102,12799,33460,2086,64256,65728,6,6,4,1460,132812,1,16778208,410000,74540,68748,65700,0,31856,0,78811407,63
i,1724818339.775952,172.16.5.2,26898,172.16.1.2,5102,12799,33460,2086,64256,65728,6,6,4,1460,132812,1,16778208,410000,74540,74540,65700,0,33304,0,78811407,63
o,1724818339.776045,172.16.5.2,26898,172.16.1.2,5102,12799,33460,2086,64256,65728,6,6,4,1460,132500,1,16778208,390000,74540,71644,65700,0,30408,0,78811407,63
i,1724818339.785457,172.16.5.2,26898,172.16.1.2,5102,12799,33460,2086,64256,65728,6,6,4,1460,132500,1,16778208,390000,74540,74540,65700,0,33304,0,78811407,63
o,1724818339.785488,172.16.5.2,26898,172.16.1.2,5102,12799,33460,2086,64256,65728,6,6,4,1460,130937,1,16778208,390000,74540,71644,65700,0,30408,0,78811407,63
i,1724818339.788612,172.16.5.2,26898,172.16.1.2,5102,12799,33460,2086,64256,65728,6,6,4,1460,130937,1,16778208,390000,74540,74540,65700,0,33304,0,78811407,63
o,1724818339.788702,172.16.5.2,26898,172.16.1.2,5102,12799,33460,2086,62848,65728,6,6,4,1460,129687,1,16778208,380000,74540,71644,65700,0,30408,0,78811407,63
i,1724818339.815103,172.16.5.2,26898,172.16.1.2,5102,12799,33460,2086,62848,65728,6,6,4,1460,129687,1,16778208,380000,74540,74540,65700,0,33304,0,78811407,63
o,1724818339.815144,172.16.5.2,26898,172.16.1.2,5102,12799,33460,2086,62848,65728,6,6,4,1460,128750,1,16778208,370000,74540,71644,65700,0,30408,0,78811407,63
i,1724818339.815342,172.16.5.2,26898,172.16.1.2,5102,12799,33460,2086,62848,65728,6,6,4,1460,128750,1,16778208,370000,74540,71644,65700,0,33304,0,78811407,63
o,1724818339.815359,172.16.5.2,26898,172.16.1.2,5102,12799,33460,2086,64256,65728,6,6,4,1460,127812,1,16778208,370000,74540,68748,65700,0,30408,0,78811407,63
i,1724818339.815492,172.16.5.2,26898,172.16.1.2,5102,12799,33460,2086,64256,65728,6,6,4,1460,127812,1,16778208,370000,74540,68748,65700,0,33304,0,78811407,63
o,1724818339.815507,172.16.5.2,26898,172.16.1.2,5102,12799,33460,2086,62848,65728,6,6,4,1460,126875,1,16778208,360000,74540,65852,65700,0,30408,0,78811407,63
i,1724818339.826106,172.16.5.2,26898,172.16.1.2,5102,12799,33460,2086,62848,65728,6,6,4,1460,126875,1,16778208,360000,82732,82732,65700,0,33304,0,78811407,63
o,1724818339.826126,172.16.5.2,26898,172.16.1.2,5102,12799,33460,2086,62848,65728,6,6,4,1460,127500,1,16778208,360000,82732,79836,65700,0,30408,0,78811407,63
i,1724818339.838736,172.16.5.2,26898,172.16.1.2,5102,12799,33460,2086,62848,65728,6,6,4,1460,127500,1,16778208,360000,82732,82732,65700,0,33304,0,78811407,63
o,1724818339.838808,172.16.5.2,26898,172.16.1.2,5102,12799,33460,2086,64256,65728,6,6,4,1460,127812,1,16778208,360000,82732,79836,65700,0,30408,0,78811407,63
i,1724818339.838982,172.16.5.2,26898,172.16.1.2,5102,12799,33460,2086,64256,65728,6,6,4,1460,127812,1,16778208,360000,82732,79836,65700,0,33304,0,78811407,63
o,1724818339.839002,172.16.5.2,26898,172.16.1.2,5102,12799,34920,2086,62848,65728,6,6,4,1460,128125,1,16778208,350000,82732,76940,65700,0,30408,0,78811407,63
i,1724818339.839144,172.16.5.2,26898,172.16.1.2,5102,12799,34920,2086,62848,65728,6,6,4,1460,128125,1,16778208,350000,82732,76940,65700,0,34752,0,78811407,63
o,1724818339.839168,172.16.5.2,26898,172.16.1.2,5102,12799,34920,2086,64256,65728,6,6,4,1460,128437,1,16778208,350000,82732,74044,65700,0,31856,0,78811407,63
i,1724818339.848089,172.16.5.2,26898,172.16.1.2,5102,12799,34920,2086,64256,65728,6,6,4,1460,128437,1,16778208,350000,82732,82732,65700,0,34752,0,78811407,63
o,1724818339.848109,172.16.5.2,26898,172.16.1.2,5102,12799,34920,2086,62848,65728,6,6,4,1460,128750,1,16778208,350000,82732,79836,65700,0,31856,0,78811407,63
o,1724818339.848241,172.16.5.2,26898,172.16.1.2,5102,12799,34920,2086,62848,65728,6,6,4,1460,128750,1,16778208,350000,82732,79836,65700,0,33304,0,78811407,63
i,1724818339.867976,172.16.5.2,26898,172.16.1.2,5102,12799,34920,2086,62848,65728,6,6,4,1460,128750,1,16778208,350000,82732,82732,65700,0,34752,0,78811407,63
o,1724818339.867998,172.16.5.2,26898,172.16.1.2,5102,12799,34920,2086,64256,65728,6,6,4,1460,131562,1,16778208,370000,82732,79836,65700,0,31856,0,78811407,63
i,1724818339.892519,172.16.5.2,26898,172.16.1.2,5102,12799,34920,2086,64256,65728,6,6,4,1460,131562,1,16778208,370000,82732,82732,65700,0,34752,0,78811407,63
o,1724818339.892538,172.16.5.2,26898,172.16.1.2,5102,12799,34920,2086,64256,65728,6,6,4,1460,129062,1,16778208,370000,82732,79836,65700,0,31856,0,78811407,63
i,1724818339.901949,172.16.5.2,26898,172.16.1.2,5102,12799,34920,2086,64256,65728,6,6,4,1460,129062,1,16778208,370000,82732,82732,65700,0,34752,0,78811407,63
o,1724818339.902111,172.16.5.2,26898,172.16.1.2,5102,12799,34920,2086,64256,65728,6,6,4,1460,126875,1,16778208,380000,82732,79836,65700,0,31856,0,78811407,63
i,1724818339.919695,172.16.5.2,26898,172.16.1.2,5102,12799,34920,2086,64256,65728,6,6,4,1460,126875,1,16778208,380000,82732,82732,65700,0,34752,0,78811407,63
o,1724818339.919758,172.16.5.2,26898,172.16.1.2,5102,12799,34920,2086,97152,65728,6,6,4,1460,127500,1,16778208,370000,82732,79836,65700,0,31856,0,78811407,63
i,1724818339.932114,172.16.5.2,26898,172.16.1.2,5102,12799,34920,2086,97152,65728,6,6,4,1460,127500,1,16778208,370000,82732,82732,65700,0,34752,0,78811407,63
o,1724818339.932138,172.16.5.2,26898,172.16.1.2,5102,12799,34920,2086,97152,65728,6,6,4,1460,125312,1,16778208,380000,82732,79836,65700,0,31856,0,78811407,63
i,1724818339.932314,172.16.5.2,26898,172.16.1.2,5102,12799,34920,2086,97152,65728,6,6,4,1460,125312,1,16778208,380000,82732,79836,65700,0,34752,0,78811407,63
o,1724818339.932334,172.16.5.2,26898,172.16.1.2,5102,12799,34920,2086,97152,65728,6,6,4,1460,123437,1,16778208,380000,82732,76940,65700,0,31856,0,78811407,63
i,1724818339.934294,172.16.5.2,26898,172.16.1.2,5102,12799,34920,2086,97152,65728,6,6,4,1460,123437,1,16778208,380000,82732,82732,65700,0,34752,0,78811407,63
o,1724818339.934313,172.16.5.2,26898,172.16.1.2,5102,12799,34920,2086,97152,65728,6,6,4,1460,123125,1,16778208,370000,82732,79836,65700,0,31856,0,78811407,63
i,1724818339.943606,172.16.5.2,26898,172.16.1.2,5102,12799,34920,2086,97152,65728,6,6,4,1460,123125,1,16778208,370000,82732,82732,65700,0,34752,0,78811407,63
o,1724818339.943617,172.16.5.2,26898,172.16.1.2,5102,12799,34920,2086,97152,65728,6,6,4,1460,121562,1,16778208,370000,82732,79836,65700,0,31856,0,78811407,63
i,1724818339.943617,172.16.5.2,26898,172.16.1.2,5102,12799,34920,2086,97152,65728,6,6,4,1460,121562,1,16778208,370000,82732,79836,65700,0,34752,0,78811407,63
o,1724818339.943617,172.16.5.2,26898,172.16.1.2,5102,12799,34920,2086,97152,65728,6,6,4,1460,119062,1,16778208,370000,82732,76940,65700,0,31856,0,78811407,63
i,1724818339.943617,172.16.5.2,26898,172.16.1.2,5102,12799,34920,2086,97152,65728,6,6,4,1460,119062,1,16778208,370000,82732,76940,65700,0,34752,0,78811407,63
o,1724818339.943617,172.16.5.2,26898,172.16.1.2,5102,12799,36380,2086,97152,65728,6,6,4,1460,116875,1,16778208,370000,82732,74044,65700,0,31856,0,78811407,63
i,1724818339.953254,172.16.5.2,26898,172.16.1.2,5102,12799,36380,2086,97152,65728,6,6,4,1460,116875,1,16778208,370000,82732,82732,65700,0,36200,0,78811407,63
o,1724818339.953542,172.16.5.2,26898,172.16.1.2,5102,12799,36380,2086,97152,65728,6,6,4,1460,116250,1,16778208,360000,82732,79836,65700,0,33304,0,78811407,63
i,1724818339.963114,172.16.5.2,26898,172.16.1.2,5102,12799,36380,2086,97152,65728,6,6,4,1460,116250,1,16778208,360000,82732,82732,65700,0,36200,0,78811407,63
o,1724818339.963158,172.16.5.2,26898,172.16.1.2,5102,12799,36380,2086,95680,65728,6,6,4,1460,114375,1,16778208,360000,82732,79836,65700,0,33304,0,78811407,63
o,1724818339.963570,172.16.5.2,26898,172.16.1.2,5102,12799,36380,2086,95680,65728,6,6,4,1460,114375,1,16778208,360000,82732,79836,65700,0,34752,0,78811407,63
i,1724818339.976889,172.16.5.2,26898,172.16.1.2,5102,12799,36380,2086,95680,65728,6,6,4,1460,114375,1,16778208,360000,82732,82732,65700,0,36200,0,78811407,63
o,1724818339.976929,172.16.5.2,26898,172.16.1.2,5102,12799,36380,2086,95680,65728,6,6,4,1460,114062,1,16778208,350000,82732,79836,65700,0,33304,0,78811407,63
i,1724818340.007069,172.16.5.2,26898,172.16.1.2,5102,12799,36380,2086,95680,65728,6,6,4,1460,114062,1,16778208,350000,82732,82732,65700,0,36200,0,78811407,63
o,1724818340.007092,172.16.5.2,26898,172.16.1.2,5102,12799,36380,2086,95680,65728,6,6,4,1460,115000,1,16778208,350000,82732,79836,65700,0,33304,0,78811407,63
i,1724818340.016843,172.16.5.2,26898,172.16.1.2,5102,12799,36380,2086,95680,65728,6,6,4,1460,115000,1,16778208,350000,82732,82732,65700,0,36200,0,78811407,63
