enable_time_secs=1724818507	enable_time_usecs=338756	siftrver=1.3.0	sysname=FreeBSD	sysver=1401000	ipmode=4
o,1724818507.339109,10.0.2.15,22,10.0.2.2,51140,1073725440,17746,1026,65535,65700,0,0,4,1460,312,0,16777220,230000,33580,172,65700,0,0,0,368820295,63
o,1724818507.339349,10.0.2.15,22,10.0.2.2,51140,1073725440,17746,1026,65535,65700,0,0,4,1460,312,0,16777220,230000,33580,244,65700,0,172,0,368820295,63
i,1724818507.339579,10.0.2.15,22,10.0.2.2,51140,1073725440,17746,1026,65535,65700,0,0,4,1460,312,0,16777220,230000,33580,244,65700,0,244,0,368820295,63
i,1724818507.340156,10.0.2.15,22,10.0.2.2,51140,1073725440,17918,1026,65535,65700,0,0,4,1460,312,0,4,230000,33580,72,65700,0,72,0,368820295,63
i,1724818507.340175,10.0.2.15,22,10.0.2.2,51140,1073725440,17990,1026,65535,65700,0,0,4,1460,312,0,4,230000,33580,0,65700,0,0,0,368820295,63
i,1724818507.340194,10.0.2.15,22,10.0.2.2,51140,1073725440,17990,1026,65535,65700,0,0,4,1460,312,0,4,230000,33580,0,65700,96,0,0,368820295,63
o,1724818507.340227,10.0.2.15,22,10.0.2.2,51140,1073725440,17990,1026,65535,65604,0,0,5,1460,312,0,5,230000,33580,0,65700,96,0,0,368820295,63
o,1724818507.341063,10.0.2.15,22,10.0.2.2,51140,1073725440,17990,1026,65535,65604,0,0,8,1460,312,0,4,230000,33580,0,65700,0,0,0,368820295,63
i,1724818507.341869,10.0.2.15,22,10.0.2.2,51140,1073725440,17990,1026,65535,65604,0,0,8,1460,312,0,67108884,230000,33580,0,65700,0,1,0,368820295,63
i,1724818510.445722,10.0.2.15,22,10.0.2.2,51158,1073725440,14600,0,65535,65700,0,0,4,1460,312,0,16777216,270000,33580,0,65700,0,0,0,2936946646,63
o,1724818510.455716,10.0.2.15,22,10.0.2.2,51158,1073725440,14600,1026,65535,65700,0,0,4,1460,312,0,16777216,270000,33580,38,65700,42,0,0,2936946646,63
i,1724818510.456347,10.0.2.15,22,10.0.2.2,51158,1073725440,14600,1026,65535,65700,0,0,4,1460,312,0,16777216,270000,33580,38,65700,0,38,0,2936946646,63
i,1724818510.457025,10.0.2.15,22,10.0.2.2,51158,1073725440,14638,1026,65535,65700,0,0,4,1460,312,0,0,230000,33580,0,65700,0,0,0,2936946646,63
i,1724818510.457043,10.0.2.15,22,10.0.2.2,51158,1073725440,14638,1026,65535,65700,0,0,4,1460,312,0,0,230000,33580,0,65700,1460,0,0,2936946646,63
o,1724818510.457062,10.0.2.15,22,10.0.2.2,51158,1073725440,14638,1026,65535,65700,0,0,4,1460,312,0,1,230000,33580,0,65700,1536,0,0,2936946646,63
o,1724818510.457964,10.0.2.15,22,10.0.2.2,51158,1073725440,14638,1026,65535,65700,0,0,4,1460,312,0,16777216,230000,33580,1120,65700,1536,0,0,2936946646,63
i,1724818510.459197,10.0.2.15,22,10.0.2.2,51158,1073725440,14638,1026,65535,65700,0,0,4,1460,312,0,16777216,230000,33580,1120,65700,0,1120,0,2936946646,63
i,1724818510.460221,10.0.2.15,22,10.0.2.2,51158,1073725440,15758,1026,65535,65700,0,0,4,1460,312,0,0,240000,33580,0,65700,0,0,0,2936946646,63
o,1724818510.463110,10.0.2.15,22,10.0.2.2,51158,1073725440,15758,1026,65535,65700,0,0,4,1460,312,0,16777216,240000,33580,492,65700,0,0,0,2936946646,63
i,1724818510.463836,10.0.2.15,22,10.0.2.2,51158,1073725440,15758,1026,65535,65700,0,0,4,1460,312,0,16777216,240000,33580,492,65700,0,492,0,2936946646,63
i,1724818510.468304,10.0.2.15,22,10.0.2.2,51158,1073725440,16250,1026,65535,65700,0,0,4,1460,312,0,0,240000,33580,0,65700,0,0,0,2936946646,63
i,1724818510.468325,10.0.2.15,22,10.0.2.2,51158,1073725440,16250,1026,65535,65700,0,0,4,1460,312,0,0,240000,33580,0,65700,16,0,0,2936946646,63
o,1724818510.468343,10.0.2.15,22,10.0.2.2,51158,1073725440,16250,1026,65535,65700,0,0,4,1460,312,0,1,240000,33580,0,65700,60,0,0,2936946646,63
o,1724818510.468585,10.0.2.15,22,10.0.2.2,51158,1073725440,16250,1026,65535,65700,0,0,4,1460,312,0,16777216,240000,33580,44,65700,0,0,0,2936946646,63
i,1724818510.469071,10.0.2.15,22,10.0.2.2,51158,1073725440,16250,1026,65535,65700,0,0,4,1460,312,0,16777216,240000,33580,44,65700,0,44,0,2936946646,63
i,1724818510.469585,10.0.2.15,22,10.0.2.2,51158,1073725440,16294,1026,65535,65700,0,0,4,1460,312,0,0,240000,33580,0,65700,0,0,0,2936946646,63
o,1724818510.471689,10.0.2.15,22,10.0.2.2,51158,1073725440,16294,1026,65535,65700,0,0,4,1460,312,0,16777216,240000,33580,68,65700,0,0,0,2936946646,63
i,1724818510.472284,10.0.2.15,22,10.0.2.2,51158,1073725440,16294,1026,65535,65700,0,0,4,1460,312,0,16777216,240000,33580,68,65700,0,68,0,2936946646,63
i,1724818510.472505,10.0.2.15,22,10.0.2.2,51158,1073725440,16362,1026,65535,65700,0,0,4,1460,312,0,0,240000,33580,0,65700,0,0,0,2936946646,63
o,1724818510.474326,10.0.2.15,22,10.0.2.2,51158,1073725440,16362,1026,65535,65700,0,0,4,1460,312,0,16777216,240000,33580,332,65700,0,0,0,2936946646,63
i,1724818510.474673,10.0.2.15,22,10.0.2.2,51158,1073725440,16362,1026,65535,65700,0,0,4,1460,312,0,16777216,240000,33580,332,65700,0,332,0,2936946646,63
i,1724818510.476903,10.0.2.15,22,10.0.2.2,51158,1073725440,16694,1026,65535,65700,0,0,4,1460,312,0,0,240000,33580,0,65700,0,0,0,2936946646,63
o,1724818510.493248,10.0.2.15,22,10.0.2.2,51158,1073725440,16694,1026,65535,65700,0,0,4,1460,312,0,16777216,240000,33580,28,65700,0,0,0,2936946646,63
i,1724818510.494020,10.0.2.15,22,10.0.2.2,51158,1073725440,16694,1026,65535,65700,0,0,4,1460,312,0,16777216,240000,33580,28,65700,0,28,0,2936946646,63
i,1724818510.494340,10.0.2.15,22,10.0.2.2,51158,1073725440,16722,1026,65535,65700,0,0,4,1460,312,0,0,240000,33580,0,65700,0,0,0,2936946646,63
o,1724818510.495488,10.0.2.15,22,10.0.2.2,51158,1073725440,16722,1026,65535,65700,0,0,4,1460,312,0,16777216,240000,33580,768,65700,112,0,0,2936946646,63
i,1724818510.496762,10.0.2.15,22,10.0.2.2,51158,1073725440,16722,1026,65535,65700,0,0,4,1460,312,0,16777216,240000,33580,908,65700,112,768,0,2936946646,63
o,1724818510.496782,10.0.2.15,22,10.0.2.2,51158,1073725440,17490,1026,65535,65700,0,0,4,1460,312,0,16777216,240000,33580,140,65700,112,0,0,2936946646,63
i,1724818510.497646,10.0.2.15,22,10.0.2.2,51158,1073725440,17490,1026,65535,65700,0,0,4,1460,312,0,16777216,240000,33580,140,65700,112,140,0,2936946646,63
o,1724818510.498410,10.0.2.15,22,10.0.2.2,51158,1073725440,17630,1026,65535,65700,0,0,4,1460,312,0,16777216,240000,33580,44,65700,0,0,0,2936946646,63
i,1724818510.498960,10.0.2.15,22,10.0.2.2,51158,1073725440,17630,1026,65535,65700,0,0,4,1460,312,0,16777216,240000,33580,44,65700,0,44,0,2936946646,63
i,1724818510.499480,10.0.2.15,22,10.0.2.2,51158,1073725440,17674,1026,65535,65700,0,0,4,1460,312,0,0,240000,33580,0,65700,0,0,0,2936946646,63
o,1724818510.500001,10.0.2.15,22,10.0.2.2,51158,1073725440,17674,1026,65535,65700,0,0,4,1460,312,0,16777220,240000,33580,72,65700,0,0,0,2936946646,63
i,1724818510.500958,10.0.2.15,22,10.0.2.2,51158,1073725440,17674,1026,65535,65700,0,0,4,1460,312,0,16777220,240000,33580,72,65700,0,72,0,2936946646,63
o,1724818510.504390,10.0.2.15,22,10.0.2.2,51158,1073725440,17746,1026,65535,65700,0,0,4,1460,312,0,16777220,240000,33580,104,65700,0,0,0,2936946646,63
i,1724818510.504894,10.0.2.15,22,10.0.2.2,51158,1073725440,17746,1026,65535,65700,0,0,4,1460,312,0,16777220,240000,33580,104,65700,0,104,0,2936946646,63
o,1724818510.511196,10.0.2.15,22,10.0.2.2,51158,1073725440,17850,1026,65535,65700,0,0,4,1460,312,0,16777220,240000,33580,72,65700,0,0,0,2936946646,63
i,1724818510.512084,10.0.2.15,22,10.0.2.2,51158,1073725440,17850,1026,65535,65700,0,0,4,1460,312,0,16777220,240000,33580,72,65700,0,72,0,2936946646,63
i,1724818510.512105,10.0.2.15,22,10.0.2.2,51158,1073725440,17922,1026,65535,65700,0,0,4,1460,312,0,4,240000,33580,0,65700,0,0,0,2936946646,63
i,1724818510.512149,10.0.2.15,22,10.0.2.2,51158,1073725440,17922,1026,65535,65700,0,0,4,1460,312,0,4,240000,33580,0,65700,96,0,0,2936946646,63
o,1724818510.512169,10.0.2.15,22,10.0.2.2,51158,1073725440,17922,1026,65535,65604,0,0,5,1460,312,0,5,240000,33580,0,65700,96,0,0,2936946646,63
o,1724818510.517039,10.0.2.15,22,10.0.2.2,51158,1073725440,17922,1026,65535,65604,0,0,8,1460,312,0,4,240000,33580,0,65700,0,0,0,2936946646,63
i,1724818510.518009,10.0.2.15,22,10.0.2.2,51158,1073725440,17922,1026,65535,65604,0,0,8,1460,312,0,67108884,240000,33580,0,65700,0,1,0,2936946646,63
i,1724818511.595094,10.0.2.15,22,10.0.2.2,51162,1073725440,14600,0,65535,65700,0,0,4,1460,312,0,16777216,270000,33580,0,65700,0,0,0,3544217307,63
o,1724818511.607563,10.0.2.15,22,10.0.2.2,51162,1073725440,14600,1026,65535,65700,0,0,4,1460,312,0,16777216,270000,33580,38,65700,42,0,0,3544217307,63
i,1724818511.608012,10.0.2.15,22,10.0.2.2,51162,1073725440,14600,1026,65535,65700,0,0,4,1460,312,0,16777216,270000,33580,38,65700,0,38,0,3544217307,63
i,1724818511.608493,10.0.2.15,22,10.0.2.2,51162,1073725440,14638,1026,65535,65700,0,0,4,1460,312,0,0,240000,33580,0,65700,0,0,0,3544217307,63
i,1724818511.608514,10.0.2.15,22,10.0.2.2,51162,1073725440,14638,1026,65535,65700,0,0,4,1460,312,0,0,240000,33580,0,65700,1460,0,0,3544217307,63
o,1724818511.608535,10.0.2.15,22,10.0.2.2,51162,1073725440,14638,1026,65535,65700,0,0,4,1460,312,0,1,240000,33580,0,65700,1536,0,0,3544217307,63
o,1724818511.610020,10.0.2.15,22,10.0.2.2,51162,1073725440,14638,1026,65535,65700,0,0,4,1460,312,0,16777216,240000,33580,1120,65700,1536,0,0,3544217307,63
i,1724818511.610919,10.0.2.15,22,10.0.2.2,51162,1073725440,14638,1026,65535,65700,0,0,4,1460,312,0,16777216,240000,33580,1120,65700,0,1120,0,3544217307,63
i,1724818511.611804,10.0.2.15,22,10.0.2.2,51162,1073725440,15758,1026,65535,65700,0,0,4,1460,312,0,0,240000,33580,0,65700,0,0,0,3544217307,63
o,1724818511.614351,10.0.2.15,22,10.0.2.2,51162,1073725440,15758,1026,65535,65700,0,0,4,1460,312,0,16777216,240000,33580,492,65700,0,0,0,3544217307,63
i,1724818511.615261,10.0.2.15,22,10.0.2.2,51162,1073725440,15758,1026,65535,65700,0,0,4,1460,312,0,16777216,240000,33580,492,65700,0,492,0,3544217307,63
i,1724818511.619601,10.0.2.15,22,10.0.2.2,51162,1073725440,16250,1026,65535,65700,0,0,4,1460,312,0,0,240000,33580,0,65700,0,0,0,3544217307,63
i,1724818511.619624,10.0.2.15,22,10.0.2.2,51162,1073725440,16250,1026,65535,65700,0,0,4,1460,312,0,0,240000,33580,0,65700,16,0,0,3544217307,63
o,1724818511.619646,10.0.2.15,22,10.0.2.2,51162,1073725440,16250,1026,65535,65700,0,0,4,1460,312,0,1,240000,33580,0,65700,60,0,0,3544217307,63
o,1724818511.619921,10.0.2.15,22,10.0.2.2,51162,1073725440,16250,1026,65535,65700,0,0,4,1460,312,0,16777216,240000,33580,44,65700,0,0,0,3544217307,63
i,1724818511.620304,10.0.2.15,22,10.0.2.2,51162,1073725440,16250,1026,65535,65700,0,0,4,1460,312,0,16777216,240000,33580,44,65700,0,44,0,3544217307,63
i,1724818511.620666,10.0.2.15,22,10.0.2.2,51162,1073725440,16294,1026,65535,65700,0,0,4,1460,312,0,0,240000,33580,0,65700,0,0,0,3544217307,63
o,1724818511.622510,10.0.2.15,22,10.0.2.2,51162,1073725440,16294,1026,65535,65700,0,0,4,1460,312,0,16777216,240000,33580,68,65700,0,0,0,3544217307,63
i,1724818511.623407,10.0.2.15,22,10.0.2.2,51162,1073725440,16294,1026,65535,65700,0,0,4,1460,312,0,16777216,240000,33580,68,65700,0,68,0,3544217307,63
i,1724818511.623423,10.0.2.15,22,10.0.2.2,51162,1073725440,16362,1026,65535,65700,0,0,4,1460,312,0,0,230000,33580,0,65700,0,0,0,3544217307,63
o,1724818511.624711,10.0.2.15,22,10.0.2.2,51162,1073725440,16362,1026,65535,65700,0,0,4,1460,312,0,16777216,230000,33580,332,65700,0,0,0,3544217307,63
i,1724818511.625577,10.0.2.15,22,10.0.2.2,51162,1073725440,16362,1026,65535,65700,0,0,4,1460,312,0,16777216,230000,33580,332,65700,0,332,0,3544217307,63
i,1724818511.627313,10.0.2.15,22,10.0.2.2,51162,1073725440,16694,1026,65535,65700,0,0,4,1460,312,0,0,230000,33580,0,65700,0,0,0,3544217307,63
o,1724818511.644337,10.0.2.15,22,10.0.2.2,51162,1073725440,16694,1026,65535,65700,0,0,4,1460,312,0,16777216,230000,33580,28,65700,0,0,0,3544217307,63
i,1724818511.644906,10.0.2.15,22,10.0.2.2,51162,1073725440,16694,1026,65535,65700,0,0,4,1460,312,0,16777216,230000,33580,28,65700,0,28,0,3544217307,63
i,1724818511.644928,10.0.2.15,22,10.0.2.2,51162,1073725440,16722,1026,65535,65700,0,0,4,1460,312,0,0,230000,33580,0,65700,0,0,0,3544217307,63
o,1724818511.646641,10.0.2.15,22,10.0.2.2,51162,1073725440,16722,1026,65535,65700,0,0,4,1460,312,0,16777216,230000,33580,768,65700,112,0,0,3544217307,63
i,1724818511.647363,10.0.2.15,22,10.0.2.2,51162,1073725440,16722,1026,65535,65700,0,0,4,1460,312,0,16777216,230000,33580,908,65700,112,768,0,3544217307,63
o,1724818511.647387,10.0.2.15,22,10.0.2.2,51162,1073725440,17490,1026,65535,65700,0,0,4,1460,312,0,16777216,230000,33580,140,65700,112,0,0,3544217307,63
i,1724818511.647781,10.0.2.15,22,10.0.2.2,51162,1073725440,17490,1026,65535,65700,0,0,4,1460,312,0,16777216,230000,33580,140,65700,112,140,0,3544217307,63
o,1724818511.648689,10.0.2.15,22,10.0.2.2,51162,1073725440,17630,1026,65535,65700,0,0,4,1460,312,0,16777216,240000,33580,44,65700,0,0,0,3544217307,63
i,1724818511.651416,10.0.2.15,22,10.0.2.2,51162,1073725440,17630,1026,65535,65700,0,0,4,1460,312,0,16777216,240000,33580,44,65700,0,44,0,3544217307,63
i,1724818511.651434,10.0.2.15,22,10.0.2.2,51162,1073725440,17674,1026,65535,65700,0,0,4,1460,312,0,0,240000,33580,0,65700,0,0,0,3544217307,63
o,1724818511.651953,10.0.2.15,22,10.0.2.2,51162,1073725440,17674,1026,65535,65700,0,0,4,1460,312,0,16777220,240000,33580,72,65700,0,0,0,3544217307,63
i,1724818511.652267,10.0.2.15,22,10.0.2.2,51162,1073725440,17674,1026,65535,65700,0,0,4,1460,312,0,16777220,240000,33580,72,65700,0,72,0,3544217307,63
o,1724818511.854874,172.16.5.2,28438,172.16.1.2,5102,27199,14480,2082,65535,65700,6,6,4,1460,185000,1,16778209,590000,33580,0,65700,0,0,0,2503528835,63
o,1724818511.855306,172.16.5.2,28438,172.16.1.2,5102,27199,14480,2082,65535,65700,6,6,4,1460,185000,1,16778212,590000,33580,37,65700,0,0,0,2503528835,63
i,1724818512.075653,172.16.5.2,28438,172.16.1.2,5102,27199,14480,2082,65535,65700,6,6,4,1460,185000,1,16778212,590000,33580,37,65700,0,37,0,2503528835,63
o,1724818512.075907,172.16.5.2,28438,172.16.1.2,5102,27199,14517,3106,65728,65728,6,6,4,1460,189375,1,16778212,580000,33580,4,65700,0,0,0,2503528835,63
o,1724818512.076404,172.16.5.2,28438,172.16.1.2,5102,27199,14517,3106,65728,65728,6,6,4,1460,189375,1,16778212,580000,33580,130,65700,0,4,0,2503528835,63
i,1724818512.272953,172.16.5.2,28438,172.16.1.2,5102,27199,14517,3106,65728,65728,6,6,4,1460,189375,1,16778212,580000,33580,130,65700,0,130,0,2503528835,63
i,1724818512.272994,172.16.5.2,28438,172.16.1.2,5102,27199,14647,3106,65600,65728,6,6,4,1460,189687,1,996,530000,33580,0,65700,0,0,0,2503528835,63
o,1724818512.304180,172.16.5.2,28438,172.16.1.2,5102,27199,14647,3106,65728,65728,6,6,4,1460,189687,1,997,530000,33580,0,65700,0,0,0,2503528835,63
o,1724818512.479188,172.16.5.2,10146,172.16.1.2,5102,27199,14480,2082,65535,65700,6,6,4,1460,187500,1,16778209,610000,33580,0,65700,0,0,0,666583561,63
o,1724818512.479311,172.16.5.2,10146,172.16.1.2,5102,27199,14480,2082,65535,65700,6,6,4,1460,187500,1,16778208,610000,33580,37,65700,0,0,0,666583561,63
i,1724818512.705011,172.16.5.2,28438,172.16.1.2,5102,27199,14647,3106,65728,65728,6,6,4,1460,189687,1,996,530000,33580,0,65700,0,0,0,2503528835,63
i,1724818512.705126,172.16.5.2,28438,172.16.1.2,5102,27199,14647,3106,65728,65728,6,6,4,1460,189687,1,996,530000,33580,0,65700,1,0,0,2503528835,63
o,1724818512.705154,172.16.5.2,28438,172.16.1.2,5102,27199,14480,3106,65728,65728,6,6,4,1460,189687,1,997,530000,33580,0,65700,2,0,0,2503528835,63
o,1724818512.705763,172.16.5.2,10146,172.16.1.2,5102,27199,14480,2086,65535,65700,6,6,4,1460,187500,1,16778208,610000,33580,33580,65700,0,37,0,666583561,63
i,1724818512.728669,172.16.5.2,10146,172.16.1.2,5102,27199,14480,2086,65535,65700,6,6,4,1460,187500,1,16778208,610000,33580,33580,65700,0,13069,0,666583561,63
o,1724818512.728717,172.16.5.2,10146,172.16.1.2,5102,27199,14517,2086,65728,65728,6,6,4,1460,195312,1,16778208,630000,33580,33543,65700,0,13032,0,666583561,63
i,1724818512.910770,172.16.5.2,10146,172.16.1.2,5102,27199,14517,2086,65728,65728,6,6,4,1460,195312,1,16778208,630000,33580,33543,65700,0,14480,0,666583561,63
o,1724818512.910805,172.16.5.2,10146,172.16.1.2,5102,27199,17413,2086,62848,65728,6,6,4,1460,195937,1,16778208,570000,33580,30647,65700,0,11584,0,666583561,63
i,1724818512.910980,172.16.5.2,10146,172.16.1.2,5102,27199,17413,2086,62848,65728,6,6,4,1460,195937,1,16778208,570000,41772,30647,65700,0,17376,0,666583561,63
o,1724818512.910997,172.16.5.2,10146,172.16.1.2,5102,27199,20309,2086,59968,65728,6,6,4,1460,196562,1,16778208,530000,41772,27751,65700,0,14480,0,666583561,63
i,1724818512.911125,172.16.5.2,10146,172.16.1.2,5102,27199,20309,2086,59968,65728,6,6,4,1460,196562,1,16778208,530000,41772,27751,65700,0,20272,0,666583561,63
o,1724818512.911141,172.16.5.2,10146,172.16.1.2,5102,27199,23205,2086,57088,65728,6,6,4,1460,197187,1,16778208,500000,41772,24855,65700,0,17376,0,666583561,63
i,1724818512.911297,172.16.5.2,10146,172.16.1.2,5102,27199,23205,2086,57088,65728,6,6,4,1460,197187,1,16778208,500000,41772,24855,65700,0,23168,0,666583561,63
o,1724818512.911312,172.16.5.2,10146,172.16.1.2,5102,27199,26101,2086,64256,65728,6,6,4,1460,197812,1,16778208,480000,41772,21959,65700,0,20272,0,666583561,63
i,1724818512.911553,172.16.5.2,10146,172.16.1.2,5102,27199,26101,2086,64256,65728,6,6,4,1460,197812,1,16778208,480000,41772,21959,65700,0,21959,0,666583561,63
o,1724818512.911685,172.16.5.2,10146,172.16.1.2,5102,27199,28997,2086,61376,65728,6,6,4,1460,198125,1,16778208,460000,41772,21996,65700,0,19063,0,666583561,63
o,1724818512.911787,172.16.5.2,10146,172.16.1.2,5102,27199,28997,2086,61376,65728,6,6,4,1460,198125,1,16778208,460000,41772,21996,65700,0,20511,0,666583561,63
o,1724818512.911911,172.16.5.2,10146,172.16.1.2,5102,27199,28997,2086,61376,65728,6,6,4,1460,198125,1,16778208,460000,49964,41772,65700,0,21996,0,666583561,63
i,1724818513.086177,172.16.5.2,10146,172.16.1.2,5102,27199,28997,2086,61376,65728,6,6,4,1460,198125,1,16778208,460000,58156,58156,65700,0,27788,0,666583561,63
o,1724818513.086210,172.16.5.2,10146,172.16.1.2,5102,27199,28997,2086,62848,65728,6,6,4,1460,195937,1,16778208,460000,58156,55260,65700,0,24892,0,666583561,63
i,1724818513.119349,172.16.5.2,10146,172.16.1.2,5102,27199,28997,2086,62848,65728,6,6,4,1460,195937,1,16778208,460000,66348,66348,65700,0,27788,0,666583561,63
o,1724818513.119380,172.16.5.2,10146,172.16.1.2,5102,27199,28997,2086,64256,65728,6,6,4,1460,197812,1,16778208,460000,66348,63452,65700,0,24892,0,666583561,63
i,1724818513.119529,172.16.5.2,10146,172.16.1.2,5102,27199,28997,2086,64256,65728,6,6,4,1460,197812,1,16778208,460000,66348,63452,65700,0,27788,0,666583561,63
o,1724818513.119548,172.16.5.2,10146,172.16.1.2,5102,27199,28997,2086,61376,65728,6,6,4,1460,199375,1,16778208,460000,66348,60556,65700,0,24892,0,666583561,63
i,1724818513.119689,172.16.5.2,10146,172.16.1.2,5102,27199,28997,2086,61376,65728,6,6,4,1460,199375,1,16778208,460000,66348,60556,65700,0,27788,0,666583561,63
o,1724818513.119707,172.16.5.2,10146,172.16.1.2,5102,27199,28997,2086,62848,65728,6,6,4,1460,200937,1,16778208,460000,66348,57660,65700,0,24892,0,666583561,63
i,1724818513.141190,172.16.5.2,10146,172.16.1.2,5102,27199,28997,2086,62848,65728,6,6,4,1460,200937,1,16778208,460000,66348,66348,65700,0,27788,0,666583561,63
o,1724818513.141210,172.16.5.2,10146,172.16.1.2,5102,27199,28997,2086,64256,65728,6,6,4,1460,204687,1,16778208,480000,66348,63452,65700,0,24892,0,666583561,63
i,1724818513.141375,172.16.5.2,10146,172.16.1.2,5102,27199,28997,2086,64256,65728,6,6,4,1460,204687,1,16778208,480000,66348,63452,65700,0,27788,0,666583561,63
o,1724818513.141391,172.16.5.2,10146,172.16.1.2,5102,27199,28997,2086,64256,65728,6,6,4,1460,208125,1,16778208,490000,66348,60556,65700,0,24892,0,666583561,63
i,1724818513.142430,172.16.5.2,10146,172.16.1.2,5102,27199,28997,2086,64256,65728,6,6,4,1460,208125,1,16778208,490000,66348,60556,65700,0,27788,0,666583561,63
o,1724818513.142451,172.16.5.2,10146,172.16.1.2,5102,27199,28997,2086,64064,65728,6,6,4,1460,210937,1,16778208,500000,66348,58869,65700,0,26101,0,666583561,63
i,1724818513.142604,172.16.5.2,10146,172.16.1.2,5102,27199,28997,2086,64064,65728,6,6,4,1460,210937,1,16778208,500000,66348,58869,65700,0,28997,0,666583561,63
o,1724818513.142623,172.16.5.2,10146,172.16.1.2,5102,27199,28997,2086,64256,65728,6,6,4,1460,213437,1,16778208,500000,66348,55973,65700,0,26101,0,666583561,63
o,1724818513.142753,172.16.5.2,10146,172.16.1.2,5102,27199,28997,2082,64256,65728,6,6,4,1460,213437,1,16778208,500000,66348,55973,65700,0,27549,0,666583561,63
i,1724818513.142895,172.16.5.2,10146,172.16.1.2,5102,27199,28997,2082,64256,65728,6,6,4,1460,213437,1,16778208,500000,66348,55973,65700,0,28997,0,666583561,63
o,1724818513.142915,172.16.5.2,10146,172.16.1.2,5102,27199,28997,2086,62784,65728,6,6,4,1460,215625,1,16778208,500000,66348,54488,65700,0,27512,0,666583561,63
i,1724818513.143905,172.16.5.2,10146,172.16.1.2,5102,27199,28997,2086,62784,65728,6,6,4,1460,215625,1,16778208,500000,66348,66348,65700,0,28960,0,666583561,63
o,1724818513.143926,172.16.5.2,10146,172.16.1.2,5102,27199,28997,2086,59904,65728,6,6,4,1460,217500,1,16778208,490000,66348,63452,65700,0,26064,0,666583561,63
i,1724818513.193779,172.16.5.2,10146,172.16.1.2,5102,27199,28997,2086,59904,65728,6,6,4,1460,217500,1,16778208,490000,66348,66348,65700,0,28960,0,666583561,63
o,1724818513.193813,172.16.5.2,10146,172.16.1.2,5102,27199,28997,2086,65728,65728,6,6,4,1460,225312,1,16778208,540000,66348,64900,65700,0,27512,0,666583561,63
i,1724818513.310913,172.16.5.2,10146,172.16.1.2,5102,27199,28997,2086,65728,65728,6,6,4,1460,225312,1,16778208,540000,66348,64900,65700,0,28960,0,666583561,63
o,1724818513.310925,172.16.5.2,10146,172.16.1.2,5102,27199,30457,2086,95680,65728,6,6,4,1460,224687,1,16778208,520000,66348,62004,65700,0,26064,0,666583561,63
i,1724818513.311346,172.16.5.2,10146,172.16.1.2,5102,27199,30457,2086,95680,65728,6,6,4,1460,224687,1,16778208,520000,66348,62004,65700,0,30408,0,666583561,63
o,1724818513.311370,172.16.5.2,10146,172.16.1.2,5102,27199,30457,2086,97152,65728,6,6,4,1460,220625,1,16778208,520000,66348,59108,65700,0,27512,0,666583561,63
i,1724818513.336026,172.16.5.2,10146,172.16.1.2,5102,27199,30457,2086,97152,65728,6,6,4,1460,220625,1,16778208,520000,74540,74540,65700,0,30408,0,666583561,63
o,1724818513.336065,172.16.5.2,10146,172.16.1.2,5102,27199,30457,2086,95680,65728,6,6,4,1460,220625,1,16778208,500000,74540,71644,65700,0,27512,0,666583561,63
i,1724818513.336192,172.16.5.2,10146,172.16.1.2,5102,27199,30457,2086,95680,65728,6,6,4,1460,220625,1,16778208,500000,74540,71644,65700,0,30408,0,666583561,63
o,1724818513.336208,172.16.5.2,10146,172.16.1.2,5102,27199,30457,2086,92800,65728,6,6,4,1460,220625,1,16778208,480000,74540,68748,65700,0,27512,0,666583561,63
i,1724818513.351197,172.16.5.2,10146,172.16.1.2,5102,27199,30457,2086,92800,65728,6,6,4,1460,220625,1,16778208,480000,74540,74540,65700,0,30408,0,666583561,63
o,1724818513.351217,172.16.5.2,10146,172.16.1.2,5102,27199,30457,2086,95680,65728,6,6,4,1460,219375,1,16778208,470000,74540,71644,65700,0,27512,0,666583561,63
i,1724818513.351362,172.16.5.2,10146,172.16.1.2,5102,27199,30457,2086,95680,65728,6,6,4,1460,219375,1,16778208,470000,74540,71644,65700,0,30408,0,666583561,63
o,1724818513.351378,172.16.5.2,10146,172.16.1.2,5102,27199,30457,2086,95680,65728,6,6,4,1460,218437,1,16778208,470000,74540,68748,65700,0,27512,0,666583561,63
i,1724818513.351491,172.16.5.2,10146,172.16.1.2,5102,27199,30457,2086,95680,65728,6,6,4,1460,218437,1,16778208,470000,74540,68748,65700,0,30408,0,666583561,63
o,1724818513.351523,172.16.5.2,10146,172.16.1.2,5102,27199,30457,2086,97152,65728,6,6,4,1460,217500,1,16778208,460000,74540,65852,65700,0,27512,0,666583561,63
i,1724818513.352420,172.16.5.2,10146,172.16.1.2,5102,27199,30457,2086,97152,65728,6,6,4,1460,217500,1,16778208,460000,74540,74540,65700,0,30408,0,666583561,63
o,1724818513.352488,172.16.5.2,10146,172.16.1.2,5102,27199,30457,2086,95680,65728,6,6,4,1460,216562,1,16778208,460000,74540,71644,65700,0,27512,0,666583561,63
o,1724818513.352597,172.16.5.2,10146,172.16.1.2,5102,27199,30457,2086,95680,65728,6,6,4,1460,216562,1,16778208,460000,74540,71644,65700,0,28960,0,666583561,63
i,1724818513.352709,172.16.5.2,10146,172.16.1.2,5102,27199,30457,2086,95680,65728,6,6,4,1460,216562,1,16778208,460000,74540,71644,65700,0,30408,0,666583561,63
o,1724818513.352724,172.16.5.2,10146,172.16.1.2,5102,27199,30457,2086,95680,65728,6,6,4,1460,215937,1,16778208,450000,74540,68748,65700,0,27512,0,666583561,63
i,1724818513.396711,172.16.5.2,10146,172.16.1.2,5102,27199,30457,2086,95680,65728,6,6,4,1460,215937,1,16778208,450000,74540,74540,65700,0,30408,0,666583561,63
o,1724818513.396774,172.16.5.2,10146,172.16.1.2,5102,27199,30457,2086,98560,65728,6,6,4,1460,220312,1,16778208,480000,74540,73092,65700,0,28960,0,666583561,63
i,1724818513.442154,172.16.5.2,10146,172.16.1.2,5102,27199,30457,2086,98560,65728,6,6,4,1460,220312,1,16778208,480000,74540,73092,65700,0,30408,0,666583561,63
o,1724818513.442235,172.16.5.2,10146,172.16.1.2,5102,27199,30457,2086,98560,65728,6,6,4,1460,222812,1,16778208,490000,74540,71644,65700,0,28960,0,666583561,63
i,1724818513.517689,172.16.5.2,10146,172.16.1.2,5102,27199,30457,2086,98560,65728,6,6,4,1460,222812,1,16778208,490000,74540,74540,65700,0,30408,0,666583561,63
o,1724818513.517722,172.16.5.2,10146,172.16.1.2,5102,27199,31917,2086,95680,65728,6,6,4,1460,221250,1,16778208,480000,74540,71644,65700,0,27512,0,666583561,63
i,1724818513.537529,172.16.5.2,10146,172.16.1.2,5102,27199,31917,2086,95680,65728,6,6,4,1460,221250,1,16778208,480000,74540,74540,65700,0,31856,0,666583561,63
o,1724818513.537554,172.16.5.2,10146,172.16.1.2,5102,27199,31917,2086,97152,65728,6,6,4,1460,222500,1,16778208,480000,74540,71644,65700,0,28960,0,666583561,63
i,1724818513.537678,172.16.5.2,10146,172.16.1.2,5102,27199,31917,2086,97152,65728,6,6,4,1460,222500,1,16778208,480000,74540,71644,65700,0,31856,0,666583561,63
o,1724818513.537694,172.16.5.2,10146,172.16.1.2,5102,27199,31917,2086,95680,65728,6,6,4,1460,223437,1,16778208,470000,74540,68748,65700,0,28960,0,666583561,63
i,1724818513.537807,172.16.5.2,10146,172.16.1.2,5102,27199,31917,2086,95680,65728,6,6,4,1460,223437,1,16778208,470000,74540,68748,65700,0,31856,0,666583561,63
o,1724818513.537821,172.16.5.2,10146,172.16.1.2,5102,27199,31917,2086,97152,65728,6,6,4,1460,220625,1,16778208,480000,74540,65852,65700,0,28960,0,666583561,63
i,1724818513.566879,172.16.5.2,10146,172.16.1.2,5102,27199,31917,2086,97152,65728,6,6,4,1460,220625,1,16778208,480000,74540,74540,65700,0,31856,0,666583561,63
o,1724818513.566902,172.16.5.2,10146,172.16.1.2,5102,27199,31917,2086,97152,65728,6,6,4,1460,221875,1,16778208,470000,74540,71644,65700,0,28960,0,666583561,63
i,1724818513.567023,172.16.5.2,10146,172.16.1.2,5102,27199,31917,2086,97152,65728,6,6,4,1460,221875,1,16778208,470000,74540,71644,65700,0,31856,0,666583561,63
o,1724818513.567039,172.16.5.2,10146,172.16.1.2,5102,27199,31917,2086,94272,65728,6,6,4,1460,221875,1,16778208,460000,74540,68748,65700,0,28960,0,666583561,63
i,1724818513.567199,172.16.5.2,10146,172.16.1.2,5102,27199,31917,2086,94272,65728,6,6,4,1460,221875,1,16778208,460000,74540,68748,65700,0,31856,0,666583561,63
o,1724818513.567215,172.16.5.2,10146,172.16.1.2,5102,27199,31917,2086,91392,65728,6,6,4,1460,221875,1,16778208,450000,74540,65852,65700,0,28960,0,666583561,63
i,1724818513.573076,172.16.5.2,10146,172.16.1.2,5102,27199,31917,2086,91392,65728,6,6,4,1460,221875,1,16778208,450000,74540,74540,65700,0,31856,0,666583561,63
o,1724818513.573098,172.16.5.2,10146,172.16.1.2,5102,27199,31917,2086,97152,65728,6,6,4,1460,221875,1,16778208,440000,74540,71644,65700,0,28960,0,666583561,63
o,1724818513.573520,172.16.5.2,10146,172.16.1.2,5102,27199,31917,2086,97152,65728,6,6,4,1460,221875,1,16778208,440000,74540,71644,65700,0,30408,0,666583561,63
i,1724818513.573669,172.16.5.2,10146,172.16.1.2,5102,27199,31917,2086,97152,65728,6,6,4,1460,221875,1,16778208,440000,74540,71644,65700,0,31856,0,666583561,63
o,1724818513.573687,172.16.5.2,10146,172.16.1.2,5102,27199,31917,2086,97152,65728,6,6,4,1460,221875,1,16778208,440000,74540,68748,65700,0,28960,0,666583561,63
i,1724818513.573829,172.16.5.2,10146,172.16.1.2,5102,27199,31917,2086,97152,65728,6,6,4,1460,221875,1,16778208,440000,74540,68748,65700,0,31856,0,666583561,63
o,1724818513.573847,172.16.5.2,10146,172.16.1.2,5102,27199,31917,2086,97152,65728,6,6,4,1460,221875,1,16778208,430000,74540,65852,65700,0,28960,0,666583561,63
i,1724818513.677205,172.16.5.2,10146,172.16.1.2,5102,27199,31917,2086,97152,65728,6,6,4,1460,221875,1,16778208,430000,74540,74540,65700,0,31856,0,666583561,63
o,1724818513.677287,172.16.5.2,10146,172.16.1.2,5102,27199,31917,2086,98560,65728,6,6,4,1460,224375,1,16778208,450000,74540,73092,65700,0,30408,0,666583561,63
i,1724818513.736358,172.16.5.2,10146,172.16.1.2,5102,27199,31917,2086,98560,65728,6,6,4,1460,224375,1,16778208,450000,74540,73092,65700,0,31856,0,666583561,63
o,1724818513.736399,172.16.5.2,10146,172.16.1.2,5102,27199,31917,2086,97152,65728,6,6,4,1460,224062,1,16778208,450000,74540,70196,65700,0,28960,0,666583561,63
i,1724818513.754704,172.16.5.2,10146,172.16.1.2,5102,27199,31917,2086,97152,65728,6,6,4,1460,224062,1,16778208,450000,74540,74540,65700,0,31856,0,666583561,63
o,1724818513.754725,172.16.5.2,10146,172.16.1.2,5102,27199,33377,2086,97152,65728,6,6,4,1460,226250,1,16778208,460000,74540,71644,65700,0,28960,0,666583561,63
i,1724818513.754850,172.16.5.2,10146,172.16.1.2,5102,27199,33377,2086,97152,65728,6,6,4,1460,226250,1,16778208,460000,74540,71644,65700,0,33304,0,666583561,63
o,1724818513.754867,172.16.5.2,10146,172.16.1.2,5102,27199,33377,2086,94272,65728,6,6,4,1460,225625,1,16778208,460000,74540,68748,65700,0,30408,0,666583561,63
i,1724818513.755005,172.16.5.2,10146,172.16.1.2,5102,27199,33377,2086,94272,65728,6,6,4,1460,225625,1,16778208,460000,74540,68748,65700,0,33304,0,666583561,63
o,1724818513.755020,172.16.5.2,10146,172.16.1.2,5102,27199,33377,2086,91392,65728,6,6,4,1460,225000,1,16778208,450000,74540,65852,65700,0,30408,0,666583561,63
i,1724818513.786837,172.16.5.2,10146,172.16.1.2,5102,27199,33377,2086,91392,65728,6,6,4,1460,225000,1,16778208,450000,82732,82732,65700,0,33304,0,666583561,63
o,1724818513.786861,172.16.5.2,10146,172.16.1.2,5102,27199,33377,2086,97152,65728,6,6,4,1460,228125,1,16778208,470000,82732,79836,65700,0,30408,0,666583561,63
i,1724818513.787010,172.16.5.2,10146,172.16.1.2,5102,27199,33377,2086,97152,65728,6,6,4,1460,228125,1,16778208,470000,82732,79836,65700,0,33304,0,666583561,63
o,1724818513.787028,172.16.5.2,10146,172.16.1.2,5102,27199,33377,2086,94272,65728,6,6,4,1460,227187,1,16778208,470000,82732,76940,65700,0,30408,0,666583561,63
i,1724818513.787165,172.16.5.2,10146,172.16.1.2,5102,27199,33377,2086,94272,65728,6,6,4,1460,227187,1,16778208,470000,82732,76940,65700,0,33304,0,666583561,63
o,1724818513.787183,172.16.5.2,10146,172.16.1.2,5102,27199,33377,2086,97152,65728,6,6,4,1460,226562,1,16778208,460000,82732,74044,65700,0,30408,0,666583561,63
i,1724818513.796159,172.16.5.2,10146,172.16.1.2,5102,27199,33377,2086,97152,65728,6,6,4,1460,226562,1,16778208,460000,82732,82732,65700,0,33304,0,666583561,63
o,1724818513.796179,172.16.5.2,10146,172.16.1.2,5102,27199,33377,2086,95680,65728,6,6,4,1460,227187,1,16778208,460000,82732,79836,65700,0,30408,0,666583561,63
o,1724818513.796290,172.16.5.2,10146,172.16.1.2,5102,27199,33377,2086,95680,65728,6,6,4,1460,227187,1,16778208,460000,82732,79836,65700,0,31856,0,666583561,63
i,1724818513.796420,172.16.5.2,10146,172.16.1.2,5102,27199,33377,2086,95680,65728,6,6,4,1460,227187,1,16778208,460000,82732,79836,65700,0,33304,0,666583561,63
o,1724818513.796437,172.16.5.2,10146,172.16.1.2,5102,27199,33377,2086,95680,65728,6,6,4,1460,226562,1,16778208,450000,82732,76940,65700,0,30408,0,666583561,63
i,1724818513.796620,172.16.5.2,10146,172.16.1.2,5102,27199,33377,2086,95680,65728,6,6,4,1460,226562,1,16778208,450000,82732,76940,65700,0,33304,0,666583561,63
o,1724818513.796634,172.16.5.2,10146,172.16.1.2,5102,27199,33377,2086,95680,65728,6,6,4,1460,225937,1,16778208,450000,82732,74044,65700,0,30408,0,666583561,63
i,1724818513.857714,172.16.5.2,10146,172.16.1.2,5102,27199,33377,2086,95680,65728,6,6,4,1460,225937,1,16778208,450000,82732,82732,65700,0,33304,0,666583561,63
o,1724818513.857836,172.16.5.2,10146,172.16.1.2,5102,27199,33377,2086,98560,65728,6,6,4,1460,232812,1,16778208,510000,82732,81284,65700,0,31856,0,666583561,63
i,1724818513.915788,172.16.5.2,10146,172.16.1.2,5102,27199,33377,2086,98560,65728,6,6,4,1460,232812,1,16778208,510000,82732,81284,65700,0,33304,0,666583561,63
o,1724818513.915891,172.16.5.2,10146,172.16.1.2,5102,27199,33377,2086,98560,65728,6,6,4,1460,233750,1,16778208,500000,82732,79836,65700,0,31856,0,666583561,63
i,1724818513.942999,172.16.5.2,10146,172.16.1.2,5102,27199,33377,2086,98560,65728,6,6,4,1460,233750,1,16778208,500000,82732,82732,65700,0,33304,0,666583561,63
o,1724818513.943041,172.16.5.2,10146,172.16.1.2,5102,27199,33377,2086,97152,65728,6,6,4,1460,229687,1,16778208,510000,82732,79836,65700,0,30408,0,666583561,63
i,1724818513.964293,172.16.5.2,10146,172.16.1.2,5102,27199,33377,2086,97152,65728,6,6,4,1460,229687,1,16778208,510000,82732,82732,65700,0,33304,0,666583561,63
o,1724818513.964341,172.16.5.2,10146,172.16.1.2,5102,27199,34837,2086,95680,65728,6,6,4,1460,227500,1,16778208,510000,82732,79836,65700,0,30408,0,666583561,63
i,1724818513.964521,172.16.5.2,10146,172.16.1.2,5102,27199,34837,2086,95680,65728,6,6,4,1460,227500,1,16778208,510000,82732,79836,65700,0,34752,0,666583561,63
o,1724818513.964549,172.16.5.2,10146,172.16.1.2,5102,27199,34837,2086,95680,65728,6,6,4,1460,225312,1,16778208,500000,82732,76940,65700,0,31856,0,666583561,63
i,1724818513.964707,172.16.5.2,10146,172.16.1.2,5102,27199,34837,2086,95680,65728,6,6,4,1460,225312,1,16778208,500000,82732,76940,65700,0,34752,0,666583561,63
o,1724818513.964730,172.16.5.2,10146,172.16.1.2,5102,27199,34837,2086,92800,65728,6,6,4,1460,223437,1,16778208,490000,82732,74044,65700,0,31856,0,666583561,63
i,1724818513.994690,172.16.5.2,10146,172.16.1.2,5102,27199,34837,2086,92800,65728,6,6,4,1460,223437,1,16778208,490000,82732,82732,65700,0,34752,0,666583561,63
o,1724818513.994793,172.16.5.2,10146,172.16.1.2,5102,27199,34837,2086,97152,65728,6,6,4,1460,225625,1,16778208,500000,82732,79836,65700,0,31856,0,666583561,63
i,1724818513.994993,172.16.5.2,10146,172.16.1.2,5102,27199,34837,2086,97152,65728,6,6,4,1460,225625,1,16778208,500000,82732,79836,65700,0,34752,0,666583561,63
o,1724818513.995014,172.16.5.2,10146,172.16.1.2,5102,27199,34837,2086,97152,65728,6,6,4,1460,223750,1,16778208,490000,82732,76940,65700,0,31856,0,666583561,63
i,1724818513.995173,172.16.5.2,10146,172.16.1.2,5102,27199,34837,2086,97152,65728,6,6,4,1460,223750,1,16778208,490000,82732,76940,65700,0,34752,0,666583561,63
o,1724818513.995192,172.16.5.2,10146,172.16.1.2,5102,27199,34837,2086,94272,65728,6,6,4,1460,222187,1,16778208,480000,82732,74044,65700,0,31856,0,666583561,63
i,1724818514.005303,172.16.5.2,10146,172.16.1.2,5102,27199,34837,2086,94272,65728,6,6,4,1460,222187,1,16778208,480000,82732,82732,65700,0,34752,0,666583561,63
o,1724818514.005325,172.16.5.2,10146,172.16.1.2,5102,27199,34837,2086,97152,65728,6,6,4,1460,222187,1,16778208,470000,82732,79836,65700,0,31856,0,666583561,63
o,1724818514.005492,172.16.5.2,10146,172.16.1.2,5102,27199,34837,2086,97152,65728,6,6,4,1460,222187,1,16778208,470000,82732,79836,65700,0,33304,0,666583561,63
i,1724818514.005639,172.16.5.2,10146,172.16.1.2,5102,27199,34837,2086,97152,65728,6,6,4,1460,222187,1,16778208,470000,82732,79836,65700,0,34752,0,666583561,63
o,1724818514.005658,172.16.5.2,10146,172.16.1.2,5102,27199,34837,2086,97152,65728,6,6,4,1460,220937,1,16778208,470000,82732,76940,65700,0,31856,0,666583561,63
i,1724818514.005782,172.16.5.2,10146,172.16.1.2,5102,27199,34837,2086,97152,65728,6,6,4,1460,220937,1,16778208,470000,82732,76940,65700,0,34752,0,666583561,63
o,1724818514.005798,172.16.5.2,10146,172.16.1.2,5102,27199,34837,2086,97152,65728,6,6,4,1460,219687,1,16778208,460000,82732,74044,65700,0,31856,0,666583561,63
i,1724818514.044668,172.16.5.2,10146,172.16.1.2,5102,27199,34837,2086,97152,65728,6,6,4,1460,219687,1,16778208,460000,82732,82732,65700,0,34752,0,666583561,63
o,1724818514.044763,172.16.5.2,10146,172.16.1.2,5102,27199,34837,2086,98560,65728,6,6,4,1460,223750,1,16778208,490000,82732,81284,65700,0,33304,0,666583561,63
i,1724818514.075511,172.16.5.2,10146,172.16.1.2,5102,27199,34837,2086,98560,65728,6,6,4,1460,223750,1,16778208,490000,82732,81284,65700,0,34752,0,666583561,63
o,1724818514.075612,172.16.5.2,10146,172.16.1.2,5102,27199,34837,2086,98560,65728,6,6,4,1460,223437,1,16778208,470000,82732,79836,65700,0,33304,0,666583561,63
i,1724818514.159662,172.16.5.2,10146,172.16.1.2,5102,27199,34837,2086,98560,65728,6,6,4,1460,223437,1,16778208,470000,82732,82732,65700,0,34752,0,666583561,63
o,1724818514.159701,172.16.5.2,10146,172.16.1.2,5102,27199,34837,2086,98560,65728,6,6,4,1460,225625,1,16778208,480000,82732,81284,65700,0,33304,0,666583561,63
i,1724818514.159886,172.16.5.2,10146,172.16.1.2,5102,27199,34837,2086,98560,65728,6,6,4,1460,225625,1,16778208,480000,82732,81284,65700,0,34752,0,666583561,63
o,1724818514.159907,172.16.5.2,10146,172.16.1.2,5102,27199,34837,2086,95680,65728,6,6,4,1460,225000,1,16778208,470000,82732,78388,65700,0,31856,0,666583561,63
i,1724818514.190323,172.16.5.2,10146,172.16.1.2,5102,27199,34837,2086,95680,65728,6,6,4,1460,225000,1,16778208,470000,82732,82732,65700,0,34752,0,666583561,63
o,1724818514.190358,172.16.5.2,10146,172.16.1.2,5102,27199,34837,2086,97152,65728,6,6,4,1460,224375,1,16778208,460000,82732,79836,65700,0,31856,0,666583561,63
i,1724818514.190565,172.16.5.2,10146,172.16.1.2,5102,27199,34837,2086,97152,65728,6,6,4,1460,224375,1,16778208,460000,82732,79836,65700,0,34752,0,666583561,63
o,1724818514.190585,172.16.5.2,10146,172.16.1.2,5102,27199,36297,2086,97152,65728,6,6,4,1460,224062,1,16778208,450000,82732,76940,65700,0,31856,0,666583561,63
i,1724818514.190756,172.16.5.2,10146,172.16.1.2,5102,27199,36297,2086,97152,65728,6,6,4,1460,224062,1,16778208,450000,82732,76940,65700,0,36200,0,666583561,63
o,1724818514.190776,172.16.5.2,10146,172.16.1.2,5102,27199,36297,2086,94272,65728,6,6,4,1460,223750,1,16778208,450000,82732,74044,65700,0,33304,0,666583561,63
i,1724818514.219800,172.16.5.2,10146,172.16.1.2,5102,27199,36297,2086,94272,65728,6,6,4,1460,223750,1,16778208,450000,82732,82732,65700,0,36200,0,666583561,63
o,1724818514.219870,172.16.5.2,10146,172.16.1.2,5102,27199,36297,2086,97152,65728,6,6,4,1460,227187,1,16778208,470000,82732,79836,65700,0,33304,0,666583561,63
i,1724818514.220027,172.16.5.2,10146,172.16.1.2,5102,27199,36297,2086,97152,65728,6,6,4,1460,227187,1,16778208,470000,82732,79836,65700,0,36200,0,666583561,63
o,1724818514.220044,172.16.5.2,10146,172.16.1.2,5102,27199,36297,2086,94272,65728,6,6,4,1460,226562,1,16778208,460000,82732,76940,65700,0,33304,0,666583561,63
i,1724818514.220171,172.16.5.2,10146,172.16.1.2,5102,27199,36297,2086,94272,65728,6,6,4,1460,226562,1,16778208,460000,82732,76940,65700,0,36200,0,666583561,63
o,1724818514.220186,172.16.5.2,10146,172.16.1.2,5102,27199,36297,2086,91392,65728,6,6,4,1460,225937,1,16778208,460000,82732,74044,65700,0,33304,0,666583561,63
i,1724818514.229338,172.16.5.2,10146,172.16.1.2,5102,27199,36297,2086,91392,65728,6,6,4,1460,225937,1,16778208,460000,82732,82732,65700,0,36200,0,666583561,63
o,1724818514.229421,172.16.5.2,10146,172.16.1.2,5102,27199,36297,2086,97152,65728,6,6,4,1460,226562,1,16778208,460000,82732,79836,65700,0,33304,0,666583561,63
o,1724818514.229547,172.16.5.2,10146,172.16.1.2,5102,27199,36297,2086,97152,65728,6,6,4,1460,226562,1,16778208,460000,82732,79836,65700,0,34752,0,666583561,63
i,1724818514.229729,172.16.5.2,10146,172.16.1.2,5102,27199,36297,2086,97152,65728,6,6,4,1460,226562,1,16778208,460000,82732,79836,65700,0,36200,0,666583561,63
o,1724818514.229745,172.16.5.2,10146,172.16.1.2,5102,27199,36297,2086,97152,65728,6,6,4,1460,225937,1,16778208,450000,82732,76940,65700,0,33304,0,666583561,63
i,1724818514.230554,172.16.5.2,10146,172.16.1.2,5102,27199,36297,2086,97152,65728,6,6,4,1460,225937,1,16778208,450000,82732,82732,65700,0,36200,0,666583561,63
o,1724818514.230617,172.16.5.2,10146,172.16.1.2,5102,27199,36297,2086,95680,65728,6,6,4,1460,225312,1,16778208,450000,82732,79836,65700,0,33304,0,666583561,63
i,1724818514.282735,172.16.5.2,10146,172.16.1.2,5102,27199,36297,2086,95680,65728,6,6,4,1460,225312,1,16778208,450000,82732,82732,65700,0,36200,0,666583561,63
o,1724818514.282816,172.16.5.2,10146,172.16.1.2,5102,27199,36297,2086,97152,65728,6,6,4,1460,230937,1,16778208,490000,82732,79836,65700,0,33304,0,666583561,63
i,1724818514.340854,172.16.5.2,10146,172.16.1.2,5102,27199,36297,2086,97152,65728,6,6,4,1460,230937,1,16778208,490000,82732,82732,65700,0,36200,0,666583561,63
o,1724818514.340968,172.16.5.2,10146,172.16.1.2,5102,27199,36297,2086,98560,65728,6,6,4,1460,234687,1,16778208,510000,82732,81284,65700,0,34752,0,666583561,63
i,1724818514.379849,172.16.5.2,10146,172.16.1.2,5102,27199,36297,2086,98560,65728,6,6,4,1460,234687,1,16778208,510000,82732,81284,65700,0,36200,0,666583561,63
o,1724818514.379849,172.16.5.2,10146,172.16.1.2,5102,27199,36297,2086,95680,65728,6,6,4,1460,233125,1,16778208,500000,82732,78388,65700,0,33304,0,666583561,63
i,1724818514.399778,172.16.5.2,10146,172.16.1.2,5102,27199,36297,2086,95680,65728,6,6,4,1460,233125,1,16778208,500000,82732,82732,65700,0,36200,0,666583561,63
o,1724818514.399847,172.16.5.2,10146,172.16.1.2,5102,27199,36297,2086,97152,65728,6,6,4,1460,234062,1,16778208,490000,82732,79836,65700,0,33304,0,666583561,63
i,1724818514.401512,172.16.5.2,10146,172.16.1.2,5102,27199,36297,2086,97152,65728,6,6,4,1460,234062,1,16778208,490000,82732,82732,65700,0,36200,0,666583561,63
o,1724818514.401548,172.16.5.2,10146,172.16.1.2,5102,27199,36297,2086,95680,65728,6,6,4,1460,231250,1,16778208,500000,82732,79836,65700,0,33304,0,666583561,63
i,1724818514.401743,172.16.5.2,10146,172.16.1.2,5102,27199,36297,2086,95680,65728,6,6,4,1460,231250,1,16778208,500000,82732,79836,65700,0,36200,0,666583561,63
o,1724818514.401760,172.16.5.2,10146,172.16.1.2,5102,27199,37757,2086,97152,65728,6,6,4,1460,228750,1,16778208,500000,82732,76940,65700,0,33304,0,666583561,63
i,1724818514.425615,172.16.5.2,10146,172.16.1.2,5102,27199,37757,2086,97152,65728,6,6,4,1460,228750,1,16778208,500000,82732,82732,65700,0,37648,0,666583561,63
o,1724818514.425690,172.16.5.2,10146,172.16.1.2,5102,27199,37757,2086,97152,65728,6,6,4,1460,230312,1,16778208,500000,82732,79836,65700,0,34752,0,666583561,63
i,1724818514.425859,172.16.5.2,10146,172.16.1.2,5102,27199,37757,2086,97152,65728,6,6,4,1460,230312,1,16778208,500000,82732,79836,65700,0,37648,0,666583561,63
o,1724818514.425875,172.16.5.2,10146,172.16.1.2,5102,27199,37757,2086,95680,65728,6,6,4,1460,227812,1,16778208,500000,82732,76940,65700,0,34752,0,666583561,63
i,1724818514.445994,172.16.5.2,10146,172.16.1.2,5102,27199,37757,2086,95680,65728,6,6,4,1460,227812,1,16778208,500000,82732,82732,65700,0,37648,0,666583561,63
o,1724818514.446061,172.16.5.2,10146,172.16.1.2,5102,27199,37757,2086,97152,65728,6,6,4,1460,228125,1,16778208,480000,82732,79836,65700,0,34752,0,666583561,63
i,1724818514.446230,172.16.5.2,10146,172.16.1.2,5102,27199,37757,2086,97152,65728,6,6,4,1460,228125,1,16778208,480000,82732,79836,65700,0,37648,0,666583561,63
o,1724818514.446250,172.16.5.2,10146,172.16.1.2,5102,27199,37757,2086,94272,65728,6,6,4,1460,228437,1,16778208,470000,82732,76940,65700,0,34752,0,666583561,63
i,1724818514.446402,172.16.5.2,10146,172.16.1.2,5102,27199,37757,2086,94272,65728,6,6,4,1460,228437,1,16778208,470000,82732,76940,65700,0,37648,0,666583561,63
o,1724818514.446423,172.16.5.2,10146,172.16.1.2,5102,27199,37757,2086,97152,65728,6,6,4,1460,227500,1,16778208,470000,82732,74044,65700,0,34752,0,666583561,63
o,1724818514.446555,172.16.5.2,10146,172.16.1.2,5102,27199,37757,2086,97152,65728,6,6,4,1460,227500,1,16778208,470000,82732,74044,65700,0,36200,0,666583561,63
i,1724818514.446729,172.16.5.2,10146,172.16.1.2,5102,27199,37757,2086,97152,65728,6,6,4,1460,227500,1,16778208,470000,90924,74044,65700,0,37648,0,666583561,63
o,1724818514.446749,172.16.5.2,10146,172.16.1.2,5102,27199,37757,2086,94272,65728,6,6,4,1460,226562,1,16778208,460000,90924,71148,65700,0,34752,0,666583561,63
i,1724818514.447744,172.16.5.2,10146,172.16.1.2,5102,27199,37757,2086,94272,65728,6,6,4,1460,226562,1,16778208,460000,90924,90924,65700,0,37648,0,666583561,63
o,1724818514.447812,172.16.5.2,10146,172.16.1.2,5102,27199,37757,2086,97152,65728,6,6,4,1460,225937,1,16778208,460000,90924,88028,65700,0,34752,0,666583561,63
i,1724818514.465945,172.16.5.2,10146,172.16.1.2,5102,27199,37757,2086,97152,65728,6,6,4,1460,225937,1,16778208,460000,90924,90924,65700,0,37648,0,666583561,63
o,1724818514.466038,172.16.5.2,10146,172.16.1.2,5102,27199,37757,2086,95680,65728,6,6,4,1460,221562,1,16778208,480000,90924,88028,65700,0,34752,0,666583561,63
i,1724818514.575926,172.16.5.2,10146,172.16.1.2,5102,27199,37757,2086,95680,65728,6,6,4,1460,221562,1,16778208,480000,90924,90924,65700,0,37648,0,666583561,63
o,1724818514.576018,172.16.5.2,10146,172.16.1.2,5102,27199,37757,2086,97152,65728,6,6,4,1460,224062,1,16778208,490000,90924,88028,65700,0,34752,0,666583561,63
i,1724818514.595000,172.16.5.2,10146,172.16.1.2,5102,27199,37757,2086,97152,65728,6,6,4,1460,224062,1,16778208,490000,90924,90924,65700,0,37648,0,666583561,63
o,1724818514.595022,172.16.5.2,10146,172.16.1.2,5102,27199,37757,2086,97152,65728,6,6,4,1460,223750,1,16778208,470000,90924,88028,65700,0,34752,0,666583561,63
i,1724818514.595254,172.16.5.2,10146,172.16.1.2,5102,27199,37757,2086,97152,65728,6,6,4,1460,223750,1,16778208,470000,90924,88028,65700,0,37648,0,666583561,63
o,1724818514.595270,172.16.5.2,10146,172.16.1.2,5102,27199,37757,2086,94272,65728,6,6,4,1460,220937,1,16778208,480000,90924,85132,65700,0,34752,0,666583561,63
i,1724818514.595393,172.16.5.2,10146,172.16.1.2,5102,27199,37757,2086,94272,65728,6,6,4,1460,220937,1,16778208,480000,90924,85132,65700,0,37648,0,666583561,63
o,1724818514.595409,172.16.5.2,10146,172.16.1.2,5102,27199,37757,2086,97152,65728,6,6,4,1460,218437,1,16778208,480000,90924,82236,65700,0,34752,0,666583561,63
i,1724818514.597432,172.16.5.2,10146,172.16.1.2,5102,27199,37757,2086,97152,65728,6,6,4,1460,218437,1,16778208,480000,90924,90924,65700,0,37648,0,666583561,63
o,1724818514.597455,172.16.5.2,10146,172.16.1.2,5102,27199,39217,2086,97152,65728,6,6,4,1460,216250,1,16778208,480000,90924,88028,65700,0,34752,0,666583561,63
i,1724818514.624256,172.16.5.2,10146,172.16.1.2,5102,27199,39217,2086,97152,65728,6,6,4,1460,216250,1,16778208,480000,90924,90924,65700,0,39096,0,666583561,63
o,1724818514.624256,172.16.5.2,10146,172.16.1.2,5102,27199,39217,2086,95680,65728,6,6,4,1460,214375,1,16778208,480000,90924,88028,65700,0,36200,0,666583561,63
i,1724818514.624256,172.16.5.2,10146,172.16.1.2,5102,27199,39217,2086,95680,65728,6,6,4,1460,214375,1,16778208,480000,90924,88028,65700,0,39096,0,666583561,63
o,1724818514.625416,172.16.5.2,10146,172.16.1.2,5102,27199,39217,2086,97152,65728,6,6,4,1460,212812,1,16778208,470000,90924,85132,65700,0,36200,0,666583561,63
i,1724818514.658217,172.16.5.2,10146,172.16.1.2,5102,27199,39217,2086,97152,65728,6,6,4,1460,212812,1,16778208,470000,90924,90924,65700,0,39096,0,666583561,63
o,1724818514.658241,172.16.5.2,10146,172.16.1.2,5102,27199,39217,2086,95680,65728,6,6,4,1460,212500,1,16778208,460000,90924,88028,65700,0,36200,0,666583561,63
i,1724818514.658365,172.16.5.2,10146,172.16.1.2,5102,27199,39217,2086,95680,65728,6,6,4,1460,212500,1,16778208,460000,90924,88028,65700,0,39096,0,666583561,63
o,1724818514.658381,172.16.5.2,10146,172.16.1.2,5102,27199,39217,2086,95680,65728,6,6,4,1460,212187,1,16778208,450000,90924,85132,65700,0,36200,0,666583561,63
i,1724818514.658515,172.16.5.2,10146,172.16.1.2,5102,27199,39217,2086,95680,65728,6,6,4,1460,212187,1,16778208,450000,90924,85132,65700,0,39096,0,666583561,63
o,1724818514.658532,172.16.5.2,10146,172.16.1.2,5102,27199,39217,2086,97152,65728,6,6,4,1460,212187,1,16778208,440000,90924,82236,65700,0,36200,0,666583561,63
o,1724818514.658632,172.16.5.2,10146,172.16.1.2,5102,27199,39217,2086,97152,65728,6,6,4,1460,212187,1,16778208,440000,90924,82236,65700,0,37648,0,666583561,63
i,1724818514.658765,172.16.5.2,10146,172.16.1.2,5102,27199,39217,2086,97152,65728,6,6,4,1460,212187,1,16778208,440000,90924,82236,65700,0,39096,0,666583561,63
o,1724818514.658780,172.16.5.2,10146,172.16.1.2,5102,27199,39217,2086,97152,65728,6,6,4,1460,212187,1,16778208,430000,90924,79340,65700,0,36200,0,666583561,63
i,1724818514.658928,172.16.5.2,10146,172.16.1.2,5102,27199,39217,2086,97152,65728,6,6,4,1460,212187,1,16778208,430000,90924,79340,65700,0,39096,0,666583561,63
o,1724818514.658943,172.16.5.2,10146,172.16.1.2,5102,27199,39217,2086,95680,65728,6,6,4,1460,212187,1,16778208,430000,90924,76444,65700,0,36200,0,666583561,63
i,1724818514.679884,172.16.5.2,10146,172.16.1.2,5102,27199,39217,2086,95680,65728,6,6,4,1460,212187,1,16778208,430000,90924,90924,65700,0,39096,0,666583561,63
o,1724818514.680029,172.16.5.2,10146,172.16.1.2,5102,27199,39217,2086,95680,65728,6,6,4,1460,212187,1,16778208,420000,90924,88028,65700,0,36200,0,666583561,63
i,1724818514.781316,172.16.5.2,10146,172.16.1.2,5102,27199,39217,2086,95680,65728,6,6,4,1460,212187,1,16778208,420000,90924,90924,65700,0,39096,0,666583561,63
o,1724818514.781410,172.16.5.2,10146,172.16.1.2,5102,27199,39217,2086,95680,65728,6,6,4,1460,210937,1,16778208,430000,90924,88028,65700,0,36200,0,666583561,63
i,1724818514.799221,172.16.5.2,10146,172.16.1.2,5102,27199,39217,2086,95680,65728,6,6,4,1460,210937,1,16778208,430000,90924,90924,65700,0,39096,0,666583561,63
o,1724818514.799290,172.16.5.2,10146,172.16.1.2,5102,27199,39217,2086,97152,65728,6,6,4,1460,209687,1,16778208,430000,90924,88028,65700,0,36200,0,666583561,63
i,1724818514.799441,172.16.5.2,10146,172.16.1.2,5102,27199,39217,2086,97152,65728,6,6,4,1460,209687,1,16778208,430000,90924,88028,65700,0,39096,0,666583561,63
o,1724818514.799463,172.16.5.2,10146,172.16.1.2,5102,27199,39217,2086,94272,65728,6,6,4,1460,208750,1,16778208,430000,90924,85132,65700,0,36200,0,666583561,63
i,1724818514.828210,172.16.5.2,10146,172.16.1.2,5102,27199,39217,2086,94272,65728,6,6,4,1460,208750,1,16778208,430000,90924,90924,65700,0,39096,0,666583561,63
o,1724818514.828234,172.16.5.2,10146,172.16.1.2,5102,27199,39217,2086,97152,65728,6,6,4,1460,211562,1,16778208,450000,90924,88028,65700,0,36200,0,666583561,63
i,1724818514.828381,172.16.5.2,10146,172.16.1.2,5102,27199,39217,2086,97152,65728,6,6,4,1460,211562,1,16778208,450000,90924,88028,65700,0,39096,0,666583561,63
o,1724818514.828401,172.16.5.2,10146,172.16.1.2,5102,27199,39217,2086,97152,65728,6,6,4,1460,214062,1,16778208,460000,90924,85132,65700,0,36200,0,666583561,63
i,1724818514.828603,172.16.5.2,10146,172.16.1.2,5102,27199,39217,2086,97152,65728,6,6,4,1460,214062,1,16778208,460000,90924,85132,65700,0,39096,0,666583561,63
o,1724818514.828627,172.16.5.2,10146,172.16.1.2,5102,27199,40677,2086,97152,65728,6,6,4,1460,216250,1,16778208,470000,90924,82236,65700,0,36200,0,666583561,63
i,1724818514.848977,172.16.5.2,10146,172.16.1.2,5102,27199,40677,2086,97152,65728,6,6,4,1460,216250,1,16778208,470000,90924,90924,65700,0,40544,0,666583561,63
o,1724818514.849011,172.16.5.2,10146,172.16.1.2,5102,27199,40677,2086,97152,65728,6,6,4,1460,216875,1,16778208,460000,90924,88028,65700,0,37648,0,666583561,63
i,1724818514.849167,172.16.5.2,10146,172.16.1.2,5102,27199,40677,2086,97152,65728,6,6,4,1460,216875,1,16778208,460000,90924,88028,65700,0,40544,0,666583561,63
o,1724818514.849189,172.16.5.2,10146,172.16.1.2,5102,27199,40677,2086,97152,65728,6,6,4,1460,217500,1,16778208,460000,90924,85132,65700,0,37648,0,666583561,63
i,1724818514.849366,172.16.5.2,10146,172.16.1.2,5102,27199,40677,2086,97152,65728,6,6,4,1460,217500,1,16778208,460000,90924,85132,65700,0,40544,0,666583561,63
o,1724818514.849388,172.16.5.2,10146,172.16.1.2,5102,27199,40677,2086,97152,65728,6,6,4,1460,214062,1,16778208,470000,90924,82236,65700,0,37648,0,666583561,63
i,1724818514.849623,172.16.5.2,10146,172.16.1.2,5102,27199,40677,2086,97152,65728,6,6,4,1460,214062,1,16778208,470000,90924,82236,65700,0,40544,0,666583561,63
o,1724818514.849643,172.16.5.2,10146,172.16.1.2,5102,27199,40677,2086,97152,65728,6,6,4,1460,211250,1,16778208,470000,90924,79340,65700,0,37648,0,666583561,63
o,1724818514.849910,172.16.5.2,10146,172.16.1.2,5102,27199,40677,2086,97152,65728,6,6,4,1460,211250,1,16778208,470000,90924,79340,65700,0,39096,0,666583561,63
i,1724818514.850811,172.16.5.2,10146,172.16.1.2,5102,27199,40677,2086,97152,65728,6,6,4,1460,211250,1,16778208,470000,90924,79340,65700,0,40544,0,666583561,63
o,1724818514.850835,172.16.5.2,10146,172.16.1.2,5102,27199,40677,2086,97152,65728,6,6,4,1460,208750,1,16778208,480000,90924,76444,65700,0,37648,0,666583561,63
i,1724818514.850994,172.16.5.2,10146,172.16.1.2,5102,27199,40677,2086,97152,65728,6,6,4,1460,208750,1,16778208,480000,90924,76444,65700,0,40544,0,666583561,63
o,1724818514.851015,172.16.5.2,10146,172.16.1.2,5102,27199,40677,2086,94272,65728,6,6,4,1460,206562,1,16778208,470000,90924,73548,65700,0,37648,0,666583561,63
i,1724818514.901263,172.16.5.2,10146,172.16.1.2,5102,27199,40677,2086,94272,65728,6,6,4,1460,206562,1,16778208,470000,90924,90924,65700,0,40544,0,666583561,63
o,1724818514.901301,172.16.5.2,10146,172.16.1.2,5102,27199,40677,2086,97152,65728,6,6,4,1460,210937,1,16778208,500000,90924,88028,65700,0,37648,0,666583561,63
i,1724818514.925015,172.16.5.2,10146,172.16.1.2,5102,27199,40677,2086,97152,65728,6,6,4,1460,210937,1,16778208,500000,90924,90924,65700,0,40544,0,666583561,63
o,1724818514.925090,172.16.5.2,10146,172.16.1.2,5102,27199,40677,2086,98560,65728,6,6,4,1460,215937,1,16778208,520000,90924,89476,65700,0,39096,0,666583561,63
i,1724818515.012174,172.16.5.2,10146,172.16.1.2,5102,27199,40677,2086,98560,65728,6,6,4,1460,215937,1,16778208,520000,90924,89476,65700,0,40544,0,666583561,63
o,1724818515.012262,172.16.5.2,10146,172.16.1.2,5102,27199,40677,2086,97152,65728,6,6,4,1460,217812,1,16778208,510000,90924,86580,65700,0,37648,0,666583561,63
i,1724818515.013811,172.16.5.2,10146,172.16.1.2,5102,27199,40677,2086,97152,65728,6,6,4,1460,217812,1,16778208,510000,90924,90924,65700,0,40544,0,666583561,63
o,1724818515.013831,172.16.5.2,10146,172.16.1.2,5102,27199,40677,2086,95680,65728,6,6,4,1460,216875,1,16778208,490000,90924,88028,65700,0,37648,0,666583561,63
i,1724818515.013970,172.16.5.2,10146,172.16.1.2,5102,27199,40677,2086,95680,65728,6,6,4,1460,216875,1,16778208,490000,90924,88028,65700,0,40544,0,666583561,63
o,1724818515.013987,172.16.5.2,10146,172.16.1.2,5102,27199,40677,2086,92800,65728,6,6,4,1460,216250,1,16778208,480000,90924,85132,65700,0,37648,0,666583561,63
i,1724818515.015022,172.16.5.2,10146,172.16.1.2,5102,27199,40677,2086,92800,65728,6,6,4,1460,216250,1,16778208,480000,90924,90924,65700,0,40544,0,666583561,63
o,1724818515.015041,172.16.5.2,10146,172.16.1.2,5102,27199,40677,2086,95680,65728,6,6,4,1460,211875,1,16778208,490000,90924,88028,65700,0,37648,0,666583561,63
i,1724818515.040579,172.16.5.2,10146,172.16.1.2,5102,27199,40677,2086,95680,65728,6,6,4,1460,211875,1,16778208,490000,90924,90924,65700,0,40544,0,666583561,63
o,1724818515.040597,172.16.5.2,10146,172.16.1.2,5102,27199,40677,2086,95680,65728,6,6,4,1460,211875,1,16778208,470000,90924,88028,65700,0,37648,0,666583561,63
i,1724818515.040712,172.16.5.2,10146,172.16.1.2,5102,27199,40677,2086,95680,65728,6,6,4,1460,211875,1,16778208,470000,90924,88028,65700,0,40544,0,666583561,63
o,1724818515.040728,172.16.5.2,10146,172.16.1.2,5102,27199,42137,2086,97152,65728,6,6,4,1460,211875,1,16778208,460000,90924,85132,65700,0,37648,0,666583561,63
i,1724818515.040883,172.16.5.2,10146,172.16.1.2,5102,27199,42137,2086,97152,65728,6,6,4,1460,211875,1,16778208,460000,90924,85132,65700,0,41992,0,666583561,63
o,1724818515.040900,172.16.5.2,10146,172.16.1.2,5102,27199,42137,2086,97152,65728,6,6,4,1460,211875,1,16778208,450000,90924,82236,65700,0,39096,0,666583561,63
i,1724818515.042251,172.16.5.2,10146,172.16.1.2,5102,27199,42137,2086,97152,65728,6,6,4,1460,211875,1,16778208,450000,99116,99116,65700,0,41992,0,666583561,63
o,1724818515.042292,172.16.5.2,10146,172.16.1.2,5102,27199,42137,2086,95680,65728,6,6,4,1460,209375,1,16778208,450000,99116,96220,65700,0,39096,0,666583561,63
i,1724818515.067411,172.16.5.2,10146,172.16.1.2,5102,27199,42137,2086,95680,65728,6,6,4,1460,209375,1,16778208,450000,99116,99116,65700,0,41992,0,666583561,63
o,1724818515.067434,172.16.5.2,10146,172.16.1.2,5102,27199,42137,2086,97152,65728,6,6,4,1460,210937,1,16778208,460000,99116,96220,65700,0,39096,0,666583561,63
i,1724818515.067581,172.16.5.2,10146,172.16.1.2,5102,27199,42137,2086,97152,65728,6,6,4,1460,210937,1,16778208,460000,99116,96220,65700,0,41992,0,666583561,63
o,1724818515.067599,172.16.5.2,10146,172.16.1.2,5102,27199,42137,2086,94272,65728,6,6,4,1460,212187,1,16778208,450000,99116,93324,65700,0,39096,0,666583561,63
o,1724818515.067724,172.16.5.2,10146,172.16.1.2,5102,27199,42137,2086,94272,65728,6,6,4,1460,212187,1,16778208,450000,99116,93324,65700,0,40544,0,666583561,63
i,1724818515.067871,172.16.5.2,10146,172.16.1.2,5102,27199,42137,2086,94272,65728,6,6,4,1460,212187,1,16778208,450000,99116,93324,65700,0,41992,0,666583561,63
o,1724818515.067895,172.16.5.2,10146,172.16.1.2,5102,27199,42137,2086,95680,65728,6,6,4,1460,213437,1,16778208,460000,99116,90428,65700,0,39096,0,666583561,63
i,1724818515.068080,172.16.5.2,10146,172.16.1.2,5102,27199,42137,2086,95680,65728,6,6,4,1460,213437,1,16778208,460000,99116,90428,65700,0,41992,0,666583561,63
o,1724818515.068095,172.16.5.2,10146,172.16.1.2,5102,27199,42137,2086,95680,65728,6,6,4,1460,214375,1,16778208,450000,99116,87532,65700,0,39096,0,666583561,63
i,1724818515.097298,172.16.5.2,10146,172.16.1.2,5102,27199,42137,2086,95680,65728,6,6,4,1460,214375,1,16778208,450000,99116,99116,65700,0,41992,0,666583561,63
o,1724818515.097327,172.16.5.2,10146,172.16.1.2,5102,27199,42137,2086,97152,65728,6,6,4,1460,219062,1,16778208,490000,99116,96220,65700,0,39096,0,666583561,63
i,1724818515.108425,172.16.5.2,10146,172.16.1.2,5102,27199,42137,2086,97152,65728,6,6,4,1460,219062,1,16778208,490000,99116,99116,65700,0,41992,0,666583561,63
o,1724818515.108452,172.16.5.2,10146,172.16.1.2,5102,27199,42137,2086,146432,65728,6,6,4,1460,218125,1,16778208,480000,99116,96220,65700,0,39096,0,666583561,63
i,1724818515.209126,172.16.5.2,10146,172.16.1.2,5102,27199,42137,2086,146432,65728,6,6,4,1460,218125,1,16778208,480000,99116,99116,65700,0,41992,0,666583561,63
o,1724818515.209163,172.16.5.2,10146,172.16.1.2,5102,27199,42137,2086,146432,65728,6,6,4,1460,215937,1,16778208,480000,99116,96220,65700,0,39096,0,666583561,63
i,1724818515.209370,172.16.5.2,10146,172.16.1.2,5102,27199,42137,2086,146432,65728,6,6,4,1460,215937,1,16778208,480000,99116,96220,65700,0,41992,0,666583561,63
o,1724818515.209410,172.16.5.2,10146,172.16.1.2,5102,27199,42137,2086,144960,65728,6,6,4,1460,212812,1,16778208,480000,99116,93324,65700,0,39096,0,666583561,63
i,1724818515.238357,172.16.5.2,10146,172.16.1.2,5102,27199,42137,2086,144960,65728,6,6,4,1460,212812,1,16778208,480000,99116,99116,65700,0,41992,0,666583561,63
o,1724818515.238377,172.16.5.2,10146,172.16.1.2,5102,27199,42137,2086,144960,65728,6,6,4,1460,213750,1,16778208,470000,99116,96220,65700,0,39096,0,666583561,63
i,1724818515.238589,172.16.5.2,10146,172.16.1.2,5102,27199,42137,2086,144960,65728,6,6,4,1460,213750,1,16778208,470000,99116,96220,65700,0,41992,0,666583561,63
o,1724818515.238605,172.16.5.2,10146,172.16.1.2,5102,27199,42137,2086,142080,65728,6,6,4,1460,214687,1,16778208,470000,99116,93324,65700,0,39096,0,666583561,63
i,1724818515.238736,172.16.5.2,10146,172.16.1.2,5102,27199,42137,2086,142080,65728,6,6,4,1460,214687,1,16778208,470000,99116,93324,65700,0,41992,0,666583561,63
o,1724818515.238751,172.16.5.2,10146,172.16.1.2,5102,27199,42137,2086,144960,65728,6,6,4,1460,213125,1,16778208,470000,99116,90428,65700,0,39096,0,666583561,63
i,1724818515.238886,172.16.5.2,10146,172.16.1.2,5102,27199,42137,2086,144960,65728,6,6,4,1460,213125,1,16778208,470000,99116,90428,65700,0,41992,0,666583561,63
