enable_time_secs=1724819728	enable_time_usecs=881930	siftrver=1.3.0	sysname=FreeBSD	sysver=1401000	ipmode=4
o,1724819728.882165,10.0.2.15,22,10.0.2.2,51102,1073725440,17746,1026,65535,65700,0,0,4,1460,312,0,16777220,240000,33580,60,65700,0,0,0,28524594,63
o,1724819728.882233,10.0.2.15,22,10.0.2.2,51102,1073725440,17746,1026,65535,65700,0,0,4,1460,312,0,16777220,240000,33580,208,65700,0,60,0,28524594,63
o,1724819728.882233,10.0.2.15,22,10.0.2.2,51102,1073725440,17746,1026,65535,65700,0,0,4,1460,312,0,16777220,240000,33580,280,65700,0,208,0,28524594,63
i,1724819728.882884,10.0.2.15,22,10.0.2.2,51102,1073725440,17746,1026,65535,65700,0,0,4,1460,312,0,16777220,240000,33580,280,65700,0,280,0,28524594,63
i,1724819728.882911,10.0.2.15,22,10.0.2.2,51102,1073725440,17806,1026,65535,65700,0,0,4,1460,312,0,4,240000,33580,220,65700,0,220,0,28524594,63
i,1724819728.883876,10.0.2.15,22,10.0.2.2,51102,1073725440,17954,1026,65535,65700,0,0,4,1460,312,0,4,240000,33580,72,65700,0,72,0,28524594,63
i,1724819728.883894,10.0.2.15,22,10.0.2.2,51102,1073725440,18026,1026,65535,65700,0,0,4,1460,312,0,4,240000,33580,0,65700,0,0,0,28524594,63
i,1724819728.883911,10.0.2.15,22,10.0.2.2,51102,1073725440,18026,1026,65535,65700,0,0,4,1460,312,0,4,240000,33580,0,65700,96,0,0,28524594,63
o,1724819728.883948,10.0.2.15,22,10.0.2.2,51102,1073725440,18026,1026,65535,65604,0,0,5,1460,312,0,5,240000,33580,0,65700,96,0,0,28524594,63
o,1724819728.884920,10.0.2.15,22,10.0.2.2,51102,1073725440,18026,1026,65535,65604,0,0,8,1460,312,0,4,240000,33580,0,65700,0,0,0,28524594,63
i,1724819728.885594,10.0.2.15,22,10.0.2.2,51102,1073725440,18026,1026,65535,65604,0,0,8,1460,312,0,67108884,240000,33580,0,65700,0,1,0,28524594,63
i,1724819732.028982,10.0.2.15,22,10.0.2.2,51142,1073725440,14600,0,65535,65700,0,0,4,1460,312,0,16777216,270000,33580,0,65700,0,0,0,1158882219,63
o,1724819732.037737,10.0.2.15,22,10.0.2.2,51142,1073725440,14600,1026,65535,65700,0,0,4,1460,312,0,16777216,270000,33580,38,65700,42,0,0,1158882219,63
i,1724819732.038353,10.0.2.15,22,10.0.2.2,51142,1073725440,14600,1026,65535,65700,0,0,4,1460,312,0,16777216,270000,33580,38,65700,0,38,0,1158882219,63
i,1724819732.038902,10.0.2.15,22,10.0.2.2,51142,1073725440,14638,1026,65535,65700,0,0,4,1460,312,0,0,230000,33580,0,65700,0,0,0,1158882219,63
i,1724819732.038921,10.0.2.15,22,10.0.2.2,51142,1073725440,14638,1026,65535,65700,0,0,4,1460,312,0,0,230000,33580,0,65700,1460,0,0,1158882219,63
o,1724819732.038941,10.0.2.15,22,10.0.2.2,51142,1073725440,14638,1026,65535,65700,0,0,4,1460,312,0,1,230000,33580,0,65700,1536,0,0,1158882219,63
o,1724819732.039210,10.0.2.15,22,10.0.2.2,51142,1073725440,14638,1026,65535,65700,0,0,4,1460,312,0,16777216,230000,33580,1120,65700,1536,0,0,1158882219,63
i,1724819732.040215,10.0.2.15,22,10.0.2.2,51142,1073725440,14638,1026,65535,65700,0,0,4,1460,312,0,16777216,230000,33580,1120,65700,0,1120,0,1158882219,63
i,1724819732.041490,10.0.2.15,22,10.0.2.2,51142,1073725440,15758,1026,65535,65700,0,0,4,1460,312,0,0,240000,33580,0,65700,0,0,0,1158882219,63
o,1724819732.044262,10.0.2.15,22,10.0.2.2,51142,1073725440,15758,1026,65535,65700,0,0,4,1460,312,0,16777216,240000,33580,492,65700,0,0,0,1158882219,63
i,1724819732.045169,10.0.2.15,22,10.0.2.2,51142,1073725440,15758,1026,65535,65700,0,0,4,1460,312,0,16777216,240000,33580,492,65700,0,492,0,1158882219,63
i,1724819732.049197,10.0.2.15,22,10.0.2.2,51142,1073725440,16250,1026,65535,65700,0,0,4,1460,312,0,0,240000,33580,0,65700,0,0,0,1158882219,63
i,1724819732.049217,10.0.2.15,22,10.0.2.2,51142,1073725440,16250,1026,65535,65700,0,0,4,1460,312,0,0,240000,33580,0,65700,16,0,0,1158882219,63
o,1724819732.049234,10.0.2.15,22,10.0.2.2,51142,1073725440,16250,1026,65535,65700,0,0,4,1460,312,0,1,240000,33580,0,65700,60,0,0,1158882219,63
o,1724819732.049397,10.0.2.15,22,10.0.2.2,51142,1073725440,16250,1026,65535,65700,0,0,4,1460,312,0,16777216,240000,33580,44,65700,0,0,0,1158882219,63
i,1724819732.050254,10.0.2.15,22,10.0.2.2,51142,1073725440,16250,1026,65535,65700,0,0,4,1460,312,0,16777216,240000,33580,44,65700,0,44,0,1158882219,63
i,1724819732.050273,10.0.2.15,22,10.0.2.2,51142,1073725440,16294,1026,65535,65700,0,0,4,1460,312,0,0,240000,33580,0,65700,0,0,0,1158882219,63
o,1724819732.052867,10.0.2.15,22,10.0.2.2,51142,1073725440,16294,1026,65535,65700,0,0,4,1460,312,0,16777216,240000,33580,68,65700,0,0,0,1158882219,63
i,1724819732.053474,10.0.2.15,22,10.0.2.2,51142,1073725440,16294,1026,65535,65700,0,0,4,1460,312,0,16777216,240000,33580,68,65700,0,68,0,1158882219,63
i,1724819732.053491,10.0.2.15,22,10.0.2.2,51142,1073725440,16362,1026,65535,65700,0,0,4,1460,312,0,0,230000,33580,0,65700,0,0,0,1158882219,63
o,1724819732.054757,10.0.2.15,22,10.0.2.2,51142,1073725440,16362,1026,65535,65700,0,0,4,1460,312,0,16777216,230000,33580,332,65700,0,0,0,1158882219,63
i,1724819732.056044,10.0.2.15,22,10.0.2.2,51142,1073725440,16362,1026,65535,65700,0,0,4,1460,312,0,16777216,230000,33580,332,65700,0,332,0,1158882219,63
i,1724819732.056890,10.0.2.15,22,10.0.2.2,51142,1073725440,16694,1026,65535,65700,0,0,4,1460,312,0,0,230000,33580,0,65700,0,0,0,1158882219,63
o,1724819732.074269,10.0.2.15,22,10.0.2.2,51142,1073725440,16694,1026,65535,65700,0,0,4,1460,312,0,16777216,230000,33580,28,65700,0,0,0,1158882219,63
i,1724819732.074801,10.0.2.15,22,10.0.2.2,51142,1073725440,16694,1026,65535,65700,0,0,4,1460,312,0,16777216,230000,33580,28,65700,0,28,0,1158882219,63
i,1724819732.074801,10.0.2.15,22,10.0.2.2,51142,1073725440,16722,1026,65535,65700,0,0,4,1460,312,0,0,230000,33580,0,65700,0,0,0,1158882219,63
o,1724819732.076168,10.0.2.15,22,10.0.2.2,51142,1073725440,16722,1026,65535,65700,0,0,4,1460,312,0,16777216,230000,33580,768,65700,112,0,0,1158882219,63
i,1724819732.076945,10.0.2.15,22,10.0.2.2,51142,1073725440,16722,1026,65535,65700,0,0,4,1460,312,0,16777216,230000,33580,908,65700,112,768,0,1158882219,63
o,1724819732.076963,10.0.2.15,22,10.0.2.2,51142,1073725440,17490,1026,65535,65700,0,0,4,1460,312,0,16777216,230000,33580,140,65700,112,0,0,1158882219,63
i,1724819732.077831,10.0.2.15,22,10.0.2.2,51142,1073725440,17490,1026,65535,65700,0,0,4,1460,312,0,16777216,230000,33580,184,65700,0,140,0,1158882219,63
o,1724819732.077858,10.0.2.15,22,10.0.2.2,51142,1073725440,17630,1026,65535,65700,0,0,4,1460,312,0,16777216,240000,33580,44,65700,0,0,0,1158882219,63
i,1724819732.078585,10.0.2.15,22,10.0.2.2,51142,1073725440,17630,1026,65535,65700,0,0,4,1460,312,0,16777216,240000,33580,44,65700,0,44,0,1158882219,63
i,1724819732.078783,10.0.2.15,22,10.0.2.2,51142,1073725440,17674,1026,65535,65700,0,0,4,1460,312,0,0,240000,33580,0,65700,0,0,0,1158882219,63
o,1724819732.079225,10.0.2.15,22,10.0.2.2,51142,1073725440,17674,1026,65535,65700,0,0,4,1460,312,0,16777220,240000,33580,72,65700,0,0,0,1158882219,63
i,1724819732.080067,10.0.2.15,22,10.0.2.2,51142,1073725440,17674,1026,65535,65700,0,0,4,1460,312,0,16777220,240000,33580,72,65700,0,72,0,1158882219,63
o,1724819732.082382,10.0.2.15,22,10.0.2.2,51142,1073725440,17746,1026,65535,65700,0,0,4,1460,312,0,16777220,240000,33580,104,65700,0,0,0,1158882219,63
i,1724819732.082919,10.0.2.15,22,10.0.2.2,51142,1073725440,17746,1026,65535,65700,0,0,4,1460,312,0,16777220,240000,33580,104,65700,0,104,0,1158882219,63
o,1724819732.092969,10.0.2.15,22,10.0.2.2,51142,1073725440,17850,1026,65535,65700,0,0,4,1460,312,0,16777220,240000,33580,72,65700,0,0,0,1158882219,63
i,1724819732.093935,10.0.2.15,22,10.0.2.2,51142,1073725440,17850,1026,65535,65700,0,0,4,1460,312,0,16777220,240000,33580,72,65700,0,72,0,1158882219,63
i,1724819732.093955,10.0.2.15,22,10.0.2.2,51142,1073725440,17922,1026,65535,65700,0,0,4,1460,312,0,4,230000,33580,0,65700,0,0,0,1158882219,63
i,1724819732.093973,10.0.2.15,22,10.0.2.2,51142,1073725440,17922,1026,65535,65700,0,0,4,1460,312,0,4,230000,33580,0,65700,96,0,0,1158882219,63
o,1724819732.093992,10.0.2.15,22,10.0.2.2,51142,1073725440,17922,1026,65535,65604,0,0,5,1460,312,0,5,230000,33580,0,65700,96,0,0,1158882219,63
o,1724819732.095119,10.0.2.15,22,10.0.2.2,51142,1073725440,17922,1026,65535,65604,0,0,8,1460,312,0,4,230000,33580,0,65700,0,0,0,1158882219,63
i,1724819732.095491,10.0.2.15,22,10.0.2.2,51142,1073725440,17922,1026,65535,65604,0,0,8,1460,312,0,67108884,230000,33580,0,65700,0,1,0,1158882219,63
i,1724819733.133488,10.0.2.15,22,10.0.2.2,51152,1073725440,14600,0,65535,65700,0,0,4,1460,312,0,16777216,260000,33580,0,65700,0,0,0,1469230540,63
o,1724819733.144417,10.0.2.15,22,10.0.2.2,51152,1073725440,14600,1026,65535,65700,0,0,4,1460,312,0,16777216,260000,33580,38,65700,42,0,0,1469230540,63
i,1724819733.145264,10.0.2.15,22,10.0.2.2,51152,1073725440,14600,1026,65535,65700,0,0,4,1460,312,0,16777216,260000,33580,38,65700,0,38,0,1469230540,63
i,1724819733.145287,10.0.2.15,22,10.0.2.2,51152,1073725440,14638,1026,65535,65700,0,0,4,1460,312,0,0,230000,33580,0,65700,0,0,0,1469230540,63
i,1724819733.145302,10.0.2.15,22,10.0.2.2,51152,1073725440,14638,1026,65535,65700,0,0,4,1460,312,0,0,230000,33580,0,65700,1460,0,0,1469230540,63
o,1724819733.145320,10.0.2.15,22,10.0.2.2,51152,1073725440,14638,1026,65535,65700,0,0,4,1460,312,0,1,230000,33580,0,65700,1536,0,0,1469230540,63
o,1724819733.147045,10.0.2.15,22,10.0.2.2,51152,1073725440,14638,1026,65535,65700,0,0,4,1460,312,0,16777216,230000,33580,1120,65700,1536,0,0,1469230540,63
i,1724819733.147929,10.0.2.15,22,10.0.2.2,51152,1073725440,14638,1026,65535,65700,0,0,4,1460,312,0,16777216,230000,33580,1120,65700,0,1120,0,1469230540,63
i,1724819733.148970,10.0.2.15,22,10.0.2.2,51152,1073725440,15758,1026,65535,65700,0,0,4,1460,312,0,0,230000,33580,0,65700,0,0,0,1469230540,63
o,1724819733.152065,10.0.2.15,22,10.0.2.2,51152,1073725440,15758,1026,65535,65700,0,0,4,1460,312,0,16777216,230000,33580,492,65700,0,0,0,1469230540,63
i,1724819733.152845,10.0.2.15,22,10.0.2.2,51152,1073725440,15758,1026,65535,65700,0,0,4,1460,312,0,16777216,230000,33580,492,65700,0,492,0,1469230540,63
i,1724819733.156698,10.0.2.15,22,10.0.2.2,51152,1073725440,16250,1026,65535,65700,0,0,4,1460,312,0,0,240000,33580,0,65700,0,0,0,1469230540,63
i,1724819733.156719,10.0.2.15,22,10.0.2.2,51152,1073725440,16250,1026,65535,65700,0,0,4,1460,312,0,0,240000,33580,0,65700,16,0,0,1469230540,63
o,1724819733.156737,10.0.2.15,22,10.0.2.2,51152,1073725440,16250,1026,65535,65700,0,0,4,1460,312,0,1,240000,33580,0,65700,60,0,0,1469230540,63
o,1724819733.156918,10.0.2.15,22,10.0.2.2,51152,1073725440,16250,1026,65535,65700,0,0,4,1460,312,0,16777216,240000,33580,44,65700,0,0,0,1469230540,63
i,1724819733.158003,10.0.2.15,22,10.0.2.2,51152,1073725440,16250,1026,65535,65700,0,0,4,1460,312,0,16777216,240000,33580,44,65700,0,44,0,1469230540,63
i,1724819733.158026,10.0.2.15,22,10.0.2.2,51152,1073725440,16294,1026,65535,65700,0,0,4,1460,312,0,0,240000,33580,0,65700,0,0,0,1469230540,63
o,1724819733.159356,10.0.2.15,22,10.0.2.2,51152,1073725440,16294,1026,65535,65700,0,0,4,1460,312,0,16777216,240000,33580,68,65700,0,0,0,1469230540,63
i,1724819733.159868,10.0.2.15,22,10.0.2.2,51152,1073725440,16294,1026,65535,65700,0,0,4,1460,312,0,16777216,240000,33580,68,65700,0,68,0,1469230540,63
i,1724819733.159885,10.0.2.15,22,10.0.2.2,51152,1073725440,16362,1026,65535,65700,0,0,4,1460,312,0,0,240000,33580,0,65700,0,0,0,1469230540,63
o,1724819733.161439,10.0.2.15,22,10.0.2.2,51152,1073725440,16362,1026,65535,65700,0,0,4,1460,312,0,16777216,240000,33580,332,65700,0,0,0,1469230540,63
i,1724819733.162151,10.0.2.15,22,10.0.2.2,51152,1073725440,16362,1026,65535,65700,0,0,4,1460,312,0,16777216,240000,33580,332,65700,0,332,0,1469230540,63
i,1724819733.163682,10.0.2.15,22,10.0.2.2,51152,1073725440,16694,1026,65535,65700,0,0,4,1460,312,0,0,240000,33580,0,65700,0,0,0,1469230540,63
o,1724819733.180530,10.0.2.15,22,10.0.2.2,51152,1073725440,16694,1026,65535,65700,0,0,4,1460,312,0,16777216,240000,33580,28,65700,0,0,0,1469230540,63
i,1724819733.181364,10.0.2.15,22,10.0.2.2,51152,1073725440,16694,1026,65535,65700,0,0,4,1460,312,0,16777216,240000,33580,28,65700,0,28,0,1469230540,63
i,1724819733.181387,10.0.2.15,22,10.0.2.2,51152,1073725440,16722,1026,65535,65700,0,0,4,1460,312,0,0,240000,33580,0,65700,0,0,0,1469230540,63
o,1724819733.183120,10.0.2.15,22,10.0.2.2,51152,1073725440,16722,1026,65535,65700,0,0,4,1460,312,0,16777216,240000,33580,768,65700,112,0,0,1469230540,63
i,1724819733.183973,10.0.2.15,22,10.0.2.2,51152,1073725440,16722,1026,65535,65700,0,0,4,1460,312,0,16777216,240000,33580,908,65700,112,768,0,1469230540,63
o,1724819733.183994,10.0.2.15,22,10.0.2.2,51152,1073725440,17490,1026,65535,65700,0,0,4,1460,312,0,16777216,240000,33580,140,65700,112,0,0,1469230540,63
i,1724819733.184418,10.0.2.15,22,10.0.2.2,51152,1073725440,17490,1026,65535,65700,0,0,4,1460,312,0,16777216,240000,33580,140,65700,112,140,0,1469230540,63
o,1724819733.185259,10.0.2.15,22,10.0.2.2,51152,1073725440,17630,1026,65535,65700,0,0,4,1460,312,0,16777216,240000,33580,44,65700,0,0,0,1469230540,63
i,1724819733.185878,10.0.2.15,22,10.0.2.2,51152,1073725440,17630,1026,65535,65700,0,0,4,1460,312,0,16777216,240000,33580,44,65700,0,44,0,1469230540,63
i,1724819733.185907,10.0.2.15,22,10.0.2.2,51152,1073725440,17674,1026,65535,65700,0,0,4,1460,312,0,0,240000,33580,0,65700,0,0,0,1469230540,63
o,1724819733.186620,10.0.2.15,22,10.0.2.2,51152,1073725440,17674,1026,65535,65700,0,0,4,1460,312,0,16777220,240000,33580,72,65700,0,0,0,1469230540,63
i,1724819733.187101,10.0.2.15,22,10.0.2.2,51152,1073725440,17674,1026,65535,65700,0,0,4,1460,312,0,16777220,240000,33580,72,65700,0,72,0,1469230540,63
o,1724819733.276607,172.16.5.2,51577,172.16.1.2,5102,58595,14480,2082,65535,65700,6,6,4,1460,230625,1,16778209,770000,33580,0,65700,0,0,0,991267405,63
o,1724819733.277131,172.16.5.2,51577,172.16.1.2,5102,58595,14480,2082,65535,65700,6,6,4,1460,230625,1,16778212,770000,33580,37,65700,0,0,0,991267405,63
i,1724819733.366722,172.16.5.2,51577,172.16.1.2,5102,58595,14480,2082,65535,65700,6,6,4,1460,230625,1,16778212,770000,33580,37,65700,0,37,0,991267405,63
o,1724819733.367060,172.16.5.2,51577,172.16.1.2,5102,58595,14517,3106,65728,65728,6,6,4,1460,213125,1,16778212,810000,33580,4,65700,0,0,0,991267405,63
o,1724819733.367458,172.16.5.2,51577,172.16.1.2,5102,58595,14517,3106,65728,65728,6,6,4,1460,213125,1,16778212,810000,33580,130,65700,0,4,0,991267405,63
i,1724819733.452042,172.16.5.2,51577,172.16.1.2,5102,58595,14517,3106,65728,65728,6,6,4,1460,213125,1,16778212,810000,33580,130,65700,0,130,0,991267405,63
i,1724819733.452084,172.16.5.2,51577,172.16.1.2,5102,58595,14647,3106,65600,65728,6,6,4,1460,196562,1,996,830000,33580,0,65700,0,0,0,991267405,63
o,1724819733.499897,172.16.5.2,51577,172.16.1.2,5102,58595,14647,3106,65728,65728,6,6,4,1460,196562,1,997,830000,33580,0,65700,0,0,0,991267405,63
o,1724819733.547981,172.16.5.2,28791,172.16.1.2,5102,58595,14480,2082,65535,65700,6,6,4,1460,233125,1,16778209,760000,33580,0,65700,0,0,0,2391602108,63
o,1724819733.548148,172.16.5.2,28791,172.16.1.2,5102,58595,14480,2082,65535,65700,6,6,4,1460,233125,1,16778208,760000,33580,37,65700,0,0,0,2391602108,63
i,1724819733.620484,172.16.5.2,51577,172.16.1.2,5102,58595,14647,3106,65728,65728,6,6,4,1460,196562,1,996,830000,33580,0,65700,0,0,0,991267405,63
i,1724819733.620531,172.16.5.2,51577,172.16.1.2,5102,58595,14647,3106,65728,65728,6,6,4,1460,196562,1,996,830000,33580,0,65700,1,0,0,991267405,63
o,1724819733.620552,172.16.5.2,51577,172.16.1.2,5102,58595,14647,3106,65728,65728,6,6,4,1460,196562,1,997,830000,33580,0,65700,2,0,0,991267405,63
o,1724819733.621050,172.16.5.2,28791,172.16.1.2,5102,58595,14480,2086,65535,65700,6,6,4,1460,233125,1,16778208,760000,33580,33580,65700,0,37,0,2391602108,63
i,1724819733.648511,172.16.5.2,28791,172.16.1.2,5102,58595,14480,2086,65535,65700,6,6,4,1460,233125,1,16778208,760000,33580,33580,65700,0,13069,0,2391602108,63
o,1724819733.648605,172.16.5.2,28791,172.16.1.2,5102,58595,14517,2086,65728,65728,6,6,4,1460,216562,1,16778208,790000,33580,33543,65700,0,13032,0,2391602108,63
i,1724819733.714766,172.16.5.2,28791,172.16.1.2,5102,58595,14517,2086,65728,65728,6,6,4,1460,216562,1,16778208,790000,33580,33543,65700,0,14480,0,2391602108,63
o,1724819733.714811,172.16.5.2,28791,172.16.1.2,5102,58595,17413,2086,62848,65728,6,6,4,1460,202187,1,16778208,800000,33580,30647,65700,0,11584,0,2391602108,63
i,1724819733.714982,172.16.5.2,28791,172.16.1.2,5102,58595,17413,2086,62848,65728,6,6,4,1460,202187,1,16778208,800000,41772,30647,65700,0,17376,0,2391602108,63
o,1724819733.715002,172.16.5.2,28791,172.16.1.2,5102,58595,20309,2086,59968,65728,6,6,4,1460,189687,1,16778208,780000,41772,27751,65700,0,14480,0,2391602108,63
i,1724819733.715190,172.16.5.2,28791,172.16.1.2,5102,58595,20309,2086,59968,65728,6,6,4,1460,189687,1,16778208,780000,41772,27751,65700,0,20272,0,2391602108,63
o,1724819733.715208,172.16.5.2,28791,172.16.1.2,5102,58595,23205,2086,64256,65728,6,6,4,1460,178750,1,16778208,760000,41772,24855,65700,0,17376,0,2391602108,63
i,1724819733.715448,172.16.5.2,28791,172.16.1.2,5102,58595,23205,2086,64256,65728,6,6,4,1460,178750,1,16778208,760000,41772,24855,65700,0,23168,0,2391602108,63
o,1724819733.715468,172.16.5.2,28791,172.16.1.2,5102,58595,26101,2086,61376,65728,6,6,4,1460,169062,1,16778208,730000,41772,21959,65700,0,20272,0,2391602108,63
o,1724819733.715697,172.16.5.2,28791,172.16.1.2,5102,58595,26101,2086,61376,65728,6,6,4,1460,169062,1,16778208,730000,49964,41772,65700,0,21959,0,2391602108,63
i,1724819733.732270,172.16.5.2,28791,172.16.1.2,5102,58595,26101,2086,61376,65728,6,6,4,1460,169062,1,16778208,730000,58156,58156,65700,0,24855,0,2391602108,63
o,1724819733.732369,172.16.5.2,28791,172.16.1.2,5102,58595,28997,2086,64256,65728,6,6,4,1460,161875,1,16778208,690000,58156,55260,65700,0,21959,0,2391602108,63
o,1724819733.732492,172.16.5.2,28791,172.16.1.2,5102,58595,28997,2086,64256,65728,6,6,4,1460,161875,1,16778208,690000,58156,55260,65700,0,23407,0,2391602108,63
i,1724819733.829000,172.16.5.2,28791,172.16.1.2,5102,58595,28997,2086,64256,65728,6,6,4,1460,161875,1,16778208,690000,66348,66348,65700,0,27751,0,2391602108,63
o,1724819733.829034,172.16.5.2,28791,172.16.1.2,5102,58595,31893,2086,62848,65728,6,6,4,1460,155625,1,16778208,650000,66348,63452,65700,0,24855,0,2391602108,63
i,1724819733.829743,172.16.5.2,28791,172.16.1.2,5102,58595,31893,2086,62848,65728,6,6,4,1460,155625,1,16778208,650000,66348,63452,65700,0,30647,0,2391602108,63
o,1724819733.829764,172.16.5.2,28791,172.16.1.2,5102,58595,34789,2086,64256,65728,6,6,4,1460,150000,1,16778208,620000,74540,60556,65700,0,27751,0,2391602108,63
i,1724819733.829962,172.16.5.2,28791,172.16.1.2,5102,58595,34789,2086,64256,65728,6,6,4,1460,150000,1,16778208,620000,74540,60556,65700,0,33543,0,2391602108,63
o,1724819733.829978,172.16.5.2,28791,172.16.1.2,5102,58595,37685,2086,64256,65728,6,6,4,1460,145000,1,16778208,590000,74540,57660,65700,0,30647,0,2391602108,63
i,1724819733.831282,172.16.5.2,28791,172.16.1.2,5102,58595,37685,2086,64256,65728,6,6,4,1460,145000,1,16778208,590000,74540,74540,65700,0,36439,0,2391602108,63
o,1724819733.831363,172.16.5.2,28791,172.16.1.2,5102,58595,40581,2086,62848,65728,6,6,4,1460,140625,1,16778208,560000,82732,71644,65700,0,33543,0,2391602108,63
i,1724819733.831514,172.16.5.2,28791,172.16.1.2,5102,58595,40581,2086,62848,65728,6,6,4,1460,140625,1,16778208,560000,82732,71644,65700,0,39335,0,2391602108,63
o,1724819733.831534,172.16.5.2,28791,172.16.1.2,5102,58595,43477,2086,62848,65728,6,6,4,1460,136875,1,16778208,530000,82732,68748,65700,0,36439,0,2391602108,63
i,1724819733.831718,172.16.5.2,28791,172.16.1.2,5102,58595,43477,2086,62848,65728,6,6,4,1460,136875,1,16778208,530000,82732,68748,65700,0,42231,0,2391602108,63
o,1724819733.831734,172.16.5.2,28791,172.16.1.2,5102,58595,46373,2086,62848,65728,6,6,4,1460,133750,1,16778208,500000,82732,65852,65700,0,39335,0,2391602108,63
i,1724819733.831867,172.16.5.2,28791,172.16.1.2,5102,58595,46373,2086,62848,65728,6,6,4,1460,133750,1,16778208,500000,82732,65852,65700,0,45127,0,2391602108,63
o,1724819733.831882,172.16.5.2,28791,172.16.1.2,5102,58595,48060,2086,61184,65728,6,6,4,1460,130937,1,16778208,480000,82732,64165,65700,0,43440,0,2391602108,63
i,1724819733.833980,172.16.5.2,28791,172.16.1.2,5102,58595,48060,2086,61184,65728,6,6,4,1460,130937,1,16778208,480000,82732,82732,65700,0,47784,0,2391602108,63
o,1724819733.834002,172.16.5.2,28791,172.16.1.2,5102,58595,50956,2086,62848,65728,6,6,4,1460,128437,1,16778208,460000,82732,79836,65700,0,44888,0,2391602108,63
i,1724819733.840864,172.16.5.2,28791,172.16.1.2,5102,58595,50956,2086,62848,65728,6,6,4,1460,128437,1,16778208,460000,82732,82732,65700,0,50680,0,2391602108,63
o,1724819733.840931,172.16.5.2,28791,172.16.1.2,5102,58595,53852,2086,59968,65728,6,6,4,1460,125000,1,16778208,450000,82732,79836,65700,0,47784,0,2391602108,63
o,1724819733.841074,172.16.5.2,28791,172.16.1.2,5102,58595,53852,2086,59968,65728,6,6,4,1460,125000,1,16778208,450000,82732,79836,65700,0,49232,0,2391602108,63
i,1724819733.841266,172.16.5.2,28791,172.16.1.2,5102,58595,53852,2086,59968,65728,6,6,4,1460,125000,1,16778208,450000,82732,79836,65700,0,53576,0,2391602108,63
o,1724819733.841290,172.16.5.2,28791,172.16.1.2,5102,58595,56748,2086,64256,65728,6,6,4,1460,121875,1,16778208,440000,82732,76940,65700,0,50680,0,2391602108,63
i,1724819733.974841,172.16.5.2,28791,172.16.1.2,5102,58595,56748,2086,64256,65728,6,6,4,1460,121875,1,16778208,440000,82732,82732,65700,0,56472,0,2391602108,63
o,1724819733.974918,172.16.5.2,28791,172.16.1.2,5102,58595,59644,2086,95680,65728,6,6,4,1460,125625,1,16778208,440000,90924,79836,65700,0,53576,0,2391602108,63
i,1724819733.975120,172.16.5.2,28791,172.16.1.2,5102,58595,59644,2086,95680,65728,6,6,4,1460,125625,1,16778208,440000,99116,79836,65700,0,59368,0,2391602108,63
o,1724819733.975138,172.16.5.2,28791,172.16.1.2,5102,58595,59644,2086,97152,65728,6,6,4,1460,128750,1,16778208,440000,99116,76940,65700,0,56472,0,2391602108,63
i,1724819733.975314,172.16.5.2,28791,172.16.1.2,5102,58595,59644,2086,97152,65728,6,6,4,1460,128750,1,16778208,440000,99116,76940,65700,0,59368,0,2391602108,63
o,1724819733.975330,172.16.5.2,28791,172.16.1.2,5102,58595,59644,2086,94272,65728,6,6,4,1460,131562,1,16778208,440000,99116,74044,65700,0,56472,0,2391602108,63
i,1724819733.975709,172.16.5.2,28791,172.16.1.2,5102,58595,59644,2086,94272,65728,6,6,4,1460,131562,1,16778208,440000,123692,123692,65700,0,59368,0,2391602108,63
o,1724819733.975726,172.16.5.2,28791,172.16.1.2,5102,58595,59644,2086,91392,65728,6,6,4,1460,134062,1,16778208,430000,123692,120796,65700,0,56472,0,2391602108,63
i,1724819733.975853,172.16.5.2,28791,172.16.1.2,5102,58595,59644,2086,91392,65728,6,6,4,1460,134062,1,16778208,430000,123692,120796,65700,0,59368,0,2391602108,63
o,1724819733.975868,172.16.5.2,28791,172.16.1.2,5102,58595,59644,2086,95680,65728,6,6,4,1460,136250,1,16778208,430000,123692,117900,65700,0,56472,0,2391602108,63
i,1724819733.977181,172.16.5.2,28791,172.16.1.2,5102,58595,59644,2086,95680,65728,6,6,4,1460,136250,1,16778208,430000,123692,123692,65700,0,59368,0,2391602108,63
o,1724819733.977277,172.16.5.2,28791,172.16.1.2,5102,58595,59644,2086,95680,65728,6,6,4,1460,138125,1,16778208,420000,123692,120796,65700,0,56472,0,2391602108,63
i,1724819733.977477,172.16.5.2,28791,172.16.1.2,5102,58595,59644,2086,95680,65728,6,6,4,1460,138125,1,16778208,420000,123692,120796,65700,0,59368,0,2391602108,63
o,1724819733.977493,172.16.5.2,28791,172.16.1.2,5102,58595,59644,2086,95680,65728,6,6,4,1460,139687,1,16778208,410000,123692,117900,65700,0,56472,0,2391602108,63
i,1724819733.977991,172.16.5.2,28791,172.16.1.2,5102,58595,59644,2086,95680,65728,6,6,4,1460,139687,1,16778208,410000,123692,123692,65700,0,59368,0,2391602108,63
o,1724819733.978010,172.16.5.2,28791,172.16.1.2,5102,58595,59644,2086,97152,65728,6,6,4,1460,141250,1,16778208,410000,123692,120796,65700,0,56472,0,2391602108,63
i,1724819733.979045,172.16.5.2,28791,172.16.1.2,5102,58595,59644,2086,97152,65728,6,6,4,1460,141250,1,16778208,410000,123692,123692,65700,0,59368,0,2391602108,63
o,1724819733.979082,172.16.5.2,28791,172.16.1.2,5102,58595,59644,2086,95680,65728,6,6,4,1460,142500,1,16778208,400000,123692,120796,65700,0,56472,0,2391602108,63
i,1724819733.979268,172.16.5.2,28791,172.16.1.2,5102,58595,59644,2086,95680,65728,6,6,4,1460,142500,1,16778208,400000,123692,120796,65700,0,59368,0,2391602108,63
o,1724819733.979285,172.16.5.2,28791,172.16.1.2,5102,58595,59644,2086,97152,65728,6,6,4,1460,143437,1,16778208,400000,123692,117900,65700,0,56472,0,2391602108,63
i,1724819733.983950,172.16.5.2,28791,172.16.1.2,5102,58595,59644,2086,97152,65728,6,6,4,1460,143437,1,16778208,400000,123692,123692,65700,0,59368,0,2391602108,63
o,1724819733.983974,172.16.5.2,28791,172.16.1.2,5102,58595,59644,2086,95680,65728,6,6,4,1460,144375,1,16778208,390000,123692,120796,65700,0,56472,0,2391602108,63
i,1724819733.993390,172.16.5.2,28791,172.16.1.2,5102,58595,59644,2086,95680,65728,6,6,4,1460,144375,1,16778208,390000,123692,123692,65700,0,59368,0,2391602108,63
o,1724819733.993411,172.16.5.2,28791,172.16.1.2,5102,58595,59644,2086,92800,65728,6,6,4,1460,146562,1,16778208,400000,123692,120796,65700,0,56472,0,2391602108,63
i,1724819733.993574,172.16.5.2,28791,172.16.1.2,5102,58595,59644,2086,92800,65728,6,6,4,1460,146562,1,16778208,400000,123692,120796,65700,0,59368,0,2391602108,63
o,1724819733.993801,172.16.5.2,28791,172.16.1.2,5102,58595,59644,2086,95680,65728,6,6,4,1460,148437,1,16778208,400000,123692,117900,65700,0,56472,0,2391602108,63
i,1724819733.994360,172.16.5.2,28791,172.16.1.2,5102,58595,59644,2086,95680,65728,6,6,4,1460,148437,1,16778208,400000,123692,117900,65700,0,59368,0,2391602108,63
o,1724819733.994871,172.16.5.2,28791,172.16.1.2,5102,58595,59644,2086,97152,65728,6,6,4,1460,150000,1,16778208,400000,123692,115004,65700,0,56472,0,2391602108,63
i,1724819733.995028,172.16.5.2,28791,172.16.1.2,5102,58595,59644,2086,97152,65728,6,6,4,1460,150000,1,16778208,400000,123692,115004,65700,0,59368,0,2391602108,63
o,1724819733.995045,172.16.5.2,28791,172.16.1.2,5102,58595,59644,2086,95680,65728,6,6,4,1460,151250,1,16778208,400000,123692,112108,65700,0,56472,0,2391602108,63
i,1724819733.995210,172.16.5.2,28791,172.16.1.2,5102,58595,59644,2086,95680,65728,6,6,4,1460,151250,1,16778208,400000,123692,112108,65700,0,59368,0,2391602108,63
o,1724819733.995226,172.16.5.2,28791,172.16.1.2,5102,58595,59644,2086,95680,65728,6,6,4,1460,152500,1,16778208,400000,123692,109212,65700,0,56472,0,2391602108,63
o,1724819733.995341,172.16.5.2,28791,172.16.1.2,5102,58595,59644,2086,95680,65728,6,6,4,1460,152500,1,16778208,400000,123692,109212,65700,0,57920,0,2391602108,63
i,1724819733.995501,172.16.5.2,28791,172.16.1.2,5102,58595,59644,2086,95680,65728,6,6,4,1460,152500,1,16778208,400000,123692,109212,65700,0,59368,0,2391602108,63
o,1724819733.995516,172.16.5.2,28791,172.16.1.2,5102,58595,59644,2086,97152,65728,6,6,4,1460,153437,1,16778208,400000,123692,106316,65700,0,56472,0,2391602108,63
i,1724819733.995637,172.16.5.2,28791,172.16.1.2,5102,58595,59644,2086,97152,65728,6,6,4,1460,153437,1,16778208,400000,123692,106316,65700,0,59368,0,2391602108,63
o,1724819733.995652,172.16.5.2,28791,172.16.1.2,5102,58595,59644,2086,94272,65728,6,6,4,1460,154375,1,16778208,390000,123692,103420,65700,0,56472,0,2391602108,63
i,1724819733.995800,172.16.5.2,28791,172.16.1.2,5102,58595,59644,2086,94272,65728,6,6,4,1460,154375,1,16778208,390000,123692,103420,65700,0,59368,0,2391602108,63
o,1724819733.995825,172.16.5.2,28791,172.16.1.2,5102,58595,59644,2086,97152,65728,6,6,4,1460,155312,1,16778208,390000,123692,100524,65700,0,56472,0,2391602108,63
i,1724819734.077069,172.16.5.2,28791,172.16.1.2,5102,58595,59644,2086,97152,65728,6,6,4,1460,155312,1,16778208,390000,123692,123692,65700,0,59368,0,2391602108,63
o,1724819734.077102,172.16.5.2,28791,172.16.1.2,5102,58595,59644,2086,98560,65728,6,6,4,1460,165937,1,16778208,480000,123692,122244,65700,0,57920,0,2391602108,63
i,1724819734.115403,172.16.5.2,28791,172.16.1.2,5102,58595,59644,2086,98560,65728,6,6,4,1460,165937,1,16778208,480000,123692,122244,65700,0,59368,0,2391602108,63
o,1724819734.115450,172.16.5.2,28791,172.16.1.2,5102,58595,59644,2086,144960,65728,6,6,4,1460,162812,1,16778208,470000,123692,119348,65700,0,56472,0,2391602108,63
i,1724819734.115627,172.16.5.2,28791,172.16.1.2,5102,58595,59644,2086,144960,65728,6,6,4,1460,162812,1,16778208,470000,123692,119348,65700,0,59368,0,2391602108,63
o,1724819734.115646,172.16.5.2,28791,172.16.1.2,5102,58595,59644,2086,144960,65728,6,6,4,1460,160000,1,16778208,470000,123692,116452,65700,0,56472,0,2391602108,63
i,1724819734.115955,172.16.5.2,28791,172.16.1.2,5102,58595,59644,2086,144960,65728,6,6,4,1460,160000,1,16778208,470000,131884,116452,65700,0,59368,0,2391602108,63
o,1724819734.115972,172.16.5.2,28791,172.16.1.2,5102,58595,61104,2086,146432,65728,6,6,4,1460,157500,1,16778208,460000,131884,113556,65700,0,56472,0,2391602108,63
i,1724819734.117178,172.16.5.2,28791,172.16.1.2,5102,58595,61104,2086,146432,65728,6,6,4,1460,157500,1,16778208,460000,131884,131884,65700,0,60816,0,2391602108,63
o,1724819734.117198,172.16.5.2,28791,172.16.1.2,5102,58595,61104,2086,143552,65728,6,6,4,1460,155312,1,16778208,450000,131884,128988,65700,0,57920,0,2391602108,63
i,1724819734.117340,172.16.5.2,28791,172.16.1.2,5102,58595,61104,2086,143552,65728,6,6,4,1460,155312,1,16778208,450000,131884,128988,65700,0,60816,0,2391602108,63
o,1724819734.117356,172.16.5.2,28791,172.16.1.2,5102,58595,61104,2086,146432,65728,6,6,4,1460,153437,1,16778208,440000,131884,126092,65700,0,57920,0,2391602108,63
i,1724819734.117484,172.16.5.2,28791,172.16.1.2,5102,58595,61104,2086,146432,65728,6,6,4,1460,153437,1,16778208,440000,131884,126092,65700,0,60816,0,2391602108,63
o,1724819734.117500,172.16.5.2,28791,172.16.1.2,5102,58595,61104,2086,144960,65728,6,6,4,1460,151875,1,16778208,430000,131884,123196,65700,0,57920,0,2391602108,63
i,1724819734.117692,172.16.5.2,28791,172.16.1.2,5102,58595,61104,2086,144960,65728,6,6,4,1460,151875,1,16778208,430000,131884,123196,65700,0,60816,0,2391602108,63
o,1724819734.117708,172.16.5.2,28791,172.16.1.2,5102,58595,61104,2086,144960,65728,6,6,4,1460,150625,1,16778208,420000,131884,120300,65700,0,57920,0,2391602108,63
i,1724819734.124637,172.16.5.2,28791,172.16.1.2,5102,58595,61104,2086,144960,65728,6,6,4,1460,150625,1,16778208,420000,140076,140076,65700,0,60816,0,2391602108,63
o,1724819734.124659,172.16.5.2,28791,172.16.1.2,5102,58595,61104,2086,146432,65728,6,6,4,1460,149375,1,16778208,410000,140076,137180,65700,0,57920,0,2391602108,63
i,1724819734.137242,172.16.5.2,28791,172.16.1.2,5102,58595,61104,2086,146432,65728,6,6,4,1460,149375,1,16778208,410000,140076,140076,65700,0,60816,0,2391602108,63
o,1724819734.137303,172.16.5.2,28791,172.16.1.2,5102,58595,61104,2086,143552,65728,6,6,4,1460,150937,1,16778208,410000,140076,137180,65700,0,57920,0,2391602108,63
i,1724819734.137900,172.16.5.2,28791,172.16.1.2,5102,58595,61104,2086,143552,65728,6,6,4,1460,150937,1,16778208,410000,140076,140076,65700,0,60816,0,2391602108,63
o,1724819734.137977,172.16.5.2,28791,172.16.1.2,5102,58595,61104,2086,146432,65728,6,6,4,1460,152187,1,16778208,400000,140076,137180,65700,0,57920,0,2391602108,63
i,1724819734.138208,172.16.5.2,28791,172.16.1.2,5102,58595,61104,2086,146432,65728,6,6,4,1460,152187,1,16778208,400000,140076,137180,65700,0,60816,0,2391602108,63
o,1724819734.138224,172.16.5.2,28791,172.16.1.2,5102,58595,61104,2086,143552,65728,6,6,4,1460,153437,1,16778208,400000,140076,134284,65700,0,57920,0,2391602108,63
i,1724819734.157148,172.16.5.2,28791,172.16.1.2,5102,58595,61104,2086,143552,65728,6,6,4,1460,153437,1,16778208,400000,140076,140076,65700,0,60816,0,2391602108,63
o,1724819734.157169,172.16.5.2,28791,172.16.1.2,5102,58595,61104,2086,146432,65728,6,6,4,1460,155625,1,16778208,410000,140076,137180,65700,0,57920,0,2391602108,63
i,1724819734.157309,172.16.5.2,28791,172.16.1.2,5102,58595,61104,2086,146432,65728,6,6,4,1460,155625,1,16778208,410000,140076,137180,65700,0,60816,0,2391602108,63
o,1724819734.157543,172.16.5.2,28791,172.16.1.2,5102,58595,61104,2086,146432,65728,6,6,4,1460,156250,1,16778208,400000,140076,134284,65700,0,57920,0,2391602108,63
i,1724819734.157702,172.16.5.2,28791,172.16.1.2,5102,58595,61104,2086,146432,65728,6,6,4,1460,156250,1,16778208,400000,140076,134284,65700,0,60816,0,2391602108,63
o,1724819734.157717,172.16.5.2,28791,172.16.1.2,5102,58595,61104,2086,143552,65728,6,6,4,1460,156875,1,16778208,390000,140076,131388,65700,0,57920,0,2391602108,63
i,1724819734.159494,172.16.5.2,28791,172.16.1.2,5102,58595,61104,2086,143552,65728,6,6,4,1460,156875,1,16778208,390000,140076,140076,65700,0,60816,0,2391602108,63
o,1724819734.159514,172.16.5.2,28791,172.16.1.2,5102,58595,61104,2086,140672,65728,6,6,4,1460,157500,1,16778208,390000,140076,137180,65700,0,57920,0,2391602108,63
i,1724819734.159712,172.16.5.2,28791,172.16.1.2,5102,58595,61104,2086,140672,65728,6,6,4,1460,157500,1,16778208,390000,140076,137180,65700,0,60816,0,2391602108,63
o,1724819734.159728,172.16.5.2,28791,172.16.1.2,5102,58595,61104,2086,146432,65728,6,6,4,1460,157812,1,16778208,390000,140076,134284,65700,0,57920,0,2391602108,63
i,1724819734.160506,172.16.5.2,28791,172.16.1.2,5102,58595,61104,2086,146432,65728,6,6,4,1460,157812,1,16778208,390000,140076,140076,65700,0,60816,0,2391602108,63
o,1724819734.160528,172.16.5.2,28791,172.16.1.2,5102,58595,61104,2086,146432,65728,6,6,4,1460,158125,1,16778208,380000,140076,137180,65700,0,57920,0,2391602108,63
o,1724819734.160719,172.16.5.2,28791,172.16.1.2,5102,58595,61104,2086,146432,65728,6,6,4,1460,158125,1,16778208,380000,140076,137180,65700,0,59368,0,2391602108,63
i,1724819734.160872,172.16.5.2,28791,172.16.1.2,5102,58595,61104,2086,146432,65728,6,6,4,1460,158125,1,16778208,380000,140076,137180,65700,0,60816,0,2391602108,63
o,1724819734.160891,172.16.5.2,28791,172.16.1.2,5102,58595,61104,2086,144960,65728,6,6,4,1460,158437,1,16778208,380000,140076,134284,65700,0,57920,0,2391602108,63
i,1724819734.161961,172.16.5.2,28791,172.16.1.2,5102,58595,61104,2086,144960,65728,6,6,4,1460,158437,1,16778208,380000,140076,140076,65700,0,60816,0,2391602108,63
o,1724819734.161980,172.16.5.2,28791,172.16.1.2,5102,58595,61104,2086,146432,65728,6,6,4,1460,158750,1,16778208,380000,140076,137180,65700,0,57920,0,2391602108,63
i,1724819734.162124,172.16.5.2,28791,172.16.1.2,5102,58595,61104,2086,146432,65728,6,6,4,1460,158750,1,16778208,380000,140076,137180,65700,0,60816,0,2391602108,63
o,1724819734.162141,172.16.5.2,28791,172.16.1.2,5102,58595,61104,2086,143552,65728,6,6,4,1460,159062,1,16778208,370000,140076,134284,65700,0,57920,0,2391602108,63
i,1724819734.185989,172.16.5.2,28791,172.16.1.2,5102,58595,61104,2086,143552,65728,6,6,4,1460,159062,1,16778208,370000,140076,140076,65700,0,60816,0,2391602108,63
o,1724819734.186019,172.16.5.2,28791,172.16.1.2,5102,58595,61104,2086,221760,65728,6,6,4,1460,153125,1,16778208,410000,140076,138628,65700,0,59368,0,2391602108,63
i,1724819734.270416,172.16.5.2,28791,172.16.1.2,5102,58595,61104,2086,221760,65728,6,6,4,1460,153125,1,16778208,410000,140076,138628,65700,0,60816,0,2391602108,63
o,1724819734.270544,172.16.5.2,28791,172.16.1.2,5102,58595,61104,2086,218880,65728,6,6,4,1460,152812,1,16778208,400000,140076,135732,65700,0,57920,0,2391602108,63
i,1724819734.270689,172.16.5.2,28791,172.16.1.2,5102,58595,61104,2086,218880,65728,6,6,4,1460,152812,1,16778208,400000,140076,135732,65700,0,60816,0,2391602108,63
o,1724819734.270705,172.16.5.2,28791,172.16.1.2,5102,58595,61104,2086,216000,65728,6,6,4,1460,152500,1,16778208,390000,140076,132836,65700,0,57920,0,2391602108,63
i,1724819734.272687,172.16.5.2,28791,172.16.1.2,5102,58595,61104,2086,216000,65728,6,6,4,1460,152500,1,16778208,390000,140076,140076,65700,0,60816,0,2391602108,63
o,1724819734.272706,172.16.5.2,28791,172.16.1.2,5102,58595,62564,2086,220352,65728,6,6,4,1460,152187,1,16778208,380000,140076,137180,65700,0,57920,0,2391602108,63
i,1724819734.289840,172.16.5.2,28791,172.16.1.2,5102,58595,62564,2086,220352,65728,6,6,4,1460,152187,1,16778208,380000,140076,140076,65700,0,62264,0,2391602108,63
o,1724819734.289863,172.16.5.2,28791,172.16.1.2,5102,58595,62564,2086,218880,65728,6,6,4,1460,154687,1,16778208,390000,140076,137180,65700,0,59368,0,2391602108,63
i,1724819734.290010,172.16.5.2,28791,172.16.1.2,5102,58595,62564,2086,218880,65728,6,6,4,1460,154687,1,16778208,390000,140076,137180,65700,0,62264,0,2391602108,63
o,1724819734.290029,172.16.5.2,28791,172.16.1.2,5102,58595,62564,2086,220352,65728,6,6,4,1460,156875,1,16778208,400000,140076,134284,65700,0,59368,0,2391602108,63
i,1724819734.290218,172.16.5.2,28791,172.16.1.2,5102,58595,62564,2086,220352,65728,6,6,4,1460,156875,1,16778208,400000,140076,134284,65700,0,62264,0,2391602108,63
o,1724819734.290237,172.16.5.2,28791,172.16.1.2,5102,58595,62564,2086,217472,65728,6,6,4,1460,158750,1,16778208,410000,140076,131388,65700,0,59368,0,2391602108,63
i,1724819734.290860,172.16.5.2,28791,172.16.1.2,5102,58595,62564,2086,217472,65728,6,6,4,1460,158750,1,16778208,410000,140076,140076,65700,0,62264,0,2391602108,63
o,1724819734.290933,172.16.5.2,28791,172.16.1.2,5102,58595,62564,2086,221760,65728,6,6,4,1460,160312,1,16778208,410000,140076,138628,65700,0,60816,0,2391602108,63
i,1724819734.299836,172.16.5.2,28791,172.16.1.2,5102,58595,62564,2086,221760,65728,6,6,4,1460,160312,1,16778208,410000,140076,138628,65700,0,62264,0,2391602108,63
o,1724819734.299836,172.16.5.2,28791,172.16.1.2,5102,58595,62564,2086,218880,65728,6,6,4,1460,162812,1,16778208,420000,140076,135732,65700,0,59368,0,2391602108,63
i,1724819734.299836,172.16.5.2,28791,172.16.1.2,5102,58595,62564,2086,218880,65728,6,6,4,1460,162812,1,16778208,420000,140076,135732,65700,0,62264,0,2391602108,63
o,1724819734.299836,172.16.5.2,28791,172.16.1.2,5102,58595,62564,2086,216000,65728,6,6,4,1460,163750,1,16778208,410000,140076,132836,65700,0,59368,0,2391602108,63
i,1724819734.301677,172.16.5.2,28791,172.16.1.2,5102,58595,62564,2086,216000,65728,6,6,4,1460,163750,1,16778208,410000,140076,140076,65700,0,62264,0,2391602108,63
o,1724819734.301696,172.16.5.2,28791,172.16.1.2,5102,58595,62564,2086,218880,65728,6,6,4,1460,163437,1,16778208,400000,140076,137180,65700,0,59368,0,2391602108,63
i,1724819734.301903,172.16.5.2,28791,172.16.1.2,5102,58595,62564,2086,218880,65728,6,6,4,1460,163437,1,16778208,400000,140076,137180,65700,0,62264,0,2391602108,63
o,1724819734.301921,172.16.5.2,28791,172.16.1.2,5102,58595,62564,2086,218880,65728,6,6,4,1460,163125,1,16778208,400000,140076,134284,65700,0,59368,0,2391602108,63
i,1724819734.302046,172.16.5.2,28791,172.16.1.2,5102,58595,62564,2086,218880,65728,6,6,4,1460,163125,1,16778208,400000,140076,134284,65700,0,62264,0,2391602108,63
o,1724819734.302078,172.16.5.2,28791,172.16.1.2,5102,58595,62564,2086,218880,65728,6,6,4,1460,162812,1,16778208,390000,140076,131388,65700,0,59368,0,2391602108,63
i,1724819734.304605,172.16.5.2,28791,172.16.1.2,5102,58595,62564,2086,218880,65728,6,6,4,1460,162812,1,16778208,390000,140076,140076,65700,0,62264,0,2391602108,63
o,1724819734.304672,172.16.5.2,28791,172.16.1.2,5102,58595,62564,2086,218880,65728,6,6,4,1460,161250,1,16778208,390000,140076,137180,65700,0,59368,0,2391602108,63
i,1724819734.304794,172.16.5.2,28791,172.16.1.2,5102,58595,62564,2086,218880,65728,6,6,4,1460,161250,1,16778208,390000,140076,137180,65700,0,62264,0,2391602108,63
o,1724819734.304811,172.16.5.2,28791,172.16.1.2,5102,58595,62564,2086,220352,65728,6,6,4,1460,160000,1,16778208,400000,140076,134284,65700,0,59368,0,2391602108,63
i,1724819734.305761,172.16.5.2,28791,172.16.1.2,5102,58595,62564,2086,220352,65728,6,6,4,1460,160000,1,16778208,400000,140076,140076,65700,0,62264,0,2391602108,63
o,1724819734.305780,172.16.5.2,28791,172.16.1.2,5102,58595,62564,2086,220352,65728,6,6,4,1460,158750,1,16778208,390000,140076,137180,65700,0,59368,0,2391602108,63
i,1724819734.305915,172.16.5.2,28791,172.16.1.2,5102,58595,62564,2086,220352,65728,6,6,4,1460,158750,1,16778208,390000,140076,137180,65700,0,62264,0,2391602108,63
o,1724819734.305932,172.16.5.2,28791,172.16.1.2,5102,58595,62564,2086,218880,65728,6,6,4,1460,157812,1,16778208,390000,140076,134284,65700,0,59368,0,2391602108,63
i,1724819734.306622,172.16.5.2,28791,172.16.1.2,5102,58595,62564,2086,218880,65728,6,6,4,1460,157812,1,16778208,390000,140076,140076,65700,0,62264,0,2391602108,63
o,1724819734.306686,172.16.5.2,28791,172.16.1.2,5102,58595,62564,2086,218880,65728,6,6,4,1460,156875,1,16778208,390000,140076,137180,65700,0,59368,0,2391602108,63
i,1724819734.308217,172.16.5.2,28791,172.16.1.2,5102,58595,62564,2086,218880,65728,6,6,4,1460,156875,1,16778208,390000,140076,140076,65700,0,62264,0,2391602108,63
o,1724819734.308237,172.16.5.2,28791,172.16.1.2,5102,58595,62564,2086,220352,65728,6,6,4,1460,156250,1,16778208,390000,140076,137180,65700,0,59368,0,2391602108,63
o,1724819734.308360,172.16.5.2,28791,172.16.1.2,5102,58595,62564,2086,220352,65728,6,6,4,1460,156250,1,16778208,390000,140076,137180,65700,0,60816,0,2391602108,63
i,1724819734.308501,172.16.5.2,28791,172.16.1.2,5102,58595,62564,2086,220352,65728,6,6,4,1460,156250,1,16778208,390000,140076,137180,65700,0,62264,0,2391602108,63
o,1724819734.308517,172.16.5.2,28791,172.16.1.2,5102,58595,62564,2086,220352,65728,6,6,4,1460,155625,1,16778208,380000,140076,134284,65700,0,59368,0,2391602108,63
i,1724819734.308714,172.16.5.2,28791,172.16.1.2,5102,58595,62564,2086,220352,65728,6,6,4,1460,155625,1,16778208,380000,140076,134284,65700,0,62264,0,2391602108,63
o,1724819734.308730,172.16.5.2,28791,172.16.1.2,5102,58595,62564,2086,217472,65728,6,6,4,1460,155000,1,16778208,380000,140076,131388,65700,0,59368,0,2391602108,63
i,1724819734.324170,172.16.5.2,28791,172.16.1.2,5102,58595,62564,2086,217472,65728,6,6,4,1460,155000,1,16778208,380000,140076,140076,65700,0,62264,0,2391602108,63
o,1724819734.324191,172.16.5.2,28791,172.16.1.2,5102,58595,62564,2086,220352,65728,6,6,4,1460,156875,1,16778208,390000,140076,137180,65700,0,59368,0,2391602108,63
i,1724819734.394148,172.16.5.2,28791,172.16.1.2,5102,58595,62564,2086,220352,65728,6,6,4,1460,156875,1,16778208,390000,140076,140076,65700,0,62264,0,2391602108,63
o,1724819734.394180,172.16.5.2,28791,172.16.1.2,5102,58595,62564,2086,220352,65728,6,6,4,1460,163750,1,16778208,440000,140076,137180,65700,0,59368,0,2391602108,63
i,1724819734.394389,172.16.5.2,28791,172.16.1.2,5102,58595,62564,2086,220352,65728,6,6,4,1460,163750,1,16778208,440000,140076,137180,65700,0,62264,0,2391602108,63
o,1724819734.394407,172.16.5.2,28791,172.16.1.2,5102,58595,62564,2086,218880,65728,6,6,4,1460,159687,1,16778208,450000,140076,134284,65700,0,59368,0,2391602108,63
i,1724819734.396005,172.16.5.2,28791,172.16.1.2,5102,58595,62564,2086,218880,65728,6,6,4,1460,159687,1,16778208,450000,140076,140076,65700,0,62264,0,2391602108,63
o,1724819734.396024,172.16.5.2,28791,172.16.1.2,5102,58595,62564,2086,220352,65728,6,6,4,1460,156250,1,16778208,450000,140076,137180,65700,0,59368,0,2391602108,63
i,1724819734.396240,172.16.5.2,28791,172.16.1.2,5102,58595,62564,2086,220352,65728,6,6,4,1460,156250,1,16778208,450000,140076,137180,65700,0,62264,0,2391602108,63
o,1724819734.396266,172.16.5.2,28791,172.16.1.2,5102,58595,64024,2086,218880,65728,6,6,4,1460,153125,1,16778208,450000,140076,134284,65700,0,59368,0,2391602108,63
i,1724819734.398300,172.16.5.2,28791,172.16.1.2,5102,58595,64024,2086,218880,65728,6,6,4,1460,153125,1,16778208,450000,140076,140076,65700,0,63712,0,2391602108,63
o,1724819734.398319,172.16.5.2,28791,172.16.1.2,5102,58595,64024,2086,220352,65728,6,6,4,1460,147812,1,16778208,460000,140076,137180,65700,0,60816,0,2391602108,63
i,1724819734.398460,172.16.5.2,28791,172.16.1.2,5102,58595,64024,2086,220352,65728,6,6,4,1460,147812,1,16778208,460000,140076,137180,65700,0,63712,0,2391602108,63
o,1724819734.398477,172.16.5.2,28791,172.16.1.2,5102,58595,64024,2086,220352,65728,6,6,4,1460,143125,1,16778208,470000,140076,134284,65700,0,60816,0,2391602108,63
i,1724819734.398613,172.16.5.2,28791,172.16.1.2,5102,58595,64024,2086,220352,65728,6,6,4,1460,143125,1,16778208,470000,140076,134284,65700,0,63712,0,2391602108,63
o,1724819734.398629,172.16.5.2,28791,172.16.1.2,5102,58595,64024,2086,217472,65728,6,6,4,1460,139062,1,16778208,460000,140076,131388,65700,0,60816,0,2391602108,63
i,1724819734.407101,172.16.5.2,28791,172.16.1.2,5102,58595,64024,2086,217472,65728,6,6,4,1460,139062,1,16778208,460000,140076,140076,65700,0,63712,0,2391602108,63
o,1724819734.407122,172.16.5.2,28791,172.16.1.2,5102,58595,64024,2086,218880,65728,6,6,4,1460,136875,1,16778208,450000,140076,137180,65700,0,60816,0,2391602108,63
i,1724819734.407267,172.16.5.2,28791,172.16.1.2,5102,58595,64024,2086,218880,65728,6,6,4,1460,136875,1,16778208,450000,140076,137180,65700,0,63712,0,2391602108,63
o,1724819734.407285,172.16.5.2,28791,172.16.1.2,5102,58595,64024,2086,220352,65728,6,6,4,1460,133750,1,16778208,440000,140076,134284,65700,0,60816,0,2391602108,63
i,1724819734.407426,172.16.5.2,28791,172.16.1.2,5102,58595,64024,2086,220352,65728,6,6,4,1460,133750,1,16778208,440000,140076,134284,65700,0,63712,0,2391602108,63
o,1724819734.407442,172.16.5.2,28791,172.16.1.2,5102,58595,64024,2086,220352,65728,6,6,4,1460,130937,1,16778208,430000,140076,131388,65700,0,60816,0,2391602108,63
i,1724819734.407585,172.16.5.2,28791,172.16.1.2,5102,58595,64024,2086,220352,65728,6,6,4,1460,130937,1,16778208,430000,140076,131388,65700,0,63712,0,2391602108,63
o,1724819734.407619,172.16.5.2,28791,172.16.1.2,5102,58595,64024,2086,217472,65728,6,6,4,1460,128437,1,16778208,430000,140076,128492,65700,0,60816,0,2391602108,63
i,1724819734.407800,172.16.5.2,28791,172.16.1.2,5102,58595,64024,2086,217472,65728,6,6,4,1460,128437,1,16778208,430000,140076,128492,65700,0,63712,0,2391602108,63
o,1724819734.407817,172.16.5.2,28791,172.16.1.2,5102,58595,64024,2086,220352,65728,6,6,4,1460,126250,1,16778208,420000,140076,125596,65700,0,60816,0,2391602108,63
i,1724819734.417508,172.16.5.2,28791,172.16.1.2,5102,58595,64024,2086,220352,65728,6,6,4,1460,126250,1,16778208,420000,148268,148268,65700,0,63712,0,2391602108,63
o,1724819734.417527,172.16.5.2,28791,172.16.1.2,5102,58595,64024,2086,220352,65728,6,6,4,1460,125625,1,16778208,400000,148268,145372,65700,0,60816,0,2391602108,63
i,1724819734.419254,172.16.5.2,28791,172.16.1.2,5102,58595,64024,2086,220352,65728,6,6,4,1460,125625,1,16778208,400000,148268,148268,65700,0,63712,0,2391602108,63
o,1724819734.419319,172.16.5.2,28791,172.16.1.2,5102,58595,64024,2086,220352,65728,6,6,4,1460,123750,1,16778208,390000,148268,145372,65700,0,60816,0,2391602108,63
i,1724819734.420630,172.16.5.2,28791,172.16.1.2,5102,58595,64024,2086,220352,65728,6,6,4,1460,123750,1,16778208,390000,148268,148268,65700,0,63712,0,2391602108,63
o,1724819734.420653,172.16.5.2,28791,172.16.1.2,5102,58595,64024,2086,218880,65728,6,6,4,1460,122187,1,16778208,390000,148268,145372,65700,0,60816,0,2391602108,63
i,1724819734.420829,172.16.5.2,28791,172.16.1.2,5102,58595,64024,2086,218880,65728,6,6,4,1460,122187,1,16778208,390000,148268,145372,65700,0,63712,0,2391602108,63
o,1724819734.420849,172.16.5.2,28791,172.16.1.2,5102,58595,64024,2086,220352,65728,6,6,4,1460,120937,1,16778208,380000,148268,142476,65700,0,60816,0,2391602108,63
i,1724819734.421071,172.16.5.2,28791,172.16.1.2,5102,58595,64024,2086,220352,65728,6,6,4,1460,120937,1,16778208,380000,148268,142476,65700,0,63712,0,2391602108,63
o,1724819734.421090,172.16.5.2,28791,172.16.1.2,5102,58595,64024,2086,218880,65728,6,6,4,1460,119687,1,16778208,370000,148268,139580,65700,0,60816,0,2391602108,63
i,1724819734.421546,172.16.5.2,28791,172.16.1.2,5102,58595,64024,2086,218880,65728,6,6,4,1460,119687,1,16778208,370000,148268,139580,65700,0,63712,0,2391602108,63
o,1724819734.421568,172.16.5.2,28791,172.16.1.2,5102,58595,64024,2086,218880,65728,6,6,4,1460,118750,1,16778208,370000,148268,145372,65700,0,60816,0,2391602108,63
o,1724819734.421761,172.16.5.2,28791,172.16.1.2,5102,58595,64024,2086,218880,65728,6,6,4,1460,118750,1,16778208,370000,148268,145372,65700,0,62264,0,2391602108,63
i,1724819734.423427,172.16.5.2,28791,172.16.1.2,5102,58595,64024,2086,218880,65728,6,6,4,1460,118750,1,16778208,370000,148268,148268,65700,0,63712,0,2391602108,63
o,1724819734.423447,172.16.5.2,28791,172.16.1.2,5102,58595,64024,2086,220352,65728,6,6,4,1460,117812,1,16778208,360000,148268,145372,65700,0,60816,0,2391602108,63
i,1724819734.423586,172.16.5.2,28791,172.16.1.2,5102,58595,64024,2086,220352,65728,6,6,4,1460,117812,1,16778208,360000,148268,145372,65700,0,63712,0,2391602108,63
o,1724819734.423603,172.16.5.2,28791,172.16.1.2,5102,58595,64024,2086,220352,65728,6,6,4,1460,116875,1,16778208,360000,148268,142476,65700,0,60816,0,2391602108,63
i,1724819734.424599,172.16.5.2,28791,172.16.1.2,5102,58595,64024,2086,220352,65728,6,6,4,1460,116875,1,16778208,360000,148268,148268,65700,0,63712,0,2391602108,63
o,1724819734.424665,172.16.5.2,28791,172.16.1.2,5102,58595,64024,2086,217472,65728,6,6,4,1460,116250,1,16778208,350000,148268,145372,65700,0,60816,0,2391602108,63
i,1724819734.507777,172.16.5.2,28791,172.16.1.2,5102,58595,64024,2086,217472,65728,6,6,4,1460,116250,1,16778208,350000,148268,148268,65700,0,63712,0,2391602108,63
o,1724819734.507854,172.16.5.2,28791,172.16.1.2,5102,58595,64024,2086,220352,65728,6,6,4,1460,124375,1,16778208,410000,148268,145372,65700,0,60816,0,2391602108,63
i,1724819734.508030,172.16.5.2,28791,172.16.1.2,5102,58595,64024,2086,220352,65728,6,6,4,1460,124375,1,16778208,410000,148268,145372,65700,0,63712,0,2391602108,63
o,1724819734.508055,172.16.5.2,28791,172.16.1.2,5102,58595,64024,2086,218880,65728,6,6,4,1460,122812,1,16778208,400000,148268,142476,65700,0,60816,0,2391602108,63
i,1724819734.533514,172.16.5.2,28791,172.16.1.2,5102,58595,64024,2086,218880,65728,6,6,4,1460,122812,1,16778208,400000,148268,148268,65700,0,63712,0,2391602108,63
o,1724819734.533604,172.16.5.2,28791,172.16.1.2,5102,58595,64024,2086,220352,65728,6,6,4,1460,123750,1,16778208,390000,148268,145372,65700,0,60816,0,2391602108,63
i,1724819734.539047,172.16.5.2,28791,172.16.1.2,5102,58595,64024,2086,220352,65728,6,6,4,1460,123750,1,16778208,390000,148268,148268,65700,0,63712,0,2391602108,63
o,1724819734.539108,172.16.5.2,28791,172.16.1.2,5102,58595,64024,2086,220352,65728,6,6,4,1460,124687,1,16778208,380000,148268,145372,65700,0,60816,0,2391602108,63
i,1724819734.539281,172.16.5.2,28791,172.16.1.2,5102,58595,64024,2086,220352,65728,6,6,4,1460,124687,1,16778208,380000,148268,145372,65700,0,63712,0,2391602108,63
o,1724819734.539299,172.16.5.2,28791,172.16.1.2,5102,58595,65484,2086,217472,65728,6,6,4,1460,125625,1,16778208,380000,148268,142476,65700,0,60816,0,2391602108,63
i,1724819734.565152,172.16.5.2,28791,172.16.1.2,5102,58595,65484,2086,217472,65728,6,6,4,1460,125625,1,16778208,380000,148268,148268,65700,0,65160,0,2391602108,63
o,1724819734.565181,172.16.5.2,28791,172.16.1.2,5102,58595,65484,2086,220352,65728,6,6,4,1460,131250,1,16778208,410000,148268,145372,65700,0,62264,0,2391602108,63
i,1724819734.566421,172.16.5.2,28791,172.16.1.2,5102,58595,65484,2086,220352,65728,6,6,4,1460,131250,1,16778208,410000,148268,148268,65700,0,65160,0,2391602108,63
o,1724819734.566498,172.16.5.2,28791,172.16.1.2,5102,58595,65484,2086,220352,65728,6,6,4,1460,136250,1,16778208,440000,148268,145372,65700,0,62264,0,2391602108,63
i,1724819734.566652,172.16.5.2,28791,172.16.1.2,5102,58595,65484,2086,220352,65728,6,6,4,1460,136250,1,16778208,440000,148268,145372,65700,0,65160,0,2391602108,63
o,1724819734.566677,172.16.5.2,28791,172.16.1.2,5102,58595,65484,2086,220352,65728,6,6,4,1460,140625,1,16778208,450000,148268,142476,65700,0,62264,0,2391602108,63
i,1724819734.568210,172.16.5.2,28791,172.16.1.2,5102,58595,65484,2086,220352,65728,6,6,4,1460,140625,1,16778208,450000,148268,148268,65700,0,65160,0,2391602108,63
o,1724819734.568278,172.16.5.2,28791,172.16.1.2,5102,58595,65484,2086,220352,65728,6,6,4,1460,143125,1,16778208,450000,148268,145372,65700,0,62264,0,2391602108,63
i,1724819734.568878,172.16.5.2,28791,172.16.1.2,5102,58595,65484,2086,220352,65728,6,6,4,1460,143125,1,16778208,450000,148268,145372,65700,0,65160,0,2391602108,63
o,1724819734.568897,172.16.5.2,28791,172.16.1.2,5102,58595,65484,2086,220352,65728,6,6,4,1460,145312,1,16778208,440000,148268,142476,65700,0,62264,0,2391602108,63
i,1724819734.569077,172.16.5.2,28791,172.16.1.2,5102,58595,65484,2086,220352,65728,6,6,4,1460,145312,1,16778208,440000,148268,142476,65700,0,65160,0,2391602108,63
o,1724819734.569105,172.16.5.2,28791,172.16.1.2,5102,58595,65484,2086,220352,65728,6,6,4,1460,147187,1,16778208,430000,148268,139580,65700,0,62264,0,2391602108,63
i,1724819734.570241,172.16.5.2,28791,172.16.1.2,5102,58595,65484,2086,220352,65728,6,6,4,1460,147187,1,16778208,430000,148268,148268,65700,0,65160,0,2391602108,63
o,1724819734.570260,172.16.5.2,28791,172.16.1.2,5102,58595,65484,2086,218880,65728,6,6,4,1460,149062,1,16778208,430000,148268,145372,65700,0,62264,0,2391602108,63
i,1724819734.570441,172.16.5.2,28791,172.16.1.2,5102,58595,65484,2086,218880,65728,6,6,4,1460,149062,1,16778208,430000,148268,145372,65700,0,65160,0,2391602108,63
o,1724819734.570466,172.16.5.2,28791,172.16.1.2,5102,58595,65484,2086,218880,65728,6,6,4,1460,150625,1,16778208,420000,148268,142476,65700,0,62264,0,2391602108,63
i,1724819734.574626,172.16.5.2,28791,172.16.1.2,5102,58595,65484,2086,218880,65728,6,6,4,1460,150625,1,16778208,420000,148268,148268,65700,0,65160,0,2391602108,63
o,1724819734.574634,172.16.5.2,28791,172.16.1.2,5102,58595,65484,2086,220352,65728,6,6,4,1460,151875,1,16778208,410000,148268,145372,65700,0,62264,0,2391602108,63
i,1724819734.576196,172.16.5.2,28791,172.16.1.2,5102,58595,65484,2086,220352,65728,6,6,4,1460,151875,1,16778208,410000,148268,148268,65700,0,65160,0,2391602108,63
o,1724819734.576214,172.16.5.2,28791,172.16.1.2,5102,58595,65484,2086,220352,65728,6,6,4,1460,153125,1,16778208,410000,148268,145372,65700,0,62264,0,2391602108,63
i,1724819734.576331,172.16.5.2,28791,172.16.1.2,5102,58595,65484,2086,220352,65728,6,6,4,1460,153125,1,16778208,410000,148268,145372,65700,0,65160,0,2391602108,63
o,1724819734.576346,172.16.5.2,28791,172.16.1.2,5102,58595,65484,2086,218880,65728,6,6,4,1460,154062,1,16778208,400000,148268,142476,65700,0,62264,0,2391602108,63
i,1724819734.576900,172.16.5.2,28791,172.16.1.2,5102,58595,65484,2086,218880,65728,6,6,4,1460,154062,1,16778208,400000,148268,142476,65700,0,65160,0,2391602108,63
o,1724819734.576930,172.16.5.2,28791,172.16.1.2,5102,58595,65484,2086,220352,65728,6,6,4,1460,155000,1,16778208,400000,148268,139580,65700,0,62264,0,2391602108,63
i,1724819734.597987,172.16.5.2,28791,172.16.1.2,5102,58595,65484,2086,220352,65728,6,6,4,1460,155000,1,16778208,400000,148268,148268,65700,0,65160,0,2391602108,63
o,1724819734.598018,172.16.5.2,28791,172.16.1.2,5102,58595,65484,2086,218880,65728,6,6,4,1460,158125,1,16778208,420000,148268,145372,65700,0,62264,0,2391602108,63
i,1724819734.598157,172.16.5.2,28791,172.16.1.2,5102,58595,65484,2086,218880,65728,6,6,4,1460,158125,1,16778208,420000,148268,145372,65700,0,65160,0,2391602108,63
o,1724819734.598174,172.16.5.2,28791,172.16.1.2,5102,58595,65484,2086,216000,65728,6,6,4,1460,160937,1,16778208,430000,148268,142476,65700,0,62264,0,2391602108,63
o,1724819734.598491,172.16.5.2,28791,172.16.1.2,5102,58595,65484,2086,216000,65728,6,6,4,1460,160937,1,16778208,430000,148268,142476,65700,0,63712,0,2391602108,63
i,1724819734.618264,172.16.5.2,28791,172.16.1.2,5102,58595,65484,2086,216000,65728,6,6,4,1460,160937,1,16778208,430000,148268,148268,65700,0,65160,0,2391602108,63
o,1724819734.618341,172.16.5.2,28791,172.16.1.2,5102,58595,65484,2086,218880,65728,6,6,4,1460,164687,1,16778208,440000,148268,145372,65700,0,62264,0,2391602108,63
i,1724819734.618681,172.16.5.2,28791,172.16.1.2,5102,58595,65484,2086,218880,65728,6,6,4,1460,164687,1,16778208,440000,148268,145372,65700,0,65160,0,2391602108,63
o,1724819734.618701,172.16.5.2,28791,172.16.1.2,5102,58595,65484,2086,216000,65728,6,6,4,1460,168125,1,16778208,450000,148268,142476,65700,0,62264,0,2391602108,63
i,1724819734.629964,172.16.5.2,28791,172.16.1.2,5102,58595,65484,2086,216000,65728,6,6,4,1460,168125,1,16778208,450000,148268,148268,65700,0,65160,0,2391602108,63
o,1724819734.629986,172.16.5.2,28791,172.16.1.2,5102,58595,65484,2086,218880,65728,6,6,4,1460,172187,1,16778208,470000,148268,145372,65700,0,62264,0,2391602108,63
i,1724819734.666069,172.16.5.2,28791,172.16.1.2,5102,58595,65484,2086,218880,65728,6,6,4,1460,172187,1,16778208,470000,148268,148268,65700,0,65160,0,2391602108,63
o,1724819734.666140,172.16.5.2,28791,172.16.1.2,5102,58595,65484,2086,218880,65728,6,6,4,1460,170937,1,16778208,450000,148268,145372,65700,0,62264,0,2391602108,63
i,1724819734.666264,172.16.5.2,28791,172.16.1.2,5102,58595,65484,2086,218880,65728,6,6,4,1460,170937,1,16778208,450000,148268,145372,65700,0,65160,0,2391602108,63
o,1724819734.666280,172.16.5.2,28791,172.16.1.2,5102,58595,65484,2086,218880,65728,6,6,4,1460,169687,1,16778208,440000,148268,142476,65700,0,62264,0,2391602108,63
i,1724819734.688289,172.16.5.2,28791,172.16.1.2,5102,58595,65484,2086,218880,65728,6,6,4,1460,169687,1,16778208,440000,148268,148268,65700,0,65160,0,2391602108,63
o,1724819734.688309,172.16.5.2,28791,172.16.1.2,5102,58595,65484,2086,218880,65728,6,6,4,1460,167500,1,16778208,440000,148268,145372,65700,0,62264,0,2391602108,63
i,1724819734.688502,172.16.5.2,28791,172.16.1.2,5102,58595,65484,2086,218880,65728,6,6,4,1460,167500,1,16778208,440000,148268,145372,65700,0,65160,0,2391602108,63
o,1724819734.688525,172.16.5.2,28791,172.16.1.2,5102,58595,65484,2086,220352,65728,6,6,4,1460,165312,1,16778208,440000,148268,142476,65700,0,62264,0,2391602108,63
i,1724819734.689574,172.16.5.2,28791,172.16.1.2,5102,58595,65484,2086,220352,65728,6,6,4,1460,165312,1,16778208,440000,148268,148268,65700,0,65160,0,2391602108,63
o,1724819734.689643,172.16.5.2,28791,172.16.1.2,5102,58595,65484,2086,217472,65728,6,6,4,1460,163437,1,16778208,430000,148268,145372,65700,0,62264,0,2391602108,63
i,1724819734.704757,172.16.5.2,28791,172.16.1.2,5102,58595,65484,2086,217472,65728,6,6,4,1460,163437,1,16778208,430000,148268,148268,65700,0,65160,0,2391602108,63
o,1724819734.704790,172.16.5.2,28791,172.16.1.2,5102,58595,66944,2086,220352,65728,6,6,4,1460,164375,1,16778208,420000,148268,145372,65700,0,62264,0,2391602108,63
i,1724819734.704990,172.16.5.2,28791,172.16.1.2,5102,58595,66944,2086,220352,65728,6,6,4,1460,164375,1,16778208,420000,148268,145372,65700,0,66608,0,2391602108,63
o,1724819734.705015,172.16.5.2,28791,172.16.1.2,5102,58595,66944,2086,217472,65728,6,6,4,1460,161562,1,16778208,430000,148268,142476,65700,0,63712,0,2391602108,63
i,1724819734.705155,172.16.5.2,28791,172.16.1.2,5102,58595,66944,2086,217472,65728,6,6,4,1460,161562,1,16778208,430000,148268,142476,65700,0,66608,0,2391602108,63
o,1724819734.705174,172.16.5.2,28791,172.16.1.2,5102,58595,66944,2086,214592,65728,6,6,4,1460,159062,1,16778208,430000,148268,139580,65700,0,63712,0,2391602108,63
i,1724819734.705356,172.16.5.2,28791,172.16.1.2,5102,58595,66944,2086,214592,65728,6,6,4,1460,159062,1,16778208,430000,148268,139580,65700,0,66608,0,2391602108,63
o,1724819734.705376,172.16.5.2,28791,172.16.1.2,5102,58595,66944,2086,218880,65728,6,6,4,1460,156875,1,16778208,420000,148268,136684,65700,0,63712,0,2391602108,63
i,1724819734.706313,172.16.5.2,28791,172.16.1.2,5102,58595,66944,2086,218880,65728,6,6,4,1460,156875,1,16778208,420000,148268,148268,65700,0,66608,0,2391602108,63
o,1724819734.706341,172.16.5.2,28791,172.16.1.2,5102,58595,66944,2086,220352,65728,6,6,4,1460,155000,1,16778208,420000,148268,145372,65700,0,63712,0,2391602108,63
i,1724819734.708406,172.16.5.2,28791,172.16.1.2,5102,58595,66944,2086,220352,65728,6,6,4,1460,155000,1,16778208,420000,148268,148268,65700,0,66608,0,2391602108,63
o,1724819734.708472,172.16.5.2,28791,172.16.1.2,5102,58595,66944,2086,220352,65728,6,6,4,1460,153125,1,16778208,420000,148268,145372,65700,0,63712,0,2391602108,63
i,1724819734.708875,172.16.5.2,28791,172.16.1.2,5102,58595,66944,2086,220352,65728,6,6,4,1460,153125,1,16778208,420000,148268,145372,65700,0,66608,0,2391602108,63
