enable_time_secs=1724819554	enable_time_usecs=218579	siftrver=1.3.0	sysname=FreeBSD	sysver=1401000	ipmode=4
o,1724819554.218912,10.0.2.15,22,10.0.2.2,51098,1073725440,17746,1026,65535,65700,0,0,4,1460,312,0,16777220,230000,33580,172,65700,0,0,0,2848403908,63
o,1724819554.219111,10.0.2.15,22,10.0.2.2,51098,1073725440,17746,1026,65535,65700,0,0,4,1460,312,0,16777220,230000,33580,244,65700,0,172,0,2848403908,63
i,1724819554.219349,10.0.2.15,22,10.0.2.2,51098,1073725440,17746,1026,65535,65700,0,0,4,1460,312,0,16777220,230000,33580,244,65700,0,244,0,2848403908,63
i,1724819554.219410,10.0.2.15,22,10.0.2.2,51098,1073725440,17918,1026,65535,65700,0,0,4,1460,312,0,4,240000,33580,72,65700,0,72,0,2848403908,63
i,1724819554.219775,10.0.2.15,22,10.0.2.2,51098,1073725440,17990,1026,65535,65700,0,0,4,1460,312,0,4,240000,33580,0,65700,0,0,0,2848403908,63
i,1724819554.219799,10.0.2.15,22,10.0.2.2,51098,1073725440,17990,1026,65535,65700,0,0,4,1460,312,0,4,240000,33580,0,65700,96,0,0,2848403908,63
o,1724819554.219819,10.0.2.15,22,10.0.2.2,51098,1073725440,17990,1026,65535,65604,0,0,5,1460,312,0,5,240000,33580,0,65700,96,0,0,2848403908,63
o,1724819554.220929,10.0.2.15,22,10.0.2.2,51098,1073725440,17990,1026,65535,65604,0,0,8,1460,312,0,4,240000,33580,0,65700,0,0,0,2848403908,63
i,1724819554.221552,10.0.2.15,22,10.0.2.2,51098,1073725440,17990,1026,65535,65604,0,0,8,1460,312,0,67108884,240000,33580,0,65700,0,1,0,2848403908,63
i,1724819557.327873,10.0.2.15,22,10.0.2.2,51100,1073725440,14600,0,65535,65700,0,0,4,1460,312,0,16777216,270000,33580,0,65700,0,0,0,1364960222,63
o,1724819557.337312,10.0.2.15,22,10.0.2.2,51100,1073725440,14600,1026,65535,65700,0,0,4,1460,312,0,16777216,270000,33580,38,65700,42,0,0,1364960222,63
i,1724819557.338006,10.0.2.15,22,10.0.2.2,51100,1073725440,14600,1026,65535,65700,0,0,4,1460,312,0,16777216,270000,33580,38,65700,0,38,0,1364960222,63
i,1724819557.338647,10.0.2.15,22,10.0.2.2,51100,1073725440,14638,1026,65535,65700,0,0,4,1460,312,0,0,240000,33580,0,65700,0,0,0,1364960222,63
i,1724819557.338666,10.0.2.15,22,10.0.2.2,51100,1073725440,14638,1026,65535,65700,0,0,4,1460,312,0,0,240000,33580,0,65700,1460,0,0,1364960222,63
o,1724819557.338685,10.0.2.15,22,10.0.2.2,51100,1073725440,14638,1026,65535,65700,0,0,4,1460,312,0,1,240000,33580,0,65700,1536,0,0,1364960222,63
o,1724819557.340215,10.0.2.15,22,10.0.2.2,51100,1073725440,14638,1026,65535,65700,0,0,4,1460,312,0,16777216,240000,33580,1120,65700,1536,0,0,1364960222,63
i,1724819557.341211,10.0.2.15,22,10.0.2.2,51100,1073725440,14638,1026,65535,65700,0,0,4,1460,312,0,16777216,240000,33580,1120,65700,0,1120,0,1364960222,63
i,1724819557.342284,10.0.2.15,22,10.0.2.2,51100,1073725440,15758,1026,65535,65700,0,0,4,1460,312,0,0,240000,33580,0,65700,0,0,0,1364960222,63
o,1724819557.344539,10.0.2.15,22,10.0.2.2,51100,1073725440,15758,1026,65535,65700,0,0,4,1460,312,0,16777216,240000,33580,492,65700,0,0,0,1364960222,63
i,1724819557.345022,10.0.2.15,22,10.0.2.2,51100,1073725440,15758,1026,65535,65700,0,0,4,1460,312,0,16777216,240000,33580,492,65700,0,492,0,1364960222,63
i,1724819557.349364,10.0.2.15,22,10.0.2.2,51100,1073725440,16250,1026,65535,65700,0,0,4,1460,312,0,0,240000,33580,0,65700,0,0,0,1364960222,63
i,1724819557.349385,10.0.2.15,22,10.0.2.2,51100,1073725440,16250,1026,65535,65700,0,0,4,1460,312,0,0,240000,33580,0,65700,16,0,0,1364960222,63
o,1724819557.349403,10.0.2.15,22,10.0.2.2,51100,1073725440,16250,1026,65535,65700,0,0,4,1460,312,0,1,240000,33580,0,65700,60,0,0,1364960222,63
o,1724819557.349635,10.0.2.15,22,10.0.2.2,51100,1073725440,16250,1026,65535,65700,0,0,4,1460,312,0,16777216,240000,33580,44,65700,0,0,0,1364960222,63
i,1724819557.350182,10.0.2.15,22,10.0.2.2,51100,1073725440,16250,1026,65535,65700,0,0,4,1460,312,0,16777216,240000,33580,44,65700,0,44,0,1364960222,63
i,1724819557.350200,10.0.2.15,22,10.0.2.2,51100,1073725440,16294,1026,65535,65700,0,0,4,1460,312,0,0,240000,33580,0,65700,0,0,0,1364960222,63
o,1724819557.351448,10.0.2.15,22,10.0.2.2,51100,1073725440,16294,1026,65535,65700,0,0,4,1460,312,0,16777216,240000,33580,68,65700,0,0,0,1364960222,63
i,1724819557.351951,10.0.2.15,22,10.0.2.2,51100,1073725440,16294,1026,65535,65700,0,0,4,1460,312,0,16777216,240000,33580,68,65700,0,68,0,1364960222,63
i,1724819557.352400,10.0.2.15,22,10.0.2.2,51100,1073725440,16362,1026,65535,65700,0,0,4,1460,312,0,0,240000,33580,0,65700,0,0,0,1364960222,63
o,1724819557.353156,10.0.2.15,22,10.0.2.2,51100,1073725440,16362,1026,65535,65700,0,0,4,1460,312,0,16777216,240000,33580,332,65700,0,0,0,1364960222,63
i,1724819557.355603,10.0.2.15,22,10.0.2.2,51100,1073725440,16362,1026,65535,65700,0,0,4,1460,312,0,16777216,240000,33580,332,65700,0,332,0,1364960222,63
i,1724819557.357437,10.0.2.15,22,10.0.2.2,51100,1073725440,16694,1026,65535,65700,0,0,4,1460,312,0,0,240000,33580,0,65700,0,0,0,1364960222,63
o,1724819557.373387,10.0.2.15,22,10.0.2.2,51100,1073725440,16694,1026,65535,65700,0,0,4,1460,312,0,16777216,240000,33580,28,65700,0,0,0,1364960222,63
i,1724819557.373968,10.0.2.15,22,10.0.2.2,51100,1073725440,16694,1026,65535,65700,0,0,4,1460,312,0,16777216,240000,33580,28,65700,0,28,0,1364960222,63
i,1724819557.374346,10.0.2.15,22,10.0.2.2,51100,1073725440,16722,1026,65535,65700,0,0,4,1460,312,0,0,240000,33580,0,65700,0,0,0,1364960222,63
o,1724819557.375490,10.0.2.15,22,10.0.2.2,51100,1073725440,16722,1026,65535,65700,0,0,4,1460,312,0,16777216,240000,33580,768,65700,112,0,0,1364960222,63
i,1724819557.376056,10.0.2.15,22,10.0.2.2,51100,1073725440,16722,1026,65535,65700,0,0,4,1460,312,0,16777216,240000,33580,908,65700,0,768,0,1364960222,63
o,1724819557.376073,10.0.2.15,22,10.0.2.2,51100,1073725440,17490,1026,65535,65700,0,0,4,1460,312,0,16777216,240000,33580,140,65700,0,0,0,1364960222,63
i,1724819557.376752,10.0.2.15,22,10.0.2.2,51100,1073725440,17490,1026,65535,65700,0,0,4,1460,312,0,16777216,240000,33580,184,65700,0,140,0,1364960222,63
o,1724819557.376768,10.0.2.15,22,10.0.2.2,51100,1073725440,17630,1026,65535,65700,0,0,4,1460,312,0,16777216,240000,33580,44,65700,0,0,0,1364960222,63
i,1724819557.377694,10.0.2.15,22,10.0.2.2,51100,1073725440,17630,1026,65535,65700,0,0,4,1460,312,0,16777216,240000,33580,44,65700,0,44,0,1364960222,63
i,1724819557.377712,10.0.2.15,22,10.0.2.2,51100,1073725440,17674,1026,65535,65700,0,0,4,1460,312,0,0,240000,33580,0,65700,0,0,0,1364960222,63
o,1724819557.378408,10.0.2.15,22,10.0.2.2,51100,1073725440,17674,1026,65535,65700,0,0,4,1460,312,0,16777220,240000,33580,72,65700,0,0,0,1364960222,63
i,1724819557.379268,10.0.2.15,22,10.0.2.2,51100,1073725440,17674,1026,65535,65700,0,0,4,1460,312,0,16777220,240000,33580,72,65700,0,72,0,1364960222,63
o,1724819557.381314,10.0.2.15,22,10.0.2.2,51100,1073725440,17746,1026,65535,65700,0,0,4,1460,312,0,16777220,240000,33580,104,65700,0,0,0,1364960222,63
i,1724819557.381806,10.0.2.15,22,10.0.2.2,51100,1073725440,17746,1026,65535,65700,0,0,4,1460,312,0,16777220,240000,33580,104,65700,0,104,0,1364960222,63
o,1724819557.392588,10.0.2.15,22,10.0.2.2,51100,1073725440,17850,1026,65535,65700,0,0,4,1460,312,0,16777220,240000,33580,72,65700,0,0,0,1364960222,63
i,1724819557.393684,10.0.2.15,22,10.0.2.2,51100,1073725440,17850,1026,65535,65700,0,0,4,1460,312,0,16777220,240000,33580,72,65700,0,72,0,1364960222,63
i,1724819557.394169,10.0.2.15,22,10.0.2.2,51100,1073725440,17922,1026,65535,65700,0,0,4,1460,312,0,4,230000,33580,0,65700,0,0,0,1364960222,63
i,1724819557.394189,10.0.2.15,22,10.0.2.2,51100,1073725440,17922,1026,65535,65700,0,0,4,1460,312,0,4,230000,33580,0,65700,96,0,0,1364960222,63
o,1724819557.394209,10.0.2.15,22,10.0.2.2,51100,1073725440,17922,1026,65535,65604,0,0,5,1460,312,0,5,230000,33580,0,65700,96,0,0,1364960222,63
o,1724819557.395032,10.0.2.15,22,10.0.2.2,51100,1073725440,17922,1026,65535,65604,0,0,8,1460,312,0,4,230000,33580,0,65700,0,0,0,1364960222,63
i,1724819557.395983,10.0.2.15,22,10.0.2.2,51100,1073725440,17922,1026,65535,65604,0,0,8,1460,312,0,67108884,230000,33580,0,65700,0,1,0,1364960222,63
i,1724819558.467892,10.0.2.15,22,10.0.2.2,51110,1073725440,14600,0,65535,65700,0,0,4,1460,312,0,16777216,270000,33580,0,65700,0,0,0,3399150218,63
o,1724819558.477591,10.0.2.15,22,10.0.2.2,51110,1073725440,14600,1026,65535,65700,0,0,4,1460,312,0,16777216,270000,33580,38,65700,42,0,0,3399150218,63
i,1724819558.478491,10.0.2.15,22,10.0.2.2,51110,1073725440,14600,1026,65535,65700,0,0,4,1460,312,0,16777216,270000,33580,38,65700,0,38,0,3399150218,63
i,1724819558.478522,10.0.2.15,22,10.0.2.2,51110,1073725440,14638,1026,65535,65700,0,0,4,1460,312,0,0,230000,33580,0,65700,0,0,0,3399150218,63
i,1724819558.478537,10.0.2.15,22,10.0.2.2,51110,1073725440,14638,1026,65535,65700,0,0,4,1460,312,0,0,230000,33580,0,65700,1460,0,0,3399150218,63
o,1724819558.478556,10.0.2.15,22,10.0.2.2,51110,1073725440,14638,1026,65535,65700,0,0,4,1460,312,0,1,230000,33580,0,65700,1536,0,0,3399150218,63
o,1724819558.479938,10.0.2.15,22,10.0.2.2,51110,1073725440,14638,1026,65535,65700,0,0,4,1460,312,0,16777216,230000,33580,1120,65700,1536,0,0,3399150218,63
i,1724819558.480971,10.0.2.15,22,10.0.2.2,51110,1073725440,14638,1026,65535,65700,0,0,4,1460,312,0,16777216,230000,33580,1120,65700,1536,1120,0,3399150218,63
i,1724819558.481932,10.0.2.15,22,10.0.2.2,51110,1073725440,15758,1026,65535,65700,0,0,4,1460,312,0,0,240000,33580,0,65700,0,0,0,3399150218,63
o,1724819558.486437,10.0.2.15,22,10.0.2.2,51110,1073725440,15758,1026,65535,65700,0,0,4,1460,312,0,16777216,240000,33580,492,65700,0,0,0,3399150218,63
i,1724819558.486866,10.0.2.15,22,10.0.2.2,51110,1073725440,15758,1026,65535,65700,0,0,4,1460,312,0,16777216,240000,33580,492,65700,0,492,0,3399150218,63
i,1724819558.491290,10.0.2.15,22,10.0.2.2,51110,1073725440,16250,1026,65535,65700,0,0,4,1460,312,0,0,240000,33580,0,65700,0,0,0,3399150218,63
i,1724819558.491311,10.0.2.15,22,10.0.2.2,51110,1073725440,16250,1026,65535,65700,0,0,4,1460,312,0,0,240000,33580,0,65700,16,0,0,3399150218,63
o,1724819558.491330,10.0.2.15,22,10.0.2.2,51110,1073725440,16250,1026,65535,65700,0,0,4,1460,312,0,1,240000,33580,0,65700,60,0,0,3399150218,63
o,1724819558.491508,10.0.2.15,22,10.0.2.2,51110,1073725440,16250,1026,65535,65700,0,0,4,1460,312,0,16777216,240000,33580,44,65700,0,0,0,3399150218,63
i,1724819558.492442,10.0.2.15,22,10.0.2.2,51110,1073725440,16250,1026,65535,65700,0,0,4,1460,312,0,16777216,240000,33580,44,65700,0,44,0,3399150218,63
i,1724819558.492462,10.0.2.15,22,10.0.2.2,51110,1073725440,16294,1026,65535,65700,0,0,4,1460,312,0,0,240000,33580,0,65700,0,0,0,3399150218,63
o,1724819558.494647,10.0.2.15,22,10.0.2.2,51110,1073725440,16294,1026,65535,65700,0,0,4,1460,312,0,16777216,240000,33580,68,65700,0,0,0,3399150218,63
i,1724819558.495310,10.0.2.15,22,10.0.2.2,51110,1073725440,16294,1026,65535,65700,0,0,4,1460,312,0,16777216,240000,33580,68,65700,0,68,0,3399150218,63
i,1724819558.495326,10.0.2.15,22,10.0.2.2,51110,1073725440,16362,1026,65535,65700,0,0,4,1460,312,0,0,240000,33580,0,65700,0,0,0,3399150218,63
o,1724819558.496704,10.0.2.15,22,10.0.2.2,51110,1073725440,16362,1026,65535,65700,0,0,4,1460,312,0,16777216,240000,33580,332,65700,0,0,0,3399150218,63
i,1724819558.497697,10.0.2.15,22,10.0.2.2,51110,1073725440,16362,1026,65535,65700,0,0,4,1460,312,0,16777216,240000,33580,332,65700,0,332,0,3399150218,63
i,1724819558.499057,10.0.2.15,22,10.0.2.2,51110,1073725440,16694,1026,65535,65700,0,0,4,1460,312,0,0,240000,33580,0,65700,0,0,0,3399150218,63
o,1724819558.515994,10.0.2.15,22,10.0.2.2,51110,1073725440,16694,1026,65535,65700,0,0,4,1460,312,0,16777216,240000,33580,28,65700,0,0,0,3399150218,63
i,1724819558.516606,10.0.2.15,22,10.0.2.2,51110,1073725440,16694,1026,65535,65700,0,0,4,1460,312,0,16777216,240000,33580,28,65700,0,28,0,3399150218,63
i,1724819558.516606,10.0.2.15,22,10.0.2.2,51110,1073725440,16722,1026,65535,65700,0,0,4,1460,312,0,0,240000,33580,0,65700,0,0,0,3399150218,63
o,1724819558.518189,10.0.2.15,22,10.0.2.2,51110,1073725440,16722,1026,65535,65700,0,0,4,1460,312,0,16777216,240000,33580,768,65700,112,0,0,3399150218,63
i,1724819558.519017,10.0.2.15,22,10.0.2.2,51110,1073725440,16722,1026,65535,65700,0,0,4,1460,312,0,16777216,240000,33580,908,65700,112,768,0,3399150218,63
o,1724819558.519037,10.0.2.15,22,10.0.2.2,51110,1073725440,17490,1026,65535,65700,0,0,4,1460,312,0,16777216,240000,33580,140,65700,112,0,0,3399150218,63
i,1724819558.519436,10.0.2.15,22,10.0.2.2,51110,1073725440,17490,1026,65535,65700,0,0,4,1460,312,0,16777216,240000,33580,140,65700,112,140,0,3399150218,63
o,1724819558.521252,10.0.2.15,22,10.0.2.2,51110,1073725440,17630,1026,65535,65700,0,0,4,1460,312,0,16777216,240000,33580,44,65700,0,0,0,3399150218,63
i,1724819558.522075,10.0.2.15,22,10.0.2.2,51110,1073725440,17630,1026,65535,65700,0,0,4,1460,312,0,16777216,240000,33580,44,65700,0,44,0,3399150218,63
i,1724819558.522093,10.0.2.15,22,10.0.2.2,51110,1073725440,17674,1026,65535,65700,0,0,4,1460,312,0,0,240000,33580,0,65700,0,0,0,3399150218,63
o,1724819558.534167,10.0.2.15,22,10.0.2.2,51110,1073725440,17674,1026,65535,65700,0,0,4,1460,312,0,16777220,240000,33580,72,65700,0,0,0,3399150218,63
i,1724819558.535253,10.0.2.15,22,10.0.2.2,51110,1073725440,17674,1026,65535,65700,0,0,4,1460,312,0,16777220,240000,33580,72,65700,0,72,0,3399150218,63
o,1724819558.709869,172.16.5.2,31285,172.16.1.2,5102,36190,14480,2082,65535,65700,6,6,4,1460,272500,1,16778209,930000,33580,0,65700,0,0,0,3325216087,63
o,1724819558.710243,172.16.5.2,31285,172.16.1.2,5102,36190,14480,2082,65535,65700,6,6,4,1460,272500,1,16778212,930000,33580,37,65700,0,0,0,3325216087,63
i,1724819558.899294,172.16.5.2,31285,172.16.1.2,5102,36190,14480,2082,65535,65700,6,6,4,1460,272500,1,16778212,930000,33580,37,65700,0,37,0,3325216087,63
o,1724819558.903970,172.16.5.2,31285,172.16.1.2,5102,36190,14517,3106,65728,65728,6,6,4,1460,262187,1,16778212,880000,33580,4,65700,0,0,0,3325216087,63
o,1724819558.904086,172.16.5.2,31285,172.16.1.2,5102,36190,14517,3106,65728,65728,6,6,4,1460,262187,1,16778212,880000,33580,130,65700,0,4,0,3325216087,63
i,1724819559.118687,172.16.5.2,31285,172.16.1.2,5102,36190,14517,3106,65728,65728,6,6,4,1460,262187,1,16778212,880000,33580,130,65700,0,130,0,3325216087,63
i,1724819559.118783,172.16.5.2,31285,172.16.1.2,5102,36190,14647,3106,65600,65728,6,6,4,1460,255937,1,996,820000,33580,0,65700,0,0,0,3325216087,63
o,1724819559.154370,172.16.5.2,31285,172.16.1.2,5102,36190,14647,3106,65728,65728,6,6,4,1460,255937,1,997,820000,33580,0,65700,0,0,0,3325216087,63
o,1724819559.309976,172.16.5.2,55526,172.16.1.2,5102,36190,14480,2082,65535,65700,6,6,4,1460,273750,1,16778209,920000,33580,0,65700,0,0,0,278357807,63
o,1724819559.310128,172.16.5.2,55526,172.16.1.2,5102,36190,14480,2082,65535,65700,6,6,4,1460,273750,1,16778208,920000,33580,37,65700,0,0,0,278357807,63
i,1724819559.489089,172.16.5.2,31285,172.16.1.2,5102,36190,14647,3106,65728,65728,6,6,4,1460,255937,1,996,820000,33580,0,65700,0,0,0,3325216087,63
i,1724819559.489128,172.16.5.2,31285,172.16.1.2,5102,36190,14647,3106,65728,65728,6,6,4,1460,255937,1,996,820000,33580,0,65700,1,0,0,3325216087,63
o,1724819559.489147,172.16.5.2,31285,172.16.1.2,5102,36190,14647,3106,65728,65728,6,6,4,1460,255937,1,997,820000,33580,0,65700,2,0,0,3325216087,63
o,1724819559.489854,172.16.5.2,55526,172.16.1.2,5102,36190,14480,2086,65535,65700,6,6,4,1460,273750,1,16778208,920000,33580,33580,65700,0,37,0,278357807,63
i,1724819559.545493,172.16.5.2,55526,172.16.1.2,5102,36190,14480,2086,65535,65700,6,6,4,1460,273750,1,16778208,920000,33580,33580,65700,0,13069,0,278357807,63
o,1724819559.545591,172.16.5.2,55526,172.16.1.2,5102,36190,14517,2086,65728,65728,6,6,4,1460,269687,1,16778208,830000,33580,33543,65700,0,13032,0,278357807,63
i,1724819559.700151,172.16.5.2,55526,172.16.1.2,5102,36190,14517,2086,65728,65728,6,6,4,1460,269687,1,16778208,830000,33580,33543,65700,0,14480,0,278357807,63
o,1724819559.700191,172.16.5.2,55526,172.16.1.2,5102,36190,17413,2086,62848,65728,6,6,4,1460,262500,1,16778208,790000,33580,30647,65700,0,11584,0,278357807,63
i,1724819559.700422,172.16.5.2,55526,172.16.1.2,5102,36190,17413,2086,62848,65728,6,6,4,1460,262500,1,16778208,790000,41772,30647,65700,0,17376,0,278357807,63
o,1724819559.700443,172.16.5.2,55526,172.16.1.2,5102,36190,20309,2086,64256,65728,6,6,4,1460,255937,1,16778208,760000,41772,27751,65700,0,14480,0,278357807,63
i,1724819559.700866,172.16.5.2,55526,172.16.1.2,5102,36190,20309,2086,64256,65728,6,6,4,1460,255937,1,16778208,760000,41772,27751,65700,0,20272,0,278357807,63
o,1724819559.700886,172.16.5.2,55526,172.16.1.2,5102,36190,23205,2086,64256,65728,6,6,4,1460,250312,1,16778208,720000,41772,24855,65700,0,17376,0,278357807,63
i,1724819559.701243,172.16.5.2,55526,172.16.1.2,5102,36190,23205,2086,64256,65728,6,6,4,1460,250312,1,16778208,720000,41772,24855,65700,0,23168,0,278357807,63
o,1724819559.701263,172.16.5.2,55526,172.16.1.2,5102,36190,26101,2086,61376,65728,6,6,4,1460,245312,1,16778208,690000,41772,21959,65700,0,20272,0,278357807,63
o,1724819559.701580,172.16.5.2,55526,172.16.1.2,5102,36190,26101,2086,61376,65728,6,6,4,1460,245312,1,16778208,690000,49964,41772,65700,0,21959,0,278357807,63
i,1724819559.732423,172.16.5.2,55526,172.16.1.2,5102,36190,26101,2086,61376,65728,6,6,4,1460,245312,1,16778208,690000,58156,58156,65700,0,24855,0,278357807,63
o,1724819559.732459,172.16.5.2,55526,172.16.1.2,5102,36190,28997,2086,64256,65728,6,6,4,1460,244687,1,16778208,630000,58156,55260,65700,0,21959,0,278357807,63
o,1724819559.732576,172.16.5.2,55526,172.16.1.2,5102,36190,28997,2086,64256,65728,6,6,4,1460,244687,1,16778208,630000,58156,55260,65700,0,23407,0,278357807,63
i,1724819559.872732,172.16.5.2,55526,172.16.1.2,5102,36190,28997,2086,64256,65728,6,6,4,1460,244687,1,16778208,630000,66348,66348,65700,0,27751,0,278357807,63
o,1724819559.872732,172.16.5.2,55526,172.16.1.2,5102,36190,31893,2086,62848,65728,6,6,4,1460,235625,1,16778208,650000,66348,63452,65700,0,24855,0,278357807,63
i,1724819559.873357,172.16.5.2,55526,172.16.1.2,5102,36190,31893,2086,62848,65728,6,6,4,1460,235625,1,16778208,650000,66348,63452,65700,0,30647,0,278357807,63
o,1724819559.873376,172.16.5.2,55526,172.16.1.2,5102,36190,34789,2086,64256,65728,6,6,4,1460,227500,1,16778208,650000,74540,60556,65700,0,27751,0,278357807,63
i,1724819559.873558,172.16.5.2,55526,172.16.1.2,5102,36190,34789,2086,64256,65728,6,6,4,1460,227500,1,16778208,650000,74540,60556,65700,0,33543,0,278357807,63
o,1724819559.873575,172.16.5.2,55526,172.16.1.2,5102,36190,37685,2086,64256,65728,6,6,4,1460,220312,1,16778208,650000,74540,57660,65700,0,30647,0,278357807,63
i,1724819559.873803,172.16.5.2,55526,172.16.1.2,5102,36190,37685,2086,64256,65728,6,6,4,1460,220312,1,16778208,650000,74540,57660,65700,0,36439,0,278357807,63
o,1724819559.873819,172.16.5.2,55526,172.16.1.2,5102,36190,37685,2086,64256,65728,6,6,4,1460,214062,1,16778208,630000,74540,54764,65700,0,33543,0,278357807,63
i,1724819559.874373,172.16.5.2,55526,172.16.1.2,5102,36190,37685,2086,64256,65728,6,6,4,1460,214062,1,16778208,630000,82732,82732,65700,0,36439,0,278357807,63
o,1724819559.874391,172.16.5.2,55526,172.16.1.2,5102,36190,37685,2086,61376,65728,6,6,4,1460,208750,1,16778208,610000,82732,79836,65700,0,33543,0,278357807,63
i,1724819559.874516,172.16.5.2,55526,172.16.1.2,5102,36190,37685,2086,61376,65728,6,6,4,1460,208750,1,16778208,610000,82732,79836,65700,0,36439,0,278357807,63
o,1724819559.874531,172.16.5.2,55526,172.16.1.2,5102,36190,37685,2086,62848,65728,6,6,4,1460,204062,1,16778208,590000,82732,76940,65700,0,33543,0,278357807,63
i,1724819559.875355,172.16.5.2,55526,172.16.1.2,5102,36190,37685,2086,62848,65728,6,6,4,1460,204062,1,16778208,590000,82732,82732,65700,0,36439,0,278357807,63
o,1724819559.875430,172.16.5.2,55526,172.16.1.2,5102,36190,37685,2086,65472,65728,6,6,4,1460,200000,1,16778208,580000,82732,81045,65700,0,34752,0,278357807,63
i,1724819559.876336,172.16.5.2,55526,172.16.1.2,5102,36190,37685,2086,65472,65728,6,6,4,1460,200000,1,16778208,580000,82732,81045,65700,0,37648,0,278357807,63
o,1724819559.876355,172.16.5.2,55526,172.16.1.2,5102,36190,37685,2086,62592,65728,6,6,4,1460,196250,1,16778208,560000,82732,78149,65700,0,34752,0,278357807,63
i,1724819559.940248,172.16.5.2,55526,172.16.1.2,5102,36190,37685,2086,62592,65728,6,6,4,1460,196250,1,16778208,560000,82732,82732,65700,0,37648,0,278357807,63
o,1724819559.940326,172.16.5.2,55526,172.16.1.2,5102,36190,37685,2086,62848,65728,6,6,4,1460,198125,1,16778208,530000,82732,79836,65700,0,34752,0,278357807,63
o,1724819559.940446,172.16.5.2,55526,172.16.1.2,5102,36190,37685,2086,62848,65728,6,6,4,1460,198125,1,16778208,530000,82732,79836,65700,0,36200,0,278357807,63
i,1724819559.940568,172.16.5.2,55526,172.16.1.2,5102,36190,37685,2086,62848,65728,6,6,4,1460,198125,1,16778208,530000,82732,79836,65700,0,37648,0,278357807,63
o,1724819559.940584,172.16.5.2,55526,172.16.1.2,5102,36190,37685,2086,59968,65728,6,6,4,1460,199687,1,16778208,510000,82732,76940,65700,0,34752,0,278357807,63
i,1724819560.103678,172.16.5.2,55526,172.16.1.2,5102,36190,37685,2086,59968,65728,6,6,4,1460,199687,1,16778208,510000,82732,82732,65700,0,37648,0,278357807,63
o,1724819560.103719,172.16.5.2,55526,172.16.1.2,5102,36190,37685,2086,95680,65728,6,6,4,1460,203750,1,16778208,520000,82732,79836,65700,0,34752,0,278357807,63
i,1724819560.121803,172.16.5.2,55526,172.16.1.2,5102,36190,37685,2086,95680,65728,6,6,4,1460,203750,1,16778208,520000,82732,82732,65700,0,37648,0,278357807,63
o,1724819560.121913,172.16.5.2,55526,172.16.1.2,5102,36190,37685,2086,92800,65728,6,6,4,1460,209687,1,16778208,540000,82732,79836,65700,0,34752,0,278357807,63
i,1724819560.122096,172.16.5.2,55526,172.16.1.2,5102,36190,37685,2086,92800,65728,6,6,4,1460,209687,1,16778208,540000,82732,79836,65700,0,37648,0,278357807,63
o,1724819560.122114,172.16.5.2,55526,172.16.1.2,5102,36190,37685,2086,95680,65728,6,6,4,1460,213750,1,16778208,550000,82732,76940,65700,0,34752,0,278357807,63
i,1724819560.122267,172.16.5.2,55526,172.16.1.2,5102,36190,37685,2086,95680,65728,6,6,4,1460,213750,1,16778208,550000,82732,76940,65700,0,37648,0,278357807,63
o,1724819560.122284,172.16.5.2,55526,172.16.1.2,5102,36190,37685,2086,95680,65728,6,6,4,1460,217187,1,16778208,540000,82732,74044,65700,0,34752,0,278357807,63
i,1724819560.123694,172.16.5.2,55526,172.16.1.2,5102,36190,37685,2086,95680,65728,6,6,4,1460,217187,1,16778208,540000,90924,90924,65700,0,37648,0,278357807,63
o,1724819560.123719,172.16.5.2,55526,172.16.1.2,5102,36190,37685,2086,92800,65728,6,6,4,1460,221562,1,16778208,550000,90924,88028,65700,0,34752,0,278357807,63
i,1724819560.123988,172.16.5.2,55526,172.16.1.2,5102,36190,37685,2086,92800,65728,6,6,4,1460,221562,1,16778208,550000,90924,88028,65700,0,37648,0,278357807,63
o,1724819560.124009,172.16.5.2,55526,172.16.1.2,5102,36190,37685,2086,95680,65728,6,6,4,1460,225312,1,16778208,550000,90924,85132,65700,0,34752,0,278357807,63
i,1724819560.124181,172.16.5.2,55526,172.16.1.2,5102,36190,37685,2086,95680,65728,6,6,4,1460,225312,1,16778208,550000,90924,85132,65700,0,37648,0,278357807,63
o,1724819560.124201,172.16.5.2,55526,172.16.1.2,5102,36190,39145,2086,92800,65728,6,6,4,1460,228437,1,16778208,550000,90924,82236,65700,0,34752,0,278357807,63
i,1724819560.125005,172.16.5.2,55526,172.16.1.2,5102,36190,39145,2086,92800,65728,6,6,4,1460,228437,1,16778208,550000,90924,82236,65700,0,39096,0,278357807,63
o,1724819560.125026,172.16.5.2,55526,172.16.1.2,5102,36190,39145,2086,95680,65728,6,6,4,1460,231250,1,16778208,540000,90924,79340,65700,0,36200,0,278357807,63
i,1724819560.125242,172.16.5.2,55526,172.16.1.2,5102,36190,39145,2086,95680,65728,6,6,4,1460,231250,1,16778208,540000,90924,79340,65700,0,39096,0,278357807,63
o,1724819560.125263,172.16.5.2,55526,172.16.1.2,5102,36190,39145,2086,97152,65728,6,6,4,1460,233750,1,16778208,540000,90924,76444,65700,0,36200,0,278357807,63
i,1724819560.125546,172.16.5.2,55526,172.16.1.2,5102,36190,39145,2086,97152,65728,6,6,4,1460,233750,1,16778208,540000,90924,76444,65700,0,39096,0,278357807,63
o,1724819560.125567,172.16.5.2,55526,172.16.1.2,5102,36190,39145,2086,94272,65728,6,6,4,1460,235937,1,16778208,530000,90924,73548,65700,0,36200,0,278357807,63
i,1724819560.125744,172.16.5.2,55526,172.16.1.2,5102,36190,39145,2086,94272,65728,6,6,4,1460,235937,1,16778208,530000,90924,73548,65700,0,39096,0,278357807,63
o,1724819560.125761,172.16.5.2,55526,172.16.1.2,5102,36190,39145,2086,97152,65728,6,6,4,1460,237812,1,16778208,520000,90924,70652,65700,0,36200,0,278357807,63
i,1724819560.126251,172.16.5.2,55526,172.16.1.2,5102,36190,39145,2086,97152,65728,6,6,4,1460,237812,1,16778208,520000,90924,70652,65700,0,39096,0,278357807,63
o,1724819560.126272,172.16.5.2,55526,172.16.1.2,5102,36190,39145,2086,94272,65728,6,6,4,1460,230625,1,16778208,550000,90924,67756,65700,0,36200,0,278357807,63
o,1724819560.126467,172.16.5.2,55526,172.16.1.2,5102,36190,39145,2086,94272,65728,6,6,4,1460,230625,1,16778208,550000,90924,67756,65700,0,37648,0,278357807,63
i,1724819560.126610,172.16.5.2,55526,172.16.1.2,5102,36190,39145,2086,94272,65728,6,6,4,1460,230625,1,16778208,550000,90924,67756,65700,0,39096,0,278357807,63
o,1724819560.126630,172.16.5.2,55526,172.16.1.2,5102,36190,39145,2086,97152,65728,6,6,4,1460,224375,1,16778208,560000,90924,64860,65700,0,36200,0,278357807,63
i,1724819560.287282,172.16.5.2,55526,172.16.1.2,5102,36190,39145,2086,97152,65728,6,6,4,1460,224375,1,16778208,560000,90924,90924,65700,0,39096,0,278357807,63
o,1724819560.287317,172.16.5.2,55526,172.16.1.2,5102,36190,39145,2086,95680,65728,6,6,4,1460,219062,1,16778208,570000,90924,88028,65700,0,36200,0,278357807,63
i,1724819560.307239,172.16.5.2,55526,172.16.1.2,5102,36190,39145,2086,95680,65728,6,6,4,1460,219062,1,16778208,570000,90924,90924,65700,0,39096,0,278357807,63
o,1724819560.307321,172.16.5.2,55526,172.16.1.2,5102,36190,39145,2086,95680,65728,6,6,4,1460,215625,1,16778208,550000,90924,88028,65700,0,36200,0,278357807,63
i,1724819560.313197,172.16.5.2,55526,172.16.1.2,5102,36190,39145,2086,95680,65728,6,6,4,1460,215625,1,16778208,550000,90924,90924,65700,0,39096,0,278357807,63
o,1724819560.313234,172.16.5.2,55526,172.16.1.2,5102,36190,39145,2086,97152,65728,6,6,4,1460,212500,1,16778208,540000,90924,88028,65700,0,36200,0,278357807,63
i,1724819560.313638,172.16.5.2,55526,172.16.1.2,5102,36190,39145,2086,97152,65728,6,6,4,1460,212500,1,16778208,540000,90924,88028,65700,0,39096,0,278357807,63
o,1724819560.313660,172.16.5.2,55526,172.16.1.2,5102,36190,39145,2086,97152,65728,6,6,4,1460,209687,1,16778208,530000,90924,85132,65700,0,36200,0,278357807,63
i,1724819560.313811,172.16.5.2,55526,172.16.1.2,5102,36190,39145,2086,97152,65728,6,6,4,1460,209687,1,16778208,530000,90924,85132,65700,0,39096,0,278357807,63
o,1724819560.313831,172.16.5.2,55526,172.16.1.2,5102,36190,39145,2086,97152,65728,6,6,4,1460,207500,1,16778208,510000,90924,82236,65700,0,36200,0,278357807,63
i,1724819560.315089,172.16.5.2,55526,172.16.1.2,5102,36190,39145,2086,97152,65728,6,6,4,1460,207500,1,16778208,510000,90924,90924,65700,0,39096,0,278357807,63
o,1724819560.315112,172.16.5.2,55526,172.16.1.2,5102,36190,39145,2086,95680,65728,6,6,4,1460,205312,1,16778208,500000,90924,88028,65700,0,36200,0,278357807,63
i,1724819560.315288,172.16.5.2,55526,172.16.1.2,5102,36190,39145,2086,95680,65728,6,6,4,1460,205312,1,16778208,500000,90924,88028,65700,0,39096,0,278357807,63
o,1724819560.315305,172.16.5.2,55526,172.16.1.2,5102,36190,40605,2086,97152,65728,6,6,4,1460,203437,1,16778208,490000,90924,85132,65700,0,36200,0,278357807,63
i,1724819560.316763,172.16.5.2,55526,172.16.1.2,5102,36190,40605,2086,97152,65728,6,6,4,1460,203437,1,16778208,490000,90924,90924,65700,0,40544,0,278357807,63
o,1724819560.316787,172.16.5.2,55526,172.16.1.2,5102,36190,40605,2086,97152,65728,6,6,4,1460,201875,1,16778208,480000,90924,88028,65700,0,37648,0,278357807,63
i,1724819560.316942,172.16.5.2,55526,172.16.1.2,5102,36190,40605,2086,97152,65728,6,6,4,1460,201875,1,16778208,480000,90924,88028,65700,0,40544,0,278357807,63
o,1724819560.316958,172.16.5.2,55526,172.16.1.2,5102,36190,40605,2086,97152,65728,6,6,4,1460,200625,1,16778208,470000,90924,85132,65700,0,37648,0,278357807,63
i,1724819560.317634,172.16.5.2,55526,172.16.1.2,5102,36190,40605,2086,97152,65728,6,6,4,1460,200625,1,16778208,470000,90924,90924,65700,0,40544,0,278357807,63
o,1724819560.317661,172.16.5.2,55526,172.16.1.2,5102,36190,40605,2086,97152,65728,6,6,4,1460,199375,1,16778208,460000,90924,88028,65700,0,37648,0,278357807,63
i,1724819560.317780,172.16.5.2,55526,172.16.1.2,5102,36190,40605,2086,97152,65728,6,6,4,1460,199375,1,16778208,460000,90924,88028,65700,0,40544,0,278357807,63
o,1724819560.317780,172.16.5.2,55526,172.16.1.2,5102,36190,40605,2086,97152,65728,6,6,4,1460,198437,1,16778208,450000,90924,85132,65700,0,37648,0,278357807,63
i,1724819560.318646,172.16.5.2,55526,172.16.1.2,5102,36190,40605,2086,97152,65728,6,6,4,1460,198437,1,16778208,450000,90924,90924,65700,0,40544,0,278357807,63
o,1724819560.318666,172.16.5.2,55526,172.16.1.2,5102,36190,40605,2086,97152,65728,6,6,4,1460,197500,1,16778208,440000,90924,88028,65700,0,37648,0,278357807,63
o,1724819560.318778,172.16.5.2,55526,172.16.1.2,5102,36190,40605,2086,97152,65728,6,6,4,1460,197500,1,16778208,440000,90924,88028,65700,0,39096,0,278357807,63
i,1724819560.318911,172.16.5.2,55526,172.16.1.2,5102,36190,40605,2086,97152,65728,6,6,4,1460,197500,1,16778208,440000,90924,88028,65700,0,40544,0,278357807,63
o,1724819560.318928,172.16.5.2,55526,172.16.1.2,5102,36190,40605,2086,94272,65728,6,6,4,1460,196562,1,16778208,440000,90924,85132,65700,0,37648,0,278357807,63
i,1724819560.388286,172.16.5.2,55526,172.16.1.2,5102,36190,40605,2086,94272,65728,6,6,4,1460,196562,1,16778208,440000,90924,90924,65700,0,40544,0,278357807,63
o,1724819560.388321,172.16.5.2,55526,172.16.1.2,5102,36190,40605,2086,98560,65728,6,6,4,1460,204687,1,16778208,500000,90924,89476,65700,0,39096,0,278357807,63
i,1724819560.510424,172.16.5.2,55526,172.16.1.2,5102,36190,40605,2086,98560,65728,6,6,4,1460,204687,1,16778208,500000,90924,89476,65700,0,40544,0,278357807,63
o,1724819560.510703,172.16.5.2,55526,172.16.1.2,5102,36190,40605,2086,144960,65728,6,6,4,1460,206875,1,16778208,490000,90924,86580,65700,0,37648,0,278357807,63
i,1724819560.512598,172.16.5.2,55526,172.16.1.2,5102,36190,40605,2086,144960,65728,6,6,4,1460,206875,1,16778208,490000,90924,90924,65700,0,40544,0,278357807,63
o,1724819560.512725,172.16.5.2,55526,172.16.1.2,5102,36190,40605,2086,144960,65728,6,6,4,1460,206250,1,16778208,480000,90924,88028,65700,0,37648,0,278357807,63
i,1724819560.512938,172.16.5.2,55526,172.16.1.2,5102,36190,40605,2086,144960,65728,6,6,4,1460,206250,1,16778208,480000,90924,88028,65700,0,40544,0,278357807,63
o,1724819560.512960,172.16.5.2,55526,172.16.1.2,5102,36190,40605,2086,144960,65728,6,6,4,1460,205625,1,16778208,460000,90924,85132,65700,0,37648,0,278357807,63
i,1724819560.514925,172.16.5.2,55526,172.16.1.2,5102,36190,40605,2086,144960,65728,6,6,4,1460,205625,1,16778208,460000,90924,90924,65700,0,40544,0,278357807,63
o,1724819560.514964,172.16.5.2,55526,172.16.1.2,5102,36190,40605,2086,146432,65728,6,6,4,1460,205000,1,16778208,450000,90924,88028,65700,0,37648,0,278357807,63
i,1724819560.515130,172.16.5.2,55526,172.16.1.2,5102,36190,40605,2086,146432,65728,6,6,4,1460,205000,1,16778208,450000,90924,88028,65700,0,40544,0,278357807,63
o,1724819560.515163,172.16.5.2,55526,172.16.1.2,5102,36190,40605,2086,146432,65728,6,6,4,1460,204375,1,16778208,440000,90924,85132,65700,0,37648,0,278357807,63
i,1724819560.516460,172.16.5.2,55526,172.16.1.2,5102,36190,40605,2086,146432,65728,6,6,4,1460,204375,1,16778208,440000,90924,90924,65700,0,40544,0,278357807,63
o,1724819560.516479,172.16.5.2,55526,172.16.1.2,5102,36190,40605,2086,146432,65728,6,6,4,1460,204062,1,16778208,440000,90924,88028,65700,0,37648,0,278357807,63
i,1724819560.516621,172.16.5.2,55526,172.16.1.2,5102,36190,40605,2086,146432,65728,6,6,4,1460,204062,1,16778208,440000,90924,88028,65700,0,40544,0,278357807,63
o,1724819560.516637,172.16.5.2,55526,172.16.1.2,5102,36190,40605,2086,146432,65728,6,6,4,1460,203750,1,16778208,430000,90924,85132,65700,0,37648,0,278357807,63
i,1724819560.518069,172.16.5.2,55526,172.16.1.2,5102,36190,40605,2086,146432,65728,6,6,4,1460,203750,1,16778208,430000,90924,90924,65700,0,40544,0,278357807,63
o,1724819560.518092,172.16.5.2,55526,172.16.1.2,5102,36190,42065,2086,143552,65728,6,6,4,1460,203437,1,16778208,430000,90924,88028,65700,0,37648,0,278357807,63
i,1724819560.518353,172.16.5.2,55526,172.16.1.2,5102,36190,42065,2086,143552,65728,6,6,4,1460,203437,1,16778208,430000,90924,88028,65700,0,41992,0,278357807,63
o,1724819560.518376,172.16.5.2,55526,172.16.1.2,5102,36190,42065,2086,146432,65728,6,6,4,1460,203125,1,16778208,420000,90924,85132,65700,0,39096,0,278357807,63
i,1724819560.519673,172.16.5.2,55526,172.16.1.2,5102,36190,42065,2086,146432,65728,6,6,4,1460,203125,1,16778208,420000,90924,90924,65700,0,41992,0,278357807,63
o,1724819560.519691,172.16.5.2,55526,172.16.1.2,5102,36190,42065,2086,146432,65728,6,6,4,1460,202812,1,16778208,420000,90924,88028,65700,0,39096,0,278357807,63
i,1724819560.519843,172.16.5.2,55526,172.16.1.2,5102,36190,42065,2086,146432,65728,6,6,4,1460,202812,1,16778208,420000,90924,88028,65700,0,41992,0,278357807,63
o,1724819560.519859,172.16.5.2,55526,172.16.1.2,5102,36190,42065,2086,143552,65728,6,6,4,1460,202500,1,16778208,420000,90924,85132,65700,0,39096,0,278357807,63
i,1724819560.569807,172.16.5.2,55526,172.16.1.2,5102,36190,42065,2086,143552,65728,6,6,4,1460,202500,1,16778208,420000,90924,90924,65700,0,41992,0,278357807,63
o,1724819560.569851,172.16.5.2,55526,172.16.1.2,5102,36190,42065,2086,146432,65728,6,6,4,1460,208437,1,16778208,470000,90924,88028,65700,0,39096,0,278357807,63
o,1724819560.569982,172.16.5.2,55526,172.16.1.2,5102,36190,42065,2086,146432,65728,6,6,4,1460,208437,1,16778208,470000,90924,88028,65700,0,40544,0,278357807,63
i,1724819560.570130,172.16.5.2,55526,172.16.1.2,5102,36190,42065,2086,146432,65728,6,6,4,1460,208437,1,16778208,470000,90924,88028,65700,0,41992,0,278357807,63
o,1724819560.570147,172.16.5.2,55526,172.16.1.2,5102,36190,42065,2086,143552,65728,6,6,4,1460,213750,1,16778208,500000,90924,85132,65700,0,39096,0,278357807,63
i,1724819560.605070,172.16.5.2,55526,172.16.1.2,5102,36190,42065,2086,143552,65728,6,6,4,1460,213750,1,16778208,500000,90924,90924,65700,0,41992,0,278357807,63
o,1724819560.605155,172.16.5.2,55526,172.16.1.2,5102,36190,42065,2086,146432,65728,6,6,4,1460,223437,1,16778208,560000,90924,88028,65700,0,39096,0,278357807,63
i,1724819560.688864,172.16.5.2,55526,172.16.1.2,5102,36190,42065,2086,146432,65728,6,6,4,1460,223437,1,16778208,560000,90924,90924,65700,0,41992,0,278357807,63
o,1724819560.688903,172.16.5.2,55526,172.16.1.2,5102,36190,42065,2086,144960,65728,6,6,4,1460,218125,1,16778208,570000,90924,88028,65700,0,39096,0,278357807,63
i,1724819560.689089,172.16.5.2,55526,172.16.1.2,5102,36190,42065,2086,144960,65728,6,6,4,1460,218125,1,16778208,570000,90924,88028,65700,0,41992,0,278357807,63
o,1724819560.689115,172.16.5.2,55526,172.16.1.2,5102,36190,42065,2086,142080,65728,6,6,4,1460,213437,1,16778208,560000,90924,85132,65700,0,39096,0,278357807,63
i,1724819560.689278,172.16.5.2,55526,172.16.1.2,5102,36190,42065,2086,142080,65728,6,6,4,1460,213437,1,16778208,560000,90924,85132,65700,0,41992,0,278357807,63
o,1724819560.689294,172.16.5.2,55526,172.16.1.2,5102,36190,42065,2086,146432,65728,6,6,4,1460,209375,1,16778208,550000,90924,82236,65700,0,39096,0,278357807,63
i,1724819560.690856,172.16.5.2,55526,172.16.1.2,5102,36190,42065,2086,146432,65728,6,6,4,1460,209375,1,16778208,550000,99116,99116,65700,0,41992,0,278357807,63
o,1724819560.690876,172.16.5.2,55526,172.16.1.2,5102,36190,42065,2086,143552,65728,6,6,4,1460,204687,1,16778208,550000,99116,96220,65700,0,39096,0,278357807,63
i,1724819560.691026,172.16.5.2,55526,172.16.1.2,5102,36190,42065,2086,143552,65728,6,6,4,1460,204687,1,16778208,550000,99116,96220,65700,0,41992,0,278357807,63
o,1724819560.691042,172.16.5.2,55526,172.16.1.2,5102,36190,42065,2086,144960,65728,6,6,4,1460,200625,1,16778208,540000,99116,93324,65700,0,39096,0,278357807,63
i,1724819560.721360,172.16.5.2,55526,172.16.1.2,5102,36190,42065,2086,144960,65728,6,6,4,1460,200625,1,16778208,540000,99116,99116,65700,0,41992,0,278357807,63
o,1724819560.721448,172.16.5.2,55526,172.16.1.2,5102,36190,42065,2086,146432,65728,6,6,4,1460,200625,1,16778208,510000,99116,96220,65700,0,39096,0,278357807,63
i,1724819560.731773,172.16.5.2,55526,172.16.1.2,5102,36190,42065,2086,146432,65728,6,6,4,1460,200625,1,16778208,510000,99116,99116,65700,0,41992,0,278357807,63
o,1724819560.731801,172.16.5.2,55526,172.16.1.2,5102,36190,42065,2086,144960,65728,6,6,4,1460,201875,1,16778208,490000,99116,96220,65700,0,39096,0,278357807,63
i,1724819560.732022,172.16.5.2,55526,172.16.1.2,5102,36190,42065,2086,144960,65728,6,6,4,1460,201875,1,16778208,490000,99116,96220,65700,0,41992,0,278357807,63
o,1724819560.732042,172.16.5.2,55526,172.16.1.2,5102,36190,43525,2086,142080,65728,6,6,4,1460,203125,1,16778208,480000,99116,93324,65700,0,39096,0,278357807,63
i,1724819560.732572,172.16.5.2,55526,172.16.1.2,5102,36190,43525,2086,142080,65728,6,6,4,1460,203125,1,16778208,480000,99116,93324,65700,0,43440,0,278357807,63
o,1724819560.732592,172.16.5.2,55526,172.16.1.2,5102,36190,43525,2086,144960,65728,6,6,4,1460,204062,1,16778208,470000,99116,90428,65700,0,40544,0,278357807,63
i,1724819560.732815,172.16.5.2,55526,172.16.1.2,5102,36190,43525,2086,144960,65728,6,6,4,1460,204062,1,16778208,470000,99116,90428,65700,0,43440,0,278357807,63
o,1724819560.732837,172.16.5.2,55526,172.16.1.2,5102,36190,43525,2086,146432,65728,6,6,4,1460,205000,1,16778208,460000,99116,87532,65700,0,40544,0,278357807,63
i,1724819560.734042,172.16.5.2,55526,172.16.1.2,5102,36190,43525,2086,146432,65728,6,6,4,1460,205000,1,16778208,460000,99116,99116,65700,0,43440,0,278357807,63
o,1724819560.734061,172.16.5.2,55526,172.16.1.2,5102,36190,43525,2086,144960,65728,6,6,4,1460,206875,1,16778208,460000,99116,96220,65700,0,40544,0,278357807,63
i,1724819560.734287,172.16.5.2,55526,172.16.1.2,5102,36190,43525,2086,144960,65728,6,6,4,1460,206875,1,16778208,460000,99116,96220,65700,0,43440,0,278357807,63
o,1724819560.734303,172.16.5.2,55526,172.16.1.2,5102,36190,43525,2086,146432,65728,6,6,4,1460,208750,1,16778208,460000,99116,93324,65700,0,40544,0,278357807,63
o,1724819560.734412,172.16.5.2,55526,172.16.1.2,5102,36190,43525,2086,146432,65728,6,6,4,1460,208750,1,16778208,460000,99116,93324,65700,0,41992,0,278357807,63
i,1724819560.734560,172.16.5.2,55526,172.16.1.2,5102,36190,43525,2086,146432,65728,6,6,4,1460,208750,1,16778208,460000,99116,93324,65700,0,43440,0,278357807,63
o,1724819560.734576,172.16.5.2,55526,172.16.1.2,5102,36190,43525,2086,143552,65728,6,6,4,1460,202812,1,16778208,490000,99116,90428,65700,0,40544,0,278357807,63
i,1724819560.787134,172.16.5.2,55526,172.16.1.2,5102,36190,43525,2086,143552,65728,6,6,4,1460,202812,1,16778208,490000,99116,99116,65700,0,43440,0,278357807,63
o,1724819560.787221,172.16.5.2,55526,172.16.1.2,5102,36190,43525,2086,146432,65728,6,6,4,1460,205000,1,16778208,490000,99116,96220,65700,0,40544,0,278357807,63
i,1724819560.849608,172.16.5.2,55526,172.16.1.2,5102,36190,43525,2086,146432,65728,6,6,4,1460,205000,1,16778208,490000,99116,99116,65700,0,43440,0,278357807,63
o,1724819560.849643,172.16.5.2,55526,172.16.1.2,5102,36190,43525,2086,147840,65728,6,6,4,1460,209375,1,16778208,510000,99116,97668,65700,0,41992,0,278357807,63
i,1724819560.900451,172.16.5.2,55526,172.16.1.2,5102,36190,43525,2086,147840,65728,6,6,4,1460,209375,1,16778208,510000,99116,97668,65700,0,43440,0,278357807,63
o,1724819560.900543,172.16.5.2,55526,172.16.1.2,5102,36190,43525,2086,146432,65728,6,6,4,1460,209687,1,16778208,480000,99116,94772,65700,0,40544,0,278357807,63
i,1724819560.904158,172.16.5.2,55526,172.16.1.2,5102,36190,43525,2086,146432,65728,6,6,4,1460,209687,1,16778208,480000,99116,99116,65700,0,43440,0,278357807,63
o,1724819560.904195,172.16.5.2,55526,172.16.1.2,5102,36190,43525,2086,146432,65728,6,6,4,1460,211250,1,16778208,480000,99116,96220,65700,0,40544,0,278357807,63
i,1724819560.904404,172.16.5.2,55526,172.16.1.2,5102,36190,43525,2086,146432,65728,6,6,4,1460,211250,1,16778208,480000,99116,96220,65700,0,43440,0,278357807,63
o,1724819560.904454,172.16.5.2,55526,172.16.1.2,5102,36190,43525,2086,143552,65728,6,6,4,1460,212500,1,16778208,470000,99116,93324,65700,0,40544,0,278357807,63
i,1724819560.904662,172.16.5.2,55526,172.16.1.2,5102,36190,43525,2086,143552,65728,6,6,4,1460,212500,1,16778208,470000,99116,93324,65700,0,43440,0,278357807,63
o,1724819560.904682,172.16.5.2,55526,172.16.1.2,5102,36190,43525,2086,146432,65728,6,6,4,1460,213437,1,16778208,470000,99116,90428,65700,0,40544,0,278357807,63
i,1724819560.906123,172.16.5.2,55526,172.16.1.2,5102,36190,43525,2086,146432,65728,6,6,4,1460,213437,1,16778208,470000,99116,99116,65700,0,43440,0,278357807,63
o,1724819560.906144,172.16.5.2,55526,172.16.1.2,5102,36190,43525,2086,146432,65728,6,6,4,1460,214375,1,16778208,460000,99116,96220,65700,0,40544,0,278357807,63
i,1724819560.948630,172.16.5.2,55526,172.16.1.2,5102,36190,43525,2086,146432,65728,6,6,4,1460,214375,1,16778208,460000,99116,99116,65700,0,43440,0,278357807,63
o,1724819560.948666,172.16.5.2,55526,172.16.1.2,5102,36190,43525,2086,146432,65728,6,6,4,1460,216562,1,16778208,470000,99116,96220,65700,0,40544,0,278357807,63
i,1724819560.948865,172.16.5.2,55526,172.16.1.2,5102,36190,43525,2086,146432,65728,6,6,4,1460,216562,1,16778208,470000,99116,96220,65700,0,43440,0,278357807,63
o,1724819560.948882,172.16.5.2,55526,172.16.1.2,5102,36190,43525,2086,144960,65728,6,6,4,1460,217187,1,16778208,460000,99116,93324,65700,0,40544,0,278357807,63
i,1724819560.949027,172.16.5.2,55526,172.16.1.2,5102,36190,43525,2086,144960,65728,6,6,4,1460,217187,1,16778208,460000,99116,93324,65700,0,43440,0,278357807,63
o,1724819560.949044,172.16.5.2,55526,172.16.1.2,5102,36190,43525,2086,144960,65728,6,6,4,1460,217812,1,16778208,460000,99116,90428,65700,0,40544,0,278357807,63
i,1724819560.949976,172.16.5.2,55526,172.16.1.2,5102,36190,43525,2086,144960,65728,6,6,4,1460,217812,1,16778208,460000,99116,99116,65700,0,43440,0,278357807,63
o,1724819560.950051,172.16.5.2,55526,172.16.1.2,5102,36190,44985,2086,146432,65728,6,6,4,1460,218125,1,16778208,450000,99116,96220,65700,0,40544,0,278357807,63
i,1724819560.950194,172.16.5.2,55526,172.16.1.2,5102,36190,44985,2086,146432,65728,6,6,4,1460,218125,1,16778208,450000,99116,96220,65700,0,44888,0,278357807,63
o,1724819560.950212,172.16.5.2,55526,172.16.1.2,5102,36190,44985,2086,143552,65728,6,6,4,1460,218437,1,16778208,440000,99116,93324,65700,0,41992,0,278357807,63
i,1724819560.951480,172.16.5.2,55526,172.16.1.2,5102,36190,44985,2086,143552,65728,6,6,4,1460,218437,1,16778208,440000,99116,99116,65700,0,44888,0,278357807,63
o,1724819560.951504,172.16.5.2,55526,172.16.1.2,5102,36190,44985,2086,146432,65728,6,6,4,1460,218750,1,16778208,440000,99116,96220,65700,0,41992,0,278357807,63
i,1724819560.951633,172.16.5.2,55526,172.16.1.2,5102,36190,44985,2086,146432,65728,6,6,4,1460,218750,1,16778208,440000,99116,96220,65700,0,44888,0,278357807,63
o,1724819560.951650,172.16.5.2,55526,172.16.1.2,5102,36190,44985,2086,143552,65728,6,6,4,1460,217812,1,16778208,440000,99116,93324,65700,0,41992,0,278357807,63
o,1724819560.951797,172.16.5.2,55526,172.16.1.2,5102,36190,44985,2086,143552,65728,6,6,4,1460,217812,1,16778208,440000,99116,93324,65700,0,43440,0,278357807,63
i,1724819560.989799,172.16.5.2,55526,172.16.1.2,5102,36190,44985,2086,143552,65728,6,6,4,1460,217812,1,16778208,440000,99116,99116,65700,0,44888,0,278357807,63
o,1724819560.989891,172.16.5.2,55526,172.16.1.2,5102,36190,44985,2086,146432,65728,6,6,4,1460,221875,1,16778208,470000,99116,96220,65700,0,41992,0,278357807,63
i,1724819560.991377,172.16.5.2,55526,172.16.1.2,5102,36190,44985,2086,146432,65728,6,6,4,1460,221875,1,16778208,470000,99116,99116,65700,0,44888,0,278357807,63
o,1724819560.991402,172.16.5.2,55526,172.16.1.2,5102,36190,44985,2086,146432,65728,6,6,4,1460,225625,1,16778208,490000,99116,96220,65700,0,41992,0,278357807,63
i,1724819561.029886,172.16.5.2,55526,172.16.1.2,5102,36190,44985,2086,146432,65728,6,6,4,1460,225625,1,16778208,490000,99116,99116,65700,0,44888,0,278357807,63
o,1724819561.029972,172.16.5.2,55526,172.16.1.2,5102,36190,44985,2086,147840,65728,6,6,4,1460,227500,1,16778208,490000,99116,97668,65700,0,43440,0,278357807,63
i,1724819561.042998,172.16.5.2,55526,172.16.1.2,5102,36190,44985,2086,147840,65728,6,6,4,1460,227500,1,16778208,490000,99116,97668,65700,0,44888,0,278357807,63
o,1724819561.043058,172.16.5.2,55526,172.16.1.2,5102,36190,44985,2086,147840,65728,6,6,4,1460,222812,1,16778208,510000,99116,96220,65700,0,43440,0,278357807,63
i,1724819561.043207,172.16.5.2,55526,172.16.1.2,5102,36190,44985,2086,147840,65728,6,6,4,1460,222812,1,16778208,510000,99116,96220,65700,0,44888,0,278357807,63
o,1724819561.043226,172.16.5.2,55526,172.16.1.2,5102,36190,44985,2086,144960,65728,6,6,4,1460,212500,1,16778208,560000,99116,93324,65700,0,41992,0,278357807,63
i,1724819561.106254,172.16.5.2,55526,172.16.1.2,5102,36190,44985,2086,144960,65728,6,6,4,1460,212500,1,16778208,560000,99116,99116,65700,0,44888,0,278357807,63
o,1724819561.106303,172.16.5.2,55526,172.16.1.2,5102,36190,44985,2086,144960,65728,6,6,4,1460,210937,1,16778208,530000,99116,96220,65700,0,41992,0,278357807,63
i,1724819561.106490,172.16.5.2,55526,172.16.1.2,5102,36190,44985,2086,144960,65728,6,6,4,1460,210937,1,16778208,530000,99116,96220,65700,0,44888,0,278357807,63
o,1724819561.106508,172.16.5.2,55526,172.16.1.2,5102,36190,44985,2086,144960,65728,6,6,4,1460,209687,1,16778208,510000,99116,93324,65700,0,41992,0,278357807,63
i,1724819561.106642,172.16.5.2,55526,172.16.1.2,5102,36190,44985,2086,144960,65728,6,6,4,1460,209687,1,16778208,510000,99116,93324,65700,0,44888,0,278357807,63
o,1724819561.106663,172.16.5.2,55526,172.16.1.2,5102,36190,44985,2086,142080,65728,6,6,4,1460,208750,1,16778208,490000,99116,90428,65700,0,41992,0,278357807,63
i,1724819561.106877,172.16.5.2,55526,172.16.1.2,5102,36190,44985,2086,142080,65728,6,6,4,1460,208750,1,16778208,490000,99116,90428,65700,0,44888,0,278357807,63
o,1724819561.106898,172.16.5.2,55526,172.16.1.2,5102,36190,44985,2086,144960,65728,6,6,4,1460,207812,1,16778208,480000,99116,87532,65700,0,41992,0,278357807,63
i,1724819561.107137,172.16.5.2,55526,172.16.1.2,5102,36190,44985,2086,144960,65728,6,6,4,1460,207812,1,16778208,480000,107308,87532,65700,0,44888,0,278357807,63
o,1724819561.107157,172.16.5.2,55526,172.16.1.2,5102,36190,44985,2086,144960,65728,6,6,4,1460,201875,1,16778208,500000,107308,84636,65700,0,41992,0,278357807,63
i,1724819561.107312,172.16.5.2,55526,172.16.1.2,5102,36190,44985,2086,144960,65728,6,6,4,1460,201875,1,16778208,500000,107308,84636,65700,0,44888,0,278357807,63
o,1724819561.107332,172.16.5.2,55526,172.16.1.2,5102,36190,44985,2086,142080,65728,6,6,4,1460,196875,1,16778208,510000,107308,81740,65700,0,41992,0,278357807,63
i,1724819561.107516,172.16.5.2,55526,172.16.1.2,5102,36190,44985,2086,142080,65728,6,6,4,1460,196875,1,16778208,510000,107308,81740,65700,0,44888,0,278357807,63
o,1724819561.107537,172.16.5.2,55526,172.16.1.2,5102,36190,44985,2086,146432,65728,6,6,4,1460,192500,1,16778208,510000,107308,78844,65700,0,41992,0,278357807,63
i,1724819561.155798,172.16.5.2,55526,172.16.1.2,5102,36190,44985,2086,146432,65728,6,6,4,1460,192500,1,16778208,510000,107308,107308,65700,0,44888,0,278357807,63
o,1724819561.155833,172.16.5.2,55526,172.16.1.2,5102,36190,44985,2086,144960,65728,6,6,4,1460,193437,1,16778208,490000,107308,104412,65700,0,41992,0,278357807,63
i,1724819561.155974,172.16.5.2,55526,172.16.1.2,5102,36190,44985,2086,144960,65728,6,6,4,1460,193437,1,16778208,490000,107308,104412,65700,0,44888,0,278357807,63
o,1724819561.155993,172.16.5.2,55526,172.16.1.2,5102,36190,46445,2086,142080,65728,6,6,4,1460,194375,1,16778208,470000,107308,101516,65700,0,41992,0,278357807,63
i,1724819561.156117,172.16.5.2,55526,172.16.1.2,5102,36190,46445,2086,142080,65728,6,6,4,1460,194375,1,16778208,470000,107308,101516,65700,0,46336,0,278357807,63
o,1724819561.156133,172.16.5.2,55526,172.16.1.2,5102,36190,46445,2086,139200,65728,6,6,4,1460,195312,1,16778208,460000,107308,98620,65700,0,43440,0,278357807,63
i,1724819561.156272,172.16.5.2,55526,172.16.1.2,5102,36190,46445,2086,139200,65728,6,6,4,1460,195312,1,16778208,460000,107308,98620,65700,0,46336,0,278357807,63
o,1724819561.156288,172.16.5.2,55526,172.16.1.2,5102,36190,46445,2086,136320,65728,6,6,4,1460,195937,1,16778208,450000,107308,95724,65700,0,43440,0,278357807,63
o,1724819561.156415,172.16.5.2,55526,172.16.1.2,5102,36190,46445,2086,136320,65728,6,6,4,1460,195937,1,16778208,450000,107308,95724,65700,0,44888,0,278357807,63
i,1724819561.176780,172.16.5.2,55526,172.16.1.2,5102,36190,46445,2086,136320,65728,6,6,4,1460,195937,1,16778208,450000,107308,107308,65700,0,46336,0,278357807,63
o,1724819561.176833,172.16.5.2,55526,172.16.1.2,5102,36190,46445,2086,146432,65728,6,6,4,1460,200312,1,16778208,480000,107308,104412,65700,0,43440,0,278357807,63
i,1724819561.176993,172.16.5.2,55526,172.16.1.2,5102,36190,46445,2086,146432,65728,6,6,4,1460,200312,1,16778208,480000,107308,104412,65700,0,46336,0,278357807,63
o,1724819561.177010,172.16.5.2,55526,172.16.1.2,5102,36190,46445,2086,144960,65728,6,6,4,1460,199062,1,16778208,460000,107308,101516,65700,0,43440,0,278357807,63
i,1724819561.177235,172.16.5.2,55526,172.16.1.2,5102,36190,46445,2086,144960,65728,6,6,4,1460,199062,1,16778208,460000,107308,101516,65700,0,46336,0,278357807,63
o,1724819561.177251,172.16.5.2,55526,172.16.1.2,5102,36190,46445,2086,146432,65728,6,6,4,1460,198125,1,16778208,450000,107308,98620,65700,0,43440,0,278357807,63
i,1724819561.236815,172.16.5.2,55526,172.16.1.2,5102,36190,46445,2086,146432,65728,6,6,4,1460,198125,1,16778208,450000,107308,107308,65700,0,46336,0,278357807,63
o,1724819561.236900,172.16.5.2,55526,172.16.1.2,5102,36190,46445,2086,144960,65728,6,6,4,1460,198437,1,16778208,440000,107308,104412,65700,0,43440,0,278357807,63
i,1724819561.270645,172.16.5.2,55526,172.16.1.2,5102,36190,46445,2086,144960,65728,6,6,4,1460,198437,1,16778208,440000,107308,107308,65700,0,46336,0,278357807,63
o,1724819561.270673,172.16.5.2,55526,172.16.1.2,5102,36190,46445,2086,147840,65728,6,6,4,1460,202500,1,16778208,470000,107308,105860,65700,0,44888,0,278357807,63
i,1724819561.311858,172.16.5.2,55526,172.16.1.2,5102,36190,46445,2086,147840,65728,6,6,4,1460,202500,1,16778208,470000,107308,105860,65700,0,46336,0,278357807,63
o,1724819561.311966,172.16.5.2,55526,172.16.1.2,5102,36190,46445,2086,144960,65728,6,6,4,1460,202187,1,16778208,450000,107308,102964,65700,0,43440,0,278357807,63
i,1724819561.312228,172.16.5.2,55526,172.16.1.2,5102,36190,46445,2086,144960,65728,6,6,4,1460,202187,1,16778208,450000,107308,102964,65700,0,46336,0,278357807,63
o,1724819561.312252,172.16.5.2,55526,172.16.1.2,5102,36190,46445,2086,146432,65728,6,6,4,1460,202187,1,16778208,440000,107308,100068,65700,0,43440,0,278357807,63
i,1724819561.313649,172.16.5.2,55526,172.16.1.2,5102,36190,46445,2086,146432,65728,6,6,4,1460,202187,1,16778208,440000,107308,107308,65700,0,46336,0,278357807,63
o,1724819561.313679,172.16.5.2,55526,172.16.1.2,5102,36190,46445,2086,146432,65728,6,6,4,1460,202187,1,16778208,430000,107308,104412,65700,0,43440,0,278357807,63
i,1724819561.313848,172.16.5.2,55526,172.16.1.2,5102,36190,46445,2086,146432,65728,6,6,4,1460,202187,1,16778208,430000,107308,104412,65700,0,46336,0,278357807,63
o,1724819561.313868,172.16.5.2,55526,172.16.1.2,5102,36190,46445,2086,144960,65728,6,6,4,1460,202187,1,16778208,420000,107308,101516,65700,0,43440,0,278357807,63
i,1724819561.314059,172.16.5.2,55526,172.16.1.2,5102,36190,46445,2086,144960,65728,6,6,4,1460,202187,1,16778208,420000,107308,101516,65700,0,46336,0,278357807,63
o,1724819561.314079,172.16.5.2,55526,172.16.1.2,5102,36190,46445,2086,142080,65728,6,6,4,1460,202187,1,16778208,420000,107308,98620,65700,0,43440,0,278357807,63
i,1724819561.314729,172.16.5.2,55526,172.16.1.2,5102,36190,46445,2086,142080,65728,6,6,4,1460,202187,1,16778208,420000,107308,107308,65700,0,46336,0,278357807,63
o,1724819561.314801,172.16.5.2,55526,172.16.1.2,5102,36190,46445,2086,139200,65728,6,6,4,1460,202187,1,16778208,410000,107308,104412,65700,0,43440,0,278357807,63
i,1724819561.315296,172.16.5.2,55526,172.16.1.2,5102,36190,46445,2086,139200,65728,6,6,4,1460,202187,1,16778208,410000,107308,104412,65700,0,46336,0,278357807,63
o,1724819561.315316,172.16.5.2,55526,172.16.1.2,5102,36190,46445,2086,144960,65728,6,6,4,1460,202187,1,16778208,410000,107308,101516,65700,0,43440,0,278357807,63
i,1724819561.357324,172.16.5.2,55526,172.16.1.2,5102,36190,46445,2086,144960,65728,6,6,4,1460,202187,1,16778208,410000,107308,107308,65700,0,46336,0,278357807,63
o,1724819561.357370,172.16.5.2,55526,172.16.1.2,5102,36190,46445,2086,144960,65728,6,6,4,1460,202187,1,16778208,410000,107308,104412,65700,0,43440,0,278357807,63
i,1724819561.357517,172.16.5.2,55526,172.16.1.2,5102,36190,46445,2086,144960,65728,6,6,4,1460,202187,1,16778208,410000,107308,104412,65700,0,46336,0,278357807,63
o,1724819561.357534,172.16.5.2,55526,172.16.1.2,5102,36190,47905,2086,144960,65728,6,6,4,1460,202187,1,16778208,400000,107308,101516,65700,0,43440,0,278357807,63
i,1724819561.357757,172.16.5.2,55526,172.16.1.2,5102,36190,47905,2086,144960,65728,6,6,4,1460,202187,1,16778208,400000,107308,101516,65700,0,47784,0,278357807,63
o,1724819561.357780,172.16.5.2,55526,172.16.1.2,5102,36190,47905,2086,144960,65728,6,6,4,1460,202187,1,16778208,400000,107308,98620,65700,0,44888,0,278357807,63
i,1724819561.359389,172.16.5.2,55526,172.16.1.2,5102,36190,47905,2086,144960,65728,6,6,4,1460,202187,1,16778208,400000,107308,107308,65700,0,47784,0,278357807,63
o,1724819561.359414,172.16.5.2,55526,172.16.1.2,5102,36190,47905,2086,146432,65728,6,6,4,1460,202187,1,16778208,400000,107308,104412,65700,0,44888,0,278357807,63
o,1724819561.359558,172.16.5.2,55526,172.16.1.2,5102,36190,47905,2086,146432,65728,6,6,4,1460,202187,1,16778208,400000,107308,104412,65700,0,46336,0,278357807,63
i,1724819561.366946,172.16.5.2,55526,172.16.1.2,5102,36190,47905,2086,146432,65728,6,6,4,1460,202187,1,16778208,400000,107308,107308,65700,0,47784,0,278357807,63
o,1724819561.367028,172.16.5.2,55526,172.16.1.2,5102,36190,47905,2086,146432,65728,6,6,4,1460,203437,1,16778208,420000,107308,104412,65700,0,44888,0,278357807,63
i,1724819561.367173,172.16.5.2,55526,172.16.1.2,5102,36190,47905,2086,146432,65728,6,6,4,1460,203437,1,16778208,420000,107308,104412,65700,0,47784,0,278357807,63
o,1724819561.367191,172.16.5.2,55526,172.16.1.2,5102,36190,47905,2086,146432,65728,6,6,4,1460,201875,1,16778208,420000,107308,101516,65700,0,44888,0,278357807,63
i,1724819561.390120,172.16.5.2,55526,172.16.1.2,5102,36190,47905,2086,146432,65728,6,6,4,1460,201875,1,16778208,420000,107308,107308,65700,0,47784,0,278357807,63
o,1724819561.390244,172.16.5.2,55526,172.16.1.2,5102,36190,47905,2086,146432,65728,6,6,4,1460,203125,1,16778208,430000,107308,104412,65700,0,44888,0,278357807,63
i,1724819561.466769,172.16.5.2,55526,172.16.1.2,5102,36190,47905,2086,146432,65728,6,6,4,1460,203125,1,16778208,430000,107308,107308,65700,0,47784,0,278357807,63
o,1724819561.466848,172.16.5.2,55526,172.16.1.2,5102,36190,47905,2086,146432,65728,6,6,4,1460,214062,1,16778208,520000,107308,104412,65700,0,44888,0,278357807,63
i,1724819561.519412,172.16.5.2,55526,172.16.1.2,5102,36190,47905,2086,146432,65728,6,6,4,1460,214062,1,16778208,520000,107308,107308,65700,0,47784,0,278357807,63
o,1724819561.519449,172.16.5.2,55526,172.16.1.2,5102,36190,47905,2086,146432,65728,6,6,4,1460,222500,1,16778208,570000,107308,104412,65700,0,44888,0,278357807,63
i,1724819561.525243,172.16.5.2,55526,172.16.1.2,5102,36190,47905,2086,146432,65728,6,6,4,1460,222500,1,16778208,570000,107308,107308,65700,0,47784,0,278357807,63
o,1724819561.525270,172.16.5.2,55526,172.16.1.2,5102,36190,47905,2086,144960,65728,6,6,4,1460,222187,1,16778208,530000,107308,104412,65700,0,44888,0,278357807,63
i,1724819561.525438,172.16.5.2,55526,172.16.1.2,5102,36190,47905,2086,144960,65728,6,6,4,1460,222187,1,16778208,530000,107308,104412,65700,0,47784,0,278357807,63
o,1724819561.525455,172.16.5.2,55526,172.16.1.2,5102,36190,47905,2086,142080,65728,6,6,4,1460,222187,1,16778208,510000,107308,101516,65700,0,44888,0,278357807,63
i,1724819561.527047,172.16.5.2,55526,172.16.1.2,5102,36190,47905,2086,142080,65728,6,6,4,1460,222187,1,16778208,510000,107308,107308,65700,0,47784,0,278357807,63
o,1724819561.527142,172.16.5.2,55526,172.16.1.2,5102,36190,47905,2086,144960,65728,6,6,4,1460,220937,1,16778208,490000,107308,104412,65700,0,44888,0,278357807,63
i,1724819561.550982,172.16.5.2,55526,172.16.1.2,5102,36190,47905,2086,144960,65728,6,6,4,1460,220937,1,16778208,490000,107308,107308,65700,0,47784,0,278357807,63
o,1724819561.551012,172.16.5.2,55526,172.16.1.2,5102,36190,47905,2086,146432,65728,6,6,4,1460,222187,1,16778208,490000,107308,104412,65700,0,44888,0,278357807,63
i,1724819561.551439,172.16.5.2,55526,172.16.1.2,5102,36190,47905,2086,146432,65728,6,6,4,1460,222187,1,16778208,490000,107308,104412,65700,0,47784,0,278357807,63
o,1724819561.551460,172.16.5.2,55526,172.16.1.2,5102,36190,47905,2086,143552,65728,6,6,4,1460,223437,1,16778208,480000,107308,101516,65700,0,44888,0,278357807,63
i,1724819561.551663,172.16.5.2,55526,172.16.1.2,5102,36190,47905,2086,143552,65728,6,6,4,1460,223437,1,16778208,480000,107308,101516,65700,0,47784,0,278357807,63
o,1724819561.551683,172.16.5.2,55526,172.16.1.2,5102,36190,47905,2086,146432,65728,6,6,4,1460,224375,1,16778208,470000,107308,98620,65700,0,44888,0,278357807,63
i,1724819561.551852,172.16.5.2,55526,172.16.1.2,5102,36190,47905,2086,146432,65728,6,6,4,1460,224375,1,16778208,470000,107308,98620,65700,0,47784,0,278357807,63
o,1724819561.551880,172.16.5.2,55526,172.16.1.2,5102,36190,47905,2086,146432,65728,6,6,4,1460,225312,1,16778208,470000,107308,95724,65700,0,44888,0,278357807,63
i,1724819561.552029,172.16.5.2,55526,172.16.1.2,5102,36190,47905,2086,146432,65728,6,6,4,1460,225312,1,16778208,470000,107308,95724,65700,0,47784,0,278357807,63
o,1724819561.552078,172.16.5.2,55526,172.16.1.2,5102,36190,47905,2086,144960,65728,6,6,4,1460,220937,1,16778208,490000,107308,92828,65700,0,44888,0,278357807,63
i,1724819561.553332,172.16.5.2,55526,172.16.1.2,5102,36190,47905,2086,144960,65728,6,6,4,1460,220937,1,16778208,490000,107308,107308,65700,0,47784,0,278357807,63
o,1724819561.553365,172.16.5.2,55526,172.16.1.2,5102,36190,47905,2086,144960,65728,6,6,4,1460,217187,1,16778208,500000,107308,104412,65700,0,44888,0,278357807,63
i,1724819561.554366,172.16.5.2,55526,172.16.1.2,5102,36190,47905,2086,144960,65728,6,6,4,1460,217187,1,16778208,500000,107308,107308,65700,0,47784,0,278357807,63
o,1724819561.554390,172.16.5.2,55526,172.16.1.2,5102,36190,49365,2086,144960,65728,6,6,4,1460,214062,1,16778208,500000,107308,104412,65700,0,44888,0,278357807,63
i,1724819561.575973,172.16.5.2,55526,172.16.1.2,5102,36190,49365,2086,144960,65728,6,6,4,1460,214062,1,16778208,500000,107308,107308,65700,0,49232,0,278357807,63
o,1724819561.576104,172.16.5.2,55526,172.16.1.2,5102,36190,49365,2086,146432,65728,6,6,4,1460,215000,1,16778208,490000,107308,104412,65700,0,46336,0,278357807,63
o,1724819561.576268,172.16.5.2,55526,172.16.1.2,5102,36190,49365,2086,146432,65728,6,6,4,1460,215000,1,16778208,490000,107308,104412,65700,0,47784,0,278357807,63
i,1724819561.604595,172.16.5.2,55526,172.16.1.2,5102,36190,49365,2086,146432,65728,6,6,4,1460,215000,1,16778208,490000,107308,107308,65700,0,49232,0,278357807,63
o,1724819561.604642,172.16.5.2,55526,172.16.1.2,5102,36190,49365,2086,146432,65728,6,6,4,1460,219375,1,16778208,510000,107308,104412,65700,0,46336,0,278357807,63
i,1724819561.604851,172.16.5.2,55526,172.16.1.2,5102,36190,49365,2086,146432,65728,6,6,4,1460,219375,1,16778208,510000,107308,104412,65700,0,49232,0,278357807,63
o,1724819561.604872,172.16.5.2,55526,172.16.1.2,5102,36190,49365,2086,146432,65728,6,6,4,1460,222187,1,16778208,510000,107308,101516,65700,0,46336,0,278357807,63
