enable_time_secs=1724818856	enable_time_usecs=341810	siftrver=1.3.0	sysname=FreeBSD	sysver=1401000	ipmode=4
o,1724818856.342263,10.0.2.15,22,10.0.2.2,51180,1073725440,17746,1026,65535,65700,0,0,4,1460,312,0,16777220,240000,33580,172,65700,0,0,0,886011522,63
i,1724818856.343210,10.0.2.15,22,10.0.2.2,51180,1073725440,17746,1026,65535,65700,0,0,4,1460,312,0,16777220,240000,33580,172,65700,0,172,0,886011522,63
o,1724818856.343251,10.0.2.15,22,10.0.2.2,51180,1073725440,17918,1026,65535,65700,0,0,4,1460,312,0,16777220,240000,33580,72,65700,0,0,0,886011522,63
i,1724818856.344173,10.0.2.15,22,10.0.2.2,51180,1073725440,17918,1026,65535,65700,0,0,4,1460,312,0,16777220,240000,33580,72,65700,0,72,0,886011522,63
i,1724818856.344816,10.0.2.15,22,10.0.2.2,51180,1073725440,17990,1026,65535,65700,0,0,4,1460,312,0,4,240000,33580,0,65700,0,0,0,886011522,63
i,1724818856.344836,10.0.2.15,22,10.0.2.2,51180,1073725440,17990,1026,65535,65700,0,0,4,1460,312,0,4,240000,33580,0,65700,96,0,0,886011522,63
o,1724818856.344860,10.0.2.15,22,10.0.2.2,51180,1073725440,17990,1026,65535,65604,0,0,5,1460,312,0,5,240000,33580,0,65700,96,0,0,886011522,63
o,1724818856.346008,10.0.2.15,22,10.0.2.2,51180,1073725440,17990,1026,65535,65604,0,0,8,1460,312,0,4,240000,33580,0,65700,0,0,0,886011522,63
i,1724818856.346584,10.0.2.15,22,10.0.2.2,51180,1073725440,17990,1026,65535,65604,0,0,8,1460,312,0,67108884,240000,33580,0,65700,0,1,0,886011522,63
i,1724818859.465357,10.0.2.15,22,10.0.2.2,51186,1073725440,14600,0,65535,65700,0,0,4,1460,312,0,16777216,270000,33580,0,65700,0,0,0,4067737630,63
o,1724818859.483650,10.0.2.15,22,10.0.2.2,51186,1073725440,14600,1026,65535,65700,0,0,4,1460,312,0,16777216,270000,33580,38,65700,42,0,0,4067737630,63
i,1724818859.484214,10.0.2.15,22,10.0.2.2,51186,1073725440,14600,1026,65535,65700,0,0,4,1460,312,0,16777216,270000,33580,38,65700,0,38,0,4067737630,63
i,1724818859.484555,10.0.2.15,22,10.0.2.2,51186,1073725440,14638,1026,65535,65700,0,0,4,1460,312,0,0,240000,33580,0,65700,0,0,0,4067737630,63
i,1724818859.484574,10.0.2.15,22,10.0.2.2,51186,1073725440,14638,1026,65535,65700,0,0,4,1460,312,0,0,240000,33580,0,65700,1460,0,0,4067737630,63
o,1724818859.484593,10.0.2.15,22,10.0.2.2,51186,1073725440,14638,1026,65535,65700,0,0,4,1460,312,0,1,240000,33580,0,65700,1536,0,0,4067737630,63
o,1724818859.486149,10.0.2.15,22,10.0.2.2,51186,1073725440,14638,1026,65535,65700,0,0,4,1460,312,0,16777216,240000,33580,1120,65700,1536,0,0,4067737630,63
i,1724818859.487061,10.0.2.15,22,10.0.2.2,51186,1073725440,14638,1026,65535,65700,0,0,4,1460,312,0,16777216,240000,33580,1120,65700,0,1120,0,4067737630,63
i,1724818859.488290,10.0.2.15,22,10.0.2.2,51186,1073725440,15758,1026,65535,65700,0,0,4,1460,312,0,0,240000,33580,0,65700,0,0,0,4067737630,63
o,1724818859.491377,10.0.2.15,22,10.0.2.2,51186,1073725440,15758,1026,65535,65700,0,0,4,1460,312,0,16777216,240000,33580,492,65700,0,0,0,4067737630,63
i,1724818859.492261,10.0.2.15,22,10.0.2.2,51186,1073725440,15758,1026,65535,65700,0,0,4,1460,312,0,16777216,240000,33580,492,65700,0,492,0,4067737630,63
i,1724818859.496065,10.0.2.15,22,10.0.2.2,51186,1073725440,16250,1026,65535,65700,0,0,4,1460,312,0,0,240000,33580,0,65700,0,0,0,4067737630,63
i,1724818859.496083,10.0.2.15,22,10.0.2.2,51186,1073725440,16250,1026,65535,65700,0,0,4,1460,312,0,0,240000,33580,0,65700,16,0,0,4067737630,63
o,1724818859.496099,10.0.2.15,22,10.0.2.2,51186,1073725440,16250,1026,65535,65700,0,0,4,1460,312,0,1,240000,33580,0,65700,60,0,0,4067737630,63
o,1724818859.496300,10.0.2.15,22,10.0.2.2,51186,1073725440,16250,1026,65535,65700,0,0,4,1460,312,0,16777216,240000,33580,44,65700,0,0,0,4067737630,63
i,1724818859.497739,10.0.2.15,22,10.0.2.2,51186,1073725440,16250,1026,65535,65700,0,0,4,1460,312,0,16777216,240000,33580,44,65700,0,44,0,4067737630,63
i,1724818859.497762,10.0.2.15,22,10.0.2.2,51186,1073725440,16294,1026,65535,65700,0,0,4,1460,312,0,0,240000,33580,0,65700,0,0,0,4067737630,63
o,1724818859.499643,10.0.2.15,22,10.0.2.2,51186,1073725440,16294,1026,65535,65700,0,0,4,1460,312,0,16777216,240000,33580,68,65700,0,0,0,4067737630,63
i,1724818859.500694,10.0.2.15,22,10.0.2.2,51186,1073725440,16294,1026,65535,65700,0,0,4,1460,312,0,16777216,240000,33580,68,65700,0,68,0,4067737630,63
i,1724818859.500694,10.0.2.15,22,10.0.2.2,51186,1073725440,16362,1026,65535,65700,0,0,4,1460,312,0,0,240000,33580,0,65700,0,0,0,4067737630,63
o,1724818859.501613,10.0.2.15,22,10.0.2.2,51186,1073725440,16362,1026,65535,65700,0,0,4,1460,312,0,16777216,240000,33580,332,65700,0,0,0,4067737630,63
i,1724818859.502428,10.0.2.15,22,10.0.2.2,51186,1073725440,16362,1026,65535,65700,0,0,4,1460,312,0,16777216,240000,33580,332,65700,0,332,0,4067737630,63
i,1724818859.503728,10.0.2.15,22,10.0.2.2,51186,1073725440,16694,1026,65535,65700,0,0,4,1460,312,0,0,240000,33580,0,65700,0,0,0,4067737630,63
o,1724818859.521656,10.0.2.15,22,10.0.2.2,51186,1073725440,16694,1026,65535,65700,0,0,4,1460,312,0,16777216,240000,33580,28,65700,0,0,0,4067737630,63
i,1724818859.522099,10.0.2.15,22,10.0.2.2,51186,1073725440,16694,1026,65535,65700,0,0,4,1460,312,0,16777216,240000,33580,28,65700,0,28,0,4067737630,63
i,1724818859.522486,10.0.2.15,22,10.0.2.2,51186,1073725440,16722,1026,65535,65700,0,0,4,1460,312,0,0,240000,33580,0,65700,0,0,0,4067737630,63
o,1724818859.523582,10.0.2.15,22,10.0.2.2,51186,1073725440,16722,1026,65535,65700,0,0,4,1460,312,0,16777216,240000,33580,768,65700,112,0,0,4067737630,63
i,1724818859.524089,10.0.2.15,22,10.0.2.2,51186,1073725440,16722,1026,65535,65700,0,0,4,1460,312,0,16777216,240000,33580,908,65700,112,768,0,4067737630,63
o,1724818859.524109,10.0.2.15,22,10.0.2.2,51186,1073725440,17490,1026,65535,65700,0,0,4,1460,312,0,16777216,240000,33580,140,65700,112,0,0,4067737630,63
i,1724818859.524560,10.0.2.15,22,10.0.2.2,51186,1073725440,17490,1026,65535,65700,0,0,4,1460,312,0,16777216,240000,33580,140,65700,0,140,0,4067737630,63
o,1724818859.524753,10.0.2.15,22,10.0.2.2,51186,1073725440,17630,1026,65535,65700,0,0,4,1460,312,0,16777216,240000,33580,44,65700,0,0,0,4067737630,63
i,1724818859.525325,10.0.2.15,22,10.0.2.2,51186,1073725440,17630,1026,65535,65700,0,0,4,1460,312,0,16777216,240000,33580,44,65700,0,44,0,4067737630,63
i,1724818859.525752,10.0.2.15,22,10.0.2.2,51186,1073725440,17674,1026,65535,65700,0,0,4,1460,312,0,0,240000,33580,0,65700,0,0,0,4067737630,63
o,1724818859.526249,10.0.2.15,22,10.0.2.2,51186,1073725440,17674,1026,65535,65700,0,0,4,1460,312,0,16777220,240000,33580,72,65700,0,0,0,4067737630,63
i,1724818859.527191,10.0.2.15,22,10.0.2.2,51186,1073725440,17674,1026,65535,65700,0,0,4,1460,312,0,16777220,240000,33580,72,65700,0,72,0,4067737630,63
o,1724818859.529662,10.0.2.15,22,10.0.2.2,51186,1073725440,17746,1026,65535,65700,0,0,4,1460,312,0,16777220,240000,33580,104,65700,0,0,0,4067737630,63
i,1724818859.530128,10.0.2.15,22,10.0.2.2,51186,1073725440,17746,1026,65535,65700,0,0,4,1460,312,0,16777220,240000,33580,104,65700,0,104,0,4067737630,63
o,1724818859.539879,10.0.2.15,22,10.0.2.2,51186,1073725440,17850,1026,65535,65700,0,0,4,1460,312,0,16777220,240000,33580,72,65700,0,0,0,4067737630,63
i,1724818859.541099,10.0.2.15,22,10.0.2.2,51186,1073725440,17850,1026,65535,65700,0,0,4,1460,312,0,16777220,240000,33580,72,65700,0,72,0,4067737630,63
i,1724818859.541129,10.0.2.15,22,10.0.2.2,51186,1073725440,17922,1026,65535,65700,0,0,4,1460,312,0,4,240000,33580,0,65700,0,0,0,4067737630,63
i,1724818859.541146,10.0.2.15,22,10.0.2.2,51186,1073725440,17922,1026,65535,65700,0,0,4,1460,312,0,4,240000,33580,0,65700,96,0,0,4067737630,63
o,1724818859.541165,10.0.2.15,22,10.0.2.2,51186,1073725440,17922,1026,65535,65604,0,0,5,1460,312,0,5,240000,33580,0,65700,96,0,0,4067737630,63
o,1724818859.554234,10.0.2.15,22,10.0.2.2,51186,1073725440,17922,1026,65535,65604,0,0,8,1460,312,0,4,240000,33580,0,65700,0,0,0,4067737630,63
i,1724818859.556139,10.0.2.15,22,10.0.2.2,51186,1073725440,17922,1026,65535,65604,0,0,8,1460,312,0,67108884,240000,33580,0,65700,0,1,0,4067737630,63
i,1724818860.606414,10.0.2.15,22,10.0.2.2,51166,1073725440,14600,0,65535,65700,0,0,4,1460,312,0,16777216,270000,33580,0,65700,0,0,0,2067007277,63
o,1724818860.616758,10.0.2.15,22,10.0.2.2,51166,1073725440,14600,1026,65535,65700,0,0,4,1460,312,0,16777216,270000,33580,38,65700,42,0,0,2067007277,63
i,1724818860.617824,10.0.2.15,22,10.0.2.2,51166,1073725440,14600,1026,65535,65700,0,0,4,1460,312,0,16777216,270000,33580,38,65700,0,38,0,2067007277,63
i,1724818860.617853,10.0.2.15,22,10.0.2.2,51166,1073725440,14638,1026,65535,65700,0,0,4,1460,312,0,0,240000,33580,0,65700,0,0,0,2067007277,63
i,1724818860.617873,10.0.2.15,22,10.0.2.2,51166,1073725440,14638,1026,65535,65700,0,0,4,1460,312,0,0,240000,33580,0,65700,1460,0,0,2067007277,63
o,1724818860.617896,10.0.2.15,22,10.0.2.2,51166,1073725440,14638,1026,65535,65700,0,0,4,1460,312,0,1,240000,33580,0,65700,1536,0,0,2067007277,63
o,1724818860.619276,10.0.2.15,22,10.0.2.2,51166,1073725440,14638,1026,65535,65700,0,0,4,1460,312,0,16777216,240000,33580,1120,65700,1536,0,0,2067007277,63
i,1724818860.619856,10.0.2.15,22,10.0.2.2,51166,1073725440,14638,1026,65535,65700,0,0,4,1460,312,0,16777216,240000,33580,1120,65700,0,1120,0,2067007277,63
i,1724818860.621266,10.0.2.15,22,10.0.2.2,51166,1073725440,15758,1026,65535,65700,0,0,4,1460,312,0,0,240000,33580,0,65700,0,0,0,2067007277,63
o,1724818860.623074,10.0.2.15,22,10.0.2.2,51166,1073725440,15758,1026,65535,65700,0,0,4,1460,312,0,16777216,240000,33580,492,65700,0,0,0,2067007277,63
i,1724818860.623726,10.0.2.15,22,10.0.2.2,51166,1073725440,15758,1026,65535,65700,0,0,4,1460,312,0,16777216,240000,33580,492,65700,0,492,0,2067007277,63
i,1724818860.628119,10.0.2.15,22,10.0.2.2,51166,1073725440,16250,1026,65535,65700,0,0,4,1460,312,0,0,230000,33580,0,65700,0,0,0,2067007277,63
i,1724818860.628136,10.0.2.15,22,10.0.2.2,51166,1073725440,16250,1026,65535,65700,0,0,4,1460,312,0,0,230000,33580,0,65700,16,0,0,2067007277,63
o,1724818860.628152,10.0.2.15,22,10.0.2.2,51166,1073725440,16250,1026,65535,65700,0,0,4,1460,312,0,1,230000,33580,0,65700,60,0,0,2067007277,63
o,1724818860.628324,10.0.2.15,22,10.0.2.2,51166,1073725440,16250,1026,65535,65700,0,0,4,1460,312,0,16777216,230000,33580,44,65700,0,0,0,2067007277,63
i,1724818860.629329,10.0.2.15,22,10.0.2.2,51166,1073725440,16250,1026,65535,65700,0,0,4,1460,312,0,16777216,230000,33580,44,65700,0,44,0,2067007277,63
i,1724818860.629349,10.0.2.15,22,10.0.2.2,51166,1073725440,16294,1026,65535,65700,0,0,4,1460,312,0,0,230000,33580,0,65700,0,0,0,2067007277,63
o,1724818860.630655,10.0.2.15,22,10.0.2.2,51166,1073725440,16294,1026,65535,65700,0,0,4,1460,312,0,16777216,230000,33580,68,65700,0,0,0,2067007277,63
i,1724818860.631129,10.0.2.15,22,10.0.2.2,51166,1073725440,16294,1026,65535,65700,0,0,4,1460,312,0,16777216,230000,33580,68,65700,0,68,0,2067007277,63
i,1724818860.631194,10.0.2.15,22,10.0.2.2,51166,1073725440,16362,1026,65535,65700,0,0,4,1460,312,0,0,230000,33580,0,65700,0,0,0,2067007277,63
o,1724818860.632451,10.0.2.15,22,10.0.2.2,51166,1073725440,16362,1026,65535,65700,0,0,4,1460,312,0,16777216,230000,33580,332,65700,0,0,0,2067007277,63
i,1724818860.633723,10.0.2.15,22,10.0.2.2,51166,1073725440,16362,1026,65535,65700,0,0,4,1460,312,0,16777216,230000,33580,332,65700,0,332,0,2067007277,63
i,1724818860.636339,10.0.2.15,22,10.0.2.2,51166,1073725440,16694,1026,65535,65700,0,0,4,1460,312,0,0,230000,33580,0,65700,0,0,0,2067007277,63
o,1724818860.652368,10.0.2.15,22,10.0.2.2,51166,1073725440,16694,1026,65535,65700,0,0,4,1460,312,0,16777216,230000,33580,28,65700,0,0,0,2067007277,63
i,1724818860.652962,10.0.2.15,22,10.0.2.2,51166,1073725440,16694,1026,65535,65700,0,0,4,1460,312,0,16777216,230000,33580,28,65700,0,28,0,2067007277,63
i,1724818860.652984,10.0.2.15,22,10.0.2.2,51166,1073725440,16722,1026,65535,65700,0,0,4,1460,312,0,0,230000,33580,0,65700,0,0,0,2067007277,63
o,1724818860.654707,10.0.2.15,22,10.0.2.2,51166,1073725440,16722,1026,65535,65700,0,0,4,1460,312,0,16777216,230000,33580,768,65700,112,0,0,2067007277,63
i,1724818860.655275,10.0.2.15,22,10.0.2.2,51166,1073725440,16722,1026,65535,65700,0,0,4,1460,312,0,16777216,230000,33580,908,65700,112,768,0,2067007277,63
o,1724818860.655297,10.0.2.15,22,10.0.2.2,51166,1073725440,17490,1026,65535,65700,0,0,4,1460,312,0,16777216,230000,33580,140,65700,112,0,0,2067007277,63
i,1724818860.655476,10.0.2.15,22,10.0.2.2,51166,1073725440,17490,1026,65535,65700,0,0,4,1460,312,0,16777216,230000,33580,140,65700,112,140,0,2067007277,63
o,1724818860.655774,10.0.2.15,22,10.0.2.2,51166,1073725440,17630,1026,65535,65700,0,0,4,1460,312,0,16777216,230000,33580,44,65700,0,0,0,2067007277,63
i,1724818860.656583,10.0.2.15,22,10.0.2.2,51166,1073725440,17630,1026,65535,65700,0,0,4,1460,312,0,16777216,230000,33580,44,65700,0,44,0,2067007277,63
i,1724818860.656603,10.0.2.15,22,10.0.2.2,51166,1073725440,17674,1026,65535,65700,0,0,4,1460,312,0,0,240000,33580,0,65700,0,0,0,2067007277,63
o,1724818860.657189,10.0.2.15,22,10.0.2.2,51166,1073725440,17674,1026,65535,65700,0,0,4,1460,312,0,16777220,240000,33580,72,65700,0,0,0,2067007277,63
i,1724818860.658092,10.0.2.15,22,10.0.2.2,51166,1073725440,17674,1026,65535,65700,0,0,4,1460,312,0,16777220,240000,33580,72,65700,0,72,0,2067007277,63
o,1724818860.781067,172.16.5.2,15613,172.16.1.2,5102,42049,14480,2082,65535,65700,6,6,4,1460,171250,1,16778209,580000,33580,0,65700,0,0,0,3941463083,63
o,1724818860.781554,172.16.5.2,15613,172.16.1.2,5102,42049,14480,2082,65535,65700,6,6,4,1460,171250,1,16778212,580000,33580,37,65700,0,0,0,3941463083,63
i,1724818860.893659,172.16.5.2,15613,172.16.1.2,5102,42049,14480,2082,65535,65700,6,6,4,1460,171250,1,16778212,580000,33580,37,65700,0,37,0,3941463083,63
o,1724818860.894015,172.16.5.2,15613,172.16.1.2,5102,42049,14517,3106,65728,65728,6,6,4,1460,163750,1,16778212,580000,33580,4,65700,0,0,0,3941463083,63
o,1724818860.894392,172.16.5.2,15613,172.16.1.2,5102,42049,14517,3106,65728,65728,6,6,4,1460,163750,1,16778212,580000,33580,130,65700,0,4,0,3941463083,63
i,1724818860.999740,172.16.5.2,15613,172.16.1.2,5102,42049,14517,3106,65728,65728,6,6,4,1460,163750,1,16778212,580000,33580,130,65700,0,130,0,3941463083,63
i,1724818860.999781,172.16.5.2,15613,172.16.1.2,5102,42049,14647,3106,65600,65728,6,6,4,1460,155937,1,996,580000,33580,0,65700,0,0,0,3941463083,63
o,1724818861.079927,172.16.5.2,15613,172.16.1.2,5102,42049,14647,3106,65728,65728,6,6,4,1460,155937,1,997,580000,33580,0,65700,0,0,0,3941463083,63
o,1724818861.104198,172.16.5.2,36332,172.16.1.2,5102,42049,14480,2082,65535,65700,6,6,4,1460,170000,1,16778209,590000,33580,0,65700,0,0,0,3171596644,63
o,1724818861.104332,172.16.5.2,36332,172.16.1.2,5102,42049,14480,2082,65535,65700,6,6,4,1460,170000,1,16778208,590000,33580,37,65700,0,0,0,3171596644,63
i,1724818861.208416,172.16.5.2,15613,172.16.1.2,5102,42049,14647,3106,65728,65728,6,6,4,1460,155937,1,996,580000,33580,0,65700,0,0,0,3941463083,63
i,1724818861.208603,172.16.5.2,15613,172.16.1.2,5102,42049,14647,3106,65728,65728,6,6,4,1460,155937,1,996,580000,33580,0,65700,1,0,0,3941463083,63
o,1724818861.208640,172.16.5.2,15613,172.16.1.2,5102,42049,14647,3106,65728,65728,6,6,4,1460,155937,1,997,580000,33580,0,65700,2,0,0,3941463083,63
o,1724818861.209272,172.16.5.2,36332,172.16.1.2,5102,42049,14480,2086,65535,65700,6,6,4,1460,170000,1,16778208,590000,33580,33580,65700,0,37,0,3171596644,63
i,1724818861.485239,172.16.5.2,36332,172.16.1.2,5102,42049,14480,2086,65535,65700,6,6,4,1460,170000,1,16778208,590000,33580,33580,65700,0,13069,0,3171596644,63
o,1724818861.485345,172.16.5.2,36332,172.16.1.2,5102,42049,14517,2086,65728,65728,6,6,4,1460,196250,1,16778208,770000,33580,33543,65700,0,13032,0,3171596644,63
i,1724818861.616860,172.16.5.2,36332,172.16.1.2,5102,42049,14517,2086,65728,65728,6,6,4,1460,196250,1,16778208,770000,33580,33543,65700,0,14480,0,3171596644,63
o,1724818861.616903,172.16.5.2,36332,172.16.1.2,5102,42049,17413,2086,64256,65728,6,6,4,1460,223125,1,16778208,920000,33580,30647,65700,0,11584,0,3171596644,63
i,1724818861.617055,172.16.5.2,36332,172.16.1.2,5102,42049,17413,2086,64256,65728,6,6,4,1460,223125,1,16778208,920000,41772,30647,65700,0,17376,0,3171596644,63
o,1724818861.617076,172.16.5.2,36332,172.16.1.2,5102,42049,20309,2086,64256,65728,6,6,4,1460,246562,1,16778208,1010000,41772,27751,65700,0,14480,0,3171596644,63
i,1724818861.617307,172.16.5.2,36332,172.16.1.2,5102,42049,20309,2086,64256,65728,6,6,4,1460,246562,1,16778208,1010000,41772,27751,65700,0,20272,0,3171596644,63
o,1724818861.617325,172.16.5.2,36332,172.16.1.2,5102,42049,23205,2086,64256,65728,6,6,4,1460,267187,1,16778208,1050000,41772,24855,65700,0,17376,0,3171596644,63
i,1724818861.617549,172.16.5.2,36332,172.16.1.2,5102,42049,23205,2086,64256,65728,6,6,4,1460,267187,1,16778208,1050000,41772,24855,65700,0,23168,0,3171596644,63
o,1724818861.617575,172.16.5.2,36332,172.16.1.2,5102,42049,26101,2086,64256,65728,6,6,4,1460,285312,1,16778208,1070000,41772,21959,65700,0,20272,0,3171596644,63
o,1724818861.617832,172.16.5.2,36332,172.16.1.2,5102,42049,26101,2086,64256,65728,6,6,4,1460,285312,1,16778208,1070000,49964,38876,65700,0,21959,0,3171596644,63
i,1724818861.666752,172.16.5.2,36332,172.16.1.2,5102,42049,26101,2086,64256,65728,6,6,4,1460,285312,1,16778208,1070000,58156,58156,65700,0,24855,0,3171596644,63
o,1724818861.666801,172.16.5.2,36332,172.16.1.2,5102,42049,27549,2086,65728,65728,6,6,4,1460,307187,1,16778208,1120000,58156,56708,65700,0,23407,0,3171596644,63
i,1724818861.685691,172.16.5.2,36332,172.16.1.2,5102,42049,27549,2086,65728,65728,6,6,4,1460,307187,1,16778208,1120000,58156,56708,65700,0,26303,0,3171596644,63
o,1724818861.685762,172.16.5.2,36332,172.16.1.2,5102,42049,28997,2086,65728,65728,6,6,4,1460,294062,1,16778208,1060000,58156,55260,65700,0,24855,0,3171596644,63
o,1724818861.685935,172.16.5.2,36332,172.16.1.2,5102,42049,28997,2086,65728,65728,6,6,4,1460,294062,1,16778208,1060000,66348,55260,65700,0,26303,0,3171596644,63
i,1724818862.348219,172.16.5.2,36332,172.16.1.2,5102,42049,28997,2086,65728,65728,6,6,4,1460,294062,1,16778208,1060000,66348,66348,65700,0,27751,0,3171596644,63
o,1724818862.348264,172.16.5.2,36332,172.16.1.2,5102,42049,31893,2086,64256,65728,6,6,4,1460,348750,1,16778208,1410000,66348,63452,65700,0,24855,0,3171596644,63
i,1724818862.348463,172.16.5.2,36332,172.16.1.2,5102,42049,31893,2086,64256,65728,6,6,4,1460,348750,1,16778208,1410000,66348,63452,65700,0,30647,0,3171596644,63
o,1724818862.348484,172.16.5.2,36332,172.16.1.2,5102,42049,33341,2086,65728,65728,6,6,4,1460,396562,1,16778208,1620000,74540,62004,65700,0,29199,0,3171596644,63
i,1724818862.348651,172.16.5.2,36332,172.16.1.2,5102,42049,33341,2086,65728,65728,6,6,4,1460,396562,1,16778208,1620000,74540,62004,65700,0,32095,0,3171596644,63
o,1724818862.348677,172.16.5.2,36332,172.16.1.2,5102,42049,36237,2086,62848,65728,6,6,4,1460,438437,1,16778208,1740000,74540,59108,65700,0,29199,0,3171596644,63
i,1724818862.348892,172.16.5.2,36332,172.16.1.2,5102,42049,36237,2086,62848,65728,6,6,4,1460,438437,1,16778208,1740000,74540,59108,65700,0,34991,0,3171596644,63
o,1724818862.348922,172.16.5.2,36332,172.16.1.2,5102,42049,39133,2086,64256,65728,6,6,4,1460,475000,1,16778208,1800000,74540,56212,65700,0,32095,0,3171596644,63
i,1724818862.436193,172.16.5.2,36332,172.16.1.2,5102,42049,39133,2086,64256,65728,6,6,4,1460,475000,1,16778208,1800000,82732,82732,65700,0,37887,0,3171596644,63
o,1724818862.436193,172.16.5.2,36332,172.16.1.2,5102,42049,42053,2086,64256,65728,6,6,4,1460,518125,1,16778208,1900000,82732,76940,65700,0,32095,0,3171596644,63
i,1724818862.436193,172.16.5.2,36332,172.16.1.2,5102,42049,42053,2086,64256,65728,6,6,4,1460,518125,1,16778208,1900000,82732,76940,65700,0,40783,0,3171596644,63
o,1724818862.436193,172.16.5.2,36332,172.16.1.2,5102,42049,42053,2086,64256,65728,6,6,4,1460,555937,1,16778208,1950000,82732,74044,65700,0,37887,0,3171596644,63
i,1724818862.436900,172.16.5.2,36332,172.16.1.2,5102,42049,42053,2086,64256,65728,6,6,4,1460,555937,1,16778208,1950000,82732,74044,65700,0,40783,0,3171596644,63
o,1724818862.436917,172.16.5.2,36332,172.16.1.2,5102,42049,42053,2086,64256,65728,6,6,4,1460,589062,1,16778208,1950000,82732,72357,65700,0,39096,0,3171596644,63
i,1724818862.437054,172.16.5.2,36332,172.16.1.2,5102,42049,42053,2086,64256,65728,6,6,4,1460,589062,1,16778208,1950000,82732,72357,65700,0,41992,0,3171596644,63
o,1724818862.437070,172.16.5.2,36332,172.16.1.2,5102,42049,43440,2082,64256,65728,6,6,4,1460,589062,1,16778208,1950000,82732,72357,65700,0,41992,0,3171596644,63
i,1724818862.437224,172.16.5.2,36332,172.16.1.2,5102,42049,42053,2082,64256,65728,6,6,4,1460,589062,1,16778208,1950000,82732,72357,65700,0,43440,0,3171596644,63
o,1724818862.437240,172.16.5.2,36332,172.16.1.2,5102,21026,1448,2146,64256,65728,6,6,4,1460,589062,1,554697696,1950000,82732,72357,65700,0,43440,0,3171596644,63
i,1724818863.179792,172.16.5.2,36332,172.16.1.2,5102,21026,1448,2146,64256,65728,6,6,4,1460,589062,1,554697696,1950000,82732,81045,65700,0,43440,0,3171596644,63
i,1724818863.179871,172.16.5.2,36332,172.16.1.2,5102,21026,1448,2146,64256,65728,6,6,4,1460,589062,1,554697696,1950000,82732,81045,65700,0,43440,0,3171596644,63
o,1724818863.179900,172.16.5.2,36332,172.16.1.2,5102,21026,2896,2146,64256,65728,6,6,4,1460,589062,1,554697696,1950000,82732,81045,65700,0,43440,0,3171596644,63
i,1724818863.190292,172.16.5.2,36332,172.16.1.2,5102,21026,2896,2146,64256,65728,6,6,4,1460,589062,1,554697696,1950000,82732,81045,65700,0,43440,0,3171596644,63
o,1724818863.190351,172.16.5.2,36332,172.16.1.2,5102,21026,5792,2086,64256,65728,6,6,4,1460,589062,1,554697696,1950000,82732,81045,65700,0,43440,0,3171596644,63
i,1724818863.193519,172.16.5.2,36332,172.16.1.2,5102,21026,5792,2086,64256,65728,6,6,4,1460,589062,1,554697696,1950000,82732,81045,65700,0,46336,0,3171596644,63
o,1724818863.193594,172.16.5.2,36332,172.16.1.2,5102,21026,7240,2082,64256,65728,6,6,4,1460,589062,1,554697696,1950000,82732,81045,65700,0,46336,0,3171596644,63
i,1724818863.193819,172.16.5.2,36332,172.16.1.2,5102,21026,7240,2082,64256,65728,6,6,4,1460,589062,1,554697696,1950000,82732,81045,65700,0,47784,0,3171596644,63
i,1724818863.193852,172.16.5.2,36332,172.16.1.2,5102,21026,7240,2082,64256,65728,6,6,4,1460,589062,1,554697696,1950000,82732,81045,65700,0,47784,0,3171596644,63
o,1724818863.193868,172.16.5.2,36332,172.16.1.2,5102,21026,8688,2082,64256,65728,6,6,4,1460,589062,1,554697696,1950000,82732,81045,65700,0,47784,0,3171596644,63
i,1724818863.194055,172.16.5.2,36332,172.16.1.2,5102,21026,8688,2082,64256,65728,6,6,4,1460,589062,1,554697696,1950000,82732,81045,65700,0,49232,0,3171596644,63
o,1724818863.194072,172.16.5.2,36332,172.16.1.2,5102,21026,10136,2082,64256,65728,6,6,4,1460,589062,1,554697696,1950000,82732,81045,65700,0,49232,0,3171596644,63
i,1724818863.194232,172.16.5.2,36332,172.16.1.2,5102,21026,10136,2082,64256,65728,6,6,4,1460,589062,1,554697696,1950000,82732,81045,65700,0,50680,0,3171596644,63
i,1724818863.194270,172.16.5.2,36332,172.16.1.2,5102,21026,10136,2082,64256,65728,6,6,4,1460,589062,1,554697696,1950000,82732,81045,65700,0,50680,0,3171596644,63
o,1724818863.194292,172.16.5.2,36332,172.16.1.2,5102,21026,11584,2082,64256,65728,6,6,4,1460,589062,1,554697696,1950000,82732,81045,65700,0,50680,0,3171596644,63
i,1724818863.195397,172.16.5.2,36332,172.16.1.2,5102,21026,11584,2082,64256,65728,6,6,4,1460,589062,1,554697696,1950000,82732,81045,65700,0,52128,0,3171596644,63
o,1724818863.195414,172.16.5.2,36332,172.16.1.2,5102,21026,10136,2082,64256,65728,6,6,4,1460,589062,1,554697697,1950000,82732,81045,65700,0,52128,0,3171596644,63
i,1724818863.281182,172.16.5.2,36332,172.16.1.2,5102,21026,10136,2082,59968,65728,6,6,4,1460,609375,1,554697696,1840000,82732,82732,65700,0,46336,0,3171596644,63
o,1724818863.281211,172.16.5.2,36332,172.16.1.2,5102,21026,13032,2086,59968,65728,6,6,4,1460,609375,1,554697696,1840000,82732,82732,65700,0,46336,0,3171596644,63
i,1724818863.281345,172.16.5.2,36332,172.16.1.2,5102,21026,13032,2086,59968,65728,6,6,4,1460,609375,1,554697696,1840000,82732,82732,65700,0,49232,0,3171596644,63
i,1724818863.281373,172.16.5.2,36332,172.16.1.2,5102,21026,13032,2086,59968,65728,6,6,4,1460,609375,1,554697696,1840000,82732,82732,65700,0,49232,0,3171596644,63
o,1724818863.281390,172.16.5.2,36332,172.16.1.2,5102,21026,15928,2082,59968,65728,6,6,4,1460,609375,1,554697696,1840000,82732,82732,65700,0,49232,0,3171596644,63
o,1724818863.281525,172.16.5.2,36332,172.16.1.2,5102,21026,15928,2082,59968,65728,6,6,4,1460,609375,1,554697696,1840000,82732,82732,65700,0,49232,0,3171596644,63
i,1724818863.640387,172.16.5.2,36332,172.16.1.2,5102,21026,15928,2082,59968,65728,6,6,4,1460,609375,1,554697696,1840000,82732,82732,65700,0,50680,0,3171596644,63
o,1724818863.640453,172.16.5.2,36332,172.16.1.2,5102,21026,18824,2086,59968,65728,6,6,4,1460,609375,1,554697696,1840000,82732,82732,65700,0,50680,0,3171596644,63
o,1724818863.640611,172.16.5.2,36332,172.16.1.2,5102,21026,18824,2082,59968,65728,6,6,4,1460,609375,1,554697696,1840000,82732,82732,65700,0,52128,0,3171596644,63
i,1724818863.652928,172.16.5.2,36332,172.16.1.2,5102,21026,18824,2082,59968,65728,6,6,4,1460,609375,1,554697696,1840000,82732,82732,65700,0,53576,0,3171596644,63
o,1724818863.652974,172.16.5.2,36332,172.16.1.2,5102,21026,20272,2082,59968,65728,6,6,4,1460,609375,1,554697696,1840000,82732,82732,65700,0,53576,0,3171596644,63
i,1724818863.653165,172.16.5.2,36332,172.16.1.2,5102,21026,20272,2082,59968,65728,6,6,4,1460,609375,1,554697696,1840000,82732,82732,65700,0,55024,0,3171596644,63
o,1724818863.653189,172.16.5.2,36332,172.16.1.2,5102,21026,21720,2082,59968,65728,6,6,4,1460,609375,1,554697696,1840000,82732,82732,65700,0,55024,0,3171596644,63
i,1724818863.653763,172.16.5.2,36332,172.16.1.2,5102,21026,21720,2082,59968,65728,6,6,4,1460,609375,1,554697696,1840000,82732,82732,65700,0,56472,0,3171596644,63
o,1724818863.653783,172.16.5.2,36332,172.16.1.2,5102,21026,23168,2082,59968,65728,6,6,4,1460,609375,1,554697696,1840000,82732,82732,65700,0,56472,0,3171596644,63
i,1724818863.653967,172.16.5.2,36332,172.16.1.2,5102,21026,23168,2082,59968,65728,6,6,4,1460,609375,1,554697696,1840000,82732,82732,65700,0,57920,0,3171596644,63
o,1724818863.653982,172.16.5.2,36332,172.16.1.2,5102,21026,24616,2082,59968,65728,6,6,4,1460,609375,1,554697696,1840000,82732,82732,65700,0,57920,0,3171596644,63
i,1724818863.655154,172.16.5.2,36332,172.16.1.2,5102,21026,24616,2082,59968,65728,6,6,4,1460,609375,1,554697696,1840000,82732,82732,65700,0,59368,0,3171596644,63
i,1724818863.655188,172.16.5.2,36332,172.16.1.2,5102,21026,26064,2082,59968,65728,6,6,4,1460,609375,1,554697696,1840000,82732,82732,65700,0,59368,0,3171596644,63
i,1724818863.655220,172.16.5.2,36332,172.16.1.2,5102,21026,27512,2082,59968,65728,6,6,4,1460,609375,1,554697696,1840000,82732,82732,65700,0,59368,0,3171596644,63
i,1724818863.661777,172.16.5.2,36332,172.16.1.2,5102,21026,28960,2082,59968,65728,6,6,4,1460,609375,1,554697696,1840000,82732,82732,65700,0,59368,0,3171596644,63
i,1724818863.661812,172.16.5.2,36332,172.16.1.2,5102,21026,30408,2082,59968,65728,6,6,4,1460,609375,1,554697696,1840000,82732,82732,65700,0,59368,0,3171596644,63
o,1724818863.661830,172.16.5.2,36332,172.16.1.2,5102,21026,23168,2082,59968,65728,6,6,4,1460,609375,1,554697697,1840000,82732,82732,65700,0,59368,0,3171596644,63
i,1724818863.662116,172.16.5.2,36332,172.16.1.2,5102,21026,23168,2082,33920,65728,6,6,4,1460,592187,1,554697696,1700000,82732,50876,65700,0,27512,0,3171596644,63
i,1724818863.720322,172.16.5.2,36332,172.16.1.2,5102,21026,23168,2082,65728,65728,6,6,4,1460,592187,1,554697696,1700000,82732,82732,65700,0,27512,0,3171596644,63
o,1724818863.720365,172.16.5.2,36332,172.16.1.2,5102,21026,10148,2086,46912,65728,6,6,4,1460,573437,1,16778208,1610000,82732,63908,65700,0,8688,0,3171596644,63
i,1724818863.720554,172.16.5.2,36332,172.16.1.2,5102,21026,10148,2086,46912,65728,6,6,4,1460,573437,1,16778208,1610000,82732,63908,65700,0,10136,0,3171596644,63
o,1724818863.720595,172.16.5.2,36332,172.16.1.2,5102,21026,11584,2082,46912,65728,6,6,4,1460,573437,1,16778208,1610000,82732,63908,65700,0,10136,0,3171596644,63
i,1724818863.976348,172.16.5.2,36332,172.16.1.2,5102,21026,10148,2082,46912,65728,6,6,4,1460,573437,1,16778208,1610000,82732,82732,65700,0,11584,0,3171596644,63
o,1724818863.976389,172.16.5.2,36332,172.16.1.2,5102,21026,13044,2086,64256,65728,6,6,4,1460,544375,1,16778208,1600000,82732,79836,65700,0,8688,0,3171596644,63
o,1724818863.976556,172.16.5.2,36332,172.16.1.2,5102,21026,13044,2086,64256,65728,6,6,4,1460,544375,1,16778208,1600000,82732,79836,65700,0,10136,0,3171596644,63
i,1724818863.976684,172.16.5.2,36332,172.16.1.2,5102,21026,13044,2086,64256,65728,6,6,4,1460,544375,1,16778208,1600000,82732,79836,65700,0,13032,0,3171596644,63
o,1724818863.976701,172.16.5.2,36332,172.16.1.2,5102,21026,15940,2086,64256,65728,6,6,4,1460,517812,1,16778208,1570000,82732,76940,65700,0,10136,0,3171596644,63
i,1724818863.976880,172.16.5.2,36332,172.16.1.2,5102,21026,15940,2086,64256,65728,6,6,4,1460,517812,1,16778208,1570000,82732,76940,65700,0,15928,0,3171596644,63
o,1724818863.976896,172.16.5.2,36332,172.16.1.2,5102,21026,17388,2086,65728,65728,6,6,4,1460,493125,1,16778208,1530000,82732,75492,65700,0,14480,0,3171596644,63
i,1724818864.004280,172.16.5.2,36332,172.16.1.2,5102,21026,17388,2086,65728,65728,6,6,4,1460,493125,1,16778208,1530000,82732,82732,65700,0,17376,0,3171596644,63
o,1724818864.004307,172.16.5.2,36332,172.16.1.2,5102,21026,20284,2086,64256,65728,6,6,4,1460,475312,1,16778208,1450000,82732,79836,65700,0,14480,0,3171596644,63
i,1724818864.219402,172.16.5.2,36332,172.16.1.2,5102,21026,20284,2086,64256,65728,6,6,4,1460,475312,1,16778208,1450000,82732,82732,65700,0,20272,0,3171596644,63
o,1724818864.219440,172.16.5.2,36332,172.16.1.2,5102,21026,21732,2086,65728,65728,6,6,4,1460,478437,1,16778208,1280000,82732,81284,65700,0,18824,0,3171596644,63
i,1724818864.398203,172.16.5.2,36332,172.16.1.2,5102,21026,21732,2086,65728,65728,6,6,4,1460,478437,1,16778208,1280000,82732,81284,65700,0,21720,0,3171596644,63
o,1724818864.398280,172.16.5.2,36332,172.16.1.2,5102,21026,21732,2086,65728,65728,6,6,4,1460,471250,1,16778208,1180000,82732,79836,65700,0,20272,0,3171596644,63
i,1724818864.416203,172.16.5.2,36332,172.16.1.2,5102,21026,21732,2086,65728,65728,6,6,4,1460,471250,1,16778208,1180000,82732,82732,65700,0,21720,0,3171596644,63
o,1724818864.416268,172.16.5.2,36332,172.16.1.2,5102,21026,21732,2086,64256,65728,6,6,4,1460,467500,1,16778208,1080000,82732,79836,65700,0,18824,0,3171596644,63
i,1724818864.490856,172.16.5.2,36332,172.16.1.2,5102,21026,21732,2086,64256,65728,6,6,4,1460,467500,1,16778208,1080000,82732,82732,65700,0,21720,0,3171596644,63
o,1724818864.490888,172.16.5.2,36332,172.16.1.2,5102,21026,21732,2086,64256,65728,6,6,4,1460,472812,1,16778208,1030000,82732,79836,65700,0,18824,0,3171596644,63
i,1724818864.491024,172.16.5.2,36332,172.16.1.2,5102,21026,21732,2086,64256,65728,6,6,4,1460,472812,1,16778208,1030000,82732,79836,65700,0,21720,0,3171596644,63
o,1724818864.491042,172.16.5.2,36332,172.16.1.2,5102,21026,21732,2086,64256,65728,6,6,4,1460,477500,1,16778208,980000,82732,76940,65700,0,18824,0,3171596644,63
i,1724818864.491162,172.16.5.2,36332,172.16.1.2,5102,21026,21732,2086,64256,65728,6,6,4,1460,477500,1,16778208,980000,82732,76940,65700,0,21720,0,3171596644,63
o,1724818864.491178,172.16.5.2,36332,172.16.1.2,5102,21026,21732,2086,64256,65728,6,6,4,1460,481562,1,16778208,940000,82732,74044,65700,0,18824,0,3171596644,63
i,1724818864.491347,172.16.5.2,36332,172.16.1.2,5102,21026,21732,2086,64256,65728,6,6,4,1460,481562,1,16778208,940000,82732,74044,65700,0,21720,0,3171596644,63
o,1724818864.491364,172.16.5.2,36332,172.16.1.2,5102,21026,21732,2086,62848,65728,6,6,4,1460,481562,1,16778208,880000,82732,71148,65700,0,18824,0,3171596644,63
i,1724818864.492510,172.16.5.2,36332,172.16.1.2,5102,21026,21732,2086,62848,65728,6,6,4,1460,481562,1,16778208,880000,82732,82732,65700,0,21720,0,3171596644,63
o,1724818864.492594,172.16.5.2,36332,172.16.1.2,5102,21026,21732,2086,64256,65728,6,6,4,1460,481562,1,16778208,830000,82732,79836,65700,0,18824,0,3171596644,63
i,1724818864.767401,172.16.5.2,36332,172.16.1.2,5102,21026,21732,2086,64256,65728,6,6,4,1460,481562,1,16778208,830000,82732,82732,65700,0,21720,0,3171596644,63
o,1724818864.767507,172.16.5.2,36332,172.16.1.2,5102,21026,21732,2086,64256,65728,6,6,4,1460,490312,1,16778208,870000,82732,79836,65700,0,18824,0,3171596644,63
i,1724818864.832340,172.16.5.2,36332,172.16.1.2,5102,21026,21732,2086,64256,65728,6,6,4,1460,490312,1,16778208,870000,82732,82732,65700,0,21720,0,3171596644,63
o,1724818864.832401,172.16.5.2,36332,172.16.1.2,5102,21026,23192,2086,64256,65728,6,6,4,1460,482812,1,16778208,880000,82732,79836,65700,0,18824,0,3171596644,63
o,1724818864.832548,172.16.5.2,36332,172.16.1.2,5102,21026,23192,2086,64256,65728,6,6,4,1460,482812,1,16778208,880000,82732,79836,65700,0,20272,0,3171596644,63
i,1724818864.832669,172.16.5.2,36332,172.16.1.2,5102,21026,23192,2086,64256,65728,6,6,4,1460,482812,1,16778208,880000,82732,79836,65700,0,23168,0,3171596644,63
o,1724818864.832685,172.16.5.2,36332,172.16.1.2,5102,21026,23192,2086,65728,65728,6,6,4,1460,473750,1,16778208,890000,82732,78388,65700,0,21720,0,3171596644,63
i,1724818864.832863,172.16.5.2,36332,172.16.1.2,5102,21026,23192,2086,65728,65728,6,6,4,1460,473750,1,16778208,890000,82732,78388,65700,0,23168,0,3171596644,63
o,1724818864.832878,172.16.5.2,36332,172.16.1.2,5102,21026,23192,2086,64256,65728,6,6,4,1460,457187,1,16778208,950000,82732,75492,65700,0,20272,0,3171596644,63
i,1724818864.906633,172.16.5.2,36332,172.16.1.2,5102,21026,23192,2086,64256,65728,6,6,4,1460,457187,1,16778208,950000,82732,82732,65700,0,23168,0,3171596644,63
o,1724818864.906720,172.16.5.2,36332,172.16.1.2,5102,21026,23192,2086,64256,65728,6,6,4,1460,452812,1,16778208,910000,82732,79836,65700,0,20272,0,3171596644,63
i,1724818864.915857,172.16.5.2,36332,172.16.1.2,5102,21026,23192,2086,64256,65728,6,6,4,1460,452812,1,16778208,910000,82732,82732,65700,0,23168,0,3171596644,63
o,1724818864.915930,172.16.5.2,36332,172.16.1.2,5102,21026,23192,2086,62848,65728,6,6,4,1460,450000,1,16778208,860000,82732,79836,65700,0,20272,0,3171596644,63
i,1724818864.916051,172.16.5.2,36332,172.16.1.2,5102,21026,23192,2086,62848,65728,6,6,4,1460,450000,1,16778208,860000,82732,79836,65700,0,23168,0,3171596644,63
o,1724818864.916067,172.16.5.2,36332,172.16.1.2,5102,21026,23192,2086,62848,65728,6,6,4,1460,447500,1,16778208,830000,82732,76940,65700,0,20272,0,3171596644,63
i,1724818864.916181,172.16.5.2,36332,172.16.1.2,5102,21026,23192,2086,62848,65728,6,6,4,1460,447500,1,16778208,830000,82732,76940,65700,0,23168,0,3171596644,63
o,1724818864.916197,172.16.5.2,36332,172.16.1.2,5102,21026,23192,2086,62848,65728,6,6,4,1460,445312,1,16778208,800000,82732,74044,65700,0,20272,0,3171596644,63
i,1724818865.215845,172.16.5.2,36332,172.16.1.2,5102,21026,23192,2086,62848,65728,6,6,4,1460,445312,1,16778208,800000,82732,82732,65700,0,23168,0,3171596644,63
o,1724818865.215890,172.16.5.2,36332,172.16.1.2,5102,21026,23192,2086,64256,65728,6,6,4,1460,445937,1,16778208,770000,82732,79836,65700,0,20272,0,3171596644,63
i,1724818865.396513,172.16.5.2,36332,172.16.1.2,5102,21026,23192,2086,64256,65728,6,6,4,1460,445937,1,16778208,770000,82732,82732,65700,0,23168,0,3171596644,63
o,1724818865.396576,172.16.5.2,36332,172.16.1.2,5102,21026,24652,2086,64256,65728,6,6,4,1460,461562,1,16778208,880000,82732,79836,65700,0,20272,0,3171596644,63
o,1724818865.396768,172.16.5.2,36332,172.16.1.2,5102,21026,24652,2086,64256,65728,6,6,4,1460,461562,1,16778208,880000,82732,79836,65700,0,21720,0,3171596644,63
i,1724818865.396952,172.16.5.2,36332,172.16.1.2,5102,21026,24652,2086,64256,65728,6,6,4,1460,461562,1,16778208,880000,82732,79836,65700,0,24616,0,3171596644,63
o,1724818865.397164,172.16.5.2,36332,172.16.1.2,5102,21026,24652,2086,65728,65728,6,6,4,1460,475312,1,16778208,950000,82732,78388,65700,0,23168,0,3171596644,63
i,1724818865.528608,172.16.5.2,36332,172.16.1.2,5102,21026,24652,2086,65728,65728,6,6,4,1460,475312,1,16778208,950000,82732,82732,65700,0,24616,0,3171596644,63
o,1724818865.528643,172.16.5.2,36332,172.16.1.2,5102,21026,24652,2086,64256,65728,6,6,4,1460,503437,1,16778208,1130000,82732,79836,65700,0,21720,0,3171596644,63
i,1724818865.528795,172.16.5.2,36332,172.16.1.2,5102,21026,24652,2086,64256,65728,6,6,4,1460,503437,1,16778208,1130000,82732,79836,65700,0,24616,0,3171596644,63
o,1724818865.528815,172.16.5.2,36332,172.16.1.2,5102,21026,24652,2086,64256,65728,6,6,4,1460,528125,1,16778208,1250000,82732,76940,65700,0,21720,0,3171596644,63
i,1724818865.546404,172.16.5.2,36332,172.16.1.2,5102,21026,24652,2086,64256,65728,6,6,4,1460,528125,1,16778208,1250000,82732,82732,65700,0,24616,0,3171596644,63
o,1724818865.546475,172.16.5.2,36332,172.16.1.2,5102,21026,24652,2086,64256,65728,6,6,4,1460,542187,1,16778208,1240000,82732,79836,65700,0,21720,0,3171596644,63
i,1724818865.645453,172.16.5.2,36332,172.16.1.2,5102,21026,24652,2086,64256,65728,6,6,4,1460,542187,1,16778208,1240000,82732,82732,65700,0,24616,0,3171596644,63
o,1724818865.645487,172.16.5.2,36332,172.16.1.2,5102,21026,24652,2086,64256,65728,6,6,4,1460,504687,1,16778208,1380000,82732,69700,65700,0,11584,0,3171596644,63
o,1724818865.645863,172.16.5.2,36332,172.16.1.2,5102,21026,24652,2086,64256,65728,6,6,4,1460,504687,1,16778208,1380000,82732,69700,65700,0,13032,0,3171596644,63
i,1724818865.961504,172.16.5.2,36332,172.16.1.2,5102,21026,24652,2086,64256,65728,6,6,4,1460,504687,1,16778208,1380000,82732,82732,65700,0,24616,0,3171596644,63
o,1724818865.961548,172.16.5.2,36332,172.16.1.2,5102,21026,26112,2086,65728,65728,6,6,4,1460,495625,1,16778208,1270000,82732,78388,65700,0,20272,0,3171596644,63
i,1724818865.961703,172.16.5.2,36332,172.16.1.2,5102,21026,26112,2086,65728,65728,6,6,4,1460,495625,1,16778208,1270000,82732,78388,65700,0,26064,0,3171596644,63
o,1724818865.961720,172.16.5.2,36332,172.16.1.2,5102,21026,26112,2086,64256,65728,6,6,4,1460,487500,1,16778208,1190000,82732,75492,65700,0,23168,0,3171596644,63
i,1724818866.165402,172.16.5.2,36332,172.16.1.2,5102,21026,26112,2086,64256,65728,6,6,4,1460,487500,1,16778208,1190000,82732,82353,65700,0,26064,0,3171596644,63
o,1724818866.165438,172.16.5.2,36332,172.16.1.2,5102,21026,26112,2086,64256,65728,6,6,4,1460,491562,1,16778208,1100000,82732,75113,65700,0,18824,0,3171596644,63
o,1724818866.165579,172.16.5.2,36332,172.16.1.2,5102,21026,26112,2086,64256,65728,6,6,4,1460,491562,1,16778208,1100000,82732,75113,65700,0,20272,0,3171596644,63
i,1724818866.165750,172.16.5.2,36332,172.16.1.2,5102,21026,26112,2086,64256,65728,6,6,4,1460,491562,1,16778208,1100000,82732,75113,65700,0,26064,0,3171596644,63
o,1724818866.165767,172.16.5.2,36332,172.16.1.2,5102,21026,26112,2086,64256,65728,6,6,4,1460,495312,1,16778208,1030000,82732,72217,65700,0,23168,0,3171596644,63
i,1724818866.174815,172.16.5.2,36332,172.16.1.2,5102,21026,26112,2086,64256,65728,6,6,4,1460,495312,1,16778208,1030000,82732,82732,65700,0,26064,0,3171596644,63
o,1724818866.174912,172.16.5.2,36332,172.16.1.2,5102,21026,26112,2086,62848,65728,6,6,4,1460,499687,1,16778208,980000,82732,79836,65700,0,23168,0,3171596644,63
i,1724818866.315534,172.16.5.2,36332,172.16.1.2,5102,21026,26112,2086,62848,65728,6,6,4,1460,499687,1,16778208,980000,82732,82732,65700,0,26064,0,3171596644,63
o,1724818866.315639,172.16.5.2,36332,172.16.1.2,5102,21026,27572,2086,64256,65728,6,6,4,1460,482500,1,16778208,1030000,82732,75492,65700,0,18824,0,3171596644,63
i,1724818866.335845,172.16.5.2,36332,172.16.1.2,5102,21026,27572,2086,64256,65728,6,6,4,1460,482500,1,16778208,1030000,82732,82732,65700,0,27512,0,3171596644,63
o,1724818866.335867,172.16.5.2,36332,172.16.1.2,5102,21026,27572,2086,64256,65728,6,6,4,1460,469687,1,16778208,1030000,82732,79836,65700,0,24616,0,3171596644,63
i,1724818866.336061,172.16.5.2,36332,172.16.1.2,5102,21026,27572,2086,64256,65728,6,6,4,1460,469687,1,16778208,1030000,82732,79836,65700,0,27512,0,3171596644,63
o,1724818866.336077,172.16.5.2,36332,172.16.1.2,5102,21026,27572,2086,64256,65728,6,6,4,1460,458750,1,16778208,1020000,82732,76940,65700,0,24616,0,3171596644,63
i,1724818866.482691,172.16.5.2,36332,172.16.1.2,5102,21026,27572,2086,64256,65728,6,6,4,1460,458750,1,16778208,1020000,82732,82732,65700,0,27512,0,3171596644,63
o,1724818866.482731,172.16.5.2,36332,172.16.1.2,5102,21026,27572,2086,64256,65728,6,6,4,1460,440312,1,16778208,1060000,82732,79836,65700,0,24616,0,3171596644,63
o,1724818866.482868,172.16.5.2,36332,172.16.1.2,5102,21026,27572,2086,64256,65728,6,6,4,1460,440312,1,16778208,1060000,82732,79836,65700,0,26064,0,3171596644,63
i,1724818866.483009,172.16.5.2,36332,172.16.1.2,5102,21026,27572,2086,64256,65728,6,6,4,1460,440312,1,16778208,1060000,82732,79836,65700,0,27512,0,3171596644,63
o,1724818866.483027,172.16.5.2,36332,172.16.1.2,5102,21026,27572,2086,64256,65728,6,6,4,1460,424062,1,16778208,1070000,82732,76940,65700,0,24616,0,3171596644,63
i,1724818866.508141,172.16.5.2,36332,172.16.1.2,5102,21026,27572,2086,64256,65728,6,6,4,1460,424062,1,16778208,1070000,82732,82732,65700,0,27512,0,3171596644,63
o,1724818866.508163,172.16.5.2,36332,172.16.1.2,5102,21026,27572,2086,64256,65728,6,6,4,1460,413750,1,16778208,1030000,82732,79836,65700,0,24616,0,3171596644,63
i,1724818866.518650,172.16.5.2,36332,172.16.1.2,5102,21026,27572,2086,64256,65728,6,6,4,1460,413750,1,16778208,1030000,82732,82732,65700,0,27512,0,3171596644,63
o,1724818866.518683,172.16.5.2,36332,172.16.1.2,5102,21026,27572,2086,64256,65728,6,6,4,1460,405937,1,16778208,980000,82732,79836,65700,0,24616,0,3171596644,63
i,1724818866.560834,172.16.5.2,36332,172.16.1.2,5102,21026,27572,2086,64256,65728,6,6,4,1460,405937,1,16778208,980000,82732,82732,65700,0,27512,0,3171596644,63
o,1724818866.560913,172.16.5.2,36332,172.16.1.2,5102,21026,27572,2086,65728,65728,6,6,4,1460,402812,1,16778208,910000,82732,81284,65700,0,26064,0,3171596644,63
i,1724818866.674176,172.16.5.2,36332,172.16.1.2,5102,21026,27572,2086,65728,65728,6,6,4,1460,402812,1,16778208,910000,82732,81284,65700,0,27512,0,3171596644,63
o,1724818866.674274,172.16.5.2,36332,172.16.1.2,5102,21026,27572,2086,64256,65728,6,6,4,1460,397500,1,16778208,870000,82732,78388,65700,0,24616,0,3171596644,63
i,1724818866.674453,172.16.5.2,36332,172.16.1.2,5102,21026,27572,2086,64256,65728,6,6,4,1460,397500,1,16778208,870000,82732,78388,65700,0,27512,0,3171596644,63
o,1724818866.674470,172.16.5.2,36332,172.16.1.2,5102,21026,27572,2086,64256,65728,6,6,4,1460,392812,1,16778208,830000,82732,75492,65700,0,24616,0,3171596644,63
i,1724818866.725085,172.16.5.2,36332,172.16.1.2,5102,21026,27572,2086,64256,65728,6,6,4,1460,392812,1,16778208,830000,82732,82732,65700,0,27512,0,3171596644,63
o,1724818866.725173,172.16.5.2,36332,172.16.1.2,5102,21026,29032,2086,64256,65728,6,6,4,1460,395000,1,16778208,790000,82732,79836,65700,0,24616,0,3171596644,63
i,1724818866.746883,172.16.5.2,36332,172.16.1.2,5102,21026,29032,2086,64256,65728,6,6,4,1460,395000,1,16778208,790000,82732,82732,65700,0,28960,0,3171596644,63
o,1724818866.746949,172.16.5.2,36332,172.16.1.2,5102,21026,29032,2086,65728,65728,6,6,4,1460,396875,1,16778208,760000,82732,81284,65700,0,27512,0,3171596644,63
i,1724818866.754119,172.16.5.2,36332,172.16.1.2,5102,21026,29032,2086,65728,65728,6,6,4,1460,396875,1,16778208,760000,82732,81284,65700,0,28960,0,3171596644,63
o,1724818866.754138,172.16.5.2,36332,172.16.1.2,5102,21026,29032,2086,64256,65728,6,6,4,1460,398750,1,16778208,740000,82732,78388,65700,0,26064,0,3171596644,63
i,1724818866.896655,172.16.5.2,36332,172.16.1.2,5102,21026,29032,2086,64256,65728,6,6,4,1460,398750,1,16778208,740000,82732,82732,65700,0,28960,0,3171596644,63
o,1724818866.896724,172.16.5.2,36332,172.16.1.2,5102,21026,29032,2086,64256,65728,6,6,4,1460,419062,1,16778208,880000,82732,79836,65700,0,26064,0,3171596644,63
o,1724818866.896895,172.16.5.2,36332,172.16.1.2,5102,21026,29032,2086,64256,65728,6,6,4,1460,419062,1,16778208,880000,82732,79836,65700,0,27512,0,3171596644,63
i,1724818866.984671,172.16.5.2,36332,172.16.1.2,5102,21026,29032,2086,64256,65728,6,6,4,1460,419062,1,16778208,880000,82732,82732,65700,0,28960,0,3171596644,63
o,1724818866.984712,172.16.5.2,36332,172.16.1.2,5102,21026,29032,2086,64256,65728,6,6,4,1460,430625,1,16778208,920000,82732,79836,65700,0,26064,0,3171596644,63
i,1724818866.984866,172.16.5.2,36332,172.16.1.2,5102,21026,29032,2086,64256,65728,6,6,4,1460,430625,1,16778208,920000,82732,79836,65700,0,28960,0,3171596644,63
o,1724818866.984886,172.16.5.2,36332,172.16.1.2,5102,21026,29032,2086,64256,65728,6,6,4,1460,440625,1,16778208,940000,82732,76940,65700,0,26064,0,3171596644,63
i,1724818867.015408,172.16.5.2,36332,172.16.1.2,5102,21026,29032,2086,64256,65728,6,6,4,1460,440625,1,16778208,940000,82732,82732,65700,0,28960,0,3171596644,63
o,1724818867.015540,172.16.5.2,36332,172.16.1.2,5102,21026,29032,2086,65728,65728,6,6,4,1460,449375,1,16778208,940000,82732,81284,65700,0,27512,0,3171596644,63
i,1724818867.018952,172.16.5.2,36332,172.16.1.2,5102,21026,29032,2086,65728,65728,6,6,4,1460,449375,1,16778208,940000,82732,81284,65700,0,28960,0,3171596644,63
o,1724818867.019027,172.16.5.2,36332,172.16.1.2,5102,21026,29032,2086,64256,65728,6,6,4,1460,455937,1,16778208,930000,82732,78388,65700,0,26064,0,3171596644,63
i,1724818867.221628,172.16.5.2,36332,172.16.1.2,5102,21026,29032,2086,64256,65728,6,6,4,1460,455937,1,16778208,930000,82732,82732,65700,0,28960,0,3171596644,63
o,1724818867.221673,172.16.5.2,36332,172.16.1.2,5102,21026,29032,2086,65728,65728,6,6,4,1460,481562,1,16778208,1090000,82732,81284,65700,0,27512,0,3171596644,63
i,1724818867.221828,172.16.5.2,36332,172.16.1.2,5102,21026,29032,2086,65728,65728,6,6,4,1460,481562,1,16778208,1090000,82732,81284,65700,0,28960,0,3171596644,63
o,1724818867.221847,172.16.5.2,36332,172.16.1.2,5102,21026,29032,2086,64256,65728,6,6,4,1460,489062,1,16778208,1060000,82732,78388,65700,0,26064,0,3171596644,63
i,1724818867.254895,172.16.5.2,36332,172.16.1.2,5102,21026,29032,2086,64256,65728,6,6,4,1460,489062,1,16778208,1060000,82732,82732,65700,0,28960,0,3171596644,63
o,1724818867.254924,172.16.5.2,36332,172.16.1.2,5102,21026,29032,2086,64256,65728,6,6,4,1460,500625,1,16778208,1070000,82732,79836,65700,0,26064,0,3171596644,63
i,1724818867.255052,172.16.5.2,36332,172.16.1.2,5102,21026,29032,2086,64256,65728,6,6,4,1460,500625,1,16778208,1070000,82732,79836,65700,0,28960,0,3171596644,63
o,1724818867.255069,172.16.5.2,36332,172.16.1.2,5102,21026,29032,2086,64256,65728,6,6,4,1460,504375,1,16778208,1010000,82732,76940,65700,0,26064,0,3171596644,63
i,1724818867.297724,172.16.5.2,36332,172.16.1.2,5102,21026,29032,2086,64256,65728,6,6,4,1460,504375,1,16778208,1010000,82732,82732,65700,0,28960,0,3171596644,63
o,1724818867.297812,172.16.5.2,36332,172.16.1.2,5102,21026,30492,2086,64256,65728,6,6,4,1460,512812,1,16778208,1010000,82732,79836,65700,0,26064,0,3171596644,63
i,1724818867.384228,172.16.5.2,36332,172.16.1.2,5102,21026,30492,2086,64256,65728,6,6,4,1460,512812,1,16778208,1010000,82732,82732,65700,0,30408,0,3171596644,63
o,1724818867.384269,172.16.5.2,36332,172.16.1.2,5102,21026,30492,2086,65728,65728,6,6,4,1460,527500,1,16778208,1070000,82732,81284,65700,0,28960,0,3171596644,63
i,1724818867.384477,172.16.5.2,36332,172.16.1.2,5102,21026,30492,2086,65728,65728,6,6,4,1460,527500,1,16778208,1070000,82732,81284,65700,0,30408,0,3171596644,63
o,1724818867.384496,172.16.5.2,36332,172.16.1.2,5102,21026,30492,2086,62848,65728,6,6,4,1460,540312,1,16778208,1100000,82732,78388,65700,0,27512,0,3171596644,63
o,1724818867.384658,172.16.5.2,36332,172.16.1.2,5102,21026,30492,2086,62848,65728,6,6,4,1460,540312,1,16778208,1100000,82732,78388,65700,0,28960,0,3171596644,63
i,1724818867.421153,172.16.5.2,36332,172.16.1.2,5102,21026,30492,2086,62848,65728,6,6,4,1460,540312,1,16778208,1100000,82732,82732,65700,0,30408,0,3171596644,63
o,1724818867.421221,172.16.5.2,36332,172.16.1.2,5102,21026,30492,2086,62848,65728,6,6,4,1460,537812,1,16778208,1020000,82732,79836,65700,0,27512,0,3171596644,63
i,1724818867.434562,172.16.5.2,36332,172.16.1.2,5102,21026,30492,2086,62848,65728,6,6,4,1460,537812,1,16778208,1020000,82732,82732,65700,0,30408,0,3171596644,63
o,1724818867.434661,172.16.5.2,36332,172.16.1.2,5102,21026,30492,2086,65728,65728,6,6,4,1460,526875,1,16778208,1030000,82732,81284,65700,0,28960,0,3171596644,63
i,1724818867.462731,172.16.5.2,36332,172.16.1.2,5102,21026,30492,2086,65728,65728,6,6,4,1460,526875,1,16778208,1030000,82732,81284,65700,0,30408,0,3171596644,63
o,1724818867.462768,172.16.5.2,36332,172.16.1.2,5102,21026,31856,2082,65728,65728,6,6,4,1460,526875,1,16778208,1030000,82732,81284,65700,0,30408,0,3171596644,63
i,1724818867.625591,172.16.5.2,36332,172.16.1.2,5102,21026,30492,2082,65728,65728,6,6,4,1460,526875,1,16778208,1030000,82732,81284,65700,0,31856,0,3171596644,63
o,1724818867.625623,172.16.5.2,36332,172.16.1.2,5102,15246,1448,2146,65728,65728,6,6,4,1460,526875,1,554697696,1030000,82732,81284,65700,0,31856,0,3171596644,63
i,1724818867.742235,172.16.5.2,36332,172.16.1.2,5102,15246,1448,2146,65728,65728,6,6,4,1460,526875,1,554697696,1030000,82732,81284,65700,0,31856,0,3171596644,63
i,1724818867.757950,172.16.5.2,36332,172.16.1.2,5102,15246,1448,2146,65728,65728,6,6,4,1460,526875,1,554697696,1030000,82732,81284,65700,0,31856,0,3171596644,63
o,1724818867.757971,172.16.5.2,36332,172.16.1.2,5102,15246,2896,2146,65728,65728,6,6,4,1460,526875,1,554697696,1030000,82732,81284,65700,0,31856,0,3171596644,63
i,1724818867.766729,172.16.5.2,36332,172.16.1.2,5102,15246,2896,2146,65728,65728,6,6,4,1460,526875,1,554697696,1030000,82732,81284,65700,0,31856,0,3171596644,63
i,1724818867.766763,172.16.5.2,36332,172.16.1.2,5102,15246,2896,2146,65728,65728,6,6,4,1460,526875,1,554697696,1030000,82732,81284,65700,0,31856,0,3171596644,63
o,1724818867.766788,172.16.5.2,36332,172.16.1.2,5102,15246,4344,2146,65728,65728,6,6,4,1460,526875,1,554697696,1030000,82732,81284,65700,0,31856,0,3171596644,63
i,1724818867.766921,172.16.5.2,36332,172.16.1.2,5102,15246,4344,2146,65728,65728,6,6,4,1460,526875,1,554697696,1030000,82732,81284,65700,0,31856,0,3171596644,63
i,1724818867.766921,172.16.5.2,36332,172.16.1.2,5102,15246,4344,2146,65728,65728,6,6,4,1460,526875,1,554697696,1030000,82732,81284,65700,0,31856,0,3171596644,63
o,1724818867.766921,172.16.5.2,36332,172.16.1.2,5102,15246,5792,2146,65728,65728,6,6,4,1460,526875,1,554697696,1030000,82732,81284,65700,0,31856,0,3171596644,63
i,1724818867.776144,172.16.5.2,36332,172.16.1.2,5102,15246,5792,2146,65728,65728,6,6,4,1460,526875,1,554697696,1030000,82732,81284,65700,0,31856,0,3171596644,63
i,1724818867.786400,172.16.5.2,36332,172.16.1.2,5102,15246,5792,2146,65728,65728,6,6,4,1460,526875,1,537920480,1030000,82732,81284,65700,0,31856,0,3171596644,63
o,1724818867.786419,172.16.5.2,36332,172.16.1.2,5102,15246,7240,2146,65728,65728,6,6,4,1460,526875,1,554697696,1030000,82732,81284,65700,0,31856,0,3171596644,63
i,1724818867.786588,172.16.5.2,36332,172.16.1.2,5102,15246,7240,2146,65728,65728,6,6,4,1460,526875,1,554697696,1030000,82732,81284,65700,0,31856,0,3171596644,63
i,1724818867.786644,172.16.5.2,36332,172.16.1.2,5102,15246,7240,2146,65728,65728,6,6,4,1460,526875,1,554697696,1030000,82732,81284,65700,0,31856,0,3171596644,63
o,1724818867.786659,172.16.5.2,36332,172.16.1.2,5102,15246,8688,2146,65728,65728,6,6,4,1460,526875,1,554697696,1030000,82732,81284,65700,0,31856,0,3171596644,63
i,1724818867.790179,172.16.5.2,36332,172.16.1.2,5102,15246,8688,2146,65728,65728,6,6,4,1460,526875,1,554697696,1030000,82732,81284,65700,0,31856,0,3171596644,63
i,1724818868.022775,172.16.5.2,36332,172.16.1.2,5102,15246,8688,2146,65728,65728,6,6,4,1460,526875,1,554697696,1030000,82732,81284,65700,0,31856,0,3171596644,63
o,1724818868.022808,172.16.5.2,36332,172.16.1.2,5102,15246,8688,2146,65728,65728,6,6,4,1460,526875,1,554697697,1030000,82732,81284,65700,0,31856,0,3171596644,63
i,1724818868.114371,172.16.5.2,36332,172.16.1.2,5102,15246,8688,2146,61440,65728,6,6,4,1460,510000,1,554697696,1070000,82732,82732,65700,0,27512,0,3171596644,63
o,1724818868.114404,172.16.5.2,36332,172.16.1.2,5102,15246,7240,2146,61440,65728,6,6,4,1460,510000,1,554697697,1070000,82732,82732,65700,0,27512,0,3171596644,63
i,1724818868.163782,172.16.5.2,36332,172.16.1.2,5102,15246,7240,2146,62848,65728,6,6,4,1460,491250,1,554697696,1110000,82732,82732,65700,0,24616,0,3171596644,63
o,1724818868.163918,172.16.5.2,36332,172.16.1.2,5102,15246,7240,2146,62848,65728,6,6,4,1460,491250,1,554697697,1110000,82732,82732,65700,0,24616,0,3171596644,63
i,1724818868.164243,172.16.5.2,36332,172.16.1.2,5102,15246,7240,2146,62848,65728,6,6,4,1460,478750,1,554697696,1090000,82732,79836,65700,0,21720,0,3171596644,63
o,1724818868.164312,172.16.5.2,36332,172.16.1.2,5102,15246,5792,2146,62848,65728,6,6,4,1460,478750,1,554697697,1090000,82732,79836,65700,0,21720,0,3171596644,63
i,1724818868.164568,172.16.5.2,36332,172.16.1.2,5102,15246,5792,2146,61376,65728,6,6,4,1460,467812,1,554697696,1070000,82732,75492,65700,0,17376,0,3171596644,63
o,1724818868.164607,172.16.5.2,36332,172.16.1.2,5102,15246,8688,2086,61376,65728,6,6,4,1460,467812,1,554697697,1070000,82732,75492,65700,0,17376,0,3171596644,63
o,1724818868.164784,172.16.5.2,36332,172.16.1.2,5102,15246,8688,2086,61376,65728,6,6,4,1460,467812,1,554697696,1070000,82732,75492,65700,0,18824,0,3171596644,63
i,1724818868.164974,172.16.5.2,36332,172.16.1.2,5102,15246,8688,2086,64256,65728,6,6,4,1460,455625,1,554697696,1050000,82732,74044,65700,0,20272,0,3171596644,63
o,1724818868.164997,172.16.5.2,36332,172.16.1.2,5102,15246,10136,2086,64256,65728,6,6,4,1460,455625,1,554697697,1050000,82732,74044,65700,0,20272,0,3171596644,63
i,1724818868.449048,172.16.5.2,36332,172.16.1.2,5102,15246,10136,2086,64256,65728,6,6,4,1460,445000,1,554697696,1030000,82732,82732,65700,0,21720,0,3171596644,63
o,1724818868.449082,172.16.5.2,36332,172.16.1.2,5102,15246,8688,2086,64256,65728,6,6,4,1460,445000,1,554697697,1030000,82732,82732,65700,0,21720,0,3171596644,63
i,1724818868.491117,172.16.5.2,36332,172.16.1.2,5102,15246,8688,2086,55616,65728,6,6,4,1460,443125,1,554697696,940000,82732,82732,65700,0,11584,0,3171596644,63
o,1724818868.491151,172.16.5.2,36332,172.16.1.2,5102,15246,14480,2086,55616,65728,6,6,4,1460,443125,1,554697696,940000,82732,82732,65700,0,11584,0,3171596644,63
o,1724818868.491298,172.16.5.2,36332,172.16.1.2,5102,15246,14480,2086,55616,65728,6,6,4,1460,443125,1,554697696,940000,82732,82732,65700,0,13032,0,3171596644,63
i,1724818868.491444,172.16.5.2,36332,172.16.1.2,5102,15246,14480,2086,55616,65728,6,6,4,1460,443125,1,554697696,940000,82732,82732,65700,0,17376,0,3171596644,63
o,1724818868.491460,172.16.5.2,36332,172.16.1.2,5102,15246,15928,2082,55616,65728,6,6,4,1460,443125,1,554697696,940000,82732,82732,65700,0,17376,0,3171596644,63
i,1724818868.502987,172.16.5.2,36332,172.16.1.2,5102,15246,15928,2082,55616,65728,6,6,4,1460,443125,1,554697696,940000,82732,82732,65700,0,18824,0,3171596644,63
o,1724818868.503023,172.16.5.2,36332,172.16.1.2,5102,15246,17376,2082,55616,65728,6,6,4,1460,443125,1,554697696,940000,82732,82732,65700,0,18824,0,3171596644,63
i,1724818868.503249,172.16.5.2,36332,172.16.1.2,5102,15246,17376,2082,55616,65728,6,6,4,1460,443125,1,554697696,940000,82732,82732,65700,0,20272,0,3171596644,63
o,1724818868.503264,172.16.5.2,36332,172.16.1.2,5102,15246,18824,2082,55616,65728,6,6,4,1460,443125,1,554697696,940000,82732,82732,65700,0,20272,0,3171596644,63
i,1724818868.503717,172.16.5.2,36332,172.16.1.2,5102,15246,18824,2082,55616,65728,6,6,4,1460,443125,1,554697696,940000,82732,82732,65700,0,21720,0,3171596644,63
o,1724818868.503741,172.16.5.2,36332,172.16.1.2,5102,15246,20272,2082,55616,65728,6,6,4,1460,443125,1,554697696,940000,82732,82732,65700,0,21720,0,3171596644,63
i,1724818868.597407,172.16.5.2,36332,172.16.1.2,5102,15246,20272,2082,55616,65728,6,6,4,1460,443125,1,554697696,940000,82732,82732,65700,0,23168,0,3171596644,63
o,1724818868.597525,172.16.5.2,36332,172.16.1.2,5102,15246,13044,2086,54144,65728,6,6,4,1460,441562,1,16778208,880000,82732,71148,65700,0,11584,0,3171596644,63
i,1724818868.597684,172.16.5.2,36332,172.16.1.2,5102,15246,13044,2086,54144,65728,6,6,4,1460,441562,1,16778208,880000,82732,71148,65700,0,13032,0,3171596644,63
o,1724818868.597700,172.16.5.2,36332,172.16.1.2,5102,15246,14480,2082,54144,65728,6,6,4,1460,441562,1,16778208,880000,82732,71148,65700,0,13032,0,3171596644,63
i,1724818868.885772,172.16.5.2,36332,172.16.1.2,5102,15246,13044,2082,54144,65728,6,6,4,1460,441562,1,16778208,880000,82732,82732,65700,0,14480,0,3171596644,63
o,1724818868.885885,172.16.5.2,36332,172.16.1.2,5102,15246,15940,2086,64256,65728,6,6,4,1460,436562,1,16778208,850000,82732,79836,65700,0,11584,0,3171596644,63
o,1724818868.886056,172.16.5.2,36332,172.16.1.2,5102,15246,15940,2086,64256,65728,6,6,4,1460,436562,1,16778208,850000,82732,79836,65700,0,13032,0,3171596644,63
i,1724818868.895122,172.16.5.2,36332,172.16.1.2,5102,15246,15940,2086,64256,65728,6,6,4,1460,436562,1,16778208,850000,82732,82732,65700,0,15928,0,3171596644,63
o,1724818868.895175,172.16.5.2,36332,172.16.1.2,5102,15246,15940,2086,64256,65728,6,6,4,1460,433437,1,16778208,820000,82732,79836,65700,0,13032,0,3171596644,63
i,1724818868.959231,172.16.5.2,36332,172.16.1.2,5102,15246,15940,2086,64256,65728,6,6,4,1460,433437,1,16778208,820000,82732,81657,65700,0,15928,0,3171596644,63
o,1724818868.959337,172.16.5.2,36332,172.16.1.2,5102,15246,15940,2086,64256,65728,6,6,4,1460,438125,1,16778208,820000,82732,78761,65700,0,13032,0,3171596644,63
i,1724818868.968936,172.16.5.2,36332,172.16.1.2,5102,15246,15940,2086,64256,65728,6,6,4,1460,438125,1,16778208,820000,82732,82732,65700,0,15928,0,3171596644,63
o,1724818868.968999,172.16.5.2,36332,172.16.1.2,5102,15246,15940,2086,65728,65728,6,6,4,1460,442187,1,16778208,810000,82732,81284,65700,0,14480,0,3171596644,63
i,1724818868.969170,172.16.5.2,36332,172.16.1.2,5102,15246,15940,2086,65728,65728,6,6,4,1460,442187,1,16778208,810000,82732,81284,65700,0,15928,0,3171596644,63
o,1724818868.969187,172.16.5.2,36332,172.16.1.2,5102,15246,15940,2086,64256,65728,6,6,4,1460,444687,1,16778208,790000,82732,78388,65700,0,13032,0,3171596644,63
i,1724818869.089997,172.16.5.2,36332,172.16.1.2,5102,15246,15940,2086,64256,65728,6,6,4,1460,444687,1,16778208,790000,82732,82732,65700,0,15928,0,3171596644,63
o,1724818869.090034,172.16.5.2,36332,172.16.1.2,5102,15246,15940,2086,65728,65728,6,6,4,1460,450625,1,16778208,810000,82732,81284,65700,0,14480,0,3171596644,63
i,1724818869.210922,172.16.5.2,36332,172.16.1.2,5102,15246,15940,2086,65728,65728,6,6,4,1460,450625,1,16778208,810000,82732,81284,65700,0,15928,0,3171596644,63
o,1724818869.210975,172.16.5.2,36332,172.16.1.2,5102,15246,15940,2086,64256,65728,6,6,4,1460,434375,1,16778208,880000,82732,78388,65700,0,13032,0,3171596644,63
o,1724818869.211282,172.16.5.2,36332,172.16.1.2,5102,15246,15940,2086,64256,65728,6,6,4,1460,434375,1,16778208,880000,82732,78388,65700,0,14480,0,3171596644,63
i,1724818869.211474,172.16.5.2,36332,172.16.1.2,5102,15246,15940,2086,64256,65728,6,6,4,1460,434375,1,16778208,880000,82732,78388,65700,0,15928,0,3171596644,63
o,1724818869.211506,172.16.5.2,36332,172.16.1.2,5102,15246,17400,2086,64256,65728,6,6,4,1460,420312,1,16778208,920000,82732,75492,65700,0,13032,0,3171596644,63
i,1724818869.211669,172.16.5.2,36332,172.16.1.2,5102,15246,17400,2086,64256,65728,6,6,4,1460,420312,1,16778208,920000,82732,75492,65700,0,17376,0,3171596644,63
o,1724818869.211689,172.16.5.2,36332,172.16.1.2,5102,15246,17400,2086,65728,65728,6,6,4,1460,406562,1,16778208,940000,82732,74044,65700,0,15928,0,3171596644,63
i,1724818869.427032,172.16.5.2,36332,172.16.1.2,5102,15246,17400,2086,65728,65728,6,6,4,1460,406562,1,16778208,940000,82732,82732,65700,0,17376,0,3171596644,63
o,1724818869.427071,172.16.5.2,36332,172.16.1.2,5102,15246,17400,2086,64256,65728,6,6,4,1460,414687,1,16778208,930000,82732,79836,65700,0,14480,0,3171596644,63
i,1724818869.449248,172.16.5.2,36332,172.16.1.2,5102,15246,17400,2086,64256,65728,6,6,4,1460,414687,1,16778208,930000,82732,82732,65700,0,17376,0,3171596644,63
