enable_time_secs=1724819379	enable_time_usecs=965233	siftrver=1.3.0	sysname=FreeBSD	sysver=1401000	ipmode=4
o,1724819379.965643,10.0.2.15,22,10.0.2.2,51160,1073725440,17746,1026,65535,65700,0,0,4,1460,312,0,16777220,240000,33580,172,65700,0,0,0,2208863543,63
o,1724819379.966395,10.0.2.15,22,10.0.2.2,51160,1073725440,17746,1026,65535,65700,0,0,4,1460,312,0,16777220,240000,33580,244,65700,0,172,0,2208863543,63
i,1724819379.966505,10.0.2.15,22,10.0.2.2,51160,1073725440,17746,1026,65535,65700,0,0,4,1460,312,0,16777220,240000,33580,244,65700,0,244,0,2208863543,63
i,1724819379.966552,10.0.2.15,22,10.0.2.2,51160,1073725440,17918,1026,65535,65700,0,0,4,1460,312,0,4,240000,33580,72,65700,0,72,0,2208863543,63
i,1724819379.967310,10.0.2.15,22,10.0.2.2,51160,1073725440,17990,1026,65535,65700,0,0,4,1460,312,0,4,240000,33580,0,65700,0,0,0,2208863543,63
i,1724819379.967328,10.0.2.15,22,10.0.2.2,51160,1073725440,17990,1026,65535,65700,0,0,4,1460,312,0,4,240000,33580,0,65700,96,0,0,2208863543,63
o,1724819379.967345,10.0.2.15,22,10.0.2.2,51160,1073725440,17990,1026,65535,65604,0,0,5,1460,312,0,5,240000,33580,0,65700,96,0,0,2208863543,63
o,1724819379.967934,10.0.2.15,22,10.0.2.2,51160,1073725440,17990,1026,65535,65604,0,0,8,1460,312,0,4,240000,33580,0,65700,0,0,0,2208863543,63
i,1724819379.968614,10.0.2.15,22,10.0.2.2,51160,1073725440,17990,1026,65535,65604,0,0,8,1460,312,0,67108884,240000,33580,0,65700,0,1,0,2208863543,63
i,1724819383.130124,10.0.2.15,22,10.0.2.2,51182,1073725440,14600,0,65535,65700,0,0,4,1460,312,0,16777216,270000,33580,0,65700,0,0,0,1680315758,63
o,1724819383.144339,10.0.2.15,22,10.0.2.2,51182,1073725440,14600,1026,65535,65700,0,0,4,1460,312,0,16777216,270000,33580,38,65700,42,0,0,1680315758,63
i,1724819383.145107,10.0.2.15,22,10.0.2.2,51182,1073725440,14600,1026,65535,65700,0,0,4,1460,312,0,16777216,270000,33580,38,65700,0,38,0,1680315758,63
i,1724819383.145629,10.0.2.15,22,10.0.2.2,51182,1073725440,14638,1026,65535,65700,0,0,4,1460,312,0,0,240000,33580,0,65700,0,0,0,1680315758,63
i,1724819383.145646,10.0.2.15,22,10.0.2.2,51182,1073725440,14638,1026,65535,65700,0,0,4,1460,312,0,0,240000,33580,0,65700,1460,0,0,1680315758,63
o,1724819383.145664,10.0.2.15,22,10.0.2.2,51182,1073725440,14638,1026,65535,65700,0,0,4,1460,312,0,1,240000,33580,0,65700,1536,0,0,1680315758,63
o,1724819383.146375,10.0.2.15,22,10.0.2.2,51182,1073725440,14638,1026,65535,65700,0,0,4,1460,312,0,16777216,240000,33580,1120,65700,1536,0,0,1680315758,63
i,1724819383.146856,10.0.2.15,22,10.0.2.2,51182,1073725440,14638,1026,65535,65700,0,0,4,1460,312,0,16777216,240000,33580,1120,65700,0,1120,0,1680315758,63
i,1724819383.148480,10.0.2.15,22,10.0.2.2,51182,1073725440,15758,1026,65535,65700,0,0,4,1460,312,0,0,240000,33580,0,65700,0,0,0,1680315758,63
o,1724819383.150498,10.0.2.15,22,10.0.2.2,51182,1073725440,15758,1026,65535,65700,0,0,4,1460,312,0,16777216,240000,33580,492,65700,0,0,0,1680315758,63
i,1724819383.151447,10.0.2.15,22,10.0.2.2,51182,1073725440,15758,1026,65535,65700,0,0,4,1460,312,0,16777216,240000,33580,492,65700,0,492,0,1680315758,63
i,1724819383.154798,10.0.2.15,22,10.0.2.2,51182,1073725440,16250,1026,65535,65700,0,0,4,1460,312,0,0,240000,33580,0,65700,0,0,0,1680315758,63
i,1724819383.154817,10.0.2.15,22,10.0.2.2,51182,1073725440,16250,1026,65535,65700,0,0,4,1460,312,0,0,240000,33580,0,65700,16,0,0,1680315758,63
o,1724819383.154836,10.0.2.15,22,10.0.2.2,51182,1073725440,16250,1026,65535,65700,0,0,4,1460,312,0,1,240000,33580,0,65700,60,0,0,1680315758,63
o,1724819383.155096,10.0.2.15,22,10.0.2.2,51182,1073725440,16250,1026,65535,65700,0,0,4,1460,312,0,16777216,240000,33580,44,65700,0,0,0,1680315758,63
i,1724819383.155653,10.0.2.15,22,10.0.2.2,51182,1073725440,16250,1026,65535,65700,0,0,4,1460,312,0,16777216,240000,33580,44,65700,0,44,0,1680315758,63
i,1724819383.155707,10.0.2.15,22,10.0.2.2,51182,1073725440,16294,1026,65535,65700,0,0,4,1460,312,0,0,240000,33580,0,65700,0,0,0,1680315758,63
o,1724819383.156956,10.0.2.15,22,10.0.2.2,51182,1073725440,16294,1026,65535,65700,0,0,4,1460,312,0,16777216,240000,33580,68,65700,0,0,0,1680315758,63
i,1724819383.158197,10.0.2.15,22,10.0.2.2,51182,1073725440,16294,1026,65535,65700,0,0,4,1460,312,0,16777216,240000,33580,68,65700,0,68,0,1680315758,63
i,1724819383.158216,10.0.2.15,22,10.0.2.2,51182,1073725440,16362,1026,65535,65700,0,0,4,1460,312,0,0,240000,33580,0,65700,0,0,0,1680315758,63
o,1724819383.159341,10.0.2.15,22,10.0.2.2,51182,1073725440,16362,1026,65535,65700,0,0,4,1460,312,0,16777216,240000,33580,332,65700,0,0,0,1680315758,63
i,1724819383.160187,10.0.2.15,22,10.0.2.2,51182,1073725440,16362,1026,65535,65700,0,0,4,1460,312,0,16777216,240000,33580,332,65700,0,332,0,1680315758,63
i,1724819383.161394,10.0.2.15,22,10.0.2.2,51182,1073725440,16694,1026,65535,65700,0,0,4,1460,312,0,0,240000,33580,0,65700,0,0,0,1680315758,63
o,1724819383.179857,10.0.2.15,22,10.0.2.2,51182,1073725440,16694,1026,65535,65700,0,0,4,1460,312,0,16777216,240000,33580,28,65700,0,0,0,1680315758,63
i,1724819383.181215,10.0.2.15,22,10.0.2.2,51182,1073725440,16694,1026,65535,65700,0,0,4,1460,312,0,16777216,240000,33580,28,65700,0,28,0,1680315758,63
i,1724819383.181237,10.0.2.15,22,10.0.2.2,51182,1073725440,16722,1026,65535,65700,0,0,4,1460,312,0,0,240000,33580,0,65700,0,0,0,1680315758,63
o,1724819383.182802,10.0.2.15,22,10.0.2.2,51182,1073725440,16722,1026,65535,65700,0,0,4,1460,312,0,16777216,240000,33580,768,65700,112,0,0,1680315758,63
i,1724819383.183514,10.0.2.15,22,10.0.2.2,51182,1073725440,16722,1026,65535,65700,0,0,4,1460,312,0,16777216,240000,33580,768,65700,112,768,0,1680315758,63
o,1724819383.183537,10.0.2.15,22,10.0.2.2,51182,1073725440,17490,1026,65535,65700,0,0,4,1460,312,0,16777216,240000,33580,140,65700,112,0,0,1680315758,63
i,1724819383.183791,10.0.2.15,22,10.0.2.2,51182,1073725440,17490,1026,65535,65700,0,0,4,1460,312,0,16777216,240000,33580,140,65700,112,140,0,1680315758,63
o,1724819383.185096,10.0.2.15,22,10.0.2.2,51182,1073725440,17630,1026,65535,65700,0,0,4,1460,312,0,16777216,240000,33580,44,65700,0,0,0,1680315758,63
i,1724819383.185712,10.0.2.15,22,10.0.2.2,51182,1073725440,17630,1026,65535,65700,0,0,4,1460,312,0,16777216,240000,33580,44,65700,0,44,0,1680315758,63
i,1724819383.185729,10.0.2.15,22,10.0.2.2,51182,1073725440,17674,1026,65535,65700,0,0,4,1460,312,0,0,240000,33580,0,65700,0,0,0,1680315758,63
o,1724819383.186354,10.0.2.15,22,10.0.2.2,51182,1073725440,17674,1026,65535,65700,0,0,4,1460,312,0,16777220,240000,33580,72,65700,0,0,0,1680315758,63
i,1724819383.187215,10.0.2.15,22,10.0.2.2,51182,1073725440,17674,1026,65535,65700,0,0,4,1460,312,0,16777220,240000,33580,72,65700,0,72,0,1680315758,63
o,1724819383.192030,10.0.2.15,22,10.0.2.2,51182,1073725440,17746,1026,65535,65700,0,0,4,1460,312,0,16777220,240000,33580,104,65700,0,0,0,1680315758,63
i,1724819383.192574,10.0.2.15,22,10.0.2.2,51182,1073725440,17746,1026,65535,65700,0,0,4,1460,312,0,16777220,240000,33580,104,65700,0,104,0,1680315758,63
o,1724819383.192795,10.0.2.15,22,10.0.2.2,51182,1073725440,17850,1026,65535,65700,0,0,4,1460,312,0,16777220,240000,33580,72,65700,0,0,0,1680315758,63
i,1724819383.193470,10.0.2.15,22,10.0.2.2,51182,1073725440,17850,1026,65535,65700,0,0,4,1460,312,0,16777220,240000,33580,72,65700,0,72,0,1680315758,63
i,1724819383.193511,10.0.2.15,22,10.0.2.2,51182,1073725440,17922,1026,65535,65700,0,0,4,1460,312,0,4,230000,33580,0,65700,0,0,0,1680315758,63
i,1724819383.193526,10.0.2.15,22,10.0.2.2,51182,1073725440,17922,1026,65535,65700,0,0,4,1460,312,0,4,230000,33580,0,65700,96,0,0,1680315758,63
o,1724819383.193542,10.0.2.15,22,10.0.2.2,51182,1073725440,17922,1026,65535,65604,0,0,5,1460,312,0,5,230000,33580,0,65700,96,0,0,1680315758,63
o,1724819383.207805,10.0.2.15,22,10.0.2.2,51182,1073725440,17922,1026,65535,65604,0,0,8,1460,312,0,4,230000,33580,0,65700,0,0,0,1680315758,63
i,1724819383.208740,10.0.2.15,22,10.0.2.2,51182,1073725440,17922,1026,65535,65604,0,0,8,1460,312,0,67108884,230000,33580,0,65700,0,1,0,1680315758,63
i,1724819384.242575,10.0.2.15,22,10.0.2.2,51096,1073725440,14600,0,65535,65700,0,0,4,1460,312,0,16777216,270000,33580,0,65700,0,0,0,4180660776,63
o,1724819384.253179,10.0.2.15,22,10.0.2.2,51096,1073725440,14600,1026,65535,65700,0,0,4,1460,312,0,16777216,270000,33580,38,65700,42,0,0,4180660776,63
i,1724819384.253943,10.0.2.15,22,10.0.2.2,51096,1073725440,14600,1026,65535,65700,0,0,4,1460,312,0,16777216,270000,33580,38,65700,0,38,0,4180660776,63
i,1724819384.253943,10.0.2.15,22,10.0.2.2,51096,1073725440,14638,1026,65535,65700,0,0,4,1460,312,0,0,230000,33580,0,65700,0,0,0,4180660776,63
i,1724819384.253943,10.0.2.15,22,10.0.2.2,51096,1073725440,14638,1026,65535,65700,0,0,4,1460,312,0,0,230000,33580,0,65700,1460,0,0,4180660776,63
o,1724819384.253943,10.0.2.15,22,10.0.2.2,51096,1073725440,14638,1026,65535,65700,0,0,4,1460,312,0,1,230000,33580,0,65700,1536,0,0,4180660776,63
o,1724819384.257384,10.0.2.15,22,10.0.2.2,51096,1073725440,14638,1026,65535,65700,0,0,4,1460,312,0,16777216,230000,33580,1120,65700,1536,0,0,4180660776,63
i,1724819384.257902,10.0.2.15,22,10.0.2.2,51096,1073725440,14638,1026,65535,65700,0,0,4,1460,312,0,16777216,230000,33580,1120,65700,0,1120,0,4180660776,63
i,1724819384.259468,10.0.2.15,22,10.0.2.2,51096,1073725440,15758,1026,65535,65700,0,0,4,1460,312,0,0,240000,33580,0,65700,0,0,0,4180660776,63
o,1724819384.263535,10.0.2.15,22,10.0.2.2,51096,1073725440,15758,1026,65535,65700,0,0,4,1460,312,0,16777216,240000,33580,492,65700,0,0,0,4180660776,63
i,1724819384.264695,10.0.2.15,22,10.0.2.2,51096,1073725440,15758,1026,65535,65700,0,0,4,1460,312,0,16777216,240000,33580,492,65700,0,492,0,4180660776,63
i,1724819384.268825,10.0.2.15,22,10.0.2.2,51096,1073725440,16250,1026,65535,65700,0,0,4,1460,312,0,0,240000,33580,0,65700,0,0,0,4180660776,63
i,1724819384.268843,10.0.2.15,22,10.0.2.2,51096,1073725440,16250,1026,65535,65700,0,0,4,1460,312,0,0,240000,33580,0,65700,16,0,0,4180660776,63
o,1724819384.268859,10.0.2.15,22,10.0.2.2,51096,1073725440,16250,1026,65535,65700,0,0,4,1460,312,0,1,240000,33580,0,65700,60,0,0,4180660776,63
o,1724819384.269032,10.0.2.15,22,10.0.2.2,51096,1073725440,16250,1026,65535,65700,0,0,4,1460,312,0,16777216,240000,33580,44,65700,0,0,0,4180660776,63
i,1724819384.269849,10.0.2.15,22,10.0.2.2,51096,1073725440,16250,1026,65535,65700,0,0,4,1460,312,0,16777216,240000,33580,44,65700,0,44,0,4180660776,63
i,1724819384.269872,10.0.2.15,22,10.0.2.2,51096,1073725440,16294,1026,65535,65700,0,0,4,1460,312,0,0,240000,33580,0,65700,0,0,0,4180660776,63
o,1724819384.271738,10.0.2.15,22,10.0.2.2,51096,1073725440,16294,1026,65535,65700,0,0,4,1460,312,0,16777216,240000,33580,68,65700,0,0,0,4180660776,63
i,1724819384.272247,10.0.2.15,22,10.0.2.2,51096,1073725440,16294,1026,65535,65700,0,0,4,1460,312,0,16777216,240000,33580,68,65700,0,68,0,4180660776,63
i,1724819384.272270,10.0.2.15,22,10.0.2.2,51096,1073725440,16362,1026,65535,65700,0,0,4,1460,312,0,0,240000,33580,0,65700,0,0,0,4180660776,63
o,1724819384.274561,10.0.2.15,22,10.0.2.2,51096,1073725440,16362,1026,65535,65700,0,0,4,1460,312,0,16777216,240000,33580,332,65700,0,0,0,4180660776,63
i,1724819384.275874,10.0.2.15,22,10.0.2.2,51096,1073725440,16362,1026,65535,65700,0,0,4,1460,312,0,16777216,240000,33580,332,65700,0,332,0,4180660776,63
i,1724819384.277213,10.0.2.15,22,10.0.2.2,51096,1073725440,16694,1026,65535,65700,0,0,4,1460,312,0,0,240000,33580,0,65700,0,0,0,4180660776,63
o,1724819384.293399,10.0.2.15,22,10.0.2.2,51096,1073725440,16694,1026,65535,65700,0,0,4,1460,312,0,16777216,240000,33580,28,65700,0,0,0,4180660776,63
i,1724819384.294401,10.0.2.15,22,10.0.2.2,51096,1073725440,16694,1026,65535,65700,0,0,4,1460,312,0,16777216,240000,33580,28,65700,0,28,0,4180660776,63
i,1724819384.294427,10.0.2.15,22,10.0.2.2,51096,1073725440,16722,1026,65535,65700,0,0,4,1460,312,0,0,240000,33580,0,65700,0,0,0,4180660776,63
o,1724819384.296302,10.0.2.15,22,10.0.2.2,51096,1073725440,16722,1026,65535,65700,0,0,4,1460,312,0,16777216,240000,33580,768,65700,112,0,0,4180660776,63
i,1724819384.296740,10.0.2.15,22,10.0.2.2,51096,1073725440,16722,1026,65535,65700,0,0,4,1460,312,0,16777216,240000,33580,908,65700,112,768,0,4180660776,63
o,1724819384.296759,10.0.2.15,22,10.0.2.2,51096,1073725440,17490,1026,65535,65700,0,0,4,1460,312,0,16777216,240000,33580,140,65700,112,0,0,4180660776,63
i,1724819384.297191,10.0.2.15,22,10.0.2.2,51096,1073725440,17490,1026,65535,65700,0,0,4,1460,312,0,16777216,240000,33580,140,65700,112,140,0,4180660776,63
o,1724819384.297887,10.0.2.15,22,10.0.2.2,51096,1073725440,17630,1026,65535,65700,0,0,4,1460,312,0,16777216,240000,33580,44,65700,0,0,0,4180660776,63
i,1724819384.298420,10.0.2.15,22,10.0.2.2,51096,1073725440,17630,1026,65535,65700,0,0,4,1460,312,0,16777216,240000,33580,44,65700,0,44,0,4180660776,63
i,1724819384.298437,10.0.2.15,22,10.0.2.2,51096,1073725440,17674,1026,65535,65700,0,0,4,1460,312,0,0,240000,33580,0,65700,0,0,0,4180660776,63
o,1724819384.299274,10.0.2.15,22,10.0.2.2,51096,1073725440,17674,1026,65535,65700,0,0,4,1460,312,0,16777220,240000,33580,72,65700,0,0,0,4180660776,63
i,1724819384.299701,10.0.2.15,22,10.0.2.2,51096,1073725440,17674,1026,65535,65700,0,0,4,1460,312,0,16777220,240000,33580,72,65700,0,72,0,4180660776,63
o,1724819384.409613,172.16.5.2,11538,172.16.1.2,5102,16881,14480,2082,65535,65700,6,6,4,1460,350312,1,16778209,1190000,33580,0,65700,0,0,0,2862120157,63
o,1724819384.410212,172.16.5.2,11538,172.16.1.2,5102,16881,14480,2082,65535,65700,6,6,4,1460,350312,1,16778212,1190000,33580,37,65700,0,0,0,2862120157,63
i,1724819384.533163,172.16.5.2,11538,172.16.1.2,5102,16881,14480,2082,65535,65700,6,6,4,1460,350312,1,16778212,1190000,33580,37,65700,0,37,0,2862120157,63
o,1724819384.533517,172.16.5.2,11538,172.16.1.2,5102,16881,14517,3106,65728,65728,6,6,4,1460,321562,1,16778212,1230000,33580,4,65700,0,0,0,2862120157,63
o,1724819384.534032,172.16.5.2,11538,172.16.1.2,5102,16881,14517,3106,65728,65728,6,6,4,1460,321562,1,16778212,1230000,33580,130,65700,0,4,0,2862120157,63
i,1724819384.649480,172.16.5.2,11538,172.16.1.2,5102,16881,14517,3106,65728,65728,6,6,4,1460,321562,1,16778212,1230000,33580,130,65700,0,130,0,2862120157,63
i,1724819384.649538,172.16.5.2,11538,172.16.1.2,5102,16881,14647,3106,65600,65728,6,6,4,1460,295312,1,996,1240000,33580,0,65700,0,0,0,2862120157,63
o,1724819384.694478,172.16.5.2,11538,172.16.1.2,5102,16881,14647,3106,65728,65728,6,6,4,1460,295312,1,997,1240000,33580,0,65700,0,0,0,2862120157,63
o,1724819384.753593,172.16.5.2,43708,172.16.1.2,5102,16881,14480,2082,65535,65700,6,6,4,1460,350312,1,16778209,1190000,33580,0,65700,0,0,0,2303380306,63
o,1724819384.754382,172.16.5.2,43708,172.16.1.2,5102,16881,14480,2082,65535,65700,6,6,4,1460,350312,1,16778208,1190000,33580,37,65700,0,0,0,2303380306,63
i,1724819384.894780,172.16.5.2,11538,172.16.1.2,5102,16881,14647,3106,65728,65728,6,6,4,1460,295312,1,996,1240000,33580,0,65700,0,0,0,2862120157,63
i,1724819384.894829,172.16.5.2,11538,172.16.1.2,5102,16881,14647,3106,65728,65728,6,6,4,1460,295312,1,996,1240000,33580,0,65700,1,0,0,2862120157,63
o,1724819384.894848,172.16.5.2,11538,172.16.1.2,5102,16881,14647,3106,65728,65728,6,6,4,1460,295312,1,997,1240000,33580,0,65700,2,0,0,2862120157,63
o,1724819384.895350,172.16.5.2,43708,172.16.1.2,5102,16881,14480,2086,65535,65700,6,6,4,1460,350312,1,16778208,1190000,33580,33580,65700,0,37,0,2303380306,63
i,1724819384.917798,172.16.5.2,43708,172.16.1.2,5102,16881,14480,2086,65535,65700,6,6,4,1460,350312,1,16778208,1190000,33580,33580,65700,0,13069,0,2303380306,63
o,1724819384.917950,172.16.5.2,43708,172.16.1.2,5102,16881,14517,2086,65728,65728,6,6,4,1460,326562,1,16778208,1200000,33580,33543,65700,0,13032,0,2303380306,63
i,1724819384.981851,172.16.5.2,43708,172.16.1.2,5102,16881,14517,2086,65728,65728,6,6,4,1460,326562,1,16778208,1200000,33580,33543,65700,0,14480,0,2303380306,63
o,1724819384.981948,172.16.5.2,43708,172.16.1.2,5102,16881,17413,2086,62848,65728,6,6,4,1460,295937,1,16778208,1240000,33580,30647,65700,0,11584,0,2303380306,63
i,1724819384.982133,172.16.5.2,43708,172.16.1.2,5102,16881,17413,2086,62848,65728,6,6,4,1460,295937,1,16778208,1240000,41772,30647,65700,0,17376,0,2303380306,63
o,1724819384.982152,172.16.5.2,43708,172.16.1.2,5102,16881,17413,2086,64256,65728,6,6,4,1460,269062,1,16778208,1240000,41772,27751,65700,0,14480,0,2303380306,63
i,1724819384.982321,172.16.5.2,43708,172.16.1.2,5102,16881,17413,2086,64256,65728,6,6,4,1460,269062,1,16778208,1240000,41772,27751,65700,0,17376,0,2303380306,63
o,1724819384.982336,172.16.5.2,43708,172.16.1.2,5102,16881,17413,2086,62848,65728,6,6,4,1460,245625,1,16778208,1210000,41772,24855,65700,0,14480,0,2303380306,63
i,1724819384.982474,172.16.5.2,43708,172.16.1.2,5102,16881,17413,2086,62848,65728,6,6,4,1460,245625,1,16778208,1210000,41772,24855,65700,0,17376,0,2303380306,63
o,1724819384.982489,172.16.5.2,43708,172.16.1.2,5102,16881,17413,2086,59968,65728,6,6,4,1460,225000,1,16778208,1170000,41772,21959,65700,0,14480,0,2303380306,63
i,1724819385.009338,172.16.5.2,43708,172.16.1.2,5102,16881,17413,2086,59968,65728,6,6,4,1460,225000,1,16778208,1170000,41772,41772,65700,0,17376,0,2303380306,63
o,1724819385.009419,172.16.5.2,43708,172.16.1.2,5102,16881,17413,2086,64256,65728,6,6,4,1460,210625,1,16778208,1080000,41772,38876,65700,0,14480,0,2303380306,63
o,1724819385.009543,172.16.5.2,43708,172.16.1.2,5102,16881,17413,2086,64256,65728,6,6,4,1460,210625,1,16778208,1080000,41772,38876,65700,0,15928,0,2303380306,63
i,1724819385.086156,172.16.5.2,43708,172.16.1.2,5102,16881,17413,2086,64256,65728,6,6,4,1460,210625,1,16778208,1080000,41772,41772,65700,0,17376,0,2303380306,63
o,1724819385.086237,172.16.5.2,43708,172.16.1.2,5102,16881,17413,2086,62848,65728,6,6,4,1460,198125,1,16778208,1000000,41772,38876,65700,0,14480,0,2303380306,63
i,1724819385.086428,172.16.5.2,43708,172.16.1.2,5102,16881,17413,2086,62848,65728,6,6,4,1460,198125,1,16778208,1000000,41772,38876,65700,0,17376,0,2303380306,63
o,1724819385.086447,172.16.5.2,43708,172.16.1.2,5102,16881,17413,2086,64256,65728,6,6,4,1460,187187,1,16778208,930000,41772,35980,65700,0,14480,0,2303380306,63
i,1724819385.122917,172.16.5.2,43708,172.16.1.2,5102,16881,17413,2086,64256,65728,6,6,4,1460,187187,1,16778208,930000,41772,41772,65700,0,17376,0,2303380306,63
o,1724819385.123003,172.16.5.2,43708,172.16.1.2,5102,16881,18873,2086,64256,65728,6,6,4,1460,181562,1,16778208,830000,41772,38876,65700,0,14480,0,2303380306,63
i,1724819385.123156,172.16.5.2,43708,172.16.1.2,5102,16881,18873,2086,64256,65728,6,6,4,1460,181562,1,16778208,830000,41772,38876,65700,0,18824,0,2303380306,63
o,1724819385.123174,172.16.5.2,43708,172.16.1.2,5102,16881,18873,2086,61376,65728,6,6,4,1460,176562,1,16778208,750000,41772,35980,65700,0,15928,0,2303380306,63
i,1724819385.123517,172.16.5.2,43708,172.16.1.2,5102,16881,18873,2086,61376,65728,6,6,4,1460,176562,1,16778208,750000,41772,35980,65700,0,18824,0,2303380306,63
o,1724819385.123533,172.16.5.2,43708,172.16.1.2,5102,16881,18873,2086,62848,65728,6,6,4,1460,172187,1,16778208,690000,41772,33084,65700,0,15928,0,2303380306,63
i,1724819385.124247,172.16.5.2,43708,172.16.1.2,5102,16881,18873,2086,62848,65728,6,6,4,1460,172187,1,16778208,690000,41772,41772,65700,0,18824,0,2303380306,63
o,1724819385.124332,172.16.5.2,43708,172.16.1.2,5102,16881,18873,2086,62848,65728,6,6,4,1460,164687,1,16778208,660000,41772,38876,65700,0,15928,0,2303380306,63
o,1724819385.124448,172.16.5.2,43708,172.16.1.2,5102,16881,18873,2086,62848,65728,6,6,4,1460,164687,1,16778208,660000,41772,38876,65700,0,17376,0,2303380306,63
i,1724819385.235044,172.16.5.2,43708,172.16.1.2,5102,16881,18873,2086,62848,65728,6,6,4,1460,164687,1,16778208,660000,41772,41772,65700,0,18824,0,2303380306,63
o,1724819385.235078,172.16.5.2,43708,172.16.1.2,5102,16881,18873,2086,62848,65728,6,6,4,1460,163125,1,16778208,600000,41772,38876,65700,0,15928,0,2303380306,63
i,1724819385.235278,172.16.5.2,43708,172.16.1.2,5102,16881,18873,2086,62848,65728,6,6,4,1460,163125,1,16778208,600000,41772,38876,65700,0,18824,0,2303380306,63
o,1724819385.235297,172.16.5.2,43708,172.16.1.2,5102,16881,18873,2086,62848,65728,6,6,4,1460,161562,1,16778208,550000,41772,35980,65700,0,15928,0,2303380306,63
i,1724819385.237475,172.16.5.2,43708,172.16.1.2,5102,16881,18873,2086,62848,65728,6,6,4,1460,161562,1,16778208,550000,41772,41772,65700,0,18824,0,2303380306,63
o,1724819385.237504,172.16.5.2,43708,172.16.1.2,5102,16881,20333,2086,62848,65728,6,6,4,1460,156562,1,16778208,540000,41772,38876,65700,0,15928,0,2303380306,63
i,1724819385.237764,172.16.5.2,43708,172.16.1.2,5102,16881,20333,2086,62848,65728,6,6,4,1460,156562,1,16778208,540000,49964,38876,65700,0,20272,0,2303380306,63
o,1724819385.237785,172.16.5.2,43708,172.16.1.2,5102,16881,20333,2086,64256,65728,6,6,4,1460,152187,1,16778208,520000,49964,35980,65700,0,17376,0,2303380306,63
i,1724819385.237931,172.16.5.2,43708,172.16.1.2,5102,16881,20333,2086,64256,65728,6,6,4,1460,152187,1,16778208,520000,49964,35980,65700,0,20272,0,2303380306,63
o,1724819385.237950,172.16.5.2,43708,172.16.1.2,5102,16881,20333,2086,64256,65728,6,6,4,1460,148437,1,16778208,510000,49964,33084,65700,0,17376,0,2303380306,63
i,1724819385.238108,172.16.5.2,43708,172.16.1.2,5102,16881,20333,2086,64256,65728,6,6,4,1460,148437,1,16778208,510000,49964,33084,65700,0,20272,0,2303380306,63
o,1724819385.238127,172.16.5.2,43708,172.16.1.2,5102,16881,20333,2086,64256,65728,6,6,4,1460,143750,1,16778208,500000,49964,30188,65700,0,17376,0,2303380306,63
o,1724819385.238259,172.16.5.2,43708,172.16.1.2,5102,16881,20333,2086,64256,65728,6,6,4,1460,143750,1,16778208,500000,49964,30188,65700,0,18824,0,2303380306,63
i,1724819385.283109,172.16.5.2,43708,172.16.1.2,5102,16881,20333,2086,64256,65728,6,6,4,1460,143750,1,16778208,500000,49964,49964,65700,0,20272,0,2303380306,63
o,1724819385.283161,172.16.5.2,43708,172.16.1.2,5102,16881,20333,2086,65728,65728,6,6,4,1460,144687,1,16778208,470000,49964,48516,65700,0,18824,0,2303380306,63
i,1724819385.349734,172.16.5.2,43708,172.16.1.2,5102,16881,20333,2086,65728,65728,6,6,4,1460,144687,1,16778208,470000,49964,48516,65700,0,20272,0,2303380306,63
o,1724819385.349835,172.16.5.2,43708,172.16.1.2,5102,16881,20333,2086,62848,65728,6,6,4,1460,140625,1,16778208,470000,49964,45620,65700,0,17376,0,2303380306,63
i,1724819385.350014,172.16.5.2,43708,172.16.1.2,5102,16881,20333,2086,62848,65728,6,6,4,1460,140625,1,16778208,470000,49964,45620,65700,0,20272,0,2303380306,63
o,1724819385.350031,172.16.5.2,43708,172.16.1.2,5102,16881,20333,2086,62848,65728,6,6,4,1460,136875,1,16778208,460000,49964,42724,65700,0,17376,0,2303380306,63
i,1724819385.351415,172.16.5.2,43708,172.16.1.2,5102,16881,20333,2086,62848,65728,6,6,4,1460,136875,1,16778208,460000,49964,49964,65700,0,20272,0,2303380306,63
o,1724819385.351439,172.16.5.2,43708,172.16.1.2,5102,16881,20333,2086,64256,65728,6,6,4,1460,133750,1,16778208,450000,49964,47068,65700,0,17376,0,2303380306,63
i,1724819385.351648,172.16.5.2,43708,172.16.1.2,5102,16881,20333,2086,64256,65728,6,6,4,1460,133750,1,16778208,450000,49964,47068,65700,0,20272,0,2303380306,63
o,1724819385.351703,172.16.5.2,43708,172.16.1.2,5102,16881,21793,2086,61376,65728,6,6,4,1460,130937,1,16778208,440000,49964,44172,65700,0,17376,0,2303380306,63
i,1724819385.352975,172.16.5.2,43708,172.16.1.2,5102,16881,21793,2086,61376,65728,6,6,4,1460,130937,1,16778208,440000,49964,49964,65700,0,21720,0,2303380306,63
o,1724819385.352995,172.16.5.2,43708,172.16.1.2,5102,16881,21793,2086,58496,65728,6,6,4,1460,128437,1,16778208,430000,49964,47068,65700,0,18824,0,2303380306,63
i,1724819385.353125,172.16.5.2,43708,172.16.1.2,5102,16881,21793,2086,58496,65728,6,6,4,1460,128437,1,16778208,430000,49964,47068,65700,0,21720,0,2303380306,63
o,1724819385.353143,172.16.5.2,43708,172.16.1.2,5102,16881,21793,2086,64256,65728,6,6,4,1460,126250,1,16778208,420000,49964,44172,65700,0,18824,0,2303380306,63
o,1724819385.353476,172.16.5.2,43708,172.16.1.2,5102,16881,21793,2086,64256,65728,6,6,4,1460,126250,1,16778208,420000,49964,44172,65700,0,20272,0,2303380306,63
i,1724819385.390652,172.16.5.2,43708,172.16.1.2,5102,16881,21793,2086,64256,65728,6,6,4,1460,126250,1,16778208,420000,49964,49964,65700,0,21720,0,2303380306,63
o,1724819385.390652,172.16.5.2,43708,172.16.1.2,5102,16881,21793,2086,64256,65728,6,6,4,1460,129375,1,16778208,420000,49964,47068,65700,0,18824,0,2303380306,63
i,1724819385.475083,172.16.5.2,43708,172.16.1.2,5102,16881,21793,2086,64256,65728,6,6,4,1460,129375,1,16778208,420000,49964,49964,65700,0,21720,0,2303380306,63
o,1724819385.475138,172.16.5.2,43708,172.16.1.2,5102,16881,21793,2086,62848,65728,6,6,4,1460,128437,1,16778208,410000,49964,47068,65700,0,18824,0,2303380306,63
i,1724819385.475326,172.16.5.2,43708,172.16.1.2,5102,16881,21793,2086,62848,65728,6,6,4,1460,128437,1,16778208,410000,49964,47068,65700,0,21720,0,2303380306,63
o,1724819385.475342,172.16.5.2,43708,172.16.1.2,5102,16881,21793,2086,62848,65728,6,6,4,1460,127500,1,16778208,390000,49964,44172,65700,0,18824,0,2303380306,63
i,1724819385.475457,172.16.5.2,43708,172.16.1.2,5102,16881,21793,2086,62848,65728,6,6,4,1460,127500,1,16778208,390000,49964,44172,65700,0,21720,0,2303380306,63
o,1724819385.475473,172.16.5.2,43708,172.16.1.2,5102,16881,21793,2086,64256,65728,6,6,4,1460,126562,1,16778208,380000,49964,41276,65700,0,18824,0,2303380306,63
i,1724819385.475587,172.16.5.2,43708,172.16.1.2,5102,16881,21793,2086,64256,65728,6,6,4,1460,126562,1,16778208,380000,49964,41276,65700,0,21720,0,2303380306,63
o,1724819385.475602,172.16.5.2,43708,172.16.1.2,5102,16881,23253,2086,61376,65728,6,6,4,1460,125937,1,16778208,370000,49964,38380,65700,0,18824,0,2303380306,63
i,1724819385.475714,172.16.5.2,43708,172.16.1.2,5102,16881,23253,2086,61376,65728,6,6,4,1460,125937,1,16778208,370000,49964,38380,65700,0,23168,0,2303380306,63
o,1724819385.475729,172.16.5.2,43708,172.16.1.2,5102,16881,23253,2086,58496,65728,6,6,4,1460,125312,1,16778208,360000,49964,35484,65700,0,20272,0,2303380306,63
i,1724819385.481965,172.16.5.2,43708,172.16.1.2,5102,16881,23253,2086,58496,65728,6,6,4,1460,125312,1,16778208,360000,58156,58156,65700,0,23168,0,2303380306,63
o,1724819385.481986,172.16.5.2,43708,172.16.1.2,5102,16881,23253,2086,62848,65728,6,6,4,1460,124687,1,16778208,360000,58156,55260,65700,0,20272,0,2303380306,63
o,1724819385.482096,172.16.5.2,43708,172.16.1.2,5102,16881,23253,2086,62848,65728,6,6,4,1460,124687,1,16778208,360000,58156,55260,65700,0,21720,0,2303380306,63
i,1724819385.487185,172.16.5.2,43708,172.16.1.2,5102,16881,23253,2086,62848,65728,6,6,4,1460,124687,1,16778208,360000,58156,58156,65700,0,23168,0,2303380306,63
o,1724819385.487185,172.16.5.2,43708,172.16.1.2,5102,16881,23253,2086,64256,65728,6,6,4,1460,125625,1,16778208,360000,58156,55260,65700,0,20272,0,2303380306,63
i,1724819385.513510,172.16.5.2,43708,172.16.1.2,5102,16881,23253,2086,64256,65728,6,6,4,1460,125625,1,16778208,360000,58156,58156,65700,0,23168,0,2303380306,63
o,1724819385.513615,172.16.5.2,43708,172.16.1.2,5102,16881,23253,2086,65728,65728,6,6,4,1460,125000,1,16778208,360000,58156,56708,65700,0,21720,0,2303380306,63
i,1724819385.599316,172.16.5.2,43708,172.16.1.2,5102,16881,23253,2086,65728,65728,6,6,4,1460,125000,1,16778208,360000,58156,56708,65700,0,23168,0,2303380306,63
o,1724819385.599391,172.16.5.2,43708,172.16.1.2,5102,16881,23253,2086,62848,65728,6,6,4,1460,124375,1,16778208,350000,58156,53812,65700,0,20272,0,2303380306,63
i,1724819385.599585,172.16.5.2,43708,172.16.1.2,5102,16881,23253,2086,62848,65728,6,6,4,1460,124375,1,16778208,350000,58156,53812,65700,0,23168,0,2303380306,63
o,1724819385.599610,172.16.5.2,43708,172.16.1.2,5102,16881,23253,2086,62848,65728,6,6,4,1460,124062,1,16778208,350000,58156,50916,65700,0,20272,0,2303380306,63
i,1724819385.599749,172.16.5.2,43708,172.16.1.2,5102,16881,23253,2086,62848,65728,6,6,4,1460,124062,1,16778208,350000,58156,50916,65700,0,23168,0,2303380306,63
o,1724819385.599765,172.16.5.2,43708,172.16.1.2,5102,16881,23253,2086,64256,65728,6,6,4,1460,123750,1,16778208,340000,58156,48020,65700,0,20272,0,2303380306,63
i,1724819385.599888,172.16.5.2,43708,172.16.1.2,5102,16881,23253,2086,64256,65728,6,6,4,1460,123750,1,16778208,340000,58156,48020,65700,0,23168,0,2303380306,63
o,1724819385.599904,172.16.5.2,43708,172.16.1.2,5102,16881,23253,2086,64256,65728,6,6,4,1460,123437,1,16778208,340000,58156,45124,65700,0,20272,0,2303380306,63
i,1724819385.600048,172.16.5.2,43708,172.16.1.2,5102,16881,23253,2086,64256,65728,6,6,4,1460,123437,1,16778208,340000,58156,45124,65700,0,23168,0,2303380306,63
o,1724819385.600077,172.16.5.2,43708,172.16.1.2,5102,16881,24713,2086,62848,65728,6,6,4,1460,123125,1,16778208,340000,58156,42228,65700,0,20272,0,2303380306,63
i,1724819385.600216,172.16.5.2,43708,172.16.1.2,5102,16881,24713,2086,62848,65728,6,6,4,1460,123125,1,16778208,340000,58156,42228,65700,0,24616,0,2303380306,63
o,1724819385.600242,172.16.5.2,43708,172.16.1.2,5102,16881,24713,2086,64256,65728,6,6,4,1460,122812,1,16778208,340000,58156,39332,65700,0,21720,0,2303380306,63
o,1724819385.600373,172.16.5.2,43708,172.16.1.2,5102,16881,24713,2086,64256,65728,6,6,4,1460,122812,1,16778208,340000,58156,39332,65700,0,23168,0,2303380306,63
i,1724819385.620988,172.16.5.2,43708,172.16.1.2,5102,16881,24713,2086,64256,65728,6,6,4,1460,122812,1,16778208,340000,58156,58156,65700,0,24616,0,2303380306,63
o,1724819385.621072,172.16.5.2,43708,172.16.1.2,5102,16881,24713,2086,64256,65728,6,6,4,1460,125000,1,16778208,350000,58156,55260,65700,0,21720,0,2303380306,63
i,1724819385.622319,172.16.5.2,43708,172.16.1.2,5102,16881,24713,2086,64256,65728,6,6,4,1460,125000,1,16778208,350000,58156,58156,65700,0,24616,0,2303380306,63
o,1724819385.622388,172.16.5.2,43708,172.16.1.2,5102,16881,24713,2086,64256,65728,6,6,4,1460,125625,1,16778208,350000,58156,55260,65700,0,21720,0,2303380306,63
i,1724819385.716017,172.16.5.2,43708,172.16.1.2,5102,16881,24713,2086,64256,65728,6,6,4,1460,125625,1,16778208,350000,58156,58156,65700,0,24616,0,2303380306,63
o,1724819385.716120,172.16.5.2,43708,172.16.1.2,5102,16881,24713,2086,62848,65728,6,6,4,1460,125000,1,16778208,350000,58156,55260,65700,0,21720,0,2303380306,63
i,1724819385.734784,172.16.5.2,43708,172.16.1.2,5102,16881,24713,2086,62848,65728,6,6,4,1460,125000,1,16778208,350000,58156,58156,65700,0,24616,0,2303380306,63
o,1724819385.734819,172.16.5.2,43708,172.16.1.2,5102,16881,24713,2086,59968,65728,6,6,4,1460,126875,1,16778208,360000,58156,55260,65700,0,21720,0,2303380306,63
i,1724819385.735021,172.16.5.2,43708,172.16.1.2,5102,16881,24713,2086,59968,65728,6,6,4,1460,126875,1,16778208,360000,58156,55260,65700,0,24616,0,2303380306,63
o,1724819385.735039,172.16.5.2,43708,172.16.1.2,5102,16881,24713,2086,64256,65728,6,6,4,1460,128750,1,16778208,370000,58156,52364,65700,0,21720,0,2303380306,63
i,1724819385.735173,172.16.5.2,43708,172.16.1.2,5102,16881,24713,2086,64256,65728,6,6,4,1460,128750,1,16778208,370000,58156,52364,65700,0,24616,0,2303380306,63
o,1724819385.735190,172.16.5.2,43708,172.16.1.2,5102,16881,24713,2086,61376,65728,6,6,4,1460,130312,1,16778208,370000,58156,49468,65700,0,21720,0,2303380306,63
i,1724819385.735368,172.16.5.2,43708,172.16.1.2,5102,16881,24713,2086,61376,65728,6,6,4,1460,130312,1,16778208,370000,58156,49468,65700,0,24616,0,2303380306,63
o,1724819385.735384,172.16.5.2,43708,172.16.1.2,5102,16881,26173,2086,64256,65728,6,6,4,1460,131562,1,16778208,370000,58156,46572,65700,0,21720,0,2303380306,63
i,1724819385.735508,172.16.5.2,43708,172.16.1.2,5102,16881,26173,2086,64256,65728,6,6,4,1460,131562,1,16778208,370000,58156,46572,65700,0,26064,0,2303380306,63
o,1724819385.735536,172.16.5.2,43708,172.16.1.2,5102,16881,26173,2086,61376,65728,6,6,4,1460,132812,1,16778208,380000,58156,43676,65700,0,23168,0,2303380306,63
o,1724819385.735658,172.16.5.2,43708,172.16.1.2,5102,16881,26173,2086,61376,65728,6,6,4,1460,132812,1,16778208,380000,58156,43676,65700,0,24616,0,2303380306,63
i,1724819385.736594,172.16.5.2,43708,172.16.1.2,5102,16881,26173,2086,61376,65728,6,6,4,1460,132812,1,16778208,380000,58156,58156,65700,0,26064,0,2303380306,63
o,1724819385.736670,172.16.5.2,43708,172.16.1.2,5102,16881,26173,2086,62848,65728,6,6,4,1460,133750,1,16778208,370000,58156,55260,65700,0,23168,0,2303380306,63
i,1724819385.737546,172.16.5.2,43708,172.16.1.2,5102,16881,26173,2086,62848,65728,6,6,4,1460,133750,1,16778208,370000,58156,58156,65700,0,26064,0,2303380306,63
o,1724819385.737565,172.16.5.2,43708,172.16.1.2,5102,16881,26173,2086,64256,65728,6,6,4,1460,132187,1,16778208,370000,58156,55260,65700,0,23168,0,2303380306,63
i,1724819385.781866,172.16.5.2,43708,172.16.1.2,5102,16881,26173,2086,64256,65728,6,6,4,1460,132187,1,16778208,370000,58156,58156,65700,0,26064,0,2303380306,63
o,1724819385.781992,172.16.5.2,43708,172.16.1.2,5102,16881,26173,2086,65728,65728,6,6,4,1460,135937,1,16778208,400000,58156,56708,65700,0,24616,0,2303380306,63
i,1724819385.835907,172.16.5.2,43708,172.16.1.2,5102,16881,26173,2086,65728,65728,6,6,4,1460,135937,1,16778208,400000,58156,56708,65700,0,26064,0,2303380306,63
o,1724819385.835994,172.16.5.2,43708,172.16.1.2,5102,16881,26173,2086,62848,65728,6,6,4,1460,134062,1,16778208,400000,58156,53812,65700,0,23168,0,2303380306,63
i,1724819385.865684,172.16.5.2,43708,172.16.1.2,5102,16881,26173,2086,62848,65728,6,6,4,1460,134062,1,16778208,400000,58156,58156,65700,0,26064,0,2303380306,63
o,1724819385.865783,172.16.5.2,43708,172.16.1.2,5102,16881,26173,2086,62848,65728,6,6,4,1460,133750,1,16778208,380000,58156,55260,65700,0,23168,0,2303380306,63
i,1724819385.865952,172.16.5.2,43708,172.16.1.2,5102,16881,26173,2086,62848,65728,6,6,4,1460,133750,1,16778208,380000,58156,55260,65700,0,26064,0,2303380306,63
o,1724819385.865975,172.16.5.2,43708,172.16.1.2,5102,16881,26173,2086,64256,65728,6,6,4,1460,133437,1,16778208,370000,58156,52364,65700,0,23168,0,2303380306,63
i,1724819385.866338,172.16.5.2,43708,172.16.1.2,5102,16881,26173,2086,64256,65728,6,6,4,1460,133437,1,16778208,370000,58156,52364,65700,0,26064,0,2303380306,63
o,1724819385.866356,172.16.5.2,43708,172.16.1.2,5102,16881,26173,2086,64256,65728,6,6,4,1460,133125,1,16778208,370000,58156,49468,65700,0,23168,0,2303380306,63
i,1724819385.867483,172.16.5.2,43708,172.16.1.2,5102,16881,26173,2086,64256,65728,6,6,4,1460,133125,1,16778208,370000,58156,49468,65700,0,26064,0,2303380306,63
o,1724819385.867530,172.16.5.2,43708,172.16.1.2,5102,16881,26173,2086,61376,65728,6,6,4,1460,132812,1,16778208,360000,58156,46572,65700,0,23168,0,2303380306,63
i,1724819385.867753,172.16.5.2,43708,172.16.1.2,5102,16881,26173,2086,61376,65728,6,6,4,1460,132812,1,16778208,360000,58156,46572,65700,0,26064,0,2303380306,63
o,1724819385.867776,172.16.5.2,43708,172.16.1.2,5102,16881,27633,2086,62848,65728,6,6,4,1460,132500,1,16778208,360000,58156,43676,65700,0,23168,0,2303380306,63
o,1724819385.867951,172.16.5.2,43708,172.16.1.2,5102,16881,27633,2086,62848,65728,6,6,4,1460,132500,1,16778208,360000,58156,43676,65700,0,24616,0,2303380306,63
i,1724819385.868210,172.16.5.2,43708,172.16.1.2,5102,16881,27633,2086,62848,65728,6,6,4,1460,132500,1,16778208,360000,58156,43676,65700,0,27512,0,2303380306,63
o,1724819385.868236,172.16.5.2,43708,172.16.1.2,5102,16881,27633,2086,59968,65728,6,6,4,1460,132187,1,16778208,350000,58156,40780,65700,0,24616,0,2303380306,63
i,1724819385.869386,172.16.5.2,43708,172.16.1.2,5102,16881,27633,2086,59968,65728,6,6,4,1460,132187,1,16778208,350000,58156,58156,65700,0,27512,0,2303380306,63
o,1724819385.869407,172.16.5.2,43708,172.16.1.2,5102,16881,27633,2086,62848,65728,6,6,4,1460,132187,1,16778208,350000,58156,55260,65700,0,24616,0,2303380306,63
i,1724819385.908193,172.16.5.2,43708,172.16.1.2,5102,16881,27633,2086,62848,65728,6,6,4,1460,132187,1,16778208,350000,58156,58156,65700,0,27512,0,2303380306,63
o,1724819385.908328,172.16.5.2,43708,172.16.1.2,5102,16881,27633,2086,64256,65728,6,6,4,1460,137187,1,16778208,390000,58156,55260,65700,0,24616,0,2303380306,63
i,1724819385.963547,172.16.5.2,43708,172.16.1.2,5102,16881,27633,2086,64256,65728,6,6,4,1460,137187,1,16778208,390000,58156,58156,65700,0,27512,0,2303380306,63
o,1724819385.963584,172.16.5.2,43708,172.16.1.2,5102,16881,27633,2086,62848,65728,6,6,4,1460,135312,1,16778208,390000,58156,55260,65700,0,24616,0,2303380306,63
i,1724819385.994118,172.16.5.2,43708,172.16.1.2,5102,16881,27633,2086,62848,65728,6,6,4,1460,135312,1,16778208,390000,58156,58156,65700,0,27512,0,2303380306,63
o,1724819385.994153,172.16.5.2,43708,172.16.1.2,5102,16881,27633,2086,64256,65728,6,6,4,1460,133437,1,16778208,390000,58156,55260,65700,0,24616,0,2303380306,63
i,1724819386.016443,172.16.5.2,43708,172.16.1.2,5102,16881,27633,2086,64256,65728,6,6,4,1460,133437,1,16778208,390000,58156,58156,65700,0,27512,0,2303380306,63
o,1724819386.016498,172.16.5.2,43708,172.16.1.2,5102,16881,27633,2086,64256,65728,6,6,4,1460,135625,1,16778208,390000,58156,55260,65700,0,24616,0,2303380306,63
i,1724819386.016727,172.16.5.2,43708,172.16.1.2,5102,16881,27633,2086,64256,65728,6,6,4,1460,135625,1,16778208,390000,58156,55260,65700,0,27512,0,2303380306,63
o,1724819386.016748,172.16.5.2,43708,172.16.1.2,5102,16881,27633,2086,62848,65728,6,6,4,1460,137500,1,16778208,400000,58156,52364,65700,0,24616,0,2303380306,63
i,1724819386.016911,172.16.5.2,43708,172.16.1.2,5102,16881,27633,2086,62848,65728,6,6,4,1460,137500,1,16778208,400000,66348,52364,65700,0,27512,0,2303380306,63
o,1724819386.016941,172.16.5.2,43708,172.16.1.2,5102,16881,27633,2086,59968,65728,6,6,4,1460,139062,1,16778208,390000,66348,49468,65700,0,24616,0,2303380306,63
i,1724819386.017249,172.16.5.2,43708,172.16.1.2,5102,16881,27633,2086,59968,65728,6,6,4,1460,139062,1,16778208,390000,66348,49468,65700,0,27512,0,2303380306,63
o,1724819386.017265,172.16.5.2,43708,172.16.1.2,5102,16881,29093,2086,64256,65728,6,6,4,1460,140625,1,16778208,390000,66348,46572,65700,0,24616,0,2303380306,63
o,1724819386.017370,172.16.5.2,43708,172.16.1.2,5102,16881,29093,2086,64256,65728,6,6,4,1460,140625,1,16778208,390000,66348,46572,65700,0,26064,0,2303380306,63
i,1724819386.017490,172.16.5.2,43708,172.16.1.2,5102,16881,29093,2086,64256,65728,6,6,4,1460,140625,1,16778208,390000,66348,46572,65700,0,28960,0,2303380306,63
o,1724819386.017506,172.16.5.2,43708,172.16.1.2,5102,16881,29093,2086,64256,65728,6,6,4,1460,141875,1,16778208,390000,66348,43676,65700,0,26064,0,2303380306,63
i,1724819386.017628,172.16.5.2,43708,172.16.1.2,5102,16881,29093,2086,64256,65728,6,6,4,1460,141875,1,16778208,390000,66348,43676,65700,0,28960,0,2303380306,63
o,1724819386.017644,172.16.5.2,43708,172.16.1.2,5102,16881,29093,2086,61376,65728,6,6,4,1460,143125,1,16778208,390000,66348,40780,65700,0,26064,0,2303380306,63
i,1724819386.017789,172.16.5.2,43708,172.16.1.2,5102,16881,29093,2086,61376,65728,6,6,4,1460,143125,1,16778208,390000,66348,40780,65700,0,28960,0,2303380306,63
o,1724819386.017806,172.16.5.2,43708,172.16.1.2,5102,16881,29093,2086,64256,65728,6,6,4,1460,144062,1,16778208,390000,66348,37884,65700,0,26064,0,2303380306,63
i,1724819386.052528,172.16.5.2,43708,172.16.1.2,5102,16881,29093,2086,64256,65728,6,6,4,1460,144062,1,16778208,390000,66348,66348,65700,0,28960,0,2303380306,63
o,1724819386.052619,172.16.5.2,43708,172.16.1.2,5102,16881,29093,2086,65728,65728,6,6,4,1460,143750,1,16778208,380000,66348,64900,65700,0,27512,0,2303380306,63
i,1724819386.113493,172.16.5.2,43708,172.16.1.2,5102,16881,29093,2086,65728,65728,6,6,4,1460,143750,1,16778208,380000,66348,64900,65700,0,28960,0,2303380306,63
o,1724819386.113536,172.16.5.2,43708,172.16.1.2,5102,16881,29093,2086,95680,65728,6,6,4,1460,144687,1,16778208,380000,66348,62004,65700,0,26064,0,2303380306,63
i,1724819386.135933,172.16.5.2,43708,172.16.1.2,5102,16881,29093,2086,95680,65728,6,6,4,1460,144687,1,16778208,380000,66348,65216,65700,0,28960,0,2303380306,63
o,1724819386.136041,172.16.5.2,43708,172.16.1.2,5102,16881,29093,2086,95680,65728,6,6,4,1460,144375,1,16778208,370000,66348,62320,65700,0,26064,0,2303380306,63
i,1724819386.165701,172.16.5.2,43708,172.16.1.2,5102,16881,29093,2086,95680,65728,6,6,4,1460,144375,1,16778208,370000,66348,66348,65700,0,28960,0,2303380306,63
o,1724819386.165745,172.16.5.2,43708,172.16.1.2,5102,16881,29093,2086,95680,65728,6,6,4,1460,145312,1,16778208,370000,66348,63452,65700,0,26064,0,2303380306,63
i,1724819386.165918,172.16.5.2,43708,172.16.1.2,5102,16881,29093,2086,95680,65728,6,6,4,1460,145312,1,16778208,370000,66348,63452,65700,0,28960,0,2303380306,63
o,1724819386.165938,172.16.5.2,43708,172.16.1.2,5102,16881,29093,2086,97152,65728,6,6,4,1460,145937,1,16778208,370000,66348,60556,65700,0,26064,0,2303380306,63
i,1724819386.166130,172.16.5.2,43708,172.16.1.2,5102,16881,29093,2086,97152,65728,6,6,4,1460,145937,1,16778208,370000,66348,60556,65700,0,28960,0,2303380306,63
o,1724819386.166149,172.16.5.2,43708,172.16.1.2,5102,16881,29093,2086,94272,65728,6,6,4,1460,146562,1,16778208,370000,66348,57660,65700,0,26064,0,2303380306,63
i,1724819386.166359,172.16.5.2,43708,172.16.1.2,5102,16881,29093,2086,94272,65728,6,6,4,1460,146562,1,16778208,370000,66348,57660,65700,0,28960,0,2303380306,63
o,1724819386.166379,172.16.5.2,43708,172.16.1.2,5102,16881,29093,2086,95680,65728,6,6,4,1460,147187,1,16778208,370000,66348,54764,65700,0,26064,0,2303380306,63
o,1724819386.166512,172.16.5.2,43708,172.16.1.2,5102,16881,29093,2086,95680,65728,6,6,4,1460,147187,1,16778208,370000,66348,54764,65700,0,27512,0,2303380306,63
i,1724819386.166694,172.16.5.2,43708,172.16.1.2,5102,16881,29093,2086,95680,65728,6,6,4,1460,147187,1,16778208,370000,66348,54764,65700,0,28960,0,2303380306,63
o,1724819386.166717,172.16.5.2,43708,172.16.1.2,5102,16881,30553,2086,95680,65728,6,6,4,1460,147812,1,16778208,370000,66348,51868,65700,0,26064,0,2303380306,63
i,1724819386.166881,172.16.5.2,43708,172.16.1.2,5102,16881,30553,2086,95680,65728,6,6,4,1460,147812,1,16778208,370000,66348,51868,65700,0,30408,0,2303380306,63
o,1724819386.166906,172.16.5.2,43708,172.16.1.2,5102,16881,30553,2086,95680,65728,6,6,4,1460,148125,1,16778208,370000,66348,48972,65700,0,27512,0,2303380306,63
i,1724819386.167103,172.16.5.2,43708,172.16.1.2,5102,16881,30553,2086,95680,65728,6,6,4,1460,148125,1,16778208,370000,66348,48972,65700,0,30408,0,2303380306,63
o,1724819386.167122,172.16.5.2,43708,172.16.1.2,5102,16881,30553,2086,92800,65728,6,6,4,1460,148437,1,16778208,370000,66348,46076,65700,0,27512,0,2303380306,63
i,1724819386.198593,172.16.5.2,43708,172.16.1.2,5102,16881,30553,2086,92800,65728,6,6,4,1460,148437,1,16778208,370000,66348,66348,65700,0,30408,0,2303380306,63
o,1724819386.198701,172.16.5.2,43708,172.16.1.2,5102,16881,30553,2086,97152,65728,6,6,4,1460,152500,1,16778208,400000,66348,63452,65700,0,27512,0,2303380306,63
i,1724819386.258511,172.16.5.2,43708,172.16.1.2,5102,16881,30553,2086,97152,65728,6,6,4,1460,152500,1,16778208,400000,66348,66348,65700,0,30408,0,2303380306,63
o,1724819386.258629,172.16.5.2,43708,172.16.1.2,5102,16881,30553,2086,95680,65728,6,6,4,1460,150937,1,16778208,400000,66348,63452,65700,0,27512,0,2303380306,63
i,1724819386.294143,172.16.5.2,43708,172.16.1.2,5102,16881,30553,2086,95680,65728,6,6,4,1460,150937,1,16778208,400000,66348,66348,65700,0,30408,0,2303380306,63
o,1724819386.294190,172.16.5.2,43708,172.16.1.2,5102,16881,30553,2086,95680,65728,6,6,4,1460,150937,1,16778208,380000,66348,63452,65700,0,27512,0,2303380306,63
i,1724819386.325254,172.16.5.2,43708,172.16.1.2,5102,16881,30553,2086,95680,65728,6,6,4,1460,150937,1,16778208,380000,66348,66348,65700,0,30408,0,2303380306,63
o,1724819386.325287,172.16.5.2,43708,172.16.1.2,5102,16881,30553,2086,95680,65728,6,6,4,1460,152187,1,16778208,390000,66348,63452,65700,0,27512,0,2303380306,63
i,1724819386.325660,172.16.5.2,43708,172.16.1.2,5102,16881,30553,2086,95680,65728,6,6,4,1460,152187,1,16778208,390000,66348,63452,65700,0,30408,0,2303380306,63
o,1724819386.325678,172.16.5.2,43708,172.16.1.2,5102,16881,30553,2086,97152,65728,6,6,4,1460,153437,1,16778208,390000,66348,60556,65700,0,27512,0,2303380306,63
i,1724819386.326610,172.16.5.2,43708,172.16.1.2,5102,16881,30553,2086,97152,65728,6,6,4,1460,153437,1,16778208,390000,74540,74540,65700,0,30408,0,2303380306,63
o,1724819386.326696,172.16.5.2,43708,172.16.1.2,5102,16881,30553,2086,94272,65728,6,6,4,1460,154375,1,16778208,390000,74540,71644,65700,0,27512,0,2303380306,63
i,1724819386.327577,172.16.5.2,43708,172.16.1.2,5102,16881,30553,2086,94272,65728,6,6,4,1460,154375,1,16778208,390000,74540,74540,65700,0,30408,0,2303380306,63
o,1724819386.327656,172.16.5.2,43708,172.16.1.2,5102,16881,30553,2086,91392,65728,6,6,4,1460,155312,1,16778208,390000,74540,71644,65700,0,27512,0,2303380306,63
o,1724819386.327776,172.16.5.2,43708,172.16.1.2,5102,16881,30553,2086,91392,65728,6,6,4,1460,155312,1,16778208,390000,74540,71644,65700,0,28960,0,2303380306,63
i,1724819386.327900,172.16.5.2,43708,172.16.1.2,5102,16881,30553,2086,91392,65728,6,6,4,1460,155312,1,16778208,390000,74540,71644,65700,0,30408,0,2303380306,63
o,1724819386.327916,172.16.5.2,43708,172.16.1.2,5102,16881,32013,2086,88512,65728,6,6,4,1460,155937,1,16778208,390000,74540,68748,65700,0,27512,0,2303380306,63
i,1724819386.328869,172.16.5.2,43708,172.16.1.2,5102,16881,32013,2086,88512,65728,6,6,4,1460,155937,1,16778208,390000,74540,74540,65700,0,31856,0,2303380306,63
o,1724819386.328889,172.16.5.2,43708,172.16.1.2,5102,16881,32013,2086,97152,65728,6,6,4,1460,156562,1,16778208,380000,74540,71644,65700,0,28960,0,2303380306,63
i,1724819386.329015,172.16.5.2,43708,172.16.1.2,5102,16881,32013,2086,97152,65728,6,6,4,1460,156562,1,16778208,380000,74540,71644,65700,0,31856,0,2303380306,63
o,1724819386.329032,172.16.5.2,43708,172.16.1.2,5102,16881,32013,2086,94272,65728,6,6,4,1460,157187,1,16778208,380000,74540,68748,65700,0,28960,0,2303380306,63
i,1724819386.379696,172.16.5.2,43708,172.16.1.2,5102,16881,32013,2086,94272,65728,6,6,4,1460,157187,1,16778208,380000,74540,74540,65700,0,31856,0,2303380306,63
o,1724819386.379776,172.16.5.2,43708,172.16.1.2,5102,16881,32013,2086,97152,65728,6,6,4,1460,164062,1,16778208,440000,74540,71644,65700,0,28960,0,2303380306,63
i,1724819386.394573,172.16.5.2,43708,172.16.1.2,5102,16881,32013,2086,97152,65728,6,6,4,1460,164062,1,16778208,440000,74540,74540,65700,0,31856,0,2303380306,63
o,1724819386.394698,172.16.5.2,43708,172.16.1.2,5102,16881,32013,2086,98560,65728,6,6,4,1460,168750,1,16778208,460000,74540,73092,65700,0,30408,0,2303380306,63
i,1724819386.416661,172.16.5.2,43708,172.16.1.2,5102,16881,32013,2086,98560,65728,6,6,4,1460,168750,1,16778208,460000,74540,73092,65700,0,31856,0,2303380306,63
o,1724819386.416713,172.16.5.2,43708,172.16.1.2,5102,16881,32013,2086,95680,65728,6,6,4,1460,167812,1,16778208,450000,74540,70196,65700,0,28960,0,2303380306,63
i,1724819386.479729,172.16.5.2,43708,172.16.1.2,5102,16881,32013,2086,95680,65728,6,6,4,1460,167812,1,16778208,450000,74540,74540,65700,0,31856,0,2303380306,63
o,1724819386.479852,172.16.5.2,43708,172.16.1.2,5102,16881,32013,2086,97152,65728,6,6,4,1460,169375,1,16778208,440000,74540,71644,65700,0,28960,0,2303380306,63
i,1724819386.482110,172.16.5.2,43708,172.16.1.2,5102,16881,32013,2086,97152,65728,6,6,4,1460,169375,1,16778208,440000,74540,74540,65700,0,31856,0,2303380306,63
o,1724819386.482142,172.16.5.2,43708,172.16.1.2,5102,16881,32013,2086,95680,65728,6,6,4,1460,167187,1,16778208,440000,74540,71644,65700,0,28960,0,2303380306,63
i,1724819386.482291,172.16.5.2,43708,172.16.1.2,5102,16881,32013,2086,95680,65728,6,6,4,1460,167187,1,16778208,440000,74540,71644,65700,0,31856,0,2303380306,63
o,1724819386.482308,172.16.5.2,43708,172.16.1.2,5102,16881,32013,2086,97152,65728,6,6,4,1460,165312,1,16778208,430000,74540,68748,65700,0,28960,0,2303380306,63
i,1724819386.482478,172.16.5.2,43708,172.16.1.2,5102,16881,32013,2086,97152,65728,6,6,4,1460,165312,1,16778208,430000,74540,68748,65700,0,31856,0,2303380306,63
o,1724819386.482494,172.16.5.2,43708,172.16.1.2,5102,16881,32013,2086,97152,65728,6,6,4,1460,163437,1,16778208,430000,74540,65852,65700,0,28960,0,2303380306,63
i,1724819386.482661,172.16.5.2,43708,172.16.1.2,5102,16881,32013,2086,97152,65728,6,6,4,1460,163437,1,16778208,430000,74540,65852,65700,0,31856,0,2303380306,63
o,1724819386.482685,172.16.5.2,43708,172.16.1.2,5102,16881,32013,2086,94272,65728,6,6,4,1460,161875,1,16778208,420000,74540,62956,65700,0,28960,0,2303380306,63
o,1724819386.482811,172.16.5.2,43708,172.16.1.2,5102,16881,32013,2086,94272,65728,6,6,4,1460,161875,1,16778208,420000,74540,62956,65700,0,30408,0,2303380306,63
i,1724819386.489153,172.16.5.2,43708,172.16.1.2,5102,16881,32013,2086,94272,65728,6,6,4,1460,161875,1,16778208,420000,74540,74540,65700,0,31856,0,2303380306,63
o,1724819386.489177,172.16.5.2,43708,172.16.1.2,5102,16881,32013,2086,95680,65728,6,6,4,1460,160625,1,16778208,420000,74540,71644,65700,0,28960,0,2303380306,63
i,1724819386.489301,172.16.5.2,43708,172.16.1.2,5102,16881,32013,2086,95680,65728,6,6,4,1460,160625,1,16778208,420000,74540,71644,65700,0,31856,0,2303380306,63
o,1724819386.489317,172.16.5.2,43708,172.16.1.2,5102,16881,33473,2086,92800,65728,6,6,4,1460,159375,1,16778208,410000,74540,68748,65700,0,28960,0,2303380306,63
i,1724819386.490257,172.16.5.2,43708,172.16.1.2,5102,16881,33473,2086,92800,65728,6,6,4,1460,159375,1,16778208,410000,74540,74540,65700,0,33304,0,2303380306,63
o,1724819386.490314,172.16.5.2,43708,172.16.1.2,5102,16881,33473,2086,89920,65728,6,6,4,1460,158437,1,16778208,400000,74540,71644,65700,0,30408,0,2303380306,63
i,1724819386.514729,172.16.5.2,43708,172.16.1.2,5102,16881,33473,2086,89920,65728,6,6,4,1460,158437,1,16778208,400000,74540,74540,65700,0,33304,0,2303380306,63
o,1724819386.514762,172.16.5.2,43708,172.16.1.2,5102,16881,33473,2086,97152,65728,6,6,4,1460,162500,1,16778208,430000,74540,71644,65700,0,30408,0,2303380306,63
i,1724819386.529369,172.16.5.2,43708,172.16.1.2,5102,16881,33473,2086,97152,65728,6,6,4,1460,162500,1,16778208,430000,74540,74540,65700,0,33304,0,2303380306,63
o,1724819386.529456,172.16.5.2,43708,172.16.1.2,5102,16881,33473,2086,94272,65728,6,6,4,1460,160937,1,16778208,420000,74540,71644,65700,0,30408,0,2303380306,63
i,1724819386.549975,172.16.5.2,43708,172.16.1.2,5102,16881,33473,2086,94272,65728,6,6,4,1460,160937,1,16778208,420000,74540,74540,65700,0,33304,0,2303380306,63
o,1724819386.550109,172.16.5.2,43708,172.16.1.2,5102,16881,33473,2086,95680,65728,6,6,4,1460,157187,1,16778208,430000,74540,71644,65700,0,30408,0,2303380306,63
i,1724819386.614401,172.16.5.2,43708,172.16.1.2,5102,16881,33473,2086,95680,65728,6,6,4,1460,157187,1,16778208,430000,74540,74540,65700,0,33304,0,2303380306,63
o,1724819386.614449,172.16.5.2,43708,172.16.1.2,5102,16881,33473,2086,95680,65728,6,6,4,1460,155312,1,16778208,430000,74540,71644,65700,0,30408,0,2303380306,63
i,1724819386.615686,172.16.5.2,43708,172.16.1.2,5102,16881,33473,2086,95680,65728,6,6,4,1460,155312,1,16778208,430000,74540,74540,65700,0,33304,0,2303380306,63
o,1724819386.615722,172.16.5.2,43708,172.16.1.2,5102,16881,33473,2086,92800,65728,6,6,4,1460,153437,1,16778208,420000,74540,71644,65700,0,30408,0,2303380306,63
i,1724819386.616538,172.16.5.2,43708,172.16.1.2,5102,16881,33473,2086,92800,65728,6,6,4,1460,153437,1,16778208,420000,74540,74540,65700,0,33304,0,2303380306,63
o,1724819386.616560,172.16.5.2,43708,172.16.1.2,5102,16881,33473,2086,89920,65728,6,6,4,1460,151875,1,16778208,410000,74540,71644,65700,0,30408,0,2303380306,63
i,1724819386.616687,172.16.5.2,43708,172.16.1.2,5102,16881,33473,2086,89920,65728,6,6,4,1460,151875,1,16778208,410000,74540,71644,65700,0,33304,0,2303380306,63
o,1724819386.616703,172.16.5.2,43708,172.16.1.2,5102,16881,33473,2086,87040,65728,6,6,4,1460,150625,1,16778208,410000,74540,68748,65700,0,30408,0,2303380306,63
i,1724819386.616878,172.16.5.2,43708,172.16.1.2,5102,16881,33473,2086,87040,65728,6,6,4,1460,150625,1,16778208,410000,74540,68748,65700,0,33304,0,2303380306,63
o,1724819386.616895,172.16.5.2,43708,172.16.1.2,5102,16881,33473,2086,95680,65728,6,6,4,1460,149375,1,16778208,400000,74540,65852,65700,0,30408,0,2303380306,63
o,1724819386.617026,172.16.5.2,43708,172.16.1.2,5102,16881,33473,2086,95680,65728,6,6,4,1460,149375,1,16778208,400000,74540,65852,65700,0,31856,0,2303380306,63
i,1724819386.636254,172.16.5.2,43708,172.16.1.2,5102,16881,33473,2086,95680,65728,6,6,4,1460,149375,1,16778208,400000,82732,82732,65700,0,33304,0,2303380306,63
o,1724819386.636284,172.16.5.2,43708,172.16.1.2,5102,16881,33473,2086,97152,65728,6,6,4,1460,149687,1,16778208,390000,82732,79836,65700,0,30408,0,2303380306,63
i,1724819386.636423,172.16.5.2,43708,172.16.1.2,5102,16881,33473,2086,97152,65728,6,6,4,1460,149687,1,16778208,390000,82732,79836,65700,0,33304,0,2303380306,63
o,1724819386.636438,172.16.5.2,43708,172.16.1.2,5102,16881,34933,2086,95680,65728,6,6,4,1460,150000,1,16778208,390000,82732,76940,65700,0,30408,0,2303380306,63
i,1724819386.636591,172.16.5.2,43708,172.16.1.2,5102,16881,34933,2086,95680,65728,6,6,4,1460,150000,1,16778208,390000,82732,76940,65700,0,34752,0,2303380306,63
o,1724819386.636621,172.16.5.2,43708,172.16.1.2,5102,16881,34933,2086,95680,65728,6,6,4,1460,150000,1,16778208,380000,82732,74044,65700,0,31856,0,2303380306,63
i,1724819386.659244,172.16.5.2,43708,172.16.1.2,5102,16881,34933,2086,95680,65728,6,6,4,1460,150000,1,16778208,380000,82732,81896,65700,0,34752,0,2303380306,63
o,1724819386.659276,172.16.5.2,43708,172.16.1.2,5102,16881,34933,2086,97152,65728,6,6,4,1460,152500,1,16778208,390000,82732,79000,65700,0,31856,0,2303380306,63
i,1724819386.659426,172.16.5.2,43708,172.16.1.2,5102,16881,34933,2086,97152,65728,6,6,4,1460,152500,1,16778208,390000,82732,79000,65700,0,34752,0,2303380306,63
o,1724819386.659443,172.16.5.2,43708,172.16.1.2,5102,16881,34933,2086,94272,65728,6,6,4,1460,150937,1,16778208,390000,82732,76104,65700,0,31856,0,2303380306,63
i,1724819386.659598,172.16.5.2,43708,172.16.1.2,5102,16881,34933,2086,94272,65728,6,6,4,1460,150937,1,16778208,390000,82732,76104,65700,0,34752,0,2303380306,63
o,1724819386.659615,172.16.5.2,43708,172.16.1.2,5102,16881,34933,2086,95680,65728,6,6,4,1460,148437,1,16778208,400000,82732,73208,65700,0,31856,0,2303380306,63
i,1724819386.722843,172.16.5.2,43708,172.16.1.2,5102,16881,34933,2086,95680,65728,6,6,4,1460,148437,1,16778208,400000,82732,82732,65700,0,34752,0,2303380306,63
o,1724819386.722933,172.16.5.2,43708,172.16.1.2,5102,16881,34933,2086,98560,65728,6,6,4,1460,151250,1,16778208,410000,82732,81284,65700,0,33304,0,2303380306,63
i,1724819386.744249,172.16.5.2,43708,172.16.1.2,5102,16881,34933,2086,98560,65728,6,6,4,1460,151250,1,16778208,410000,82732,81284,65700,0,34752,0,2303380306,63
o,1724819386.744284,172.16.5.2,43708,172.16.1.2,5102,16881,34933,2086,97152,65728,6,6,4,1460,148750,1,16778208,410000,82732,78388,65700,0,31856,0,2303380306,63
i,1724819386.744460,172.16.5.2,43708,172.16.1.2,5102,16881,34933,2086,97152,65728,6,6,4,1460,148750,1,16778208,410000,82732,78388,65700,0,34752,0,2303380306,63
o,1724819386.744479,172.16.5.2,43708,172.16.1.2,5102,16881,34933,2086,97152,65728,6,6,4,1460,146562,1,16778208,410000,82732,75492,65700,0,31856,0,2303380306,63
i,1724819386.744660,172.16.5.2,43708,172.16.1.2,5102,16881,34933,2086,97152,65728,6,6,4,1460,146562,1,16778208,410000,82732,75492,65700,0,34752,0,2303380306,63
o,1724819386.744677,172.16.5.2,43708,172.16.1.2,5102,16881,34933,2086,95680,65728,6,6,4,1460,144687,1,16778208,410000,82732,72596,65700,0,31856,0,2303380306,63
i,1724819386.744860,172.16.5.2,43708,172.16.1.2,5102,16881,34933,2086,95680,65728,6,6,4,1460,144687,1,16778208,410000,82732,72596,65700,0,34752,0,2303380306,63
o,1724819386.744876,172.16.5.2,43708,172.16.1.2,5102,16881,34933,2086,97152,65728,6,6,4,1460,143125,1,16778208,400000,82732,69700,65700,0,31856,0,2303380306,63
i,1724819386.745018,172.16.5.2,43708,172.16.1.2,5102,16881,34933,2086,97152,65728,6,6,4,1460,143125,1,16778208,400000,82732,69700,65700,0,34752,0,2303380306,63
o,1724819386.745033,172.16.5.2,43708,172.16.1.2,5102,16881,34933,2086,97152,65728,6,6,4,1460,141562,1,16778208,400000,82732,66804,65700,0,31856,0,2303380306,63
o,1724819386.745157,172.16.5.2,43708,172.16.1.2,5102,16881,34933,2086,97152,65728,6,6,4,1460,141562,1,16778208,400000,82732,66804,65700,0,33304,0,2303380306,63
i,1724819386.745315,172.16.5.2,43708,172.16.1.2,5102,16881,34933,2086,97152,65728,6,6,4,1460,141562,1,16778208,400000,82732,66804,65700,0,34752,0,2303380306,63
o,1724819386.745336,172.16.5.2,43708,172.16.1.2,5102,16881,34933,2086,95680,65728,6,6,4,1460,137812,1,16778208,410000,82732,63908,65700,0,31856,0,2303380306,63
i,1724819386.745543,172.16.5.2,43708,172.16.1.2,5102,16881,34933,2086,95680,65728,6,6,4,1460,137812,1,16778208,410000,82732,63908,65700,0,34752,0,2303380306,63
o,1724819386.745558,172.16.5.2,43708,172.16.1.2,5102,16881,34933,2086,97152,65728,6,6,4,1460,134375,1,16778208,420000,82732,61012,65700,0,31856,0,2303380306,63
i,1724819386.766595,172.16.5.2,43708,172.16.1.2,5102,16881,34933,2086,97152,65728,6,6,4,1460,134375,1,16778208,420000,82732,82732,65700,0,34752,0,2303380306,63
o,1724819386.766630,172.16.5.2,43708,172.16.1.2,5102,16881,36393,2086,95680,65728,6,6,4,1460,134062,1,16778208,400000,82732,79836,65700,0,31856,0,2303380306,63
i,1724819386.766796,172.16.5.2,43708,172.16.1.2,5102,16881,36393,2086,95680,65728,6,6,4,1460,134062,1,16778208,400000,82732,79836,65700,0,36200,0,2303380306,63
o,1724819386.766814,172.16.5.2,43708,172.16.1.2,5102,16881,36393,2086,97152,65728,6,6,4,1460,133750,1,16778208,380000,82732,76940,65700,0,33304,0,2303380306,63
i,1724819386.767000,172.16.5.2,43708,172.16.1.2,5102,16881,36393,2086,97152,65728,6,6,4,1460,133750,1,16778208,380000,82732,76940,65700,0,36200,0,2303380306,63
o,1724819386.767017,172.16.5.2,43708,172.16.1.2,5102,16881,36393,2086,94272,65728,6,6,4,1460,130937,1,16778208,390000,82732,74044,65700,0,33304,0,2303380306,63
i,1724819386.767176,172.16.5.2,43708,172.16.1.2,5102,16881,36393,2086,94272,65728,6,6,4,1460,130937,1,16778208,390000,82732,74044,65700,0,36200,0,2303380306,63
o,1724819386.767192,172.16.5.2,43708,172.16.1.2,5102,16881,36393,2086,91392,65728,6,6,4,1460,128437,1,16778208,390000,82732,71148,65700,0,33304,0,2303380306,63
i,1724819386.837265,172.16.5.2,43708,172.16.1.2,5102,16881,36393,2086,91392,65728,6,6,4,1460,128437,1,16778208,390000,82732,82732,65700,0,36200,0,2303380306,63
o,1724819386.837364,172.16.5.2,43708,172.16.1.2,5102,16881,36393,2086,98560,65728,6,6,4,1460,135000,1,16778208,440000,82732,81284,65700,0,34752,0,2303380306,63
i,1724819386.860162,172.16.5.2,43708,172.16.1.2,5102,16881,36393,2086,98560,65728,6,6,4,1460,135000,1,16778208,440000,82732,81284,65700,0,36200,0,2303380306,63
o,1724819386.860197,172.16.5.2,43708,172.16.1.2,5102,16881,36393,2086,97152,65728,6,6,4,1460,135625,1,16778208,420000,82732,78388,65700,0,33304,0,2303380306,63
i,1724819386.860399,172.16.5.2,43708,172.16.1.2,5102,16881,36393,2086,97152,65728,6,6,4,1460,135625,1,16778208,420000,82732,78388,65700,0,36200,0,2303380306,63
o,1724819386.860415,172.16.5.2,43708,172.16.1.2,5102,16881,36393,2086,95680,65728,6,6,4,1460,132500,1,16778208,420000,82732,75492,65700,0,33304,0,2303380306,63
i,1724819386.860536,172.16.5.2,43708,172.16.1.2,5102,16881,36393,2086,95680,65728,6,6,4,1460,132500,1,16778208,420000,82732,75492,65700,0,36200,0,2303380306,63
o,1724819386.860553,172.16.5.2,43708,172.16.1.2,5102,16881,36393,2086,95680,65728,6,6,4,1460,129687,1,16778208,410000,82732,72596,65700,0,33304,0,2303380306,63
i,1724819386.861371,172.16.5.2,43708,172.16.1.2,5102,16881,36393,2086,95680,65728,6,6,4,1460,129687,1,16778208,410000,82732,82732,65700,0,36200,0,2303380306,63
o,1724819386.861400,172.16.5.2,43708,172.16.1.2,5102,16881,36393,2086,95680,65728,6,6,4,1460,127500,1,16778208,410000,82732,79836,65700,0,33304,0,2303380306,63
i,1724819386.861648,172.16.5.2,43708,172.16.1.2,5102,16881,36393,2086,95680,65728,6,6,4,1460,127500,1,16778208,410000,82732,79836,65700,0,36200,0,2303380306,63
o,1724819386.861670,172.16.5.2,43708,172.16.1.2,5102,16881,36393,2086,95680,65728,6,6,4,1460,125312,1,16778208,400000,82732,76940,65700,0,33304,0,2303380306,63
o,1724819386.861823,172.16.5.2,43708,172.16.1.2,5102,16881,36393,2086,95680,65728,6,6,4,1460,125312,1,16778208,400000,82732,76940,65700,0,34752,0,2303380306,63
