enable_time_secs=1724819205	enable_time_usecs=669676	siftrver=1.3.0	sysname=FreeBSD	sysver=1401000	ipmode=4
o,1724819205.670065,10.0.2.15,22,10.0.2.2,51194,1073725440,17746,1026,65535,65700,0,0,4,1460,312,0,16777220,240000,33580,172,65700,0,0,0,642709733,63
o,1724819205.670249,10.0.2.15,22,10.0.2.2,51194,1073725440,17746,1026,65535,65700,0,0,4,1460,312,0,16777220,240000,33580,244,65700,0,172,0,642709733,63
i,1724819205.670495,10.0.2.15,22,10.0.2.2,51194,1073725440,17746,1026,65535,65700,0,0,4,1460,312,0,16777220,240000,33580,244,65700,0,244,0,642709733,63
i,1724819205.670526,10.0.2.15,22,10.0.2.2,51194,1073725440,17918,1026,65535,65700,0,0,4,1460,312,0,4,240000,33580,72,65700,0,72,0,642709733,63
i,1724819205.670998,10.0.2.15,22,10.0.2.2,51194,1073725440,17990,1026,65535,65700,0,0,4,1460,312,0,4,240000,33580,0,65700,0,0,0,642709733,63
i,1724819205.671016,10.0.2.15,22,10.0.2.2,51194,1073725440,17990,1026,65535,65700,0,0,4,1460,312,0,4,240000,33580,0,65700,96,0,0,642709733,63
o,1724819205.671035,10.0.2.15,22,10.0.2.2,51194,1073725440,17990,1026,65535,65604,0,0,5,1460,312,0,5,240000,33580,0,65700,96,0,0,642709733,63
o,1724819205.671975,10.0.2.15,22,10.0.2.2,51194,1073725440,17990,1026,65535,65604,0,0,8,1460,312,0,4,240000,33580,0,65700,0,0,0,642709733,63
i,1724819205.672621,10.0.2.15,22,10.0.2.2,51194,1073725440,17990,1026,65535,65604,0,0,8,1460,312,0,67108884,240000,33580,0,65700,0,1,0,642709733,63
i,1724819208.812709,10.0.2.15,22,10.0.2.2,51108,1073725440,14600,0,65535,65700,0,0,4,1460,312,0,16777216,270000,33580,0,65700,0,0,0,2591164774,63
o,1724819208.824083,10.0.2.15,22,10.0.2.2,51108,1073725440,14600,1026,65535,65700,0,0,4,1460,312,0,16777216,270000,33580,38,65700,42,0,0,2591164774,63
i,1724819208.824714,10.0.2.15,22,10.0.2.2,51108,1073725440,14600,1026,65535,65700,0,0,4,1460,312,0,16777216,270000,33580,38,65700,0,38,0,2591164774,63
i,1724819208.824767,10.0.2.15,22,10.0.2.2,51108,1073725440,14638,1026,65535,65700,0,0,4,1460,312,0,0,240000,33580,0,65700,0,0,0,2591164774,63
i,1724819208.824784,10.0.2.15,22,10.0.2.2,51108,1073725440,14638,1026,65535,65700,0,0,4,1460,312,0,0,240000,33580,0,65700,1460,0,0,2591164774,63
o,1724819208.824803,10.0.2.15,22,10.0.2.2,51108,1073725440,14638,1026,65535,65700,0,0,4,1460,312,0,1,240000,33580,0,65700,1536,0,0,2591164774,63
o,1724819208.825723,10.0.2.15,22,10.0.2.2,51108,1073725440,14638,1026,65535,65700,0,0,4,1460,312,0,16777216,240000,33580,1120,65700,1536,0,0,2591164774,63
i,1724819208.826119,10.0.2.15,22,10.0.2.2,51108,1073725440,14638,1026,65535,65700,0,0,4,1460,312,0,16777216,240000,33580,1120,65700,0,1120,0,2591164774,63
i,1724819208.827589,10.0.2.15,22,10.0.2.2,51108,1073725440,15758,1026,65535,65700,0,0,4,1460,312,0,0,240000,33580,0,65700,0,0,0,2591164774,63
o,1724819208.830541,10.0.2.15,22,10.0.2.2,51108,1073725440,15758,1026,65535,65700,0,0,4,1460,312,0,16777216,240000,33580,492,65700,0,0,0,2591164774,63
i,1724819208.831793,10.0.2.15,22,10.0.2.2,51108,1073725440,15758,1026,65535,65700,0,0,4,1460,312,0,16777216,240000,33580,492,65700,0,492,0,2591164774,63
i,1724819208.834985,10.0.2.15,22,10.0.2.2,51108,1073725440,16250,1026,65535,65700,0,0,4,1460,312,0,0,240000,33580,0,65700,0,0,0,2591164774,63
i,1724819208.835005,10.0.2.15,22,10.0.2.2,51108,1073725440,16250,1026,65535,65700,0,0,4,1460,312,0,0,240000,33580,0,65700,16,0,0,2591164774,63
o,1724819208.835023,10.0.2.15,22,10.0.2.2,51108,1073725440,16250,1026,65535,65700,0,0,4,1460,312,0,1,240000,33580,0,65700,60,0,0,2591164774,63
o,1724819208.835261,10.0.2.15,22,10.0.2.2,51108,1073725440,16250,1026,65535,65700,0,0,4,1460,312,0,16777216,240000,33580,44,65700,0,0,0,2591164774,63
i,1724819208.835836,10.0.2.15,22,10.0.2.2,51108,1073725440,16250,1026,65535,65700,0,0,4,1460,312,0,16777216,240000,33580,44,65700,0,44,0,2591164774,63
i,1724819208.835854,10.0.2.15,22,10.0.2.2,51108,1073725440,16294,1026,65535,65700,0,0,4,1460,312,0,0,240000,33580,0,65700,0,0,0,2591164774,63
o,1724819208.836945,10.0.2.15,22,10.0.2.2,51108,1073725440,16294,1026,65535,65700,0,0,4,1460,312,0,16777216,240000,33580,68,65700,0,0,0,2591164774,63
i,1724819208.837459,10.0.2.15,22,10.0.2.2,51108,1073725440,16294,1026,65535,65700,0,0,4,1460,312,0,16777216,240000,33580,68,65700,0,68,0,2591164774,63
i,1724819208.837477,10.0.2.15,22,10.0.2.2,51108,1073725440,16362,1026,65535,65700,0,0,4,1460,312,0,0,240000,33580,0,65700,0,0,0,2591164774,63
o,1724819208.838713,10.0.2.15,22,10.0.2.2,51108,1073725440,16362,1026,65535,65700,0,0,4,1460,312,0,16777216,240000,33580,332,65700,0,0,0,2591164774,63
i,1724819208.839531,10.0.2.15,22,10.0.2.2,51108,1073725440,16362,1026,65535,65700,0,0,4,1460,312,0,16777216,240000,33580,332,65700,0,332,0,2591164774,63
i,1724819208.840763,10.0.2.15,22,10.0.2.2,51108,1073725440,16694,1026,65535,65700,0,0,4,1460,312,0,0,240000,33580,0,65700,0,0,0,2591164774,63
o,1724819208.858559,10.0.2.15,22,10.0.2.2,51108,1073725440,16694,1026,65535,65700,0,0,4,1460,312,0,16777216,240000,33580,28,65700,0,0,0,2591164774,63
i,1724819208.859198,10.0.2.15,22,10.0.2.2,51108,1073725440,16694,1026,65535,65700,0,0,4,1460,312,0,16777216,240000,33580,28,65700,0,28,0,2591164774,63
i,1724819208.859219,10.0.2.15,22,10.0.2.2,51108,1073725440,16722,1026,65535,65700,0,0,4,1460,312,0,0,240000,33580,0,65700,0,0,0,2591164774,63
o,1724819208.860782,10.0.2.15,22,10.0.2.2,51108,1073725440,16722,1026,65535,65700,0,0,4,1460,312,0,16777216,240000,33580,768,65700,112,0,0,2591164774,63
i,1724819208.861628,10.0.2.15,22,10.0.2.2,51108,1073725440,16722,1026,65535,65700,0,0,4,1460,312,0,16777216,240000,33580,908,65700,112,768,0,2591164774,63
o,1724819208.861649,10.0.2.15,22,10.0.2.2,51108,1073725440,17490,1026,65535,65700,0,0,4,1460,312,0,16777216,240000,33580,140,65700,112,0,0,2591164774,63
i,1724819208.862507,10.0.2.15,22,10.0.2.2,51108,1073725440,17490,1026,65535,65700,0,0,4,1460,312,0,16777216,240000,33580,140,65700,112,140,0,2591164774,63
o,1724819208.862742,10.0.2.15,22,10.0.2.2,51108,1073725440,17630,1026,65535,65700,0,0,4,1460,312,0,16777216,240000,33580,44,65700,0,0,0,2591164774,63
i,1724819208.863415,10.0.2.15,22,10.0.2.2,51108,1073725440,17630,1026,65535,65700,0,0,4,1460,312,0,16777216,240000,33580,44,65700,0,44,0,2591164774,63
i,1724819208.863442,10.0.2.15,22,10.0.2.2,51108,1073725440,17674,1026,65535,65700,0,0,4,1460,312,0,0,230000,33580,0,65700,0,0,0,2591164774,63
o,1724819208.864170,10.0.2.15,22,10.0.2.2,51108,1073725440,17674,1026,65535,65700,0,0,4,1460,312,0,16777220,230000,33580,72,65700,0,0,0,2591164774,63
i,1724819208.864511,10.0.2.15,22,10.0.2.2,51108,1073725440,17674,1026,65535,65700,0,0,4,1460,312,0,16777220,230000,33580,72,65700,0,72,0,2591164774,63
o,1724819208.867260,10.0.2.15,22,10.0.2.2,51108,1073725440,17746,1026,65535,65700,0,0,4,1460,312,0,16777220,230000,33580,104,65700,0,0,0,2591164774,63
i,1724819208.867740,10.0.2.15,22,10.0.2.2,51108,1073725440,17746,1026,65535,65700,0,0,4,1460,312,0,16777220,230000,33580,104,65700,0,104,0,2591164774,63
o,1724819208.875397,10.0.2.15,22,10.0.2.2,51108,1073725440,17850,1026,65535,65700,0,0,4,1460,312,0,16777220,230000,33580,72,65700,0,0,0,2591164774,63
i,1724819208.875765,10.0.2.15,22,10.0.2.2,51108,1073725440,17850,1026,65535,65700,0,0,4,1460,312,0,16777220,230000,33580,72,65700,0,72,0,2591164774,63
i,1724819208.876131,10.0.2.15,22,10.0.2.2,51108,1073725440,17922,1026,65535,65700,0,0,4,1460,312,0,4,230000,33580,0,65700,0,0,0,2591164774,63
i,1724819208.876150,10.0.2.15,22,10.0.2.2,51108,1073725440,17922,1026,65535,65700,0,0,4,1460,312,0,4,230000,33580,0,65700,96,0,0,2591164774,63
o,1724819208.876169,10.0.2.15,22,10.0.2.2,51108,1073725440,17922,1026,65535,65604,0,0,5,1460,312,0,5,230000,33580,0,65700,96,0,0,2591164774,63
o,1724819208.887571,10.0.2.15,22,10.0.2.2,51108,1073725440,17922,1026,65535,65604,0,0,8,1460,312,0,4,230000,33580,0,65700,0,0,0,2591164774,63
i,1724819208.888525,10.0.2.15,22,10.0.2.2,51108,1073725440,17922,1026,65535,65604,0,0,8,1460,312,0,67108884,230000,33580,0,65700,0,1,0,2591164774,63
i,1724819209.964313,10.0.2.15,22,10.0.2.2,51110,1073725440,14600,0,65535,65700,0,0,4,1460,312,0,16777216,270000,33580,0,65700,0,0,0,3399150218,63
o,1724819209.974125,10.0.2.15,22,10.0.2.2,51110,1073725440,14600,1026,65535,65700,0,0,4,1460,312,0,16777216,270000,33580,38,65700,42,0,0,3399150218,63
i,1724819209.974588,10.0.2.15,22,10.0.2.2,51110,1073725440,14600,1026,65535,65700,0,0,4,1460,312,0,16777216,270000,33580,38,65700,0,38,0,3399150218,63
i,1724819209.975062,10.0.2.15,22,10.0.2.2,51110,1073725440,14638,1026,65535,65700,0,0,4,1460,312,0,0,240000,33580,0,65700,0,0,0,3399150218,63
i,1724819209.975079,10.0.2.15,22,10.0.2.2,51110,1073725440,14638,1026,65535,65700,0,0,4,1460,312,0,0,240000,33580,0,65700,1460,0,0,3399150218,63
o,1724819209.975097,10.0.2.15,22,10.0.2.2,51110,1073725440,14638,1026,65535,65700,0,0,4,1460,312,0,1,240000,33580,0,65700,1536,0,0,3399150218,63
o,1724819209.976239,10.0.2.15,22,10.0.2.2,51110,1073725440,14638,1026,65535,65700,0,0,4,1460,312,0,16777216,240000,33580,1120,65700,1536,0,0,3399150218,63
i,1724819209.977532,10.0.2.15,22,10.0.2.2,51110,1073725440,14638,1026,65535,65700,0,0,4,1460,312,0,16777216,240000,33580,1120,65700,0,1120,0,3399150218,63
i,1724819209.978757,10.0.2.15,22,10.0.2.2,51110,1073725440,15758,1026,65535,65700,0,0,4,1460,312,0,0,240000,33580,0,65700,0,0,0,3399150218,63
o,1724819209.983574,10.0.2.15,22,10.0.2.2,51110,1073725440,15758,1026,65535,65700,0,0,4,1460,312,0,16777216,240000,33580,492,65700,0,0,0,3399150218,63
i,1724819209.984210,10.0.2.15,22,10.0.2.2,51110,1073725440,15758,1026,65535,65700,0,0,4,1460,312,0,16777216,240000,33580,492,65700,0,492,0,3399150218,63
i,1724819209.990860,10.0.2.15,22,10.0.2.2,51110,1073725440,16250,1026,65535,65700,0,0,4,1460,312,0,0,240000,33580,0,65700,0,0,0,3399150218,63
i,1724819209.990878,10.0.2.15,22,10.0.2.2,51110,1073725440,16250,1026,65535,65700,0,0,4,1460,312,0,0,240000,33580,0,65700,16,0,0,3399150218,63
o,1724819209.990894,10.0.2.15,22,10.0.2.2,51110,1073725440,16250,1026,65535,65700,0,0,4,1460,312,0,1,240000,33580,0,65700,60,0,0,3399150218,63
o,1724819209.991050,10.0.2.15,22,10.0.2.2,51110,1073725440,16250,1026,65535,65700,0,0,4,1460,312,0,16777216,240000,33580,44,65700,0,0,0,3399150218,63
i,1724819209.992138,10.0.2.15,22,10.0.2.2,51110,1073725440,16250,1026,65535,65700,0,0,4,1460,312,0,16777216,240000,33580,44,65700,0,44,0,3399150218,63
i,1724819209.992159,10.0.2.15,22,10.0.2.2,51110,1073725440,16294,1026,65535,65700,0,0,4,1460,312,0,0,240000,33580,0,65700,0,0,0,3399150218,63
o,1724819209.995981,10.0.2.15,22,10.0.2.2,51110,1073725440,16294,1026,65535,65700,0,0,4,1460,312,0,16777216,240000,33580,68,65700,0,0,0,3399150218,63
i,1724819209.996487,10.0.2.15,22,10.0.2.2,51110,1073725440,16294,1026,65535,65700,0,0,4,1460,312,0,16777216,240000,33580,68,65700,0,68,0,3399150218,63
i,1724819209.996505,10.0.2.15,22,10.0.2.2,51110,1073725440,16362,1026,65535,65700,0,0,4,1460,312,0,0,240000,33580,0,65700,0,0,0,3399150218,63
o,1724819209.997978,10.0.2.15,22,10.0.2.2,51110,1073725440,16362,1026,65535,65700,0,0,4,1460,312,0,16777216,240000,33580,332,65700,0,0,0,3399150218,63
i,1724819209.998559,10.0.2.15,22,10.0.2.2,51110,1073725440,16362,1026,65535,65700,0,0,4,1460,312,0,16777216,240000,33580,332,65700,0,332,0,3399150218,63
i,1724819210.000107,10.0.2.15,22,10.0.2.2,51110,1073725440,16694,1026,65535,65700,0,0,4,1460,312,0,0,240000,33580,0,65700,0,0,0,3399150218,63
o,1724819210.017840,10.0.2.15,22,10.0.2.2,51110,1073725440,16694,1026,65535,65700,0,0,4,1460,312,0,16777216,240000,33580,28,65700,0,0,0,3399150218,63
i,1724819210.018513,10.0.2.15,22,10.0.2.2,51110,1073725440,16694,1026,65535,65700,0,0,4,1460,312,0,16777216,240000,33580,28,65700,0,28,0,3399150218,63
i,1724819210.019080,10.0.2.15,22,10.0.2.2,51110,1073725440,16722,1026,65535,65700,0,0,4,1460,312,0,0,240000,33580,0,65700,0,0,0,3399150218,63
o,1724819210.020593,10.0.2.15,22,10.0.2.2,51110,1073725440,16722,1026,65535,65700,0,0,4,1460,312,0,16777216,240000,33580,768,65700,112,0,0,3399150218,63
i,1724819210.021015,10.0.2.15,22,10.0.2.2,51110,1073725440,16722,1026,65535,65700,0,0,4,1460,312,0,16777216,240000,33580,908,65700,112,768,0,3399150218,63
o,1724819210.021038,10.0.2.15,22,10.0.2.2,51110,1073725440,17490,1026,65535,65700,0,0,4,1460,312,0,16777216,240000,33580,140,65700,112,0,0,3399150218,63
i,1724819210.021473,10.0.2.15,22,10.0.2.2,51110,1073725440,17490,1026,65535,65700,0,0,4,1460,312,0,16777216,240000,33580,140,65700,112,140,0,3399150218,63
o,1724819210.022275,10.0.2.15,22,10.0.2.2,51110,1073725440,17630,1026,65535,65700,0,0,4,1460,312,0,16777216,240000,33580,44,65700,0,0,0,3399150218,63
i,1724819210.023124,10.0.2.15,22,10.0.2.2,51110,1073725440,17630,1026,65535,65700,0,0,4,1460,312,0,16777216,240000,33580,44,65700,0,44,0,3399150218,63
i,1724819210.023139,10.0.2.15,22,10.0.2.2,51110,1073725440,17674,1026,65535,65700,0,0,4,1460,312,0,0,240000,33580,0,65700,0,0,0,3399150218,63
o,1724819210.023874,10.0.2.15,22,10.0.2.2,51110,1073725440,17674,1026,65535,65700,0,0,4,1460,312,0,16777220,240000,33580,72,65700,0,0,0,3399150218,63
i,1724819210.024348,10.0.2.15,22,10.0.2.2,51110,1073725440,17674,1026,65535,65700,0,0,4,1460,312,0,16777220,240000,33580,72,65700,0,72,0,3399150218,63
o,1724819210.095340,172.16.5.2,41319,172.16.1.2,5102,20262,14480,2082,65535,65700,6,6,4,1460,359375,1,16778209,1230000,33580,0,65700,0,0,0,3433546157,63
o,1724819210.095521,172.16.5.2,41319,172.16.1.2,5102,20262,14480,2082,65535,65700,6,6,4,1460,359375,1,16778212,1230000,33580,37,65700,0,0,0,3433546157,63
i,1724819210.187487,172.16.5.2,41319,172.16.1.2,5102,20262,14480,2082,65535,65700,6,6,4,1460,359375,1,16778212,1230000,33580,37,65700,0,37,0,3433546157,63
o,1724819210.187768,172.16.5.2,41319,172.16.1.2,5102,20262,14517,3106,65728,65728,6,6,4,1460,325937,1,16778212,1300000,33580,4,65700,0,0,0,3433546157,63
o,1724819210.187908,172.16.5.2,41319,172.16.1.2,5102,20262,14517,3106,65728,65728,6,6,4,1460,325937,1,16778212,1300000,33580,130,65700,0,4,0,3433546157,63
i,1724819210.279266,172.16.5.2,41319,172.16.1.2,5102,20262,14517,3106,65728,65728,6,6,4,1460,325937,1,16778212,1300000,33580,130,65700,0,130,0,3433546157,63
i,1724819210.280060,172.16.5.2,41319,172.16.1.2,5102,20262,14647,3106,65600,65728,6,6,4,1460,296562,1,996,1310000,33580,0,65700,0,0,0,3433546157,63
o,1724819210.314439,172.16.5.2,41319,172.16.1.2,5102,20262,14647,3106,65728,65728,6,6,4,1460,296562,1,997,1310000,33580,0,65700,0,0,0,3433546157,63
o,1724819210.373041,172.16.5.2,56865,172.16.1.2,5102,20262,14480,2082,65535,65700,6,6,4,1460,361875,1,16778209,1210000,33580,0,65700,0,0,0,1940099422,63
o,1724819210.373208,172.16.5.2,56865,172.16.1.2,5102,20262,14480,2082,65535,65700,6,6,4,1460,361875,1,16778208,1210000,33580,37,65700,0,0,0,1940099422,63
i,1724819210.469035,172.16.5.2,41319,172.16.1.2,5102,20262,14647,3106,65728,65728,6,6,4,1460,296562,1,996,1310000,33580,0,65700,0,0,0,3433546157,63
i,1724819210.469083,172.16.5.2,41319,172.16.1.2,5102,20262,14647,3106,65728,65728,6,6,4,1460,296562,1,996,1310000,33580,0,65700,1,0,0,3433546157,63
o,1724819210.469104,172.16.5.2,41319,172.16.1.2,5102,20262,14647,3106,65728,65728,6,6,4,1460,296562,1,997,1310000,33580,0,65700,2,0,0,3433546157,63
o,1724819210.469742,172.16.5.2,56865,172.16.1.2,5102,20262,14480,2086,65535,65700,6,6,4,1460,361875,1,16778208,1210000,33580,33580,65700,0,37,0,1940099422,63
i,1724819210.487212,172.16.5.2,56865,172.16.1.2,5102,20262,14480,2086,65535,65700,6,6,4,1460,361875,1,16778208,1210000,33580,33580,65700,0,13069,0,1940099422,63
o,1724819210.487251,172.16.5.2,56865,172.16.1.2,5102,20262,14517,2086,65728,65728,6,6,4,1460,331875,1,16778208,1260000,33580,33543,65700,0,13032,0,1940099422,63
i,1724819210.903104,172.16.5.2,56865,172.16.1.2,5102,20262,14517,2086,65728,65728,6,6,4,1460,331875,1,16778208,1260000,33580,33543,65700,0,14480,0,1940099422,63
o,1724819210.903138,172.16.5.2,56865,172.16.1.2,5102,20262,17413,2086,64256,65728,6,6,4,1460,344375,1,16778208,1190000,33580,30647,65700,0,11584,0,1940099422,63
i,1724819210.903457,172.16.5.2,56865,172.16.1.2,5102,20262,17413,2086,64256,65728,6,6,4,1460,344375,1,16778208,1190000,41772,30647,65700,0,17376,0,1940099422,63
o,1724819210.903474,172.16.5.2,56865,172.16.1.2,5102,20262,20309,2086,64256,65728,6,6,4,1460,355312,1,16778208,1130000,41772,27751,65700,0,14480,0,1940099422,63
i,1724819210.903609,172.16.5.2,56865,172.16.1.2,5102,20262,20309,2086,64256,65728,6,6,4,1460,355312,1,16778208,1130000,41772,27751,65700,0,20272,0,1940099422,63
o,1724819210.903625,172.16.5.2,56865,172.16.1.2,5102,20262,20309,2086,64256,65728,6,6,4,1460,364687,1,16778208,1070000,41772,24855,65700,0,17376,0,1940099422,63
i,1724819210.903759,172.16.5.2,56865,172.16.1.2,5102,20262,20309,2086,64256,65728,6,6,4,1460,364687,1,16778208,1070000,41772,24855,65700,0,20272,0,1940099422,63
o,1724819210.903773,172.16.5.2,56865,172.16.1.2,5102,20262,20309,2086,64256,65728,6,6,4,1460,373125,1,16778208,1020000,41772,21959,65700,0,17376,0,1940099422,63
i,1724819210.922674,172.16.5.2,56865,172.16.1.2,5102,20262,20309,2086,64256,65728,6,6,4,1460,373125,1,16778208,1020000,41772,41772,65700,0,20272,0,1940099422,63
o,1724819210.922738,172.16.5.2,56865,172.16.1.2,5102,20262,20309,2086,64256,65728,6,6,4,1460,382812,1,16778208,990000,41772,38876,65700,0,17376,0,1940099422,63
o,1724819210.922862,172.16.5.2,56865,172.16.1.2,5102,20262,20309,2086,64256,65728,6,6,4,1460,382812,1,16778208,990000,49964,38876,65700,0,18824,0,1940099422,63
i,1724819211.602701,172.16.5.2,56865,172.16.1.2,5102,20262,20309,2086,64256,65728,6,6,4,1460,382812,1,16778208,990000,49964,49964,65700,0,20272,0,1940099422,63
o,1724819211.602751,172.16.5.2,56865,172.16.1.2,5102,20262,20309,2086,64256,65728,6,6,4,1460,422500,1,16778208,1250000,49964,47068,65700,0,17376,0,1940099422,63
i,1724819211.602882,172.16.5.2,56865,172.16.1.2,5102,20262,20309,2086,64256,65728,6,6,4,1460,422500,1,16778208,1250000,49964,47068,65700,0,20272,0,1940099422,63
o,1724819211.602898,172.16.5.2,56865,172.16.1.2,5102,20262,20309,2086,64256,65728,6,6,4,1460,457187,1,16778208,1400000,49964,44172,65700,0,17376,0,1940099422,63
i,1724819211.603118,172.16.5.2,56865,172.16.1.2,5102,20262,20309,2086,64256,65728,6,6,4,1460,457187,1,16778208,1400000,49964,44172,65700,0,20272,0,1940099422,63
o,1724819211.603148,172.16.5.2,56865,172.16.1.2,5102,20262,20309,2086,65728,65728,6,6,4,1460,486562,1,16778208,1480000,49964,42724,65700,0,18824,0,1940099422,63
i,1724819211.603584,172.16.5.2,56865,172.16.1.2,5102,20262,20309,2086,65728,65728,6,6,4,1460,486562,1,16778208,1480000,49964,42724,65700,0,20272,0,1940099422,63
o,1724819211.603604,172.16.5.2,56865,172.16.1.2,5102,20262,21769,2086,64256,65728,6,6,4,1460,513437,1,16778208,1520000,49964,36932,65700,0,14480,0,1940099422,63
i,1724819211.603779,172.16.5.2,56865,172.16.1.2,5102,20262,21769,2086,64256,65728,6,6,4,1460,513437,1,16778208,1520000,49964,36932,65700,0,21720,0,1940099422,63
o,1724819211.603797,172.16.5.2,56865,172.16.1.2,5102,20262,21769,2086,64256,65728,6,6,4,1460,536875,1,16778208,1530000,49964,34036,65700,0,18824,0,1940099422,63
i,1724819211.603982,172.16.5.2,56865,172.16.1.2,5102,20262,21769,2086,64256,65728,6,6,4,1460,536875,1,16778208,1530000,49964,34036,65700,0,21720,0,1940099422,63
o,1724819211.604002,172.16.5.2,56865,172.16.1.2,5102,20262,21769,2086,64256,65728,6,6,4,1460,557500,1,16778208,1520000,49964,31140,65700,0,18824,0,1940099422,63
o,1724819211.604131,172.16.5.2,56865,172.16.1.2,5102,20262,21769,2086,64256,65728,6,6,4,1460,557500,1,16778208,1520000,49964,31140,65700,0,20272,0,1940099422,63
i,1724819211.604331,172.16.5.2,56865,172.16.1.2,5102,20262,21769,2086,64256,65728,6,6,4,1460,557500,1,16778208,1520000,49964,31140,65700,0,21720,0,1940099422,63
o,1724819211.604350,172.16.5.2,56865,172.16.1.2,5102,20262,21769,2086,65728,65728,6,6,4,1460,572812,1,16778208,1470000,49964,29692,65700,0,20272,0,1940099422,63
i,1724819212.240534,172.16.5.2,56865,172.16.1.2,5102,20262,21769,2086,65728,65728,6,6,4,1460,572812,1,16778208,1470000,49964,49964,65700,0,21720,0,1940099422,63
o,1724819212.240575,172.16.5.2,56865,172.16.1.2,5102,20262,21769,2086,64256,65728,6,6,4,1460,581250,1,16778208,1370000,49964,47068,65700,0,18824,0,1940099422,63
i,1724819212.240794,172.16.5.2,56865,172.16.1.2,5102,20262,21769,2086,64256,65728,6,6,4,1460,581250,1,16778208,1370000,49964,47068,65700,0,21720,0,1940099422,63
o,1724819212.240814,172.16.5.2,56865,172.16.1.2,5102,20262,21769,2086,62848,65728,6,6,4,1460,588750,1,16778208,1290000,49964,44172,65700,0,18824,0,1940099422,63
i,1724819212.250419,172.16.5.2,56865,172.16.1.2,5102,20262,21769,2086,62848,65728,6,6,4,1460,588750,1,16778208,1290000,49964,49964,65700,0,21720,0,1940099422,63
o,1724819212.250439,172.16.5.2,56865,172.16.1.2,5102,20262,21769,2086,64256,65728,6,6,4,1460,596562,1,16778208,1230000,49964,47068,65700,0,18824,0,1940099422,63
i,1724819212.250581,172.16.5.2,56865,172.16.1.2,5102,20262,21769,2086,64256,65728,6,6,4,1460,596562,1,16778208,1230000,49964,47068,65700,0,21720,0,1940099422,63
o,1724819212.250603,172.16.5.2,56865,172.16.1.2,5102,20262,21769,2086,64256,65728,6,6,4,1460,602187,1,16778208,1170000,49964,44172,65700,0,18824,0,1940099422,63
i,1724819212.250778,172.16.5.2,56865,172.16.1.2,5102,20262,21769,2086,64256,65728,6,6,4,1460,602187,1,16778208,1170000,49964,44172,65700,0,21720,0,1940099422,63
o,1724819212.250793,172.16.5.2,56865,172.16.1.2,5102,20262,23229,2086,64256,65728,6,6,4,1460,607187,1,16778208,1130000,49964,41276,65700,0,18824,0,1940099422,63
i,1724819212.250930,172.16.5.2,56865,172.16.1.2,5102,20262,23229,2086,64256,65728,6,6,4,1460,607187,1,16778208,1130000,49964,41276,65700,0,23168,0,1940099422,63
o,1724819212.250959,172.16.5.2,56865,172.16.1.2,5102,20262,23229,2086,64256,65728,6,6,4,1460,611562,1,16778208,1090000,49964,38380,65700,0,20272,0,1940099422,63
i,1724819212.251078,172.16.5.2,56865,172.16.1.2,5102,20262,23229,2086,64256,65728,6,6,4,1460,611562,1,16778208,1090000,49964,38380,65700,0,23168,0,1940099422,63
o,1724819212.251093,172.16.5.2,56865,172.16.1.2,5102,20262,23229,2086,64256,65728,6,6,4,1460,615312,1,16778208,1050000,49964,35484,65700,0,20272,0,1940099422,63
o,1724819212.251223,172.16.5.2,56865,172.16.1.2,5102,20262,23229,2086,64256,65728,6,6,4,1460,615312,1,16778208,1050000,49964,35484,65700,0,21720,0,1940099422,63
i,1724819212.779286,172.16.5.2,56865,172.16.1.2,5102,20262,23229,2086,64256,65728,6,6,4,1460,615312,1,16778208,1050000,49964,49964,65700,0,23168,0,1940099422,63
o,1724819212.779320,172.16.5.2,56865,172.16.1.2,5102,20262,23229,2086,64256,65728,6,6,4,1460,605937,1,16778208,1060000,49964,45620,65700,0,18824,0,1940099422,63
i,1724819212.779692,172.16.5.2,56865,172.16.1.2,5102,20262,23229,2086,64256,65728,6,6,4,1460,605937,1,16778208,1060000,58156,45620,65700,0,23168,0,1940099422,63
o,1724819212.779710,172.16.5.2,56865,172.16.1.2,5102,20262,23229,2086,64256,65728,6,6,4,1460,597812,1,16778208,1050000,58156,42724,65700,0,20272,0,1940099422,63
i,1724819212.779863,172.16.5.2,56865,172.16.1.2,5102,20262,23229,2086,64256,65728,6,6,4,1460,597812,1,16778208,1050000,58156,42724,65700,0,23168,0,1940099422,63
o,1724819212.779886,172.16.5.2,56865,172.16.1.2,5102,20262,23229,2086,62848,65728,6,6,4,1460,589375,1,16778208,1050000,58156,39828,65700,0,20272,0,1940099422,63
i,1724819212.780771,172.16.5.2,56865,172.16.1.2,5102,20262,23229,2086,62848,65728,6,6,4,1460,589375,1,16778208,1050000,58156,58156,65700,0,23168,0,1940099422,63
o,1724819212.780794,172.16.5.2,56865,172.16.1.2,5102,20262,23229,2086,62848,65728,6,6,4,1460,582187,1,16778208,1030000,58156,55260,65700,0,20272,0,1940099422,63
i,1724819212.781252,172.16.5.2,56865,172.16.1.2,5102,20262,23229,2086,62848,65728,6,6,4,1460,582187,1,16778208,1030000,58156,58156,65700,0,23168,0,1940099422,63
o,1724819212.781272,172.16.5.2,56865,172.16.1.2,5102,20262,23229,2086,64256,65728,6,6,4,1460,575937,1,16778208,1010000,58156,55260,65700,0,20272,0,1940099422,63
i,1724819212.781540,172.16.5.2,56865,172.16.1.2,5102,20262,23229,2086,64256,65728,6,6,4,1460,575937,1,16778208,1010000,58156,55260,65700,0,23168,0,1940099422,63
o,1724819212.781560,172.16.5.2,56865,172.16.1.2,5102,20262,24689,2086,64256,65728,6,6,4,1460,570312,1,16778208,990000,58156,52364,65700,0,20272,0,1940099422,63
i,1724819212.782863,172.16.5.2,56865,172.16.1.2,5102,20262,24689,2086,64256,65728,6,6,4,1460,570312,1,16778208,990000,58156,57224,65700,0,24616,0,1940099422,63
o,1724819212.782885,172.16.5.2,56865,172.16.1.2,5102,20262,24689,2086,64256,65728,6,6,4,1460,565312,1,16778208,970000,58156,54328,65700,0,21720,0,1940099422,63
o,1724819212.783018,172.16.5.2,56865,172.16.1.2,5102,20262,24689,2086,64256,65728,6,6,4,1460,565312,1,16778208,970000,58156,54328,65700,0,23168,0,1940099422,63
i,1724819213.028270,172.16.5.2,56865,172.16.1.2,5102,20262,24689,2086,64256,65728,6,6,4,1460,565312,1,16778208,970000,58156,58156,65700,0,24616,0,1940099422,63
o,1724819213.028310,172.16.5.2,56865,172.16.1.2,5102,20262,24689,2086,65728,65728,6,6,4,1460,592187,1,16778208,1160000,58156,56708,65700,0,23168,0,1940099422,63
i,1724819213.277357,172.16.5.2,56865,172.16.1.2,5102,20262,24689,2086,65728,65728,6,6,4,1460,592187,1,16778208,1160000,58156,56708,65700,0,24616,0,1940099422,63
o,1724819213.277393,172.16.5.2,56865,172.16.1.2,5102,20262,24689,2086,64256,65728,6,6,4,1460,580937,1,16778208,1150000,58156,53812,65700,0,21720,0,1940099422,63
i,1724819213.357728,172.16.5.2,56865,172.16.1.2,5102,20262,24689,2086,64256,65728,6,6,4,1460,580937,1,16778208,1150000,58156,58156,65700,0,24616,0,1940099422,63
o,1724819213.357760,172.16.5.2,56865,172.16.1.2,5102,20262,24689,2086,64256,65728,6,6,4,1460,580937,1,16778208,1060000,58156,55260,65700,0,21720,0,1940099422,63
i,1724819213.357925,172.16.5.2,56865,172.16.1.2,5102,20262,24689,2086,64256,65728,6,6,4,1460,580937,1,16778208,1060000,58156,55260,65700,0,24616,0,1940099422,63
o,1724819213.357943,172.16.5.2,56865,172.16.1.2,5102,20262,24689,2086,64256,65728,6,6,4,1460,580937,1,16778208,990000,58156,52364,65700,0,21720,0,1940099422,63
i,1724819213.420983,172.16.5.2,56865,172.16.1.2,5102,20262,24689,2086,64256,65728,6,6,4,1460,580937,1,16778208,990000,58156,58156,65700,0,24616,0,1940099422,63
o,1724819213.421017,172.16.5.2,56865,172.16.1.2,5102,20262,24689,2086,65728,65728,6,6,4,1460,588437,1,16778208,1000000,58156,56708,65700,0,23168,0,1940099422,63
i,1724819213.421260,172.16.5.2,56865,172.16.1.2,5102,20262,24689,2086,65728,65728,6,6,4,1460,588437,1,16778208,1000000,58156,56708,65700,0,24616,0,1940099422,63
o,1724819213.421286,172.16.5.2,56865,172.16.1.2,5102,20262,24689,2086,64256,65728,6,6,4,1460,595000,1,16778208,1010000,58156,53812,65700,0,21720,0,1940099422,63
i,1724819213.421436,172.16.5.2,56865,172.16.1.2,5102,20262,24689,2086,64256,65728,6,6,4,1460,595000,1,16778208,1010000,58156,53812,65700,0,24616,0,1940099422,63
o,1724819213.421453,172.16.5.2,56865,172.16.1.2,5102,20262,24689,2086,64256,65728,6,6,4,1460,600625,1,16778208,1010000,58156,50916,65700,0,21720,0,1940099422,63
i,1724819213.422998,172.16.5.2,56865,172.16.1.2,5102,20262,24689,2086,64256,65728,6,6,4,1460,600625,1,16778208,1010000,58156,58156,65700,0,24616,0,1940099422,63
o,1724819213.423059,172.16.5.2,56865,172.16.1.2,5102,20262,26149,2086,64256,65728,6,6,4,1460,605625,1,16778208,1000000,58156,55260,65700,0,21720,0,1940099422,63
i,1724819213.441028,172.16.5.2,56865,172.16.1.2,5102,20262,26149,2086,64256,65728,6,6,4,1460,605625,1,16778208,1000000,58156,58156,65700,0,26064,0,1940099422,63
o,1724819213.441071,172.16.5.2,56865,172.16.1.2,5102,20262,26149,2086,64256,65728,6,6,4,1460,612500,1,16778208,1010000,58156,55260,65700,0,23168,0,1940099422,63
o,1724819213.441211,172.16.5.2,56865,172.16.1.2,5102,20262,26149,2086,64256,65728,6,6,4,1460,612500,1,16778208,1010000,58156,55260,65700,0,24616,0,1940099422,63
i,1724819213.531093,172.16.5.2,56865,172.16.1.2,5102,20262,26149,2086,64256,65728,6,6,4,1460,612500,1,16778208,1010000,58156,58156,65700,0,26064,0,1940099422,63
o,1724819213.531131,172.16.5.2,56865,172.16.1.2,5102,20262,27512,2082,64256,65728,6,6,4,1460,612500,1,16778208,1010000,58156,58156,65700,0,26064,0,1940099422,63
i,1724819213.692234,172.16.5.2,56865,172.16.1.2,5102,20262,26149,2082,64256,65728,6,6,4,1460,612500,1,16778208,1010000,58156,58156,65700,0,27512,0,1940099422,63
o,1724819213.692267,172.16.5.2,56865,172.16.1.2,5102,20262,28960,2082,64256,65728,6,6,4,1460,612500,1,16778208,1010000,58156,58156,65700,0,27512,0,1940099422,63
i,1724819213.692405,172.16.5.2,56865,172.16.1.2,5102,20262,26149,2082,64256,65728,6,6,4,1460,612500,1,16778208,1010000,58156,58156,65700,0,28960,0,1940099422,63
o,1724819213.692422,172.16.5.2,56865,172.16.1.2,5102,13074,1448,2146,64256,65728,6,6,4,1460,612500,1,554697696,1010000,58156,58156,65700,0,28960,0,1940099422,63
i,1724819213.697519,172.16.5.2,56865,172.16.1.2,5102,13074,1448,2146,64256,65728,6,6,4,1460,612500,1,554697696,1010000,58156,58156,65700,0,28960,0,1940099422,63
i,1724819213.759150,172.16.5.2,56865,172.16.1.2,5102,13074,1448,2146,64256,65728,6,6,4,1460,612500,1,554697696,1010000,58156,58156,65700,0,28960,0,1940099422,63
o,1724819213.759150,172.16.5.2,56865,172.16.1.2,5102,13074,2896,2146,64256,65728,6,6,4,1460,612500,1,554697696,1010000,58156,58156,65700,0,28960,0,1940099422,63
i,1724819213.800168,172.16.5.2,56865,172.16.1.2,5102,13074,2896,2146,64256,65728,6,6,4,1460,612500,1,554697696,1010000,58156,58156,65700,0,28960,0,1940099422,63
i,1724819213.899834,172.16.5.2,56865,172.16.1.2,5102,13074,2896,2146,64256,65728,6,6,4,1460,612500,1,554697696,1010000,58156,58156,65700,0,28960,0,1940099422,63
o,1724819213.899864,172.16.5.2,56865,172.16.1.2,5102,13074,4344,2082,64256,65728,6,6,4,1460,612500,1,554697696,1010000,58156,58156,65700,0,28960,0,1940099422,63
i,1724819213.899995,172.16.5.2,56865,172.16.1.2,5102,13074,4344,2082,64256,65728,6,6,4,1460,612500,1,554697696,1010000,58156,58156,65700,0,30408,0,1940099422,63
o,1724819213.900012,172.16.5.2,56865,172.16.1.2,5102,13074,4344,2082,64256,65728,6,6,4,1460,612500,1,554697696,1010000,58156,58156,65700,0,30408,0,1940099422,63
i,1724819213.900386,172.16.5.2,56865,172.16.1.2,5102,13074,4344,2082,64256,65728,6,6,4,1460,612500,1,554697696,1010000,58156,58156,65700,0,30408,0,1940099422,63
i,1724819213.931274,172.16.5.2,56865,172.16.1.2,5102,13074,5792,2082,64256,65728,6,6,4,1460,612500,1,554697696,1010000,58156,58156,65700,0,30408,0,1940099422,63
o,1724819213.931305,172.16.5.2,56865,172.16.1.2,5102,13074,5792,2082,64256,65728,6,6,4,1460,612500,1,554697696,1010000,58156,58156,65700,0,30408,0,1940099422,63
i,1724819213.931467,172.16.5.2,56865,172.16.1.2,5102,13074,5792,2082,64256,65728,6,6,4,1460,612500,1,554697696,1010000,58156,58156,65700,0,30408,0,1940099422,63
o,1724819213.931483,172.16.5.2,56865,172.16.1.2,5102,13074,7240,2082,64256,65728,6,6,4,1460,612500,1,554697696,1010000,58156,58156,65700,0,30408,0,1940099422,63
i,1724819213.983235,172.16.5.2,56865,172.16.1.2,5102,13074,7240,2082,64256,65728,6,6,4,1460,612500,1,554697696,1010000,58156,58156,65700,0,30408,0,1940099422,63
o,1724819213.983512,172.16.5.2,56865,172.16.1.2,5102,13074,8688,2082,64256,65728,6,6,4,1460,612500,1,554697696,1010000,58156,58156,65700,0,30408,0,1940099422,63
i,1724819214.007074,172.16.5.2,56865,172.16.1.2,5102,13074,8688,2082,64256,65728,6,6,4,1460,612500,1,554697696,1010000,58156,58156,65700,0,30408,0,1940099422,63
i,1724819214.007113,172.16.5.2,56865,172.16.1.2,5102,13074,10136,2082,64256,65728,6,6,4,1460,612500,1,554697696,1010000,58156,58156,65700,0,30408,0,1940099422,63
i,1724819214.007167,172.16.5.2,56865,172.16.1.2,5102,13074,10136,2082,64256,65728,6,6,4,1460,612500,1,554697696,1010000,58156,58156,65700,0,30408,0,1940099422,63
o,1724819214.007185,172.16.5.2,56865,172.16.1.2,5102,13074,8688,2082,64256,65728,6,6,4,1460,612500,1,554697697,1010000,58156,58156,65700,0,30408,0,1940099422,63
i,1724819214.057907,172.16.5.2,56865,172.16.1.2,5102,13074,8688,2082,62848,65728,6,6,4,1460,575937,1,554697696,1220000,58156,58156,65700,0,27512,0,1940099422,63
o,1724819214.057937,172.16.5.2,56865,172.16.1.2,5102,13074,7240,2082,62848,65728,6,6,4,1460,575937,1,554697697,1220000,58156,58156,65700,0,27512,0,1940099422,63
i,1724819214.117529,172.16.5.2,56865,172.16.1.2,5102,13074,7240,2082,55616,65728,6,6,4,1460,541562,1,554697696,1350000,58156,58156,65700,0,17376,0,1940099422,63
o,1724819214.117571,172.16.5.2,56865,172.16.1.2,5102,13074,8688,2082,55616,65728,6,6,4,1460,541562,1,554697696,1350000,58156,58156,65700,0,17376,0,1940099422,63
i,1724819214.184244,172.16.5.2,56865,172.16.1.2,5102,13074,8688,2082,55616,65728,6,6,4,1460,541562,1,554697696,1350000,58156,58156,65700,0,18824,0,1940099422,63
o,1724819214.184282,172.16.5.2,56865,172.16.1.2,5102,13074,7240,2082,55616,65728,6,6,4,1460,541562,1,554697697,1350000,58156,58156,65700,0,18824,0,1940099422,63
i,1724819214.184454,172.16.5.2,56865,172.16.1.2,5102,13074,7240,2082,61440,65728,6,6,4,1460,510312,1,554697696,1420000,58156,53812,65700,0,14480,0,1940099422,63
o,1724819214.184471,172.16.5.2,56865,172.16.1.2,5102,13074,10136,2086,61440,65728,6,6,4,1460,510312,1,554697697,1420000,58156,53812,65700,0,14480,0,1940099422,63
i,1724819214.184624,172.16.5.2,56865,172.16.1.2,5102,13074,10136,2086,64256,65728,6,6,4,1460,479062,1,554697696,1460000,58156,52364,65700,0,17376,0,1940099422,63
o,1724819214.184643,172.16.5.2,56865,172.16.1.2,5102,13074,8688,2086,64256,65728,6,6,4,1460,479062,1,554697697,1460000,58156,52364,65700,0,17376,0,1940099422,63
i,1724819214.210754,172.16.5.2,56865,172.16.1.2,5102,13074,8688,2086,61376,65728,6,6,4,1460,451875,1,554697696,1450000,58156,58156,65700,0,13032,0,1940099422,63
o,1724819214.210831,172.16.5.2,56865,172.16.1.2,5102,13074,7252,2086,58496,65728,6,6,4,1460,423125,1,16778208,1450000,58156,50916,65700,0,5792,0,1940099422,63
i,1724819214.355737,172.16.5.2,56865,172.16.1.2,5102,13074,7252,2086,58496,65728,6,6,4,1460,423125,1,16778208,1450000,58156,58156,65700,0,7240,0,1940099422,63
o,1724819214.355850,172.16.5.2,56865,172.16.1.2,5102,13074,8700,2086,65728,65728,6,6,4,1460,400312,1,16778208,1410000,58156,56708,65700,0,5792,0,1940099422,63
i,1724819214.401608,172.16.5.2,56865,172.16.1.2,5102,13074,8700,2086,65728,65728,6,6,4,1460,400312,1,16778208,1410000,58156,56708,65700,0,8688,0,1940099422,63
o,1724819214.401646,172.16.5.2,56865,172.16.1.2,5102,13074,10148,2086,65728,65728,6,6,4,1460,376562,1,16778208,1370000,58156,55260,65700,0,7240,0,1940099422,63
i,1724819214.447584,172.16.5.2,56865,172.16.1.2,5102,13074,10148,2086,65728,65728,6,6,4,1460,376562,1,16778208,1370000,58156,58156,65700,0,10136,0,1940099422,63
o,1724819214.447625,172.16.5.2,56865,172.16.1.2,5102,13074,13044,2086,64256,65728,6,6,4,1460,362187,1,16778208,1270000,58156,55260,65700,0,7240,0,1940099422,63
i,1724819214.511669,172.16.5.2,56865,172.16.1.2,5102,13074,13044,2086,64256,65728,6,6,4,1460,362187,1,16778208,1270000,58156,58156,65700,0,13032,0,1940099422,63
o,1724819214.512316,172.16.5.2,56865,172.16.1.2,5102,13074,14492,2086,65728,65728,6,6,4,1460,354687,1,16778208,1150000,58156,56708,65700,0,11584,0,1940099422,63
o,1724819214.512459,172.16.5.2,56865,172.16.1.2,5102,13074,14492,2086,65728,65728,6,6,4,1460,354687,1,16778208,1150000,58156,56708,65700,0,13032,0,1940099422,63
i,1724819214.542012,172.16.5.2,56865,172.16.1.2,5102,13074,14492,2086,65728,65728,6,6,4,1460,354687,1,16778208,1150000,58156,56708,65700,0,14480,0,1940099422,63
o,1724819214.542046,172.16.5.2,56865,172.16.1.2,5102,13074,14492,2086,64256,65728,6,6,4,1460,333125,1,16778208,1150000,58156,53812,65700,0,11584,0,1940099422,63
i,1724819214.542095,172.16.5.2,56865,172.16.1.2,5102,13074,14492,2086,64256,65728,6,6,4,1460,333125,1,16778208,1150000,58156,53812,65700,0,14480,0,1940099422,63
o,1724819214.542095,172.16.5.2,56865,172.16.1.2,5102,13074,14492,2086,64256,65728,6,6,4,1460,309062,1,16778208,1160000,58156,50916,65700,0,11584,0,1940099422,63
i,1724819214.774124,172.16.5.2,56865,172.16.1.2,5102,13074,14492,2086,64256,65728,6,6,4,1460,309062,1,16778208,1160000,58156,58156,65700,0,14480,0,1940099422,63
o,1724819214.774156,172.16.5.2,56865,172.16.1.2,5102,13074,14492,2086,64256,65728,6,6,4,1460,310625,1,16778208,1010000,58156,55260,65700,0,11584,0,1940099422,63
i,1724819214.774301,172.16.5.2,56865,172.16.1.2,5102,13074,14492,2086,64256,65728,6,6,4,1460,310625,1,16778208,1010000,58156,55260,65700,0,14480,0,1940099422,63
o,1724819214.774317,172.16.5.2,56865,172.16.1.2,5102,13074,14492,2086,64256,65728,6,6,4,1460,311875,1,16778208,900000,58156,52364,65700,0,11584,0,1940099422,63
i,1724819214.961693,172.16.5.2,56865,172.16.1.2,5102,13074,14492,2086,64256,65728,6,6,4,1460,311875,1,16778208,900000,58156,58156,65700,0,14480,0,1940099422,63
o,1724819214.961766,172.16.5.2,56865,172.16.1.2,5102,13074,14492,2086,64256,65728,6,6,4,1460,329375,1,16778208,960000,58156,55260,65700,0,11584,0,1940099422,63
o,1724819214.961879,172.16.5.2,56865,172.16.1.2,5102,13074,14492,2086,64256,65728,6,6,4,1460,329375,1,16778208,960000,58156,55260,65700,0,13032,0,1940099422,63
i,1724819214.962058,172.16.5.2,56865,172.16.1.2,5102,13074,14492,2086,64256,65728,6,6,4,1460,329375,1,16778208,960000,58156,55260,65700,0,14480,0,1940099422,63
o,1724819214.962084,172.16.5.2,56865,172.16.1.2,5102,13074,15952,2086,64256,65728,6,6,4,1460,340937,1,16778208,960000,58156,52364,65700,0,11584,0,1940099422,63
i,1724819215.054802,172.16.5.2,56865,172.16.1.2,5102,13074,15952,2086,64256,65728,6,6,4,1460,340937,1,16778208,960000,58156,58156,65700,0,15928,0,1940099422,63
o,1724819215.054846,172.16.5.2,56865,172.16.1.2,5102,13074,15952,2086,64256,65728,6,6,4,1460,363437,1,16778208,1050000,58156,55260,65700,0,13032,0,1940099422,63
i,1724819215.075114,172.16.5.2,56865,172.16.1.2,5102,13074,15952,2086,64256,65728,6,6,4,1460,363437,1,16778208,1050000,58156,58156,65700,0,15928,0,1940099422,63
o,1724819215.075144,172.16.5.2,56865,172.16.1.2,5102,13074,15952,2086,64256,65728,6,6,4,1460,355625,1,16778208,990000,58156,55260,65700,0,13032,0,1940099422,63
i,1724819215.113673,172.16.5.2,56865,172.16.1.2,5102,13074,15952,2086,64256,65728,6,6,4,1460,355625,1,16778208,990000,58156,58156,65700,0,15928,0,1940099422,63
o,1724819215.113706,172.16.5.2,56865,172.16.1.2,5102,13074,15952,2086,64256,65728,6,6,4,1460,353750,1,16778208,890000,58156,55260,65700,0,13032,0,1940099422,63
i,1724819215.222649,172.16.5.2,56865,172.16.1.2,5102,13074,15952,2086,64256,65728,6,6,4,1460,353750,1,16778208,890000,58156,58156,65700,0,15928,0,1940099422,63
o,1724819215.222756,172.16.5.2,56865,172.16.1.2,5102,13074,15952,2086,64256,65728,6,6,4,1460,342187,1,16778208,890000,58156,55260,65700,0,13032,0,1940099422,63
o,1724819215.222904,172.16.5.2,56865,172.16.1.2,5102,13074,15952,2086,64256,65728,6,6,4,1460,342187,1,16778208,890000,58156,55260,65700,0,14480,0,1940099422,63
i,1724819215.334566,172.16.5.2,56865,172.16.1.2,5102,13074,15952,2086,64256,65728,6,6,4,1460,342187,1,16778208,890000,58156,58156,65700,0,15928,0,1940099422,63
o,1724819215.334609,172.16.5.2,56865,172.16.1.2,5102,13074,17412,2086,64256,65728,6,6,4,1460,347187,1,16778208,840000,58156,55260,65700,0,13032,0,1940099422,63
i,1724819215.469039,172.16.5.2,56865,172.16.1.2,5102,13074,17412,2086,64256,65728,6,6,4,1460,347187,1,16778208,840000,58156,58156,65700,0,17376,0,1940099422,63
o,1724819215.469075,172.16.5.2,56865,172.16.1.2,5102,13074,17412,2086,65728,65728,6,6,4,1460,367812,1,16778208,960000,58156,56708,65700,0,15928,0,1940099422,63
i,1724819215.469241,172.16.5.2,56865,172.16.1.2,5102,13074,17412,2086,65728,65728,6,6,4,1460,367812,1,16778208,960000,58156,56708,65700,0,17376,0,1940099422,63
o,1724819215.469281,172.16.5.2,56865,172.16.1.2,5102,13074,17412,2086,65728,65728,6,6,4,1460,373125,1,16778208,910000,58156,55260,65700,0,15928,0,1940099422,63
i,1724819215.469467,172.16.5.2,56865,172.16.1.2,5102,13074,17412,2086,65728,65728,6,6,4,1460,373125,1,16778208,910000,58156,55260,65700,0,17376,0,1940099422,63
o,1724819215.469492,172.16.5.2,56865,172.16.1.2,5102,13074,17412,2086,64256,65728,6,6,4,1460,377812,1,16778208,870000,58156,52364,65700,0,14480,0,1940099422,63
i,1724819215.500832,172.16.5.2,56865,172.16.1.2,5102,13074,17412,2086,64256,65728,6,6,4,1460,377812,1,16778208,870000,58156,58156,65700,0,17376,0,1940099422,63
o,1724819215.500914,172.16.5.2,56865,172.16.1.2,5102,13074,17412,2086,62848,65728,6,6,4,1460,383125,1,16778208,840000,58156,55260,65700,0,14480,0,1940099422,63
i,1724819215.501121,172.16.5.2,56865,172.16.1.2,5102,13074,17412,2086,62848,65728,6,6,4,1460,383125,1,16778208,840000,58156,55260,65700,0,17376,0,1940099422,63
o,1724819215.501152,172.16.5.2,56865,172.16.1.2,5102,13074,17412,2086,65728,65728,6,6,4,1460,382812,1,16778208,780000,58156,53812,65700,0,15928,0,1940099422,63
i,1724819215.501374,172.16.5.2,56865,172.16.1.2,5102,13074,17412,2086,65728,65728,6,6,4,1460,382812,1,16778208,780000,58156,53812,65700,0,17376,0,1940099422,63
o,1724819215.501402,172.16.5.2,56865,172.16.1.2,5102,13074,17412,2086,65728,65728,6,6,4,1460,370000,1,16778208,820000,58156,52364,65700,0,15928,0,1940099422,63
i,1724819215.549584,172.16.5.2,56865,172.16.1.2,5102,13074,17412,2086,65728,65728,6,6,4,1460,370000,1,16778208,820000,58156,58156,65700,0,17376,0,1940099422,63
o,1724819215.549673,172.16.5.2,56865,172.16.1.2,5102,13074,17412,2086,64256,65728,6,6,4,1460,365000,1,16778208,790000,58156,55260,65700,0,14480,0,1940099422,63
i,1724819215.644168,172.16.5.2,56865,172.16.1.2,5102,13074,17412,2086,64256,65728,6,6,4,1460,365000,1,16778208,790000,58156,58156,65700,0,17376,0,1940099422,63
o,1724819215.644203,172.16.5.2,56865,172.16.1.2,5102,13074,18872,2086,64256,65728,6,6,4,1460,358125,1,16778208,780000,58156,55260,65700,0,14480,0,1940099422,63
i,1724819215.856579,172.16.5.2,56865,172.16.1.2,5102,13074,18872,2086,64256,65728,6,6,4,1460,358125,1,16778208,780000,58156,58156,65700,0,18824,0,1940099422,63
o,1724819215.856615,172.16.5.2,56865,172.16.1.2,5102,13074,18872,2086,64256,65728,6,6,4,1460,362187,1,16778208,760000,58156,55260,65700,0,15928,0,1940099422,63
i,1724819215.856793,172.16.5.2,56865,172.16.1.2,5102,13074,18872,2086,64256,65728,6,6,4,1460,362187,1,16778208,760000,58156,55260,65700,0,18824,0,1940099422,63
o,1724819215.856813,172.16.5.2,56865,172.16.1.2,5102,13074,18872,2086,64256,65728,6,6,4,1460,365937,1,16778208,750000,58156,52364,65700,0,15928,0,1940099422,63
i,1724819215.887458,172.16.5.2,56865,172.16.1.2,5102,13074,18872,2086,64256,65728,6,6,4,1460,365937,1,16778208,750000,58156,58156,65700,0,18824,0,1940099422,63
o,1724819215.887484,172.16.5.2,56865,172.16.1.2,5102,13074,18872,2086,64256,65728,6,6,4,1460,369062,1,16778208,730000,58156,55260,65700,0,15928,0,1940099422,63
i,1724819215.887636,172.16.5.2,56865,172.16.1.2,5102,13074,18872,2086,64256,65728,6,6,4,1460,369062,1,16778208,730000,58156,55260,65700,0,18824,0,1940099422,63
o,1724819215.887653,172.16.5.2,56865,172.16.1.2,5102,13074,18872,2086,64256,65728,6,6,4,1460,371875,1,16778208,710000,58156,52364,65700,0,15928,0,1940099422,63
o,1724819215.887842,172.16.5.2,56865,172.16.1.2,5102,13074,18872,2086,64256,65728,6,6,4,1460,371875,1,16778208,710000,58156,52364,65700,0,17376,0,1940099422,63
i,1724819215.982638,172.16.5.2,56865,172.16.1.2,5102,13074,18872,2086,64256,65728,6,6,4,1460,371875,1,16778208,710000,58156,58156,65700,0,18824,0,1940099422,63
o,1724819215.982671,172.16.5.2,56865,172.16.1.2,5102,13074,18872,2086,64256,65728,6,6,4,1460,379375,1,16778208,750000,58156,55260,65700,0,15928,0,1940099422,63
i,1724819216.254213,172.16.5.2,56865,172.16.1.2,5102,13074,18872,2086,64256,65728,6,6,4,1460,379375,1,16778208,750000,58156,58156,65700,0,18824,0,1940099422,63
o,1724819216.254246,172.16.5.2,56865,172.16.1.2,5102,13074,18872,2086,64256,65728,6,6,4,1460,408437,1,16778208,970000,58156,55260,65700,0,15928,0,1940099422,63
i,1724819216.254449,172.16.5.2,56865,172.16.1.2,5102,13074,18872,2086,64256,65728,6,6,4,1460,408437,1,16778208,970000,58156,55260,65700,0,18824,0,1940099422,63
o,1724819216.254466,172.16.5.2,56865,172.16.1.2,5102,13074,20332,2086,65728,65728,6,6,4,1460,433750,1,16778208,1100000,58156,53812,65700,0,17376,0,1940099422,63
i,1724819216.280852,172.16.5.2,56865,172.16.1.2,5102,13074,20332,2086,65728,65728,6,6,4,1460,433750,1,16778208,1100000,58156,56528,65700,0,20272,0,1940099422,63
o,1724819216.280879,172.16.5.2,56865,172.16.1.2,5102,13074,20332,2086,64256,65728,6,6,4,1460,432187,1,16778208,1000000,58156,53632,65700,0,17376,0,1940099422,63
i,1724819216.281135,172.16.5.2,56865,172.16.1.2,5102,13074,20332,2086,64256,65728,6,6,4,1460,432187,1,16778208,1000000,58156,53632,65700,0,20272,0,1940099422,63
o,1724819216.281159,172.16.5.2,56865,172.16.1.2,5102,13074,20332,2086,65728,65728,6,6,4,1460,430937,1,16778208,910000,58156,52184,65700,0,18824,0,1940099422,63
i,1724819216.281283,172.16.5.2,56865,172.16.1.2,5102,13074,20332,2086,65728,65728,6,6,4,1460,430937,1,16778208,910000,58156,52184,65700,0,20272,0,1940099422,63
o,1724819216.281298,172.16.5.2,56865,172.16.1.2,5102,13074,20332,2086,64256,65728,6,6,4,1460,429687,1,16778208,850000,58156,49288,65700,0,17376,0,1940099422,63
i,1724819216.282308,172.16.5.2,56865,172.16.1.2,5102,13074,20332,2086,64256,65728,6,6,4,1460,429687,1,16778208,850000,58156,58156,65700,0,20272,0,1940099422,63
o,1724819216.282332,172.16.5.2,56865,172.16.1.2,5102,13074,20332,2086,65728,65728,6,6,4,1460,425000,1,16778208,830000,58156,56708,65700,0,18824,0,1940099422,63
i,1724819216.282497,172.16.5.2,56865,172.16.1.2,5102,13074,20332,2086,65728,65728,6,6,4,1460,425000,1,16778208,830000,58156,56708,65700,0,20272,0,1940099422,63
i,1724819216.323504,172.16.5.2,56865,172.16.1.2,5102,13074,20332,2086,65728,65728,6,6,4,1460,425000,1,992,830000,58156,56708,65700,0,20272,0,1940099422,63
o,1724819216.323531,172.16.5.2,56865,172.16.1.2,5102,10166,1448,2146,65728,65728,6,6,4,1460,425000,1,554697696,830000,58156,56708,65700,0,20272,0,1940099422,63
i,1724819216.713858,172.16.5.2,56865,172.16.1.2,5102,10166,1448,2146,65728,65728,6,6,4,1460,425000,1,554697696,830000,58156,56708,65700,0,20272,0,1940099422,63
o,1724819216.713900,172.16.5.2,56865,172.16.1.2,5102,10166,2896,2082,65728,65728,6,6,4,1460,425000,1,554697696,830000,58156,56708,65700,0,20272,0,1940099422,63
i,1724819216.714069,172.16.5.2,56865,172.16.1.2,5102,10166,2896,2082,65728,65728,6,6,4,1460,425000,1,554697696,830000,58156,56708,65700,0,21720,0,1940099422,63
i,1724819216.714097,172.16.5.2,56865,172.16.1.2,5102,10166,2896,2082,65728,65728,6,6,4,1460,425000,1,554697696,830000,58156,56708,65700,0,21720,0,1940099422,63
o,1724819216.714119,172.16.5.2,56865,172.16.1.2,5102,10166,4344,2082,65728,65728,6,6,4,1460,425000,1,554697696,830000,58156,56708,65700,0,21720,0,1940099422,63
i,1724819216.722384,172.16.5.2,56865,172.16.1.2,5102,10166,4344,2082,65728,65728,6,6,4,1460,425000,1,554697696,830000,58156,56708,65700,0,23168,0,1940099422,63
i,1724819216.722435,172.16.5.2,56865,172.16.1.2,5102,10166,4344,2082,65728,65728,6,6,4,1460,425000,1,554697696,830000,58156,56708,65700,0,23168,0,1940099422,63
o,1724819216.722457,172.16.5.2,56865,172.16.1.2,5102,10166,5792,2082,65728,65728,6,6,4,1460,425000,1,554697696,830000,58156,56708,65700,0,23168,0,1940099422,63
i,1724819216.722617,172.16.5.2,56865,172.16.1.2,5102,10166,5792,2082,65728,65728,6,6,4,1460,425000,1,554697696,830000,58156,56708,65700,0,24616,0,1940099422,63
i,1724819216.722667,172.16.5.2,56865,172.16.1.2,5102,10166,5792,2082,65728,65728,6,6,4,1460,425000,1,554697696,830000,58156,56708,65700,0,24616,0,1940099422,63
o,1724819216.722685,172.16.5.2,56865,172.16.1.2,5102,10166,7240,2082,65728,65728,6,6,4,1460,425000,1,554697696,830000,58156,56708,65700,0,24616,0,1940099422,63
i,1724819216.722883,172.16.5.2,56865,172.16.1.2,5102,10166,7240,2082,65728,65728,6,6,4,1460,425000,1,554697696,830000,58156,56708,65700,0,26064,0,1940099422,63
i,1724819216.722916,172.16.5.2,56865,172.16.1.2,5102,10166,7240,2082,65728,65728,6,6,4,1460,425000,1,554697696,830000,58156,56708,65700,0,26064,0,1940099422,63
i,1724819216.722980,172.16.5.2,56865,172.16.1.2,5102,10166,7240,2082,65728,65728,6,6,4,1460,425000,1,554697696,830000,58156,56708,65700,0,26064,0,1940099422,63
o,1724819216.722999,172.16.5.2,56865,172.16.1.2,5102,10166,8688,2082,65728,65728,6,6,4,1460,425000,1,554697696,830000,58156,56708,65700,0,26064,0,1940099422,63
i,1724819216.833414,172.16.5.2,56865,172.16.1.2,5102,10166,8688,2082,65728,65728,6,6,4,1460,425000,1,554697696,830000,58156,56708,65700,0,27512,0,1940099422,63
o,1724819216.833450,172.16.5.2,56865,172.16.1.2,5102,6669,2895,2146,65728,65728,6,6,4,1460,425000,1,554697697,830000,58156,56708,65700,0,27512,0,1940099422,63
i,1724819216.833616,172.16.5.2,56865,172.16.1.2,5102,6669,2895,2146,45504,65728,6,6,4,1460,435625,1,554697696,870000,58156,36436,65700,0,7240,0,1940099422,63
i,1724819217.061147,172.16.5.2,56865,172.16.1.2,5102,6669,2895,2146,65728,65728,6,6,4,1460,435625,1,554697696,870000,58156,58156,65700,0,7240,0,1940099422,63
o,1724819217.061178,172.16.5.2,56865,172.16.1.2,5102,6669,2895,2082,65728,65728,6,6,4,1460,435625,1,554697697,870000,58156,58156,65700,0,7240,0,1940099422,63
i,1724819217.105832,172.16.5.2,56865,172.16.1.2,5102,6669,2895,2082,65728,65728,6,6,4,1460,423750,1,554697696,900000,58156,56708,65700,0,7239,0,1940099422,63
o,1724819217.105861,172.16.5.2,56865,172.16.1.2,5102,6669,5790,2086,65728,65728,6,6,4,1460,423750,1,554697697,900000,58156,56708,65700,0,7239,0,1940099422,63
i,1724819217.106065,172.16.5.2,56865,172.16.1.2,5102,6669,5790,2086,64256,65728,6,6,4,1460,419687,1,554697696,860000,58156,53812,65700,0,7239,0,1940099422,63
o,1724819217.106082,172.16.5.2,56865,172.16.1.2,5102,6669,6669,2082,64256,65728,6,6,4,1460,419687,1,554697697,860000,58156,53812,65700,0,7239,0,1940099422,63
o,1724819217.106199,172.16.5.2,56865,172.16.1.2,5102,6669,6669,2086,64256,65728,6,6,4,1460,419687,1,554697696,860000,58156,53812,65700,0,7239,0,1940099422,63
i,1724819217.265648,172.16.5.2,56865,172.16.1.2,5102,6669,6669,2086,64256,65728,6,6,4,1460,416250,1,554697696,820000,58156,58156,65700,0,5791,0,1940099422,63
i,1724819217.291428,172.16.5.2,56865,172.16.1.2,5102,6669,6669,2086,65728,65728,6,6,4,1460,416250,1,554697696,820000,58156,58156,65700,0,5791,0,1940099422,63
i,1724819217.291481,172.16.5.2,56865,172.16.1.2,5102,6669,4355,2086,65728,65728,6,6,4,1460,393125,1,992,930000,58156,56709,65700,0,4344,0,1940099422,63
o,1724819217.291520,172.16.5.2,56865,172.16.1.2,5102,6669,7251,2086,64256,65728,6,6,4,1460,366562,1,16778208,1030000,58156,53813,65700,0,1448,0,1940099422,63
o,1724819217.291686,172.16.5.2,56865,172.16.1.2,5102,6669,7251,2086,64256,65728,6,6,4,1460,366562,1,16778208,1030000,58156,53813,65700,0,2896,0,1940099422,63
i,1724819217.457391,172.16.5.2,56865,172.16.1.2,5102,6669,7251,2086,64256,65728,6,6,4,1460,366562,1,16778208,1030000,58156,58156,65700,0,7240,0,1940099422,63
o,1724819217.457469,172.16.5.2,56865,172.16.1.2,5102,6669,7251,2082,65728,65728,6,6,4,1460,364687,1,16778208,930000,58156,56708,65700,0,5792,0,1940099422,63
i,1724819217.586968,172.16.5.2,56865,172.16.1.2,5102,6669,7251,2082,65728,65728,6,6,4,1460,364687,1,16778208,930000,58156,56708,65700,0,7240,0,1940099422,63
i,1724819217.633602,172.16.5.2,56865,172.16.1.2,5102,6669,7251,2082,65728,65728,6,6,4,1460,364687,1,16778208,930000,58156,56708,65700,0,7240,0,1940099422,63
o,1724819217.633690,172.16.5.2,56865,172.16.1.2,5102,6669,7251,2086,64256,65728,6,6,4,1460,361875,1,16778208,860000,58156,53812,65700,0,4344,0,1940099422,63
o,1724819217.633842,172.16.5.2,56865,172.16.1.2,5102,6669,7251,2082,64256,65728,6,6,4,1460,361875,1,16778208,860000,58156,53812,65700,0,5792,0,1940099422,63
i,1724819217.635710,172.16.5.2,56865,172.16.1.2,5102,6669,7251,2082,64256,65728,6,6,4,1460,361875,1,16778208,860000,58156,58156,65700,0,7240,0,1940099422,63
o,1724819217.635775,172.16.5.2,56865,172.16.1.2,5102,6669,7251,2086,64256,65728,6,6,4,1460,359375,1,16778208,800000,58156,55260,65700,0,4344,0,1940099422,63
i,1724819217.780092,172.16.5.2,56865,172.16.1.2,5102,6669,7251,2086,64256,65728,6,6,4,1460,359375,1,16778208,800000,58156,58156,65700,0,7240,0,1940099422,63
o,1724819217.780125,172.16.5.2,56865,172.16.1.2,5102,6669,8711,2086,65728,65728,6,6,4,1460,354687,1,16778208,770000,58156,56708,65700,0,5792,0,1940099422,63
i,1724819218.005893,172.16.5.2,56865,172.16.1.2,5102,6669,8711,2086,65728,65728,6,6,4,1460,354687,1,16778208,770000,58156,56708,65700,0,8688,0,1940099422,63
o,1724819218.006026,172.16.5.2,56865,172.16.1.2,5102,6669,8711,2086,64256,65728,6,6,4,1460,356875,1,16778208,740000,58156,53812,65700,0,5792,0,1940099422,63
o,1724819218.006206,172.16.5.2,56865,172.16.1.2,5102,6669,8711,2086,64256,65728,6,6,4,1460,356875,1,16778208,740000,58156,53812,65700,0,7240,0,1940099422,63
i,1724819218.017121,172.16.5.2,56865,172.16.1.2,5102,6669,8711,2086,64256,65728,6,6,4,1460,356875,1,16778208,740000,58156,58156,65700,0,8688,0,1940099422,63
o,1724819218.017201,172.16.5.2,56865,172.16.1.2,5102,6669,8711,2086,64256,65728,6,6,4,1460,360000,1,16778208,720000,58156,55260,65700,0,5792,0,1940099422,63
i,1724819218.242448,172.16.5.2,56865,172.16.1.2,5102,6669,8711,2086,64256,65728,6,6,4,1460,360000,1,16778208,720000,58156,58156,65700,0,8688,0,1940099422,63
o,1724819218.243094,172.16.5.2,56865,172.16.1.2,5102,6669,10171,2086,64256,65728,6,6,4,1460,372500,1,16778208,790000,58156,55260,65700,0,5792,0,1940099422,63
i,1724819218.447494,172.16.5.2,56865,172.16.1.2,5102,6669,10171,2086,64256,65728,6,6,4,1460,372500,1,16778208,790000,58156,58156,65700,0,10136,0,1940099422,63
o,1724819218.447563,172.16.5.2,56865,172.16.1.2,5102,6669,10171,2086,64256,65728,6,6,4,1460,380937,1,16778208,810000,58156,55260,65700,0,7240,0,1940099422,63
o,1724819218.447767,172.16.5.2,56865,172.16.1.2,5102,6669,10171,2086,64256,65728,6,6,4,1460,380937,1,16778208,810000,58156,55260,65700,0,8688,0,1940099422,63
i,1724819218.447991,172.16.5.2,56865,172.16.1.2,5102,6669,10171,2086,64256,65728,6,6,4,1460,380937,1,16778208,810000,58156,55260,65700,0,10136,0,1940099422,63
o,1724819218.448010,172.16.5.2,56865,172.16.1.2,5102,6669,10171,2086,64256,65728,6,6,4,1460,387187,1,16778208,810000,58156,52364,65700,0,7240,0,1940099422,63
i,1724819218.577920,172.16.5.2,56865,172.16.1.2,5102,6669,10171,2086,64256,65728,6,6,4,1460,387187,1,16778208,810000,58156,58156,65700,0,10136,0,1940099422,63
o,1724819218.577968,172.16.5.2,56865,172.16.1.2,5102,6669,10171,2086,64256,65728,6,6,4,1460,381562,1,16778208,790000,58156,55260,65700,0,7240,0,1940099422,63
i,1724819218.914942,172.16.5.2,56865,172.16.1.2,5102,6669,10171,2086,64256,65728,6,6,4,1460,381562,1,16778208,790000,58156,58156,65700,0,10136,0,1940099422,63
o,1724819218.915040,172.16.5.2,56865,172.16.1.2,5102,6669,11631,2086,64256,65728,6,6,4,1460,392812,1,16778208,840000,58156,53812,65700,0,5792,0,1940099422,63
o,1724819218.915201,172.16.5.2,56865,172.16.1.2,5102,6669,11631,2086,64256,65728,6,6,4,1460,392812,1,16778208,840000,58156,53812,65700,0,7240,0,1940099422,63
i,1724819219.146271,172.16.5.2,56865,172.16.1.2,5102,6669,11631,2086,64256,65728,6,6,4,1460,392812,1,16778208,840000,58156,58156,65700,0,11584,0,1940099422,63
o,1724819219.146382,172.16.5.2,56865,172.16.1.2,5102,6669,11631,2086,64256,65728,6,6,4,1460,431250,1,16778208,1130000,58156,55260,65700,0,8688,0,1940099422,63
i,1724819219.160646,172.16.5.2,56865,172.16.1.2,5102,6669,11631,2086,64256,65728,6,6,4,1460,431250,1,16778208,1130000,58156,58156,65700,0,11584,0,1940099422,63
o,1724819219.160669,172.16.5.2,56865,172.16.1.2,5102,6669,11631,2086,64256,65728,6,6,4,1460,450000,1,16778208,1170000,58156,55260,65700,0,8688,0,1940099422,63
i,1724819219.400111,172.16.5.2,56865,172.16.1.2,5102,6669,11631,2086,64256,65728,6,6,4,1460,450000,1,16778208,1170000,58156,58156,65700,0,11584,0,1940099422,63
o,1724819219.400153,172.16.5.2,56865,172.16.1.2,5102,6669,13091,2086,64256,65728,6,6,4,1460,453750,1,16778208,1070000,58156,55260,65700,0,8688,0,1940099422,63
o,1724819219.400311,172.16.5.2,56865,172.16.1.2,5102,6669,13091,2086,64256,65728,6,6,4,1460,453750,1,16778208,1070000,58156,55260,65700,0,10136,0,1940099422,63
i,1724819219.400468,172.16.5.2,56865,172.16.1.2,5102,6669,13091,2086,64256,65728,6,6,4,1460,453750,1,16778208,1070000,58156,55260,65700,0,13032,0,1940099422,63
o,1724819219.400488,172.16.5.2,56865,172.16.1.2,5102,6669,13091,2086,65728,65728,6,6,4,1460,457187,1,16778208,1000000,58156,53812,65700,0,11584,0,1940099422,63
i,1724819219.400642,172.16.5.2,56865,172.16.1.2,5102,6669,13091,2086,65728,65728,6,6,4,1460,457187,1,16778208,1000000,58156,53812,65700,0,13032,0,1940099422,63
o,1724819219.400661,172.16.5.2,56865,172.16.1.2,5102,6669,13091,2086,65728,65728,6,6,4,1460,460312,1,16778208,940000,58156,52364,65700,0,11584,0,1940099422,63
i,1724819219.575033,172.16.5.2,56865,172.16.1.2,5102,6669,13091,2086,65728,65728,6,6,4,1460,460312,1,16778208,940000,58156,58156,65700,0,13032,0,1940099422,63
o,1724819219.575131,172.16.5.2,56865,172.16.1.2,5102,6669,13091,2086,64256,65728,6,6,4,1460,456562,1,16778208,900000,58156,55260,65700,0,10136,0,1940099422,63
i,1724819219.575291,172.16.5.2,56865,172.16.1.2,5102,6669,13091,2086,64256,65728,6,6,4,1460,456562,1,16778208,900000,58156,55260,65700,0,13032,0,1940099422,63
o,1724819219.575316,172.16.5.2,56865,172.16.1.2,5102,6669,13091,2086,64256,65728,6,6,4,1460,452187,1,16778208,870000,58156,52364,65700,0,10136,0,1940099422,63
i,1724819219.793897,172.16.5.2,56865,172.16.1.2,5102,6669,13091,2086,64256,65728,6,6,4,1460,452187,1,16778208,870000,58156,58156,65700,0,13032,0,1940099422,63
o,1724819219.793980,172.16.5.2,56865,172.16.1.2,5102,6669,14551,2086,64256,65728,6,6,4,1460,444687,1,16778208,870000,58156,52364,65700,0,7240,0,1940099422,63
o,1724819219.794092,172.16.5.2,56865,172.16.1.2,5102,6669,14551,2086,64256,65728,6,6,4,1460,444687,1,16778208,870000,58156,52364,65700,0,8688,0,1940099422,63
i,1724819219.969449,172.16.5.2,56865,172.16.1.2,5102,6669,14551,2086,64256,65728,6,6,4,1460,444687,1,16778208,870000,58156,58156,65700,0,14480,0,1940099422,63
o,1724819219.969494,172.16.5.2,56865,172.16.1.2,5102,6669,14551,2086,65728,65728,6,6,4,1460,460625,1,16778208,960000,58156,56708,65700,0,13032,0,1940099422,63
i,1724819219.969703,172.16.5.2,56865,172.16.1.2,5102,6669,14551,2086,65728,65728,6,6,4,1460,460625,1,16778208,960000,58156,56708,65700,0,14480,0,1940099422,63
o,1724819219.969721,172.16.5.2,56865,172.16.1.2,5102,6669,14551,2086,62848,65728,6,6,4,1460,451875,1,16778208,940000,58156,50916,65700,0,8688,0,1940099422,63
i,1724819220.128194,172.16.5.2,56865,172.16.1.2,5102,6669,14551,2086,62848,65728,6,6,4,1460,451875,1,16778208,940000,58156,58156,65700,0,14480,0,1940099422,63
o,1724819220.128274,172.16.5.2,56865,172.16.1.2,5102,6669,16011,2086,64256,65728,6,6,4,1460,436875,1,16778208,970000,58156,52364,65700,0,8688,0,1940099422,63
o,1724819220.128390,172.16.5.2,56865,172.16.1.2,5102,6669,16011,2086,64256,65728,6,6,4,1460,436875,1,16778208,970000,58156,52364,65700,0,10136,0,1940099422,63
i,1724819220.293000,172.16.5.2,56865,172.16.1.2,5102,6669,16011,2086,64256,65728,6,6,4,1460,436875,1,16778208,970000,58156,58156,65700,0,15928,0,1940099422,63
o,1724819220.293041,172.16.5.2,56865,172.16.1.2,5102,6669,16011,2086,65728,65728,6,6,4,1460,443750,1,16778208,950000,58156,56708,65700,0,14480,0,1940099422,63
i,1724819220.384874,172.16.5.2,56865,172.16.1.2,5102,6669,16011,2086,65728,65728,6,6,4,1460,443750,1,16778208,950000,58156,56708,65700,0,15928,0,1940099422,63
o,1724819220.384906,172.16.5.2,56865,172.16.1.2,5102,6669,16011,2086,64256,65728,6,6,4,1460,440937,1,16778208,890000,58156,53812,65700,0,13032,0,1940099422,63
i,1724819220.385036,172.16.5.2,56865,172.16.1.2,5102,6669,16011,2086,64256,65728,6,6,4,1460,440937,1,16778208,890000,58156,53812,65700,0,15928,0,1940099422,63
o,1724819220.385053,172.16.5.2,56865,172.16.1.2,5102,6669,16011,2086,62848,65728,6,6,4,1460,438437,1,16778208,850000,58156,50916,65700,0,13032,0,1940099422,63
i,1724819220.495028,172.16.5.2,56865,172.16.1.2,5102,6669,16011,2086,62848,65728,6,6,4,1460,438437,1,16778208,850000,58156,58156,65700,0,15928,0,1940099422,63
o,1724819220.495068,172.16.5.2,56865,172.16.1.2,5102,6669,16011,2086,65728,65728,6,6,4,1460,450000,1,16778208,900000,58156,56708,65700,0,14480,0,1940099422,63
