enable_time_secs=1724819030	enable_time_usecs=454364	siftrver=1.3.0	sysname=FreeBSD	sysver=1401000	ipmode=4
o,1724819030.454693,10.0.2.15,22,10.0.2.2,51118,1073725440,17746,1026,65535,65700,0,0,4,1460,312,0,16777220,240000,33580,172,65700,0,0,0,513856113,63
o,1724819030.454890,10.0.2.15,22,10.0.2.2,51118,1073725440,17746,1026,65535,65700,0,0,4,1460,312,0,16777220,240000,33580,244,65700,0,172,0,513856113,63
i,1724819030.455192,10.0.2.15,22,10.0.2.2,51118,1073725440,17746,1026,65535,65700,0,0,4,1460,312,0,16777220,240000,33580,244,65700,0,244,0,513856113,63
i,1724819030.455245,10.0.2.15,22,10.0.2.2,51118,1073725440,17918,1026,65535,65700,0,0,4,1460,312,0,4,240000,33580,72,65700,0,72,0,513856113,63
i,1724819030.455312,10.0.2.15,22,10.0.2.2,51118,1073725440,17990,1026,65535,65700,0,0,4,1460,312,0,4,240000,33580,0,65700,0,0,0,513856113,63
i,1724819030.455343,10.0.2.15,22,10.0.2.2,51118,1073725440,17990,1026,65535,65700,0,0,4,1460,312,0,4,240000,33580,0,65700,96,0,0,513856113,63
o,1724819030.455370,10.0.2.15,22,10.0.2.2,51118,1073725440,17990,1026,65535,65604,0,0,5,1460,312,0,5,240000,33580,0,65700,96,0,0,513856113,63
o,1724819030.456155,10.0.2.15,22,10.0.2.2,51118,1073725440,17990,1026,65535,65604,0,0,8,1460,312,0,4,240000,33580,0,65700,0,0,0,513856113,63
i,1724819030.456981,10.0.2.15,22,10.0.2.2,51118,1073725440,17990,1026,65535,65604,0,0,8,1460,312,0,67108884,240000,33580,0,65700,0,1,0,513856113,63
i,1724819033.562623,10.0.2.15,22,10.0.2.2,51142,1073725440,14600,0,65535,65700,0,0,4,1460,312,0,16777216,270000,33580,0,65700,0,0,0,1158882219,63
o,1724819033.584375,10.0.2.15,22,10.0.2.2,51142,1073725440,14600,1026,65535,65700,0,0,4,1460,312,0,16777216,270000,33580,38,65700,42,0,0,1158882219,63
i,1724819033.585088,10.0.2.15,22,10.0.2.2,51142,1073725440,14600,1026,65535,65700,0,0,4,1460,312,0,16777216,270000,33580,38,65700,0,38,0,1158882219,63
i,1724819033.585589,10.0.2.15,22,10.0.2.2,51142,1073725440,14638,1026,65535,65700,0,0,4,1460,312,0,0,240000,33580,0,65700,0,0,0,1158882219,63
i,1724819033.585604,10.0.2.15,22,10.0.2.2,51142,1073725440,14638,1026,65535,65700,0,0,4,1460,312,0,0,240000,33580,0,65700,1460,0,0,1158882219,63
o,1724819033.585620,10.0.2.15,22,10.0.2.2,51142,1073725440,14638,1026,65535,65700,0,0,4,1460,312,0,1,240000,33580,0,65700,1536,0,0,1158882219,63
o,1724819033.586695,10.0.2.15,22,10.0.2.2,51142,1073725440,14638,1026,65535,65700,0,0,4,1460,312,0,16777216,240000,33580,1120,65700,1536,0,0,1158882219,63
i,1724819033.587716,10.0.2.15,22,10.0.2.2,51142,1073725440,14638,1026,65535,65700,0,0,4,1460,312,0,16777216,240000,33580,1120,65700,0,1120,0,1158882219,63
i,1724819033.588629,10.0.2.15,22,10.0.2.2,51142,1073725440,15758,1026,65535,65700,0,0,4,1460,312,0,0,240000,33580,0,65700,0,0,0,1158882219,63
o,1724819033.591516,10.0.2.15,22,10.0.2.2,51142,1073725440,15758,1026,65535,65700,0,0,4,1460,312,0,16777216,240000,33580,492,65700,0,0,0,1158882219,63
i,1724819033.592478,10.0.2.15,22,10.0.2.2,51142,1073725440,15758,1026,65535,65700,0,0,4,1460,312,0,16777216,240000,33580,492,65700,0,492,0,1158882219,63
i,1724819033.596152,10.0.2.15,22,10.0.2.2,51142,1073725440,16250,1026,65535,65700,0,0,4,1460,312,0,0,240000,33580,0,65700,0,0,0,1158882219,63
i,1724819033.596169,10.0.2.15,22,10.0.2.2,51142,1073725440,16250,1026,65535,65700,0,0,4,1460,312,0,0,240000,33580,0,65700,16,0,0,1158882219,63
o,1724819033.596184,10.0.2.15,22,10.0.2.2,51142,1073725440,16250,1026,65535,65700,0,0,4,1460,312,0,1,240000,33580,0,65700,60,0,0,1158882219,63
o,1724819033.596359,10.0.2.15,22,10.0.2.2,51142,1073725440,16250,1026,65535,65700,0,0,4,1460,312,0,16777216,240000,33580,44,65700,0,0,0,1158882219,63
i,1724819033.596947,10.0.2.15,22,10.0.2.2,51142,1073725440,16250,1026,65535,65700,0,0,4,1460,312,0,16777216,240000,33580,44,65700,0,44,0,1158882219,63
i,1724819033.596962,10.0.2.15,22,10.0.2.2,51142,1073725440,16294,1026,65535,65700,0,0,4,1460,312,0,0,240000,33580,0,65700,0,0,0,1158882219,63
o,1724819033.598116,10.0.2.15,22,10.0.2.2,51142,1073725440,16294,1026,65535,65700,0,0,4,1460,312,0,16777216,240000,33580,68,65700,0,0,0,1158882219,63
i,1724819033.599087,10.0.2.15,22,10.0.2.2,51142,1073725440,16294,1026,65535,65700,0,0,4,1460,312,0,16777216,240000,33580,68,65700,0,68,0,1158882219,63
i,1724819033.599126,10.0.2.15,22,10.0.2.2,51142,1073725440,16362,1026,65535,65700,0,0,4,1460,312,0,0,240000,33580,0,65700,0,0,0,1158882219,63
o,1724819033.600321,10.0.2.15,22,10.0.2.2,51142,1073725440,16362,1026,65535,65700,0,0,4,1460,312,0,16777216,240000,33580,332,65700,0,0,0,1158882219,63
i,1724819033.600570,10.0.2.15,22,10.0.2.2,51142,1073725440,16362,1026,65535,65700,0,0,4,1460,312,0,16777216,240000,33580,332,65700,0,332,0,1158882219,63
i,1724819033.602425,10.0.2.15,22,10.0.2.2,51142,1073725440,16694,1026,65535,65700,0,0,4,1460,312,0,0,240000,33580,0,65700,0,0,0,1158882219,63
o,1724819033.620003,10.0.2.15,22,10.0.2.2,51142,1073725440,16694,1026,65535,65700,0,0,4,1460,312,0,16777216,240000,33580,28,65700,0,0,0,1158882219,63
i,1724819033.620679,10.0.2.15,22,10.0.2.2,51142,1073725440,16694,1026,65535,65700,0,0,4,1460,312,0,16777216,240000,33580,28,65700,0,28,0,1158882219,63
i,1724819033.620705,10.0.2.15,22,10.0.2.2,51142,1073725440,16722,1026,65535,65700,0,0,4,1460,312,0,0,240000,33580,0,65700,0,0,0,1158882219,63
o,1724819033.622237,10.0.2.15,22,10.0.2.2,51142,1073725440,16722,1026,65535,65700,0,0,4,1460,312,0,16777216,240000,33580,768,65700,112,0,0,1158882219,63
i,1724819033.623133,10.0.2.15,22,10.0.2.2,51142,1073725440,16722,1026,65535,65700,0,0,4,1460,312,0,16777216,240000,33580,908,65700,112,768,0,1158882219,63
o,1724819033.623154,10.0.2.15,22,10.0.2.2,51142,1073725440,17490,1026,65535,65700,0,0,4,1460,312,0,16777216,240000,33580,140,65700,112,0,0,1158882219,63
i,1724819033.623665,10.0.2.15,22,10.0.2.2,51142,1073725440,17490,1026,65535,65700,0,0,4,1460,312,0,16777216,240000,33580,140,65700,112,140,0,1158882219,63
o,1724819033.624740,10.0.2.15,22,10.0.2.2,51142,1073725440,17630,1026,65535,65700,0,0,4,1460,312,0,16777216,240000,33580,44,65700,0,0,0,1158882219,63
i,1724819033.625385,10.0.2.15,22,10.0.2.2,51142,1073725440,17630,1026,65535,65700,0,0,4,1460,312,0,16777216,240000,33580,44,65700,0,44,0,1158882219,63
i,1724819033.625406,10.0.2.15,22,10.0.2.2,51142,1073725440,17674,1026,65535,65700,0,0,4,1460,312,0,0,240000,33580,0,65700,0,0,0,1158882219,63
o,1724819033.626220,10.0.2.15,22,10.0.2.2,51142,1073725440,17674,1026,65535,65700,0,0,4,1460,312,0,16777220,240000,33580,72,65700,0,0,0,1158882219,63
i,1724819033.627406,10.0.2.15,22,10.0.2.2,51142,1073725440,17674,1026,65535,65700,0,0,4,1460,312,0,16777220,240000,33580,72,65700,0,72,0,1158882219,63
o,1724819033.630579,10.0.2.15,22,10.0.2.2,51142,1073725440,17746,1026,65535,65700,0,0,4,1460,312,0,16777220,240000,33580,104,65700,0,0,0,1158882219,63
i,1724819033.631158,10.0.2.15,22,10.0.2.2,51142,1073725440,17746,1026,65535,65700,0,0,4,1460,312,0,16777220,240000,33580,104,65700,0,104,0,1158882219,63
o,1724819033.635112,10.0.2.15,22,10.0.2.2,51142,1073725440,17850,1026,65535,65700,0,0,4,1460,312,0,16777220,240000,33580,72,65700,0,0,0,1158882219,63
i,1724819033.635583,10.0.2.15,22,10.0.2.2,51142,1073725440,17850,1026,65535,65700,0,0,4,1460,312,0,16777220,240000,33580,72,65700,0,72,0,1158882219,63
i,1724819033.635727,10.0.2.15,22,10.0.2.2,51142,1073725440,17922,1026,65535,65700,0,0,4,1460,312,0,4,240000,33580,0,65700,0,0,0,1158882219,63
i,1724819033.635756,10.0.2.15,22,10.0.2.2,51142,1073725440,17922,1026,65535,65700,0,0,4,1460,312,0,4,240000,33580,0,65700,96,0,0,1158882219,63
o,1724819033.635779,10.0.2.15,22,10.0.2.2,51142,1073725440,17922,1026,65535,65604,0,0,5,1460,312,0,5,240000,33580,0,65700,96,0,0,1158882219,63
o,1724819033.642850,10.0.2.15,22,10.0.2.2,51142,1073725440,17922,1026,65535,65604,0,0,8,1460,312,0,4,240000,33580,0,65700,0,0,0,1158882219,63
i,1724819033.644070,10.0.2.15,22,10.0.2.2,51142,1073725440,17922,1026,65535,65604,0,0,8,1460,312,0,67108884,240000,33580,0,65700,0,1,0,1158882219,63
i,1724819034.688506,10.0.2.15,22,10.0.2.2,51152,1073725440,14600,0,65535,65700,0,0,4,1460,312,0,16777216,270000,33580,0,65700,0,0,0,1469230540,63
o,1724819034.701690,10.0.2.15,22,10.0.2.2,51152,1073725440,14600,1026,65535,65700,0,0,4,1460,312,0,16777216,270000,33580,38,65700,42,0,0,1469230540,63
i,1724819034.702219,10.0.2.15,22,10.0.2.2,51152,1073725440,14600,1026,65535,65700,0,0,4,1460,312,0,16777216,270000,33580,38,65700,0,38,0,1469230540,63
i,1724819034.702756,10.0.2.15,22,10.0.2.2,51152,1073725440,14638,1026,65535,65700,0,0,4,1460,312,0,0,240000,33580,0,65700,0,0,0,1469230540,63
i,1724819034.702783,10.0.2.15,22,10.0.2.2,51152,1073725440,14638,1026,65535,65700,0,0,4,1460,312,0,0,240000,33580,0,65700,1460,0,0,1469230540,63
o,1724819034.702801,10.0.2.15,22,10.0.2.2,51152,1073725440,14638,1026,65535,65700,0,0,4,1460,312,0,1,240000,33580,0,65700,1536,0,0,1469230540,63
o,1724819034.703848,10.0.2.15,22,10.0.2.2,51152,1073725440,14638,1026,65535,65700,0,0,4,1460,312,0,16777216,240000,33580,1120,65700,1536,0,0,1469230540,63
i,1724819034.704692,10.0.2.15,22,10.0.2.2,51152,1073725440,14638,1026,65535,65700,0,0,4,1460,312,0,16777216,240000,33580,1120,65700,0,1120,0,1469230540,63
i,1724819034.706239,10.0.2.15,22,10.0.2.2,51152,1073725440,15758,1026,65535,65700,0,0,4,1460,312,0,0,240000,33580,0,65700,0,0,0,1469230540,63
o,1724819034.709595,10.0.2.15,22,10.0.2.2,51152,1073725440,15758,1026,65535,65700,0,0,4,1460,312,0,16777216,240000,33580,492,65700,0,0,0,1469230540,63
i,1724819034.710046,10.0.2.15,22,10.0.2.2,51152,1073725440,15758,1026,65535,65700,0,0,4,1460,312,0,16777216,240000,33580,492,65700,0,492,0,1469230540,63
i,1724819034.714465,10.0.2.15,22,10.0.2.2,51152,1073725440,16250,1026,65535,65700,0,0,4,1460,312,0,0,240000,33580,0,65700,0,0,0,1469230540,63
i,1724819034.714537,10.0.2.15,22,10.0.2.2,51152,1073725440,16250,1026,65535,65700,0,0,4,1460,312,0,0,240000,33580,0,65700,16,0,0,1469230540,63
o,1724819034.714564,10.0.2.15,22,10.0.2.2,51152,1073725440,16250,1026,65535,65700,0,0,4,1460,312,0,1,240000,33580,0,65700,60,0,0,1469230540,63
o,1724819034.714865,10.0.2.15,22,10.0.2.2,51152,1073725440,16250,1026,65535,65700,0,0,4,1460,312,0,16777216,240000,33580,44,65700,0,0,0,1469230540,63
i,1724819034.715331,10.0.2.15,22,10.0.2.2,51152,1073725440,16250,1026,65535,65700,0,0,4,1460,312,0,16777216,240000,33580,44,65700,0,44,0,1469230540,63
i,1724819034.717948,10.0.2.15,22,10.0.2.2,51152,1073725440,16294,1026,65535,65700,0,0,4,1460,312,0,0,240000,33580,0,65700,0,0,0,1469230540,63
o,1724819034.719408,10.0.2.15,22,10.0.2.2,51152,1073725440,16294,1026,65535,65700,0,0,4,1460,312,0,16777216,240000,33580,68,65700,0,0,0,1469230540,63
i,1724819034.720026,10.0.2.15,22,10.0.2.2,51152,1073725440,16294,1026,65535,65700,0,0,4,1460,312,0,16777216,240000,33580,68,65700,0,68,0,1469230540,63
i,1724819034.720043,10.0.2.15,22,10.0.2.2,51152,1073725440,16362,1026,65535,65700,0,0,4,1460,312,0,0,240000,33580,0,65700,0,0,0,1469230540,63
o,1724819034.721457,10.0.2.15,22,10.0.2.2,51152,1073725440,16362,1026,65535,65700,0,0,4,1460,312,0,16777216,240000,33580,332,65700,0,0,0,1469230540,63
i,1724819034.722313,10.0.2.15,22,10.0.2.2,51152,1073725440,16362,1026,65535,65700,0,0,4,1460,312,0,16777216,240000,33580,332,65700,0,332,0,1469230540,63
i,1724819034.723580,10.0.2.15,22,10.0.2.2,51152,1073725440,16694,1026,65535,65700,0,0,4,1460,312,0,0,240000,33580,0,65700,0,0,0,1469230540,63
o,1724819034.740573,10.0.2.15,22,10.0.2.2,51152,1073725440,16694,1026,65535,65700,0,0,4,1460,312,0,16777216,240000,33580,28,65700,0,0,0,1469230540,63
i,1724819034.741153,10.0.2.15,22,10.0.2.2,51152,1073725440,16694,1026,65535,65700,0,0,4,1460,312,0,16777216,240000,33580,28,65700,0,28,0,1469230540,63
i,1724819034.741172,10.0.2.15,22,10.0.2.2,51152,1073725440,16722,1026,65535,65700,0,0,4,1460,312,0,0,240000,33580,0,65700,0,0,0,1469230540,63
o,1724819034.742500,10.0.2.15,22,10.0.2.2,51152,1073725440,16722,1026,65535,65700,0,0,4,1460,312,0,16777216,240000,33580,768,65700,112,0,0,1469230540,63
i,1724819034.743744,10.0.2.15,22,10.0.2.2,51152,1073725440,16722,1026,65535,65700,0,0,4,1460,312,0,16777216,240000,33580,908,65700,112,768,0,1469230540,63
o,1724819034.743762,10.0.2.15,22,10.0.2.2,51152,1073725440,17490,1026,65535,65700,0,0,4,1460,312,0,16777216,240000,33580,140,65700,112,0,0,1469230540,63
i,1724819034.744744,10.0.2.15,22,10.0.2.2,51152,1073725440,17490,1026,65535,65700,0,0,4,1460,312,0,16777216,240000,33580,140,65700,0,140,0,1469230540,63
o,1724819034.744805,10.0.2.15,22,10.0.2.2,51152,1073725440,17630,1026,65535,65700,0,0,4,1460,312,0,16777216,240000,33580,44,65700,0,0,0,1469230540,63
i,1724819034.745454,10.0.2.15,22,10.0.2.2,51152,1073725440,17630,1026,65535,65700,0,0,4,1460,312,0,16777216,240000,33580,44,65700,0,44,0,1469230540,63
i,1724819034.745472,10.0.2.15,22,10.0.2.2,51152,1073725440,17674,1026,65535,65700,0,0,4,1460,312,0,0,240000,33580,0,65700,0,0,0,1469230540,63
o,1724819034.746223,10.0.2.15,22,10.0.2.2,51152,1073725440,17674,1026,65535,65700,0,0,4,1460,312,0,16777220,240000,33580,72,65700,0,0,0,1469230540,63
i,1724819034.746767,10.0.2.15,22,10.0.2.2,51152,1073725440,17674,1026,65535,65700,0,0,4,1460,312,0,16777220,240000,33580,72,65700,0,72,0,1469230540,63
o,1724819034.937510,172.16.5.2,49207,172.16.1.2,5102,27024,14480,2082,65535,65700,6,6,4,1460,310937,1,16778209,990000,33580,0,65700,0,0,0,251924761,63
o,1724819034.937957,172.16.5.2,49207,172.16.1.2,5102,27024,14480,2082,65535,65700,6,6,4,1460,310937,1,16778212,990000,33580,37,65700,0,0,0,251924761,63
i,1724819035.131341,172.16.5.2,49207,172.16.1.2,5102,27024,14480,2082,65535,65700,6,6,4,1460,310937,1,16778212,990000,33580,37,65700,0,37,0,251924761,63
o,1724819035.131720,172.16.5.2,49207,172.16.1.2,5102,27024,14517,3106,65728,65728,6,6,4,1460,295937,1,16778212,980000,33580,4,65700,0,0,0,251924761,63
o,1724819035.132280,172.16.5.2,49207,172.16.1.2,5102,27024,14517,3106,65728,65728,6,6,4,1460,295937,1,16778212,980000,33580,130,65700,0,4,0,251924761,63
i,1724819035.324831,172.16.5.2,49207,172.16.1.2,5102,27024,14517,3106,65728,65728,6,6,4,1460,295937,1,16778212,980000,33580,130,65700,0,130,0,251924761,63
i,1724819035.324883,172.16.5.2,49207,172.16.1.2,5102,27024,14647,3106,65600,65728,6,6,4,1460,284062,1,996,940000,33580,0,65700,0,0,0,251924761,63
o,1724819035.364327,172.16.5.2,49207,172.16.1.2,5102,27024,14647,3106,65728,65728,6,6,4,1460,284062,1,997,940000,33580,0,65700,0,0,0,251924761,63
o,1724819035.505709,172.16.5.2,35000,172.16.1.2,5102,27024,14480,2082,65535,65700,6,6,4,1460,310937,1,16778209,990000,33580,0,65700,0,0,0,834189443,63
o,1724819035.505884,172.16.5.2,35000,172.16.1.2,5102,27024,14480,2082,65535,65700,6,6,4,1460,310937,1,16778208,990000,33580,37,65700,0,0,0,834189443,63
i,1724819035.693472,172.16.5.2,49207,172.16.1.2,5102,27024,14647,3106,65728,65728,6,6,4,1460,284062,1,996,940000,33580,0,65700,0,0,0,251924761,63
i,1724819035.693513,172.16.5.2,49207,172.16.1.2,5102,27024,14647,3106,65728,65728,6,6,4,1460,284062,1,996,940000,33580,0,65700,1,0,0,251924761,63
o,1724819035.693532,172.16.5.2,49207,172.16.1.2,5102,27024,14647,3106,65728,65728,6,6,4,1460,284062,1,997,940000,33580,0,65700,1,0,0,251924761,63
o,1724819035.693867,172.16.5.2,35000,172.16.1.2,5102,27024,14480,2086,65535,65700,6,6,4,1460,310937,1,16778208,990000,33580,33580,65700,0,37,0,834189443,63
i,1724819035.734763,172.16.5.2,35000,172.16.1.2,5102,27024,14480,2086,65535,65700,6,6,4,1460,310937,1,16778208,990000,33580,33580,65700,0,13069,0,834189443,63
o,1724819035.734857,172.16.5.2,35000,172.16.1.2,5102,27024,14517,2086,65728,65728,6,6,4,1460,300937,1,16778208,940000,33580,33543,65700,0,13032,0,834189443,63
i,1724819036.223419,172.16.5.2,35000,172.16.1.2,5102,27024,14517,2086,65728,65728,6,6,4,1460,300937,1,16778208,940000,33580,33543,65700,0,14480,0,834189443,63
o,1724819036.223454,172.16.5.2,35000,172.16.1.2,5102,27024,17413,2086,64256,65728,6,6,4,1460,329687,1,16778208,1090000,33580,30647,65700,0,11584,0,834189443,63
i,1724819036.223591,172.16.5.2,35000,172.16.1.2,5102,27024,17413,2086,64256,65728,6,6,4,1460,329687,1,16778208,1090000,41772,30647,65700,0,17376,0,834189443,63
o,1724819036.223608,172.16.5.2,35000,172.16.1.2,5102,27024,20309,2086,64256,65728,6,6,4,1460,355000,1,16778208,1180000,41772,27751,65700,0,14480,0,834189443,63
i,1724819036.223724,172.16.5.2,35000,172.16.1.2,5102,27024,20309,2086,64256,65728,6,6,4,1460,355000,1,16778208,1180000,41772,27751,65700,0,20272,0,834189443,63
o,1724819036.223738,172.16.5.2,35000,172.16.1.2,5102,27024,23205,2086,64256,65728,6,6,4,1460,376875,1,16778208,1220000,41772,24855,65700,0,17376,0,834189443,63
i,1724819036.275700,172.16.5.2,35000,172.16.1.2,5102,27024,23205,2086,64256,65728,6,6,4,1460,376875,1,16778208,1220000,49964,49964,65700,0,23168,0,834189443,63
o,1724819036.275784,172.16.5.2,35000,172.16.1.2,5102,27024,26125,2086,64256,65728,6,6,4,1460,402500,1,16778208,1290000,49964,44172,65700,0,17376,0,834189443,63
o,1724819036.275928,172.16.5.2,35000,172.16.1.2,5102,27024,26125,2086,64256,65728,6,6,4,1460,402500,1,16778208,1290000,58156,44172,65700,0,18824,0,834189443,63
i,1724819037.169083,172.16.5.2,35000,172.16.1.2,5102,27024,26125,2086,64256,65728,6,6,4,1460,402500,1,16778208,1290000,58156,58156,65700,0,26064,0,834189443,63
o,1724819037.169148,172.16.5.2,35000,172.16.1.2,5102,27024,27573,2086,65728,65728,6,6,4,1460,469687,1,16778208,1720000,58156,56708,65700,0,24616,0,834189443,63
i,1724819037.169321,172.16.5.2,35000,172.16.1.2,5102,27024,27573,2086,65728,65728,6,6,4,1460,469687,1,16778208,1720000,58156,56708,65700,0,27512,0,834189443,63
o,1724819037.169337,172.16.5.2,35000,172.16.1.2,5102,27024,27573,2086,64256,65728,6,6,4,1460,528750,1,16778208,1990000,58156,53812,65700,0,24616,0,834189443,63
i,1724819037.169461,172.16.5.2,35000,172.16.1.2,5102,27024,27573,2086,64256,65728,6,6,4,1460,528750,1,16778208,1990000,66348,53812,65700,0,27512,0,834189443,63
o,1724819037.169476,172.16.5.2,35000,172.16.1.2,5102,27024,27573,2086,64256,65728,6,6,4,1460,580312,1,16778208,2140000,66348,50916,65700,0,24616,0,834189443,63
i,1724819037.169626,172.16.5.2,35000,172.16.1.2,5102,27024,27573,2086,64256,65728,6,6,4,1460,580312,1,16778208,2140000,66348,50916,65700,0,27512,0,834189443,63
o,1724819037.169642,172.16.5.2,35000,172.16.1.2,5102,27024,27573,2086,62848,65728,6,6,4,1460,625312,1,16778208,2210000,66348,48020,65700,0,24616,0,834189443,63
i,1724819037.170390,172.16.5.2,35000,172.16.1.2,5102,27024,27573,2086,62848,65728,6,6,4,1460,625312,1,16778208,2210000,66348,66348,65700,0,27512,0,834189443,63
o,1724819037.170421,172.16.5.2,35000,172.16.1.2,5102,27024,27573,2086,64256,65728,6,6,4,1460,664687,1,16778208,2210000,66348,63452,65700,0,24616,0,834189443,63
i,1724819037.170543,172.16.5.2,35000,172.16.1.2,5102,27024,27573,2086,64256,65728,6,6,4,1460,664687,1,16778208,2210000,66348,63452,65700,0,27512,0,834189443,63
o,1724819037.170559,172.16.5.2,35000,172.16.1.2,5102,27024,27573,2086,62848,65728,6,6,4,1460,699375,1,16778208,2190000,66348,60556,65700,0,24616,0,834189443,63
i,1724819037.170730,172.16.5.2,35000,172.16.1.2,5102,27024,27573,2086,62848,65728,6,6,4,1460,699375,1,16778208,2190000,66348,60556,65700,0,27512,0,834189443,63
o,1724819037.170745,172.16.5.2,35000,172.16.1.2,5102,27024,27573,2086,64256,65728,6,6,4,1460,729687,1,16778208,2140000,66348,57660,65700,0,24616,0,834189443,63
o,1724819037.170874,172.16.5.2,35000,172.16.1.2,5102,27024,27573,2086,64256,65728,6,6,4,1460,729687,1,16778208,2140000,66348,57660,65700,0,26064,0,834189443,63
i,1724819037.171022,172.16.5.2,35000,172.16.1.2,5102,27024,27573,2086,64256,65728,6,6,4,1460,729687,1,16778208,2140000,66348,57660,65700,0,27512,0,834189443,63
o,1724819037.171037,172.16.5.2,35000,172.16.1.2,5102,27024,27573,2086,64256,65728,6,6,4,1460,750000,1,16778208,2020000,66348,54764,65700,0,24616,0,834189443,63
i,1724819037.171148,172.16.5.2,35000,172.16.1.2,5102,27024,27573,2086,64256,65728,6,6,4,1460,750000,1,16778208,2020000,66348,54764,65700,0,27512,0,834189443,63
o,1724819037.171164,172.16.5.2,35000,172.16.1.2,5102,27024,27573,2086,64256,65728,6,6,4,1460,767500,1,16778208,1910000,66348,51868,65700,0,24616,0,834189443,63
i,1724819037.204727,172.16.5.2,35000,172.16.1.2,5102,27024,27573,2086,64256,65728,6,6,4,1460,767500,1,16778208,1910000,66348,66348,65700,0,27512,0,834189443,63
o,1724819037.204800,172.16.5.2,35000,172.16.1.2,5102,27024,27573,2086,65728,65728,6,6,4,1460,787812,1,16778208,1860000,66348,64900,65700,0,26064,0,834189443,63
i,1724819037.982752,172.16.5.2,35000,172.16.1.2,5102,27024,27573,2086,65728,65728,6,6,4,1460,787812,1,16778208,1860000,66348,64900,65700,0,27512,0,834189443,63
o,1724819037.982787,172.16.5.2,35000,172.16.1.2,5102,27024,27573,2086,64256,65728,6,6,4,1460,790625,1,16778208,1670000,66348,62004,65700,0,24616,0,834189443,63
i,1724819037.982964,172.16.5.2,35000,172.16.1.2,5102,27024,27573,2086,64256,65728,6,6,4,1460,790625,1,16778208,1670000,66348,62004,65700,0,27512,0,834189443,63
o,1724819037.982982,172.16.5.2,35000,172.16.1.2,5102,27024,29033,2086,64256,65728,6,6,4,1460,793125,1,16778208,1520000,66348,59108,65700,0,24616,0,834189443,63
i,1724819037.983100,172.16.5.2,35000,172.16.1.2,5102,27024,29033,2086,64256,65728,6,6,4,1460,793125,1,16778208,1520000,66348,59108,65700,0,28960,0,834189443,63
o,1724819037.983115,172.16.5.2,35000,172.16.1.2,5102,27024,29033,2086,64256,65728,6,6,4,1460,795312,1,16778208,1410000,66348,56212,65700,0,26064,0,834189443,63
i,1724819037.983454,172.16.5.2,35000,172.16.1.2,5102,27024,29033,2086,64256,65728,6,6,4,1460,795312,1,16778208,1410000,66348,56212,65700,0,28960,0,834189443,63
o,1724819037.983481,172.16.5.2,35000,172.16.1.2,5102,27024,29033,2086,64256,65728,6,6,4,1460,797187,1,16778208,1320000,66348,53316,65700,0,26064,0,834189443,63
i,1724819038.004771,172.16.5.2,35000,172.16.1.2,5102,27024,29033,2086,64256,65728,6,6,4,1460,797187,1,16778208,1320000,66348,66348,65700,0,28960,0,834189443,63
o,1724819038.004865,172.16.5.2,35000,172.16.1.2,5102,27024,29033,2086,64256,65728,6,6,4,1460,802812,1,16778208,1290000,66348,63452,65700,0,26064,0,834189443,63
i,1724819038.011646,172.16.5.2,35000,172.16.1.2,5102,27024,29033,2086,64256,65728,6,6,4,1460,802812,1,16778208,1290000,66348,66348,65700,0,28960,0,834189443,63
o,1724819038.011668,172.16.5.2,35000,172.16.1.2,5102,27024,29033,2086,64256,65728,6,6,4,1460,807500,1,16778208,1260000,66348,63452,65700,0,26064,0,834189443,63
i,1724819038.011933,172.16.5.2,35000,172.16.1.2,5102,27024,29033,2086,64256,65728,6,6,4,1460,807500,1,16778208,1260000,66348,63452,65700,0,28960,0,834189443,63
o,1724819038.011951,172.16.5.2,35000,172.16.1.2,5102,27024,29033,2086,64256,65728,6,6,4,1460,811562,1,16778208,1230000,66348,60556,65700,0,26064,0,834189443,63
o,1724819038.012101,172.16.5.2,35000,172.16.1.2,5102,27024,29033,2086,64256,65728,6,6,4,1460,811562,1,16778208,1230000,66348,60556,65700,0,27512,0,834189443,63
i,1724819038.012243,172.16.5.2,35000,172.16.1.2,5102,27024,29033,2086,64256,65728,6,6,4,1460,811562,1,16778208,1230000,66348,60556,65700,0,28960,0,834189443,63
o,1724819038.012463,172.16.5.2,35000,172.16.1.2,5102,27024,29033,2086,64256,65728,6,6,4,1460,815312,1,16778208,1210000,66348,57660,65700,0,26064,0,834189443,63
i,1724819038.014286,172.16.5.2,35000,172.16.1.2,5102,27024,29033,2086,64256,65728,6,6,4,1460,815312,1,16778208,1210000,66348,66348,65700,0,28960,0,834189443,63
o,1724819038.014307,172.16.5.2,35000,172.16.1.2,5102,27024,29033,2086,65728,65728,6,6,4,1460,814687,1,16778208,1170000,66348,62004,65700,0,24616,0,834189443,63
i,1724819038.575878,172.16.5.2,35000,172.16.1.2,5102,27024,29033,2086,65728,65728,6,6,4,1460,814687,1,16778208,1170000,66348,66348,65700,0,28960,0,834189443,63
o,1724819038.575912,172.16.5.2,35000,172.16.1.2,5102,27024,29033,2086,65728,65728,6,6,4,1460,788125,1,16778208,1320000,66348,64900,65700,0,27512,0,834189443,63
i,1724819038.576094,172.16.5.2,35000,172.16.1.2,5102,27024,29033,2086,65728,65728,6,6,4,1460,788125,1,16778208,1320000,66348,64900,65700,0,28960,0,834189443,63
o,1724819038.576134,172.16.5.2,35000,172.16.1.2,5102,27024,29033,2086,62848,65728,6,6,4,1460,764687,1,16778208,1400000,66348,62004,65700,0,26064,0,834189443,63
i,1724819038.576316,172.16.5.2,35000,172.16.1.2,5102,27024,29033,2086,62848,65728,6,6,4,1460,764687,1,16778208,1400000,66348,62004,65700,0,28960,0,834189443,63
o,1724819038.576334,172.16.5.2,35000,172.16.1.2,5102,27024,30493,2086,64256,65728,6,6,4,1460,744375,1,16778208,1430000,66348,59108,65700,0,26064,0,834189443,63
i,1724819038.578438,172.16.5.2,35000,172.16.1.2,5102,27024,30493,2086,64256,65728,6,6,4,1460,744375,1,16778208,1430000,74540,74540,65700,0,30408,0,834189443,63
o,1724819038.578507,172.16.5.2,35000,172.16.1.2,5102,27024,30493,2086,64256,65728,6,6,4,1460,726562,1,16778208,1430000,74540,71644,65700,0,27512,0,834189443,63
i,1724819038.599113,172.16.5.2,35000,172.16.1.2,5102,27024,30493,2086,64256,65728,6,6,4,1460,726562,1,16778208,1430000,74540,74540,65700,0,30408,0,834189443,63
o,1724819038.599145,172.16.5.2,35000,172.16.1.2,5102,27024,30493,2086,64256,65728,6,6,4,1460,712187,1,16778208,1410000,74540,71644,65700,0,27512,0,834189443,63
i,1724819038.608200,172.16.5.2,35000,172.16.1.2,5102,27024,30493,2086,64256,65728,6,6,4,1460,712187,1,16778208,1410000,74540,74540,65700,0,30408,0,834189443,63
o,1724819038.608264,172.16.5.2,35000,172.16.1.2,5102,27024,30493,2086,64256,65728,6,6,4,1460,698437,1,16778208,1380000,74540,71644,65700,0,27512,0,834189443,63
i,1724819038.880876,172.16.5.2,35000,172.16.1.2,5102,27024,30493,2086,64256,65728,6,6,4,1460,698437,1,16778208,1380000,74540,74540,65700,0,30408,0,834189443,63
o,1724819038.880955,172.16.5.2,35000,172.16.1.2,5102,27024,30493,2086,62848,65728,6,6,4,1460,720000,1,16778208,1450000,74540,71644,65700,0,27512,0,834189443,63
i,1724819038.881102,172.16.5.2,35000,172.16.1.2,5102,27024,30493,2086,62848,65728,6,6,4,1460,720000,1,16778208,1450000,74540,71644,65700,0,30408,0,834189443,63
o,1724819038.881119,172.16.5.2,35000,172.16.1.2,5102,27024,30493,2086,59968,65728,6,6,4,1460,738750,1,16778208,1490000,74540,68748,65700,0,27512,0,834189443,63
o,1724819038.881252,172.16.5.2,35000,172.16.1.2,5102,27024,30493,2086,59968,65728,6,6,4,1460,738750,1,16778208,1490000,74540,68748,65700,0,28960,0,834189443,63
i,1724819039.124965,172.16.5.2,35000,172.16.1.2,5102,27024,30493,2086,59968,65728,6,6,4,1460,738750,1,16778208,1490000,74540,74540,65700,0,30408,0,834189443,63
o,1724819039.125049,172.16.5.2,35000,172.16.1.2,5102,27024,30493,2086,62848,65728,6,6,4,1460,786562,1,16778208,1780000,74540,71644,65700,0,27512,0,834189443,63
i,1724819039.125173,172.16.5.2,35000,172.16.1.2,5102,27024,30493,2086,62848,65728,6,6,4,1460,786562,1,16778208,1780000,74540,71644,65700,0,30408,0,834189443,63
o,1724819039.125190,172.16.5.2,35000,172.16.1.2,5102,27024,31856,2082,62848,65728,6,6,4,1460,786562,1,16778208,1780000,74540,71644,65700,0,30408,0,834189443,63
i,1724819039.134125,172.16.5.2,35000,172.16.1.2,5102,27024,30493,2082,62848,65728,6,6,4,1460,786562,1,16778208,1780000,74540,74540,65700,0,31856,0,834189443,63
o,1724819039.134158,172.16.5.2,35000,172.16.1.2,5102,27024,33304,2082,62848,65728,6,6,4,1460,786562,1,16778208,1780000,74540,74540,65700,0,31856,0,834189443,63
i,1724819039.176011,172.16.5.2,35000,172.16.1.2,5102,27024,30493,2082,62848,65728,6,6,4,1460,786562,1,16778208,1780000,74540,74540,65700,0,33304,0,834189443,63
o,1724819039.176039,172.16.5.2,35000,172.16.1.2,5102,15246,1448,2146,62848,65728,6,6,4,1460,786562,1,554697696,1780000,74540,74540,65700,0,33304,0,834189443,63
i,1724819039.180801,172.16.5.2,35000,172.16.1.2,5102,15246,1448,2146,62848,65728,6,6,4,1460,786562,1,554697696,1780000,74540,74540,65700,0,33304,0,834189443,63
i,1724819039.180830,172.16.5.2,35000,172.16.1.2,5102,15246,1448,2146,62848,65728,6,6,4,1460,786562,1,554697696,1780000,74540,74540,65700,0,33304,0,834189443,63
o,1724819039.180845,172.16.5.2,35000,172.16.1.2,5102,15246,2896,2082,62848,65728,6,6,4,1460,786562,1,554697696,1780000,74540,74540,65700,0,33304,0,834189443,63
i,1724819039.181149,172.16.5.2,35000,172.16.1.2,5102,15246,2896,2082,62848,65728,6,6,4,1460,786562,1,554697696,1780000,74540,74540,65700,0,34752,0,834189443,63
i,1724819039.206757,172.16.5.2,35000,172.16.1.2,5102,15246,2896,2082,62848,65728,6,6,4,1460,786562,1,554697696,1780000,74540,74540,65700,0,34752,0,834189443,63
o,1724819039.206778,172.16.5.2,35000,172.16.1.2,5102,15246,4344,2082,62848,65728,6,6,4,1460,786562,1,554697696,1780000,74540,74540,65700,0,34752,0,834189443,63
i,1724819039.206906,172.16.5.2,35000,172.16.1.2,5102,15246,4344,2082,62848,65728,6,6,4,1460,786562,1,554697696,1780000,74540,74540,65700,0,36200,0,834189443,63
i,1724819039.206944,172.16.5.2,35000,172.16.1.2,5102,15246,4344,2082,62848,65728,6,6,4,1460,786562,1,554697696,1780000,74540,74540,65700,0,36200,0,834189443,63
o,1724819039.206967,172.16.5.2,35000,172.16.1.2,5102,15246,5792,2082,62848,65728,6,6,4,1460,786562,1,554697696,1780000,74540,74540,65700,0,36200,0,834189443,63
i,1724819039.207583,172.16.5.2,35000,172.16.1.2,5102,15246,5792,2082,62848,65728,6,6,4,1460,786562,1,554697696,1780000,74540,74540,65700,0,37648,0,834189443,63
i,1724819039.207611,172.16.5.2,35000,172.16.1.2,5102,15246,5792,2082,62848,65728,6,6,4,1460,786562,1,554697696,1780000,74540,74540,65700,0,37648,0,834189443,63
o,1724819039.207626,172.16.5.2,35000,172.16.1.2,5102,15246,7240,2082,62848,65728,6,6,4,1460,786562,1,554697696,1780000,74540,74540,65700,0,37648,0,834189443,63
i,1724819039.207890,172.16.5.2,35000,172.16.1.2,5102,15246,7240,2082,62848,65728,6,6,4,1460,786562,1,554697696,1780000,74540,74540,65700,0,39096,0,834189443,63
o,1724819039.207917,172.16.5.2,35000,172.16.1.2,5102,15246,8688,2082,62848,65728,6,6,4,1460,786562,1,554697696,1780000,74540,74540,65700,0,39096,0,834189443,63
i,1724819039.209141,172.16.5.2,35000,172.16.1.2,5102,15246,8688,2082,62848,65728,6,6,4,1460,786562,1,554697696,1780000,74540,74540,65700,0,40544,0,834189443,63
i,1724819039.209185,172.16.5.2,35000,172.16.1.2,5102,15246,8688,2082,62848,65728,6,6,4,1460,786562,1,554697696,1780000,74540,74540,65700,0,40544,0,834189443,63
i,1724819039.229059,172.16.5.2,35000,172.16.1.2,5102,15246,8688,2082,62848,65728,6,6,4,1460,786562,1,554697696,1780000,74540,74540,65700,0,40544,0,834189443,63
o,1724819039.229077,172.16.5.2,35000,172.16.1.2,5102,15246,10136,2082,62848,65728,6,6,4,1460,786562,1,554697696,1780000,74540,74540,65700,0,40544,0,834189443,63
i,1724819039.236769,172.16.5.2,35000,172.16.1.2,5102,15246,10136,2082,62848,65728,6,6,4,1460,786562,1,554697696,1780000,74540,74540,65700,0,41992,0,834189443,63
o,1724819039.236876,172.16.5.2,35000,172.16.1.2,5102,15246,10136,2082,62848,65728,6,6,4,1460,786562,1,554697696,1780000,74540,74540,65700,0,41992,0,834189443,63
i,1724819039.699090,172.16.5.2,35000,172.16.1.2,5102,15246,10136,2082,62848,65728,6,6,4,1460,786562,1,554697696,1780000,74540,74540,65700,0,41992,0,834189443,63
i,1724819039.699141,172.16.5.2,35000,172.16.1.2,5102,15246,11584,2082,62848,65728,6,6,4,1460,786562,1,554697696,1780000,74540,74540,65700,0,41992,0,834189443,63
i,1724819039.741651,172.16.5.2,35000,172.16.1.2,5102,15246,11584,2082,62848,65728,6,6,4,1460,786562,1,554697696,1780000,74540,74540,65700,0,41992,0,834189443,63
o,1724819039.741681,172.16.5.2,35000,172.16.1.2,5102,15246,13032,2082,62848,65728,6,6,4,1460,786562,1,554697696,1780000,74540,74540,65700,0,41992,0,834189443,63
i,1724819039.751762,172.16.5.2,35000,172.16.1.2,5102,15246,13032,2082,62848,65728,6,6,4,1460,786562,1,554697696,1780000,74540,74540,65700,0,43440,0,834189443,63
i,1724819039.751803,172.16.5.2,35000,172.16.1.2,5102,15246,13032,2082,62848,65728,6,6,4,1460,786562,1,554697696,1780000,74540,74540,65700,0,43440,0,834189443,63
i,1724819039.751830,172.16.5.2,35000,172.16.1.2,5102,15246,13032,2082,62848,65728,6,6,4,1460,786562,1,554697696,1780000,74540,74540,65700,0,43440,0,834189443,63
o,1724819039.751851,172.16.5.2,35000,172.16.1.2,5102,15246,14480,2082,62848,65728,6,6,4,1460,786562,1,554697696,1780000,74540,74540,65700,0,43440,0,834189443,63
i,1724819039.752016,172.16.5.2,35000,172.16.1.2,5102,15246,14480,2082,62848,65728,6,6,4,1460,786562,1,554697696,1780000,74540,74540,65700,0,44888,0,834189443,63
o,1724819039.752032,172.16.5.2,35000,172.16.1.2,5102,15246,15928,2082,62848,65728,6,6,4,1460,786562,1,554697696,1780000,74540,74540,65700,0,44888,0,834189443,63
i,1724819039.752173,172.16.5.2,35000,172.16.1.2,5102,15246,15928,2082,62848,65728,6,6,4,1460,786562,1,554697696,1780000,74540,74540,65700,0,46336,0,834189443,63
o,1724819039.752188,172.16.5.2,35000,172.16.1.2,5102,15246,17376,2082,62848,65728,6,6,4,1460,786562,1,554697696,1780000,74540,74540,65700,0,46336,0,834189443,63
i,1724819039.752335,172.16.5.2,35000,172.16.1.2,5102,15246,17376,2082,62848,65728,6,6,4,1460,786562,1,554697696,1780000,74540,74540,65700,0,47784,0,834189443,63
o,1724819039.752349,172.16.5.2,35000,172.16.1.2,5102,15246,18824,2082,62848,65728,6,6,4,1460,786562,1,554697696,1780000,74540,74540,65700,0,47784,0,834189443,63
i,1724819039.752485,172.16.5.2,35000,172.16.1.2,5102,15246,18824,2082,62848,65728,6,6,4,1460,786562,1,554697696,1780000,74540,74540,65700,0,49232,0,834189443,63
o,1724819039.752501,172.16.5.2,35000,172.16.1.2,5102,15246,20272,2082,62848,65728,6,6,4,1460,786562,1,554697696,1780000,74540,74540,65700,0,49232,0,834189443,63
i,1724819039.753433,172.16.5.2,35000,172.16.1.2,5102,15246,20272,2082,62848,65728,6,6,4,1460,786562,1,554697696,1780000,74540,74540,65700,0,50680,0,834189443,63
o,1724819039.753449,172.16.5.2,35000,172.16.1.2,5102,15246,18824,2082,62848,65728,6,6,4,1460,786562,1,554697697,1780000,74540,74540,65700,0,50680,0,834189443,63
i,1724819039.753771,172.16.5.2,35000,172.16.1.2,5102,15246,18824,2082,41152,65728,6,6,4,1460,759687,1,554697696,1770000,74540,49924,65700,0,26064,0,834189443,63
i,1724819039.804522,172.16.5.2,35000,172.16.1.2,5102,15246,18824,2082,65728,65728,6,6,4,1460,759687,1,537920480,1770000,74540,74540,65700,0,26064,0,834189443,63
o,1724819039.804603,172.16.5.2,35000,172.16.1.2,5102,15246,10148,2086,48384,65728,6,6,4,1460,736250,1,16778208,1730000,74540,57164,65700,0,8688,0,834189443,63
i,1724819039.804731,172.16.5.2,35000,172.16.1.2,5102,15246,10148,2086,48384,65728,6,6,4,1460,736250,1,16778208,1730000,74540,57164,65700,0,10136,0,834189443,63
o,1724819039.804747,172.16.5.2,35000,172.16.1.2,5102,15246,11584,2082,48384,65728,6,6,4,1460,736250,1,16778208,1730000,74540,57164,65700,0,10136,0,834189443,63
i,1724819040.242905,172.16.5.2,35000,172.16.1.2,5102,15246,10148,2082,48384,65728,6,6,4,1460,736250,1,16778208,1730000,74540,74540,65700,0,11584,0,834189443,63
o,1724819040.242939,172.16.5.2,35000,172.16.1.2,5102,15246,13044,2086,64256,65728,6,6,4,1460,706875,1,16778208,1740000,74540,71644,65700,0,8688,0,834189443,63
i,1724819040.243161,172.16.5.2,35000,172.16.1.2,5102,15246,13044,2086,64256,65728,6,6,4,1460,706875,1,16778208,1740000,74540,71644,65700,0,13032,0,834189443,63
o,1724819040.243188,172.16.5.2,35000,172.16.1.2,5102,15246,14492,2086,65728,65728,6,6,4,1460,680000,1,16778208,1720000,74540,70196,65700,0,11584,0,834189443,63
i,1724819040.243581,172.16.5.2,35000,172.16.1.2,5102,15246,14492,2086,65728,65728,6,6,4,1460,680000,1,16778208,1720000,74540,70196,65700,0,14480,0,834189443,63
o,1724819040.243598,172.16.5.2,35000,172.16.1.2,5102,15246,17388,2086,64256,65728,6,6,4,1460,656250,1,16778208,1670000,74540,67300,65700,0,11584,0,834189443,63
i,1724819040.243770,172.16.5.2,35000,172.16.1.2,5102,15246,17388,2086,64256,65728,6,6,4,1460,656250,1,16778208,1670000,74540,67300,65700,0,17376,0,834189443,63
o,1724819040.243789,172.16.5.2,35000,172.16.1.2,5102,15246,17388,2086,64256,65728,6,6,4,1460,635625,1,16778208,1610000,74540,64404,65700,0,14480,0,834189443,63
o,1724819040.244200,172.16.5.2,35000,172.16.1.2,5102,15246,17388,2086,64256,65728,6,6,4,1460,635625,1,16778208,1610000,74540,64404,65700,0,15928,0,834189443,63
i,1724819040.274141,172.16.5.2,35000,172.16.1.2,5102,15246,17388,2086,64256,65728,6,6,4,1460,635625,1,16778208,1610000,74540,74540,65700,0,17376,0,834189443,63
o,1724819040.274179,172.16.5.2,35000,172.16.1.2,5102,15246,17388,2086,65728,65728,6,6,4,1460,615000,1,16778208,1560000,74540,73092,65700,0,15928,0,834189443,63
i,1724819040.858470,172.16.5.2,35000,172.16.1.2,5102,15246,17388,2086,65728,65728,6,6,4,1460,615000,1,16778208,1560000,74540,73092,65700,0,17376,0,834189443,63
o,1724819040.858588,172.16.5.2,35000,172.16.1.2,5102,15246,17388,2086,64256,65728,6,6,4,1460,615625,1,16778208,1380000,74540,70196,65700,0,14480,0,834189443,63
i,1724819040.868516,172.16.5.2,35000,172.16.1.2,5102,15246,17388,2086,64256,65728,6,6,4,1460,615625,1,16778208,1380000,74540,74540,65700,0,17376,0,834189443,63
o,1724819040.868542,172.16.5.2,35000,172.16.1.2,5102,15246,17388,2086,64256,65728,6,6,4,1460,617500,1,16778208,1260000,74540,71644,65700,0,14480,0,834189443,63
i,1724819040.868685,172.16.5.2,35000,172.16.1.2,5102,15246,17388,2086,64256,65728,6,6,4,1460,617500,1,16778208,1260000,74540,71644,65700,0,17376,0,834189443,63
o,1724819040.868700,172.16.5.2,35000,172.16.1.2,5102,15246,17388,2086,64256,65728,6,6,4,1460,619062,1,16778208,1160000,74540,68748,65700,0,14480,0,834189443,63
i,1724819040.868875,172.16.5.2,35000,172.16.1.2,5102,15246,17388,2086,64256,65728,6,6,4,1460,619062,1,16778208,1160000,74540,68748,65700,0,17376,0,834189443,63
o,1724819040.868891,172.16.5.2,35000,172.16.1.2,5102,15246,17388,2086,64256,65728,6,6,4,1460,619375,1,16778208,1080000,74540,65852,65700,0,14480,0,834189443,63
i,1724819040.869454,172.16.5.2,35000,172.16.1.2,5102,15246,17388,2086,64256,65728,6,6,4,1460,619375,1,16778208,1080000,74540,74540,65700,0,17376,0,834189443,63
o,1724819040.869522,172.16.5.2,35000,172.16.1.2,5102,15246,18848,2086,64256,65728,6,6,4,1460,619687,1,16778208,1010000,74540,68748,65700,0,11584,0,834189443,63
o,1724819040.869672,172.16.5.2,35000,172.16.1.2,5102,15246,18848,2086,64256,65728,6,6,4,1460,619687,1,16778208,1010000,74540,68748,65700,0,13032,0,834189443,63
i,1724819041.504830,172.16.5.2,35000,172.16.1.2,5102,15246,18848,2086,64256,65728,6,6,4,1460,619687,1,16778208,1010000,74540,74540,65700,0,18824,0,834189443,63
o,1724819041.504863,172.16.5.2,35000,172.16.1.2,5102,15246,18848,2086,64256,65728,6,6,4,1460,623750,1,16778208,1000000,74540,71644,65700,0,15928,0,834189443,63
i,1724819041.505017,172.16.5.2,35000,172.16.1.2,5102,15246,18848,2086,64256,65728,6,6,4,1460,623750,1,16778208,1000000,74540,71644,65700,0,18824,0,834189443,63
o,1724819041.505038,172.16.5.2,35000,172.16.1.2,5102,15246,18848,2086,64256,65728,6,6,4,1460,625937,1,16778208,980000,74540,68748,65700,0,15928,0,834189443,63
i,1724819041.505828,172.16.5.2,35000,172.16.1.2,5102,15246,18848,2086,64256,65728,6,6,4,1460,625937,1,16778208,980000,74540,68748,65700,0,18824,0,834189443,63
o,1724819041.505849,172.16.5.2,35000,172.16.1.2,5102,15246,18848,2086,64256,65728,6,6,4,1460,627812,1,16778208,960000,74540,65852,65700,0,15928,0,834189443,63
i,1724819041.506042,172.16.5.2,35000,172.16.1.2,5102,15246,18848,2086,64256,65728,6,6,4,1460,627812,1,16778208,960000,74540,65852,65700,0,18824,0,834189443,63
o,1724819041.506061,172.16.5.2,35000,172.16.1.2,5102,15246,18848,2086,64256,65728,6,6,4,1460,629375,1,16778208,940000,74540,62956,65700,0,15928,0,834189443,63
i,1724819041.506293,172.16.5.2,35000,172.16.1.2,5102,15246,18848,2086,64256,65728,6,6,4,1460,629375,1,16778208,940000,74540,62956,65700,0,18824,0,834189443,63
o,1724819041.506312,172.16.5.2,35000,172.16.1.2,5102,15246,18848,2086,64256,65728,6,6,4,1460,630937,1,16778208,920000,74540,60060,65700,0,15928,0,834189443,63
o,1724819041.506453,172.16.5.2,35000,172.16.1.2,5102,15246,18848,2086,64256,65728,6,6,4,1460,630937,1,16778208,920000,74540,60060,65700,0,17376,0,834189443,63
i,1724819041.506590,172.16.5.2,35000,172.16.1.2,5102,15246,18848,2086,64256,65728,6,6,4,1460,630937,1,16778208,920000,74540,60060,65700,0,18824,0,834189443,63
o,1724819041.506608,172.16.5.2,35000,172.16.1.2,5102,15246,20308,2086,64256,65728,6,6,4,1460,632187,1,16778208,910000,74540,57164,65700,0,15928,0,834189443,63
i,1724819041.555628,172.16.5.2,35000,172.16.1.2,5102,15246,20308,2086,64256,65728,6,6,4,1460,632187,1,16778208,910000,74540,74540,65700,0,20272,0,834189443,63
o,1724819041.555711,172.16.5.2,35000,172.16.1.2,5102,15246,20308,2086,65728,65728,6,6,4,1460,639687,1,16778208,960000,74540,73092,65700,0,18824,0,834189443,63
i,1724819042.119821,172.16.5.2,35000,172.16.1.2,5102,15246,20308,2086,65728,65728,6,6,4,1460,639687,1,16778208,960000,74540,73092,65700,0,20272,0,834189443,63
o,1724819042.119854,172.16.5.2,35000,172.16.1.2,5102,15246,20308,2086,64256,65728,6,6,4,1460,636250,1,16778208,950000,74540,70196,65700,0,17376,0,834189443,63
i,1724819042.120064,172.16.5.2,35000,172.16.1.2,5102,15246,20308,2086,64256,65728,6,6,4,1460,636250,1,16778208,950000,74540,70196,65700,0,20272,0,834189443,63
o,1724819042.120080,172.16.5.2,35000,172.16.1.2,5102,15246,20308,2086,64256,65728,6,6,4,1460,633125,1,16778208,950000,74540,67300,65700,0,17376,0,834189443,63
i,1724819042.120191,172.16.5.2,35000,172.16.1.2,5102,15246,20308,2086,64256,65728,6,6,4,1460,633125,1,16778208,950000,74540,67300,65700,0,20272,0,834189443,63
o,1724819042.120206,172.16.5.2,35000,172.16.1.2,5102,15246,20308,2086,64256,65728,6,6,4,1460,630312,1,16778208,940000,74540,64404,65700,0,17376,0,834189443,63
i,1724819042.174211,172.16.5.2,35000,172.16.1.2,5102,15246,20308,2086,64256,65728,6,6,4,1460,630312,1,16778208,940000,74540,74540,65700,0,20272,0,834189443,63
o,1724819042.174243,172.16.5.2,35000,172.16.1.2,5102,15246,20308,2086,64256,65728,6,6,4,1460,634062,1,16778208,940000,74540,71644,65700,0,17376,0,834189443,63
i,1724819042.174383,172.16.5.2,35000,172.16.1.2,5102,15246,20308,2086,64256,65728,6,6,4,1460,634062,1,16778208,940000,74540,71644,65700,0,20272,0,834189443,63
o,1724819042.174400,172.16.5.2,35000,172.16.1.2,5102,15246,20308,2086,64256,65728,6,6,4,1460,637500,1,16778208,950000,74540,68748,65700,0,17376,0,834189443,63
o,1724819042.174532,172.16.5.2,35000,172.16.1.2,5102,15246,20308,2086,64256,65728,6,6,4,1460,637500,1,16778208,950000,74540,68748,65700,0,18824,0,834189443,63
i,1724819042.174646,172.16.5.2,35000,172.16.1.2,5102,15246,20308,2086,64256,65728,6,6,4,1460,637500,1,16778208,950000,74540,68748,65700,0,20272,0,834189443,63
o,1724819042.174662,172.16.5.2,35000,172.16.1.2,5102,15246,21768,2086,64256,65728,6,6,4,1460,640312,1,16778208,950000,74540,65852,65700,0,17376,0,834189443,63
i,1724819042.174799,172.16.5.2,35000,172.16.1.2,5102,15246,21768,2086,64256,65728,6,6,4,1460,640312,1,16778208,950000,74540,65852,65700,0,21720,0,834189443,63
o,1724819042.174820,172.16.5.2,35000,172.16.1.2,5102,15246,21768,2086,64256,65728,6,6,4,1460,642812,1,16778208,940000,74540,62956,65700,0,18824,0,834189443,63
i,1724819042.769199,172.16.5.2,35000,172.16.1.2,5102,15246,21768,2086,64256,65728,6,6,4,1460,642812,1,16778208,940000,74540,74540,65700,0,21720,0,834189443,63
o,1724819042.769296,172.16.5.2,35000,172.16.1.2,5102,15246,21768,2086,64256,65728,6,6,4,1460,643750,1,16778208,920000,74540,68748,65700,0,15928,0,834189443,63
i,1724819042.770971,172.16.5.2,35000,172.16.1.2,5102,15246,21768,2086,64256,65728,6,6,4,1460,643750,1,16778208,920000,74540,68748,65700,0,21720,0,834189443,63
o,1724819042.770993,172.16.5.2,35000,172.16.1.2,5102,15246,21768,2086,64256,65728,6,6,4,1460,644687,1,16778208,910000,74540,65852,65700,0,18824,0,834189443,63
i,1724819042.771138,172.16.5.2,35000,172.16.1.2,5102,15246,21768,2086,64256,65728,6,6,4,1460,644687,1,16778208,910000,74540,65852,65700,0,21720,0,834189443,63
o,1724819042.771157,172.16.5.2,35000,172.16.1.2,5102,15246,21768,2086,64256,65728,6,6,4,1460,638125,1,16778208,940000,74540,62956,65700,0,18824,0,834189443,63
i,1724819042.803508,172.16.5.2,35000,172.16.1.2,5102,15246,21768,2086,64256,65728,6,6,4,1460,638125,1,16778208,940000,74540,74540,65700,0,21720,0,834189443,63
o,1724819042.803555,172.16.5.2,35000,172.16.1.2,5102,15246,21768,2086,64256,65728,6,6,4,1460,637187,1,16778208,920000,74540,71644,65700,0,18824,0,834189443,63
o,1724819042.803767,172.16.5.2,35000,172.16.1.2,5102,15246,21768,2086,64256,65728,6,6,4,1460,637187,1,16778208,920000,74540,71644,65700,0,20272,0,834189443,63
i,1724819042.803916,172.16.5.2,35000,172.16.1.2,5102,15246,21768,2086,64256,65728,6,6,4,1460,637187,1,16778208,920000,74540,71644,65700,0,21720,0,834189443,63
o,1724819042.803933,172.16.5.2,35000,172.16.1.2,5102,15246,21768,2086,64256,65728,6,6,4,1460,636562,1,16778208,900000,74540,68748,65700,0,18824,0,834189443,63
i,1724819042.804083,172.16.5.2,35000,172.16.1.2,5102,15246,21768,2086,64256,65728,6,6,4,1460,636562,1,16778208,900000,74540,68748,65700,0,21720,0,834189443,63
o,1724819042.804099,172.16.5.2,35000,172.16.1.2,5102,15246,23228,2086,64256,65728,6,6,4,1460,635937,1,16778208,890000,74540,65852,65700,0,18824,0,834189443,63
i,1724819042.805242,172.16.5.2,35000,172.16.1.2,5102,15246,23228,2086,64256,65728,6,6,4,1460,635937,1,16778208,890000,74540,74540,65700,0,23168,0,834189443,63
o,1724819042.805267,172.16.5.2,35000,172.16.1.2,5102,15246,23228,2086,65728,65728,6,6,4,1460,635312,1,16778208,880000,74540,73092,65700,0,21720,0,834189443,63
i,1724819043.544816,172.16.5.2,35000,172.16.1.2,5102,15246,23228,2086,65728,65728,6,6,4,1460,635312,1,16778208,880000,74540,73092,65700,0,23168,0,834189443,63
o,1724819043.544871,172.16.5.2,35000,172.16.1.2,5102,15246,23228,2086,64256,65728,6,6,4,1460,653437,1,16778208,1030000,74540,70196,65700,0,20272,0,834189443,63
i,1724819043.545071,172.16.5.2,35000,172.16.1.2,5102,15246,23228,2086,64256,65728,6,6,4,1460,653437,1,16778208,1030000,74540,70196,65700,0,23168,0,834189443,63
o,1724819043.545106,172.16.5.2,35000,172.16.1.2,5102,15246,23228,2086,64256,65728,6,6,4,1460,669375,1,16778208,1130000,74540,64404,65700,0,17376,0,834189443,63
i,1724819043.663810,172.16.5.2,35000,172.16.1.2,5102,15246,23228,2086,64256,65728,6,6,4,1460,669375,1,16778208,1130000,74540,74540,65700,0,23168,0,834189443,63
o,1724819043.663842,172.16.5.2,35000,172.16.1.2,5102,15246,23228,2086,64256,65728,6,6,4,1460,697187,1,16778208,1310000,74540,71644,65700,0,20272,0,834189443,63
i,1724819043.663969,172.16.5.2,35000,172.16.1.2,5102,15246,23228,2086,64256,65728,6,6,4,1460,697187,1,16778208,1310000,74540,71644,65700,0,23168,0,834189443,63
o,1724819043.663987,172.16.5.2,35000,172.16.1.2,5102,15246,23228,2086,64256,65728,6,6,4,1460,717812,1,16778208,1400000,74540,68748,65700,0,20272,0,834189443,63
o,1724819043.664089,172.16.5.2,35000,172.16.1.2,5102,15246,23228,2086,64256,65728,6,6,4,1460,717812,1,16778208,1400000,74540,68748,65700,0,21720,0,834189443,63
i,1724819043.664244,172.16.5.2,35000,172.16.1.2,5102,15246,23228,2086,64256,65728,6,6,4,1460,717812,1,16778208,1400000,74540,68748,65700,0,23168,0,834189443,63
o,1724819043.664261,172.16.5.2,35000,172.16.1.2,5102,15246,23228,2086,64256,65728,6,6,4,1460,735625,1,16778208,1440000,74540,65852,65700,0,20272,0,834189443,63
i,1724819043.664534,172.16.5.2,35000,172.16.1.2,5102,15246,23228,2086,64256,65728,6,6,4,1460,735625,1,16778208,1440000,74540,65852,65700,0,23168,0,834189443,63
o,1724819043.664561,172.16.5.2,35000,172.16.1.2,5102,15246,24688,2086,64256,65728,6,6,4,1460,751250,1,16778208,1450000,74540,62956,65700,0,20272,0,834189443,63
i,1724819043.664754,172.16.5.2,35000,172.16.1.2,5102,15246,24688,2086,64256,65728,6,6,4,1460,751250,1,16778208,1450000,74540,62956,65700,0,24616,0,834189443,63
o,1724819043.664769,172.16.5.2,35000,172.16.1.2,5102,15246,24688,2086,64256,65728,6,6,4,1460,765000,1,16778208,1450000,74540,60060,65700,0,21720,0,834189443,63
i,1724819044.331705,172.16.5.2,35000,172.16.1.2,5102,15246,24688,2086,64256,65728,6,6,4,1460,765000,1,16778208,1450000,74540,74540,65700,0,24616,0,834189443,63
o,1724819044.331754,172.16.5.2,35000,172.16.1.2,5102,15246,24688,2086,64256,65728,6,6,4,1460,766875,1,16778208,1340000,74540,71644,65700,0,21720,0,834189443,63
i,1724819044.331895,172.16.5.2,35000,172.16.1.2,5102,15246,24688,2086,64256,65728,6,6,4,1460,766875,1,16778208,1340000,74540,71644,65700,0,24616,0,834189443,63
o,1724819044.331910,172.16.5.2,35000,172.16.1.2,5102,15246,24688,2086,64256,65728,6,6,4,1460,768750,1,16778208,1270000,74540,68748,65700,0,21720,0,834189443,63
i,1724819044.535037,172.16.5.2,35000,172.16.1.2,5102,15246,24688,2086,64256,65728,6,6,4,1460,768750,1,16778208,1270000,74540,74540,65700,0,24616,0,834189443,63
o,1724819044.535162,172.16.5.2,35000,172.16.1.2,5102,15246,24688,2086,65728,65728,6,6,4,1460,781562,1,16778208,1310000,74540,65852,65700,0,15928,0,834189443,63
o,1724819044.535258,172.16.5.2,35000,172.16.1.2,5102,15246,24688,2086,65728,65728,6,6,4,1460,781562,1,16778208,1310000,74540,65852,65700,0,17376,0,834189443,63
i,1724819044.535258,172.16.5.2,35000,172.16.1.2,5102,15246,24688,2086,65728,65728,6,6,4,1460,781562,1,16778208,1310000,74540,65852,65700,0,24616,0,834189443,63
o,1724819044.535258,172.16.5.2,35000,172.16.1.2,5102,15246,24688,2086,64256,65728,6,6,4,1460,792812,1,16778208,1330000,74540,60060,65700,0,18824,0,834189443,63
i,1724819044.535512,172.16.5.2,35000,172.16.1.2,5102,15246,24688,2086,64256,65728,6,6,4,1460,792812,1,16778208,1330000,74540,60060,65700,0,24616,0,834189443,63
o,1724819044.535529,172.16.5.2,35000,172.16.1.2,5102,15246,26148,2086,65728,65728,6,6,4,1460,802500,1,16778208,1330000,74540,58612,65700,0,23168,0,834189443,63
i,1724819044.718010,172.16.5.2,35000,172.16.1.2,5102,15246,26148,2086,65728,65728,6,6,4,1460,802500,1,16778208,1330000,74540,74540,65700,0,26064,0,834189443,63
o,1724819044.718044,172.16.5.2,35000,172.16.1.2,5102,13074,1448,2146,65728,65728,6,6,4,1460,802500,1,554697696,1330000,74540,74540,65700,0,26064,0,834189443,63
i,1724819044.718255,172.16.5.2,35000,172.16.1.2,5102,13074,1448,2146,65728,65728,6,6,4,1460,802500,1,554697696,1330000,74540,74540,65700,0,26064,0,834189443,63
o,1724819044.718272,172.16.5.2,35000,172.16.1.2,5102,13074,2896,2082,65728,65728,6,6,4,1460,802500,1,554697696,1330000,74540,74540,65700,0,26064,0,834189443,63
i,1724819044.718455,172.16.5.2,35000,172.16.1.2,5102,13074,2896,2082,65728,65728,6,6,4,1460,802500,1,554697696,1330000,74540,74540,65700,0,27512,0,834189443,63
i,1724819045.070013,172.16.5.2,35000,172.16.1.2,5102,13074,2896,2082,65728,65728,6,6,4,1460,802500,1,554697696,1330000,74540,74540,65700,0,27512,0,834189443,63
o,1724819045.070043,172.16.5.2,35000,172.16.1.2,5102,13074,4344,2082,65728,65728,6,6,4,1460,802500,1,554697696,1330000,74540,74540,65700,0,27512,0,834189443,63
i,1724819045.070209,172.16.5.2,35000,172.16.1.2,5102,13074,4344,2082,65728,65728,6,6,4,1460,802500,1,554697696,1330000,74540,74540,65700,0,28960,0,834189443,63
o,1724819045.070226,172.16.5.2,35000,172.16.1.2,5102,13074,7240,2086,65728,65728,6,6,4,1460,802500,1,554697696,1330000,74540,74540,65700,0,28960,0,834189443,63
i,1724819045.070410,172.16.5.2,35000,172.16.1.2,5102,13074,7240,2086,65728,65728,6,6,4,1460,802500,1,554697696,1330000,74540,74540,65700,0,31856,0,834189443,63
i,1724819045.071207,172.16.5.2,35000,172.16.1.2,5102,13074,7240,2086,65728,65728,6,6,4,1460,802500,1,554697696,1330000,74540,74540,65700,0,31856,0,834189443,63
o,1724819045.071225,172.16.5.2,35000,172.16.1.2,5102,13074,8688,2082,65728,65728,6,6,4,1460,802500,1,554697696,1330000,74540,74540,65700,0,31856,0,834189443,63
i,1724819045.116276,172.16.5.2,35000,172.16.1.2,5102,13074,8688,2082,65728,65728,6,6,4,1460,802500,1,554697696,1330000,74540,74540,65700,0,33304,0,834189443,63
i,1724819045.116315,172.16.5.2,35000,172.16.1.2,5102,13074,8688,2082,65728,65728,6,6,4,1460,802500,1,554697696,1330000,74540,74540,65700,0,33304,0,834189443,63
o,1724819045.116350,172.16.5.2,35000,172.16.1.2,5102,13074,10136,2082,65728,65728,6,6,4,1460,802500,1,554697696,1330000,74540,74540,65700,0,33304,0,834189443,63
i,1724819045.116596,172.16.5.2,35000,172.16.1.2,5102,13074,10136,2082,65728,65728,6,6,4,1460,802500,1,554697696,1330000,74540,74540,65700,0,34752,0,834189443,63
i,1724819045.117342,172.16.5.2,35000,172.16.1.2,5102,13074,10136,2082,65728,65728,6,6,4,1460,802500,1,554697696,1330000,74540,74540,65700,0,34752,0,834189443,63
i,1724819045.234544,172.16.5.2,35000,172.16.1.2,5102,13074,10136,2082,65728,65728,6,6,4,1460,802500,1,554697696,1330000,74540,74540,65700,0,34752,0,834189443,63
o,1724819045.234580,172.16.5.2,35000,172.16.1.2,5102,13074,13074,2086,38272,65728,6,6,4,1460,767187,1,16778208,1490000,74540,47028,65700,0,7240,0,834189443,63
i,1724819045.234740,172.16.5.2,35000,172.16.1.2,5102,13074,13074,2086,38272,65728,6,6,4,1460,767187,1,16778208,1490000,74540,47028,65700,0,13032,0,834189443,63
o,1724819045.234757,172.16.5.2,35000,172.16.1.2,5102,13074,14480,2082,38272,65728,6,6,4,1460,767187,1,16778208,1490000,74540,47028,65700,0,13032,0,834189443,63
i,1724819045.492437,172.16.5.2,35000,172.16.1.2,5102,13074,13074,2082,38272,65728,6,6,4,1460,767187,1,16778208,1490000,74540,74540,65700,0,14480,0,834189443,63
o,1724819045.492518,172.16.5.2,35000,172.16.1.2,5102,13074,15970,2086,64256,65728,6,6,4,1460,724062,1,16778208,1660000,74540,71644,65700,0,11584,0,834189443,63
o,1724819045.492651,172.16.5.2,35000,172.16.1.2,5102,13074,15970,2086,64256,65728,6,6,4,1460,724062,1,16778208,1660000,74540,71644,65700,0,13032,0,834189443,63
i,1724819045.538725,172.16.5.2,35000,172.16.1.2,5102,13074,15970,2086,64256,65728,6,6,4,1460,724062,1,16778208,1660000,74540,74540,65700,0,15928,0,834189443,63
o,1724819045.538785,172.16.5.2,35000,172.16.1.2,5102,13074,15970,2086,64256,65728,6,6,4,1460,692500,1,16778208,1700000,74540,71644,65700,0,13032,0,834189443,63
i,1724819045.539053,172.16.5.2,35000,172.16.1.2,5102,13074,15970,2086,64256,65728,6,6,4,1460,692500,1,16778208,1700000,74540,71644,65700,0,15928,0,834189443,63
o,1724819045.539074,172.16.5.2,35000,172.16.1.2,5102,13074,15970,2086,65728,65728,6,6,4,1460,658437,1,16778208,1740000,74540,70196,65700,0,14480,0,834189443,63
i,1724819045.540419,172.16.5.2,35000,172.16.1.2,5102,13074,15970,2086,65728,65728,6,6,4,1460,658437,1,16778208,1740000,74540,74540,65700,0,15928,0,834189443,63
o,1724819045.540496,172.16.5.2,35000,172.16.1.2,5102,13074,15970,2086,64256,65728,6,6,4,1460,613750,1,16778208,1830000,74540,71644,65700,0,13032,0,834189443,63
i,1724819045.686812,172.16.5.2,35000,172.16.1.2,5102,13074,15970,2086,64256,65728,6,6,4,1460,613750,1,16778208,1830000,74540,74540,65700,0,15928,0,834189443,63
o,1724819045.686894,172.16.5.2,35000,172.16.1.2,5102,13074,15970,2086,64256,65728,6,6,4,1460,593437,1,16778208,1720000,74540,71644,65700,0,13032,0,834189443,63
i,1724819045.849388,172.16.5.2,35000,172.16.1.2,5102,13074,15970,2086,64256,65728,6,6,4,1460,593437,1,16778208,1720000,74540,74540,65700,0,15928,0,834189443,63
o,1724819045.849539,172.16.5.2,35000,172.16.1.2,5102,13074,15970,2086,65728,65728,6,6,4,1460,595625,1,16778208,1510000,74540,73092,65700,0,14480,0,834189443,63
i,1724819045.932457,172.16.5.2,35000,172.16.1.2,5102,13074,15970,2086,65728,65728,6,6,4,1460,595625,1,16778208,1510000,74540,73092,65700,0,15928,0,834189443,63
o,1724819045.932544,172.16.5.2,35000,172.16.1.2,5102,13074,15970,2086,64256,65728,6,6,4,1460,576250,1,16778208,1460000,74540,70196,65700,0,13032,0,834189443,63
o,1724819045.932662,172.16.5.2,35000,172.16.1.2,5102,13074,15970,2086,64256,65728,6,6,4,1460,576250,1,16778208,1460000,74540,70196,65700,0,14480,0,834189443,63
i,1724819045.944578,172.16.5.2,35000,172.16.1.2,5102,13074,15970,2086,64256,65728,6,6,4,1460,576250,1,16778208,1460000,74540,74540,65700,0,15928,0,834189443,63
o,1724819045.944654,172.16.5.2,35000,172.16.1.2,5102,13074,17430,2086,64256,65728,6,6,4,1460,561875,1,16778208,1390000,74540,71644,65700,0,13032,0,834189443,63
i,1724819045.944964,172.16.5.2,35000,172.16.1.2,5102,13074,17430,2086,64256,65728,6,6,4,1460,561875,1,16778208,1390000,74540,71644,65700,0,17376,0,834189443,63
o,1724819045.944984,172.16.5.2,35000,172.16.1.2,5102,13074,17430,2086,64256,65728,6,6,4,1460,543125,1,16778208,1370000,74540,68748,65700,0,14480,0,834189443,63
i,1724819045.948094,172.16.5.2,35000,172.16.1.2,5102,13074,17430,2086,64256,65728,6,6,4,1460,543125,1,16778208,1370000,74540,73208,65700,0,17376,0,834189443,63
o,1724819045.948119,172.16.5.2,35000,172.16.1.2,5102,13074,17430,2086,64256,65728,6,6,4,1460,526562,1,16778208,1330000,74540,70312,65700,0,14480,0,834189443,63
i,1724819045.990389,172.16.5.2,35000,172.16.1.2,5102,13074,17430,2086,64256,65728,6,6,4,1460,526562,1,16778208,1330000,74540,74540,65700,0,17376,0,834189443,63
o,1724819045.990429,172.16.5.2,35000,172.16.1.2,5102,13074,17430,2086,64256,65728,6,6,4,1460,498437,1,16778208,1370000,74540,71644,65700,0,14480,0,834189443,63
i,1724819046.108744,172.16.5.2,35000,172.16.1.2,5102,13074,17430,2086,64256,65728,6,6,4,1460,498437,1,16778208,1370000,74540,74540,65700,0,17376,0,834189443,63
o,1724819046.108786,172.16.5.2,35000,172.16.1.2,5102,13074,17430,2086,65728,65728,6,6,4,1460,468750,1,16778208,1410000,74540,73092,65700,0,15928,0,834189443,63
i,1724819046.196563,172.16.5.2,35000,172.16.1.2,5102,13074,17430,2086,65728,65728,6,6,4,1460,468750,1,16778208,1410000,74540,73092,65700,0,17376,0,834189443,63
o,1724819046.196637,172.16.5.2,35000,172.16.1.2,5102,13074,17430,2086,64256,65728,6,6,4,1460,444062,1,16778208,1400000,74540,70196,65700,0,14480,0,834189443,63
o,1724819046.197319,172.16.5.2,35000,172.16.1.2,5102,13074,17430,2086,64256,65728,6,6,4,1460,444062,1,16778208,1400000,74540,70196,65700,0,15928,0,834189443,63
i,1724819046.244297,172.16.5.2,35000,172.16.1.2,5102,13074,17430,2086,64256,65728,6,6,4,1460,444062,1,16778208,1400000,74540,74540,65700,0,17376,0,834189443,63
o,1724819046.244336,172.16.5.2,35000,172.16.1.2,5102,13074,17430,2086,64256,65728,6,6,4,1460,426250,1,16778208,1330000,74540,71644,65700,0,14480,0,834189443,63
i,1724819046.274882,172.16.5.2,35000,172.16.1.2,5102,13074,17430,2086,64256,65728,6,6,4,1460,426250,1,16778208,1330000,74540,74540,65700,0,17376,0,834189443,63
o,1724819046.274914,172.16.5.2,35000,172.16.1.2,5102,13074,18890,2086,64256,65728,6,6,4,1460,414375,1,16778208,1240000,74540,71644,65700,0,14480,0,834189443,63
i,1724819046.318059,172.16.5.2,35000,172.16.1.2,5102,13074,18890,2086,64256,65728,6,6,4,1460,414375,1,16778208,1240000,74540,74540,65700,0,18824,0,834189443,63
o,1724819046.318215,172.16.5.2,35000,172.16.1.2,5102,13074,18890,2086,64256,65728,6,6,4,1460,409062,1,16778208,1120000,74540,71644,65700,0,15928,0,834189443,63
i,1724819046.318392,172.16.5.2,35000,172.16.1.2,5102,13074,18890,2086,64256,65728,6,6,4,1460,409062,1,16778208,1120000,74540,71644,65700,0,18824,0,834189443,63
o,1724819046.318409,172.16.5.2,35000,172.16.1.2,5102,13074,18890,2086,64256,65728,6,6,4,1460,404375,1,16778208,1020000,74540,68748,65700,0,15928,0,834189443,63
i,1724819046.388423,172.16.5.2,35000,172.16.1.2,5102,13074,18890,2086,64256,65728,6,6,4,1460,404375,1,16778208,1020000,74540,74540,65700,0,18824,0,834189443,63
o,1724819046.388457,172.16.5.2,35000,172.16.1.2,5102,13074,18890,2086,65728,65728,6,6,4,1460,404062,1,16778208,920000,74540,73092,65700,0,17376,0,834189443,63
i,1724819046.458197,172.16.5.2,35000,172.16.1.2,5102,13074,18890,2086,65728,65728,6,6,4,1460,404062,1,16778208,920000,74540,73092,65700,0,18824,0,834189443,63
o,1724819046.458292,172.16.5.2,35000,172.16.1.2,5102,13074,18890,2086,65728,65728,6,6,4,1460,397500,1,16778208,890000,74540,71644,65700,0,17376,0,834189443,63
i,1724819046.468186,172.16.5.2,35000,172.16.1.2,5102,13074,18890,2086,65728,65728,6,6,4,1460,397500,1,16778208,890000,74540,74540,65700,0,18824,0,834189443,63
o,1724819046.468214,172.16.5.2,35000,172.16.1.2,5102,13074,18890,2086,64256,65728,6,6,4,1460,381562,1,16778208,930000,74540,71644,65700,0,15928,0,834189443,63
o,1724819046.468347,172.16.5.2,35000,172.16.1.2,5102,13074,18890,2086,64256,65728,6,6,4,1460,381562,1,16778208,930000,74540,71644,65700,0,17376,0,834189443,63
i,1724819046.521751,172.16.5.2,35000,172.16.1.2,5102,13074,18890,2086,64256,65728,6,6,4,1460,381562,1,16778208,930000,74540,74540,65700,0,18824,0,834189443,63
o,1724819046.521794,172.16.5.2,35000,172.16.1.2,5102,13074,18890,2086,62848,65728,6,6,4,1460,367812,1,16778208,940000,74540,71644,65700,0,15928,0,834189443,63
