enable_time_secs=1716945705	enable_time_usecs=352934	siftrver=1.2.4	hz=100	tcp_rtt_scale=32	sysname=FreeBSD	sysver=1301000	ipmode=4
o,0x00000000,1716945705.352964,10.0.2.15,22,10.0.2.2,49213,1073725440,17298,0,65535,65700,0,0,4,1460,1,0,4,24,33580,44,65700,0,0,0,0,0
o,0x00000000,1716945705.353059,10.0.2.15,22,10.0.2.2,49213,1073725440,17298,0,65535,65700,0,0,4,1460,1,0,4,24,33580,80,65700,0,44,0,0,0
i,0x00000000,1716945705.353723,10.0.2.15,22,10.0.2.2,49213,1073725440,17298,0,65535,65700,0,0,4,1460,1,0,4,24,33580,80,65700,0,80,0,0,0
i,0x00000000,1716945705.353726,10.0.2.15,22,10.0.2.2,49213,1073725440,17342,0,65535,65700,0,0,4,1460,1,0,4,24,33580,36,65700,0,36,0,0,0
o,0x00000000,1716945705.353832,10.0.2.15,22,10.0.2.2,49213,1073725440,17378,0,65535,65700,0,0,4,1460,1,0,4,24,33580,36,65700,0,0,0,0,0
i,0x00000000,1716945705.354359,10.0.2.15,22,10.0.2.2,49213,1073725440,17378,0,65535,65700,0,0,4,1460,1,0,4,24,33580,36,65700,0,36,0,0,0
o,0x00000000,1716945705.354443,10.0.2.15,22,10.0.2.2,49213,1073725440,17414,0,65535,65700,0,0,4,1460,1,0,4,24,33580,176,65700,0,0,0,0,0
i,0x00000000,1716945705.355106,10.0.2.15,22,10.0.2.2,49213,1073725440,17414,0,65535,65700,0,0,4,1460,1,0,4,24,33580,176,65700,0,176,0,0,0
i,0x00000000,1716945705.356455,10.0.2.15,22,10.0.2.2,49213,1073725440,17590,0,65535,65700,0,0,4,1460,1,0,4,24,33580,0,65700,0,0,0,0,0
i,0x00000000,1716945705.356458,10.0.2.15,22,10.0.2.2,49213,1073725440,17590,0,65535,65700,0,0,4,1460,1,0,4,24,33580,0,65700,36,0,0,0,0
o,0x00000000,1716945705.356460,10.0.2.15,22,10.0.2.2,49213,1073725440,17590,0,65535,65700,0,0,4,1460,1,0,5,24,33580,0,65700,96,0,0,0,0
i,0x00000000,1716945705.356537,10.0.2.15,22,10.0.2.2,49213,1073725440,17590,0,65535,65700,0,0,4,1460,1,0,4,24,33580,0,65700,96,0,0,0,0
o,0x00000000,1716945705.356540,10.0.2.15,22,10.0.2.2,49213,1073725440,17590,0,65535,65604,0,0,5,1460,1,0,7,24,33580,0,65700,96,0,0,0,0
o,0x00000000,1716945705.357153,10.0.2.15,22,10.0.2.2,49213,1073725440,17590,0,65535,65604,0,0,8,1460,1,0,4,24,33580,0,65700,0,0,0,0,0
i,0x00000000,1716945705.357848,10.0.2.15,22,10.0.2.2,49213,1073725440,17590,0,65535,65604,0,0,8,1460,1,0,20,24,33580,0,65700,0,1,0,0,0
i,0x00000000,1716945707.506367,10.0.2.15,22,10.0.2.2,49218,1073725440,14600,0,65535,65700,0,0,4,1460,1,0,0,27,33580,0,65700,0,0,0,0,0
o,0x00000000,1716945707.513187,10.0.2.15,22,10.0.2.2,49218,1073725440,14600,0,65535,65700,0,0,4,1460,1,0,0,27,33580,38,65700,41,0,0,0,0
i,0x00000000,1716945707.513816,10.0.2.15,22,10.0.2.2,49218,1073725440,14600,0,65535,65700,0,0,4,1460,1,0,0,27,33580,38,65700,0,38,0,0,0
i,0x00000000,1716945707.514615,10.0.2.15,22,10.0.2.2,49218,1073725440,14638,0,65535,65700,0,0,4,1460,1,0,0,24,33580,0,65700,0,0,0,0,0
i,0x00000000,1716945707.514618,10.0.2.15,22,10.0.2.2,49218,1073725440,14638,0,65535,65700,0,0,4,1460,1,0,0,24,33580,0,65700,1460,0,0,0,0
o,0x00000000,1716945707.514621,10.0.2.15,22,10.0.2.2,49218,1073725440,14638,0,65535,65700,0,0,4,1460,1,0,1,24,33580,0,65700,1536,0,0,0,0
o,0x00000000,1716945707.515464,10.0.2.15,22,10.0.2.2,49218,1073725440,14638,0,65535,65700,0,0,4,1460,1,0,0,24,33580,1056,65700,1536,0,0,0,0
i,0x00000000,1716945707.516316,10.0.2.15,22,10.0.2.2,49218,1073725440,14638,0,65535,65700,0,0,4,1460,1,0,0,24,33580,1056,65700,1536,1056,0,0,0
i,0x00000000,1716945707.517846,10.0.2.15,22,10.0.2.2,49218,1073725440,15694,0,65535,65700,0,0,4,1460,1,0,0,24,33580,0,65700,0,0,0,0,0
o,0x00000000,1716945707.520506,10.0.2.15,22,10.0.2.2,49218,1073725440,15694,0,65535,65700,0,0,4,1460,1,0,0,24,33580,484,65700,0,0,0,0,0
i,0x00000000,1716945707.521223,10.0.2.15,22,10.0.2.2,49218,1073725440,15694,0,65535,65700,0,0,4,1460,1,0,0,24,33580,484,65700,0,484,0,0,0
i,0x00000000,1716945707.525816,10.0.2.15,22,10.0.2.2,49218,1073725440,16178,0,65535,65700,0,0,4,1460,1,0,0,24,33580,0,65700,0,0,0,0,0
i,0x00000000,1716945707.530232,10.0.2.15,22,10.0.2.2,49218,1073725440,16178,0,65535,65700,0,0,4,1460,1,0,0,24,33580,0,65700,0,0,0,0,0
o,0x00000000,1716945707.530237,10.0.2.15,22,10.0.2.2,49218,1073725440,16178,0,65535,65700,0,0,4,1460,1,0,1,24,33580,0,65700,44,0,0,0,0
o,0x00000000,1716945707.530385,10.0.2.15,22,10.0.2.2,49218,1073725440,16178,0,65535,65700,0,0,4,1460,1,0,0,24,33580,44,65700,0,0,0,0,0
i,0x00000000,1716945707.531270,10.0.2.15,22,10.0.2.2,49218,1073725440,16178,0,65535,65700,0,0,4,1460,1,0,0,24,33580,44,65700,0,44,0,0,0
i,0x00000000,1716945707.531274,10.0.2.15,22,10.0.2.2,49218,1073725440,16222,0,65535,65700,0,0,4,1460,1,0,0,24,33580,0,65700,0,0,0,0,0
o,0x00000000,1716945707.540972,10.0.2.15,22,10.0.2.2,49218,1073725440,16222,0,65535,65700,0,0,4,1460,1,0,0,24,33580,68,65700,0,0,0,0,0
i,0x00000000,1716945707.541665,10.0.2.15,22,10.0.2.2,49218,1073725440,16222,0,65535,65700,0,0,4,1460,1,0,0,24,33580,68,65700,0,68,0,0,0
i,0x00000000,1716945707.544162,10.0.2.15,22,10.0.2.2,49218,1073725440,16290,0,65535,65700,0,0,4,1460,1,0,0,24,33580,0,65700,0,0,0,0,0
o,0x00000000,1716945707.553796,10.0.2.15,22,10.0.2.2,49218,1073725440,16290,0,65535,65700,0,0,4,1460,1,0,0,24,33580,28,65700,0,0,0,0,0
i,0x00000000,1716945707.554643,10.0.2.15,22,10.0.2.2,49218,1073725440,16290,0,65535,65700,0,0,4,1460,1,0,0,24,33580,28,65700,0,28,0,0,0
i,0x00000000,1716945707.555085,10.0.2.15,22,10.0.2.2,49218,1073725440,16318,0,65535,65700,0,0,4,1460,1,0,0,24,33580,0,65700,0,0,0,0,0
o,0x00000000,1716945707.555865,10.0.2.15,22,10.0.2.2,49218,1073725440,16318,0,65535,65700,0,0,4,1460,1,0,0,24,33580,768,65700,112,0,0,0,0
i,0x00000000,1716945707.556624,10.0.2.15,22,10.0.2.2,49218,1073725440,16318,0,65535,65700,0,0,4,1460,1,0,0,24,33580,768,65700,112,768,0,0,0
o,0x00000000,1716945707.556731,10.0.2.15,22,10.0.2.2,49218,1073725440,17086,0,65535,65700,0,0,4,1460,1,0,0,24,33580,44,65700,0,0,0,0,0
i,0x00000000,1716945707.557327,10.0.2.15,22,10.0.2.2,49218,1073725440,17086,0,65535,65700,0,0,4,1460,1,0,0,24,33580,44,65700,0,44,0,0,0
i,0x00000000,1716945707.557966,10.0.2.15,22,10.0.2.2,49218,1073725440,17130,0,65535,65700,0,0,4,1460,1,0,0,24,33580,0,65700,0,0,0,0,0
o,0x00000000,1716945707.558227,10.0.2.15,22,10.0.2.2,49218,1073725440,17130,0,65535,65700,0,0,4,1460,1,0,4,24,33580,72,65700,0,0,0,0,0
i,0x00000000,1716945707.558867,10.0.2.15,22,10.0.2.2,49218,1073725440,17130,0,65535,65700,0,0,4,1460,1,0,4,24,33580,72,65700,0,72,0,0,0
o,0x00000000,1716945707.561038,10.0.2.15,22,10.0.2.2,49218,1073725440,17202,0,65535,65700,0,0,4,1460,1,0,4,24,33580,44,65700,0,0,0,0,0
i,0x00000000,1716945707.561576,10.0.2.15,22,10.0.2.2,49218,1073725440,17202,0,65535,65700,0,0,4,1460,1,0,4,24,33580,44,65700,0,44,0,0,0
o,0x00000000,1716945707.561836,10.0.2.15,22,10.0.2.2,49218,1073725440,17246,0,65535,65700,0,0,4,1460,1,0,4,24,33580,44,65700,0,0,0,0,0
i,0x00000000,1716945707.562596,10.0.2.15,22,10.0.2.2,49218,1073725440,17246,0,65535,65700,0,0,4,1460,1,0,4,24,33580,44,65700,0,44,0,0,0
o,0x00000000,1716945707.565438,10.0.2.15,22,10.0.2.2,49218,1073725440,17290,0,65535,65700,0,0,4,1460,1,0,4,24,33580,176,65700,0,0,0,0,0
i,0x00000000,1716945707.566253,10.0.2.15,22,10.0.2.2,49218,1073725440,17290,0,65535,65700,0,0,4,1460,1,0,4,24,33580,176,65700,0,176,0,0,0
i,0x00000000,1716945707.566563,10.0.2.15,22,10.0.2.2,49218,1073725440,17466,0,65535,65700,0,0,4,1460,1,0,4,24,33580,0,65700,0,0,0,0,0
i,0x00000000,1716945707.566565,10.0.2.15,22,10.0.2.2,49218,1073725440,17466,0,65535,65700,0,0,4,1460,1,0,4,24,33580,0,65700,36,0,0,0,0
o,0x00000000,1716945707.566567,10.0.2.15,22,10.0.2.2,49218,1073725440,17466,0,65535,65700,0,0,4,1460,1,0,5,24,33580,0,65700,96,0,0,0,0
i,0x00000000,1716945707.566639,10.0.2.15,22,10.0.2.2,49218,1073725440,17466,0,65535,65700,0,0,4,1460,1,0,4,24,33580,0,65700,96,0,0,0,0
o,0x00000000,1716945707.566642,10.0.2.15,22,10.0.2.2,49218,1073725440,17466,0,65535,65604,0,0,5,1460,1,0,7,24,33580,0,65700,96,0,0,0,0
o,0x00000000,1716945707.579491,10.0.2.15,22,10.0.2.2,49218,1073725440,17466,0,65535,65604,0,0,8,1460,1,0,4,24,33580,0,65700,0,0,0,0,0
i,0x00000000,1716945707.580103,10.0.2.15,22,10.0.2.2,49218,1073725440,17466,0,65535,65604,0,0,8,1460,1,0,20,24,33580,0,65700,0,1,0,0,0
i,0x00000000,1716945708.646644,10.0.2.15,22,10.0.2.2,49222,1073725440,14600,0,65535,65700,0,0,4,1460,1,0,0,27,33580,0,65700,0,0,0,0,0
o,0x00000000,1716945708.654726,10.0.2.15,22,10.0.2.2,49222,1073725440,14600,0,65535,65700,0,0,4,1460,1,0,0,27,33580,38,65700,41,0,0,0,0
i,0x00000000,1716945708.655222,10.0.2.15,22,10.0.2.2,49222,1073725440,14600,0,65535,65700,0,0,4,1460,1,0,0,27,33580,38,65700,0,38,0,0,0
o,0x00000000,1716945708.655765,10.0.2.15,22,10.0.2.2,49222,1073725440,14638,0,65535,65700,0,0,4,1460,1,0,0,24,33580,1056,65700,0,0,0,0,0
i,0x00000000,1716945708.656602,10.0.2.15,22,10.0.2.2,49222,1073725440,14638,0,65535,65700,0,0,4,1460,1,0,0,24,33580,1056,65700,0,1056,0,0,0
i,0x00000000,1716945708.656605,10.0.2.15,22,10.0.2.2,49222,1073725440,14638,0,65535,65700,0,0,4,1460,1,0,0,24,33580,1056,65700,1460,1056,0,0,0
o,0x00000000,1716945708.656607,10.0.2.15,22,10.0.2.2,49222,1073725440,14638,0,65535,65700,0,0,4,1460,1,0,1,24,33580,1056,65700,1536,1056,0,0,0
i,0x00000000,1716945708.656854,10.0.2.15,22,10.0.2.2,49222,1073725440,14638,0,65535,65700,0,0,4,1460,1,0,0,24,33580,1056,65700,1536,1056,0,0,0
i,0x00000000,1716945708.658246,10.0.2.15,22,10.0.2.2,49222,1073725440,15694,0,65535,65700,0,0,4,1460,1,0,0,24,33580,0,65700,0,0,0,0,0
o,0x00000000,1716945708.660843,10.0.2.15,22,10.0.2.2,49222,1073725440,15694,0,65535,65700,0,0,4,1460,1,0,0,24,33580,484,65700,0,0,0,0,0
i,0x00000000,1716945708.661280,10.0.2.15,22,10.0.2.2,49222,1073725440,15694,0,65535,65700,0,0,4,1460,1,0,0,24,33580,484,65700,0,484,0,0,0
i,0x00000000,1716945708.666225,10.0.2.15,22,10.0.2.2,49222,1073725440,16178,0,65535,65700,0,0,4,1460,1,0,0,24,33580,0,65700,0,0,0,0,0
i,0x00000000,1716945708.670231,10.0.2.15,22,10.0.2.2,49222,1073725440,16178,0,65535,65700,0,0,4,1460,1,0,0,24,33580,0,65700,0,0,0,0,0
o,0x00000000,1716945708.670236,10.0.2.15,22,10.0.2.2,49222,1073725440,16178,0,65535,65700,0,0,4,1460,1,0,1,24,33580,0,65700,44,0,0,0,0
o,0x00000000,1716945708.670385,10.0.2.15,22,10.0.2.2,49222,1073725440,16178,0,65535,65700,0,0,4,1460,1,0,0,24,33580,44,65700,0,0,0,0,0
i,0x00000000,1716945708.671030,10.0.2.15,22,10.0.2.2,49222,1073725440,16178,0,65535,65700,0,0,4,1460,1,0,0,24,33580,44,65700,0,44,0,0,0
i,0x00000000,1716945708.671034,10.0.2.15,22,10.0.2.2,49222,1073725440,16222,0,65535,65700,0,0,4,1460,1,0,0,24,33580,0,65700,0,0,0,0,0
o,0x00000000,1716945708.680554,10.0.2.15,22,10.0.2.2,49222,1073725440,16222,0,65535,65700,0,0,4,1460,1,0,0,24,33580,68,65700,0,0,0,0,0
i,0x00000000,1716945708.681066,10.0.2.15,22,10.0.2.2,49222,1073725440,16222,0,65535,65700,0,0,4,1460,1,0,0,24,33580,68,65700,0,68,0,0,0
i,0x00000000,1716945708.683415,10.0.2.15,22,10.0.2.2,49222,1073725440,16290,0,65535,65700,0,0,4,1460,1,0,0,24,33580,0,65700,0,0,0,0,0
o,0x00000000,1716945708.692959,10.0.2.15,22,10.0.2.2,49222,1073725440,16290,0,65535,65700,0,0,4,1460,1,0,0,24,33580,28,65700,0,0,0,0,0
i,0x00000000,1716945708.693667,10.0.2.15,22,10.0.2.2,49222,1073725440,16290,0,65535,65700,0,0,4,1460,1,0,0,24,33580,28,65700,0,28,0,0,0
i,0x00000000,1716945708.693997,10.0.2.15,22,10.0.2.2,49222,1073725440,16318,0,65535,65700,0,0,4,1460,1,0,0,24,33580,0,65700,0,0,0,0,0
o,0x00000000,1716945708.694705,10.0.2.15,22,10.0.2.2,49222,1073725440,16318,0,65535,65700,0,0,4,1460,1,0,0,24,33580,768,65700,112,0,0,0,0
i,0x00000000,1716945708.695357,10.0.2.15,22,10.0.2.2,49222,1073725440,16318,0,65535,65700,0,0,4,1460,1,0,0,24,33580,768,65700,112,768,0,0,0
o,0x00000000,1716945708.695461,10.0.2.15,22,10.0.2.2,49222,1073725440,17086,0,65535,65700,0,0,4,1460,1,0,0,24,33580,44,65700,0,0,0,0,0
i,0x00000000,1716945708.696282,10.0.2.15,22,10.0.2.2,49222,1073725440,17086,0,65535,65700,0,0,4,1460,1,0,0,24,33580,44,65700,0,44,0,0,0
i,0x00000000,1716945708.696683,10.0.2.15,22,10.0.2.2,49222,1073725440,17130,0,65535,65700,0,0,4,1460,1,0,0,23,33580,0,65700,0,0,0,0,0
o,0x00000000,1716945708.696981,10.0.2.15,22,10.0.2.2,49222,1073725440,17130,0,65535,65700,0,0,4,1460,1,0,4,23,33580,72,65700,0,0,0,0,0
i,0x00000000,1716945708.697625,10.0.2.15,22,10.0.2.2,49222,1073725440,17130,0,65535,65700,0,0,4,1460,1,0,4,23,33580,72,65700,0,72,0,0,0
i,0x00000000,1716945708.698004,10.0.2.15,22,10.0.2.2,49222,1073725440,17202,0,65535,65700,0,0,4,1460,1,0,4,23,33580,0,65700,0,0,0,0,0
o,0x00000000,1716945708.704492,172.16.1.2,64271,172.16.3.2,5101,1073725440,1073725440,0,0,0,0,0,2,536,0,1,672,100,32768,0,65536,0,0,0,0,0
o,0x00000000,1716945708.737090,10.0.2.15,22,10.0.2.2,49222,1073725440,17202,0,65535,65700,0,0,4,1460,1,0,5,23,33580,0,65700,0,0,0,0,0
i,0x00000000,1716945708.824583,172.16.1.2,64271,172.16.3.2,5101,1073725440,1073725440,0,0,0,0,0,2,536,0,1,672,100,32768,0,65536,0,1,0,0,0
o,0x00000000,1716945708.824603,172.16.1.2,64271,172.16.3.2,5101,20621,14480,0,65535,65700,6,6,4,1460,923,1,993,142,33580,0,65700,0,0,0,0,0
o,0x00000000,1716945708.824991,172.16.1.2,64271,172.16.3.2,5101,20621,14480,0,65535,65700,6,6,4,1460,923,1,996,142,33580,37,65700,0,0,0,0,0
i,0x00000000,1716945708.944980,172.16.1.2,64271,172.16.3.2,5101,20621,14480,0,65535,65700,6,6,4,1460,923,1,996,142,33580,37,65700,0,37,0,0,0
o,0x00000000,1716945708.945122,172.16.1.2,64271,172.16.3.2,5101,20621,14517,0,65728,65728,6,6,4,1460,856,1,996,133,33580,4,65700,0,0,0,0,0
o,0x00000000,1716945708.945469,172.16.1.2,64271,172.16.3.2,5101,20621,14517,0,65728,65728,6,6,4,1460,856,1,996,133,33580,128,65700,0,4,0,0,0
i,0x00000000,1716945709.065175,172.16.1.2,64271,172.16.3.2,5101,20621,14517,0,65728,65728,6,6,4,1460,856,1,996,133,33580,128,65700,0,128,0,0,0
i,0x00000000,1716945709.065189,172.16.1.2,64271,172.16.3.2,5101,20621,14645,0,65600,65728,6,6,4,1460,797,1,996,124,33580,0,65700,0,0,0,0,0
o,0x00000000,1716945709.065301,172.16.1.2,37015,172.16.3.2,5101,1073725440,1073725440,0,0,0,0,0,2,536,0,1,672,100,32768,0,65536,0,0,0,0,0
o,0x00000000,1716945709.097399,172.16.1.2,64271,172.16.3.2,5101,20621,14645,0,65728,65728,6,6,4,1460,797,1,997,124,33580,0,65700,0,0,0,0,0
i,0x00000000,1716945709.185023,172.16.1.2,37015,172.16.3.2,5101,1073725440,1073725440,0,0,0,0,0,2,536,0,1,672,100,32768,0,65536,0,1,0,0,0
o,0x00000000,1716945709.185042,172.16.1.2,37015,172.16.3.2,5101,20621,14480,0,65535,65700,6,6,4,1460,923,1,993,142,33580,0,65700,0,0,0,0,0
o,0x00000000,1716945709.185187,172.16.1.2,37015,172.16.3.2,5101,20621,14480,0,65535,65700,6,6,4,1460,923,1,992,142,33580,37,65700,0,0,0,0,0
i,0x00000000,1716945709.304306,172.16.1.2,64271,172.16.3.2,5101,20621,14645,0,65728,65728,6,6,4,1460,797,1,996,124,33580,0,65700,0,0,0,0,0
i,0x00000000,1716945709.304322,172.16.1.2,64271,172.16.3.2,5101,20621,14645,0,65728,65728,6,6,4,1460,797,1,996,124,33580,0,65700,1,0,0,0,0
o,0x00000000,1716945709.304331,172.16.1.2,64271,172.16.3.2,5101,20621,14645,0,65728,65728,6,6,4,1460,797,1,997,124,33580,0,65700,2,0,0,0,0
o,0x00000000,1716945709.304583,172.16.1.2,37015,172.16.3.2,5101,20621,14480,0,65535,65700,6,6,4,1460,923,1,992,142,33580,33580,65700,0,37,0,0,0
o,0x00000000,1716945709.304913,172.16.1.2,37015,172.16.3.2,5101,20621,14480,0,65535,65700,6,6,4,1460,923,1,992,142,33580,33580,65700,0,1485,0,0,0
o,0x00000000,1716945709.305237,172.16.1.2,37015,172.16.3.2,5101,20621,14480,0,65535,65700,6,6,4,1460,923,1,992,142,33580,33580,65700,0,2933,0,0,0
o,0x00000000,1716945709.305552,172.16.1.2,37015,172.16.3.2,5101,20621,14480,0,65535,65700,6,6,4,1460,923,1,992,142,33580,33580,65700,0,4381,0,0,0
o,0x00000000,1716945709.305907,172.16.1.2,37015,172.16.3.2,5101,20621,14480,0,65535,65700,6,6,4,1460,923,1,992,142,33580,33580,65700,0,5829,0,0,0
o,0x00000000,1716945709.306359,172.16.1.2,37015,172.16.3.2,5101,20621,14480,0,65535,65700,6,6,4,1460,923,1,992,142,33580,33580,65700,0,7277,0,0,0
o,0x00000000,1716945709.306679,172.16.1.2,37015,172.16.3.2,5101,20621,14480,0,65535,65700,6,6,4,1460,923,1,992,142,33580,33580,65700,0,8725,0,0,0
o,0x00000000,1716945709.306992,172.16.1.2,37015,172.16.3.2,5101,20621,14480,0,65535,65700,6,6,4,1460,923,1,992,142,33580,33580,65700,0,10173,0,0,0
o,0x00000000,1716945709.307308,172.16.1.2,37015,172.16.3.2,5101,20621,14480,0,65535,65700,6,6,4,1460,923,1,992,142,33580,33580,65700,0,11621,0,0,0
i,0x00000000,1716945709.334467,172.16.1.2,37015,172.16.3.2,5101,20621,14480,0,65535,65700,6,6,4,1460,923,1,992,142,33580,33580,65700,0,13069,0,0,0
o,0x00000000,1716945709.334480,172.16.1.2,37015,172.16.3.2,5101,20621,14517,0,65728,65728,6,6,4,1460,868,1,992,131,33580,33543,65700,0,13032,0,0,0
i,0x00000000,1716945709.603638,172.16.1.2,37015,172.16.3.2,5101,20621,14517,0,65728,65728,6,6,4,1460,868,1,992,131,33580,33543,65700,0,14480,0,0,0
o,0x00000000,1716945709.603662,172.16.1.2,37015,172.16.3.2,5101,20621,17413,0,64256,65728,6,6,4,1460,876,1,992,112,33580,30647,65700,0,11584,0,0,0
o,0x00000000,1716945709.603779,172.16.1.2,37015,172.16.3.2,5101,20621,17413,0,64256,65728,6,6,4,1460,876,1,992,112,33580,30647,65700,0,13032,0,0,0
o,0x00000000,1716945709.603881,172.16.1.2,37015,172.16.3.2,5101,20621,17413,0,64256,65728,6,6,4,1460,876,1,992,112,41772,30647,65700,0,14480,0,0,0
o,0x00000000,1716945709.603982,172.16.1.2,37015,172.16.3.2,5101,20621,17413,0,64256,65728,6,6,4,1460,876,1,992,112,41772,30647,65700,0,15928,0,0,0
i,0x00000000,1716945709.604076,172.16.1.2,37015,172.16.3.2,5101,20621,17413,0,64256,65728,6,6,4,1460,876,1,992,112,41772,30647,65700,0,17376,0,0,0
o,0x00000000,1716945709.604081,172.16.1.2,37015,172.16.3.2,5101,20621,20309,0,64256,65728,6,6,4,1460,883,1,992,98,41772,27751,65700,0,14480,0,0,0
o,0x00000000,1716945709.604176,172.16.1.2,37015,172.16.3.2,5101,20621,20309,0,64256,65728,6,6,4,1460,883,1,992,98,41772,27751,65700,0,15928,0,0,0
o,0x00000000,1716945709.604267,172.16.1.2,37015,172.16.3.2,5101,20621,20309,0,64256,65728,6,6,4,1460,883,1,992,98,41772,27751,65700,0,17376,0,0,0
o,0x00000000,1716945709.604361,172.16.1.2,37015,172.16.3.2,5101,20621,20309,0,64256,65728,6,6,4,1460,883,1,992,98,41772,27751,65700,0,18824,0,0,0
i,0x00000000,1716945709.604453,172.16.1.2,37015,172.16.3.2,5101,20621,20309,0,64256,65728,6,6,4,1460,883,1,992,98,41772,27751,65700,0,20272,0,0,0
o,0x00000000,1716945709.604456,172.16.1.2,37015,172.16.3.2,5101,20621,23205,0,64256,65728,6,6,4,1460,889,1,992,87,41772,24855,65700,0,17376,0,0,0
o,0x00000000,1716945709.604548,172.16.1.2,37015,172.16.3.2,5101,20621,23205,0,64256,65728,6,6,4,1460,889,1,992,87,41772,24855,65700,0,18824,0,0,0
o,0x00000000,1716945709.604642,172.16.1.2,37015,172.16.3.2,5101,20621,23205,0,64256,65728,6,6,4,1460,889,1,992,87,41772,24855,65700,0,20272,0,0,0
o,0x00000000,1716945709.604738,172.16.1.2,37015,172.16.3.2,5101,20621,23205,0,64256,65728,6,6,4,1460,889,1,992,87,41772,24855,65700,0,21720,0,0,0
i,0x00000000,1716945709.605108,172.16.1.2,37015,172.16.3.2,5101,20621,23205,0,64256,65728,6,6,4,1460,889,1,992,87,41772,24855,65700,0,23168,0,0,0
o,0x00000000,1716945709.605112,172.16.1.2,37015,172.16.3.2,5101,20621,23205,0,64256,65728,6,6,4,1460,894,1,992,78,41772,21959,65700,0,20272,0,0,0
o,0x00000000,1716945709.605572,172.16.1.2,37015,172.16.3.2,5101,20621,23205,0,64256,65728,6,6,4,1460,894,1,992,78,49964,41772,65700,0,21720,0,0,0
i,0x00000000,1716945709.634482,172.16.1.2,37015,172.16.3.2,5101,20621,23205,0,64256,65728,6,6,4,1460,894,1,992,78,49964,49964,65700,0,23168,0,0,0
o,0x00000000,1716945709.634490,172.16.1.2,37015,172.16.3.2,5101,20621,23205,0,64256,65728,6,6,4,1460,911,1,992,75,49964,47068,65700,0,20272,0,0,0
o,0x00000000,1716945709.634752,172.16.1.2,37015,172.16.3.2,5101,20621,23205,0,64256,65728,6,6,4,1460,911,1,992,75,49964,47068,65700,0,21720,0,0,0
i,0x00000000,1716945710.043165,172.16.1.2,37015,172.16.3.2,5101,20621,23205,0,64256,65728,6,6,4,1460,911,1,992,75,49964,49964,65700,0,23168,0,0,0
o,0x00000000,1716945710.043189,172.16.1.2,37015,172.16.3.2,5101,20621,23205,0,64256,65728,6,6,4,1460,974,1,992,86,49964,47068,65700,0,20272,0,0,0
o,0x00000000,1716945710.043324,172.16.1.2,37015,172.16.3.2,5101,20621,23205,0,64256,65728,6,6,4,1460,974,1,992,86,49964,47068,65700,0,21720,0,0,0
i,0x00000000,1716945710.043459,172.16.1.2,37015,172.16.3.2,5101,20621,23205,0,64256,65728,6,6,4,1460,974,1,992,86,49964,47068,65700,0,23168,0,0,0
o,0x00000000,1716945710.043462,172.16.1.2,37015,172.16.3.2,5101,20621,23205,0,64256,65728,6,6,4,1460,1029,1,992,93,49964,44172,65700,0,20272,0,0,0
o,0x00000000,1716945710.043545,172.16.1.2,37015,172.16.3.2,5101,20621,23205,0,64256,65728,6,6,4,1460,1029,1,992,93,58156,44172,65700,0,21720,0,0,0
i,0x00000000,1716945710.043618,172.16.1.2,37015,172.16.3.2,5101,20621,23205,0,64256,65728,6,6,4,1460,1029,1,992,93,58156,44172,65700,0,23168,0,0,0
o,0x00000000,1716945710.043621,172.16.1.2,37015,172.16.3.2,5101,20621,23205,0,64256,65728,6,6,4,1460,1077,1,992,96,58156,41276,65700,0,20272,0,0,0
o,0x00000000,1716945710.043694,172.16.1.2,37015,172.16.3.2,5101,20621,23205,0,64256,65728,6,6,4,1460,1077,1,992,96,58156,41276,65700,0,21720,0,0,0
i,0x00000000,1716945710.043768,172.16.1.2,37015,172.16.3.2,5101,20621,23205,0,64256,65728,6,6,4,1460,1077,1,992,96,58156,41276,65700,0,23168,0,0,0
o,0x00000000,1716945710.043770,172.16.1.2,37015,172.16.3.2,5101,20621,23205,0,64256,65728,6,6,4,1460,1119,1,992,97,58156,38380,65700,0,20272,0,0,0
o,0x00000000,1716945710.043843,172.16.1.2,37015,172.16.3.2,5101,20621,23205,0,64256,65728,6,6,4,1460,1119,1,992,97,58156,38380,65700,0,21720,0,0,0
i,0x00000000,1716945710.044133,172.16.1.2,37015,172.16.3.2,5101,20621,23205,0,64256,65728,6,6,4,1460,1119,1,992,97,58156,38380,65700,0,23168,0,0,0
o,0x00000000,1716945710.044136,172.16.1.2,37015,172.16.3.2,5101,20621,23205,0,64256,65728,6,6,4,1460,1156,1,992,97,58156,35484,65700,0,20272,0,0,0
o,0x00000000,1716945710.044210,172.16.1.2,37015,172.16.3.2,5101,20621,23205,0,64256,65728,6,6,4,1460,1156,1,992,97,58156,35484,65700,0,21720,0,0,0
i,0x00000000,1716945710.044925,172.16.1.2,37015,172.16.3.2,5101,20621,23205,0,64256,65728,6,6,4,1460,1156,1,992,97,58156,35484,65700,0,23168,0,0,0
o,0x00000000,1716945710.044928,172.16.1.2,37015,172.16.3.2,5101,20621,23205,0,64256,65728,6,6,4,1460,1188,1,992,96,58156,32588,65700,0,20272,0,0,0
o,0x00000000,1716945710.045004,172.16.1.2,37015,172.16.3.2,5101,20621,23205,0,64256,65728,6,6,4,1460,1188,1,992,96,58156,32588,65700,0,21720,0,0,0
i,0x00000000,1716945710.045087,172.16.1.2,37015,172.16.3.2,5101,20621,23205,0,64256,65728,6,6,4,1460,1188,1,992,96,58156,32588,65700,0,23168,0,0,0
o,0x00000000,1716945710.045089,172.16.1.2,37015,172.16.3.2,5101,20621,24665,0,64256,65728,6,6,4,1460,1216,1,992,94,58156,29692,65700,0,20272,0,0,0
o,0x00000000,1716945710.045163,172.16.1.2,37015,172.16.3.2,5101,20621,24665,0,64256,65728,6,6,4,1460,1216,1,992,94,58156,29692,65700,0,21720,0,0,0
o,0x00000000,1716945710.045237,172.16.1.2,37015,172.16.3.2,5101,20621,24665,0,64256,65728,6,6,4,1460,1216,1,992,94,58156,29692,65700,0,23168,0,0,0
i,0x00000000,1716945710.073757,172.16.1.2,37015,172.16.3.2,5101,20621,24665,0,64256,65728,6,6,4,1460,1216,1,992,94,58156,58156,65700,0,24616,0,0,0
o,0x00000000,1716945710.073764,172.16.1.2,37015,172.16.3.2,5101,20621,24665,0,64256,65728,6,6,4,1460,1240,1,992,92,58156,55260,65700,0,21720,0,0,0
o,0x00000000,1716945710.074004,172.16.1.2,37015,172.16.3.2,5101,20621,24665,0,64256,65728,6,6,4,1460,1240,1,992,92,58156,55260,65700,0,23168,0,0,0
i,0x00000000,1716945710.504228,172.16.1.2,37015,172.16.3.2,5101,20621,24665,0,64256,65728,6,6,4,1460,1240,1,992,92,58156,58156,65700,0,24616,0,0,0
o,0x00000000,1716945710.504449,172.16.1.2,37015,172.16.3.2,5101,20621,24665,0,64256,65728,6,6,4,1460,1269,1,992,92,58156,55260,65700,0,21720,0,0,0
o,0x00000000,1716945710.504557,172.16.1.2,37015,172.16.3.2,5101,20621,24665,0,64256,65728,6,6,4,1460,1269,1,992,92,58156,55260,65700,0,23168,0,0,0
i,0x00000000,1716945710.504659,172.16.1.2,37015,172.16.3.2,5101,20621,24665,0,64256,65728,6,6,4,1460,1269,1,992,92,58156,55260,65700,0,24616,0,0,0
o,0x00000000,1716945710.504662,172.16.1.2,37015,172.16.3.2,5101,20621,24665,0,64256,65728,6,6,4,1460,1295,1,992,91,58156,52364,65700,0,21720,0,0,0
o,0x00000000,1716945710.504759,172.16.1.2,37015,172.16.3.2,5101,20621,24665,0,64256,65728,6,6,4,1460,1295,1,992,91,58156,52364,65700,0,23168,0,0,0
i,0x00000000,1716945710.505146,172.16.1.2,37015,172.16.3.2,5101,20621,24665,0,64256,65728,6,6,4,1460,1295,1,992,91,58156,52364,65700,0,24616,0,0,0
o,0x00000000,1716945710.505150,172.16.1.2,37015,172.16.3.2,5101,20621,24665,0,64256,65728,6,6,4,1460,1318,1,992,90,58156,49468,65700,0,21720,0,0,0
o,0x00000000,1716945710.505269,172.16.1.2,37015,172.16.3.2,5101,20621,24665,0,64256,65728,6,6,4,1460,1318,1,992,90,58156,49468,65700,0,23168,0,0,0
i,0x00000000,1716945710.505363,172.16.1.2,37015,172.16.3.2,5101,20621,24665,0,64256,65728,6,6,4,1460,1318,1,992,90,58156,49468,65700,0,24616,0,0,0
o,0x00000000,1716945710.505366,172.16.1.2,37015,172.16.3.2,5101,20621,24665,0,64256,65728,6,6,4,1460,1338,1,992,88,58156,46572,65700,0,21720,0,0,0
o,0x00000000,1716945710.505474,172.16.1.2,37015,172.16.3.2,5101,20621,24665,0,64256,65728,6,6,4,1460,1338,1,992,88,58156,46572,65700,0,23168,0,0,0
i,0x00000000,1716945710.505589,172.16.1.2,37015,172.16.3.2,5101,20621,24665,0,64256,65728,6,6,4,1460,1338,1,992,88,58156,46572,65700,0,24616,0,0,0
o,0x00000000,1716945710.505592,172.16.1.2,37015,172.16.3.2,5101,20621,24665,0,64256,65728,6,6,4,1460,1355,1,992,86,58156,43676,65700,0,21720,0,0,0
o,0x00000000,1716945710.505692,172.16.1.2,37015,172.16.3.2,5101,20621,24665,0,64256,65728,6,6,4,1460,1355,1,992,86,58156,43676,65700,0,23168,0,0,0
i,0x00000000,1716945710.506206,172.16.1.2,37015,172.16.3.2,5101,20621,24665,0,64256,65728,6,6,4,1460,1355,1,992,86,58156,43676,65700,0,24616,0,0,0
o,0x00000000,1716945710.506209,172.16.1.2,37015,172.16.3.2,5101,20621,24665,0,64256,65728,6,6,4,1460,1370,1,992,85,58156,40780,65700,0,21720,0,0,0
o,0x00000000,1716945710.506306,172.16.1.2,37015,172.16.3.2,5101,20621,24665,0,64256,65728,6,6,4,1460,1370,1,992,85,58156,40780,65700,0,23168,0,0,0
i,0x00000000,1716945710.506398,172.16.1.2,37015,172.16.3.2,5101,20621,24665,0,64256,65728,6,6,4,1460,1370,1,992,85,58156,40780,65700,0,24616,0,0,0
o,0x00000000,1716945710.506402,172.16.1.2,37015,172.16.3.2,5101,20621,26125,0,64256,65728,6,6,4,1460,1383,1,992,83,58156,37884,65700,0,21720,0,0,0
o,0x00000000,1716945710.506495,172.16.1.2,37015,172.16.3.2,5101,20621,26125,0,64256,65728,6,6,4,1460,1383,1,992,83,58156,37884,65700,0,23168,0,0,0
o,0x00000000,1716945710.506589,172.16.1.2,37015,172.16.3.2,5101,20621,26125,0,64256,65728,6,6,4,1460,1383,1,992,83,58156,37884,65700,0,24616,0,0,0
i,0x00000000,1716945710.506683,172.16.1.2,37015,172.16.3.2,5101,20621,26125,0,64256,65728,6,6,4,1460,1383,1,992,83,58156,37884,65700,0,26064,0,0,0
o,0x00000000,1716945710.506687,172.16.1.2,37015,172.16.3.2,5101,20621,26125,0,64256,65728,6,6,4,1460,1395,1,992,81,58156,34988,65700,0,23168,0,0,0
o,0x00000000,1716945710.506780,172.16.1.2,37015,172.16.3.2,5101,20621,26125,0,64256,65728,6,6,4,1460,1395,1,992,81,58156,34988,65700,0,24616,0,0,0
i,0x00000000,1716945710.933286,172.16.1.2,37015,172.16.3.2,5101,20621,26125,0,64256,65728,6,6,4,1460,1395,1,992,81,58156,58156,65700,0,26064,0,0,0
o,0x00000000,1716945710.933307,172.16.1.2,37015,172.16.3.2,5101,20621,26125,0,65728,65728,6,6,4,1460,1565,1,992,124,58156,56708,65700,0,24616,0,0,0
i,0x00000000,1716945710.964022,172.16.1.2,37015,172.16.3.2,5101,20621,26125,0,65728,65728,6,6,4,1460,1565,1,992,124,58156,56708,65700,0,26064,0,0,0
o,0x00000000,1716945710.964037,172.16.1.2,37015,172.16.3.2,5101,20621,26125,0,64256,65728,6,6,4,1460,1554,1,992,113,58156,53812,65700,0,23168,0,0,0
o,0x00000000,1716945710.964121,172.16.1.2,37015,172.16.3.2,5101,20621,26125,0,64256,65728,6,6,4,1460,1554,1,992,113,58156,53812,65700,0,24616,0,0,0
i,0x00000000,1716945710.964195,172.16.1.2,37015,172.16.3.2,5101,20621,26125,0,64256,65728,6,6,4,1460,1554,1,992,113,58156,53812,65700,0,26064,0,0,0
o,0x00000000,1716945710.964198,172.16.1.2,37015,172.16.3.2,5101,20621,26125,0,64256,65728,6,6,4,1460,1544,1,992,104,58156,50916,65700,0,23168,0,0,0
o,0x00000000,1716945710.964271,172.16.1.2,37015,172.16.3.2,5101,20621,26125,0,64256,65728,6,6,4,1460,1544,1,992,104,58156,50916,65700,0,24616,0,0,0
i,0x00000000,1716945710.973317,172.16.1.2,37015,172.16.3.2,5101,20621,26125,0,64256,65728,6,6,4,1460,1544,1,992,104,66348,66348,65700,0,26064,0,0,0
o,0x00000000,1716945710.973324,172.16.1.2,37015,172.16.3.2,5101,20621,26125,0,64256,65728,6,6,4,1460,1539,1,992,96,66348,63452,65700,0,23168,0,0,0
o,0x00000000,1716945710.973544,172.16.1.2,37015,172.16.3.2,5101,20621,26125,0,64256,65728,6,6,4,1460,1539,1,992,96,66348,63452,65700,0,24616,0,0,0
i,0x00000000,1716945710.973847,172.16.1.2,37015,172.16.3.2,5101,20621,26125,0,64256,65728,6,6,4,1460,1539,1,992,96,66348,63452,65700,0,26064,0,0,0
o,0x00000000,1716945710.973850,172.16.1.2,37015,172.16.3.2,5101,20621,26125,0,64256,65728,6,6,4,1460,1535,1,992,90,66348,60556,65700,0,23168,0,0,0
o,0x00000000,1716945710.973927,172.16.1.2,37015,172.16.3.2,5101,20621,26125,0,64256,65728,6,6,4,1460,1535,1,992,90,66348,60556,65700,0,24616,0,0,0
i,0x00000000,1716945710.974000,172.16.1.2,37015,172.16.3.2,5101,20621,26125,0,64256,65728,6,6,4,1460,1535,1,992,90,66348,60556,65700,0,26064,0,0,0
o,0x00000000,1716945710.974002,172.16.1.2,37015,172.16.3.2,5101,20621,26125,0,64256,65728,6,6,4,1460,1532,1,992,85,66348,57660,65700,0,23168,0,0,0
o,0x00000000,1716945710.974076,172.16.1.2,37015,172.16.3.2,5101,20621,26125,0,64256,65728,6,6,4,1460,1532,1,992,85,66348,57660,65700,0,24616,0,0,0
i,0x00000000,1716945710.974149,172.16.1.2,37015,172.16.3.2,5101,20621,26125,0,64256,65728,6,6,4,1460,1532,1,992,85,66348,57660,65700,0,26064,0,0,0
o,0x00000000,1716945710.974151,172.16.1.2,37015,172.16.3.2,5101,20621,26125,0,64256,65728,6,6,4,1460,1525,1,992,82,66348,54764,65700,0,23168,0,0,0
o,0x00000000,1716945710.974224,172.16.1.2,37015,172.16.3.2,5101,20621,26125,0,64256,65728,6,6,4,1460,1525,1,992,82,66348,54764,65700,0,24616,0,0,0
i,0x00000000,1716945710.974298,172.16.1.2,37015,172.16.3.2,5101,20621,26125,0,64256,65728,6,6,4,1460,1525,1,992,82,66348,54764,65700,0,26064,0,0,0
o,0x00000000,1716945710.974300,172.16.1.2,37015,172.16.3.2,5101,20621,26125,0,64256,65728,6,6,4,1460,1519,1,992,80,66348,51868,65700,0,23168,0,0,0
o,0x00000000,1716945710.974374,172.16.1.2,37015,172.16.3.2,5101,20621,26125,0,64256,65728,6,6,4,1460,1519,1,992,80,66348,51868,65700,0,24616,0,0,0
i,0x00000000,1716945710.974657,172.16.1.2,37015,172.16.3.2,5101,20621,26125,0,64256,65728,6,6,4,1460,1519,1,992,80,66348,51868,65700,0,26064,0,0,0
o,0x00000000,1716945710.974660,172.16.1.2,37015,172.16.3.2,5101,20621,27585,0,64256,65728,6,6,4,1460,1514,1,992,78,66348,48972,65700,0,23168,0,0,0
o,0x00000000,1716945710.974735,172.16.1.2,37015,172.16.3.2,5101,20621,27585,0,64256,65728,6,6,4,1460,1514,1,992,78,66348,48972,65700,0,24616,0,0,0
o,0x00000000,1716945710.974814,172.16.1.2,37015,172.16.3.2,5101,20621,27585,0,64256,65728,6,6,4,1460,1514,1,992,78,66348,48972,65700,0,26064,0,0,0
i,0x00000000,1716945711.253185,172.16.1.2,37015,172.16.3.2,5101,20621,27585,0,64256,65728,6,6,4,1460,1514,1,992,78,66348,66348,65700,0,27512,0,0,0
o,0x00000000,1716945711.253204,172.16.1.2,37015,172.16.3.2,5101,20621,27585,0,65728,65728,6,6,4,1460,1621,1,992,105,66348,64900,65700,0,26064,0,0,0
i,0x00000000,1716945711.423194,172.16.1.2,37015,172.16.3.2,5101,20621,27585,0,65728,65728,6,6,4,1460,1621,1,992,105,66348,64900,65700,0,27512,0,0,0
o,0x00000000,1716945711.423213,172.16.1.2,37015,172.16.3.2,5101,20621,27585,0,65728,65728,6,6,4,1460,1615,1,992,98,66348,63452,65700,0,26064,0,0,0
i,0x00000000,1716945711.443902,172.16.1.2,37015,172.16.3.2,5101,20621,27585,0,65728,65728,6,6,4,1460,1615,1,992,98,66348,66348,65700,0,27512,0,0,0
o,0x00000000,1716945711.443910,172.16.1.2,37015,172.16.3.2,5101,20621,27585,0,64256,65728,6,6,4,1460,1606,1,992,93,66348,63452,65700,0,24616,0,0,0
o,0x00000000,1716945711.443988,172.16.1.2,37015,172.16.3.2,5101,20621,27585,0,64256,65728,6,6,4,1460,1606,1,992,93,66348,63452,65700,0,26064,0,0,0
i,0x00000000,1716945711.444282,172.16.1.2,37015,172.16.3.2,5101,20621,27585,0,64256,65728,6,6,4,1460,1606,1,992,93,66348,63452,65700,0,27512,0,0,0
o,0x00000000,1716945711.444287,172.16.1.2,37015,172.16.3.2,5101,20621,27585,0,64256,65728,6,6,4,1460,1598,1,992,89,66348,60556,65700,0,24616,0,0,0
o,0x00000000,1716945711.444367,172.16.1.2,37015,172.16.3.2,5101,20621,27585,0,64256,65728,6,6,4,1460,1598,1,992,89,66348,60556,65700,0,26064,0,0,0
i,0x00000000,1716945711.453106,172.16.1.2,37015,172.16.3.2,5101,20621,27585,0,64256,65728,6,6,4,1460,1598,1,992,89,66348,66348,65700,0,27512,0,0,0
o,0x00000000,1716945711.453113,172.16.1.2,37015,172.16.3.2,5101,20621,27585,0,64256,65728,6,6,4,1460,1591,1,992,86,66348,63452,65700,0,24616,0,0,0
o,0x00000000,1716945711.453422,172.16.1.2,37015,172.16.3.2,5101,20621,27585,0,64256,65728,6,6,4,1460,1591,1,992,86,66348,63452,65700,0,26064,0,0,0
i,0x00000000,1716945711.453739,172.16.1.2,37015,172.16.3.2,5101,20621,27585,0,64256,65728,6,6,4,1460,1591,1,992,86,66348,63452,65700,0,27512,0,0,0
o,0x00000000,1716945711.453743,172.16.1.2,37015,172.16.3.2,5101,20621,27585,0,64256,65728,6,6,4,1460,1585,1,992,83,66348,60556,65700,0,24616,0,0,0
o,0x00000000,1716945711.453818,172.16.1.2,37015,172.16.3.2,5101,20621,27585,0,64256,65728,6,6,4,1460,1585,1,992,83,66348,60556,65700,0,26064,0,0,0
i,0x00000000,1716945711.453893,172.16.1.2,37015,172.16.3.2,5101,20621,27585,0,64256,65728,6,6,4,1460,1585,1,992,83,66348,60556,65700,0,27512,0,0,0
o,0x00000000,1716945711.453895,172.16.1.2,37015,172.16.3.2,5101,20621,27585,0,64256,65728,6,6,4,1460,1579,1,992,81,66348,57660,65700,0,24616,0,0,0
o,0x00000000,1716945711.453970,172.16.1.2,37015,172.16.3.2,5101,20621,27585,0,64256,65728,6,6,4,1460,1579,1,992,81,66348,57660,65700,0,26064,0,0,0
i,0x00000000,1716945711.454044,172.16.1.2,37015,172.16.3.2,5101,20621,27585,0,64256,65728,6,6,4,1460,1579,1,992,81,66348,57660,65700,0,27512,0,0,0
o,0x00000000,1716945711.454047,172.16.1.2,37015,172.16.3.2,5101,20621,27585,0,64256,65728,6,6,4,1460,1574,1,992,79,66348,54764,65700,0,24616,0,0,0
o,0x00000000,1716945711.454122,172.16.1.2,37015,172.16.3.2,5101,20621,27585,0,64256,65728,6,6,4,1460,1574,1,992,79,66348,54764,65700,0,26064,0,0,0
i,0x00000000,1716945711.454422,172.16.1.2,37015,172.16.3.2,5101,20621,27585,0,64256,65728,6,6,4,1460,1574,1,992,79,66348,54764,65700,0,27512,0,0,0
o,0x00000000,1716945711.454426,172.16.1.2,37015,172.16.3.2,5101,20621,27585,0,64256,65728,6,6,4,1460,1570,1,992,77,66348,51868,65700,0,24616,0,0,0
o,0x00000000,1716945711.454514,172.16.1.2,37015,172.16.3.2,5101,20621,27585,0,64256,65728,6,6,4,1460,1570,1,992,77,66348,51868,65700,0,26064,0,0,0
i,0x00000000,1716945711.454588,172.16.1.2,37015,172.16.3.2,5101,20621,27585,0,64256,65728,6,6,4,1460,1570,1,992,77,66348,51868,65700,0,27512,0,0,0
o,0x00000000,1716945711.454590,172.16.1.2,37015,172.16.3.2,5101,20621,29045,0,64256,65728,6,6,4,1460,1566,1,992,76,66348,48972,65700,0,24616,0,0,0
o,0x00000000,1716945711.454664,172.16.1.2,37015,172.16.3.2,5101,20621,29045,0,64256,65728,6,6,4,1460,1566,1,992,76,66348,48972,65700,0,26064,0,0,0
o,0x00000000,1716945711.454737,172.16.1.2,37015,172.16.3.2,5101,20621,29045,0,64256,65728,6,6,4,1460,1566,1,992,76,66348,48972,65700,0,27512,0,0,0
i,0x00000000,1716945711.733284,172.16.1.2,37015,172.16.3.2,5101,20621,29045,0,64256,65728,6,6,4,1460,1566,1,992,76,66348,66348,65700,0,28960,0,0,0
o,0x00000000,1716945711.733304,172.16.1.2,37015,172.16.3.2,5101,20621,29045,0,65728,65728,6,6,4,1460,1671,1,992,104,66348,64900,65700,0,27512,0,0,0
i,0x00000000,1716945711.883163,172.16.1.2,37015,172.16.3.2,5101,20621,29045,0,65728,65728,6,6,4,1460,1671,1,992,104,66348,64900,65700,0,28960,0,0,0
o,0x00000000,1716945711.883186,172.16.1.2,37015,172.16.3.2,5101,20621,29045,0,65728,65728,6,6,4,1460,1711,1,992,107,66348,63452,65700,0,27512,0,0,0
i,0x00000000,1716945711.903038,172.16.1.2,37015,172.16.3.2,5101,20621,29045,0,65728,65728,6,6,4,1460,1711,1,992,107,66348,66348,65700,0,28960,0,0,0
o,0x00000000,1716945711.903046,172.16.1.2,37015,172.16.3.2,5101,20621,29045,0,64256,65728,6,6,4,1460,1690,1,992,103,66348,63452,65700,0,26064,0,0,0
o,0x00000000,1716945711.903124,172.16.1.2,37015,172.16.3.2,5101,20621,29045,0,64256,65728,6,6,4,1460,1690,1,992,103,66348,63452,65700,0,27512,0,0,0
i,0x00000000,1716945711.903217,172.16.1.2,37015,172.16.3.2,5101,20621,29045,0,64256,65728,6,6,4,1460,1690,1,992,103,66348,63452,65700,0,28960,0,0,0
o,0x00000000,1716945711.903221,172.16.1.2,37015,172.16.3.2,5101,20621,29045,0,64256,65728,6,6,4,1460,1663,1,992,101,66348,60556,65700,0,26064,0,0,0
o,0x00000000,1716945711.903317,172.16.1.2,37015,172.16.3.2,5101,20621,29045,0,64256,65728,6,6,4,1460,1663,1,992,101,66348,60556,65700,0,27512,0,0,0
i,0x00000000,1716945711.943874,172.16.1.2,37015,172.16.3.2,5101,20621,29045,0,64256,65728,6,6,4,1460,1663,1,992,101,66348,66348,65700,0,28960,0,0,0
o,0x00000000,1716945711.943885,172.16.1.2,37015,172.16.3.2,5101,20621,29045,0,64256,65728,6,6,4,1460,1656,1,992,96,66348,63452,65700,0,26064,0,0,0
o,0x00000000,1716945711.943988,172.16.1.2,37015,172.16.3.2,5101,20621,29045,0,64256,65728,6,6,4,1460,1656,1,992,96,66348,63452,65700,0,27512,0,0,0
i,0x00000000,1716945711.944064,172.16.1.2,37015,172.16.3.2,5101,20621,29045,0,64256,65728,6,6,4,1460,1656,1,992,96,66348,63452,65700,0,28960,0,0,0
o,0x00000000,1716945711.944067,172.16.1.2,37015,172.16.3.2,5101,20621,29045,0,64256,65728,6,6,4,1460,1645,1,992,92,66348,60556,65700,0,26064,0,0,0
o,0x00000000,1716945711.944143,172.16.1.2,37015,172.16.3.2,5101,20621,29045,0,64256,65728,6,6,4,1460,1645,1,992,92,66348,60556,65700,0,27512,0,0,0
i,0x00000000,1716945711.944216,172.16.1.2,37015,172.16.3.2,5101,20621,29045,0,64256,65728,6,6,4,1460,1645,1,992,92,66348,60556,65700,0,28960,0,0,0
o,0x00000000,1716945711.944219,172.16.1.2,37015,172.16.3.2,5101,20621,29045,0,64256,65728,6,6,4,1460,1636,1,992,89,66348,57660,65700,0,26064,0,0,0
o,0x00000000,1716945711.944294,172.16.1.2,37015,172.16.3.2,5101,20621,29045,0,64256,65728,6,6,4,1460,1636,1,992,89,66348,57660,65700,0,27512,0,0,0
i,0x00000000,1716945711.944593,172.16.1.2,37015,172.16.3.2,5101,20621,29045,0,64256,65728,6,6,4,1460,1636,1,992,89,66348,57660,65700,0,28960,0,0,0
o,0x00000000,1716945711.944597,172.16.1.2,37015,172.16.3.2,5101,20621,29045,0,64256,65728,6,6,4,1460,1628,1,992,86,66348,54764,65700,0,26064,0,0,0
o,0x00000000,1716945711.944671,172.16.1.2,37015,172.16.3.2,5101,20621,29045,0,64256,65728,6,6,4,1460,1628,1,992,86,66348,54764,65700,0,27512,0,0,0
i,0x00000000,1716945711.944744,172.16.1.2,37015,172.16.3.2,5101,20621,29045,0,64256,65728,6,6,4,1460,1628,1,992,86,66348,54764,65700,0,28960,0,0,0
o,0x00000000,1716945711.944747,172.16.1.2,37015,172.16.3.2,5101,20621,29045,0,64256,65728,6,6,4,1460,1621,1,992,84,66348,51868,65700,0,26064,0,0,0
o,0x00000000,1716945711.944820,172.16.1.2,37015,172.16.3.2,5101,20621,29045,0,64256,65728,6,6,4,1460,1621,1,992,84,66348,51868,65700,0,27512,0,0,0
i,0x00000000,1716945711.944893,172.16.1.2,37015,172.16.3.2,5101,20621,29045,0,64256,65728,6,6,4,1460,1621,1,992,84,66348,51868,65700,0,28960,0,0,0
o,0x00000000,1716945711.944896,172.16.1.2,37015,172.16.3.2,5101,20621,29045,0,64256,65728,6,6,4,1460,1615,1,992,82,66348,48972,65700,0,26064,0,0,0
o,0x00000000,1716945711.944969,172.16.1.2,37015,172.16.3.2,5101,20621,29045,0,64256,65728,6,6,4,1460,1615,1,992,82,66348,48972,65700,0,27512,0,0,0
i,0x00000000,1716945711.945040,172.16.1.2,37015,172.16.3.2,5101,20621,29045,0,64256,65728,6,6,4,1460,1615,1,992,82,66348,48972,65700,0,28960,0,0,0
o,0x00000000,1716945711.945043,172.16.1.2,37015,172.16.3.2,5101,20621,30505,0,64256,65728,6,6,4,1460,1610,1,992,80,66348,46076,65700,0,26064,0,0,0
o,0x00000000,1716945711.945116,172.16.1.2,37015,172.16.3.2,5101,20621,30505,0,64256,65728,6,6,4,1460,1610,1,992,80,66348,46076,65700,0,27512,0,0,0
o,0x00000000,1716945711.945190,172.16.1.2,37015,172.16.3.2,5101,20621,30505,0,64256,65728,6,6,4,1460,1610,1,992,80,66348,46076,65700,0,28960,0,0,0
i,0x00000000,1716945712.412447,172.16.1.2,37015,172.16.3.2,5101,20621,30505,0,64256,65728,6,6,4,1460,1610,1,992,80,66348,66348,65700,0,30408,0,0,0
o,0x00000000,1716945712.412466,172.16.1.2,37015,172.16.3.2,5101,20621,30505,0,65728,65728,6,6,4,1460,1681,1,992,98,66348,64900,65700,0,28960,0,0,0
i,0x00000000,1716945712.412828,172.16.1.2,37015,172.16.3.2,5101,20621,30505,0,65728,65728,6,6,4,1460,1681,1,992,98,66348,64900,65700,0,30408,0,0,0
o,0x00000000,1716945712.412833,172.16.1.2,37015,172.16.3.2,5101,20621,30505,0,65728,65728,6,6,4,1460,1683,1,992,92,66348,63452,65700,0,28960,0,0,0
i,0x00000000,1716945712.432027,172.16.1.2,37015,172.16.3.2,5101,20621,30505,0,65728,65728,6,6,4,1460,1683,1,992,92,66348,66348,65700,0,30408,0,0,0
o,0x00000000,1716945712.432034,172.16.1.2,37015,172.16.3.2,5101,20621,30505,0,64256,65728,6,6,4,1460,1681,1,992,88,66348,63452,65700,0,27512,0,0,0
o,0x00000000,1716945712.433023,172.16.1.2,37015,172.16.3.2,5101,20621,30505,0,64256,65728,6,6,4,1460,1681,1,992,88,66348,63452,65700,0,28960,0,0,0
i,0x00000000,1716945712.433118,172.16.1.2,37015,172.16.3.2,5101,20621,30505,0,64256,65728,6,6,4,1460,1681,1,992,88,66348,63452,65700,0,30408,0,0,0
o,0x00000000,1716945712.433122,172.16.1.2,37015,172.16.3.2,5101,20621,30505,0,64256,65728,6,6,4,1460,1679,1,992,84,66348,60556,65700,0,27512,0,0,0
o,0x00000000,1716945712.433219,172.16.1.2,37015,172.16.3.2,5101,20621,30505,0,64256,65728,6,6,4,1460,1679,1,992,84,66348,60556,65700,0,28960,0,0,0
i,0x00000000,1716945712.433355,172.16.1.2,37015,172.16.3.2,5101,20621,30505,0,64256,65728,6,6,4,1460,1679,1,992,84,74540,60556,65700,0,30408,0,0,0
o,0x00000000,1716945712.433360,172.16.1.2,37015,172.16.3.2,5101,20621,30505,0,64256,65728,6,6,4,1460,1662,1,992,85,74540,57660,65700,0,27512,0,0,0
o,0x00000000,1716945712.433462,172.16.1.2,37015,172.16.3.2,5101,20621,30505,0,64256,65728,6,6,4,1460,1662,1,992,85,74540,57660,65700,0,28960,0,0,0
i,0x00000000,1716945712.433569,172.16.1.2,37015,172.16.3.2,5101,20621,30505,0,64256,65728,6,6,4,1460,1662,1,992,85,74540,57660,65700,0,30408,0,0,0
o,0x00000000,1716945712.433572,172.16.1.2,37015,172.16.3.2,5101,20621,30505,0,64256,65728,6,6,4,1460,1647,1,992,85,74540,54764,65700,0,27512,0,0,0
o,0x00000000,1716945712.433670,172.16.1.2,37015,172.16.3.2,5101,20621,30505,0,64256,65728,6,6,4,1460,1647,1,992,85,74540,54764,65700,0,28960,0,0,0
i,0x00000000,1716945712.433765,172.16.1.2,37015,172.16.3.2,5101,20621,30505,0,64256,65728,6,6,4,1460,1647,1,992,85,74540,54764,65700,0,30408,0,0,0
o,0x00000000,1716945712.433769,172.16.1.2,37015,172.16.3.2,5101,20621,30505,0,64256,65728,6,6,4,1460,1634,1,992,84,74540,51868,65700,0,27512,0,0,0
o,0x00000000,1716945712.433863,172.16.1.2,37015,172.16.3.2,5101,20621,30505,0,64256,65728,6,6,4,1460,1634,1,992,84,74540,51868,65700,0,28960,0,0,0
i,0x00000000,1716945712.433958,172.16.1.2,37015,172.16.3.2,5101,20621,30505,0,64256,65728,6,6,4,1460,1634,1,992,84,74540,51868,65700,0,30408,0,0,0
o,0x00000000,1716945712.433962,172.16.1.2,37015,172.16.3.2,5101,20621,30505,0,64256,65728,6,6,4,1460,1622,1,992,84,74540,48972,65700,0,27512,0,0,0
o,0x00000000,1716945712.434054,172.16.1.2,37015,172.16.3.2,5101,20621,30505,0,64256,65728,6,6,4,1460,1622,1,992,84,74540,48972,65700,0,28960,0,0,0
i,0x00000000,1716945712.434149,172.16.1.2,37015,172.16.3.2,5101,20621,30505,0,64256,65728,6,6,4,1460,1622,1,992,84,74540,48972,65700,0,30408,0,0,0
o,0x00000000,1716945712.434152,172.16.1.2,37015,172.16.3.2,5101,20621,30505,0,64256,65728,6,6,4,1460,1612,1,992,83,74540,46076,65700,0,27512,0,0,0
o,0x00000000,1716945712.434247,172.16.1.2,37015,172.16.3.2,5101,20621,30505,0,64256,65728,6,6,4,1460,1612,1,992,83,74540,46076,65700,0,28960,0,0,0
i,0x00000000,1716945712.434348,172.16.1.2,37015,172.16.3.2,5101,20621,30505,0,64256,65728,6,6,4,1460,1612,1,992,83,74540,46076,65700,0,30408,0,0,0
o,0x00000000,1716945712.434352,172.16.1.2,37015,172.16.3.2,5101,20621,30505,0,64256,65728,6,6,4,1460,1603,1,992,82,74540,43180,65700,0,27512,0,0,0
o,0x00000000,1716945712.434463,172.16.1.2,37015,172.16.3.2,5101,20621,30505,0,64256,65728,6,6,4,1460,1603,1,992,82,74540,43180,65700,0,28960,0,0,0
i,0x00000000,1716945712.452685,172.16.1.2,37015,172.16.3.2,5101,20621,30505,0,64256,65728,6,6,4,1460,1603,1,992,82,74540,74540,65700,0,30408,0,0,0
o,0x00000000,1716945712.452692,172.16.1.2,37015,172.16.3.2,5101,20621,30505,0,64256,65728,6,6,4,1460,1607,1,992,80,74540,71644,65700,0,27512,0,0,0
o,0x00000000,1716945712.452929,172.16.1.2,37015,172.16.3.2,5101,20621,30505,0,64256,65728,6,6,4,1460,1607,1,992,80,74540,71644,65700,0,28960,0,0,0
i,0x00000000,1716945712.893088,172.16.1.2,37015,172.16.3.2,5101,20621,30505,0,64256,65728,6,6,4,1460,1607,1,992,80,74540,74540,65700,0,30408,0,0,0
o,0x00000000,1716945712.893107,172.16.1.2,37015,172.16.3.2,5101,20621,31965,0,65728,65728,6,6,4,1460,1787,1,992,128,74540,73092,65700,0,28960,0,0,0
o,0x00000000,1716945712.893353,172.16.1.2,37015,172.16.3.2,5101,20621,31965,0,65728,65728,6,6,4,1460,1787,1,992,128,74540,73092,65700,0,30408,0,0,0
i,0x00000000,1716945712.912695,172.16.1.2,37015,172.16.3.2,5101,20621,31965,0,65728,65728,6,6,4,1460,1787,1,992,128,74540,73092,65700,0,31856,0,0,0
o,0x00000000,1716945712.912701,172.16.1.2,37015,172.16.3.2,5101,20621,31965,0,64256,65728,6,6,4,1460,1760,1,992,121,74540,70196,65700,0,28960,0,0,0
o,0x00000000,1716945712.912942,172.16.1.2,37015,172.16.3.2,5101,20621,31965,0,64256,65728,6,6,4,1460,1760,1,992,121,74540,70196,65700,0,30408,0,0,0
i,0x00000000,1716945712.942418,172.16.1.2,37015,172.16.3.2,5101,20621,31965,0,64256,65728,6,6,4,1460,1760,1,992,121,74540,74540,65700,0,31856,0,0,0
o,0x00000000,1716945712.942425,172.16.1.2,37015,172.16.3.2,5101,20621,31965,0,64256,65728,6,6,4,1460,1744,1,992,113,74540,71644,65700,0,28960,0,0,0
o,0x00000000,1716945712.942507,172.16.1.2,37015,172.16.3.2,5101,20621,31965,0,64256,65728,6,6,4,1460,1744,1,992,113,74540,71644,65700,0,30408,0,0,0
i,0x00000000,1716945712.942580,172.16.1.2,37015,172.16.3.2,5101,20621,31965,0,64256,65728,6,6,4,1460,1744,1,992,113,74540,71644,65700,0,31856,0,0,0
o,0x00000000,1716945712.942585,172.16.1.2,37015,172.16.3.2,5101,20621,31965,0,64256,65728,6,6,4,1460,1730,1,992,106,74540,68748,65700,0,28960,0,0,0
o,0x00000000,1716945712.942680,172.16.1.2,37015,172.16.3.2,5101,20621,31965,0,64256,65728,6,6,4,1460,1730,1,992,106,74540,68748,65700,0,30408,0,0,0
i,0x00000000,1716945712.942783,172.16.1.2,37015,172.16.3.2,5101,20621,31965,0,64256,65728,6,6,4,1460,1730,1,992,106,74540,68748,65700,0,31856,0,0,0
o,0x00000000,1716945712.942786,172.16.1.2,37015,172.16.3.2,5101,20621,31965,0,64256,65728,6,6,4,1460,1718,1,992,101,74540,65852,65700,0,28960,0,0,0
o,0x00000000,1716945712.942894,172.16.1.2,37015,172.16.3.2,5101,20621,31965,0,64256,65728,6,6,4,1460,1718,1,992,101,74540,65852,65700,0,30408,0,0,0
i,0x00000000,1716945712.943253,172.16.1.2,37015,172.16.3.2,5101,20621,31965,0,64256,65728,6,6,4,1460,1718,1,992,101,74540,65852,65700,0,31856,0,0,0
o,0x00000000,1716945712.943257,172.16.1.2,37015,172.16.3.2,5101,20621,31965,0,64256,65728,6,6,4,1460,1708,1,992,96,74540,62956,65700,0,28960,0,0,0
o,0x00000000,1716945712.943333,172.16.1.2,37015,172.16.3.2,5101,20621,31965,0,64256,65728,6,6,4,1460,1708,1,992,96,74540,62956,65700,0,30408,0,0,0
i,0x00000000,1716945712.943407,172.16.1.2,37015,172.16.3.2,5101,20621,31965,0,64256,65728,6,6,4,1460,1708,1,992,96,74540,62956,65700,0,31856,0,0,0
o,0x00000000,1716945712.943410,172.16.1.2,37015,172.16.3.2,5101,20621,31965,0,64256,65728,6,6,4,1460,1699,1,992,93,74540,60060,65700,0,28960,0,0,0
o,0x00000000,1716945712.943482,172.16.1.2,37015,172.16.3.2,5101,20621,31965,0,64256,65728,6,6,4,1460,1699,1,992,93,74540,60060,65700,0,30408,0,0,0
i,0x00000000,1716945712.943556,172.16.1.2,37015,172.16.3.2,5101,20621,31965,0,64256,65728,6,6,4,1460,1699,1,992,93,74540,60060,65700,0,31856,0,0,0
o,0x00000000,1716945712.943559,172.16.1.2,37015,172.16.3.2,5101,20621,31965,0,64256,65728,6,6,4,1460,1691,1,992,89,74540,57164,65700,0,28960,0,0,0
o,0x00000000,1716945712.943651,172.16.1.2,37015,172.16.3.2,5101,20621,31965,0,64256,65728,6,6,4,1460,1691,1,992,89,74540,57164,65700,0,30408,0,0,0
i,0x00000000,1716945712.943749,172.16.1.2,37015,172.16.3.2,5101,20621,31965,0,64256,65728,6,6,4,1460,1691,1,992,89,74540,57164,65700,0,31856,0,0,0
o,0x00000000,1716945712.943752,172.16.1.2,37015,172.16.3.2,5101,20621,31965,0,64256,65728,6,6,4,1460,1684,1,992,87,74540,54268,65700,0,28960,0,0,0
o,0x00000000,1716945712.943837,172.16.1.2,37015,172.16.3.2,5101,20621,31965,0,64256,65728,6,6,4,1460,1684,1,992,87,74540,54268,65700,0,30408,0,0,0
i,0x00000000,1716945712.943906,172.16.1.2,37015,172.16.3.2,5101,20621,31965,0,64256,65728,6,6,4,1460,1684,1,992,87,74540,54268,65700,0,31856,0,0,0
o,0x00000000,1716945712.943909,172.16.1.2,37015,172.16.3.2,5101,20621,31965,0,64256,65728,6,6,4,1460,1678,1,992,84,74540,51372,65700,0,28960,0,0,0
o,0x00000000,1716945712.943983,172.16.1.2,37015,172.16.3.2,5101,20621,31965,0,64256,65728,6,6,4,1460,1678,1,992,84,74540,51372,65700,0,30408,0,0,0
i,0x00000000,1716945712.993315,172.16.1.2,37015,172.16.3.2,5101,20621,31965,0,64256,65728,6,6,4,1460,1678,1,992,84,74540,74540,65700,0,31856,0,0,0
o,0x00000000,1716945712.993333,172.16.1.2,37015,172.16.3.2,5101,20621,31965,0,64256,65728,6,6,4,1460,1685,1,992,83,74540,71644,65700,0,28960,0,0,0
o,0x00000000,1716945712.993583,172.16.1.2,37015,172.16.3.2,5101,20621,31965,0,64256,65728,6,6,4,1460,1685,1,992,83,74540,71644,65700,0,30408,0,0,0
i,0x00000000,1716945713.422714,172.16.1.2,37015,172.16.3.2,5101,20621,31965,0,64256,65728,6,6,4,1460,1685,1,992,83,74540,74540,65700,0,31856,0,0,0
o,0x00000000,1716945713.422737,172.16.1.2,37015,172.16.3.2,5101,20621,33425,0,64256,65728,6,6,4,1460,1687,1,992,81,74540,71644,65700,0,28960,0,0,0
o,0x00000000,1716945713.423089,172.16.1.2,37015,172.16.3.2,5101,20621,33425,0,64256,65728,6,6,4,1460,1687,1,992,81,74540,71644,65700,0,30408,0,0,0
o,0x00000000,1716945713.423417,172.16.1.2,37015,172.16.3.2,5101,20621,33425,0,64256,65728,6,6,4,1460,1687,1,992,81,74540,71644,65700,0,31856,0,0,0
i,0x00000000,1716945713.452881,172.16.1.2,37015,172.16.3.2,5101,20621,33425,0,64256,65728,6,6,4,1460,1687,1,992,81,74540,74540,65700,0,33304,0,0,0
o,0x00000000,1716945713.452892,172.16.1.2,37015,172.16.3.2,5101,20621,33425,0,64256,65728,6,6,4,1460,1693,1,992,81,74540,71644,65700,0,30408,0,0,0
o,0x00000000,1716945713.453166,172.16.1.2,37015,172.16.3.2,5101,20621,33425,0,64256,65728,6,6,4,1460,1693,1,992,81,74540,71644,65700,0,31856,0,0,0
i,0x00000000,1716945713.492301,172.16.1.2,37015,172.16.3.2,5101,20621,33425,0,64256,65728,6,6,4,1460,1693,1,992,81,74540,74540,65700,0,33304,0,0,0
o,0x00000000,1716945713.492309,172.16.1.2,37015,172.16.3.2,5101,20621,33425,0,64256,65728,6,6,4,1460,1702,1,992,81,74540,71644,65700,0,30408,0,0,0
o,0x00000000,1716945713.492777,172.16.1.2,37015,172.16.3.2,5101,20621,33425,0,64256,65728,6,6,4,1460,1702,1,992,81,74540,71644,65700,0,31856,0,0,0
i,0x00000000,1716945713.492871,172.16.1.2,37015,172.16.3.2,5101,20621,33425,0,64256,65728,6,6,4,1460,1702,1,992,81,74540,71644,65700,0,33304,0,0,0
o,0x00000000,1716945713.492875,172.16.1.2,37015,172.16.3.2,5101,20621,33425,0,64256,65728,6,6,4,1460,1710,1,992,81,74540,68748,65700,0,30408,0,0,0
o,0x00000000,1716945713.492971,172.16.1.2,37015,172.16.3.2,5101,20621,33425,0,64256,65728,6,6,4,1460,1710,1,992,81,74540,68748,65700,0,31856,0,0,0
i,0x00000000,1716945713.493092,172.16.1.2,37015,172.16.3.2,5101,20621,33425,0,64256,65728,6,6,4,1460,1710,1,992,81,74540,68748,65700,0,33304,0,0,0
o,0x00000000,1716945713.493095,172.16.1.2,37015,172.16.3.2,5101,20621,33425,0,64256,65728,6,6,4,1460,1717,1,992,81,74540,65852,65700,0,30408,0,0,0
o,0x00000000,1716945713.493229,172.16.1.2,37015,172.16.3.2,5101,20621,33425,0,64256,65728,6,6,4,1460,1717,1,992,81,74540,65852,65700,0,31856,0,0,0
i,0x00000000,1716945713.493339,172.16.1.2,37015,172.16.3.2,5101,20621,33425,0,64256,65728,6,6,4,1460,1717,1,992,81,82732,65852,65700,0,33304,0,0,0
o,0x00000000,1716945713.493342,172.16.1.2,37015,172.16.3.2,5101,20621,33425,0,64256,65728,6,6,4,1460,1723,1,992,81,82732,62956,65700,0,30408,0,0,0
o,0x00000000,1716945713.493466,172.16.1.2,37015,172.16.3.2,5101,20621,33425,0,64256,65728,6,6,4,1460,1723,1,992,81,82732,62956,65700,0,31856,0,0,0
i,0x00000000,1716945713.493551,172.16.1.2,37015,172.16.3.2,5101,20621,33425,0,64256,65728,6,6,4,1460,1723,1,992,81,82732,62956,65700,0,33304,0,0,0
o,0x00000000,1716945713.493554,172.16.1.2,37015,172.16.3.2,5101,20621,33425,0,64256,65728,6,6,4,1460,1728,1,992,81,82732,60060,65700,0,30408,0,0,0
o,0x00000000,1716945713.493637,172.16.1.2,37015,172.16.3.2,5101,20621,33425,0,64256,65728,6,6,4,1460,1728,1,992,81,82732,60060,65700,0,31856,0,0,0
i,0x00000000,1716945713.494331,172.16.1.2,37015,172.16.3.2,5101,20621,33425,0,64256,65728,6,6,4,1460,1728,1,992,81,82732,60060,65700,0,33304,0,0,0
o,0x00000000,1716945713.494335,172.16.1.2,37015,172.16.3.2,5101,20621,33425,0,64256,65728,6,6,4,1460,1732,1,992,80,82732,57164,65700,0,30408,0,0,0
o,0x00000000,1716945713.494410,172.16.1.2,37015,172.16.3.2,5101,20621,33425,0,64256,65728,6,6,4,1460,1732,1,992,80,82732,57164,65700,0,31856,0,0,0
i,0x00000000,1716945713.494489,172.16.1.2,37015,172.16.3.2,5101,20621,33425,0,64256,65728,6,6,4,1460,1732,1,992,80,82732,57164,65700,0,33304,0,0,0
o,0x00000000,1716945713.494492,172.16.1.2,37015,172.16.3.2,5101,20621,33425,0,64256,65728,6,6,4,1460,1736,1,992,80,82732,54268,65700,0,30408,0,0,0
o,0x00000000,1716945713.494565,172.16.1.2,37015,172.16.3.2,5101,20621,33425,0,64256,65728,6,6,4,1460,1736,1,992,80,82732,54268,65700,0,31856,0,0,0
i,0x00000000,1716945713.494637,172.16.1.2,37015,172.16.3.2,5101,20621,33425,0,64256,65728,6,6,4,1460,1736,1,992,80,82732,54268,65700,0,33304,0,0,0
o,0x00000000,1716945713.494640,172.16.1.2,37015,172.16.3.2,5101,20621,33425,0,64256,65728,6,6,4,1460,1739,1,992,79,82732,51372,65700,0,30408,0,0,0
o,0x00000000,1716945713.494712,172.16.1.2,37015,172.16.3.2,5101,20621,33425,0,64256,65728,6,6,4,1460,1739,1,992,79,82732,51372,65700,0,31856,0,0,0
i,0x00000000,1716945713.552361,172.16.1.2,37015,172.16.3.2,5101,20621,33425,0,64256,65728,6,6,4,1460,1739,1,992,79,82732,82732,65700,0,33304,0,0,0
o,0x00000000,1716945713.552377,172.16.1.2,37015,172.16.3.2,5101,20621,33425,0,64256,65728,6,6,4,1460,1746,1,992,80,82732,79836,65700,0,30408,0,0,0
o,0x00000000,1716945713.552643,172.16.1.2,37015,172.16.3.2,5101,20621,33425,0,64256,65728,6,6,4,1460,1746,1,992,80,82732,79836,65700,0,31856,0,0,0
i,0x00000000,1716945713.982073,172.16.1.2,37015,172.16.3.2,5101,20621,33425,0,64256,65728,6,6,4,1460,1746,1,992,80,82732,82732,65700,0,33304,0,0,0
o,0x00000000,1716945713.982093,172.16.1.2,37015,172.16.3.2,5101,20621,33425,0,64256,65728,6,6,4,1460,1752,1,992,80,82732,79836,65700,0,30408,0,0,0
o,0x00000000,1716945713.982382,172.16.1.2,37015,172.16.3.2,5101,20621,33425,0,64256,65728,6,6,4,1460,1752,1,992,80,82732,79836,65700,0,31856,0,0,0
i,0x00000000,1716945714.012029,172.16.1.2,37015,172.16.3.2,5101,20621,33425,0,64256,65728,6,6,4,1460,1752,1,992,80,82732,82732,65700,0,33304,0,0,0
o,0x00000000,1716945714.012035,172.16.1.2,37015,172.16.3.2,5101,20621,34885,0,65728,65728,6,6,4,1460,1769,1,992,84,82732,81284,65700,0,31856,0,0,0
o,0x00000000,1716945714.012295,172.16.1.2,37015,172.16.3.2,5101,20621,34885,0,65728,65728,6,6,4,1460,1769,1,992,84,82732,81284,65700,0,33304,0,0,0
i,0x00000000,1716945714.042225,172.16.1.2,37015,172.16.3.2,5101,20621,34885,0,65728,65728,6,6,4,1460,1769,1,992,84,82732,81284,65700,0,34752,0,0,0
o,0x00000000,1716945714.042234,172.16.1.2,37015,172.16.3.2,5101,20621,34885,0,64256,65728,6,6,4,1460,1784,1,992,86,82732,78388,65700,0,31856,0,0,0
o,0x00000000,1716945714.042334,172.16.1.2,37015,172.16.3.2,5101,20621,34885,0,64256,65728,6,6,4,1460,1784,1,992,86,82732,78388,65700,0,33304,0,0,0
i,0x00000000,1716945714.042430,172.16.1.2,37015,172.16.3.2,5101,20621,34885,0,64256,65728,6,6,4,1460,1784,1,992,86,82732,78388,65700,0,34752,0,0,0
o,0x00000000,1716945714.042434,172.16.1.2,37015,172.16.3.2,5101,20621,34885,0,64256,65728,6,6,4,1460,1781,1,992,84,82732,75492,65700,0,31856,0,0,0
o,0x00000000,1716945714.042527,172.16.1.2,37015,172.16.3.2,5101,20621,34885,0,64256,65728,6,6,4,1460,1781,1,992,84,82732,75492,65700,0,33304,0,0,0
i,0x00000000,1716945714.042752,172.16.1.2,37015,172.16.3.2,5101,20621,34885,0,64256,65728,6,6,4,1460,1781,1,992,84,82732,75492,65700,0,34752,0,0,0
o,0x00000000,1716945714.042755,172.16.1.2,37015,172.16.3.2,5101,20621,34885,0,64256,65728,6,6,4,1460,1779,1,992,82,82732,72596,65700,0,31856,0,0,0
o,0x00000000,1716945714.042847,172.16.1.2,37015,172.16.3.2,5101,20621,34885,0,64256,65728,6,6,4,1460,1779,1,992,82,82732,72596,65700,0,33304,0,0,0
i,0x00000000,1716945714.043212,172.16.1.2,37015,172.16.3.2,5101,20621,34885,0,64256,65728,6,6,4,1460,1779,1,992,82,82732,72596,65700,0,34752,0,0,0
o,0x00000000,1716945714.043216,172.16.1.2,37015,172.16.3.2,5101,20621,34885,0,64256,65728,6,6,4,1460,1777,1,992,81,82732,69700,65700,0,31856,0,0,0
o,0x00000000,1716945714.043314,172.16.1.2,37015,172.16.3.2,5101,20621,34885,0,64256,65728,6,6,4,1460,1777,1,992,81,82732,69700,65700,0,33304,0,0,0
i,0x00000000,1716945714.043692,172.16.1.2,37015,172.16.3.2,5101,20621,34885,0,64256,65728,6,6,4,1460,1777,1,992,81,82732,69700,65700,0,34752,0,0,0
o,0x00000000,1716945714.043696,172.16.1.2,37015,172.16.3.2,5101,20621,34885,0,64256,65728,6,6,4,1460,1775,1,992,80,82732,66804,65700,0,31856,0,0,0
o,0x00000000,1716945714.043791,172.16.1.2,37015,172.16.3.2,5101,20621,34885,0,64256,65728,6,6,4,1460,1775,1,992,80,82732,66804,65700,0,33304,0,0,0
i,0x00000000,1716945714.044184,172.16.1.2,37015,172.16.3.2,5101,20621,34885,0,64256,65728,6,6,4,1460,1775,1,992,80,82732,66804,65700,0,34752,0,0,0
o,0x00000000,1716945714.044188,172.16.1.2,37015,172.16.3.2,5101,20621,34885,0,64256,65728,6,6,4,1460,1774,1,992,79,82732,63908,65700,0,31856,0,0,0
o,0x00000000,1716945714.044295,172.16.1.2,37015,172.16.3.2,5101,20621,34885,0,64256,65728,6,6,4,1460,1774,1,992,79,82732,63908,65700,0,33304,0,0,0
i,0x00000000,1716945714.044400,172.16.1.2,37015,172.16.3.2,5101,20621,34885,0,64256,65728,6,6,4,1460,1774,1,992,79,82732,63908,65700,0,34752,0,0,0
o,0x00000000,1716945714.044404,172.16.1.2,37015,172.16.3.2,5101,20621,34885,0,64256,65728,6,6,4,1460,1773,1,992,78,82732,61012,65700,0,31856,0,0,0
o,0x00000000,1716945714.044501,172.16.1.2,37015,172.16.3.2,5101,20621,34885,0,64256,65728,6,6,4,1460,1773,1,992,78,82732,61012,65700,0,33304,0,0,0
i,0x00000000,1716945714.044593,172.16.1.2,37015,172.16.3.2,5101,20621,34885,0,64256,65728,6,6,4,1460,1773,1,992,78,82732,61012,65700,0,34752,0,0,0
o,0x00000000,1716945714.044596,172.16.1.2,37015,172.16.3.2,5101,20621,34885,0,64256,65728,6,6,4,1460,1772,1,992,78,82732,58116,65700,0,31856,0,0,0
o,0x00000000,1716945714.044692,172.16.1.2,37015,172.16.3.2,5101,20621,34885,0,64256,65728,6,6,4,1460,1772,1,992,78,82732,58116,65700,0,33304,0,0,0
i,0x00000000,1716945714.044786,172.16.1.2,37015,172.16.3.2,5101,20621,34885,0,64256,65728,6,6,4,1460,1772,1,992,78,82732,58116,65700,0,34752,0,0,0
o,0x00000000,1716945714.044789,172.16.1.2,37015,172.16.3.2,5101,20621,34885,0,64256,65728,6,6,4,1460,1771,1,992,77,82732,55220,65700,0,31856,0,0,0
o,0x00000000,1716945714.044884,172.16.1.2,37015,172.16.3.2,5101,20621,34885,0,64256,65728,6,6,4,1460,1771,1,992,77,82732,55220,65700,0,33304,0,0,0
i,0x00000000,1716945714.091513,172.16.1.2,37015,172.16.3.2,5101,20621,34885,0,64256,65728,6,6,4,1460,1771,1,992,77,82732,82732,65700,0,34752,0,0,0
o,0x00000000,1716945714.091522,172.16.1.2,37015,172.16.3.2,5101,20621,34885,0,64256,65728,6,6,4,1460,1766,1,992,78,82732,79836,65700,0,31856,0,0,0
o,0x00000000,1716945714.091772,172.16.1.2,37015,172.16.3.2,5101,20621,34885,0,64256,65728,6,6,4,1460,1766,1,992,78,82732,79836,65700,0,33304,0,0,0
i,0x00000000,1716945714.572792,172.16.1.2,37015,172.16.3.2,5101,20621,34885,0,64256,65728,6,6,4,1460,1766,1,992,78,82732,82732,65700,0,34752,0,0,0
o,0x00000000,1716945714.572813,172.16.1.2,37015,172.16.3.2,5101,20621,34885,0,64256,65728,6,6,4,1460,1782,1,992,82,82732,79836,65700,0,31856,0,0,0
o,0x00000000,1716945714.573086,172.16.1.2,37015,172.16.3.2,5101,20621,34885,0,64256,65728,6,6,4,1460,1782,1,992,82,82732,79836,65700,0,33304,0,0,0
