enable_time_secs=1716772349	enable_time_usecs=505379	siftrver=1.2.4	hz=100	tcp_rtt_scale=32	sysname=FreeBSD	sysver=1301000	ipmode=4
o,0x00000000,1716772349.505432,10.0.2.15,22,10.0.2.2,53738,1073725440,17298,0,65535,65700,0,0,4,1460,1,0,4,24,33580,44,65700,0,0,0,0,0
o,0x00000000,1716772349.505542,10.0.2.15,22,10.0.2.2,53738,1073725440,17298,0,65535,65700,0,0,4,1460,1,0,4,24,33580,80,65700,0,44,0,0,0
i,0x00000000,1716772349.506408,10.0.2.15,22,10.0.2.2,53738,1073725440,17298,0,65535,65700,0,0,4,1460,1,0,4,24,33580,80,65700,0,80,0,0,0
i,0x00000000,1716772349.506478,10.0.2.15,22,10.0.2.2,53738,1073725440,17342,0,65535,65700,0,0,4,1460,1,0,4,24,33580,36,65700,0,36,0,0,0
o,0x00000000,1716772349.506544,10.0.2.15,22,10.0.2.2,53738,1073725440,17378,0,65535,65700,0,0,4,1460,1,0,4,24,33580,36,65700,0,0,0,0,0
i,0x00000000,1716772349.507082,10.0.2.15,22,10.0.2.2,53738,1073725440,17378,0,65535,65700,0,0,4,1460,1,0,4,24,33580,36,65700,0,36,0,0,0
o,0x00000000,1716772349.507160,10.0.2.15,22,10.0.2.2,53738,1073725440,17414,0,65535,65700,0,0,4,1460,1,0,4,24,33580,36,65700,0,0,0,0,0
i,0x00000000,1716772349.507872,10.0.2.15,22,10.0.2.2,53738,1073725440,17414,0,65535,65700,0,0,4,1460,1,0,4,24,33580,36,65700,0,36,0,0,0
o,0x00000000,1716772349.507983,10.0.2.15,22,10.0.2.2,53738,1073725440,17450,0,65535,65700,0,0,4,1460,1,0,4,24,33580,140,65700,0,0,0,0,0
i,0x00000000,1716772349.508906,10.0.2.15,22,10.0.2.2,53738,1073725440,17450,0,65535,65700,0,0,4,1460,1,0,4,24,33580,140,65700,0,140,0,0,0
i,0x00000000,1716772349.509410,10.0.2.15,22,10.0.2.2,53738,1073725440,17590,0,65535,65700,0,0,4,1460,1,0,4,24,33580,0,65700,0,0,0,0,0
i,0x00000000,1716772349.509414,10.0.2.15,22,10.0.2.2,53738,1073725440,17590,0,65535,65700,0,0,4,1460,1,0,4,24,33580,0,65700,96,0,0,0,0
o,0x00000000,1716772349.509417,10.0.2.15,22,10.0.2.2,53738,1073725440,17590,0,65535,65604,0,0,5,1460,1,0,5,24,33580,0,65700,96,0,0,0,0
o,0x00000000,1716772349.509796,10.0.2.15,22,10.0.2.2,53738,1073725440,17590,0,65535,65604,0,0,8,1460,1,0,4,24,33580,0,65700,0,0,0,0,0
i,0x00000000,1716772349.510630,10.0.2.15,22,10.0.2.2,53738,1073725440,17590,0,65535,65604,0,0,8,1460,1,0,20,24,33580,0,65700,0,1,0,0,0
i,0x00000000,1716772350.823625,172.16.3.2,5101,172.16.1.2,19050,9374,14480,0,65728,65700,6,6,4,1460,813,1,992,122,33580,0,65700,0,0,0,0,0
o,0x00000000,1716772350.823749,172.16.3.2,5101,172.16.1.2,19050,9374,14480,0,65728,65700,6,6,4,1460,813,1,996,122,33580,1,65700,0,0,0,0,0
i,0x00000000,1716772350.944273,172.16.3.2,5101,172.16.1.2,19050,9374,14480,0,65728,65700,6,6,4,1460,813,1,996,122,33580,1,65700,0,1,0,0,0
i,0x00000000,1716772350.944290,172.16.3.2,5101,172.16.1.2,19050,9374,14480,0,65728,65728,6,6,4,1460,760,1,996,115,33580,0,65700,4,0,0,0,0
o,0x00000000,1716772350.944299,172.16.3.2,5101,172.16.1.2,19050,9374,14480,0,65728,65728,6,6,4,1460,760,1,997,115,33580,0,65700,128,0,0,0,0
o,0x00000000,1716772350.944715,172.16.3.2,5101,172.16.1.2,19050,9374,14480,0,65728,65728,6,6,4,1460,760,1,996,115,33580,1,65700,0,0,0,0,0
o,0x00000000,1716772350.944878,10.0.2.15,22,10.0.2.2,60131,1073725440,14600,0,65535,65700,0,0,4,1460,1,0,4,24,33580,84,65700,0,0,0,0,0
i,0x00000000,1716772350.945720,10.0.2.15,22,10.0.2.2,60131,1073725440,14600,0,65535,65700,0,0,4,1460,1,0,4,24,33580,84,65700,0,84,0,0,0
i,0x00000000,1716772351.093251,172.16.3.2,5101,172.16.1.2,19050,9374,14480,0,65728,65728,6,6,4,1460,760,1,996,115,33580,1,65700,0,1,0,0,0
i,0x00000000,1716772351.184951,172.16.3.2,5101,172.16.1.2,30595,9374,14480,0,65728,65700,6,6,4,1460,817,1,992,121,33580,0,65700,0,0,0,0,0
o,0x00000000,1716772351.186595,172.16.3.2,5101,172.16.1.2,19050,9374,14480,0,65728,65728,6,6,4,1460,725,1,996,104,33580,1,65700,0,0,0,0,0
o,0x00000000,1716772351.186691,172.16.3.2,5101,172.16.1.2,19050,9374,14480,0,65728,65728,6,6,4,1460,725,1,996,104,33580,2,65700,0,1,0,0,0
o,0x00000000,1716772351.187113,10.0.2.15,22,10.0.2.2,60131,1073725440,14600,0,65535,65700,0,0,4,1460,1,0,4,24,33580,108,65700,0,0,0,0,0
i,0x00000000,1716772351.188010,10.0.2.15,22,10.0.2.2,60131,1073725440,14600,0,65535,65700,0,0,4,1460,1,0,4,24,33580,108,65700,0,108,0,0,0
o,0x00000000,1716772351.219549,172.16.3.2,5101,172.16.1.2,30595,9374,14480,0,65728,65700,6,6,4,1460,817,1,993,121,33580,0,65700,0,0,0,0,0
i,0x00000000,1716772351.373966,172.16.3.2,5101,172.16.1.2,19050,9374,14480,0,65728,65728,6,6,4,1460,725,1,996,104,33580,2,65700,0,2,0,0,0
i,0x00000000,1716772351.404944,172.16.3.2,5101,172.16.1.2,30595,9374,14480,0,65728,65700,6,6,4,1460,817,1,992,121,33580,0,65700,0,0,0,0,0
i,0x00000000,1716772351.413736,172.16.3.2,5101,172.16.1.2,30595,9374,14480,0,65728,65700,6,6,4,1460,817,1,992,121,33580,0,65700,0,0,0,0,0
o,0x00000000,1716772351.413748,172.16.3.2,5101,172.16.1.2,30595,9374,14480,0,65728,65700,6,6,4,1460,817,1,993,121,33580,0,65700,1448,0,0,0,0
i,0x00000000,1716772351.424190,172.16.3.2,5101,172.16.1.2,30595,9374,14480,0,65728,65700,6,6,4,1460,817,1,992,121,33580,0,65700,0,0,0,0,0
i,0x00000000,1716772351.433740,172.16.3.2,5101,172.16.1.2,30595,9374,14480,0,65728,65700,6,6,4,1460,817,1,992,121,33580,0,65700,0,0,0,0,0
o,0x00000000,1716772351.433768,172.16.3.2,5101,172.16.1.2,30595,9374,14480,0,65728,65700,6,6,4,1460,817,1,993,121,33580,0,65700,1448,0,0,0,0
i,0x00000000,1716772351.454331,172.16.3.2,5101,172.16.1.2,30595,9374,14480,0,65728,65700,6,6,4,1460,817,1,992,121,33580,0,65700,0,0,0,0,0
i,0x00000000,1716772351.465248,172.16.3.2,5101,172.16.1.2,30595,9374,14480,0,65728,65700,6,6,4,1460,817,1,992,121,33580,0,65700,0,0,0,0,0
o,0x00000000,1716772351.465263,172.16.3.2,5101,172.16.1.2,30595,9374,14480,0,65728,65700,6,6,4,1460,817,1,993,121,33580,0,65700,1448,0,0,0,0
i,0x00000000,1716772351.474099,172.16.3.2,5101,172.16.1.2,30595,9374,14480,0,65728,65700,6,6,4,1460,817,1,992,121,33580,0,65700,0,0,0,0,0
i,0x00000000,1716772351.484297,172.16.3.2,5101,172.16.1.2,30595,9374,14480,0,65728,65700,6,6,4,1460,817,1,992,121,33580,0,65700,0,0,0,0,0
o,0x00000000,1716772351.484312,172.16.3.2,5101,172.16.1.2,30595,9374,14480,0,65728,65700,6,6,4,1460,817,1,993,121,33580,0,65700,1448,0,0,0,0
i,0x00000000,1716772351.494609,172.16.3.2,5101,172.16.1.2,30595,9374,14480,0,65728,65700,6,6,4,1460,817,1,992,121,33580,0,65700,0,0,0,0,0
i,0x00000000,1716772351.514507,172.16.3.2,5101,172.16.1.2,30595,9374,14480,0,65728,65700,6,6,4,1460,817,1,992,121,33580,0,65700,0,0,0,0,0
o,0x00000000,1716772351.514518,172.16.3.2,5101,172.16.1.2,30595,9374,14480,0,65728,65700,6,6,4,1460,817,1,993,121,33580,0,65700,1448,0,0,0,0
i,0x00000000,1716772351.824529,172.16.3.2,5101,172.16.1.2,30595,9374,14480,0,65728,65700,6,6,4,1460,817,1,992,121,33580,0,65700,0,0,0,0,0
i,0x00000000,1716772351.834991,172.16.3.2,5101,172.16.1.2,30595,9374,14480,0,65728,65700,6,6,4,1460,817,1,992,121,33580,0,65700,0,0,0,0,0
o,0x00000000,1716772351.835003,172.16.3.2,5101,172.16.1.2,30595,9374,14480,0,65728,65700,6,6,4,1460,817,1,993,121,33580,0,65700,1448,0,0,0,0
i,0x00000000,1716772351.845729,172.16.3.2,5101,172.16.1.2,30595,9374,14480,0,65728,65700,6,6,4,1460,817,1,992,121,33580,0,65700,0,0,0,0,0
i,0x00000000,1716772351.854080,172.16.3.2,5101,172.16.1.2,30595,9374,14480,0,65728,65700,6,6,4,1460,817,1,992,121,33580,0,65700,0,0,0,0,0
o,0x00000000,1716772351.854095,172.16.3.2,5101,172.16.1.2,30595,9374,14480,0,65728,65700,6,6,4,1460,817,1,993,121,33580,0,65700,1448,0,0,0,0
i,0x00000000,1716772351.874050,172.16.3.2,5101,172.16.1.2,30595,9374,14480,0,65728,65700,6,6,4,1460,817,1,992,121,33580,0,65700,0,0,0,0,0
i,0x00000000,1716772351.884348,172.16.3.2,5101,172.16.1.2,30595,9374,14480,0,65728,65700,6,6,4,1460,817,1,992,121,33580,0,65700,0,0,0,0,0
o,0x00000000,1716772351.884361,172.16.3.2,5101,172.16.1.2,30595,9374,14480,0,65728,65700,6,6,4,1460,817,1,993,121,33580,0,65700,1448,0,0,0,0
i,0x00000000,1716772351.894917,172.16.3.2,5101,172.16.1.2,30595,9374,14480,0,65728,65700,6,6,4,1460,817,1,992,121,33580,0,65700,0,0,0,0,0
i,0x00000000,1716772351.905301,172.16.3.2,5101,172.16.1.2,30595,9374,14480,0,65728,65700,6,6,4,1460,817,1,992,121,33580,0,65700,0,0,0,0,0
o,0x00000000,1716772351.905321,172.16.3.2,5101,172.16.1.2,30595,9374,14480,0,65728,65700,6,6,4,1460,817,1,993,121,33580,0,65700,1448,0,0,0,0
i,0x00000000,1716772351.914788,172.16.3.2,5101,172.16.1.2,30595,9374,14480,0,65728,65700,6,6,4,1460,817,1,992,121,33580,0,65700,0,0,0,0,0
i,0x00000000,1716772351.935927,172.16.3.2,5101,172.16.1.2,30595,9374,14480,0,65728,65700,6,6,4,1460,817,1,992,121,33580,0,65700,0,0,0,0,0
o,0x00000000,1716772351.935971,172.16.3.2,5101,172.16.1.2,30595,9374,14480,0,65728,65700,6,6,4,1460,817,1,993,121,33580,0,65700,1448,0,0,0,0
i,0x00000000,1716772351.944256,172.16.3.2,5101,172.16.1.2,30595,9374,14480,0,65728,65700,6,6,4,1460,817,1,992,121,33580,0,65700,0,0,0,0,0
i,0x00000000,1716772351.954711,172.16.3.2,5101,172.16.1.2,30595,9374,14480,0,65728,65700,6,6,4,1460,817,1,992,121,33580,0,65700,0,0,0,0,0
o,0x00000000,1716772351.954722,172.16.3.2,5101,172.16.1.2,30595,9374,14480,0,65728,65700,6,6,4,1460,817,1,993,121,33580,0,65700,1448,0,0,0,0
i,0x00000000,1716772351.964081,172.16.3.2,5101,172.16.1.2,30595,9374,14480,0,65728,65700,6,6,4,1460,817,1,992,121,33580,0,65700,0,0,0,0,0
i,0x00000000,1716772351.974642,172.16.3.2,5101,172.16.1.2,30595,9374,14480,0,65728,65700,6,6,4,1460,817,1,992,121,33580,0,65700,0,0,0,0,0
o,0x00000000,1716772351.974655,172.16.3.2,5101,172.16.1.2,30595,9374,14480,0,65728,65700,6,6,4,1460,817,1,993,121,33580,0,65700,1448,0,0,0,0
i,0x00000000,1716772351.994549,172.16.3.2,5101,172.16.1.2,30595,9374,14480,0,65728,65700,6,6,4,1460,817,1,992,121,33580,0,65700,0,0,0,0,0
i,0x00000000,1716772352.004876,172.16.3.2,5101,172.16.1.2,30595,9374,14480,0,65728,65700,6,6,4,1460,817,1,992,121,33580,0,65700,0,0,0,0,0
o,0x00000000,1716772352.004887,172.16.3.2,5101,172.16.1.2,30595,9374,14480,0,65728,65700,6,6,4,1460,817,1,993,121,33580,0,65700,1448,0,0,0,0
i,0x00000000,1716772352.015337,172.16.3.2,5101,172.16.1.2,30595,9374,14480,0,65728,65700,6,6,4,1460,817,1,992,121,33580,0,65700,0,0,0,0,0
i,0x00000000,1716772352.024700,172.16.3.2,5101,172.16.1.2,30595,9374,14480,0,65728,65700,6,6,4,1460,817,1,992,121,33580,0,65700,0,0,0,0,0
o,0x00000000,1716772352.024709,172.16.3.2,5101,172.16.1.2,30595,9374,14480,0,65728,65700,6,6,4,1460,817,1,993,121,33580,0,65700,1448,0,0,0,0
i,0x00000000,1716772352.035041,172.16.3.2,5101,172.16.1.2,30595,9374,14480,0,65728,65700,6,6,4,1460,817,1,992,121,33580,0,65700,0,0,0,0,0
i,0x00000000,1716772352.053933,172.16.3.2,5101,172.16.1.2,30595,9374,14480,0,65728,65700,6,6,4,1460,817,1,992,121,33580,0,65700,0,0,0,0,0
o,0x00000000,1716772352.053940,172.16.3.2,5101,172.16.1.2,30595,9374,14480,0,65728,65700,6,6,4,1460,817,1,993,121,33580,0,65700,1448,0,0,0,0
o,0x00000000,1716772352.189426,10.0.2.15,22,10.0.2.2,60131,1073725440,14600,0,65535,65700,0,0,4,1460,1,0,4,24,33580,156,65700,0,0,0,0,0
i,0x00000000,1716772352.190149,10.0.2.15,22,10.0.2.2,60131,1073725440,14600,0,65535,65700,0,0,4,1460,1,0,4,24,33580,156,65700,0,156,0,0,0
i,0x00000000,1716772352.415582,172.16.3.2,5101,172.16.1.2,30595,9374,14480,0,65728,65700,6,6,4,1460,817,1,992,121,33580,0,65700,0,0,0,0,0
i,0x00000000,1716772352.425686,172.16.3.2,5101,172.16.1.2,30595,9374,14480,0,65728,65700,6,6,4,1460,817,1,992,121,33580,0,65700,0,0,0,0,0
o,0x00000000,1716772352.425700,172.16.3.2,5101,172.16.1.2,30595,9374,14480,0,65728,65700,6,6,4,1460,817,1,993,121,33580,0,65700,1448,0,0,0,0
i,0x00000000,1716772352.434564,172.16.3.2,5101,172.16.1.2,30595,9374,14480,0,65728,65700,6,6,4,1460,817,1,992,121,33580,0,65700,0,0,0,0,0
i,0x00000000,1716772352.446520,172.16.3.2,5101,172.16.1.2,30595,9374,14480,0,65728,65700,6,6,4,1460,817,1,992,121,33580,0,65700,0,0,0,0,0
o,0x00000000,1716772352.446537,172.16.3.2,5101,172.16.1.2,30595,9374,14480,0,65728,65700,6,6,4,1460,817,1,993,121,33580,0,65700,1448,0,0,0,0
i,0x00000000,1716772352.455479,172.16.3.2,5101,172.16.1.2,30595,9374,14480,0,65728,65700,6,6,4,1460,817,1,992,121,33580,0,65700,0,0,0,0,0
i,0x00000000,1716772352.475485,172.16.3.2,5101,172.16.1.2,30595,9374,14480,0,65728,65700,6,6,4,1460,817,1,992,121,33580,0,65700,0,0,0,0,0
o,0x00000000,1716772352.475525,172.16.3.2,5101,172.16.1.2,30595,9374,14480,0,65728,65700,6,6,4,1460,817,1,993,121,33580,0,65700,1448,0,0,0,0
i,0x00000000,1716772352.484861,172.16.3.2,5101,172.16.1.2,30595,9374,14480,0,65728,65700,6,6,4,1460,817,1,992,121,33580,0,65700,0,0,0,0,0
i,0x00000000,1716772352.495338,172.16.3.2,5101,172.16.1.2,30595,9374,14480,0,65728,65700,6,6,4,1460,817,1,992,121,33580,0,65700,0,0,0,0,0
o,0x00000000,1716772352.495350,172.16.3.2,5101,172.16.1.2,30595,9374,14480,0,65728,65700,6,6,4,1460,817,1,993,121,33580,0,65700,1448,0,0,0,0
i,0x00000000,1716772352.504790,172.16.3.2,5101,172.16.1.2,30595,9374,14480,0,65728,65700,6,6,4,1460,817,1,992,121,33580,0,65700,0,0,0,0,0
i,0x00000000,1716772352.515272,172.16.3.2,5101,172.16.1.2,30595,9374,14480,0,65728,65700,6,6,4,1460,817,1,992,121,33580,0,65700,0,0,0,0,0
o,0x00000000,1716772352.515282,172.16.3.2,5101,172.16.1.2,30595,9374,14480,0,65728,65700,6,6,4,1460,817,1,993,121,33580,0,65700,1448,0,0,0,0
i,0x00000000,1716772352.535051,172.16.3.2,5101,172.16.1.2,30595,9374,14480,0,65728,65700,6,6,4,1460,817,1,992,121,33580,0,65700,0,0,0,0,0
i,0x00000000,1716772352.545583,172.16.3.2,5101,172.16.1.2,30595,9374,14480,0,65728,65700,6,6,4,1460,817,1,992,121,33580,0,65700,0,0,0,0,0
o,0x00000000,1716772352.545590,172.16.3.2,5101,172.16.1.2,30595,9374,14480,0,65728,65700,6,6,4,1460,817,1,993,121,33580,0,65700,1448,0,0,0,0
i,0x00000000,1716772352.556386,172.16.3.2,5101,172.16.1.2,30595,9374,14480,0,65728,65700,6,6,4,1460,817,1,992,121,33580,0,65700,0,0,0,0,0
i,0x00000000,1716772352.565351,172.16.3.2,5101,172.16.1.2,30595,9374,14480,0,65728,65700,6,6,4,1460,817,1,992,121,33580,0,65700,0,0,0,0,0
o,0x00000000,1716772352.565357,172.16.3.2,5101,172.16.1.2,30595,9374,14480,0,65728,65700,6,6,4,1460,817,1,993,121,33580,0,65700,1448,0,0,0,0
i,0x00000000,1716772352.575477,172.16.3.2,5101,172.16.1.2,30595,9374,14480,0,65728,65700,6,6,4,1460,817,1,992,121,33580,0,65700,0,0,0,0,0
i,0x00000000,1716772352.594479,172.16.3.2,5101,172.16.1.2,30595,9374,14480,0,65728,65700,6,6,4,1460,817,1,992,121,33580,0,65700,0,0,0,0,0
o,0x00000000,1716772352.594485,172.16.3.2,5101,172.16.1.2,30595,9374,14480,0,65728,65700,6,6,4,1460,817,1,993,121,33580,0,65700,1448,0,0,0,0
i,0x00000000,1716772352.604905,172.16.3.2,5101,172.16.1.2,30595,9374,14480,0,65728,65700,6,6,4,1460,817,1,992,121,33580,0,65700,0,0,0,0,0
i,0x00000000,1716772352.615458,172.16.3.2,5101,172.16.1.2,30595,9374,14480,0,65728,65700,6,6,4,1460,817,1,992,121,33580,0,65700,0,0,0,0,0
o,0x00000000,1716772352.615464,172.16.3.2,5101,172.16.1.2,30595,9374,14480,0,65728,65700,6,6,4,1460,817,1,993,121,33580,0,65700,1448,0,0,0,0
i,0x00000000,1716772352.624875,172.16.3.2,5101,172.16.1.2,30595,9374,14480,0,65728,65700,6,6,4,1460,817,1,992,121,33580,0,65700,0,0,0,0,0
i,0x00000000,1716772352.635517,172.16.3.2,5101,172.16.1.2,30595,9374,14480,0,65728,65700,6,6,4,1460,817,1,992,121,33580,0,65700,0,0,0,0,0
o,0x00000000,1716772352.635524,172.16.3.2,5101,172.16.1.2,30595,9374,14480,0,65728,65700,6,6,4,1460,817,1,993,121,33580,0,65700,1448,0,0,0,0
i,0x00000000,1716772352.654956,172.16.3.2,5101,172.16.1.2,30595,9374,14480,0,65728,65700,6,6,4,1460,817,1,992,121,33580,0,65700,0,0,0,0,0
i,0x00000000,1716772352.665202,172.16.3.2,5101,172.16.1.2,30595,9374,14480,0,65728,65700,6,6,4,1460,817,1,992,121,33580,0,65700,0,0,0,0,0
o,0x00000000,1716772352.665209,172.16.3.2,5101,172.16.1.2,30595,9374,14480,0,65728,65700,6,6,4,1460,817,1,993,121,33580,0,65700,1448,0,0,0,0
i,0x00000000,1716772352.675630,172.16.3.2,5101,172.16.1.2,30595,9374,14480,0,65728,65700,6,6,4,1460,817,1,992,121,33580,0,65700,0,0,0,0,0
i,0x00000000,1716772352.684689,172.16.3.2,5101,172.16.1.2,30595,9374,14480,0,65728,65700,6,6,4,1460,817,1,992,121,33580,0,65700,0,0,0,0,0
o,0x00000000,1716772352.684695,172.16.3.2,5101,172.16.1.2,30595,9374,14480,0,65728,65700,6,6,4,1460,817,1,993,121,33580,0,65700,1448,0,0,0,0
i,0x00000000,1716772353.056090,172.16.3.2,5101,172.16.1.2,30595,9374,14480,0,65728,65700,6,6,4,1460,817,1,992,121,33580,0,65700,0,0,0,0,0
i,0x00000000,1716772353.064997,172.16.3.2,5101,172.16.1.2,30595,9374,14480,0,65728,65700,6,6,4,1460,817,1,992,121,33580,0,65700,0,0,0,0,0
o,0x00000000,1716772353.065010,172.16.3.2,5101,172.16.1.2,30595,9374,14480,0,65728,65700,6,6,4,1460,817,1,993,121,33580,0,65700,1448,0,0,0,0
i,0x00000000,1716772353.076033,172.16.3.2,5101,172.16.1.2,30595,9374,14480,0,65728,65700,6,6,4,1460,817,1,992,121,33580,0,65700,0,0,0,0,0
i,0x00000000,1716772353.085773,172.16.3.2,5101,172.16.1.2,30595,9374,14480,0,65728,65700,6,6,4,1460,817,1,992,121,33580,0,65700,0,0,0,0,0
o,0x00000000,1716772353.085782,172.16.3.2,5101,172.16.1.2,30595,9374,14480,0,65728,65700,6,6,4,1460,817,1,993,121,33580,0,65700,1448,0,0,0,0
i,0x00000000,1716772353.106053,172.16.3.2,5101,172.16.1.2,30595,9374,14480,0,65728,65700,6,6,4,1460,817,1,992,121,33580,0,65700,0,0,0,0,0
i,0x00000000,1716772353.116394,172.16.3.2,5101,172.16.1.2,30595,9374,14480,0,65728,65700,6,6,4,1460,817,1,992,121,33580,0,65700,0,0,0,0,0
o,0x00000000,1716772353.116401,172.16.3.2,5101,172.16.1.2,30595,9374,14480,0,65728,65700,6,6,4,1460,817,1,993,121,33580,0,65700,1448,0,0,0,0
i,0x00000000,1716772353.125493,172.16.3.2,5101,172.16.1.2,30595,9374,14480,0,65728,65700,6,6,4,1460,817,1,992,121,33580,0,65700,0,0,0,0,0
i,0x00000000,1716772353.135845,172.16.3.2,5101,172.16.1.2,30595,9374,14480,0,65728,65700,6,6,4,1460,817,1,992,121,33580,0,65700,0,0,0,0,0
o,0x00000000,1716772353.135850,172.16.3.2,5101,172.16.1.2,30595,9374,14480,0,65728,65700,6,6,4,1460,817,1,993,121,33580,0,65700,1448,0,0,0,0
i,0x00000000,1716772353.146438,172.16.3.2,5101,172.16.1.2,30595,9374,14480,0,65728,65700,6,6,4,1460,817,1,992,121,33580,0,65700,0,0,0,0,0
i,0x00000000,1716772353.166294,172.16.3.2,5101,172.16.1.2,30595,9374,14480,0,65728,65700,6,6,4,1460,817,1,992,121,33580,0,65700,0,0,0,0,0
o,0x00000000,1716772353.166300,172.16.3.2,5101,172.16.1.2,30595,9374,14480,0,65728,65700,6,6,4,1460,817,1,993,121,33580,0,65700,1448,0,0,0,0
i,0x00000000,1716772353.175850,172.16.3.2,5101,172.16.1.2,30595,9374,14480,0,65728,65700,6,6,4,1460,817,1,992,121,33580,0,65700,0,0,0,0,0
i,0x00000000,1716772353.186311,172.16.3.2,5101,172.16.1.2,30595,9374,14480,0,65728,65700,6,6,4,1460,817,1,992,121,33580,0,65700,0,0,0,0,0
o,0x00000000,1716772353.186316,172.16.3.2,5101,172.16.1.2,30595,9374,14480,0,65728,65700,6,6,4,1460,817,1,993,121,33580,0,65700,1448,0,0,0,0
i,0x00000000,1716772353.195824,172.16.3.2,5101,172.16.1.2,30595,9374,14480,0,65728,65700,6,6,4,1460,817,1,992,121,33580,0,65700,0,0,0,0,0
o,0x00000000,1716772353.199906,10.0.2.15,22,10.0.2.2,60131,1073725440,14600,0,65535,65700,0,0,4,1460,1,0,4,24,33580,108,65700,0,0,0,0,0
i,0x00000000,1716772353.200605,10.0.2.15,22,10.0.2.2,60131,1073725440,14600,0,65535,65700,0,0,4,1460,1,0,4,24,33580,108,65700,0,108,0,0,0
i,0x00000000,1716772353.205403,172.16.3.2,5101,172.16.1.2,30595,9374,14480,0,65728,65700,6,6,4,1460,817,1,992,121,33580,0,65700,0,0,0,0,0
o,0x00000000,1716772353.205410,172.16.3.2,5101,172.16.1.2,30595,9374,14480,0,65728,65700,6,6,4,1460,817,1,993,121,33580,0,65700,1448,0,0,0,0
i,0x00000000,1716772353.226658,172.16.3.2,5101,172.16.1.2,30595,9374,14480,0,65728,65700,6,6,4,1460,817,1,992,121,33580,0,65700,0,0,0,0,0
i,0x00000000,1716772353.235703,172.16.3.2,5101,172.16.1.2,30595,9374,14480,0,65728,65700,6,6,4,1460,817,1,992,121,33580,0,65700,0,0,0,0,0
o,0x00000000,1716772353.235714,172.16.3.2,5101,172.16.1.2,30595,9374,14480,0,65728,65700,6,6,4,1460,817,1,993,121,33580,0,65700,1448,0,0,0,0
i,0x00000000,1716772353.246377,172.16.3.2,5101,172.16.1.2,30595,9374,14480,0,65728,65700,6,6,4,1460,817,1,992,121,33580,0,65700,0,0,0,0,0
i,0x00000000,1716772353.256654,172.16.3.2,5101,172.16.1.2,30595,9374,14480,0,65728,65700,6,6,4,1460,817,1,992,121,33580,0,65700,0,0,0,0,0
o,0x00000000,1716772353.256663,172.16.3.2,5101,172.16.1.2,30595,9374,14480,0,65728,65700,6,6,4,1460,817,1,993,121,33580,0,65700,1448,0,0,0,0
i,0x00000000,1716772353.265622,172.16.3.2,5101,172.16.1.2,30595,9374,14480,0,65728,65700,6,6,4,1460,817,1,992,121,33580,0,65700,0,0,0,0,0
i,0x00000000,1716772353.285693,172.16.3.2,5101,172.16.1.2,30595,9374,14480,0,65728,65700,6,6,4,1460,817,1,992,121,33580,0,65700,0,0,0,0,0
o,0x00000000,1716772353.285700,172.16.3.2,5101,172.16.1.2,30595,9374,14480,0,65728,65700,6,6,4,1460,817,1,993,121,33580,0,65700,1448,0,0,0,0
i,0x00000000,1716772353.295073,172.16.3.2,5101,172.16.1.2,30595,9374,14480,0,65728,65700,6,6,4,1460,817,1,992,121,33580,0,65700,0,0,0,0,0
i,0x00000000,1716772353.305637,172.16.3.2,5101,172.16.1.2,30595,9374,14480,0,65728,65700,6,6,4,1460,817,1,992,121,33580,0,65700,0,0,0,0,0
o,0x00000000,1716772353.305645,172.16.3.2,5101,172.16.1.2,30595,9374,14480,0,65728,65700,6,6,4,1460,817,1,993,121,33580,0,65700,1448,0,0,0,0
i,0x00000000,1716772353.315518,172.16.3.2,5101,172.16.1.2,30595,9374,14480,0,65728,65700,6,6,4,1460,817,1,992,121,33580,0,65700,0,0,0,0,0
i,0x00000000,1716772353.326671,172.16.3.2,5101,172.16.1.2,30595,9374,14480,0,65728,65700,6,6,4,1460,817,1,992,121,33580,0,65700,0,0,0,0,0
o,0x00000000,1716772353.326702,172.16.3.2,5101,172.16.1.2,30595,9374,14480,0,65728,65700,6,6,4,1460,817,1,993,121,33580,0,65700,1448,0,0,0,0
i,0x00000000,1716772353.345452,172.16.3.2,5101,172.16.1.2,30595,9374,14480,0,65728,65700,6,6,4,1460,817,1,992,121,33580,0,65700,0,0,0,0,0
o,0x00000000,1716772353.379473,172.16.3.2,5101,172.16.1.2,30595,9374,14480,0,65728,65700,6,6,4,1460,817,1,993,121,33580,0,65700,0,0,0,0,0
i,0x00000000,1716772353.716869,172.16.3.2,5101,172.16.1.2,30595,9374,14480,0,65728,65700,6,6,4,1460,817,1,992,121,33580,0,65700,0,0,0,0,0
i,0x00000000,1716772353.725753,172.16.3.2,5101,172.16.1.2,30595,9374,14480,0,65728,65700,6,6,4,1460,817,1,992,121,33580,0,65700,0,0,0,0,0
o,0x00000000,1716772353.725768,172.16.3.2,5101,172.16.1.2,30595,9374,14480,0,65728,65700,6,6,4,1460,817,1,993,121,33580,0,65700,1448,0,0,0,0
i,0x00000000,1716772353.736523,172.16.3.2,5101,172.16.1.2,30595,9374,14480,0,65728,65700,6,6,4,1460,817,1,992,121,33580,0,65700,0,0,0,0,0
i,0x00000000,1716772353.746093,172.16.3.2,5101,172.16.1.2,30595,9374,14480,0,65728,65700,6,6,4,1460,817,1,992,121,33580,0,65700,0,0,0,0,0
o,0x00000000,1716772353.746100,172.16.3.2,5101,172.16.1.2,30595,9374,14480,0,65728,65700,6,6,4,1460,817,1,993,121,33580,0,65700,1448,0,0,0,0
i,0x00000000,1716772353.766880,172.16.3.2,5101,172.16.1.2,30595,9374,14480,0,65728,65700,6,6,4,1460,817,1,992,121,33580,0,65700,0,0,0,0,0
i,0x00000000,1716772353.776259,172.16.3.2,5101,172.16.1.2,30595,9374,14480,0,65728,65700,6,6,4,1460,817,1,992,121,33580,0,65700,0,0,0,0,0
o,0x00000000,1716772353.776266,172.16.3.2,5101,172.16.1.2,30595,9374,14480,0,65728,65700,6,6,4,1460,817,1,993,121,33580,0,65700,1448,0,0,0,0
i,0x00000000,1716772353.785794,172.16.3.2,5101,172.16.1.2,30595,9374,14480,0,65728,65700,6,6,4,1460,817,1,992,121,33580,0,65700,0,0,0,0,0
i,0x00000000,1716772353.796317,172.16.3.2,5101,172.16.1.2,30595,9374,14480,0,65728,65700,6,6,4,1460,817,1,992,121,33580,0,65700,0,0,0,0,0
o,0x00000000,1716772353.796324,172.16.3.2,5101,172.16.1.2,30595,9374,14480,0,65728,65700,6,6,4,1460,817,1,993,121,33580,0,65700,1448,0,0,0,0
i,0x00000000,1716772353.806918,172.16.3.2,5101,172.16.1.2,30595,9374,14480,0,65728,65700,6,6,4,1460,817,1,992,121,33580,0,65700,0,0,0,0,0
i,0x00000000,1716772353.825963,172.16.3.2,5101,172.16.1.2,30595,9374,14480,0,65728,65700,6,6,4,1460,817,1,992,121,33580,0,65700,0,0,0,0,0
o,0x00000000,1716772353.825972,172.16.3.2,5101,172.16.1.2,30595,9374,14480,0,65728,65700,6,6,4,1460,817,1,993,121,33580,0,65700,1448,0,0,0,0
i,0x00000000,1716772353.836487,172.16.3.2,5101,172.16.1.2,30595,9374,14480,0,65728,65700,6,6,4,1460,817,1,992,121,33580,0,65700,0,0,0,0,0
i,0x00000000,1716772353.846096,172.16.3.2,5101,172.16.1.2,30595,9374,14480,0,65728,65700,6,6,4,1460,817,1,992,121,33580,0,65700,0,0,0,0,0
o,0x00000000,1716772353.846102,172.16.3.2,5101,172.16.1.2,30595,9374,14480,0,65728,65700,6,6,4,1460,817,1,993,121,33580,0,65700,1448,0,0,0,0
i,0x00000000,1716772353.856495,172.16.3.2,5101,172.16.1.2,30595,9374,14480,0,65728,65700,6,6,4,1460,817,1,992,121,33580,0,65700,0,0,0,0,0
i,0x00000000,1716772353.866201,172.16.3.2,5101,172.16.1.2,30595,9374,14480,0,65728,65700,6,6,4,1460,817,1,992,121,33580,0,65700,0,0,0,0,0
o,0x00000000,1716772353.866208,172.16.3.2,5101,172.16.1.2,30595,9374,14480,0,65728,65700,6,6,4,1460,817,1,993,121,33580,0,65700,1448,0,0,0,0
i,0x00000000,1716772353.885724,172.16.3.2,5101,172.16.1.2,30595,9374,14480,0,65728,65700,6,6,4,1460,817,1,992,121,33580,0,65700,0,0,0,0,0
i,0x00000000,1716772353.895542,172.16.3.2,5101,172.16.1.2,30595,9374,14480,0,65728,65700,6,6,4,1460,817,1,992,121,33580,0,65700,0,0,0,0,0
o,0x00000000,1716772353.895554,172.16.3.2,5101,172.16.1.2,30595,9374,14480,0,65728,65700,6,6,4,1460,817,1,993,121,33580,0,65700,1448,0,0,0,0
i,0x00000000,1716772353.906814,172.16.3.2,5101,172.16.1.2,30595,9374,14480,0,65728,65700,6,6,4,1460,817,1,992,121,33580,0,65700,0,0,0,0,0
i,0x00000000,1716772353.916611,172.16.3.2,5101,172.16.1.2,30595,9374,14480,0,65728,65700,6,6,4,1460,817,1,992,121,33580,0,65700,0,0,0,0,0
o,0x00000000,1716772353.916619,172.16.3.2,5101,172.16.1.2,30595,9374,14480,0,65728,65700,6,6,4,1460,817,1,993,121,33580,0,65700,1448,0,0,0,0
i,0x00000000,1716772353.926944,172.16.3.2,5101,172.16.1.2,30595,9374,14480,0,65728,65700,6,6,4,1460,817,1,992,121,33580,0,65700,0,0,0,0,0
i,0x00000000,1716772353.946101,172.16.3.2,5101,172.16.1.2,30595,9374,14480,0,65728,65700,6,6,4,1460,817,1,992,121,33580,0,65700,0,0,0,0,0
o,0x00000000,1716772353.946115,172.16.3.2,5101,172.16.1.2,30595,9374,14480,0,65728,65700,6,6,4,1460,817,1,993,121,33580,0,65700,1448,0,0,0,0
i,0x00000000,1716772353.956645,172.16.3.2,5101,172.16.1.2,30595,9374,14480,0,65728,65700,6,6,4,1460,817,1,992,121,33580,0,65700,0,0,0,0,0
i,0x00000000,1716772353.966130,172.16.3.2,5101,172.16.1.2,30595,9374,14480,0,65728,65700,6,6,4,1460,817,1,992,121,33580,0,65700,0,0,0,0,0
o,0x00000000,1716772353.966140,172.16.3.2,5101,172.16.1.2,30595,9374,14480,0,65728,65700,6,6,4,1460,817,1,993,121,33580,0,65700,1448,0,0,0,0
i,0x00000000,1716772353.976458,172.16.3.2,5101,172.16.1.2,30595,9374,14480,0,65728,65700,6,6,4,1460,817,1,992,121,33580,0,65700,0,0,0,0,0
i,0x00000000,1716772353.986854,172.16.3.2,5101,172.16.1.2,30595,9374,14480,0,65728,65700,6,6,4,1460,817,1,992,121,33580,0,65700,0,0,0,0,0
o,0x00000000,1716772353.986864,172.16.3.2,5101,172.16.1.2,30595,9374,14480,0,65728,65700,6,6,4,1460,817,1,993,121,33580,0,65700,1448,0,0,0,0
i,0x00000000,1716772354.006462,172.16.3.2,5101,172.16.1.2,30595,9374,14480,0,65728,65700,6,6,4,1460,817,1,992,121,33580,0,65700,0,0,0,0,0
o,0x00000000,1716772354.039906,172.16.3.2,5101,172.16.1.2,30595,9374,14480,0,65728,65700,6,6,4,1460,817,1,993,121,33580,0,65700,0,0,0,0,0
o,0x00000000,1716772354.199830,10.0.2.15,22,10.0.2.2,60131,1073725440,14600,0,65535,65700,0,0,4,1460,1,0,4,24,33580,108,65700,0,0,0,0,0
i,0x00000000,1716772354.200617,10.0.2.15,22,10.0.2.2,60131,1073725440,14600,0,65535,65700,0,0,4,1460,1,0,4,24,33580,108,65700,0,108,0,0,0
i,0x00000000,1716772354.376804,172.16.3.2,5101,172.16.1.2,30595,9374,14480,0,65728,65700,6,6,4,1460,817,1,992,121,33580,0,65700,0,0,0,0,0
i,0x00000000,1716772354.387081,172.16.3.2,5101,172.16.1.2,30595,9374,14480,0,65728,65700,6,6,4,1460,817,1,992,121,33580,0,65700,0,0,0,0,0
o,0x00000000,1716772354.387096,172.16.3.2,5101,172.16.1.2,30595,9374,14480,0,65728,65700,6,6,4,1460,817,1,993,121,33580,0,65700,1448,0,0,0,0
i,0x00000000,1716772354.396634,172.16.3.2,5101,172.16.1.2,30595,9374,14480,0,65728,65700,6,6,4,1460,817,1,992,121,33580,0,65700,0,0,0,0,0
i,0x00000000,1716772354.407259,172.16.3.2,5101,172.16.1.2,30595,9374,14480,0,65728,65700,6,6,4,1460,817,1,992,121,33580,0,65700,0,0,0,0,0
o,0x00000000,1716772354.407284,172.16.3.2,5101,172.16.1.2,30595,9374,14480,0,65728,65700,6,6,4,1460,817,1,993,121,33580,0,65700,1448,0,0,0,0
i,0x00000000,1716772354.426826,172.16.3.2,5101,172.16.1.2,30595,9374,14480,0,65728,65700,6,6,4,1460,817,1,992,121,33580,0,65700,0,0,0,0,0
i,0x00000000,1716772354.436346,172.16.3.2,5101,172.16.1.2,30595,9374,14480,0,65728,65700,6,6,4,1460,817,1,992,121,33580,0,65700,0,0,0,0,0
o,0x00000000,1716772354.436353,172.16.3.2,5101,172.16.1.2,30595,9374,14480,0,65728,65700,6,6,4,1460,817,1,993,121,33580,0,65700,1448,0,0,0,0
i,0x00000000,1716772354.446863,172.16.3.2,5101,172.16.1.2,30595,9374,14480,0,65728,65700,6,6,4,1460,817,1,992,121,33580,0,65700,0,0,0,0,0
i,0x00000000,1716772354.457421,172.16.3.2,5101,172.16.1.2,30595,9374,14480,0,65728,65700,6,6,4,1460,817,1,992,121,33580,0,65700,0,0,0,0,0
o,0x00000000,1716772354.457436,172.16.3.2,5101,172.16.1.2,30595,9374,14480,0,65728,65700,6,6,4,1460,817,1,993,121,33580,0,65700,1448,0,0,0,0
i,0x00000000,1716772354.466724,172.16.3.2,5101,172.16.1.2,30595,9374,14480,0,65728,65700,6,6,4,1460,817,1,992,121,33580,0,65700,0,0,0,0,0
i,0x00000000,1716772354.486824,172.16.3.2,5101,172.16.1.2,30595,9374,14480,0,65728,65700,6,6,4,1460,817,1,992,121,33580,0,65700,0,0,0,0,0
o,0x00000000,1716772354.486842,172.16.3.2,5101,172.16.1.2,30595,9374,14480,0,65728,65700,6,6,4,1460,817,1,993,121,33580,0,65700,1448,0,0,0,0
i,0x00000000,1716772354.496290,172.16.3.2,5101,172.16.1.2,30595,9374,14480,0,65728,65700,6,6,4,1460,817,1,992,121,33580,0,65700,0,0,0,0,0
i,0x00000000,1716772354.506731,172.16.3.2,5101,172.16.1.2,30595,9374,14480,0,65728,65700,6,6,4,1460,817,1,992,121,33580,0,65700,0,0,0,0,0
o,0x00000000,1716772354.506741,172.16.3.2,5101,172.16.1.2,30595,9374,14480,0,65728,65700,6,6,4,1460,817,1,993,121,33580,0,65700,1448,0,0,0,0
i,0x00000000,1716772354.517165,172.16.3.2,5101,172.16.1.2,30595,9374,14480,0,65728,65700,6,6,4,1460,817,1,992,121,33580,0,65700,0,0,0,0,0
i,0x00000000,1716772354.526637,172.16.3.2,5101,172.16.1.2,30595,9374,14480,0,65728,65700,6,6,4,1460,817,1,992,121,33580,0,65700,0,0,0,0,0
o,0x00000000,1716772354.526645,172.16.3.2,5101,172.16.1.2,30595,9374,14480,0,65728,65700,6,6,4,1460,817,1,993,121,33580,0,65700,1448,0,0,0,0
i,0x00000000,1716772354.546562,172.16.3.2,5101,172.16.1.2,30595,9374,14480,0,65728,65700,6,6,4,1460,817,1,992,121,33580,0,65700,0,0,0,0,0
i,0x00000000,1716772354.557015,172.16.3.2,5101,172.16.1.2,30595,9374,14480,0,65728,65700,6,6,4,1460,817,1,992,121,33580,0,65700,0,0,0,0,0
o,0x00000000,1716772354.557021,172.16.3.2,5101,172.16.1.2,30595,9374,14480,0,65728,65700,6,6,4,1460,817,1,993,121,33580,0,65700,1448,0,0,0,0
i,0x00000000,1716772354.567493,172.16.3.2,5101,172.16.1.2,30595,9374,14480,0,65728,65700,6,6,4,1460,817,1,992,121,33580,0,65700,0,0,0,0,0
i,0x00000000,1716772354.576469,172.16.3.2,5101,172.16.1.2,30595,9374,14480,0,65728,65700,6,6,4,1460,817,1,992,121,33580,0,65700,0,0,0,0,0
o,0x00000000,1716772354.576475,172.16.3.2,5101,172.16.1.2,30595,9374,14480,0,65728,65700,6,6,4,1460,817,1,993,121,33580,0,65700,1448,0,0,0,0
i,0x00000000,1716772354.587056,172.16.3.2,5101,172.16.1.2,30595,9374,14480,0,65728,65700,6,6,4,1460,817,1,992,121,33580,0,65700,0,0,0,0,0
i,0x00000000,1716772354.606858,172.16.3.2,5101,172.16.1.2,30595,9374,14480,0,65728,65700,6,6,4,1460,817,1,992,121,33580,0,65700,0,0,0,0,0
o,0x00000000,1716772354.606865,172.16.3.2,5101,172.16.1.2,30595,9374,14480,0,65728,65700,6,6,4,1460,817,1,993,121,33580,0,65700,1448,0,0,0,0
i,0x00000000,1716772354.617407,172.16.3.2,5101,172.16.1.2,30595,9374,14480,0,65728,65700,6,6,4,1460,817,1,992,121,33580,0,65700,0,0,0,0,0
i,0x00000000,1716772354.626854,172.16.3.2,5101,172.16.1.2,30595,9374,14480,0,65728,65700,6,6,4,1460,817,1,992,121,33580,0,65700,0,0,0,0,0
o,0x00000000,1716772354.626861,172.16.3.2,5101,172.16.1.2,30595,9374,14480,0,65728,65700,6,6,4,1460,817,1,993,121,33580,0,65700,1448,0,0,0,0
i,0x00000000,1716772354.637301,172.16.3.2,5101,172.16.1.2,30595,9374,14480,0,65728,65700,6,6,4,1460,817,1,992,121,33580,0,65700,0,0,0,0,0
i,0x00000000,1716772354.646958,172.16.3.2,5101,172.16.1.2,30595,9374,14480,0,65728,65700,6,6,4,1460,817,1,992,121,33580,0,65700,0,0,0,0,0
o,0x00000000,1716772354.646964,172.16.3.2,5101,172.16.1.2,30595,9374,14480,0,65728,65700,6,6,4,1460,817,1,993,121,33580,0,65700,1448,0,0,0,0
i,0x00000000,1716772354.666874,172.16.3.2,5101,172.16.1.2,30595,9374,14480,0,65728,65700,6,6,4,1460,817,1,992,121,33580,0,65700,0,0,0,0,0
i,0x00000000,1716772354.676947,172.16.3.2,5101,172.16.1.2,30595,9374,14480,0,65728,65700,6,6,4,1460,817,1,992,121,33580,0,65700,0,0,0,0,0
o,0x00000000,1716772354.676955,172.16.3.2,5101,172.16.1.2,30595,9374,14480,0,65728,65700,6,6,4,1460,817,1,993,121,33580,0,65700,1448,0,0,0,0
i,0x00000000,1716772355.047842,172.16.3.2,5101,172.16.1.2,30595,9374,14480,0,65728,65700,6,6,4,1460,817,1,992,121,33580,0,65700,0,0,0,0,0
i,0x00000000,1716772355.078360,172.16.3.2,5101,172.16.1.2,30595,9374,14480,0,65728,65700,6,6,4,1460,817,1,992,121,33580,0,65700,0,0,0,0,0
o,0x00000000,1716772355.078374,172.16.3.2,5101,172.16.1.2,30595,9374,14480,0,65728,65700,6,6,4,1460,817,1,993,121,33580,0,65700,1448,0,0,0,0
i,0x00000000,1716772355.096385,172.16.3.2,5101,172.16.1.2,30595,9374,14480,0,65728,65700,6,6,4,1460,817,1,992,121,33580,0,65700,0,0,0,0,0
i,0x00000000,1716772355.106646,172.16.3.2,5101,172.16.1.2,30595,9374,14480,0,65728,65700,6,6,4,1460,817,1,992,121,33580,0,65700,0,0,0,0,0
o,0x00000000,1716772355.106658,172.16.3.2,5101,172.16.1.2,30595,9374,14480,0,65728,65700,6,6,4,1460,817,1,993,121,33580,0,65700,1448,0,0,0,0
i,0x00000000,1716772355.117722,172.16.3.2,5101,172.16.1.2,30595,9374,14480,0,65728,65700,6,6,4,1460,817,1,992,121,33580,0,65700,0,0,0,0,0
i,0x00000000,1716772355.127263,172.16.3.2,5101,172.16.1.2,30595,9374,14480,0,65728,65700,6,6,4,1460,817,1,992,121,33580,0,65700,0,0,0,0,0
o,0x00000000,1716772355.127270,172.16.3.2,5101,172.16.1.2,30595,9374,14480,0,65728,65700,6,6,4,1460,817,1,993,121,33580,0,65700,1448,0,0,0,0
i,0x00000000,1716772355.137693,172.16.3.2,5101,172.16.1.2,30595,9374,14480,0,65728,65700,6,6,4,1460,817,1,992,121,33580,0,65700,0,0,0,0,0
i,0x00000000,1716772355.157070,172.16.3.2,5101,172.16.1.2,30595,9374,14480,0,65728,65700,6,6,4,1460,817,1,992,121,33580,0,65700,0,0,0,0,0
o,0x00000000,1716772355.157076,172.16.3.2,5101,172.16.1.2,30595,9374,14480,0,65728,65700,6,6,4,1460,817,1,993,121,33580,0,65700,1448,0,0,0,0
i,0x00000000,1716772355.167490,172.16.3.2,5101,172.16.1.2,30595,9374,14480,0,65728,65700,6,6,4,1460,817,1,992,121,33580,0,65700,0,0,0,0,0
i,0x00000000,1716772355.178047,172.16.3.2,5101,172.16.1.2,30595,9374,14480,0,65728,65700,6,6,4,1460,817,1,992,121,33580,0,65700,0,0,0,0,0
o,0x00000000,1716772355.178053,172.16.3.2,5101,172.16.1.2,30595,9374,14480,0,65728,65700,6,6,4,1460,817,1,993,121,33580,0,65700,1448,0,0,0,0
i,0x00000000,1716772355.188486,172.16.3.2,5101,172.16.1.2,30595,9374,14480,0,65728,65700,6,6,4,1460,817,1,992,121,33580,0,65700,0,0,0,0,0
i,0x00000000,1716772355.199427,172.16.3.2,5101,172.16.1.2,30595,9374,14480,0,65728,65700,6,6,4,1460,817,1,992,121,33580,0,65700,0,0,0,0,0
o,0x00000000,1716772355.199432,172.16.3.2,5101,172.16.1.2,30595,9374,14480,0,65728,65700,6,6,4,1460,817,1,993,121,33580,0,65700,1448,0,0,0,0
o,0x00000000,1716772355.199632,10.0.2.15,22,10.0.2.2,60131,1073725440,14600,0,65535,65700,0,0,4,1460,1,0,4,24,33580,108,65700,0,0,0,0,0
i,0x00000000,1716772355.200351,10.0.2.15,22,10.0.2.2,60131,1073725440,14600,0,65535,65700,0,0,4,1460,1,0,4,24,33580,108,65700,0,108,0,0,0
i,0x00000000,1716772355.216455,172.16.3.2,5101,172.16.1.2,30595,9374,14480,0,65728,65700,6,6,4,1460,817,1,992,121,33580,0,65700,0,0,0,0,0
i,0x00000000,1716772355.227892,172.16.3.2,5101,172.16.1.2,30595,9374,14480,0,65728,65700,6,6,4,1460,817,1,992,121,33580,0,65700,0,0,0,0,0
o,0x00000000,1716772355.227903,172.16.3.2,5101,172.16.1.2,30595,9374,14480,0,65728,65700,6,6,4,1460,817,1,993,121,33580,0,65700,1448,0,0,0,0
i,0x00000000,1716772355.237305,172.16.3.2,5101,172.16.1.2,30595,9374,14480,0,65728,65700,6,6,4,1460,817,1,992,121,33580,0,65700,0,0,0,0,0
i,0x00000000,1716772355.247752,172.16.3.2,5101,172.16.1.2,30595,9374,14480,0,65728,65700,6,6,4,1460,817,1,992,121,33580,0,65700,0,0,0,0,0
o,0x00000000,1716772355.247758,172.16.3.2,5101,172.16.1.2,30595,9374,14480,0,65728,65700,6,6,4,1460,817,1,993,121,33580,0,65700,1448,0,0,0,0
i,0x00000000,1716772355.257415,172.16.3.2,5101,172.16.1.2,30595,9374,14480,0,65728,65700,6,6,4,1460,817,1,992,121,33580,0,65700,0,0,0,0,0
i,0x00000000,1716772355.277206,172.16.3.2,5101,172.16.1.2,30595,9374,14480,0,65728,65700,6,6,4,1460,817,1,992,121,33580,0,65700,0,0,0,0,0
o,0x00000000,1716772355.277215,172.16.3.2,5101,172.16.1.2,30595,9374,14480,0,65728,65700,6,6,4,1460,817,1,993,121,33580,0,65700,1448,0,0,0,0
i,0x00000000,1716772355.287688,172.16.3.2,5101,172.16.1.2,30595,9374,14480,0,65728,65700,6,6,4,1460,817,1,992,121,33580,0,65700,0,0,0,0,0
i,0x00000000,1716772355.297083,172.16.3.2,5101,172.16.1.2,30595,9374,14480,0,65728,65700,6,6,4,1460,817,1,992,121,33580,0,65700,0,0,0,0,0
o,0x00000000,1716772355.297090,172.16.3.2,5101,172.16.1.2,30595,9374,14480,0,65728,65700,6,6,4,1460,817,1,993,121,33580,0,65700,1448,0,0,0,0
i,0x00000000,1716772355.307686,172.16.3.2,5101,172.16.1.2,30595,9374,14480,0,65728,65700,6,6,4,1460,817,1,992,121,33580,0,65700,0,0,0,0,0
i,0x00000000,1716772355.318095,172.16.3.2,5101,172.16.1.2,30595,9374,14480,0,65728,65700,6,6,4,1460,817,1,992,121,33580,0,65700,0,0,0,0,0
o,0x00000000,1716772355.318102,172.16.3.2,5101,172.16.1.2,30595,9374,14480,0,65728,65700,6,6,4,1460,817,1,993,121,33580,0,65700,1448,0,0,0,0
i,0x00000000,1716772355.337476,172.16.3.2,5101,172.16.1.2,30595,9374,14480,0,65728,65700,6,6,4,1460,817,1,992,121,33580,0,65700,0,0,0,0,0
i,0x00000000,1716772355.347955,172.16.3.2,5101,172.16.1.2,30595,9374,14480,0,65728,65700,6,6,4,1460,817,1,992,121,33580,0,65700,0,0,0,0,0
o,0x00000000,1716772355.347962,172.16.3.2,5101,172.16.1.2,30595,9374,14480,0,65728,65700,6,6,4,1460,817,1,993,121,33580,0,65700,1448,0,0,0,0
i,0x00000000,1716772355.357526,172.16.3.2,5101,172.16.1.2,30595,9374,14480,0,65728,65700,6,6,4,1460,817,1,992,121,33580,0,65700,0,0,0,0,0
i,0x00000000,1716772355.368033,172.16.3.2,5101,172.16.1.2,30595,9374,14480,0,65728,65700,6,6,4,1460,817,1,992,121,33580,0,65700,0,0,0,0,0
o,0x00000000,1716772355.368060,172.16.3.2,5101,172.16.1.2,30595,9374,14480,0,65728,65700,6,6,4,1460,817,1,993,121,33580,0,65700,1448,0,0,0,0
i,0x00000000,1716772355.378302,172.16.3.2,5101,172.16.1.2,30595,9374,14480,0,65728,65700,6,6,4,1460,817,1,992,121,33580,0,65700,0,0,0,0,0
i,0x00000000,1716772355.397686,172.16.3.2,5101,172.16.1.2,30595,9374,14480,0,65728,65700,6,6,4,1460,817,1,992,121,33580,0,65700,0,0,0,0,0
o,0x00000000,1716772355.397693,172.16.3.2,5101,172.16.1.2,30595,9374,14480,0,65728,65700,6,6,4,1460,817,1,993,121,33580,0,65700,1448,0,0,0,0
i,0x00000000,1716772355.817420,172.16.3.2,5101,172.16.1.2,30595,9374,14480,0,65728,65700,6,6,4,1460,817,1,992,121,33580,0,65700,0,0,0,0,0
i,0x00000000,1716772355.827841,172.16.3.2,5101,172.16.1.2,30595,9374,14480,0,65728,65700,6,6,4,1460,817,1,992,121,33580,0,65700,0,0,0,0,0
o,0x00000000,1716772355.827856,172.16.3.2,5101,172.16.1.2,30595,9374,14480,0,65728,65700,6,6,4,1460,817,1,993,121,33580,0,65700,1448,0,0,0,0
i,0x00000000,1716772355.838323,172.16.3.2,5101,172.16.1.2,30595,9374,14480,0,65728,65700,6,6,4,1460,817,1,992,121,33580,0,65700,0,0,0,0,0
i,0x00000000,1716772355.847327,172.16.3.2,5101,172.16.1.2,30595,9374,14480,0,65728,65700,6,6,4,1460,817,1,992,121,33580,0,65700,0,0,0,0,0
o,0x00000000,1716772355.847338,172.16.3.2,5101,172.16.1.2,30595,9374,14480,0,65728,65700,6,6,4,1460,817,1,993,121,33580,0,65700,1448,0,0,0,0
i,0x00000000,1716772355.857701,172.16.3.2,5101,172.16.1.2,30595,9374,14480,0,65728,65700,6,6,4,1460,817,1,992,121,33580,0,65700,0,0,0,0,0
i,0x00000000,1716772355.877251,172.16.3.2,5101,172.16.1.2,30595,9374,14480,0,65728,65700,6,6,4,1460,817,1,992,121,33580,0,65700,0,0,0,0,0
o,0x00000000,1716772355.877258,172.16.3.2,5101,172.16.1.2,30595,9374,14480,0,65728,65700,6,6,4,1460,817,1,993,121,33580,0,65700,1448,0,0,0,0
i,0x00000000,1716772355.887699,172.16.3.2,5101,172.16.1.2,30595,9374,14480,0,65728,65700,6,6,4,1460,817,1,992,121,33580,0,65700,0,0,0,0,0
i,0x00000000,1716772355.898285,172.16.3.2,5101,172.16.1.2,30595,9374,14480,0,65728,65700,6,6,4,1460,817,1,992,121,33580,0,65700,0,0,0,0,0
o,0x00000000,1716772355.898294,172.16.3.2,5101,172.16.1.2,30595,9374,14480,0,65728,65700,6,6,4,1460,817,1,993,121,33580,0,65700,1448,0,0,0,0
i,0x00000000,1716772355.908723,172.16.3.2,5101,172.16.1.2,30595,9374,14480,0,65728,65700,6,6,4,1460,817,1,992,121,33580,0,65700,0,0,0,0,0
i,0x00000000,1716772355.917343,172.16.3.2,5101,172.16.1.2,30595,9374,14480,0,65728,65700,6,6,4,1460,817,1,992,121,33580,0,65700,0,0,0,0,0
o,0x00000000,1716772355.917349,172.16.3.2,5101,172.16.1.2,30595,9374,14480,0,65728,65700,6,6,4,1460,817,1,993,121,33580,0,65700,1448,0,0,0,0
i,0x00000000,1716772355.938196,172.16.3.2,5101,172.16.1.2,30595,9374,14480,0,65728,65700,6,6,4,1460,817,1,992,121,33580,0,65700,0,0,0,0,0
i,0x00000000,1716772355.948853,172.16.3.2,5101,172.16.1.2,30595,9374,14480,0,65728,65700,6,6,4,1460,817,1,992,121,33580,0,65700,0,0,0,0,0
o,0x00000000,1716772355.948864,172.16.3.2,5101,172.16.1.2,30595,9374,14480,0,65728,65700,6,6,4,1460,817,1,993,121,33580,0,65700,1448,0,0,0,0
i,0x00000000,1716772355.958269,172.16.3.2,5101,172.16.1.2,30595,9374,14480,0,65728,65700,6,6,4,1460,817,1,992,121,33580,0,65700,0,0,0,0,0
i,0x00000000,1716772355.968683,172.16.3.2,5101,172.16.1.2,30595,9374,14480,0,65728,65700,6,6,4,1460,817,1,992,121,33580,0,65700,0,0,0,0,0
o,0x00000000,1716772355.968693,172.16.3.2,5101,172.16.1.2,30595,9374,14480,0,65728,65700,6,6,4,1460,817,1,993,121,33580,0,65700,1448,0,0,0,0
i,0x00000000,1716772355.978355,172.16.3.2,5101,172.16.1.2,30595,9374,14480,0,65728,65700,6,6,4,1460,817,1,992,121,33580,0,65700,0,0,0,0,0
i,0x00000000,1716772355.997815,172.16.3.2,5101,172.16.1.2,30595,9374,14480,0,65728,65700,6,6,4,1460,817,1,992,121,33580,0,65700,0,0,0,0,0
o,0x00000000,1716772355.997828,172.16.3.2,5101,172.16.1.2,30595,9374,14480,0,65728,65700,6,6,4,1460,817,1,993,121,33580,0,65700,1448,0,0,0,0
i,0x00000000,1716772356.008229,172.16.3.2,5101,172.16.1.2,30595,9374,14480,0,65728,65700,6,6,4,1460,817,1,992,121,33580,0,65700,0,0,0,0,0
i,0x00000000,1716772356.017682,172.16.3.2,5101,172.16.1.2,30595,9374,14480,0,65728,65700,6,6,4,1460,817,1,992,121,33580,0,65700,0,0,0,0,0
o,0x00000000,1716772356.017689,172.16.3.2,5101,172.16.1.2,30595,9374,14480,0,65728,65700,6,6,4,1460,817,1,993,121,33580,0,65700,1448,0,0,0,0
i,0x00000000,1716772356.028177,172.16.3.2,5101,172.16.1.2,30595,9374,14480,0,65728,65700,6,6,4,1460,817,1,992,121,33580,0,65700,0,0,0,0,0
i,0x00000000,1716772356.038790,172.16.3.2,5101,172.16.1.2,30595,9374,14480,0,65728,65700,6,6,4,1460,817,1,992,121,33580,0,65700,0,0,0,0,0
o,0x00000000,1716772356.038800,172.16.3.2,5101,172.16.1.2,30595,9374,14480,0,65728,65700,6,6,4,1460,817,1,993,121,33580,0,65700,1448,0,0,0,0
i,0x00000000,1716772356.058620,172.16.3.2,5101,172.16.1.2,30595,9374,14480,0,65728,65700,6,6,4,1460,817,1,992,121,33580,0,65700,0,0,0,0,0
i,0x00000000,1716772356.069042,172.16.3.2,5101,172.16.1.2,30595,9374,14480,0,65728,65700,6,6,4,1460,817,1,992,121,33580,0,65700,0,0,0,0,0
o,0x00000000,1716772356.069048,172.16.3.2,5101,172.16.1.2,30595,9374,14480,0,65728,65700,6,6,4,1460,817,1,993,121,33580,0,65700,1448,0,0,0,0
i,0x00000000,1716772356.078848,172.16.3.2,5101,172.16.1.2,30595,9374,14480,0,65728,65700,6,6,4,1460,817,1,992,121,33580,0,65700,0,0,0,0,0
i,0x00000000,1716772356.088181,172.16.3.2,5101,172.16.1.2,30595,9374,14480,0,65728,65700,6,6,4,1460,817,1,992,121,33580,0,65700,0,0,0,0,0
o,0x00000000,1716772356.088190,172.16.3.2,5101,172.16.1.2,30595,9374,14480,0,65728,65700,6,6,4,1460,817,1,993,121,33580,0,65700,1448,0,0,0,0
i,0x00000000,1716772356.098619,172.16.3.2,5101,172.16.1.2,30595,9374,14480,0,65728,65700,6,6,4,1460,817,1,992,121,33580,0,65700,0,0,0,0,0
i,0x00000000,1716772356.117999,172.16.3.2,5101,172.16.1.2,30595,9374,14480,0,65728,65700,6,6,4,1460,817,1,992,121,33580,0,65700,0,0,0,0,0
o,0x00000000,1716772356.118007,172.16.3.2,5101,172.16.1.2,30595,9374,14480,0,65728,65700,6,6,4,1460,817,1,993,121,33580,0,65700,1448,0,0,0,0
i,0x00000000,1716772356.127580,172.16.3.2,5101,172.16.1.2,30595,9374,14480,0,65728,65700,6,6,4,1460,817,1,992,121,33580,0,65700,0,0,0,0,0
i,0x00000000,1716772356.138047,172.16.3.2,5101,172.16.1.2,30595,9374,14480,0,65728,65700,6,6,4,1460,817,1,992,121,33580,0,65700,0,0,0,0,0
o,0x00000000,1716772356.138054,172.16.3.2,5101,172.16.1.2,30595,9374,14480,0,65728,65700,6,6,4,1460,817,1,993,121,33580,0,65700,1448,0,0,0,0
i,0x00000000,1716772356.148514,172.16.3.2,5101,172.16.1.2,30595,9374,14480,0,65728,65700,6,6,4,1460,817,1,992,121,33580,0,65700,0,0,0,0,0
o,0x00000000,1716772356.179583,172.16.3.2,5101,172.16.1.2,30595,9374,14480,0,65728,65700,6,6,4,1460,817,1,993,121,33580,0,65700,0,0,0,0,0
o,0x00000000,1716772356.200635,10.0.2.15,22,10.0.2.2,60131,1073725440,14600,0,65535,65700,0,0,4,1460,1,0,4,24,33580,108,65700,0,0,0,0,0
i,0x00000000,1716772356.201326,10.0.2.15,22,10.0.2.2,60131,1073725440,14600,0,65535,65700,0,0,4,1460,1,0,4,24,33580,108,65700,0,108,0,0,0
i,0x00000000,1716772356.570085,172.16.3.2,5101,172.16.1.2,30595,9374,14480,0,65728,65700,6,6,4,1460,817,1,992,121,33580,0,65700,0,0,0,0,0
i,0x00000000,1716772356.578144,172.16.3.2,5101,172.16.1.2,30595,9374,14480,0,65728,65700,6,6,4,1460,817,1,992,121,33580,0,65700,0,0,0,0,0
o,0x00000000,1716772356.578158,172.16.3.2,5101,172.16.1.2,30595,9374,14480,0,65728,65700,6,6,4,1460,817,1,993,121,33580,0,65700,1448,0,0,0,0
i,0x00000000,1716772356.588475,172.16.3.2,5101,172.16.1.2,30595,9374,14480,0,65728,65700,6,6,4,1460,817,1,992,121,33580,0,65700,0,0,0,0,0
i,0x00000000,1716772356.598107,172.16.3.2,5101,172.16.1.2,30595,9374,14480,0,65728,65700,6,6,4,1460,817,1,992,121,33580,0,65700,0,0,0,0,0
o,0x00000000,1716772356.598113,172.16.3.2,5101,172.16.1.2,30595,9374,14480,0,65728,65700,6,6,4,1460,817,1,993,121,33580,0,65700,1448,0,0,0,0
i,0x00000000,1716772356.608517,172.16.3.2,5101,172.16.1.2,30595,9374,14480,0,65728,65700,6,6,4,1460,817,1,992,121,33580,0,65700,0,0,0,0,0
i,0x00000000,1716772356.628575,172.16.3.2,5101,172.16.1.2,30595,9374,14480,0,65728,65700,6,6,4,1460,817,1,992,121,33580,0,65700,0,0,0,0,0
o,0x00000000,1716772356.628584,172.16.3.2,5101,172.16.1.2,30595,9374,14480,0,65728,65700,6,6,4,1460,817,1,993,121,33580,0,65700,1448,0,0,0,0
i,0x00000000,1716772356.639153,172.16.3.2,5101,172.16.1.2,30595,9374,14480,0,65728,65700,6,6,4,1460,817,1,992,121,33580,0,65700,0,0,0,0,0
i,0x00000000,1716772356.648624,172.16.3.2,5101,172.16.1.2,30595,9374,14480,0,65728,65700,6,6,4,1460,817,1,992,121,33580,0,65700,0,0,0,0,0
o,0x00000000,1716772356.648630,172.16.3.2,5101,172.16.1.2,30595,9374,14480,0,65728,65700,6,6,4,1460,817,1,993,121,33580,0,65700,1448,0,0,0,0
i,0x00000000,1716772356.659239,172.16.3.2,5101,172.16.1.2,30595,9374,14480,0,65728,65700,6,6,4,1460,817,1,992,121,33580,0,65700,0,0,0,0,0
i,0x00000000,1716772356.668593,172.16.3.2,5101,172.16.1.2,30595,9374,14480,0,65728,65700,6,6,4,1460,817,1,992,121,33580,0,65700,0,0,0,0,0
o,0x00000000,1716772356.668599,172.16.3.2,5101,172.16.1.2,30595,9374,14480,0,65728,65700,6,6,4,1460,817,1,993,121,33580,0,65700,1448,0,0,0,0
i,0x00000000,1716772356.689225,172.16.3.2,5101,172.16.1.2,30595,9374,14480,0,65728,65700,6,6,4,1460,817,1,992,121,33580,0,65700,0,0,0,0,0
i,0x00000000,1716772356.699803,172.16.3.2,5101,172.16.1.2,30595,9374,14480,0,65728,65700,6,6,4,1460,817,1,992,121,33580,0,65700,0,0,0,0,0
o,0x00000000,1716772356.699810,172.16.3.2,5101,172.16.1.2,30595,9374,14480,0,65728,65700,6,6,4,1460,817,1,993,121,33580,0,65700,1448,0,0,0,0
i,0x00000000,1716772356.708608,172.16.3.2,5101,172.16.1.2,30595,9374,14480,0,65728,65700,6,6,4,1460,817,1,992,121,33580,0,65700,0,0,0,0,0
i,0x00000000,1716772356.718173,172.16.3.2,5101,172.16.1.2,30595,9374,14480,0,65728,65700,6,6,4,1460,817,1,992,121,33580,0,65700,0,0,0,0,0
o,0x00000000,1716772356.718179,172.16.3.2,5101,172.16.1.2,30595,9374,14480,0,65728,65700,6,6,4,1460,817,1,993,121,33580,0,65700,1448,0,0,0,0
i,0x00000000,1716772356.728671,172.16.3.2,5101,172.16.1.2,30595,9374,14480,0,65728,65700,6,6,4,1460,817,1,992,121,33580,0,65700,0,0,0,0,0
i,0x00000000,1716772356.748627,172.16.3.2,5101,172.16.1.2,30595,9374,14480,0,65728,65700,6,6,4,1460,817,1,992,121,33580,0,65700,0,0,0,0,0
o,0x00000000,1716772356.748633,172.16.3.2,5101,172.16.1.2,30595,9374,14480,0,65728,65700,6,6,4,1460,817,1,993,121,33580,0,65700,1448,0,0,0,0
i,0x00000000,1716772356.759288,172.16.3.2,5101,172.16.1.2,30595,9374,14480,0,65728,65700,6,6,4,1460,817,1,992,121,33580,0,65700,0,0,0,0,0
i,0x00000000,1716772356.769656,172.16.3.2,5101,172.16.1.2,30595,9374,14480,0,65728,65700,6,6,4,1460,817,1,992,121,33580,0,65700,0,0,0,0,0
o,0x00000000,1716772356.769662,172.16.3.2,5101,172.16.1.2,30595,9374,14480,0,65728,65700,6,6,4,1460,817,1,993,121,33580,0,65700,1448,0,0,0,0
i,0x00000000,1716772356.778913,172.16.3.2,5101,172.16.1.2,30595,9374,14480,0,65728,65700,6,6,4,1460,817,1,992,121,33580,0,65700,0,0,0,0,0
i,0x00000000,1716772356.788887,172.16.3.2,5101,172.16.1.2,30595,9374,14480,0,65728,65700,6,6,4,1460,817,1,992,121,33580,0,65700,0,0,0,0,0
o,0x00000000,1716772356.788894,172.16.3.2,5101,172.16.1.2,30595,9374,14480,0,65728,65700,6,6,4,1460,817,1,993,121,33580,0,65700,1448,0,0,0,0
i,0x00000000,1716772356.809997,172.16.3.2,5101,172.16.1.2,30595,9374,14480,0,65728,65700,6,6,4,1460,817,1,992,121,33580,0,65700,0,0,0,0,0
i,0x00000000,1716772356.818475,172.16.3.2,5101,172.16.1.2,30595,9374,14480,0,65728,65700,6,6,4,1460,817,1,992,121,33580,0,65700,0,0,0,0,0
o,0x00000000,1716772356.818480,172.16.3.2,5101,172.16.1.2,30595,9374,14480,0,65728,65700,6,6,4,1460,817,1,993,121,33580,0,65700,1448,0,0,0,0
i,0x00000000,1716772356.828149,172.16.3.2,5101,172.16.1.2,30595,9374,14480,0,65728,65700,6,6,4,1460,817,1,992,121,33580,0,65700,0,0,0,0,0
i,0x00000000,1716772356.838540,172.16.3.2,5101,172.16.1.2,30595,9374,14480,0,65728,65700,6,6,4,1460,817,1,992,121,33580,0,65700,0,0,0,0,0
o,0x00000000,1716772356.838547,172.16.3.2,5101,172.16.1.2,30595,9374,14480,0,65728,65700,6,6,4,1460,817,1,993,121,33580,0,65700,1448,0,0,0,0
i,0x00000000,1716772356.849172,172.16.3.2,5101,172.16.1.2,30595,9374,14480,0,65728,65700,6,6,4,1460,817,1,992,121,33580,0,65700,0,0,0,0,0
i,0x00000000,1716772356.868151,172.16.3.2,5101,172.16.1.2,30595,9374,14480,0,65728,65700,6,6,4,1460,817,1,992,121,33580,0,65700,0,0,0,0,0
o,0x00000000,1716772356.868158,172.16.3.2,5101,172.16.1.2,30595,9374,14480,0,65728,65700,6,6,4,1460,817,1,993,121,33580,0,65700,1448,0,0,0,0
i,0x00000000,1716772356.878575,172.16.3.2,5101,172.16.1.2,30595,9374,14480,0,65728,65700,6,6,4,1460,817,1,992,121,33580,0,65700,0,0,0,0,0
i,0x00000000,1716772356.888760,172.16.3.2,5101,172.16.1.2,30595,9374,14480,0,65728,65700,6,6,4,1460,817,1,992,121,33580,0,65700,0,0,0,0,0
o,0x00000000,1716772356.888771,172.16.3.2,5101,172.16.1.2,30595,9374,14480,0,65728,65700,6,6,4,1460,817,1,993,121,33580,0,65700,1448,0,0,0,0
i,0x00000000,1716772356.899162,172.16.3.2,5101,172.16.1.2,30595,9374,14480,0,65728,65700,6,6,4,1460,817,1,992,121,33580,0,65700,0,0,0,0,0
o,0x00000000,1716772356.939051,172.16.3.2,5101,172.16.1.2,30595,9374,14480,0,65728,65700,6,6,4,1460,817,1,993,121,33580,0,65700,0,0,0,0,0
i,0x00000000,1716772356.949057,172.16.3.2,5101,172.16.1.2,30595,9374,14480,0,65728,65700,6,6,4,1460,817,1,992,121,33580,0,65700,0,0,0,0,0
o,0x00000000,1716772356.989458,172.16.3.2,5101,172.16.1.2,30595,9374,14480,0,65728,65700,6,6,4,1460,817,1,993,121,33580,0,65700,0,0,0,0,0
o,0x00000000,1716772357.199684,10.0.2.15,22,10.0.2.2,60131,1073725440,14600,0,65535,65700,0,0,4,1460,1,0,4,24,33580,108,65700,0,0,0,0,0
i,0x00000000,1716772357.200649,10.0.2.15,22,10.0.2.2,60131,1073725440,14600,0,65535,65700,0,0,4,1460,1,0,4,24,33580,108,65700,0,108,0,0,0
i,0x00000000,1716772357.308899,172.16.3.2,5101,172.16.1.2,30595,9374,14480,0,65728,65700,6,6,4,1460,817,1,992,121,33580,0,65700,0,0,0,0,0
i,0x00000000,1716772357.319431,172.16.3.2,5101,172.16.1.2,30595,9374,14480,0,65728,65700,6,6,4,1460,817,1,992,121,33580,0,65700,0,0,0,0,0
o,0x00000000,1716772357.319444,172.16.3.2,5101,172.16.1.2,30595,9374,14480,0,65728,65700,6,6,4,1460,817,1,993,121,33580,0,65700,1448,0,0,0,0
i,0x00000000,1716772357.329617,172.16.3.2,5101,172.16.1.2,30595,9374,14480,0,65728,65700,6,6,4,1460,817,1,992,121,33580,0,65700,0,0,0,0,0
i,0x00000000,1716772357.348759,172.16.3.2,5101,172.16.1.2,30595,9374,14480,0,65728,65700,6,6,4,1460,817,1,992,121,33580,0,65700,0,0,0,0,0
o,0x00000000,1716772357.348768,172.16.3.2,5101,172.16.1.2,30595,9374,14480,0,65728,65700,6,6,4,1460,817,1,993,121,33580,0,65700,1448,0,0,0,0
i,0x00000000,1716772357.359249,172.16.3.2,5101,172.16.1.2,30595,9374,14480,0,65728,65700,6,6,4,1460,817,1,992,121,33580,0,65700,0,0,0,0,0
i,0x00000000,1716772357.369823,172.16.3.2,5101,172.16.1.2,30595,9374,14480,0,65728,65700,6,6,4,1460,817,1,992,121,33580,0,65700,0,0,0,0,0
o,0x00000000,1716772357.369830,172.16.3.2,5101,172.16.1.2,30595,9374,14480,0,65728,65700,6,6,4,1460,817,1,993,121,33580,0,65700,1448,0,0,0,0
i,0x00000000,1716772357.379227,172.16.3.2,5101,172.16.1.2,30595,9374,14480,0,65728,65700,6,6,4,1460,817,1,992,121,33580,0,65700,0,0,0,0,0
i,0x00000000,1716772357.389852,172.16.3.2,5101,172.16.1.2,30595,9374,14480,0,65728,65700,6,6,4,1460,817,1,992,121,33580,0,65700,0,0,0,0,0
o,0x00000000,1716772357.389858,172.16.3.2,5101,172.16.1.2,30595,9374,14480,0,65728,65700,6,6,4,1460,817,1,993,121,33580,0,65700,1448,0,0,0,0
i,0x00000000,1716772357.409951,172.16.3.2,5101,172.16.1.2,30595,9374,14480,0,65728,65700,6,6,4,1460,817,1,992,121,33580,0,65700,0,0,0,0,0
i,0x00000000,1716772357.418785,172.16.3.2,5101,172.16.1.2,30595,9374,14480,0,65728,65700,6,6,4,1460,817,1,992,121,33580,0,65700,0,0,0,0,0
o,0x00000000,1716772357.418791,172.16.3.2,5101,172.16.1.2,30595,9374,14480,0,65728,65700,6,6,4,1460,817,1,993,121,33580,0,65700,1448,0,0,0,0
i,0x00000000,1716772357.429284,172.16.3.2,5101,172.16.1.2,30595,9374,14480,0,65728,65700,6,6,4,1460,817,1,992,121,33580,0,65700,0,0,0,0,0
i,0x00000000,1716772357.438712,172.16.3.2,5101,172.16.1.2,30595,9374,14480,0,65728,65700,6,6,4,1460,817,1,992,121,33580,0,65700,0,0,0,0,0
o,0x00000000,1716772357.438726,172.16.3.2,5101,172.16.1.2,30595,9374,14480,0,65728,65700,6,6,4,1460,817,1,993,121,33580,0,65700,1448,0,0,0,0
i,0x00000000,1716772357.450064,172.16.3.2,5101,172.16.1.2,30595,9374,14480,0,65728,65700,6,6,4,1460,817,1,992,121,33580,0,65700,0,0,0,0,0
i,0x00000000,1716772357.469441,172.16.3.2,5101,172.16.1.2,30595,9374,14480,0,65728,65700,6,6,4,1460,817,1,992,121,33580,0,65700,0,0,0,0,0
o,0x00000000,1716772357.469462,172.16.3.2,5101,172.16.1.2,30595,9374,14480,0,65728,65700,6,6,4,1460,817,1,993,121,33580,0,65700,1448,0,0,0,0
i,0x00000000,1716772357.479588,172.16.3.2,5101,172.16.1.2,30595,9374,14480,0,65728,65700,6,6,4,1460,817,1,992,121,33580,0,65700,0,0,0,0,0
i,0x00000000,1716772357.490018,172.16.3.2,5101,172.16.1.2,30595,9374,14480,0,65728,65700,6,6,4,1460,817,1,992,121,33580,0,65700,0,0,0,0,0
o,0x00000000,1716772357.490031,172.16.3.2,5101,172.16.1.2,30595,9374,14480,0,65728,65700,6,6,4,1460,817,1,993,121,33580,0,65700,1448,0,0,0,0
i,0x00000000,1716772357.499461,172.16.3.2,5101,172.16.1.2,30595,9374,14480,0,65728,65700,6,6,4,1460,817,1,992,121,33580,0,65700,0,0,0,0,0
i,0x00000000,1716772357.519313,172.16.3.2,5101,172.16.1.2,30595,9374,14480,0,65728,65700,6,6,4,1460,817,1,992,121,33580,0,65700,0,0,0,0,0
o,0x00000000,1716772357.519330,172.16.3.2,5101,172.16.1.2,30595,9374,14480,0,65728,65700,6,6,4,1460,817,1,993,121,33580,0,65700,1448,0,0,0,0
i,0x00000000,1716772357.529663,172.16.3.2,5101,172.16.1.2,30595,9374,14480,0,65728,65700,6,6,4,1460,817,1,992,121,33580,0,65700,0,0,0,0,0
i,0x00000000,1716772357.539614,172.16.3.2,5101,172.16.1.2,30595,9374,14480,0,65728,65700,6,6,4,1460,817,1,992,121,33580,0,65700,0,0,0,0,0
o,0x00000000,1716772357.539620,172.16.3.2,5101,172.16.1.2,30595,9374,14480,0,65728,65700,6,6,4,1460,817,1,993,121,33580,0,65700,1448,0,0,0,0
i,0x00000000,1716772357.549046,172.16.3.2,5101,172.16.1.2,30595,9374,14480,0,65728,65700,6,6,4,1460,817,1,992,121,33580,0,65700,0,0,0,0,0
i,0x00000000,1716772357.559525,172.16.3.2,5101,172.16.1.2,30595,9374,14480,0,65728,65700,6,6,4,1460,817,1,992,121,33580,0,65700,0,0,0,0,0
o,0x00000000,1716772357.559531,172.16.3.2,5101,172.16.1.2,30595,9374,14480,0,65728,65700,6,6,4,1460,817,1,993,121,33580,0,65700,1448,0,0,0,0
i,0x00000000,1716772357.578763,172.16.3.2,5101,172.16.1.2,30595,9374,14480,0,65728,65700,6,6,4,1460,817,1,992,121,33580,0,65700,0,0,0,0,0
i,0x00000000,1716772357.589085,172.16.3.2,5101,172.16.1.2,30595,9374,14480,0,65728,65700,6,6,4,1460,817,1,992,121,33580,0,65700,0,0,0,0,0
o,0x00000000,1716772357.589091,172.16.3.2,5101,172.16.1.2,30595,9374,14480,0,65728,65700,6,6,4,1460,817,1,993,121,33580,0,65700,1448,0,0,0,0
i,0x00000000,1716772357.599381,172.16.3.2,5101,172.16.1.2,30595,9374,14480,0,65728,65700,6,6,4,1460,817,1,992,121,33580,0,65700,0,0,0,0,0
i,0x00000000,1716772357.609835,172.16.3.2,5101,172.16.1.2,30595,9374,14480,0,65728,65700,6,6,4,1460,817,1,992,121,33580,0,65700,0,0,0,0,0
o,0x00000000,1716772357.609841,172.16.3.2,5101,172.16.1.2,30595,9374,14480,0,65728,65700,6,6,4,1460,817,1,993,121,33580,0,65700,1448,0,0,0,0
i,0x00000000,1716772357.619397,172.16.3.2,5101,172.16.1.2,30595,9374,14480,0,65728,65700,6,6,4,1460,817,1,992,121,33580,0,65700,0,0,0,0,0
i,0x00000000,1716772357.640253,172.16.3.2,5101,172.16.1.2,30595,9374,14480,0,65728,65700,6,6,4,1460,817,1,992,121,33580,0,65700,0,0,0,0,0
o,0x00000000,1716772357.640274,172.16.3.2,5101,172.16.1.2,30595,9374,14480,0,65728,65700,6,6,4,1460,817,1,993,121,33580,0,65700,1448,0,0,0,0
i,0x00000000,1716772357.649725,172.16.3.2,5101,172.16.1.2,30595,9374,14480,0,65728,65700,6,6,4,1460,817,1,992,121,33580,0,65700,0,0,0,0,0
i,0x00000000,1716772357.689681,172.16.3.2,5101,172.16.1.2,30595,9374,14480,0,65728,65700,6,6,4,1460,817,1,992,121,33580,0,65700,0,0,0,0,0
o,0x00000000,1716772357.689695,172.16.3.2,5101,172.16.1.2,30595,9374,14480,0,65728,65700,6,6,4,1460,817,1,993,121,33580,0,65700,1448,0,0,0,0
i,0x00000000,1716772357.899200,172.16.3.2,5101,172.16.1.2,30595,9374,14480,0,65728,65700,6,6,4,1460,817,1,992,121,33580,0,65700,0,0,0,0,0
o,0x00000000,1716772357.939585,172.16.3.2,5101,172.16.1.2,30595,9374,14480,0,65728,65700,6,6,4,1460,817,1,993,121,33580,0,65700,0,0,0,0,0
i,0x00000000,1716772358.070111,172.16.3.2,5101,172.16.1.2,30595,9374,14480,0,65728,65700,6,6,4,1460,817,1,992,121,33580,0,65700,0,0,0,0,0
i,0x00000000,1716772358.079644,172.16.3.2,5101,172.16.1.2,30595,9374,14480,0,65728,65700,6,6,4,1460,817,1,992,121,33580,0,65700,0,0,0,0,0
o,0x00000000,1716772358.079658,172.16.3.2,5101,172.16.1.2,30595,9374,14480,0,65728,65700,6,6,4,1460,817,1,993,121,33580,0,65700,1448,0,0,0,0
i,0x00000000,1716772358.089634,172.16.3.2,5101,172.16.1.2,30595,9374,14480,0,65728,65700,6,6,4,1460,817,1,992,121,33580,0,65700,0,0,0,0,0
i,0x00000000,1716772358.099989,172.16.3.2,5101,172.16.1.2,30595,9374,14480,0,65728,65700,6,6,4,1460,817,1,992,121,33580,0,65700,0,0,0,0,0
o,0x00000000,1716772358.099995,172.16.3.2,5101,172.16.1.2,30595,9374,14480,0,65728,65700,6,6,4,1460,817,1,993,121,33580,0,65700,1448,0,0,0,0
i,0x00000000,1716772358.119941,172.16.3.2,5101,172.16.1.2,30595,9374,14480,0,65728,65700,6,6,4,1460,817,1,992,121,33580,0,65700,0,0,0,0,0
i,0x00000000,1716772358.130410,172.16.3.2,5101,172.16.1.2,30595,9374,14480,0,65728,65700,6,6,4,1460,817,1,992,121,33580,0,65700,0,0,0,0,0
o,0x00000000,1716772358.130416,172.16.3.2,5101,172.16.1.2,30595,9374,14480,0,65728,65700,6,6,4,1460,817,1,993,121,33580,0,65700,1448,0,0,0,0
i,0x00000000,1716772358.139796,172.16.3.2,5101,172.16.1.2,30595,9374,14480,0,65728,65700,6,6,4,1460,817,1,992,121,33580,0,65700,0,0,0,0,0
i,0x00000000,1716772358.149216,172.16.3.2,5101,172.16.1.2,30595,9374,14480,0,65728,65700,6,6,4,1460,817,1,992,121,33580,0,65700,0,0,0,0,0
o,0x00000000,1716772358.149221,172.16.3.2,5101,172.16.1.2,30595,9374,14480,0,65728,65700,6,6,4,1460,817,1,993,121,33580,0,65700,1448,0,0,0,0
i,0x00000000,1716772358.159704,172.16.3.2,5101,172.16.1.2,30595,9374,14480,0,65728,65700,6,6,4,1460,817,1,992,121,33580,0,65700,0,0,0,0,0
