enable_time_secs=1716771202	enable_time_usecs=161248	siftrver=1.2.4	hz=100	tcp_rtt_scale=32	sysname=FreeBSD	sysver=1301000	ipmode=4
o,0x00000000,1716771202.161306,10.0.2.15,22,10.0.2.2,52614,1073725440,17298,0,65535,65700,0,0,4,1460,1,0,4,24,33580,44,65700,0,0,0,0,0
o,0x00000000,1716771202.161453,10.0.2.15,22,10.0.2.2,52614,1073725440,17298,0,65535,65700,0,0,4,1460,1,0,4,24,33580,80,65700,0,44,0,0,0
i,0x00000000,1716771202.161891,10.0.2.15,22,10.0.2.2,52614,1073725440,17298,0,65535,65700,0,0,4,1460,1,0,4,24,33580,80,65700,0,80,0,0,0
i,0x00000000,1716771202.161895,10.0.2.15,22,10.0.2.2,52614,1073725440,17342,0,65535,65700,0,0,4,1460,1,0,4,24,33580,36,65700,0,36,0,0,0
o,0x00000000,1716771202.161959,10.0.2.15,22,10.0.2.2,52614,1073725440,17378,0,65535,65700,0,0,4,1460,1,0,4,24,33580,36,65700,0,0,0,0,0
i,0x00000000,1716771202.162558,10.0.2.15,22,10.0.2.2,52614,1073725440,17378,0,65535,65700,0,0,4,1460,1,0,4,24,33580,36,65700,0,36,0,0,0
o,0x00000000,1716771202.163328,10.0.2.15,22,10.0.2.2,52614,1073725440,17414,0,65535,65700,0,0,4,1460,1,0,4,24,33580,176,65700,0,0,0,0,0
i,0x00000000,1716771202.164450,10.0.2.15,22,10.0.2.2,52614,1073725440,17414,0,65535,65700,0,0,4,1460,1,0,4,24,33580,176,65700,0,176,0,0,0
i,0x00000000,1716771202.164822,10.0.2.15,22,10.0.2.2,52614,1073725440,17590,0,65535,65700,0,0,4,1460,1,0,4,24,33580,0,65700,0,0,0,0,0
i,0x00000000,1716771202.164825,10.0.2.15,22,10.0.2.2,52614,1073725440,17590,0,65535,65700,0,0,4,1460,1,0,4,24,33580,0,65700,96,0,0,0,0
o,0x00000000,1716771202.164828,10.0.2.15,22,10.0.2.2,52614,1073725440,17590,0,65535,65604,0,0,5,1460,1,0,5,24,33580,0,65700,96,0,0,0,0
o,0x00000000,1716771202.165312,10.0.2.15,22,10.0.2.2,52614,1073725440,17590,0,65535,65604,0,0,8,1460,1,0,4,24,33580,0,65700,0,0,0,0,0
i,0x00000000,1716771202.166060,10.0.2.15,22,10.0.2.2,52614,1073725440,17590,0,65535,65604,0,0,8,1460,1,0,20,24,33580,0,65700,0,1,0,0,0
i,0x00000000,1716771203.541893,172.16.3.2,5101,172.16.1.2,24791,10499,14480,0,65728,65700,6,6,4,1460,359,1,992,38,33580,0,65700,0,0,0,0,0
o,0x00000000,1716771203.542131,172.16.3.2,5101,172.16.1.2,24791,10499,14480,0,65728,65700,6,6,4,1460,359,1,996,38,33580,1,65700,0,0,0,0,0
i,0x00000000,1716771203.660871,172.16.3.2,5101,172.16.1.2,24791,10499,14480,0,65728,65700,6,6,4,1460,359,1,996,38,33580,1,65700,0,1,0,0,0
i,0x00000000,1716771203.660888,172.16.3.2,5101,172.16.1.2,24791,10499,14480,0,65728,65728,6,6,4,1460,363,1,996,37,33580,0,65700,4,0,0,0,0
o,0x00000000,1716771203.660897,172.16.3.2,5101,172.16.1.2,24791,10499,14480,0,65728,65728,6,6,4,1460,363,1,997,37,33580,0,65700,128,0,0,0,0
o,0x00000000,1716771203.661294,172.16.3.2,5101,172.16.1.2,24791,10499,14480,0,65728,65728,6,6,4,1460,363,1,996,37,33580,1,65700,0,0,0,0,0
o,0x00000000,1716771203.661450,10.0.2.15,22,10.0.2.2,60131,1073725440,14600,0,65535,65700,0,0,4,1460,1,0,4,24,33580,84,65700,0,0,0,0,0
i,0x00000000,1716771203.662184,10.0.2.15,22,10.0.2.2,60131,1073725440,14600,0,65535,65700,0,0,4,1460,1,0,4,24,33580,84,65700,0,84,0,0,0
i,0x00000000,1716771203.811065,172.16.3.2,5101,172.16.1.2,24791,10499,14480,0,65728,65728,6,6,4,1460,363,1,996,37,33580,1,65700,0,1,0,0,0
i,0x00000000,1716771203.902056,172.16.3.2,5101,172.16.1.2,34128,10499,14480,0,65728,65700,6,6,4,1460,359,1,992,38,33580,0,65700,0,0,0,0,0
o,0x00000000,1716771203.904094,172.16.3.2,5101,172.16.1.2,24791,10499,14480,0,65728,65728,6,6,4,1460,374,1,996,39,33580,1,65700,0,0,0,0,0
o,0x00000000,1716771203.904326,172.16.3.2,5101,172.16.1.2,24791,10499,14480,0,65728,65728,6,6,4,1460,374,1,996,39,33580,2,65700,0,1,0,0,0
o,0x00000000,1716771203.904776,10.0.2.15,22,10.0.2.2,60131,1073725440,14600,0,65535,65700,0,0,4,1460,1,0,4,24,33580,108,65700,0,0,0,0,0
i,0x00000000,1716771203.905474,10.0.2.15,22,10.0.2.2,60131,1073725440,14600,0,65535,65700,0,0,4,1460,1,0,4,24,33580,108,65700,0,108,0,0,0
o,0x00000000,1716771203.940128,172.16.3.2,5101,172.16.1.2,34128,10499,14480,0,65728,65700,6,6,4,1460,359,1,993,38,33580,0,65700,0,0,0,0,0
i,0x00000000,1716771204.121493,172.16.3.2,5101,172.16.1.2,34128,10499,14480,0,65728,65700,6,6,4,1460,359,1,992,38,33580,0,65700,0,0,0,0,0
i,0x00000000,1716771204.131796,172.16.3.2,5101,172.16.1.2,34128,10499,14480,0,65728,65700,6,6,4,1460,359,1,992,38,33580,0,65700,0,0,0,0,0
o,0x00000000,1716771204.131810,172.16.3.2,5101,172.16.1.2,34128,10499,14480,0,65728,65700,6,6,4,1460,359,1,993,38,33580,0,65700,1448,0,0,0,0
i,0x00000000,1716771204.140942,172.16.3.2,5101,172.16.1.2,34128,10499,14480,0,65728,65700,6,6,4,1460,359,1,992,38,33580,0,65700,0,0,0,0,0
i,0x00000000,1716771204.150951,172.16.3.2,5101,172.16.1.2,34128,10499,14480,0,65728,65700,6,6,4,1460,359,1,992,38,33580,0,65700,0,0,0,0,0
o,0x00000000,1716771204.150958,172.16.3.2,5101,172.16.1.2,34128,10499,14480,0,65728,65700,6,6,4,1460,359,1,993,38,33580,0,65700,1448,0,0,0,0
i,0x00000000,1716771204.171663,172.16.3.2,5101,172.16.1.2,34128,10499,14480,0,65728,65700,6,6,4,1460,359,1,992,38,33580,0,65700,0,0,0,0,0
i,0x00000000,1716771204.180990,172.16.3.2,5101,172.16.1.2,34128,10499,14480,0,65728,65700,6,6,4,1460,359,1,992,38,33580,0,65700,0,0,0,0,0
o,0x00000000,1716771204.180998,172.16.3.2,5101,172.16.1.2,34128,10499,14480,0,65728,65700,6,6,4,1460,359,1,993,38,33580,0,65700,1448,0,0,0,0
i,0x00000000,1716771204.192298,172.16.3.2,5101,172.16.1.2,34128,10499,14480,0,65728,65700,6,6,4,1460,359,1,992,38,33580,0,65700,0,0,0,0,0
i,0x00000000,1716771204.201735,172.16.3.2,5101,172.16.1.2,34128,10499,14480,0,65728,65700,6,6,4,1460,359,1,992,38,33580,0,65700,0,0,0,0,0
o,0x00000000,1716771204.201743,172.16.3.2,5101,172.16.1.2,34128,10499,14480,0,65728,65700,6,6,4,1460,359,1,993,38,33580,0,65700,0,0,1,0,0
i,0x00000000,1716771204.210959,172.16.3.2,5101,172.16.1.2,34128,10499,14480,0,65728,65700,6,6,4,1460,359,1,992,38,33580,0,65700,0,0,1,0,0
o,0x00000000,1716771204.210965,172.16.3.2,5101,172.16.1.2,34128,10499,14480,0,65728,65728,6,6,4,1460,359,1,993,38,33580,0,65700,0,0,1,0,0
o,0x00000000,1716771204.289417,172.16.3.2,5101,172.16.1.2,24791,7240,1448,0,65728,65728,6,6,4,1460,374,1,9189,58,33580,2,65700,0,2,0,0,0
i,0x00000000,1716771204.422163,172.16.3.2,5101,172.16.1.2,34128,10499,14480,0,65728,65728,6,6,4,1460,359,1,992,38,33580,0,65700,0,0,1,0,0
o,0x00000000,1716771204.422182,172.16.3.2,5101,172.16.1.2,34128,10499,14480,0,65728,65728,6,6,4,1460,359,1,993,38,33580,0,65700,0,0,1,0,0
i,0x00000000,1716771204.431467,172.16.3.2,5101,172.16.1.2,34128,10499,14480,0,65728,65728,6,6,4,1460,359,1,992,38,33580,0,65700,0,0,1,0,0
o,0x00000000,1716771204.431484,172.16.3.2,5101,172.16.1.2,34128,10499,14480,0,65728,65728,6,6,4,1460,359,1,993,38,33580,0,65700,0,0,1,0,0
i,0x00000000,1716771204.451743,172.16.3.2,5101,172.16.1.2,34128,10499,14480,0,65728,65728,6,6,4,1460,359,1,992,38,33580,0,65700,0,0,1,0,0
o,0x00000000,1716771204.451750,172.16.3.2,5101,172.16.1.2,34128,10499,14480,0,65728,65728,6,6,4,1460,359,1,993,38,33580,0,65700,0,0,1,0,0
i,0x00000000,1716771204.462018,172.16.3.2,5101,172.16.1.2,34128,10499,14480,0,65728,65728,6,6,4,1460,359,1,992,38,33580,0,65700,0,0,1,0,0
o,0x00000000,1716771204.462023,172.16.3.2,5101,172.16.1.2,34128,10499,14480,0,65728,65728,6,6,4,1460,359,1,993,38,33580,0,65700,0,0,1,0,0
i,0x00000000,1716771204.472472,172.16.3.2,5101,172.16.1.2,34128,10499,14480,0,65728,65728,6,6,4,1460,359,1,992,38,33580,0,65700,0,0,1,0,0
o,0x00000000,1716771204.472480,172.16.3.2,5101,172.16.1.2,34128,10499,14480,0,65728,65728,6,6,4,1460,359,1,993,38,33580,0,65700,0,0,1,0,0
i,0x00000000,1716771204.482678,172.16.3.2,5101,172.16.1.2,34128,10499,14480,0,65728,65728,6,6,4,1460,359,1,992,38,33580,0,65700,0,0,1,0,0
o,0x00000000,1716771204.482684,172.16.3.2,5101,172.16.1.2,34128,10499,14480,0,65728,65728,6,6,4,1460,359,1,993,38,33580,0,65700,0,0,2,0,0
i,0x00000000,1716771204.491978,172.16.3.2,5101,172.16.1.2,34128,10499,14480,0,65728,65728,6,6,4,1460,359,1,992,38,33580,0,65700,0,0,2,0,0
o,0x00000000,1716771204.491984,172.16.3.2,5101,172.16.1.2,34128,10499,14480,0,65728,65728,6,6,4,1460,359,1,993,38,33580,0,65700,0,0,2,0,0
i,0x00000000,1716771204.512863,172.16.3.2,5101,172.16.1.2,34128,10499,14480,0,65728,65728,6,6,4,1460,359,1,992,38,33580,0,65700,0,0,2,0,0
o,0x00000000,1716771204.512879,172.16.3.2,5101,172.16.1.2,34128,10499,14480,0,65728,65728,6,6,4,1460,359,1,993,38,33580,0,65700,0,0,2,0,0
i,0x00000000,1716771204.521144,172.16.3.2,5101,172.16.1.2,34128,10499,14480,0,65728,65728,6,6,4,1460,359,1,992,38,33580,0,65700,0,0,2,0,0
o,0x00000000,1716771204.521151,172.16.3.2,5101,172.16.1.2,34128,10499,14480,0,65728,65728,6,6,4,1460,359,1,993,38,33580,0,65700,0,0,3,0,0
i,0x00000000,1716771204.531644,172.16.3.2,5101,172.16.1.2,34128,10499,14480,0,65728,65728,6,6,4,1460,359,1,992,38,33580,0,65700,0,0,3,0,0
o,0x00000000,1716771204.531660,172.16.3.2,5101,172.16.1.2,34128,10499,14480,0,65728,65728,6,6,4,1460,359,1,993,38,33580,0,65700,0,0,3,0,0
i,0x00000000,1716771204.541885,172.16.3.2,5101,172.16.1.2,34128,10499,14480,0,65728,65728,6,6,4,1460,359,1,992,38,33580,0,65700,0,0,3,0,0
o,0x00000000,1716771204.541906,172.16.3.2,5101,172.16.1.2,34128,10499,14480,0,65728,65728,6,6,4,1460,359,1,993,38,33580,0,65700,0,0,3,0,0
i,0x00000000,1716771204.601933,172.16.3.2,5101,172.16.1.2,24791,7240,1448,0,65728,65728,6,6,4,1460,374,1,9188,58,33580,2,65700,0,2,0,0,0
i,0x00000000,1716771204.691711,172.16.3.2,5101,172.16.1.2,34128,10499,14480,0,65728,65728,6,6,4,1460,359,1,992,38,33580,0,65700,0,0,3,0,0
o,0x00000000,1716771204.691737,172.16.3.2,5101,172.16.1.2,34128,10499,14480,0,65728,65728,6,6,4,1460,359,1,993,38,33580,0,65700,11584,0,2,0,0
i,0x00000000,1716771204.701934,172.16.3.2,5101,172.16.1.2,34128,10499,14480,0,65728,65728,6,6,4,1460,359,1,992,38,33580,0,65700,0,0,2,0,0
o,0x00000000,1716771204.701939,172.16.3.2,5101,172.16.1.2,34128,10499,14480,0,65728,65700,6,6,4,1460,359,1,993,38,33580,0,65700,0,0,2,0,0
i,0x00000000,1716771204.722619,172.16.3.2,5101,172.16.1.2,34128,10499,14480,0,65728,65700,6,6,4,1460,359,1,992,38,33580,0,65700,0,0,2,0,0
o,0x00000000,1716771204.722635,172.16.3.2,5101,172.16.1.2,34128,10499,14480,0,65728,65728,6,6,4,1460,359,1,993,38,33580,0,65700,5792,0,1,0,0
i,0x00000000,1716771204.731429,172.16.3.2,5101,172.16.1.2,34128,10499,14480,0,65728,65728,6,6,4,1460,359,1,992,38,33580,0,65700,0,0,1,0,0
o,0x00000000,1716771204.731438,172.16.3.2,5101,172.16.1.2,34128,10499,14480,0,65728,65700,6,6,4,1460,359,1,993,38,33580,0,65700,7240,0,0,0,0
i,0x00000000,1716771204.741893,172.16.3.2,5101,172.16.1.2,34128,10499,14480,0,65728,65700,6,6,4,1460,359,1,992,38,33580,0,65700,0,0,0,0,0
o,0x00000000,1716771204.741901,172.16.3.2,5101,172.16.1.2,34128,10499,14480,0,65728,65700,6,6,4,1460,359,1,993,38,33580,0,65700,0,0,1,0,0
i,0x00000000,1716771204.752147,172.16.3.2,5101,172.16.1.2,34128,10499,14480,0,65728,65700,6,6,4,1460,359,1,992,38,33580,0,65700,0,0,1,0,0
o,0x00000000,1716771204.752153,172.16.3.2,5101,172.16.1.2,34128,10499,14480,0,65728,65728,6,6,4,1460,359,1,993,38,33580,0,65700,0,0,1,0,0
i,0x00000000,1716771204.882902,172.16.3.2,5101,172.16.1.2,34128,10499,14480,0,65728,65728,6,6,4,1460,359,1,992,38,33580,0,65700,0,0,1,0,0
o,0x00000000,1716771204.882921,172.16.3.2,5101,172.16.1.2,34128,10499,14480,0,65728,65728,6,6,4,1460,359,1,993,38,33580,0,65700,0,0,1,0,0
i,0x00000000,1716771204.893171,172.16.3.2,5101,172.16.1.2,34128,10499,14480,0,65728,65728,6,6,4,1460,359,1,992,38,33580,0,65700,0,0,1,0,0
o,0x00000000,1716771204.893189,172.16.3.2,5101,172.16.1.2,34128,10499,14480,0,65728,65728,6,6,4,1460,359,1,993,38,33580,0,65700,0,0,1,0,0
i,0x00000000,1716771204.901440,172.16.3.2,5101,172.16.1.2,34128,10499,14480,0,65728,65728,6,6,4,1460,359,1,992,38,33580,0,65700,0,0,1,0,0
o,0x00000000,1716771204.901451,172.16.3.2,5101,172.16.1.2,34128,10499,14480,0,65728,65728,6,6,4,1460,359,1,993,38,33580,0,65700,0,0,1,0,0
o,0x00000000,1716771204.909543,172.16.3.2,5101,172.16.1.2,34128,10499,14480,0,65728,65728,6,6,6,1460,359,1,992,38,33580,0,65700,0,0,1,0,0
o,0x00000000,1716771204.909917,172.16.3.2,5101,172.16.1.2,24791,7240,1450,0,65728,65728,6,6,6,1460,452,1,9188,59,33580,0,65700,0,0,0,0,0
o,0x00000000,1716771204.910266,10.0.2.15,22,10.0.2.2,60131,1073725440,14600,0,65535,65700,0,0,4,1460,1,0,4,24,33580,244,65700,0,0,0,0,0
i,0x00000000,1716771204.911176,10.0.2.15,22,10.0.2.2,60131,1073725440,14600,0,65535,65700,0,0,4,1460,1,0,4,24,33580,244,65700,0,244,0,0,0
i,0x00000000,1716771204.922196,172.16.3.2,5101,172.16.1.2,34128,10499,14480,0,65728,65728,6,6,6,1460,359,1,1008,38,33580,0,65700,0,1,1,0,0
i,0x00000000,1716771205.043867,172.16.3.2,5101,172.16.1.2,24791,7240,1450,0,65728,65728,6,6,6,1460,452,1,9204,59,33580,0,65700,0,1,0,0,0
i,0x00000000,1716771205.043893,172.16.3.2,5101,172.16.1.2,24791,7240,1451,0,65728,65728,6,6,9,1460,444,1,9204,54,33580,0,65700,0,0,0,0,0
i,0x00000000,1716771213.529618,172.16.3.2,5102,172.16.1.2,33671,8999,14480,0,65728,65700,6,6,4,1460,402,1,992,44,33580,0,65700,0,0,0,0,0
o,0x00000000,1716771213.529750,172.16.3.2,5102,172.16.1.2,33671,8999,14480,0,65728,65700,6,6,4,1460,402,1,996,44,33580,1,65700,0,0,0,0,0
i,0x00000000,1716771213.649499,172.16.3.2,5102,172.16.1.2,33671,8999,14480,0,65728,65700,6,6,4,1460,402,1,996,44,33580,1,65700,0,1,0,0,0
i,0x00000000,1716771213.649517,172.16.3.2,5102,172.16.1.2,33671,8999,14480,0,65728,65728,6,6,4,1460,400,1,996,42,33580,0,65700,4,0,0,0,0
o,0x00000000,1716771213.649525,172.16.3.2,5102,172.16.1.2,33671,8999,14480,0,65728,65728,6,6,4,1460,400,1,997,42,33580,0,65700,128,0,0,0,0
o,0x00000000,1716771213.649761,172.16.3.2,5102,172.16.1.2,33671,8999,14480,0,65728,65728,6,6,4,1460,400,1,996,42,33580,1,65700,0,0,0,0,0
o,0x00000000,1716771213.650189,10.0.2.15,22,10.0.2.2,59016,1073725440,14600,0,65535,65700,0,0,4,1460,1,0,4,24,33580,84,65700,0,0,0,0,0
i,0x00000000,1716771213.650926,10.0.2.15,22,10.0.2.2,59016,1073725440,14600,0,65535,65700,0,0,4,1460,1,0,4,24,33580,84,65700,0,84,0,0,0
i,0x00000000,1716771213.799705,172.16.3.2,5102,172.16.1.2,33671,8999,14480,0,65728,65728,6,6,4,1460,400,1,996,42,33580,1,65700,0,1,0,0,0
i,0x00000000,1716771213.889960,172.16.3.2,5102,172.16.1.2,50129,8999,14480,0,65728,65700,6,6,4,1460,398,1,992,43,33580,0,65700,0,0,0,0,0
o,0x00000000,1716771213.892178,172.16.3.2,5102,172.16.1.2,33671,8999,14480,0,65728,65728,6,6,4,1460,410,1,996,42,33580,1,65700,0,0,0,0,0
o,0x00000000,1716771213.892547,172.16.3.2,5102,172.16.1.2,33671,8999,14480,0,65728,65728,6,6,4,1460,410,1,996,42,33580,2,65700,0,1,0,0,0
o,0x00000000,1716771213.892721,10.0.2.15,22,10.0.2.2,59016,1073725440,14600,0,65535,65700,0,0,4,1460,1,0,4,24,33580,108,65700,0,0,0,0,0
i,0x00000000,1716771213.894021,10.0.2.15,22,10.0.2.2,59016,1073725440,14600,0,65535,65700,0,0,4,1460,1,0,4,24,33580,108,65700,0,108,0,0,0
o,0x00000000,1716771213.929913,172.16.3.2,5102,172.16.1.2,50129,8999,14480,0,65728,65700,6,6,4,1460,398,1,993,43,33580,0,65700,0,0,0,0,0
i,0x00000000,1716771214.110402,172.16.3.2,5102,172.16.1.2,50129,8999,14480,0,65728,65700,6,6,4,1460,398,1,992,43,33580,0,65700,0,0,0,0,0
i,0x00000000,1716771214.119633,172.16.3.2,5102,172.16.1.2,50129,8999,14480,0,65728,65700,6,6,4,1460,398,1,992,43,33580,0,65700,0,0,0,0,0
o,0x00000000,1716771214.119645,172.16.3.2,5102,172.16.1.2,50129,8999,14480,0,65728,65700,6,6,4,1460,398,1,993,43,33580,0,65700,1448,0,0,0,0
i,0x00000000,1716771214.131177,172.16.3.2,5102,172.16.1.2,50129,8999,14480,0,65728,65700,6,6,4,1460,398,1,992,43,33580,0,65700,0,0,0,0,0
i,0x00000000,1716771214.139594,172.16.3.2,5102,172.16.1.2,50129,8999,14480,0,65728,65700,6,6,4,1460,398,1,992,43,33580,0,65700,0,0,0,0,0
o,0x00000000,1716771214.139600,172.16.3.2,5102,172.16.1.2,50129,8999,14480,0,65728,65700,6,6,4,1460,398,1,993,43,33580,0,65700,1448,0,0,0,0
i,0x00000000,1716771214.160378,172.16.3.2,5102,172.16.1.2,50129,8999,14480,0,65728,65700,6,6,4,1460,398,1,992,43,33580,0,65700,0,0,0,0,0
i,0x00000000,1716771214.170571,172.16.3.2,5102,172.16.1.2,50129,8999,14480,0,65728,65700,6,6,4,1460,398,1,992,43,33580,0,65700,0,0,0,0,0
o,0x00000000,1716771214.170579,172.16.3.2,5102,172.16.1.2,50129,8999,14480,0,65728,65700,6,6,4,1460,398,1,993,43,33580,0,65700,1448,0,0,0,0
i,0x00000000,1716771214.181149,172.16.3.2,5102,172.16.1.2,50129,8999,14480,0,65728,65700,6,6,4,1460,398,1,992,43,33580,0,65700,0,0,0,0,0
i,0x00000000,1716771214.190282,172.16.3.2,5102,172.16.1.2,50129,8999,14480,0,65728,65700,6,6,4,1460,398,1,992,43,33580,0,65700,0,0,0,0,0
o,0x00000000,1716771214.190300,172.16.3.2,5102,172.16.1.2,50129,8999,14480,0,65728,65700,6,6,4,1460,398,1,993,43,33580,0,65700,0,0,1,0,0
i,0x00000000,1716771214.199831,172.16.3.2,5102,172.16.1.2,50129,8999,14480,0,65728,65700,6,6,4,1460,398,1,992,43,33580,0,65700,0,0,1,0,0
o,0x00000000,1716771214.199852,172.16.3.2,5102,172.16.1.2,50129,8999,14480,0,65728,65728,6,6,4,1460,398,1,993,43,33580,0,65700,0,0,1,0,0
o,0x00000000,1716771214.310293,172.16.3.2,5102,172.16.1.2,33671,7240,1448,0,65728,65728,6,6,4,1460,410,1,9189,64,33580,2,65700,0,2,0,0,0
i,0x00000000,1716771214.380942,172.16.3.2,5102,172.16.1.2,50129,8999,14480,0,65728,65728,6,6,4,1460,398,1,992,43,33580,0,65700,0,0,1,0,0
o,0x00000000,1716771214.380962,172.16.3.2,5102,172.16.1.2,50129,8999,14480,0,65728,65728,6,6,4,1460,398,1,993,43,33580,0,65700,0,0,2,0,0
i,0x00000000,1716771214.390558,172.16.3.2,5102,172.16.1.2,50129,8999,14480,0,65728,65728,6,6,4,1460,398,1,992,43,33580,0,65700,0,0,2,0,0
o,0x00000000,1716771214.390565,172.16.3.2,5102,172.16.1.2,50129,8999,14480,0,65728,65728,6,6,4,1460,398,1,993,43,33580,0,65700,0,0,2,0,0
i,0x00000000,1716771214.399716,172.16.3.2,5102,172.16.1.2,50129,8999,14480,0,65728,65728,6,6,4,1460,398,1,992,43,33580,0,65700,0,0,2,0,0
o,0x00000000,1716771214.399722,172.16.3.2,5102,172.16.1.2,50129,8999,14480,0,65728,65728,6,6,4,1460,398,1,993,43,33580,0,65700,0,0,2,0,0
i,0x00000000,1716771214.410100,172.16.3.2,5102,172.16.1.2,50129,8999,14480,0,65728,65728,6,6,4,1460,398,1,992,43,33580,0,65700,0,0,2,0,0
o,0x00000000,1716771214.410105,172.16.3.2,5102,172.16.1.2,50129,8999,14480,0,65728,65728,6,6,4,1460,398,1,993,43,33580,0,65700,0,0,2,0,0
i,0x00000000,1716771214.420417,172.16.3.2,5102,172.16.1.2,50129,8999,14480,0,65728,65728,6,6,4,1460,398,1,992,43,33580,0,65700,0,0,2,0,0
o,0x00000000,1716771214.420421,172.16.3.2,5102,172.16.1.2,50129,8999,14480,0,65728,65728,6,6,4,1460,398,1,993,43,33580,0,65700,0,0,2,0,0
i,0x00000000,1716771214.440334,172.16.3.2,5102,172.16.1.2,50129,8999,14480,0,65728,65728,6,6,4,1460,398,1,992,43,33580,0,65700,0,0,2,0,0
o,0x00000000,1716771214.440346,172.16.3.2,5102,172.16.1.2,50129,8999,14480,0,65728,65728,6,6,4,1460,398,1,993,43,33580,0,65700,0,0,2,0,0
i,0x00000000,1716771214.450640,172.16.3.2,5102,172.16.1.2,50129,8999,14480,0,65728,65728,6,6,4,1460,398,1,992,43,33580,0,65700,0,0,2,0,0
o,0x00000000,1716771214.450646,172.16.3.2,5102,172.16.1.2,50129,8999,14480,0,65728,65728,6,6,4,1460,398,1,993,43,33580,0,65700,0,0,2,0,0
i,0x00000000,1716771214.459963,172.16.3.2,5102,172.16.1.2,50129,8999,14480,0,65728,65728,6,6,4,1460,398,1,992,43,33580,0,65700,0,0,2,0,0
o,0x00000000,1716771214.459969,172.16.3.2,5102,172.16.1.2,50129,8999,14480,0,65728,65728,6,6,4,1460,398,1,993,43,33580,0,65700,0,0,2,0,0
i,0x00000000,1716771214.510628,172.16.3.2,5102,172.16.1.2,33671,7240,1448,0,65728,65728,6,6,4,1460,410,1,9188,64,33580,2,65700,0,2,0,0,0
i,0x00000000,1716771214.580011,172.16.3.2,5102,172.16.1.2,50129,8999,14480,0,65728,65728,6,6,4,1460,398,1,992,43,33580,0,65700,0,0,2,0,0
o,0x00000000,1716771214.580036,172.16.3.2,5102,172.16.1.2,50129,8999,14480,0,65728,65728,6,6,4,1460,398,1,993,43,33580,0,65700,4344,0,1,0,0
i,0x00000000,1716771214.590291,172.16.3.2,5102,172.16.1.2,50129,8999,14480,0,65728,65728,6,6,4,1460,398,1,992,43,33580,0,65700,0,0,1,0,0
o,0x00000000,1716771214.590306,172.16.3.2,5102,172.16.1.2,50129,8999,14480,0,65728,65700,6,6,4,1460,398,1,993,43,33580,0,65700,13032,0,0,0,0
i,0x00000000,1716771214.600685,172.16.3.2,5102,172.16.1.2,50129,8999,14480,0,65728,65700,6,6,4,1460,398,1,992,43,33580,0,65700,0,0,0,0,0
i,0x00000000,1716771214.611111,172.16.3.2,5102,172.16.1.2,50129,8999,14480,0,65728,65700,6,6,4,1460,398,1,992,43,33580,0,65700,0,0,0,0,0
o,0x00000000,1716771214.611117,172.16.3.2,5102,172.16.1.2,50129,8999,14480,0,65728,65700,6,6,4,1460,398,1,993,43,33580,0,65700,1448,0,0,0,0
i,0x00000000,1716771214.629832,172.16.3.2,5102,172.16.1.2,50129,8999,14480,0,65728,65700,6,6,4,1460,398,1,992,43,33580,0,65700,0,0,0,0,0
o,0x00000000,1716771214.670317,172.16.3.2,5102,172.16.1.2,50129,8999,14480,0,65728,65700,6,6,4,1460,398,1,993,43,33580,0,65700,0,0,0,0,0
i,0x00000000,1716771214.760584,172.16.3.2,5102,172.16.1.2,50129,8999,14480,0,65728,65700,6,6,4,1460,398,1,992,43,33580,0,65700,0,0,0,0,0
i,0x00000000,1716771214.769877,172.16.3.2,5102,172.16.1.2,50129,8999,14480,0,65728,65700,6,6,4,1460,398,1,992,43,33580,0,65700,0,0,0,0,0
o,0x00000000,1716771214.769888,172.16.3.2,5102,172.16.1.2,50129,8999,14480,0,65728,65700,6,6,4,1460,398,1,993,43,33580,0,65700,1448,0,0,0,0
i,0x00000000,1716771214.781385,172.16.3.2,5102,172.16.1.2,50129,8999,14480,0,65728,65700,6,6,4,1460,398,1,992,43,33580,0,65700,0,0,0,0,0
i,0x00000000,1716771214.790546,172.16.3.2,5102,172.16.1.2,50129,8999,14480,0,65728,65700,6,6,4,1460,398,1,992,43,33580,0,65700,0,0,0,0,0
o,0x00000000,1716771214.790557,172.16.3.2,5102,172.16.1.2,50129,8999,14480,0,65728,65700,6,6,4,1460,398,1,993,43,33580,0,65700,1448,0,0,0,0
i,0x00000000,1716771214.810522,172.16.3.2,5102,172.16.1.2,50129,8999,14480,0,65728,65700,6,6,4,1460,398,1,992,43,33580,0,65700,0,0,0,0,0
o,0x00000000,1716771214.849744,172.16.3.2,5102,172.16.1.2,50129,8999,14480,0,65728,65700,6,6,4,1460,398,1,993,43,33580,0,65700,0,0,0,0,0
o,0x00000000,1716771214.899630,172.16.3.2,5102,172.16.1.2,50129,8999,14480,0,65728,65700,6,6,6,1460,398,1,992,43,33580,0,65700,0,0,0,0,0
o,0x00000000,1716771214.900031,172.16.3.2,5102,172.16.1.2,33671,7240,1450,0,65728,65728,6,6,6,1460,435,1,9188,47,33580,0,65700,0,0,0,0,0
o,0x00000000,1716771214.900324,10.0.2.15,22,10.0.2.2,59016,1073725440,14600,0,65535,65700,0,0,4,1460,1,0,4,24,33580,244,65700,0,0,0,0,0
i,0x00000000,1716771214.901014,10.0.2.15,22,10.0.2.2,59016,1073725440,14600,0,65535,65700,0,0,4,1460,1,0,4,24,33580,244,65700,0,244,0,0,0
i,0x00000000,1716771214.920603,172.16.3.2,5102,172.16.1.2,50129,8999,14480,0,65728,65700,6,6,6,1460,398,1,1008,43,33580,0,65700,0,1,0,0,0
i,0x00000000,1716771215.062474,172.16.3.2,5102,172.16.1.2,33671,7240,1450,0,65728,65728,6,6,6,1460,435,1,9204,47,33580,0,65700,0,1,0,0,0
i,0x00000000,1716771215.062484,172.16.3.2,5102,172.16.1.2,33671,7240,1451,0,65728,65728,6,6,9,1460,445,1,9204,46,33580,0,65700,0,0,0,0,0
i,0x00000000,1716771223.557779,172.16.3.2,5103,172.16.1.2,56629,8249,14480,0,65728,65700,6,6,4,1460,414,1,992,45,33580,0,65700,0,0,0,0,0
o,0x00000000,1716771223.557983,172.16.3.2,5103,172.16.1.2,56629,8249,14480,0,65728,65700,6,6,4,1460,414,1,996,45,33580,1,65700,0,0,0,0,0
i,0x00000000,1716771223.678783,172.16.3.2,5103,172.16.1.2,56629,8249,14480,0,65728,65700,6,6,4,1460,414,1,996,45,33580,1,65700,0,1,0,0,0
i,0x00000000,1716771223.678798,172.16.3.2,5103,172.16.1.2,56629,8249,14480,0,65728,65728,6,6,4,1460,411,1,996,43,33580,0,65700,4,0,0,0,0
o,0x00000000,1716771223.678806,172.16.3.2,5103,172.16.1.2,56629,8249,14480,0,65728,65728,6,6,4,1460,411,1,997,43,33580,0,65700,128,0,0,0,0
o,0x00000000,1716771223.679243,172.16.3.2,5103,172.16.1.2,56629,8249,14480,0,65728,65728,6,6,4,1460,411,1,996,43,33580,1,65700,0,0,0,0,0
o,0x00000000,1716771223.679431,10.0.2.15,22,10.0.2.2,59023,1073725440,14600,0,65535,65700,0,0,4,1460,1,0,4,24,33580,84,65700,0,0,0,0,0
i,0x00000000,1716771223.680296,10.0.2.15,22,10.0.2.2,59023,1073725440,14600,0,65535,65700,0,0,4,1460,1,0,4,24,33580,84,65700,0,84,0,0,0
i,0x00000000,1716771223.828088,172.16.3.2,5103,172.16.1.2,56629,8249,14480,0,65728,65728,6,6,4,1460,411,1,996,43,33580,1,65700,0,1,0,0,0
i,0x00000000,1716771223.919068,172.16.3.2,5103,172.16.1.2,54874,8249,14480,0,65728,65700,6,6,4,1460,418,1,992,44,33580,0,65700,0,0,0,0,0
o,0x00000000,1716771223.921142,172.16.3.2,5103,172.16.1.2,56629,8249,14480,0,65728,65728,6,6,4,1460,416,1,996,42,33580,1,65700,0,0,0,0,0
o,0x00000000,1716771223.921254,172.16.3.2,5103,172.16.1.2,56629,8249,14480,0,65728,65728,6,6,4,1460,416,1,996,42,33580,2,65700,0,1,0,0,0
o,0x00000000,1716771223.921723,10.0.2.15,22,10.0.2.2,59023,1073725440,14600,0,65535,65700,0,0,4,1460,1,0,4,24,33580,108,65700,0,0,0,0,0
i,0x00000000,1716771223.922424,10.0.2.15,22,10.0.2.2,59023,1073725440,14600,0,65535,65700,0,0,4,1460,1,0,4,24,33580,108,65700,0,108,0,0,0
o,0x00000000,1716771223.959803,172.16.3.2,5103,172.16.1.2,54874,8249,14480,0,65728,65700,6,6,4,1460,418,1,993,44,33580,0,65700,0,0,0,0,0
i,0x00000000,1716771224.138821,172.16.3.2,5103,172.16.1.2,54874,8249,14480,0,65728,65700,6,6,4,1460,418,1,992,44,33580,0,65700,0,0,0,0,0
i,0x00000000,1716771224.148194,172.16.3.2,5103,172.16.1.2,54874,8249,14480,0,65728,65700,6,6,4,1460,418,1,992,44,33580,0,65700,0,0,0,0,0
o,0x00000000,1716771224.148205,172.16.3.2,5103,172.16.1.2,54874,8249,14480,0,65728,65700,6,6,4,1460,418,1,993,44,33580,0,65700,1448,0,0,0,0
i,0x00000000,1716771224.158608,172.16.3.2,5103,172.16.1.2,54874,8249,14480,0,65728,65700,6,6,4,1460,418,1,992,44,33580,0,65700,0,0,0,0,0
i,0x00000000,1716771224.168589,172.16.3.2,5103,172.16.1.2,54874,8249,14480,0,65728,65700,6,6,4,1460,418,1,992,44,33580,0,65700,0,0,0,0,0
o,0x00000000,1716771224.168595,172.16.3.2,5103,172.16.1.2,54874,8249,14480,0,65728,65700,6,6,4,1460,418,1,993,44,33580,0,65700,1448,0,0,0,0
i,0x00000000,1716771224.187973,172.16.3.2,5103,172.16.1.2,54874,8249,14480,0,65728,65700,6,6,4,1460,418,1,992,44,33580,0,65700,0,0,0,0,0
i,0x00000000,1716771224.199277,172.16.3.2,5103,172.16.1.2,54874,8249,14480,0,65728,65700,6,6,4,1460,418,1,992,44,33580,0,65700,0,0,0,0,0
o,0x00000000,1716771224.199284,172.16.3.2,5103,172.16.1.2,54874,8249,14480,0,65728,65700,6,6,4,1460,418,1,993,44,33580,0,65700,1448,0,0,0,0
i,0x00000000,1716771224.209828,172.16.3.2,5103,172.16.1.2,54874,8249,14480,0,65728,65700,6,6,4,1460,418,1,992,44,33580,0,65700,0,0,0,0,0
i,0x00000000,1716771224.218559,172.16.3.2,5103,172.16.1.2,54874,8249,14480,0,65728,65700,6,6,4,1460,418,1,992,44,33580,0,65700,0,0,0,0,0
o,0x00000000,1716771224.218566,172.16.3.2,5103,172.16.1.2,54874,8249,14480,0,65728,65700,6,6,4,1460,418,1,993,44,33580,0,65700,0,0,1,0,0
i,0x00000000,1716771224.228034,172.16.3.2,5103,172.16.1.2,54874,8249,14480,0,65728,65700,6,6,4,1460,418,1,992,44,33580,0,65700,0,0,1,0,0
o,0x00000000,1716771224.228039,172.16.3.2,5103,172.16.1.2,54874,8249,14480,0,65728,65728,6,6,4,1460,418,1,993,44,33580,0,65700,0,0,1,0,0
o,0x00000000,1716771224.340246,172.16.3.2,5103,172.16.1.2,56629,7240,1448,0,65728,65728,6,6,4,1460,416,1,9189,64,33580,2,65700,0,2,0,0,0
i,0x00000000,1716771224.409610,172.16.3.2,5103,172.16.1.2,54874,8249,14480,0,65728,65728,6,6,4,1460,418,1,992,44,33580,0,65700,0,0,1,0,0
o,0x00000000,1716771224.409629,172.16.3.2,5103,172.16.1.2,54874,8249,14480,0,65728,65728,6,6,4,1460,418,1,993,44,33580,0,65700,0,0,2,0,0
i,0x00000000,1716771224.417992,172.16.3.2,5103,172.16.1.2,54874,8249,14480,0,65728,65728,6,6,4,1460,418,1,992,44,33580,0,65700,0,0,2,0,0
o,0x00000000,1716771224.418007,172.16.3.2,5103,172.16.1.2,54874,8249,14480,0,65728,65728,6,6,4,1460,418,1,993,44,33580,0,65700,0,0,2,0,0
i,0x00000000,1716771224.428757,172.16.3.2,5103,172.16.1.2,54874,8249,14480,0,65728,65728,6,6,4,1460,418,1,992,44,33580,0,65700,0,0,2,0,0
o,0x00000000,1716771224.428770,172.16.3.2,5103,172.16.1.2,54874,8249,14480,0,65728,65728,6,6,4,1460,418,1,993,44,33580,0,65700,0,0,2,0,0
i,0x00000000,1716771224.439013,172.16.3.2,5103,172.16.1.2,54874,8249,14480,0,65728,65728,6,6,4,1460,418,1,992,44,33580,0,65700,0,0,2,0,0
o,0x00000000,1716771224.439030,172.16.3.2,5103,172.16.1.2,54874,8249,14480,0,65728,65728,6,6,4,1460,418,1,993,44,33580,0,65700,0,0,2,0,0
i,0x00000000,1716771224.449157,172.16.3.2,5103,172.16.1.2,54874,8249,14480,0,65728,65728,6,6,4,1460,418,1,992,44,33580,0,65700,0,0,2,0,0
o,0x00000000,1716771224.449177,172.16.3.2,5103,172.16.1.2,54874,8249,14480,0,65728,65728,6,6,4,1460,418,1,993,44,33580,0,65700,0,0,2,0,0
i,0x00000000,1716771224.468443,172.16.3.2,5103,172.16.1.2,54874,8249,14480,0,65728,65728,6,6,4,1460,418,1,992,44,33580,0,65700,0,0,2,0,0
o,0x00000000,1716771224.468459,172.16.3.2,5103,172.16.1.2,54874,8249,14480,0,65728,65728,6,6,4,1460,418,1,993,44,33580,0,65700,0,0,2,0,0
i,0x00000000,1716771224.478805,172.16.3.2,5103,172.16.1.2,54874,8249,14480,0,65728,65728,6,6,4,1460,418,1,992,44,33580,0,65700,0,0,2,0,0
o,0x00000000,1716771224.478811,172.16.3.2,5103,172.16.1.2,54874,8249,14480,0,65728,65728,6,6,4,1460,418,1,993,44,33580,0,65700,0,0,2,0,0
i,0x00000000,1716771224.488465,172.16.3.2,5103,172.16.1.2,54874,8249,14480,0,65728,65728,6,6,4,1460,418,1,992,44,33580,0,65700,0,0,2,0,0
o,0x00000000,1716771224.488484,172.16.3.2,5103,172.16.1.2,54874,8249,14480,0,65728,65728,6,6,4,1460,418,1,993,44,33580,0,65700,0,0,2,0,0
i,0x00000000,1716771224.539673,172.16.3.2,5103,172.16.1.2,56629,7240,1448,0,65728,65728,6,6,4,1460,416,1,9188,64,33580,2,65700,0,2,0,0,0
i,0x00000000,1716771224.608836,172.16.3.2,5103,172.16.1.2,54874,8249,14480,0,65728,65728,6,6,4,1460,418,1,992,44,33580,0,65700,0,0,2,0,0
o,0x00000000,1716771224.608856,172.16.3.2,5103,172.16.1.2,54874,8249,14480,0,65728,65728,6,6,4,1460,418,1,993,44,33580,0,65700,4344,0,1,0,0
i,0x00000000,1716771224.619164,172.16.3.2,5103,172.16.1.2,54874,8249,14480,0,65728,65728,6,6,4,1460,418,1,992,44,33580,0,65700,0,0,1,0,0
o,0x00000000,1716771224.619174,172.16.3.2,5103,172.16.1.2,54874,8249,14480,0,65728,65700,6,6,4,1460,418,1,993,44,33580,0,65700,13032,0,0,0,0
i,0x00000000,1716771224.629519,172.16.3.2,5103,172.16.1.2,54874,8249,14480,0,65728,65700,6,6,4,1460,418,1,992,44,33580,0,65700,0,0,0,0,0
i,0x00000000,1716771224.638916,172.16.3.2,5103,172.16.1.2,54874,8249,14480,0,65728,65700,6,6,4,1460,418,1,992,44,33580,0,65700,0,0,0,0,0
o,0x00000000,1716771224.638922,172.16.3.2,5103,172.16.1.2,54874,8249,14480,0,65728,65700,6,6,4,1460,418,1,993,44,33580,0,65700,1448,0,0,0,0
i,0x00000000,1716771224.658753,172.16.3.2,5103,172.16.1.2,54874,8249,14480,0,65728,65700,6,6,4,1460,418,1,992,44,33580,0,65700,0,0,0,0,0
o,0x00000000,1716771224.699572,172.16.3.2,5103,172.16.1.2,54874,8249,14480,0,65728,65700,6,6,4,1460,418,1,993,44,33580,0,65700,0,0,0,0,0
i,0x00000000,1716771224.789859,172.16.3.2,5103,172.16.1.2,54874,8249,14480,0,65728,65700,6,6,4,1460,418,1,992,44,33580,0,65700,0,0,0,0,0
i,0x00000000,1716771224.799292,172.16.3.2,5103,172.16.1.2,54874,8249,14480,0,65728,65700,6,6,4,1460,418,1,992,44,33580,0,65700,0,0,0,0,0
o,0x00000000,1716771224.799304,172.16.3.2,5103,172.16.1.2,54874,8249,14480,0,65728,65700,6,6,4,1460,418,1,993,44,33580,0,65700,1448,0,0,0,0
i,0x00000000,1716771224.808542,172.16.3.2,5103,172.16.1.2,54874,8249,14480,0,65728,65700,6,6,4,1460,418,1,992,44,33580,0,65700,0,0,0,0,0
i,0x00000000,1716771224.818846,172.16.3.2,5103,172.16.1.2,54874,8249,14480,0,65728,65700,6,6,4,1460,418,1,992,44,33580,0,65700,0,0,0,0,0
o,0x00000000,1716771224.818854,172.16.3.2,5103,172.16.1.2,54874,8249,14480,0,65728,65700,6,6,4,1460,418,1,993,44,33580,0,65700,1448,0,0,0,0
i,0x00000000,1716771224.839690,172.16.3.2,5103,172.16.1.2,54874,8249,14480,0,65728,65700,6,6,4,1460,418,1,992,44,33580,0,65700,0,0,0,0,0
o,0x00000000,1716771224.879697,172.16.3.2,5103,172.16.1.2,54874,8249,14480,0,65728,65700,6,6,4,1460,418,1,993,44,33580,0,65700,0,0,0,0,0
o,0x00000000,1716771224.929509,172.16.3.2,5103,172.16.1.2,54874,8249,14480,0,65728,65700,6,6,6,1460,418,1,992,44,33580,0,65700,0,0,0,0,0
o,0x00000000,1716771224.929636,172.16.3.2,5103,172.16.1.2,56629,7240,1450,0,65728,65728,6,6,6,1460,440,1,9188,46,33580,0,65700,0,0,0,0,0
o,0x00000000,1716771224.930193,10.0.2.15,22,10.0.2.2,59023,1073725440,14600,0,65535,65700,0,0,4,1460,1,0,4,24,33580,244,65700,0,0,0,0,0
i,0x00000000,1716771224.931046,10.0.2.15,22,10.0.2.2,59023,1073725440,14600,0,65535,65700,0,0,4,1460,1,0,4,24,33580,244,65700,0,244,0,0,0
i,0x00000000,1716771224.949901,172.16.3.2,5103,172.16.1.2,54874,8249,14480,0,65728,65700,6,6,6,1460,418,1,1008,44,33580,0,65700,0,1,0,0,0
i,0x00000000,1716771225.089660,172.16.3.2,5103,172.16.1.2,56629,7240,1450,0,65728,65728,6,6,6,1460,440,1,9204,46,33580,0,65700,0,1,0,0,0
i,0x00000000,1716771225.089671,172.16.3.2,5103,172.16.1.2,56629,7240,1451,0,65728,65728,6,6,9,1460,449,1,9204,46,33580,0,65700,0,0,0,0,0
i,0x00000000,1716771233.536776,172.16.3.2,5104,172.16.1.2,32873,7874,14480,0,65728,65700,6,6,4,1460,429,1,992,44,33580,0,65700,0,0,0,0,0
o,0x00000000,1716771233.536888,172.16.3.2,5104,172.16.1.2,32873,7874,14480,0,65728,65700,6,6,4,1460,429,1,996,44,33580,1,65700,0,0,0,0,0
i,0x00000000,1716771233.657161,172.16.3.2,5104,172.16.1.2,32873,7874,14480,0,65728,65700,6,6,4,1460,429,1,996,44,33580,1,65700,0,1,0,0,0
i,0x00000000,1716771233.657178,172.16.3.2,5104,172.16.1.2,32873,7874,14480,0,65728,65728,6,6,4,1460,424,1,996,43,33580,0,65700,4,0,0,0,0
o,0x00000000,1716771233.657186,172.16.3.2,5104,172.16.1.2,32873,7874,14480,0,65728,65728,6,6,4,1460,424,1,997,43,33580,0,65700,128,0,0,0,0
o,0x00000000,1716771233.657360,172.16.3.2,5104,172.16.1.2,32873,7874,14480,0,65728,65728,6,6,4,1460,424,1,996,43,33580,1,65700,0,0,0,0,0
o,0x00000000,1716771233.657791,10.0.2.15,22,10.0.2.2,59029,1073725440,14600,0,65535,65700,0,0,4,1460,1,0,4,24,33580,84,65700,0,0,0,0,0
i,0x00000000,1716771233.658598,10.0.2.15,22,10.0.2.2,59029,1073725440,14600,0,65535,65700,0,0,4,1460,1,0,4,24,33580,84,65700,0,84,0,0,0
i,0x00000000,1716771233.806114,172.16.3.2,5104,172.16.1.2,32873,7874,14480,0,65728,65728,6,6,4,1460,424,1,996,43,33580,1,65700,0,1,0,0,0
i,0x00000000,1716771233.897373,172.16.3.2,5104,172.16.1.2,40162,7874,14480,0,65728,65700,6,6,4,1460,429,1,992,44,33580,0,65700,0,0,0,0,0
o,0x00000000,1716771233.898968,172.16.3.2,5104,172.16.1.2,32873,7874,14480,0,65728,65728,6,6,4,1460,427,1,996,41,33580,1,65700,0,0,0,0,0
o,0x00000000,1716771233.899438,172.16.3.2,5104,172.16.1.2,32873,7874,14480,0,65728,65728,6,6,4,1460,427,1,996,41,33580,2,65700,0,1,0,0,0
o,0x00000000,1716771233.899576,10.0.2.15,22,10.0.2.2,59029,1073725440,14600,0,65535,65700,0,0,4,1460,1,0,4,24,33580,108,65700,0,0,0,0,0
i,0x00000000,1716771233.900659,10.0.2.15,22,10.0.2.2,59029,1073725440,14600,0,65535,65700,0,0,4,1460,1,0,4,24,33580,108,65700,0,108,0,0,0
o,0x00000000,1716771233.929790,172.16.3.2,5104,172.16.1.2,40162,7874,14480,0,65728,65700,6,6,4,1460,429,1,993,44,33580,0,65700,0,0,0,0,0
i,0x00000000,1716771234.117293,172.16.3.2,5104,172.16.1.2,40162,7874,14480,0,65728,65700,6,6,4,1460,429,1,992,44,33580,0,65700,0,0,0,0,0
i,0x00000000,1716771234.126477,172.16.3.2,5104,172.16.1.2,40162,7874,14480,0,65728,65700,6,6,4,1460,429,1,992,44,33580,0,65700,0,0,0,0,0
o,0x00000000,1716771234.126494,172.16.3.2,5104,172.16.1.2,40162,7874,14480,0,65728,65700,6,6,4,1460,429,1,993,44,33580,0,65700,1448,0,0,0,0
i,0x00000000,1716771234.136764,172.16.3.2,5104,172.16.1.2,40162,7874,14480,0,65728,65700,6,6,4,1460,429,1,992,44,33580,0,65700,0,0,0,0,0
i,0x00000000,1716771234.147237,172.16.3.2,5104,172.16.1.2,40162,7874,14480,0,65728,65700,6,6,4,1460,429,1,992,44,33580,0,65700,0,0,0,0,0
o,0x00000000,1716771234.147246,172.16.3.2,5104,172.16.1.2,40162,7874,14480,0,65728,65700,6,6,4,1460,429,1,993,44,33580,0,65700,1448,0,0,0,0
i,0x00000000,1716771234.167057,172.16.3.2,5104,172.16.1.2,40162,7874,14480,0,65728,65700,6,6,4,1460,429,1,992,44,33580,0,65700,0,0,0,0,0
i,0x00000000,1716771234.177514,172.16.3.2,5104,172.16.1.2,40162,7874,14480,0,65728,65700,6,6,4,1460,429,1,992,44,33580,0,65700,0,0,0,0,0
o,0x00000000,1716771234.177529,172.16.3.2,5104,172.16.1.2,40162,7874,14480,0,65728,65700,6,6,4,1460,429,1,993,44,33580,0,65700,1448,0,0,0,0
i,0x00000000,1716771234.186954,172.16.3.2,5104,172.16.1.2,40162,7874,14480,0,65728,65700,6,6,4,1460,429,1,992,44,33580,0,65700,0,0,0,0,0
i,0x00000000,1716771234.197582,172.16.3.2,5104,172.16.1.2,40162,7874,14480,0,65728,65700,6,6,4,1460,429,1,992,44,33580,0,65700,0,0,0,0,0
o,0x00000000,1716771234.197589,172.16.3.2,5104,172.16.1.2,40162,7874,14480,0,65728,65700,6,6,4,1460,429,1,993,44,33580,0,65700,0,0,1,0,0
i,0x00000000,1716771234.206754,172.16.3.2,5104,172.16.1.2,40162,7874,14480,0,65728,65700,6,6,4,1460,429,1,992,44,33580,0,65700,0,0,1,0,0
o,0x00000000,1716771234.206759,172.16.3.2,5104,172.16.1.2,40162,7874,14480,0,65728,65728,6,6,4,1460,429,1,993,44,33580,0,65700,0,0,1,0,0
o,0x00000000,1716771234.309140,172.16.3.2,5104,172.16.1.2,32873,7240,1448,0,65728,65728,6,6,4,1460,427,1,9189,62,33580,2,65700,0,2,0,0,0
i,0x00000000,1716771234.388008,172.16.3.2,5104,172.16.1.2,40162,7874,14480,0,65728,65728,6,6,4,1460,429,1,992,44,33580,0,65700,0,0,1,0,0
o,0x00000000,1716771234.388026,172.16.3.2,5104,172.16.1.2,40162,7874,14480,0,65728,65728,6,6,4,1460,429,1,993,44,33580,0,65700,0,0,2,0,0
i,0x00000000,1716771234.397259,172.16.3.2,5104,172.16.1.2,40162,7874,14480,0,65728,65728,6,6,4,1460,429,1,992,44,33580,0,65700,0,0,2,0,0
o,0x00000000,1716771234.397266,172.16.3.2,5104,172.16.1.2,40162,7874,14480,0,65728,65728,6,6,4,1460,429,1,993,44,33580,0,65700,0,0,2,0,0
i,0x00000000,1716771234.407565,172.16.3.2,5104,172.16.1.2,40162,7874,14480,0,65728,65728,6,6,4,1460,429,1,992,44,33580,0,65700,0,0,2,0,0
o,0x00000000,1716771234.407572,172.16.3.2,5104,172.16.1.2,40162,7874,14480,0,65728,65728,6,6,4,1460,429,1,993,44,33580,0,65700,0,0,2,0,0
i,0x00000000,1716771234.416906,172.16.3.2,5104,172.16.1.2,40162,7874,14480,0,65728,65728,6,6,4,1460,429,1,992,44,33580,0,65700,0,0,2,0,0
o,0x00000000,1716771234.416911,172.16.3.2,5104,172.16.1.2,40162,7874,14480,0,65728,65728,6,6,4,1460,429,1,993,44,33580,0,65700,0,0,2,0,0
i,0x00000000,1716771234.427298,172.16.3.2,5104,172.16.1.2,40162,7874,14480,0,65728,65728,6,6,4,1460,429,1,992,44,33580,0,65700,0,0,2,0,0
o,0x00000000,1716771234.427303,172.16.3.2,5104,172.16.1.2,40162,7874,14480,0,65728,65728,6,6,4,1460,429,1,993,44,33580,0,65700,0,0,2,0,0
i,0x00000000,1716771234.448278,172.16.3.2,5104,172.16.1.2,40162,7874,14480,0,65728,65728,6,6,4,1460,429,1,992,44,33580,0,65700,0,0,2,0,0
o,0x00000000,1716771234.448296,172.16.3.2,5104,172.16.1.2,40162,7874,14480,0,65728,65728,6,6,4,1460,429,1,993,44,33580,0,65700,0,0,2,0,0
i,0x00000000,1716771234.457454,172.16.3.2,5104,172.16.1.2,40162,7874,14480,0,65728,65728,6,6,4,1460,429,1,992,44,33580,0,65700,0,0,2,0,0
o,0x00000000,1716771234.457470,172.16.3.2,5104,172.16.1.2,40162,7874,14480,0,65728,65728,6,6,4,1460,429,1,993,44,33580,0,65700,0,0,2,0,0
i,0x00000000,1716771234.467838,172.16.3.2,5104,172.16.1.2,40162,7874,14480,0,65728,65728,6,6,4,1460,429,1,992,44,33580,0,65700,0,0,2,0,0
o,0x00000000,1716771234.467854,172.16.3.2,5104,172.16.1.2,40162,7874,14480,0,65728,65728,6,6,4,1460,429,1,993,44,33580,0,65700,0,0,2,0,0
i,0x00000000,1716771234.517815,172.16.3.2,5104,172.16.1.2,32873,7240,1448,0,65728,65728,6,6,4,1460,427,1,9188,62,33580,2,65700,0,2,0,0,0
i,0x00000000,1716771234.587175,172.16.3.2,5104,172.16.1.2,40162,7874,14480,0,65728,65728,6,6,4,1460,429,1,992,44,33580,0,65700,0,0,2,0,0
o,0x00000000,1716771234.587215,172.16.3.2,5104,172.16.1.2,40162,7874,14480,0,65728,65728,6,6,4,1460,429,1,993,44,33580,0,65700,4344,0,1,0,0
i,0x00000000,1716771234.597502,172.16.3.2,5104,172.16.1.2,40162,7874,14480,0,65728,65728,6,6,4,1460,429,1,992,44,33580,0,65700,0,0,1,0,0
o,0x00000000,1716771234.597511,172.16.3.2,5104,172.16.1.2,40162,7874,14480,0,65728,65700,6,6,4,1460,429,1,993,44,33580,0,65700,13032,0,0,0,0
i,0x00000000,1716771234.607841,172.16.3.2,5104,172.16.1.2,40162,7874,14480,0,65728,65700,6,6,4,1460,429,1,992,44,33580,0,65700,0,0,0,0,0
i,0x00000000,1716771234.617113,172.16.3.2,5104,172.16.1.2,40162,7874,14480,0,65728,65700,6,6,4,1460,429,1,992,44,33580,0,65700,0,0,0,0,0
o,0x00000000,1716771234.617120,172.16.3.2,5104,172.16.1.2,40162,7874,14480,0,65728,65700,6,6,4,1460,429,1,993,44,33580,0,65700,1448,0,0,0,0
i,0x00000000,1716771234.637636,172.16.3.2,5104,172.16.1.2,40162,7874,14480,0,65728,65700,6,6,4,1460,429,1,992,44,33580,0,65700,0,0,0,0,0
o,0x00000000,1716771234.669501,172.16.3.2,5104,172.16.1.2,40162,7874,14480,0,65728,65700,6,6,4,1460,429,1,993,44,33580,0,65700,0,0,0,0,0
i,0x00000000,1716771234.768177,172.16.3.2,5104,172.16.1.2,40162,7874,14480,0,65728,65700,6,6,4,1460,429,1,992,44,33580,0,65700,0,0,0,0,0
i,0x00000000,1716771234.777610,172.16.3.2,5104,172.16.1.2,40162,7874,14480,0,65728,65700,6,6,4,1460,429,1,992,44,33580,0,65700,0,0,0,0,0
o,0x00000000,1716771234.777622,172.16.3.2,5104,172.16.1.2,40162,7874,14480,0,65728,65700,6,6,4,1460,429,1,993,44,33580,0,65700,1448,0,0,0,0
i,0x00000000,1716771234.787792,172.16.3.2,5104,172.16.1.2,40162,7874,14480,0,65728,65700,6,6,4,1460,429,1,992,44,33580,0,65700,0,0,0,0,0
i,0x00000000,1716771234.797359,172.16.3.2,5104,172.16.1.2,40162,7874,14480,0,65728,65700,6,6,4,1460,429,1,992,44,33580,0,65700,0,0,0,0,0
o,0x00000000,1716771234.797366,172.16.3.2,5104,172.16.1.2,40162,7874,14480,0,65728,65700,6,6,4,1460,429,1,993,44,33580,0,65700,1448,0,0,0,0
i,0x00000000,1716771234.816965,172.16.3.2,5104,172.16.1.2,40162,7874,14480,0,65728,65700,6,6,4,1460,429,1,992,44,33580,0,65700,0,0,0,0,0
o,0x00000000,1716771234.849566,172.16.3.2,5104,172.16.1.2,40162,7874,14480,0,65728,65700,6,6,4,1460,429,1,993,44,33580,0,65700,0,0,0,0,0
o,0x00000000,1716771234.909842,172.16.3.2,5104,172.16.1.2,40162,7874,14480,0,65728,65700,6,6,6,1460,429,1,992,44,33580,0,65700,0,0,0,0,0
o,0x00000000,1716771234.910258,172.16.3.2,5104,172.16.1.2,32873,7240,1450,0,65728,65728,6,6,6,1460,454,1,9188,47,33580,0,65700,0,0,0,0,0
o,0x00000000,1716771234.910507,10.0.2.15,22,10.0.2.2,59029,1073725440,14600,0,65535,65700,0,0,4,1460,1,0,4,24,33580,244,65700,0,0,0,0,0
i,0x00000000,1716771234.911189,10.0.2.15,22,10.0.2.2,59029,1073725440,14600,0,65535,65700,0,0,4,1460,1,0,4,24,33580,244,65700,0,244,0,0,0
i,0x00000000,1716771234.937935,172.16.3.2,5104,172.16.1.2,40162,7874,14480,0,65728,65700,6,6,6,1460,429,1,1008,44,33580,0,65700,0,1,0,0,0
i,0x00000000,1716771235.069997,172.16.3.2,5104,172.16.1.2,32873,7240,1450,0,65728,65728,6,6,6,1460,454,1,9204,47,33580,0,65700,0,1,0,0,0
i,0x00000000,1716771235.070009,172.16.3.2,5104,172.16.1.2,32873,7240,1451,0,65728,65728,6,6,9,1460,458,1,9204,45,33580,0,65700,0,0,0,0,0
i,0x00000000,1716771337.156923,10.0.2.15,22,10.0.2.2,52746,1073725440,14600,0,65535,65700,0,0,4,1460,1,0,0,27,33580,0,65700,0,0,0,0,0
o,0x00000000,1716771337.163860,10.0.2.15,22,10.0.2.2,52746,1073725440,14600,0,65535,65700,0,0,4,1460,1,0,0,27,33580,38,65700,41,0,0,0,0
i,0x00000000,1716771337.164812,10.0.2.15,22,10.0.2.2,52746,1073725440,14600,0,65535,65700,0,0,4,1460,1,0,0,27,33580,38,65700,41,38,0,0,0
i,0x00000000,1716771337.165542,10.0.2.15,22,10.0.2.2,52746,1073725440,14638,0,65535,65700,0,0,4,1460,1,0,0,24,33580,0,65700,0,0,0,0,0
i,0x00000000,1716771337.165545,10.0.2.15,22,10.0.2.2,52746,1073725440,14638,0,65535,65700,0,0,4,1460,1,0,0,24,33580,0,65700,1460,0,0,0,0
o,0x00000000,1716771337.165548,10.0.2.15,22,10.0.2.2,52746,1073725440,14638,0,65535,65700,0,0,4,1460,1,0,1,24,33580,0,65700,1536,0,0,0,0
o,0x00000000,1716771337.166045,10.0.2.15,22,10.0.2.2,52746,1073725440,14638,0,65535,65700,0,0,4,1460,1,0,0,24,33580,1056,65700,1536,0,0,0,0
i,0x00000000,1716771337.167072,10.0.2.15,22,10.0.2.2,52746,1073725440,14638,0,65535,65700,0,0,4,1460,1,0,0,24,33580,1056,65700,1536,1056,0,0,0
i,0x00000000,1716771337.169161,10.0.2.15,22,10.0.2.2,52746,1073725440,15694,0,65535,65700,0,0,4,1460,1,0,0,24,33580,0,65700,0,0,0,0,0
o,0x00000000,1716771337.171788,10.0.2.15,22,10.0.2.2,52746,1073725440,15694,0,65535,65700,0,0,4,1460,1,0,0,24,33580,484,65700,0,0,0,0,0
i,0x00000000,1716771337.172638,10.0.2.15,22,10.0.2.2,52746,1073725440,15694,0,65535,65700,0,0,4,1460,1,0,0,24,33580,484,65700,0,484,0,0,0
i,0x00000000,1716771337.187878,10.0.2.15,22,10.0.2.2,52746,1073725440,16178,0,65535,65700,0,0,4,1460,1,0,0,24,33580,0,65700,0,0,0,0,0
i,0x00000000,1716771337.197586,10.0.2.15,22,10.0.2.2,52746,1073725440,16178,0,65535,65700,0,0,4,1460,1,0,0,24,33580,0,65700,0,0,0,0,0
o,0x00000000,1716771337.197598,10.0.2.15,22,10.0.2.2,52746,1073725440,16178,0,65535,65700,0,0,4,1460,1,0,1,24,33580,0,65700,44,0,0,0,0
o,0x00000000,1716771337.197794,10.0.2.15,22,10.0.2.2,52746,1073725440,16178,0,65535,65700,0,0,4,1460,1,0,0,24,33580,44,65700,0,0,0,0,0
i,0x00000000,1716771337.198264,10.0.2.15,22,10.0.2.2,52746,1073725440,16178,0,65535,65700,0,0,4,1460,1,0,0,24,33580,44,65700,0,44,0,0,0
i,0x00000000,1716771337.208386,10.0.2.15,22,10.0.2.2,52746,1073725440,16222,0,65535,65700,0,0,4,1460,1,0,0,24,33580,0,65700,0,0,0,0,0
o,0x00000000,1716771337.219018,10.0.2.15,22,10.0.2.2,52746,1073725440,16222,0,65535,65700,0,0,4,1460,1,0,0,24,33580,68,65700,0,0,0,0,0
i,0x00000000,1716771337.219849,10.0.2.15,22,10.0.2.2,52746,1073725440,16222,0,65535,65700,0,0,4,1460,1,0,0,24,33580,68,65700,0,68,0,0,0
i,0x00000000,1716771337.222835,10.0.2.15,22,10.0.2.2,52746,1073725440,16290,0,65535,65700,0,0,4,1460,1,0,0,24,33580,0,65700,0,0,0,0,0
o,0x00000000,1716771337.232814,10.0.2.15,22,10.0.2.2,52746,1073725440,16290,0,65535,65700,0,0,4,1460,1,0,0,24,33580,28,65700,0,0,0,0,0
i,0x00000000,1716771337.233363,10.0.2.15,22,10.0.2.2,52746,1073725440,16290,0,65535,65700,0,0,4,1460,1,0,0,24,33580,28,65700,0,28,0,0,0
i,0x00000000,1716771337.234144,10.0.2.15,22,10.0.2.2,52746,1073725440,16318,0,65535,65700,0,0,4,1460,1,0,0,24,33580,0,65700,0,0,0,0,0
o,0x00000000,1716771337.235630,10.0.2.15,22,10.0.2.2,52746,1073725440,16318,0,65535,65700,0,0,4,1460,1,0,0,24,33580,768,65700,112,0,0,0,0
i,0x00000000,1716771337.236343,10.0.2.15,22,10.0.2.2,52746,1073725440,16318,0,65535,65700,0,0,4,1460,1,0,0,24,33580,768,65700,112,768,0,0,0
o,0x00000000,1716771337.236526,10.0.2.15,22,10.0.2.2,52746,1073725440,17086,0,65535,65700,0,0,4,1460,1,0,0,24,33580,44,65700,0,0,0,0,0
i,0x00000000,1716771337.237065,10.0.2.15,22,10.0.2.2,52746,1073725440,17086,0,65535,65700,0,0,4,1460,1,0,0,24,33580,44,65700,0,44,0,0,0
i,0x00000000,1716771337.238050,10.0.2.15,22,10.0.2.2,52746,1073725440,17130,0,65535,65700,0,0,4,1460,1,0,0,24,33580,0,65700,0,0,0,0,0
o,0x00000000,1716771337.238474,10.0.2.15,22,10.0.2.2,52746,1073725440,17130,0,65535,65700,0,0,4,1460,1,0,4,24,33580,72,65700,0,0,0,0,0
i,0x00000000,1716771337.239108,10.0.2.15,22,10.0.2.2,52746,1073725440,17130,0,65535,65700,0,0,4,1460,1,0,4,24,33580,72,65700,0,72,0,0,0
o,0x00000000,1716771337.246048,10.0.2.15,22,10.0.2.2,52746,1073725440,17202,0,65535,65700,0,0,4,1460,1,0,4,24,33580,60,65700,0,0,0,0,0
o,0x00000000,1716771337.246175,10.0.2.15,22,10.0.2.2,52746,1073725440,17202,0,65535,65700,0,0,4,1460,1,0,4,24,33580,96,65700,0,60,0,0,0
i,0x00000000,1716771337.246647,10.0.2.15,22,10.0.2.2,52746,1073725440,17202,0,65535,65700,0,0,4,1460,1,0,4,24,33580,96,65700,0,96,0,0,0
i,0x00000000,1716771337.246654,10.0.2.15,22,10.0.2.2,52746,1073725440,17262,0,65535,65700,0,0,4,1460,1,0,4,24,33580,36,65700,0,36,0,0,0
disable_time_secs=1716771337	disable_time_usecs=248709	num_inbound_tcp_pkts=233	num_outbound_tcp_pkts=161	total_tcp_pkts=394	num_inbound_skipped_pkts_malloc=0	num_outbound_skipped_pkts_malloc=0	num_inbound_skipped_pkts_mtx=0	num_outbound_skipped_pkts_mtx=0	num_inbound_skipped_pkts_tcpcb=0	num_outbound_skipped_pkts_tcpcb=0	num_inbound_skipped_pkts_inpcb=47	num_outbound_skipped_pkts_inpcb=9	total_skipped_tcp_pkts=56	flow_list=172.16.3.2;5101-172.16.1.2;24791,172.16.3.2;5101-172.16.1.2;34128,172.16.3.2;5102-172.16.1.2;33671,172.16.3.2;5102-172.16.1.2;50129,10.0.2.15;22-10.0.2.2;52746,10.0.2.15;22-10.0.2.2;52614,10.0.2.15;22-10.0.2.2;59016,10.0.2.15;22-10.0.2.2;59023,10.0.2.15;22-10.0.2.2;59029,10.0.2.15;22-10.0.2.2;60131,172.16.3.2;5103-172.16.1.2;54874,172.16.3.2;5103-172.16.1.2;56629,172.16.3.2;5104-172.16.1.2;32873,172.16.3.2;5104-172.16.1.2;40162,
