enable_time_secs=1716771486	enable_time_usecs=913035	siftrver=1.2.4	hz=100	tcp_rtt_scale=32	sysname=FreeBSD	sysver=1301000	ipmode=4
o,0x00000000,1716771486.913124,10.0.2.15,22,10.0.2.2,52921,1073725440,17298,0,65535,65700,0,0,4,1460,1,0,4,24,33580,44,65700,0,0,0,0,0
o,0x00000000,1716771486.913271,10.0.2.15,22,10.0.2.2,52921,1073725440,17298,0,65535,65700,0,0,4,1460,1,0,4,24,33580,80,65700,0,44,0,0,0
i,0x00000000,1716771486.913954,10.0.2.15,22,10.0.2.2,52921,1073725440,17298,0,65535,65700,0,0,4,1460,1,0,4,24,33580,80,65700,0,80,0,0,0
i,0x00000000,1716771486.913958,10.0.2.15,22,10.0.2.2,52921,1073725440,17342,0,65535,65700,0,0,4,1460,1,0,4,24,33580,36,65700,0,36,0,0,0
o,0x00000000,1716771486.914083,10.0.2.15,22,10.0.2.2,52921,1073725440,17378,0,65535,65700,0,0,4,1460,1,0,4,24,33580,36,65700,0,0,0,0,0
i,0x00000000,1716771486.914606,10.0.2.15,22,10.0.2.2,52921,1073725440,17378,0,65535,65700,0,0,4,1460,1,0,4,24,33580,36,65700,0,36,0,0,0
o,0x00000000,1716771486.914871,10.0.2.15,22,10.0.2.2,52921,1073725440,17414,0,65535,65700,0,0,4,1460,1,0,4,24,33580,176,65700,0,0,0,0,0
i,0x00000000,1716771486.915544,10.0.2.15,22,10.0.2.2,52921,1073725440,17414,0,65535,65700,0,0,4,1460,1,0,4,24,33580,176,65700,0,176,0,0,0
i,0x00000000,1716771486.916253,10.0.2.15,22,10.0.2.2,52921,1073725440,17590,0,65535,65700,0,0,4,1460,1,0,4,24,33580,0,65700,0,0,0,0,0
i,0x00000000,1716771486.916258,10.0.2.15,22,10.0.2.2,52921,1073725440,17590,0,65535,65700,0,0,4,1460,1,0,4,24,33580,0,65700,36,0,0,0,0
o,0x00000000,1716771486.916259,10.0.2.15,22,10.0.2.2,52921,1073725440,17590,0,65535,65700,0,0,4,1460,1,0,5,24,33580,0,65700,96,0,0,0,0
i,0x00000000,1716771486.916338,10.0.2.15,22,10.0.2.2,52921,1073725440,17590,0,65535,65700,0,0,4,1460,1,0,4,24,33580,0,65700,96,0,0,0,0
o,0x00000000,1716771486.916343,10.0.2.15,22,10.0.2.2,52921,1073725440,17590,0,65535,65604,0,0,5,1460,1,0,7,24,33580,0,65700,96,0,0,0,0
o,0x00000000,1716771486.917126,10.0.2.15,22,10.0.2.2,52921,1073725440,17590,0,65535,65604,0,0,8,1460,1,0,4,24,33580,0,65700,0,0,0,0,0
i,0x00000000,1716771486.917577,10.0.2.15,22,10.0.2.2,52921,1073725440,17590,0,65535,65604,0,0,8,1460,1,0,20,24,33580,0,65700,0,1,0,0,0
i,0x00000000,1716771488.293068,172.16.3.2,5101,172.16.1.2,55711,10324,14480,0,65728,65700,6,6,4,1460,440,1,992,41,33580,0,65700,0,0,0,0,0
o,0x00000000,1716771488.293221,172.16.3.2,5101,172.16.1.2,55711,10324,14480,0,65728,65700,6,6,4,1460,440,1,996,41,33580,1,65700,0,0,0,0,0
i,0x00000000,1716771488.412798,172.16.3.2,5101,172.16.1.2,55711,10324,14480,0,65728,65700,6,6,4,1460,440,1,996,41,33580,1,65700,0,1,0,0,0
i,0x00000000,1716771488.412815,172.16.3.2,5101,172.16.1.2,55711,10324,14480,0,65728,65728,6,6,4,1460,433,1,996,40,33580,0,65700,4,0,0,0,0
o,0x00000000,1716771488.412825,172.16.3.2,5101,172.16.1.2,55711,10324,14480,0,65728,65728,6,6,4,1460,433,1,997,40,33580,0,65700,128,0,0,0,0
o,0x00000000,1716771488.413259,172.16.3.2,5101,172.16.1.2,55711,10324,14480,0,65728,65728,6,6,4,1460,433,1,996,40,33580,1,65700,0,0,0,0,0
o,0x00000000,1716771488.413426,10.0.2.15,22,10.0.2.2,60131,1073725440,14600,0,65535,65700,0,0,4,1460,1,0,4,24,33580,84,65700,0,0,0,0,0
i,0x00000000,1716771488.414183,10.0.2.15,22,10.0.2.2,60131,1073725440,14600,0,65535,65700,0,0,4,1460,1,0,4,24,33580,84,65700,0,84,0,0,0
i,0x00000000,1716771488.562895,172.16.3.2,5101,172.16.1.2,55711,10324,14480,0,65728,65728,6,6,4,1460,433,1,996,40,33580,1,65700,0,1,0,0,0
i,0x00000000,1716771488.653412,172.16.3.2,5101,172.16.1.2,18194,10324,14480,0,65728,65700,6,6,4,1460,440,1,992,41,33580,0,65700,0,0,0,0,0
o,0x00000000,1716771488.655247,172.16.3.2,5101,172.16.1.2,55711,10324,14480,0,65728,65728,6,6,4,1460,435,1,996,39,33580,1,65700,0,0,0,0,0
o,0x00000000,1716771488.655343,172.16.3.2,5101,172.16.1.2,55711,10324,14480,0,65728,65728,6,6,4,1460,435,1,996,39,33580,2,65700,0,1,0,0,0
o,0x00000000,1716771488.655779,10.0.2.15,22,10.0.2.2,60131,1073725440,14600,0,65535,65700,0,0,4,1460,1,0,4,24,33580,108,65700,0,0,0,0,0
i,0x00000000,1716771488.656456,10.0.2.15,22,10.0.2.2,60131,1073725440,14600,0,65535,65700,0,0,4,1460,1,0,4,24,33580,108,65700,0,108,0,0,0
o,0x00000000,1716771488.688864,172.16.3.2,5101,172.16.1.2,18194,10324,14480,0,65728,65700,6,6,4,1460,440,1,993,41,33580,0,65700,0,0,0,0,0
i,0x00000000,1716771488.842961,172.16.3.2,5101,172.16.1.2,55711,10324,14480,0,65728,65728,6,6,4,1460,435,1,996,39,33580,2,65700,0,2,0,0,0
i,0x00000000,1716771488.872551,172.16.3.2,5101,172.16.1.2,18194,10324,14480,0,65728,65700,6,6,4,1460,440,1,992,41,33580,0,65700,0,0,0,0,0
i,0x00000000,1716771488.882959,172.16.3.2,5101,172.16.1.2,18194,10324,14480,0,65728,65700,6,6,4,1460,440,1,992,41,33580,0,65700,0,0,0,0,0
o,0x00000000,1716771488.882973,172.16.3.2,5101,172.16.1.2,18194,10324,14480,0,65728,65700,6,6,4,1460,440,1,993,41,33580,0,65700,1448,0,0,0,0
i,0x00000000,1716771488.893180,172.16.3.2,5101,172.16.1.2,18194,10324,14480,0,65728,65700,6,6,4,1460,440,1,992,41,33580,0,65700,0,0,0,0,0
i,0x00000000,1716771488.903585,172.16.3.2,5101,172.16.1.2,18194,10324,14480,0,65728,65700,6,6,4,1460,440,1,992,41,33580,0,65700,0,0,0,0,0
o,0x00000000,1716771488.903592,172.16.3.2,5101,172.16.1.2,18194,10324,14480,0,65728,65700,6,6,4,1460,440,1,993,41,33580,0,65700,1448,0,0,0,0
i,0x00000000,1716771488.923222,172.16.3.2,5101,172.16.1.2,18194,10324,14480,0,65728,65700,6,6,4,1460,440,1,992,41,33580,0,65700,0,0,0,0,0
i,0x00000000,1716771488.933488,172.16.3.2,5101,172.16.1.2,18194,10324,14480,0,65728,65700,6,6,4,1460,440,1,992,41,33580,0,65700,0,0,0,0,0
o,0x00000000,1716771488.933496,172.16.3.2,5101,172.16.1.2,18194,10324,14480,0,65728,65700,6,6,4,1460,440,1,993,41,33580,0,65700,1448,0,0,0,0
i,0x00000000,1716771488.943899,172.16.3.2,5101,172.16.1.2,18194,10324,14480,0,65728,65700,6,6,4,1460,440,1,992,41,33580,0,65700,0,0,0,0,0
i,0x00000000,1716771488.953197,172.16.3.2,5101,172.16.1.2,18194,10324,14480,0,65728,65700,6,6,4,1460,440,1,992,41,33580,0,65700,0,0,0,0,0
o,0x00000000,1716771488.953204,172.16.3.2,5101,172.16.1.2,18194,10324,14480,0,65728,65700,6,6,4,1460,440,1,993,41,33580,0,65700,1448,0,0,0,0
i,0x00000000,1716771488.962592,172.16.3.2,5101,172.16.1.2,18194,10324,14480,0,65728,65700,6,6,4,1460,440,1,992,41,33580,0,65700,0,0,0,0,0
i,0x00000000,1716771488.983299,172.16.3.2,5101,172.16.1.2,18194,10324,14480,0,65728,65700,6,6,4,1460,440,1,992,41,33580,0,65700,0,0,0,0,0
o,0x00000000,1716771488.983305,172.16.3.2,5101,172.16.1.2,18194,10324,14480,0,65728,65700,6,6,4,1460,440,1,993,41,33580,0,65700,1448,0,0,0,0
i,0x00000000,1716771489.222969,172.16.3.2,5101,172.16.1.2,18194,10324,14480,0,65728,65700,6,6,4,1460,440,1,992,41,33580,0,65700,0,0,0,0,0
i,0x00000000,1716771489.233498,172.16.3.2,5101,172.16.1.2,18194,10324,14480,0,65728,65700,6,6,4,1460,440,1,992,41,33580,0,65700,0,0,0,0,0
o,0x00000000,1716771489.233519,172.16.3.2,5101,172.16.1.2,18194,10324,14480,0,65728,65700,6,6,4,1460,440,1,993,41,33580,0,65700,1448,0,0,0,0
i,0x00000000,1716771489.242833,172.16.3.2,5101,172.16.1.2,18194,10324,14480,0,65728,65700,6,6,4,1460,440,1,992,41,33580,0,65700,0,0,0,0,0
i,0x00000000,1716771489.253422,172.16.3.2,5101,172.16.1.2,18194,10324,14480,0,65728,65700,6,6,4,1460,440,1,992,41,33580,0,65700,0,0,0,0,0
o,0x00000000,1716771489.253443,172.16.3.2,5101,172.16.1.2,18194,10324,14480,0,65728,65700,6,6,4,1460,440,1,993,41,33580,0,65700,1448,0,0,0,0
i,0x00000000,1716771489.262604,172.16.3.2,5101,172.16.1.2,18194,10324,14480,0,65728,65700,6,6,4,1460,440,1,992,41,33580,0,65700,0,0,0,0,0
i,0x00000000,1716771489.282353,172.16.3.2,5101,172.16.1.2,18194,10324,14480,0,65728,65700,6,6,4,1460,440,1,992,41,33580,0,65700,0,0,0,0,0
o,0x00000000,1716771489.282364,172.16.3.2,5101,172.16.1.2,18194,10324,14480,0,65728,65700,6,6,4,1460,440,1,993,41,33580,0,65700,1448,0,0,0,0
i,0x00000000,1716771489.292806,172.16.3.2,5101,172.16.1.2,18194,10324,14480,0,65728,65700,6,6,4,1460,440,1,992,41,33580,0,65700,0,0,0,0,0
i,0x00000000,1716771489.304075,172.16.3.2,5101,172.16.1.2,18194,10324,14480,0,65728,65700,6,6,4,1460,440,1,992,41,33580,0,65700,0,0,0,0,0
o,0x00000000,1716771489.304091,172.16.3.2,5101,172.16.1.2,18194,10324,14480,0,65728,65700,6,6,4,1460,440,1,993,41,33580,0,65700,1448,0,0,0,0
i,0x00000000,1716771489.313727,172.16.3.2,5101,172.16.1.2,18194,10324,14480,0,65728,65700,6,6,4,1460,440,1,992,41,33580,0,65700,0,0,0,0,0
i,0x00000000,1716771489.323254,172.16.3.2,5101,172.16.1.2,18194,10324,14480,0,65728,65700,6,6,4,1460,440,1,992,41,33580,0,65700,0,0,0,0,0
o,0x00000000,1716771489.323261,172.16.3.2,5101,172.16.1.2,18194,10324,14480,0,65728,65700,6,6,4,1460,440,1,993,41,33580,0,65700,1448,0,0,0,0
i,0x00000000,1716771489.343063,172.16.3.2,5101,172.16.1.2,18194,10324,14480,0,65728,65700,6,6,4,1460,440,1,992,41,33580,0,65700,0,0,0,0,0
i,0x00000000,1716771489.353582,172.16.3.2,5101,172.16.1.2,18194,10324,14480,0,65728,65700,6,6,4,1460,440,1,992,41,33580,0,65700,0,0,0,0,0
o,0x00000000,1716771489.353590,172.16.3.2,5101,172.16.1.2,18194,10324,14480,0,65728,65700,6,6,4,1460,440,1,993,41,33580,0,65700,1448,0,0,0,0
i,0x00000000,1716771489.363914,172.16.3.2,5101,172.16.1.2,18194,10324,14480,0,65728,65700,6,6,4,1460,440,1,992,41,33580,0,65700,0,0,0,0,0
i,0x00000000,1716771489.373204,172.16.3.2,5101,172.16.1.2,18194,10324,14480,0,65728,65700,6,6,4,1460,440,1,992,41,33580,0,65700,0,0,0,0,0
o,0x00000000,1716771489.373211,172.16.3.2,5101,172.16.1.2,18194,10324,14480,0,65728,65700,6,6,4,1460,440,1,993,41,33580,0,65700,1448,0,0,0,0
i,0x00000000,1716771489.623585,172.16.3.2,5101,172.16.1.2,18194,10324,14480,0,65728,65700,6,6,4,1460,440,1,992,41,33580,0,65700,0,0,0,0,0
i,0x00000000,1716771489.634022,172.16.3.2,5101,172.16.1.2,18194,10324,14480,0,65728,65700,6,6,4,1460,440,1,992,41,33580,0,65700,0,0,0,0,0
o,0x00000000,1716771489.634035,172.16.3.2,5101,172.16.1.2,18194,10324,14480,0,65728,65700,6,6,4,1460,440,1,993,41,33580,0,65700,1448,0,0,0,0
i,0x00000000,1716771489.643524,172.16.3.2,5101,172.16.1.2,18194,10324,14480,0,65728,65700,6,6,4,1460,440,1,992,41,33580,0,65700,0,0,0,0,0
i,0x00000000,1716771489.654032,172.16.3.2,5101,172.16.1.2,18194,10324,14480,0,65728,65700,6,6,4,1460,440,1,992,41,33580,0,65700,0,0,0,0,0
o,0x00000000,1716771489.654039,172.16.3.2,5101,172.16.1.2,18194,10324,14480,0,65728,65700,6,6,4,1460,440,1,993,41,33580,0,65700,1448,0,0,0,0
o,0x00000000,1716771489.659531,10.0.2.15,22,10.0.2.2,60131,1073725440,14600,0,65535,65700,0,0,4,1460,1,0,4,24,33580,156,65700,0,0,0,0,0
i,0x00000000,1716771489.660429,10.0.2.15,22,10.0.2.2,60131,1073725440,14600,0,65535,65700,0,0,4,1460,1,0,4,24,33580,156,65700,0,156,0,0,0
i,0x00000000,1716771489.673906,172.16.3.2,5101,172.16.1.2,18194,10324,14480,0,65728,65700,6,6,4,1460,440,1,992,41,33580,0,65700,0,0,0,0,0
i,0x00000000,1716771489.684269,172.16.3.2,5101,172.16.1.2,18194,10324,14480,0,65728,65700,6,6,4,1460,440,1,992,41,33580,0,65700,0,0,0,0,0
o,0x00000000,1716771489.684278,172.16.3.2,5101,172.16.1.2,18194,10324,14480,0,65728,65700,6,6,4,1460,440,1,993,41,33580,0,65700,1448,0,0,0,0
i,0x00000000,1716771489.693265,172.16.3.2,5101,172.16.1.2,18194,10324,14480,0,65728,65700,6,6,4,1460,440,1,992,41,33580,0,65700,0,0,0,0,0
i,0x00000000,1716771489.703628,172.16.3.2,5101,172.16.1.2,18194,10324,14480,0,65728,65700,6,6,4,1460,440,1,992,41,33580,0,65700,0,0,0,0,0
o,0x00000000,1716771489.703644,172.16.3.2,5101,172.16.1.2,18194,10324,14480,0,65728,65700,6,6,4,1460,440,1,993,41,33580,0,65700,1448,0,0,0,0
i,0x00000000,1716771489.713854,172.16.3.2,5101,172.16.1.2,18194,10324,14480,0,65728,65700,6,6,4,1460,440,1,992,41,33580,0,65700,0,0,0,0,0
i,0x00000000,1716771489.734796,172.16.3.2,5101,172.16.1.2,18194,10324,14480,0,65728,65700,6,6,4,1460,440,1,992,41,33580,0,65700,0,0,0,0,0
o,0x00000000,1716771489.734803,172.16.3.2,5101,172.16.1.2,18194,10324,14480,0,65728,65700,6,6,4,1460,440,1,993,41,33580,0,65700,1448,0,0,0,0
i,0x00000000,1716771489.743534,172.16.3.2,5101,172.16.1.2,18194,10324,14480,0,65728,65700,6,6,4,1460,440,1,992,41,33580,0,65700,0,0,0,0,0
i,0x00000000,1716771489.753039,172.16.3.2,5101,172.16.1.2,18194,10324,14480,0,65728,65700,6,6,4,1460,440,1,992,41,33580,0,65700,0,0,0,0,0
o,0x00000000,1716771489.753045,172.16.3.2,5101,172.16.1.2,18194,10324,14480,0,65728,65700,6,6,4,1460,440,1,993,41,33580,0,65700,1448,0,0,0,0
i,0x00000000,1716771489.764390,172.16.3.2,5101,172.16.1.2,18194,10324,14480,0,65728,65700,6,6,4,1460,440,1,992,41,33580,0,65700,0,0,0,0,0
i,0x00000000,1716771489.773742,172.16.3.2,5101,172.16.1.2,18194,10324,14480,0,65728,65700,6,6,4,1460,440,1,992,41,33580,0,65700,0,0,0,0,0
o,0x00000000,1716771489.773748,172.16.3.2,5101,172.16.1.2,18194,10324,14480,0,65728,65700,6,6,4,1460,440,1,993,41,33580,0,65700,1448,0,0,0,0
i,0x00000000,1716771489.793638,172.16.3.2,5101,172.16.1.2,18194,10324,14480,0,65728,65700,6,6,4,1460,440,1,992,41,33580,0,65700,0,0,0,0,0
o,0x00000000,1716771489.829863,172.16.3.2,5101,172.16.1.2,18194,10324,14480,0,65728,65700,6,6,4,1460,440,1,993,41,33580,0,65700,0,0,0,0,0
i,0x00000000,1716771490.044233,172.16.3.2,5101,172.16.1.2,18194,10324,14480,0,65728,65700,6,6,4,1460,440,1,992,41,33580,0,65700,0,0,0,0,0
i,0x00000000,1716771490.053718,172.16.3.2,5101,172.16.1.2,18194,10324,14480,0,65728,65700,6,6,4,1460,440,1,992,41,33580,0,65700,0,0,0,0,0
o,0x00000000,1716771490.053732,172.16.3.2,5101,172.16.1.2,18194,10324,14480,0,65728,65700,6,6,4,1460,440,1,993,41,33580,0,65700,1448,0,0,0,0
i,0x00000000,1716771490.064098,172.16.3.2,5101,172.16.1.2,18194,10324,14480,0,65728,65700,6,6,4,1460,440,1,992,41,33580,0,65700,0,0,0,0,0
i,0x00000000,1716771490.074618,172.16.3.2,5101,172.16.1.2,18194,10324,14480,0,65728,65700,6,6,4,1460,440,1,992,41,33580,0,65700,0,0,0,0,0
o,0x00000000,1716771490.074629,172.16.3.2,5101,172.16.1.2,18194,10324,14480,0,65728,65700,6,6,4,1460,440,1,993,41,33580,0,65700,1448,0,0,0,0
i,0x00000000,1716771490.094408,172.16.3.2,5101,172.16.1.2,18194,10324,14480,0,65728,65700,6,6,4,1460,440,1,992,41,33580,0,65700,0,0,0,0,0
i,0x00000000,1716771490.103940,172.16.3.2,5101,172.16.1.2,18194,10324,14480,0,65728,65700,6,6,4,1460,440,1,992,41,33580,0,65700,0,0,0,0,0
o,0x00000000,1716771490.103950,172.16.3.2,5101,172.16.1.2,18194,10324,14480,0,65728,65700,6,6,4,1460,440,1,993,41,33580,0,65700,1448,0,0,0,0
i,0x00000000,1716771490.113416,172.16.3.2,5101,172.16.1.2,18194,10324,14480,0,65728,65700,6,6,4,1460,440,1,992,41,33580,0,65700,0,0,0,0,0
i,0x00000000,1716771490.123802,172.16.3.2,5101,172.16.1.2,18194,10324,14480,0,65728,65700,6,6,4,1460,440,1,992,41,33580,0,65700,0,0,0,0,0
o,0x00000000,1716771490.123809,172.16.3.2,5101,172.16.1.2,18194,10324,14480,0,65728,65700,6,6,4,1460,440,1,993,41,33580,0,65700,1448,0,0,0,0
i,0x00000000,1716771490.134198,172.16.3.2,5101,172.16.1.2,18194,10324,14480,0,65728,65700,6,6,4,1460,440,1,992,41,33580,0,65700,0,0,0,0,0
i,0x00000000,1716771490.154118,172.16.3.2,5101,172.16.1.2,18194,10324,14480,0,65728,65700,6,6,4,1460,440,1,992,41,33580,0,65700,0,0,0,0,0
o,0x00000000,1716771490.154129,172.16.3.2,5101,172.16.1.2,18194,10324,14480,0,65728,65700,6,6,4,1460,440,1,993,41,33580,0,65700,1448,0,0,0,0
i,0x00000000,1716771490.163475,172.16.3.2,5101,172.16.1.2,18194,10324,14480,0,65728,65700,6,6,4,1460,440,1,992,41,33580,0,65700,0,0,0,0,0
i,0x00000000,1716771490.174096,172.16.3.2,5101,172.16.1.2,18194,10324,14480,0,65728,65700,6,6,4,1460,440,1,992,41,33580,0,65700,0,0,0,0,0
o,0x00000000,1716771490.174149,172.16.3.2,5101,172.16.1.2,18194,10324,14480,0,65728,65700,6,6,4,1460,440,1,993,41,33580,0,65700,1448,0,0,0,0
i,0x00000000,1716771490.183378,172.16.3.2,5101,172.16.1.2,18194,10324,14480,0,65728,65700,6,6,4,1460,440,1,992,41,33580,0,65700,0,0,0,0,0
i,0x00000000,1716771490.194283,172.16.3.2,5101,172.16.1.2,18194,10324,14480,0,65728,65700,6,6,4,1460,440,1,992,41,33580,0,65700,0,0,0,0,0
o,0x00000000,1716771490.194297,172.16.3.2,5101,172.16.1.2,18194,10324,14480,0,65728,65700,6,6,4,1460,440,1,993,41,33580,0,65700,1448,0,0,0,0
i,0x00000000,1716771490.213988,172.16.3.2,5101,172.16.1.2,18194,10324,14480,0,65728,65700,6,6,4,1460,440,1,992,41,33580,0,65700,0,0,0,0,0
o,0x00000000,1716771490.249306,172.16.3.2,5101,172.16.1.2,18194,10324,14480,0,65728,65700,6,6,4,1460,440,1,993,41,33580,0,65700,0,0,0,0,0
i,0x00000000,1716771490.464304,172.16.3.2,5101,172.16.1.2,18194,10324,14480,0,65728,65700,6,6,4,1460,440,1,992,41,33580,0,65700,0,0,0,0,0
i,0x00000000,1716771490.474390,172.16.3.2,5101,172.16.1.2,18194,10324,14480,0,65728,65700,6,6,4,1460,440,1,992,41,33580,0,65700,0,0,0,0,0
o,0x00000000,1716771490.474428,172.16.3.2,5101,172.16.1.2,18194,10324,14480,0,65728,65700,6,6,4,1460,440,1,993,41,33580,0,65700,1448,0,0,0,0
i,0x00000000,1716771490.484997,172.16.3.2,5101,172.16.1.2,18194,10324,14480,0,65728,65700,6,6,4,1460,440,1,992,41,33580,0,65700,0,0,0,0,0
i,0x00000000,1716771490.494898,172.16.3.2,5101,172.16.1.2,18194,10324,14480,0,65728,65700,6,6,4,1460,440,1,992,41,33580,0,65700,0,0,0,0,0
o,0x00000000,1716771490.494918,172.16.3.2,5101,172.16.1.2,18194,10324,14480,0,65728,65700,6,6,4,1460,440,1,993,41,33580,0,65700,1448,0,0,0,0
i,0x00000000,1716771490.515818,172.16.3.2,5101,172.16.1.2,18194,10324,14480,0,65728,65700,6,6,4,1460,440,1,992,41,33580,0,65700,0,0,0,0,0
i,0x00000000,1716771490.524014,172.16.3.2,5101,172.16.1.2,18194,10324,14480,0,65728,65700,6,6,4,1460,440,1,992,41,33580,0,65700,0,0,0,0,0
o,0x00000000,1716771490.524027,172.16.3.2,5101,172.16.1.2,18194,10324,14480,0,65728,65700,6,6,4,1460,440,1,993,41,33580,0,65700,1448,0,0,0,0
i,0x00000000,1716771490.534365,172.16.3.2,5101,172.16.1.2,18194,10324,14480,0,65728,65700,6,6,4,1460,440,1,992,41,33580,0,65700,0,0,0,0,0
i,0x00000000,1716771490.543611,172.16.3.2,5101,172.16.1.2,18194,10324,14480,0,65728,65700,6,6,4,1460,440,1,992,41,33580,0,65700,0,0,0,0,0
o,0x00000000,1716771490.543629,172.16.3.2,5101,172.16.1.2,18194,10324,14480,0,65728,65700,6,6,4,1460,440,1,993,41,33580,0,65700,1448,0,0,0,0
i,0x00000000,1716771490.554159,172.16.3.2,5101,172.16.1.2,18194,10324,14480,0,65728,65700,6,6,4,1460,440,1,992,41,33580,0,65700,0,0,0,0,0
i,0x00000000,1716771490.575416,172.16.3.2,5101,172.16.1.2,18194,10324,14480,0,65728,65700,6,6,4,1460,440,1,992,41,33580,0,65700,0,0,0,0,0
o,0x00000000,1716771490.575462,172.16.3.2,5101,172.16.1.2,18194,10324,14480,0,65728,65700,6,6,4,1460,440,1,993,41,33580,0,65700,1448,0,0,0,0
i,0x00000000,1716771490.586566,172.16.3.2,5101,172.16.1.2,18194,10324,14480,0,65728,65700,6,6,4,1460,440,1,992,41,33580,0,65700,0,0,0,0,0
i,0x00000000,1716771490.593639,172.16.3.2,5101,172.16.1.2,18194,10324,14480,0,65728,65700,6,6,4,1460,440,1,992,41,33580,0,65700,0,0,0,0,0
o,0x00000000,1716771490.593659,172.16.3.2,5101,172.16.1.2,18194,10324,14480,0,65728,65700,6,6,4,1460,440,1,993,41,33580,0,65700,1448,0,0,0,0
i,0x00000000,1716771490.604223,172.16.3.2,5101,172.16.1.2,18194,10324,14480,0,65728,65700,6,6,4,1460,440,1,992,41,33580,0,65700,0,0,0,0,0
i,0x00000000,1716771490.614453,172.16.3.2,5101,172.16.1.2,18194,10324,14480,0,65728,65700,6,6,4,1460,440,1,992,41,33580,0,65700,0,0,0,0,0
o,0x00000000,1716771490.614472,172.16.3.2,5101,172.16.1.2,18194,10324,14480,0,65728,65700,6,6,4,1460,440,1,993,41,33580,0,65700,1448,0,0,0,0
i,0x00000000,1716771490.636195,172.16.3.2,5101,172.16.1.2,18194,10324,14480,0,65728,65700,6,6,4,1460,440,1,992,41,33580,0,65700,0,0,0,0,0
i,0x00000000,1716771490.644761,172.16.3.2,5101,172.16.1.2,18194,10324,14480,0,65728,65700,6,6,4,1460,440,1,992,41,33580,0,65700,0,0,0,0,0
o,0x00000000,1716771490.644788,172.16.3.2,5101,172.16.1.2,18194,10324,14480,0,65728,65700,6,6,4,1460,440,1,993,41,33580,0,65700,1448,0,0,0,0
o,0x00000000,1716771490.670884,10.0.2.15,22,10.0.2.2,60131,1073725440,14600,0,65535,65700,0,0,4,1460,1,0,4,24,33580,108,65700,0,0,0,0,0
i,0x00000000,1716771490.671762,10.0.2.15,22,10.0.2.2,60131,1073725440,14600,0,65535,65700,0,0,4,1460,1,0,4,24,33580,108,65700,0,108,0,0,0
i,0x00000000,1716771490.895163,172.16.3.2,5101,172.16.1.2,18194,10324,14480,0,65728,65700,6,6,4,1460,440,1,992,41,33580,0,65700,0,0,0,0,0
i,0x00000000,1716771490.924572,172.16.3.2,5101,172.16.1.2,18194,10324,14480,0,65728,65700,6,6,4,1460,440,1,992,41,33580,0,65700,0,0,0,0,0
o,0x00000000,1716771490.924593,172.16.3.2,5101,172.16.1.2,18194,10324,14480,0,65728,65700,6,6,4,1460,440,1,993,41,33580,0,65700,1448,0,0,0,0
i,0x00000000,1716771490.945260,172.16.3.2,5101,172.16.1.2,18194,10324,14480,0,65728,65700,6,6,4,1460,440,1,992,41,33580,0,65700,0,0,0,0,0
i,0x00000000,1716771490.954625,172.16.3.2,5101,172.16.1.2,18194,10324,14480,0,65728,65700,6,6,4,1460,440,1,992,41,33580,0,65700,0,0,0,0,0
o,0x00000000,1716771490.954635,172.16.3.2,5101,172.16.1.2,18194,10324,14480,0,65728,65700,6,6,4,1460,440,1,993,41,33580,0,65700,1448,0,0,0,0
i,0x00000000,1716771490.965042,172.16.3.2,5101,172.16.1.2,18194,10324,14480,0,65728,65700,6,6,4,1460,440,1,992,41,33580,0,65700,0,0,0,0,0
i,0x00000000,1716771490.974601,172.16.3.2,5101,172.16.1.2,18194,10324,14480,0,65728,65700,6,6,4,1460,440,1,992,41,33580,0,65700,0,0,0,0,0
o,0x00000000,1716771490.974609,172.16.3.2,5101,172.16.1.2,18194,10324,14480,0,65728,65700,6,6,4,1460,440,1,993,41,33580,0,65700,1448,0,0,0,0
i,0x00000000,1716771490.984803,172.16.3.2,5101,172.16.1.2,18194,10324,14480,0,65728,65700,6,6,4,1460,440,1,992,41,33580,0,65700,0,0,0,0,0
i,0x00000000,1716771491.003994,172.16.3.2,5101,172.16.1.2,18194,10324,14480,0,65728,65700,6,6,4,1460,440,1,992,41,33580,0,65700,0,0,0,0,0
o,0x00000000,1716771491.004002,172.16.3.2,5101,172.16.1.2,18194,10324,14480,0,65728,65700,6,6,4,1460,440,1,993,41,33580,0,65700,1448,0,0,0,0
i,0x00000000,1716771491.014394,172.16.3.2,5101,172.16.1.2,18194,10324,14480,0,65728,65700,6,6,4,1460,440,1,992,41,33580,0,65700,0,0,0,0,0
i,0x00000000,1716771491.024867,172.16.3.2,5101,172.16.1.2,18194,10324,14480,0,65728,65700,6,6,4,1460,440,1,992,41,33580,0,65700,0,0,0,0,0
o,0x00000000,1716771491.024893,172.16.3.2,5101,172.16.1.2,18194,10324,14480,0,65728,65700,6,6,4,1460,440,1,993,41,33580,0,65700,1448,0,0,0,0
i,0x00000000,1716771491.035284,172.16.3.2,5101,172.16.1.2,18194,10324,14480,0,65728,65700,6,6,4,1460,440,1,992,41,33580,0,65700,0,0,0,0,0
i,0x00000000,1716771491.044344,172.16.3.2,5101,172.16.1.2,18194,10324,14480,0,65728,65700,6,6,4,1460,440,1,992,41,33580,0,65700,0,0,0,0,0
o,0x00000000,1716771491.044360,172.16.3.2,5101,172.16.1.2,18194,10324,14480,0,65728,65700,6,6,4,1460,440,1,993,41,33580,0,65700,1448,0,0,0,0
i,0x00000000,1716771491.064493,172.16.3.2,5101,172.16.1.2,18194,10324,14480,0,65728,65700,6,6,4,1460,440,1,992,41,33580,0,65700,0,0,0,0,0
i,0x00000000,1716771491.074587,172.16.3.2,5101,172.16.1.2,18194,10324,14480,0,65728,65700,6,6,4,1460,440,1,992,41,33580,0,65700,0,0,0,0,0
o,0x00000000,1716771491.074609,172.16.3.2,5101,172.16.1.2,18194,10324,14480,0,65728,65700,6,6,4,1460,440,1,993,41,33580,0,65700,1448,0,0,0,0
i,0x00000000,1716771491.085110,172.16.3.2,5101,172.16.1.2,18194,10324,14480,0,65728,65700,6,6,4,1460,440,1,992,41,33580,0,65700,0,0,0,0,0
i,0x00000000,1716771491.094445,172.16.3.2,5101,172.16.1.2,18194,10324,14480,0,65728,65700,6,6,4,1460,440,1,992,41,33580,0,65700,0,0,0,0,0
o,0x00000000,1716771491.094457,172.16.3.2,5101,172.16.1.2,18194,10324,14480,0,65728,65700,6,6,4,1460,440,1,993,41,33580,0,65700,1448,0,0,0,0
i,0x00000000,1716771491.104694,172.16.3.2,5101,172.16.1.2,18194,10324,14480,0,65728,65700,6,6,4,1460,440,1,992,41,33580,0,65700,0,0,0,0,0
i,0x00000000,1716771491.124715,172.16.3.2,5101,172.16.1.2,18194,10324,14480,0,65728,65700,6,6,4,1460,440,1,992,41,33580,0,65700,0,0,0,0,0
o,0x00000000,1716771491.124733,172.16.3.2,5101,172.16.1.2,18194,10324,14480,0,65728,65700,6,6,4,1460,440,1,993,41,33580,0,65700,1448,0,0,0,0
i,0x00000000,1716771491.425062,172.16.3.2,5101,172.16.1.2,18194,10324,14480,0,65728,65700,6,6,4,1460,440,1,992,41,33580,0,65700,0,0,0,0,0
i,0x00000000,1716771491.435583,172.16.3.2,5101,172.16.1.2,18194,10324,14480,0,65728,65700,6,6,4,1460,440,1,992,41,33580,0,65700,0,0,0,0,0
o,0x00000000,1716771491.435600,172.16.3.2,5101,172.16.1.2,18194,10324,14480,0,65728,65700,6,6,4,1460,440,1,993,41,33580,0,65700,1448,0,0,0,0
i,0x00000000,1716771491.444851,172.16.3.2,5101,172.16.1.2,18194,10324,14480,0,65728,65700,6,6,4,1460,440,1,992,41,33580,0,65700,0,0,0,0,0
i,0x00000000,1716771491.454371,172.16.3.2,5101,172.16.1.2,18194,10324,14480,0,65728,65700,6,6,4,1460,440,1,992,41,33580,0,65700,0,0,0,0,0
o,0x00000000,1716771491.454379,172.16.3.2,5101,172.16.1.2,18194,10324,14480,0,65728,65700,6,6,4,1460,440,1,993,41,33580,0,65700,1448,0,0,0,0
i,0x00000000,1716771491.466021,172.16.3.2,5101,172.16.1.2,18194,10324,14480,0,65728,65700,6,6,4,1460,440,1,992,41,33580,0,65700,0,0,0,0,0
i,0x00000000,1716771491.484633,172.16.3.2,5101,172.16.1.2,18194,10324,14480,0,65728,65700,6,6,4,1460,440,1,992,41,33580,0,65700,0,0,0,0,0
o,0x00000000,1716771491.484641,172.16.3.2,5101,172.16.1.2,18194,10324,14480,0,65728,65700,6,6,4,1460,440,1,993,41,33580,0,65700,1448,0,0,0,0
i,0x00000000,1716771491.495015,172.16.3.2,5101,172.16.1.2,18194,10324,14480,0,65728,65700,6,6,4,1460,440,1,992,41,33580,0,65700,0,0,0,0,0
i,0x00000000,1716771491.505409,172.16.3.2,5101,172.16.1.2,18194,10324,14480,0,65728,65700,6,6,4,1460,440,1,992,41,33580,0,65700,0,0,0,0,0
o,0x00000000,1716771491.505417,172.16.3.2,5101,172.16.1.2,18194,10324,14480,0,65728,65700,6,6,4,1460,440,1,993,41,33580,0,65700,1448,0,0,0,0
i,0x00000000,1716771491.515765,172.16.3.2,5101,172.16.1.2,18194,10324,14480,0,65728,65700,6,6,4,1460,440,1,992,41,33580,0,65700,0,0,0,0,0
i,0x00000000,1716771491.526341,172.16.3.2,5101,172.16.1.2,18194,10324,14480,0,65728,65700,6,6,4,1460,440,1,992,41,33580,0,65700,0,0,0,0,0
o,0x00000000,1716771491.526348,172.16.3.2,5101,172.16.1.2,18194,10324,14480,0,65728,65700,6,6,4,1460,440,1,993,41,33580,0,65700,1448,0,0,0,0
i,0x00000000,1716771491.544536,172.16.3.2,5101,172.16.1.2,18194,10324,14480,0,65728,65700,6,6,4,1460,440,1,992,41,33580,0,65700,0,0,0,0,0
i,0x00000000,1716771491.555323,172.16.3.2,5101,172.16.1.2,18194,10324,14480,0,65728,65700,6,6,4,1460,440,1,992,41,33580,0,65700,0,0,0,0,0
o,0x00000000,1716771491.555331,172.16.3.2,5101,172.16.1.2,18194,10324,14480,0,65728,65700,6,6,4,1460,440,1,993,41,33580,0,65700,1448,0,0,0,0
i,0x00000000,1716771491.565482,172.16.3.2,5101,172.16.1.2,18194,10324,14480,0,65728,65700,6,6,4,1460,440,1,992,41,33580,0,65700,0,0,0,0,0
i,0x00000000,1716771491.576033,172.16.3.2,5101,172.16.1.2,18194,10324,14480,0,65728,65700,6,6,4,1460,440,1,992,41,33580,0,65700,0,0,0,0,0
o,0x00000000,1716771491.576042,172.16.3.2,5101,172.16.1.2,18194,10324,14480,0,65728,65700,6,6,4,1460,440,1,993,41,33580,0,65700,1448,0,0,0,0
i,0x00000000,1716771491.585304,172.16.3.2,5101,172.16.1.2,18194,10324,14480,0,65728,65700,6,6,4,1460,440,1,992,41,33580,0,65700,0,0,0,0,0
i,0x00000000,1716771491.605060,172.16.3.2,5101,172.16.1.2,18194,10324,14480,0,65728,65700,6,6,4,1460,440,1,992,41,33580,0,65700,0,0,0,0,0
o,0x00000000,1716771491.605067,172.16.3.2,5101,172.16.1.2,18194,10324,14480,0,65728,65700,6,6,4,1460,440,1,993,41,33580,0,65700,1448,0,0,0,0
i,0x00000000,1716771491.615753,172.16.3.2,5101,172.16.1.2,18194,10324,14480,0,65728,65700,6,6,4,1460,440,1,992,41,33580,0,65700,0,0,0,0,0
i,0x00000000,1716771491.625871,172.16.3.2,5101,172.16.1.2,18194,10324,14480,0,65728,65700,6,6,4,1460,440,1,992,41,33580,0,65700,0,0,0,0,0
o,0x00000000,1716771491.625885,172.16.3.2,5101,172.16.1.2,18194,10324,14480,0,65728,65700,6,6,4,1460,440,1,993,41,33580,0,65700,1448,0,0,0,0
i,0x00000000,1716771491.636586,172.16.3.2,5101,172.16.1.2,18194,10324,14480,0,65728,65700,6,6,4,1460,440,1,992,41,33580,0,65700,0,0,0,0,0
o,0x00000000,1716771491.669016,172.16.3.2,5101,172.16.1.2,18194,10324,14480,0,65728,65700,6,6,4,1460,440,1,993,41,33580,0,65700,0,0,0,0,0
o,0x00000000,1716771491.669514,10.0.2.15,22,10.0.2.2,60131,1073725440,14600,0,65535,65700,0,0,4,1460,1,0,4,24,33580,108,65700,0,0,0,0,0
i,0x00000000,1716771491.670299,10.0.2.15,22,10.0.2.2,60131,1073725440,14600,0,65535,65700,0,0,4,1460,1,0,4,24,33580,108,65700,0,108,0,0,0
i,0x00000000,1716771491.926389,172.16.3.2,5101,172.16.1.2,18194,10324,14480,0,65728,65700,6,6,4,1460,440,1,992,41,33580,0,65700,0,0,0,0,0
i,0x00000000,1716771491.935471,172.16.3.2,5101,172.16.1.2,18194,10324,14480,0,65728,65700,6,6,4,1460,440,1,992,41,33580,0,65700,0,0,0,0,0
o,0x00000000,1716771491.935483,172.16.3.2,5101,172.16.1.2,18194,10324,14480,0,65728,65700,6,6,4,1460,440,1,993,41,33580,0,65700,1448,0,0,0,0
i,0x00000000,1716771491.945859,172.16.3.2,5101,172.16.1.2,18194,10324,14480,0,65728,65700,6,6,4,1460,440,1,992,41,33580,0,65700,0,0,0,0,0
i,0x00000000,1716771491.955835,172.16.3.2,5101,172.16.1.2,18194,10324,14480,0,65728,65700,6,6,4,1460,440,1,992,41,33580,0,65700,0,0,0,0,0
o,0x00000000,1716771491.955842,172.16.3.2,5101,172.16.1.2,18194,10324,14480,0,65728,65700,6,6,4,1460,440,1,993,41,33580,0,65700,1448,0,0,0,0
i,0x00000000,1716771491.965798,172.16.3.2,5101,172.16.1.2,18194,10324,14480,0,65728,65700,6,6,4,1460,440,1,992,41,33580,0,65700,0,0,0,0,0
i,0x00000000,1716771491.986404,172.16.3.2,5101,172.16.1.2,18194,10324,14480,0,65728,65700,6,6,4,1460,440,1,992,41,33580,0,65700,0,0,0,0,0
o,0x00000000,1716771491.986423,172.16.3.2,5101,172.16.1.2,18194,10324,14480,0,65728,65700,6,6,4,1460,440,1,993,41,33580,0,65700,1448,0,0,0,0
i,0x00000000,1716771491.995579,172.16.3.2,5101,172.16.1.2,18194,10324,14480,0,65728,65700,6,6,4,1460,440,1,992,41,33580,0,65700,0,0,0,0,0
i,0x00000000,1716771492.005873,172.16.3.2,5101,172.16.1.2,18194,10324,14480,0,65728,65700,6,6,4,1460,440,1,992,41,33580,0,65700,0,0,0,0,0
o,0x00000000,1716771492.005880,172.16.3.2,5101,172.16.1.2,18194,10324,14480,0,65728,65700,6,6,4,1460,440,1,993,41,33580,0,65700,1448,0,0,0,0
i,0x00000000,1716771492.015306,172.16.3.2,5101,172.16.1.2,18194,10324,14480,0,65728,65700,6,6,4,1460,440,1,992,41,33580,0,65700,0,0,0,0,0
i,0x00000000,1716771492.025710,172.16.3.2,5101,172.16.1.2,18194,10324,14480,0,65728,65700,6,6,4,1460,440,1,992,41,33580,0,65700,0,0,0,0,0
o,0x00000000,1716771492.025723,172.16.3.2,5101,172.16.1.2,18194,10324,14480,0,65728,65700,6,6,4,1460,440,1,993,41,33580,0,65700,1448,0,0,0,0
i,0x00000000,1716771492.045278,172.16.3.2,5101,172.16.1.2,18194,10324,14480,0,65728,65700,6,6,4,1460,440,1,992,41,33580,0,65700,0,0,0,0,0
i,0x00000000,1716771492.055162,172.16.3.2,5101,172.16.1.2,18194,10324,14480,0,65728,65700,6,6,4,1460,440,1,992,41,33580,0,65700,0,0,0,0,0
o,0x00000000,1716771492.055176,172.16.3.2,5101,172.16.1.2,18194,10324,14480,0,65728,65700,6,6,4,1460,440,1,993,41,33580,0,65700,1448,0,0,0,0
i,0x00000000,1716771492.066264,172.16.3.2,5101,172.16.1.2,18194,10324,14480,0,65728,65700,6,6,4,1460,440,1,992,41,33580,0,65700,0,0,0,0,0
i,0x00000000,1716771492.075805,172.16.3.2,5101,172.16.1.2,18194,10324,14480,0,65728,65700,6,6,4,1460,440,1,992,41,33580,0,65700,0,0,0,0,0
o,0x00000000,1716771492.075818,172.16.3.2,5101,172.16.1.2,18194,10324,14480,0,65728,65700,6,6,4,1460,440,1,993,41,33580,0,65700,1448,0,0,0,0
i,0x00000000,1716771492.086003,172.16.3.2,5101,172.16.1.2,18194,10324,14480,0,65728,65700,6,6,4,1460,440,1,992,41,33580,0,65700,0,0,0,0,0
i,0x00000000,1716771492.105766,172.16.3.2,5101,172.16.1.2,18194,10324,14480,0,65728,65700,6,6,4,1460,440,1,992,41,33580,0,65700,0,0,0,0,0
o,0x00000000,1716771492.105778,172.16.3.2,5101,172.16.1.2,18194,10324,14480,0,65728,65700,6,6,4,1460,440,1,993,41,33580,0,65700,1448,0,0,0,0
i,0x00000000,1716771492.115832,172.16.3.2,5101,172.16.1.2,18194,10324,14480,0,65728,65700,6,6,4,1460,440,1,992,41,33580,0,65700,0,0,0,0,0
i,0x00000000,1716771492.125007,172.16.3.2,5101,172.16.1.2,18194,10324,14480,0,65728,65700,6,6,4,1460,440,1,992,41,33580,0,65700,0,0,0,0,0
o,0x00000000,1716771492.125015,172.16.3.2,5101,172.16.1.2,18194,10324,14480,0,65728,65700,6,6,4,1460,440,1,993,41,33580,0,65700,1448,0,0,0,0
i,0x00000000,1716771492.135638,172.16.3.2,5101,172.16.1.2,18194,10324,14480,0,65728,65700,6,6,4,1460,440,1,992,41,33580,0,65700,0,0,0,0,0
o,0x00000000,1716771492.169723,172.16.3.2,5101,172.16.1.2,18194,10324,14480,0,65728,65700,6,6,4,1460,440,1,993,41,33580,0,65700,0,0,0,0,0
i,0x00000000,1716771492.185554,172.16.3.2,5101,172.16.1.2,18194,10324,14480,0,65728,65700,6,6,4,1460,440,1,992,41,33580,0,65700,0,0,0,0,0
o,0x00000000,1716771492.219394,172.16.3.2,5101,172.16.1.2,18194,10324,14480,0,65728,65700,6,6,4,1460,440,1,993,41,33580,0,65700,0,0,0,0,0
i,0x00000000,1716771492.426037,172.16.3.2,5101,172.16.1.2,18194,10324,14480,0,65728,65700,6,6,4,1460,440,1,992,41,33580,0,65700,0,0,0,0,0
i,0x00000000,1716771492.436395,172.16.3.2,5101,172.16.1.2,18194,10324,14480,0,65728,65700,6,6,4,1460,440,1,992,41,33580,0,65700,0,0,0,0,0
o,0x00000000,1716771492.436408,172.16.3.2,5101,172.16.1.2,18194,10324,14480,0,65728,65700,6,6,4,1460,440,1,993,41,33580,0,65700,1448,0,0,0,0
i,0x00000000,1716771492.445922,172.16.3.2,5101,172.16.1.2,18194,10324,14480,0,65728,65700,6,6,4,1460,440,1,992,41,33580,0,65700,0,0,0,0,0
i,0x00000000,1716771492.465859,172.16.3.2,5101,172.16.1.2,18194,10324,14480,0,65728,65700,6,6,4,1460,440,1,992,41,33580,0,65700,0,0,0,0,0
o,0x00000000,1716771492.465869,172.16.3.2,5101,172.16.1.2,18194,10324,14480,0,65728,65700,6,6,4,1460,440,1,993,41,33580,0,65700,1448,0,0,0,0
i,0x00000000,1716771492.476136,172.16.3.2,5101,172.16.1.2,18194,10324,14480,0,65728,65700,6,6,4,1460,440,1,992,41,33580,0,65700,0,0,0,0,0
i,0x00000000,1716771492.486610,172.16.3.2,5101,172.16.1.2,18194,10324,14480,0,65728,65700,6,6,4,1460,440,1,992,41,33580,0,65700,0,0,0,0,0
o,0x00000000,1716771492.486618,172.16.3.2,5101,172.16.1.2,18194,10324,14480,0,65728,65700,6,6,4,1460,440,1,993,41,33580,0,65700,1448,0,0,0,0
i,0x00000000,1716771492.496022,172.16.3.2,5101,172.16.1.2,18194,10324,14480,0,65728,65700,6,6,4,1460,440,1,992,41,33580,0,65700,0,0,0,0,0
i,0x00000000,1716771492.506536,172.16.3.2,5101,172.16.1.2,18194,10324,14480,0,65728,65700,6,6,4,1460,440,1,992,41,33580,0,65700,0,0,0,0,0
o,0x00000000,1716771492.506542,172.16.3.2,5101,172.16.1.2,18194,10324,14480,0,65728,65700,6,6,4,1460,440,1,993,41,33580,0,65700,1448,0,0,0,0
i,0x00000000,1716771492.526366,172.16.3.2,5101,172.16.1.2,18194,10324,14480,0,65728,65700,6,6,4,1460,440,1,992,41,33580,0,65700,0,0,0,0,0
i,0x00000000,1716771492.536588,172.16.3.2,5101,172.16.1.2,18194,10324,14480,0,65728,65700,6,6,4,1460,440,1,992,41,33580,0,65700,0,0,0,0,0
o,0x00000000,1716771492.536594,172.16.3.2,5101,172.16.1.2,18194,10324,14480,0,65728,65700,6,6,4,1460,440,1,993,41,33580,0,65700,1448,0,0,0,0
i,0x00000000,1716771492.546126,172.16.3.2,5101,172.16.1.2,18194,10324,14480,0,65728,65700,6,6,4,1460,440,1,992,41,33580,0,65700,0,0,0,0,0
i,0x00000000,1716771492.555538,172.16.3.2,5101,172.16.1.2,18194,10324,14480,0,65728,65700,6,6,4,1460,440,1,992,41,33580,0,65700,0,0,0,0,0
o,0x00000000,1716771492.555544,172.16.3.2,5101,172.16.1.2,18194,10324,14480,0,65728,65700,6,6,4,1460,440,1,993,41,33580,0,65700,1448,0,0,0,0
i,0x00000000,1716771492.566170,172.16.3.2,5101,172.16.1.2,18194,10324,14480,0,65728,65700,6,6,4,1460,440,1,992,41,33580,0,65700,0,0,0,0,0
i,0x00000000,1716771492.585917,172.16.3.2,5101,172.16.1.2,18194,10324,14480,0,65728,65700,6,6,4,1460,440,1,992,41,33580,0,65700,0,0,0,0,0
o,0x00000000,1716771492.585929,172.16.3.2,5101,172.16.1.2,18194,10324,14480,0,65728,65700,6,6,4,1460,440,1,993,41,33580,0,65700,1448,0,0,0,0
i,0x00000000,1716771492.596255,172.16.3.2,5101,172.16.1.2,18194,10324,14480,0,65728,65700,6,6,4,1460,440,1,992,41,33580,0,65700,0,0,0,0,0
i,0x00000000,1716771492.605922,172.16.3.2,5101,172.16.1.2,18194,10324,14480,0,65728,65700,6,6,4,1460,440,1,992,41,33580,0,65700,0,0,0,0,0
o,0x00000000,1716771492.605931,172.16.3.2,5101,172.16.1.2,18194,10324,14480,0,65728,65700,6,6,4,1460,440,1,993,41,33580,0,65700,1448,0,0,0,0
i,0x00000000,1716771492.616117,172.16.3.2,5101,172.16.1.2,18194,10324,14480,0,65728,65700,6,6,4,1460,440,1,992,41,33580,0,65700,0,0,0,0,0
i,0x00000000,1716771492.626098,172.16.3.2,5101,172.16.1.2,18194,10324,14480,0,65728,65700,6,6,4,1460,440,1,992,41,33580,0,65700,0,0,0,0,0
o,0x00000000,1716771492.626104,172.16.3.2,5101,172.16.1.2,18194,10324,14480,0,65728,65700,6,6,4,1460,440,1,993,41,33580,0,65700,1448,0,0,0,0
i,0x00000000,1716771492.645938,172.16.3.2,5101,172.16.1.2,18194,10324,14480,0,65728,65700,6,6,4,1460,440,1,992,41,33580,0,65700,0,0,0,0,0
o,0x00000000,1716771492.669833,10.0.2.15,22,10.0.2.2,60131,1073725440,14600,0,65535,65700,0,0,4,1460,1,0,4,24,33580,108,65700,0,0,0,0,0
i,0x00000000,1716771492.670592,10.0.2.15,22,10.0.2.2,60131,1073725440,14600,0,65535,65700,0,0,4,1460,1,0,4,24,33580,108,65700,0,108,0,0,0
o,0x00000000,1716771492.679239,172.16.3.2,5101,172.16.1.2,18194,10324,14480,0,65728,65700,6,6,4,1460,440,1,993,41,33580,0,65700,0,0,0,0,0
i,0x00000000,1716771492.696027,172.16.3.2,5101,172.16.1.2,18194,10324,14480,0,65728,65700,6,6,4,1460,440,1,992,41,33580,0,65700,0,0,0,0,0
o,0x00000000,1716771492.729649,172.16.3.2,5101,172.16.1.2,18194,10324,14480,0,65728,65700,6,6,4,1460,440,1,993,41,33580,0,65700,0,0,0,0,0
i,0x00000000,1716771492.856299,172.16.3.2,5101,172.16.1.2,18194,10324,14480,0,65728,65700,6,6,4,1460,440,1,992,41,33580,0,65700,0,0,0,0,0
o,0x00000000,1716771492.889164,172.16.3.2,5101,172.16.1.2,18194,10324,14480,0,65728,65700,6,6,4,1460,440,1,993,41,33580,0,65700,0,0,0,0,0
i,0x00000000,1716771492.957374,172.16.3.2,5101,172.16.1.2,18194,10324,14480,0,65728,65700,6,6,4,1460,440,1,992,41,33580,0,65700,0,0,0,0,0
i,0x00000000,1716771492.967640,172.16.3.2,5101,172.16.1.2,18194,10324,14480,0,65728,65700,6,6,4,1460,440,1,992,41,33580,0,65700,0,0,0,0,0
o,0x00000000,1716771492.967652,172.16.3.2,5101,172.16.1.2,18194,10324,14480,0,65728,65700,6,6,4,1460,440,1,993,41,33580,0,65700,1448,0,0,0,0
i,0x00000000,1716771492.976539,172.16.3.2,5101,172.16.1.2,18194,10324,14480,0,65728,65700,6,6,4,1460,440,1,992,41,33580,0,65700,0,0,0,0,0
i,0x00000000,1716771492.985802,172.16.3.2,5101,172.16.1.2,18194,10324,14480,0,65728,65700,6,6,4,1460,440,1,992,41,33580,0,65700,0,0,0,0,0
o,0x00000000,1716771492.985808,172.16.3.2,5101,172.16.1.2,18194,10324,14480,0,65728,65700,6,6,4,1460,440,1,993,41,33580,0,65700,1448,0,0,0,0
i,0x00000000,1716771492.996290,172.16.3.2,5101,172.16.1.2,18194,10324,14480,0,65728,65700,6,6,4,1460,440,1,992,41,33580,0,65700,0,0,0,0,0
i,0x00000000,1716771493.015998,172.16.3.2,5101,172.16.1.2,18194,10324,14480,0,65728,65700,6,6,4,1460,440,1,992,41,33580,0,65700,0,0,0,0,0
o,0x00000000,1716771493.016005,172.16.3.2,5101,172.16.1.2,18194,10324,14480,0,65728,65700,6,6,4,1460,440,1,993,41,33580,0,65700,1448,0,0,0,0
i,0x00000000,1716771493.026556,172.16.3.2,5101,172.16.1.2,18194,10324,14480,0,65728,65700,6,6,4,1460,440,1,992,41,33580,0,65700,0,0,0,0,0
i,0x00000000,1716771493.035679,172.16.3.2,5101,172.16.1.2,18194,10324,14480,0,65728,65700,6,6,4,1460,440,1,992,41,33580,0,65700,0,0,0,0,0
o,0x00000000,1716771493.035696,172.16.3.2,5101,172.16.1.2,18194,10324,14480,0,65728,65700,6,6,4,1460,440,1,993,41,33580,0,65700,1448,0,0,0,0
i,0x00000000,1716771493.047065,172.16.3.2,5101,172.16.1.2,18194,10324,14480,0,65728,65700,6,6,4,1460,440,1,992,41,33580,0,65700,0,0,0,0,0
i,0x00000000,1716771493.056574,172.16.3.2,5101,172.16.1.2,18194,10324,14480,0,65728,65700,6,6,4,1460,440,1,992,41,33580,0,65700,0,0,0,0,0
o,0x00000000,1716771493.056587,172.16.3.2,5101,172.16.1.2,18194,10324,14480,0,65728,65700,6,6,4,1460,440,1,993,41,33580,0,65700,1448,0,0,0,0
i,0x00000000,1716771493.076416,172.16.3.2,5101,172.16.1.2,18194,10324,14480,0,65728,65700,6,6,4,1460,440,1,992,41,33580,0,65700,0,0,0,0,0
i,0x00000000,1716771493.086596,172.16.3.2,5101,172.16.1.2,18194,10324,14480,0,65728,65700,6,6,4,1460,440,1,992,41,33580,0,65700,0,0,0,0,0
o,0x00000000,1716771493.086607,172.16.3.2,5101,172.16.1.2,18194,10324,14480,0,65728,65700,6,6,4,1460,440,1,993,41,33580,0,65700,1448,0,0,0,0
i,0x00000000,1716771493.096061,172.16.3.2,5101,172.16.1.2,18194,10324,14480,0,65728,65700,6,6,4,1460,440,1,992,41,33580,0,65700,0,0,0,0,0
i,0x00000000,1716771493.106922,172.16.3.2,5101,172.16.1.2,18194,10324,14480,0,65728,65700,6,6,4,1460,440,1,992,41,33580,0,65700,0,0,0,0,0
o,0x00000000,1716771493.106934,172.16.3.2,5101,172.16.1.2,18194,10324,14480,0,65728,65700,6,6,4,1460,440,1,993,41,33580,0,65700,1448,0,0,0,0
i,0x00000000,1716771493.117180,172.16.3.2,5101,172.16.1.2,18194,10324,14480,0,65728,65700,6,6,4,1460,440,1,992,41,33580,0,65700,0,0,0,0,0
i,0x00000000,1716771493.136664,172.16.3.2,5101,172.16.1.2,18194,10324,14480,0,65728,65700,6,6,4,1460,440,1,992,41,33580,0,65700,0,0,0,0,0
o,0x00000000,1716771493.136684,172.16.3.2,5101,172.16.1.2,18194,10324,14480,0,65728,65700,6,6,4,1460,440,1,993,41,33580,0,65700,1448,0,0,0,0
i,0x00000000,1716771493.147200,172.16.3.2,5101,172.16.1.2,18194,10324,14480,0,65728,65700,6,6,4,1460,440,1,992,41,33580,0,65700,0,0,0,0,0
i,0x00000000,1716771493.156741,172.16.3.2,5101,172.16.1.2,18194,10324,14480,0,65728,65700,6,6,4,1460,440,1,992,41,33580,0,65700,0,0,0,0,0
o,0x00000000,1716771493.156747,172.16.3.2,5101,172.16.1.2,18194,10324,14480,0,65728,65700,6,6,4,1460,440,1,993,41,33580,0,65700,1448,0,0,0,0
i,0x00000000,1716771493.166899,172.16.3.2,5101,172.16.1.2,18194,10324,14480,0,65728,65700,6,6,4,1460,440,1,992,41,33580,0,65700,0,0,0,0,0
o,0x00000000,1716771493.199906,172.16.3.2,5101,172.16.1.2,18194,10324,14480,0,65728,65700,6,6,4,1460,440,1,993,41,33580,0,65700,0,0,0,0,0
i,0x00000000,1716771493.227292,172.16.3.2,5101,172.16.1.2,18194,10324,14480,0,65728,65700,6,6,4,1460,440,1,992,41,33580,0,65700,0,0,0,0,0
o,0x00000000,1716771493.260100,172.16.3.2,5101,172.16.1.2,18194,10324,14480,0,65728,65700,6,6,4,1460,440,1,993,41,33580,0,65700,0,0,0,0,0
i,0x00000000,1716771493.366790,172.16.3.2,5101,172.16.1.2,18194,10324,14480,0,65728,65700,6,6,4,1460,440,1,992,41,33580,0,65700,0,0,0,0,0
o,0x00000000,1716771493.399497,172.16.3.2,5101,172.16.1.2,18194,10324,14480,0,65728,65700,6,6,4,1460,440,1,993,41,33580,0,65700,0,0,0,0,0
i,0x00000000,1716771493.477507,172.16.3.2,5101,172.16.1.2,18194,10324,14480,0,65728,65700,6,6,4,1460,440,1,992,41,33580,0,65700,0,0,0,0,0
i,0x00000000,1716771493.486726,172.16.3.2,5101,172.16.1.2,18194,10324,14480,0,65728,65700,6,6,4,1460,440,1,992,41,33580,0,65700,0,0,0,0,0
o,0x00000000,1716771493.486738,172.16.3.2,5101,172.16.1.2,18194,10324,14480,0,65728,65700,6,6,4,1460,440,1,993,41,33580,0,65700,1448,0,0,0,0
i,0x00000000,1716771493.497308,172.16.3.2,5101,172.16.1.2,18194,10324,14480,0,65728,65700,6,6,4,1460,440,1,992,41,33580,0,65700,0,0,0,0,0
i,0x00000000,1716771493.516936,172.16.3.2,5101,172.16.1.2,18194,10324,14480,0,65728,65700,6,6,4,1460,440,1,992,41,33580,0,65700,0,0,0,0,0
o,0x00000000,1716771493.516945,172.16.3.2,5101,172.16.1.2,18194,10324,14480,0,65728,65700,6,6,4,1460,440,1,993,41,33580,0,65700,1448,0,0,0,0
i,0x00000000,1716771493.526286,172.16.3.2,5101,172.16.1.2,18194,10324,14480,0,65728,65700,6,6,4,1460,440,1,992,41,33580,0,65700,0,0,0,0,0
i,0x00000000,1716771493.536825,172.16.3.2,5101,172.16.1.2,18194,10324,14480,0,65728,65700,6,6,4,1460,440,1,992,41,33580,0,65700,0,0,0,0,0
o,0x00000000,1716771493.536830,172.16.3.2,5101,172.16.1.2,18194,10324,14480,0,65728,65700,6,6,4,1460,440,1,993,41,33580,0,65700,1448,0,0,0,0
i,0x00000000,1716771493.547271,172.16.3.2,5101,172.16.1.2,18194,10324,14480,0,65728,65700,6,6,4,1460,440,1,992,41,33580,0,65700,0,0,0,0,0
i,0x00000000,1716771493.567091,172.16.3.2,5101,172.16.1.2,18194,10324,14480,0,65728,65700,6,6,4,1460,440,1,992,41,33580,0,65700,0,0,0,0,0
o,0x00000000,1716771493.567106,172.16.3.2,5101,172.16.1.2,18194,10324,14480,0,65728,65700,6,6,4,1460,440,1,993,41,33580,0,65700,1448,0,0,0,0
i,0x00000000,1716771493.576391,172.16.3.2,5101,172.16.1.2,18194,10324,14480,0,65728,65700,6,6,4,1460,440,1,992,41,33580,0,65700,0,0,0,0,0
i,0x00000000,1716771493.587065,172.16.3.2,5101,172.16.1.2,18194,10324,14480,0,65728,65700,6,6,4,1460,440,1,992,41,33580,0,65700,0,0,0,0,0
o,0x00000000,1716771493.587071,172.16.3.2,5101,172.16.1.2,18194,10324,14480,0,65728,65700,6,6,4,1460,440,1,993,41,33580,0,65700,1448,0,0,0,0
i,0x00000000,1716771493.596574,172.16.3.2,5101,172.16.1.2,18194,10324,14480,0,65728,65700,6,6,4,1460,440,1,992,41,33580,0,65700,0,0,0,0,0
i,0x00000000,1716771493.607164,172.16.3.2,5101,172.16.1.2,18194,10324,14480,0,65728,65700,6,6,4,1460,440,1,992,41,33580,0,65700,0,0,0,0,0
o,0x00000000,1716771493.607171,172.16.3.2,5101,172.16.1.2,18194,10324,14480,0,65728,65700,6,6,4,1460,440,1,993,41,33580,0,65700,1448,0,0,0,0
i,0x00000000,1716771493.627289,172.16.3.2,5101,172.16.1.2,18194,10324,14480,0,65728,65700,6,6,4,1460,440,1,992,41,33580,0,65700,0,0,0,0,0
i,0x00000000,1716771493.637619,172.16.3.2,5101,172.16.1.2,18194,10324,14480,0,65728,65700,6,6,4,1460,440,1,992,41,33580,0,65700,0,0,0,0,0
o,0x00000000,1716771493.637627,172.16.3.2,5101,172.16.1.2,18194,10324,14480,0,65728,65700,6,6,4,1460,440,1,993,41,33580,0,65700,1448,0,0,0,0
i,0x00000000,1716771493.646606,172.16.3.2,5101,172.16.1.2,18194,10324,14480,0,65728,65700,6,6,4,1460,440,1,992,41,33580,0,65700,0,0,0,0,0
i,0x00000000,1716771493.657152,172.16.3.2,5101,172.16.1.2,18194,10324,14480,0,65728,65700,6,6,4,1460,440,1,992,41,33580,0,65700,0,0,0,0,0
o,0x00000000,1716771493.657160,172.16.3.2,5101,172.16.1.2,18194,10324,14480,0,65728,65700,6,6,4,1460,440,1,993,41,33580,0,65700,1448,0,0,0,0
i,0x00000000,1716771493.667571,172.16.3.2,5101,172.16.1.2,18194,10324,14480,0,65728,65700,6,6,4,1460,440,1,992,41,33580,0,65700,0,0,0,0,0
o,0x00000000,1716771493.669635,10.0.2.15,22,10.0.2.2,60131,1073725440,14600,0,65535,65700,0,0,4,1460,1,0,4,24,33580,108,65700,0,0,0,0,0
i,0x00000000,1716771493.670369,10.0.2.15,22,10.0.2.2,60131,1073725440,14600,0,65535,65700,0,0,4,1460,1,0,4,24,33580,108,65700,0,108,0,0,0
i,0x00000000,1716771493.687054,172.16.3.2,5101,172.16.1.2,18194,10324,14480,0,65728,65700,6,6,4,1460,440,1,992,41,33580,0,65700,0,0,0,0,0
o,0x00000000,1716771493.687064,172.16.3.2,5101,172.16.1.2,18194,10324,14480,0,65728,65700,6,6,4,1460,440,1,993,41,33580,0,65700,1448,0,0,0,0
i,0x00000000,1716771493.696454,172.16.3.2,5101,172.16.1.2,18194,10324,14480,0,65728,65700,6,6,4,1460,440,1,992,41,33580,0,65700,0,0,0,0,0
o,0x00000000,1716771493.729882,172.16.3.2,5101,172.16.1.2,18194,10324,14480,0,65728,65700,6,6,4,1460,440,1,993,41,33580,0,65700,0,0,0,0,0
i,0x00000000,1716771493.757652,172.16.3.2,5101,172.16.1.2,18194,10324,14480,0,65728,65700,6,6,4,1460,440,1,992,41,33580,0,65700,0,0,0,0,0
i,0x00000000,1716771493.776578,172.16.3.2,5101,172.16.1.2,18194,10324,14480,0,65728,65700,6,6,4,1460,440,1,992,41,33580,0,65700,0,0,0,0,0
o,0x00000000,1716771493.776594,172.16.3.2,5101,172.16.1.2,18194,10324,14480,0,65728,65700,6,6,4,1460,440,1,993,41,33580,0,65700,1448,0,0,0,0
i,0x00000000,1716771493.927515,172.16.3.2,5101,172.16.1.2,18194,10324,14480,0,65728,65700,6,6,4,1460,440,1,992,41,33580,0,65700,0,0,0,0,0
i,0x00000000,1716771493.947343,172.16.3.2,5101,172.16.1.2,18194,10324,14480,0,65728,65700,6,6,4,1460,440,1,992,41,33580,0,65700,0,0,0,0,0
o,0x00000000,1716771493.947362,172.16.3.2,5101,172.16.1.2,18194,10324,14480,0,65728,65700,6,6,4,1460,440,1,993,41,33580,0,65700,1448,0,0,0,0
i,0x00000000,1716771494.027665,172.16.3.2,5101,172.16.1.2,18194,10324,14480,0,65728,65700,6,6,4,1460,440,1,992,41,33580,0,65700,0,0,0,0,0
i,0x00000000,1716771494.037876,172.16.3.2,5101,172.16.1.2,18194,10324,14480,0,65728,65700,6,6,4,1460,440,1,992,41,33580,0,65700,0,0,0,0,0
o,0x00000000,1716771494.037900,172.16.3.2,5101,172.16.1.2,18194,10324,14480,0,65728,65700,6,6,4,1460,440,1,993,41,33580,0,65700,1448,0,0,0,0
i,0x00000000,1716771494.057475,172.16.3.2,5101,172.16.1.2,18194,10324,14480,0,65728,65700,6,6,4,1460,440,1,992,41,33580,0,65700,0,0,0,0,0
i,0x00000000,1716771494.067559,172.16.3.2,5101,172.16.1.2,18194,10324,14480,0,65728,65700,6,6,4,1460,440,1,992,41,33580,0,65700,0,0,0,0,0
o,0x00000000,1716771494.067583,172.16.3.2,5101,172.16.1.2,18194,10324,14480,0,65728,65700,6,6,4,1460,440,1,993,41,33580,0,65700,1448,0,0,0,0
i,0x00000000,1716771494.076993,172.16.3.2,5101,172.16.1.2,18194,10324,14480,0,65728,65700,6,6,4,1460,440,1,992,41,33580,0,65700,0,0,0,0,0
i,0x00000000,1716771494.087503,172.16.3.2,5101,172.16.1.2,18194,10324,14480,0,65728,65700,6,6,4,1460,440,1,992,41,33580,0,65700,0,0,0,0,0
o,0x00000000,1716771494.087519,172.16.3.2,5101,172.16.1.2,18194,10324,14480,0,65728,65700,6,6,4,1460,440,1,993,41,33580,0,65700,1448,0,0,0,0
i,0x00000000,1716771494.096897,172.16.3.2,5101,172.16.1.2,18194,10324,14480,0,65728,65700,6,6,4,1460,440,1,992,41,33580,0,65700,0,0,0,0,0
i,0x00000000,1716771494.117269,172.16.3.2,5101,172.16.1.2,18194,10324,14480,0,65728,65700,6,6,4,1460,440,1,992,41,33580,0,65700,0,0,0,0,0
o,0x00000000,1716771494.117281,172.16.3.2,5101,172.16.1.2,18194,10324,14480,0,65728,65700,6,6,4,1460,440,1,993,41,33580,0,65700,1448,0,0,0,0
i,0x00000000,1716771494.126811,172.16.3.2,5101,172.16.1.2,18194,10324,14480,0,65728,65700,6,6,4,1460,440,1,992,41,33580,0,65700,0,0,0,0,0
i,0x00000000,1716771494.137184,172.16.3.2,5101,172.16.1.2,18194,10324,14480,0,65728,65700,6,6,4,1460,440,1,992,41,33580,0,65700,0,0,0,0,0
o,0x00000000,1716771494.137198,172.16.3.2,5101,172.16.1.2,18194,10324,14480,0,65728,65700,6,6,4,1460,440,1,993,41,33580,0,65700,1448,0,0,0,0
i,0x00000000,1716771494.147843,172.16.3.2,5101,172.16.1.2,18194,10324,14480,0,65728,65700,6,6,4,1460,440,1,992,41,33580,0,65700,0,0,0,0,0
i,0x00000000,1716771494.157672,172.16.3.2,5101,172.16.1.2,18194,10324,14480,0,65728,65700,6,6,4,1460,440,1,992,41,33580,0,65700,0,0,0,0,0
o,0x00000000,1716771494.157680,172.16.3.2,5101,172.16.1.2,18194,10324,14480,0,65728,65700,6,6,4,1460,440,1,993,41,33580,0,65700,1448,0,0,0,0
i,0x00000000,1716771494.178081,172.16.3.2,5101,172.16.1.2,18194,10324,14480,0,65728,65700,6,6,4,1460,440,1,992,41,33580,0,65700,0,0,0,0,0
i,0x00000000,1716771494.187588,172.16.3.2,5101,172.16.1.2,18194,10324,14480,0,65728,65700,6,6,4,1460,440,1,992,41,33580,0,65700,0,0,0,0,0
o,0x00000000,1716771494.187596,172.16.3.2,5101,172.16.1.2,18194,10324,14480,0,65728,65700,6,6,4,1460,440,1,993,41,33580,0,65700,1448,0,0,0,0
i,0x00000000,1716771494.198110,172.16.3.2,5101,172.16.1.2,18194,10324,14480,0,65728,65700,6,6,4,1460,440,1,992,41,33580,0,65700,0,0,0,0,0
i,0x00000000,1716771494.207101,172.16.3.2,5101,172.16.1.2,18194,10324,14480,0,65728,65700,6,6,4,1460,440,1,992,41,33580,0,65700,0,0,0,0,0
o,0x00000000,1716771494.207107,172.16.3.2,5101,172.16.1.2,18194,10324,14480,0,65728,65700,6,6,4,1460,440,1,993,41,33580,0,65700,1448,0,0,0,0
i,0x00000000,1716771494.217413,172.16.3.2,5101,172.16.1.2,18194,10324,14480,0,65728,65700,6,6,4,1460,440,1,992,41,33580,0,65700,0,0,0,0,0
i,0x00000000,1716771494.237543,172.16.3.2,5101,172.16.1.2,18194,10324,14480,0,65728,65700,6,6,4,1460,440,1,992,41,33580,0,65700,0,0,0,0,0
o,0x00000000,1716771494.237553,172.16.3.2,5101,172.16.1.2,18194,10324,14480,0,65728,65700,6,6,4,1460,440,1,993,41,33580,0,65700,1448,0,0,0,0
i,0x00000000,1716771494.328145,172.16.3.2,5101,172.16.1.2,18194,10324,14480,0,65728,65700,6,6,4,1460,440,1,992,41,33580,0,65700,0,0,0,0,0
i,0x00000000,1716771494.337438,172.16.3.2,5101,172.16.1.2,18194,10324,14480,0,65728,65700,6,6,4,1460,440,1,992,41,33580,0,65700,0,0,0,0,0
o,0x00000000,1716771494.337450,172.16.3.2,5101,172.16.1.2,18194,10324,14480,0,65728,65700,6,6,4,1460,440,1,993,41,33580,0,65700,1448,0,0,0,0
i,0x00000000,1716771494.346655,172.16.3.2,5101,172.16.1.2,18194,10324,14480,0,65728,65700,6,6,4,1460,440,1,992,41,33580,0,65700,0,0,0,0,0
i,0x00000000,1716771494.357886,172.16.3.2,5101,172.16.1.2,18194,10324,14480,0,65728,65700,6,6,4,1460,440,1,992,41,33580,0,65700,0,0,0,0,0
o,0x00000000,1716771494.357896,172.16.3.2,5101,172.16.1.2,18194,10324,14480,0,65728,65700,6,6,4,1460,440,1,993,41,33580,0,65700,1448,0,0,0,0
i,0x00000000,1716771494.517823,172.16.3.2,5101,172.16.1.2,18194,10324,14480,0,65728,65700,6,6,4,1460,440,1,992,41,33580,0,65700,0,0,0,0,0
i,0x00000000,1716771494.527210,172.16.3.2,5101,172.16.1.2,18194,10324,14480,0,65728,65700,6,6,4,1460,440,1,992,41,33580,0,65700,0,0,0,0,0
o,0x00000000,1716771494.527222,172.16.3.2,5101,172.16.1.2,18194,10324,14480,0,65728,65700,6,6,4,1460,440,1,993,41,33580,0,65700,1448,0,0,0,0
i,0x00000000,1716771494.618147,172.16.3.2,5101,172.16.1.2,18194,10324,14480,0,65728,65700,6,6,4,1460,440,1,992,41,33580,0,65700,0,0,0,0,0
i,0x00000000,1716771494.628384,172.16.3.2,5101,172.16.1.2,18194,10324,14480,0,65728,65700,6,6,4,1460,440,1,992,41,33580,0,65700,0,0,0,0,0
o,0x00000000,1716771494.628396,172.16.3.2,5101,172.16.1.2,18194,10324,14480,0,65728,65700,6,6,4,1460,440,1,993,41,33580,0,65700,1448,0,0,0,0
i,0x00000000,1716771494.637903,172.16.3.2,5101,172.16.1.2,18194,10324,14480,0,65728,65700,6,6,4,1460,440,1,992,41,33580,0,65700,0,0,0,0,0
i,0x00000000,1716771494.648513,172.16.3.2,5101,172.16.1.2,18194,10324,14480,0,65728,65700,6,6,4,1460,440,1,992,41,33580,0,65700,0,0,0,0,0
o,0x00000000,1716771494.648533,172.16.3.2,5101,172.16.1.2,18194,10324,14480,0,65728,65700,6,6,4,1460,440,1,993,41,33580,0,65700,1448,0,0,0,0
i,0x00000000,1716771494.667562,172.16.3.2,5101,172.16.1.2,18194,10324,14480,0,65728,65700,6,6,4,1460,440,1,992,41,33580,0,65700,0,0,0,0,0
o,0x00000000,1716771494.669546,10.0.2.15,22,10.0.2.2,60131,1073725440,14600,0,65535,65700,0,0,4,1460,1,0,4,24,33580,108,65700,0,0,0,0,0
i,0x00000000,1716771494.670211,10.0.2.15,22,10.0.2.2,60131,1073725440,14600,0,65535,65700,0,0,4,1460,1,0,4,24,33580,108,65700,0,108,0,0,0
i,0x00000000,1716771494.678157,172.16.3.2,5101,172.16.1.2,18194,10324,14480,0,65728,65700,6,6,4,1460,440,1,992,41,33580,0,65700,0,0,0,0,0
o,0x00000000,1716771494.678171,172.16.3.2,5101,172.16.1.2,18194,10324,14480,0,65728,65700,6,6,4,1460,440,1,993,41,33580,0,65700,1448,0,0,0,0
i,0x00000000,1716771494.688847,172.16.3.2,5101,172.16.1.2,18194,10324,14480,0,65728,65700,6,6,4,1460,440,1,992,41,33580,0,65700,0,0,0,0,0
i,0x00000000,1716771494.697830,172.16.3.2,5101,172.16.1.2,18194,10324,14480,0,65728,65700,6,6,4,1460,440,1,992,41,33580,0,65700,0,0,0,0,0
o,0x00000000,1716771494.697842,172.16.3.2,5101,172.16.1.2,18194,10324,14480,0,65728,65700,6,6,4,1460,440,1,993,41,33580,0,65700,1448,0,0,0,0
i,0x00000000,1716771494.708222,172.16.3.2,5101,172.16.1.2,18194,10324,14480,0,65728,65700,6,6,4,1460,440,1,992,41,33580,0,65700,0,0,0,0,0
i,0x00000000,1716771494.728277,172.16.3.2,5101,172.16.1.2,18194,10324,14480,0,65728,65700,6,6,4,1460,440,1,992,41,33580,0,65700,0,0,0,0,0
o,0x00000000,1716771494.728288,172.16.3.2,5101,172.16.1.2,18194,10324,14480,0,65728,65700,6,6,4,1460,440,1,993,41,33580,0,65700,1448,0,0,0,0
i,0x00000000,1716771494.738500,172.16.3.2,5101,172.16.1.2,18194,10324,14480,0,65728,65700,6,6,4,1460,440,1,992,41,33580,0,65700,0,0,0,0,0
i,0x00000000,1716771494.747972,172.16.3.2,5101,172.16.1.2,18194,10324,14480,0,65728,65700,6,6,4,1460,440,1,992,41,33580,0,65700,0,0,0,0,0
o,0x00000000,1716771494.747979,172.16.3.2,5101,172.16.1.2,18194,10324,14480,0,65728,65700,6,6,4,1460,440,1,993,41,33580,0,65700,1448,0,0,0,0
i,0x00000000,1716771494.757647,172.16.3.2,5101,172.16.1.2,18194,10324,14480,0,65728,65700,6,6,4,1460,440,1,992,41,33580,0,65700,0,0,0,0,0
i,0x00000000,1716771494.768821,172.16.3.2,5101,172.16.1.2,18194,10324,14480,0,65728,65700,6,6,4,1460,440,1,992,41,33580,0,65700,0,0,0,0,0
o,0x00000000,1716771494.768828,172.16.3.2,5101,172.16.1.2,18194,10324,14480,0,65728,65700,6,6,4,1460,440,1,993,41,33580,0,65700,1448,0,0,0,0
i,0x00000000,1716771494.788482,172.16.3.2,5101,172.16.1.2,18194,10324,14480,0,65728,65700,6,6,4,1460,440,1,992,41,33580,0,65700,0,0,0,0,0
i,0x00000000,1716771494.797824,172.16.3.2,5101,172.16.1.2,18194,10324,14480,0,65728,65700,6,6,4,1460,440,1,992,41,33580,0,65700,0,0,0,0,0
o,0x00000000,1716771494.797830,172.16.3.2,5101,172.16.1.2,18194,10324,14480,0,65728,65700,6,6,4,1460,440,1,993,41,33580,0,65700,1448,0,0,0,0
i,0x00000000,1716771494.808200,172.16.3.2,5101,172.16.1.2,18194,10324,14480,0,65728,65700,6,6,4,1460,440,1,992,41,33580,0,65700,0,0,0,0,0
i,0x00000000,1716771494.817646,172.16.3.2,5101,172.16.1.2,18194,10324,14480,0,65728,65700,6,6,4,1460,440,1,992,41,33580,0,65700,0,0,0,0,0
o,0x00000000,1716771494.817653,172.16.3.2,5101,172.16.1.2,18194,10324,14480,0,65728,65700,6,6,4,1460,440,1,993,41,33580,0,65700,1448,0,0,0,0
i,0x00000000,1716771494.918442,172.16.3.2,5101,172.16.1.2,18194,10324,14480,0,65728,65700,6,6,4,1460,440,1,992,41,33580,0,65700,0,0,0,0,0
i,0x00000000,1716771494.939158,172.16.3.2,5101,172.16.1.2,18194,10324,14480,0,65728,65700,6,6,4,1460,440,1,992,41,33580,0,65700,0,0,0,0,0
o,0x00000000,1716771494.939175,172.16.3.2,5101,172.16.1.2,18194,10324,14480,0,65728,65700,6,6,4,1460,440,1,993,41,33580,0,65700,1448,0,0,0,0
i,0x00000000,1716771494.947895,172.16.3.2,5101,172.16.1.2,18194,10324,14480,0,65728,65700,6,6,4,1460,440,1,992,41,33580,0,65700,0,0,0,0,0
i,0x00000000,1716771494.958308,172.16.3.2,5101,172.16.1.2,18194,10324,14480,0,65728,65700,6,6,4,1460,440,1,992,41,33580,0,65700,0,0,0,0,0
o,0x00000000,1716771494.958315,172.16.3.2,5101,172.16.1.2,18194,10324,14480,0,65728,65700,6,6,4,1460,440,1,993,41,33580,0,65700,1448,0,0,0,0
i,0x00000000,1716771494.968800,172.16.3.2,5101,172.16.1.2,18194,10324,14480,0,65728,65700,6,6,4,1460,440,1,992,41,33580,0,65700,0,0,0,0,0
o,0x00000000,1716771495.008820,172.16.3.2,5101,172.16.1.2,18194,10324,14480,0,65728,65700,6,6,4,1460,440,1,993,41,33580,0,65700,0,0,0,0,0
i,0x00000000,1716771495.108083,172.16.3.2,5101,172.16.1.2,18194,10324,14480,0,65728,65700,6,6,4,1460,440,1,992,41,33580,0,65700,0,0,0,0,0
i,0x00000000,1716771495.118289,172.16.3.2,5101,172.16.1.2,18194,10324,14480,0,65728,65700,6,6,4,1460,440,1,992,41,33580,0,65700,0,0,0,0,0
o,0x00000000,1716771495.118306,172.16.3.2,5101,172.16.1.2,18194,10324,14480,0,65728,65700,6,6,4,1460,440,1,993,41,33580,0,65700,1448,0,0,0,0
i,0x00000000,1716771495.229340,172.16.3.2,5101,172.16.1.2,18194,10324,14480,0,65728,65700,6,6,4,1460,440,1,992,41,33580,0,65700,0,0,0,0,0
i,0x00000000,1716771495.238047,172.16.3.2,5101,172.16.1.2,18194,10324,14480,0,65728,65700,6,6,4,1460,440,1,992,41,33580,0,65700,0,0,0,0,0
o,0x00000000,1716771495.238089,172.16.3.2,5101,172.16.1.2,18194,10324,14480,0,65728,65700,6,6,4,1460,440,1,993,41,33580,0,65700,1448,0,0,0,0
i,0x00000000,1716771495.248367,172.16.3.2,5101,172.16.1.2,18194,10324,14480,0,65728,65700,6,6,4,1460,440,1,992,41,33580,0,65700,0,0,0,0,0
i,0x00000000,1716771495.258821,172.16.3.2,5101,172.16.1.2,18194,10324,14480,0,65728,65700,6,6,4,1460,440,1,992,41,33580,0,65700,0,0,0,0,0
o,0x00000000,1716771495.258838,172.16.3.2,5101,172.16.1.2,18194,10324,14480,0,65728,65700,6,6,4,1460,440,1,993,41,33580,0,65700,1448,0,0,0,0
i,0x00000000,1716771495.278309,172.16.3.2,5101,172.16.1.2,18194,10324,14480,0,65728,65700,6,6,4,1460,440,1,992,41,33580,0,65700,0,0,0,0,0
i,0x00000000,1716771495.287788,172.16.3.2,5101,172.16.1.2,18194,10324,14480,0,65728,65700,6,6,4,1460,440,1,992,41,33580,0,65700,0,0,0,0,0
o,0x00000000,1716771495.287808,172.16.3.2,5101,172.16.1.2,18194,10324,14480,0,65728,65700,6,6,4,1460,440,1,993,41,33580,0,65700,1448,0,0,0,0
i,0x00000000,1716771495.299009,172.16.3.2,5101,172.16.1.2,18194,10324,14480,0,65728,65700,6,6,4,1460,440,1,992,41,33580,0,65700,0,0,0,0,0
i,0x00000000,1716771495.308281,172.16.3.2,5101,172.16.1.2,18194,10324,14480,0,65728,65700,6,6,4,1460,440,1,992,41,33580,0,65700,0,0,0,0,0
o,0x00000000,1716771495.308294,172.16.3.2,5101,172.16.1.2,18194,10324,14480,0,65728,65700,6,6,4,1460,440,1,993,41,33580,0,65700,1448,0,0,0,0
i,0x00000000,1716771495.318597,172.16.3.2,5101,172.16.1.2,18194,10324,14480,0,65728,65700,6,6,4,1460,440,1,992,41,33580,0,65700,0,0,0,0,0
i,0x00000000,1716771495.338285,172.16.3.2,5101,172.16.1.2,18194,10324,14480,0,65728,65700,6,6,4,1460,440,1,992,41,33580,0,65700,0,0,0,0,0
o,0x00000000,1716771495.338305,172.16.3.2,5101,172.16.1.2,18194,10324,14480,0,65728,65700,6,6,4,1460,440,1,993,41,33580,0,65700,1448,0,0,0,0
i,0x00000000,1716771495.348699,172.16.3.2,5101,172.16.1.2,18194,10324,14480,0,65728,65700,6,6,4,1460,440,1,992,41,33580,0,65700,0,0,0,0,0
i,0x00000000,1716771495.359124,172.16.3.2,5101,172.16.1.2,18194,10324,14480,0,65728,65700,6,6,4,1460,440,1,992,41,33580,0,65700,0,0,0,0,0
o,0x00000000,1716771495.359140,172.16.3.2,5101,172.16.1.2,18194,10324,14480,0,65728,65700,6,6,4,1460,440,1,993,41,33580,0,65700,1448,0,0,0,0
i,0x00000000,1716771495.369636,172.16.3.2,5101,172.16.1.2,18194,10324,14480,0,65728,65700,6,6,4,1460,440,1,992,41,33580,0,65700,0,0,0,0,0
i,0x00000000,1716771495.377775,172.16.3.2,5101,172.16.1.2,18194,10324,14480,0,65728,65700,6,6,4,1460,440,1,992,41,33580,0,65700,0,0,0,0,0
