enable_time_secs=1716772641	enable_time_usecs=124199	siftrver=1.2.4	hz=100	tcp_rtt_scale=32	sysname=FreeBSD	sysver=1301000	ipmode=4
o,0x00000000,1716772641.124238,10.0.2.15,22,10.0.2.2,54019,1073725440,17298,0,65535,65700,0,0,4,1460,1,0,4,23,33580,44,65700,0,0,0,0,0
o,0x00000000,1716772641.124356,10.0.2.15,22,10.0.2.2,54019,1073725440,17298,0,65535,65700,0,0,4,1460,1,0,4,23,33580,80,65700,0,44,0,0,0
i,0x00000000,1716772641.124748,10.0.2.15,22,10.0.2.2,54019,1073725440,17298,0,65535,65700,0,0,4,1460,1,0,4,23,33580,80,65700,0,80,0,0,0
i,0x00000000,1716772641.124752,10.0.2.15,22,10.0.2.2,54019,1073725440,17342,0,65535,65700,0,0,4,1460,1,0,4,23,33580,36,65700,0,36,0,0,0
o,0x00000000,1716772641.124811,10.0.2.15,22,10.0.2.2,54019,1073725440,17378,0,65535,65700,0,0,4,1460,1,0,4,23,33580,36,65700,0,0,0,0,0
i,0x00000000,1716772641.125339,10.0.2.15,22,10.0.2.2,54019,1073725440,17378,0,65535,65700,0,0,4,1460,1,0,4,23,33580,36,65700,0,36,0,0,0
o,0x00000000,1716772641.125543,10.0.2.15,22,10.0.2.2,54019,1073725440,17414,0,65535,65700,0,0,4,1460,1,0,4,24,33580,176,65700,0,0,0,0,0
i,0x00000000,1716772641.126251,10.0.2.15,22,10.0.2.2,54019,1073725440,17414,0,65535,65700,0,0,4,1460,1,0,4,24,33580,176,65700,0,176,0,0,0
i,0x00000000,1716772641.127057,10.0.2.15,22,10.0.2.2,54019,1073725440,17590,0,65535,65700,0,0,4,1460,1,0,4,24,33580,0,65700,0,0,0,0,0
i,0x00000000,1716772641.127060,10.0.2.15,22,10.0.2.2,54019,1073725440,17590,0,65535,65700,0,0,4,1460,1,0,4,24,33580,0,65700,36,0,0,0,0
o,0x00000000,1716772641.127063,10.0.2.15,22,10.0.2.2,54019,1073725440,17590,0,65535,65700,0,0,4,1460,1,0,5,24,33580,0,65700,96,0,0,0,0
i,0x00000000,1716772641.127135,10.0.2.15,22,10.0.2.2,54019,1073725440,17590,0,65535,65700,0,0,4,1460,1,0,4,24,33580,0,65700,96,0,0,0,0
o,0x00000000,1716772641.127139,10.0.2.15,22,10.0.2.2,54019,1073725440,17590,0,65535,65604,0,0,5,1460,1,0,7,24,33580,0,65700,96,0,0,0,0
o,0x00000000,1716772641.127748,10.0.2.15,22,10.0.2.2,54019,1073725440,17590,0,65535,65604,0,0,8,1460,1,0,4,24,33580,0,65700,0,0,0,0,0
i,0x00000000,1716772641.128237,10.0.2.15,22,10.0.2.2,54019,1073725440,17590,0,65535,65604,0,0,8,1460,1,0,20,24,33580,0,65700,0,1,0,0,0
i,0x00000000,1716772642.441117,172.16.3.2,5101,172.16.1.2,59857,10103,14480,0,65728,65700,6,6,4,1460,768,1,992,116,33580,0,65700,0,0,0,0,0
o,0x00000000,1716772642.441240,172.16.3.2,5101,172.16.1.2,59857,10103,14480,0,65728,65700,6,6,4,1460,768,1,996,116,33580,1,65700,0,0,0,0,0
i,0x00000000,1716772642.561641,172.16.3.2,5101,172.16.1.2,59857,10103,14480,0,65728,65700,6,6,4,1460,768,1,996,116,33580,1,65700,0,1,0,0,0
i,0x00000000,1716772642.561659,172.16.3.2,5101,172.16.1.2,59857,10103,14480,0,65728,65728,6,6,4,1460,720,1,996,108,33580,0,65700,4,0,0,0,0
o,0x00000000,1716772642.561667,172.16.3.2,5101,172.16.1.2,59857,10103,14480,0,65728,65728,6,6,4,1460,720,1,997,108,33580,0,65700,128,0,0,0,0
o,0x00000000,1716772642.562054,172.16.3.2,5101,172.16.1.2,59857,10103,14480,0,65728,65728,6,6,4,1460,720,1,996,108,33580,1,65700,0,0,0,0,0
o,0x00000000,1716772642.562210,10.0.2.15,22,10.0.2.2,60131,1073725440,14600,0,65535,65700,0,0,4,1460,1,0,4,24,33580,84,65700,0,0,0,0,0
i,0x00000000,1716772642.562947,10.0.2.15,22,10.0.2.2,60131,1073725440,14600,0,65535,65700,0,0,4,1460,1,0,4,24,33580,84,65700,0,84,0,0,0
i,0x00000000,1716772642.711060,172.16.3.2,5101,172.16.1.2,59857,10103,14480,0,65728,65728,6,6,4,1460,720,1,996,108,33580,1,65700,0,1,0,0,0
i,0x00000000,1716772642.801259,172.16.3.2,5101,172.16.1.2,42596,10103,14480,0,65728,65700,6,6,4,1460,768,1,992,116,33580,0,65700,0,0,0,0,0
o,0x00000000,1716772642.803101,172.16.3.2,5101,172.16.1.2,59857,10103,14480,0,65728,65728,6,6,4,1460,686,1,996,99,33580,1,65700,0,0,0,0,0
o,0x00000000,1716772642.803199,172.16.3.2,5101,172.16.1.2,59857,10103,14480,0,65728,65728,6,6,4,1460,686,1,996,99,33580,2,65700,0,1,0,0,0
o,0x00000000,1716772642.803635,10.0.2.15,22,10.0.2.2,60131,1073725440,14600,0,65535,65700,0,0,4,1460,1,0,4,24,33580,108,65700,0,0,0,0,0
i,0x00000000,1716772642.804260,10.0.2.15,22,10.0.2.2,60131,1073725440,14600,0,65535,65700,0,0,4,1460,1,0,4,24,33580,108,65700,0,108,0,0,0
o,0x00000000,1716772642.839901,172.16.3.2,5101,172.16.1.2,42596,10103,14480,0,65728,65700,6,6,4,1460,768,1,993,116,33580,0,65700,0,0,0,0,0
i,0x00000000,1716772642.991201,172.16.3.2,5101,172.16.1.2,59857,10103,14480,0,65728,65728,6,6,4,1460,686,1,996,99,33580,2,65700,0,2,0,0,0
i,0x00000000,1716772643.021374,172.16.3.2,5101,172.16.1.2,42596,10103,14480,0,65728,65700,6,6,4,1460,768,1,992,116,33580,0,65700,0,0,0,0,0
i,0x00000000,1716772643.031624,172.16.3.2,5101,172.16.1.2,42596,10103,14480,0,65728,65700,6,6,4,1460,768,1,992,116,33580,0,65700,0,0,0,0,0
o,0x00000000,1716772643.031638,172.16.3.2,5101,172.16.1.2,42596,10103,14480,0,65728,65700,6,6,4,1460,768,1,993,116,33580,0,65700,1448,0,0,0,0
i,0x00000000,1716772643.040998,172.16.3.2,5101,172.16.1.2,42596,10103,14480,0,65728,65700,6,6,4,1460,768,1,992,116,33580,0,65700,0,0,0,0,0
i,0x00000000,1716772643.051306,172.16.3.2,5101,172.16.1.2,42596,10103,14480,0,65728,65700,6,6,4,1460,768,1,992,116,33580,0,65700,0,0,0,0,0
o,0x00000000,1716772643.051313,172.16.3.2,5101,172.16.1.2,42596,10103,14480,0,65728,65700,6,6,4,1460,768,1,993,116,33580,0,65700,1448,0,0,0,0
i,0x00000000,1716772643.071092,172.16.3.2,5101,172.16.1.2,42596,10103,14480,0,65728,65700,6,6,4,1460,768,1,992,116,33580,0,65700,0,0,0,0,0
i,0x00000000,1716772643.081386,172.16.3.2,5101,172.16.1.2,42596,10103,14480,0,65728,65700,6,6,4,1460,768,1,992,116,33580,0,65700,0,0,0,0,0
o,0x00000000,1716772643.081393,172.16.3.2,5101,172.16.1.2,42596,10103,14480,0,65728,65700,6,6,4,1460,768,1,993,116,33580,0,65700,1448,0,0,0,0
i,0x00000000,1716772643.091815,172.16.3.2,5101,172.16.1.2,42596,10103,14480,0,65728,65700,6,6,4,1460,768,1,992,116,33580,0,65700,0,0,0,0,0
i,0x00000000,1716772643.101294,172.16.3.2,5101,172.16.1.2,42596,10103,14480,0,65728,65700,6,6,4,1460,768,1,992,116,33580,0,65700,0,0,0,0,0
o,0x00000000,1716772643.101301,172.16.3.2,5101,172.16.1.2,42596,10103,14480,0,65728,65700,6,6,4,1460,768,1,993,116,33580,0,65700,1448,0,0,0,0
i,0x00000000,1716772643.111601,172.16.3.2,5101,172.16.1.2,42596,10103,14480,0,65728,65700,6,6,4,1460,768,1,992,116,33580,0,65700,0,0,0,0,0
i,0x00000000,1716772643.132194,172.16.3.2,5101,172.16.1.2,42596,10103,14480,0,65728,65700,6,6,4,1460,768,1,992,116,33580,0,65700,0,0,0,0,0
o,0x00000000,1716772643.132206,172.16.3.2,5101,172.16.1.2,42596,10103,14480,0,65728,65700,6,6,4,1460,768,1,993,116,33580,0,65700,1448,0,0,0,0
i,0x00000000,1716772643.442173,172.16.3.2,5101,172.16.1.2,42596,10103,14480,0,65728,65700,6,6,4,1460,768,1,992,116,33580,0,65700,0,0,0,0,0
i,0x00000000,1716772643.452359,172.16.3.2,5101,172.16.1.2,42596,10103,14480,0,65728,65700,6,6,4,1460,768,1,992,116,33580,0,65700,0,0,0,0,0
o,0x00000000,1716772643.452370,172.16.3.2,5101,172.16.1.2,42596,10103,14480,0,65728,65700,6,6,4,1460,768,1,993,116,33580,0,65700,1448,0,0,0,0
i,0x00000000,1716772643.462510,172.16.3.2,5101,172.16.1.2,42596,10103,14480,0,65728,65700,6,6,4,1460,768,1,992,116,33580,0,65700,0,0,0,0,0
i,0x00000000,1716772643.472053,172.16.3.2,5101,172.16.1.2,42596,10103,14480,0,65728,65700,6,6,4,1460,768,1,992,116,33580,0,65700,0,0,0,0,0
o,0x00000000,1716772643.472060,172.16.3.2,5101,172.16.1.2,42596,10103,14480,0,65728,65700,6,6,4,1460,768,1,993,116,33580,0,65700,1448,0,0,0,0
i,0x00000000,1716772643.492310,172.16.3.2,5101,172.16.1.2,42596,10103,14480,0,65728,65700,6,6,4,1460,768,1,992,116,33580,0,65700,0,0,0,0,0
i,0x00000000,1716772643.502253,172.16.3.2,5101,172.16.1.2,42596,10103,14480,0,65728,65700,6,6,4,1460,768,1,992,116,33580,0,65700,0,0,0,0,0
o,0x00000000,1716772643.502259,172.16.3.2,5101,172.16.1.2,42596,10103,14480,0,65728,65700,6,6,4,1460,768,1,993,116,33580,0,65700,1448,0,0,0,0
i,0x00000000,1716772643.511654,172.16.3.2,5101,172.16.1.2,42596,10103,14480,0,65728,65700,6,6,4,1460,768,1,992,116,33580,0,65700,0,0,0,0,0
i,0x00000000,1716772643.521941,172.16.3.2,5101,172.16.1.2,42596,10103,14480,0,65728,65700,6,6,4,1460,768,1,992,116,33580,0,65700,0,0,0,0,0
o,0x00000000,1716772643.521951,172.16.3.2,5101,172.16.1.2,42596,10103,14480,0,65728,65700,6,6,4,1460,768,1,993,116,33580,0,65700,1448,0,0,0,0
i,0x00000000,1716772643.532312,172.16.3.2,5101,172.16.1.2,42596,10103,14480,0,65728,65700,6,6,4,1460,768,1,992,116,33580,0,65700,0,0,0,0,0
i,0x00000000,1716772643.551097,172.16.3.2,5101,172.16.1.2,42596,10103,14480,0,65728,65700,6,6,4,1460,768,1,992,116,33580,0,65700,0,0,0,0,0
o,0x00000000,1716772643.551106,172.16.3.2,5101,172.16.1.2,42596,10103,14480,0,65728,65700,6,6,4,1460,768,1,993,116,33580,0,65700,1448,0,0,0,0
i,0x00000000,1716772643.562360,172.16.3.2,5101,172.16.1.2,42596,10103,14480,0,65728,65700,6,6,4,1460,768,1,992,116,33580,0,65700,0,0,0,0,0
i,0x00000000,1716772643.572043,172.16.3.2,5101,172.16.1.2,42596,10103,14480,0,65728,65700,6,6,4,1460,768,1,992,116,33580,0,65700,0,0,0,0,0
o,0x00000000,1716772643.572057,172.16.3.2,5101,172.16.1.2,42596,10103,14480,0,65728,65700,6,6,4,1460,768,1,993,116,33580,0,65700,1448,0,0,0,0
i,0x00000000,1716772643.582117,172.16.3.2,5101,172.16.1.2,42596,10103,14480,0,65728,65700,6,6,4,1460,768,1,992,116,33580,0,65700,0,0,0,0,0
i,0x00000000,1716772643.591418,172.16.3.2,5101,172.16.1.2,42596,10103,14480,0,65728,65700,6,6,4,1460,768,1,992,116,33580,0,65700,0,0,0,0,0
o,0x00000000,1716772643.591429,172.16.3.2,5101,172.16.1.2,42596,10103,14480,0,65728,65700,6,6,4,1460,768,1,993,116,33580,0,65700,1448,0,0,0,0
i,0x00000000,1716772643.612296,172.16.3.2,5101,172.16.1.2,42596,10103,14480,0,65728,65700,6,6,4,1460,768,1,992,116,33580,0,65700,0,0,0,0,0
i,0x00000000,1716772643.621582,172.16.3.2,5101,172.16.1.2,42596,10103,14480,0,65728,65700,6,6,4,1460,768,1,992,116,33580,0,65700,0,0,0,0,0
o,0x00000000,1716772643.621594,172.16.3.2,5101,172.16.1.2,42596,10103,14480,0,65728,65700,6,6,4,1460,768,1,993,116,33580,0,65700,1448,0,0,0,0
i,0x00000000,1716772643.631949,172.16.3.2,5101,172.16.1.2,42596,10103,14480,0,65728,65700,6,6,4,1460,768,1,992,116,33580,0,65700,0,0,0,0,0
i,0x00000000,1716772643.642235,172.16.3.2,5101,172.16.1.2,42596,10103,14480,0,65728,65700,6,6,4,1460,768,1,992,116,33580,0,65700,0,0,0,0,0
o,0x00000000,1716772643.642245,172.16.3.2,5101,172.16.1.2,42596,10103,14480,0,65728,65700,6,6,4,1460,768,1,993,116,33580,0,65700,1448,0,0,0,0
i,0x00000000,1716772643.651989,172.16.3.2,5101,172.16.1.2,42596,10103,14480,0,65728,65700,6,6,4,1460,768,1,992,116,33580,0,65700,0,0,0,0,0
i,0x00000000,1716772643.671764,172.16.3.2,5101,172.16.1.2,42596,10103,14480,0,65728,65700,6,6,4,1460,768,1,992,116,33580,0,65700,0,0,0,0,0
o,0x00000000,1716772643.671777,172.16.3.2,5101,172.16.1.2,42596,10103,14480,0,65728,65700,6,6,4,1460,768,1,993,116,33580,0,65700,1448,0,0,0,0
o,0x00000000,1716772643.809025,10.0.2.15,22,10.0.2.2,60131,1073725440,14600,0,65535,65700,0,0,4,1460,1,0,4,24,33580,156,65700,0,0,0,0,0
i,0x00000000,1716772643.809933,10.0.2.15,22,10.0.2.2,60131,1073725440,14600,0,65535,65700,0,0,4,1460,1,0,4,24,33580,156,65700,0,156,0,0,0
i,0x00000000,1716772644.002038,172.16.3.2,5101,172.16.1.2,42596,10103,14480,0,65728,65700,6,6,4,1460,768,1,992,116,33580,0,65700,0,0,0,0,0
i,0x00000000,1716772644.012162,172.16.3.2,5101,172.16.1.2,42596,10103,14480,0,65728,65700,6,6,4,1460,768,1,992,116,33580,0,65700,0,0,0,0,0
o,0x00000000,1716772644.012174,172.16.3.2,5101,172.16.1.2,42596,10103,14480,0,65728,65700,6,6,4,1460,768,1,993,116,33580,0,65700,1448,0,0,0,0
i,0x00000000,1716772644.032895,172.16.3.2,5101,172.16.1.2,42596,10103,14480,0,65728,65700,6,6,4,1460,768,1,992,116,33580,0,65700,0,0,0,0,0
i,0x00000000,1716772644.042288,172.16.3.2,5101,172.16.1.2,42596,10103,14480,0,65728,65700,6,6,4,1460,768,1,992,116,33580,0,65700,0,0,0,0,0
o,0x00000000,1716772644.042297,172.16.3.2,5101,172.16.1.2,42596,10103,14480,0,65728,65700,6,6,4,1460,768,1,993,116,33580,0,65700,1448,0,0,0,0
i,0x00000000,1716772644.052604,172.16.3.2,5101,172.16.1.2,42596,10103,14480,0,65728,65700,6,6,4,1460,768,1,992,116,33580,0,65700,0,0,0,0,0
i,0x00000000,1716772644.061963,172.16.3.2,5101,172.16.1.2,42596,10103,14480,0,65728,65700,6,6,4,1460,768,1,992,116,33580,0,65700,0,0,0,0,0
o,0x00000000,1716772644.061969,172.16.3.2,5101,172.16.1.2,42596,10103,14480,0,65728,65700,6,6,4,1460,768,1,993,116,33580,0,65700,1448,0,0,0,0
i,0x00000000,1716772644.072562,172.16.3.2,5101,172.16.1.2,42596,10103,14480,0,65728,65700,6,6,4,1460,768,1,992,116,33580,0,65700,0,0,0,0,0
i,0x00000000,1716772644.091457,172.16.3.2,5101,172.16.1.2,42596,10103,14480,0,65728,65700,6,6,4,1460,768,1,992,116,33580,0,65700,0,0,0,0,0
o,0x00000000,1716772644.091462,172.16.3.2,5101,172.16.1.2,42596,10103,14480,0,65728,65700,6,6,4,1460,768,1,993,116,33580,0,65700,1448,0,0,0,0
i,0x00000000,1716772644.102895,172.16.3.2,5101,172.16.1.2,42596,10103,14480,0,65728,65700,6,6,4,1460,768,1,992,116,33580,0,65700,0,0,0,0,0
i,0x00000000,1716772644.112255,172.16.3.2,5101,172.16.1.2,42596,10103,14480,0,65728,65700,6,6,4,1460,768,1,992,116,33580,0,65700,0,0,0,0,0
o,0x00000000,1716772644.112264,172.16.3.2,5101,172.16.1.2,42596,10103,14480,0,65728,65700,6,6,4,1460,768,1,993,116,33580,0,65700,1448,0,0,0,0
i,0x00000000,1716772644.121646,172.16.3.2,5101,172.16.1.2,42596,10103,14480,0,65728,65700,6,6,4,1460,768,1,992,116,33580,0,65700,0,0,0,0,0
i,0x00000000,1716772644.132984,172.16.3.2,5101,172.16.1.2,42596,10103,14480,0,65728,65700,6,6,4,1460,768,1,992,116,33580,0,65700,0,0,0,0,0
o,0x00000000,1716772644.132992,172.16.3.2,5101,172.16.1.2,42596,10103,14480,0,65728,65700,6,6,4,1460,768,1,993,116,33580,0,65700,1448,0,0,0,0
i,0x00000000,1716772644.151762,172.16.3.2,5101,172.16.1.2,42596,10103,14480,0,65728,65700,6,6,4,1460,768,1,992,116,33580,0,65700,0,0,0,0,0
i,0x00000000,1716772644.162173,172.16.3.2,5101,172.16.1.2,42596,10103,14480,0,65728,65700,6,6,4,1460,768,1,992,116,33580,0,65700,0,0,0,0,0
o,0x00000000,1716772644.162180,172.16.3.2,5101,172.16.1.2,42596,10103,14480,0,65728,65700,6,6,4,1460,768,1,993,116,33580,0,65700,1448,0,0,0,0
i,0x00000000,1716772644.172489,172.16.3.2,5101,172.16.1.2,42596,10103,14480,0,65728,65700,6,6,4,1460,768,1,992,116,33580,0,65700,0,0,0,0,0
i,0x00000000,1716772644.182938,172.16.3.2,5101,172.16.1.2,42596,10103,14480,0,65728,65700,6,6,4,1460,768,1,992,116,33580,0,65700,0,0,0,0,0
o,0x00000000,1716772644.182944,172.16.3.2,5101,172.16.1.2,42596,10103,14480,0,65728,65700,6,6,4,1460,768,1,993,116,33580,0,65700,1448,0,0,0,0
i,0x00000000,1716772644.192468,172.16.3.2,5101,172.16.1.2,42596,10103,14480,0,65728,65700,6,6,4,1460,768,1,992,116,33580,0,65700,0,0,0,0,0
i,0x00000000,1716772644.212203,172.16.3.2,5101,172.16.1.2,42596,10103,14480,0,65728,65700,6,6,4,1460,768,1,992,116,33580,0,65700,0,0,0,0,0
o,0x00000000,1716772644.212211,172.16.3.2,5101,172.16.1.2,42596,10103,14480,0,65728,65700,6,6,4,1460,768,1,993,116,33580,0,65700,1448,0,0,0,0
i,0x00000000,1716772644.222636,172.16.3.2,5101,172.16.1.2,42596,10103,14480,0,65728,65700,6,6,4,1460,768,1,992,116,33580,0,65700,0,0,0,0,0
i,0x00000000,1716772644.233128,172.16.3.2,5101,172.16.1.2,42596,10103,14480,0,65728,65700,6,6,4,1460,768,1,992,116,33580,0,65700,0,0,0,0,0
o,0x00000000,1716772644.233138,172.16.3.2,5101,172.16.1.2,42596,10103,14480,0,65728,65700,6,6,4,1460,768,1,993,116,33580,0,65700,1448,0,0,0,0
i,0x00000000,1716772644.241800,172.16.3.2,5101,172.16.1.2,42596,10103,14480,0,65728,65700,6,6,4,1460,768,1,992,116,33580,0,65700,0,0,0,0,0
i,0x00000000,1716772644.252795,172.16.3.2,5101,172.16.1.2,42596,10103,14480,0,65728,65700,6,6,4,1460,768,1,992,116,33580,0,65700,0,0,0,0,0
o,0x00000000,1716772644.252802,172.16.3.2,5101,172.16.1.2,42596,10103,14480,0,65728,65700,6,6,4,1460,768,1,993,116,33580,0,65700,1448,0,0,0,0
i,0x00000000,1716772644.592407,172.16.3.2,5101,172.16.1.2,42596,10103,14480,0,65728,65700,6,6,4,1460,768,1,992,116,33580,0,65700,0,0,0,0,0
i,0x00000000,1716772644.612610,172.16.3.2,5101,172.16.1.2,42596,10103,14480,0,65728,65700,6,6,4,1460,768,1,992,116,33580,0,65700,0,0,0,0,0
o,0x00000000,1716772644.612632,172.16.3.2,5101,172.16.1.2,42596,10103,14480,0,65728,65700,6,6,4,1460,768,1,993,116,33580,0,65700,1448,0,0,0,0
i,0x00000000,1716772644.623219,172.16.3.2,5101,172.16.1.2,42596,10103,14480,0,65728,65700,6,6,4,1460,768,1,992,116,33580,0,65700,0,0,0,0,0
i,0x00000000,1716772644.632479,172.16.3.2,5101,172.16.1.2,42596,10103,14480,0,65728,65700,6,6,4,1460,768,1,992,116,33580,0,65700,0,0,0,0,0
o,0x00000000,1716772644.632490,172.16.3.2,5101,172.16.1.2,42596,10103,14480,0,65728,65700,6,6,4,1460,768,1,993,116,33580,0,65700,1448,0,0,0,0
i,0x00000000,1716772644.643019,172.16.3.2,5101,172.16.1.2,42596,10103,14480,0,65728,65700,6,6,4,1460,768,1,992,116,33580,0,65700,0,0,0,0,0
i,0x00000000,1716772644.653448,172.16.3.2,5101,172.16.1.2,42596,10103,14480,0,65728,65700,6,6,4,1460,768,1,992,116,33580,0,65700,0,0,0,0,0
o,0x00000000,1716772644.653463,172.16.3.2,5101,172.16.1.2,42596,10103,14480,0,65728,65700,6,6,4,1460,768,1,993,116,33580,0,65700,1448,0,0,0,0
i,0x00000000,1716772644.672866,172.16.3.2,5101,172.16.1.2,42596,10103,14480,0,65728,65700,6,6,4,1460,768,1,992,116,33580,0,65700,0,0,0,0,0
i,0x00000000,1716772644.682209,172.16.3.2,5101,172.16.1.2,42596,10103,14480,0,65728,65700,6,6,4,1460,768,1,992,116,33580,0,65700,0,0,0,0,0
o,0x00000000,1716772644.682217,172.16.3.2,5101,172.16.1.2,42596,10103,14480,0,65728,65700,6,6,4,1460,768,1,993,116,33580,0,65700,1448,0,0,0,0
i,0x00000000,1716772644.692584,172.16.3.2,5101,172.16.1.2,42596,10103,14480,0,65728,65700,6,6,4,1460,768,1,992,116,33580,0,65700,0,0,0,0,0
i,0x00000000,1716772644.702934,172.16.3.2,5101,172.16.1.2,42596,10103,14480,0,65728,65700,6,6,4,1460,768,1,992,116,33580,0,65700,0,0,0,0,0
o,0x00000000,1716772644.702941,172.16.3.2,5101,172.16.1.2,42596,10103,14480,0,65728,65700,6,6,4,1460,768,1,993,116,33580,0,65700,1448,0,0,0,0
i,0x00000000,1716772644.713229,172.16.3.2,5101,172.16.1.2,42596,10103,14480,0,65728,65700,6,6,4,1460,768,1,992,116,33580,0,65700,0,0,0,0,0
i,0x00000000,1716772644.732950,172.16.3.2,5101,172.16.1.2,42596,10103,14480,0,65728,65700,6,6,4,1460,768,1,992,116,33580,0,65700,0,0,0,0,0
o,0x00000000,1716772644.732957,172.16.3.2,5101,172.16.1.2,42596,10103,14480,0,65728,65700,6,6,4,1460,768,1,993,116,33580,0,65700,1448,0,0,0,0
i,0x00000000,1716772644.743150,172.16.3.2,5101,172.16.1.2,42596,10103,14480,0,65728,65700,6,6,4,1460,768,1,992,116,33580,0,65700,0,0,0,0,0
i,0x00000000,1716772644.753420,172.16.3.2,5101,172.16.1.2,42596,10103,14480,0,65728,65700,6,6,4,1460,768,1,992,116,33580,0,65700,0,0,0,0,0
o,0x00000000,1716772644.753426,172.16.3.2,5101,172.16.1.2,42596,10103,14480,0,65728,65700,6,6,4,1460,768,1,993,116,33580,0,65700,1448,0,0,0,0
i,0x00000000,1716772644.763152,172.16.3.2,5101,172.16.1.2,42596,10103,14480,0,65728,65700,6,6,4,1460,768,1,992,116,33580,0,65700,0,0,0,0,0
i,0x00000000,1716772644.772496,172.16.3.2,5101,172.16.1.2,42596,10103,14480,0,65728,65700,6,6,4,1460,768,1,992,116,33580,0,65700,0,0,0,0,0
o,0x00000000,1716772644.772503,172.16.3.2,5101,172.16.1.2,42596,10103,14480,0,65728,65700,6,6,4,1460,768,1,993,116,33580,0,65700,1448,0,0,0,0
i,0x00000000,1716772644.793036,172.16.3.2,5101,172.16.1.2,42596,10103,14480,0,65728,65700,6,6,4,1460,768,1,992,116,33580,0,65700,0,0,0,0,0
i,0x00000000,1716772644.802736,172.16.3.2,5101,172.16.1.2,42596,10103,14480,0,65728,65700,6,6,4,1460,768,1,992,116,33580,0,65700,0,0,0,0,0
o,0x00000000,1716772644.802744,172.16.3.2,5101,172.16.1.2,42596,10103,14480,0,65728,65700,6,6,4,1460,768,1,993,116,33580,0,65700,1448,0,0,0,0
i,0x00000000,1716772644.813022,172.16.3.2,5101,172.16.1.2,42596,10103,14480,0,65728,65700,6,6,4,1460,768,1,992,116,33580,0,65700,0,0,0,0,0
o,0x00000000,1716772644.819485,10.0.2.15,22,10.0.2.2,60131,1073725440,14600,0,65535,65700,0,0,4,1460,1,0,4,24,33580,108,65700,0,0,0,0,0
i,0x00000000,1716772644.820110,10.0.2.15,22,10.0.2.2,60131,1073725440,14600,0,65535,65700,0,0,4,1460,1,0,4,24,33580,108,65700,0,108,0,0,0
i,0x00000000,1716772644.822422,172.16.3.2,5101,172.16.1.2,42596,10103,14480,0,65728,65700,6,6,4,1460,768,1,992,116,33580,0,65700,0,0,0,0,0
o,0x00000000,1716772644.822432,172.16.3.2,5101,172.16.1.2,42596,10103,14480,0,65728,65700,6,6,4,1460,768,1,993,116,33580,0,65700,1448,0,0,0,0
i,0x00000000,1716772644.832330,172.16.3.2,5101,172.16.1.2,42596,10103,14480,0,65728,65700,6,6,4,1460,768,1,992,116,33580,0,65700,0,0,0,0,0
i,0x00000000,1716772644.853092,172.16.3.2,5101,172.16.1.2,42596,10103,14480,0,65728,65700,6,6,4,1460,768,1,992,116,33580,0,65700,0,0,0,0,0
o,0x00000000,1716772644.853105,172.16.3.2,5101,172.16.1.2,42596,10103,14480,0,65728,65700,6,6,4,1460,768,1,993,116,33580,0,65700,1448,0,0,0,0
i,0x00000000,1716772644.863306,172.16.3.2,5101,172.16.1.2,42596,10103,14480,0,65728,65700,6,6,4,1460,768,1,992,116,33580,0,65700,0,0,0,0,0
o,0x00000000,1716772644.899439,172.16.3.2,5101,172.16.1.2,42596,10103,14480,0,65728,65700,6,6,4,1460,768,1,993,116,33580,0,65700,0,0,0,0,0
i,0x00000000,1716772645.193896,172.16.3.2,5101,172.16.1.2,42596,10103,14480,0,65728,65700,6,6,4,1460,768,1,992,116,33580,0,65700,0,0,0,0,0
i,0x00000000,1716772645.213795,172.16.3.2,5101,172.16.1.2,42596,10103,14480,0,65728,65700,6,6,4,1460,768,1,992,116,33580,0,65700,0,0,0,0,0
o,0x00000000,1716772645.213811,172.16.3.2,5101,172.16.1.2,42596,10103,14480,0,65728,65700,6,6,4,1460,768,1,993,116,33580,0,65700,1448,0,0,0,0
i,0x00000000,1716772645.223960,172.16.3.2,5101,172.16.1.2,42596,10103,14480,0,65728,65700,6,6,4,1460,768,1,992,116,33580,0,65700,0,0,0,0,0
i,0x00000000,1716772645.234281,172.16.3.2,5101,172.16.1.2,42596,10103,14480,0,65728,65700,6,6,4,1460,768,1,992,116,33580,0,65700,0,0,0,0,0
o,0x00000000,1716772645.234292,172.16.3.2,5101,172.16.1.2,42596,10103,14480,0,65728,65700,6,6,4,1460,768,1,993,116,33580,0,65700,1448,0,0,0,0
i,0x00000000,1716772645.242638,172.16.3.2,5101,172.16.1.2,42596,10103,14480,0,65728,65700,6,6,4,1460,768,1,992,116,33580,0,65700,0,0,0,0,0
i,0x00000000,1716772645.252921,172.16.3.2,5101,172.16.1.2,42596,10103,14480,0,65728,65700,6,6,4,1460,768,1,992,116,33580,0,65700,0,0,0,0,0
o,0x00000000,1716772645.252928,172.16.3.2,5101,172.16.1.2,42596,10103,14480,0,65728,65700,6,6,4,1460,768,1,993,116,33580,0,65700,1448,0,0,0,0
i,0x00000000,1716772645.273588,172.16.3.2,5101,172.16.1.2,42596,10103,14480,0,65728,65700,6,6,4,1460,768,1,992,116,33580,0,65700,0,0,0,0,0
i,0x00000000,1716772645.283977,172.16.3.2,5101,172.16.1.2,42596,10103,14480,0,65728,65700,6,6,4,1460,768,1,992,116,33580,0,65700,0,0,0,0,0
o,0x00000000,1716772645.283984,172.16.3.2,5101,172.16.1.2,42596,10103,14480,0,65728,65700,6,6,4,1460,768,1,993,116,33580,0,65700,1448,0,0,0,0
i,0x00000000,1716772645.292396,172.16.3.2,5101,172.16.1.2,42596,10103,14480,0,65728,65700,6,6,4,1460,768,1,992,116,33580,0,65700,0,0,0,0,0
i,0x00000000,1716772645.303698,172.16.3.2,5101,172.16.1.2,42596,10103,14480,0,65728,65700,6,6,4,1460,768,1,992,116,33580,0,65700,0,0,0,0,0
o,0x00000000,1716772645.303705,172.16.3.2,5101,172.16.1.2,42596,10103,14480,0,65728,65700,6,6,4,1460,768,1,993,116,33580,0,65700,1448,0,0,0,0
i,0x00000000,1716772645.313084,172.16.3.2,5101,172.16.1.2,42596,10103,14480,0,65728,65700,6,6,4,1460,768,1,992,116,33580,0,65700,0,0,0,0,0
i,0x00000000,1716772645.333752,172.16.3.2,5101,172.16.1.2,42596,10103,14480,0,65728,65700,6,6,4,1460,768,1,992,116,33580,0,65700,0,0,0,0,0
o,0x00000000,1716772645.333759,172.16.3.2,5101,172.16.1.2,42596,10103,14480,0,65728,65700,6,6,4,1460,768,1,993,116,33580,0,65700,1448,0,0,0,0
i,0x00000000,1716772645.344077,172.16.3.2,5101,172.16.1.2,42596,10103,14480,0,65728,65700,6,6,4,1460,768,1,992,116,33580,0,65700,0,0,0,0,0
i,0x00000000,1716772645.353464,172.16.3.2,5101,172.16.1.2,42596,10103,14480,0,65728,65700,6,6,4,1460,768,1,992,116,33580,0,65700,0,0,0,0,0
o,0x00000000,1716772645.353478,172.16.3.2,5101,172.16.1.2,42596,10103,14480,0,65728,65700,6,6,4,1460,768,1,993,116,33580,0,65700,1448,0,0,0,0
i,0x00000000,1716772645.363717,172.16.3.2,5101,172.16.1.2,42596,10103,14480,0,65728,65700,6,6,4,1460,768,1,992,116,33580,0,65700,0,0,0,0,0
i,0x00000000,1716772645.373056,172.16.3.2,5101,172.16.1.2,42596,10103,14480,0,65728,65700,6,6,4,1460,768,1,992,116,33580,0,65700,0,0,0,0,0
o,0x00000000,1716772645.373064,172.16.3.2,5101,172.16.1.2,42596,10103,14480,0,65728,65700,6,6,4,1460,768,1,993,116,33580,0,65700,1448,0,0,0,0
i,0x00000000,1716772645.393889,172.16.3.2,5101,172.16.1.2,42596,10103,14480,0,65728,65700,6,6,4,1460,768,1,992,116,33580,0,65700,0,0,0,0,0
i,0x00000000,1716772645.403018,172.16.3.2,5101,172.16.1.2,42596,10103,14480,0,65728,65700,6,6,4,1460,768,1,992,116,33580,0,65700,0,0,0,0,0
o,0x00000000,1716772645.403025,172.16.3.2,5101,172.16.1.2,42596,10103,14480,0,65728,65700,6,6,4,1460,768,1,993,116,33580,0,65700,1448,0,0,0,0
i,0x00000000,1716772645.413373,172.16.3.2,5101,172.16.1.2,42596,10103,14480,0,65728,65700,6,6,4,1460,768,1,992,116,33580,0,65700,0,0,0,0,0
i,0x00000000,1716772645.423660,172.16.3.2,5101,172.16.1.2,42596,10103,14480,0,65728,65700,6,6,4,1460,768,1,992,116,33580,0,65700,0,0,0,0,0
o,0x00000000,1716772645.423667,172.16.3.2,5101,172.16.1.2,42596,10103,14480,0,65728,65700,6,6,4,1460,768,1,993,116,33580,0,65700,1448,0,0,0,0
i,0x00000000,1716772645.433347,172.16.3.2,5101,172.16.1.2,42596,10103,14480,0,65728,65700,6,6,4,1460,768,1,992,116,33580,0,65700,0,0,0,0,0
i,0x00000000,1716772645.453795,172.16.3.2,5101,172.16.1.2,42596,10103,14480,0,65728,65700,6,6,4,1460,768,1,992,116,33580,0,65700,0,0,0,0,0
o,0x00000000,1716772645.453801,172.16.3.2,5101,172.16.1.2,42596,10103,14480,0,65728,65700,6,6,4,1460,768,1,993,116,33580,0,65700,1448,0,0,0,0
i,0x00000000,1716772645.464131,172.16.3.2,5101,172.16.1.2,42596,10103,14480,0,65728,65700,6,6,4,1460,768,1,992,116,33580,0,65700,0,0,0,0,0
o,0x00000000,1716772645.499458,172.16.3.2,5101,172.16.1.2,42596,10103,14480,0,65728,65700,6,6,4,1460,768,1,993,116,33580,0,65700,0,0,0,0,0
i,0x00000000,1716772645.503738,172.16.3.2,5101,172.16.1.2,42596,10103,14480,0,65728,65700,6,6,4,1460,768,1,992,116,33580,0,65700,0,0,0,0,0
o,0x00000000,1716772645.539846,172.16.3.2,5101,172.16.1.2,42596,10103,14480,0,65728,65700,6,6,4,1460,768,1,993,116,33580,0,65700,0,0,0,0,0
i,0x00000000,1716772645.803473,172.16.3.2,5101,172.16.1.2,42596,10103,14480,0,65728,65700,6,6,4,1460,768,1,992,116,33580,0,65700,0,0,0,0,0
o,0x00000000,1716772645.819910,10.0.2.15,22,10.0.2.2,60131,1073725440,14600,0,65535,65700,0,0,4,1460,1,0,4,24,33580,108,65700,0,0,0,0,0
i,0x00000000,1716772645.820614,10.0.2.15,22,10.0.2.2,60131,1073725440,14600,0,65535,65700,0,0,4,1460,1,0,4,24,33580,108,65700,0,108,0,0,0
i,0x00000000,1716772645.824283,172.16.3.2,5101,172.16.1.2,42596,10103,14480,0,65728,65700,6,6,4,1460,768,1,992,116,33580,0,65700,0,0,0,0,0
o,0x00000000,1716772645.824293,172.16.3.2,5101,172.16.1.2,42596,10103,14480,0,65728,65700,6,6,4,1460,768,1,993,116,33580,0,65700,1448,0,0,0,0
i,0x00000000,1716772645.834532,172.16.3.2,5101,172.16.1.2,42596,10103,14480,0,65728,65700,6,6,4,1460,768,1,992,116,33580,0,65700,0,0,0,0,0
i,0x00000000,1716772645.843920,172.16.3.2,5101,172.16.1.2,42596,10103,14480,0,65728,65700,6,6,4,1460,768,1,992,116,33580,0,65700,0,0,0,0,0
o,0x00000000,1716772645.843927,172.16.3.2,5101,172.16.1.2,42596,10103,14480,0,65728,65700,6,6,4,1460,768,1,993,116,33580,0,65700,1448,0,0,0,0
i,0x00000000,1716772645.853306,172.16.3.2,5101,172.16.1.2,42596,10103,14480,0,65728,65700,6,6,4,1460,768,1,992,116,33580,0,65700,0,0,0,0,0
i,0x00000000,1716772645.863643,172.16.3.2,5101,172.16.1.2,42596,10103,14480,0,65728,65700,6,6,4,1460,768,1,992,116,33580,0,65700,0,0,0,0,0
o,0x00000000,1716772645.863654,172.16.3.2,5101,172.16.1.2,42596,10103,14480,0,65728,65700,6,6,4,1460,768,1,993,116,33580,0,65700,1448,0,0,0,0
i,0x00000000,1716772645.883145,172.16.3.2,5101,172.16.1.2,42596,10103,14480,0,65728,65700,6,6,4,1460,768,1,992,116,33580,0,65700,0,0,0,0,0
i,0x00000000,1716772645.894071,172.16.3.2,5101,172.16.1.2,42596,10103,14480,0,65728,65700,6,6,4,1460,768,1,992,116,33580,0,65700,0,0,0,0,0
o,0x00000000,1716772645.894079,172.16.3.2,5101,172.16.1.2,42596,10103,14480,0,65728,65700,6,6,4,1460,768,1,993,116,33580,0,65700,1448,0,0,0,0
i,0x00000000,1716772645.903926,172.16.3.2,5101,172.16.1.2,42596,10103,14480,0,65728,65700,6,6,4,1460,768,1,992,116,33580,0,65700,0,0,0,0,0
i,0x00000000,1716772645.914259,172.16.3.2,5101,172.16.1.2,42596,10103,14480,0,65728,65700,6,6,4,1460,768,1,992,116,33580,0,65700,0,0,0,0,0
o,0x00000000,1716772645.914266,172.16.3.2,5101,172.16.1.2,42596,10103,14480,0,65728,65700,6,6,4,1460,768,1,993,116,33580,0,65700,1448,0,0,0,0
i,0x00000000,1716772645.924556,172.16.3.2,5101,172.16.1.2,42596,10103,14480,0,65728,65700,6,6,4,1460,768,1,992,116,33580,0,65700,0,0,0,0,0
i,0x00000000,1716772645.945232,172.16.3.2,5101,172.16.1.2,42596,10103,14480,0,65728,65700,6,6,4,1460,768,1,992,116,33580,0,65700,0,0,0,0,0
o,0x00000000,1716772645.945239,172.16.3.2,5101,172.16.1.2,42596,10103,14480,0,65728,65700,6,6,4,1460,768,1,993,116,33580,0,65700,1448,0,0,0,0
i,0x00000000,1716772645.953644,172.16.3.2,5101,172.16.1.2,42596,10103,14480,0,65728,65700,6,6,4,1460,768,1,992,116,33580,0,65700,0,0,0,0,0
i,0x00000000,1716772645.963012,172.16.3.2,5101,172.16.1.2,42596,10103,14480,0,65728,65700,6,6,4,1460,768,1,992,116,33580,0,65700,0,0,0,0,0
o,0x00000000,1716772645.963018,172.16.3.2,5101,172.16.1.2,42596,10103,14480,0,65728,65700,6,6,4,1460,768,1,993,116,33580,0,65700,1448,0,0,0,0
i,0x00000000,1716772645.973403,172.16.3.2,5101,172.16.1.2,42596,10103,14480,0,65728,65700,6,6,4,1460,768,1,992,116,33580,0,65700,0,0,0,0,0
i,0x00000000,1716772645.983792,172.16.3.2,5101,172.16.1.2,42596,10103,14480,0,65728,65700,6,6,4,1460,768,1,992,116,33580,0,65700,0,0,0,0,0
o,0x00000000,1716772645.983798,172.16.3.2,5101,172.16.1.2,42596,10103,14480,0,65728,65700,6,6,4,1460,768,1,993,116,33580,0,65700,1448,0,0,0,0
i,0x00000000,1716772646.004517,172.16.3.2,5101,172.16.1.2,42596,10103,14480,0,65728,65700,6,6,4,1460,768,1,992,116,33580,0,65700,0,0,0,0,0
i,0x00000000,1716772646.013855,172.16.3.2,5101,172.16.1.2,42596,10103,14480,0,65728,65700,6,6,4,1460,768,1,992,116,33580,0,65700,0,0,0,0,0
o,0x00000000,1716772646.013871,172.16.3.2,5101,172.16.1.2,42596,10103,14480,0,65728,65700,6,6,4,1460,768,1,993,116,33580,0,65700,1448,0,0,0,0
i,0x00000000,1716772646.024169,172.16.3.2,5101,172.16.1.2,42596,10103,14480,0,65728,65700,6,6,4,1460,768,1,992,116,33580,0,65700,0,0,0,0,0
i,0x00000000,1716772646.034461,172.16.3.2,5101,172.16.1.2,42596,10103,14480,0,65728,65700,6,6,4,1460,768,1,992,116,33580,0,65700,0,0,0,0,0
o,0x00000000,1716772646.034468,172.16.3.2,5101,172.16.1.2,42596,10103,14480,0,65728,65700,6,6,4,1460,768,1,993,116,33580,0,65700,1448,0,0,0,0
i,0x00000000,1716772646.043785,172.16.3.2,5101,172.16.1.2,42596,10103,14480,0,65728,65700,6,6,4,1460,768,1,992,116,33580,0,65700,0,0,0,0,0
i,0x00000000,1716772646.064508,172.16.3.2,5101,172.16.1.2,42596,10103,14480,0,65728,65700,6,6,4,1460,768,1,992,116,33580,0,65700,0,0,0,0,0
o,0x00000000,1716772646.064515,172.16.3.2,5101,172.16.1.2,42596,10103,14480,0,65728,65700,6,6,4,1460,768,1,993,116,33580,0,65700,1448,0,0,0,0
i,0x00000000,1716772646.073982,172.16.3.2,5101,172.16.1.2,42596,10103,14480,0,65728,65700,6,6,4,1460,768,1,992,116,33580,0,65700,0,0,0,0,0
o,0x00000000,1716772646.109437,172.16.3.2,5101,172.16.1.2,42596,10103,14480,0,65728,65700,6,6,4,1460,768,1,993,116,33580,0,65700,0,0,0,0,0
i,0x00000000,1716772646.113773,172.16.3.2,5101,172.16.1.2,42596,10103,14480,0,65728,65700,6,6,4,1460,768,1,992,116,33580,0,65700,0,0,0,0,0
o,0x00000000,1716772646.149931,172.16.3.2,5101,172.16.1.2,42596,10103,14480,0,65728,65700,6,6,4,1460,768,1,993,116,33580,0,65700,0,0,0,0,0
i,0x00000000,1716772646.384628,172.16.3.2,5101,172.16.1.2,42596,10103,14480,0,65728,65700,6,6,4,1460,768,1,992,116,33580,0,65700,0,0,0,0,0
i,0x00000000,1716772646.413985,172.16.3.2,5101,172.16.1.2,42596,10103,14480,0,65728,65700,6,6,4,1460,768,1,992,116,33580,0,65700,0,0,0,0,0
o,0x00000000,1716772646.414013,172.16.3.2,5101,172.16.1.2,42596,10103,14480,0,65728,65700,6,6,4,1460,768,1,993,116,33580,0,65700,1448,0,0,0,0
i,0x00000000,1716772646.434571,172.16.3.2,5101,172.16.1.2,42596,10103,14480,0,65728,65700,6,6,4,1460,768,1,992,116,33580,0,65700,0,0,0,0,0
i,0x00000000,1716772646.444882,172.16.3.2,5101,172.16.1.2,42596,10103,14480,0,65728,65700,6,6,4,1460,768,1,992,116,33580,0,65700,0,0,0,0,0
o,0x00000000,1716772646.444891,172.16.3.2,5101,172.16.1.2,42596,10103,14480,0,65728,65700,6,6,4,1460,768,1,993,116,33580,0,65700,1448,0,0,0,0
i,0x00000000,1716772646.454175,172.16.3.2,5101,172.16.1.2,42596,10103,14480,0,65728,65700,6,6,4,1460,768,1,992,116,33580,0,65700,0,0,0,0,0
i,0x00000000,1716772646.464441,172.16.3.2,5101,172.16.1.2,42596,10103,14480,0,65728,65700,6,6,4,1460,768,1,992,116,33580,0,65700,0,0,0,0,0
o,0x00000000,1716772646.464448,172.16.3.2,5101,172.16.1.2,42596,10103,14480,0,65728,65700,6,6,4,1460,768,1,993,116,33580,0,65700,1448,0,0,0,0
i,0x00000000,1716772646.474802,172.16.3.2,5101,172.16.1.2,42596,10103,14480,0,65728,65700,6,6,4,1460,768,1,992,116,33580,0,65700,0,0,0,0,0
i,0x00000000,1716772646.494956,172.16.3.2,5101,172.16.1.2,42596,10103,14480,0,65728,65700,6,6,4,1460,768,1,992,116,33580,0,65700,0,0,0,0,0
o,0x00000000,1716772646.494963,172.16.3.2,5101,172.16.1.2,42596,10103,14480,0,65728,65700,6,6,4,1460,768,1,993,116,33580,0,65700,1448,0,0,0,0
i,0x00000000,1716772646.504743,172.16.3.2,5101,172.16.1.2,42596,10103,14480,0,65728,65700,6,6,4,1460,768,1,992,116,33580,0,65700,0,0,0,0,0
i,0x00000000,1716772646.514155,172.16.3.2,5101,172.16.1.2,42596,10103,14480,0,65728,65700,6,6,4,1460,768,1,992,116,33580,0,65700,0,0,0,0,0
o,0x00000000,1716772646.514161,172.16.3.2,5101,172.16.1.2,42596,10103,14480,0,65728,65700,6,6,4,1460,768,1,993,116,33580,0,65700,1448,0,0,0,0
i,0x00000000,1716772646.524598,172.16.3.2,5101,172.16.1.2,42596,10103,14480,0,65728,65700,6,6,4,1460,768,1,992,116,33580,0,65700,0,0,0,0,0
i,0x00000000,1716772646.534876,172.16.3.2,5101,172.16.1.2,42596,10103,14480,0,65728,65700,6,6,4,1460,768,1,992,116,33580,0,65700,0,0,0,0,0
o,0x00000000,1716772646.534883,172.16.3.2,5101,172.16.1.2,42596,10103,14480,0,65728,65700,6,6,4,1460,768,1,993,116,33580,0,65700,1448,0,0,0,0
i,0x00000000,1716772646.554633,172.16.3.2,5101,172.16.1.2,42596,10103,14480,0,65728,65700,6,6,4,1460,768,1,992,116,33580,0,65700,0,0,0,0,0
i,0x00000000,1716772646.563836,172.16.3.2,5101,172.16.1.2,42596,10103,14480,0,65728,65700,6,6,4,1460,768,1,992,116,33580,0,65700,0,0,0,0,0
o,0x00000000,1716772646.563847,172.16.3.2,5101,172.16.1.2,42596,10103,14480,0,65728,65700,6,6,4,1460,768,1,993,116,33580,0,65700,1448,0,0,0,0
i,0x00000000,1716772646.574306,172.16.3.2,5101,172.16.1.2,42596,10103,14480,0,65728,65700,6,6,4,1460,768,1,992,116,33580,0,65700,0,0,0,0,0
i,0x00000000,1716772646.584471,172.16.3.2,5101,172.16.1.2,42596,10103,14480,0,65728,65700,6,6,4,1460,768,1,992,116,33580,0,65700,0,0,0,0,0
o,0x00000000,1716772646.584485,172.16.3.2,5101,172.16.1.2,42596,10103,14480,0,65728,65700,6,6,4,1460,768,1,993,116,33580,0,65700,1448,0,0,0,0
i,0x00000000,1716772646.594343,172.16.3.2,5101,172.16.1.2,42596,10103,14480,0,65728,65700,6,6,4,1460,768,1,992,116,33580,0,65700,0,0,0,0,0
i,0x00000000,1716772646.614594,172.16.3.2,5101,172.16.1.2,42596,10103,14480,0,65728,65700,6,6,4,1460,768,1,992,116,33580,0,65700,0,0,0,0,0
o,0x00000000,1716772646.614611,172.16.3.2,5101,172.16.1.2,42596,10103,14480,0,65728,65700,6,6,4,1460,768,1,993,116,33580,0,65700,1448,0,0,0,0
i,0x00000000,1716772646.624925,172.16.3.2,5101,172.16.1.2,42596,10103,14480,0,65728,65700,6,6,4,1460,768,1,992,116,33580,0,65700,0,0,0,0,0
i,0x00000000,1716772646.634259,172.16.3.2,5101,172.16.1.2,42596,10103,14480,0,65728,65700,6,6,4,1460,768,1,992,116,33580,0,65700,0,0,0,0,0
o,0x00000000,1716772646.634269,172.16.3.2,5101,172.16.1.2,42596,10103,14480,0,65728,65700,6,6,4,1460,768,1,993,116,33580,0,65700,1448,0,0,0,0
i,0x00000000,1716772646.644544,172.16.3.2,5101,172.16.1.2,42596,10103,14480,0,65728,65700,6,6,4,1460,768,1,992,116,33580,0,65700,0,0,0,0,0
i,0x00000000,1716772646.655111,172.16.3.2,5101,172.16.1.2,42596,10103,14480,0,65728,65700,6,6,4,1460,768,1,992,116,33580,0,65700,0,0,0,0,0
o,0x00000000,1716772646.655126,172.16.3.2,5101,172.16.1.2,42596,10103,14480,0,65728,65700,6,6,4,1460,768,1,993,116,33580,0,65700,1448,0,0,0,0
i,0x00000000,1716772646.674144,172.16.3.2,5101,172.16.1.2,42596,10103,14480,0,65728,65700,6,6,4,1460,768,1,992,116,33580,0,65700,0,0,0,0,0
i,0x00000000,1716772646.684327,172.16.3.2,5101,172.16.1.2,42596,10103,14480,0,65728,65700,6,6,4,1460,768,1,992,116,33580,0,65700,0,0,0,0,0
o,0x00000000,1716772646.684336,172.16.3.2,5101,172.16.1.2,42596,10103,14480,0,65728,65700,6,6,4,1460,768,1,993,116,33580,0,65700,1448,0,0,0,0
i,0x00000000,1716772646.743943,172.16.3.2,5101,172.16.1.2,42596,10103,14480,0,65728,65700,6,6,4,1460,768,1,992,116,33580,0,65700,0,0,0,0,0
o,0x00000000,1716772646.779725,172.16.3.2,5101,172.16.1.2,42596,10103,14480,0,65728,65700,6,6,4,1460,768,1,993,116,33580,0,65700,0,0,0,0,0
o,0x00000000,1716772646.819283,10.0.2.15,22,10.0.2.2,60131,1073725440,14600,0,65535,65700,0,0,4,1460,1,0,4,24,33580,108,65700,0,0,0,0,0
i,0x00000000,1716772646.819938,10.0.2.15,22,10.0.2.2,60131,1073725440,14600,0,65535,65700,0,0,4,1460,1,0,4,24,33580,108,65700,0,108,0,0,0
i,0x00000000,1716772647.034500,172.16.3.2,5101,172.16.1.2,42596,10103,14480,0,65728,65700,6,6,4,1460,768,1,992,116,33580,0,65700,0,0,0,0,0
i,0x00000000,1716772647.065382,172.16.3.2,5101,172.16.1.2,42596,10103,14480,0,65728,65700,6,6,4,1460,768,1,992,116,33580,0,65700,0,0,0,0,0
o,0x00000000,1716772647.065394,172.16.3.2,5101,172.16.1.2,42596,10103,14480,0,65728,65700,6,6,4,1460,768,1,993,116,33580,0,65700,1448,0,0,0,0
i,0x00000000,1716772647.074985,172.16.3.2,5101,172.16.1.2,42596,10103,14480,0,65728,65700,6,6,4,1460,768,1,992,116,33580,0,65700,0,0,0,0,0
i,0x00000000,1716772647.094768,172.16.3.2,5101,172.16.1.2,42596,10103,14480,0,65728,65700,6,6,4,1460,768,1,992,116,33580,0,65700,0,0,0,0,0
o,0x00000000,1716772647.094777,172.16.3.2,5101,172.16.1.2,42596,10103,14480,0,65728,65700,6,6,4,1460,768,1,993,116,33580,0,65700,1448,0,0,0,0
i,0x00000000,1716772647.105050,172.16.3.2,5101,172.16.1.2,42596,10103,14480,0,65728,65700,6,6,4,1460,768,1,992,116,33580,0,65700,0,0,0,0,0
i,0x00000000,1716772647.114551,172.16.3.2,5101,172.16.1.2,42596,10103,14480,0,65728,65700,6,6,4,1460,768,1,992,116,33580,0,65700,0,0,0,0,0
o,0x00000000,1716772647.114560,172.16.3.2,5101,172.16.1.2,42596,10103,14480,0,65728,65700,6,6,4,1460,768,1,993,116,33580,0,65700,1448,0,0,0,0
i,0x00000000,1716772647.124826,172.16.3.2,5101,172.16.1.2,42596,10103,14480,0,65728,65700,6,6,4,1460,768,1,992,116,33580,0,65700,0,0,0,0,0
i,0x00000000,1716772647.135193,172.16.3.2,5101,172.16.1.2,42596,10103,14480,0,65728,65700,6,6,4,1460,768,1,992,116,33580,0,65700,0,0,0,0,0
o,0x00000000,1716772647.135202,172.16.3.2,5101,172.16.1.2,42596,10103,14480,0,65728,65700,6,6,4,1460,768,1,993,116,33580,0,65700,1448,0,0,0,0
i,0x00000000,1716772647.155966,172.16.3.2,5101,172.16.1.2,42596,10103,14480,0,65728,65700,6,6,4,1460,768,1,992,116,33580,0,65700,0,0,0,0,0
i,0x00000000,1716772647.164401,172.16.3.2,5101,172.16.1.2,42596,10103,14480,0,65728,65700,6,6,4,1460,768,1,992,116,33580,0,65700,0,0,0,0,0
o,0x00000000,1716772647.164408,172.16.3.2,5101,172.16.1.2,42596,10103,14480,0,65728,65700,6,6,4,1460,768,1,993,116,33580,0,65700,1448,0,0,0,0
i,0x00000000,1716772647.174883,172.16.3.2,5101,172.16.1.2,42596,10103,14480,0,65728,65700,6,6,4,1460,768,1,992,116,33580,0,65700,0,0,0,0,0
i,0x00000000,1716772647.185376,172.16.3.2,5101,172.16.1.2,42596,10103,14480,0,65728,65700,6,6,4,1460,768,1,992,116,33580,0,65700,0,0,0,0,0
o,0x00000000,1716772647.185383,172.16.3.2,5101,172.16.1.2,42596,10103,14480,0,65728,65700,6,6,4,1460,768,1,993,116,33580,0,65700,1448,0,0,0,0
i,0x00000000,1716772647.194780,172.16.3.2,5101,172.16.1.2,42596,10103,14480,0,65728,65700,6,6,4,1460,768,1,992,116,33580,0,65700,0,0,0,0,0
i,0x00000000,1716772647.215539,172.16.3.2,5101,172.16.1.2,42596,10103,14480,0,65728,65700,6,6,4,1460,768,1,992,116,33580,0,65700,0,0,0,0,0
o,0x00000000,1716772647.215546,172.16.3.2,5101,172.16.1.2,42596,10103,14480,0,65728,65700,6,6,4,1460,768,1,993,116,33580,0,65700,1448,0,0,0,0
i,0x00000000,1716772647.224934,172.16.3.2,5101,172.16.1.2,42596,10103,14480,0,65728,65700,6,6,4,1460,768,1,992,116,33580,0,65700,0,0,0,0,0
i,0x00000000,1716772647.235312,172.16.3.2,5101,172.16.1.2,42596,10103,14480,0,65728,65700,6,6,4,1460,768,1,992,116,33580,0,65700,0,0,0,0,0
o,0x00000000,1716772647.235319,172.16.3.2,5101,172.16.1.2,42596,10103,14480,0,65728,65700,6,6,4,1460,768,1,993,116,33580,0,65700,1448,0,0,0,0
i,0x00000000,1716772647.245645,172.16.3.2,5101,172.16.1.2,42596,10103,14480,0,65728,65700,6,6,4,1460,768,1,992,116,33580,0,65700,0,0,0,0,0
i,0x00000000,1716772647.254824,172.16.3.2,5101,172.16.1.2,42596,10103,14480,0,65728,65700,6,6,4,1460,768,1,992,116,33580,0,65700,0,0,0,0,0
o,0x00000000,1716772647.254830,172.16.3.2,5101,172.16.1.2,42596,10103,14480,0,65728,65700,6,6,4,1460,768,1,993,116,33580,0,65700,1448,0,0,0,0
i,0x00000000,1716772647.274749,172.16.3.2,5101,172.16.1.2,42596,10103,14480,0,65728,65700,6,6,4,1460,768,1,992,116,33580,0,65700,0,0,0,0,0
i,0x00000000,1716772647.284946,172.16.3.2,5101,172.16.1.2,42596,10103,14480,0,65728,65700,6,6,4,1460,768,1,992,116,33580,0,65700,0,0,0,0,0
o,0x00000000,1716772647.284952,172.16.3.2,5101,172.16.1.2,42596,10103,14480,0,65728,65700,6,6,4,1460,768,1,993,116,33580,0,65700,1448,0,0,0,0
i,0x00000000,1716772647.295090,172.16.3.2,5101,172.16.1.2,42596,10103,14480,0,65728,65700,6,6,4,1460,768,1,992,116,33580,0,65700,0,0,0,0,0
i,0x00000000,1716772647.305645,172.16.3.2,5101,172.16.1.2,42596,10103,14480,0,65728,65700,6,6,4,1460,768,1,992,116,33580,0,65700,0,0,0,0,0
o,0x00000000,1716772647.305651,172.16.3.2,5101,172.16.1.2,42596,10103,14480,0,65728,65700,6,6,4,1460,768,1,993,116,33580,0,65700,1448,0,0,0,0
i,0x00000000,1716772647.316091,172.16.3.2,5101,172.16.1.2,42596,10103,14480,0,65728,65700,6,6,4,1460,768,1,992,116,33580,0,65700,0,0,0,0,0
i,0x00000000,1716772647.335050,172.16.3.2,5101,172.16.1.2,42596,10103,14480,0,65728,65700,6,6,4,1460,768,1,992,116,33580,0,65700,0,0,0,0,0
o,0x00000000,1716772647.335057,172.16.3.2,5101,172.16.1.2,42596,10103,14480,0,65728,65700,6,6,4,1460,768,1,993,116,33580,0,65700,1448,0,0,0,0
i,0x00000000,1716772647.344364,172.16.3.2,5101,172.16.1.2,42596,10103,14480,0,65728,65700,6,6,4,1460,768,1,992,116,33580,0,65700,0,0,0,0,0
i,0x00000000,1716772647.354747,172.16.3.2,5101,172.16.1.2,42596,10103,14480,0,65728,65700,6,6,4,1460,768,1,992,116,33580,0,65700,0,0,0,0,0
o,0x00000000,1716772647.354753,172.16.3.2,5101,172.16.1.2,42596,10103,14480,0,65728,65700,6,6,4,1460,768,1,993,116,33580,0,65700,1448,0,0,0,0
i,0x00000000,1716772647.695879,172.16.3.2,5101,172.16.1.2,42596,10103,14480,0,65728,65700,6,6,4,1460,768,1,992,116,33580,0,65700,0,0,0,0,0
o,0x00000000,1716772647.729714,172.16.3.2,5101,172.16.1.2,42596,10103,14480,0,65728,65700,6,6,4,1460,768,1,993,116,33580,0,65700,0,0,0,0,0
i,0x00000000,1716772647.754808,172.16.3.2,5101,172.16.1.2,42596,10103,14480,0,65728,65700,6,6,4,1460,768,1,992,116,33580,0,65700,0,0,0,0,0
i,0x00000000,1716772647.775465,172.16.3.2,5101,172.16.1.2,42596,10103,14480,0,65728,65700,6,6,4,1460,768,1,992,116,33580,0,65700,0,0,0,0,0
o,0x00000000,1716772647.775475,172.16.3.2,5101,172.16.1.2,42596,10103,14480,0,65728,65700,6,6,4,1460,768,1,993,116,33580,0,65700,1448,0,0,0,0
i,0x00000000,1716772647.785719,172.16.3.2,5101,172.16.1.2,42596,10103,14480,0,65728,65700,6,6,4,1460,768,1,992,116,33580,0,65700,0,0,0,0,0
i,0x00000000,1716772647.795700,172.16.3.2,5101,172.16.1.2,42596,10103,14480,0,65728,65700,6,6,4,1460,768,1,992,116,33580,0,65700,0,0,0,0,0
o,0x00000000,1716772647.795710,172.16.3.2,5101,172.16.1.2,42596,10103,14480,0,65728,65700,6,6,4,1460,768,1,993,116,33580,0,65700,1448,0,0,0,0
i,0x00000000,1716772647.805565,172.16.3.2,5101,172.16.1.2,42596,10103,14480,0,65728,65700,6,6,4,1460,768,1,992,116,33580,0,65700,0,0,0,0,0
i,0x00000000,1716772647.815861,172.16.3.2,5101,172.16.1.2,42596,10103,14480,0,65728,65700,6,6,4,1460,768,1,992,116,33580,0,65700,0,0,0,0,0
o,0x00000000,1716772647.815867,172.16.3.2,5101,172.16.1.2,42596,10103,14480,0,65728,65700,6,6,4,1460,768,1,993,116,33580,0,65700,1448,0,0,0,0
o,0x00000000,1716772647.819381,10.0.2.15,22,10.0.2.2,60131,1073725440,14600,0,65535,65700,0,0,4,1460,1,0,4,24,33580,108,65700,0,0,0,0,0
i,0x00000000,1716772647.820047,10.0.2.15,22,10.0.2.2,60131,1073725440,14600,0,65535,65700,0,0,4,1460,1,0,4,24,33580,108,65700,0,108,0,0,0
i,0x00000000,1716772647.835529,172.16.3.2,5101,172.16.1.2,42596,10103,14480,0,65728,65700,6,6,4,1460,768,1,992,116,33580,0,65700,0,0,0,0,0
i,0x00000000,1716772647.845862,172.16.3.2,5101,172.16.1.2,42596,10103,14480,0,65728,65700,6,6,4,1460,768,1,992,116,33580,0,65700,0,0,0,0,0
o,0x00000000,1716772647.845870,172.16.3.2,5101,172.16.1.2,42596,10103,14480,0,65728,65700,6,6,4,1460,768,1,993,116,33580,0,65700,1448,0,0,0,0
i,0x00000000,1716772647.855264,172.16.3.2,5101,172.16.1.2,42596,10103,14480,0,65728,65700,6,6,4,1460,768,1,992,116,33580,0,65700,0,0,0,0,0
i,0x00000000,1716772647.865570,172.16.3.2,5101,172.16.1.2,42596,10103,14480,0,65728,65700,6,6,4,1460,768,1,992,116,33580,0,65700,0,0,0,0,0
o,0x00000000,1716772647.865578,172.16.3.2,5101,172.16.1.2,42596,10103,14480,0,65728,65700,6,6,4,1460,768,1,993,116,33580,0,65700,1448,0,0,0,0
i,0x00000000,1716772647.874817,172.16.3.2,5101,172.16.1.2,42596,10103,14480,0,65728,65700,6,6,4,1460,768,1,992,116,33580,0,65700,0,0,0,0,0
i,0x00000000,1716772647.896256,172.16.3.2,5101,172.16.1.2,42596,10103,14480,0,65728,65700,6,6,4,1460,768,1,992,116,33580,0,65700,0,0,0,0,0
o,0x00000000,1716772647.896270,172.16.3.2,5101,172.16.1.2,42596,10103,14480,0,65728,65700,6,6,4,1460,768,1,993,116,33580,0,65700,1448,0,0,0,0
i,0x00000000,1716772647.906280,172.16.3.2,5101,172.16.1.2,42596,10103,14480,0,65728,65700,6,6,4,1460,768,1,992,116,33580,0,65700,0,0,0,0,0
i,0x00000000,1716772647.915229,172.16.3.2,5101,172.16.1.2,42596,10103,14480,0,65728,65700,6,6,4,1460,768,1,992,116,33580,0,65700,0,0,0,0,0
o,0x00000000,1716772647.915234,172.16.3.2,5101,172.16.1.2,42596,10103,14480,0,65728,65700,6,6,4,1460,768,1,993,116,33580,0,65700,1448,0,0,0,0
i,0x00000000,1716772647.926153,172.16.3.2,5101,172.16.1.2,42596,10103,14480,0,65728,65700,6,6,4,1460,768,1,992,116,33580,0,65700,0,0,0,0,0
i,0x00000000,1716772647.936019,172.16.3.2,5101,172.16.1.2,42596,10103,14480,0,65728,65700,6,6,4,1460,768,1,992,116,33580,0,65700,0,0,0,0,0
o,0x00000000,1716772647.936025,172.16.3.2,5101,172.16.1.2,42596,10103,14480,0,65728,65700,6,6,4,1460,768,1,993,116,33580,0,65700,1448,0,0,0,0
i,0x00000000,1716772647.954842,172.16.3.2,5101,172.16.1.2,42596,10103,14480,0,65728,65700,6,6,4,1460,768,1,992,116,33580,0,65700,0,0,0,0,0
i,0x00000000,1716772647.965007,172.16.3.2,5101,172.16.1.2,42596,10103,14480,0,65728,65700,6,6,4,1460,768,1,992,116,33580,0,65700,0,0,0,0,0
o,0x00000000,1716772647.965014,172.16.3.2,5101,172.16.1.2,42596,10103,14480,0,65728,65700,6,6,4,1460,768,1,993,116,33580,0,65700,1448,0,0,0,0
i,0x00000000,1716772647.975852,172.16.3.2,5101,172.16.1.2,42596,10103,14480,0,65728,65700,6,6,4,1460,768,1,992,116,33580,0,65700,0,0,0,0,0
i,0x00000000,1716772647.984950,172.16.3.2,5101,172.16.1.2,42596,10103,14480,0,65728,65700,6,6,4,1460,768,1,992,116,33580,0,65700,0,0,0,0,0
o,0x00000000,1716772647.984958,172.16.3.2,5101,172.16.1.2,42596,10103,14480,0,65728,65700,6,6,4,1460,768,1,993,116,33580,0,65700,1448,0,0,0,0
i,0x00000000,1716772647.996374,172.16.3.2,5101,172.16.1.2,42596,10103,14480,0,65728,65700,6,6,4,1460,768,1,992,116,33580,0,65700,0,0,0,0,0
i,0x00000000,1716772648.016416,172.16.3.2,5101,172.16.1.2,42596,10103,14480,0,65728,65700,6,6,4,1460,768,1,992,116,33580,0,65700,0,0,0,0,0
o,0x00000000,1716772648.016427,172.16.3.2,5101,172.16.1.2,42596,10103,14480,0,65728,65700,6,6,4,1460,768,1,993,116,33580,0,65700,1448,0,0,0,0
i,0x00000000,1716772648.025781,172.16.3.2,5101,172.16.1.2,42596,10103,14480,0,65728,65700,6,6,4,1460,768,1,992,116,33580,0,65700,0,0,0,0,0
i,0x00000000,1716772648.036549,172.16.3.2,5101,172.16.1.2,42596,10103,14480,0,65728,65700,6,6,4,1460,768,1,992,116,33580,0,65700,0,0,0,0,0
o,0x00000000,1716772648.036559,172.16.3.2,5101,172.16.1.2,42596,10103,14480,0,65728,65700,6,6,4,1460,768,1,993,116,33580,0,65700,1448,0,0,0,0
i,0x00000000,1716772648.044934,172.16.3.2,5101,172.16.1.2,42596,10103,14480,0,65728,65700,6,6,4,1460,768,1,992,116,33580,0,65700,0,0,0,0,0
i,0x00000000,1716772648.055553,172.16.3.2,5101,172.16.1.2,42596,10103,14480,0,65728,65700,6,6,4,1460,768,1,992,116,33580,0,65700,0,0,0,0,0
o,0x00000000,1716772648.055559,172.16.3.2,5101,172.16.1.2,42596,10103,14480,0,65728,65700,6,6,4,1460,768,1,993,116,33580,0,65700,1448,0,0,0,0
i,0x00000000,1716772648.075171,172.16.3.2,5101,172.16.1.2,42596,10103,14480,0,65728,65700,6,6,4,1460,768,1,992,116,33580,0,65700,0,0,0,0,0
o,0x00000000,1716772648.109947,172.16.3.2,5101,172.16.1.2,42596,10103,14480,0,65728,65700,6,6,4,1460,768,1,993,116,33580,0,65700,0,0,0,0,0
i,0x00000000,1716772648.466482,172.16.3.2,5101,172.16.1.2,42596,10103,14480,0,65728,65700,6,6,4,1460,768,1,992,116,33580,0,65700,0,0,0,0,0
i,0x00000000,1716772648.476867,172.16.3.2,5101,172.16.1.2,42596,10103,14480,0,65728,65700,6,6,4,1460,768,1,992,116,33580,0,65700,0,0,0,0,0
o,0x00000000,1716772648.476879,172.16.3.2,5101,172.16.1.2,42596,10103,14480,0,65728,65700,6,6,4,1460,768,1,993,116,33580,0,65700,1448,0,0,0,0
i,0x00000000,1716772648.497011,172.16.3.2,5101,172.16.1.2,42596,10103,14480,0,65728,65700,6,6,4,1460,768,1,992,116,33580,0,65700,0,0,0,0,0
i,0x00000000,1716772648.505828,172.16.3.2,5101,172.16.1.2,42596,10103,14480,0,65728,65700,6,6,4,1460,768,1,992,116,33580,0,65700,0,0,0,0,0
o,0x00000000,1716772648.505835,172.16.3.2,5101,172.16.1.2,42596,10103,14480,0,65728,65700,6,6,4,1460,768,1,993,116,33580,0,65700,1448,0,0,0,0
i,0x00000000,1716772648.516139,172.16.3.2,5101,172.16.1.2,42596,10103,14480,0,65728,65700,6,6,4,1460,768,1,992,116,33580,0,65700,0,0,0,0,0
i,0x00000000,1716772648.525540,172.16.3.2,5101,172.16.1.2,42596,10103,14480,0,65728,65700,6,6,4,1460,768,1,992,116,33580,0,65700,0,0,0,0,0
o,0x00000000,1716772648.525546,172.16.3.2,5101,172.16.1.2,42596,10103,14480,0,65728,65700,6,6,4,1460,768,1,993,116,33580,0,65700,1448,0,0,0,0
i,0x00000000,1716772648.535902,172.16.3.2,5101,172.16.1.2,42596,10103,14480,0,65728,65700,6,6,4,1460,768,1,992,116,33580,0,65700,0,0,0,0,0
i,0x00000000,1716772648.556569,172.16.3.2,5101,172.16.1.2,42596,10103,14480,0,65728,65700,6,6,4,1460,768,1,992,116,33580,0,65700,0,0,0,0,0
o,0x00000000,1716772648.556577,172.16.3.2,5101,172.16.1.2,42596,10103,14480,0,65728,65700,6,6,4,1460,768,1,993,116,33580,0,65700,1448,0,0,0,0
i,0x00000000,1716772648.566015,172.16.3.2,5101,172.16.1.2,42596,10103,14480,0,65728,65700,6,6,4,1460,768,1,992,116,33580,0,65700,0,0,0,0,0
i,0x00000000,1716772648.576587,172.16.3.2,5101,172.16.1.2,42596,10103,14480,0,65728,65700,6,6,4,1460,768,1,992,116,33580,0,65700,0,0,0,0,0
o,0x00000000,1716772648.576606,172.16.3.2,5101,172.16.1.2,42596,10103,14480,0,65728,65700,6,6,4,1460,768,1,993,116,33580,0,65700,1448,0,0,0,0
i,0x00000000,1716772648.586611,172.16.3.2,5101,172.16.1.2,42596,10103,14480,0,65728,65700,6,6,4,1460,768,1,992,116,33580,0,65700,0,0,0,0,0
i,0x00000000,1716772648.595852,172.16.3.2,5101,172.16.1.2,42596,10103,14480,0,65728,65700,6,6,4,1460,768,1,992,116,33580,0,65700,0,0,0,0,0
o,0x00000000,1716772648.595866,172.16.3.2,5101,172.16.1.2,42596,10103,14480,0,65728,65700,6,6,4,1460,768,1,993,116,33580,0,65700,1448,0,0,0,0
i,0x00000000,1716772648.616769,172.16.3.2,5101,172.16.1.2,42596,10103,14480,0,65728,65700,6,6,4,1460,768,1,992,116,33580,0,65700,0,0,0,0,0
i,0x00000000,1716772648.626155,172.16.3.2,5101,172.16.1.2,42596,10103,14480,0,65728,65700,6,6,4,1460,768,1,992,116,33580,0,65700,0,0,0,0,0
o,0x00000000,1716772648.626168,172.16.3.2,5101,172.16.1.2,42596,10103,14480,0,65728,65700,6,6,4,1460,768,1,993,116,33580,0,65700,1448,0,0,0,0
i,0x00000000,1716772648.636637,172.16.3.2,5101,172.16.1.2,42596,10103,14480,0,65728,65700,6,6,4,1460,768,1,992,116,33580,0,65700,0,0,0,0,0
i,0x00000000,1716772648.646058,172.16.3.2,5101,172.16.1.2,42596,10103,14480,0,65728,65700,6,6,4,1460,768,1,992,116,33580,0,65700,0,0,0,0,0
o,0x00000000,1716772648.646086,172.16.3.2,5101,172.16.1.2,42596,10103,14480,0,65728,65700,6,6,4,1460,768,1,993,116,33580,0,65700,1448,0,0,0,0
i,0x00000000,1716772648.656276,172.16.3.2,5101,172.16.1.2,42596,10103,14480,0,65728,65700,6,6,4,1460,768,1,992,116,33580,0,65700,0,0,0,0,0
i,0x00000000,1716772648.676019,172.16.3.2,5101,172.16.1.2,42596,10103,14480,0,65728,65700,6,6,4,1460,768,1,992,116,33580,0,65700,0,0,0,0,0
o,0x00000000,1716772648.676034,172.16.3.2,5101,172.16.1.2,42596,10103,14480,0,65728,65700,6,6,4,1460,768,1,993,116,33580,0,65700,1448,0,0,0,0
i,0x00000000,1716772648.686248,172.16.3.2,5101,172.16.1.2,42596,10103,14480,0,65728,65700,6,6,4,1460,768,1,992,116,33580,0,65700,0,0,0,0,0
i,0x00000000,1716772648.697272,172.16.3.2,5101,172.16.1.2,42596,10103,14480,0,65728,65700,6,6,4,1460,768,1,992,116,33580,0,65700,0,0,0,0,0
o,0x00000000,1716772648.697278,172.16.3.2,5101,172.16.1.2,42596,10103,14480,0,65728,65700,6,6,4,1460,768,1,993,116,33580,0,65700,1448,0,0,0,0
i,0x00000000,1716772648.705857,172.16.3.2,5101,172.16.1.2,42596,10103,14480,0,65728,65700,6,6,4,1460,768,1,992,116,33580,0,65700,0,0,0,0,0
i,0x00000000,1716772648.716179,172.16.3.2,5101,172.16.1.2,42596,10103,14480,0,65728,65700,6,6,4,1460,768,1,992,116,33580,0,65700,0,0,0,0,0
o,0x00000000,1716772648.716186,172.16.3.2,5101,172.16.1.2,42596,10103,14480,0,65728,65700,6,6,4,1460,768,1,993,116,33580,0,65700,1448,0,0,0,0
i,0x00000000,1716772648.735861,172.16.3.2,5101,172.16.1.2,42596,10103,14480,0,65728,65700,6,6,4,1460,768,1,992,116,33580,0,65700,0,0,0,0,0
i,0x00000000,1716772648.746160,172.16.3.2,5101,172.16.1.2,42596,10103,14480,0,65728,65700,6,6,4,1460,768,1,992,116,33580,0,65700,0,0,0,0,0
o,0x00000000,1716772648.746166,172.16.3.2,5101,172.16.1.2,42596,10103,14480,0,65728,65700,6,6,4,1460,768,1,993,116,33580,0,65700,1448,0,0,0,0
i,0x00000000,1716772648.756346,172.16.3.2,5101,172.16.1.2,42596,10103,14480,0,65728,65700,6,6,4,1460,768,1,992,116,33580,0,65700,0,0,0,0,0
i,0x00000000,1716772648.765579,172.16.3.2,5101,172.16.1.2,42596,10103,14480,0,65728,65700,6,6,4,1460,768,1,992,116,33580,0,65700,0,0,0,0,0
o,0x00000000,1716772648.765584,172.16.3.2,5101,172.16.1.2,42596,10103,14480,0,65728,65700,6,6,4,1460,768,1,993,116,33580,0,65700,1448,0,0,0,0
i,0x00000000,1716772648.776955,172.16.3.2,5101,172.16.1.2,42596,10103,14480,0,65728,65700,6,6,4,1460,768,1,992,116,33580,0,65700,0,0,0,0,0
i,0x00000000,1716772648.797279,172.16.3.2,5101,172.16.1.2,42596,10103,14480,0,65728,65700,6,6,4,1460,768,1,992,116,33580,0,65700,0,0,0,0,0
o,0x00000000,1716772648.797297,172.16.3.2,5101,172.16.1.2,42596,10103,14480,0,65728,65700,6,6,4,1460,768,1,993,116,33580,0,65700,1448,0,0,0,0
o,0x00000000,1716772648.819302,10.0.2.15,22,10.0.2.2,60131,1073725440,14600,0,65535,65700,0,0,4,1460,1,0,4,24,33580,108,65700,0,0,0,0,0
i,0x00000000,1716772648.819912,10.0.2.15,22,10.0.2.2,60131,1073725440,14600,0,65535,65700,0,0,4,1460,1,0,4,24,33580,108,65700,0,108,0,0,0
i,0x00000000,1716772649.186991,172.16.3.2,5101,172.16.1.2,42596,10103,14480,0,65728,65700,6,6,4,1460,768,1,992,116,33580,0,65700,0,0,0,0,0
o,0x00000000,1716772649.219512,172.16.3.2,5101,172.16.1.2,42596,10103,14480,0,65728,65700,6,6,4,1460,768,1,993,116,33580,0,65700,0,0,0,0,0
i,0x00000000,1716772649.226457,172.16.3.2,5101,172.16.1.2,42596,10103,14480,0,65728,65700,6,6,4,1460,768,1,992,116,33580,0,65700,0,0,0,0,0
i,0x00000000,1716772649.236890,172.16.3.2,5101,172.16.1.2,42596,10103,14480,0,65728,65700,6,6,4,1460,768,1,992,116,33580,0,65700,0,0,0,0,0
o,0x00000000,1716772649.236899,172.16.3.2,5101,172.16.1.2,42596,10103,14480,0,65728,65700,6,6,4,1460,768,1,993,116,33580,0,65700,1448,0,0,0,0
i,0x00000000,1716772649.246360,172.16.3.2,5101,172.16.1.2,42596,10103,14480,0,65728,65700,6,6,4,1460,768,1,992,116,33580,0,65700,0,0,0,0,0
i,0x00000000,1716772649.256710,172.16.3.2,5101,172.16.1.2,42596,10103,14480,0,65728,65700,6,6,4,1460,768,1,992,116,33580,0,65700,0,0,0,0,0
o,0x00000000,1716772649.256716,172.16.3.2,5101,172.16.1.2,42596,10103,14480,0,65728,65700,6,6,4,1460,768,1,993,116,33580,0,65700,1448,0,0,0,0
i,0x00000000,1716772649.276435,172.16.3.2,5101,172.16.1.2,42596,10103,14480,0,65728,65700,6,6,4,1460,768,1,992,116,33580,0,65700,0,0,0,0,0
i,0x00000000,1716772649.286850,172.16.3.2,5101,172.16.1.2,42596,10103,14480,0,65728,65700,6,6,4,1460,768,1,992,116,33580,0,65700,0,0,0,0,0
o,0x00000000,1716772649.286858,172.16.3.2,5101,172.16.1.2,42596,10103,14480,0,65728,65700,6,6,4,1460,768,1,993,116,33580,0,65700,1448,0,0,0,0
i,0x00000000,1716772649.296150,172.16.3.2,5101,172.16.1.2,42596,10103,14480,0,65728,65700,6,6,4,1460,768,1,992,116,33580,0,65700,0,0,0,0,0
i,0x00000000,1716772649.306673,172.16.3.2,5101,172.16.1.2,42596,10103,14480,0,65728,65700,6,6,4,1460,768,1,992,116,33580,0,65700,0,0,0,0,0
o,0x00000000,1716772649.306680,172.16.3.2,5101,172.16.1.2,42596,10103,14480,0,65728,65700,6,6,4,1460,768,1,993,116,33580,0,65700,1448,0,0,0,0
i,0x00000000,1716772649.316416,172.16.3.2,5101,172.16.1.2,42596,10103,14480,0,65728,65700,6,6,4,1460,768,1,992,116,33580,0,65700,0,0,0,0,0
i,0x00000000,1716772649.337278,172.16.3.2,5101,172.16.1.2,42596,10103,14480,0,65728,65700,6,6,4,1460,768,1,992,116,33580,0,65700,0,0,0,0,0
o,0x00000000,1716772649.337285,172.16.3.2,5101,172.16.1.2,42596,10103,14480,0,65728,65700,6,6,4,1460,768,1,993,116,33580,0,65700,1448,0,0,0,0
i,0x00000000,1716772649.346555,172.16.3.2,5101,172.16.1.2,42596,10103,14480,0,65728,65700,6,6,4,1460,768,1,992,116,33580,0,65700,0,0,0,0,0
i,0x00000000,1716772649.356819,172.16.3.2,5101,172.16.1.2,42596,10103,14480,0,65728,65700,6,6,4,1460,768,1,992,116,33580,0,65700,0,0,0,0,0
o,0x00000000,1716772649.356826,172.16.3.2,5101,172.16.1.2,42596,10103,14480,0,65728,65700,6,6,4,1460,768,1,993,116,33580,0,65700,1448,0,0,0,0
i,0x00000000,1716772649.367359,172.16.3.2,5101,172.16.1.2,42596,10103,14480,0,65728,65700,6,6,4,1460,768,1,992,116,33580,0,65700,0,0,0,0,0
i,0x00000000,1716772649.376499,172.16.3.2,5101,172.16.1.2,42596,10103,14480,0,65728,65700,6,6,4,1460,768,1,992,116,33580,0,65700,0,0,0,0,0
o,0x00000000,1716772649.376508,172.16.3.2,5101,172.16.1.2,42596,10103,14480,0,65728,65700,6,6,4,1460,768,1,993,116,33580,0,65700,1448,0,0,0,0
i,0x00000000,1716772649.397844,172.16.3.2,5101,172.16.1.2,42596,10103,14480,0,65728,65700,6,6,4,1460,768,1,992,116,33580,0,65700,0,0,0,0,0
i,0x00000000,1716772649.407741,172.16.3.2,5101,172.16.1.2,42596,10103,14480,0,65728,65700,6,6,4,1460,768,1,992,116,33580,0,65700,0,0,0,0,0
o,0x00000000,1716772649.407749,172.16.3.2,5101,172.16.1.2,42596,10103,14480,0,65728,65700,6,6,4,1460,768,1,993,116,33580,0,65700,1448,0,0,0,0
i,0x00000000,1716772649.416929,172.16.3.2,5101,172.16.1.2,42596,10103,14480,0,65728,65700,6,6,4,1460,768,1,992,116,33580,0,65700,0,0,0,0,0
i,0x00000000,1716772649.426421,172.16.3.2,5101,172.16.1.2,42596,10103,14480,0,65728,65700,6,6,4,1460,768,1,992,116,33580,0,65700,0,0,0,0,0
o,0x00000000,1716772649.426433,172.16.3.2,5101,172.16.1.2,42596,10103,14480,0,65728,65700,6,6,4,1460,768,1,993,116,33580,0,65700,1448,0,0,0,0
i,0x00000000,1716772649.436685,172.16.3.2,5101,172.16.1.2,42596,10103,14480,0,65728,65700,6,6,4,1460,768,1,992,116,33580,0,65700,0,0,0,0,0
i,0x00000000,1716772649.457491,172.16.3.2,5101,172.16.1.2,42596,10103,14480,0,65728,65700,6,6,4,1460,768,1,992,116,33580,0,65700,0,0,0,0,0
o,0x00000000,1716772649.457499,172.16.3.2,5101,172.16.1.2,42596,10103,14480,0,65728,65700,6,6,4,1460,768,1,993,116,33580,0,65700,1448,0,0,0,0
i,0x00000000,1716772649.466854,172.16.3.2,5101,172.16.1.2,42596,10103,14480,0,65728,65700,6,6,4,1460,768,1,992,116,33580,0,65700,0,0,0,0,0
i,0x00000000,1716772649.477232,172.16.3.2,5101,172.16.1.2,42596,10103,14480,0,65728,65700,6,6,4,1460,768,1,992,116,33580,0,65700,0,0,0,0,0
o,0x00000000,1716772649.477239,172.16.3.2,5101,172.16.1.2,42596,10103,14480,0,65728,65700,6,6,4,1460,768,1,993,116,33580,0,65700,1448,0,0,0,0
i,0x00000000,1716772649.487603,172.16.3.2,5101,172.16.1.2,42596,10103,14480,0,65728,65700,6,6,4,1460,768,1,992,116,33580,0,65700,0,0,0,0,0
