enable_time_secs=1716771776	enable_time_usecs=830013	siftrver=1.2.4	hz=100	tcp_rtt_scale=32	sysname=FreeBSD	sysver=1301000	ipmode=4
o,0x00000000,1716771776.830046,10.0.2.15,22,10.0.2.2,53214,1073725440,17298,0,65535,65700,0,0,4,1460,1,0,4,24,33580,44,65700,0,0,0,0,0
o,0x00000000,1716771776.830154,10.0.2.15,22,10.0.2.2,53214,1073725440,17298,0,65535,65700,0,0,4,1460,1,0,4,24,33580,80,65700,0,44,0,0,0
i,0x00000000,1716771776.830892,10.0.2.15,22,10.0.2.2,53214,1073725440,17298,0,65535,65700,0,0,4,1460,1,0,4,24,33580,80,65700,0,80,0,0,0
i,0x00000000,1716771776.830895,10.0.2.15,22,10.0.2.2,53214,1073725440,17342,0,65535,65700,0,0,4,1460,1,0,4,24,33580,36,65700,0,36,0,0,0
o,0x00000000,1716771776.830954,10.0.2.15,22,10.0.2.2,53214,1073725440,17378,0,65535,65700,0,0,4,1460,1,0,4,24,33580,36,65700,0,0,0,0,0
o,0x00000000,1716771776.831202,10.0.2.15,22,10.0.2.2,53214,1073725440,17378,0,65535,65700,0,0,4,1460,1,0,4,24,33580,212,65700,0,36,0,0,0
i,0x00000000,1716771776.832106,10.0.2.15,22,10.0.2.2,53214,1073725440,17378,0,65535,65700,0,0,4,1460,1,0,4,24,33580,212,65700,0,212,0,0,0
i,0x00000000,1716771776.832194,10.0.2.15,22,10.0.2.2,53214,1073725440,17414,0,65535,65700,0,0,4,1460,1,0,4,24,33580,176,65700,0,176,0,0,0
i,0x00000000,1716771776.832696,10.0.2.15,22,10.0.2.2,53214,1073725440,17590,0,65535,65700,0,0,4,1460,1,0,4,24,33580,0,65700,0,0,0,0,0
i,0x00000000,1716771776.832698,10.0.2.15,22,10.0.2.2,53214,1073725440,17590,0,65535,65700,0,0,4,1460,1,0,4,24,33580,0,65700,36,0,0,0,0
o,0x00000000,1716771776.832700,10.0.2.15,22,10.0.2.2,53214,1073725440,17590,0,65535,65700,0,0,4,1460,1,0,5,24,33580,0,65700,96,0,0,0,0
i,0x00000000,1716771776.832775,10.0.2.15,22,10.0.2.2,53214,1073725440,17590,0,65535,65700,0,0,4,1460,1,0,4,24,33580,0,65700,96,0,0,0,0
o,0x00000000,1716771776.832779,10.0.2.15,22,10.0.2.2,53214,1073725440,17590,0,65535,65604,0,0,5,1460,1,0,7,24,33580,0,65700,96,0,0,0,0
o,0x00000000,1716771776.833820,10.0.2.15,22,10.0.2.2,53214,1073725440,17590,0,65535,65604,0,0,8,1460,1,0,4,24,33580,0,65700,0,0,0,0,0
i,0x00000000,1716771776.834290,10.0.2.15,22,10.0.2.2,53214,1073725440,17590,0,65535,65604,0,0,8,1460,1,0,20,24,33580,0,65700,0,1,0,0,0
i,0x00000000,1716771778.158560,172.16.3.2,5101,172.16.1.2,14279,10499,14480,0,65728,65700,6,6,4,1460,686,1,992,96,33580,0,65700,0,0,0,0,0
o,0x00000000,1716771778.158649,172.16.3.2,5101,172.16.1.2,14279,10499,14480,0,65728,65700,6,6,4,1460,686,1,996,96,33580,1,65700,0,0,0,0,0
i,0x00000000,1716771778.277647,172.16.3.2,5101,172.16.1.2,14279,10499,14480,0,65728,65700,6,6,4,1460,686,1,996,96,33580,1,65700,0,1,0,0,0
i,0x00000000,1716771778.277666,172.16.3.2,5101,172.16.1.2,14279,10499,14480,0,65728,65728,6,6,4,1460,649,1,996,91,33580,0,65700,4,0,0,0,0
o,0x00000000,1716771778.277675,172.16.3.2,5101,172.16.1.2,14279,10499,14480,0,65728,65728,6,6,4,1460,649,1,997,91,33580,0,65700,128,0,0,0,0
o,0x00000000,1716771778.278093,172.16.3.2,5101,172.16.1.2,14279,10499,14480,0,65728,65728,6,6,4,1460,649,1,996,91,33580,1,65700,0,0,0,0,0
o,0x00000000,1716771778.278290,10.0.2.15,22,10.0.2.2,60131,1073725440,14600,0,65535,65700,0,0,4,1460,1,0,4,24,33580,84,65700,0,0,0,0,0
i,0x00000000,1716771778.279278,10.0.2.15,22,10.0.2.2,60131,1073725440,14600,0,65535,65700,0,0,4,1460,1,0,4,24,33580,84,65700,0,84,0,0,0
i,0x00000000,1716771778.428295,172.16.3.2,5101,172.16.1.2,14279,10499,14480,0,65728,65728,6,6,4,1460,649,1,996,91,33580,1,65700,0,1,0,0,0
i,0x00000000,1716771778.518579,172.16.3.2,5101,172.16.1.2,58704,10499,14480,0,65728,65700,6,6,4,1460,686,1,992,96,33580,0,65700,0,0,0,0,0
o,0x00000000,1716771778.520320,172.16.3.2,5101,172.16.1.2,14279,10499,14480,0,65728,65728,6,6,4,1460,628,1,996,83,33580,1,65700,0,0,0,0,0
o,0x00000000,1716771778.520418,172.16.3.2,5101,172.16.1.2,14279,10499,14480,0,65728,65728,6,6,4,1460,628,1,996,83,33580,2,65700,0,1,0,0,0
o,0x00000000,1716771778.520807,10.0.2.15,22,10.0.2.2,60131,1073725440,14600,0,65535,65700,0,0,4,1460,1,0,4,24,33580,108,65700,0,0,0,0,0
i,0x00000000,1716771778.521513,10.0.2.15,22,10.0.2.2,60131,1073725440,14600,0,65535,65700,0,0,4,1460,1,0,4,24,33580,108,65700,0,108,0,0,0
o,0x00000000,1716771778.550030,172.16.3.2,5101,172.16.1.2,58704,10499,14480,0,65728,65700,6,6,4,1460,686,1,993,96,33580,0,65700,0,0,0,0,0
i,0x00000000,1716771778.708149,172.16.3.2,5101,172.16.1.2,14279,10499,14480,0,65728,65728,6,6,4,1460,628,1,996,83,33580,2,65700,0,2,0,0,0
i,0x00000000,1716771778.738684,172.16.3.2,5101,172.16.1.2,58704,10499,14480,0,65728,65700,6,6,4,1460,686,1,992,96,33580,0,65700,0,0,0,0,0
i,0x00000000,1716771778.748844,172.16.3.2,5101,172.16.1.2,58704,10499,14480,0,65728,65700,6,6,4,1460,686,1,992,96,33580,0,65700,0,0,0,0,0
o,0x00000000,1716771778.748859,172.16.3.2,5101,172.16.1.2,58704,10499,14480,0,65728,65700,6,6,4,1460,686,1,993,96,33580,0,65700,1448,0,0,0,0
i,0x00000000,1716771778.759578,172.16.3.2,5101,172.16.1.2,58704,10499,14480,0,65728,65700,6,6,4,1460,686,1,992,96,33580,0,65700,0,0,0,0,0
i,0x00000000,1716771778.768137,172.16.3.2,5101,172.16.1.2,58704,10499,14480,0,65728,65700,6,6,4,1460,686,1,992,96,33580,0,65700,0,0,0,0,0
o,0x00000000,1716771778.768146,172.16.3.2,5101,172.16.1.2,58704,10499,14480,0,65728,65700,6,6,4,1460,686,1,993,96,33580,0,65700,1448,0,0,0,0
i,0x00000000,1716771778.788486,172.16.3.2,5101,172.16.1.2,58704,10499,14480,0,65728,65700,6,6,4,1460,686,1,992,96,33580,0,65700,0,0,0,0,0
i,0x00000000,1716771778.798801,172.16.3.2,5101,172.16.1.2,58704,10499,14480,0,65728,65700,6,6,4,1460,686,1,992,96,33580,0,65700,0,0,0,0,0
o,0x00000000,1716771778.798809,172.16.3.2,5101,172.16.1.2,58704,10499,14480,0,65728,65700,6,6,4,1460,686,1,993,96,33580,0,65700,1448,0,0,0,0
i,0x00000000,1716771778.809208,172.16.3.2,5101,172.16.1.2,58704,10499,14480,0,65728,65700,6,6,4,1460,686,1,992,96,33580,0,65700,0,0,0,0,0
i,0x00000000,1716771778.818562,172.16.3.2,5101,172.16.1.2,58704,10499,14480,0,65728,65700,6,6,4,1460,686,1,992,96,33580,0,65700,0,0,0,0,0
o,0x00000000,1716771778.818571,172.16.3.2,5101,172.16.1.2,58704,10499,14480,0,65728,65700,6,6,4,1460,686,1,993,96,33580,0,65700,1448,0,0,0,0
i,0x00000000,1716771778.828964,172.16.3.2,5101,172.16.1.2,58704,10499,14480,0,65728,65700,6,6,4,1460,686,1,992,96,33580,0,65700,0,0,0,0,0
i,0x00000000,1716771778.848732,172.16.3.2,5101,172.16.1.2,58704,10499,14480,0,65728,65700,6,6,4,1460,686,1,992,96,33580,0,65700,0,0,0,0,0
o,0x00000000,1716771778.848739,172.16.3.2,5101,172.16.1.2,58704,10499,14480,0,65728,65700,6,6,4,1460,686,1,993,96,33580,0,65700,1448,0,0,0,0
i,0x00000000,1716771779.159769,172.16.3.2,5101,172.16.1.2,58704,10499,14480,0,65728,65700,6,6,4,1460,686,1,992,96,33580,0,65700,0,0,0,0,0
i,0x00000000,1716771779.168808,172.16.3.2,5101,172.16.1.2,58704,10499,14480,0,65728,65700,6,6,4,1460,686,1,992,96,33580,0,65700,0,0,0,0,0
o,0x00000000,1716771779.168826,172.16.3.2,5101,172.16.1.2,58704,10499,14480,0,65728,65700,6,6,4,1460,686,1,993,96,33580,0,65700,1448,0,0,0,0
i,0x00000000,1716771779.179161,172.16.3.2,5101,172.16.1.2,58704,10499,14480,0,65728,65700,6,6,4,1460,686,1,992,96,33580,0,65700,0,0,0,0,0
i,0x00000000,1716771779.189544,172.16.3.2,5101,172.16.1.2,58704,10499,14480,0,65728,65700,6,6,4,1460,686,1,992,96,33580,0,65700,0,0,0,0,0
o,0x00000000,1716771779.189560,172.16.3.2,5101,172.16.1.2,58704,10499,14480,0,65728,65700,6,6,4,1460,686,1,993,96,33580,0,65700,1448,0,0,0,0
i,0x00000000,1716771779.209256,172.16.3.2,5101,172.16.1.2,58704,10499,14480,0,65728,65700,6,6,4,1460,686,1,992,96,33580,0,65700,0,0,0,0,0
i,0x00000000,1716771779.219822,172.16.3.2,5101,172.16.1.2,58704,10499,14480,0,65728,65700,6,6,4,1460,686,1,992,96,33580,0,65700,0,0,0,0,0
o,0x00000000,1716771779.219837,172.16.3.2,5101,172.16.1.2,58704,10499,14480,0,65728,65700,6,6,4,1460,686,1,993,96,33580,0,65700,1448,0,0,0,0
i,0x00000000,1716771779.228945,172.16.3.2,5101,172.16.1.2,58704,10499,14480,0,65728,65700,6,6,4,1460,686,1,992,96,33580,0,65700,0,0,0,0,0
i,0x00000000,1716771779.239471,172.16.3.2,5101,172.16.1.2,58704,10499,14480,0,65728,65700,6,6,4,1460,686,1,992,96,33580,0,65700,0,0,0,0,0
o,0x00000000,1716771779.239481,172.16.3.2,5101,172.16.1.2,58704,10499,14480,0,65728,65700,6,6,4,1460,686,1,993,96,33580,0,65700,1448,0,0,0,0
i,0x00000000,1716771779.248823,172.16.3.2,5101,172.16.1.2,58704,10499,14480,0,65728,65700,6,6,4,1460,686,1,992,96,33580,0,65700,0,0,0,0,0
i,0x00000000,1716771779.268542,172.16.3.2,5101,172.16.1.2,58704,10499,14480,0,65728,65700,6,6,4,1460,686,1,992,96,33580,0,65700,0,0,0,0,0
o,0x00000000,1716771779.268550,172.16.3.2,5101,172.16.1.2,58704,10499,14480,0,65728,65700,6,6,4,1460,686,1,993,96,33580,0,65700,1448,0,0,0,0
i,0x00000000,1716771779.278790,172.16.3.2,5101,172.16.1.2,58704,10499,14480,0,65728,65700,6,6,4,1460,686,1,992,96,33580,0,65700,0,0,0,0,0
i,0x00000000,1716771779.289008,172.16.3.2,5101,172.16.1.2,58704,10499,14480,0,65728,65700,6,6,4,1460,686,1,992,96,33580,0,65700,0,0,0,0,0
o,0x00000000,1716771779.289014,172.16.3.2,5101,172.16.1.2,58704,10499,14480,0,65728,65700,6,6,4,1460,686,1,993,96,33580,0,65700,1448,0,0,0,0
i,0x00000000,1716771779.299577,172.16.3.2,5101,172.16.1.2,58704,10499,14480,0,65728,65700,6,6,4,1460,686,1,992,96,33580,0,65700,0,0,0,0,0
i,0x00000000,1716771779.310044,172.16.3.2,5101,172.16.1.2,58704,10499,14480,0,65728,65700,6,6,4,1460,686,1,992,96,33580,0,65700,0,0,0,0,0
o,0x00000000,1716771779.310050,172.16.3.2,5101,172.16.1.2,58704,10499,14480,0,65728,65700,6,6,4,1460,686,1,993,96,33580,0,65700,1448,0,0,0,0
i,0x00000000,1716771779.329811,172.16.3.2,5101,172.16.1.2,58704,10499,14480,0,65728,65700,6,6,4,1460,686,1,992,96,33580,0,65700,0,0,0,0,0
i,0x00000000,1716771779.339183,172.16.3.2,5101,172.16.1.2,58704,10499,14480,0,65728,65700,6,6,4,1460,686,1,992,96,33580,0,65700,0,0,0,0,0
o,0x00000000,1716771779.339191,172.16.3.2,5101,172.16.1.2,58704,10499,14480,0,65728,65700,6,6,4,1460,686,1,993,96,33580,0,65700,1448,0,0,0,0
i,0x00000000,1716771779.349538,172.16.3.2,5101,172.16.1.2,58704,10499,14480,0,65728,65700,6,6,4,1460,686,1,992,96,33580,0,65700,0,0,0,0,0
i,0x00000000,1716771779.359691,172.16.3.2,5101,172.16.1.2,58704,10499,14480,0,65728,65700,6,6,4,1460,686,1,992,96,33580,0,65700,0,0,0,0,0
o,0x00000000,1716771779.359698,172.16.3.2,5101,172.16.1.2,58704,10499,14480,0,65728,65700,6,6,4,1460,686,1,993,96,33580,0,65700,1448,0,0,0,0
i,0x00000000,1716771779.369412,172.16.3.2,5101,172.16.1.2,58704,10499,14480,0,65728,65700,6,6,4,1460,686,1,992,96,33580,0,65700,0,0,0,0,0
i,0x00000000,1716771779.389039,172.16.3.2,5101,172.16.1.2,58704,10499,14480,0,65728,65700,6,6,4,1460,686,1,992,96,33580,0,65700,0,0,0,0,0
o,0x00000000,1716771779.389049,172.16.3.2,5101,172.16.1.2,58704,10499,14480,0,65728,65700,6,6,4,1460,686,1,993,96,33580,0,65700,1448,0,0,0,0
o,0x00000000,1716771779.529661,10.0.2.15,22,10.0.2.2,60131,1073725440,14600,0,65535,65700,0,0,4,1460,1,0,4,24,33580,156,65700,0,0,0,0,0
i,0x00000000,1716771779.530407,10.0.2.15,22,10.0.2.2,60131,1073725440,14600,0,65535,65700,0,0,4,1460,1,0,4,24,33580,156,65700,0,156,0,0,0
i,0x00000000,1716771779.769307,172.16.3.2,5101,172.16.1.2,58704,10499,14480,0,65728,65700,6,6,4,1460,686,1,992,96,33580,0,65700,0,0,0,0,0
i,0x00000000,1716771779.779714,172.16.3.2,5101,172.16.1.2,58704,10499,14480,0,65728,65700,6,6,4,1460,686,1,992,96,33580,0,65700,0,0,0,0,0
o,0x00000000,1716771779.779744,172.16.3.2,5101,172.16.1.2,58704,10499,14480,0,65728,65700,6,6,4,1460,686,1,993,96,33580,0,65700,1448,0,0,0,0
i,0x00000000,1716771779.788961,172.16.3.2,5101,172.16.1.2,58704,10499,14480,0,65728,65700,6,6,4,1460,686,1,992,96,33580,0,65700,0,0,0,0,0
i,0x00000000,1716771779.809231,172.16.3.2,5101,172.16.1.2,58704,10499,14480,0,65728,65700,6,6,4,1460,686,1,992,96,33580,0,65700,0,0,0,0,0
o,0x00000000,1716771779.809239,172.16.3.2,5101,172.16.1.2,58704,10499,14480,0,65728,65700,6,6,4,1460,686,1,993,96,33580,0,65700,1448,0,0,0,0
i,0x00000000,1716771779.819653,172.16.3.2,5101,172.16.1.2,58704,10499,14480,0,65728,65700,6,6,4,1460,686,1,992,96,33580,0,65700,0,0,0,0,0
i,0x00000000,1716771779.829144,172.16.3.2,5101,172.16.1.2,58704,10499,14480,0,65728,65700,6,6,4,1460,686,1,992,96,33580,0,65700,0,0,0,0,0
o,0x00000000,1716771779.829151,172.16.3.2,5101,172.16.1.2,58704,10499,14480,0,65728,65700,6,6,4,1460,686,1,993,96,33580,0,65700,1448,0,0,0,0
i,0x00000000,1716771779.839616,172.16.3.2,5101,172.16.1.2,58704,10499,14480,0,65728,65700,6,6,4,1460,686,1,992,96,33580,0,65700,0,0,0,0,0
i,0x00000000,1716771779.849840,172.16.3.2,5101,172.16.1.2,58704,10499,14480,0,65728,65700,6,6,4,1460,686,1,992,96,33580,0,65700,0,0,0,0,0
o,0x00000000,1716771779.849847,172.16.3.2,5101,172.16.1.2,58704,10499,14480,0,65728,65700,6,6,4,1460,686,1,993,96,33580,0,65700,1448,0,0,0,0
i,0x00000000,1716771779.869145,172.16.3.2,5101,172.16.1.2,58704,10499,14480,0,65728,65700,6,6,4,1460,686,1,992,96,33580,0,65700,0,0,0,0,0
i,0x00000000,1716771779.880022,172.16.3.2,5101,172.16.1.2,58704,10499,14480,0,65728,65700,6,6,4,1460,686,1,992,96,33580,0,65700,0,0,0,0,0
o,0x00000000,1716771779.880029,172.16.3.2,5101,172.16.1.2,58704,10499,14480,0,65728,65700,6,6,4,1460,686,1,993,96,33580,0,65700,1448,0,0,0,0
i,0x00000000,1716771779.890137,172.16.3.2,5101,172.16.1.2,58704,10499,14480,0,65728,65700,6,6,4,1460,686,1,992,96,33580,0,65700,0,0,0,0,0
i,0x00000000,1716771779.899763,172.16.3.2,5101,172.16.1.2,58704,10499,14480,0,65728,65700,6,6,4,1460,686,1,992,96,33580,0,65700,0,0,0,0,0
o,0x00000000,1716771779.899770,172.16.3.2,5101,172.16.1.2,58704,10499,14480,0,65728,65700,6,6,4,1460,686,1,993,96,33580,0,65700,1448,0,0,0,0
i,0x00000000,1716771779.909989,172.16.3.2,5101,172.16.1.2,58704,10499,14480,0,65728,65700,6,6,4,1460,686,1,992,96,33580,0,65700,0,0,0,0,0
i,0x00000000,1716771779.929763,172.16.3.2,5101,172.16.1.2,58704,10499,14480,0,65728,65700,6,6,4,1460,686,1,992,96,33580,0,65700,0,0,0,0,0
o,0x00000000,1716771779.929774,172.16.3.2,5101,172.16.1.2,58704,10499,14480,0,65728,65700,6,6,4,1460,686,1,993,96,33580,0,65700,1448,0,0,0,0
i,0x00000000,1716771779.940292,172.16.3.2,5101,172.16.1.2,58704,10499,14480,0,65728,65700,6,6,4,1460,686,1,992,96,33580,0,65700,0,0,0,0,0
i,0x00000000,1716771779.949468,172.16.3.2,5101,172.16.1.2,58704,10499,14480,0,65728,65700,6,6,4,1460,686,1,992,96,33580,0,65700,0,0,0,0,0
o,0x00000000,1716771779.949477,172.16.3.2,5101,172.16.1.2,58704,10499,14480,0,65728,65700,6,6,4,1460,686,1,993,96,33580,0,65700,1448,0,0,0,0
i,0x00000000,1716771779.959776,172.16.3.2,5101,172.16.1.2,58704,10499,14480,0,65728,65700,6,6,4,1460,686,1,992,96,33580,0,65700,0,0,0,0,0
i,0x00000000,1716771779.969217,172.16.3.2,5101,172.16.1.2,58704,10499,14480,0,65728,65700,6,6,4,1460,686,1,992,96,33580,0,65700,0,0,0,0,0
o,0x00000000,1716771779.969223,172.16.3.2,5101,172.16.1.2,58704,10499,14480,0,65728,65700,6,6,4,1460,686,1,993,96,33580,0,65700,1448,0,0,0,0
i,0x00000000,1716771779.989931,172.16.3.2,5101,172.16.1.2,58704,10499,14480,0,65728,65700,6,6,4,1460,686,1,992,96,33580,0,65700,0,0,0,0,0
i,0x00000000,1716771780.000234,172.16.3.2,5101,172.16.1.2,58704,10499,14480,0,65728,65700,6,6,4,1460,686,1,992,96,33580,0,65700,0,0,0,0,0
o,0x00000000,1716771780.000243,172.16.3.2,5101,172.16.1.2,58704,10499,14480,0,65728,65700,6,6,4,1460,686,1,993,96,33580,0,65700,1448,0,0,0,0
i,0x00000000,1716771780.009686,172.16.3.2,5101,172.16.1.2,58704,10499,14480,0,65728,65700,6,6,4,1460,686,1,992,96,33580,0,65700,0,0,0,0,0
i,0x00000000,1716771780.019928,172.16.3.2,5101,172.16.1.2,58704,10499,14480,0,65728,65700,6,6,4,1460,686,1,992,96,33580,0,65700,0,0,0,0,0
o,0x00000000,1716771780.019937,172.16.3.2,5101,172.16.1.2,58704,10499,14480,0,65728,65700,6,6,4,1460,686,1,993,96,33580,0,65700,1448,0,0,0,0
i,0x00000000,1716771780.030305,172.16.3.2,5101,172.16.1.2,58704,10499,14480,0,65728,65700,6,6,4,1460,686,1,992,96,33580,0,65700,0,0,0,0,0
i,0x00000000,1716771780.049955,172.16.3.2,5101,172.16.1.2,58704,10499,14480,0,65728,65700,6,6,4,1460,686,1,992,96,33580,0,65700,0,0,0,0,0
o,0x00000000,1716771780.049961,172.16.3.2,5101,172.16.1.2,58704,10499,14480,0,65728,65700,6,6,4,1460,686,1,993,96,33580,0,65700,1448,0,0,0,0
i,0x00000000,1716771780.060345,172.16.3.2,5101,172.16.1.2,58704,10499,14480,0,65728,65700,6,6,4,1460,686,1,992,96,33580,0,65700,0,0,0,0,0
i,0x00000000,1716771780.069861,172.16.3.2,5101,172.16.1.2,58704,10499,14480,0,65728,65700,6,6,4,1460,686,1,992,96,33580,0,65700,0,0,0,0,0
o,0x00000000,1716771780.069872,172.16.3.2,5101,172.16.1.2,58704,10499,14480,0,65728,65700,6,6,4,1460,686,1,993,96,33580,0,65700,1448,0,0,0,0
i,0x00000000,1716771780.461193,172.16.3.2,5101,172.16.1.2,58704,10499,14480,0,65728,65700,6,6,4,1460,686,1,992,96,33580,0,65700,0,0,0,0,0
i,0x00000000,1716771780.469508,172.16.3.2,5101,172.16.1.2,58704,10499,14480,0,65728,65700,6,6,4,1460,686,1,992,96,33580,0,65700,0,0,0,0,0
o,0x00000000,1716771780.469519,172.16.3.2,5101,172.16.1.2,58704,10499,14480,0,65728,65700,6,6,4,1460,686,1,993,96,33580,0,65700,1448,0,0,0,0
i,0x00000000,1716771780.490118,172.16.3.2,5101,172.16.1.2,58704,10499,14480,0,65728,65700,6,6,4,1460,686,1,992,96,33580,0,65700,0,0,0,0,0
i,0x00000000,1716771780.499627,172.16.3.2,5101,172.16.1.2,58704,10499,14480,0,65728,65700,6,6,4,1460,686,1,992,96,33580,0,65700,0,0,0,0,0
o,0x00000000,1716771780.499633,172.16.3.2,5101,172.16.1.2,58704,10499,14480,0,65728,65700,6,6,4,1460,686,1,993,96,33580,0,65700,1448,0,0,0,0
i,0x00000000,1716771780.510101,172.16.3.2,5101,172.16.1.2,58704,10499,14480,0,65728,65700,6,6,4,1460,686,1,992,96,33580,0,65700,0,0,0,0,0
i,0x00000000,1716771780.519610,172.16.3.2,5101,172.16.1.2,58704,10499,14480,0,65728,65700,6,6,4,1460,686,1,992,96,33580,0,65700,0,0,0,0,0
o,0x00000000,1716771780.519616,172.16.3.2,5101,172.16.1.2,58704,10499,14480,0,65728,65700,6,6,4,1460,686,1,993,96,33580,0,65700,1448,0,0,0,0
i,0x00000000,1716771780.530891,172.16.3.2,5101,172.16.1.2,58704,10499,14480,0,65728,65700,6,6,4,1460,686,1,992,96,33580,0,65700,0,0,0,0,0
o,0x00000000,1716771780.539960,10.0.2.15,22,10.0.2.2,60131,1073725440,14600,0,65535,65700,0,0,4,1460,1,0,4,24,33580,108,65700,0,0,0,0,0
i,0x00000000,1716771780.540710,10.0.2.15,22,10.0.2.2,60131,1073725440,14600,0,65535,65700,0,0,4,1460,1,0,4,24,33580,108,65700,0,108,0,0,0
i,0x00000000,1716771780.549781,172.16.3.2,5101,172.16.1.2,58704,10499,14480,0,65728,65700,6,6,4,1460,686,1,992,96,33580,0,65700,0,0,0,0,0
o,0x00000000,1716771780.549792,172.16.3.2,5101,172.16.1.2,58704,10499,14480,0,65728,65700,6,6,4,1460,686,1,993,96,33580,0,65700,1448,0,0,0,0
i,0x00000000,1716771780.559995,172.16.3.2,5101,172.16.1.2,58704,10499,14480,0,65728,65700,6,6,4,1460,686,1,992,96,33580,0,65700,0,0,0,0,0
i,0x00000000,1716771780.570367,172.16.3.2,5101,172.16.1.2,58704,10499,14480,0,65728,65700,6,6,4,1460,686,1,992,96,33580,0,65700,0,0,0,0,0
o,0x00000000,1716771780.570377,172.16.3.2,5101,172.16.1.2,58704,10499,14480,0,65728,65700,6,6,4,1460,686,1,993,96,33580,0,65700,1448,0,0,0,0
i,0x00000000,1716771780.580764,172.16.3.2,5101,172.16.1.2,58704,10499,14480,0,65728,65700,6,6,4,1460,686,1,992,96,33580,0,65700,0,0,0,0,0
i,0x00000000,1716771780.590145,172.16.3.2,5101,172.16.1.2,58704,10499,14480,0,65728,65700,6,6,4,1460,686,1,992,96,33580,0,65700,0,0,0,0,0
o,0x00000000,1716771780.590152,172.16.3.2,5101,172.16.1.2,58704,10499,14480,0,65728,65700,6,6,4,1460,686,1,993,96,33580,0,65700,1448,0,0,0,0
i,0x00000000,1716771780.610794,172.16.3.2,5101,172.16.1.2,58704,10499,14480,0,65728,65700,6,6,4,1460,686,1,992,96,33580,0,65700,0,0,0,0,0
i,0x00000000,1716771780.621059,172.16.3.2,5101,172.16.1.2,58704,10499,14480,0,65728,65700,6,6,4,1460,686,1,992,96,33580,0,65700,0,0,0,0,0
o,0x00000000,1716771780.621070,172.16.3.2,5101,172.16.1.2,58704,10499,14480,0,65728,65700,6,6,4,1460,686,1,993,96,33580,0,65700,1448,0,0,0,0
i,0x00000000,1716771780.630356,172.16.3.2,5101,172.16.1.2,58704,10499,14480,0,65728,65700,6,6,4,1460,686,1,992,96,33580,0,65700,0,0,0,0,0
i,0x00000000,1716771780.639821,172.16.3.2,5101,172.16.1.2,58704,10499,14480,0,65728,65700,6,6,4,1460,686,1,992,96,33580,0,65700,0,0,0,0,0
o,0x00000000,1716771780.639828,172.16.3.2,5101,172.16.1.2,58704,10499,14480,0,65728,65700,6,6,4,1460,686,1,993,96,33580,0,65700,1448,0,0,0,0
i,0x00000000,1716771780.649721,172.16.3.2,5101,172.16.1.2,58704,10499,14480,0,65728,65700,6,6,4,1460,686,1,992,96,33580,0,65700,0,0,0,0,0
i,0x00000000,1716771780.670930,172.16.3.2,5101,172.16.1.2,58704,10499,14480,0,65728,65700,6,6,4,1460,686,1,992,96,33580,0,65700,0,0,0,0,0
o,0x00000000,1716771780.670936,172.16.3.2,5101,172.16.1.2,58704,10499,14480,0,65728,65700,6,6,4,1460,686,1,993,96,33580,0,65700,1448,0,0,0,0
i,0x00000000,1716771780.681048,172.16.3.2,5101,172.16.1.2,58704,10499,14480,0,65728,65700,6,6,4,1460,686,1,992,96,33580,0,65700,0,0,0,0,0
i,0x00000000,1716771780.690540,172.16.3.2,5101,172.16.1.2,58704,10499,14480,0,65728,65700,6,6,4,1460,686,1,992,96,33580,0,65700,0,0,0,0,0
o,0x00000000,1716771780.690546,172.16.3.2,5101,172.16.1.2,58704,10499,14480,0,65728,65700,6,6,4,1460,686,1,993,96,33580,0,65700,1448,0,0,0,0
i,0x00000000,1716771780.699757,172.16.3.2,5101,172.16.1.2,58704,10499,14480,0,65728,65700,6,6,4,1460,686,1,992,96,33580,0,65700,0,0,0,0,0
i,0x00000000,1716771780.710365,172.16.3.2,5101,172.16.1.2,58704,10499,14480,0,65728,65700,6,6,4,1460,686,1,992,96,33580,0,65700,0,0,0,0,0
o,0x00000000,1716771780.710375,172.16.3.2,5101,172.16.1.2,58704,10499,14480,0,65728,65700,6,6,4,1460,686,1,993,96,33580,0,65700,1448,0,0,0,0
i,0x00000000,1716771780.731151,172.16.3.2,5101,172.16.1.2,58704,10499,14480,0,65728,65700,6,6,4,1460,686,1,992,96,33580,0,65700,0,0,0,0,0
i,0x00000000,1716771780.740185,172.16.3.2,5101,172.16.1.2,58704,10499,14480,0,65728,65700,6,6,4,1460,686,1,992,96,33580,0,65700,0,0,0,0,0
o,0x00000000,1716771780.740197,172.16.3.2,5101,172.16.1.2,58704,10499,14480,0,65728,65700,6,6,4,1460,686,1,993,96,33580,0,65700,1448,0,0,0,0
i,0x00000000,1716771780.750704,172.16.3.2,5101,172.16.1.2,58704,10499,14480,0,65728,65700,6,6,4,1460,686,1,992,96,33580,0,65700,0,0,0,0,0
i,0x00000000,1716771780.759962,172.16.3.2,5101,172.16.1.2,58704,10499,14480,0,65728,65700,6,6,4,1460,686,1,992,96,33580,0,65700,0,0,0,0,0
o,0x00000000,1716771780.759974,172.16.3.2,5101,172.16.1.2,58704,10499,14480,0,65728,65700,6,6,4,1460,686,1,993,96,33580,0,65700,1448,0,0,0,0
i,0x00000000,1716771780.769590,172.16.3.2,5101,172.16.1.2,58704,10499,14480,0,65728,65700,6,6,4,1460,686,1,992,96,33580,0,65700,0,0,0,0,0
o,0x00000000,1716771780.809519,172.16.3.2,5101,172.16.1.2,58704,10499,14480,0,65728,65700,6,6,4,1460,686,1,993,96,33580,0,65700,0,0,0,0,0
i,0x00000000,1716771781.161282,172.16.3.2,5101,172.16.1.2,58704,10499,14480,0,65728,65700,6,6,4,1460,686,1,992,96,33580,0,65700,0,0,0,0,0
i,0x00000000,1716771781.170597,172.16.3.2,5101,172.16.1.2,58704,10499,14480,0,65728,65700,6,6,4,1460,686,1,992,96,33580,0,65700,0,0,0,0,0
o,0x00000000,1716771781.170616,172.16.3.2,5101,172.16.1.2,58704,10499,14480,0,65728,65700,6,6,4,1460,686,1,993,96,33580,0,65700,1448,0,0,0,0
i,0x00000000,1716771781.190351,172.16.3.2,5101,172.16.1.2,58704,10499,14480,0,65728,65700,6,6,4,1460,686,1,992,96,33580,0,65700,0,0,0,0,0
i,0x00000000,1716771781.200604,172.16.3.2,5101,172.16.1.2,58704,10499,14480,0,65728,65700,6,6,4,1460,686,1,992,96,33580,0,65700,0,0,0,0,0
o,0x00000000,1716771781.200618,172.16.3.2,5101,172.16.1.2,58704,10499,14480,0,65728,65700,6,6,4,1460,686,1,993,96,33580,0,65700,1448,0,0,0,0
i,0x00000000,1716771781.210003,172.16.3.2,5101,172.16.1.2,58704,10499,14480,0,65728,65700,6,6,4,1460,686,1,992,96,33580,0,65700,0,0,0,0,0
i,0x00000000,1716771781.221749,172.16.3.2,5101,172.16.1.2,58704,10499,14480,0,65728,65700,6,6,4,1460,686,1,992,96,33580,0,65700,0,0,0,0,0
o,0x00000000,1716771781.221788,172.16.3.2,5101,172.16.1.2,58704,10499,14480,0,65728,65700,6,6,4,1460,686,1,993,96,33580,0,65700,1448,0,0,0,0
i,0x00000000,1716771781.230712,172.16.3.2,5101,172.16.1.2,58704,10499,14480,0,65728,65700,6,6,4,1460,686,1,992,96,33580,0,65700,0,0,0,0,0
i,0x00000000,1716771781.251200,172.16.3.2,5101,172.16.1.2,58704,10499,14480,0,65728,65700,6,6,4,1460,686,1,992,96,33580,0,65700,0,0,0,0,0
o,0x00000000,1716771781.251221,172.16.3.2,5101,172.16.1.2,58704,10499,14480,0,65728,65700,6,6,4,1460,686,1,993,96,33580,0,65700,1448,0,0,0,0
i,0x00000000,1716771781.261360,172.16.3.2,5101,172.16.1.2,58704,10499,14480,0,65728,65700,6,6,4,1460,686,1,992,96,33580,0,65700,0,0,0,0,0
i,0x00000000,1716771781.270931,172.16.3.2,5101,172.16.1.2,58704,10499,14480,0,65728,65700,6,6,4,1460,686,1,992,96,33580,0,65700,0,0,0,0,0
o,0x00000000,1716771781.270938,172.16.3.2,5101,172.16.1.2,58704,10499,14480,0,65728,65700,6,6,4,1460,686,1,993,96,33580,0,65700,1448,0,0,0,0
i,0x00000000,1716771781.280179,172.16.3.2,5101,172.16.1.2,58704,10499,14480,0,65728,65700,6,6,4,1460,686,1,992,96,33580,0,65700,0,0,0,0,0
i,0x00000000,1716771781.291636,172.16.3.2,5101,172.16.1.2,58704,10499,14480,0,65728,65700,6,6,4,1460,686,1,992,96,33580,0,65700,0,0,0,0,0
o,0x00000000,1716771781.291642,172.16.3.2,5101,172.16.1.2,58704,10499,14480,0,65728,65700,6,6,4,1460,686,1,993,96,33580,0,65700,1448,0,0,0,0
i,0x00000000,1716771781.311297,172.16.3.2,5101,172.16.1.2,58704,10499,14480,0,65728,65700,6,6,4,1460,686,1,992,96,33580,0,65700,0,0,0,0,0
i,0x00000000,1716771781.320601,172.16.3.2,5101,172.16.1.2,58704,10499,14480,0,65728,65700,6,6,4,1460,686,1,992,96,33580,0,65700,0,0,0,0,0
o,0x00000000,1716771781.320607,172.16.3.2,5101,172.16.1.2,58704,10499,14480,0,65728,65700,6,6,4,1460,686,1,993,96,33580,0,65700,1448,0,0,0,0
i,0x00000000,1716771781.331004,172.16.3.2,5101,172.16.1.2,58704,10499,14480,0,65728,65700,6,6,4,1460,686,1,992,96,33580,0,65700,0,0,0,0,0
i,0x00000000,1716771781.341317,172.16.3.2,5101,172.16.1.2,58704,10499,14480,0,65728,65700,6,6,4,1460,686,1,992,96,33580,0,65700,0,0,0,0,0
o,0x00000000,1716771781.341323,172.16.3.2,5101,172.16.1.2,58704,10499,14480,0,65728,65700,6,6,4,1460,686,1,993,96,33580,0,65700,1448,0,0,0,0
i,0x00000000,1716771781.351776,172.16.3.2,5101,172.16.1.2,58704,10499,14480,0,65728,65700,6,6,4,1460,686,1,992,96,33580,0,65700,0,0,0,0,0
i,0x00000000,1716771781.371342,172.16.3.2,5101,172.16.1.2,58704,10499,14480,0,65728,65700,6,6,4,1460,686,1,992,96,33580,0,65700,0,0,0,0,0
o,0x00000000,1716771781.371353,172.16.3.2,5101,172.16.1.2,58704,10499,14480,0,65728,65700,6,6,4,1460,686,1,993,96,33580,0,65700,1448,0,0,0,0
i,0x00000000,1716771781.380455,172.16.3.2,5101,172.16.1.2,58704,10499,14480,0,65728,65700,6,6,4,1460,686,1,992,96,33580,0,65700,0,0,0,0,0
i,0x00000000,1716771781.391272,172.16.3.2,5101,172.16.1.2,58704,10499,14480,0,65728,65700,6,6,4,1460,686,1,992,96,33580,0,65700,0,0,0,0,0
o,0x00000000,1716771781.391278,172.16.3.2,5101,172.16.1.2,58704,10499,14480,0,65728,65700,6,6,4,1460,686,1,993,96,33580,0,65700,1448,0,0,0,0
i,0x00000000,1716771781.400606,172.16.3.2,5101,172.16.1.2,58704,10499,14480,0,65728,65700,6,6,4,1460,686,1,992,96,33580,0,65700,0,0,0,0,0
i,0x00000000,1716771781.411122,172.16.3.2,5101,172.16.1.2,58704,10499,14480,0,65728,65700,6,6,4,1460,686,1,992,96,33580,0,65700,0,0,0,0,0
o,0x00000000,1716771781.411132,172.16.3.2,5101,172.16.1.2,58704,10499,14480,0,65728,65700,6,6,4,1460,686,1,993,96,33580,0,65700,1448,0,0,0,0
i,0x00000000,1716771781.430977,172.16.3.2,5101,172.16.1.2,58704,10499,14480,0,65728,65700,6,6,4,1460,686,1,992,96,33580,0,65700,0,0,0,0,0
i,0x00000000,1716771781.441221,172.16.3.2,5101,172.16.1.2,58704,10499,14480,0,65728,65700,6,6,4,1460,686,1,992,96,33580,0,65700,0,0,0,0,0
o,0x00000000,1716771781.441228,172.16.3.2,5101,172.16.1.2,58704,10499,14480,0,65728,65700,6,6,4,1460,686,1,993,96,33580,0,65700,1448,0,0,0,0
i,0x00000000,1716771781.451831,172.16.3.2,5101,172.16.1.2,58704,10499,14480,0,65728,65700,6,6,4,1460,686,1,992,96,33580,0,65700,0,0,0,0,0
i,0x00000000,1716771781.461044,172.16.3.2,5101,172.16.1.2,58704,10499,14480,0,65728,65700,6,6,4,1460,686,1,992,96,33580,0,65700,0,0,0,0,0
o,0x00000000,1716771781.461050,172.16.3.2,5101,172.16.1.2,58704,10499,14480,0,65728,65700,6,6,4,1460,686,1,993,96,33580,0,65700,1448,0,0,0,0
i,0x00000000,1716771781.471763,172.16.3.2,5101,172.16.1.2,58704,10499,14480,0,65728,65700,6,6,4,1460,686,1,992,96,33580,0,65700,0,0,0,0,0
o,0x00000000,1716771781.509537,172.16.3.2,5101,172.16.1.2,58704,10499,14480,0,65728,65700,6,6,4,1460,686,1,993,96,33580,0,65700,0,0,0,0,0
o,0x00000000,1716771781.539581,10.0.2.15,22,10.0.2.2,60131,1073725440,14600,0,65535,65700,0,0,4,1460,1,0,4,24,33580,108,65700,0,0,0,0,0
i,0x00000000,1716771781.540239,10.0.2.15,22,10.0.2.2,60131,1073725440,14600,0,65535,65700,0,0,4,1460,1,0,4,24,33580,108,65700,0,108,0,0,0
i,0x00000000,1716771781.581706,172.16.3.2,5101,172.16.1.2,58704,10499,14480,0,65728,65700,6,6,4,1460,686,1,992,96,33580,0,65700,0,0,0,0,0
o,0x00000000,1716771781.619731,172.16.3.2,5101,172.16.1.2,58704,10499,14480,0,65728,65700,6,6,4,1460,686,1,993,96,33580,0,65700,0,0,0,0,0
i,0x00000000,1716771781.871431,172.16.3.2,5101,172.16.1.2,58704,10499,14480,0,65728,65700,6,6,4,1460,686,1,992,96,33580,0,65700,0,0,0,0,0
i,0x00000000,1716771781.891363,172.16.3.2,5101,172.16.1.2,58704,10499,14480,0,65728,65700,6,6,4,1460,686,1,992,96,33580,0,65700,0,0,0,0,0
o,0x00000000,1716771781.891375,172.16.3.2,5101,172.16.1.2,58704,10499,14480,0,65728,65700,6,6,4,1460,686,1,993,96,33580,0,65700,1448,0,0,0,0
i,0x00000000,1716771781.900735,172.16.3.2,5101,172.16.1.2,58704,10499,14480,0,65728,65700,6,6,4,1460,686,1,992,96,33580,0,65700,0,0,0,0,0
i,0x00000000,1716771781.911164,172.16.3.2,5101,172.16.1.2,58704,10499,14480,0,65728,65700,6,6,4,1460,686,1,992,96,33580,0,65700,0,0,0,0,0
o,0x00000000,1716771781.911171,172.16.3.2,5101,172.16.1.2,58704,10499,14480,0,65728,65700,6,6,4,1460,686,1,993,96,33580,0,65700,1448,0,0,0,0
i,0x00000000,1716771781.921583,172.16.3.2,5101,172.16.1.2,58704,10499,14480,0,65728,65700,6,6,4,1460,686,1,992,96,33580,0,65700,0,0,0,0,0
i,0x00000000,1716771781.931949,172.16.3.2,5101,172.16.1.2,58704,10499,14480,0,65728,65700,6,6,4,1460,686,1,992,96,33580,0,65700,0,0,0,0,0
o,0x00000000,1716771781.931960,172.16.3.2,5101,172.16.1.2,58704,10499,14480,0,65728,65700,6,6,4,1460,686,1,993,96,33580,0,65700,1448,0,0,0,0
i,0x00000000,1716771781.950795,172.16.3.2,5101,172.16.1.2,58704,10499,14480,0,65728,65700,6,6,4,1460,686,1,992,96,33580,0,65700,0,0,0,0,0
i,0x00000000,1716771781.961277,172.16.3.2,5101,172.16.1.2,58704,10499,14480,0,65728,65700,6,6,4,1460,686,1,992,96,33580,0,65700,0,0,0,0,0
o,0x00000000,1716771781.961286,172.16.3.2,5101,172.16.1.2,58704,10499,14480,0,65728,65700,6,6,4,1460,686,1,993,96,33580,0,65700,1448,0,0,0,0
i,0x00000000,1716771781.971733,172.16.3.2,5101,172.16.1.2,58704,10499,14480,0,65728,65700,6,6,4,1460,686,1,992,96,33580,0,65700,0,0,0,0,0
i,0x00000000,1716771781.982203,172.16.3.2,5101,172.16.1.2,58704,10499,14480,0,65728,65700,6,6,4,1460,686,1,992,96,33580,0,65700,0,0,0,0,0
o,0x00000000,1716771781.982212,172.16.3.2,5101,172.16.1.2,58704,10499,14480,0,65728,65700,6,6,4,1460,686,1,993,96,33580,0,65700,1448,0,0,0,0
i,0x00000000,1716771781.991510,172.16.3.2,5101,172.16.1.2,58704,10499,14480,0,65728,65700,6,6,4,1460,686,1,992,96,33580,0,65700,0,0,0,0,0
i,0x00000000,1716771782.011315,172.16.3.2,5101,172.16.1.2,58704,10499,14480,0,65728,65700,6,6,4,1460,686,1,992,96,33580,0,65700,0,0,0,0,0
o,0x00000000,1716771782.011323,172.16.3.2,5101,172.16.1.2,58704,10499,14480,0,65728,65700,6,6,4,1460,686,1,993,96,33580,0,65700,1448,0,0,0,0
i,0x00000000,1716771782.021338,172.16.3.2,5101,172.16.1.2,58704,10499,14480,0,65728,65700,6,6,4,1460,686,1,992,96,33580,0,65700,0,0,0,0,0
i,0x00000000,1716771782.031599,172.16.3.2,5101,172.16.1.2,58704,10499,14480,0,65728,65700,6,6,4,1460,686,1,992,96,33580,0,65700,0,0,0,0,0
o,0x00000000,1716771782.031605,172.16.3.2,5101,172.16.1.2,58704,10499,14480,0,65728,65700,6,6,4,1460,686,1,993,96,33580,0,65700,1448,0,0,0,0
i,0x00000000,1716771782.041681,172.16.3.2,5101,172.16.1.2,58704,10499,14480,0,65728,65700,6,6,4,1460,686,1,992,96,33580,0,65700,0,0,0,0,0
i,0x00000000,1716771782.052123,172.16.3.2,5101,172.16.1.2,58704,10499,14480,0,65728,65700,6,6,4,1460,686,1,992,96,33580,0,65700,0,0,0,0,0
o,0x00000000,1716771782.052148,172.16.3.2,5101,172.16.1.2,58704,10499,14480,0,65728,65700,6,6,4,1460,686,1,993,96,33580,0,65700,1448,0,0,0,0
i,0x00000000,1716771782.071285,172.16.3.2,5101,172.16.1.2,58704,10499,14480,0,65728,65700,6,6,4,1460,686,1,992,96,33580,0,65700,0,0,0,0,0
i,0x00000000,1716771782.081723,172.16.3.2,5101,172.16.1.2,58704,10499,14480,0,65728,65700,6,6,4,1460,686,1,992,96,33580,0,65700,0,0,0,0,0
o,0x00000000,1716771782.081729,172.16.3.2,5101,172.16.1.2,58704,10499,14480,0,65728,65700,6,6,4,1460,686,1,993,96,33580,0,65700,1448,0,0,0,0
i,0x00000000,1716771782.092082,172.16.3.2,5101,172.16.1.2,58704,10499,14480,0,65728,65700,6,6,4,1460,686,1,992,96,33580,0,65700,0,0,0,0,0
i,0x00000000,1716771782.101492,172.16.3.2,5101,172.16.1.2,58704,10499,14480,0,65728,65700,6,6,4,1460,686,1,992,96,33580,0,65700,0,0,0,0,0
o,0x00000000,1716771782.101497,172.16.3.2,5101,172.16.1.2,58704,10499,14480,0,65728,65700,6,6,4,1460,686,1,993,96,33580,0,65700,1448,0,0,0,0
i,0x00000000,1716771782.111907,172.16.3.2,5101,172.16.1.2,58704,10499,14480,0,65728,65700,6,6,4,1460,686,1,992,96,33580,0,65700,0,0,0,0,0
i,0x00000000,1716771782.131696,172.16.3.2,5101,172.16.1.2,58704,10499,14480,0,65728,65700,6,6,4,1460,686,1,992,96,33580,0,65700,0,0,0,0,0
o,0x00000000,1716771782.131701,172.16.3.2,5101,172.16.1.2,58704,10499,14480,0,65728,65700,6,6,4,1460,686,1,993,96,33580,0,65700,1448,0,0,0,0
i,0x00000000,1716771782.142184,172.16.3.2,5101,172.16.1.2,58704,10499,14480,0,65728,65700,6,6,4,1460,686,1,992,96,33580,0,65700,0,0,0,0,0
i,0x00000000,1716771782.151476,172.16.3.2,5101,172.16.1.2,58704,10499,14480,0,65728,65700,6,6,4,1460,686,1,992,96,33580,0,65700,0,0,0,0,0
o,0x00000000,1716771782.151485,172.16.3.2,5101,172.16.1.2,58704,10499,14480,0,65728,65700,6,6,4,1460,686,1,993,96,33580,0,65700,1448,0,0,0,0
i,0x00000000,1716771782.161753,172.16.3.2,5101,172.16.1.2,58704,10499,14480,0,65728,65700,6,6,4,1460,686,1,992,96,33580,0,65700,0,0,0,0,0
i,0x00000000,1716771782.171271,172.16.3.2,5101,172.16.1.2,58704,10499,14480,0,65728,65700,6,6,4,1460,686,1,992,96,33580,0,65700,0,0,0,0,0
o,0x00000000,1716771782.171283,172.16.3.2,5101,172.16.1.2,58704,10499,14480,0,65728,65700,6,6,4,1460,686,1,993,96,33580,0,65700,1448,0,0,0,0
i,0x00000000,1716771782.192197,172.16.3.2,5101,172.16.1.2,58704,10499,14480,0,65728,65700,6,6,4,1460,686,1,992,96,33580,0,65700,0,0,0,0,0
o,0x00000000,1716771782.230171,172.16.3.2,5101,172.16.1.2,58704,10499,14480,0,65728,65700,6,6,4,1460,686,1,993,96,33580,0,65700,0,0,0,0,0
i,0x00000000,1716771782.231151,172.16.3.2,5101,172.16.1.2,58704,10499,14480,0,65728,65700,6,6,4,1460,686,1,992,96,33580,0,65700,0,0,0,0,0
o,0x00000000,1716771782.270229,172.16.3.2,5101,172.16.1.2,58704,10499,14480,0,65728,65700,6,6,4,1460,686,1,993,96,33580,0,65700,0,0,0,0,0
o,0x00000000,1716771782.540235,10.0.2.15,22,10.0.2.2,60131,1073725440,14600,0,65535,65700,0,0,4,1460,1,0,4,24,33580,108,65700,0,0,0,0,0
i,0x00000000,1716771782.541028,10.0.2.15,22,10.0.2.2,60131,1073725440,14600,0,65535,65700,0,0,4,1460,1,0,4,24,33580,108,65700,0,108,0,0,0
i,0x00000000,1716771782.582458,172.16.3.2,5101,172.16.1.2,58704,10499,14480,0,65728,65700,6,6,4,1460,686,1,992,96,33580,0,65700,0,0,0,0,0
i,0x00000000,1716771782.591745,172.16.3.2,5101,172.16.1.2,58704,10499,14480,0,65728,65700,6,6,4,1460,686,1,992,96,33580,0,65700,0,0,0,0,0
o,0x00000000,1716771782.591757,172.16.3.2,5101,172.16.1.2,58704,10499,14480,0,65728,65700,6,6,4,1460,686,1,993,96,33580,0,65700,1448,0,0,0,0
i,0x00000000,1716771782.601286,172.16.3.2,5101,172.16.1.2,58704,10499,14480,0,65728,65700,6,6,4,1460,686,1,992,96,33580,0,65700,0,0,0,0,0
i,0x00000000,1716771782.621864,172.16.3.2,5101,172.16.1.2,58704,10499,14480,0,65728,65700,6,6,4,1460,686,1,992,96,33580,0,65700,0,0,0,0,0
o,0x00000000,1716771782.621877,172.16.3.2,5101,172.16.1.2,58704,10499,14480,0,65728,65700,6,6,4,1460,686,1,993,96,33580,0,65700,1448,0,0,0,0
i,0x00000000,1716771782.632300,172.16.3.2,5101,172.16.1.2,58704,10499,14480,0,65728,65700,6,6,4,1460,686,1,992,96,33580,0,65700,0,0,0,0,0
i,0x00000000,1716771782.641726,172.16.3.2,5101,172.16.1.2,58704,10499,14480,0,65728,65700,6,6,4,1460,686,1,992,96,33580,0,65700,0,0,0,0,0
o,0x00000000,1716771782.641734,172.16.3.2,5101,172.16.1.2,58704,10499,14480,0,65728,65700,6,6,4,1460,686,1,993,96,33580,0,65700,1448,0,0,0,0
i,0x00000000,1716771782.652204,172.16.3.2,5101,172.16.1.2,58704,10499,14480,0,65728,65700,6,6,4,1460,686,1,992,96,33580,0,65700,0,0,0,0,0
i,0x00000000,1716771782.672267,172.16.3.2,5101,172.16.1.2,58704,10499,14480,0,65728,65700,6,6,4,1460,686,1,992,96,33580,0,65700,0,0,0,0,0
o,0x00000000,1716771782.672277,172.16.3.2,5101,172.16.1.2,58704,10499,14480,0,65728,65700,6,6,4,1460,686,1,993,96,33580,0,65700,1448,0,0,0,0
i,0x00000000,1716771782.681702,172.16.3.2,5101,172.16.1.2,58704,10499,14480,0,65728,65700,6,6,4,1460,686,1,992,96,33580,0,65700,0,0,0,0,0
i,0x00000000,1716771782.692423,172.16.3.2,5101,172.16.1.2,58704,10499,14480,0,65728,65700,6,6,4,1460,686,1,992,96,33580,0,65700,0,0,0,0,0
o,0x00000000,1716771782.692456,172.16.3.2,5101,172.16.1.2,58704,10499,14480,0,65728,65700,6,6,4,1460,686,1,993,96,33580,0,65700,1448,0,0,0,0
i,0x00000000,1716771782.701625,172.16.3.2,5101,172.16.1.2,58704,10499,14480,0,65728,65700,6,6,4,1460,686,1,992,96,33580,0,65700,0,0,0,0,0
i,0x00000000,1716771782.712169,172.16.3.2,5101,172.16.1.2,58704,10499,14480,0,65728,65700,6,6,4,1460,686,1,992,96,33580,0,65700,0,0,0,0,0
o,0x00000000,1716771782.712191,172.16.3.2,5101,172.16.1.2,58704,10499,14480,0,65728,65700,6,6,4,1460,686,1,993,96,33580,0,65700,1448,0,0,0,0
i,0x00000000,1716771782.731969,172.16.3.2,5101,172.16.1.2,58704,10499,14480,0,65728,65700,6,6,4,1460,686,1,992,96,33580,0,65700,0,0,0,0,0
i,0x00000000,1716771782.742448,172.16.3.2,5101,172.16.1.2,58704,10499,14480,0,65728,65700,6,6,4,1460,686,1,992,96,33580,0,65700,0,0,0,0,0
o,0x00000000,1716771782.742461,172.16.3.2,5101,172.16.1.2,58704,10499,14480,0,65728,65700,6,6,4,1460,686,1,993,96,33580,0,65700,1448,0,0,0,0
i,0x00000000,1716771782.751886,172.16.3.2,5101,172.16.1.2,58704,10499,14480,0,65728,65700,6,6,4,1460,686,1,992,96,33580,0,65700,0,0,0,0,0
i,0x00000000,1716771782.761918,172.16.3.2,5101,172.16.1.2,58704,10499,14480,0,65728,65700,6,6,4,1460,686,1,992,96,33580,0,65700,0,0,0,0,0
o,0x00000000,1716771782.761927,172.16.3.2,5101,172.16.1.2,58704,10499,14480,0,65728,65700,6,6,4,1460,686,1,993,96,33580,0,65700,1448,0,0,0,0
i,0x00000000,1716771782.772030,172.16.3.2,5101,172.16.1.2,58704,10499,14480,0,65728,65700,6,6,4,1460,686,1,992,96,33580,0,65700,0,0,0,0,0
i,0x00000000,1716771782.792478,172.16.3.2,5101,172.16.1.2,58704,10499,14480,0,65728,65700,6,6,4,1460,686,1,992,96,33580,0,65700,0,0,0,0,0
o,0x00000000,1716771782.792493,172.16.3.2,5101,172.16.1.2,58704,10499,14480,0,65728,65700,6,6,4,1460,686,1,993,96,33580,0,65700,1448,0,0,0,0
i,0x00000000,1716771782.802757,172.16.3.2,5101,172.16.1.2,58704,10499,14480,0,65728,65700,6,6,4,1460,686,1,992,96,33580,0,65700,0,0,0,0,0
i,0x00000000,1716771782.812307,172.16.3.2,5101,172.16.1.2,58704,10499,14480,0,65728,65700,6,6,4,1460,686,1,992,96,33580,0,65700,0,0,0,0,0
o,0x00000000,1716771782.812315,172.16.3.2,5101,172.16.1.2,58704,10499,14480,0,65728,65700,6,6,4,1460,686,1,993,96,33580,0,65700,1448,0,0,0,0
i,0x00000000,1716771782.822548,172.16.3.2,5101,172.16.1.2,58704,10499,14480,0,65728,65700,6,6,4,1460,686,1,992,96,33580,0,65700,0,0,0,0,0
i,0x00000000,1716771782.832121,172.16.3.2,5101,172.16.1.2,58704,10499,14480,0,65728,65700,6,6,4,1460,686,1,992,96,33580,0,65700,0,0,0,0,0
o,0x00000000,1716771782.832127,172.16.3.2,5101,172.16.1.2,58704,10499,14480,0,65728,65700,6,6,4,1460,686,1,993,96,33580,0,65700,1448,0,0,0,0
i,0x00000000,1716771782.852074,172.16.3.2,5101,172.16.1.2,58704,10499,14480,0,65728,65700,6,6,4,1460,686,1,992,96,33580,0,65700,0,0,0,0,0
i,0x00000000,1716771782.862306,172.16.3.2,5101,172.16.1.2,58704,10499,14480,0,65728,65700,6,6,4,1460,686,1,992,96,33580,0,65700,0,0,0,0,0
o,0x00000000,1716771782.862312,172.16.3.2,5101,172.16.1.2,58704,10499,14480,0,65728,65700,6,6,4,1460,686,1,993,96,33580,0,65700,1448,0,0,0,0
i,0x00000000,1716771782.872831,172.16.3.2,5101,172.16.1.2,58704,10499,14480,0,65728,65700,6,6,4,1460,686,1,992,96,33580,0,65700,0,0,0,0,0
i,0x00000000,1716771782.882177,172.16.3.2,5101,172.16.1.2,58704,10499,14480,0,65728,65700,6,6,4,1460,686,1,992,96,33580,0,65700,0,0,0,0,0
o,0x00000000,1716771782.882184,172.16.3.2,5101,172.16.1.2,58704,10499,14480,0,65728,65700,6,6,4,1460,686,1,993,96,33580,0,65700,1448,0,0,0,0
i,0x00000000,1716771782.892802,172.16.3.2,5101,172.16.1.2,58704,10499,14480,0,65728,65700,6,6,4,1460,686,1,992,96,33580,0,65700,0,0,0,0,0
i,0x00000000,1716771782.912578,172.16.3.2,5101,172.16.1.2,58704,10499,14480,0,65728,65700,6,6,4,1460,686,1,992,96,33580,0,65700,0,0,0,0,0
o,0x00000000,1716771782.912584,172.16.3.2,5101,172.16.1.2,58704,10499,14480,0,65728,65700,6,6,4,1460,686,1,993,96,33580,0,65700,1448,0,0,0,0
i,0x00000000,1716771782.962727,172.16.3.2,5101,172.16.1.2,58704,10499,14480,0,65728,65700,6,6,4,1460,686,1,992,96,33580,0,65700,0,0,0,0,0
o,0x00000000,1716771782.999521,172.16.3.2,5101,172.16.1.2,58704,10499,14480,0,65728,65700,6,6,4,1460,686,1,993,96,33580,0,65700,0,0,0,0,0
i,0x00000000,1716771783.032092,172.16.3.2,5101,172.16.1.2,58704,10499,14480,0,65728,65700,6,6,4,1460,686,1,992,96,33580,0,65700,0,0,0,0,0
o,0x00000000,1716771783.069907,172.16.3.2,5101,172.16.1.2,58704,10499,14480,0,65728,65700,6,6,4,1460,686,1,993,96,33580,0,65700,0,0,0,0,0
i,0x00000000,1716771783.343215,172.16.3.2,5101,172.16.1.2,58704,10499,14480,0,65728,65700,6,6,4,1460,686,1,992,96,33580,0,65700,0,0,0,0,0
i,0x00000000,1716771783.352647,172.16.3.2,5101,172.16.1.2,58704,10499,14480,0,65728,65700,6,6,4,1460,686,1,992,96,33580,0,65700,0,0,0,0,0
o,0x00000000,1716771783.352658,172.16.3.2,5101,172.16.1.2,58704,10499,14480,0,65728,65700,6,6,4,1460,686,1,993,96,33580,0,65700,1448,0,0,0,0
i,0x00000000,1716771783.363056,172.16.3.2,5101,172.16.1.2,58704,10499,14480,0,65728,65700,6,6,4,1460,686,1,992,96,33580,0,65700,0,0,0,0,0
i,0x00000000,1716771783.373519,172.16.3.2,5101,172.16.1.2,58704,10499,14480,0,65728,65700,6,6,4,1460,686,1,992,96,33580,0,65700,0,0,0,0,0
o,0x00000000,1716771783.373527,172.16.3.2,5101,172.16.1.2,58704,10499,14480,0,65728,65700,6,6,4,1460,686,1,993,96,33580,0,65700,1448,0,0,0,0
i,0x00000000,1716771783.392548,172.16.3.2,5101,172.16.1.2,58704,10499,14480,0,65728,65700,6,6,4,1460,686,1,992,96,33580,0,65700,0,0,0,0,0
i,0x00000000,1716771783.401941,172.16.3.2,5101,172.16.1.2,58704,10499,14480,0,65728,65700,6,6,4,1460,686,1,992,96,33580,0,65700,0,0,0,0,0
o,0x00000000,1716771783.401949,172.16.3.2,5101,172.16.1.2,58704,10499,14480,0,65728,65700,6,6,4,1460,686,1,993,96,33580,0,65700,1448,0,0,0,0
i,0x00000000,1716771783.412370,172.16.3.2,5101,172.16.1.2,58704,10499,14480,0,65728,65700,6,6,4,1460,686,1,992,96,33580,0,65700,0,0,0,0,0
i,0x00000000,1716771783.422830,172.16.3.2,5101,172.16.1.2,58704,10499,14480,0,65728,65700,6,6,4,1460,686,1,992,96,33580,0,65700,0,0,0,0,0
o,0x00000000,1716771783.422837,172.16.3.2,5101,172.16.1.2,58704,10499,14480,0,65728,65700,6,6,4,1460,686,1,993,96,33580,0,65700,1448,0,0,0,0
i,0x00000000,1716771783.433340,172.16.3.2,5101,172.16.1.2,58704,10499,14480,0,65728,65700,6,6,4,1460,686,1,992,96,33580,0,65700,0,0,0,0,0
i,0x00000000,1716771783.453105,172.16.3.2,5101,172.16.1.2,58704,10499,14480,0,65728,65700,6,6,4,1460,686,1,992,96,33580,0,65700,0,0,0,0,0
o,0x00000000,1716771783.453114,172.16.3.2,5101,172.16.1.2,58704,10499,14480,0,65728,65700,6,6,4,1460,686,1,993,96,33580,0,65700,1448,0,0,0,0
i,0x00000000,1716771783.462557,172.16.3.2,5101,172.16.1.2,58704,10499,14480,0,65728,65700,6,6,4,1460,686,1,992,96,33580,0,65700,0,0,0,0,0
i,0x00000000,1716771783.473064,172.16.3.2,5101,172.16.1.2,58704,10499,14480,0,65728,65700,6,6,4,1460,686,1,992,96,33580,0,65700,0,0,0,0,0
o,0x00000000,1716771783.473070,172.16.3.2,5101,172.16.1.2,58704,10499,14480,0,65728,65700,6,6,4,1460,686,1,993,96,33580,0,65700,1448,0,0,0,0
i,0x00000000,1716771783.483498,172.16.3.2,5101,172.16.1.2,58704,10499,14480,0,65728,65700,6,6,4,1460,686,1,992,96,33580,0,65700,0,0,0,0,0
i,0x00000000,1716771783.493041,172.16.3.2,5101,172.16.1.2,58704,10499,14480,0,65728,65700,6,6,4,1460,686,1,992,96,33580,0,65700,0,0,0,0,0
o,0x00000000,1716771783.493047,172.16.3.2,5101,172.16.1.2,58704,10499,14480,0,65728,65700,6,6,4,1460,686,1,993,96,33580,0,65700,1448,0,0,0,0
i,0x00000000,1716771783.512836,172.16.3.2,5101,172.16.1.2,58704,10499,14480,0,65728,65700,6,6,4,1460,686,1,992,96,33580,0,65700,0,0,0,0,0
i,0x00000000,1716771783.522403,172.16.3.2,5101,172.16.1.2,58704,10499,14480,0,65728,65700,6,6,4,1460,686,1,992,96,33580,0,65700,0,0,0,0,0
o,0x00000000,1716771783.522409,172.16.3.2,5101,172.16.1.2,58704,10499,14480,0,65728,65700,6,6,4,1460,686,1,993,96,33580,0,65700,1448,0,0,0,0
i,0x00000000,1716771783.534870,172.16.3.2,5101,172.16.1.2,58704,10499,14480,0,65728,65700,6,6,4,1460,686,1,992,96,33580,0,65700,0,0,0,0,0
o,0x00000000,1716771783.540444,10.0.2.15,22,10.0.2.2,60131,1073725440,14600,0,65535,65700,0,0,4,1460,1,0,4,24,33580,108,65700,0,0,0,0,0
i,0x00000000,1716771783.541108,10.0.2.15,22,10.0.2.2,60131,1073725440,14600,0,65535,65700,0,0,4,1460,1,0,4,24,33580,108,65700,0,108,0,0,0
i,0x00000000,1716771783.542101,172.16.3.2,5101,172.16.1.2,58704,10499,14480,0,65728,65700,6,6,4,1460,686,1,992,96,33580,0,65700,0,0,0,0,0
o,0x00000000,1716771783.542106,172.16.3.2,5101,172.16.1.2,58704,10499,14480,0,65728,65700,6,6,4,1460,686,1,993,96,33580,0,65700,1448,0,0,0,0
i,0x00000000,1716771783.552087,172.16.3.2,5101,172.16.1.2,58704,10499,14480,0,65728,65700,6,6,4,1460,686,1,992,96,33580,0,65700,0,0,0,0,0
i,0x00000000,1716771783.572655,172.16.3.2,5101,172.16.1.2,58704,10499,14480,0,65728,65700,6,6,4,1460,686,1,992,96,33580,0,65700,0,0,0,0,0
o,0x00000000,1716771783.572663,172.16.3.2,5101,172.16.1.2,58704,10499,14480,0,65728,65700,6,6,4,1460,686,1,993,96,33580,0,65700,1448,0,0,0,0
i,0x00000000,1716771783.582752,172.16.3.2,5101,172.16.1.2,58704,10499,14480,0,65728,65700,6,6,4,1460,686,1,992,96,33580,0,65700,0,0,0,0,0
i,0x00000000,1716771783.592910,172.16.3.2,5101,172.16.1.2,58704,10499,14480,0,65728,65700,6,6,4,1460,686,1,992,96,33580,0,65700,0,0,0,0,0
o,0x00000000,1716771783.592918,172.16.3.2,5101,172.16.1.2,58704,10499,14480,0,65728,65700,6,6,4,1460,686,1,993,96,33580,0,65700,1448,0,0,0,0
i,0x00000000,1716771783.602394,172.16.3.2,5101,172.16.1.2,58704,10499,14480,0,65728,65700,6,6,4,1460,686,1,992,96,33580,0,65700,0,0,0,0,0
i,0x00000000,1716771783.612715,172.16.3.2,5101,172.16.1.2,58704,10499,14480,0,65728,65700,6,6,4,1460,686,1,992,96,33580,0,65700,0,0,0,0,0
o,0x00000000,1716771783.612721,172.16.3.2,5101,172.16.1.2,58704,10499,14480,0,65728,65700,6,6,4,1460,686,1,993,96,33580,0,65700,1448,0,0,0,0
i,0x00000000,1716771783.633390,172.16.3.2,5101,172.16.1.2,58704,10499,14480,0,65728,65700,6,6,4,1460,686,1,992,96,33580,0,65700,0,0,0,0,0
i,0x00000000,1716771783.642969,172.16.3.2,5101,172.16.1.2,58704,10499,14480,0,65728,65700,6,6,4,1460,686,1,992,96,33580,0,65700,0,0,0,0,0
o,0x00000000,1716771783.642978,172.16.3.2,5101,172.16.1.2,58704,10499,14480,0,65728,65700,6,6,4,1460,686,1,993,96,33580,0,65700,1448,0,0,0,0
i,0x00000000,1716771783.653173,172.16.3.2,5101,172.16.1.2,58704,10499,14480,0,65728,65700,6,6,4,1460,686,1,992,96,33580,0,65700,0,0,0,0,0
i,0x00000000,1716771783.663525,172.16.3.2,5101,172.16.1.2,58704,10499,14480,0,65728,65700,6,6,4,1460,686,1,992,96,33580,0,65700,0,0,0,0,0
o,0x00000000,1716771783.663531,172.16.3.2,5101,172.16.1.2,58704,10499,14480,0,65728,65700,6,6,4,1460,686,1,993,96,33580,0,65700,1448,0,0,0,0
i,0x00000000,1716771783.673074,172.16.3.2,5101,172.16.1.2,58704,10499,14480,0,65728,65700,6,6,4,1460,686,1,992,96,33580,0,65700,0,0,0,0,0
o,0x00000000,1716771783.709940,172.16.3.2,5101,172.16.1.2,58704,10499,14480,0,65728,65700,6,6,4,1460,686,1,993,96,33580,0,65700,0,0,0,0,0
i,0x00000000,1716771783.762291,172.16.3.2,5101,172.16.1.2,58704,10499,14480,0,65728,65700,6,6,4,1460,686,1,992,96,33580,0,65700,0,0,0,0,0
o,0x00000000,1716771783.799928,172.16.3.2,5101,172.16.1.2,58704,10499,14480,0,65728,65700,6,6,4,1460,686,1,993,96,33580,0,65700,0,0,0,0,0
i,0x00000000,1716771784.102929,172.16.3.2,5101,172.16.1.2,58704,10499,14480,0,65728,65700,6,6,4,1460,686,1,992,96,33580,0,65700,0,0,0,0,0
i,0x00000000,1716771784.113365,172.16.3.2,5101,172.16.1.2,58704,10499,14480,0,65728,65700,6,6,4,1460,686,1,992,96,33580,0,65700,0,0,0,0,0
o,0x00000000,1716771784.113387,172.16.3.2,5101,172.16.1.2,58704,10499,14480,0,65728,65700,6,6,4,1460,686,1,993,96,33580,0,65700,1448,0,0,0,0
i,0x00000000,1716771784.123823,172.16.3.2,5101,172.16.1.2,58704,10499,14480,0,65728,65700,6,6,4,1460,686,1,992,96,33580,0,65700,0,0,0,0,0
i,0x00000000,1716771784.133211,172.16.3.2,5101,172.16.1.2,58704,10499,14480,0,65728,65700,6,6,4,1460,686,1,992,96,33580,0,65700,0,0,0,0,0
o,0x00000000,1716771784.133218,172.16.3.2,5101,172.16.1.2,58704,10499,14480,0,65728,65700,6,6,4,1460,686,1,993,96,33580,0,65700,1448,0,0,0,0
i,0x00000000,1716771784.153902,172.16.3.2,5101,172.16.1.2,58704,10499,14480,0,65728,65700,6,6,4,1460,686,1,992,96,33580,0,65700,0,0,0,0,0
i,0x00000000,1716771784.163423,172.16.3.2,5101,172.16.1.2,58704,10499,14480,0,65728,65700,6,6,4,1460,686,1,992,96,33580,0,65700,0,0,0,0,0
o,0x00000000,1716771784.163434,172.16.3.2,5101,172.16.1.2,58704,10499,14480,0,65728,65700,6,6,4,1460,686,1,993,96,33580,0,65700,1448,0,0,0,0
i,0x00000000,1716771784.173739,172.16.3.2,5101,172.16.1.2,58704,10499,14480,0,65728,65700,6,6,4,1460,686,1,992,96,33580,0,65700,0,0,0,0,0
i,0x00000000,1716771784.183119,172.16.3.2,5101,172.16.1.2,58704,10499,14480,0,65728,65700,6,6,4,1460,686,1,992,96,33580,0,65700,0,0,0,0,0
o,0x00000000,1716771784.183133,172.16.3.2,5101,172.16.1.2,58704,10499,14480,0,65728,65700,6,6,4,1460,686,1,993,96,33580,0,65700,1448,0,0,0,0
i,0x00000000,1716771784.194552,172.16.3.2,5101,172.16.1.2,58704,10499,14480,0,65728,65700,6,6,4,1460,686,1,992,96,33580,0,65700,0,0,0,0,0
i,0x00000000,1716771784.213449,172.16.3.2,5101,172.16.1.2,58704,10499,14480,0,65728,65700,6,6,4,1460,686,1,992,96,33580,0,65700,0,0,0,0,0
o,0x00000000,1716771784.213471,172.16.3.2,5101,172.16.1.2,58704,10499,14480,0,65728,65700,6,6,4,1460,686,1,993,96,33580,0,65700,1448,0,0,0,0
i,0x00000000,1716771784.223929,172.16.3.2,5101,172.16.1.2,58704,10499,14480,0,65728,65700,6,6,4,1460,686,1,992,96,33580,0,65700,0,0,0,0,0
i,0x00000000,1716771784.233388,172.16.3.2,5101,172.16.1.2,58704,10499,14480,0,65728,65700,6,6,4,1460,686,1,992,96,33580,0,65700,0,0,0,0,0
o,0x00000000,1716771784.233407,172.16.3.2,5101,172.16.1.2,58704,10499,14480,0,65728,65700,6,6,4,1460,686,1,993,96,33580,0,65700,1448,0,0,0,0
i,0x00000000,1716771784.243497,172.16.3.2,5101,172.16.1.2,58704,10499,14480,0,65728,65700,6,6,4,1460,686,1,992,96,33580,0,65700,0,0,0,0,0
i,0x00000000,1716771784.253741,172.16.3.2,5101,172.16.1.2,58704,10499,14480,0,65728,65700,6,6,4,1460,686,1,992,96,33580,0,65700,0,0,0,0,0
o,0x00000000,1716771784.253758,172.16.3.2,5101,172.16.1.2,58704,10499,14480,0,65728,65700,6,6,4,1460,686,1,993,96,33580,0,65700,1448,0,0,0,0
i,0x00000000,1716771784.272580,172.16.3.2,5101,172.16.1.2,58704,10499,14480,0,65728,65700,6,6,4,1460,686,1,992,96,33580,0,65700,0,0,0,0,0
i,0x00000000,1716771784.282889,172.16.3.2,5101,172.16.1.2,58704,10499,14480,0,65728,65700,6,6,4,1460,686,1,992,96,33580,0,65700,0,0,0,0,0
o,0x00000000,1716771784.282916,172.16.3.2,5101,172.16.1.2,58704,10499,14480,0,65728,65700,6,6,4,1460,686,1,993,96,33580,0,65700,1448,0,0,0,0
i,0x00000000,1716771784.293185,172.16.3.2,5101,172.16.1.2,58704,10499,14480,0,65728,65700,6,6,4,1460,686,1,992,96,33580,0,65700,0,0,0,0,0
i,0x00000000,1716771784.302672,172.16.3.2,5101,172.16.1.2,58704,10499,14480,0,65728,65700,6,6,4,1460,686,1,992,96,33580,0,65700,0,0,0,0,0
o,0x00000000,1716771784.302680,172.16.3.2,5101,172.16.1.2,58704,10499,14480,0,65728,65700,6,6,4,1460,686,1,993,96,33580,0,65700,1448,0,0,0,0
i,0x00000000,1716771784.313358,172.16.3.2,5101,172.16.1.2,58704,10499,14480,0,65728,65700,6,6,4,1460,686,1,992,96,33580,0,65700,0,0,0,0,0
i,0x00000000,1716771784.333660,172.16.3.2,5101,172.16.1.2,58704,10499,14480,0,65728,65700,6,6,4,1460,686,1,992,96,33580,0,65700,0,0,0,0,0
o,0x00000000,1716771784.333667,172.16.3.2,5101,172.16.1.2,58704,10499,14480,0,65728,65700,6,6,4,1460,686,1,993,96,33580,0,65700,1448,0,0,0,0
i,0x00000000,1716771784.343798,172.16.3.2,5101,172.16.1.2,58704,10499,14480,0,65728,65700,6,6,4,1460,686,1,992,96,33580,0,65700,0,0,0,0,0
i,0x00000000,1716771784.354320,172.16.3.2,5101,172.16.1.2,58704,10499,14480,0,65728,65700,6,6,4,1460,686,1,992,96,33580,0,65700,0,0,0,0,0
o,0x00000000,1716771784.354327,172.16.3.2,5101,172.16.1.2,58704,10499,14480,0,65728,65700,6,6,4,1460,686,1,993,96,33580,0,65700,1448,0,0,0,0
i,0x00000000,1716771784.363484,172.16.3.2,5101,172.16.1.2,58704,10499,14480,0,65728,65700,6,6,4,1460,686,1,992,96,33580,0,65700,0,0,0,0,0
i,0x00000000,1716771784.374093,172.16.3.2,5101,172.16.1.2,58704,10499,14480,0,65728,65700,6,6,4,1460,686,1,992,96,33580,0,65700,0,0,0,0,0
o,0x00000000,1716771784.374099,172.16.3.2,5101,172.16.1.2,58704,10499,14480,0,65728,65700,6,6,4,1460,686,1,993,96,33580,0,65700,1448,0,0,0,0
i,0x00000000,1716771784.393242,172.16.3.2,5101,172.16.1.2,58704,10499,14480,0,65728,65700,6,6,4,1460,686,1,992,96,33580,0,65700,0,0,0,0,0
i,0x00000000,1716771784.403288,172.16.3.2,5101,172.16.1.2,58704,10499,14480,0,65728,65700,6,6,4,1460,686,1,992,96,33580,0,65700,0,0,0,0,0
o,0x00000000,1716771784.403293,172.16.3.2,5101,172.16.1.2,58704,10499,14480,0,65728,65700,6,6,4,1460,686,1,993,96,33580,0,65700,1448,0,0,0,0
i,0x00000000,1716771784.412869,172.16.3.2,5101,172.16.1.2,58704,10499,14480,0,65728,65700,6,6,4,1460,686,1,992,96,33580,0,65700,0,0,0,0,0
i,0x00000000,1716771784.423344,172.16.3.2,5101,172.16.1.2,58704,10499,14480,0,65728,65700,6,6,4,1460,686,1,992,96,33580,0,65700,0,0,0,0,0
o,0x00000000,1716771784.423351,172.16.3.2,5101,172.16.1.2,58704,10499,14480,0,65728,65700,6,6,4,1460,686,1,993,96,33580,0,65700,1448,0,0,0,0
i,0x00000000,1716771784.433800,172.16.3.2,5101,172.16.1.2,58704,10499,14480,0,65728,65700,6,6,4,1460,686,1,992,96,33580,0,65700,0,0,0,0,0
i,0x00000000,1716771784.453461,172.16.3.2,5101,172.16.1.2,58704,10499,14480,0,65728,65700,6,6,4,1460,686,1,992,96,33580,0,65700,0,0,0,0,0
o,0x00000000,1716771784.453469,172.16.3.2,5101,172.16.1.2,58704,10499,14480,0,65728,65700,6,6,4,1460,686,1,993,96,33580,0,65700,1448,0,0,0,0
i,0x00000000,1716771784.493051,172.16.3.2,5101,172.16.1.2,58704,10499,14480,0,65728,65700,6,6,4,1460,686,1,992,96,33580,0,65700,0,0,0,0,0
o,0x00000000,1716771784.529784,172.16.3.2,5101,172.16.1.2,58704,10499,14480,0,65728,65700,6,6,4,1460,686,1,993,96,33580,0,65700,0,0,0,0,0
o,0x00000000,1716771784.540386,10.0.2.15,22,10.0.2.2,60131,1073725440,14600,0,65535,65700,0,0,4,1460,1,0,4,24,33580,108,65700,0,0,0,0,0
i,0x00000000,1716771784.541094,10.0.2.15,22,10.0.2.2,60131,1073725440,14600,0,65535,65700,0,0,4,1460,1,0,4,24,33580,108,65700,0,108,0,0,0
i,0x00000000,1716771784.873837,172.16.3.2,5101,172.16.1.2,58704,10499,14480,0,65728,65700,6,6,4,1460,686,1,992,96,33580,0,65700,0,0,0,0,0
i,0x00000000,1716771784.904013,172.16.3.2,5101,172.16.1.2,58704,10499,14480,0,65728,65700,6,6,4,1460,686,1,992,96,33580,0,65700,0,0,0,0,0
o,0x00000000,1716771784.904026,172.16.3.2,5101,172.16.1.2,58704,10499,14480,0,65728,65700,6,6,4,1460,686,1,993,96,33580,0,65700,1448,0,0,0,0
i,0x00000000,1716771784.914419,172.16.3.2,5101,172.16.1.2,58704,10499,14480,0,65728,65700,6,6,4,1460,686,1,992,96,33580,0,65700,0,0,0,0,0
i,0x00000000,1716771784.933314,172.16.3.2,5101,172.16.1.2,58704,10499,14480,0,65728,65700,6,6,4,1460,686,1,992,96,33580,0,65700,0,0,0,0,0
o,0x00000000,1716771784.933323,172.16.3.2,5101,172.16.1.2,58704,10499,14480,0,65728,65700,6,6,4,1460,686,1,993,96,33580,0,65700,1448,0,0,0,0
i,0x00000000,1716771784.943628,172.16.3.2,5101,172.16.1.2,58704,10499,14480,0,65728,65700,6,6,4,1460,686,1,992,96,33580,0,65700,0,0,0,0,0
i,0x00000000,1716771784.954058,172.16.3.2,5101,172.16.1.2,58704,10499,14480,0,65728,65700,6,6,4,1460,686,1,992,96,33580,0,65700,0,0,0,0,0
o,0x00000000,1716771784.954071,172.16.3.2,5101,172.16.1.2,58704,10499,14480,0,65728,65700,6,6,4,1460,686,1,993,96,33580,0,65700,1448,0,0,0,0
i,0x00000000,1716771784.964590,172.16.3.2,5101,172.16.1.2,58704,10499,14480,0,65728,65700,6,6,4,1460,686,1,992,96,33580,0,65700,0,0,0,0,0
i,0x00000000,1716771784.973987,172.16.3.2,5101,172.16.1.2,58704,10499,14480,0,65728,65700,6,6,4,1460,686,1,992,96,33580,0,65700,0,0,0,0,0
o,0x00000000,1716771784.973996,172.16.3.2,5101,172.16.1.2,58704,10499,14480,0,65728,65700,6,6,4,1460,686,1,993,96,33580,0,65700,1448,0,0,0,0
i,0x00000000,1716771784.993803,172.16.3.2,5101,172.16.1.2,58704,10499,14480,0,65728,65700,6,6,4,1460,686,1,992,96,33580,0,65700,0,0,0,0,0
i,0x00000000,1716771785.004198,172.16.3.2,5101,172.16.1.2,58704,10499,14480,0,65728,65700,6,6,4,1460,686,1,992,96,33580,0,65700,0,0,0,0,0
o,0x00000000,1716771785.004205,172.16.3.2,5101,172.16.1.2,58704,10499,14480,0,65728,65700,6,6,4,1460,686,1,993,96,33580,0,65700,1448,0,0,0,0
i,0x00000000,1716771785.014638,172.16.3.2,5101,172.16.1.2,58704,10499,14480,0,65728,65700,6,6,4,1460,686,1,992,96,33580,0,65700,0,0,0,0,0
i,0x00000000,1716771785.024034,172.16.3.2,5101,172.16.1.2,58704,10499,14480,0,65728,65700,6,6,4,1460,686,1,992,96,33580,0,65700,0,0,0,0,0
o,0x00000000,1716771785.024041,172.16.3.2,5101,172.16.1.2,58704,10499,14480,0,65728,65700,6,6,4,1460,686,1,993,96,33580,0,65700,1448,0,0,0,0
i,0x00000000,1716771785.034414,172.16.3.2,5101,172.16.1.2,58704,10499,14480,0,65728,65700,6,6,4,1460,686,1,992,96,33580,0,65700,0,0,0,0,0
i,0x00000000,1716771785.054228,172.16.3.2,5101,172.16.1.2,58704,10499,14480,0,65728,65700,6,6,4,1460,686,1,992,96,33580,0,65700,0,0,0,0,0
o,0x00000000,1716771785.054235,172.16.3.2,5101,172.16.1.2,58704,10499,14480,0,65728,65700,6,6,4,1460,686,1,993,96,33580,0,65700,1448,0,0,0,0
i,0x00000000,1716771785.064151,172.16.3.2,5101,172.16.1.2,58704,10499,14480,0,65728,65700,6,6,4,1460,686,1,992,96,33580,0,65700,0,0,0,0,0
i,0x00000000,1716771785.073642,172.16.3.2,5101,172.16.1.2,58704,10499,14480,0,65728,65700,6,6,4,1460,686,1,992,96,33580,0,65700,0,0,0,0,0
o,0x00000000,1716771785.073648,172.16.3.2,5101,172.16.1.2,58704,10499,14480,0,65728,65700,6,6,4,1460,686,1,993,96,33580,0,65700,1448,0,0,0,0
i,0x00000000,1716771785.084320,172.16.3.2,5101,172.16.1.2,58704,10499,14480,0,65728,65700,6,6,4,1460,686,1,992,96,33580,0,65700,0,0,0,0,0
i,0x00000000,1716771785.094360,172.16.3.2,5101,172.16.1.2,58704,10499,14480,0,65728,65700,6,6,4,1460,686,1,992,96,33580,0,65700,0,0,0,0,0
o,0x00000000,1716771785.094366,172.16.3.2,5101,172.16.1.2,58704,10499,14480,0,65728,65700,6,6,4,1460,686,1,993,96,33580,0,65700,1448,0,0,0,0
i,0x00000000,1716771785.114313,172.16.3.2,5101,172.16.1.2,58704,10499,14480,0,65728,65700,6,6,4,1460,686,1,992,96,33580,0,65700,0,0,0,0,0
i,0x00000000,1716771785.124641,172.16.3.2,5101,172.16.1.2,58704,10499,14480,0,65728,65700,6,6,4,1460,686,1,992,96,33580,0,65700,0,0,0,0,0
o,0x00000000,1716771785.124647,172.16.3.2,5101,172.16.1.2,58704,10499,14480,0,65728,65700,6,6,4,1460,686,1,993,96,33580,0,65700,1448,0,0,0,0
i,0x00000000,1716771785.134002,172.16.3.2,5101,172.16.1.2,58704,10499,14480,0,65728,65700,6,6,4,1460,686,1,992,96,33580,0,65700,0,0,0,0,0
i,0x00000000,1716771785.144660,172.16.3.2,5101,172.16.1.2,58704,10499,14480,0,65728,65700,6,6,4,1460,686,1,992,96,33580,0,65700,0,0,0,0,0
o,0x00000000,1716771785.144666,172.16.3.2,5101,172.16.1.2,58704,10499,14480,0,65728,65700,6,6,4,1460,686,1,993,96,33580,0,65700,1448,0,0,0,0
i,0x00000000,1716771785.153963,172.16.3.2,5101,172.16.1.2,58704,10499,14480,0,65728,65700,6,6,4,1460,686,1,992,96,33580,0,65700,0,0,0,0,0
i,0x00000000,1716771785.174238,172.16.3.2,5101,172.16.1.2,58704,10499,14480,0,65728,65700,6,6,4,1460,686,1,992,96,33580,0,65700,0,0,0,0,0
o,0x00000000,1716771785.174257,172.16.3.2,5101,172.16.1.2,58704,10499,14480,0,65728,65700,6,6,4,1460,686,1,993,96,33580,0,65700,1448,0,0,0,0
i,0x00000000,1716771785.183964,172.16.3.2,5101,172.16.1.2,58704,10499,14480,0,65728,65700,6,6,4,1460,686,1,992,96,33580,0,65700,0,0,0,0,0
i,0x00000000,1716771785.193440,172.16.3.2,5101,172.16.1.2,58704,10499,14480,0,65728,65700,6,6,4,1460,686,1,992,96,33580,0,65700,0,0,0,0,0
