enable_time_secs=1716772931	enable_time_usecs=717287	siftrver=1.2.4	hz=100	tcp_rtt_scale=32	sysname=FreeBSD	sysver=1301000	ipmode=4
o,0x00000000,1716772931.717323,10.0.2.15,22,10.0.2.2,54298,1073725440,17298,0,65535,65700,0,0,4,1460,1,0,4,24,33580,44,65700,0,0,0,0,0
o,0x00000000,1716772931.717426,10.0.2.15,22,10.0.2.2,54298,1073725440,17298,0,65535,65700,0,0,4,1460,1,0,4,24,33580,80,65700,0,44,0,0,0
i,0x00000000,1716772931.717975,10.0.2.15,22,10.0.2.2,54298,1073725440,17298,0,65535,65700,0,0,4,1460,1,0,4,24,33580,80,65700,0,80,0,0,0
i,0x00000000,1716772931.718049,10.0.2.15,22,10.0.2.2,54298,1073725440,17342,0,65535,65700,0,0,4,1460,1,0,4,24,33580,36,65700,0,36,0,0,0
o,0x00000000,1716772931.718112,10.0.2.15,22,10.0.2.2,54298,1073725440,17378,0,65535,65700,0,0,4,1460,1,0,4,24,33580,36,65700,0,0,0,0,0
i,0x00000000,1716772931.718543,10.0.2.15,22,10.0.2.2,54298,1073725440,17378,0,65535,65700,0,0,4,1460,1,0,4,24,33580,36,65700,0,36,0,0,0
o,0x00000000,1716772931.718774,10.0.2.15,22,10.0.2.2,54298,1073725440,17414,0,65535,65700,0,0,4,1460,1,0,4,24,33580,176,65700,0,0,0,0,0
i,0x00000000,1716772931.719325,10.0.2.15,22,10.0.2.2,54298,1073725440,17414,0,65535,65700,0,0,4,1460,1,0,4,24,33580,176,65700,0,176,0,0,0
i,0x00000000,1716772931.719847,10.0.2.15,22,10.0.2.2,54298,1073725440,17590,0,65535,65700,0,0,4,1460,1,0,4,24,33580,0,65700,0,0,0,0,0
i,0x00000000,1716772931.719852,10.0.2.15,22,10.0.2.2,54298,1073725440,17590,0,65535,65700,0,0,4,1460,1,0,4,24,33580,0,65700,36,0,0,0,0
o,0x00000000,1716772931.719854,10.0.2.15,22,10.0.2.2,54298,1073725440,17590,0,65535,65700,0,0,4,1460,1,0,5,24,33580,0,65700,96,0,0,0,0
i,0x00000000,1716772931.719933,10.0.2.15,22,10.0.2.2,54298,1073725440,17590,0,65535,65700,0,0,4,1460,1,0,4,24,33580,0,65700,96,0,0,0,0
o,0x00000000,1716772931.719937,10.0.2.15,22,10.0.2.2,54298,1073725440,17590,0,65535,65604,0,0,5,1460,1,0,7,24,33580,0,65700,96,0,0,0,0
o,0x00000000,1716772931.720712,10.0.2.15,22,10.0.2.2,54298,1073725440,17590,0,65535,65604,0,0,8,1460,1,0,4,24,33580,0,65700,0,0,0,0,0
i,0x00000000,1716772931.721164,10.0.2.15,22,10.0.2.2,54298,1073725440,17590,0,65535,65604,0,0,8,1460,1,0,20,24,33580,0,65700,0,1,0,0,0
i,0x00000000,1716772933.036834,172.16.3.2,5101,172.16.1.2,34029,10498,14480,0,65728,65700,6,6,4,1460,800,1,992,127,33580,0,65700,0,0,0,0,0
o,0x00000000,1716772933.036915,172.16.3.2,5101,172.16.1.2,34029,10498,14480,0,65728,65700,6,6,4,1460,800,1,996,127,33580,1,65700,0,0,0,0,0
i,0x00000000,1716772933.157380,172.16.3.2,5101,172.16.1.2,34029,10498,14480,0,65728,65700,6,6,4,1460,800,1,996,127,33580,1,65700,0,1,0,0,0
i,0x00000000,1716772933.157398,172.16.3.2,5101,172.16.1.2,34029,10498,14480,0,65728,65728,6,6,4,1460,744,1,996,119,33580,0,65700,4,0,0,0,0
o,0x00000000,1716772933.157407,172.16.3.2,5101,172.16.1.2,34029,10498,14480,0,65728,65728,6,6,4,1460,744,1,997,119,33580,0,65700,128,0,0,0,0
o,0x00000000,1716772933.157823,172.16.3.2,5101,172.16.1.2,34029,10498,14480,0,65728,65728,6,6,4,1460,744,1,996,119,33580,1,65700,0,0,0,0,0
o,0x00000000,1716772933.157989,10.0.2.15,22,10.0.2.2,60131,1073725440,14600,0,65535,65700,0,0,4,1460,1,0,4,24,33580,84,65700,0,0,0,0,0
i,0x00000000,1716772933.159009,10.0.2.15,22,10.0.2.2,60131,1073725440,14600,0,65535,65700,0,0,4,1460,1,0,4,24,33580,84,65700,0,84,0,0,0
i,0x00000000,1716772933.307486,172.16.3.2,5101,172.16.1.2,34029,10498,14480,0,65728,65728,6,6,4,1460,744,1,996,119,33580,1,65700,0,1,0,0,0
i,0x00000000,1716772933.398172,172.16.3.2,5101,172.16.1.2,41386,10498,14480,0,65728,65700,6,6,4,1460,800,1,992,127,33580,0,65700,0,0,0,0,0
o,0x00000000,1716772933.400614,172.16.3.2,5101,172.16.1.2,34029,10498,14480,0,65728,65728,6,6,4,1460,711,1,996,107,33580,1,65700,0,0,0,0,0
o,0x00000000,1716772933.400717,172.16.3.2,5101,172.16.1.2,34029,10498,14480,0,65728,65728,6,6,4,1460,711,1,996,107,33580,2,65700,0,1,0,0,0
o,0x00000000,1716772933.401142,10.0.2.15,22,10.0.2.2,60131,1073725440,14600,0,65535,65700,0,0,4,1460,1,0,4,24,33580,108,65700,0,0,0,0,0
i,0x00000000,1716772933.401951,10.0.2.15,22,10.0.2.2,60131,1073725440,14600,0,65535,65700,0,0,4,1460,1,0,4,24,33580,108,65700,0,108,0,0,0
o,0x00000000,1716772933.429375,172.16.3.2,5101,172.16.1.2,41386,10498,14480,0,65728,65700,6,6,4,1460,800,1,993,127,33580,0,65700,0,0,0,0,0
i,0x00000000,1716772933.588238,172.16.3.2,5101,172.16.1.2,34029,10498,14480,0,65728,65728,6,6,4,1460,711,1,996,107,33580,2,65700,0,2,0,0,0
i,0x00000000,1716772933.618105,172.16.3.2,5101,172.16.1.2,41386,10498,14480,0,65728,65700,6,6,4,1460,800,1,992,127,33580,0,65700,0,0,0,0,0
i,0x00000000,1716772933.627432,172.16.3.2,5101,172.16.1.2,41386,10498,14480,0,65728,65700,6,6,4,1460,800,1,992,127,33580,0,65700,0,0,0,0,0
o,0x00000000,1716772933.627444,172.16.3.2,5101,172.16.1.2,41386,10498,14480,0,65728,65700,6,6,4,1460,800,1,993,127,33580,0,65700,1448,0,0,0,0
i,0x00000000,1716772933.638113,172.16.3.2,5101,172.16.1.2,41386,10498,14480,0,65728,65700,6,6,4,1460,800,1,992,127,33580,0,65700,0,0,0,0,0
i,0x00000000,1716772933.648410,172.16.3.2,5101,172.16.1.2,41386,10498,14480,0,65728,65700,6,6,4,1460,800,1,992,127,33580,0,65700,0,0,0,0,0
o,0x00000000,1716772933.648420,172.16.3.2,5101,172.16.1.2,41386,10498,14480,0,65728,65700,6,6,4,1460,800,1,993,127,33580,0,65700,1448,0,0,0,0
i,0x00000000,1716772933.667284,172.16.3.2,5101,172.16.1.2,41386,10498,14480,0,65728,65700,6,6,4,1460,800,1,992,127,33580,0,65700,0,0,0,0,0
i,0x00000000,1716772933.677883,172.16.3.2,5101,172.16.1.2,41386,10498,14480,0,65728,65700,6,6,4,1460,800,1,992,127,33580,0,65700,0,0,0,0,0
o,0x00000000,1716772933.677893,172.16.3.2,5101,172.16.1.2,41386,10498,14480,0,65728,65700,6,6,4,1460,800,1,993,127,33580,0,65700,1448,0,0,0,0
i,0x00000000,1716772933.688354,172.16.3.2,5101,172.16.1.2,41386,10498,14480,0,65728,65700,6,6,4,1460,800,1,992,127,33580,0,65700,0,0,0,0,0
i,0x00000000,1716772933.698834,172.16.3.2,5101,172.16.1.2,41386,10498,14480,0,65728,65700,6,6,4,1460,800,1,992,127,33580,0,65700,0,0,0,0,0
o,0x00000000,1716772933.698842,172.16.3.2,5101,172.16.1.2,41386,10498,14480,0,65728,65700,6,6,4,1460,800,1,993,127,33580,0,65700,1448,0,0,0,0
i,0x00000000,1716772933.707771,172.16.3.2,5101,172.16.1.2,41386,10498,14480,0,65728,65700,6,6,4,1460,800,1,992,127,33580,0,65700,0,0,0,0,0
i,0x00000000,1716772933.727616,172.16.3.2,5101,172.16.1.2,41386,10498,14480,0,65728,65700,6,6,4,1460,800,1,992,127,33580,0,65700,0,0,0,0,0
o,0x00000000,1716772933.727635,172.16.3.2,5101,172.16.1.2,41386,10498,14480,0,65728,65700,6,6,4,1460,800,1,993,127,33580,0,65700,1448,0,0,0,0
i,0x00000000,1716772934.038196,172.16.3.2,5101,172.16.1.2,41386,10498,14480,0,65728,65700,6,6,4,1460,800,1,992,127,33580,0,65700,0,0,0,0,0
i,0x00000000,1716772934.048464,172.16.3.2,5101,172.16.1.2,41386,10498,14480,0,65728,65700,6,6,4,1460,800,1,992,127,33580,0,65700,0,0,0,0,0
o,0x00000000,1716772934.048479,172.16.3.2,5101,172.16.1.2,41386,10498,14480,0,65728,65700,6,6,4,1460,800,1,993,127,33580,0,65700,1448,0,0,0,0
i,0x00000000,1716772934.058449,172.16.3.2,5101,172.16.1.2,41386,10498,14480,0,65728,65700,6,6,4,1460,800,1,992,127,33580,0,65700,0,0,0,0,0
i,0x00000000,1716772934.068902,172.16.3.2,5101,172.16.1.2,41386,10498,14480,0,65728,65700,6,6,4,1460,800,1,992,127,33580,0,65700,0,0,0,0,0
o,0x00000000,1716772934.068915,172.16.3.2,5101,172.16.1.2,41386,10498,14480,0,65728,65700,6,6,4,1460,800,1,993,127,33580,0,65700,1448,0,0,0,0
i,0x00000000,1716772934.087862,172.16.3.2,5101,172.16.1.2,41386,10498,14480,0,65728,65700,6,6,4,1460,800,1,992,127,33580,0,65700,0,0,0,0,0
i,0x00000000,1716772934.098146,172.16.3.2,5101,172.16.1.2,41386,10498,14480,0,65728,65700,6,6,4,1460,800,1,992,127,33580,0,65700,0,0,0,0,0
o,0x00000000,1716772934.098155,172.16.3.2,5101,172.16.1.2,41386,10498,14480,0,65728,65700,6,6,4,1460,800,1,993,127,33580,0,65700,1448,0,0,0,0
i,0x00000000,1716772934.108663,172.16.3.2,5101,172.16.1.2,41386,10498,14480,0,65728,65700,6,6,4,1460,800,1,992,127,33580,0,65700,0,0,0,0,0
i,0x00000000,1716772934.117502,172.16.3.2,5101,172.16.1.2,41386,10498,14480,0,65728,65700,6,6,4,1460,800,1,992,127,33580,0,65700,0,0,0,0,0
o,0x00000000,1716772934.117511,172.16.3.2,5101,172.16.1.2,41386,10498,14480,0,65728,65700,6,6,4,1460,800,1,993,127,33580,0,65700,1448,0,0,0,0
i,0x00000000,1716772934.127901,172.16.3.2,5101,172.16.1.2,41386,10498,14480,0,65728,65700,6,6,4,1460,800,1,992,127,33580,0,65700,0,0,0,0,0
i,0x00000000,1716772934.147860,172.16.3.2,5101,172.16.1.2,41386,10498,14480,0,65728,65700,6,6,4,1460,800,1,992,127,33580,0,65700,0,0,0,0,0
o,0x00000000,1716772934.147869,172.16.3.2,5101,172.16.1.2,41386,10498,14480,0,65728,65700,6,6,4,1460,800,1,993,127,33580,0,65700,1448,0,0,0,0
i,0x00000000,1716772934.158392,172.16.3.2,5101,172.16.1.2,41386,10498,14480,0,65728,65700,6,6,4,1460,800,1,992,127,33580,0,65700,0,0,0,0,0
i,0x00000000,1716772934.168991,172.16.3.2,5101,172.16.1.2,41386,10498,14480,0,65728,65700,6,6,4,1460,800,1,992,127,33580,0,65700,0,0,0,0,0
o,0x00000000,1716772934.169003,172.16.3.2,5101,172.16.1.2,41386,10498,14480,0,65728,65700,6,6,4,1460,800,1,993,127,33580,0,65700,1448,0,0,0,0
i,0x00000000,1716772934.178323,172.16.3.2,5101,172.16.1.2,41386,10498,14480,0,65728,65700,6,6,4,1460,800,1,992,127,33580,0,65700,0,0,0,0,0
i,0x00000000,1716772934.188922,172.16.3.2,5101,172.16.1.2,41386,10498,14480,0,65728,65700,6,6,4,1460,800,1,992,127,33580,0,65700,0,0,0,0,0
o,0x00000000,1716772934.188929,172.16.3.2,5101,172.16.1.2,41386,10498,14480,0,65728,65700,6,6,4,1460,800,1,993,127,33580,0,65700,1448,0,0,0,0
i,0x00000000,1716772934.207903,172.16.3.2,5101,172.16.1.2,41386,10498,14480,0,65728,65700,6,6,4,1460,800,1,992,127,33580,0,65700,0,0,0,0,0
i,0x00000000,1716772934.218405,172.16.3.2,5101,172.16.1.2,41386,10498,14480,0,65728,65700,6,6,4,1460,800,1,992,127,33580,0,65700,0,0,0,0,0
o,0x00000000,1716772934.218411,172.16.3.2,5101,172.16.1.2,41386,10498,14480,0,65728,65700,6,6,4,1460,800,1,993,127,33580,0,65700,1448,0,0,0,0
i,0x00000000,1716772934.227836,172.16.3.2,5101,172.16.1.2,41386,10498,14480,0,65728,65700,6,6,4,1460,800,1,992,127,33580,0,65700,0,0,0,0,0
i,0x00000000,1716772934.238475,172.16.3.2,5101,172.16.1.2,41386,10498,14480,0,65728,65700,6,6,4,1460,800,1,992,127,33580,0,65700,0,0,0,0,0
o,0x00000000,1716772934.238480,172.16.3.2,5101,172.16.1.2,41386,10498,14480,0,65728,65700,6,6,4,1460,800,1,993,127,33580,0,65700,1448,0,0,0,0
i,0x00000000,1716772934.247665,172.16.3.2,5101,172.16.1.2,41386,10498,14480,0,65728,65700,6,6,4,1460,800,1,992,127,33580,0,65700,0,0,0,0,0
i,0x00000000,1716772934.267716,172.16.3.2,5101,172.16.1.2,41386,10498,14480,0,65728,65700,6,6,4,1460,800,1,992,127,33580,0,65700,0,0,0,0,0
o,0x00000000,1716772934.267733,172.16.3.2,5101,172.16.1.2,41386,10498,14480,0,65728,65700,6,6,4,1460,800,1,993,127,33580,0,65700,1448,0,0,0,0
o,0x00000000,1716772934.410671,10.0.2.15,22,10.0.2.2,60131,1073725440,14600,0,65535,65700,0,0,4,1460,1,0,4,24,33580,156,65700,0,0,0,0,0
i,0x00000000,1716772934.411541,10.0.2.15,22,10.0.2.2,60131,1073725440,14600,0,65535,65700,0,0,4,1460,1,0,4,24,33580,156,65700,0,156,0,0,0
i,0x00000000,1716772934.628911,172.16.3.2,5101,172.16.1.2,41386,10498,14480,0,65728,65700,6,6,4,1460,800,1,992,127,33580,0,65700,0,0,0,0,0
i,0x00000000,1716772934.639032,172.16.3.2,5101,172.16.1.2,41386,10498,14480,0,65728,65700,6,6,4,1460,800,1,992,127,33580,0,65700,0,0,0,0,0
o,0x00000000,1716772934.639046,172.16.3.2,5101,172.16.1.2,41386,10498,14480,0,65728,65700,6,6,4,1460,800,1,993,127,33580,0,65700,1448,0,0,0,0
i,0x00000000,1716772934.648976,172.16.3.2,5101,172.16.1.2,41386,10498,14480,0,65728,65700,6,6,4,1460,800,1,992,127,33580,0,65700,0,0,0,0,0
i,0x00000000,1716772934.659222,172.16.3.2,5101,172.16.1.2,41386,10498,14480,0,65728,65700,6,6,4,1460,800,1,992,127,33580,0,65700,0,0,0,0,0
o,0x00000000,1716772934.659242,172.16.3.2,5101,172.16.1.2,41386,10498,14480,0,65728,65700,6,6,4,1460,800,1,993,127,33580,0,65700,1448,0,0,0,0
i,0x00000000,1716772934.668789,172.16.3.2,5101,172.16.1.2,41386,10498,14480,0,65728,65700,6,6,4,1460,800,1,992,127,33580,0,65700,0,0,0,0,0
i,0x00000000,1716772934.688006,172.16.3.2,5101,172.16.1.2,41386,10498,14480,0,65728,65700,6,6,4,1460,800,1,992,127,33580,0,65700,0,0,0,0,0
o,0x00000000,1716772934.688020,172.16.3.2,5101,172.16.1.2,41386,10498,14480,0,65728,65700,6,6,4,1460,800,1,993,127,33580,0,65700,1448,0,0,0,0
i,0x00000000,1716772934.698583,172.16.3.2,5101,172.16.1.2,41386,10498,14480,0,65728,65700,6,6,4,1460,800,1,992,127,33580,0,65700,0,0,0,0,0
i,0x00000000,1716772934.708161,172.16.3.2,5101,172.16.1.2,41386,10498,14480,0,65728,65700,6,6,4,1460,800,1,992,127,33580,0,65700,0,0,0,0,0
o,0x00000000,1716772934.708169,172.16.3.2,5101,172.16.1.2,41386,10498,14480,0,65728,65700,6,6,4,1460,800,1,993,127,33580,0,65700,1448,0,0,0,0
i,0x00000000,1716772934.718340,172.16.3.2,5101,172.16.1.2,41386,10498,14480,0,65728,65700,6,6,4,1460,800,1,992,127,33580,0,65700,0,0,0,0,0
i,0x00000000,1716772934.729175,172.16.3.2,5101,172.16.1.2,41386,10498,14480,0,65728,65700,6,6,4,1460,800,1,992,127,33580,0,65700,0,0,0,0,0
o,0x00000000,1716772934.729189,172.16.3.2,5101,172.16.1.2,41386,10498,14480,0,65728,65700,6,6,4,1460,800,1,993,127,33580,0,65700,1448,0,0,0,0
i,0x00000000,1716772934.749151,172.16.3.2,5101,172.16.1.2,41386,10498,14480,0,65728,65700,6,6,4,1460,800,1,992,127,33580,0,65700,0,0,0,0,0
i,0x00000000,1716772934.759512,172.16.3.2,5101,172.16.1.2,41386,10498,14480,0,65728,65700,6,6,4,1460,800,1,992,127,33580,0,65700,0,0,0,0,0
o,0x00000000,1716772934.759526,172.16.3.2,5101,172.16.1.2,41386,10498,14480,0,65728,65700,6,6,4,1460,800,1,993,127,33580,0,65700,1448,0,0,0,0
i,0x00000000,1716772934.769002,172.16.3.2,5101,172.16.1.2,41386,10498,14480,0,65728,65700,6,6,4,1460,800,1,992,127,33580,0,65700,0,0,0,0,0
i,0x00000000,1716772934.779215,172.16.3.2,5101,172.16.1.2,41386,10498,14480,0,65728,65700,6,6,4,1460,800,1,992,127,33580,0,65700,0,0,0,0,0
o,0x00000000,1716772934.779222,172.16.3.2,5101,172.16.1.2,41386,10498,14480,0,65728,65700,6,6,4,1460,800,1,993,127,33580,0,65700,1448,0,0,0,0
i,0x00000000,1716772934.789025,172.16.3.2,5101,172.16.1.2,41386,10498,14480,0,65728,65700,6,6,4,1460,800,1,992,127,33580,0,65700,0,0,0,0,0
i,0x00000000,1716772934.809593,172.16.3.2,5101,172.16.1.2,41386,10498,14480,0,65728,65700,6,6,4,1460,800,1,992,127,33580,0,65700,0,0,0,0,0
o,0x00000000,1716772934.809601,172.16.3.2,5101,172.16.1.2,41386,10498,14480,0,65728,65700,6,6,4,1460,800,1,993,127,33580,0,65700,1448,0,0,0,0
i,0x00000000,1716772934.819879,172.16.3.2,5101,172.16.1.2,41386,10498,14480,0,65728,65700,6,6,4,1460,800,1,992,127,33580,0,65700,0,0,0,0,0
i,0x00000000,1716772934.828789,172.16.3.2,5101,172.16.1.2,41386,10498,14480,0,65728,65700,6,6,4,1460,800,1,992,127,33580,0,65700,0,0,0,0,0
o,0x00000000,1716772934.828795,172.16.3.2,5101,172.16.1.2,41386,10498,14480,0,65728,65700,6,6,4,1460,800,1,993,127,33580,0,65700,1448,0,0,0,0
i,0x00000000,1716772934.838158,172.16.3.2,5101,172.16.1.2,41386,10498,14480,0,65728,65700,6,6,4,1460,800,1,992,127,33580,0,65700,0,0,0,0,0
i,0x00000000,1716772934.848765,172.16.3.2,5101,172.16.1.2,41386,10498,14480,0,65728,65700,6,6,4,1460,800,1,992,127,33580,0,65700,0,0,0,0,0
o,0x00000000,1716772934.848771,172.16.3.2,5101,172.16.1.2,41386,10498,14480,0,65728,65700,6,6,4,1460,800,1,993,127,33580,0,65700,1448,0,0,0,0
i,0x00000000,1716772934.868756,172.16.3.2,5101,172.16.1.2,41386,10498,14480,0,65728,65700,6,6,4,1460,800,1,992,127,33580,0,65700,0,0,0,0,0
i,0x00000000,1716772934.879041,172.16.3.2,5101,172.16.1.2,41386,10498,14480,0,65728,65700,6,6,4,1460,800,1,992,127,33580,0,65700,0,0,0,0,0
o,0x00000000,1716772934.879048,172.16.3.2,5101,172.16.1.2,41386,10498,14480,0,65728,65700,6,6,4,1460,800,1,993,127,33580,0,65700,1448,0,0,0,0
i,0x00000000,1716772934.888594,172.16.3.2,5101,172.16.1.2,41386,10498,14480,0,65728,65700,6,6,4,1460,800,1,992,127,33580,0,65700,0,0,0,0,0
i,0x00000000,1716772934.899161,172.16.3.2,5101,172.16.1.2,41386,10498,14480,0,65728,65700,6,6,4,1460,800,1,992,127,33580,0,65700,0,0,0,0,0
o,0x00000000,1716772934.899168,172.16.3.2,5101,172.16.1.2,41386,10498,14480,0,65728,65700,6,6,4,1460,800,1,993,127,33580,0,65700,1448,0,0,0,0
i,0x00000000,1716772935.270342,172.16.3.2,5101,172.16.1.2,41386,10498,14480,0,65728,65700,6,6,4,1460,800,1,992,127,33580,0,65700,0,0,0,0,0
i,0x00000000,1716772935.279180,172.16.3.2,5101,172.16.1.2,41386,10498,14480,0,65728,65700,6,6,4,1460,800,1,992,127,33580,0,65700,0,0,0,0,0
o,0x00000000,1716772935.279191,172.16.3.2,5101,172.16.1.2,41386,10498,14480,0,65728,65700,6,6,4,1460,800,1,993,127,33580,0,65700,1448,0,0,0,0
i,0x00000000,1716772935.289720,172.16.3.2,5101,172.16.1.2,41386,10498,14480,0,65728,65700,6,6,4,1460,800,1,992,127,33580,0,65700,0,0,0,0,0
i,0x00000000,1716772935.299223,172.16.3.2,5101,172.16.1.2,41386,10498,14480,0,65728,65700,6,6,4,1460,800,1,992,127,33580,0,65700,0,0,0,0,0
o,0x00000000,1716772935.299235,172.16.3.2,5101,172.16.1.2,41386,10498,14480,0,65728,65700,6,6,4,1460,800,1,993,127,33580,0,65700,1448,0,0,0,0
i,0x00000000,1716772935.319761,172.16.3.2,5101,172.16.1.2,41386,10498,14480,0,65728,65700,6,6,4,1460,800,1,992,127,33580,0,65700,0,0,0,0,0
i,0x00000000,1716772935.328940,172.16.3.2,5101,172.16.1.2,41386,10498,14480,0,65728,65700,6,6,4,1460,800,1,992,127,33580,0,65700,0,0,0,0,0
o,0x00000000,1716772935.328950,172.16.3.2,5101,172.16.1.2,41386,10498,14480,0,65728,65700,6,6,4,1460,800,1,993,127,33580,0,65700,1448,0,0,0,0
i,0x00000000,1716772935.339117,172.16.3.2,5101,172.16.1.2,41386,10498,14480,0,65728,65700,6,6,4,1460,800,1,992,127,33580,0,65700,0,0,0,0,0
i,0x00000000,1716772935.349679,172.16.3.2,5101,172.16.1.2,41386,10498,14480,0,65728,65700,6,6,4,1460,800,1,992,127,33580,0,65700,0,0,0,0,0
o,0x00000000,1716772935.349687,172.16.3.2,5101,172.16.1.2,41386,10498,14480,0,65728,65700,6,6,4,1460,800,1,993,127,33580,0,65700,1448,0,0,0,0
i,0x00000000,1716772935.359275,172.16.3.2,5101,172.16.1.2,41386,10498,14480,0,65728,65700,6,6,4,1460,800,1,992,127,33580,0,65700,0,0,0,0,0
i,0x00000000,1716772935.380152,172.16.3.2,5101,172.16.1.2,41386,10498,14480,0,65728,65700,6,6,4,1460,800,1,992,127,33580,0,65700,0,0,0,0,0
o,0x00000000,1716772935.380162,172.16.3.2,5101,172.16.1.2,41386,10498,14480,0,65728,65700,6,6,4,1460,800,1,993,127,33580,0,65700,1448,0,0,0,0
i,0x00000000,1716772935.388972,172.16.3.2,5101,172.16.1.2,41386,10498,14480,0,65728,65700,6,6,4,1460,800,1,992,127,33580,0,65700,0,0,0,0,0
i,0x00000000,1716772935.399562,172.16.3.2,5101,172.16.1.2,41386,10498,14480,0,65728,65700,6,6,4,1460,800,1,992,127,33580,0,65700,0,0,0,0,0
o,0x00000000,1716772935.399568,172.16.3.2,5101,172.16.1.2,41386,10498,14480,0,65728,65700,6,6,4,1460,800,1,993,127,33580,0,65700,1448,0,0,0,0
i,0x00000000,1716772935.408998,172.16.3.2,5101,172.16.1.2,41386,10498,14480,0,65728,65700,6,6,4,1460,800,1,992,127,33580,0,65700,0,0,0,0,0
i,0x00000000,1716772935.419533,172.16.3.2,5101,172.16.1.2,41386,10498,14480,0,65728,65700,6,6,4,1460,800,1,992,127,33580,0,65700,0,0,0,0,0
o,0x00000000,1716772935.419540,172.16.3.2,5101,172.16.1.2,41386,10498,14480,0,65728,65700,6,6,4,1460,800,1,993,127,33580,0,65700,1448,0,0,0,0
o,0x00000000,1716772935.419763,10.0.2.15,22,10.0.2.2,60131,1073725440,14600,0,65535,65700,0,0,4,1460,1,0,4,24,33580,108,65700,0,0,0,0,0
i,0x00000000,1716772935.420486,10.0.2.15,22,10.0.2.2,60131,1073725440,14600,0,65535,65700,0,0,4,1460,1,0,4,24,33580,108,65700,0,108,0,0,0
i,0x00000000,1716772935.439484,172.16.3.2,5101,172.16.1.2,41386,10498,14480,0,65728,65700,6,6,4,1460,800,1,992,127,33580,0,65700,0,0,0,0,0
i,0x00000000,1716772935.448466,172.16.3.2,5101,172.16.1.2,41386,10498,14480,0,65728,65700,6,6,4,1460,800,1,992,127,33580,0,65700,0,0,0,0,0
o,0x00000000,1716772935.448473,172.16.3.2,5101,172.16.1.2,41386,10498,14480,0,65728,65700,6,6,4,1460,800,1,993,127,33580,0,65700,1448,0,0,0,0
i,0x00000000,1716772935.459458,172.16.3.2,5101,172.16.1.2,41386,10498,14480,0,65728,65700,6,6,4,1460,800,1,992,127,33580,0,65700,0,0,0,0,0
i,0x00000000,1716772935.469484,172.16.3.2,5101,172.16.1.2,41386,10498,14480,0,65728,65700,6,6,4,1460,800,1,992,127,33580,0,65700,0,0,0,0,0
o,0x00000000,1716772935.469490,172.16.3.2,5101,172.16.1.2,41386,10498,14480,0,65728,65700,6,6,4,1460,800,1,993,127,33580,0,65700,1448,0,0,0,0
i,0x00000000,1716772935.480107,172.16.3.2,5101,172.16.1.2,41386,10498,14480,0,65728,65700,6,6,4,1460,800,1,992,127,33580,0,65700,0,0,0,0,0
i,0x00000000,1716772935.499411,172.16.3.2,5101,172.16.1.2,41386,10498,14480,0,65728,65700,6,6,4,1460,800,1,992,127,33580,0,65700,0,0,0,0,0
o,0x00000000,1716772935.499417,172.16.3.2,5101,172.16.1.2,41386,10498,14480,0,65728,65700,6,6,4,1460,800,1,993,127,33580,0,65700,1448,0,0,0,0
i,0x00000000,1716772935.508883,172.16.3.2,5101,172.16.1.2,41386,10498,14480,0,65728,65700,6,6,4,1460,800,1,992,127,33580,0,65700,0,0,0,0,0
i,0x00000000,1716772935.519423,172.16.3.2,5101,172.16.1.2,41386,10498,14480,0,65728,65700,6,6,4,1460,800,1,992,127,33580,0,65700,0,0,0,0,0
o,0x00000000,1716772935.519430,172.16.3.2,5101,172.16.1.2,41386,10498,14480,0,65728,65700,6,6,4,1460,800,1,993,127,33580,0,65700,1448,0,0,0,0
i,0x00000000,1716772935.528910,172.16.3.2,5101,172.16.1.2,41386,10498,14480,0,65728,65700,6,6,4,1460,800,1,992,127,33580,0,65700,0,0,0,0,0
i,0x00000000,1716772935.539475,172.16.3.2,5101,172.16.1.2,41386,10498,14480,0,65728,65700,6,6,4,1460,800,1,992,127,33580,0,65700,0,0,0,0,0
o,0x00000000,1716772935.539482,172.16.3.2,5101,172.16.1.2,41386,10498,14480,0,65728,65700,6,6,4,1460,800,1,993,127,33580,0,65700,1448,0,0,0,0
i,0x00000000,1716772935.559355,172.16.3.2,5101,172.16.1.2,41386,10498,14480,0,65728,65700,6,6,4,1460,800,1,992,127,33580,0,65700,0,0,0,0,0
o,0x00000000,1716772935.600087,172.16.3.2,5101,172.16.1.2,41386,10498,14480,0,65728,65700,6,6,4,1460,800,1,993,127,33580,0,65700,0,0,0,0,0
i,0x00000000,1716772935.929298,172.16.3.2,5101,172.16.1.2,41386,10498,14480,0,65728,65700,6,6,4,1460,800,1,992,127,33580,0,65700,0,0,0,0,0
i,0x00000000,1716772935.939552,172.16.3.2,5101,172.16.1.2,41386,10498,14480,0,65728,65700,6,6,4,1460,800,1,992,127,33580,0,65700,0,0,0,0,0
o,0x00000000,1716772935.939563,172.16.3.2,5101,172.16.1.2,41386,10498,14480,0,65728,65700,6,6,4,1460,800,1,993,127,33580,0,65700,1448,0,0,0,0
i,0x00000000,1716772935.949280,172.16.3.2,5101,172.16.1.2,41386,10498,14480,0,65728,65700,6,6,4,1460,800,1,992,127,33580,0,65700,0,0,0,0,0
i,0x00000000,1716772935.959765,172.16.3.2,5101,172.16.1.2,41386,10498,14480,0,65728,65700,6,6,4,1460,800,1,992,127,33580,0,65700,0,0,0,0,0
o,0x00000000,1716772935.959770,172.16.3.2,5101,172.16.1.2,41386,10498,14480,0,65728,65700,6,6,4,1460,800,1,993,127,33580,0,65700,1448,0,0,0,0
i,0x00000000,1716772935.979775,172.16.3.2,5101,172.16.1.2,41386,10498,14480,0,65728,65700,6,6,4,1460,800,1,992,127,33580,0,65700,0,0,0,0,0
i,0x00000000,1716772935.990197,172.16.3.2,5101,172.16.1.2,41386,10498,14480,0,65728,65700,6,6,4,1460,800,1,992,127,33580,0,65700,0,0,0,0,0
o,0x00000000,1716772935.990205,172.16.3.2,5101,172.16.1.2,41386,10498,14480,0,65728,65700,6,6,4,1460,800,1,993,127,33580,0,65700,1448,0,0,0,0
i,0x00000000,1716772935.999780,172.16.3.2,5101,172.16.1.2,41386,10498,14480,0,65728,65700,6,6,4,1460,800,1,992,127,33580,0,65700,0,0,0,0,0
i,0x00000000,1716772936.010258,172.16.3.2,5101,172.16.1.2,41386,10498,14480,0,65728,65700,6,6,4,1460,800,1,992,127,33580,0,65700,0,0,0,0,0
o,0x00000000,1716772936.010264,172.16.3.2,5101,172.16.1.2,41386,10498,14480,0,65728,65700,6,6,4,1460,800,1,993,127,33580,0,65700,1448,0,0,0,0
i,0x00000000,1716772936.019861,172.16.3.2,5101,172.16.1.2,41386,10498,14480,0,65728,65700,6,6,4,1460,800,1,992,127,33580,0,65700,0,0,0,0,0
i,0x00000000,1716772936.040042,172.16.3.2,5101,172.16.1.2,41386,10498,14480,0,65728,65700,6,6,4,1460,800,1,992,127,33580,0,65700,0,0,0,0,0
o,0x00000000,1716772936.040048,172.16.3.2,5101,172.16.1.2,41386,10498,14480,0,65728,65700,6,6,4,1460,800,1,993,127,33580,0,65700,1448,0,0,0,0
i,0x00000000,1716772936.050740,172.16.3.2,5101,172.16.1.2,41386,10498,14480,0,65728,65700,6,6,4,1460,800,1,992,127,33580,0,65700,0,0,0,0,0
i,0x00000000,1716772936.059672,172.16.3.2,5101,172.16.1.2,41386,10498,14480,0,65728,65700,6,6,4,1460,800,1,992,127,33580,0,65700,0,0,0,0,0
o,0x00000000,1716772936.059678,172.16.3.2,5101,172.16.1.2,41386,10498,14480,0,65728,65700,6,6,4,1460,800,1,993,127,33580,0,65700,1448,0,0,0,0
i,0x00000000,1716772936.069520,172.16.3.2,5101,172.16.1.2,41386,10498,14480,0,65728,65700,6,6,4,1460,800,1,992,127,33580,0,65700,0,0,0,0,0
i,0x00000000,1716772936.081103,172.16.3.2,5101,172.16.1.2,41386,10498,14480,0,65728,65700,6,6,4,1460,800,1,992,127,33580,0,65700,0,0,0,0,0
o,0x00000000,1716772936.081110,172.16.3.2,5101,172.16.1.2,41386,10498,14480,0,65728,65700,6,6,4,1460,800,1,993,127,33580,0,65700,1448,0,0,0,0
i,0x00000000,1716772936.099015,172.16.3.2,5101,172.16.1.2,41386,10498,14480,0,65728,65700,6,6,4,1460,800,1,992,127,33580,0,65700,0,0,0,0,0
i,0x00000000,1716772936.110446,172.16.3.2,5101,172.16.1.2,41386,10498,14480,0,65728,65700,6,6,4,1460,800,1,992,127,33580,0,65700,0,0,0,0,0
o,0x00000000,1716772936.110457,172.16.3.2,5101,172.16.1.2,41386,10498,14480,0,65728,65700,6,6,4,1460,800,1,993,127,33580,0,65700,1448,0,0,0,0
i,0x00000000,1716772936.119864,172.16.3.2,5101,172.16.1.2,41386,10498,14480,0,65728,65700,6,6,4,1460,800,1,992,127,33580,0,65700,0,0,0,0,0
i,0x00000000,1716772936.130227,172.16.3.2,5101,172.16.1.2,41386,10498,14480,0,65728,65700,6,6,4,1460,800,1,992,127,33580,0,65700,0,0,0,0,0
o,0x00000000,1716772936.130236,172.16.3.2,5101,172.16.1.2,41386,10498,14480,0,65728,65700,6,6,4,1460,800,1,993,127,33580,0,65700,1448,0,0,0,0
i,0x00000000,1716772936.140673,172.16.3.2,5101,172.16.1.2,41386,10498,14480,0,65728,65700,6,6,4,1460,800,1,992,127,33580,0,65700,0,0,0,0,0
i,0x00000000,1716772936.160379,172.16.3.2,5101,172.16.1.2,41386,10498,14480,0,65728,65700,6,6,4,1460,800,1,992,127,33580,0,65700,0,0,0,0,0
o,0x00000000,1716772936.160392,172.16.3.2,5101,172.16.1.2,41386,10498,14480,0,65728,65700,6,6,4,1460,800,1,993,127,33580,0,65700,1448,0,0,0,0
i,0x00000000,1716772936.169781,172.16.3.2,5101,172.16.1.2,41386,10498,14480,0,65728,65700,6,6,4,1460,800,1,992,127,33580,0,65700,0,0,0,0,0
i,0x00000000,1716772936.180226,172.16.3.2,5101,172.16.1.2,41386,10498,14480,0,65728,65700,6,6,4,1460,800,1,992,127,33580,0,65700,0,0,0,0,0
o,0x00000000,1716772936.180232,172.16.3.2,5101,172.16.1.2,41386,10498,14480,0,65728,65700,6,6,4,1460,800,1,993,127,33580,0,65700,1448,0,0,0,0
i,0x00000000,1716772936.190399,172.16.3.2,5101,172.16.1.2,41386,10498,14480,0,65728,65700,6,6,4,1460,800,1,992,127,33580,0,65700,0,0,0,0,0
i,0x00000000,1716772936.199935,172.16.3.2,5101,172.16.1.2,41386,10498,14480,0,65728,65700,6,6,4,1460,800,1,992,127,33580,0,65700,0,0,0,0,0
o,0x00000000,1716772936.199947,172.16.3.2,5101,172.16.1.2,41386,10498,14480,0,65728,65700,6,6,4,1460,800,1,993,127,33580,0,65700,1448,0,0,0,0
i,0x00000000,1716772936.220683,172.16.3.2,5101,172.16.1.2,41386,10498,14480,0,65728,65700,6,6,4,1460,800,1,992,127,33580,0,65700,0,0,0,0,0
o,0x00000000,1716772936.260344,172.16.3.2,5101,172.16.1.2,41386,10498,14480,0,65728,65700,6,6,4,1460,800,1,993,127,33580,0,65700,0,0,0,0,0
o,0x00000000,1716772936.420249,10.0.2.15,22,10.0.2.2,60131,1073725440,14600,0,65535,65700,0,0,4,1460,1,0,4,24,33580,108,65700,0,0,0,0,0
i,0x00000000,1716772936.420937,10.0.2.15,22,10.0.2.2,60131,1073725440,14600,0,65535,65700,0,0,4,1460,1,0,4,24,33580,108,65700,0,108,0,0,0
i,0x00000000,1716772936.589739,172.16.3.2,5101,172.16.1.2,41386,10498,14480,0,65728,65700,6,6,4,1460,800,1,992,127,33580,0,65700,0,0,0,0,0
i,0x00000000,1716772936.600452,172.16.3.2,5101,172.16.1.2,41386,10498,14480,0,65728,65700,6,6,4,1460,800,1,992,127,33580,0,65700,0,0,0,0,0
o,0x00000000,1716772936.600473,172.16.3.2,5101,172.16.1.2,41386,10498,14480,0,65728,65700,6,6,4,1460,800,1,993,127,33580,0,65700,1448,0,0,0,0
i,0x00000000,1716772936.610765,172.16.3.2,5101,172.16.1.2,41386,10498,14480,0,65728,65700,6,6,4,1460,800,1,992,127,33580,0,65700,0,0,0,0,0
i,0x00000000,1716772936.620045,172.16.3.2,5101,172.16.1.2,41386,10498,14480,0,65728,65700,6,6,4,1460,800,1,992,127,33580,0,65700,0,0,0,0,0
o,0x00000000,1716772936.620052,172.16.3.2,5101,172.16.1.2,41386,10498,14480,0,65728,65700,6,6,4,1460,800,1,993,127,33580,0,65700,1448,0,0,0,0
i,0x00000000,1716772936.640085,172.16.3.2,5101,172.16.1.2,41386,10498,14480,0,65728,65700,6,6,4,1460,800,1,992,127,33580,0,65700,0,0,0,0,0
i,0x00000000,1716772936.650571,172.16.3.2,5101,172.16.1.2,41386,10498,14480,0,65728,65700,6,6,4,1460,800,1,992,127,33580,0,65700,0,0,0,0,0
o,0x00000000,1716772936.650577,172.16.3.2,5101,172.16.1.2,41386,10498,14480,0,65728,65700,6,6,4,1460,800,1,993,127,33580,0,65700,1448,0,0,0,0
i,0x00000000,1716772936.660037,172.16.3.2,5101,172.16.1.2,41386,10498,14480,0,65728,65700,6,6,4,1460,800,1,992,127,33580,0,65700,0,0,0,0,0
i,0x00000000,1716772936.670453,172.16.3.2,5101,172.16.1.2,41386,10498,14480,0,65728,65700,6,6,4,1460,800,1,992,127,33580,0,65700,0,0,0,0,0
o,0x00000000,1716772936.670460,172.16.3.2,5101,172.16.1.2,41386,10498,14480,0,65728,65700,6,6,4,1460,800,1,993,127,33580,0,65700,1448,0,0,0,0
i,0x00000000,1716772936.681052,172.16.3.2,5101,172.16.1.2,41386,10498,14480,0,65728,65700,6,6,4,1460,800,1,992,127,33580,0,65700,0,0,0,0,0
i,0x00000000,1716772936.701294,172.16.3.2,5101,172.16.1.2,41386,10498,14480,0,65728,65700,6,6,4,1460,800,1,992,127,33580,0,65700,0,0,0,0,0
o,0x00000000,1716772936.701314,172.16.3.2,5101,172.16.1.2,41386,10498,14480,0,65728,65700,6,6,4,1460,800,1,993,127,33580,0,65700,1448,0,0,0,0
i,0x00000000,1716772936.710535,172.16.3.2,5101,172.16.1.2,41386,10498,14480,0,65728,65700,6,6,4,1460,800,1,992,127,33580,0,65700,0,0,0,0,0
i,0x00000000,1716772936.720680,172.16.3.2,5101,172.16.1.2,41386,10498,14480,0,65728,65700,6,6,4,1460,800,1,992,127,33580,0,65700,0,0,0,0,0
o,0x00000000,1716772936.720696,172.16.3.2,5101,172.16.1.2,41386,10498,14480,0,65728,65700,6,6,4,1460,800,1,993,127,33580,0,65700,1448,0,0,0,0
i,0x00000000,1716772936.730085,172.16.3.2,5101,172.16.1.2,41386,10498,14480,0,65728,65700,6,6,4,1460,800,1,992,127,33580,0,65700,0,0,0,0,0
i,0x00000000,1716772936.739992,172.16.3.2,5101,172.16.1.2,41386,10498,14480,0,65728,65700,6,6,4,1460,800,1,992,127,33580,0,65700,0,0,0,0,0
o,0x00000000,1716772936.740013,172.16.3.2,5101,172.16.1.2,41386,10498,14480,0,65728,65700,6,6,4,1460,800,1,993,127,33580,0,65700,1448,0,0,0,0
i,0x00000000,1716772936.760165,172.16.3.2,5101,172.16.1.2,41386,10498,14480,0,65728,65700,6,6,4,1460,800,1,992,127,33580,0,65700,0,0,0,0,0
i,0x00000000,1716772936.770507,172.16.3.2,5101,172.16.1.2,41386,10498,14480,0,65728,65700,6,6,4,1460,800,1,992,127,33580,0,65700,0,0,0,0,0
o,0x00000000,1716772936.770518,172.16.3.2,5101,172.16.1.2,41386,10498,14480,0,65728,65700,6,6,4,1460,800,1,993,127,33580,0,65700,1448,0,0,0,0
i,0x00000000,1716772936.781005,172.16.3.2,5101,172.16.1.2,41386,10498,14480,0,65728,65700,6,6,4,1460,800,1,992,127,33580,0,65700,0,0,0,0,0
i,0x00000000,1716772936.790367,172.16.3.2,5101,172.16.1.2,41386,10498,14480,0,65728,65700,6,6,4,1460,800,1,992,127,33580,0,65700,0,0,0,0,0
o,0x00000000,1716772936.790376,172.16.3.2,5101,172.16.1.2,41386,10498,14480,0,65728,65700,6,6,4,1460,800,1,993,127,33580,0,65700,1448,0,0,0,0
i,0x00000000,1716772936.801236,172.16.3.2,5101,172.16.1.2,41386,10498,14480,0,65728,65700,6,6,4,1460,800,1,992,127,33580,0,65700,0,0,0,0,0
i,0x00000000,1716772936.821067,172.16.3.2,5101,172.16.1.2,41386,10498,14480,0,65728,65700,6,6,4,1460,800,1,992,127,33580,0,65700,0,0,0,0,0
o,0x00000000,1716772936.821074,172.16.3.2,5101,172.16.1.2,41386,10498,14480,0,65728,65700,6,6,4,1460,800,1,993,127,33580,0,65700,1448,0,0,0,0
i,0x00000000,1716772936.830143,172.16.3.2,5101,172.16.1.2,41386,10498,14480,0,65728,65700,6,6,4,1460,800,1,992,127,33580,0,65700,0,0,0,0,0
i,0x00000000,1716772936.840493,172.16.3.2,5101,172.16.1.2,41386,10498,14480,0,65728,65700,6,6,4,1460,800,1,992,127,33580,0,65700,0,0,0,0,0
o,0x00000000,1716772936.840516,172.16.3.2,5101,172.16.1.2,41386,10498,14480,0,65728,65700,6,6,4,1460,800,1,993,127,33580,0,65700,1448,0,0,0,0
i,0x00000000,1716772936.850520,172.16.3.2,5101,172.16.1.2,41386,10498,14480,0,65728,65700,6,6,4,1460,800,1,992,127,33580,0,65700,0,0,0,0,0
i,0x00000000,1716772936.860031,172.16.3.2,5101,172.16.1.2,41386,10498,14480,0,65728,65700,6,6,4,1460,800,1,992,127,33580,0,65700,0,0,0,0,0
o,0x00000000,1716772936.860037,172.16.3.2,5101,172.16.1.2,41386,10498,14480,0,65728,65700,6,6,4,1460,800,1,993,127,33580,0,65700,1448,0,0,0,0
i,0x00000000,1716772936.881097,172.16.3.2,5101,172.16.1.2,41386,10498,14480,0,65728,65700,6,6,4,1460,800,1,992,127,33580,0,65700,0,0,0,0,0
i,0x00000000,1716772936.890493,172.16.3.2,5101,172.16.1.2,41386,10498,14480,0,65728,65700,6,6,4,1460,800,1,992,127,33580,0,65700,0,0,0,0,0
o,0x00000000,1716772936.890500,172.16.3.2,5101,172.16.1.2,41386,10498,14480,0,65728,65700,6,6,4,1460,800,1,993,127,33580,0,65700,1448,0,0,0,0
i,0x00000000,1716772937.260616,172.16.3.2,5101,172.16.1.2,41386,10498,14480,0,65728,65700,6,6,4,1460,800,1,992,127,33580,0,65700,0,0,0,0,0
i,0x00000000,1716772937.290981,172.16.3.2,5101,172.16.1.2,41386,10498,14480,0,65728,65700,6,6,4,1460,800,1,992,127,33580,0,65700,0,0,0,0,0
o,0x00000000,1716772937.290997,172.16.3.2,5101,172.16.1.2,41386,10498,14480,0,65728,65700,6,6,4,1460,800,1,993,127,33580,0,65700,1448,0,0,0,0
i,0x00000000,1716772937.311581,172.16.3.2,5101,172.16.1.2,41386,10498,14480,0,65728,65700,6,6,4,1460,800,1,992,127,33580,0,65700,0,0,0,0,0
i,0x00000000,1716772937.322235,172.16.3.2,5101,172.16.1.2,41386,10498,14480,0,65728,65700,6,6,4,1460,800,1,992,127,33580,0,65700,0,0,0,0,0
o,0x00000000,1716772937.322247,172.16.3.2,5101,172.16.1.2,41386,10498,14480,0,65728,65700,6,6,4,1460,800,1,993,127,33580,0,65700,1448,0,0,0,0
i,0x00000000,1716772937.331090,172.16.3.2,5101,172.16.1.2,41386,10498,14480,0,65728,65700,6,6,4,1460,800,1,992,127,33580,0,65700,0,0,0,0,0
i,0x00000000,1716772937.340540,172.16.3.2,5101,172.16.1.2,41386,10498,14480,0,65728,65700,6,6,4,1460,800,1,992,127,33580,0,65700,0,0,0,0,0
o,0x00000000,1716772937.340549,172.16.3.2,5101,172.16.1.2,41386,10498,14480,0,65728,65700,6,6,4,1460,800,1,993,127,33580,0,65700,1448,0,0,0,0
i,0x00000000,1716772937.352092,172.16.3.2,5101,172.16.1.2,41386,10498,14480,0,65728,65700,6,6,4,1460,800,1,992,127,33580,0,65700,0,0,0,0,0
i,0x00000000,1716772937.370173,172.16.3.2,5101,172.16.1.2,41386,10498,14480,0,65728,65700,6,6,4,1460,800,1,992,127,33580,0,65700,0,0,0,0,0
o,0x00000000,1716772937.370182,172.16.3.2,5101,172.16.1.2,41386,10498,14480,0,65728,65700,6,6,4,1460,800,1,993,127,33580,0,65700,1448,0,0,0,0
i,0x00000000,1716772937.380785,172.16.3.2,5101,172.16.1.2,41386,10498,14480,0,65728,65700,6,6,4,1460,800,1,992,127,33580,0,65700,0,0,0,0,0
i,0x00000000,1716772937.391175,172.16.3.2,5101,172.16.1.2,41386,10498,14480,0,65728,65700,6,6,4,1460,800,1,992,127,33580,0,65700,0,0,0,0,0
o,0x00000000,1716772937.391182,172.16.3.2,5101,172.16.1.2,41386,10498,14480,0,65728,65700,6,6,4,1460,800,1,993,127,33580,0,65700,1448,0,0,0,0
i,0x00000000,1716772937.401717,172.16.3.2,5101,172.16.1.2,41386,10498,14480,0,65728,65700,6,6,4,1460,800,1,992,127,33580,0,65700,0,0,0,0,0
i,0x00000000,1716772937.412309,172.16.3.2,5101,172.16.1.2,41386,10498,14480,0,65728,65700,6,6,4,1460,800,1,992,127,33580,0,65700,0,0,0,0,0
o,0x00000000,1716772937.412315,172.16.3.2,5101,172.16.1.2,41386,10498,14480,0,65728,65700,6,6,4,1460,800,1,993,127,33580,0,65700,1448,0,0,0,0
o,0x00000000,1716772937.420564,10.0.2.15,22,10.0.2.2,60131,1073725440,14600,0,65535,65700,0,0,4,1460,1,0,4,24,33580,108,65700,0,0,0,0,0
i,0x00000000,1716772937.421284,10.0.2.15,22,10.0.2.2,60131,1073725440,14600,0,65535,65700,0,0,4,1460,1,0,4,24,33580,108,65700,0,108,0,0,0
i,0x00000000,1716772937.431519,172.16.3.2,5101,172.16.1.2,41386,10498,14480,0,65728,65700,6,6,4,1460,800,1,992,127,33580,0,65700,0,0,0,0,0
i,0x00000000,1716772937.441982,172.16.3.2,5101,172.16.1.2,41386,10498,14480,0,65728,65700,6,6,4,1460,800,1,992,127,33580,0,65700,0,0,0,0,0
o,0x00000000,1716772937.441989,172.16.3.2,5101,172.16.1.2,41386,10498,14480,0,65728,65700,6,6,4,1460,800,1,993,127,33580,0,65700,1448,0,0,0,0
i,0x00000000,1716772937.451056,172.16.3.2,5101,172.16.1.2,41386,10498,14480,0,65728,65700,6,6,4,1460,800,1,992,127,33580,0,65700,0,0,0,0,0
i,0x00000000,1716772937.461450,172.16.3.2,5101,172.16.1.2,41386,10498,14480,0,65728,65700,6,6,4,1460,800,1,992,127,33580,0,65700,0,0,0,0,0
o,0x00000000,1716772937.461456,172.16.3.2,5101,172.16.1.2,41386,10498,14480,0,65728,65700,6,6,4,1460,800,1,993,127,33580,0,65700,1448,0,0,0,0
i,0x00000000,1716772937.470037,172.16.3.2,5101,172.16.1.2,41386,10498,14480,0,65728,65700,6,6,4,1460,800,1,992,127,33580,0,65700,0,0,0,0,0
i,0x00000000,1716772937.490781,172.16.3.2,5101,172.16.1.2,41386,10498,14480,0,65728,65700,6,6,4,1460,800,1,992,127,33580,0,65700,0,0,0,0,0
o,0x00000000,1716772937.490787,172.16.3.2,5101,172.16.1.2,41386,10498,14480,0,65728,65700,6,6,4,1460,800,1,993,127,33580,0,65700,1448,0,0,0,0
i,0x00000000,1716772937.501367,172.16.3.2,5101,172.16.1.2,41386,10498,14480,0,65728,65700,6,6,4,1460,800,1,992,127,33580,0,65700,0,0,0,0,0
i,0x00000000,1716772937.511983,172.16.3.2,5101,172.16.1.2,41386,10498,14480,0,65728,65700,6,6,4,1460,800,1,992,127,33580,0,65700,0,0,0,0,0
o,0x00000000,1716772937.511990,172.16.3.2,5101,172.16.1.2,41386,10498,14480,0,65728,65700,6,6,4,1460,800,1,993,127,33580,0,65700,1448,0,0,0,0
i,0x00000000,1716772937.520831,172.16.3.2,5101,172.16.1.2,41386,10498,14480,0,65728,65700,6,6,4,1460,800,1,992,127,33580,0,65700,0,0,0,0,0
i,0x00000000,1716772937.530307,172.16.3.2,5101,172.16.1.2,41386,10498,14480,0,65728,65700,6,6,4,1460,800,1,992,127,33580,0,65700,0,0,0,0,0
o,0x00000000,1716772937.530315,172.16.3.2,5101,172.16.1.2,41386,10498,14480,0,65728,65700,6,6,4,1460,800,1,993,127,33580,0,65700,1448,0,0,0,0
i,0x00000000,1716772937.551376,172.16.3.2,5101,172.16.1.2,41386,10498,14480,0,65728,65700,6,6,4,1460,800,1,992,127,33580,0,65700,0,0,0,0,0
i,0x00000000,1716772937.560916,172.16.3.2,5101,172.16.1.2,41386,10498,14480,0,65728,65700,6,6,4,1460,800,1,992,127,33580,0,65700,0,0,0,0,0
o,0x00000000,1716772937.560923,172.16.3.2,5101,172.16.1.2,41386,10498,14480,0,65728,65700,6,6,4,1460,800,1,993,127,33580,0,65700,1448,0,0,0,0
i,0x00000000,1716772937.571536,172.16.3.2,5101,172.16.1.2,41386,10498,14480,0,65728,65700,6,6,4,1460,800,1,992,127,33580,0,65700,0,0,0,0,0
i,0x00000000,1716772937.581057,172.16.3.2,5101,172.16.1.2,41386,10498,14480,0,65728,65700,6,6,4,1460,800,1,992,127,33580,0,65700,0,0,0,0,0
o,0x00000000,1716772937.581063,172.16.3.2,5101,172.16.1.2,41386,10498,14480,0,65728,65700,6,6,4,1460,800,1,993,127,33580,0,65700,1448,0,0,0,0
i,0x00000000,1716772937.591566,172.16.3.2,5101,172.16.1.2,41386,10498,14480,0,65728,65700,6,6,4,1460,800,1,992,127,33580,0,65700,0,0,0,0,0
i,0x00000000,1716772937.610550,172.16.3.2,5101,172.16.1.2,41386,10498,14480,0,65728,65700,6,6,4,1460,800,1,992,127,33580,0,65700,0,0,0,0,0
o,0x00000000,1716772937.610557,172.16.3.2,5101,172.16.1.2,41386,10498,14480,0,65728,65700,6,6,4,1460,800,1,993,127,33580,0,65700,1448,0,0,0,0
i,0x00000000,1716772938.031508,172.16.3.2,5101,172.16.1.2,41386,10498,14480,0,65728,65700,6,6,4,1460,800,1,992,127,33580,0,65700,0,0,0,0,0
i,0x00000000,1716772938.042250,172.16.3.2,5101,172.16.1.2,41386,10498,14480,0,65728,65700,6,6,4,1460,800,1,992,127,33580,0,65700,0,0,0,0,0
o,0x00000000,1716772938.042262,172.16.3.2,5101,172.16.1.2,41386,10498,14480,0,65728,65700,6,6,4,1460,800,1,993,127,33580,0,65700,1448,0,0,0,0
i,0x00000000,1716772938.052632,172.16.3.2,5101,172.16.1.2,41386,10498,14480,0,65728,65700,6,6,4,1460,800,1,992,127,33580,0,65700,0,0,0,0,0
i,0x00000000,1716772938.061597,172.16.3.2,5101,172.16.1.2,41386,10498,14480,0,65728,65700,6,6,4,1460,800,1,992,127,33580,0,65700,0,0,0,0,0
o,0x00000000,1716772938.061603,172.16.3.2,5101,172.16.1.2,41386,10498,14480,0,65728,65700,6,6,4,1460,800,1,993,127,33580,0,65700,1448,0,0,0,0
i,0x00000000,1716772938.071161,172.16.3.2,5101,172.16.1.2,41386,10498,14480,0,65728,65700,6,6,4,1460,800,1,992,127,33580,0,65700,0,0,0,0,0
i,0x00000000,1716772938.091275,172.16.3.2,5101,172.16.1.2,41386,10498,14480,0,65728,65700,6,6,4,1460,800,1,992,127,33580,0,65700,0,0,0,0,0
o,0x00000000,1716772938.091282,172.16.3.2,5101,172.16.1.2,41386,10498,14480,0,65728,65700,6,6,4,1460,800,1,993,127,33580,0,65700,1448,0,0,0,0
i,0x00000000,1716772938.100902,172.16.3.2,5101,172.16.1.2,41386,10498,14480,0,65728,65700,6,6,4,1460,800,1,992,127,33580,0,65700,0,0,0,0,0
i,0x00000000,1716772938.110910,172.16.3.2,5101,172.16.1.2,41386,10498,14480,0,65728,65700,6,6,4,1460,800,1,992,127,33580,0,65700,0,0,0,0,0
o,0x00000000,1716772938.110924,172.16.3.2,5101,172.16.1.2,41386,10498,14480,0,65728,65700,6,6,4,1460,800,1,993,127,33580,0,65700,1448,0,0,0,0
i,0x00000000,1716772938.121821,172.16.3.2,5101,172.16.1.2,41386,10498,14480,0,65728,65700,6,6,4,1460,800,1,992,127,33580,0,65700,0,0,0,0,0
i,0x00000000,1716772938.131834,172.16.3.2,5101,172.16.1.2,41386,10498,14480,0,65728,65700,6,6,4,1460,800,1,992,127,33580,0,65700,0,0,0,0,0
o,0x00000000,1716772938.131845,172.16.3.2,5101,172.16.1.2,41386,10498,14480,0,65728,65700,6,6,4,1460,800,1,993,127,33580,0,65700,1448,0,0,0,0
i,0x00000000,1716772938.151316,172.16.3.2,5101,172.16.1.2,41386,10498,14480,0,65728,65700,6,6,4,1460,800,1,992,127,33580,0,65700,0,0,0,0,0
i,0x00000000,1716772938.161720,172.16.3.2,5101,172.16.1.2,41386,10498,14480,0,65728,65700,6,6,4,1460,800,1,992,127,33580,0,65700,0,0,0,0,0
o,0x00000000,1716772938.161728,172.16.3.2,5101,172.16.1.2,41386,10498,14480,0,65728,65700,6,6,4,1460,800,1,993,127,33580,0,65700,1448,0,0,0,0
i,0x00000000,1716772938.172255,172.16.3.2,5101,172.16.1.2,41386,10498,14480,0,65728,65700,6,6,4,1460,800,1,992,127,33580,0,65700,0,0,0,0,0
i,0x00000000,1716772938.180985,172.16.3.2,5101,172.16.1.2,41386,10498,14480,0,65728,65700,6,6,4,1460,800,1,992,127,33580,0,65700,0,0,0,0,0
o,0x00000000,1716772938.180993,172.16.3.2,5101,172.16.1.2,41386,10498,14480,0,65728,65700,6,6,4,1460,800,1,993,127,33580,0,65700,1448,0,0,0,0
i,0x00000000,1716772938.191358,172.16.3.2,5101,172.16.1.2,41386,10498,14480,0,65728,65700,6,6,4,1460,800,1,992,127,33580,0,65700,0,0,0,0,0
i,0x00000000,1716772938.211473,172.16.3.2,5101,172.16.1.2,41386,10498,14480,0,65728,65700,6,6,4,1460,800,1,992,127,33580,0,65700,0,0,0,0,0
o,0x00000000,1716772938.211480,172.16.3.2,5101,172.16.1.2,41386,10498,14480,0,65728,65700,6,6,4,1460,800,1,993,127,33580,0,65700,1448,0,0,0,0
i,0x00000000,1716772938.221440,172.16.3.2,5101,172.16.1.2,41386,10498,14480,0,65728,65700,6,6,4,1460,800,1,992,127,33580,0,65700,0,0,0,0,0
i,0x00000000,1716772938.232129,172.16.3.2,5101,172.16.1.2,41386,10498,14480,0,65728,65700,6,6,4,1460,800,1,992,127,33580,0,65700,0,0,0,0,0
o,0x00000000,1716772938.232135,172.16.3.2,5101,172.16.1.2,41386,10498,14480,0,65728,65700,6,6,4,1460,800,1,993,127,33580,0,65700,1448,0,0,0,0
i,0x00000000,1716772938.241984,172.16.3.2,5101,172.16.1.2,41386,10498,14480,0,65728,65700,6,6,4,1460,800,1,992,127,33580,0,65700,0,0,0,0,0
i,0x00000000,1716772938.252664,172.16.3.2,5101,172.16.1.2,41386,10498,14480,0,65728,65700,6,6,4,1460,800,1,992,127,33580,0,65700,0,0,0,0,0
o,0x00000000,1716772938.252673,172.16.3.2,5101,172.16.1.2,41386,10498,14480,0,65728,65700,6,6,4,1460,800,1,993,127,33580,0,65700,1448,0,0,0,0
i,0x00000000,1716772938.271952,172.16.3.2,5101,172.16.1.2,41386,10498,14480,0,65728,65700,6,6,4,1460,800,1,992,127,33580,0,65700,0,0,0,0,0
i,0x00000000,1716772938.281533,172.16.3.2,5101,172.16.1.2,41386,10498,14480,0,65728,65700,6,6,4,1460,800,1,992,127,33580,0,65700,0,0,0,0,0
o,0x00000000,1716772938.281541,172.16.3.2,5101,172.16.1.2,41386,10498,14480,0,65728,65700,6,6,4,1460,800,1,993,127,33580,0,65700,1448,0,0,0,0
i,0x00000000,1716772938.292128,172.16.3.2,5101,172.16.1.2,41386,10498,14480,0,65728,65700,6,6,4,1460,800,1,992,127,33580,0,65700,0,0,0,0,0
i,0x00000000,1716772938.301628,172.16.3.2,5101,172.16.1.2,41386,10498,14480,0,65728,65700,6,6,4,1460,800,1,992,127,33580,0,65700,0,0,0,0,0
o,0x00000000,1716772938.301637,172.16.3.2,5101,172.16.1.2,41386,10498,14480,0,65728,65700,6,6,4,1460,800,1,993,127,33580,0,65700,1448,0,0,0,0
i,0x00000000,1716772938.312242,172.16.3.2,5101,172.16.1.2,41386,10498,14480,0,65728,65700,6,6,4,1460,800,1,992,127,33580,0,65700,0,0,0,0,0
i,0x00000000,1716772938.331850,172.16.3.2,5101,172.16.1.2,41386,10498,14480,0,65728,65700,6,6,4,1460,800,1,992,127,33580,0,65700,0,0,0,0,0
o,0x00000000,1716772938.331863,172.16.3.2,5101,172.16.1.2,41386,10498,14480,0,65728,65700,6,6,4,1460,800,1,993,127,33580,0,65700,1448,0,0,0,0
i,0x00000000,1716772938.341718,172.16.3.2,5101,172.16.1.2,41386,10498,14480,0,65728,65700,6,6,4,1460,800,1,992,127,33580,0,65700,0,0,0,0,0
i,0x00000000,1716772938.352321,172.16.3.2,5101,172.16.1.2,41386,10498,14480,0,65728,65700,6,6,4,1460,800,1,992,127,33580,0,65700,0,0,0,0,0
o,0x00000000,1716772938.352329,172.16.3.2,5101,172.16.1.2,41386,10498,14480,0,65728,65700,6,6,4,1460,800,1,993,127,33580,0,65700,1448,0,0,0,0
i,0x00000000,1716772938.362687,172.16.3.2,5101,172.16.1.2,41386,10498,14480,0,65728,65700,6,6,4,1460,800,1,992,127,33580,0,65700,0,0,0,0,0
o,0x00000000,1716772938.399767,172.16.3.2,5101,172.16.1.2,41386,10498,14480,0,65728,65700,6,6,4,1460,800,1,993,127,33580,0,65700,0,0,0,0,0
o,0x00000000,1716772938.419276,10.0.2.15,22,10.0.2.2,60131,1073725440,14600,0,65535,65700,0,0,4,1460,1,0,4,24,33580,108,65700,0,0,0,0,0
i,0x00000000,1716772938.420052,10.0.2.15,22,10.0.2.2,60131,1073725440,14600,0,65535,65700,0,0,4,1460,1,0,4,24,33580,108,65700,0,108,0,0,0
i,0x00000000,1716772938.782612,172.16.3.2,5101,172.16.1.2,41386,10498,14480,0,65728,65700,6,6,4,1460,800,1,992,127,33580,0,65700,0,0,0,0,0
i,0x00000000,1716772938.792032,172.16.3.2,5101,172.16.1.2,41386,10498,14480,0,65728,65700,6,6,4,1460,800,1,992,127,33580,0,65700,0,0,0,0,0
o,0x00000000,1716772938.792045,172.16.3.2,5101,172.16.1.2,41386,10498,14480,0,65728,65700,6,6,4,1460,800,1,993,127,33580,0,65700,1448,0,0,0,0
i,0x00000000,1716772938.802338,172.16.3.2,5101,172.16.1.2,41386,10498,14480,0,65728,65700,6,6,4,1460,800,1,992,127,33580,0,65700,0,0,0,0,0
i,0x00000000,1716772938.812817,172.16.3.2,5101,172.16.1.2,41386,10498,14480,0,65728,65700,6,6,4,1460,800,1,992,127,33580,0,65700,0,0,0,0,0
o,0x00000000,1716772938.812825,172.16.3.2,5101,172.16.1.2,41386,10498,14480,0,65728,65700,6,6,4,1460,800,1,993,127,33580,0,65700,1448,0,0,0,0
i,0x00000000,1716772938.823050,172.16.3.2,5101,172.16.1.2,41386,10498,14480,0,65728,65700,6,6,4,1460,800,1,992,127,33580,0,65700,0,0,0,0,0
i,0x00000000,1716772938.841332,172.16.3.2,5101,172.16.1.2,41386,10498,14480,0,65728,65700,6,6,4,1460,800,1,992,127,33580,0,65700,0,0,0,0,0
o,0x00000000,1716772938.841339,172.16.3.2,5101,172.16.1.2,41386,10498,14480,0,65728,65700,6,6,4,1460,800,1,993,127,33580,0,65700,1448,0,0,0,0
i,0x00000000,1716772938.851895,172.16.3.2,5101,172.16.1.2,41386,10498,14480,0,65728,65700,6,6,4,1460,800,1,992,127,33580,0,65700,0,0,0,0,0
i,0x00000000,1716772938.862175,172.16.3.2,5101,172.16.1.2,41386,10498,14480,0,65728,65700,6,6,4,1460,800,1,992,127,33580,0,65700,0,0,0,0,0
o,0x00000000,1716772938.862184,172.16.3.2,5101,172.16.1.2,41386,10498,14480,0,65728,65700,6,6,4,1460,800,1,993,127,33580,0,65700,1448,0,0,0,0
i,0x00000000,1716772938.872837,172.16.3.2,5101,172.16.1.2,41386,10498,14480,0,65728,65700,6,6,4,1460,800,1,992,127,33580,0,65700,0,0,0,0,0
i,0x00000000,1716772938.882072,172.16.3.2,5101,172.16.1.2,41386,10498,14480,0,65728,65700,6,6,4,1460,800,1,992,127,33580,0,65700,0,0,0,0,0
o,0x00000000,1716772938.882079,172.16.3.2,5101,172.16.1.2,41386,10498,14480,0,65728,65700,6,6,4,1460,800,1,993,127,33580,0,65700,1448,0,0,0,0
i,0x00000000,1716772938.902173,172.16.3.2,5101,172.16.1.2,41386,10498,14480,0,65728,65700,6,6,4,1460,800,1,992,127,33580,0,65700,0,0,0,0,0
i,0x00000000,1716772938.912117,172.16.3.2,5101,172.16.1.2,41386,10498,14480,0,65728,65700,6,6,4,1460,800,1,992,127,33580,0,65700,0,0,0,0,0
o,0x00000000,1716772938.912123,172.16.3.2,5101,172.16.1.2,41386,10498,14480,0,65728,65700,6,6,4,1460,800,1,993,127,33580,0,65700,1448,0,0,0,0
i,0x00000000,1716772938.922080,172.16.3.2,5101,172.16.1.2,41386,10498,14480,0,65728,65700,6,6,4,1460,800,1,992,127,33580,0,65700,0,0,0,0,0
i,0x00000000,1716772938.932441,172.16.3.2,5101,172.16.1.2,41386,10498,14480,0,65728,65700,6,6,4,1460,800,1,992,127,33580,0,65700,0,0,0,0,0
o,0x00000000,1716772938.932448,172.16.3.2,5101,172.16.1.2,41386,10498,14480,0,65728,65700,6,6,4,1460,800,1,993,127,33580,0,65700,1448,0,0,0,0
i,0x00000000,1716772938.942051,172.16.3.2,5101,172.16.1.2,41386,10498,14480,0,65728,65700,6,6,4,1460,800,1,992,127,33580,0,65700,0,0,0,0,0
i,0x00000000,1716772938.962796,172.16.3.2,5101,172.16.1.2,41386,10498,14480,0,65728,65700,6,6,4,1460,800,1,992,127,33580,0,65700,0,0,0,0,0
o,0x00000000,1716772938.962802,172.16.3.2,5101,172.16.1.2,41386,10498,14480,0,65728,65700,6,6,4,1460,800,1,993,127,33580,0,65700,1448,0,0,0,0
i,0x00000000,1716772938.972309,172.16.3.2,5101,172.16.1.2,41386,10498,14480,0,65728,65700,6,6,4,1460,800,1,992,127,33580,0,65700,0,0,0,0,0
i,0x00000000,1716772938.982863,172.16.3.2,5101,172.16.1.2,41386,10498,14480,0,65728,65700,6,6,4,1460,800,1,992,127,33580,0,65700,0,0,0,0,0
o,0x00000000,1716772938.982870,172.16.3.2,5101,172.16.1.2,41386,10498,14480,0,65728,65700,6,6,4,1460,800,1,993,127,33580,0,65700,1448,0,0,0,0
i,0x00000000,1716772938.992221,172.16.3.2,5101,172.16.1.2,41386,10498,14480,0,65728,65700,6,6,4,1460,800,1,992,127,33580,0,65700,0,0,0,0,0
i,0x00000000,1716772939.002910,172.16.3.2,5101,172.16.1.2,41386,10498,14480,0,65728,65700,6,6,4,1460,800,1,992,127,33580,0,65700,0,0,0,0,0
o,0x00000000,1716772939.002917,172.16.3.2,5101,172.16.1.2,41386,10498,14480,0,65728,65700,6,6,4,1460,800,1,993,127,33580,0,65700,1448,0,0,0,0
i,0x00000000,1716772939.022936,172.16.3.2,5101,172.16.1.2,41386,10498,14480,0,65728,65700,6,6,4,1460,800,1,992,127,33580,0,65700,0,0,0,0,0
i,0x00000000,1716772939.032296,172.16.3.2,5101,172.16.1.2,41386,10498,14480,0,65728,65700,6,6,4,1460,800,1,992,127,33580,0,65700,0,0,0,0,0
o,0x00000000,1716772939.032303,172.16.3.2,5101,172.16.1.2,41386,10498,14480,0,65728,65700,6,6,4,1460,800,1,993,127,33580,0,65700,1448,0,0,0,0
i,0x00000000,1716772939.042890,172.16.3.2,5101,172.16.1.2,41386,10498,14480,0,65728,65700,6,6,4,1460,800,1,992,127,33580,0,65700,0,0,0,0,0
i,0x00000000,1716772939.053121,172.16.3.2,5101,172.16.1.2,41386,10498,14480,0,65728,65700,6,6,4,1460,800,1,992,127,33580,0,65700,0,0,0,0,0
o,0x00000000,1716772939.053127,172.16.3.2,5101,172.16.1.2,41386,10498,14480,0,65728,65700,6,6,4,1460,800,1,993,127,33580,0,65700,1448,0,0,0,0
i,0x00000000,1716772939.062071,172.16.3.2,5101,172.16.1.2,41386,10498,14480,0,65728,65700,6,6,4,1460,800,1,992,127,33580,0,65700,0,0,0,0,0
i,0x00000000,1716772939.083025,172.16.3.2,5101,172.16.1.2,41386,10498,14480,0,65728,65700,6,6,4,1460,800,1,992,127,33580,0,65700,0,0,0,0,0
o,0x00000000,1716772939.083031,172.16.3.2,5101,172.16.1.2,41386,10498,14480,0,65728,65700,6,6,4,1460,800,1,993,127,33580,0,65700,1448,0,0,0,0
i,0x00000000,1716772939.091539,172.16.3.2,5101,172.16.1.2,41386,10498,14480,0,65728,65700,6,6,4,1460,800,1,992,127,33580,0,65700,0,0,0,0,0
i,0x00000000,1716772939.101860,172.16.3.2,5101,172.16.1.2,41386,10498,14480,0,65728,65700,6,6,4,1460,800,1,992,127,33580,0,65700,0,0,0,0,0
o,0x00000000,1716772939.101866,172.16.3.2,5101,172.16.1.2,41386,10498,14480,0,65728,65700,6,6,4,1460,800,1,993,127,33580,0,65700,1448,0,0,0,0
i,0x00000000,1716772939.113497,172.16.3.2,5101,172.16.1.2,41386,10498,14480,0,65728,65700,6,6,4,1460,800,1,992,127,33580,0,65700,0,0,0,0,0
o,0x00000000,1716772939.148839,172.16.3.2,5101,172.16.1.2,41386,10498,14480,0,65728,65700,6,6,4,1460,800,1,993,127,33580,0,65700,0,0,0,0,0
i,0x00000000,1716772939.352263,172.16.3.2,5101,172.16.1.2,41386,10498,14480,0,65728,65700,6,6,4,1460,800,1,992,127,33580,0,65700,0,0,0,0,0
o,0x00000000,1716772939.389607,172.16.3.2,5101,172.16.1.2,41386,10498,14480,0,65728,65700,6,6,4,1460,800,1,993,127,33580,0,65700,0,0,0,0,0
o,0x00000000,1716772939.420114,10.0.2.15,22,10.0.2.2,60131,1073725440,14600,0,65535,65700,0,0,4,1460,1,0,4,24,33580,108,65700,0,0,0,0,0
i,0x00000000,1716772939.420747,10.0.2.15,22,10.0.2.2,60131,1073725440,14600,0,65535,65700,0,0,4,1460,1,0,4,24,33580,108,65700,0,108,0,0,0
i,0x00000000,1716772939.542559,172.16.3.2,5101,172.16.1.2,41386,10498,14480,0,65728,65700,6,6,4,1460,800,1,992,127,33580,0,65700,0,0,0,0,0
i,0x00000000,1716772939.553957,172.16.3.2,5101,172.16.1.2,41386,10498,14480,0,65728,65700,6,6,4,1460,800,1,992,127,33580,0,65700,0,0,0,0,0
o,0x00000000,1716772939.553971,172.16.3.2,5101,172.16.1.2,41386,10498,14480,0,65728,65700,6,6,4,1460,800,1,993,127,33580,0,65700,1448,0,0,0,0
i,0x00000000,1716772939.563389,172.16.3.2,5101,172.16.1.2,41386,10498,14480,0,65728,65700,6,6,4,1460,800,1,992,127,33580,0,65700,0,0,0,0,0
i,0x00000000,1716772939.572861,172.16.3.2,5101,172.16.1.2,41386,10498,14480,0,65728,65700,6,6,4,1460,800,1,992,127,33580,0,65700,0,0,0,0,0
o,0x00000000,1716772939.572867,172.16.3.2,5101,172.16.1.2,41386,10498,14480,0,65728,65700,6,6,4,1460,800,1,993,127,33580,0,65700,1448,0,0,0,0
i,0x00000000,1716772939.592199,172.16.3.2,5101,172.16.1.2,41386,10498,14480,0,65728,65700,6,6,4,1460,800,1,992,127,33580,0,65700,0,0,0,0,0
i,0x00000000,1716772939.602330,172.16.3.2,5101,172.16.1.2,41386,10498,14480,0,65728,65700,6,6,4,1460,800,1,992,127,33580,0,65700,0,0,0,0,0
o,0x00000000,1716772939.602337,172.16.3.2,5101,172.16.1.2,41386,10498,14480,0,65728,65700,6,6,4,1460,800,1,993,127,33580,0,65700,1448,0,0,0,0
i,0x00000000,1716772939.612660,172.16.3.2,5101,172.16.1.2,41386,10498,14480,0,65728,65700,6,6,4,1460,800,1,992,127,33580,0,65700,0,0,0,0,0
i,0x00000000,1716772939.623248,172.16.3.2,5101,172.16.1.2,41386,10498,14480,0,65728,65700,6,6,4,1460,800,1,992,127,33580,0,65700,0,0,0,0,0
o,0x00000000,1716772939.623254,172.16.3.2,5101,172.16.1.2,41386,10498,14480,0,65728,65700,6,6,4,1460,800,1,993,127,33580,0,65700,1448,0,0,0,0
i,0x00000000,1716772939.633608,172.16.3.2,5101,172.16.1.2,41386,10498,14480,0,65728,65700,6,6,4,1460,800,1,992,127,33580,0,65700,0,0,0,0,0
i,0x00000000,1716772939.653480,172.16.3.2,5101,172.16.1.2,41386,10498,14480,0,65728,65700,6,6,4,1460,800,1,992,127,33580,0,65700,0,0,0,0,0
o,0x00000000,1716772939.653486,172.16.3.2,5101,172.16.1.2,41386,10498,14480,0,65728,65700,6,6,4,1460,800,1,993,127,33580,0,65700,1448,0,0,0,0
i,0x00000000,1716772939.663068,172.16.3.2,5101,172.16.1.2,41386,10498,14480,0,65728,65700,6,6,4,1460,800,1,992,127,33580,0,65700,0,0,0,0,0
i,0x00000000,1716772939.673304,172.16.3.2,5101,172.16.1.2,41386,10498,14480,0,65728,65700,6,6,4,1460,800,1,992,127,33580,0,65700,0,0,0,0,0
o,0x00000000,1716772939.673310,172.16.3.2,5101,172.16.1.2,41386,10498,14480,0,65728,65700,6,6,4,1460,800,1,993,127,33580,0,65700,1448,0,0,0,0
i,0x00000000,1716772939.682765,172.16.3.2,5101,172.16.1.2,41386,10498,14480,0,65728,65700,6,6,4,1460,800,1,992,127,33580,0,65700,0,0,0,0,0
i,0x00000000,1716772939.693304,172.16.3.2,5101,172.16.1.2,41386,10498,14480,0,65728,65700,6,6,4,1460,800,1,992,127,33580,0,65700,0,0,0,0,0
o,0x00000000,1716772939.693309,172.16.3.2,5101,172.16.1.2,41386,10498,14480,0,65728,65700,6,6,4,1460,800,1,993,127,33580,0,65700,1448,0,0,0,0
i,0x00000000,1716772939.713347,172.16.3.2,5101,172.16.1.2,41386,10498,14480,0,65728,65700,6,6,4,1460,800,1,992,127,33580,0,65700,0,0,0,0,0
i,0x00000000,1716772939.722587,172.16.3.2,5101,172.16.1.2,41386,10498,14480,0,65728,65700,6,6,4,1460,800,1,992,127,33580,0,65700,0,0,0,0,0
o,0x00000000,1716772939.722604,172.16.3.2,5101,172.16.1.2,41386,10498,14480,0,65728,65700,6,6,4,1460,800,1,993,127,33580,0,65700,1448,0,0,0,0
i,0x00000000,1716772939.733061,172.16.3.2,5101,172.16.1.2,41386,10498,14480,0,65728,65700,6,6,4,1460,800,1,992,127,33580,0,65700,0,0,0,0,0
i,0x00000000,1716772939.743816,172.16.3.2,5101,172.16.1.2,41386,10498,14480,0,65728,65700,6,6,4,1460,800,1,992,127,33580,0,65700,0,0,0,0,0
o,0x00000000,1716772939.743836,172.16.3.2,5101,172.16.1.2,41386,10498,14480,0,65728,65700,6,6,4,1460,800,1,993,127,33580,0,65700,1448,0,0,0,0
i,0x00000000,1716772939.754063,172.16.3.2,5101,172.16.1.2,41386,10498,14480,0,65728,65700,6,6,4,1460,800,1,992,127,33580,0,65700,0,0,0,0,0
i,0x00000000,1716772939.773166,172.16.3.2,5101,172.16.1.2,41386,10498,14480,0,65728,65700,6,6,4,1460,800,1,992,127,33580,0,65700,0,0,0,0,0
o,0x00000000,1716772939.773184,172.16.3.2,5101,172.16.1.2,41386,10498,14480,0,65728,65700,6,6,4,1460,800,1,993,127,33580,0,65700,1448,0,0,0,0
i,0x00000000,1716772939.782483,172.16.3.2,5101,172.16.1.2,41386,10498,14480,0,65728,65700,6,6,4,1460,800,1,992,127,33580,0,65700,0,0,0,0,0
i,0x00000000,1716772939.792270,172.16.3.2,5101,172.16.1.2,41386,10498,14480,0,65728,65700,6,6,4,1460,800,1,992,127,33580,0,65700,0,0,0,0,0
o,0x00000000,1716772939.792282,172.16.3.2,5101,172.16.1.2,41386,10498,14480,0,65728,65700,6,6,4,1460,800,1,993,127,33580,0,65700,1448,0,0,0,0
i,0x00000000,1716772939.804114,172.16.3.2,5101,172.16.1.2,41386,10498,14480,0,65728,65700,6,6,4,1460,800,1,992,127,33580,0,65700,0,0,0,0,0
i,0x00000000,1716772939.812690,172.16.3.2,5101,172.16.1.2,41386,10498,14480,0,65728,65700,6,6,4,1460,800,1,992,127,33580,0,65700,0,0,0,0,0
o,0x00000000,1716772939.812697,172.16.3.2,5101,172.16.1.2,41386,10498,14480,0,65728,65700,6,6,4,1460,800,1,993,127,33580,0,65700,1448,0,0,0,0
i,0x00000000,1716772939.832763,172.16.3.2,5101,172.16.1.2,41386,10498,14480,0,65728,65700,6,6,4,1460,800,1,992,127,33580,0,65700,0,0,0,0,0
i,0x00000000,1716772939.843112,172.16.3.2,5101,172.16.1.2,41386,10498,14480,0,65728,65700,6,6,4,1460,800,1,992,127,33580,0,65700,0,0,0,0,0
o,0x00000000,1716772939.843117,172.16.3.2,5101,172.16.1.2,41386,10498,14480,0,65728,65700,6,6,4,1460,800,1,993,127,33580,0,65700,1448,0,0,0,0
i,0x00000000,1716772939.853152,172.16.3.2,5101,172.16.1.2,41386,10498,14480,0,65728,65700,6,6,4,1460,800,1,992,127,33580,0,65700,0,0,0,0,0
i,0x00000000,1716772939.862966,172.16.3.2,5101,172.16.1.2,41386,10498,14480,0,65728,65700,6,6,4,1460,800,1,992,127,33580,0,65700,0,0,0,0,0
o,0x00000000,1716772939.862972,172.16.3.2,5101,172.16.1.2,41386,10498,14480,0,65728,65700,6,6,4,1460,800,1,993,127,33580,0,65700,1448,0,0,0,0
i,0x00000000,1716772939.873560,172.16.3.2,5101,172.16.1.2,41386,10498,14480,0,65728,65700,6,6,4,1460,800,1,992,127,33580,0,65700,0,0,0,0,0
o,0x00000000,1716772939.909873,172.16.3.2,5101,172.16.1.2,41386,10498,14480,0,65728,65700,6,6,4,1460,800,1,993,127,33580,0,65700,0,0,0,0,0
i,0x00000000,1716772939.922595,172.16.3.2,5101,172.16.1.2,41386,10498,14480,0,65728,65700,6,6,4,1460,800,1,992,127,33580,0,65700,0,0,0,0,0
o,0x00000000,1716772939.959369,172.16.3.2,5101,172.16.1.2,41386,10498,14480,0,65728,65700,6,6,4,1460,800,1,993,127,33580,0,65700,0,0,0,0,0
i,0x00000000,1716772940.292502,172.16.3.2,5101,172.16.1.2,41386,10498,14480,0,65728,65700,6,6,4,1460,800,1,992,127,33580,0,65700,0,0,0,0,0
i,0x00000000,1716772940.313545,172.16.3.2,5101,172.16.1.2,41386,10498,14480,0,65728,65700,6,6,4,1460,800,1,992,127,33580,0,65700,0,0,0,0,0
o,0x00000000,1716772940.313558,172.16.3.2,5101,172.16.1.2,41386,10498,14480,0,65728,65700,6,6,4,1460,800,1,993,127,33580,0,65700,1448,0,0,0,0
i,0x00000000,1716772940.323017,172.16.3.2,5101,172.16.1.2,41386,10498,14480,0,65728,65700,6,6,4,1460,800,1,992,127,33580,0,65700,0,0,0,0,0
i,0x00000000,1716772940.333054,172.16.3.2,5101,172.16.1.2,41386,10498,14480,0,65728,65700,6,6,4,1460,800,1,992,127,33580,0,65700,0,0,0,0,0
o,0x00000000,1716772940.333067,172.16.3.2,5101,172.16.1.2,41386,10498,14480,0,65728,65700,6,6,4,1460,800,1,993,127,33580,0,65700,1448,0,0,0,0
i,0x00000000,1716772940.343420,172.16.3.2,5101,172.16.1.2,41386,10498,14480,0,65728,65700,6,6,4,1460,800,1,992,127,33580,0,65700,0,0,0,0,0
i,0x00000000,1716772940.363785,172.16.3.2,5101,172.16.1.2,41386,10498,14480,0,65728,65700,6,6,4,1460,800,1,992,127,33580,0,65700,0,0,0,0,0
o,0x00000000,1716772940.363792,172.16.3.2,5101,172.16.1.2,41386,10498,14480,0,65728,65700,6,6,4,1460,800,1,993,127,33580,0,65700,1448,0,0,0,0
i,0x00000000,1716772940.373242,172.16.3.2,5101,172.16.1.2,41386,10498,14480,0,65728,65700,6,6,4,1460,800,1,992,127,33580,0,65700,0,0,0,0,0
i,0x00000000,1716772940.383774,172.16.3.2,5101,172.16.1.2,41386,10498,14480,0,65728,65700,6,6,4,1460,800,1,992,127,33580,0,65700,0,0,0,0,0
