enable_time_secs=1716773220	enable_time_usecs=771147	siftrver=1.2.4	hz=100	tcp_rtt_scale=32	sysname=FreeBSD	sysver=1301000	ipmode=4
o,0x00000000,1716773220.771245,10.0.2.15,22,10.0.2.2,54578,1073725440,17298,0,65535,65700,0,0,4,1460,1,0,4,24,33580,44,65700,0,0,0,0,0
o,0x00000000,1716773220.771356,10.0.2.15,22,10.0.2.2,54578,1073725440,17298,0,65535,65700,0,0,4,1460,1,0,4,24,33580,80,65700,0,44,0,0,0
i,0x00000000,1716773220.772027,10.0.2.15,22,10.0.2.2,54578,1073725440,17298,0,65535,65700,0,0,4,1460,1,0,4,24,33580,80,65700,0,80,0,0,0
i,0x00000000,1716773220.772031,10.0.2.15,22,10.0.2.2,54578,1073725440,17342,0,65535,65700,0,0,4,1460,1,0,4,24,33580,36,65700,0,36,0,0,0
o,0x00000000,1716773220.772133,10.0.2.15,22,10.0.2.2,54578,1073725440,17378,0,65535,65700,0,0,4,1460,1,0,4,24,33580,36,65700,0,0,0,0,0
i,0x00000000,1716773220.772537,10.0.2.15,22,10.0.2.2,54578,1073725440,17378,0,65535,65700,0,0,4,1460,1,0,4,24,33580,36,65700,0,36,0,0,0
o,0x00000000,1716773220.772718,10.0.2.15,22,10.0.2.2,54578,1073725440,17414,0,65535,65700,0,0,4,1460,1,0,4,24,33580,176,65700,0,0,0,0,0
i,0x00000000,1716773220.773142,10.0.2.15,22,10.0.2.2,54578,1073725440,17414,0,65535,65700,0,0,4,1460,1,0,4,24,33580,176,65700,0,176,0,0,0
i,0x00000000,1716773220.773733,10.0.2.15,22,10.0.2.2,54578,1073725440,17590,0,65535,65700,0,0,4,1460,1,0,4,24,33580,0,65700,0,0,0,0,0
i,0x00000000,1716773220.773737,10.0.2.15,22,10.0.2.2,54578,1073725440,17590,0,65535,65700,0,0,4,1460,1,0,4,24,33580,0,65700,36,0,0,0,0
o,0x00000000,1716773220.773739,10.0.2.15,22,10.0.2.2,54578,1073725440,17590,0,65535,65700,0,0,4,1460,1,0,5,24,33580,0,65700,96,0,0,0,0
i,0x00000000,1716773220.773818,10.0.2.15,22,10.0.2.2,54578,1073725440,17590,0,65535,65700,0,0,4,1460,1,0,4,24,33580,0,65700,96,0,0,0,0
o,0x00000000,1716773220.773821,10.0.2.15,22,10.0.2.2,54578,1073725440,17590,0,65535,65604,0,0,5,1460,1,0,7,24,33580,0,65700,96,0,0,0,0
o,0x00000000,1716773220.774458,10.0.2.15,22,10.0.2.2,54578,1073725440,17590,0,65535,65604,0,0,8,1460,1,0,4,24,33580,0,65700,0,0,0,0,0
i,0x00000000,1716773220.776495,10.0.2.15,22,10.0.2.2,54578,1073725440,17590,0,65535,65604,0,0,8,1460,1,0,20,24,33580,0,65700,0,1,0,0,0
i,0x00000000,1716773222.102525,172.16.3.2,5101,172.16.1.2,50955,10124,14480,0,65728,65700,6,6,4,1460,785,1,992,122,33580,0,65700,0,0,0,0,0
o,0x00000000,1716773222.102650,172.16.3.2,5101,172.16.1.2,50955,10124,14480,0,65728,65700,6,6,4,1460,785,1,996,122,33580,1,65700,0,0,0,0,0
i,0x00000000,1716773222.223484,172.16.3.2,5101,172.16.1.2,50955,10124,14480,0,65728,65700,6,6,4,1460,785,1,996,122,33580,1,65700,0,1,0,0,0
i,0x00000000,1716773222.223498,172.16.3.2,5101,172.16.1.2,50955,10124,14480,0,65728,65728,6,6,4,1460,735,1,996,113,33580,0,65700,4,0,0,0,0
o,0x00000000,1716773222.223506,172.16.3.2,5101,172.16.1.2,50955,10124,14480,0,65728,65728,6,6,4,1460,735,1,997,113,33580,0,65700,128,0,0,0,0
o,0x00000000,1716773222.223916,172.16.3.2,5101,172.16.1.2,50955,10124,14480,0,65728,65728,6,6,4,1460,735,1,996,113,33580,1,65700,0,0,0,0,0
o,0x00000000,1716773222.224095,10.0.2.15,22,10.0.2.2,60131,1073725440,14600,0,65535,65700,0,0,4,1460,1,0,4,24,33580,84,65700,0,0,0,0,0
i,0x00000000,1716773222.224822,10.0.2.15,22,10.0.2.2,60131,1073725440,14600,0,65535,65700,0,0,4,1460,1,0,4,24,33580,84,65700,0,84,0,0,0
i,0x00000000,1716773222.372466,172.16.3.2,5101,172.16.1.2,50955,10124,14480,0,65728,65728,6,6,4,1460,735,1,996,113,33580,1,65700,0,1,0,0,0
i,0x00000000,1716773222.462820,172.16.3.2,5101,172.16.1.2,58639,10124,14480,0,65728,65700,6,6,4,1460,785,1,992,122,33580,0,65700,0,0,0,0,0
o,0x00000000,1716773222.465047,172.16.3.2,5101,172.16.1.2,50955,10124,14480,0,65728,65728,6,6,4,1460,704,1,996,103,33580,1,65700,0,0,0,0,0
o,0x00000000,1716773222.465145,172.16.3.2,5101,172.16.1.2,50955,10124,14480,0,65728,65728,6,6,4,1460,704,1,996,103,33580,2,65700,0,1,0,0,0
o,0x00000000,1716773222.465560,10.0.2.15,22,10.0.2.2,60131,1073725440,14600,0,65535,65700,0,0,4,1460,1,0,4,24,33580,108,65700,0,0,0,0,0
i,0x00000000,1716773222.466155,10.0.2.15,22,10.0.2.2,60131,1073725440,14600,0,65535,65700,0,0,4,1460,1,0,4,24,33580,108,65700,0,108,0,0,0
o,0x00000000,1716773222.499994,172.16.3.2,5101,172.16.1.2,58639,10124,14480,0,65728,65700,6,6,4,1460,785,1,993,122,33580,0,65700,0,0,0,0,0
i,0x00000000,1716773222.652040,172.16.3.2,5101,172.16.1.2,50955,10124,14480,0,65728,65728,6,6,4,1460,704,1,996,103,33580,2,65700,0,2,0,0,0
i,0x00000000,1716773222.682209,172.16.3.2,5101,172.16.1.2,58639,10124,14480,0,65728,65700,6,6,4,1460,785,1,992,122,33580,0,65700,0,0,0,0,0
i,0x00000000,1716773222.692581,172.16.3.2,5101,172.16.1.2,58639,10124,14480,0,65728,65700,6,6,4,1460,785,1,992,122,33580,0,65700,0,0,0,0,0
o,0x00000000,1716773222.692594,172.16.3.2,5101,172.16.1.2,58639,10124,14480,0,65728,65700,6,6,4,1460,785,1,993,122,33580,0,65700,1448,0,0,0,0
i,0x00000000,1716773222.702983,172.16.3.2,5101,172.16.1.2,58639,10124,14480,0,65728,65700,6,6,4,1460,785,1,992,122,33580,0,65700,0,0,0,0,0
i,0x00000000,1716773222.713360,172.16.3.2,5101,172.16.1.2,58639,10124,14480,0,65728,65700,6,6,4,1460,785,1,992,122,33580,0,65700,0,0,0,0,0
o,0x00000000,1716773222.713367,172.16.3.2,5101,172.16.1.2,58639,10124,14480,0,65728,65700,6,6,4,1460,785,1,993,122,33580,0,65700,1448,0,0,0,0
i,0x00000000,1716773222.733180,172.16.3.2,5101,172.16.1.2,58639,10124,14480,0,65728,65700,6,6,4,1460,785,1,992,122,33580,0,65700,0,0,0,0,0
i,0x00000000,1716773222.742618,172.16.3.2,5101,172.16.1.2,58639,10124,14480,0,65728,65700,6,6,4,1460,785,1,992,122,33580,0,65700,0,0,0,0,0
o,0x00000000,1716773222.742626,172.16.3.2,5101,172.16.1.2,58639,10124,14480,0,65728,65700,6,6,4,1460,785,1,993,122,33580,0,65700,1448,0,0,0,0
i,0x00000000,1716773222.753005,172.16.3.2,5101,172.16.1.2,58639,10124,14480,0,65728,65700,6,6,4,1460,785,1,992,122,33580,0,65700,0,0,0,0,0
i,0x00000000,1716773222.763391,172.16.3.2,5101,172.16.1.2,58639,10124,14480,0,65728,65700,6,6,4,1460,785,1,992,122,33580,0,65700,0,0,0,0,0
o,0x00000000,1716773222.763397,172.16.3.2,5101,172.16.1.2,58639,10124,14480,0,65728,65700,6,6,4,1460,785,1,993,122,33580,0,65700,1448,0,0,0,0
i,0x00000000,1716773222.772764,172.16.3.2,5101,172.16.1.2,58639,10124,14480,0,65728,65700,6,6,4,1460,785,1,992,122,33580,0,65700,0,0,0,0,0
i,0x00000000,1716773222.792664,172.16.3.2,5101,172.16.1.2,58639,10124,14480,0,65728,65700,6,6,4,1460,785,1,992,122,33580,0,65700,0,0,0,0,0
o,0x00000000,1716773222.792671,172.16.3.2,5101,172.16.1.2,58639,10124,14480,0,65728,65700,6,6,4,1460,785,1,993,122,33580,0,65700,1448,0,0,0,0
i,0x00000000,1716773223.103955,172.16.3.2,5101,172.16.1.2,58639,10124,14480,0,65728,65700,6,6,4,1460,785,1,992,122,33580,0,65700,0,0,0,0,0
i,0x00000000,1716773223.113183,172.16.3.2,5101,172.16.1.2,58639,10124,14480,0,65728,65700,6,6,4,1460,785,1,992,122,33580,0,65700,0,0,0,0,0
o,0x00000000,1716773223.113193,172.16.3.2,5101,172.16.1.2,58639,10124,14480,0,65728,65700,6,6,4,1460,785,1,993,122,33580,0,65700,1448,0,0,0,0
i,0x00000000,1716773223.123623,172.16.3.2,5101,172.16.1.2,58639,10124,14480,0,65728,65700,6,6,4,1460,785,1,992,122,33580,0,65700,0,0,0,0,0
i,0x00000000,1716773223.133091,172.16.3.2,5101,172.16.1.2,58639,10124,14480,0,65728,65700,6,6,4,1460,785,1,992,122,33580,0,65700,0,0,0,0,0
o,0x00000000,1716773223.133098,172.16.3.2,5101,172.16.1.2,58639,10124,14480,0,65728,65700,6,6,4,1460,785,1,993,122,33580,0,65700,1448,0,0,0,0
i,0x00000000,1716773223.153948,172.16.3.2,5101,172.16.1.2,58639,10124,14480,0,65728,65700,6,6,4,1460,785,1,992,122,33580,0,65700,0,0,0,0,0
i,0x00000000,1716773223.163192,172.16.3.2,5101,172.16.1.2,58639,10124,14480,0,65728,65700,6,6,4,1460,785,1,992,122,33580,0,65700,0,0,0,0,0
o,0x00000000,1716773223.163199,172.16.3.2,5101,172.16.1.2,58639,10124,14480,0,65728,65700,6,6,4,1460,785,1,993,122,33580,0,65700,1448,0,0,0,0
i,0x00000000,1716773223.173641,172.16.3.2,5101,172.16.1.2,58639,10124,14480,0,65728,65700,6,6,4,1460,785,1,992,122,33580,0,65700,0,0,0,0,0
i,0x00000000,1716773223.183994,172.16.3.2,5101,172.16.1.2,58639,10124,14480,0,65728,65700,6,6,4,1460,785,1,992,122,33580,0,65700,0,0,0,0,0
o,0x00000000,1716773223.184004,172.16.3.2,5101,172.16.1.2,58639,10124,14480,0,65728,65700,6,6,4,1460,785,1,993,122,33580,0,65700,1448,0,0,0,0
i,0x00000000,1716773223.193777,172.16.3.2,5101,172.16.1.2,58639,10124,14480,0,65728,65700,6,6,4,1460,785,1,992,122,33580,0,65700,0,0,0,0,0
i,0x00000000,1716773223.214200,172.16.3.2,5101,172.16.1.2,58639,10124,14480,0,65728,65700,6,6,4,1460,785,1,992,122,33580,0,65700,0,0,0,0,0
o,0x00000000,1716773223.214209,172.16.3.2,5101,172.16.1.2,58639,10124,14480,0,65728,65700,6,6,4,1460,785,1,993,122,33580,0,65700,1448,0,0,0,0
i,0x00000000,1716773223.223454,172.16.3.2,5101,172.16.1.2,58639,10124,14480,0,65728,65700,6,6,4,1460,785,1,992,122,33580,0,65700,0,0,0,0,0
i,0x00000000,1716773223.234059,172.16.3.2,5101,172.16.1.2,58639,10124,14480,0,65728,65700,6,6,4,1460,785,1,992,122,33580,0,65700,0,0,0,0,0
o,0x00000000,1716773223.234066,172.16.3.2,5101,172.16.1.2,58639,10124,14480,0,65728,65700,6,6,4,1460,785,1,993,122,33580,0,65700,1448,0,0,0,0
i,0x00000000,1716773223.243338,172.16.3.2,5101,172.16.1.2,58639,10124,14480,0,65728,65700,6,6,4,1460,785,1,992,122,33580,0,65700,0,0,0,0,0
i,0x00000000,1716773223.253929,172.16.3.2,5101,172.16.1.2,58639,10124,14480,0,65728,65700,6,6,4,1460,785,1,992,122,33580,0,65700,0,0,0,0,0
o,0x00000000,1716773223.253935,172.16.3.2,5101,172.16.1.2,58639,10124,14480,0,65728,65700,6,6,4,1460,785,1,993,122,33580,0,65700,1448,0,0,0,0
i,0x00000000,1716773223.273877,172.16.3.2,5101,172.16.1.2,58639,10124,14480,0,65728,65700,6,6,4,1460,785,1,992,122,33580,0,65700,0,0,0,0,0
i,0x00000000,1716773223.283111,172.16.3.2,5101,172.16.1.2,58639,10124,14480,0,65728,65700,6,6,4,1460,785,1,992,122,33580,0,65700,0,0,0,0,0
o,0x00000000,1716773223.283121,172.16.3.2,5101,172.16.1.2,58639,10124,14480,0,65728,65700,6,6,4,1460,785,1,993,122,33580,0,65700,1448,0,0,0,0
i,0x00000000,1716773223.293603,172.16.3.2,5101,172.16.1.2,58639,10124,14480,0,65728,65700,6,6,4,1460,785,1,992,122,33580,0,65700,0,0,0,0,0
i,0x00000000,1716773223.303078,172.16.3.2,5101,172.16.1.2,58639,10124,14480,0,65728,65700,6,6,4,1460,785,1,992,122,33580,0,65700,0,0,0,0,0
o,0x00000000,1716773223.303086,172.16.3.2,5101,172.16.1.2,58639,10124,14480,0,65728,65700,6,6,4,1460,785,1,993,122,33580,0,65700,1448,0,0,0,0
i,0x00000000,1716773223.312649,172.16.3.2,5101,172.16.1.2,58639,10124,14480,0,65728,65700,6,6,4,1460,785,1,992,122,33580,0,65700,0,0,0,0,0
i,0x00000000,1716773223.333154,172.16.3.2,5101,172.16.1.2,58639,10124,14480,0,65728,65700,6,6,4,1460,785,1,992,122,33580,0,65700,0,0,0,0,0
o,0x00000000,1716773223.333162,172.16.3.2,5101,172.16.1.2,58639,10124,14480,0,65728,65700,6,6,4,1460,785,1,993,122,33580,0,65700,1448,0,0,0,0
o,0x00000000,1716773223.470126,10.0.2.15,22,10.0.2.2,60131,1073725440,14600,0,65535,65700,0,0,4,1460,1,0,4,24,33580,156,65700,0,0,0,0,0
i,0x00000000,1716773223.470788,10.0.2.15,22,10.0.2.2,60131,1073725440,14600,0,65535,65700,0,0,4,1460,1,0,4,24,33580,156,65700,0,156,0,0,0
i,0x00000000,1716773223.763142,172.16.3.2,5101,172.16.1.2,58639,10124,14480,0,65728,65700,6,6,4,1460,785,1,992,122,33580,0,65700,0,0,0,0,0
i,0x00000000,1716773223.774190,172.16.3.2,5101,172.16.1.2,58639,10124,14480,0,65728,65700,6,6,4,1460,785,1,992,122,33580,0,65700,0,0,0,0,0
o,0x00000000,1716773223.774204,172.16.3.2,5101,172.16.1.2,58639,10124,14480,0,65728,65700,6,6,4,1460,785,1,993,122,33580,0,65700,1448,0,0,0,0
i,0x00000000,1716773223.783652,172.16.3.2,5101,172.16.1.2,58639,10124,14480,0,65728,65700,6,6,4,1460,785,1,992,122,33580,0,65700,0,0,0,0,0
i,0x00000000,1716773223.794074,172.16.3.2,5101,172.16.1.2,58639,10124,14480,0,65728,65700,6,6,4,1460,785,1,992,122,33580,0,65700,0,0,0,0,0
o,0x00000000,1716773223.794082,172.16.3.2,5101,172.16.1.2,58639,10124,14480,0,65728,65700,6,6,4,1460,785,1,993,122,33580,0,65700,1448,0,0,0,0
i,0x00000000,1716773223.814066,172.16.3.2,5101,172.16.1.2,58639,10124,14480,0,65728,65700,6,6,4,1460,785,1,992,122,33580,0,65700,0,0,0,0,0
i,0x00000000,1716773223.823484,172.16.3.2,5101,172.16.1.2,58639,10124,14480,0,65728,65700,6,6,4,1460,785,1,992,122,33580,0,65700,0,0,0,0,0
o,0x00000000,1716773223.823492,172.16.3.2,5101,172.16.1.2,58639,10124,14480,0,65728,65700,6,6,4,1460,785,1,993,122,33580,0,65700,1448,0,0,0,0
i,0x00000000,1716773223.833166,172.16.3.2,5101,172.16.1.2,58639,10124,14480,0,65728,65700,6,6,4,1460,785,1,992,122,33580,0,65700,0,0,0,0,0
i,0x00000000,1716773223.844429,172.16.3.2,5101,172.16.1.2,58639,10124,14480,0,65728,65700,6,6,4,1460,785,1,992,122,33580,0,65700,0,0,0,0,0
o,0x00000000,1716773223.844440,172.16.3.2,5101,172.16.1.2,58639,10124,14480,0,65728,65700,6,6,4,1460,785,1,993,122,33580,0,65700,1448,0,0,0,0
i,0x00000000,1716773223.853558,172.16.3.2,5101,172.16.1.2,58639,10124,14480,0,65728,65700,6,6,4,1460,785,1,992,122,33580,0,65700,0,0,0,0,0
i,0x00000000,1716773223.874138,172.16.3.2,5101,172.16.1.2,58639,10124,14480,0,65728,65700,6,6,4,1460,785,1,992,122,33580,0,65700,0,0,0,0,0
o,0x00000000,1716773223.874161,172.16.3.2,5101,172.16.1.2,58639,10124,14480,0,65728,65700,6,6,4,1460,785,1,993,122,33580,0,65700,1448,0,0,0,0
i,0x00000000,1716773223.884541,172.16.3.2,5101,172.16.1.2,58639,10124,14480,0,65728,65700,6,6,4,1460,785,1,992,122,33580,0,65700,0,0,0,0,0
i,0x00000000,1716773223.894046,172.16.3.2,5101,172.16.1.2,58639,10124,14480,0,65728,65700,6,6,4,1460,785,1,992,122,33580,0,65700,0,0,0,0,0
o,0x00000000,1716773223.894060,172.16.3.2,5101,172.16.1.2,58639,10124,14480,0,65728,65700,6,6,4,1460,785,1,993,122,33580,0,65700,1448,0,0,0,0
i,0x00000000,1716773223.904443,172.16.3.2,5101,172.16.1.2,58639,10124,14480,0,65728,65700,6,6,4,1460,785,1,992,122,33580,0,65700,0,0,0,0,0
i,0x00000000,1716773223.913777,172.16.3.2,5101,172.16.1.2,58639,10124,14480,0,65728,65700,6,6,4,1460,785,1,992,122,33580,0,65700,0,0,0,0,0
o,0x00000000,1716773223.913786,172.16.3.2,5101,172.16.1.2,58639,10124,14480,0,65728,65700,6,6,4,1460,785,1,993,122,33580,0,65700,1448,0,0,0,0
i,0x00000000,1716773223.933728,172.16.3.2,5101,172.16.1.2,58639,10124,14480,0,65728,65700,6,6,4,1460,785,1,992,122,33580,0,65700,0,0,0,0,0
i,0x00000000,1716773223.943181,172.16.3.2,5101,172.16.1.2,58639,10124,14480,0,65728,65700,6,6,4,1460,785,1,992,122,33580,0,65700,0,0,0,0,0
o,0x00000000,1716773223.943190,172.16.3.2,5101,172.16.1.2,58639,10124,14480,0,65728,65700,6,6,4,1460,785,1,993,122,33580,0,65700,1448,0,0,0,0
i,0x00000000,1716773223.953547,172.16.3.2,5101,172.16.1.2,58639,10124,14480,0,65728,65700,6,6,4,1460,785,1,992,122,33580,0,65700,0,0,0,0,0
i,0x00000000,1716773223.963888,172.16.3.2,5101,172.16.1.2,58639,10124,14480,0,65728,65700,6,6,4,1460,785,1,992,122,33580,0,65700,0,0,0,0,0
o,0x00000000,1716773223.963902,172.16.3.2,5101,172.16.1.2,58639,10124,14480,0,65728,65700,6,6,4,1460,785,1,993,122,33580,0,65700,1448,0,0,0,0
i,0x00000000,1716773223.974262,172.16.3.2,5101,172.16.1.2,58639,10124,14480,0,65728,65700,6,6,4,1460,785,1,992,122,33580,0,65700,0,0,0,0,0
i,0x00000000,1716773223.994015,172.16.3.2,5101,172.16.1.2,58639,10124,14480,0,65728,65700,6,6,4,1460,785,1,992,122,33580,0,65700,0,0,0,0,0
o,0x00000000,1716773223.994022,172.16.3.2,5101,172.16.1.2,58639,10124,14480,0,65728,65700,6,6,4,1460,785,1,993,122,33580,0,65700,1448,0,0,0,0
i,0x00000000,1716773224.004390,172.16.3.2,5101,172.16.1.2,58639,10124,14480,0,65728,65700,6,6,4,1460,785,1,992,122,33580,0,65700,0,0,0,0,0
i,0x00000000,1716773224.013892,172.16.3.2,5101,172.16.1.2,58639,10124,14480,0,65728,65700,6,6,4,1460,785,1,992,122,33580,0,65700,0,0,0,0,0
o,0x00000000,1716773224.013907,172.16.3.2,5101,172.16.1.2,58639,10124,14480,0,65728,65700,6,6,4,1460,785,1,993,122,33580,0,65700,1448,0,0,0,0
i,0x00000000,1716773224.024206,172.16.3.2,5101,172.16.1.2,58639,10124,14480,0,65728,65700,6,6,4,1460,785,1,992,122,33580,0,65700,0,0,0,0,0
i,0x00000000,1716773224.033829,172.16.3.2,5101,172.16.1.2,58639,10124,14480,0,65728,65700,6,6,4,1460,785,1,992,122,33580,0,65700,0,0,0,0,0
o,0x00000000,1716773224.033836,172.16.3.2,5101,172.16.1.2,58639,10124,14480,0,65728,65700,6,6,4,1460,785,1,993,122,33580,0,65700,1448,0,0,0,0
i,0x00000000,1716773224.053614,172.16.3.2,5101,172.16.1.2,58639,10124,14480,0,65728,65700,6,6,4,1460,785,1,992,122,33580,0,65700,0,0,0,0,0
i,0x00000000,1716773224.064003,172.16.3.2,5101,172.16.1.2,58639,10124,14480,0,65728,65700,6,6,4,1460,785,1,992,122,33580,0,65700,0,0,0,0,0
o,0x00000000,1716773224.064010,172.16.3.2,5101,172.16.1.2,58639,10124,14480,0,65728,65700,6,6,4,1460,785,1,993,122,33580,0,65700,1448,0,0,0,0
i,0x00000000,1716773224.073405,172.16.3.2,5101,172.16.1.2,58639,10124,14480,0,65728,65700,6,6,4,1460,785,1,992,122,33580,0,65700,0,0,0,0,0
i,0x00000000,1716773224.084478,172.16.3.2,5101,172.16.1.2,58639,10124,14480,0,65728,65700,6,6,4,1460,785,1,992,122,33580,0,65700,0,0,0,0,0
o,0x00000000,1716773224.084491,172.16.3.2,5101,172.16.1.2,58639,10124,14480,0,65728,65700,6,6,4,1460,785,1,993,122,33580,0,65700,1448,0,0,0,0
i,0x00000000,1716773224.093842,172.16.3.2,5101,172.16.1.2,58639,10124,14480,0,65728,65700,6,6,4,1460,785,1,992,122,33580,0,65700,0,0,0,0,0
i,0x00000000,1716773224.114016,172.16.3.2,5101,172.16.1.2,58639,10124,14480,0,65728,65700,6,6,4,1460,785,1,992,122,33580,0,65700,0,0,0,0,0
o,0x00000000,1716773224.114025,172.16.3.2,5101,172.16.1.2,58639,10124,14480,0,65728,65700,6,6,4,1460,785,1,993,122,33580,0,65700,1448,0,0,0,0
o,0x00000000,1716773224.479804,10.0.2.15,22,10.0.2.2,60131,1073725440,14600,0,65535,65700,0,0,4,1460,1,0,4,24,33580,108,65700,0,0,0,0,0
i,0x00000000,1716773224.480447,10.0.2.15,22,10.0.2.2,60131,1073725440,14600,0,65535,65700,0,0,4,1460,1,0,4,24,33580,108,65700,0,108,0,0,0
i,0x00000000,1716773224.554614,172.16.3.2,5101,172.16.1.2,58639,10124,14480,0,65728,65700,6,6,4,1460,785,1,992,122,33580,0,65700,0,0,0,0,0
i,0x00000000,1716773224.564870,172.16.3.2,5101,172.16.1.2,58639,10124,14480,0,65728,65700,6,6,4,1460,785,1,992,122,33580,0,65700,0,0,0,0,0
o,0x00000000,1716773224.564883,172.16.3.2,5101,172.16.1.2,58639,10124,14480,0,65728,65700,6,6,4,1460,785,1,993,122,33580,0,65700,1448,0,0,0,0
i,0x00000000,1716773224.574360,172.16.3.2,5101,172.16.1.2,58639,10124,14480,0,65728,65700,6,6,4,1460,785,1,992,122,33580,0,65700,0,0,0,0,0
i,0x00000000,1716773224.594997,172.16.3.2,5101,172.16.1.2,58639,10124,14480,0,65728,65700,6,6,4,1460,785,1,992,122,33580,0,65700,0,0,0,0,0
o,0x00000000,1716773224.595009,172.16.3.2,5101,172.16.1.2,58639,10124,14480,0,65728,65700,6,6,4,1460,785,1,993,122,33580,0,65700,1448,0,0,0,0
i,0x00000000,1716773224.604371,172.16.3.2,5101,172.16.1.2,58639,10124,14480,0,65728,65700,6,6,4,1460,785,1,992,122,33580,0,65700,0,0,0,0,0
i,0x00000000,1716773224.614948,172.16.3.2,5101,172.16.1.2,58639,10124,14480,0,65728,65700,6,6,4,1460,785,1,992,122,33580,0,65700,0,0,0,0,0
o,0x00000000,1716773224.614956,172.16.3.2,5101,172.16.1.2,58639,10124,14480,0,65728,65700,6,6,4,1460,785,1,993,122,33580,0,65700,1448,0,0,0,0
i,0x00000000,1716773224.623905,172.16.3.2,5101,172.16.1.2,58639,10124,14480,0,65728,65700,6,6,4,1460,785,1,992,122,33580,0,65700,0,0,0,0,0
i,0x00000000,1716773224.634582,172.16.3.2,5101,172.16.1.2,58639,10124,14480,0,65728,65700,6,6,4,1460,785,1,992,122,33580,0,65700,0,0,0,0,0
o,0x00000000,1716773224.634591,172.16.3.2,5101,172.16.1.2,58639,10124,14480,0,65728,65700,6,6,4,1460,785,1,993,122,33580,0,65700,1448,0,0,0,0
i,0x00000000,1716773224.654958,172.16.3.2,5101,172.16.1.2,58639,10124,14480,0,65728,65700,6,6,4,1460,785,1,992,122,33580,0,65700,0,0,0,0,0
i,0x00000000,1716773224.665341,172.16.3.2,5101,172.16.1.2,58639,10124,14480,0,65728,65700,6,6,4,1460,785,1,992,122,33580,0,65700,0,0,0,0,0
o,0x00000000,1716773224.665350,172.16.3.2,5101,172.16.1.2,58639,10124,14480,0,65728,65700,6,6,4,1460,785,1,993,122,33580,0,65700,1448,0,0,0,0
i,0x00000000,1716773224.674562,172.16.3.2,5101,172.16.1.2,58639,10124,14480,0,65728,65700,6,6,4,1460,785,1,992,122,33580,0,65700,0,0,0,0,0
i,0x00000000,1716773224.684886,172.16.3.2,5101,172.16.1.2,58639,10124,14480,0,65728,65700,6,6,4,1460,785,1,992,122,33580,0,65700,0,0,0,0,0
o,0x00000000,1716773224.684892,172.16.3.2,5101,172.16.1.2,58639,10124,14480,0,65728,65700,6,6,4,1460,785,1,993,122,33580,0,65700,1448,0,0,0,0
i,0x00000000,1716773224.694823,172.16.3.2,5101,172.16.1.2,58639,10124,14480,0,65728,65700,6,6,4,1460,785,1,992,122,33580,0,65700,0,0,0,0,0
i,0x00000000,1716773224.715115,172.16.3.2,5101,172.16.1.2,58639,10124,14480,0,65728,65700,6,6,4,1460,785,1,992,122,33580,0,65700,0,0,0,0,0
o,0x00000000,1716773224.715123,172.16.3.2,5101,172.16.1.2,58639,10124,14480,0,65728,65700,6,6,4,1460,785,1,993,122,33580,0,65700,1448,0,0,0,0
i,0x00000000,1716773224.724283,172.16.3.2,5101,172.16.1.2,58639,10124,14480,0,65728,65700,6,6,4,1460,785,1,992,122,33580,0,65700,0,0,0,0,0
i,0x00000000,1716773224.733769,172.16.3.2,5101,172.16.1.2,58639,10124,14480,0,65728,65700,6,6,4,1460,785,1,992,122,33580,0,65700,0,0,0,0,0
o,0x00000000,1716773224.733776,172.16.3.2,5101,172.16.1.2,58639,10124,14480,0,65728,65700,6,6,4,1460,785,1,993,122,33580,0,65700,1448,0,0,0,0
i,0x00000000,1716773224.745003,172.16.3.2,5101,172.16.1.2,58639,10124,14480,0,65728,65700,6,6,4,1460,785,1,992,122,33580,0,65700,0,0,0,0,0
i,0x00000000,1716773224.754261,172.16.3.2,5101,172.16.1.2,58639,10124,14480,0,65728,65700,6,6,4,1460,785,1,992,122,33580,0,65700,0,0,0,0,0
o,0x00000000,1716773224.754266,172.16.3.2,5101,172.16.1.2,58639,10124,14480,0,65728,65700,6,6,4,1460,785,1,993,122,33580,0,65700,1448,0,0,0,0
i,0x00000000,1716773224.775064,172.16.3.2,5101,172.16.1.2,58639,10124,14480,0,65728,65700,6,6,4,1460,785,1,992,122,33580,0,65700,0,0,0,0,0
i,0x00000000,1716773224.784534,172.16.3.2,5101,172.16.1.2,58639,10124,14480,0,65728,65700,6,6,4,1460,785,1,992,122,33580,0,65700,0,0,0,0,0
o,0x00000000,1716773224.784539,172.16.3.2,5101,172.16.1.2,58639,10124,14480,0,65728,65700,6,6,4,1460,785,1,993,122,33580,0,65700,1448,0,0,0,0
i,0x00000000,1716773224.794919,172.16.3.2,5101,172.16.1.2,58639,10124,14480,0,65728,65700,6,6,4,1460,785,1,992,122,33580,0,65700,0,0,0,0,0
i,0x00000000,1716773224.804180,172.16.3.2,5101,172.16.1.2,58639,10124,14480,0,65728,65700,6,6,4,1460,785,1,992,122,33580,0,65700,0,0,0,0,0
o,0x00000000,1716773224.804184,172.16.3.2,5101,172.16.1.2,58639,10124,14480,0,65728,65700,6,6,4,1460,785,1,993,122,33580,0,65700,1448,0,0,0,0
i,0x00000000,1716773224.814561,172.16.3.2,5101,172.16.1.2,58639,10124,14480,0,65728,65700,6,6,4,1460,785,1,992,122,33580,0,65700,0,0,0,0,0
i,0x00000000,1716773224.835286,172.16.3.2,5101,172.16.1.2,58639,10124,14480,0,65728,65700,6,6,4,1460,785,1,992,122,33580,0,65700,0,0,0,0,0
o,0x00000000,1716773224.835295,172.16.3.2,5101,172.16.1.2,58639,10124,14480,0,65728,65700,6,6,4,1460,785,1,993,122,33580,0,65700,1448,0,0,0,0
i,0x00000000,1716773224.844680,172.16.3.2,5101,172.16.1.2,58639,10124,14480,0,65728,65700,6,6,4,1460,785,1,992,122,33580,0,65700,0,0,0,0,0
i,0x00000000,1716773224.854916,172.16.3.2,5101,172.16.1.2,58639,10124,14480,0,65728,65700,6,6,4,1460,785,1,992,122,33580,0,65700,0,0,0,0,0
o,0x00000000,1716773224.854930,172.16.3.2,5101,172.16.1.2,58639,10124,14480,0,65728,65700,6,6,4,1460,785,1,993,122,33580,0,65700,1448,0,0,0,0
i,0x00000000,1716773224.864357,172.16.3.2,5101,172.16.1.2,58639,10124,14480,0,65728,65700,6,6,4,1460,785,1,992,122,33580,0,65700,0,0,0,0,0
i,0x00000000,1716773224.874636,172.16.3.2,5101,172.16.1.2,58639,10124,14480,0,65728,65700,6,6,4,1460,785,1,992,122,33580,0,65700,0,0,0,0,0
o,0x00000000,1716773224.874654,172.16.3.2,5101,172.16.1.2,58639,10124,14480,0,65728,65700,6,6,4,1460,785,1,993,122,33580,0,65700,1448,0,0,0,0
i,0x00000000,1716773224.894469,172.16.3.2,5101,172.16.1.2,58639,10124,14480,0,65728,65700,6,6,4,1460,785,1,992,122,33580,0,65700,0,0,0,0,0
i,0x00000000,1716773224.904885,172.16.3.2,5101,172.16.1.2,58639,10124,14480,0,65728,65700,6,6,4,1460,785,1,992,122,33580,0,65700,0,0,0,0,0
o,0x00000000,1716773224.904897,172.16.3.2,5101,172.16.1.2,58639,10124,14480,0,65728,65700,6,6,4,1460,785,1,993,122,33580,0,65700,1448,0,0,0,0
i,0x00000000,1716773224.914087,172.16.3.2,5101,172.16.1.2,58639,10124,14480,0,65728,65700,6,6,4,1460,785,1,992,122,33580,0,65700,0,0,0,0,0
o,0x00000000,1716773224.948816,172.16.3.2,5101,172.16.1.2,58639,10124,14480,0,65728,65700,6,6,4,1460,785,1,993,122,33580,0,65700,0,0,0,0,0
i,0x00000000,1716773225.355892,172.16.3.2,5101,172.16.1.2,58639,10124,14480,0,65728,65700,6,6,4,1460,785,1,992,122,33580,0,65700,0,0,0,0,0
i,0x00000000,1716773225.365187,172.16.3.2,5101,172.16.1.2,58639,10124,14480,0,65728,65700,6,6,4,1460,785,1,992,122,33580,0,65700,0,0,0,0,0
o,0x00000000,1716773225.365200,172.16.3.2,5101,172.16.1.2,58639,10124,14480,0,65728,65700,6,6,4,1460,785,1,993,122,33580,0,65700,1448,0,0,0,0
i,0x00000000,1716773225.374702,172.16.3.2,5101,172.16.1.2,58639,10124,14480,0,65728,65700,6,6,4,1460,785,1,992,122,33580,0,65700,0,0,0,0,0
i,0x00000000,1716773225.394406,172.16.3.2,5101,172.16.1.2,58639,10124,14480,0,65728,65700,6,6,4,1460,785,1,992,122,33580,0,65700,0,0,0,0,0
o,0x00000000,1716773225.394421,172.16.3.2,5101,172.16.1.2,58639,10124,14480,0,65728,65700,6,6,4,1460,785,1,993,122,33580,0,65700,1448,0,0,0,0
i,0x00000000,1716773225.405755,172.16.3.2,5101,172.16.1.2,58639,10124,14480,0,65728,65700,6,6,4,1460,785,1,992,122,33580,0,65700,0,0,0,0,0
i,0x00000000,1716773225.415059,172.16.3.2,5101,172.16.1.2,58639,10124,14480,0,65728,65700,6,6,4,1460,785,1,992,122,33580,0,65700,0,0,0,0,0
o,0x00000000,1716773225.415066,172.16.3.2,5101,172.16.1.2,58639,10124,14480,0,65728,65700,6,6,4,1460,785,1,993,122,33580,0,65700,1448,0,0,0,0
i,0x00000000,1716773225.425457,172.16.3.2,5101,172.16.1.2,58639,10124,14480,0,65728,65700,6,6,4,1460,785,1,992,122,33580,0,65700,0,0,0,0,0
i,0x00000000,1716773225.434944,172.16.3.2,5101,172.16.1.2,58639,10124,14480,0,65728,65700,6,6,4,1460,785,1,992,122,33580,0,65700,0,0,0,0,0
o,0x00000000,1716773225.434950,172.16.3.2,5101,172.16.1.2,58639,10124,14480,0,65728,65700,6,6,4,1460,785,1,993,122,33580,0,65700,1448,0,0,0,0
i,0x00000000,1716773225.455842,172.16.3.2,5101,172.16.1.2,58639,10124,14480,0,65728,65700,6,6,4,1460,785,1,992,122,33580,0,65700,0,0,0,0,0
i,0x00000000,1716773225.465180,172.16.3.2,5101,172.16.1.2,58639,10124,14480,0,65728,65700,6,6,4,1460,785,1,992,122,33580,0,65700,0,0,0,0,0
o,0x00000000,1716773225.465189,172.16.3.2,5101,172.16.1.2,58639,10124,14480,0,65728,65700,6,6,4,1460,785,1,993,122,33580,0,65700,1448,0,0,0,0
i,0x00000000,1716773225.475633,172.16.3.2,5101,172.16.1.2,58639,10124,14480,0,65728,65700,6,6,4,1460,785,1,992,122,33580,0,65700,0,0,0,0,0
o,0x00000000,1716773225.480125,10.0.2.15,22,10.0.2.2,60131,1073725440,14600,0,65535,65700,0,0,4,1460,1,0,4,24,33580,108,65700,0,0,0,0,0
i,0x00000000,1716773225.480875,10.0.2.15,22,10.0.2.2,60131,1073725440,14600,0,65535,65700,0,0,4,1460,1,0,4,24,33580,108,65700,0,108,0,0,0
i,0x00000000,1716773225.484610,172.16.3.2,5101,172.16.1.2,58639,10124,14480,0,65728,65700,6,6,4,1460,785,1,992,122,33580,0,65700,0,0,0,0,0
o,0x00000000,1716773225.484616,172.16.3.2,5101,172.16.1.2,58639,10124,14480,0,65728,65700,6,6,4,1460,785,1,993,122,33580,0,65700,1448,0,0,0,0
i,0x00000000,1716773225.494941,172.16.3.2,5101,172.16.1.2,58639,10124,14480,0,65728,65700,6,6,4,1460,785,1,992,122,33580,0,65700,0,0,0,0,0
i,0x00000000,1716773225.515508,172.16.3.2,5101,172.16.1.2,58639,10124,14480,0,65728,65700,6,6,4,1460,785,1,992,122,33580,0,65700,0,0,0,0,0
o,0x00000000,1716773225.515520,172.16.3.2,5101,172.16.1.2,58639,10124,14480,0,65728,65700,6,6,4,1460,785,1,993,122,33580,0,65700,1448,0,0,0,0
i,0x00000000,1716773225.525102,172.16.3.2,5101,172.16.1.2,58639,10124,14480,0,65728,65700,6,6,4,1460,785,1,992,122,33580,0,65700,0,0,0,0,0
i,0x00000000,1716773225.535236,172.16.3.2,5101,172.16.1.2,58639,10124,14480,0,65728,65700,6,6,4,1460,785,1,992,122,33580,0,65700,0,0,0,0,0
o,0x00000000,1716773225.535242,172.16.3.2,5101,172.16.1.2,58639,10124,14480,0,65728,65700,6,6,4,1460,785,1,993,122,33580,0,65700,1448,0,0,0,0
i,0x00000000,1716773225.544808,172.16.3.2,5101,172.16.1.2,58639,10124,14480,0,65728,65700,6,6,4,1460,785,1,992,122,33580,0,65700,0,0,0,0,0
i,0x00000000,1716773225.555100,172.16.3.2,5101,172.16.1.2,58639,10124,14480,0,65728,65700,6,6,4,1460,785,1,992,122,33580,0,65700,0,0,0,0,0
o,0x00000000,1716773225.555109,172.16.3.2,5101,172.16.1.2,58639,10124,14480,0,65728,65700,6,6,4,1460,785,1,993,122,33580,0,65700,1448,0,0,0,0
i,0x00000000,1716773225.574785,172.16.3.2,5101,172.16.1.2,58639,10124,14480,0,65728,65700,6,6,4,1460,785,1,992,122,33580,0,65700,0,0,0,0,0
i,0x00000000,1716773225.585109,172.16.3.2,5101,172.16.1.2,58639,10124,14480,0,65728,65700,6,6,4,1460,785,1,992,122,33580,0,65700,0,0,0,0,0
o,0x00000000,1716773225.585118,172.16.3.2,5101,172.16.1.2,58639,10124,14480,0,65728,65700,6,6,4,1460,785,1,993,122,33580,0,65700,1448,0,0,0,0
i,0x00000000,1716773225.595486,172.16.3.2,5101,172.16.1.2,58639,10124,14480,0,65728,65700,6,6,4,1460,785,1,992,122,33580,0,65700,0,0,0,0,0
i,0x00000000,1716773225.605949,172.16.3.2,5101,172.16.1.2,58639,10124,14480,0,65728,65700,6,6,4,1460,785,1,992,122,33580,0,65700,0,0,0,0,0
o,0x00000000,1716773225.605955,172.16.3.2,5101,172.16.1.2,58639,10124,14480,0,65728,65700,6,6,4,1460,785,1,993,122,33580,0,65700,1448,0,0,0,0
i,0x00000000,1716773225.615270,172.16.3.2,5101,172.16.1.2,58639,10124,14480,0,65728,65700,6,6,4,1460,785,1,992,122,33580,0,65700,0,0,0,0,0
i,0x00000000,1716773225.635899,172.16.3.2,5101,172.16.1.2,58639,10124,14480,0,65728,65700,6,6,4,1460,785,1,992,122,33580,0,65700,0,0,0,0,0
o,0x00000000,1716773225.635916,172.16.3.2,5101,172.16.1.2,58639,10124,14480,0,65728,65700,6,6,4,1460,785,1,993,122,33580,0,65700,1448,0,0,0,0
i,0x00000000,1716773225.645242,172.16.3.2,5101,172.16.1.2,58639,10124,14480,0,65728,65700,6,6,4,1460,785,1,992,122,33580,0,65700,0,0,0,0,0
i,0x00000000,1716773225.655588,172.16.3.2,5101,172.16.1.2,58639,10124,14480,0,65728,65700,6,6,4,1460,785,1,992,122,33580,0,65700,0,0,0,0,0
o,0x00000000,1716773225.655596,172.16.3.2,5101,172.16.1.2,58639,10124,14480,0,65728,65700,6,6,4,1460,785,1,993,122,33580,0,65700,1448,0,0,0,0
i,0x00000000,1716773225.665989,172.16.3.2,5101,172.16.1.2,58639,10124,14480,0,65728,65700,6,6,4,1460,785,1,992,122,33580,0,65700,0,0,0,0,0
i,0x00000000,1716773225.675373,172.16.3.2,5101,172.16.1.2,58639,10124,14480,0,65728,65700,6,6,4,1460,785,1,992,122,33580,0,65700,0,0,0,0,0
o,0x00000000,1716773225.675384,172.16.3.2,5101,172.16.1.2,58639,10124,14480,0,65728,65700,6,6,4,1460,785,1,993,122,33580,0,65700,1448,0,0,0,0
i,0x00000000,1716773225.694767,172.16.3.2,5101,172.16.1.2,58639,10124,14480,0,65728,65700,6,6,4,1460,785,1,992,122,33580,0,65700,0,0,0,0,0
i,0x00000000,1716773225.705475,172.16.3.2,5101,172.16.1.2,58639,10124,14480,0,65728,65700,6,6,4,1460,785,1,992,122,33580,0,65700,0,0,0,0,0
o,0x00000000,1716773225.705482,172.16.3.2,5101,172.16.1.2,58639,10124,14480,0,65728,65700,6,6,4,1460,785,1,993,122,33580,0,65700,1448,0,0,0,0
i,0x00000000,1716773225.715861,172.16.3.2,5101,172.16.1.2,58639,10124,14480,0,65728,65700,6,6,4,1460,785,1,992,122,33580,0,65700,0,0,0,0,0
o,0x00000000,1716773225.749510,172.16.3.2,5101,172.16.1.2,58639,10124,14480,0,65728,65700,6,6,4,1460,785,1,993,122,33580,0,65700,0,0,0,0,0
i,0x00000000,1716773225.765614,172.16.3.2,5101,172.16.1.2,58639,10124,14480,0,65728,65700,6,6,4,1460,785,1,992,122,33580,0,65700,0,0,0,0,0
o,0x00000000,1716773225.800243,172.16.3.2,5101,172.16.1.2,58639,10124,14480,0,65728,65700,6,6,4,1460,785,1,993,122,33580,0,65700,0,0,0,0,0
i,0x00000000,1716773226.146198,172.16.3.2,5101,172.16.1.2,58639,10124,14480,0,65728,65700,6,6,4,1460,785,1,992,122,33580,0,65700,0,0,0,0,0
i,0x00000000,1716773226.156536,172.16.3.2,5101,172.16.1.2,58639,10124,14480,0,65728,65700,6,6,4,1460,785,1,992,122,33580,0,65700,0,0,0,0,0
o,0x00000000,1716773226.156548,172.16.3.2,5101,172.16.1.2,58639,10124,14480,0,65728,65700,6,6,4,1460,785,1,993,122,33580,0,65700,1448,0,0,0,0
i,0x00000000,1716773226.176166,172.16.3.2,5101,172.16.1.2,58639,10124,14480,0,65728,65700,6,6,4,1460,785,1,992,122,33580,0,65700,0,0,0,0,0
i,0x00000000,1716773226.185575,172.16.3.2,5101,172.16.1.2,58639,10124,14480,0,65728,65700,6,6,4,1460,785,1,992,122,33580,0,65700,0,0,0,0,0
o,0x00000000,1716773226.185581,172.16.3.2,5101,172.16.1.2,58639,10124,14480,0,65728,65700,6,6,4,1460,785,1,993,122,33580,0,65700,1448,0,0,0,0
i,0x00000000,1716773226.195664,172.16.3.2,5101,172.16.1.2,58639,10124,14480,0,65728,65700,6,6,4,1460,785,1,992,122,33580,0,65700,0,0,0,0,0
i,0x00000000,1716773226.205406,172.16.3.2,5101,172.16.1.2,58639,10124,14480,0,65728,65700,6,6,4,1460,785,1,992,122,33580,0,65700,0,0,0,0,0
o,0x00000000,1716773226.205412,172.16.3.2,5101,172.16.1.2,58639,10124,14480,0,65728,65700,6,6,4,1460,785,1,993,122,33580,0,65700,1448,0,0,0,0
i,0x00000000,1716773226.225351,172.16.3.2,5101,172.16.1.2,58639,10124,14480,0,65728,65700,6,6,4,1460,785,1,992,122,33580,0,65700,0,0,0,0,0
i,0x00000000,1716773226.235790,172.16.3.2,5101,172.16.1.2,58639,10124,14480,0,65728,65700,6,6,4,1460,785,1,992,122,33580,0,65700,0,0,0,0,0
o,0x00000000,1716773226.235798,172.16.3.2,5101,172.16.1.2,58639,10124,14480,0,65728,65700,6,6,4,1460,785,1,993,122,33580,0,65700,1448,0,0,0,0
i,0x00000000,1716773226.246237,172.16.3.2,5101,172.16.1.2,58639,10124,14480,0,65728,65700,6,6,4,1460,785,1,992,122,33580,0,65700,0,0,0,0,0
i,0x00000000,1716773226.255639,172.16.3.2,5101,172.16.1.2,58639,10124,14480,0,65728,65700,6,6,4,1460,785,1,992,122,33580,0,65700,0,0,0,0,0
o,0x00000000,1716773226.255645,172.16.3.2,5101,172.16.1.2,58639,10124,14480,0,65728,65700,6,6,4,1460,785,1,993,122,33580,0,65700,1448,0,0,0,0
i,0x00000000,1716773226.265910,172.16.3.2,5101,172.16.1.2,58639,10124,14480,0,65728,65700,6,6,4,1460,785,1,992,122,33580,0,65700,0,0,0,0,0
i,0x00000000,1716773226.286585,172.16.3.2,5101,172.16.1.2,58639,10124,14480,0,65728,65700,6,6,4,1460,785,1,992,122,33580,0,65700,0,0,0,0,0
o,0x00000000,1716773226.286594,172.16.3.2,5101,172.16.1.2,58639,10124,14480,0,65728,65700,6,6,4,1460,785,1,993,122,33580,0,65700,1448,0,0,0,0
i,0x00000000,1716773226.295951,172.16.3.2,5101,172.16.1.2,58639,10124,14480,0,65728,65700,6,6,4,1460,785,1,992,122,33580,0,65700,0,0,0,0,0
i,0x00000000,1716773226.305201,172.16.3.2,5101,172.16.1.2,58639,10124,14480,0,65728,65700,6,6,4,1460,785,1,992,122,33580,0,65700,0,0,0,0,0
o,0x00000000,1716773226.305208,172.16.3.2,5101,172.16.1.2,58639,10124,14480,0,65728,65700,6,6,4,1460,785,1,993,122,33580,0,65700,1448,0,0,0,0
i,0x00000000,1716773226.315522,172.16.3.2,5101,172.16.1.2,58639,10124,14480,0,65728,65700,6,6,4,1460,785,1,992,122,33580,0,65700,0,0,0,0,0
i,0x00000000,1716773226.325796,172.16.3.2,5101,172.16.1.2,58639,10124,14480,0,65728,65700,6,6,4,1460,785,1,992,122,33580,0,65700,0,0,0,0,0
o,0x00000000,1716773226.325803,172.16.3.2,5101,172.16.1.2,58639,10124,14480,0,65728,65700,6,6,4,1460,785,1,993,122,33580,0,65700,1448,0,0,0,0
i,0x00000000,1716773226.346422,172.16.3.2,5101,172.16.1.2,58639,10124,14480,0,65728,65700,6,6,4,1460,785,1,992,122,33580,0,65700,0,0,0,0,0
i,0x00000000,1716773226.355444,172.16.3.2,5101,172.16.1.2,58639,10124,14480,0,65728,65700,6,6,4,1460,785,1,992,122,33580,0,65700,0,0,0,0,0
o,0x00000000,1716773226.355450,172.16.3.2,5101,172.16.1.2,58639,10124,14480,0,65728,65700,6,6,4,1460,785,1,993,122,33580,0,65700,1448,0,0,0,0
i,0x00000000,1716773226.365786,172.16.3.2,5101,172.16.1.2,58639,10124,14480,0,65728,65700,6,6,4,1460,785,1,992,122,33580,0,65700,0,0,0,0,0
i,0x00000000,1716773226.375947,172.16.3.2,5101,172.16.1.2,58639,10124,14480,0,65728,65700,6,6,4,1460,785,1,992,122,33580,0,65700,0,0,0,0,0
o,0x00000000,1716773226.375954,172.16.3.2,5101,172.16.1.2,58639,10124,14480,0,65728,65700,6,6,4,1460,785,1,993,122,33580,0,65700,1448,0,0,0,0
i,0x00000000,1716773226.386349,172.16.3.2,5101,172.16.1.2,58639,10124,14480,0,65728,65700,6,6,4,1460,785,1,992,122,33580,0,65700,0,0,0,0,0
i,0x00000000,1716773226.405629,172.16.3.2,5101,172.16.1.2,58639,10124,14480,0,65728,65700,6,6,4,1460,785,1,992,122,33580,0,65700,0,0,0,0,0
o,0x00000000,1716773226.405640,172.16.3.2,5101,172.16.1.2,58639,10124,14480,0,65728,65700,6,6,4,1460,785,1,993,122,33580,0,65700,1448,0,0,0,0
i,0x00000000,1716773226.416014,172.16.3.2,5101,172.16.1.2,58639,10124,14480,0,65728,65700,6,6,4,1460,785,1,992,122,33580,0,65700,0,0,0,0,0
i,0x00000000,1716773226.425450,172.16.3.2,5101,172.16.1.2,58639,10124,14480,0,65728,65700,6,6,4,1460,785,1,992,122,33580,0,65700,0,0,0,0,0
o,0x00000000,1716773226.425457,172.16.3.2,5101,172.16.1.2,58639,10124,14480,0,65728,65700,6,6,4,1460,785,1,993,122,33580,0,65700,1448,0,0,0,0
i,0x00000000,1716773226.435982,172.16.3.2,5101,172.16.1.2,58639,10124,14480,0,65728,65700,6,6,4,1460,785,1,992,122,33580,0,65700,0,0,0,0,0
i,0x00000000,1716773226.445473,172.16.3.2,5101,172.16.1.2,58639,10124,14480,0,65728,65700,6,6,4,1460,785,1,992,122,33580,0,65700,0,0,0,0,0
o,0x00000000,1716773226.445480,172.16.3.2,5101,172.16.1.2,58639,10124,14480,0,65728,65700,6,6,4,1460,785,1,993,122,33580,0,65700,1448,0,0,0,0
i,0x00000000,1716773226.466372,172.16.3.2,5101,172.16.1.2,58639,10124,14480,0,65728,65700,6,6,4,1460,785,1,992,122,33580,0,65700,0,0,0,0,0
i,0x00000000,1716773226.475761,172.16.3.2,5101,172.16.1.2,58639,10124,14480,0,65728,65700,6,6,4,1460,785,1,992,122,33580,0,65700,0,0,0,0,0
o,0x00000000,1716773226.475767,172.16.3.2,5101,172.16.1.2,58639,10124,14480,0,65728,65700,6,6,4,1460,785,1,993,122,33580,0,65700,1448,0,0,0,0
o,0x00000000,1716773226.480065,10.0.2.15,22,10.0.2.2,60131,1073725440,14600,0,65535,65700,0,0,4,1460,1,0,4,24,33580,108,65700,0,0,0,0,0
i,0x00000000,1716773226.480861,10.0.2.15,22,10.0.2.2,60131,1073725440,14600,0,65535,65700,0,0,4,1460,1,0,4,24,33580,108,65700,0,108,0,0,0
i,0x00000000,1716773226.486362,172.16.3.2,5101,172.16.1.2,58639,10124,14480,0,65728,65700,6,6,4,1460,785,1,992,122,33580,0,65700,0,0,0,0,0
i,0x00000000,1716773226.496441,172.16.3.2,5101,172.16.1.2,58639,10124,14480,0,65728,65700,6,6,4,1460,785,1,992,122,33580,0,65700,0,0,0,0,0
o,0x00000000,1716773226.496451,172.16.3.2,5101,172.16.1.2,58639,10124,14480,0,65728,65700,6,6,4,1460,785,1,993,122,33580,0,65700,1448,0,0,0,0
i,0x00000000,1716773226.506334,172.16.3.2,5101,172.16.1.2,58639,10124,14480,0,65728,65700,6,6,4,1460,785,1,992,122,33580,0,65700,0,0,0,0,0
o,0x00000000,1716773226.540060,172.16.3.2,5101,172.16.1.2,58639,10124,14480,0,65728,65700,6,6,4,1460,785,1,993,122,33580,0,65700,0,0,0,0,0
i,0x00000000,1716773226.556499,172.16.3.2,5101,172.16.1.2,58639,10124,14480,0,65728,65700,6,6,4,1460,785,1,992,122,33580,0,65700,0,0,0,0,0
o,0x00000000,1716773226.590128,172.16.3.2,5101,172.16.1.2,58639,10124,14480,0,65728,65700,6,6,4,1460,785,1,993,122,33580,0,65700,0,0,0,0,0
i,0x00000000,1716773226.616396,172.16.3.2,5101,172.16.1.2,58639,10124,14480,0,65728,65700,6,6,4,1460,785,1,992,122,33580,0,65700,0,0,0,0,0
o,0x00000000,1716773226.649706,172.16.3.2,5101,172.16.1.2,58639,10124,14480,0,65728,65700,6,6,4,1460,785,1,993,122,33580,0,65700,0,0,0,0,0
i,0x00000000,1716773226.957057,172.16.3.2,5101,172.16.1.2,58639,10124,14480,0,65728,65700,6,6,4,1460,785,1,992,122,33580,0,65700,0,0,0,0,0
i,0x00000000,1716773226.966389,172.16.3.2,5101,172.16.1.2,58639,10124,14480,0,65728,65700,6,6,4,1460,785,1,992,122,33580,0,65700,0,0,0,0,0
o,0x00000000,1716773226.966404,172.16.3.2,5101,172.16.1.2,58639,10124,14480,0,65728,65700,6,6,4,1460,785,1,993,122,33580,0,65700,1448,0,0,0,0
i,0x00000000,1716773226.977101,172.16.3.2,5101,172.16.1.2,58639,10124,14480,0,65728,65700,6,6,4,1460,785,1,992,122,33580,0,65700,0,0,0,0,0
i,0x00000000,1716773226.996317,172.16.3.2,5101,172.16.1.2,58639,10124,14480,0,65728,65700,6,6,4,1460,785,1,992,122,33580,0,65700,0,0,0,0,0
o,0x00000000,1716773226.996329,172.16.3.2,5101,172.16.1.2,58639,10124,14480,0,65728,65700,6,6,4,1460,785,1,993,122,33580,0,65700,1448,0,0,0,0
i,0x00000000,1716773227.006649,172.16.3.2,5101,172.16.1.2,58639,10124,14480,0,65728,65700,6,6,4,1460,785,1,992,122,33580,0,65700,0,0,0,0,0
i,0x00000000,1716773227.016963,172.16.3.2,5101,172.16.1.2,58639,10124,14480,0,65728,65700,6,6,4,1460,785,1,992,122,33580,0,65700,0,0,0,0,0
o,0x00000000,1716773227.016970,172.16.3.2,5101,172.16.1.2,58639,10124,14480,0,65728,65700,6,6,4,1460,785,1,993,122,33580,0,65700,1448,0,0,0,0
i,0x00000000,1716773227.026520,172.16.3.2,5101,172.16.1.2,58639,10124,14480,0,65728,65700,6,6,4,1460,785,1,992,122,33580,0,65700,0,0,0,0,0
i,0x00000000,1716773227.036779,172.16.3.2,5101,172.16.1.2,58639,10124,14480,0,65728,65700,6,6,4,1460,785,1,992,122,33580,0,65700,0,0,0,0,0
o,0x00000000,1716773227.036785,172.16.3.2,5101,172.16.1.2,58639,10124,14480,0,65728,65700,6,6,4,1460,785,1,993,122,33580,0,65700,1448,0,0,0,0
i,0x00000000,1716773227.057752,172.16.3.2,5101,172.16.1.2,58639,10124,14480,0,65728,65700,6,6,4,1460,785,1,992,122,33580,0,65700,0,0,0,0,0
i,0x00000000,1716773227.066128,172.16.3.2,5101,172.16.1.2,58639,10124,14480,0,65728,65700,6,6,4,1460,785,1,992,122,33580,0,65700,0,0,0,0,0
o,0x00000000,1716773227.066138,172.16.3.2,5101,172.16.1.2,58639,10124,14480,0,65728,65700,6,6,4,1460,785,1,993,122,33580,0,65700,1448,0,0,0,0
i,0x00000000,1716773227.075672,172.16.3.2,5101,172.16.1.2,58639,10124,14480,0,65728,65700,6,6,4,1460,785,1,992,122,33580,0,65700,0,0,0,0,0
i,0x00000000,1716773227.087072,172.16.3.2,5101,172.16.1.2,58639,10124,14480,0,65728,65700,6,6,4,1460,785,1,992,122,33580,0,65700,0,0,0,0,0
o,0x00000000,1716773227.087081,172.16.3.2,5101,172.16.1.2,58639,10124,14480,0,65728,65700,6,6,4,1460,785,1,993,122,33580,0,65700,1448,0,0,0,0
i,0x00000000,1716773227.096471,172.16.3.2,5101,172.16.1.2,58639,10124,14480,0,65728,65700,6,6,4,1460,785,1,992,122,33580,0,65700,0,0,0,0,0
i,0x00000000,1716773227.117027,172.16.3.2,5101,172.16.1.2,58639,10124,14480,0,65728,65700,6,6,4,1460,785,1,992,122,33580,0,65700,0,0,0,0,0
o,0x00000000,1716773227.117036,172.16.3.2,5101,172.16.1.2,58639,10124,14480,0,65728,65700,6,6,4,1460,785,1,993,122,33580,0,65700,1448,0,0,0,0
i,0x00000000,1716773227.127708,172.16.3.2,5101,172.16.1.2,58639,10124,14480,0,65728,65700,6,6,4,1460,785,1,992,122,33580,0,65700,0,0,0,0,0
i,0x00000000,1716773227.136213,172.16.3.2,5101,172.16.1.2,58639,10124,14480,0,65728,65700,6,6,4,1460,785,1,992,122,33580,0,65700,0,0,0,0,0
o,0x00000000,1716773227.136220,172.16.3.2,5101,172.16.1.2,58639,10124,14480,0,65728,65700,6,6,4,1460,785,1,993,122,33580,0,65700,1448,0,0,0,0
i,0x00000000,1716773227.146691,172.16.3.2,5101,172.16.1.2,58639,10124,14480,0,65728,65700,6,6,4,1460,785,1,992,122,33580,0,65700,0,0,0,0,0
i,0x00000000,1716773227.157208,172.16.3.2,5101,172.16.1.2,58639,10124,14480,0,65728,65700,6,6,4,1460,785,1,992,122,33580,0,65700,0,0,0,0,0
o,0x00000000,1716773227.157213,172.16.3.2,5101,172.16.1.2,58639,10124,14480,0,65728,65700,6,6,4,1460,785,1,993,122,33580,0,65700,1448,0,0,0,0
i,0x00000000,1716773227.176467,172.16.3.2,5101,172.16.1.2,58639,10124,14480,0,65728,65700,6,6,4,1460,785,1,992,122,33580,0,65700,0,0,0,0,0
i,0x00000000,1716773227.185933,172.16.3.2,5101,172.16.1.2,58639,10124,14480,0,65728,65700,6,6,4,1460,785,1,992,122,33580,0,65700,0,0,0,0,0
o,0x00000000,1716773227.185940,172.16.3.2,5101,172.16.1.2,58639,10124,14480,0,65728,65700,6,6,4,1460,785,1,993,122,33580,0,65700,1448,0,0,0,0
i,0x00000000,1716773227.196513,172.16.3.2,5101,172.16.1.2,58639,10124,14480,0,65728,65700,6,6,4,1460,785,1,992,122,33580,0,65700,0,0,0,0,0
i,0x00000000,1716773227.206905,172.16.3.2,5101,172.16.1.2,58639,10124,14480,0,65728,65700,6,6,4,1460,785,1,992,122,33580,0,65700,0,0,0,0,0
o,0x00000000,1716773227.206910,172.16.3.2,5101,172.16.1.2,58639,10124,14480,0,65728,65700,6,6,4,1460,785,1,993,122,33580,0,65700,1448,0,0,0,0
i,0x00000000,1716773227.217469,172.16.3.2,5101,172.16.1.2,58639,10124,14480,0,65728,65700,6,6,4,1460,785,1,992,122,33580,0,65700,0,0,0,0,0
i,0x00000000,1716773227.236413,172.16.3.2,5101,172.16.1.2,58639,10124,14480,0,65728,65700,6,6,4,1460,785,1,992,122,33580,0,65700,0,0,0,0,0
o,0x00000000,1716773227.236422,172.16.3.2,5101,172.16.1.2,58639,10124,14480,0,65728,65700,6,6,4,1460,785,1,993,122,33580,0,65700,1448,0,0,0,0
i,0x00000000,1716773227.246824,172.16.3.2,5101,172.16.1.2,58639,10124,14480,0,65728,65700,6,6,4,1460,785,1,992,122,33580,0,65700,0,0,0,0,0
i,0x00000000,1716773227.256466,172.16.3.2,5101,172.16.1.2,58639,10124,14480,0,65728,65700,6,6,4,1460,785,1,992,122,33580,0,65700,0,0,0,0,0
o,0x00000000,1716773227.256472,172.16.3.2,5101,172.16.1.2,58639,10124,14480,0,65728,65700,6,6,4,1460,785,1,993,122,33580,0,65700,1448,0,0,0,0
i,0x00000000,1716773227.266817,172.16.3.2,5101,172.16.1.2,58639,10124,14480,0,65728,65700,6,6,4,1460,785,1,992,122,33580,0,65700,0,0,0,0,0
i,0x00000000,1716773227.276298,172.16.3.2,5101,172.16.1.2,58639,10124,14480,0,65728,65700,6,6,4,1460,785,1,992,122,33580,0,65700,0,0,0,0,0
o,0x00000000,1716773227.276308,172.16.3.2,5101,172.16.1.2,58639,10124,14480,0,65728,65700,6,6,4,1460,785,1,993,122,33580,0,65700,1448,0,0,0,0
i,0x00000000,1716773227.296788,172.16.3.2,5101,172.16.1.2,58639,10124,14480,0,65728,65700,6,6,4,1460,785,1,992,122,33580,0,65700,0,0,0,0,0
i,0x00000000,1716773227.306776,172.16.3.2,5101,172.16.1.2,58639,10124,14480,0,65728,65700,6,6,4,1460,785,1,992,122,33580,0,65700,0,0,0,0,0
o,0x00000000,1716773227.306783,172.16.3.2,5101,172.16.1.2,58639,10124,14480,0,65728,65700,6,6,4,1460,785,1,993,122,33580,0,65700,1448,0,0,0,0
i,0x00000000,1716773227.315904,172.16.3.2,5101,172.16.1.2,58639,10124,14480,0,65728,65700,6,6,4,1460,785,1,992,122,33580,0,65700,0,0,0,0,0
o,0x00000000,1716773227.350110,172.16.3.2,5101,172.16.1.2,58639,10124,14480,0,65728,65700,6,6,4,1460,785,1,993,122,33580,0,65700,0,0,0,0,0
i,0x00000000,1716773227.356590,172.16.3.2,5101,172.16.1.2,58639,10124,14480,0,65728,65700,6,6,4,1460,785,1,992,122,33580,0,65700,0,0,0,0,0
o,0x00000000,1716773227.389960,172.16.3.2,5101,172.16.1.2,58639,10124,14480,0,65728,65700,6,6,4,1460,785,1,993,122,33580,0,65700,0,0,0,0,0
i,0x00000000,1716773227.437489,172.16.3.2,5101,172.16.1.2,58639,10124,14480,0,65728,65700,6,6,4,1460,785,1,992,122,33580,0,65700,0,0,0,0,0
o,0x00000000,1716773227.469903,172.16.3.2,5101,172.16.1.2,58639,10124,14480,0,65728,65700,6,6,4,1460,785,1,993,122,33580,0,65700,0,0,0,0,0
o,0x00000000,1716773227.479795,10.0.2.15,22,10.0.2.2,60131,1073725440,14600,0,65535,65700,0,0,4,1460,1,0,4,24,33580,108,65700,0,0,0,0,0
i,0x00000000,1716773227.480511,10.0.2.15,22,10.0.2.2,60131,1073725440,14600,0,65535,65700,0,0,4,1460,1,0,4,24,33580,108,65700,0,108,0,0,0
i,0x00000000,1716773227.527825,172.16.3.2,5101,172.16.1.2,58639,10124,14480,0,65728,65700,6,6,4,1460,785,1,992,122,33580,0,65700,0,0,0,0,0
o,0x00000000,1716773227.559684,172.16.3.2,5101,172.16.1.2,58639,10124,14480,0,65728,65700,6,6,4,1460,785,1,993,122,33580,0,65700,0,0,0,0,0
i,0x00000000,1716773227.787340,172.16.3.2,5101,172.16.1.2,58639,10124,14480,0,65728,65700,6,6,4,1460,785,1,992,122,33580,0,65700,0,0,0,0,0
i,0x00000000,1716773227.797215,172.16.3.2,5101,172.16.1.2,58639,10124,14480,0,65728,65700,6,6,4,1460,785,1,992,122,33580,0,65700,0,0,0,0,0
o,0x00000000,1716773227.797227,172.16.3.2,5101,172.16.1.2,58639,10124,14480,0,65728,65700,6,6,4,1460,785,1,993,122,33580,0,65700,1448,0,0,0,0
i,0x00000000,1716773227.807185,172.16.3.2,5101,172.16.1.2,58639,10124,14480,0,65728,65700,6,6,4,1460,785,1,992,122,33580,0,65700,0,0,0,0,0
i,0x00000000,1716773227.827062,172.16.3.2,5101,172.16.1.2,58639,10124,14480,0,65728,65700,6,6,4,1460,785,1,992,122,33580,0,65700,0,0,0,0,0
o,0x00000000,1716773227.827070,172.16.3.2,5101,172.16.1.2,58639,10124,14480,0,65728,65700,6,6,4,1460,785,1,993,122,33580,0,65700,1448,0,0,0,0
i,0x00000000,1716773227.837700,172.16.3.2,5101,172.16.1.2,58639,10124,14480,0,65728,65700,6,6,4,1460,785,1,992,122,33580,0,65700,0,0,0,0,0
i,0x00000000,1716773227.846997,172.16.3.2,5101,172.16.1.2,58639,10124,14480,0,65728,65700,6,6,4,1460,785,1,992,122,33580,0,65700,0,0,0,0,0
o,0x00000000,1716773227.847005,172.16.3.2,5101,172.16.1.2,58639,10124,14480,0,65728,65700,6,6,4,1460,785,1,993,122,33580,0,65700,1448,0,0,0,0
i,0x00000000,1716773227.857935,172.16.3.2,5101,172.16.1.2,58639,10124,14480,0,65728,65700,6,6,4,1460,785,1,992,122,33580,0,65700,0,0,0,0,0
i,0x00000000,1716773227.877046,172.16.3.2,5101,172.16.1.2,58639,10124,14480,0,65728,65700,6,6,4,1460,785,1,992,122,33580,0,65700,0,0,0,0,0
o,0x00000000,1716773227.877068,172.16.3.2,5101,172.16.1.2,58639,10124,14480,0,65728,65700,6,6,4,1460,785,1,993,122,33580,0,65700,1448,0,0,0,0
i,0x00000000,1716773227.886895,172.16.3.2,5101,172.16.1.2,58639,10124,14480,0,65728,65700,6,6,4,1460,785,1,992,122,33580,0,65700,0,0,0,0,0
i,0x00000000,1716773227.897266,172.16.3.2,5101,172.16.1.2,58639,10124,14480,0,65728,65700,6,6,4,1460,785,1,992,122,33580,0,65700,0,0,0,0,0
o,0x00000000,1716773227.897290,172.16.3.2,5101,172.16.1.2,58639,10124,14480,0,65728,65700,6,6,4,1460,785,1,993,122,33580,0,65700,1448,0,0,0,0
i,0x00000000,1716773227.907111,172.16.3.2,5101,172.16.1.2,58639,10124,14480,0,65728,65700,6,6,4,1460,785,1,992,122,33580,0,65700,0,0,0,0,0
i,0x00000000,1716773227.917849,172.16.3.2,5101,172.16.1.2,58639,10124,14480,0,65728,65700,6,6,4,1460,785,1,992,122,33580,0,65700,0,0,0,0,0
o,0x00000000,1716773227.917856,172.16.3.2,5101,172.16.1.2,58639,10124,14480,0,65728,65700,6,6,4,1460,785,1,993,122,33580,0,65700,1448,0,0,0,0
i,0x00000000,1716773227.937846,172.16.3.2,5101,172.16.1.2,58639,10124,14480,0,65728,65700,6,6,4,1460,785,1,992,122,33580,0,65700,0,0,0,0,0
i,0x00000000,1716773227.947101,172.16.3.2,5101,172.16.1.2,58639,10124,14480,0,65728,65700,6,6,4,1460,785,1,992,122,33580,0,65700,0,0,0,0,0
o,0x00000000,1716773227.947109,172.16.3.2,5101,172.16.1.2,58639,10124,14480,0,65728,65700,6,6,4,1460,785,1,993,122,33580,0,65700,1448,0,0,0,0
i,0x00000000,1716773227.957747,172.16.3.2,5101,172.16.1.2,58639,10124,14480,0,65728,65700,6,6,4,1460,785,1,992,122,33580,0,65700,0,0,0,0,0
i,0x00000000,1716773227.968075,172.16.3.2,5101,172.16.1.2,58639,10124,14480,0,65728,65700,6,6,4,1460,785,1,992,122,33580,0,65700,0,0,0,0,0
o,0x00000000,1716773227.968083,172.16.3.2,5101,172.16.1.2,58639,10124,14480,0,65728,65700,6,6,4,1460,785,1,993,122,33580,0,65700,1448,0,0,0,0
i,0x00000000,1716773227.977471,172.16.3.2,5101,172.16.1.2,58639,10124,14480,0,65728,65700,6,6,4,1460,785,1,992,122,33580,0,65700,0,0,0,0,0
i,0x00000000,1716773227.997307,172.16.3.2,5101,172.16.1.2,58639,10124,14480,0,65728,65700,6,6,4,1460,785,1,992,122,33580,0,65700,0,0,0,0,0
o,0x00000000,1716773227.997316,172.16.3.2,5101,172.16.1.2,58639,10124,14480,0,65728,65700,6,6,4,1460,785,1,993,122,33580,0,65700,1448,0,0,0,0
i,0x00000000,1716773228.007104,172.16.3.2,5101,172.16.1.2,58639,10124,14480,0,65728,65700,6,6,4,1460,785,1,992,122,33580,0,65700,0,0,0,0,0
i,0x00000000,1716773228.017336,172.16.3.2,5101,172.16.1.2,58639,10124,14480,0,65728,65700,6,6,4,1460,785,1,992,122,33580,0,65700,0,0,0,0,0
o,0x00000000,1716773228.017342,172.16.3.2,5101,172.16.1.2,58639,10124,14480,0,65728,65700,6,6,4,1460,785,1,993,122,33580,0,65700,1448,0,0,0,0
i,0x00000000,1716773228.027282,172.16.3.2,5101,172.16.1.2,58639,10124,14480,0,65728,65700,6,6,4,1460,785,1,992,122,33580,0,65700,0,0,0,0,0
i,0x00000000,1716773228.037977,172.16.3.2,5101,172.16.1.2,58639,10124,14480,0,65728,65700,6,6,4,1460,785,1,992,122,33580,0,65700,0,0,0,0,0
o,0x00000000,1716773228.037988,172.16.3.2,5101,172.16.1.2,58639,10124,14480,0,65728,65700,6,6,4,1460,785,1,993,122,33580,0,65700,1448,0,0,0,0
i,0x00000000,1716773228.057123,172.16.3.2,5101,172.16.1.2,58639,10124,14480,0,65728,65700,6,6,4,1460,785,1,992,122,33580,0,65700,0,0,0,0,0
i,0x00000000,1716773228.067416,172.16.3.2,5101,172.16.1.2,58639,10124,14480,0,65728,65700,6,6,4,1460,785,1,992,122,33580,0,65700,0,0,0,0,0
o,0x00000000,1716773228.067425,172.16.3.2,5101,172.16.1.2,58639,10124,14480,0,65728,65700,6,6,4,1460,785,1,993,122,33580,0,65700,1448,0,0,0,0
i,0x00000000,1716773228.076772,172.16.3.2,5101,172.16.1.2,58639,10124,14480,0,65728,65700,6,6,4,1460,785,1,992,122,33580,0,65700,0,0,0,0,0
i,0x00000000,1716773228.087271,172.16.3.2,5101,172.16.1.2,58639,10124,14480,0,65728,65700,6,6,4,1460,785,1,992,122,33580,0,65700,0,0,0,0,0
o,0x00000000,1716773228.087280,172.16.3.2,5101,172.16.1.2,58639,10124,14480,0,65728,65700,6,6,4,1460,785,1,993,122,33580,0,65700,1448,0,0,0,0
i,0x00000000,1716773228.097403,172.16.3.2,5101,172.16.1.2,58639,10124,14480,0,65728,65700,6,6,4,1460,785,1,992,122,33580,0,65700,0,0,0,0,0
i,0x00000000,1716773228.117828,172.16.3.2,5101,172.16.1.2,58639,10124,14480,0,65728,65700,6,6,4,1460,785,1,992,122,33580,0,65700,0,0,0,0,0
o,0x00000000,1716773228.117838,172.16.3.2,5101,172.16.1.2,58639,10124,14480,0,65728,65700,6,6,4,1460,785,1,993,122,33580,0,65700,1448,0,0,0,0
i,0x00000000,1716773228.127214,172.16.3.2,5101,172.16.1.2,58639,10124,14480,0,65728,65700,6,6,4,1460,785,1,992,122,33580,0,65700,0,0,0,0,0
i,0x00000000,1716773228.137537,172.16.3.2,5101,172.16.1.2,58639,10124,14480,0,65728,65700,6,6,4,1460,785,1,992,122,33580,0,65700,0,0,0,0,0
o,0x00000000,1716773228.137543,172.16.3.2,5101,172.16.1.2,58639,10124,14480,0,65728,65700,6,6,4,1460,785,1,993,122,33580,0,65700,1448,0,0,0,0
i,0x00000000,1716773228.148126,172.16.3.2,5101,172.16.1.2,58639,10124,14480,0,65728,65700,6,6,4,1460,785,1,992,122,33580,0,65700,0,0,0,0,0
o,0x00000000,1716773228.179903,172.16.3.2,5101,172.16.1.2,58639,10124,14480,0,65728,65700,6,6,4,1460,785,1,993,122,33580,0,65700,0,0,0,0,0
i,0x00000000,1716773228.197570,172.16.3.2,5101,172.16.1.2,58639,10124,14480,0,65728,65700,6,6,4,1460,785,1,992,122,33580,0,65700,0,0,0,0,0
o,0x00000000,1716773228.230431,172.16.3.2,5101,172.16.1.2,58639,10124,14480,0,65728,65700,6,6,4,1460,785,1,993,122,33580,0,65700,0,0,0,0,0
i,0x00000000,1716773228.288859,172.16.3.2,5101,172.16.1.2,58639,10124,14480,0,65728,65700,6,6,4,1460,785,1,992,122,33580,0,65700,0,0,0,0,0
o,0x00000000,1716773228.329979,172.16.3.2,5101,172.16.1.2,58639,10124,14480,0,65728,65700,6,6,4,1460,785,1,993,122,33580,0,65700,0,0,0,0,0
o,0x00000000,1716773228.480302,10.0.2.15,22,10.0.2.2,60131,1073725440,14600,0,65535,65700,0,0,4,1460,1,0,4,24,33580,108,65700,0,0,0,0,0
i,0x00000000,1716773228.481064,10.0.2.15,22,10.0.2.2,60131,1073725440,14600,0,65535,65700,0,0,4,1460,1,0,4,24,33580,108,65700,0,108,0,0,0
i,0x00000000,1716773228.618492,172.16.3.2,5101,172.16.1.2,58639,10124,14480,0,65728,65700,6,6,4,1460,785,1,992,122,33580,0,65700,0,0,0,0,0
i,0x00000000,1716773228.627919,172.16.3.2,5101,172.16.1.2,58639,10124,14480,0,65728,65700,6,6,4,1460,785,1,992,122,33580,0,65700,0,0,0,0,0
o,0x00000000,1716773228.627931,172.16.3.2,5101,172.16.1.2,58639,10124,14480,0,65728,65700,6,6,4,1460,785,1,993,122,33580,0,65700,1448,0,0,0,0
i,0x00000000,1716773228.647856,172.16.3.2,5101,172.16.1.2,58639,10124,14480,0,65728,65700,6,6,4,1460,785,1,992,122,33580,0,65700,0,0,0,0,0
i,0x00000000,1716773228.657267,172.16.3.2,5101,172.16.1.2,58639,10124,14480,0,65728,65700,6,6,4,1460,785,1,992,122,33580,0,65700,0,0,0,0,0
o,0x00000000,1716773228.657282,172.16.3.2,5101,172.16.1.2,58639,10124,14480,0,65728,65700,6,6,4,1460,785,1,993,122,33580,0,65700,1448,0,0,0,0
i,0x00000000,1716773228.667690,172.16.3.2,5101,172.16.1.2,58639,10124,14480,0,65728,65700,6,6,4,1460,785,1,992,122,33580,0,65700,0,0,0,0,0
i,0x00000000,1716773228.678047,172.16.3.2,5101,172.16.1.2,58639,10124,14480,0,65728,65700,6,6,4,1460,785,1,992,122,33580,0,65700,0,0,0,0,0
o,0x00000000,1716773228.678061,172.16.3.2,5101,172.16.1.2,58639,10124,14480,0,65728,65700,6,6,4,1460,785,1,993,122,33580,0,65700,1448,0,0,0,0
i,0x00000000,1716773228.687636,172.16.3.2,5101,172.16.1.2,58639,10124,14480,0,65728,65700,6,6,4,1460,785,1,992,122,33580,0,65700,0,0,0,0,0
i,0x00000000,1716773228.707624,172.16.3.2,5101,172.16.1.2,58639,10124,14480,0,65728,65700,6,6,4,1460,785,1,992,122,33580,0,65700,0,0,0,0,0
o,0x00000000,1716773228.707636,172.16.3.2,5101,172.16.1.2,58639,10124,14480,0,65728,65700,6,6,4,1460,785,1,993,122,33580,0,65700,1448,0,0,0,0
i,0x00000000,1716773228.718039,172.16.3.2,5101,172.16.1.2,58639,10124,14480,0,65728,65700,6,6,4,1460,785,1,992,122,33580,0,65700,0,0,0,0,0
i,0x00000000,1716773228.728076,172.16.3.2,5101,172.16.1.2,58639,10124,14480,0,65728,65700,6,6,4,1460,785,1,992,122,33580,0,65700,0,0,0,0,0
o,0x00000000,1716773228.728083,172.16.3.2,5101,172.16.1.2,58639,10124,14480,0,65728,65700,6,6,4,1460,785,1,993,122,33580,0,65700,1448,0,0,0,0
i,0x00000000,1716773228.738344,172.16.3.2,5101,172.16.1.2,58639,10124,14480,0,65728,65700,6,6,4,1460,785,1,992,122,33580,0,65700,0,0,0,0,0
i,0x00000000,1716773228.748860,172.16.3.2,5101,172.16.1.2,58639,10124,14480,0,65728,65700,6,6,4,1460,785,1,992,122,33580,0,65700,0,0,0,0,0
o,0x00000000,1716773228.748866,172.16.3.2,5101,172.16.1.2,58639,10124,14480,0,65728,65700,6,6,4,1460,785,1,993,122,33580,0,65700,1448,0,0,0,0
i,0x00000000,1716773228.768024,172.16.3.2,5101,172.16.1.2,58639,10124,14480,0,65728,65700,6,6,4,1460,785,1,992,122,33580,0,65700,0,0,0,0,0
i,0x00000000,1716773228.777192,172.16.3.2,5101,172.16.1.2,58639,10124,14480,0,65728,65700,6,6,4,1460,785,1,992,122,33580,0,65700,0,0,0,0,0
o,0x00000000,1716773228.777197,172.16.3.2,5101,172.16.1.2,58639,10124,14480,0,65728,65700,6,6,4,1460,785,1,993,122,33580,0,65700,1448,0,0,0,0
i,0x00000000,1716773228.787374,172.16.3.2,5101,172.16.1.2,58639,10124,14480,0,65728,65700,6,6,4,1460,785,1,992,122,33580,0,65700,0,0,0,0,0
i,0x00000000,1716773228.798358,172.16.3.2,5101,172.16.1.2,58639,10124,14480,0,65728,65700,6,6,4,1460,785,1,992,122,33580,0,65700,0,0,0,0,0
o,0x00000000,1716773228.798363,172.16.3.2,5101,172.16.1.2,58639,10124,14480,0,65728,65700,6,6,4,1460,785,1,993,122,33580,0,65700,1448,0,0,0,0
i,0x00000000,1716773228.808332,172.16.3.2,5101,172.16.1.2,58639,10124,14480,0,65728,65700,6,6,4,1460,785,1,992,122,33580,0,65700,0,0,0,0,0
i,0x00000000,1716773228.827176,172.16.3.2,5101,172.16.1.2,58639,10124,14480,0,65728,65700,6,6,4,1460,785,1,992,122,33580,0,65700,0,0,0,0,0
o,0x00000000,1716773228.827183,172.16.3.2,5101,172.16.1.2,58639,10124,14480,0,65728,65700,6,6,4,1460,785,1,993,122,33580,0,65700,1448,0,0,0,0
i,0x00000000,1716773228.838787,172.16.3.2,5101,172.16.1.2,58639,10124,14480,0,65728,65700,6,6,4,1460,785,1,992,122,33580,0,65700,0,0,0,0,0
i,0x00000000,1716773228.848001,172.16.3.2,5101,172.16.1.2,58639,10124,14480,0,65728,65700,6,6,4,1460,785,1,992,122,33580,0,65700,0,0,0,0,0
o,0x00000000,1716773228.848011,172.16.3.2,5101,172.16.1.2,58639,10124,14480,0,65728,65700,6,6,4,1460,785,1,993,122,33580,0,65700,1448,0,0,0,0
i,0x00000000,1716773228.857467,172.16.3.2,5101,172.16.1.2,58639,10124,14480,0,65728,65700,6,6,4,1460,785,1,992,122,33580,0,65700,0,0,0,0,0
i,0x00000000,1716773228.867851,172.16.3.2,5101,172.16.1.2,58639,10124,14480,0,65728,65700,6,6,4,1460,785,1,992,122,33580,0,65700,0,0,0,0,0
o,0x00000000,1716773228.867866,172.16.3.2,5101,172.16.1.2,58639,10124,14480,0,65728,65700,6,6,4,1460,785,1,993,122,33580,0,65700,1448,0,0,0,0
i,0x00000000,1716773228.887817,172.16.3.2,5101,172.16.1.2,58639,10124,14480,0,65728,65700,6,6,4,1460,785,1,992,122,33580,0,65700,0,0,0,0,0
i,0x00000000,1716773228.898226,172.16.3.2,5101,172.16.1.2,58639,10124,14480,0,65728,65700,6,6,4,1460,785,1,992,122,33580,0,65700,0,0,0,0,0
o,0x00000000,1716773228.898240,172.16.3.2,5101,172.16.1.2,58639,10124,14480,0,65728,65700,6,6,4,1460,785,1,993,122,33580,0,65700,1448,0,0,0,0
i,0x00000000,1716773228.908849,172.16.3.2,5101,172.16.1.2,58639,10124,14480,0,65728,65700,6,6,4,1460,785,1,992,122,33580,0,65700,0,0,0,0,0
i,0x00000000,1716773228.918238,172.16.3.2,5101,172.16.1.2,58639,10124,14480,0,65728,65700,6,6,4,1460,785,1,992,122,33580,0,65700,0,0,0,0,0
o,0x00000000,1716773228.918246,172.16.3.2,5101,172.16.1.2,58639,10124,14480,0,65728,65700,6,6,4,1460,785,1,993,122,33580,0,65700,1448,0,0,0,0
i,0x00000000,1716773228.928697,172.16.3.2,5101,172.16.1.2,58639,10124,14480,0,65728,65700,6,6,4,1460,785,1,992,122,33580,0,65700,0,0,0,0,0
i,0x00000000,1716773228.947630,172.16.3.2,5101,172.16.1.2,58639,10124,14480,0,65728,65700,6,6,4,1460,785,1,992,122,33580,0,65700,0,0,0,0,0
o,0x00000000,1716773228.947637,172.16.3.2,5101,172.16.1.2,58639,10124,14480,0,65728,65700,6,6,4,1460,785,1,993,122,33580,0,65700,1448,0,0,0,0
i,0x00000000,1716773228.957696,172.16.3.2,5101,172.16.1.2,58639,10124,14480,0,65728,65700,6,6,4,1460,785,1,992,122,33580,0,65700,0,0,0,0,0
i,0x00000000,1716773228.968007,172.16.3.2,5101,172.16.1.2,58639,10124,14480,0,65728,65700,6,6,4,1460,785,1,992,122,33580,0,65700,0,0,0,0,0
