enable_time_secs=1716772063	enable_time_usecs=379094	siftrver=1.2.4	hz=100	tcp_rtt_scale=32	sysname=FreeBSD	sysver=1301000	ipmode=4
o,0x00000000,1716772063.379126,10.0.2.15,22,10.0.2.2,53466,1073725440,17298,0,65535,65700,0,0,4,1460,1,0,4,23,33580,44,65700,0,0,0,0,0
o,0x00000000,1716772063.379225,10.0.2.15,22,10.0.2.2,53466,1073725440,17298,0,65535,65700,0,0,4,1460,1,0,4,23,33580,80,65700,0,44,0,0,0
i,0x00000000,1716772063.379874,10.0.2.15,22,10.0.2.2,53466,1073725440,17298,0,65535,65700,0,0,4,1460,1,0,4,23,33580,80,65700,0,80,0,0,0
i,0x00000000,1716772063.379877,10.0.2.15,22,10.0.2.2,53466,1073725440,17342,0,65535,65700,0,0,4,1460,1,0,4,23,33580,36,65700,0,36,0,0,0
o,0x00000000,1716772063.379980,10.0.2.15,22,10.0.2.2,53466,1073725440,17378,0,65535,65700,0,0,4,1460,1,0,4,23,33580,36,65700,0,0,0,0,0
i,0x00000000,1716772063.380642,10.0.2.15,22,10.0.2.2,53466,1073725440,17378,0,65535,65700,0,0,4,1460,1,0,4,23,33580,36,65700,0,36,0,0,0
o,0x00000000,1716772063.380728,10.0.2.15,22,10.0.2.2,53466,1073725440,17414,0,65535,65700,0,0,4,1460,1,0,4,23,33580,176,65700,0,0,0,0,0
i,0x00000000,1716772063.381386,10.0.2.15,22,10.0.2.2,53466,1073725440,17414,0,65535,65700,0,0,4,1460,1,0,4,23,33580,176,65700,0,176,0,0,0
i,0x00000000,1716772063.383567,10.0.2.15,22,10.0.2.2,53466,1073725440,17590,0,65535,65700,0,0,4,1460,1,0,4,23,33580,0,65700,0,0,0,0,0
i,0x00000000,1716772063.383571,10.0.2.15,22,10.0.2.2,53466,1073725440,17590,0,65535,65700,0,0,4,1460,1,0,4,23,33580,0,65700,96,0,0,0,0
o,0x00000000,1716772063.383574,10.0.2.15,22,10.0.2.2,53466,1073725440,17590,0,65535,65604,0,0,5,1460,1,0,5,23,33580,0,65700,96,0,0,0,0
o,0x00000000,1716772063.383931,10.0.2.15,22,10.0.2.2,53466,1073725440,17590,0,65535,65604,0,0,8,1460,1,0,4,23,33580,0,65700,0,0,0,0,0
i,0x00000000,1716772063.384911,10.0.2.15,22,10.0.2.2,53466,1073725440,17590,0,65535,65604,0,0,8,1460,1,0,20,23,33580,0,65700,0,1,0,0,0
i,0x00000000,1716772064.702749,172.16.3.2,5101,172.16.1.2,36962,10499,14480,0,65728,65700,6,6,4,1460,785,1,992,118,33580,0,65700,0,0,0,0,0
o,0x00000000,1716772064.702955,172.16.3.2,5101,172.16.1.2,36962,10499,14480,0,65728,65700,6,6,4,1460,785,1,996,118,33580,1,65700,0,0,0,0,0
i,0x00000000,1716772064.821233,172.16.3.2,5101,172.16.1.2,36962,10499,14480,0,65728,65700,6,6,4,1460,785,1,996,118,33580,1,65700,0,1,0,0,0
i,0x00000000,1716772064.821250,172.16.3.2,5101,172.16.1.2,36962,10499,14480,0,65728,65728,6,6,4,1460,735,1,996,111,33580,0,65700,4,0,0,0,0
o,0x00000000,1716772064.821258,172.16.3.2,5101,172.16.1.2,36962,10499,14480,0,65728,65728,6,6,4,1460,735,1,997,111,33580,0,65700,128,0,0,0,0
o,0x00000000,1716772064.821683,172.16.3.2,5101,172.16.1.2,36962,10499,14480,0,65728,65728,6,6,4,1460,735,1,996,111,33580,1,65700,0,0,0,0,0
o,0x00000000,1716772064.821836,10.0.2.15,22,10.0.2.2,60131,1073725440,14600,0,65535,65700,0,0,4,1460,1,0,4,24,33580,84,65700,0,0,0,0,0
i,0x00000000,1716772064.822585,10.0.2.15,22,10.0.2.2,60131,1073725440,14600,0,65535,65700,0,0,4,1460,1,0,4,24,33580,84,65700,0,84,0,0,0
i,0x00000000,1716772064.971822,172.16.3.2,5101,172.16.1.2,36962,10499,14480,0,65728,65728,6,6,4,1460,735,1,996,111,33580,1,65700,0,1,0,0,0
i,0x00000000,1716772065.061904,172.16.3.2,5101,172.16.1.2,61390,10499,14480,0,65728,65700,6,6,4,1460,785,1,992,118,33580,0,65700,0,0,0,0,0
o,0x00000000,1716772065.063573,172.16.3.2,5101,172.16.1.2,36962,10499,14480,0,65728,65728,6,6,4,1460,704,1,996,101,33580,1,65700,0,0,0,0,0
o,0x00000000,1716772065.063672,172.16.3.2,5101,172.16.1.2,36962,10499,14480,0,65728,65728,6,6,4,1460,704,1,996,101,33580,2,65700,0,1,0,0,0
o,0x00000000,1716772065.064060,10.0.2.15,22,10.0.2.2,60131,1073725440,14600,0,65535,65700,0,0,4,1460,1,0,4,24,33580,108,65700,0,0,0,0,0
i,0x00000000,1716772065.064748,10.0.2.15,22,10.0.2.2,60131,1073725440,14600,0,65535,65700,0,0,4,1460,1,0,4,24,33580,108,65700,0,108,0,0,0
o,0x00000000,1716772065.099876,172.16.3.2,5101,172.16.1.2,61390,10499,14480,0,65728,65700,6,6,4,1460,785,1,993,118,33580,0,65700,0,0,0,0,0
i,0x00000000,1716772065.252044,172.16.3.2,5101,172.16.1.2,36962,10499,14480,0,65728,65728,6,6,4,1460,704,1,996,101,33580,2,65700,0,2,0,0,0
i,0x00000000,1716772065.282096,172.16.3.2,5101,172.16.1.2,61390,10499,14480,0,65728,65700,6,6,4,1460,785,1,992,118,33580,0,65700,0,0,0,0,0
i,0x00000000,1716772065.291505,172.16.3.2,5101,172.16.1.2,61390,10499,14480,0,65728,65700,6,6,4,1460,785,1,992,118,33580,0,65700,0,0,0,0,0
o,0x00000000,1716772065.291517,172.16.3.2,5101,172.16.1.2,61390,10499,14480,0,65728,65700,6,6,4,1460,785,1,993,118,33580,0,65700,1448,0,0,0,0
i,0x00000000,1716772065.301924,172.16.3.2,5101,172.16.1.2,61390,10499,14480,0,65728,65700,6,6,4,1460,785,1,992,118,33580,0,65700,0,0,0,0,0
i,0x00000000,1716772065.312410,172.16.3.2,5101,172.16.1.2,61390,10499,14480,0,65728,65700,6,6,4,1460,785,1,992,118,33580,0,65700,0,0,0,0,0
o,0x00000000,1716772065.312428,172.16.3.2,5101,172.16.1.2,61390,10499,14480,0,65728,65700,6,6,4,1460,785,1,993,118,33580,0,65700,1448,0,0,0,0
i,0x00000000,1716772065.332316,172.16.3.2,5101,172.16.1.2,61390,10499,14480,0,65728,65700,6,6,4,1460,785,1,992,118,33580,0,65700,0,0,0,0,0
i,0x00000000,1716772065.341488,172.16.3.2,5101,172.16.1.2,61390,10499,14480,0,65728,65700,6,6,4,1460,785,1,992,118,33580,0,65700,0,0,0,0,0
o,0x00000000,1716772065.341506,172.16.3.2,5101,172.16.1.2,61390,10499,14480,0,65728,65700,6,6,4,1460,785,1,993,118,33580,0,65700,1448,0,0,0,0
i,0x00000000,1716772065.351963,172.16.3.2,5101,172.16.1.2,61390,10499,14480,0,65728,65700,6,6,4,1460,785,1,992,118,33580,0,65700,0,0,0,0,0
i,0x00000000,1716772065.361721,172.16.3.2,5101,172.16.1.2,61390,10499,14480,0,65728,65700,6,6,4,1460,785,1,992,118,33580,0,65700,0,0,0,0,0
o,0x00000000,1716772065.361728,172.16.3.2,5101,172.16.1.2,61390,10499,14480,0,65728,65700,6,6,4,1460,785,1,993,118,33580,0,65700,1448,0,0,0,0
i,0x00000000,1716772065.371707,172.16.3.2,5101,172.16.1.2,61390,10499,14480,0,65728,65700,6,6,4,1460,785,1,992,118,33580,0,65700,0,0,0,0,0
i,0x00000000,1716772065.390865,172.16.3.2,5101,172.16.1.2,61390,10499,14480,0,65728,65700,6,6,4,1460,785,1,992,118,33580,0,65700,0,0,0,0,0
o,0x00000000,1716772065.390882,172.16.3.2,5101,172.16.1.2,61390,10499,14480,0,65728,65700,6,6,4,1460,785,1,993,118,33580,0,65700,1448,0,0,0,0
i,0x00000000,1716772065.702630,172.16.3.2,5101,172.16.1.2,61390,10499,14480,0,65728,65700,6,6,4,1460,785,1,992,118,33580,0,65700,0,0,0,0,0
i,0x00000000,1716772065.712741,172.16.3.2,5101,172.16.1.2,61390,10499,14480,0,65728,65700,6,6,4,1460,785,1,992,118,33580,0,65700,0,0,0,0,0
o,0x00000000,1716772065.712753,172.16.3.2,5101,172.16.1.2,61390,10499,14480,0,65728,65700,6,6,4,1460,785,1,993,118,33580,0,65700,1448,0,0,0,0
i,0x00000000,1716772065.721778,172.16.3.2,5101,172.16.1.2,61390,10499,14480,0,65728,65700,6,6,4,1460,785,1,992,118,33580,0,65700,0,0,0,0,0
i,0x00000000,1716772065.731115,172.16.3.2,5101,172.16.1.2,61390,10499,14480,0,65728,65700,6,6,4,1460,785,1,992,118,33580,0,65700,0,0,0,0,0
o,0x00000000,1716772065.731125,172.16.3.2,5101,172.16.1.2,61390,10499,14480,0,65728,65700,6,6,4,1460,785,1,993,118,33580,0,65700,1448,0,0,0,0
i,0x00000000,1716772065.752749,172.16.3.2,5101,172.16.1.2,61390,10499,14480,0,65728,65700,6,6,4,1460,785,1,992,118,33580,0,65700,0,0,0,0,0
i,0x00000000,1716772065.762093,172.16.3.2,5101,172.16.1.2,61390,10499,14480,0,65728,65700,6,6,4,1460,785,1,992,118,33580,0,65700,0,0,0,0,0
o,0x00000000,1716772065.762103,172.16.3.2,5101,172.16.1.2,61390,10499,14480,0,65728,65700,6,6,4,1460,785,1,993,118,33580,0,65700,1448,0,0,0,0
i,0x00000000,1716772065.772324,172.16.3.2,5101,172.16.1.2,61390,10499,14480,0,65728,65700,6,6,4,1460,785,1,992,118,33580,0,65700,0,0,0,0,0
i,0x00000000,1716772065.781833,172.16.3.2,5101,172.16.1.2,61390,10499,14480,0,65728,65700,6,6,4,1460,785,1,992,118,33580,0,65700,0,0,0,0,0
o,0x00000000,1716772065.781838,172.16.3.2,5101,172.16.1.2,61390,10499,14480,0,65728,65700,6,6,4,1460,785,1,993,118,33580,0,65700,1448,0,0,0,0
i,0x00000000,1716772065.792165,172.16.3.2,5101,172.16.1.2,61390,10499,14480,0,65728,65700,6,6,4,1460,785,1,992,118,33580,0,65700,0,0,0,0,0
i,0x00000000,1716772065.812156,172.16.3.2,5101,172.16.1.2,61390,10499,14480,0,65728,65700,6,6,4,1460,785,1,992,118,33580,0,65700,0,0,0,0,0
o,0x00000000,1716772065.812167,172.16.3.2,5101,172.16.1.2,61390,10499,14480,0,65728,65700,6,6,4,1460,785,1,993,118,33580,0,65700,1448,0,0,0,0
i,0x00000000,1716772065.822646,172.16.3.2,5101,172.16.1.2,61390,10499,14480,0,65728,65700,6,6,4,1460,785,1,992,118,33580,0,65700,0,0,0,0,0
i,0x00000000,1716772065.831953,172.16.3.2,5101,172.16.1.2,61390,10499,14480,0,65728,65700,6,6,4,1460,785,1,992,118,33580,0,65700,0,0,0,0,0
o,0x00000000,1716772065.831962,172.16.3.2,5101,172.16.1.2,61390,10499,14480,0,65728,65700,6,6,4,1460,785,1,993,118,33580,0,65700,1448,0,0,0,0
i,0x00000000,1716772065.842332,172.16.3.2,5101,172.16.1.2,61390,10499,14480,0,65728,65700,6,6,4,1460,785,1,992,118,33580,0,65700,0,0,0,0,0
i,0x00000000,1716772065.852010,172.16.3.2,5101,172.16.1.2,61390,10499,14480,0,65728,65700,6,6,4,1460,785,1,992,118,33580,0,65700,0,0,0,0,0
o,0x00000000,1716772065.852019,172.16.3.2,5101,172.16.1.2,61390,10499,14480,0,65728,65700,6,6,4,1460,785,1,993,118,33580,0,65700,1448,0,0,0,0
i,0x00000000,1716772065.871818,172.16.3.2,5101,172.16.1.2,61390,10499,14480,0,65728,65700,6,6,4,1460,785,1,992,118,33580,0,65700,0,0,0,0,0
i,0x00000000,1716772065.882212,172.16.3.2,5101,172.16.1.2,61390,10499,14480,0,65728,65700,6,6,4,1460,785,1,992,118,33580,0,65700,0,0,0,0,0
o,0x00000000,1716772065.882218,172.16.3.2,5101,172.16.1.2,61390,10499,14480,0,65728,65700,6,6,4,1460,785,1,993,118,33580,0,65700,1448,0,0,0,0
i,0x00000000,1716772065.892583,172.16.3.2,5101,172.16.1.2,61390,10499,14480,0,65728,65700,6,6,4,1460,785,1,992,118,33580,0,65700,0,0,0,0,0
i,0x00000000,1716772065.902378,172.16.3.2,5101,172.16.1.2,61390,10499,14480,0,65728,65700,6,6,4,1460,785,1,992,118,33580,0,65700,0,0,0,0,0
o,0x00000000,1716772065.902397,172.16.3.2,5101,172.16.1.2,61390,10499,14480,0,65728,65700,6,6,4,1460,785,1,993,118,33580,0,65700,1448,0,0,0,0
i,0x00000000,1716772065.912325,172.16.3.2,5101,172.16.1.2,61390,10499,14480,0,65728,65700,6,6,4,1460,785,1,992,118,33580,0,65700,0,0,0,0,0
i,0x00000000,1716772065.932912,172.16.3.2,5101,172.16.1.2,61390,10499,14480,0,65728,65700,6,6,4,1460,785,1,992,118,33580,0,65700,0,0,0,0,0
o,0x00000000,1716772065.932920,172.16.3.2,5101,172.16.1.2,61390,10499,14480,0,65728,65700,6,6,4,1460,785,1,993,118,33580,0,65700,1448,0,0,0,0
o,0x00000000,1716772066.069028,10.0.2.15,22,10.0.2.2,60131,1073725440,14600,0,65535,65700,0,0,4,1460,1,0,4,24,33580,156,65700,0,0,0,0,0
i,0x00000000,1716772066.070012,10.0.2.15,22,10.0.2.2,60131,1073725440,14600,0,65535,65700,0,0,4,1460,1,0,4,24,33580,156,65700,0,156,0,0,0
i,0x00000000,1716772066.313075,172.16.3.2,5101,172.16.1.2,61390,10499,14480,0,65728,65700,6,6,4,1460,785,1,992,118,33580,0,65700,0,0,0,0,0
i,0x00000000,1716772066.322575,172.16.3.2,5101,172.16.1.2,61390,10499,14480,0,65728,65700,6,6,4,1460,785,1,992,118,33580,0,65700,0,0,0,0,0
o,0x00000000,1716772066.322597,172.16.3.2,5101,172.16.1.2,61390,10499,14480,0,65728,65700,6,6,4,1460,785,1,993,118,33580,0,65700,1448,0,0,0,0
i,0x00000000,1716772066.332452,172.16.3.2,5101,172.16.1.2,61390,10499,14480,0,65728,65700,6,6,4,1460,785,1,992,118,33580,0,65700,0,0,0,0,0
i,0x00000000,1716772066.352894,172.16.3.2,5101,172.16.1.2,61390,10499,14480,0,65728,65700,6,6,4,1460,785,1,992,118,33580,0,65700,0,0,0,0,0
o,0x00000000,1716772066.352914,172.16.3.2,5101,172.16.1.2,61390,10499,14480,0,65728,65700,6,6,4,1460,785,1,993,118,33580,0,65700,1448,0,0,0,0
i,0x00000000,1716772066.362844,172.16.3.2,5101,172.16.1.2,61390,10499,14480,0,65728,65700,6,6,4,1460,785,1,992,118,33580,0,65700,0,0,0,0,0
i,0x00000000,1716772066.372742,172.16.3.2,5101,172.16.1.2,61390,10499,14480,0,65728,65700,6,6,4,1460,785,1,992,118,33580,0,65700,0,0,0,0,0
o,0x00000000,1716772066.372748,172.16.3.2,5101,172.16.1.2,61390,10499,14480,0,65728,65700,6,6,4,1460,785,1,993,118,33580,0,65700,1448,0,0,0,0
i,0x00000000,1716772066.382247,172.16.3.2,5101,172.16.1.2,61390,10499,14480,0,65728,65700,6,6,4,1460,785,1,992,118,33580,0,65700,0,0,0,0,0
i,0x00000000,1716772066.392935,172.16.3.2,5101,172.16.1.2,61390,10499,14480,0,65728,65700,6,6,4,1460,785,1,992,118,33580,0,65700,0,0,0,0,0
o,0x00000000,1716772066.392950,172.16.3.2,5101,172.16.1.2,61390,10499,14480,0,65728,65700,6,6,4,1460,785,1,993,118,33580,0,65700,1448,0,0,0,0
i,0x00000000,1716772066.412495,172.16.3.2,5101,172.16.1.2,61390,10499,14480,0,65728,65700,6,6,4,1460,785,1,992,118,33580,0,65700,0,0,0,0,0
i,0x00000000,1716772066.421783,172.16.3.2,5101,172.16.1.2,61390,10499,14480,0,65728,65700,6,6,4,1460,785,1,992,118,33580,0,65700,0,0,0,0,0
o,0x00000000,1716772066.421797,172.16.3.2,5101,172.16.1.2,61390,10499,14480,0,65728,65700,6,6,4,1460,785,1,993,118,33580,0,65700,1448,0,0,0,0
i,0x00000000,1716772066.433287,172.16.3.2,5101,172.16.1.2,61390,10499,14480,0,65728,65700,6,6,4,1460,785,1,992,118,33580,0,65700,0,0,0,0,0
i,0x00000000,1716772066.442506,172.16.3.2,5101,172.16.1.2,61390,10499,14480,0,65728,65700,6,6,4,1460,785,1,992,118,33580,0,65700,0,0,0,0,0
o,0x00000000,1716772066.442514,172.16.3.2,5101,172.16.1.2,61390,10499,14480,0,65728,65700,6,6,4,1460,785,1,993,118,33580,0,65700,1448,0,0,0,0
i,0x00000000,1716772066.452588,172.16.3.2,5101,172.16.1.2,61390,10499,14480,0,65728,65700,6,6,4,1460,785,1,992,118,33580,0,65700,0,0,0,0,0
i,0x00000000,1716772066.473242,172.16.3.2,5101,172.16.1.2,61390,10499,14480,0,65728,65700,6,6,4,1460,785,1,992,118,33580,0,65700,0,0,0,0,0
o,0x00000000,1716772066.473249,172.16.3.2,5101,172.16.1.2,61390,10499,14480,0,65728,65700,6,6,4,1460,785,1,993,118,33580,0,65700,1448,0,0,0,0
i,0x00000000,1716772066.483686,172.16.3.2,5101,172.16.1.2,61390,10499,14480,0,65728,65700,6,6,4,1460,785,1,992,118,33580,0,65700,0,0,0,0,0
i,0x00000000,1716772066.492029,172.16.3.2,5101,172.16.1.2,61390,10499,14480,0,65728,65700,6,6,4,1460,785,1,992,118,33580,0,65700,0,0,0,0,0
o,0x00000000,1716772066.492036,172.16.3.2,5101,172.16.1.2,61390,10499,14480,0,65728,65700,6,6,4,1460,785,1,993,118,33580,0,65700,1448,0,0,0,0
i,0x00000000,1716772066.501867,172.16.3.2,5101,172.16.1.2,61390,10499,14480,0,65728,65700,6,6,4,1460,785,1,992,118,33580,0,65700,0,0,0,0,0
i,0x00000000,1716772066.513129,172.16.3.2,5101,172.16.1.2,61390,10499,14480,0,65728,65700,6,6,4,1460,785,1,992,118,33580,0,65700,0,0,0,0,0
o,0x00000000,1716772066.513135,172.16.3.2,5101,172.16.1.2,61390,10499,14480,0,65728,65700,6,6,4,1460,785,1,993,118,33580,0,65700,1448,0,0,0,0
i,0x00000000,1716772066.531875,172.16.3.2,5101,172.16.1.2,61390,10499,14480,0,65728,65700,6,6,4,1460,785,1,992,118,33580,0,65700,0,0,0,0,0
i,0x00000000,1716772066.543135,172.16.3.2,5101,172.16.1.2,61390,10499,14480,0,65728,65700,6,6,4,1460,785,1,992,118,33580,0,65700,0,0,0,0,0
o,0x00000000,1716772066.543146,172.16.3.2,5101,172.16.1.2,61390,10499,14480,0,65728,65700,6,6,4,1460,785,1,993,118,33580,0,65700,1448,0,0,0,0
i,0x00000000,1716772066.552525,172.16.3.2,5101,172.16.1.2,61390,10499,14480,0,65728,65700,6,6,4,1460,785,1,992,118,33580,0,65700,0,0,0,0,0
i,0x00000000,1716772066.562961,172.16.3.2,5101,172.16.1.2,61390,10499,14480,0,65728,65700,6,6,4,1460,785,1,992,118,33580,0,65700,0,0,0,0,0
o,0x00000000,1716772066.562969,172.16.3.2,5101,172.16.1.2,61390,10499,14480,0,65728,65700,6,6,4,1460,785,1,993,118,33580,0,65700,1448,0,0,0,0
i,0x00000000,1716772066.572368,172.16.3.2,5101,172.16.1.2,61390,10499,14480,0,65728,65700,6,6,4,1460,785,1,992,118,33580,0,65700,0,0,0,0,0
i,0x00000000,1716772066.593264,172.16.3.2,5101,172.16.1.2,61390,10499,14480,0,65728,65700,6,6,4,1460,785,1,992,118,33580,0,65700,0,0,0,0,0
o,0x00000000,1716772066.593271,172.16.3.2,5101,172.16.1.2,61390,10499,14480,0,65728,65700,6,6,4,1460,785,1,993,118,33580,0,65700,1448,0,0,0,0
i,0x00000000,1716772066.602670,172.16.3.2,5101,172.16.1.2,61390,10499,14480,0,65728,65700,6,6,4,1460,785,1,992,118,33580,0,65700,0,0,0,0,0
i,0x00000000,1716772066.612170,172.16.3.2,5101,172.16.1.2,61390,10499,14480,0,65728,65700,6,6,4,1460,785,1,992,118,33580,0,65700,0,0,0,0,0
o,0x00000000,1716772066.612176,172.16.3.2,5101,172.16.1.2,61390,10499,14480,0,65728,65700,6,6,4,1460,785,1,993,118,33580,0,65700,1448,0,0,0,0
i,0x00000000,1716772067.003330,172.16.3.2,5101,172.16.1.2,61390,10499,14480,0,65728,65700,6,6,4,1460,785,1,992,118,33580,0,65700,0,0,0,0,0
i,0x00000000,1716772067.012794,172.16.3.2,5101,172.16.1.2,61390,10499,14480,0,65728,65700,6,6,4,1460,785,1,992,118,33580,0,65700,0,0,0,0,0
o,0x00000000,1716772067.012806,172.16.3.2,5101,172.16.1.2,61390,10499,14480,0,65728,65700,6,6,4,1460,785,1,993,118,33580,0,65700,1448,0,0,0,0
i,0x00000000,1716772067.032788,172.16.3.2,5101,172.16.1.2,61390,10499,14480,0,65728,65700,6,6,4,1460,785,1,992,118,33580,0,65700,0,0,0,0,0
i,0x00000000,1716772067.042938,172.16.3.2,5101,172.16.1.2,61390,10499,14480,0,65728,65700,6,6,4,1460,785,1,992,118,33580,0,65700,0,0,0,0,0
o,0x00000000,1716772067.042951,172.16.3.2,5101,172.16.1.2,61390,10499,14480,0,65728,65700,6,6,4,1460,785,1,993,118,33580,0,65700,1448,0,0,0,0
i,0x00000000,1716772067.053623,172.16.3.2,5101,172.16.1.2,61390,10499,14480,0,65728,65700,6,6,4,1460,785,1,992,118,33580,0,65700,0,0,0,0,0
i,0x00000000,1716772067.063801,172.16.3.2,5101,172.16.1.2,61390,10499,14480,0,65728,65700,6,6,4,1460,785,1,992,118,33580,0,65700,0,0,0,0,0
o,0x00000000,1716772067.063807,172.16.3.2,5101,172.16.1.2,61390,10499,14480,0,65728,65700,6,6,4,1460,785,1,993,118,33580,0,65700,1448,0,0,0,0
i,0x00000000,1716772067.073391,172.16.3.2,5101,172.16.1.2,61390,10499,14480,0,65728,65700,6,6,4,1460,785,1,992,118,33580,0,65700,0,0,0,0,0
o,0x00000000,1716772067.079362,10.0.2.15,22,10.0.2.2,60131,1073725440,14600,0,65535,65700,0,0,4,1460,1,0,4,24,33580,108,65700,0,0,0,0,0
i,0x00000000,1716772067.080081,10.0.2.15,22,10.0.2.2,60131,1073725440,14600,0,65535,65700,0,0,4,1460,1,0,4,24,33580,108,65700,0,108,0,0,0
i,0x00000000,1716772067.092998,172.16.3.2,5101,172.16.1.2,61390,10499,14480,0,65728,65700,6,6,4,1460,785,1,992,118,33580,0,65700,0,0,0,0,0
o,0x00000000,1716772067.093006,172.16.3.2,5101,172.16.1.2,61390,10499,14480,0,65728,65700,6,6,4,1460,785,1,993,118,33580,0,65700,1448,0,0,0,0
i,0x00000000,1716772067.102502,172.16.3.2,5101,172.16.1.2,61390,10499,14480,0,65728,65700,6,6,4,1460,785,1,992,118,33580,0,65700,0,0,0,0,0
i,0x00000000,1716772067.112962,172.16.3.2,5101,172.16.1.2,61390,10499,14480,0,65728,65700,6,6,4,1460,785,1,992,118,33580,0,65700,0,0,0,0,0
o,0x00000000,1716772067.112970,172.16.3.2,5101,172.16.1.2,61390,10499,14480,0,65728,65700,6,6,4,1460,785,1,993,118,33580,0,65700,1448,0,0,0,0
i,0x00000000,1716772067.123315,172.16.3.2,5101,172.16.1.2,61390,10499,14480,0,65728,65700,6,6,4,1460,785,1,992,118,33580,0,65700,0,0,0,0,0
i,0x00000000,1716772067.133922,172.16.3.2,5101,172.16.1.2,61390,10499,14480,0,65728,65700,6,6,4,1460,785,1,992,118,33580,0,65700,0,0,0,0,0
o,0x00000000,1716772067.133929,172.16.3.2,5101,172.16.1.2,61390,10499,14480,0,65728,65700,6,6,4,1460,785,1,993,118,33580,0,65700,1448,0,0,0,0
i,0x00000000,1716772067.152540,172.16.3.2,5101,172.16.1.2,61390,10499,14480,0,65728,65700,6,6,4,1460,785,1,992,118,33580,0,65700,0,0,0,0,0
i,0x00000000,1716772067.162943,172.16.3.2,5101,172.16.1.2,61390,10499,14480,0,65728,65700,6,6,4,1460,785,1,992,118,33580,0,65700,0,0,0,0,0
o,0x00000000,1716772067.162953,172.16.3.2,5101,172.16.1.2,61390,10499,14480,0,65728,65700,6,6,4,1460,785,1,993,118,33580,0,65700,1448,0,0,0,0
i,0x00000000,1716772067.172419,172.16.3.2,5101,172.16.1.2,61390,10499,14480,0,65728,65700,6,6,4,1460,785,1,992,118,33580,0,65700,0,0,0,0,0
i,0x00000000,1716772067.182970,172.16.3.2,5101,172.16.1.2,61390,10499,14480,0,65728,65700,6,6,4,1460,785,1,992,118,33580,0,65700,0,0,0,0,0
o,0x00000000,1716772067.182976,172.16.3.2,5101,172.16.1.2,61390,10499,14480,0,65728,65700,6,6,4,1460,785,1,993,118,33580,0,65700,1448,0,0,0,0
i,0x00000000,1716772067.193225,172.16.3.2,5101,172.16.1.2,61390,10499,14480,0,65728,65700,6,6,4,1460,785,1,992,118,33580,0,65700,0,0,0,0,0
i,0x00000000,1716772067.213022,172.16.3.2,5101,172.16.1.2,61390,10499,14480,0,65728,65700,6,6,4,1460,785,1,992,118,33580,0,65700,0,0,0,0,0
o,0x00000000,1716772067.213029,172.16.3.2,5101,172.16.1.2,61390,10499,14480,0,65728,65700,6,6,4,1460,785,1,993,118,33580,0,65700,1448,0,0,0,0
i,0x00000000,1716772067.223453,172.16.3.2,5101,172.16.1.2,61390,10499,14480,0,65728,65700,6,6,4,1460,785,1,992,118,33580,0,65700,0,0,0,0,0
i,0x00000000,1716772067.233395,172.16.3.2,5101,172.16.1.2,61390,10499,14480,0,65728,65700,6,6,4,1460,785,1,992,118,33580,0,65700,0,0,0,0,0
o,0x00000000,1716772067.233401,172.16.3.2,5101,172.16.1.2,61390,10499,14480,0,65728,65700,6,6,4,1460,785,1,993,118,33580,0,65700,1448,0,0,0,0
i,0x00000000,1716772067.243885,172.16.3.2,5101,172.16.1.2,61390,10499,14480,0,65728,65700,6,6,4,1460,785,1,992,118,33580,0,65700,0,0,0,0,0
i,0x00000000,1716772067.253124,172.16.3.2,5101,172.16.1.2,61390,10499,14480,0,65728,65700,6,6,4,1460,785,1,992,118,33580,0,65700,0,0,0,0,0
o,0x00000000,1716772067.253130,172.16.3.2,5101,172.16.1.2,61390,10499,14480,0,65728,65700,6,6,4,1460,785,1,993,118,33580,0,65700,1448,0,0,0,0
i,0x00000000,1716772067.273021,172.16.3.2,5101,172.16.1.2,61390,10499,14480,0,65728,65700,6,6,4,1460,785,1,992,118,33580,0,65700,0,0,0,0,0
i,0x00000000,1716772067.283402,172.16.3.2,5101,172.16.1.2,61390,10499,14480,0,65728,65700,6,6,4,1460,785,1,992,118,33580,0,65700,0,0,0,0,0
o,0x00000000,1716772067.283408,172.16.3.2,5101,172.16.1.2,61390,10499,14480,0,65728,65700,6,6,4,1460,785,1,993,118,33580,0,65700,1448,0,0,0,0
i,0x00000000,1716772067.293954,172.16.3.2,5101,172.16.1.2,61390,10499,14480,0,65728,65700,6,6,4,1460,785,1,992,118,33580,0,65700,0,0,0,0,0
i,0x00000000,1716772067.303126,172.16.3.2,5101,172.16.1.2,61390,10499,14480,0,65728,65700,6,6,4,1460,785,1,992,118,33580,0,65700,0,0,0,0,0
o,0x00000000,1716772067.303141,172.16.3.2,5101,172.16.1.2,61390,10499,14480,0,65728,65700,6,6,4,1460,785,1,993,118,33580,0,65700,1448,0,0,0,0
i,0x00000000,1716772067.313538,172.16.3.2,5101,172.16.1.2,61390,10499,14480,0,65728,65700,6,6,4,1460,785,1,992,118,33580,0,65700,0,0,0,0,0
o,0x00000000,1716772067.349956,172.16.3.2,5101,172.16.1.2,61390,10499,14480,0,65728,65700,6,6,4,1460,785,1,993,118,33580,0,65700,0,0,0,0,0
i,0x00000000,1716772067.703709,172.16.3.2,5101,172.16.1.2,61390,10499,14480,0,65728,65700,6,6,4,1460,785,1,992,118,33580,0,65700,0,0,0,0,0
i,0x00000000,1716772067.712942,172.16.3.2,5101,172.16.1.2,61390,10499,14480,0,65728,65700,6,6,4,1460,785,1,992,118,33580,0,65700,0,0,0,0,0
o,0x00000000,1716772067.712955,172.16.3.2,5101,172.16.1.2,61390,10499,14480,0,65728,65700,6,6,4,1460,785,1,993,118,33580,0,65700,1448,0,0,0,0
i,0x00000000,1716772067.733784,172.16.3.2,5101,172.16.1.2,61390,10499,14480,0,65728,65700,6,6,4,1460,785,1,992,118,33580,0,65700,0,0,0,0,0
i,0x00000000,1716772067.743835,172.16.3.2,5101,172.16.1.2,61390,10499,14480,0,65728,65700,6,6,4,1460,785,1,992,118,33580,0,65700,0,0,0,0,0
o,0x00000000,1716772067.743843,172.16.3.2,5101,172.16.1.2,61390,10499,14480,0,65728,65700,6,6,4,1460,785,1,993,118,33580,0,65700,1448,0,0,0,0
i,0x00000000,1716772067.753228,172.16.3.2,5101,172.16.1.2,61390,10499,14480,0,65728,65700,6,6,4,1460,785,1,992,118,33580,0,65700,0,0,0,0,0
i,0x00000000,1716772067.763404,172.16.3.2,5101,172.16.1.2,61390,10499,14480,0,65728,65700,6,6,4,1460,785,1,992,118,33580,0,65700,0,0,0,0,0
o,0x00000000,1716772067.763413,172.16.3.2,5101,172.16.1.2,61390,10499,14480,0,65728,65700,6,6,4,1460,785,1,993,118,33580,0,65700,1448,0,0,0,0
i,0x00000000,1716772067.773679,172.16.3.2,5101,172.16.1.2,61390,10499,14480,0,65728,65700,6,6,4,1460,785,1,992,118,33580,0,65700,0,0,0,0,0
i,0x00000000,1716772067.793691,172.16.3.2,5101,172.16.1.2,61390,10499,14480,0,65728,65700,6,6,4,1460,785,1,992,118,33580,0,65700,0,0,0,0,0
o,0x00000000,1716772067.793699,172.16.3.2,5101,172.16.1.2,61390,10499,14480,0,65728,65700,6,6,4,1460,785,1,993,118,33580,0,65700,1448,0,0,0,0
i,0x00000000,1716772067.804216,172.16.3.2,5101,172.16.1.2,61390,10499,14480,0,65728,65700,6,6,4,1460,785,1,992,118,33580,0,65700,0,0,0,0,0
i,0x00000000,1716772067.813518,172.16.3.2,5101,172.16.1.2,61390,10499,14480,0,65728,65700,6,6,4,1460,785,1,992,118,33580,0,65700,0,0,0,0,0
o,0x00000000,1716772067.813525,172.16.3.2,5101,172.16.1.2,61390,10499,14480,0,65728,65700,6,6,4,1460,785,1,993,118,33580,0,65700,1448,0,0,0,0
i,0x00000000,1716772067.823069,172.16.3.2,5101,172.16.1.2,61390,10499,14480,0,65728,65700,6,6,4,1460,785,1,992,118,33580,0,65700,0,0,0,0,0
i,0x00000000,1716772067.833540,172.16.3.2,5101,172.16.1.2,61390,10499,14480,0,65728,65700,6,6,4,1460,785,1,992,118,33580,0,65700,0,0,0,0,0
o,0x00000000,1716772067.833549,172.16.3.2,5101,172.16.1.2,61390,10499,14480,0,65728,65700,6,6,4,1460,785,1,993,118,33580,0,65700,1448,0,0,0,0
i,0x00000000,1716772067.853475,172.16.3.2,5101,172.16.1.2,61390,10499,14480,0,65728,65700,6,6,4,1460,785,1,992,118,33580,0,65700,0,0,0,0,0
i,0x00000000,1716772067.863897,172.16.3.2,5101,172.16.1.2,61390,10499,14480,0,65728,65700,6,6,4,1460,785,1,992,118,33580,0,65700,0,0,0,0,0
o,0x00000000,1716772067.863905,172.16.3.2,5101,172.16.1.2,61390,10499,14480,0,65728,65700,6,6,4,1460,785,1,993,118,33580,0,65700,1448,0,0,0,0
i,0x00000000,1716772067.873343,172.16.3.2,5101,172.16.1.2,61390,10499,14480,0,65728,65700,6,6,4,1460,785,1,992,118,33580,0,65700,0,0,0,0,0
i,0x00000000,1716772067.883732,172.16.3.2,5101,172.16.1.2,61390,10499,14480,0,65728,65700,6,6,4,1460,785,1,992,118,33580,0,65700,0,0,0,0,0
o,0x00000000,1716772067.883738,172.16.3.2,5101,172.16.1.2,61390,10499,14480,0,65728,65700,6,6,4,1460,785,1,993,118,33580,0,65700,1448,0,0,0,0
i,0x00000000,1716772067.894167,172.16.3.2,5101,172.16.1.2,61390,10499,14480,0,65728,65700,6,6,4,1460,785,1,992,118,33580,0,65700,0,0,0,0,0
i,0x00000000,1716772067.914108,172.16.3.2,5101,172.16.1.2,61390,10499,14480,0,65728,65700,6,6,4,1460,785,1,992,118,33580,0,65700,0,0,0,0,0
o,0x00000000,1716772067.914118,172.16.3.2,5101,172.16.1.2,61390,10499,14480,0,65728,65700,6,6,4,1460,785,1,993,118,33580,0,65700,1448,0,0,0,0
i,0x00000000,1716772067.923533,172.16.3.2,5101,172.16.1.2,61390,10499,14480,0,65728,65700,6,6,4,1460,785,1,992,118,33580,0,65700,0,0,0,0,0
i,0x00000000,1716772067.934077,172.16.3.2,5101,172.16.1.2,61390,10499,14480,0,65728,65700,6,6,4,1460,785,1,992,118,33580,0,65700,0,0,0,0,0
o,0x00000000,1716772067.934083,172.16.3.2,5101,172.16.1.2,61390,10499,14480,0,65728,65700,6,6,4,1460,785,1,993,118,33580,0,65700,1448,0,0,0,0
i,0x00000000,1716772067.944523,172.16.3.2,5101,172.16.1.2,61390,10499,14480,0,65728,65700,6,6,4,1460,785,1,992,118,33580,0,65700,0,0,0,0,0
i,0x00000000,1716772067.953969,172.16.3.2,5101,172.16.1.2,61390,10499,14480,0,65728,65700,6,6,4,1460,785,1,992,118,33580,0,65700,0,0,0,0,0
o,0x00000000,1716772067.953976,172.16.3.2,5101,172.16.1.2,61390,10499,14480,0,65728,65700,6,6,4,1460,785,1,993,118,33580,0,65700,1448,0,0,0,0
i,0x00000000,1716772067.973268,172.16.3.2,5101,172.16.1.2,61390,10499,14480,0,65728,65700,6,6,4,1460,785,1,992,118,33580,0,65700,0,0,0,0,0
i,0x00000000,1716772067.983598,172.16.3.2,5101,172.16.1.2,61390,10499,14480,0,65728,65700,6,6,4,1460,785,1,992,118,33580,0,65700,0,0,0,0,0
o,0x00000000,1716772067.983604,172.16.3.2,5101,172.16.1.2,61390,10499,14480,0,65728,65700,6,6,4,1460,785,1,993,118,33580,0,65700,1448,0,0,0,0
i,0x00000000,1716772067.993980,172.16.3.2,5101,172.16.1.2,61390,10499,14480,0,65728,65700,6,6,4,1460,785,1,992,118,33580,0,65700,0,0,0,0,0
i,0x00000000,1716772068.004436,172.16.3.2,5101,172.16.1.2,61390,10499,14480,0,65728,65700,6,6,4,1460,785,1,992,118,33580,0,65700,0,0,0,0,0
o,0x00000000,1716772068.004443,172.16.3.2,5101,172.16.1.2,61390,10499,14480,0,65728,65700,6,6,4,1460,785,1,993,118,33580,0,65700,1448,0,0,0,0
i,0x00000000,1716772068.013676,172.16.3.2,5101,172.16.1.2,61390,10499,14480,0,65728,65700,6,6,4,1460,785,1,992,118,33580,0,65700,0,0,0,0,0
o,0x00000000,1716772068.049070,172.16.3.2,5101,172.16.1.2,61390,10499,14480,0,65728,65700,6,6,4,1460,785,1,993,118,33580,0,65700,0,0,0,0,0
o,0x00000000,1716772068.080312,10.0.2.15,22,10.0.2.2,60131,1073725440,14600,0,65535,65700,0,0,4,1460,1,0,4,24,33580,108,65700,0,0,0,0,0
i,0x00000000,1716772068.081127,10.0.2.15,22,10.0.2.2,60131,1073725440,14600,0,65535,65700,0,0,4,1460,1,0,4,24,33580,108,65700,0,108,0,0,0
i,0x00000000,1716772068.134663,172.16.3.2,5101,172.16.1.2,61390,10499,14480,0,65728,65700,6,6,4,1460,785,1,992,118,33580,0,65700,0,0,0,0,0
o,0x00000000,1716772068.170497,172.16.3.2,5101,172.16.1.2,61390,10499,14480,0,65728,65700,6,6,4,1460,785,1,993,118,33580,0,65700,0,0,0,0,0
i,0x00000000,1716772068.413620,172.16.3.2,5101,172.16.1.2,61390,10499,14480,0,65728,65700,6,6,4,1460,785,1,992,118,33580,0,65700,0,0,0,0,0
i,0x00000000,1716772068.434389,172.16.3.2,5101,172.16.1.2,61390,10499,14480,0,65728,65700,6,6,4,1460,785,1,992,118,33580,0,65700,0,0,0,0,0
o,0x00000000,1716772068.434402,172.16.3.2,5101,172.16.1.2,61390,10499,14480,0,65728,65700,6,6,4,1460,785,1,993,118,33580,0,65700,1448,0,0,0,0
i,0x00000000,1716772068.444888,172.16.3.2,5101,172.16.1.2,61390,10499,14480,0,65728,65700,6,6,4,1460,785,1,992,118,33580,0,65700,0,0,0,0,0
i,0x00000000,1716772068.454243,172.16.3.2,5101,172.16.1.2,61390,10499,14480,0,65728,65700,6,6,4,1460,785,1,992,118,33580,0,65700,0,0,0,0,0
o,0x00000000,1716772068.454253,172.16.3.2,5101,172.16.1.2,61390,10499,14480,0,65728,65700,6,6,4,1460,785,1,993,118,33580,0,65700,1448,0,0,0,0
i,0x00000000,1716772068.464616,172.16.3.2,5101,172.16.1.2,61390,10499,14480,0,65728,65700,6,6,4,1460,785,1,992,118,33580,0,65700,0,0,0,0,0
i,0x00000000,1716772068.474204,172.16.3.2,5101,172.16.1.2,61390,10499,14480,0,65728,65700,6,6,4,1460,785,1,992,118,33580,0,65700,0,0,0,0,0
o,0x00000000,1716772068.474210,172.16.3.2,5101,172.16.1.2,61390,10499,14480,0,65728,65700,6,6,4,1460,785,1,993,118,33580,0,65700,1448,0,0,0,0
i,0x00000000,1716772068.494912,172.16.3.2,5101,172.16.1.2,61390,10499,14480,0,65728,65700,6,6,4,1460,785,1,992,118,33580,0,65700,0,0,0,0,0
i,0x00000000,1716772068.504265,172.16.3.2,5101,172.16.1.2,61390,10499,14480,0,65728,65700,6,6,4,1460,785,1,992,118,33580,0,65700,0,0,0,0,0
o,0x00000000,1716772068.504274,172.16.3.2,5101,172.16.1.2,61390,10499,14480,0,65728,65700,6,6,4,1460,785,1,993,118,33580,0,65700,1448,0,0,0,0
i,0x00000000,1716772068.514855,172.16.3.2,5101,172.16.1.2,61390,10499,14480,0,65728,65700,6,6,4,1460,785,1,992,118,33580,0,65700,0,0,0,0,0
i,0x00000000,1716772068.524561,172.16.3.2,5101,172.16.1.2,61390,10499,14480,0,65728,65700,6,6,4,1460,785,1,992,118,33580,0,65700,0,0,0,0,0
o,0x00000000,1716772068.524570,172.16.3.2,5101,172.16.1.2,61390,10499,14480,0,65728,65700,6,6,4,1460,785,1,993,118,33580,0,65700,1448,0,0,0,0
i,0x00000000,1716772068.534240,172.16.3.2,5101,172.16.1.2,61390,10499,14480,0,65728,65700,6,6,4,1460,785,1,992,118,33580,0,65700,0,0,0,0,0
i,0x00000000,1716772068.555036,172.16.3.2,5101,172.16.1.2,61390,10499,14480,0,65728,65700,6,6,4,1460,785,1,992,118,33580,0,65700,0,0,0,0,0
o,0x00000000,1716772068.555046,172.16.3.2,5101,172.16.1.2,61390,10499,14480,0,65728,65700,6,6,4,1460,785,1,993,118,33580,0,65700,1448,0,0,0,0
i,0x00000000,1716772068.564330,172.16.3.2,5101,172.16.1.2,61390,10499,14480,0,65728,65700,6,6,4,1460,785,1,992,118,33580,0,65700,0,0,0,0,0
i,0x00000000,1716772068.574853,172.16.3.2,5101,172.16.1.2,61390,10499,14480,0,65728,65700,6,6,4,1460,785,1,992,118,33580,0,65700,0,0,0,0,0
o,0x00000000,1716772068.574862,172.16.3.2,5101,172.16.1.2,61390,10499,14480,0,65728,65700,6,6,4,1460,785,1,993,118,33580,0,65700,1448,0,0,0,0
i,0x00000000,1716772068.584117,172.16.3.2,5101,172.16.1.2,61390,10499,14480,0,65728,65700,6,6,4,1460,785,1,992,118,33580,0,65700,0,0,0,0,0
i,0x00000000,1716772068.594654,172.16.3.2,5101,172.16.1.2,61390,10499,14480,0,65728,65700,6,6,4,1460,785,1,992,118,33580,0,65700,0,0,0,0,0
o,0x00000000,1716772068.594661,172.16.3.2,5101,172.16.1.2,61390,10499,14480,0,65728,65700,6,6,4,1460,785,1,993,118,33580,0,65700,1448,0,0,0,0
i,0x00000000,1716772068.614468,172.16.3.2,5101,172.16.1.2,61390,10499,14480,0,65728,65700,6,6,4,1460,785,1,992,118,33580,0,65700,0,0,0,0,0
i,0x00000000,1716772068.623815,172.16.3.2,5101,172.16.1.2,61390,10499,14480,0,65728,65700,6,6,4,1460,785,1,992,118,33580,0,65700,0,0,0,0,0
o,0x00000000,1716772068.623821,172.16.3.2,5101,172.16.1.2,61390,10499,14480,0,65728,65700,6,6,4,1460,785,1,993,118,33580,0,65700,1448,0,0,0,0
i,0x00000000,1716772068.634316,172.16.3.2,5101,172.16.1.2,61390,10499,14480,0,65728,65700,6,6,4,1460,785,1,992,118,33580,0,65700,0,0,0,0,0
i,0x00000000,1716772068.644598,172.16.3.2,5101,172.16.1.2,61390,10499,14480,0,65728,65700,6,6,4,1460,785,1,992,118,33580,0,65700,0,0,0,0,0
o,0x00000000,1716772068.644604,172.16.3.2,5101,172.16.1.2,61390,10499,14480,0,65728,65700,6,6,4,1460,785,1,993,118,33580,0,65700,1448,0,0,0,0
i,0x00000000,1716772068.655117,172.16.3.2,5101,172.16.1.2,61390,10499,14480,0,65728,65700,6,6,4,1460,785,1,992,118,33580,0,65700,0,0,0,0,0
i,0x00000000,1716772068.675000,172.16.3.2,5101,172.16.1.2,61390,10499,14480,0,65728,65700,6,6,4,1460,785,1,992,118,33580,0,65700,0,0,0,0,0
o,0x00000000,1716772068.675006,172.16.3.2,5101,172.16.1.2,61390,10499,14480,0,65728,65700,6,6,4,1460,785,1,993,118,33580,0,65700,1448,0,0,0,0
i,0x00000000,1716772068.684293,172.16.3.2,5101,172.16.1.2,61390,10499,14480,0,65728,65700,6,6,4,1460,785,1,992,118,33580,0,65700,0,0,0,0,0
i,0x00000000,1716772068.693696,172.16.3.2,5101,172.16.1.2,61390,10499,14480,0,65728,65700,6,6,4,1460,785,1,992,118,33580,0,65700,0,0,0,0,0
o,0x00000000,1716772068.693703,172.16.3.2,5101,172.16.1.2,61390,10499,14480,0,65728,65700,6,6,4,1460,785,1,993,118,33580,0,65700,1448,0,0,0,0
i,0x00000000,1716772068.705178,172.16.3.2,5101,172.16.1.2,61390,10499,14480,0,65728,65700,6,6,4,1460,785,1,992,118,33580,0,65700,0,0,0,0,0
i,0x00000000,1716772068.714659,172.16.3.2,5101,172.16.1.2,61390,10499,14480,0,65728,65700,6,6,4,1460,785,1,992,118,33580,0,65700,0,0,0,0,0
o,0x00000000,1716772068.714666,172.16.3.2,5101,172.16.1.2,61390,10499,14480,0,65728,65700,6,6,4,1460,785,1,993,118,33580,0,65700,1448,0,0,0,0
i,0x00000000,1716772068.734490,172.16.3.2,5101,172.16.1.2,61390,10499,14480,0,65728,65700,6,6,4,1460,785,1,992,118,33580,0,65700,0,0,0,0,0
o,0x00000000,1716772068.769554,172.16.3.2,5101,172.16.1.2,61390,10499,14480,0,65728,65700,6,6,4,1460,785,1,993,118,33580,0,65700,0,0,0,0,0
i,0x00000000,1716772068.774546,172.16.3.2,5101,172.16.1.2,61390,10499,14480,0,65728,65700,6,6,4,1460,785,1,992,118,33580,0,65700,0,0,0,0,0
o,0x00000000,1716772068.809827,172.16.3.2,5101,172.16.1.2,61390,10499,14480,0,65728,65700,6,6,4,1460,785,1,993,118,33580,0,65700,0,0,0,0,0
o,0x00000000,1716772069.079764,10.0.2.15,22,10.0.2.2,60131,1073725440,14600,0,65535,65700,0,0,4,1460,1,0,4,24,33580,108,65700,0,0,0,0,0
i,0x00000000,1716772069.080514,10.0.2.15,22,10.0.2.2,60131,1073725440,14600,0,65535,65700,0,0,4,1460,1,0,4,24,33580,108,65700,0,108,0,0,0
i,0x00000000,1716772069.124707,172.16.3.2,5101,172.16.1.2,61390,10499,14480,0,65728,65700,6,6,4,1460,785,1,992,118,33580,0,65700,0,0,0,0,0
i,0x00000000,1716772069.135030,172.16.3.2,5101,172.16.1.2,61390,10499,14480,0,65728,65700,6,6,4,1460,785,1,992,118,33580,0,65700,0,0,0,0,0
o,0x00000000,1716772069.135042,172.16.3.2,5101,172.16.1.2,61390,10499,14480,0,65728,65700,6,6,4,1460,785,1,993,118,33580,0,65700,1448,0,0,0,0
i,0x00000000,1716772069.154885,172.16.3.2,5101,172.16.1.2,61390,10499,14480,0,65728,65700,6,6,4,1460,785,1,992,118,33580,0,65700,0,0,0,0,0
i,0x00000000,1716772069.165304,172.16.3.2,5101,172.16.1.2,61390,10499,14480,0,65728,65700,6,6,4,1460,785,1,992,118,33580,0,65700,0,0,0,0,0
o,0x00000000,1716772069.165315,172.16.3.2,5101,172.16.1.2,61390,10499,14480,0,65728,65700,6,6,4,1460,785,1,993,118,33580,0,65700,1448,0,0,0,0
i,0x00000000,1716772069.175843,172.16.3.2,5101,172.16.1.2,61390,10499,14480,0,65728,65700,6,6,4,1460,785,1,992,118,33580,0,65700,0,0,0,0,0
i,0x00000000,1716772069.184218,172.16.3.2,5101,172.16.1.2,61390,10499,14480,0,65728,65700,6,6,4,1460,785,1,992,118,33580,0,65700,0,0,0,0,0
o,0x00000000,1716772069.184223,172.16.3.2,5101,172.16.1.2,61390,10499,14480,0,65728,65700,6,6,4,1460,785,1,993,118,33580,0,65700,1448,0,0,0,0
i,0x00000000,1716772069.194612,172.16.3.2,5101,172.16.1.2,61390,10499,14480,0,65728,65700,6,6,4,1460,785,1,992,118,33580,0,65700,0,0,0,0,0
i,0x00000000,1716772069.215383,172.16.3.2,5101,172.16.1.2,61390,10499,14480,0,65728,65700,6,6,4,1460,785,1,992,118,33580,0,65700,0,0,0,0,0
o,0x00000000,1716772069.215390,172.16.3.2,5101,172.16.1.2,61390,10499,14480,0,65728,65700,6,6,4,1460,785,1,993,118,33580,0,65700,1448,0,0,0,0
i,0x00000000,1716772069.225896,172.16.3.2,5101,172.16.1.2,61390,10499,14480,0,65728,65700,6,6,4,1460,785,1,992,118,33580,0,65700,0,0,0,0,0
i,0x00000000,1716772069.234451,172.16.3.2,5101,172.16.1.2,61390,10499,14480,0,65728,65700,6,6,4,1460,785,1,992,118,33580,0,65700,0,0,0,0,0
o,0x00000000,1716772069.234457,172.16.3.2,5101,172.16.1.2,61390,10499,14480,0,65728,65700,6,6,4,1460,785,1,993,118,33580,0,65700,1448,0,0,0,0
i,0x00000000,1716772069.244717,172.16.3.2,5101,172.16.1.2,61390,10499,14480,0,65728,65700,6,6,4,1460,785,1,992,118,33580,0,65700,0,0,0,0,0
i,0x00000000,1716772069.255140,172.16.3.2,5101,172.16.1.2,61390,10499,14480,0,65728,65700,6,6,4,1460,785,1,992,118,33580,0,65700,0,0,0,0,0
o,0x00000000,1716772069.255146,172.16.3.2,5101,172.16.1.2,61390,10499,14480,0,65728,65700,6,6,4,1460,785,1,993,118,33580,0,65700,1448,0,0,0,0
i,0x00000000,1716772069.275123,172.16.3.2,5101,172.16.1.2,61390,10499,14480,0,65728,65700,6,6,4,1460,785,1,992,118,33580,0,65700,0,0,0,0,0
i,0x00000000,1716772069.285390,172.16.3.2,5101,172.16.1.2,61390,10499,14480,0,65728,65700,6,6,4,1460,785,1,992,118,33580,0,65700,0,0,0,0,0
o,0x00000000,1716772069.285396,172.16.3.2,5101,172.16.1.2,61390,10499,14480,0,65728,65700,6,6,4,1460,785,1,993,118,33580,0,65700,1448,0,0,0,0
i,0x00000000,1716772069.296128,172.16.3.2,5101,172.16.1.2,61390,10499,14480,0,65728,65700,6,6,4,1460,785,1,992,118,33580,0,65700,0,0,0,0,0
i,0x00000000,1716772069.305678,172.16.3.2,5101,172.16.1.2,61390,10499,14480,0,65728,65700,6,6,4,1460,785,1,992,118,33580,0,65700,0,0,0,0,0
o,0x00000000,1716772069.305697,172.16.3.2,5101,172.16.1.2,61390,10499,14480,0,65728,65700,6,6,4,1460,785,1,993,118,33580,0,65700,1448,0,0,0,0
i,0x00000000,1716772069.314972,172.16.3.2,5101,172.16.1.2,61390,10499,14480,0,65728,65700,6,6,4,1460,785,1,992,118,33580,0,65700,0,0,0,0,0
i,0x00000000,1716772069.334780,172.16.3.2,5101,172.16.1.2,61390,10499,14480,0,65728,65700,6,6,4,1460,785,1,992,118,33580,0,65700,0,0,0,0,0
o,0x00000000,1716772069.334801,172.16.3.2,5101,172.16.1.2,61390,10499,14480,0,65728,65700,6,6,4,1460,785,1,993,118,33580,0,65700,1448,0,0,0,0
i,0x00000000,1716772069.345217,172.16.3.2,5101,172.16.1.2,61390,10499,14480,0,65728,65700,6,6,4,1460,785,1,992,118,33580,0,65700,0,0,0,0,0
i,0x00000000,1716772069.355427,172.16.3.2,5101,172.16.1.2,61390,10499,14480,0,65728,65700,6,6,4,1460,785,1,992,118,33580,0,65700,0,0,0,0,0
o,0x00000000,1716772069.355439,172.16.3.2,5101,172.16.1.2,61390,10499,14480,0,65728,65700,6,6,4,1460,785,1,993,118,33580,0,65700,1448,0,0,0,0
i,0x00000000,1716772069.364914,172.16.3.2,5101,172.16.1.2,61390,10499,14480,0,65728,65700,6,6,4,1460,785,1,992,118,33580,0,65700,0,0,0,0,0
i,0x00000000,1716772069.375407,172.16.3.2,5101,172.16.1.2,61390,10499,14480,0,65728,65700,6,6,4,1460,785,1,992,118,33580,0,65700,0,0,0,0,0
o,0x00000000,1716772069.375415,172.16.3.2,5101,172.16.1.2,61390,10499,14480,0,65728,65700,6,6,4,1460,785,1,993,118,33580,0,65700,1448,0,0,0,0
i,0x00000000,1716772069.395428,172.16.3.2,5101,172.16.1.2,61390,10499,14480,0,65728,65700,6,6,4,1460,785,1,992,118,33580,0,65700,0,0,0,0,0
i,0x00000000,1716772069.404841,172.16.3.2,5101,172.16.1.2,61390,10499,14480,0,65728,65700,6,6,4,1460,785,1,992,118,33580,0,65700,0,0,0,0,0
o,0x00000000,1716772069.404850,172.16.3.2,5101,172.16.1.2,61390,10499,14480,0,65728,65700,6,6,4,1460,785,1,993,118,33580,0,65700,1448,0,0,0,0
i,0x00000000,1716772069.415199,172.16.3.2,5101,172.16.1.2,61390,10499,14480,0,65728,65700,6,6,4,1460,785,1,992,118,33580,0,65700,0,0,0,0,0
i,0x00000000,1716772069.425568,172.16.3.2,5101,172.16.1.2,61390,10499,14480,0,65728,65700,6,6,4,1460,785,1,992,118,33580,0,65700,0,0,0,0,0
o,0x00000000,1716772069.425576,172.16.3.2,5101,172.16.1.2,61390,10499,14480,0,65728,65700,6,6,4,1460,785,1,993,118,33580,0,65700,1448,0,0,0,0
i,0x00000000,1716772069.434998,172.16.3.2,5101,172.16.1.2,61390,10499,14480,0,65728,65700,6,6,4,1460,785,1,992,118,33580,0,65700,0,0,0,0,0
i,0x00000000,1716772069.454927,172.16.3.2,5101,172.16.1.2,61390,10499,14480,0,65728,65700,6,6,4,1460,785,1,992,118,33580,0,65700,0,0,0,0,0
o,0x00000000,1716772069.454942,172.16.3.2,5101,172.16.1.2,61390,10499,14480,0,65728,65700,6,6,4,1460,785,1,993,118,33580,0,65700,1448,0,0,0,0
i,0x00000000,1716772069.505255,172.16.3.2,5101,172.16.1.2,61390,10499,14480,0,65728,65700,6,6,4,1460,785,1,992,118,33580,0,65700,0,0,0,0,0
o,0x00000000,1716772069.539902,172.16.3.2,5101,172.16.1.2,61390,10499,14480,0,65728,65700,6,6,4,1460,785,1,993,118,33580,0,65700,0,0,0,0,0
i,0x00000000,1716772069.576554,172.16.3.2,5101,172.16.1.2,61390,10499,14480,0,65728,65700,6,6,4,1460,785,1,992,118,33580,0,65700,0,0,0,0,0
o,0x00000000,1716772069.610089,172.16.3.2,5101,172.16.1.2,61390,10499,14480,0,65728,65700,6,6,4,1460,785,1,993,118,33580,0,65700,0,0,0,0,0
i,0x00000000,1716772069.886060,172.16.3.2,5101,172.16.1.2,61390,10499,14480,0,65728,65700,6,6,4,1460,785,1,992,118,33580,0,65700,0,0,0,0,0
i,0x00000000,1716772069.895421,172.16.3.2,5101,172.16.1.2,61390,10499,14480,0,65728,65700,6,6,4,1460,785,1,992,118,33580,0,65700,0,0,0,0,0
o,0x00000000,1716772069.895435,172.16.3.2,5101,172.16.1.2,61390,10499,14480,0,65728,65700,6,6,4,1460,785,1,993,118,33580,0,65700,1448,0,0,0,0
i,0x00000000,1716772069.905871,172.16.3.2,5101,172.16.1.2,61390,10499,14480,0,65728,65700,6,6,4,1460,785,1,992,118,33580,0,65700,0,0,0,0,0
i,0x00000000,1716772069.915363,172.16.3.2,5101,172.16.1.2,61390,10499,14480,0,65728,65700,6,6,4,1460,785,1,992,118,33580,0,65700,0,0,0,0,0
o,0x00000000,1716772069.915372,172.16.3.2,5101,172.16.1.2,61390,10499,14480,0,65728,65700,6,6,4,1460,785,1,993,118,33580,0,65700,1448,0,0,0,0
i,0x00000000,1716772069.936246,172.16.3.2,5101,172.16.1.2,61390,10499,14480,0,65728,65700,6,6,4,1460,785,1,992,118,33580,0,65700,0,0,0,0,0
i,0x00000000,1716772069.945647,172.16.3.2,5101,172.16.1.2,61390,10499,14480,0,65728,65700,6,6,4,1460,785,1,992,118,33580,0,65700,0,0,0,0,0
o,0x00000000,1716772069.945656,172.16.3.2,5101,172.16.1.2,61390,10499,14480,0,65728,65700,6,6,4,1460,785,1,993,118,33580,0,65700,1448,0,0,0,0
i,0x00000000,1716772069.956025,172.16.3.2,5101,172.16.1.2,61390,10499,14480,0,65728,65700,6,6,4,1460,785,1,992,118,33580,0,65700,0,0,0,0,0
i,0x00000000,1716772069.965483,172.16.3.2,5101,172.16.1.2,61390,10499,14480,0,65728,65700,6,6,4,1460,785,1,992,118,33580,0,65700,0,0,0,0,0
o,0x00000000,1716772069.965488,172.16.3.2,5101,172.16.1.2,61390,10499,14480,0,65728,65700,6,6,4,1460,785,1,993,118,33580,0,65700,1448,0,0,0,0
i,0x00000000,1716772069.975546,172.16.3.2,5101,172.16.1.2,61390,10499,14480,0,65728,65700,6,6,4,1460,785,1,992,118,33580,0,65700,0,0,0,0,0
i,0x00000000,1716772069.996372,172.16.3.2,5101,172.16.1.2,61390,10499,14480,0,65728,65700,6,6,4,1460,785,1,992,118,33580,0,65700,0,0,0,0,0
o,0x00000000,1716772069.996380,172.16.3.2,5101,172.16.1.2,61390,10499,14480,0,65728,65700,6,6,4,1460,785,1,993,118,33580,0,65700,1448,0,0,0,0
i,0x00000000,1716772070.005352,172.16.3.2,5101,172.16.1.2,61390,10499,14480,0,65728,65700,6,6,4,1460,785,1,992,118,33580,0,65700,0,0,0,0,0
i,0x00000000,1716772070.015776,172.16.3.2,5101,172.16.1.2,61390,10499,14480,0,65728,65700,6,6,4,1460,785,1,992,118,33580,0,65700,0,0,0,0,0
o,0x00000000,1716772070.015781,172.16.3.2,5101,172.16.1.2,61390,10499,14480,0,65728,65700,6,6,4,1460,785,1,993,118,33580,0,65700,1448,0,0,0,0
i,0x00000000,1716772070.025956,172.16.3.2,5101,172.16.1.2,61390,10499,14480,0,65728,65700,6,6,4,1460,785,1,992,118,33580,0,65700,0,0,0,0,0
i,0x00000000,1716772070.036531,172.16.3.2,5101,172.16.1.2,61390,10499,14480,0,65728,65700,6,6,4,1460,785,1,992,118,33580,0,65700,0,0,0,0,0
o,0x00000000,1716772070.036537,172.16.3.2,5101,172.16.1.2,61390,10499,14480,0,65728,65700,6,6,4,1460,785,1,993,118,33580,0,65700,1448,0,0,0,0
i,0x00000000,1716772070.056091,172.16.3.2,5101,172.16.1.2,61390,10499,14480,0,65728,65700,6,6,4,1460,785,1,992,118,33580,0,65700,0,0,0,0,0
i,0x00000000,1716772070.065549,172.16.3.2,5101,172.16.1.2,61390,10499,14480,0,65728,65700,6,6,4,1460,785,1,992,118,33580,0,65700,0,0,0,0,0
o,0x00000000,1716772070.065567,172.16.3.2,5101,172.16.1.2,61390,10499,14480,0,65728,65700,6,6,4,1460,785,1,993,118,33580,0,65700,1448,0,0,0,0
i,0x00000000,1716772070.075341,172.16.3.2,5101,172.16.1.2,61390,10499,14480,0,65728,65700,6,6,4,1460,785,1,992,118,33580,0,65700,0,0,0,0,0
o,0x00000000,1716772070.080098,10.0.2.15,22,10.0.2.2,60131,1073725440,14600,0,65535,65700,0,0,4,1460,1,0,4,24,33580,108,65700,0,0,0,0,0
i,0x00000000,1716772070.080860,10.0.2.15,22,10.0.2.2,60131,1073725440,14600,0,65535,65700,0,0,4,1460,1,0,4,24,33580,108,65700,0,108,0,0,0
i,0x00000000,1716772070.086723,172.16.3.2,5101,172.16.1.2,61390,10499,14480,0,65728,65700,6,6,4,1460,785,1,992,118,33580,0,65700,0,0,0,0,0
o,0x00000000,1716772070.086767,172.16.3.2,5101,172.16.1.2,61390,10499,14480,0,65728,65700,6,6,4,1460,785,1,993,118,33580,0,65700,1448,0,0,0,0
i,0x00000000,1716772070.095590,172.16.3.2,5101,172.16.1.2,61390,10499,14480,0,65728,65700,6,6,4,1460,785,1,992,118,33580,0,65700,0,0,0,0,0
i,0x00000000,1716772070.115327,172.16.3.2,5101,172.16.1.2,61390,10499,14480,0,65728,65700,6,6,4,1460,785,1,992,118,33580,0,65700,0,0,0,0,0
o,0x00000000,1716772070.115341,172.16.3.2,5101,172.16.1.2,61390,10499,14480,0,65728,65700,6,6,4,1460,785,1,993,118,33580,0,65700,1448,0,0,0,0
i,0x00000000,1716772070.125716,172.16.3.2,5101,172.16.1.2,61390,10499,14480,0,65728,65700,6,6,4,1460,785,1,992,118,33580,0,65700,0,0,0,0,0
i,0x00000000,1716772070.135211,172.16.3.2,5101,172.16.1.2,61390,10499,14480,0,65728,65700,6,6,4,1460,785,1,992,118,33580,0,65700,0,0,0,0,0
o,0x00000000,1716772070.135219,172.16.3.2,5101,172.16.1.2,61390,10499,14480,0,65728,65700,6,6,4,1460,785,1,993,118,33580,0,65700,1448,0,0,0,0
i,0x00000000,1716772070.145540,172.16.3.2,5101,172.16.1.2,61390,10499,14480,0,65728,65700,6,6,4,1460,785,1,992,118,33580,0,65700,0,0,0,0,0
i,0x00000000,1716772070.154938,172.16.3.2,5101,172.16.1.2,61390,10499,14480,0,65728,65700,6,6,4,1460,785,1,992,118,33580,0,65700,0,0,0,0,0
o,0x00000000,1716772070.154946,172.16.3.2,5101,172.16.1.2,61390,10499,14480,0,65728,65700,6,6,4,1460,785,1,993,118,33580,0,65700,1448,0,0,0,0
i,0x00000000,1716772070.175730,172.16.3.2,5101,172.16.1.2,61390,10499,14480,0,65728,65700,6,6,4,1460,785,1,992,118,33580,0,65700,0,0,0,0,0
i,0x00000000,1716772070.186304,172.16.3.2,5101,172.16.1.2,61390,10499,14480,0,65728,65700,6,6,4,1460,785,1,992,118,33580,0,65700,0,0,0,0,0
o,0x00000000,1716772070.186319,172.16.3.2,5101,172.16.1.2,61390,10499,14480,0,65728,65700,6,6,4,1460,785,1,993,118,33580,0,65700,1448,0,0,0,0
i,0x00000000,1716772070.195838,172.16.3.2,5101,172.16.1.2,61390,10499,14480,0,65728,65700,6,6,4,1460,785,1,992,118,33580,0,65700,0,0,0,0,0
i,0x00000000,1716772070.206046,172.16.3.2,5101,172.16.1.2,61390,10499,14480,0,65728,65700,6,6,4,1460,785,1,992,118,33580,0,65700,0,0,0,0,0
o,0x00000000,1716772070.206053,172.16.3.2,5101,172.16.1.2,61390,10499,14480,0,65728,65700,6,6,4,1460,785,1,993,118,33580,0,65700,1448,0,0,0,0
i,0x00000000,1716772070.215436,172.16.3.2,5101,172.16.1.2,61390,10499,14480,0,65728,65700,6,6,4,1460,785,1,992,118,33580,0,65700,0,0,0,0,0
o,0x00000000,1716772070.250089,172.16.3.2,5101,172.16.1.2,61390,10499,14480,0,65728,65700,6,6,4,1460,785,1,993,118,33580,0,65700,0,0,0,0,0
i,0x00000000,1716772070.305402,172.16.3.2,5101,172.16.1.2,61390,10499,14480,0,65728,65700,6,6,4,1460,785,1,992,118,33580,0,65700,0,0,0,0,0
o,0x00000000,1716772070.339943,172.16.3.2,5101,172.16.1.2,61390,10499,14480,0,65728,65700,6,6,4,1460,785,1,993,118,33580,0,65700,0,0,0,0,0
i,0x00000000,1716772070.646471,172.16.3.2,5101,172.16.1.2,61390,10499,14480,0,65728,65700,6,6,4,1460,785,1,992,118,33580,0,65700,0,0,0,0,0
i,0x00000000,1716772070.655896,172.16.3.2,5101,172.16.1.2,61390,10499,14480,0,65728,65700,6,6,4,1460,785,1,992,118,33580,0,65700,0,0,0,0,0
o,0x00000000,1716772070.655907,172.16.3.2,5101,172.16.1.2,61390,10499,14480,0,65728,65700,6,6,4,1460,785,1,993,118,33580,0,65700,1448,0,0,0,0
i,0x00000000,1716772070.665964,172.16.3.2,5101,172.16.1.2,61390,10499,14480,0,65728,65700,6,6,4,1460,785,1,992,118,33580,0,65700,0,0,0,0,0
i,0x00000000,1716772070.676249,172.16.3.2,5101,172.16.1.2,61390,10499,14480,0,65728,65700,6,6,4,1460,785,1,992,118,33580,0,65700,0,0,0,0,0
o,0x00000000,1716772070.676257,172.16.3.2,5101,172.16.1.2,61390,10499,14480,0,65728,65700,6,6,4,1460,785,1,993,118,33580,0,65700,1448,0,0,0,0
i,0x00000000,1716772070.696218,172.16.3.2,5101,172.16.1.2,61390,10499,14480,0,65728,65700,6,6,4,1460,785,1,992,118,33580,0,65700,0,0,0,0,0
i,0x00000000,1716772070.706785,172.16.3.2,5101,172.16.1.2,61390,10499,14480,0,65728,65700,6,6,4,1460,785,1,992,118,33580,0,65700,0,0,0,0,0
o,0x00000000,1716772070.706791,172.16.3.2,5101,172.16.1.2,61390,10499,14480,0,65728,65700,6,6,4,1460,785,1,993,118,33580,0,65700,1448,0,0,0,0
i,0x00000000,1716772070.716085,172.16.3.2,5101,172.16.1.2,61390,10499,14480,0,65728,65700,6,6,4,1460,785,1,992,118,33580,0,65700,0,0,0,0,0
i,0x00000000,1716772070.726602,172.16.3.2,5101,172.16.1.2,61390,10499,14480,0,65728,65700,6,6,4,1460,785,1,992,118,33580,0,65700,0,0,0,0,0
o,0x00000000,1716772070.726611,172.16.3.2,5101,172.16.1.2,61390,10499,14480,0,65728,65700,6,6,4,1460,785,1,993,118,33580,0,65700,1448,0,0,0,0
i,0x00000000,1716772070.736826,172.16.3.2,5101,172.16.1.2,61390,10499,14480,0,65728,65700,6,6,4,1460,785,1,992,118,33580,0,65700,0,0,0,0,0
i,0x00000000,1716772070.756382,172.16.3.2,5101,172.16.1.2,61390,10499,14480,0,65728,65700,6,6,4,1460,785,1,992,118,33580,0,65700,0,0,0,0,0
o,0x00000000,1716772070.756391,172.16.3.2,5101,172.16.1.2,61390,10499,14480,0,65728,65700,6,6,4,1460,785,1,993,118,33580,0,65700,1448,0,0,0,0
i,0x00000000,1716772070.766877,172.16.3.2,5101,172.16.1.2,61390,10499,14480,0,65728,65700,6,6,4,1460,785,1,992,118,33580,0,65700,0,0,0,0,0
i,0x00000000,1716772070.776259,172.16.3.2,5101,172.16.1.2,61390,10499,14480,0,65728,65700,6,6,4,1460,785,1,992,118,33580,0,65700,0,0,0,0,0
o,0x00000000,1716772070.776265,172.16.3.2,5101,172.16.1.2,61390,10499,14480,0,65728,65700,6,6,4,1460,785,1,993,118,33580,0,65700,1448,0,0,0,0
i,0x00000000,1716772070.786708,172.16.3.2,5101,172.16.1.2,61390,10499,14480,0,65728,65700,6,6,4,1460,785,1,992,118,33580,0,65700,0,0,0,0,0
i,0x00000000,1716772070.796103,172.16.3.2,5101,172.16.1.2,61390,10499,14480,0,65728,65700,6,6,4,1460,785,1,992,118,33580,0,65700,0,0,0,0,0
o,0x00000000,1716772070.796109,172.16.3.2,5101,172.16.1.2,61390,10499,14480,0,65728,65700,6,6,4,1460,785,1,993,118,33580,0,65700,1448,0,0,0,0
i,0x00000000,1716772070.815723,172.16.3.2,5101,172.16.1.2,61390,10499,14480,0,65728,65700,6,6,4,1460,785,1,992,118,33580,0,65700,0,0,0,0,0
i,0x00000000,1716772070.827263,172.16.3.2,5101,172.16.1.2,61390,10499,14480,0,65728,65700,6,6,4,1460,785,1,992,118,33580,0,65700,0,0,0,0,0
o,0x00000000,1716772070.827270,172.16.3.2,5101,172.16.1.2,61390,10499,14480,0,65728,65700,6,6,4,1460,785,1,993,118,33580,0,65700,1448,0,0,0,0
i,0x00000000,1716772070.836652,172.16.3.2,5101,172.16.1.2,61390,10499,14480,0,65728,65700,6,6,4,1460,785,1,992,118,33580,0,65700,0,0,0,0,0
i,0x00000000,1716772070.846689,172.16.3.2,5101,172.16.1.2,61390,10499,14480,0,65728,65700,6,6,4,1460,785,1,992,118,33580,0,65700,0,0,0,0,0
o,0x00000000,1716772070.846700,172.16.3.2,5101,172.16.1.2,61390,10499,14480,0,65728,65700,6,6,4,1460,785,1,993,118,33580,0,65700,1448,0,0,0,0
i,0x00000000,1716772070.857062,172.16.3.2,5101,172.16.1.2,61390,10499,14480,0,65728,65700,6,6,4,1460,785,1,992,118,33580,0,65700,0,0,0,0,0
i,0x00000000,1716772070.876096,172.16.3.2,5101,172.16.1.2,61390,10499,14480,0,65728,65700,6,6,4,1460,785,1,992,118,33580,0,65700,0,0,0,0,0
o,0x00000000,1716772070.876103,172.16.3.2,5101,172.16.1.2,61390,10499,14480,0,65728,65700,6,6,4,1460,785,1,993,118,33580,0,65700,1448,0,0,0,0
i,0x00000000,1716772070.887154,172.16.3.2,5101,172.16.1.2,61390,10499,14480,0,65728,65700,6,6,4,1460,785,1,992,118,33580,0,65700,0,0,0,0,0
i,0x00000000,1716772070.896703,172.16.3.2,5101,172.16.1.2,61390,10499,14480,0,65728,65700,6,6,4,1460,785,1,992,118,33580,0,65700,0,0,0,0,0
o,0x00000000,1716772070.896708,172.16.3.2,5101,172.16.1.2,61390,10499,14480,0,65728,65700,6,6,4,1460,785,1,993,118,33580,0,65700,1448,0,0,0,0
i,0x00000000,1716772070.906893,172.16.3.2,5101,172.16.1.2,61390,10499,14480,0,65728,65700,6,6,4,1460,785,1,992,118,33580,0,65700,0,0,0,0,0
i,0x00000000,1716772070.916488,172.16.3.2,5101,172.16.1.2,61390,10499,14480,0,65728,65700,6,6,4,1460,785,1,992,118,33580,0,65700,0,0,0,0,0
o,0x00000000,1716772070.916496,172.16.3.2,5101,172.16.1.2,61390,10499,14480,0,65728,65700,6,6,4,1460,785,1,993,118,33580,0,65700,1448,0,0,0,0
i,0x00000000,1716772070.937103,172.16.3.2,5101,172.16.1.2,61390,10499,14480,0,65728,65700,6,6,4,1460,785,1,992,118,33580,0,65700,0,0,0,0,0
i,0x00000000,1716772070.946446,172.16.3.2,5101,172.16.1.2,61390,10499,14480,0,65728,65700,6,6,4,1460,785,1,992,118,33580,0,65700,0,0,0,0,0
o,0x00000000,1716772070.946455,172.16.3.2,5101,172.16.1.2,61390,10499,14480,0,65728,65700,6,6,4,1460,785,1,993,118,33580,0,65700,1448,0,0,0,0
i,0x00000000,1716772070.955836,172.16.3.2,5101,172.16.1.2,61390,10499,14480,0,65728,65700,6,6,4,1460,785,1,992,118,33580,0,65700,0,0,0,0,0
i,0x00000000,1716772070.966441,172.16.3.2,5101,172.16.1.2,61390,10499,14480,0,65728,65700,6,6,4,1460,785,1,992,118,33580,0,65700,0,0,0,0,0
o,0x00000000,1716772070.966447,172.16.3.2,5101,172.16.1.2,61390,10499,14480,0,65728,65700,6,6,4,1460,785,1,993,118,33580,0,65700,1448,0,0,0,0
i,0x00000000,1716772070.976644,172.16.3.2,5101,172.16.1.2,61390,10499,14480,0,65728,65700,6,6,4,1460,785,1,992,118,33580,0,65700,0,0,0,0,0
i,0x00000000,1716772070.996372,172.16.3.2,5101,172.16.1.2,61390,10499,14480,0,65728,65700,6,6,4,1460,785,1,992,118,33580,0,65700,0,0,0,0,0
o,0x00000000,1716772070.996379,172.16.3.2,5101,172.16.1.2,61390,10499,14480,0,65728,65700,6,6,4,1460,785,1,993,118,33580,0,65700,1448,0,0,0,0
i,0x00000000,1716772071.036942,172.16.3.2,5101,172.16.1.2,61390,10499,14480,0,65728,65700,6,6,4,1460,785,1,992,118,33580,0,65700,0,0,0,0,0
o,0x00000000,1716772071.069327,172.16.3.2,5101,172.16.1.2,61390,10499,14480,0,65728,65700,6,6,4,1460,785,1,993,118,33580,0,65700,0,0,0,0,0
o,0x00000000,1716772071.078840,10.0.2.15,22,10.0.2.2,60131,1073725440,14600,0,65535,65700,0,0,4,1460,1,0,4,24,33580,108,65700,0,0,0,0,0
i,0x00000000,1716772071.079568,10.0.2.15,22,10.0.2.2,60131,1073725440,14600,0,65535,65700,0,0,4,1460,1,0,4,24,33580,108,65700,0,108,0,0,0
i,0x00000000,1716772071.417194,172.16.3.2,5101,172.16.1.2,61390,10499,14480,0,65728,65700,6,6,4,1460,785,1,992,118,33580,0,65700,0,0,0,0,0
i,0x00000000,1716772071.446942,172.16.3.2,5101,172.16.1.2,61390,10499,14480,0,65728,65700,6,6,4,1460,785,1,992,118,33580,0,65700,0,0,0,0,0
o,0x00000000,1716772071.446958,172.16.3.2,5101,172.16.1.2,61390,10499,14480,0,65728,65700,6,6,4,1460,785,1,993,118,33580,0,65700,1448,0,0,0,0
i,0x00000000,1716772071.457384,172.16.3.2,5101,172.16.1.2,61390,10499,14480,0,65728,65700,6,6,4,1460,785,1,992,118,33580,0,65700,0,0,0,0,0
i,0x00000000,1716772071.476785,172.16.3.2,5101,172.16.1.2,61390,10499,14480,0,65728,65700,6,6,4,1460,785,1,992,118,33580,0,65700,0,0,0,0,0
o,0x00000000,1716772071.476802,172.16.3.2,5101,172.16.1.2,61390,10499,14480,0,65728,65700,6,6,4,1460,785,1,993,118,33580,0,65700,1448,0,0,0,0
i,0x00000000,1716772071.487582,172.16.3.2,5101,172.16.1.2,61390,10499,14480,0,65728,65700,6,6,4,1460,785,1,992,118,33580,0,65700,0,0,0,0,0
i,0x00000000,1716772071.497099,172.16.3.2,5101,172.16.1.2,61390,10499,14480,0,65728,65700,6,6,4,1460,785,1,992,118,33580,0,65700,0,0,0,0,0
o,0x00000000,1716772071.497106,172.16.3.2,5101,172.16.1.2,61390,10499,14480,0,65728,65700,6,6,4,1460,785,1,993,118,33580,0,65700,1448,0,0,0,0
i,0x00000000,1716772071.507433,172.16.3.2,5101,172.16.1.2,61390,10499,14480,0,65728,65700,6,6,4,1460,785,1,992,118,33580,0,65700,0,0,0,0,0
i,0x00000000,1716772071.516899,172.16.3.2,5101,172.16.1.2,61390,10499,14480,0,65728,65700,6,6,4,1460,785,1,992,118,33580,0,65700,0,0,0,0,0
o,0x00000000,1716772071.516907,172.16.3.2,5101,172.16.1.2,61390,10499,14480,0,65728,65700,6,6,4,1460,785,1,993,118,33580,0,65700,1448,0,0,0,0
i,0x00000000,1716772071.536554,172.16.3.2,5101,172.16.1.2,61390,10499,14480,0,65728,65700,6,6,4,1460,785,1,992,118,33580,0,65700,0,0,0,0,0
i,0x00000000,1716772071.546948,172.16.3.2,5101,172.16.1.2,61390,10499,14480,0,65728,65700,6,6,4,1460,785,1,992,118,33580,0,65700,0,0,0,0,0
o,0x00000000,1716772071.546958,172.16.3.2,5101,172.16.1.2,61390,10499,14480,0,65728,65700,6,6,4,1460,785,1,993,118,33580,0,65700,1448,0,0,0,0
i,0x00000000,1716772071.557477,172.16.3.2,5101,172.16.1.2,61390,10499,14480,0,65728,65700,6,6,4,1460,785,1,992,118,33580,0,65700,0,0,0,0,0
i,0x00000000,1716772071.566656,172.16.3.2,5101,172.16.1.2,61390,10499,14480,0,65728,65700,6,6,4,1460,785,1,992,118,33580,0,65700,0,0,0,0,0
o,0x00000000,1716772071.566663,172.16.3.2,5101,172.16.1.2,61390,10499,14480,0,65728,65700,6,6,4,1460,785,1,993,118,33580,0,65700,1448,0,0,0,0
i,0x00000000,1716772071.576173,172.16.3.2,5101,172.16.1.2,61390,10499,14480,0,65728,65700,6,6,4,1460,785,1,992,118,33580,0,65700,0,0,0,0,0
i,0x00000000,1716772071.596895,172.16.3.2,5101,172.16.1.2,61390,10499,14480,0,65728,65700,6,6,4,1460,785,1,992,118,33580,0,65700,0,0,0,0,0
o,0x00000000,1716772071.596901,172.16.3.2,5101,172.16.1.2,61390,10499,14480,0,65728,65700,6,6,4,1460,785,1,993,118,33580,0,65700,1448,0,0,0,0
i,0x00000000,1716772071.607256,172.16.3.2,5101,172.16.1.2,61390,10499,14480,0,65728,65700,6,6,4,1460,785,1,992,118,33580,0,65700,0,0,0,0,0
i,0x00000000,1716772071.617632,172.16.3.2,5101,172.16.1.2,61390,10499,14480,0,65728,65700,6,6,4,1460,785,1,992,118,33580,0,65700,0,0,0,0,0
o,0x00000000,1716772071.617644,172.16.3.2,5101,172.16.1.2,61390,10499,14480,0,65728,65700,6,6,4,1460,785,1,993,118,33580,0,65700,1448,0,0,0,0
i,0x00000000,1716772071.626988,172.16.3.2,5101,172.16.1.2,61390,10499,14480,0,65728,65700,6,6,4,1460,785,1,992,118,33580,0,65700,0,0,0,0,0
i,0x00000000,1716772071.637475,172.16.3.2,5101,172.16.1.2,61390,10499,14480,0,65728,65700,6,6,4,1460,785,1,992,118,33580,0,65700,0,0,0,0,0
o,0x00000000,1716772071.637482,172.16.3.2,5101,172.16.1.2,61390,10499,14480,0,65728,65700,6,6,4,1460,785,1,993,118,33580,0,65700,1448,0,0,0,0
i,0x00000000,1716772071.656199,172.16.3.2,5101,172.16.1.2,61390,10499,14480,0,65728,65700,6,6,4,1460,785,1,992,118,33580,0,65700,0,0,0,0,0
i,0x00000000,1716772071.666220,172.16.3.2,5101,172.16.1.2,61390,10499,14480,0,65728,65700,6,6,4,1460,785,1,992,118,33580,0,65700,0,0,0,0,0
o,0x00000000,1716772071.666227,172.16.3.2,5101,172.16.1.2,61390,10499,14480,0,65728,65700,6,6,4,1460,785,1,993,118,33580,0,65700,1448,0,0,0,0
i,0x00000000,1716772071.677086,172.16.3.2,5101,172.16.1.2,61390,10499,14480,0,65728,65700,6,6,4,1460,785,1,992,118,33580,0,65700,0,0,0,0,0
i,0x00000000,1716772071.687356,172.16.3.2,5101,172.16.1.2,61390,10499,14480,0,65728,65700,6,6,4,1460,785,1,992,118,33580,0,65700,0,0,0,0,0
o,0x00000000,1716772071.687362,172.16.3.2,5101,172.16.1.2,61390,10499,14480,0,65728,65700,6,6,4,1460,785,1,993,118,33580,0,65700,1448,0,0,0,0
i,0x00000000,1716772071.697541,172.16.3.2,5101,172.16.1.2,61390,10499,14480,0,65728,65700,6,6,4,1460,785,1,992,118,33580,0,65700,0,0,0,0,0
i,0x00000000,1716772071.717302,172.16.3.2,5101,172.16.1.2,61390,10499,14480,0,65728,65700,6,6,4,1460,785,1,992,118,33580,0,65700,0,0,0,0,0
o,0x00000000,1716772071.717313,172.16.3.2,5101,172.16.1.2,61390,10499,14480,0,65728,65700,6,6,4,1460,785,1,993,118,33580,0,65700,1448,0,0,0,0
i,0x00000000,1716772071.727783,172.16.3.2,5101,172.16.1.2,61390,10499,14480,0,65728,65700,6,6,4,1460,785,1,992,118,33580,0,65700,0,0,0,0,0
