enable_time_secs=1723652998	enable_time_usecs=312353	siftrver=1.3.0	sysname=FreeBSD	sysver=1401000	ipmode=4
o,1723652998.312654,10.0.2.15,22,10.0.2.2,50516,1073725440,17746,1026,65535,65700,0,0,4,1460,312,0,16777220,240000,33580,60,65700,0,0,0,2381682518,63
i,1723652998.313740,10.0.2.15,22,10.0.2.2,50516,1073725440,17746,1026,65535,65700,0,0,4,1460,312,0,16777220,240000,33580,60,65700,0,60,0,2381682518,63
o,1723652998.313857,10.0.2.15,22,10.0.2.2,50516,1073725440,17806,1026,65535,65700,0,0,4,1460,312,0,16777220,240000,33580,148,65700,0,0,0,2381682518,63
o,1723652998.314131,10.0.2.15,22,10.0.2.2,50516,1073725440,17806,1026,65535,65700,0,0,4,1460,312,0,16777220,240000,33580,220,65700,0,148,0,2381682518,63
i,1723652998.314502,10.0.2.15,22,10.0.2.2,50516,1073725440,17806,1026,65535,65700,0,0,4,1460,312,0,16777220,240000,33580,220,65700,0,220,0,2381682518,63
i,1723652998.314527,10.0.2.15,22,10.0.2.2,50516,1073725440,17954,1026,65535,65700,0,0,4,1460,312,0,4,240000,33580,72,65700,0,72,0,2381682518,63
i,1723652998.314601,10.0.2.15,22,10.0.2.2,50516,1073725440,18026,1026,65535,65700,0,0,4,1460,312,0,4,240000,33580,0,65700,0,0,0,2381682518,63
i,1723652998.314631,10.0.2.15,22,10.0.2.2,50516,1073725440,18026,1026,65535,65700,0,0,4,1460,312,0,4,240000,33580,0,65700,96,0,0,2381682518,63
o,1723652998.314656,10.0.2.15,22,10.0.2.2,50516,1073725440,18026,1026,65535,65604,0,0,5,1460,312,0,5,240000,33580,0,65700,96,0,0,2381682518,63
o,1723652998.315570,10.0.2.15,22,10.0.2.2,50516,1073725440,18026,1026,65535,65604,0,0,8,1460,312,0,4,240000,33580,0,65700,0,0,0,2381682518,63
i,1723652998.316086,10.0.2.15,22,10.0.2.2,50516,1073725440,18026,1026,65535,65604,0,0,8,1460,312,0,67108884,240000,33580,0,65700,0,1,0,2381682518,63
i,1723653000.580223,10.0.2.15,22,10.0.2.2,50524,1073725440,14600,0,65535,65700,0,0,4,1460,312,0,16777216,270000,33580,0,65700,0,0,0,1506783149,63
o,1723653000.589437,10.0.2.15,22,10.0.2.2,50524,1073725440,14600,1026,65535,65700,0,0,4,1460,312,0,16777216,270000,33580,38,65700,42,0,0,1506783149,63
i,1723653000.590140,10.0.2.15,22,10.0.2.2,50524,1073725440,14600,1026,65535,65700,0,0,4,1460,312,0,16777216,270000,33580,38,65700,0,38,0,1506783149,63
i,1723653000.590477,10.0.2.15,22,10.0.2.2,50524,1073725440,14638,1026,65535,65700,0,0,4,1460,312,0,0,240000,33580,0,65700,0,0,0,1506783149,63
i,1723653000.590500,10.0.2.15,22,10.0.2.2,50524,1073725440,14638,1026,65535,65700,0,0,4,1460,312,0,0,240000,33580,0,65700,1460,0,0,1506783149,63
o,1723653000.590522,10.0.2.15,22,10.0.2.2,50524,1073725440,14638,1026,65535,65700,0,0,4,1460,312,0,1,240000,33580,0,65700,1536,0,0,1506783149,63
o,1723653000.591267,10.0.2.15,22,10.0.2.2,50524,1073725440,14638,1026,65535,65700,0,0,4,1460,312,0,16777216,240000,33580,1120,65700,1536,0,0,1506783149,63
i,1723653000.592381,10.0.2.15,22,10.0.2.2,50524,1073725440,14638,1026,65535,65700,0,0,4,1460,312,0,16777216,240000,33580,1120,65700,0,1120,0,1506783149,63
i,1723653000.593163,10.0.2.15,22,10.0.2.2,50524,1073725440,15758,1026,65535,65700,0,0,4,1460,312,0,0,240000,33580,0,65700,0,0,0,1506783149,63
o,1723653000.596074,10.0.2.15,22,10.0.2.2,50524,1073725440,15758,1026,65535,65700,0,0,4,1460,312,0,16777216,240000,33580,492,65700,0,0,0,1506783149,63
i,1723653000.596557,10.0.2.15,22,10.0.2.2,50524,1073725440,15758,1026,65535,65700,0,0,4,1460,312,0,16777216,240000,33580,492,65700,0,492,0,1506783149,63
i,1723653000.601504,10.0.2.15,22,10.0.2.2,50524,1073725440,16250,1026,65535,65700,0,0,4,1460,312,0,0,240000,33580,0,65700,0,0,0,1506783149,63
i,1723653000.601524,10.0.2.15,22,10.0.2.2,50524,1073725440,16250,1026,65535,65700,0,0,4,1460,312,0,0,240000,33580,0,65700,16,0,0,1506783149,63
o,1723653000.601542,10.0.2.15,22,10.0.2.2,50524,1073725440,16250,1026,65535,65700,0,0,4,1460,312,0,1,240000,33580,0,65700,60,0,0,1506783149,63
o,1723653000.601757,10.0.2.15,22,10.0.2.2,50524,1073725440,16250,1026,65535,65700,0,0,4,1460,312,0,16777216,240000,33580,44,65700,0,0,0,1506783149,63
i,1723653000.601757,10.0.2.15,22,10.0.2.2,50524,1073725440,16250,1026,65535,65700,0,0,4,1460,312,0,16777216,240000,33580,44,65700,0,44,0,1506783149,63
i,1723653000.601757,10.0.2.15,22,10.0.2.2,50524,1073725440,16294,1026,65535,65700,0,0,4,1460,312,0,0,240000,33580,0,65700,0,0,0,1506783149,63
o,1723653000.603588,10.0.2.15,22,10.0.2.2,50524,1073725440,16294,1026,65535,65700,0,0,4,1460,312,0,16777216,240000,33580,68,65700,0,0,0,1506783149,63
i,1723653000.604425,10.0.2.15,22,10.0.2.2,50524,1073725440,16294,1026,65535,65700,0,0,4,1460,312,0,16777216,240000,33580,68,65700,0,68,0,1506783149,63
i,1723653000.604457,10.0.2.15,22,10.0.2.2,50524,1073725440,16362,1026,65535,65700,0,0,4,1460,312,0,0,240000,33580,0,65700,0,0,0,1506783149,63
o,1723653000.605748,10.0.2.15,22,10.0.2.2,50524,1073725440,16362,1026,65535,65700,0,0,4,1460,312,0,16777216,240000,33580,332,65700,0,0,0,1506783149,63
i,1723653000.606669,10.0.2.15,22,10.0.2.2,50524,1073725440,16362,1026,65535,65700,0,0,4,1460,312,0,16777216,240000,33580,332,65700,0,332,0,1506783149,63
i,1723653000.607838,10.0.2.15,22,10.0.2.2,50524,1073725440,16694,1026,65535,65700,0,0,4,1460,312,0,0,240000,33580,0,65700,0,0,0,1506783149,63
o,1723653000.626266,10.0.2.15,22,10.0.2.2,50524,1073725440,16694,1026,65535,65700,0,0,4,1460,312,0,16777216,240000,33580,28,65700,0,0,0,1506783149,63
i,1723653000.627016,10.0.2.15,22,10.0.2.2,50524,1073725440,16694,1026,65535,65700,0,0,4,1460,312,0,16777216,240000,33580,28,65700,0,28,0,1506783149,63
i,1723653000.627443,10.0.2.15,22,10.0.2.2,50524,1073725440,16722,1026,65535,65700,0,0,4,1460,312,0,0,240000,33580,0,65700,0,0,0,1506783149,63
o,1723653000.628818,10.0.2.15,22,10.0.2.2,50524,1073725440,16722,1026,65535,65700,0,0,4,1460,312,0,16777216,240000,33580,768,65700,112,0,0,1506783149,63
i,1723653000.629220,10.0.2.15,22,10.0.2.2,50524,1073725440,16722,1026,65535,65700,0,0,4,1460,312,0,16777216,240000,33580,908,65700,112,768,0,1506783149,63
o,1723653000.629238,10.0.2.15,22,10.0.2.2,50524,1073725440,17490,1026,65535,65700,0,0,4,1460,312,0,16777216,240000,33580,140,65700,112,0,0,1506783149,63
i,1723653000.629417,10.0.2.15,22,10.0.2.2,50524,1073725440,17490,1026,65535,65700,0,0,4,1460,312,0,16777216,240000,33580,140,65700,112,140,0,1506783149,63
o,1723653000.629618,10.0.2.15,22,10.0.2.2,50524,1073725440,17630,1026,65535,65700,0,0,4,1460,312,0,16777216,240000,33580,44,65700,0,0,0,1506783149,63
i,1723653000.630097,10.0.2.15,22,10.0.2.2,50524,1073725440,17630,1026,65535,65700,0,0,4,1460,312,0,16777216,240000,33580,44,65700,0,44,0,1506783149,63
i,1723653000.630114,10.0.2.15,22,10.0.2.2,50524,1073725440,17674,1026,65535,65700,0,0,4,1460,312,0,0,240000,33580,0,65700,0,0,0,1506783149,63
o,1723653000.630650,10.0.2.15,22,10.0.2.2,50524,1073725440,17674,1026,65535,65700,0,0,4,1460,312,0,16777220,240000,33580,72,65700,0,0,0,1506783149,63
i,1723653000.631072,10.0.2.15,22,10.0.2.2,50524,1073725440,17674,1026,65535,65700,0,0,4,1460,312,0,16777220,240000,33580,72,65700,0,72,0,1506783149,63
o,1723653000.633313,10.0.2.15,22,10.0.2.2,50524,1073725440,17746,1026,65535,65700,0,0,4,1460,312,0,16777220,240000,33580,104,65700,0,0,0,1506783149,63
i,1723653000.633762,10.0.2.15,22,10.0.2.2,50524,1073725440,17746,1026,65535,65700,0,0,4,1460,312,0,16777220,240000,33580,104,65700,0,104,0,1506783149,63
o,1723653000.634112,10.0.2.15,22,10.0.2.2,50524,1073725440,17850,1026,65535,65700,0,0,4,1460,312,0,16777220,240000,33580,72,65700,0,0,0,1506783149,63
i,1723653000.634948,10.0.2.15,22,10.0.2.2,50524,1073725440,17850,1026,65535,65700,0,0,4,1460,312,0,16777220,240000,33580,72,65700,0,72,0,1506783149,63
i,1723653000.634966,10.0.2.15,22,10.0.2.2,50524,1073725440,17922,1026,65535,65700,0,0,4,1460,312,0,4,240000,33580,0,65700,0,0,0,1506783149,63
i,1723653000.635022,10.0.2.15,22,10.0.2.2,50524,1073725440,17922,1026,65535,65700,0,0,4,1460,312,0,4,240000,33580,0,65700,96,0,0,1506783149,63
o,1723653000.635040,10.0.2.15,22,10.0.2.2,50524,1073725440,17922,1026,65535,65604,0,0,5,1460,312,0,5,240000,33580,0,65700,96,0,0,1506783149,63
o,1723653000.647749,10.0.2.15,22,10.0.2.2,50524,1073725440,17922,1026,65535,65604,0,0,8,1460,312,0,4,240000,33580,0,65700,0,0,0,1506783149,63
i,1723653000.649386,10.0.2.15,22,10.0.2.2,50524,1073725440,17922,1026,65535,65604,0,0,8,1460,312,0,67108884,240000,33580,0,65700,0,1,0,1506783149,63
i,1723653002.818672,10.0.2.15,22,10.0.2.2,50526,1073725440,14600,0,65535,65700,0,0,4,1460,312,0,16777216,270000,33580,0,65700,0,0,0,153570369,63
o,1723653002.839908,10.0.2.15,22,10.0.2.2,50526,1073725440,14600,1026,65535,65700,0,0,4,1460,312,0,16777216,270000,33580,38,65700,42,0,0,153570369,63
i,1723653002.841344,10.0.2.15,22,10.0.2.2,50526,1073725440,14600,1026,65535,65700,0,0,4,1460,312,0,16777216,270000,33580,38,65700,0,38,0,153570369,63
i,1723653002.842070,10.0.2.15,22,10.0.2.2,50526,1073725440,14638,1026,65535,65700,0,0,4,1460,312,0,0,240000,33580,0,65700,0,0,0,153570369,63
i,1723653002.842100,10.0.2.15,22,10.0.2.2,50526,1073725440,14638,1026,65535,65700,0,0,4,1460,312,0,0,240000,33580,0,65700,1460,0,0,153570369,63
o,1723653002.842126,10.0.2.15,22,10.0.2.2,50526,1073725440,14638,1026,65535,65700,0,0,4,1460,312,0,1,240000,33580,0,65700,1536,0,0,153570369,63
o,1723653002.843616,10.0.2.15,22,10.0.2.2,50526,1073725440,14638,1026,65535,65700,0,0,4,1460,312,0,16777216,240000,33580,1120,65700,1536,0,0,153570369,63
i,1723653002.845039,10.0.2.15,22,10.0.2.2,50526,1073725440,14638,1026,65535,65700,0,0,4,1460,312,0,16777216,240000,33580,1120,65700,0,1120,0,153570369,63
i,1723653002.846056,10.0.2.15,22,10.0.2.2,50526,1073725440,15758,1026,65535,65700,0,0,4,1460,312,0,0,240000,33580,0,65700,0,0,0,153570369,63
o,1723653002.849760,10.0.2.15,22,10.0.2.2,50526,1073725440,15758,1026,65535,65700,0,0,4,1460,312,0,16777216,240000,33580,492,65700,0,0,0,153570369,63
i,1723653002.850303,10.0.2.15,22,10.0.2.2,50526,1073725440,15758,1026,65535,65700,0,0,4,1460,312,0,16777216,240000,33580,492,65700,0,492,0,153570369,63
i,1723653002.857306,10.0.2.15,22,10.0.2.2,50526,1073725440,16250,1026,65535,65700,0,0,4,1460,312,0,0,240000,33580,0,65700,0,0,0,153570369,63
i,1723653002.857306,10.0.2.15,22,10.0.2.2,50526,1073725440,16250,1026,65535,65700,0,0,4,1460,312,0,0,240000,33580,0,65700,16,0,0,153570369,63
o,1723653002.857306,10.0.2.15,22,10.0.2.2,50526,1073725440,16250,1026,65535,65700,0,0,4,1460,312,0,1,240000,33580,0,65700,60,0,0,153570369,63
o,1723653002.857862,10.0.2.15,22,10.0.2.2,50526,1073725440,16250,1026,65535,65700,0,0,4,1460,312,0,16777216,240000,33580,44,65700,0,0,0,153570369,63
i,1723653002.858750,10.0.2.15,22,10.0.2.2,50526,1073725440,16250,1026,65535,65700,0,0,4,1460,312,0,16777216,240000,33580,44,65700,0,44,0,153570369,63
i,1723653002.858778,10.0.2.15,22,10.0.2.2,50526,1073725440,16294,1026,65535,65700,0,0,4,1460,312,0,0,240000,33580,0,65700,0,0,0,153570369,63
o,1723653002.861985,10.0.2.15,22,10.0.2.2,50526,1073725440,16294,1026,65535,65700,0,0,4,1460,312,0,16777216,240000,33580,68,65700,0,0,0,153570369,63
i,1723653002.862998,10.0.2.15,22,10.0.2.2,50526,1073725440,16294,1026,65535,65700,0,0,4,1460,312,0,16777216,240000,33580,68,65700,0,68,0,153570369,63
i,1723653002.863057,10.0.2.15,22,10.0.2.2,50526,1073725440,16362,1026,65535,65700,0,0,4,1460,312,0,0,230000,33580,0,65700,0,0,0,153570369,63
o,1723653002.865924,10.0.2.15,22,10.0.2.2,50526,1073725440,16362,1026,65535,65700,0,0,4,1460,312,0,16777216,230000,33580,332,65700,0,0,0,153570369,63
i,1723653002.866932,10.0.2.15,22,10.0.2.2,50526,1073725440,16362,1026,65535,65700,0,0,4,1460,312,0,16777216,230000,33580,332,65700,0,332,0,153570369,63
i,1723653002.869229,10.0.2.15,22,10.0.2.2,50526,1073725440,16694,1026,65535,65700,0,0,4,1460,312,0,0,230000,33580,0,65700,0,0,0,153570369,63
o,1723653002.883913,10.0.2.15,22,10.0.2.2,50526,1073725440,16694,1026,65535,65700,0,0,4,1460,312,0,16777216,230000,33580,28,65700,0,0,0,153570369,63
i,1723653002.884775,10.0.2.15,22,10.0.2.2,50526,1073725440,16694,1026,65535,65700,0,0,4,1460,312,0,16777216,230000,33580,28,65700,0,28,0,153570369,63
i,1723653002.884802,10.0.2.15,22,10.0.2.2,50526,1073725440,16722,1026,65535,65700,0,0,4,1460,312,0,0,230000,33580,0,65700,0,0,0,153570369,63
o,1723653002.886402,10.0.2.15,22,10.0.2.2,50526,1073725440,16722,1026,65535,65700,0,0,4,1460,312,0,16777216,230000,33580,768,65700,112,0,0,153570369,63
i,1723653002.887322,10.0.2.15,22,10.0.2.2,50526,1073725440,16722,1026,65535,65700,0,0,4,1460,312,0,16777216,230000,33580,908,65700,112,768,0,153570369,63
o,1723653002.887346,10.0.2.15,22,10.0.2.2,50526,1073725440,17490,1026,65535,65700,0,0,4,1460,312,0,16777216,230000,33580,140,65700,112,0,0,153570369,63
i,1723653002.887787,10.0.2.15,22,10.0.2.2,50526,1073725440,17490,1026,65535,65700,0,0,4,1460,312,0,16777216,230000,33580,140,65700,112,140,0,153570369,63
o,1723653002.889533,10.0.2.15,22,10.0.2.2,50526,1073725440,17630,1026,65535,65700,0,0,4,1460,312,0,16777216,240000,33580,44,65700,0,0,0,153570369,63
i,1723653002.890235,10.0.2.15,22,10.0.2.2,50526,1073725440,17630,1026,65535,65700,0,0,4,1460,312,0,16777216,240000,33580,44,65700,0,44,0,153570369,63
i,1723653002.890253,10.0.2.15,22,10.0.2.2,50526,1073725440,17674,1026,65535,65700,0,0,4,1460,312,0,0,240000,33580,0,65700,0,0,0,153570369,63
o,1723653002.892435,10.0.2.15,22,10.0.2.2,50526,1073725440,17674,1026,65535,65700,0,0,4,1460,312,0,16777220,240000,33580,72,65700,0,0,0,153570369,63
i,1723653002.893700,10.0.2.15,22,10.0.2.2,50526,1073725440,17674,1026,65535,65700,0,0,4,1460,312,0,16777220,240000,33580,72,65700,0,72,0,153570369,63
i,1723653002.893730,10.0.2.15,22,10.0.2.2,50526,1073725440,17746,1026,65535,65700,0,0,4,1460,312,0,4,240000,33580,0,65700,0,0,0,153570369,63
o,1723653002.948620,10.0.2.15,22,10.0.2.2,50526,1073725440,17746,1026,65535,65700,0,0,4,1460,312,0,5,240000,33580,0,65700,0,0,0,153570369,63
o,1723653003.018093,172.16.3.2,60025,172.16.1.2,5101,14170,14480,34,65535,65700,6,6,4,1460,210937,1,16778209,750000,33580,0,65700,0,0,0,1210455775,63
o,1723653003.018490,172.16.3.2,60025,172.16.1.2,5101,14170,14480,34,65535,65700,6,6,4,1460,210937,1,16778212,750000,33580,37,65700,0,0,0,1210455775,63
i,1723653003.132192,172.16.3.2,60025,172.16.1.2,5101,14170,14480,34,65535,65700,6,6,4,1460,210937,1,16778212,750000,33580,37,65700,0,37,0,1210455775,63
o,1723653003.132380,172.16.3.2,60025,172.16.1.2,5101,14170,14517,1058,65728,65728,6,6,4,1460,198437,1,16778212,760000,33580,4,65700,0,0,0,1210455775,63
o,1723653003.132795,172.16.3.2,60025,172.16.1.2,5101,14170,14517,1058,65728,65728,6,6,4,1460,198437,1,16778212,760000,33580,130,65700,0,4,0,1210455775,63
i,1723653003.248308,172.16.3.2,60025,172.16.1.2,5101,14170,14517,1058,65728,65728,6,6,4,1460,198437,1,16778212,760000,33580,130,65700,0,130,0,1210455775,63
i,1723653003.248377,172.16.3.2,60025,172.16.1.2,5101,14170,14647,1058,65600,65728,6,6,4,1460,187500,1,996,740000,33580,0,65700,0,0,0,1210455775,63
o,1723653003.344213,172.16.3.2,60025,172.16.1.2,5101,14170,14647,1058,65728,65728,6,6,4,1460,187500,1,997,740000,33580,0,65700,0,0,0,1210455775,63
o,1723653003.370318,172.16.3.2,61346,172.16.1.2,5101,14170,14480,34,65535,65700,6,6,4,1460,210937,1,16778209,750000,33580,0,65700,0,0,0,1855235852,63
o,1723653003.370488,172.16.3.2,61346,172.16.1.2,5101,14170,14480,34,65535,65700,6,6,4,1460,210937,1,16778208,750000,33580,37,65700,0,0,0,1855235852,63
i,1723653003.495541,172.16.3.2,60025,172.16.1.2,5101,14170,14647,1058,65728,65728,6,6,4,1460,187500,1,996,740000,33580,0,65700,0,0,0,1210455775,63
i,1723653003.495640,172.16.3.2,60025,172.16.1.2,5101,14170,14647,1058,65728,65728,6,6,4,1460,187500,1,996,740000,33580,0,65700,1,0,0,1210455775,63
o,1723653003.495668,172.16.3.2,60025,172.16.1.2,5101,14170,14647,1058,65728,65728,6,6,4,1460,187500,1,997,740000,33580,0,65700,2,0,0,1210455775,63
o,1723653003.496187,172.16.3.2,61346,172.16.1.2,5101,14170,14480,38,65535,65700,6,6,4,1460,210937,1,16778208,750000,33580,33580,65700,0,37,0,1855235852,63
i,1723653003.526076,172.16.3.2,61346,172.16.1.2,5101,14170,14480,38,65535,65700,6,6,4,1460,210937,1,16778208,750000,33580,33580,65700,0,13069,0,1855235852,63
o,1723653003.526198,172.16.3.2,61346,172.16.1.2,5101,14170,14517,38,65728,65728,6,6,4,1460,203437,1,16778208,720000,33580,33543,65700,0,13032,0,1855235852,63
i,1723653003.578493,172.16.3.2,61346,172.16.1.2,5101,14170,14517,38,65728,65728,6,6,4,1460,203437,1,16778208,720000,33580,33543,65700,0,14480,0,1855235852,63
o,1723653003.578526,172.16.3.2,61346,172.16.1.2,5101,14170,17413,38,64256,65728,6,6,4,1460,186875,1,16778208,760000,33580,30647,65700,0,11584,0,1855235852,63
i,1723653003.608641,172.16.3.2,61346,172.16.1.2,5101,14170,17413,38,64256,65728,6,6,4,1460,186875,1,16778208,760000,41772,41772,65700,0,17376,0,1855235852,63
o,1723653003.608827,172.16.3.2,61346,172.16.1.2,5101,14170,20309,38,64256,65728,6,6,4,1460,177500,1,16778208,730000,41772,38876,65700,0,14480,0,1855235852,63
i,1723653003.609300,172.16.3.2,61346,172.16.1.2,5101,14170,20309,38,64256,65728,6,6,4,1460,177500,1,16778208,730000,49964,38876,65700,0,20272,0,1855235852,63
o,1723653003.609398,172.16.3.2,61346,172.16.1.2,5101,14170,23205,38,61376,65728,6,6,4,1460,169062,1,16778208,700000,49964,35980,65700,0,17376,0,1855235852,63
i,1723653003.609742,172.16.3.2,61346,172.16.1.2,5101,14170,23205,38,61376,65728,6,6,4,1460,169062,1,16778208,700000,49964,35980,65700,0,23168,0,1855235852,63
o,1723653003.609828,172.16.3.2,61346,172.16.1.2,5101,14170,26101,38,64256,65728,6,6,4,1460,161875,1,16778208,670000,49964,33084,65700,0,20272,0,1855235852,63
i,1723653003.640791,172.16.3.2,61346,172.16.1.2,5101,14170,26101,38,64256,65728,6,6,4,1460,161875,1,16778208,670000,58156,58156,65700,0,26064,0,1855235852,63
o,1723653003.640860,172.16.3.2,61346,172.16.1.2,5101,14170,28997,38,64256,65728,6,6,4,1460,159375,1,16778208,610000,58156,55260,65700,0,23168,0,1855235852,63
o,1723653003.641014,172.16.3.2,61346,172.16.1.2,5101,14170,28997,38,64256,65728,6,6,4,1460,159375,1,16778208,610000,58156,55260,65700,0,24616,0,1855235852,63
i,1723653003.727160,172.16.3.2,61346,172.16.1.2,5101,14170,28997,38,64256,65728,6,6,4,1460,159375,1,16778208,610000,66348,66348,65700,0,28960,0,1855235852,63
o,1723653003.727431,172.16.3.2,61346,172.16.1.2,5101,14170,28997,38,64256,65728,6,6,4,1460,158437,1,16778208,550000,66348,63452,65700,0,26064,0,1855235852,63
i,1723653003.730553,172.16.3.2,61346,172.16.1.2,5101,14170,28997,38,64256,65728,6,6,4,1460,158437,1,16778208,550000,66348,66348,65700,0,28960,0,1855235852,63
o,1723653003.730580,172.16.3.2,61346,172.16.1.2,5101,14170,28997,38,64256,65728,6,6,4,1460,157500,1,16778208,510000,66348,63452,65700,0,26064,0,1855235852,63
i,1723653003.732207,172.16.3.2,61346,172.16.1.2,5101,14170,28997,38,64256,65728,6,6,4,1460,157500,1,16778208,510000,66348,66348,65700,0,28960,0,1855235852,63
o,1723653003.732227,172.16.3.2,61346,172.16.1.2,5101,14170,28997,38,61376,65728,6,6,4,1460,152812,1,16778208,510000,66348,63452,65700,0,26064,0,1855235852,63
i,1723653003.732366,172.16.3.2,61346,172.16.1.2,5101,14170,28997,38,61376,65728,6,6,4,1460,152812,1,16778208,510000,66348,63452,65700,0,28960,0,1855235852,63
o,1723653003.732383,172.16.3.2,61346,172.16.1.2,5101,14170,28997,38,62848,65728,6,6,4,1460,148750,1,16778208,500000,66348,60556,65700,0,26064,0,1855235852,63
i,1723653003.758458,172.16.3.2,61346,172.16.1.2,5101,14170,28997,38,62848,65728,6,6,4,1460,148750,1,16778208,500000,66348,66348,65700,0,28960,0,1855235852,63
o,1723653003.758486,172.16.3.2,61346,172.16.1.2,5101,14170,28997,38,62848,65728,6,6,4,1460,147812,1,16778208,470000,66348,63452,65700,0,26064,0,1855235852,63
i,1723653003.758608,172.16.3.2,61346,172.16.1.2,5101,14170,28997,38,62848,65728,6,6,4,1460,147812,1,16778208,470000,66348,63452,65700,0,28960,0,1855235852,63
o,1723653003.758625,172.16.3.2,61346,172.16.1.2,5101,14170,28997,38,64256,65728,6,6,4,1460,146875,1,16778208,440000,66348,60556,65700,0,26064,0,1855235852,63
i,1723653003.758877,172.16.3.2,61346,172.16.1.2,5101,14170,28997,38,64256,65728,6,6,4,1460,146875,1,16778208,440000,66348,60556,65700,0,28960,0,1855235852,63
o,1723653003.758894,172.16.3.2,61346,172.16.1.2,5101,14170,28997,38,61376,65728,6,6,4,1460,146250,1,16778208,420000,66348,57660,65700,0,26064,0,1855235852,63
i,1723653003.759014,172.16.3.2,61346,172.16.1.2,5101,14170,28997,38,61376,65728,6,6,4,1460,146250,1,16778208,420000,66348,57660,65700,0,28960,0,1855235852,63
o,1723653003.759034,172.16.3.2,61346,172.16.1.2,5101,14170,28997,38,64256,65728,6,6,4,1460,145625,1,16778208,410000,66348,54764,65700,0,26064,0,1855235852,63
i,1723653003.759230,172.16.3.2,61346,172.16.1.2,5101,14170,28997,38,64256,65728,6,6,4,1460,145625,1,16778208,410000,66348,54764,65700,0,28960,0,1855235852,63
o,1723653003.759246,172.16.3.2,61346,172.16.1.2,5101,14170,28997,38,61376,65728,6,6,4,1460,141250,1,16778208,420000,66348,51868,65700,0,26064,0,1855235852,63
o,1723653003.759391,172.16.3.2,61346,172.16.1.2,5101,14170,28997,38,61376,65728,6,6,4,1460,141250,1,16778208,420000,66348,51868,65700,0,27512,0,1855235852,63
i,1723653003.778725,172.16.3.2,61346,172.16.1.2,5101,14170,28997,38,61376,65728,6,6,4,1460,141250,1,16778208,420000,66348,66348,65700,0,28960,0,1855235852,63
o,1723653003.778853,172.16.3.2,61346,172.16.1.2,5101,14170,28997,38,97152,65728,6,6,4,1460,141250,1,16778208,400000,66348,63452,65700,0,26064,0,1855235852,63
i,1723653003.830585,172.16.3.2,61346,172.16.1.2,5101,14170,28997,38,97152,65728,6,6,4,1460,141250,1,16778208,400000,66348,66348,65700,0,28960,0,1855235852,63
o,1723653003.830618,172.16.3.2,61346,172.16.1.2,5101,14170,28997,38,95680,65728,6,6,4,1460,136250,1,16778208,420000,66348,63452,65700,0,26064,0,1855235852,63
i,1723653003.849294,172.16.3.2,61346,172.16.1.2,5101,14170,28997,38,95680,65728,6,6,4,1460,136250,1,16778208,420000,66348,66348,65700,0,28960,0,1855235852,63
o,1723653003.849350,172.16.3.2,61346,172.16.1.2,5101,14170,28997,38,97152,65728,6,6,4,1460,134375,1,16778208,410000,66348,63452,65700,0,26064,0,1855235852,63
i,1723653003.850514,172.16.3.2,61346,172.16.1.2,5101,14170,28997,38,97152,65728,6,6,4,1460,134375,1,16778208,410000,66348,66348,65700,0,28960,0,1855235852,63
o,1723653003.850552,172.16.3.2,61346,172.16.1.2,5101,14170,28997,38,97152,65728,6,6,4,1460,131562,1,16778208,410000,66348,63452,65700,0,26064,0,1855235852,63
i,1723653003.850756,172.16.3.2,61346,172.16.1.2,5101,14170,28997,38,97152,65728,6,6,4,1460,131562,1,16778208,410000,66348,63452,65700,0,28960,0,1855235852,63
o,1723653003.850776,172.16.3.2,61346,172.16.1.2,5101,14170,28997,38,95680,65728,6,6,4,1460,129062,1,16778208,410000,66348,60556,65700,0,26064,0,1855235852,63
i,1723653003.881343,172.16.3.2,61346,172.16.1.2,5101,14170,28997,38,95680,65728,6,6,4,1460,129062,1,16778208,410000,66348,66348,65700,0,28960,0,1855235852,63
o,1723653003.881639,172.16.3.2,61346,172.16.1.2,5101,14170,28997,38,95680,65728,6,6,4,1460,128125,1,16778208,400000,66348,63452,65700,0,26064,0,1855235852,63
i,1723653003.881895,172.16.3.2,61346,172.16.1.2,5101,14170,28997,38,95680,65728,6,6,4,1460,128125,1,16778208,400000,66348,63452,65700,0,28960,0,1855235852,63
o,1723653003.881935,172.16.3.2,61346,172.16.1.2,5101,14170,28997,38,92800,65728,6,6,4,1460,127187,1,16778208,380000,66348,60556,65700,0,26064,0,1855235852,63
i,1723653003.882300,172.16.3.2,61346,172.16.1.2,5101,14170,28997,38,92800,65728,6,6,4,1460,127187,1,16778208,380000,66348,60556,65700,0,28960,0,1855235852,63
o,1723653003.882324,172.16.3.2,61346,172.16.1.2,5101,14170,28997,38,97152,65728,6,6,4,1460,126562,1,16778208,370000,66348,57660,65700,0,26064,0,1855235852,63
i,1723653003.882501,172.16.3.2,61346,172.16.1.2,5101,14170,28997,38,97152,65728,6,6,4,1460,126562,1,16778208,370000,66348,57660,65700,0,28960,0,1855235852,63
o,1723653003.882536,172.16.3.2,61346,172.16.1.2,5101,14170,28997,38,97152,65728,6,6,4,1460,125937,1,16778208,370000,66348,54764,65700,0,26064,0,1855235852,63
i,1723653003.882683,172.16.3.2,61346,172.16.1.2,5101,14170,28997,38,97152,65728,6,6,4,1460,125937,1,16778208,370000,66348,54764,65700,0,28960,0,1855235852,63
o,1723653003.882703,172.16.3.2,61346,172.16.1.2,5101,14170,28997,38,95680,65728,6,6,4,1460,125312,1,16778208,360000,66348,51868,65700,0,26064,0,1855235852,63
o,1723653003.882841,172.16.3.2,61346,172.16.1.2,5101,14170,28997,38,95680,65728,6,6,4,1460,125312,1,16778208,360000,66348,51868,65700,0,27512,0,1855235852,63
i,1723653003.899168,172.16.3.2,61346,172.16.1.2,5101,14170,28997,38,95680,65728,6,6,4,1460,125312,1,16778208,360000,66348,66348,65700,0,28960,0,1855235852,63
o,1723653003.899384,172.16.3.2,61346,172.16.1.2,5101,14170,28997,38,97152,65728,6,6,4,1460,123437,1,16778208,360000,66348,63452,65700,0,26064,0,1855235852,63
i,1723653003.939532,172.16.3.2,61346,172.16.1.2,5101,14170,28997,38,97152,65728,6,6,4,1460,123437,1,16778208,360000,66348,66348,65700,0,28960,0,1855235852,63
o,1723653003.939698,172.16.3.2,61346,172.16.1.2,5101,14170,28997,38,97152,65728,6,6,4,1460,120625,1,16778208,370000,66348,63452,65700,0,26064,0,1855235852,63
i,1723653003.948943,172.16.3.2,61346,172.16.1.2,5101,14170,28997,38,97152,65728,6,6,4,1460,120625,1,16778208,370000,66348,66348,65700,0,28960,0,1855235852,63
o,1723653003.948990,172.16.3.2,61346,172.16.1.2,5101,14170,28997,38,95680,65728,6,6,4,1460,118125,1,16778208,380000,66348,63452,65700,0,26064,0,1855235852,63
i,1723653003.973043,172.16.3.2,61346,172.16.1.2,5101,14170,28997,38,95680,65728,6,6,4,1460,118125,1,16778208,380000,66348,66348,65700,0,28960,0,1855235852,63
o,1723653003.973083,172.16.3.2,61346,172.16.1.2,5101,14170,28997,38,95680,65728,6,6,4,1460,118437,1,16778208,370000,66348,63452,65700,0,26064,0,1855235852,63
i,1723653003.984140,172.16.3.2,61346,172.16.1.2,5101,14170,28997,38,95680,65728,6,6,4,1460,118437,1,16778208,370000,66348,66348,65700,0,28960,0,1855235852,63
o,1723653003.984163,172.16.3.2,61346,172.16.1.2,5101,14170,28997,38,97152,65728,6,6,4,1460,121250,1,16778208,380000,66348,63452,65700,0,26064,0,1855235852,63
i,1723653003.997394,172.16.3.2,61346,172.16.1.2,5101,14170,28997,38,97152,65728,6,6,4,1460,121250,1,16778208,380000,66348,66348,65700,0,28960,0,1855235852,63
o,1723653003.997439,172.16.3.2,61346,172.16.1.2,5101,14170,28997,38,95680,65728,6,6,4,1460,120000,1,16778208,370000,66348,63452,65700,0,26064,0,1855235852,63
i,1723653003.997604,172.16.3.2,61346,172.16.1.2,5101,14170,28997,38,95680,65728,6,6,4,1460,120000,1,16778208,370000,66348,63452,65700,0,28960,0,1855235852,63
o,1723653003.997623,172.16.3.2,61346,172.16.1.2,5101,14170,28997,38,92800,65728,6,6,4,1460,118750,1,16778208,370000,66348,60556,65700,0,26064,0,1855235852,63
i,1723653003.997766,172.16.3.2,61346,172.16.1.2,5101,14170,28997,38,92800,65728,6,6,4,1460,118750,1,16778208,370000,66348,60556,65700,0,28960,0,1855235852,63
o,1723653003.997812,172.16.3.2,61346,172.16.1.2,5101,14170,28997,38,89920,65728,6,6,4,1460,117812,1,16778208,360000,66348,57660,65700,0,26064,0,1855235852,63
i,1723653003.998011,172.16.3.2,61346,172.16.1.2,5101,14170,28997,38,89920,65728,6,6,4,1460,117812,1,16778208,360000,66348,57660,65700,0,28960,0,1855235852,63
o,1723653003.998034,172.16.3.2,61346,172.16.1.2,5101,14170,28997,38,95680,65728,6,6,4,1460,116875,1,16778208,360000,66348,54764,65700,0,26064,0,1855235852,63
i,1723653003.998169,172.16.3.2,61346,172.16.1.2,5101,14170,28997,38,95680,65728,6,6,4,1460,116875,1,16778208,360000,66348,54764,65700,0,28960,0,1855235852,63
o,1723653003.998189,172.16.3.2,61346,172.16.1.2,5101,14170,28997,38,95680,65728,6,6,4,1460,116250,1,16778208,350000,66348,51868,65700,0,26064,0,1855235852,63
o,1723653003.998408,172.16.3.2,61346,172.16.1.2,5101,14170,28997,38,95680,65728,6,6,4,1460,116250,1,16778208,350000,66348,51868,65700,0,27512,0,1855235852,63
i,1723653004.008685,172.16.3.2,61346,172.16.1.2,5101,14170,28997,38,95680,65728,6,6,4,1460,116250,1,16778208,350000,66348,66348,65700,0,28960,0,1855235852,63
o,1723653004.008715,172.16.3.2,61346,172.16.1.2,5101,14170,28997,38,95680,65728,6,6,4,1460,115625,1,16778208,350000,66348,63452,65700,0,26064,0,1855235852,63
i,1723653004.058349,172.16.3.2,61346,172.16.1.2,5101,14170,28997,38,95680,65728,6,6,4,1460,115625,1,16778208,350000,66348,66348,65700,0,28960,0,1855235852,63
o,1723653004.058434,172.16.3.2,61346,172.16.1.2,5101,14170,28997,38,97152,65728,6,6,4,1460,116250,1,16778208,340000,66348,63452,65700,0,26064,0,1855235852,63
i,1723653004.060234,172.16.3.2,61346,172.16.1.2,5101,14170,28997,38,97152,65728,6,6,4,1460,116250,1,16778208,340000,66348,66348,65700,0,28960,0,1855235852,63
o,1723653004.060313,172.16.3.2,61346,172.16.1.2,5101,14170,28997,38,95680,65728,6,6,4,1460,114375,1,16778208,350000,66348,63452,65700,0,26064,0,1855235852,63
i,1723653004.092462,172.16.3.2,61346,172.16.1.2,5101,14170,28997,38,95680,65728,6,6,4,1460,114375,1,16778208,350000,66348,66348,65700,0,28960,0,1855235852,63
o,1723653004.092498,172.16.3.2,61346,172.16.1.2,5101,14170,28997,38,97152,65728,6,6,4,1460,115312,1,16778208,350000,66348,63452,65700,0,26064,0,1855235852,63
i,1723653004.092656,172.16.3.2,61346,172.16.1.2,5101,14170,28997,38,97152,65728,6,6,4,1460,115312,1,16778208,350000,66348,63452,65700,0,28960,0,1855235852,63
o,1723653004.092673,172.16.3.2,61346,172.16.1.2,5101,14170,28997,38,94272,65728,6,6,4,1460,113437,1,16778208,350000,66348,60556,65700,0,26064,0,1855235852,63
i,1723653004.098432,172.16.3.2,61346,172.16.1.2,5101,14170,28997,38,94272,65728,6,6,4,1460,113437,1,16778208,350000,66348,66348,65700,0,28960,0,1855235852,63
o,1723653004.098500,172.16.3.2,61346,172.16.1.2,5101,14170,28997,38,97152,65728,6,6,4,1460,111875,1,16778208,350000,66348,63452,65700,0,26064,0,1855235852,63
i,1723653004.117828,172.16.3.2,61346,172.16.1.2,5101,14170,28997,38,97152,65728,6,6,4,1460,111875,1,16778208,350000,66348,66348,65700,0,28960,0,1855235852,63
o,1723653004.117956,172.16.3.2,61346,172.16.1.2,5101,14170,28997,38,97152,65728,6,6,4,1460,113125,1,16778208,360000,66348,63452,65700,0,26064,0,1855235852,63
i,1723653004.118392,172.16.3.2,61346,172.16.1.2,5101,14170,28997,38,97152,65728,6,6,4,1460,113125,1,16778208,360000,66348,63452,65700,0,28960,0,1855235852,63
o,1723653004.118467,172.16.3.2,61346,172.16.1.2,5101,14170,28997,38,97152,65728,6,6,4,1460,114062,1,16778208,350000,66348,60556,65700,0,26064,0,1855235852,63
i,1723653004.118766,172.16.3.2,61346,172.16.1.2,5101,14170,28997,38,97152,65728,6,6,4,1460,114062,1,16778208,350000,66348,60556,65700,0,28960,0,1855235852,63
o,1723653004.118819,172.16.3.2,61346,172.16.1.2,5101,14170,28997,38,97152,65728,6,6,4,1460,115000,1,16778208,350000,66348,57660,65700,0,26064,0,1855235852,63
i,1723653004.119036,172.16.3.2,61346,172.16.1.2,5101,14170,28997,38,97152,65728,6,6,4,1460,115000,1,16778208,350000,66348,57660,65700,0,28960,0,1855235852,63
o,1723653004.119076,172.16.3.2,61346,172.16.1.2,5101,14170,28997,38,94272,65728,6,6,4,1460,115625,1,16778208,350000,66348,54764,65700,0,26064,0,1855235852,63
o,1723653004.119234,172.16.3.2,61346,172.16.1.2,5101,14170,28997,38,94272,65728,6,6,4,1460,115625,1,16778208,350000,66348,54764,65700,0,27512,0,1855235852,63
i,1723653004.127956,172.16.3.2,61346,172.16.1.2,5101,14170,28997,38,94272,65728,6,6,4,1460,115625,1,16778208,350000,66348,66348,65700,0,28960,0,1855235852,63
o,1723653004.128037,172.16.3.2,61346,172.16.1.2,5101,14170,28997,38,95680,65728,6,6,4,1460,115000,1,16778208,350000,66348,63452,65700,0,26064,0,1855235852,63
i,1723653004.178309,172.16.3.2,61346,172.16.1.2,5101,14170,28997,38,95680,65728,6,6,4,1460,115000,1,16778208,350000,66348,66348,65700,0,28960,0,1855235852,63
o,1723653004.178567,172.16.3.2,61346,172.16.1.2,5101,14170,28997,38,95680,65728,6,6,4,1460,115625,1,16778208,340000,66348,63452,65700,0,26064,0,1855235852,63
i,1723653004.179145,172.16.3.2,61346,172.16.1.2,5101,14170,28997,38,95680,65728,6,6,4,1460,115625,1,16778208,340000,66348,63452,65700,0,28960,0,1855235852,63
o,1723653004.179213,172.16.3.2,61346,172.16.1.2,5101,14170,28997,38,97152,65728,6,6,4,1460,116250,1,16778208,340000,66348,60556,65700,0,26064,0,1855235852,63
i,1723653004.208716,172.16.3.2,61346,172.16.1.2,5101,14170,28997,38,97152,65728,6,6,4,1460,116250,1,16778208,340000,66348,66348,65700,0,28960,0,1855235852,63
o,1723653004.208815,172.16.3.2,61346,172.16.1.2,5101,14170,28997,38,97152,65728,6,6,4,1460,115625,1,16778208,340000,66348,63452,65700,0,26064,0,1855235852,63
i,1723653004.208973,172.16.3.2,61346,172.16.1.2,5101,14170,28997,38,97152,65728,6,6,4,1460,115625,1,16778208,340000,66348,63452,65700,0,28960,0,1855235852,63
o,1723653004.208991,172.16.3.2,61346,172.16.1.2,5101,14170,28997,38,95680,65728,6,6,4,1460,115000,1,16778208,340000,66348,60556,65700,0,26064,0,1855235852,63
i,1723653004.218157,172.16.3.2,61346,172.16.1.2,5101,14170,28997,38,95680,65728,6,6,4,1460,115000,1,16778208,340000,66348,66348,65700,0,28960,0,1855235852,63
o,1723653004.218217,172.16.3.2,61346,172.16.1.2,5101,14170,28997,38,95680,65728,6,6,4,1460,115625,1,16778208,340000,66348,63452,65700,0,26064,0,1855235852,63
i,1723653004.242372,172.16.3.2,61346,172.16.1.2,5101,14170,28997,38,95680,65728,6,6,4,1460,115625,1,16778208,340000,66348,66348,65700,0,28960,0,1855235852,63
o,1723653004.242372,172.16.3.2,61346,172.16.1.2,5101,14170,28997,38,97152,65728,6,6,4,1460,117500,1,16778208,350000,66348,63452,65700,0,26064,0,1855235852,63
i,1723653004.243125,172.16.3.2,61346,172.16.1.2,5101,14170,28997,38,97152,65728,6,6,4,1460,117500,1,16778208,350000,66348,63452,65700,0,28960,0,1855235852,63
o,1723653004.243149,172.16.3.2,61346,172.16.1.2,5101,14170,28997,38,97152,65728,6,6,4,1460,119062,1,16778208,360000,66348,60556,65700,0,26064,0,1855235852,63
i,1723653004.243330,172.16.3.2,61346,172.16.1.2,5101,14170,28997,38,97152,65728,6,6,4,1460,119062,1,16778208,360000,66348,60556,65700,0,28960,0,1855235852,63
o,1723653004.243346,172.16.3.2,61346,172.16.1.2,5101,14170,28997,38,97152,65728,6,6,4,1460,120625,1,16778208,360000,66348,57660,65700,0,26064,0,1855235852,63
i,1723653004.246699,172.16.3.2,61346,172.16.1.2,5101,14170,28997,38,97152,65728,6,6,4,1460,120625,1,16778208,360000,66348,66348,65700,0,28960,0,1855235852,63
o,1723653004.246770,172.16.3.2,61346,172.16.1.2,5101,14170,28997,38,97152,65728,6,6,4,1460,121875,1,16778208,360000,66348,63452,65700,0,26064,0,1855235852,63
o,1723653004.246887,172.16.3.2,61346,172.16.1.2,5101,14170,28997,38,97152,65728,6,6,4,1460,121875,1,16778208,360000,66348,63452,65700,0,27512,0,1855235852,63
i,1723653004.247014,172.16.3.2,61346,172.16.1.2,5101,14170,28997,38,97152,65728,6,6,4,1460,121875,1,16778208,360000,66348,63452,65700,0,28960,0,1855235852,63
o,1723653004.247030,172.16.3.2,61346,172.16.1.2,5101,14170,28997,38,94272,65728,6,6,4,1460,121875,1,16778208,350000,66348,60556,65700,0,26064,0,1855235852,63
i,1723653004.299368,172.16.3.2,61346,172.16.1.2,5101,14170,28997,38,94272,65728,6,6,4,1460,121875,1,16778208,350000,66348,66348,65700,0,28960,0,1855235852,63
o,1723653004.299406,172.16.3.2,61346,172.16.1.2,5101,14170,28997,38,97152,65728,6,6,4,1460,121875,1,16778208,340000,66348,63452,65700,0,26064,0,1855235852,63
i,1723653004.299560,172.16.3.2,61346,172.16.1.2,5101,14170,28997,38,97152,65728,6,6,4,1460,121875,1,16778208,340000,66348,63452,65700,0,28960,0,1855235852,63
o,1723653004.299578,172.16.3.2,61346,172.16.1.2,5101,14170,28997,38,94272,65728,6,6,4,1460,121875,1,16778208,340000,66348,60556,65700,0,26064,0,1855235852,63
i,1723653004.328395,172.16.3.2,61346,172.16.1.2,5101,14170,28997,38,94272,65728,6,6,4,1460,121875,1,16778208,340000,66348,66348,65700,0,28960,0,1855235852,63
o,1723653004.328395,172.16.3.2,61346,172.16.1.2,5101,14170,28997,38,95680,65728,6,6,4,1460,121875,1,16778208,330000,66348,63452,65700,0,26064,0,1855235852,63
i,1723653004.339894,172.16.3.2,61346,172.16.1.2,5101,14170,28997,38,95680,65728,6,6,4,1460,121875,1,16778208,330000,66348,66348,65700,0,28960,0,1855235852,63
o,1723653004.339920,172.16.3.2,61346,172.16.1.2,5101,14170,28997,38,95680,65728,6,6,4,1460,123125,1,16778208,340000,66348,63452,65700,0,26064,0,1855235852,63
i,1723653004.340134,172.16.3.2,61346,172.16.1.2,5101,14170,28997,38,95680,65728,6,6,4,1460,123125,1,16778208,340000,66348,63452,65700,0,28960,0,1855235852,63
o,1723653004.340164,172.16.3.2,61346,172.16.1.2,5101,14170,28997,38,95680,65728,6,6,4,1460,122812,1,16778208,340000,66348,60556,65700,0,26064,0,1855235852,63
i,1723653004.359349,172.16.3.2,61346,172.16.1.2,5101,14170,28997,38,95680,65728,6,6,4,1460,122812,1,16778208,340000,66348,66348,65700,0,28960,0,1855235852,63
o,1723653004.359386,172.16.3.2,61346,172.16.1.2,5101,14170,28997,38,97152,65728,6,6,4,1460,121250,1,16778208,350000,66348,63452,65700,0,26064,0,1855235852,63
i,1723653004.359599,172.16.3.2,61346,172.16.1.2,5101,14170,28997,38,97152,65728,6,6,4,1460,121250,1,16778208,350000,66348,63452,65700,0,28960,0,1855235852,63
o,1723653004.359616,172.16.3.2,61346,172.16.1.2,5101,14170,28997,38,97152,65728,6,6,4,1460,120000,1,16778208,350000,66348,60556,65700,0,26064,0,1855235852,63
i,1723653004.359765,172.16.3.2,61346,172.16.1.2,5101,14170,28997,38,97152,65728,6,6,4,1460,120000,1,16778208,350000,66348,60556,65700,0,28960,0,1855235852,63
o,1723653004.359781,172.16.3.2,61346,172.16.1.2,5101,14170,28997,38,97152,65728,6,6,4,1460,118750,1,16778208,350000,66348,57660,65700,0,26064,0,1855235852,63
i,1723653004.368848,172.16.3.2,61346,172.16.1.2,5101,14170,28997,38,97152,65728,6,6,4,1460,118750,1,16778208,350000,66348,66348,65700,0,28960,0,1855235852,63
o,1723653004.368931,172.16.3.2,61346,172.16.1.2,5101,14170,28997,38,95680,65728,6,6,4,1460,119062,1,16778208,340000,66348,63452,65700,0,26064,0,1855235852,63
o,1723653004.369242,172.16.3.2,61346,172.16.1.2,5101,14170,28997,38,95680,65728,6,6,4,1460,119062,1,16778208,340000,66348,63452,65700,0,27512,0,1855235852,63
i,1723653004.369361,172.16.3.2,61346,172.16.1.2,5101,14170,28997,38,95680,65728,6,6,4,1460,119062,1,16778208,340000,66348,63452,65700,0,28960,0,1855235852,63
o,1723653004.369378,172.16.3.2,61346,172.16.1.2,5101,14170,28997,38,92800,65728,6,6,4,1460,119375,1,16778208,340000,66348,60556,65700,0,26064,0,1855235852,63
i,1723653004.421760,172.16.3.2,61346,172.16.1.2,5101,14170,28997,38,92800,65728,6,6,4,1460,119375,1,16778208,340000,66348,66348,65700,0,28960,0,1855235852,63
o,1723653004.421941,172.16.3.2,61346,172.16.1.2,5101,14170,28997,38,95680,65728,6,6,4,1460,119687,1,16778208,340000,66348,63452,65700,0,26064,0,1855235852,63
i,1723653004.423006,172.16.3.2,61346,172.16.1.2,5101,14170,28997,38,95680,65728,6,6,4,1460,119687,1,16778208,340000,66348,63452,65700,0,28960,0,1855235852,63
o,1723653004.423079,172.16.3.2,61346,172.16.1.2,5101,14170,28997,38,97152,65728,6,6,4,1460,120000,1,16778208,340000,66348,60556,65700,0,26064,0,1855235852,63
i,1723653004.449013,172.16.3.2,61346,172.16.1.2,5101,14170,28997,38,97152,65728,6,6,4,1460,120000,1,16778208,340000,66348,66348,65700,0,28960,0,1855235852,63
o,1723653004.449122,172.16.3.2,61346,172.16.1.2,5101,14170,28997,38,95680,65728,6,6,4,1460,120000,1,16778208,330000,66348,63452,65700,0,26064,0,1855235852,63
i,1723653004.449320,172.16.3.2,61346,172.16.1.2,5101,14170,28997,38,95680,65728,6,6,4,1460,120000,1,16778208,330000,66348,63452,65700,0,28960,0,1855235852,63
o,1723653004.449348,172.16.3.2,61346,172.16.1.2,5101,14170,28997,38,97152,65728,6,6,4,1460,117500,1,16778208,350000,66348,60556,65700,0,26064,0,1855235852,63
i,1723653004.483125,172.16.3.2,61346,172.16.1.2,5101,14170,28997,38,97152,65728,6,6,4,1460,117500,1,16778208,350000,66348,66348,65700,0,28960,0,1855235852,63
o,1723653004.483210,172.16.3.2,61346,172.16.1.2,5101,14170,28997,38,97152,65728,6,6,4,1460,120312,1,16778208,360000,66348,63452,65700,0,26064,0,1855235852,63
i,1723653004.483352,172.16.3.2,61346,172.16.1.2,5101,14170,28997,38,97152,65728,6,6,4,1460,120312,1,16778208,360000,66348,63452,65700,0,28960,0,1855235852,63
o,1723653004.483399,172.16.3.2,61346,172.16.1.2,5101,14170,28997,38,95680,65728,6,6,4,1460,120312,1,16778208,350000,66348,60556,65700,0,26064,0,1855235852,63
i,1723653004.492936,172.16.3.2,61346,172.16.1.2,5101,14170,28997,38,95680,65728,6,6,4,1460,120312,1,16778208,350000,66348,66348,65700,0,28960,0,1855235852,63
o,1723653004.492977,172.16.3.2,61346,172.16.1.2,5101,14170,28997,38,97152,65728,6,6,4,1460,121562,1,16778208,360000,66348,63452,65700,0,26064,0,1855235852,63
i,1723653004.493128,172.16.3.2,61346,172.16.1.2,5101,14170,28997,38,97152,65728,6,6,4,1460,121562,1,16778208,360000,66348,63452,65700,0,28960,0,1855235852,63
o,1723653004.493146,172.16.3.2,61346,172.16.1.2,5101,14170,28997,38,94272,65728,6,6,4,1460,122812,1,16778208,360000,66348,60556,65700,0,26064,0,1855235852,63
i,1723653004.493274,172.16.3.2,61346,172.16.1.2,5101,14170,28997,38,94272,65728,6,6,4,1460,122812,1,16778208,360000,66348,60556,65700,0,28960,0,1855235852,63
o,1723653004.493293,172.16.3.2,61346,172.16.1.2,5101,14170,28997,38,97152,65728,6,6,4,1460,122500,1,16778208,350000,66348,57660,65700,0,26064,0,1855235852,63
o,1723653004.493457,172.16.3.2,61346,172.16.1.2,5101,14170,28997,38,97152,65728,6,6,4,1460,122500,1,16778208,350000,66348,57660,65700,0,27512,0,1855235852,63
i,1723653004.493576,172.16.3.2,61346,172.16.1.2,5101,14170,28997,38,97152,65728,6,6,4,1460,122500,1,16778208,350000,66348,57660,65700,0,28960,0,1855235852,63
o,1723653004.493593,172.16.3.2,61346,172.16.1.2,5101,14170,28997,38,94272,65728,6,6,4,1460,122187,1,16778208,340000,66348,54764,65700,0,26064,0,1855235852,63
i,1723653004.538503,172.16.3.2,61346,172.16.1.2,5101,14170,28997,38,94272,65728,6,6,4,1460,122187,1,16778208,340000,66348,66348,65700,0,28960,0,1855235852,63
o,1723653004.538542,172.16.3.2,61346,172.16.1.2,5101,14170,28997,38,95680,65728,6,6,4,1460,122187,1,16778208,340000,66348,63452,65700,0,26064,0,1855235852,63
i,1723653004.538680,172.16.3.2,61346,172.16.1.2,5101,14170,28997,38,95680,65728,6,6,4,1460,122187,1,16778208,340000,66348,63452,65700,0,28960,0,1855235852,63
o,1723653004.538697,172.16.3.2,61346,172.16.1.2,5101,14170,28997,38,97152,65728,6,6,4,1460,120937,1,16778208,340000,66348,60556,65700,0,26064,0,1855235852,63
i,1723653004.579433,172.16.3.2,61346,172.16.1.2,5101,14170,28997,38,97152,65728,6,6,4,1460,120937,1,16778208,340000,66348,66348,65700,0,28960,0,1855235852,63
o,1723653004.579529,172.16.3.2,61346,172.16.1.2,5101,14170,28997,38,95680,65728,6,6,4,1460,122187,1,16778208,350000,66348,63452,65700,0,26064,0,1855235852,63
i,1723653004.579700,172.16.3.2,61346,172.16.1.2,5101,14170,28997,38,95680,65728,6,6,4,1460,122187,1,16778208,350000,66348,63452,65700,0,28960,0,1855235852,63
o,1723653004.579722,172.16.3.2,61346,172.16.1.2,5101,14170,28997,38,95680,65728,6,6,4,1460,123437,1,16778208,350000,66348,60556,65700,0,26064,0,1855235852,63
i,1723653004.601831,172.16.3.2,61346,172.16.1.2,5101,14170,28997,38,95680,65728,6,6,4,1460,123437,1,16778208,350000,66348,66348,65700,0,28960,0,1855235852,63
o,1723653004.601876,172.16.3.2,61346,172.16.1.2,5101,14170,28997,38,97152,65728,6,6,4,1460,121875,1,16778208,360000,66348,63452,65700,0,26064,0,1855235852,63
i,1723653004.602177,172.16.3.2,61346,172.16.1.2,5101,14170,28997,38,97152,65728,6,6,4,1460,121875,1,16778208,360000,66348,63452,65700,0,28960,0,1855235852,63
o,1723653004.602194,172.16.3.2,61346,172.16.1.2,5101,14170,28997,38,94272,65728,6,6,4,1460,120625,1,16778208,360000,66348,60556,65700,0,26064,0,1855235852,63
i,1723653004.602318,172.16.3.2,61346,172.16.1.2,5101,14170,28997,38,94272,65728,6,6,4,1460,120625,1,16778208,360000,66348,60556,65700,0,28960,0,1855235852,63
o,1723653004.602335,172.16.3.2,61346,172.16.1.2,5101,14170,28997,38,91392,65728,6,6,4,1460,119375,1,16778208,350000,66348,57660,65700,0,26064,0,1855235852,63
i,1723653004.603296,172.16.3.2,61346,172.16.1.2,5101,14170,28997,38,91392,65728,6,6,4,1460,119375,1,16778208,350000,66348,66348,65700,0,28960,0,1855235852,63
o,1723653004.603391,172.16.3.2,61346,172.16.1.2,5101,14170,28997,38,97152,65728,6,6,4,1460,118437,1,16778208,350000,66348,63452,65700,0,26064,0,1855235852,63
i,1723653004.618453,172.16.3.2,61346,172.16.1.2,5101,14170,28997,38,97152,65728,6,6,4,1460,118437,1,16778208,350000,66348,66348,65700,0,28960,0,1855235852,63
o,1723653004.618612,172.16.3.2,61346,172.16.1.2,5101,14170,28997,38,97152,65728,6,6,4,1460,118750,1,16778208,350000,66348,63452,65700,0,26064,0,1855235852,63
o,1723653004.618809,172.16.3.2,61346,172.16.1.2,5101,14170,28997,38,97152,65728,6,6,4,1460,118750,1,16778208,350000,66348,63452,65700,0,27512,0,1855235852,63
i,1723653004.638867,172.16.3.2,61346,172.16.1.2,5101,14170,28997,38,97152,65728,6,6,4,1460,118750,1,16778208,350000,66348,66348,65700,0,28960,0,1855235852,63
o,1723653004.639156,172.16.3.2,61346,172.16.1.2,5101,14170,28997,38,95680,65728,6,6,4,1460,121562,1,16778208,360000,66348,63452,65700,0,26064,0,1855235852,63
i,1723653004.648641,172.16.3.2,61346,172.16.1.2,5101,14170,28997,38,95680,65728,6,6,4,1460,121562,1,16778208,360000,66348,66348,65700,0,28960,0,1855235852,63
o,1723653004.648721,172.16.3.2,61346,172.16.1.2,5101,14170,28997,38,95680,65728,6,6,4,1460,119062,1,16778208,370000,66348,63452,65700,0,26064,0,1855235852,63
i,1723653004.659185,172.16.3.2,61346,172.16.1.2,5101,14170,28997,38,95680,65728,6,6,4,1460,119062,1,16778208,370000,66348,66348,65700,0,28960,0,1855235852,63
o,1723653004.659224,172.16.3.2,61346,172.16.1.2,5101,14170,28997,38,97152,65728,6,6,4,1460,119375,1,16778208,360000,66348,63452,65700,0,26064,0,1855235852,63
i,1723653004.689118,172.16.3.2,61346,172.16.1.2,5101,14170,28997,38,97152,65728,6,6,4,1460,119375,1,16778208,360000,66348,66348,65700,0,28960,0,1855235852,63
o,1723653004.689166,172.16.3.2,61346,172.16.1.2,5101,14170,28997,38,97152,65728,6,6,4,1460,118437,1,16778208,360000,66348,63452,65700,0,26064,0,1855235852,63
i,1723653004.690290,172.16.3.2,61346,172.16.1.2,5101,14170,28997,38,97152,65728,6,6,4,1460,118437,1,16778208,360000,66348,66348,65700,0,28960,0,1855235852,63
o,1723653004.690382,172.16.3.2,61346,172.16.1.2,5101,14170,28997,38,97152,65728,6,6,4,1460,117500,1,16778208,360000,66348,63452,65700,0,26064,0,1855235852,63
i,1723653004.713352,172.16.3.2,61346,172.16.1.2,5101,14170,28997,38,97152,65728,6,6,4,1460,117500,1,16778208,360000,66348,66348,65700,0,28960,0,1855235852,63
o,1723653004.713386,172.16.3.2,61346,172.16.1.2,5101,14170,28997,38,95680,65728,6,6,4,1460,117812,1,16778208,350000,66348,63452,65700,0,26064,0,1855235852,63
i,1723653004.713542,172.16.3.2,61346,172.16.1.2,5101,14170,28997,38,95680,65728,6,6,4,1460,117812,1,16778208,350000,66348,63452,65700,0,28960,0,1855235852,63
o,1723653004.713595,172.16.3.2,61346,172.16.1.2,5101,14170,28997,38,97152,65728,6,6,4,1460,116875,1,16778208,350000,66348,60556,65700,0,26064,0,1855235852,63
i,1723653004.714807,172.16.3.2,61346,172.16.1.2,5101,14170,28997,38,97152,65728,6,6,4,1460,116875,1,16778208,350000,66348,66348,65700,0,28960,0,1855235852,63
o,1723653004.714828,172.16.3.2,61346,172.16.1.2,5101,14170,28997,38,97152,65728,6,6,4,1460,116250,1,16778208,340000,66348,63452,65700,0,26064,0,1855235852,63
i,1723653004.718190,172.16.3.2,61346,172.16.1.2,5101,14170,28997,38,97152,65728,6,6,4,1460,116250,1,16778208,340000,66348,66348,65700,0,28960,0,1855235852,63
o,1723653004.718216,172.16.3.2,61346,172.16.1.2,5101,14170,28997,38,97152,65728,6,6,4,1460,115625,1,16778208,340000,66348,63452,65700,0,26064,0,1855235852,63
i,1723653004.727790,172.16.3.2,61346,172.16.1.2,5101,14170,28997,38,97152,65728,6,6,4,1460,115625,1,16778208,340000,66348,66348,65700,0,28960,0,1855235852,63
o,1723653004.727821,172.16.3.2,61346,172.16.1.2,5101,14170,28997,38,95680,65728,6,6,4,1460,115000,1,16778208,340000,66348,63452,65700,0,26064,0,1855235852,63
o,1723653004.727963,172.16.3.2,61346,172.16.1.2,5101,14170,28997,38,95680,65728,6,6,4,1460,115000,1,16778208,340000,66348,63452,65700,0,27512,0,1855235852,63
i,1723653004.747794,172.16.3.2,61346,172.16.1.2,5101,14170,28997,38,95680,65728,6,6,4,1460,115000,1,16778208,340000,66348,66348,65700,0,28960,0,1855235852,63
o,1723653004.747936,172.16.3.2,61346,172.16.1.2,5101,14170,28997,38,95680,65728,6,6,4,1460,113125,1,16778208,350000,66348,63452,65700,0,26064,0,1855235852,63
i,1723653004.758542,172.16.3.2,61346,172.16.1.2,5101,14170,28997,38,95680,65728,6,6,4,1460,113125,1,16778208,350000,66348,66348,65700,0,28960,0,1855235852,63
o,1723653004.758580,172.16.3.2,61346,172.16.1.2,5101,14170,28997,38,95680,65728,6,6,4,1460,112812,1,16778208,340000,66348,63452,65700,0,26064,0,1855235852,63
i,1723653004.758714,172.16.3.2,61346,172.16.1.2,5101,14170,28997,38,95680,65728,6,6,4,1460,112812,1,16778208,340000,66348,63452,65700,0,28960,0,1855235852,63
o,1723653004.758714,172.16.3.2,61346,172.16.1.2,5101,14170,28997,38,97152,65728,6,6,4,1460,111250,1,16778208,340000,66348,60556,65700,0,26064,0,1855235852,63
i,1723653004.798326,172.16.3.2,61346,172.16.1.2,5101,14170,28997,38,97152,65728,6,6,4,1460,111250,1,16778208,340000,66348,66348,65700,0,28960,0,1855235852,63
o,1723653004.798459,172.16.3.2,61346,172.16.1.2,5101,14170,28997,38,95680,65728,6,6,4,1460,110000,1,16778208,350000,66348,63452,65700,0,26064,0,1855235852,63
i,1723653004.798617,172.16.3.2,61346,172.16.1.2,5101,14170,28997,38,95680,65728,6,6,4,1460,110000,1,16778208,350000,66348,63452,65700,0,28960,0,1855235852,63
o,1723653004.798656,172.16.3.2,61346,172.16.1.2,5101,14170,28997,38,92800,65728,6,6,4,1460,108750,1,16778208,340000,66348,60556,65700,0,26064,0,1855235852,63
i,1723653004.807716,172.16.3.2,61346,172.16.1.2,5101,14170,28997,38,92800,65728,6,6,4,1460,108750,1,16778208,340000,66348,66348,65700,0,28960,0,1855235852,63
o,1723653004.807803,172.16.3.2,61346,172.16.1.2,5101,14170,28997,38,95680,65728,6,6,4,1460,106562,1,16778208,350000,66348,63452,65700,0,26064,0,1855235852,63
i,1723653004.828935,172.16.3.2,61346,172.16.1.2,5101,14170,28997,38,95680,65728,6,6,4,1460,106562,1,16778208,350000,66348,66348,65700,0,28960,0,1855235852,63
o,1723653004.829017,172.16.3.2,61346,172.16.1.2,5101,14170,28997,38,95680,65728,6,6,4,1460,107187,1,16778208,340000,66348,63452,65700,0,26064,0,1855235852,63
i,1723653004.829184,172.16.3.2,61346,172.16.1.2,5101,14170,28997,38,95680,65728,6,6,4,1460,107187,1,16778208,340000,66348,63452,65700,0,28960,0,1855235852,63
o,1723653004.829202,172.16.3.2,61346,172.16.1.2,5101,14170,28997,38,97152,65728,6,6,4,1460,107812,1,16778208,340000,66348,60556,65700,0,26064,0,1855235852,63
i,1723653004.840527,172.16.3.2,61346,172.16.1.2,5101,14170,28997,38,97152,65728,6,6,4,1460,107812,1,16778208,340000,66348,66348,65700,0,28960,0,1855235852,63
o,1723653004.840649,172.16.3.2,61346,172.16.1.2,5101,14170,28997,38,95680,65728,6,6,4,1460,109375,1,16778208,350000,66348,63452,65700,0,26064,0,1855235852,63
i,1723653004.840858,172.16.3.2,61346,172.16.1.2,5101,14170,28997,38,95680,65728,6,6,4,1460,109375,1,16778208,350000,66348,63452,65700,0,28960,0,1855235852,63
o,1723653004.840881,172.16.3.2,61346,172.16.1.2,5101,14170,28997,38,95680,65728,6,6,4,1460,109687,1,16778208,340000,66348,60556,65700,0,26064,0,1855235852,63
o,1723653004.841007,172.16.3.2,61346,172.16.1.2,5101,14170,28997,38,95680,65728,6,6,4,1460,109687,1,16778208,340000,66348,60556,65700,0,27512,0,1855235852,63
i,1723653004.859195,172.16.3.2,61346,172.16.1.2,5101,14170,28997,38,95680,65728,6,6,4,1460,109687,1,16778208,340000,66348,66348,65700,0,28960,0,1855235852,63
o,1723653004.859240,172.16.3.2,61346,172.16.1.2,5101,14170,28997,38,95680,65728,6,6,4,1460,110000,1,16778208,340000,66348,63452,65700,0,26064,0,1855235852,63
i,1723653004.859586,172.16.3.2,61346,172.16.1.2,5101,14170,28997,38,95680,65728,6,6,4,1460,110000,1,16778208,340000,66348,63452,65700,0,28960,0,1855235852,63
o,1723653004.859612,172.16.3.2,61346,172.16.1.2,5101,14170,28997,38,97152,65728,6,6,4,1460,107500,1,16778208,350000,66348,60556,65700,0,26064,0,1855235852,63
i,1723653004.888798,172.16.3.2,61346,172.16.1.2,5101,14170,28997,38,97152,65728,6,6,4,1460,107500,1,16778208,350000,66348,66348,65700,0,28960,0,1855235852,63
o,1723653004.888911,172.16.3.2,61346,172.16.1.2,5101,14170,28997,38,97152,65728,6,6,4,1460,109062,1,16778208,350000,66348,63452,65700,0,26064,0,1855235852,63
i,1723653004.910043,172.16.3.2,61346,172.16.1.2,5101,14170,28997,38,97152,65728,6,6,4,1460,109062,1,16778208,350000,66348,66348,65700,0,28960,0,1855235852,63
o,1723653004.910146,172.16.3.2,61346,172.16.1.2,5101,14170,28997,38,95680,65728,6,6,4,1460,109375,1,16778208,340000,66348,63452,65700,0,26064,0,1855235852,63
i,1723653004.918690,172.16.3.2,61346,172.16.1.2,5101,14170,28997,38,95680,65728,6,6,4,1460,109375,1,16778208,340000,66348,66348,65700,0,28960,0,1855235852,63
o,1723653004.918859,172.16.3.2,61346,172.16.1.2,5101,14170,28997,38,95680,65728,6,6,4,1460,110937,1,16778208,350000,66348,63452,65700,0,26064,0,1855235852,63
i,1723653004.919044,172.16.3.2,61346,172.16.1.2,5101,14170,28997,38,95680,65728,6,6,4,1460,110937,1,16778208,350000,66348,63452,65700,0,28960,0,1855235852,63
o,1723653004.919065,172.16.3.2,61346,172.16.1.2,5101,14170,28997,38,95680,65728,6,6,4,1460,110937,1,16778208,340000,66348,60556,65700,0,26064,0,1855235852,63
i,1723653004.929224,172.16.3.2,61346,172.16.1.2,5101,14170,28997,38,95680,65728,6,6,4,1460,110937,1,16778208,340000,66348,66348,65700,0,28960,0,1855235852,63
o,1723653004.929369,172.16.3.2,61346,172.16.1.2,5101,14170,28997,38,95680,65728,6,6,4,1460,109687,1,16778208,340000,66348,63452,65700,0,26064,0,1855235852,63
i,1723653004.948833,172.16.3.2,61346,172.16.1.2,5101,14170,28997,38,95680,65728,6,6,4,1460,109687,1,16778208,340000,66348,66348,65700,0,28960,0,1855235852,63
o,1723653004.948888,172.16.3.2,61346,172.16.1.2,5101,14170,28997,38,95680,65728,6,6,4,1460,111250,1,16778208,350000,66348,63452,65700,0,26064,0,1855235852,63
i,1723653004.958212,172.16.3.2,61346,172.16.1.2,5101,14170,28997,38,95680,65728,6,6,4,1460,111250,1,16778208,350000,66348,66348,65700,0,28960,0,1855235852,63
o,1723653004.958249,172.16.3.2,61346,172.16.1.2,5101,14170,28997,38,97152,65728,6,6,4,1460,111250,1,16778208,340000,66348,63452,65700,0,26064,0,1855235852,63
i,1723653004.958416,172.16.3.2,61346,172.16.1.2,5101,14170,28997,38,97152,65728,6,6,4,1460,111250,1,16778208,340000,66348,63452,65700,0,28960,0,1855235852,63
o,1723653004.958437,172.16.3.2,61346,172.16.1.2,5101,14170,28997,38,97152,65728,6,6,4,1460,111250,1,16778208,330000,66348,60556,65700,0,26064,0,1855235852,63
o,1723653004.958574,172.16.3.2,61346,172.16.1.2,5101,14170,28997,38,97152,65728,6,6,4,1460,111250,1,16778208,330000,66348,60556,65700,0,27512,0,1855235852,63
i,1723653004.969515,172.16.3.2,61346,172.16.1.2,5101,14170,28997,38,97152,65728,6,6,4,1460,111250,1,16778208,330000,66348,66348,65700,0,28960,0,1855235852,63
o,1723653004.969554,172.16.3.2,61346,172.16.1.2,5101,14170,28997,38,95680,65728,6,6,4,1460,111250,1,16778208,320000,66348,63452,65700,0,26064,0,1855235852,63
i,1723653004.970488,172.16.3.2,61346,172.16.1.2,5101,14170,28997,38,95680,65728,6,6,4,1460,111250,1,16778208,320000,66348,63452,65700,0,28960,0,1855235852,63
o,1723653004.970512,172.16.3.2,61346,172.16.1.2,5101,14170,28997,38,95680,65728,6,6,4,1460,111250,1,16778208,320000,66348,60556,65700,0,26064,0,1855235852,63
i,1723653004.979861,172.16.3.2,61346,172.16.1.2,5101,14170,28997,38,95680,65728,6,6,4,1460,111250,1,16778208,320000,66348,66348,65700,0,28960,0,1855235852,63
o,1723653004.979888,172.16.3.2,61346,172.16.1.2,5101,14170,28997,38,97152,65728,6,6,4,1460,108750,1,16778208,340000,66348,63452,65700,0,26064,0,1855235852,63
i,1723653005.018840,172.16.3.2,61346,172.16.1.2,5101,14170,28997,38,97152,65728,6,6,4,1460,108750,1,16778208,340000,66348,66348,65700,0,28960,0,1855235852,63
o,1723653005.018887,172.16.3.2,61346,172.16.1.2,5101,14170,28997,38,95680,65728,6,6,4,1460,109062,1,16778208,330000,66348,63452,65700,0,26064,0,1855235852,63
i,1723653005.030963,172.16.3.2,61346,172.16.1.2,5101,14170,28997,38,95680,65728,6,6,4,1460,109062,1,16778208,330000,66348,66348,65700,0,28960,0,1855235852,63
o,1723653005.030994,172.16.3.2,61346,172.16.1.2,5101,14170,28997,38,97152,65728,6,6,4,1460,109375,1,16778208,330000,66348,63452,65700,0,26064,0,1855235852,63
i,1723653005.031137,172.16.3.2,61346,172.16.1.2,5101,14170,28997,38,97152,65728,6,6,4,1460,109375,1,16778208,330000,66348,63452,65700,0,28960,0,1855235852,63
o,1723653005.031156,172.16.3.2,61346,172.16.1.2,5101,14170,28997,38,94272,65728,6,6,4,1460,109687,1,16778208,330000,66348,60556,65700,0,26064,0,1855235852,63
i,1723653005.038677,172.16.3.2,61346,172.16.1.2,5101,14170,28997,38,94272,65728,6,6,4,1460,109687,1,16778208,330000,66348,66348,65700,0,28960,0,1855235852,63
o,1723653005.038707,172.16.3.2,61346,172.16.1.2,5101,14170,28997,38,95680,65728,6,6,4,1460,108750,1,16778208,330000,66348,63452,65700,0,26064,0,1855235852,63
i,1723653005.057988,172.16.3.2,61346,172.16.1.2,5101,14170,28997,38,95680,65728,6,6,4,1460,108750,1,16778208,330000,66348,66348,65700,0,28960,0,1855235852,63
o,1723653005.058055,172.16.3.2,61346,172.16.1.2,5101,14170,28997,38,95680,65728,6,6,4,1460,107812,1,16778208,330000,66348,63452,65700,0,26064,0,1855235852,63
i,1723653005.068680,172.16.3.2,61346,172.16.1.2,5101,14170,28997,38,95680,65728,6,6,4,1460,107812,1,16778208,330000,66348,66348,65700,0,28960,0,1855235852,63
o,1723653005.068711,172.16.3.2,61346,172.16.1.2,5101,14170,28997,38,95680,65728,6,6,4,1460,108125,1,16778208,330000,66348,63452,65700,0,26064,0,1855235852,63
i,1723653005.069854,172.16.3.2,61346,172.16.1.2,5101,14170,28997,38,95680,65728,6,6,4,1460,108125,1,16778208,330000,66348,66348,65700,0,28960,0,1855235852,63
o,1723653005.069854,172.16.3.2,61346,172.16.1.2,5101,14170,28997,38,97152,65728,6,6,4,1460,108437,1,16778208,330000,66348,63452,65700,0,26064,0,1855235852,63
o,1723653005.069854,172.16.3.2,61346,172.16.1.2,5101,14170,28997,38,97152,65728,6,6,4,1460,108437,1,16778208,330000,66348,63452,65700,0,27512,0,1855235852,63
i,1723653005.069854,172.16.3.2,61346,172.16.1.2,5101,14170,28997,38,97152,65728,6,6,4,1460,108437,1,16778208,330000,66348,63452,65700,0,28960,0,1855235852,63
o,1723653005.069854,172.16.3.2,61346,172.16.1.2,5101,14170,28997,38,97152,65728,6,6,4,1460,107500,1,16778208,330000,66348,60556,65700,0,26064,0,1855235852,63
i,1723653005.078400,172.16.3.2,61346,172.16.1.2,5101,14170,28997,38,97152,65728,6,6,4,1460,107500,1,16778208,330000,66348,66348,65700,0,28960,0,1855235852,63
o,1723653005.078423,172.16.3.2,61346,172.16.1.2,5101,14170,28997,38,97152,65728,6,6,4,1460,107812,1,16778208,330000,66348,63452,65700,0,26064,0,1855235852,63
i,1723653005.090228,172.16.3.2,61346,172.16.1.2,5101,14170,28997,38,97152,65728,6,6,4,1460,107812,1,16778208,330000,66348,66348,65700,0,28960,0,1855235852,63
o,1723653005.090463,172.16.3.2,61346,172.16.1.2,5101,14170,28997,38,97152,65728,6,6,4,1460,108125,1,16778208,320000,66348,63452,65700,0,26064,0,1855235852,63
i,1723653005.118677,172.16.3.2,61346,172.16.1.2,5101,14170,28997,38,97152,65728,6,6,4,1460,108125,1,16778208,320000,66348,66348,65700,0,28960,0,1855235852,63
o,1723653005.118722,172.16.3.2,61346,172.16.1.2,5101,14170,28997,38,95680,65728,6,6,4,1460,107187,1,16778208,320000,66348,63452,65700,0,26064,0,1855235852,63
i,1723653005.130371,172.16.3.2,61346,172.16.1.2,5101,14170,28997,38,95680,65728,6,6,4,1460,107187,1,16778208,320000,66348,66348,65700,0,28960,0,1855235852,63
o,1723653005.130458,172.16.3.2,61346,172.16.1.2,5101,14170,28997,38,95680,65728,6,6,4,1460,106562,1,16778208,320000,66348,63452,65700,0,26064,0,1855235852,63
i,1723653005.139776,172.16.3.2,61346,172.16.1.2,5101,14170,28997,38,95680,65728,6,6,4,1460,106562,1,16778208,320000,66348,66348,65700,0,28960,0,1855235852,63
o,1723653005.139991,172.16.3.2,61346,172.16.1.2,5101,14170,28997,38,97152,65728,6,6,4,1460,107187,1,16778208,320000,66348,63452,65700,0,26064,0,1855235852,63
i,1723653005.140277,172.16.3.2,61346,172.16.1.2,5101,14170,28997,38,97152,65728,6,6,4,1460,107187,1,16778208,320000,66348,63452,65700,0,28960,0,1855235852,63
o,1723653005.140302,172.16.3.2,61346,172.16.1.2,5101,14170,28997,38,94272,65728,6,6,4,1460,106562,1,16778208,320000,66348,60556,65700,0,26064,0,1855235852,63
i,1723653005.168949,172.16.3.2,61346,172.16.1.2,5101,14170,28997,38,94272,65728,6,6,4,1460,106562,1,16778208,320000,66348,66348,65700,0,28960,0,1855235852,63
o,1723653005.169000,172.16.3.2,61346,172.16.1.2,5101,14170,28997,38,97152,65728,6,6,4,1460,107187,1,16778208,320000,66348,63452,65700,0,26064,0,1855235852,63
