enable_time_secs=1723652824	enable_time_usecs=256843	siftrver=1.3.0	sysname=FreeBSD	sysver=1401000	ipmode=4
o,1723652824.257110,10.0.2.15,22,10.0.2.2,50592,1073725440,17746,1026,65535,65700,0,0,4,1460,312,0,16777220,230000,33580,172,65700,0,0,0,2102825075,63
o,1723652824.257992,10.0.2.15,22,10.0.2.2,50592,1073725440,17746,1026,65535,65700,0,0,4,1460,312,0,16777220,230000,33580,244,65700,0,172,0,2102825075,63
i,1723652824.258115,10.0.2.15,22,10.0.2.2,50592,1073725440,17746,1026,65535,65700,0,0,4,1460,312,0,16777220,230000,33580,244,65700,0,244,0,2102825075,63
i,1723652824.258711,10.0.2.15,22,10.0.2.2,50592,1073725440,17918,1026,65535,65700,0,0,4,1460,312,0,4,230000,33580,72,65700,0,72,0,2102825075,63
i,1723652824.258732,10.0.2.15,22,10.0.2.2,50592,1073725440,17990,1026,65535,65700,0,0,4,1460,312,0,4,230000,33580,0,65700,0,0,0,2102825075,63
i,1723652824.258750,10.0.2.15,22,10.0.2.2,50592,1073725440,17990,1026,65535,65700,0,0,4,1460,312,0,4,230000,33580,0,65700,96,0,0,2102825075,63
o,1723652824.258770,10.0.2.15,22,10.0.2.2,50592,1073725440,17990,1026,65535,65604,0,0,5,1460,312,0,5,230000,33580,0,65700,96,0,0,2102825075,63
o,1723652824.259321,10.0.2.15,22,10.0.2.2,50592,1073725440,17990,1026,65535,65604,0,0,8,1460,312,0,4,230000,33580,0,65700,0,0,0,2102825075,63
i,1723652824.259979,10.0.2.15,22,10.0.2.2,50592,1073725440,17990,1026,65535,65604,0,0,8,1460,312,0,67108884,230000,33580,0,65700,0,1,0,2102825075,63
i,1723652826.545881,10.0.2.15,22,10.0.2.2,50538,1073725440,14600,0,65535,65700,0,0,4,1460,312,0,16777216,270000,33580,0,65700,0,0,0,3191910388,63
o,1723652826.557074,10.0.2.15,22,10.0.2.2,50538,1073725440,14600,1026,65535,65700,0,0,4,1460,312,0,16777216,270000,33580,38,65700,42,0,0,3191910388,63
i,1723652826.557938,10.0.2.15,22,10.0.2.2,50538,1073725440,14600,1026,65535,65700,0,0,4,1460,312,0,16777216,270000,33580,38,65700,0,38,0,3191910388,63
i,1723652826.558493,10.0.2.15,22,10.0.2.2,50538,1073725440,14638,1026,65535,65700,0,0,4,1460,312,0,0,240000,33580,0,65700,0,0,0,3191910388,63
i,1723652826.558509,10.0.2.15,22,10.0.2.2,50538,1073725440,14638,1026,65535,65700,0,0,4,1460,312,0,0,240000,33580,0,65700,1460,0,0,3191910388,63
o,1723652826.558525,10.0.2.15,22,10.0.2.2,50538,1073725440,14638,1026,65535,65700,0,0,4,1460,312,0,1,240000,33580,0,65700,1536,0,0,3191910388,63
o,1723652826.559163,10.0.2.15,22,10.0.2.2,50538,1073725440,14638,1026,65535,65700,0,0,4,1460,312,0,16777216,240000,33580,1120,65700,1536,0,0,3191910388,63
i,1723652826.560094,10.0.2.15,22,10.0.2.2,50538,1073725440,14638,1026,65535,65700,0,0,4,1460,312,0,16777216,240000,33580,1120,65700,0,1120,0,3191910388,63
i,1723652826.560952,10.0.2.15,22,10.0.2.2,50538,1073725440,15758,1026,65535,65700,0,0,4,1460,312,0,0,240000,33580,0,65700,0,0,0,3191910388,63
o,1723652826.564179,10.0.2.15,22,10.0.2.2,50538,1073725440,15758,1026,65535,65700,0,0,4,1460,312,0,16777216,240000,33580,492,65700,0,0,0,3191910388,63
i,1723652826.564990,10.0.2.15,22,10.0.2.2,50538,1073725440,15758,1026,65535,65700,0,0,4,1460,312,0,16777216,240000,33580,492,65700,0,492,0,3191910388,63
i,1723652826.569255,10.0.2.15,22,10.0.2.2,50538,1073725440,16250,1026,65535,65700,0,0,4,1460,312,0,0,240000,33580,0,65700,0,0,0,3191910388,63
i,1723652826.569272,10.0.2.15,22,10.0.2.2,50538,1073725440,16250,1026,65535,65700,0,0,4,1460,312,0,0,240000,33580,0,65700,16,0,0,3191910388,63
o,1723652826.569288,10.0.2.15,22,10.0.2.2,50538,1073725440,16250,1026,65535,65700,0,0,4,1460,312,0,1,240000,33580,0,65700,60,0,0,3191910388,63
o,1723652826.569466,10.0.2.15,22,10.0.2.2,50538,1073725440,16250,1026,65535,65700,0,0,4,1460,312,0,16777216,240000,33580,44,65700,0,0,0,3191910388,63
i,1723652826.569963,10.0.2.15,22,10.0.2.2,50538,1073725440,16250,1026,65535,65700,0,0,4,1460,312,0,16777216,240000,33580,44,65700,0,44,0,3191910388,63
i,1723652826.569981,10.0.2.15,22,10.0.2.2,50538,1073725440,16294,1026,65535,65700,0,0,4,1460,312,0,0,240000,33580,0,65700,0,0,0,3191910388,63
o,1723652826.570960,10.0.2.15,22,10.0.2.2,50538,1073725440,16294,1026,65535,65700,0,0,4,1460,312,0,16777216,240000,33580,68,65700,0,0,0,3191910388,63
i,1723652826.571565,10.0.2.15,22,10.0.2.2,50538,1073725440,16294,1026,65535,65700,0,0,4,1460,312,0,16777216,240000,33580,68,65700,0,68,0,3191910388,63
i,1723652826.571581,10.0.2.15,22,10.0.2.2,50538,1073725440,16362,1026,65535,65700,0,0,4,1460,312,0,0,240000,33580,0,65700,0,0,0,3191910388,63
o,1723652826.572752,10.0.2.15,22,10.0.2.2,50538,1073725440,16362,1026,65535,65700,0,0,4,1460,312,0,16777216,240000,33580,332,65700,0,0,0,3191910388,63
i,1723652826.574962,10.0.2.15,22,10.0.2.2,50538,1073725440,16362,1026,65535,65700,0,0,4,1460,312,0,16777216,240000,33580,332,65700,0,332,0,3191910388,63
i,1723652826.575006,10.0.2.15,22,10.0.2.2,50538,1073725440,16694,1026,65535,65700,0,0,4,1460,312,0,0,240000,33580,0,65700,0,0,0,3191910388,63
o,1723652826.593571,10.0.2.15,22,10.0.2.2,50538,1073725440,16694,1026,65535,65700,0,0,4,1460,312,0,16777216,240000,33580,28,65700,0,0,0,3191910388,63
i,1723652826.594298,10.0.2.15,22,10.0.2.2,50538,1073725440,16694,1026,65535,65700,0,0,4,1460,312,0,16777216,240000,33580,28,65700,0,28,0,3191910388,63
i,1723652826.594324,10.0.2.15,22,10.0.2.2,50538,1073725440,16722,1026,65535,65700,0,0,4,1460,312,0,0,240000,33580,0,65700,0,0,0,3191910388,63
o,1723652826.595753,10.0.2.15,22,10.0.2.2,50538,1073725440,16722,1026,65535,65700,0,0,4,1460,312,0,16777216,240000,33580,768,65700,112,0,0,3191910388,63
i,1723652826.596653,10.0.2.15,22,10.0.2.2,50538,1073725440,16722,1026,65535,65700,0,0,4,1460,312,0,16777216,240000,33580,908,65700,112,768,0,3191910388,63
o,1723652826.596677,10.0.2.15,22,10.0.2.2,50538,1073725440,17490,1026,65535,65700,0,0,4,1460,312,0,16777216,240000,33580,140,65700,112,0,0,3191910388,63
i,1723652826.596952,10.0.2.15,22,10.0.2.2,50538,1073725440,17490,1026,65535,65700,0,0,4,1460,312,0,16777216,240000,33580,140,65700,0,140,0,3191910388,63
o,1723652826.597227,10.0.2.15,22,10.0.2.2,50538,1073725440,17630,1026,65535,65700,0,0,4,1460,312,0,16777216,240000,33580,44,65700,0,0,0,3191910388,63
i,1723652826.597940,10.0.2.15,22,10.0.2.2,50538,1073725440,17630,1026,65535,65700,0,0,4,1460,312,0,16777216,240000,33580,44,65700,0,44,0,3191910388,63
i,1723652826.597961,10.0.2.15,22,10.0.2.2,50538,1073725440,17674,1026,65535,65700,0,0,4,1460,312,0,0,240000,33580,0,65700,0,0,0,3191910388,63
o,1723652826.598704,10.0.2.15,22,10.0.2.2,50538,1073725440,17674,1026,65535,65700,0,0,4,1460,312,0,16777220,240000,33580,72,65700,0,0,0,3191910388,63
i,1723652826.599140,10.0.2.15,22,10.0.2.2,50538,1073725440,17674,1026,65535,65700,0,0,4,1460,312,0,16777220,240000,33580,72,65700,0,72,0,3191910388,63
o,1723652826.601923,10.0.2.15,22,10.0.2.2,50538,1073725440,17746,1026,65535,65700,0,0,4,1460,312,0,16777220,240000,33580,104,65700,0,0,0,3191910388,63
i,1723652826.603343,10.0.2.15,22,10.0.2.2,50538,1073725440,17746,1026,65535,65700,0,0,4,1460,312,0,16777220,240000,33580,104,65700,0,104,0,3191910388,63
o,1723652826.603703,10.0.2.15,22,10.0.2.2,50538,1073725440,17850,1026,65535,65700,0,0,4,1460,312,0,16777220,240000,33580,72,65700,0,0,0,3191910388,63
i,1723652826.605030,10.0.2.15,22,10.0.2.2,50538,1073725440,17850,1026,65535,65700,0,0,4,1460,312,0,16777220,240000,33580,72,65700,0,72,0,3191910388,63
i,1723652826.605046,10.0.2.15,22,10.0.2.2,50538,1073725440,17922,1026,65535,65700,0,0,4,1460,312,0,4,240000,33580,0,65700,0,0,0,3191910388,63
i,1723652826.605062,10.0.2.15,22,10.0.2.2,50538,1073725440,17922,1026,65535,65700,0,0,4,1460,312,0,4,240000,33580,0,65700,96,0,0,3191910388,63
o,1723652826.605078,10.0.2.15,22,10.0.2.2,50538,1073725440,17922,1026,65535,65604,0,0,5,1460,312,0,5,240000,33580,0,65700,96,0,0,3191910388,63
o,1723652826.618312,10.0.2.15,22,10.0.2.2,50538,1073725440,17922,1026,65535,65604,0,0,8,1460,312,0,4,240000,33580,0,65700,0,0,0,3191910388,63
i,1723652826.620060,10.0.2.15,22,10.0.2.2,50538,1073725440,17922,1026,65535,65604,0,0,8,1460,312,0,67108884,240000,33580,0,65700,0,1,0,3191910388,63
i,1723652828.756530,10.0.2.15,22,10.0.2.2,50546,1073725440,14600,0,65535,65700,0,0,4,1460,312,0,16777216,270000,33580,0,65700,0,0,0,2154269554,63
o,1723652828.766245,10.0.2.15,22,10.0.2.2,50546,1073725440,14600,1026,65535,65700,0,0,4,1460,312,0,16777216,270000,33580,38,65700,42,0,0,2154269554,63
i,1723652828.767226,10.0.2.15,22,10.0.2.2,50546,1073725440,14600,1026,65535,65700,0,0,4,1460,312,0,16777216,270000,33580,38,65700,0,38,0,2154269554,63
i,1723652828.767261,10.0.2.15,22,10.0.2.2,50546,1073725440,14638,1026,65535,65700,0,0,4,1460,312,0,0,240000,33580,0,65700,0,0,0,2154269554,63
i,1723652828.767325,10.0.2.15,22,10.0.2.2,50546,1073725440,14638,1026,65535,65700,0,0,4,1460,312,0,0,240000,33580,0,65700,1460,0,0,2154269554,63
o,1723652828.767350,10.0.2.15,22,10.0.2.2,50546,1073725440,14638,1026,65535,65700,0,0,4,1460,312,0,1,240000,33580,0,65700,1536,0,0,2154269554,63
o,1723652828.767920,10.0.2.15,22,10.0.2.2,50546,1073725440,14638,1026,65535,65700,0,0,4,1460,312,0,16777216,240000,33580,1120,65700,1536,0,0,2154269554,63
i,1723652828.768321,10.0.2.15,22,10.0.2.2,50546,1073725440,14638,1026,65535,65700,0,0,4,1460,312,0,16777216,240000,33580,1120,65700,0,1120,0,2154269554,63
i,1723652828.769791,10.0.2.15,22,10.0.2.2,50546,1073725440,15758,1026,65535,65700,0,0,4,1460,312,0,0,240000,33580,0,65700,0,0,0,2154269554,63
o,1723652828.773462,10.0.2.15,22,10.0.2.2,50546,1073725440,15758,1026,65535,65700,0,0,4,1460,312,0,16777216,240000,33580,492,65700,0,0,0,2154269554,63
i,1723652828.774067,10.0.2.15,22,10.0.2.2,50546,1073725440,15758,1026,65535,65700,0,0,4,1460,312,0,16777216,240000,33580,492,65700,0,492,0,2154269554,63
i,1723652828.778323,10.0.2.15,22,10.0.2.2,50546,1073725440,16250,1026,65535,65700,0,0,4,1460,312,0,0,240000,33580,0,65700,0,0,0,2154269554,63
i,1723652828.778340,10.0.2.15,22,10.0.2.2,50546,1073725440,16250,1026,65535,65700,0,0,4,1460,312,0,0,240000,33580,0,65700,16,0,0,2154269554,63
o,1723652828.778355,10.0.2.15,22,10.0.2.2,50546,1073725440,16250,1026,65535,65700,0,0,4,1460,312,0,1,240000,33580,0,65700,60,0,0,2154269554,63
o,1723652828.778576,10.0.2.15,22,10.0.2.2,50546,1073725440,16250,1026,65535,65700,0,0,4,1460,312,0,16777216,240000,33580,44,65700,0,0,0,2154269554,63
i,1723652828.779044,10.0.2.15,22,10.0.2.2,50546,1073725440,16250,1026,65535,65700,0,0,4,1460,312,0,16777216,240000,33580,44,65700,0,44,0,2154269554,63
i,1723652828.779064,10.0.2.15,22,10.0.2.2,50546,1073725440,16294,1026,65535,65700,0,0,4,1460,312,0,0,240000,33580,0,65700,0,0,0,2154269554,63
o,1723652828.780169,10.0.2.15,22,10.0.2.2,50546,1073725440,16294,1026,65535,65700,0,0,4,1460,312,0,16777216,240000,33580,68,65700,0,0,0,2154269554,63
i,1723652828.780891,10.0.2.15,22,10.0.2.2,50546,1073725440,16294,1026,65535,65700,0,0,4,1460,312,0,16777216,240000,33580,68,65700,0,68,0,2154269554,63
i,1723652828.780908,10.0.2.15,22,10.0.2.2,50546,1073725440,16362,1026,65535,65700,0,0,4,1460,312,0,0,240000,33580,0,65700,0,0,0,2154269554,63
o,1723652828.781981,10.0.2.15,22,10.0.2.2,50546,1073725440,16362,1026,65535,65700,0,0,4,1460,312,0,16777216,240000,33580,332,65700,0,0,0,2154269554,63
i,1723652828.782686,10.0.2.15,22,10.0.2.2,50546,1073725440,16362,1026,65535,65700,0,0,4,1460,312,0,16777216,240000,33580,332,65700,0,332,0,2154269554,63
i,1723652828.783941,10.0.2.15,22,10.0.2.2,50546,1073725440,16694,1026,65535,65700,0,0,4,1460,312,0,0,240000,33580,0,65700,0,0,0,2154269554,63
o,1723652828.802766,10.0.2.15,22,10.0.2.2,50546,1073725440,16694,1026,65535,65700,0,0,4,1460,312,0,16777216,240000,33580,28,65700,0,0,0,2154269554,63
i,1723652828.803398,10.0.2.15,22,10.0.2.2,50546,1073725440,16694,1026,65535,65700,0,0,4,1460,312,0,16777216,240000,33580,28,65700,0,28,0,2154269554,63
i,1723652828.803842,10.0.2.15,22,10.0.2.2,50546,1073725440,16722,1026,65535,65700,0,0,4,1460,312,0,0,240000,33580,0,65700,0,0,0,2154269554,63
o,1723652828.804939,10.0.2.15,22,10.0.2.2,50546,1073725440,16722,1026,65535,65700,0,0,4,1460,312,0,16777216,240000,33580,768,65700,112,0,0,2154269554,63
i,1723652828.805635,10.0.2.15,22,10.0.2.2,50546,1073725440,16722,1026,65535,65700,0,0,4,1460,312,0,16777216,240000,33580,908,65700,112,768,0,2154269554,63
o,1723652828.805664,10.0.2.15,22,10.0.2.2,50546,1073725440,17490,1026,65535,65700,0,0,4,1460,312,0,16777216,240000,33580,140,65700,112,0,0,2154269554,63
i,1723652828.806318,10.0.2.15,22,10.0.2.2,50546,1073725440,17490,1026,65535,65700,0,0,4,1460,312,0,16777216,240000,33580,140,65700,0,140,0,2154269554,63
o,1723652828.806473,10.0.2.15,22,10.0.2.2,50546,1073725440,17630,1026,65535,65700,0,0,4,1460,312,0,16777216,240000,33580,44,65700,0,0,0,2154269554,63
i,1723652828.807286,10.0.2.15,22,10.0.2.2,50546,1073725440,17630,1026,65535,65700,0,0,4,1460,312,0,16777216,240000,33580,44,65700,0,44,0,2154269554,63
i,1723652828.807312,10.0.2.15,22,10.0.2.2,50546,1073725440,17674,1026,65535,65700,0,0,4,1460,312,0,0,240000,33580,0,65700,0,0,0,2154269554,63
o,1723652828.808390,10.0.2.15,22,10.0.2.2,50546,1073725440,17674,1026,65535,65700,0,0,4,1460,312,0,16777220,240000,33580,72,65700,0,0,0,2154269554,63
i,1723652828.810752,10.0.2.15,22,10.0.2.2,50546,1073725440,17674,1026,65535,65700,0,0,4,1460,312,0,16777220,240000,33580,72,65700,0,72,0,2154269554,63
i,1723652828.810774,10.0.2.15,22,10.0.2.2,50546,1073725440,17746,1026,65535,65700,0,0,4,1460,312,0,4,240000,33580,0,65700,0,0,0,2154269554,63
o,1723652828.863876,10.0.2.15,22,10.0.2.2,50546,1073725440,17746,1026,65535,65700,0,0,4,1460,312,0,5,240000,33580,0,65700,0,0,0,2154269554,63
o,1723652828.929740,172.16.3.2,49388,172.16.1.2,5101,25340,14480,34,65535,65700,6,6,4,1460,256562,1,16778209,860000,33580,0,65700,0,0,0,708067413,63
o,1723652828.930080,172.16.3.2,49388,172.16.1.2,5101,25340,14480,34,65535,65700,6,6,4,1460,256562,1,16778212,860000,33580,37,65700,0,0,0,708067413,63
i,1723652829.053586,172.16.3.2,49388,172.16.1.2,5101,25340,14480,34,65535,65700,6,6,4,1460,256562,1,16778212,860000,33580,37,65700,0,37,0,708067413,63
o,1723652829.054049,172.16.3.2,49388,172.16.1.2,5101,25340,14517,1058,65728,65728,6,6,4,1460,240937,1,16778212,870000,33580,4,65700,0,0,0,708067413,63
o,1723652829.054200,172.16.3.2,49388,172.16.1.2,5101,25340,14517,1058,65728,65728,6,6,4,1460,240937,1,16778212,870000,33580,130,65700,0,4,0,708067413,63
i,1723652829.176269,172.16.3.2,49388,172.16.1.2,5101,25340,14517,1058,65728,65728,6,6,4,1460,240937,1,16778212,870000,33580,130,65700,0,130,0,708067413,63
i,1723652829.177549,172.16.3.2,49388,172.16.1.2,5101,25340,14647,1058,65600,65728,6,6,4,1460,225937,1,996,870000,33580,0,65700,0,0,0,708067413,63
o,1723652829.214426,172.16.3.2,49388,172.16.1.2,5101,25340,14647,1058,65728,65728,6,6,4,1460,225937,1,997,870000,33580,0,65700,0,0,0,708067413,63
o,1723652829.289805,172.16.3.2,22693,172.16.1.2,5101,25340,14480,34,65535,65700,6,6,4,1460,256562,1,16778209,860000,33580,0,65700,0,0,0,1486819386,63
o,1723652829.290037,172.16.3.2,22693,172.16.1.2,5101,25340,14480,34,65535,65700,6,6,4,1460,256562,1,16778208,860000,33580,37,65700,0,0,0,1486819386,63
i,1723652829.410795,172.16.3.2,49388,172.16.1.2,5101,25340,14647,1058,65728,65728,6,6,4,1460,225937,1,996,870000,33580,0,65700,0,0,0,708067413,63
i,1723652829.410855,172.16.3.2,49388,172.16.1.2,5101,25340,14647,1058,65728,65728,6,6,4,1460,225937,1,996,870000,33580,0,65700,1,0,0,708067413,63
o,1723652829.410878,172.16.3.2,49388,172.16.1.2,5101,25340,14647,1058,65728,65728,6,6,4,1460,225937,1,997,870000,33580,0,65700,2,0,0,708067413,63
o,1723652829.411538,172.16.3.2,22693,172.16.1.2,5101,25340,14480,38,65535,65700,6,6,4,1460,256562,1,16778208,860000,33580,33580,65700,0,37,0,1486819386,63
i,1723652829.445403,172.16.3.2,22693,172.16.1.2,5101,25340,14480,38,65535,65700,6,6,4,1460,256562,1,16778208,860000,33580,33580,65700,0,13069,0,1486819386,63
o,1723652829.445442,172.16.3.2,22693,172.16.1.2,5101,25340,14517,38,65728,65728,6,6,4,1460,244687,1,16778208,840000,33580,33543,65700,0,13032,0,1486819386,63
i,1723652829.796476,172.16.3.2,22693,172.16.1.2,5101,25340,14517,38,65728,65728,6,6,4,1460,244687,1,16778208,840000,33580,33543,65700,0,14480,0,1486819386,63
o,1723652829.796561,172.16.3.2,22693,172.16.1.2,5101,25340,15965,38,65728,65728,6,6,4,1460,263125,1,16778208,910000,33580,32095,65700,0,13032,0,1486819386,63
i,1723652829.818109,172.16.3.2,22693,172.16.1.2,5101,25340,15965,38,65728,65728,6,6,4,1460,263125,1,16778208,910000,33580,32095,65700,0,15928,0,1486819386,63
o,1723652829.818139,172.16.3.2,22693,172.16.1.2,5101,25340,18861,38,64256,65728,6,6,4,1460,281562,1,16778208,960000,33580,29199,65700,0,13032,0,1486819386,63
i,1723652829.869778,172.16.3.2,22693,172.16.1.2,5101,25340,18861,38,64256,65728,6,6,4,1460,281562,1,16778208,960000,41772,41772,65700,0,18824,0,1486819386,63
o,1723652829.869806,172.16.3.2,22693,172.16.1.2,5101,9430,18824,38,64256,65728,6,6,4,1460,304062,1,553649120,1040000,41772,38876,65700,0,15928,0,1486819386,63
i,1723652829.918775,172.16.3.2,22693,172.16.1.2,5101,9430,18824,38,64256,65728,6,6,4,1460,304062,1,553649120,1040000,41772,41772,65700,0,18824,0,1486819386,63
o,1723652829.918870,172.16.3.2,22693,172.16.1.2,5101,9430,17376,34,64256,65728,6,6,4,1460,330000,1,553649120,1140000,41772,38876,65700,0,15928,0,1486819386,63
i,1723652829.967906,172.16.3.2,22693,172.16.1.2,5101,9430,17376,34,64256,65728,6,6,4,1460,330000,1,553649120,1140000,41772,41772,65700,0,17376,0,1486819386,63
o,1723652829.967991,172.16.3.2,22693,172.16.1.2,5101,9430,15928,34,64256,65728,6,6,4,1460,358750,1,553649120,1250000,41772,38876,65700,0,14480,0,1486819386,63
i,1723652830.018377,172.16.3.2,22693,172.16.1.2,5101,9430,15928,34,64256,65728,6,6,4,1460,358750,1,553649120,1250000,41772,41772,65700,0,15928,0,1486819386,63
i,1723652830.249193,172.16.3.2,22693,172.16.1.2,5101,9430,14480,34,65728,65728,6,6,4,1460,384062,1,536871904,1300000,41772,40324,65700,0,14480,0,1486819386,63
o,1723652830.249363,172.16.3.2,22693,172.16.1.2,5101,9430,13032,34,64256,65728,6,6,4,1460,392500,1,553649120,1200000,41772,37428,65700,0,11584,0,1486819386,63
i,1723652830.318386,172.16.3.2,22693,172.16.1.2,5101,9430,13032,34,64256,65728,6,6,4,1460,392500,1,553649120,1200000,41772,41772,65700,0,13032,0,1486819386,63
o,1723652830.318417,172.16.3.2,22693,172.16.1.2,5101,9430,11584,34,64256,65728,6,6,4,1460,405937,1,553649120,1170000,41772,38876,65700,0,10136,0,1486819386,63
i,1723652830.388512,172.16.3.2,22693,172.16.1.2,5101,9430,11584,34,64256,65728,6,6,4,1460,405937,1,553649120,1170000,41772,41772,65700,0,11584,0,1486819386,63
o,1723652830.388635,172.16.3.2,22693,172.16.1.2,5101,9430,10136,34,64256,65728,6,6,4,1460,426562,1,553649120,1210000,41772,38876,65700,0,8688,0,1486819386,63
i,1723652830.408152,172.16.3.2,22693,172.16.1.2,5101,9430,10136,34,64256,65728,6,6,4,1460,426562,1,553649120,1210000,41772,41772,65700,0,10136,0,1486819386,63
i,1723652830.448524,172.16.3.2,22693,172.16.1.2,5101,6006,8688,98,65728,65728,6,6,4,1460,439687,1,553649120,1180000,41772,40324,65700,0,8688,0,1486819386,63
i,1723652830.490428,172.16.3.2,22693,172.16.1.2,5101,6006,7240,98,65728,65728,6,6,4,1460,457500,1,553649120,1210000,41772,41772,65700,0,7240,0,1486819386,63
i,1723652830.638574,172.16.3.2,22693,172.16.1.2,5101,6006,4344,98,64256,65728,6,6,4,1460,471562,1,553649120,1200000,41772,41772,65700,0,4344,0,1486819386,63
o,1723652830.638682,172.16.3.2,22693,172.16.1.2,5101,6006,2896,34,64256,65728,6,6,4,1460,460312,1,553649120,1140000,41772,38876,65700,0,1448,0,1486819386,63
i,1723652830.668853,172.16.3.2,22693,172.16.1.2,5101,6006,2896,34,64256,65728,6,6,4,1460,460312,1,553649120,1140000,41772,41772,65700,0,2896,0,1486819386,63
o,1723652830.668926,172.16.3.2,22693,172.16.1.2,5101,6006,4344,34,64256,65728,6,6,4,1460,460312,1,553649120,1140000,41772,41772,65700,0,2896,0,1486819386,63
o,1723652830.669154,172.16.3.2,22693,172.16.1.2,5101,6006,4344,34,65728,65728,6,6,4,1460,436562,1,553649120,1190000,41772,40324,65700,0,2896,0,1486819386,63
i,1723652830.798397,172.16.3.2,22693,172.16.1.2,5101,6006,4344,34,65728,65728,6,6,4,1460,436562,1,553649120,1190000,41772,40324,65700,0,4344,0,1486819386,63
o,1723652830.798509,172.16.3.2,22693,172.16.1.2,5101,6006,4344,34,65728,65728,6,6,4,1460,402187,1,16778208,1290000,41772,38876,65700,0,2896,0,1486819386,63
i,1723652830.842997,172.16.3.2,22693,172.16.1.2,5101,6006,4344,34,65728,65728,6,6,4,1460,402187,1,16778208,1290000,41772,41772,65700,0,4344,0,1486819386,63
o,1723652830.843105,172.16.3.2,22693,172.16.1.2,5101,6006,7240,38,64256,65728,6,6,4,1460,374687,1,16778208,1310000,41772,38876,65700,0,1448,0,1486819386,63
i,1723652830.975493,172.16.3.2,22693,172.16.1.2,5101,6006,7240,38,64256,65728,6,6,4,1460,374687,1,16778208,1310000,41772,41772,65700,0,7240,0,1486819386,63
o,1723652830.975591,172.16.3.2,22693,172.16.1.2,5101,6006,7240,34,65728,65728,6,6,4,1460,350625,1,16778208,1300000,41772,40324,65700,0,5792,0,1486819386,63
i,1723652831.068114,172.16.3.2,22693,172.16.1.2,5101,6006,7240,34,65728,65728,6,6,4,1460,350625,1,16778208,1300000,41772,40324,65700,0,7240,0,1486819386,63
o,1723652831.068146,172.16.3.2,22693,172.16.1.2,5101,4291,5792,34,64256,65728,6,6,4,1460,334375,1,553649120,1220000,41772,37428,65700,0,4344,0,1486819386,63
i,1723652831.126792,172.16.3.2,22693,172.16.1.2,5101,4291,5792,34,64256,65728,6,6,4,1460,334375,1,553649120,1220000,41772,41772,65700,0,5792,0,1486819386,63
i,1723652831.208222,172.16.3.2,22693,172.16.1.2,5101,4291,2896,34,64256,65728,6,6,4,1460,327812,1,553649120,1100000,41772,41772,65700,0,2896,0,1486819386,63
o,1723652831.208325,172.16.3.2,22693,172.16.1.2,5101,4291,2896,38,64256,65728,6,6,4,1460,314375,1,16778208,1050000,41772,38876,65700,0,0,0,1486819386,63
o,1723652831.208469,172.16.3.2,22693,172.16.1.2,5101,4291,2896,34,64256,65728,6,6,4,1460,314375,1,16778208,1050000,41772,38876,65700,0,1448,0,1486819386,63
i,1723652831.370435,172.16.3.2,22693,172.16.1.2,5101,4291,2896,34,64256,65728,6,6,4,1460,314375,1,16778208,1050000,41772,41772,65700,0,2896,0,1486819386,63
o,1723652831.370548,172.16.3.2,22693,172.16.1.2,5101,4291,5792,38,64256,65728,6,6,4,1460,295312,1,16778208,1050000,41772,38876,65700,0,0,0,1486819386,63
o,1723652831.370691,172.16.3.2,22693,172.16.1.2,5101,4291,5792,38,64256,65728,6,6,4,1460,295312,1,16778208,1050000,41772,38876,65700,0,1448,0,1486819386,63
i,1723652831.566095,172.16.3.2,22693,172.16.1.2,5101,4291,5792,38,64256,65728,6,6,4,1460,295312,1,16778208,1050000,41772,41772,65700,0,5792,0,1486819386,63
o,1723652831.566222,172.16.3.2,22693,172.16.1.2,5101,4291,5792,38,64256,65728,6,6,4,1460,283437,1,16778208,990000,41772,38876,65700,0,2896,0,1486819386,63
o,1723652831.566454,172.16.3.2,22693,172.16.1.2,5101,4291,5792,34,64256,65728,6,6,4,1460,283437,1,16778208,990000,41772,38876,65700,0,4344,0,1486819386,63
i,1723652831.669971,172.16.3.2,22693,172.16.1.2,5101,4291,5792,34,64256,65728,6,6,4,1460,283437,1,16778208,990000,41772,41772,65700,0,5792,0,1486819386,63
o,1723652831.670170,172.16.3.2,22693,172.16.1.2,5101,4291,5792,38,64256,65728,6,6,4,1460,285625,1,16778208,890000,41772,38876,65700,0,2896,0,1486819386,63
i,1723652831.742265,172.16.3.2,22693,172.16.1.2,5101,4291,5792,38,64256,65728,6,6,4,1460,285625,1,16778208,890000,41772,41772,65700,0,5792,0,1486819386,63
o,1723652831.742365,172.16.3.2,22693,172.16.1.2,5101,4291,5792,38,64256,65728,6,6,4,1460,271250,1,16778208,890000,41772,38876,65700,0,2896,0,1486819386,63
o,1723652831.742679,172.16.3.2,22693,172.16.1.2,5101,4291,5792,34,64256,65728,6,6,4,1460,271250,1,16778208,890000,41772,38876,65700,0,4344,0,1486819386,63
i,1723652831.848750,172.16.3.2,22693,172.16.1.2,5101,4291,5792,34,64256,65728,6,6,4,1460,271250,1,16778208,890000,41772,41772,65700,0,5792,0,1486819386,63
o,1723652831.848851,172.16.3.2,22693,172.16.1.2,5101,4291,5792,38,64256,65728,6,6,4,1460,258750,1,16778208,870000,41772,38876,65700,0,2896,0,1486819386,63
i,1723652831.958959,172.16.3.2,22693,172.16.1.2,5101,4291,5792,38,64256,65728,6,6,4,1460,258750,1,16778208,870000,41772,41772,65700,0,5792,0,1486819386,63
o,1723652831.959235,172.16.3.2,22693,172.16.1.2,5101,4291,5792,38,64256,65728,6,6,4,1460,252812,1,16778208,810000,41772,38876,65700,0,2896,0,1486819386,63
o,1723652831.959793,172.16.3.2,22693,172.16.1.2,5101,4291,5792,34,64256,65728,6,6,4,1460,252812,1,16778208,810000,41772,38876,65700,0,4344,0,1486819386,63
i,1723652832.053084,172.16.3.2,22693,172.16.1.2,5101,4291,5792,34,64256,65728,6,6,4,1460,252812,1,16778208,810000,41772,41772,65700,0,5792,0,1486819386,63
o,1723652832.053113,172.16.3.2,22693,172.16.1.2,5101,4291,5792,34,65728,65728,6,6,4,1460,247500,1,16778208,760000,41772,40324,65700,0,4344,0,1486819386,63
i,1723652832.092864,172.16.3.2,22693,172.16.1.2,5101,4291,5792,34,65728,65728,6,6,4,1460,247500,1,16778208,760000,41772,40324,65700,0,5792,0,1486819386,63
o,1723652832.092885,172.16.3.2,22693,172.16.1.2,5101,4291,5792,34,65728,65728,6,6,4,1460,247812,1,16778208,680000,41772,38876,65700,0,4344,0,1486819386,63
i,1723652832.150065,172.16.3.2,22693,172.16.1.2,5101,4291,5792,34,65728,65728,6,6,4,1460,247812,1,16778208,680000,41772,41772,65700,0,5792,0,1486819386,63
o,1723652832.150094,172.16.3.2,22693,172.16.1.2,5101,4291,5792,34,65728,65728,6,6,4,1460,239375,1,16778208,680000,41772,40324,65700,0,4344,0,1486819386,63
i,1723652832.187663,172.16.3.2,22693,172.16.1.2,5101,4291,5792,34,65728,65728,6,6,4,1460,239375,1,16778208,680000,41772,40324,65700,0,5792,0,1486819386,63
o,1723652832.187769,172.16.3.2,22693,172.16.1.2,5101,4291,5792,34,65728,65728,6,6,4,1460,237187,1,16778208,640000,41772,38876,65700,0,4344,0,1486819386,63
i,1723652832.239842,172.16.3.2,22693,172.16.1.2,5101,4291,5792,34,65728,65728,6,6,4,1460,237187,1,16778208,640000,41772,41772,65700,0,5792,0,1486819386,63
o,1723652832.239876,172.16.3.2,22693,172.16.1.2,5101,4291,5817,38,64256,65728,6,6,4,1460,230312,1,16778208,640000,41772,38876,65700,0,2896,0,1486819386,63
i,1723652832.348407,172.16.3.2,22693,172.16.1.2,5101,4291,5817,38,64256,65728,6,6,4,1460,230312,1,16778208,640000,41772,41772,65700,0,5792,0,1486819386,63
o,1723652832.348481,172.16.3.2,22693,172.16.1.2,5101,4291,6067,38,64256,65728,6,6,4,1460,226562,1,16778208,610000,41772,38876,65700,0,2896,0,1486819386,63
o,1723652832.348598,172.16.3.2,22693,172.16.1.2,5101,4291,6067,38,64256,65728,6,6,4,1460,226562,1,16778208,610000,41772,38876,65700,0,4344,0,1486819386,63
i,1723652832.440720,172.16.3.2,22693,172.16.1.2,5101,4291,6067,38,64256,65728,6,6,4,1460,226562,1,16778208,610000,41772,41772,65700,0,5792,0,1486819386,63
o,1723652832.440786,172.16.3.2,22693,172.16.1.2,5101,4291,6272,38,64256,65728,6,6,4,1460,222187,1,16778208,590000,41772,38876,65700,0,2896,0,1486819386,63
i,1723652832.561448,172.16.3.2,22693,172.16.1.2,5101,4291,6272,38,64256,65728,6,6,4,1460,222187,1,16778208,590000,41772,41772,65700,0,5792,0,1486819386,63
o,1723652832.561498,172.16.3.2,22693,172.16.1.2,5101,4291,6546,38,64256,65728,6,6,4,1460,220937,1,16778208,560000,41772,38876,65700,0,2896,0,1486819386,63
o,1723652832.561600,172.16.3.2,22693,172.16.1.2,5101,4291,6546,38,64256,65728,6,6,4,1460,220937,1,16778208,560000,41772,38876,65700,0,4344,0,1486819386,63
i,1723652832.654699,172.16.3.2,22693,172.16.1.2,5101,4291,6546,38,64256,65728,6,6,4,1460,220937,1,16778208,560000,41772,41772,65700,0,5792,0,1486819386,63
o,1723652832.654734,172.16.3.2,22693,172.16.1.2,5101,4291,6773,38,64256,65728,6,6,4,1460,220937,1,16778208,530000,41772,38876,65700,0,2896,0,1486819386,63
i,1723652832.746800,172.16.3.2,22693,172.16.1.2,5101,4291,6773,38,64256,65728,6,6,4,1460,220937,1,16778208,530000,41772,41772,65700,0,5792,0,1486819386,63
o,1723652832.747011,172.16.3.2,22693,172.16.1.2,5101,4291,6978,38,65728,65728,6,6,4,1460,217187,1,16778208,520000,41772,40324,65700,0,4344,0,1486819386,63
i,1723652832.799579,172.16.3.2,22693,172.16.1.2,5101,4291,6978,38,65728,65728,6,6,4,1460,217187,1,16778208,520000,41772,40324,65700,0,5792,0,1486819386,63
o,1723652832.799667,172.16.3.2,22693,172.16.1.2,5101,4291,7092,38,65728,65728,6,6,4,1460,220312,1,16778208,530000,41772,38876,65700,0,4344,0,1486819386,63
i,1723652832.860249,172.16.3.2,22693,172.16.1.2,5101,4291,7092,38,65728,65728,6,6,4,1460,220312,1,16778208,530000,41772,41772,65700,0,5792,0,1486819386,63
o,1723652832.860344,172.16.3.2,22693,172.16.1.2,5101,4291,7229,38,64256,65728,6,6,4,1460,216562,1,16778208,520000,41772,38876,65700,0,2896,0,1486819386,63
i,1723652832.976045,172.16.3.2,22693,172.16.1.2,5101,4291,7229,38,64256,65728,6,6,4,1460,216562,1,16778208,520000,41772,39848,65700,0,5792,0,1486819386,63
o,1723652832.976152,172.16.3.2,22693,172.16.1.2,5101,4291,7502,38,64256,65728,6,6,4,1460,217187,1,16778208,500000,41772,36952,65700,0,2896,0,1486819386,63
o,1723652832.977045,172.16.3.2,22693,172.16.1.2,5101,4291,7502,38,64256,65728,6,6,4,1460,217187,1,16778208,500000,41772,36952,65700,0,4344,0,1486819386,63
i,1723652833.048062,172.16.3.2,22693,172.16.1.2,5101,4291,7502,38,64256,65728,6,6,4,1460,217187,1,16778208,500000,41772,41772,65700,0,7240,0,1486819386,63
o,1723652833.048135,172.16.3.2,22693,172.16.1.2,5101,4291,7662,38,64256,65728,6,6,4,1460,214062,1,16778208,500000,41772,38876,65700,0,4344,0,1486819386,63
i,1723652833.159432,172.16.3.2,22693,172.16.1.2,5101,4291,7662,38,64256,65728,6,6,4,1460,214062,1,16778208,500000,41772,41772,65700,0,7240,0,1486819386,63
o,1723652833.159467,172.16.3.2,22693,172.16.1.2,5101,4291,7912,38,64256,65728,6,6,4,1460,210000,1,16778208,510000,41772,38876,65700,0,4344,0,1486819386,63
o,1723652833.159615,172.16.3.2,22693,172.16.1.2,5101,4291,7912,38,64256,65728,6,6,4,1460,210000,1,16778208,510000,41772,38876,65700,0,5792,0,1486819386,63
i,1723652833.239693,172.16.3.2,22693,172.16.1.2,5101,4291,7912,38,64256,65728,6,6,4,1460,210000,1,16778208,510000,41772,41772,65700,0,7240,0,1486819386,63
o,1723652833.239784,172.16.3.2,22693,172.16.1.2,5101,4291,8095,38,65728,65728,6,6,4,1460,216250,1,16778208,540000,41772,40324,65700,0,5792,0,1486819386,63
i,1723652833.297595,172.16.3.2,22693,172.16.1.2,5101,4291,8095,38,65728,65728,6,6,4,1460,216250,1,16778208,540000,41772,40324,65700,0,7240,0,1486819386,63
o,1723652833.297622,172.16.3.2,22693,172.16.1.2,5101,4291,8231,38,65728,65728,6,6,4,1460,220625,1,16778208,550000,41772,38876,65700,0,5792,0,1486819386,63
i,1723652833.358556,172.16.3.2,22693,172.16.1.2,5101,4291,8231,38,65728,65728,6,6,4,1460,220625,1,16778208,550000,41772,41772,65700,0,7240,0,1486819386,63
o,1723652833.358599,172.16.3.2,22693,172.16.1.2,5101,4291,8368,38,64256,65728,6,6,4,1460,231875,1,16778208,620000,41772,38876,65700,0,4344,0,1486819386,63
o,1723652833.358753,172.16.3.2,22693,172.16.1.2,5101,4291,8368,38,64256,65728,6,6,4,1460,231875,1,16778208,620000,41772,38876,65700,0,5792,0,1486819386,63
i,1723652833.438328,172.16.3.2,22693,172.16.1.2,5101,4291,8368,38,64256,65728,6,6,4,1460,231875,1,16778208,620000,41772,41772,65700,0,7240,0,1486819386,63
o,1723652833.438361,172.16.3.2,22693,172.16.1.2,5101,4291,8550,38,65728,65728,6,6,4,1460,238125,1,16778208,630000,41772,40324,65700,0,5792,0,1486819386,63
i,1723652833.493726,172.16.3.2,22693,172.16.1.2,5101,4291,8550,38,65728,65728,6,6,4,1460,238125,1,16778208,630000,41772,40324,65700,0,7240,0,1486819386,63
o,1723652833.493753,172.16.3.2,22693,172.16.1.2,5101,4291,8687,38,65728,65728,6,6,4,1460,240937,1,16778208,600000,41772,38876,65700,0,5792,0,1486819386,63
i,1723652833.549299,172.16.3.2,22693,172.16.1.2,5101,4291,8687,38,65728,65728,6,6,4,1460,240937,1,16778208,600000,41772,41772,65700,0,7240,0,1486819386,63
o,1723652833.549378,172.16.3.2,22693,172.16.1.2,5101,4291,8801,38,64256,65728,6,6,4,1460,242187,1,16778208,570000,41772,38876,65700,0,4344,0,1486819386,63
o,1723652833.549505,172.16.3.2,22693,172.16.1.2,5101,4291,8801,38,64256,65728,6,6,4,1460,242187,1,16778208,570000,41772,38876,65700,0,5792,0,1486819386,63
i,1723652833.618913,172.16.3.2,22693,172.16.1.2,5101,4291,8801,38,64256,65728,6,6,4,1460,242187,1,16778208,570000,41772,41772,65700,0,8688,0,1486819386,63
o,1723652833.619216,172.16.3.2,22693,172.16.1.2,5101,4291,8960,38,65728,65728,6,6,4,1460,244687,1,16778208,560000,41772,40324,65700,0,7240,0,1486819386,63
i,1723652833.676881,172.16.3.2,22693,172.16.1.2,5101,4291,8960,38,65728,65728,6,6,4,1460,244687,1,16778208,560000,41772,40324,65700,0,8688,0,1486819386,63
o,1723652833.677203,172.16.3.2,22693,172.16.1.2,5101,4291,9097,38,65728,65728,6,6,4,1460,243125,1,16778208,550000,41772,38876,65700,0,7240,0,1486819386,63
i,1723652833.779325,172.16.3.2,22693,172.16.1.2,5101,4291,9097,38,65728,65728,6,6,4,1460,243125,1,16778208,550000,41772,41772,65700,0,8688,0,1486819386,63
o,1723652833.779415,172.16.3.2,22693,172.16.1.2,5101,6360,7240,34,64256,65728,6,6,4,1460,247812,1,553649120,560000,41772,38876,65700,0,5792,0,1486819386,63
i,1723652833.850243,172.16.3.2,22693,172.16.1.2,5101,6360,7240,34,64256,65728,6,6,4,1460,247812,1,553649120,560000,41772,41772,65700,0,7240,0,1486819386,63
o,1723652833.850323,172.16.3.2,22693,172.16.1.2,5101,6360,5792,34,64256,65728,6,6,4,1460,253125,1,553649120,580000,41772,38876,65700,0,4344,0,1486819386,63
i,1723652833.949554,172.16.3.2,22693,172.16.1.2,5101,6360,5792,34,64256,65728,6,6,4,1460,253125,1,553649120,580000,41772,41772,65700,0,5792,0,1486819386,63
i,1723652833.980261,172.16.3.2,22693,172.16.1.2,5101,6360,4344,34,65728,65728,6,6,4,1460,261562,1,553649120,620000,41772,40324,65700,0,4344,0,1486819386,63
o,1723652833.980351,172.16.3.2,22693,172.16.1.2,5101,6360,4344,34,65728,65728,6,6,4,1460,266562,1,553649120,630000,41772,38876,65700,0,2896,0,1486819386,63
i,1723652833.988495,172.16.3.2,22693,172.16.1.2,5101,6360,4344,34,65728,65728,6,6,4,1460,266562,1,553649120,630000,41772,41772,65700,0,4344,0,1486819386,63
o,1723652833.988558,172.16.3.2,22693,172.16.1.2,5101,6360,4344,34,65728,65728,6,6,4,1460,259687,1,16778208,640000,41772,40324,65700,0,2896,0,1486819386,63
i,1723652834.068005,172.16.3.2,22693,172.16.1.2,5101,6360,4344,34,65728,65728,6,6,4,1460,259687,1,16778208,640000,41772,40324,65700,0,4344,0,1486819386,63
o,1723652834.068060,172.16.3.2,22693,172.16.1.2,5101,6360,5792,38,65728,65728,6,6,4,1460,255000,1,16778208,630000,41772,38876,65700,0,2896,0,1486819386,63
i,1723652834.128485,172.16.3.2,22693,172.16.1.2,5101,6360,5792,38,65728,65728,6,6,4,1460,255000,1,16778208,630000,41772,41772,65700,0,5792,0,1486819386,63
o,1723652834.128600,172.16.3.2,22693,172.16.1.2,5101,6360,8688,38,64256,65728,6,6,4,1460,241875,1,16778208,670000,41772,38876,65700,0,2896,0,1486819386,63
o,1723652834.128779,172.16.3.2,22693,172.16.1.2,5101,6360,8688,38,64256,65728,6,6,4,1460,241875,1,16778208,670000,41772,38876,65700,0,4344,0,1486819386,63
i,1723652834.237167,172.16.3.2,22693,172.16.1.2,5101,6360,8688,38,64256,65728,6,6,4,1460,241875,1,16778208,670000,41772,41772,65700,0,8688,0,1486819386,63
o,1723652834.237189,172.16.3.2,22693,172.16.1.2,5101,6360,8688,38,64256,65728,6,6,4,1460,231875,1,16778208,690000,41772,38876,65700,0,5792,0,1486819386,63
i,1723652834.373614,172.16.3.2,22693,172.16.1.2,5101,6360,8688,38,64256,65728,6,6,4,1460,231875,1,16778208,690000,41772,41772,65700,0,8688,0,1486819386,63
o,1723652834.373810,172.16.3.2,22693,172.16.1.2,5101,5149,7240,34,64256,65728,6,6,4,1460,234375,1,553649120,640000,41772,38876,65700,0,5792,0,1486819386,63
i,1723652834.429665,172.16.3.2,22693,172.16.1.2,5101,5149,7240,34,64256,65728,6,6,4,1460,234375,1,553649120,640000,41772,41772,65700,0,7240,0,1486819386,63
i,1723652834.494473,172.16.3.2,22693,172.16.1.2,5101,5149,5792,34,65728,65728,6,6,4,1460,242812,1,553649120,670000,41772,40324,65700,0,5792,0,1486819386,63
o,1723652834.494501,172.16.3.2,22693,172.16.1.2,5101,5149,4344,34,64256,65728,6,6,4,1460,258750,1,553649120,750000,41772,37428,65700,0,2896,0,1486819386,63
i,1723652834.578693,172.16.3.2,22693,172.16.1.2,5101,5149,4344,34,64256,65728,6,6,4,1460,258750,1,553649120,750000,41772,41772,65700,0,4344,0,1486819386,63
o,1723652834.578771,172.16.3.2,22693,172.16.1.2,5101,5149,4344,38,64256,65728,6,6,4,1460,269062,1,16778208,770000,41772,38876,65700,0,1448,0,1486819386,63
o,1723652834.578887,172.16.3.2,22693,172.16.1.2,5101,5149,4344,34,64256,65728,6,6,4,1460,269062,1,16778208,770000,41772,38876,65700,0,2896,0,1486819386,63
i,1723652834.668872,172.16.3.2,22693,172.16.1.2,5101,5149,4344,34,64256,65728,6,6,4,1460,269062,1,16778208,770000,41772,41772,65700,0,4344,0,1486819386,63
o,1723652834.668910,172.16.3.2,22693,172.16.1.2,5101,5149,5792,38,65728,65728,6,6,4,1460,256875,1,16778208,780000,41772,40324,65700,0,2896,0,1486819386,63
i,1723652834.748751,172.16.3.2,22693,172.16.1.2,5101,5149,5792,38,65728,65728,6,6,4,1460,256875,1,16778208,780000,41772,40324,65700,0,5792,0,1486819386,63
o,1723652834.748846,172.16.3.2,22693,172.16.1.2,5101,5149,5904,38,64256,65728,6,6,4,1460,246250,1,16778208,770000,41772,37428,65700,0,2896,0,1486819386,63
o,1723652834.749003,172.16.3.2,22693,172.16.1.2,5101,5149,5904,38,64256,65728,6,6,4,1460,246250,1,16778208,770000,41772,37428,65700,0,4344,0,1486819386,63
i,1723652834.868802,172.16.3.2,22693,172.16.1.2,5101,5149,5904,38,64256,65728,6,6,4,1460,246250,1,16778208,770000,41772,41772,65700,0,5792,0,1486819386,63
o,1723652834.868837,172.16.3.2,22693,172.16.1.2,5101,5149,5904,38,64256,65728,6,6,4,1460,240625,1,16778208,730000,41772,38876,65700,0,2896,0,1486819386,63
i,1723652834.953246,172.16.3.2,22693,172.16.1.2,5101,5149,5904,38,64256,65728,6,6,4,1460,240625,1,16778208,730000,41772,41772,65700,0,5792,0,1486819386,63
o,1723652834.953305,172.16.3.2,22693,172.16.1.2,5101,5149,5904,38,64256,65728,6,6,4,1460,236875,1,16778208,680000,41772,38876,65700,0,2896,0,1486819386,63
o,1723652834.953505,172.16.3.2,22693,172.16.1.2,5101,5149,5904,38,64256,65728,6,6,4,1460,236875,1,16778208,680000,41772,38876,65700,0,4344,0,1486819386,63
i,1723652835.058648,172.16.3.2,22693,172.16.1.2,5101,5149,5904,38,64256,65728,6,6,4,1460,236875,1,16778208,680000,41772,41772,65700,0,5792,0,1486819386,63
o,1723652835.058742,172.16.3.2,22693,172.16.1.2,5101,5149,6119,38,64256,65728,6,6,4,1460,231250,1,16778208,660000,41772,38876,65700,0,2896,0,1486819386,63
i,1723652835.160086,172.16.3.2,22693,172.16.1.2,5101,5149,6119,38,64256,65728,6,6,4,1460,231250,1,16778208,660000,41772,41772,65700,0,5792,0,1486819386,63
o,1723652835.160169,172.16.3.2,22693,172.16.1.2,5101,5149,6432,38,65728,65728,6,6,4,1460,227500,1,16778208,630000,41772,40324,65700,0,4344,0,1486819386,63
i,1723652835.198460,172.16.3.2,22693,172.16.1.2,5101,5149,6432,38,65728,65728,6,6,4,1460,227500,1,16778208,630000,41772,40324,65700,0,5792,0,1486819386,63
o,1723652835.198491,172.16.3.2,22693,172.16.1.2,5101,5149,6557,38,65728,65728,6,6,4,1460,229062,1,16778208,590000,41772,38876,65700,0,4344,0,1486819386,63
i,1723652835.263649,172.16.3.2,22693,172.16.1.2,5101,5149,6557,38,65728,65728,6,6,4,1460,229062,1,16778208,590000,41772,41772,65700,0,5792,0,1486819386,63
o,1723652835.263673,172.16.3.2,22693,172.16.1.2,5101,5149,6776,38,64256,65728,6,6,4,1460,226875,1,16778208,570000,41772,38876,65700,0,2896,0,1486819386,63
i,1723652835.359745,172.16.3.2,22693,172.16.1.2,5101,5149,6776,38,64256,65728,6,6,4,1460,226875,1,16778208,570000,41772,41772,65700,0,5792,0,1486819386,63
o,1723652835.359768,172.16.3.2,22693,172.16.1.2,5101,5149,7058,38,64256,65728,6,6,4,1460,223750,1,16778208,550000,41772,38876,65700,0,2896,0,1486819386,63
o,1723652835.359879,172.16.3.2,22693,172.16.1.2,5101,5149,7058,38,64256,65728,6,6,4,1460,223750,1,16778208,550000,41772,38876,65700,0,4344,0,1486819386,63
i,1723652835.450499,172.16.3.2,22693,172.16.1.2,5101,5149,7058,38,64256,65728,6,6,4,1460,223750,1,16778208,550000,41772,41772,65700,0,5792,0,1486819386,63
o,1723652835.450566,172.16.3.2,22693,172.16.1.2,5101,5149,7340,38,64256,65728,6,6,4,1460,218437,1,16778208,560000,41772,38876,65700,0,2896,0,1486819386,63
i,1723652835.563674,172.16.3.2,22693,172.16.1.2,5101,5149,7340,38,64256,65728,6,6,4,1460,218437,1,16778208,560000,41772,41772,65700,0,7240,0,1486819386,63
o,1723652835.563746,172.16.3.2,22693,172.16.1.2,5101,5149,7715,38,64256,65728,6,6,4,1460,217500,1,16778208,530000,41772,38876,65700,0,4344,0,1486819386,63
o,1723652835.563862,172.16.3.2,22693,172.16.1.2,5101,5149,7715,38,64256,65728,6,6,4,1460,217500,1,16778208,530000,41772,38876,65700,0,5792,0,1486819386,63
i,1723652835.673784,172.16.3.2,22693,172.16.1.2,5101,5149,7715,38,64256,65728,6,6,4,1460,217500,1,16778208,530000,41772,41772,65700,0,7240,0,1486819386,63
o,1723652835.673859,172.16.3.2,22693,172.16.1.2,5101,5149,8060,38,64256,65728,6,6,4,1460,219062,1,16778208,520000,41772,38876,65700,0,4344,0,1486819386,63
i,1723652835.738003,172.16.3.2,22693,172.16.1.2,5101,5149,8060,38,64256,65728,6,6,4,1460,219062,1,16778208,520000,41772,41772,65700,0,7240,0,1486819386,63
o,1723652835.738082,172.16.3.2,22693,172.16.1.2,5101,5149,8248,38,65728,65728,6,6,4,1460,228125,1,16778208,570000,41772,40324,65700,0,5792,0,1486819386,63
i,1723652835.813328,172.16.3.2,22693,172.16.1.2,5101,5149,8248,38,65728,65728,6,6,4,1460,228125,1,16778208,570000,41772,40324,65700,0,7240,0,1486819386,63
o,1723652835.813424,172.16.3.2,22693,172.16.1.2,5101,5149,8498,38,65728,65728,6,6,4,1460,230937,1,16778208,560000,41772,38876,65700,0,5792,0,1486819386,63
i,1723652835.857798,172.16.3.2,22693,172.16.1.2,5101,5149,8498,38,65728,65728,6,6,4,1460,230937,1,16778208,560000,41772,41772,65700,0,7240,0,1486819386,63
o,1723652835.857823,172.16.3.2,22693,172.16.1.2,5101,5149,8623,38,65728,65728,6,6,4,1460,238437,1,16778208,600000,41772,40324,65700,0,5792,0,1486819386,63
i,1723652835.908160,172.16.3.2,22693,172.16.1.2,5101,5149,8623,38,65728,65728,6,6,4,1460,238437,1,16778208,600000,41772,40324,65700,0,7240,0,1486819386,63
o,1723652835.908237,172.16.3.2,22693,172.16.1.2,5101,5149,8780,38,65728,65728,6,6,4,1460,237500,1,16778208,560000,41772,38876,65700,0,5792,0,1486819386,63
i,1723652835.948113,172.16.3.2,22693,172.16.1.2,5101,5149,8780,38,65728,65728,6,6,4,1460,237500,1,16778208,560000,41772,41772,65700,0,8688,0,1486819386,63
o,1723652835.948140,172.16.3.2,22693,172.16.1.2,5101,5149,8905,38,65728,65728,6,6,4,1460,241562,1,16778208,570000,41772,40324,65700,0,7240,0,1486819386,63
i,1723652836.008051,172.16.3.2,22693,172.16.1.2,5101,5149,8905,38,65728,65728,6,6,4,1460,241562,1,16778208,570000,41772,40324,65700,0,8688,0,1486819386,63
o,1723652836.008137,172.16.3.2,22693,172.16.1.2,5101,5149,9093,38,65728,65728,6,6,4,1460,245312,1,16778208,570000,41772,38876,65700,0,7240,0,1486819386,63
i,1723652836.060851,172.16.3.2,22693,172.16.1.2,5101,5149,9093,38,65728,65728,6,6,4,1460,245312,1,16778208,570000,41772,41772,65700,0,8688,0,1486819386,63
o,1723652836.060915,172.16.3.2,22693,172.16.1.2,5101,5149,9249,38,65728,65728,6,6,4,1460,244687,1,16778208,540000,41772,40324,65700,0,7240,0,1486819386,63
i,1723652836.118260,172.16.3.2,22693,172.16.1.2,5101,5149,9249,38,65728,65728,6,6,4,1460,244687,1,16778208,540000,41772,40324,65700,0,8688,0,1486819386,63
o,1723652836.118331,172.16.3.2,22693,172.16.1.2,5101,5149,9437,38,65728,65728,6,6,4,1460,246875,1,16778208,540000,41772,38876,65700,0,7240,0,1486819386,63
i,1723652836.174548,172.16.3.2,22693,172.16.1.2,5101,5149,9437,38,65728,65728,6,6,4,1460,246875,1,16778208,540000,41772,41772,65700,0,8688,0,1486819386,63
o,1723652836.174577,172.16.3.2,22693,172.16.1.2,5101,6598,7240,34,64256,65728,6,6,4,1460,250000,1,553649120,540000,41772,38876,65700,0,5792,0,1486819386,63
i,1723652836.258175,172.16.3.2,22693,172.16.1.2,5101,6598,7240,34,64256,65728,6,6,4,1460,250000,1,553649120,540000,41772,41772,65700,0,7240,0,1486819386,63
o,1723652836.258253,172.16.3.2,22693,172.16.1.2,5101,6598,7240,34,65728,65728,6,6,4,1460,257500,1,553649120,590000,41772,40324,65700,0,5792,0,1486819386,63
i,1723652836.318310,172.16.3.2,22693,172.16.1.2,5101,6598,7240,34,65728,65728,6,6,4,1460,257500,1,553649120,590000,41772,40324,65700,0,7240,0,1486819386,63
i,1723652836.348336,172.16.3.2,22693,172.16.1.2,5101,6598,5792,34,65728,65728,6,6,4,1460,264062,1,553649120,610000,41772,41772,65700,0,5792,0,1486819386,63
i,1723652836.382922,172.16.3.2,22693,172.16.1.2,5101,6598,2896,34,64256,65728,6,6,4,1460,267500,1,536871904,610000,41772,41772,65700,0,2896,0,1486819386,63
o,1723652836.382951,172.16.3.2,22693,172.16.1.2,5101,6598,2896,34,65728,65728,6,6,4,1460,260312,1,16778208,620000,41772,40324,65700,0,1448,0,1486819386,63
i,1723652836.498074,172.16.3.2,22693,172.16.1.2,5101,6598,2896,34,65728,65728,6,6,4,1460,260312,1,16778208,620000,41772,40324,65700,0,2896,0,1486819386,63
o,1723652836.498185,172.16.3.2,22693,172.16.1.2,5101,6598,4344,38,65728,65728,6,6,4,1460,257812,1,16778208,600000,41772,38876,65700,0,1448,0,1486819386,63
i,1723652836.589043,172.16.3.2,22693,172.16.1.2,5101,6598,4344,38,65728,65728,6,6,4,1460,257812,1,16778208,600000,41772,41772,65700,0,4344,0,1486819386,63
o,1723652836.589136,172.16.3.2,22693,172.16.1.2,5101,6598,5792,38,65728,65728,6,6,4,1460,250625,1,16778208,620000,41772,40324,65700,0,2896,0,1486819386,63
o,1723652836.589280,172.16.3.2,22693,172.16.1.2,5101,6598,5792,34,65728,65728,6,6,4,1460,250625,1,16778208,620000,41772,40324,65700,0,4344,0,1486819386,63
i,1723652836.662216,172.16.3.2,22693,172.16.1.2,5101,6598,5792,34,65728,65728,6,6,4,1460,250625,1,16778208,620000,41772,40324,65700,0,5792,0,1486819386,63
o,1723652836.662248,172.16.3.2,22693,172.16.1.2,5101,6598,8688,38,64256,65728,6,6,4,1460,239375,1,16778208,650000,41772,37428,65700,0,2896,0,1486819386,63
i,1723652836.768024,172.16.3.2,22693,172.16.1.2,5101,6598,8688,38,64256,65728,6,6,4,1460,239375,1,16778208,650000,41772,41772,65700,0,8688,0,1486819386,63
o,1723652836.768067,172.16.3.2,22693,172.16.1.2,5101,6598,8688,38,64256,65728,6,6,4,1460,232187,1,16778208,650000,41772,38876,65700,0,5792,0,1486819386,63
o,1723652836.768200,172.16.3.2,22693,172.16.1.2,5101,6598,8688,34,64256,65728,6,6,4,1460,232187,1,16778208,650000,41772,38876,65700,0,7240,0,1486819386,63
i,1723652836.887227,172.16.3.2,22693,172.16.1.2,5101,6598,8688,34,64256,65728,6,6,4,1460,232187,1,16778208,650000,41772,41772,65700,0,8688,0,1486819386,63
o,1723652836.887534,172.16.3.2,22693,172.16.1.2,5101,5149,7240,34,64256,65728,6,6,4,1460,230937,1,553649120,600000,41772,38876,65700,0,5792,0,1486819386,63
i,1723652836.958964,172.16.3.2,22693,172.16.1.2,5101,5149,7240,34,64256,65728,6,6,4,1460,230937,1,553649120,600000,41772,41772,65700,0,7240,0,1486819386,63
i,1723652837.017850,172.16.3.2,22693,172.16.1.2,5101,5149,5792,34,65728,65728,6,6,4,1460,238437,1,553649120,630000,41772,40324,65700,0,5792,0,1486819386,63
o,1723652837.017928,172.16.3.2,22693,172.16.1.2,5101,5149,4344,34,64256,65728,6,6,4,1460,252500,1,553649120,710000,41772,37428,65700,0,2896,0,1486819386,63
i,1723652837.119671,172.16.3.2,22693,172.16.1.2,5101,5149,4344,34,64256,65728,6,6,4,1460,252500,1,553649120,710000,41772,41772,65700,0,4344,0,1486819386,63
o,1723652837.119777,172.16.3.2,22693,172.16.1.2,5101,5149,4344,38,64256,65728,6,6,4,1460,264687,1,16778208,750000,41772,38876,65700,0,1448,0,1486819386,63
i,1723652837.208696,172.16.3.2,22693,172.16.1.2,5101,5149,4344,38,64256,65728,6,6,4,1460,264687,1,16778208,750000,41772,41772,65700,0,4344,0,1486819386,63
o,1723652837.208869,172.16.3.2,22693,172.16.1.2,5101,5149,5792,38,65728,65728,6,6,4,1460,255625,1,16778208,740000,41772,40324,65700,0,2896,0,1486819386,63
o,1723652837.209106,172.16.3.2,22693,172.16.1.2,5101,5149,5792,34,65728,65728,6,6,4,1460,255625,1,16778208,740000,41772,40324,65700,0,4344,0,1486819386,63
i,1723652837.276529,172.16.3.2,22693,172.16.1.2,5101,5149,5792,34,65728,65728,6,6,4,1460,255625,1,16778208,740000,41772,40324,65700,0,5792,0,1486819386,63
o,1723652837.276809,172.16.3.2,22693,172.16.1.2,5101,5149,5904,38,64256,65728,6,6,4,1460,242500,1,16778208,760000,41772,37428,65700,0,2896,0,1486819386,63
i,1723652837.370356,172.16.3.2,22693,172.16.1.2,5101,5149,5904,38,64256,65728,6,6,4,1460,242500,1,16778208,760000,41772,41772,65700,0,5792,0,1486819386,63
o,1723652837.370390,172.16.3.2,22693,172.16.1.2,5101,5149,5904,38,64256,65728,6,6,4,1460,230937,1,16778208,760000,41772,38876,65700,0,2896,0,1486819386,63
o,1723652837.370517,172.16.3.2,22693,172.16.1.2,5101,5149,5904,38,64256,65728,6,6,4,1460,230937,1,16778208,760000,41772,38876,65700,0,4344,0,1486819386,63
i,1723652837.470302,172.16.3.2,22693,172.16.1.2,5101,5149,5904,38,64256,65728,6,6,4,1460,230937,1,16778208,760000,41772,41772,65700,0,5792,0,1486819386,63
o,1723652837.470382,172.16.3.2,22693,172.16.1.2,5101,5149,5904,38,64256,65728,6,6,4,1460,225937,1,16778208,720000,41772,38876,65700,0,2896,0,1486819386,63
i,1723652837.558649,172.16.3.2,22693,172.16.1.2,5101,5149,5904,38,64256,65728,6,6,4,1460,225937,1,16778208,720000,41772,41772,65700,0,5792,0,1486819386,63
o,1723652837.558732,172.16.3.2,22693,172.16.1.2,5101,5149,6032,38,65728,65728,6,6,4,1460,221562,1,16778208,670000,41772,40324,65700,0,4344,0,1486819386,63
i,1723652837.607973,172.16.3.2,22693,172.16.1.2,5101,5149,6032,38,65728,65728,6,6,4,1460,221562,1,16778208,670000,41772,40324,65700,0,5792,0,1486819386,63
o,1723652837.608067,172.16.3.2,22693,172.16.1.2,5101,5149,6189,38,65728,65728,6,6,4,1460,224062,1,16778208,630000,41772,38876,65700,0,4344,0,1486819386,63
i,1723652837.688181,172.16.3.2,22693,172.16.1.2,5101,5149,6189,38,65728,65728,6,6,4,1460,224062,1,16778208,630000,41772,41772,65700,0,5792,0,1486819386,63
o,1723652837.688210,172.16.3.2,22693,172.16.1.2,5101,5149,6442,38,65728,65728,6,6,4,1460,222500,1,16778208,590000,41772,40324,65700,0,4344,0,1486819386,63
i,1723652837.738799,172.16.3.2,22693,172.16.1.2,5101,5149,6442,38,65728,65728,6,6,4,1460,222500,1,16778208,590000,41772,40324,65700,0,5792,0,1486819386,63
o,1723652837.738827,172.16.3.2,22693,172.16.1.2,5101,5149,6599,38,65728,65728,6,6,4,1460,228437,1,16778208,600000,41772,38876,65700,0,4344,0,1486819386,63
i,1723652837.790947,172.16.3.2,22693,172.16.1.2,5101,5149,6599,38,65728,65728,6,6,4,1460,228437,1,16778208,600000,41772,41772,65700,0,5792,0,1486819386,63
o,1723652837.790973,172.16.3.2,22693,172.16.1.2,5101,5149,6757,38,64256,65728,6,6,4,1460,228750,1,16778208,560000,41772,38876,65700,0,2896,0,1486819386,63
o,1723652837.791108,172.16.3.2,22693,172.16.1.2,5101,5149,6757,38,64256,65728,6,6,4,1460,228750,1,16778208,560000,41772,38876,65700,0,4344,0,1486819386,63
i,1723652837.868375,172.16.3.2,22693,172.16.1.2,5101,5149,6757,38,64256,65728,6,6,4,1460,228750,1,16778208,560000,41772,41772,65700,0,5792,0,1486819386,63
o,1723652837.868421,172.16.3.2,22693,172.16.1.2,5101,5149,7009,38,65728,65728,6,6,4,1460,222812,1,16778208,570000,41772,40324,65700,0,4344,0,1486819386,63
i,1723652837.917733,172.16.3.2,22693,172.16.1.2,5101,5149,7009,38,65728,65728,6,6,4,1460,222812,1,16778208,570000,41772,40324,65700,0,5792,0,1486819386,63
o,1723652837.917863,172.16.3.2,22693,172.16.1.2,5101,5149,7167,38,65728,65728,6,6,4,1460,216250,1,16778208,580000,41772,38876,65700,0,4344,0,1486819386,63
i,1723652837.988350,172.16.3.2,22693,172.16.1.2,5101,5149,7167,38,65728,65728,6,6,4,1460,216250,1,16778208,580000,41772,41772,65700,0,5792,0,1486819386,63
o,1723652837.988376,172.16.3.2,22693,172.16.1.2,5101,5149,7388,38,64256,65728,6,6,4,1460,213125,1,16778208,560000,41772,38876,65700,0,2896,0,1486819386,63
o,1723652837.988519,172.16.3.2,22693,172.16.1.2,5101,5149,7388,38,64256,65728,6,6,4,1460,213125,1,16778208,560000,41772,38876,65700,0,4344,0,1486819386,63
i,1723652838.079166,172.16.3.2,22693,172.16.1.2,5101,5149,7388,38,64256,65728,6,6,4,1460,213125,1,16778208,560000,41772,41772,65700,0,7240,0,1486819386,63
o,1723652838.079280,172.16.3.2,22693,172.16.1.2,5101,5149,7672,38,64256,65728,6,6,4,1460,212812,1,16778208,530000,41772,38876,65700,0,4344,0,1486819386,63
i,1723652838.184261,172.16.3.2,22693,172.16.1.2,5101,5149,7672,38,64256,65728,6,6,4,1460,212812,1,16778208,530000,41772,41772,65700,0,7240,0,1486819386,63
o,1723652838.184367,172.16.3.2,22693,172.16.1.2,5101,5149,8019,38,64256,65728,6,6,4,1460,211250,1,16778208,510000,41772,38876,65700,0,4344,0,1486819386,63
o,1723652838.184560,172.16.3.2,22693,172.16.1.2,5101,5149,8019,38,64256,65728,6,6,4,1460,211250,1,16778208,510000,41772,38876,65700,0,5792,0,1486819386,63
i,1723652838.208990,172.16.3.2,22693,172.16.1.2,5101,5149,8019,38,64256,65728,6,6,4,1460,211250,1,16778208,510000,41772,41772,65700,0,7240,0,1486819386,63
o,1723652838.209059,172.16.3.2,22693,172.16.1.2,5101,5149,8082,38,65728,65728,6,6,4,1460,212500,1,16778208,500000,41772,40324,65700,0,5792,0,1486819386,63
i,1723652838.288177,172.16.3.2,22693,172.16.1.2,5101,5149,8082,38,65728,65728,6,6,4,1460,212500,1,16778208,500000,41772,40324,65700,0,7240,0,1486819386,63
o,1723652838.288212,172.16.3.2,22693,172.16.1.2,5101,5149,8334,38,64256,65728,6,6,4,1460,210937,1,16778208,490000,41772,37428,65700,0,4344,0,1486819386,63
i,1723652838.412887,172.16.3.2,22693,172.16.1.2,5101,5149,8334,38,64256,65728,6,6,4,1460,210937,1,16778208,490000,41772,41772,65700,0,7240,0,1486819386,63
o,1723652838.412922,172.16.3.2,22693,172.16.1.2,5101,5149,8744,38,64256,65728,6,6,4,1460,213437,1,16778208,490000,41772,38876,65700,0,4344,0,1486819386,63
o,1723652838.413067,172.16.3.2,22693,172.16.1.2,5101,5149,8744,38,64256,65728,6,6,4,1460,213437,1,16778208,490000,41772,38876,65700,0,5792,0,1486819386,63
i,1723652838.498303,172.16.3.2,22693,172.16.1.2,5101,5149,8744,38,64256,65728,6,6,4,1460,213437,1,16778208,490000,41772,41772,65700,0,8688,0,1486819386,63
o,1723652838.498379,172.16.3.2,22693,172.16.1.2,5101,5149,8996,38,64256,65728,6,6,4,1460,223125,1,16778208,560000,41772,38876,65700,0,5792,0,1486819386,63
i,1723652838.577967,172.16.3.2,22693,172.16.1.2,5101,5149,8996,38,64256,65728,6,6,4,1460,223125,1,16778208,560000,41772,41772,65700,0,8688,0,1486819386,63
o,1723652838.578102,172.16.3.2,22693,172.16.1.2,5101,5149,9249,38,65728,65728,6,6,4,1460,231562,1,16778208,600000,41772,40324,65700,0,7240,0,1486819386,63
i,1723652838.677366,172.16.3.2,22693,172.16.1.2,5101,5149,9249,38,65728,65728,6,6,4,1460,231562,1,16778208,600000,41772,40324,65700,0,8688,0,1486819386,63
o,1723652838.677419,172.16.3.2,22693,172.16.1.2,5101,5149,9564,38,65728,65728,6,6,4,1460,235312,1,16778208,590000,41772,38876,65700,0,7240,0,1486819386,63
i,1723652838.728168,172.16.3.2,22693,172.16.1.2,5101,5149,9564,38,65728,65728,6,6,4,1460,235312,1,16778208,590000,41772,41772,65700,0,8688,0,1486819386,63
o,1723652838.728196,172.16.3.2,22693,172.16.1.2,5101,6687,7240,34,64256,65728,6,6,4,1460,244687,1,553649120,630000,41772,38876,65700,0,5792,0,1486819386,63
i,1723652838.805365,172.16.3.2,22693,172.16.1.2,5101,6687,7240,34,64256,65728,6,6,4,1460,244687,1,553649120,630000,41772,41772,65700,0,7240,0,1486819386,63
o,1723652838.805471,172.16.3.2,22693,172.16.1.2,5101,6687,5792,34,64256,65728,6,6,4,1460,251875,1,553649120,650000,41772,38876,65700,0,4344,0,1486819386,63
i,1723652838.886904,172.16.3.2,22693,172.16.1.2,5101,6687,5792,34,64256,65728,6,6,4,1460,251875,1,553649120,650000,41772,41772,65700,0,5792,0,1486819386,63
i,1723652838.937565,172.16.3.2,22693,172.16.1.2,5101,6687,4344,34,65728,65728,6,6,4,1460,259375,1,553649120,670000,41772,40324,65700,0,4344,0,1486819386,63
o,1723652838.937855,172.16.3.2,22693,172.16.1.2,5101,6687,4344,34,65728,65728,6,6,4,1460,259687,1,553649120,620000,41772,38876,65700,0,2896,0,1486819386,63
i,1723652838.948705,172.16.3.2,22693,172.16.1.2,5101,6687,4344,34,65728,65728,6,6,4,1460,259687,1,553649120,620000,41772,41772,65700,0,4344,0,1486819386,63
o,1723652838.948807,172.16.3.2,22693,172.16.1.2,5101,6687,4344,34,65728,65728,6,6,4,1460,255000,1,16778208,610000,41772,40324,65700,0,2896,0,1486819386,63
i,1723652839.048113,172.16.3.2,22693,172.16.1.2,5101,6687,4344,34,65728,65728,6,6,4,1460,255000,1,16778208,610000,41772,40324,65700,0,4344,0,1486819386,63
o,1723652839.048216,172.16.3.2,22693,172.16.1.2,5101,6687,5792,38,65728,65728,6,6,4,1460,251875,1,16778208,590000,41772,38876,65700,0,2896,0,1486819386,63
i,1723652839.108040,172.16.3.2,22693,172.16.1.2,5101,6687,5792,38,65728,65728,6,6,4,1460,251875,1,16778208,590000,41772,41772,65700,0,5792,0,1486819386,63
o,1723652839.108069,172.16.3.2,22693,172.16.1.2,5101,6687,8688,38,64256,65728,6,6,4,1460,240625,1,16778208,640000,41772,38876,65700,0,2896,0,1486819386,63
o,1723652839.108212,172.16.3.2,22693,172.16.1.2,5101,6687,8688,38,64256,65728,6,6,4,1460,240625,1,16778208,640000,41772,38876,65700,0,4344,0,1486819386,63
i,1723652839.218263,172.16.3.2,22693,172.16.1.2,5101,6687,8688,38,64256,65728,6,6,4,1460,240625,1,16778208,640000,41772,41772,65700,0,8688,0,1486819386,63
o,1723652839.218294,172.16.3.2,22693,172.16.1.2,5101,6687,8688,38,62848,65728,6,6,4,1460,231875,1,16778208,650000,41772,38876,65700,0,5792,0,1486819386,63
i,1723652839.355415,172.16.3.2,22693,172.16.1.2,5101,6687,8688,38,62848,65728,6,6,4,1460,231875,1,16778208,650000,41772,41772,65700,0,8688,0,1486819386,63
o,1723652839.355562,172.16.3.2,22693,172.16.1.2,5101,5149,7240,34,64256,65728,6,6,4,1460,234375,1,553649120,620000,41772,38876,65700,0,5792,0,1486819386,63
i,1723652839.413012,172.16.3.2,22693,172.16.1.2,5101,5149,7240,34,64256,65728,6,6,4,1460,234375,1,553649120,620000,41772,41772,65700,0,7240,0,1486819386,63
i,1723652839.478716,172.16.3.2,22693,172.16.1.2,5101,5149,5792,34,65728,65728,6,6,4,1460,244062,1,553649120,660000,41772,40324,65700,0,5792,0,1486819386,63
o,1723652839.478844,172.16.3.2,22693,172.16.1.2,5101,5149,4344,34,64256,65728,6,6,4,1460,260000,1,553649120,750000,41772,37428,65700,0,2896,0,1486819386,63
i,1723652839.562425,172.16.3.2,22693,172.16.1.2,5101,5149,4344,34,64256,65728,6,6,4,1460,260000,1,553649120,750000,41772,41772,65700,0,4344,0,1486819386,63
o,1723652839.562551,172.16.3.2,22693,172.16.1.2,5101,5149,4344,38,64256,65728,6,6,4,1460,270000,1,16778208,770000,41772,38876,65700,0,1448,0,1486819386,63
o,1723652839.562726,172.16.3.2,22693,172.16.1.2,5101,5149,4344,34,64256,65728,6,6,4,1460,270000,1,16778208,770000,41772,38876,65700,0,2896,0,1486819386,63
i,1723652839.698975,172.16.3.2,22693,172.16.1.2,5101,5149,4344,34,64256,65728,6,6,4,1460,270000,1,16778208,770000,41772,41772,65700,0,4344,0,1486819386,63
o,1723652839.699012,172.16.3.2,22693,172.16.1.2,5101,5149,5792,38,65728,65728,6,6,4,1460,263750,1,16778208,730000,41772,40324,65700,0,2896,0,1486819386,63
i,1723652839.728700,172.16.3.2,22693,172.16.1.2,5101,5149,5792,38,65728,65728,6,6,4,1460,263750,1,16778208,730000,41772,40324,65700,0,5792,0,1486819386,63
o,1723652839.728728,172.16.3.2,22693,172.16.1.2,5101,5149,5904,38,64256,65728,6,6,4,1460,250937,1,16778208,760000,41772,37428,65700,0,2896,0,1486819386,63
o,1723652839.728843,172.16.3.2,22693,172.16.1.2,5101,5149,5904,38,64256,65728,6,6,4,1460,250937,1,16778208,760000,41772,37428,65700,0,4344,0,1486819386,63
i,1723652839.899628,172.16.3.2,22693,172.16.1.2,5101,5149,5904,38,64256,65728,6,6,4,1460,250937,1,16778208,760000,41772,41772,65700,0,5792,0,1486819386,63
o,1723652839.899759,172.16.3.2,22693,172.16.1.2,5101,5149,5904,38,64256,65728,6,6,4,1460,243437,1,16778208,730000,41772,38876,65700,0,2896,0,1486819386,63
i,1723652839.955797,172.16.3.2,22693,172.16.1.2,5101,5149,5904,38,64256,65728,6,6,4,1460,243437,1,16778208,730000,41772,41772,65700,0,5792,0,1486819386,63
o,1723652839.955831,172.16.3.2,22693,172.16.1.2,5101,5149,5904,38,64256,65728,6,6,4,1460,240625,1,16778208,680000,41772,38876,65700,0,2896,0,1486819386,63
o,1723652839.955996,172.16.3.2,22693,172.16.1.2,5101,5149,5904,38,64256,65728,6,6,4,1460,240625,1,16778208,680000,41772,38876,65700,0,4344,0,1486819386,63
i,1723652840.048521,172.16.3.2,22693,172.16.1.2,5101,5149,5904,38,64256,65728,6,6,4,1460,240625,1,16778208,680000,41772,41772,65700,0,5792,0,1486819386,63
o,1723652840.048731,172.16.3.2,22693,172.16.1.2,5101,5149,6151,38,64256,65728,6,6,4,1460,229375,1,16778208,700000,41772,38876,65700,0,2896,0,1486819386,63
i,1723652840.136972,172.16.3.2,22693,172.16.1.2,5101,5149,6151,38,64256,65728,6,6,4,1460,229375,1,16778208,700000,41772,41772,65700,0,5792,0,1486819386,63
o,1723652840.137331,172.16.3.2,22693,172.16.1.2,5101,5149,6433,38,65728,65728,6,6,4,1460,223437,1,16778208,670000,41772,40324,65700,0,4344,0,1486819386,63
i,1723652840.194199,172.16.3.2,22693,172.16.1.2,5101,5149,6433,38,65728,65728,6,6,4,1460,223437,1,16778208,670000,41772,40324,65700,0,5792,0,1486819386,63
o,1723652840.194351,172.16.3.2,22693,172.16.1.2,5101,5149,6621,38,65728,65728,6,6,4,1460,225625,1,16778208,630000,41772,38876,65700,0,4344,0,1486819386,63
