enable_time_secs=1723653172	enable_time_usecs=390147	siftrver=1.3.0	sysname=FreeBSD	sysver=1401000	ipmode=4
o,1723653172.390464,10.0.2.15,22,10.0.2.2,50560,1073725440,17746,1026,65535,65700,0,0,4,1460,312,0,16777220,240000,33580,172,65700,0,0,0,2287476301,63
i,1723653172.391804,10.0.2.15,22,10.0.2.2,50560,1073725440,17746,1026,65535,65700,0,0,4,1460,312,0,16777220,240000,33580,172,65700,0,172,0,2287476301,63
o,1723653172.391878,10.0.2.15,22,10.0.2.2,50560,1073725440,17918,1026,65535,65700,0,0,4,1460,312,0,16777220,240000,33580,72,65700,0,0,0,2287476301,63
i,1723653172.392693,10.0.2.15,22,10.0.2.2,50560,1073725440,17918,1026,65535,65700,0,0,4,1460,312,0,16777220,240000,33580,72,65700,0,72,0,2287476301,63
i,1723653172.392714,10.0.2.15,22,10.0.2.2,50560,1073725440,17990,1026,65535,65700,0,0,4,1460,312,0,4,230000,33580,0,65700,0,0,0,2287476301,63
i,1723653172.392732,10.0.2.15,22,10.0.2.2,50560,1073725440,17990,1026,65535,65700,0,0,4,1460,312,0,4,230000,33580,0,65700,96,0,0,2287476301,63
o,1723653172.392767,10.0.2.15,22,10.0.2.2,50560,1073725440,17990,1026,65535,65604,0,0,5,1460,312,0,5,230000,33580,0,65700,96,0,0,2287476301,63
o,1723653172.393759,10.0.2.15,22,10.0.2.2,50560,1073725440,17990,1026,65535,65604,0,0,8,1460,312,0,4,230000,33580,0,65700,0,0,0,2287476301,63
i,1723653172.394504,10.0.2.15,22,10.0.2.2,50560,1073725440,17990,1026,65535,65604,0,0,8,1460,312,0,67108884,230000,33580,0,65700,0,1,0,2287476301,63
i,1723653174.648373,10.0.2.15,22,10.0.2.2,50570,1073725440,14600,0,65535,65700,0,0,4,1460,312,0,16777216,270000,33580,0,65700,0,0,0,210421082,63
o,1723653174.659259,10.0.2.15,22,10.0.2.2,50570,1073725440,14600,1026,65535,65700,0,0,4,1460,312,0,16777216,270000,33580,38,65700,42,0,0,210421082,63
i,1723653174.660022,10.0.2.15,22,10.0.2.2,50570,1073725440,14600,1026,65535,65700,0,0,4,1460,312,0,16777216,270000,33580,38,65700,0,38,0,210421082,63
i,1723653174.660077,10.0.2.15,22,10.0.2.2,50570,1073725440,14638,1026,65535,65700,0,0,4,1460,312,0,0,230000,33580,0,65700,0,0,0,210421082,63
i,1723653174.660096,10.0.2.15,22,10.0.2.2,50570,1073725440,14638,1026,65535,65700,0,0,4,1460,312,0,0,230000,33580,0,65700,1460,0,0,210421082,63
o,1723653174.660113,10.0.2.15,22,10.0.2.2,50570,1073725440,14638,1026,65535,65700,0,0,4,1460,312,0,1,230000,33580,0,65700,1536,0,0,210421082,63
o,1723653174.660878,10.0.2.15,22,10.0.2.2,50570,1073725440,14638,1026,65535,65700,0,0,4,1460,312,0,16777216,230000,33580,1120,65700,1536,0,0,210421082,63
i,1723653174.664218,10.0.2.15,22,10.0.2.2,50570,1073725440,14638,1026,65535,65700,0,0,4,1460,312,0,16777216,230000,33580,1120,65700,0,1120,0,210421082,63
i,1723653174.665457,10.0.2.15,22,10.0.2.2,50570,1073725440,15758,1026,65535,65700,0,0,4,1460,312,0,0,230000,33580,0,65700,0,0,0,210421082,63
o,1723653174.668408,10.0.2.15,22,10.0.2.2,50570,1073725440,15758,1026,65535,65700,0,0,4,1460,312,0,16777216,230000,33580,492,65700,0,0,0,210421082,63
i,1723653174.669304,10.0.2.15,22,10.0.2.2,50570,1073725440,15758,1026,65535,65700,0,0,4,1460,312,0,16777216,230000,33580,492,65700,0,492,0,210421082,63
i,1723653174.673413,10.0.2.15,22,10.0.2.2,50570,1073725440,16250,1026,65535,65700,0,0,4,1460,312,0,0,230000,33580,0,65700,0,0,0,210421082,63
i,1723653174.673437,10.0.2.15,22,10.0.2.2,50570,1073725440,16250,1026,65535,65700,0,0,4,1460,312,0,0,230000,33580,0,65700,16,0,0,210421082,63
o,1723653174.673458,10.0.2.15,22,10.0.2.2,50570,1073725440,16250,1026,65535,65700,0,0,4,1460,312,0,1,230000,33580,0,65700,60,0,0,210421082,63
o,1723653174.673692,10.0.2.15,22,10.0.2.2,50570,1073725440,16250,1026,65535,65700,0,0,4,1460,312,0,16777216,230000,33580,44,65700,0,0,0,210421082,63
i,1723653174.674572,10.0.2.15,22,10.0.2.2,50570,1073725440,16250,1026,65535,65700,0,0,4,1460,312,0,16777216,230000,33580,44,65700,0,44,0,210421082,63
i,1723653174.674621,10.0.2.15,22,10.0.2.2,50570,1073725440,16294,1026,65535,65700,0,0,4,1460,312,0,0,230000,33580,0,65700,0,0,0,210421082,63
o,1723653174.676207,10.0.2.15,22,10.0.2.2,50570,1073725440,16294,1026,65535,65700,0,0,4,1460,312,0,16777216,230000,33580,68,65700,0,0,0,210421082,63
i,1723653174.676665,10.0.2.15,22,10.0.2.2,50570,1073725440,16294,1026,65535,65700,0,0,4,1460,312,0,16777216,230000,33580,68,65700,0,68,0,210421082,63
i,1723653174.676683,10.0.2.15,22,10.0.2.2,50570,1073725440,16362,1026,65535,65700,0,0,4,1460,312,0,0,230000,33580,0,65700,0,0,0,210421082,63
o,1723653174.677885,10.0.2.15,22,10.0.2.2,50570,1073725440,16362,1026,65535,65700,0,0,4,1460,312,0,16777216,230000,33580,332,65700,0,0,0,210421082,63
i,1723653174.678502,10.0.2.15,22,10.0.2.2,50570,1073725440,16362,1026,65535,65700,0,0,4,1460,312,0,16777216,230000,33580,332,65700,0,332,0,210421082,63
i,1723653174.680033,10.0.2.15,22,10.0.2.2,50570,1073725440,16694,1026,65535,65700,0,0,4,1460,312,0,0,240000,33580,0,65700,0,0,0,210421082,63
o,1723653174.699211,10.0.2.15,22,10.0.2.2,50570,1073725440,16694,1026,65535,65700,0,0,4,1460,312,0,16777216,240000,33580,28,65700,0,0,0,210421082,63
i,1723653174.699868,10.0.2.15,22,10.0.2.2,50570,1073725440,16694,1026,65535,65700,0,0,4,1460,312,0,16777216,240000,33580,28,65700,0,28,0,210421082,63
i,1723653174.699886,10.0.2.15,22,10.0.2.2,50570,1073725440,16722,1026,65535,65700,0,0,4,1460,312,0,0,240000,33580,0,65700,0,0,0,210421082,63
o,1723653174.701280,10.0.2.15,22,10.0.2.2,50570,1073725440,16722,1026,65535,65700,0,0,4,1460,312,0,16777216,240000,33580,768,65700,112,0,0,210421082,63
i,1723653174.702126,10.0.2.15,22,10.0.2.2,50570,1073725440,16722,1026,65535,65700,0,0,4,1460,312,0,16777216,240000,33580,908,65700,112,768,0,210421082,63
o,1723653174.702144,10.0.2.15,22,10.0.2.2,50570,1073725440,17490,1026,65535,65700,0,0,4,1460,312,0,16777216,230000,33580,140,65700,112,0,0,210421082,63
i,1723653174.702566,10.0.2.15,22,10.0.2.2,50570,1073725440,17490,1026,65535,65700,0,0,4,1460,312,0,16777216,230000,33580,140,65700,112,140,0,210421082,63
o,1723653174.702779,10.0.2.15,22,10.0.2.2,50570,1073725440,17630,1026,65535,65700,0,0,4,1460,312,0,16777216,230000,33580,44,65700,0,0,0,210421082,63
i,1723653174.703275,10.0.2.15,22,10.0.2.2,50570,1073725440,17630,1026,65535,65700,0,0,4,1460,312,0,16777216,230000,33580,44,65700,0,44,0,210421082,63
i,1723653174.703292,10.0.2.15,22,10.0.2.2,50570,1073725440,17674,1026,65535,65700,0,0,4,1460,312,0,0,230000,33580,0,65700,0,0,0,210421082,63
o,1723653174.703893,10.0.2.15,22,10.0.2.2,50570,1073725440,17674,1026,65535,65700,0,0,4,1460,312,0,16777220,230000,33580,72,65700,0,0,0,210421082,63
i,1723653174.704683,10.0.2.15,22,10.0.2.2,50570,1073725440,17674,1026,65535,65700,0,0,4,1460,312,0,16777220,230000,33580,72,65700,0,72,0,210421082,63
o,1723653174.706711,10.0.2.15,22,10.0.2.2,50570,1073725440,17746,1026,65535,65700,0,0,4,1460,312,0,16777220,230000,33580,104,65700,0,0,0,210421082,63
i,1723653174.707212,10.0.2.15,22,10.0.2.2,50570,1073725440,17746,1026,65535,65700,0,0,4,1460,312,0,16777220,230000,33580,104,65700,0,104,0,210421082,63
o,1723653174.707305,10.0.2.15,22,10.0.2.2,50570,1073725440,17850,1026,65535,65700,0,0,4,1460,312,0,16777220,240000,33580,72,65700,0,0,0,210421082,63
i,1723653174.707954,10.0.2.15,22,10.0.2.2,50570,1073725440,17850,1026,65535,65700,0,0,4,1460,312,0,16777220,240000,33580,72,65700,0,72,0,210421082,63
i,1723653174.707970,10.0.2.15,22,10.0.2.2,50570,1073725440,17922,1026,65535,65700,0,0,4,1460,312,0,4,240000,33580,0,65700,0,0,0,210421082,63
i,1723653174.707985,10.0.2.15,22,10.0.2.2,50570,1073725440,17922,1026,65535,65700,0,0,4,1460,312,0,4,240000,33580,0,65700,96,0,0,210421082,63
o,1723653174.708001,10.0.2.15,22,10.0.2.2,50570,1073725440,17922,1026,65535,65604,0,0,5,1460,312,0,5,240000,33580,0,65700,96,0,0,210421082,63
o,1723653174.709386,10.0.2.15,22,10.0.2.2,50570,1073725440,17922,1026,65535,65604,0,0,8,1460,312,0,4,240000,33580,0,65700,0,0,0,210421082,63
i,1723653174.709717,10.0.2.15,22,10.0.2.2,50570,1073725440,17922,1026,65535,65604,0,0,8,1460,312,0,67108884,240000,33580,0,65700,0,1,0,210421082,63
i,1723653176.849767,10.0.2.15,22,10.0.2.2,50586,1073725440,14600,0,65535,65700,0,0,4,1460,312,0,16777216,270000,33580,0,65700,0,0,0,3868711207,63
o,1723653176.863225,10.0.2.15,22,10.0.2.2,50586,1073725440,14600,1026,65535,65700,0,0,4,1460,312,0,16777216,270000,33580,38,65700,42,0,0,3868711207,63
i,1723653176.864127,10.0.2.15,22,10.0.2.2,50586,1073725440,14600,1026,65535,65700,0,0,4,1460,312,0,16777216,270000,33580,38,65700,0,38,0,3868711207,63
i,1723653176.864178,10.0.2.15,22,10.0.2.2,50586,1073725440,14638,1026,65535,65700,0,0,4,1460,312,0,0,240000,33580,0,65700,0,0,0,3868711207,63
i,1723653176.864193,10.0.2.15,22,10.0.2.2,50586,1073725440,14638,1026,65535,65700,0,0,4,1460,312,0,0,240000,33580,0,65700,1460,0,0,3868711207,63
o,1723653176.864210,10.0.2.15,22,10.0.2.2,50586,1073725440,14638,1026,65535,65700,0,0,4,1460,312,0,1,240000,33580,0,65700,1536,0,0,3868711207,63
o,1723653176.865453,10.0.2.15,22,10.0.2.2,50586,1073725440,14638,1026,65535,65700,0,0,4,1460,312,0,16777216,240000,33580,1120,65700,1536,0,0,3868711207,63
i,1723653176.866236,10.0.2.15,22,10.0.2.2,50586,1073725440,14638,1026,65535,65700,0,0,4,1460,312,0,16777216,240000,33580,1120,65700,0,1120,0,3868711207,63
i,1723653176.867193,10.0.2.15,22,10.0.2.2,50586,1073725440,15758,1026,65535,65700,0,0,4,1460,312,0,0,240000,33580,0,65700,0,0,0,3868711207,63
o,1723653176.871053,10.0.2.15,22,10.0.2.2,50586,1073725440,15758,1026,65535,65700,0,0,4,1460,312,0,16777216,240000,33580,492,65700,0,0,0,3868711207,63
i,1723653176.871491,10.0.2.15,22,10.0.2.2,50586,1073725440,15758,1026,65535,65700,0,0,4,1460,312,0,16777216,240000,33580,492,65700,0,492,0,3868711207,63
i,1723653176.875734,10.0.2.15,22,10.0.2.2,50586,1073725440,16250,1026,65535,65700,0,0,4,1460,312,0,0,240000,33580,0,65700,0,0,0,3868711207,63
i,1723653176.875752,10.0.2.15,22,10.0.2.2,50586,1073725440,16250,1026,65535,65700,0,0,4,1460,312,0,0,240000,33580,0,65700,16,0,0,3868711207,63
o,1723653176.875786,10.0.2.15,22,10.0.2.2,50586,1073725440,16250,1026,65535,65700,0,0,4,1460,312,0,1,240000,33580,0,65700,60,0,0,3868711207,63
o,1723653176.876035,10.0.2.15,22,10.0.2.2,50586,1073725440,16250,1026,65535,65700,0,0,4,1460,312,0,16777216,240000,33580,44,65700,0,0,0,3868711207,63
i,1723653176.876467,10.0.2.15,22,10.0.2.2,50586,1073725440,16250,1026,65535,65700,0,0,4,1460,312,0,16777216,240000,33580,44,65700,0,44,0,3868711207,63
i,1723653176.876484,10.0.2.15,22,10.0.2.2,50586,1073725440,16294,1026,65535,65700,0,0,4,1460,312,0,0,240000,33580,0,65700,0,0,0,3868711207,63
o,1723653176.877654,10.0.2.15,22,10.0.2.2,50586,1073725440,16294,1026,65535,65700,0,0,4,1460,312,0,16777216,240000,33580,68,65700,0,0,0,3868711207,63
i,1723653176.878119,10.0.2.15,22,10.0.2.2,50586,1073725440,16294,1026,65535,65700,0,0,4,1460,312,0,16777216,240000,33580,68,65700,0,68,0,3868711207,63
i,1723653176.878142,10.0.2.15,22,10.0.2.2,50586,1073725440,16362,1026,65535,65700,0,0,4,1460,312,0,0,240000,33580,0,65700,0,0,0,3868711207,63
o,1723653176.879352,10.0.2.15,22,10.0.2.2,50586,1073725440,16362,1026,65535,65700,0,0,4,1460,312,0,16777216,240000,33580,332,65700,0,0,0,3868711207,63
i,1723653176.880372,10.0.2.15,22,10.0.2.2,50586,1073725440,16362,1026,65535,65700,0,0,4,1460,312,0,16777216,240000,33580,332,65700,0,332,0,3868711207,63
i,1723653176.881415,10.0.2.15,22,10.0.2.2,50586,1073725440,16694,1026,65535,65700,0,0,4,1460,312,0,0,240000,33580,0,65700,0,0,0,3868711207,63
o,1723653176.900096,10.0.2.15,22,10.0.2.2,50586,1073725440,16694,1026,65535,65700,0,0,4,1460,312,0,16777216,240000,33580,28,65700,0,0,0,3868711207,63
i,1723653176.900492,10.0.2.15,22,10.0.2.2,50586,1073725440,16694,1026,65535,65700,0,0,4,1460,312,0,16777216,240000,33580,28,65700,0,28,0,3868711207,63
i,1723653176.900921,10.0.2.15,22,10.0.2.2,50586,1073725440,16722,1026,65535,65700,0,0,4,1460,312,0,0,240000,33580,0,65700,0,0,0,3868711207,63
o,1723653176.902000,10.0.2.15,22,10.0.2.2,50586,1073725440,16722,1026,65535,65700,0,0,4,1460,312,0,16777216,240000,33580,768,65700,112,0,0,3868711207,63
i,1723653176.902620,10.0.2.15,22,10.0.2.2,50586,1073725440,16722,1026,65535,65700,0,0,4,1460,312,0,16777216,240000,33580,908,65700,0,768,0,3868711207,63
o,1723653176.902637,10.0.2.15,22,10.0.2.2,50586,1073725440,17490,1026,65535,65700,0,0,4,1460,312,0,16777216,240000,33580,140,65700,0,0,0,3868711207,63
i,1723653176.903040,10.0.2.15,22,10.0.2.2,50586,1073725440,17490,1026,65535,65700,0,0,4,1460,312,0,16777216,240000,33580,140,65700,0,140,0,3868711207,63
o,1723653176.903165,10.0.2.15,22,10.0.2.2,50586,1073725440,17630,1026,65535,65700,0,0,4,1460,312,0,16777216,240000,33580,44,65700,0,0,0,3868711207,63
i,1723653176.903756,10.0.2.15,22,10.0.2.2,50586,1073725440,17630,1026,65535,65700,0,0,4,1460,312,0,16777216,240000,33580,44,65700,0,44,0,3868711207,63
i,1723653176.903774,10.0.2.15,22,10.0.2.2,50586,1073725440,17674,1026,65535,65700,0,0,4,1460,312,0,0,240000,33580,0,65700,0,0,0,3868711207,63
o,1723653176.904444,10.0.2.15,22,10.0.2.2,50586,1073725440,17674,1026,65535,65700,0,0,4,1460,312,0,16777220,240000,33580,72,65700,0,0,0,3868711207,63
i,1723653176.904815,10.0.2.15,22,10.0.2.2,50586,1073725440,17674,1026,65535,65700,0,0,4,1460,312,0,16777220,240000,33580,72,65700,0,72,0,3868711207,63
i,1723653176.905133,10.0.2.15,22,10.0.2.2,50586,1073725440,17746,1026,65535,65700,0,0,4,1460,312,0,4,240000,33580,0,65700,0,0,0,3868711207,63
o,1723653176.943945,10.0.2.15,22,10.0.2.2,50586,1073725440,17746,1026,65535,65700,0,0,4,1460,312,0,5,240000,33580,0,65700,0,0,0,3868711207,63
o,1723653177.036922,172.16.3.2,11871,172.16.1.2,5101,15167,14480,34,65535,65700,6,6,4,1460,163437,1,16778209,570000,33580,0,65700,0,0,0,370660258,63
o,1723653177.037338,172.16.3.2,11871,172.16.1.2,5101,15167,14480,34,65535,65700,6,6,4,1460,163437,1,16778212,570000,33580,37,65700,0,0,0,370660258,63
i,1723653177.149618,172.16.3.2,11871,172.16.1.2,5101,15167,14480,34,65535,65700,6,6,4,1460,163437,1,16778212,570000,33580,37,65700,0,37,0,370660258,63
o,1723653177.149882,172.16.3.2,11871,172.16.1.2,5101,15167,14517,1058,65728,65728,6,6,4,1460,156875,1,16778212,570000,33580,4,65700,0,0,0,370660258,63
o,1723653177.150293,172.16.3.2,11871,172.16.1.2,5101,15167,14517,1058,65728,65728,6,6,4,1460,156875,1,16778212,570000,33580,130,65700,0,4,0,370660258,63
i,1723653177.268813,172.16.3.2,11871,172.16.1.2,5101,15167,14517,1058,65728,65728,6,6,4,1460,156875,1,16778212,570000,33580,130,65700,0,130,0,370660258,63
i,1723653177.269017,172.16.3.2,11871,172.16.1.2,5101,15167,14647,1058,65600,65728,6,6,4,1460,152500,1,996,550000,33580,0,65700,0,0,0,370660258,63
o,1723653177.303659,172.16.3.2,11871,172.16.1.2,5101,15167,14647,1058,65728,65728,6,6,4,1460,152500,1,997,550000,33580,0,65700,0,0,0,370660258,63
o,1723653177.399863,172.16.3.2,60299,172.16.1.2,5101,15167,14480,34,65535,65700,6,6,4,1460,163437,1,16778209,570000,33580,0,65700,0,0,0,1042907201,63
o,1723653177.400078,172.16.3.2,60299,172.16.1.2,5101,15167,14480,34,65535,65700,6,6,4,1460,163437,1,16778208,570000,33580,37,65700,0,0,0,1042907201,63
i,1723653177.513233,172.16.3.2,11871,172.16.1.2,5101,15167,14647,1058,65728,65728,6,6,4,1460,152500,1,996,550000,33580,0,65700,0,0,0,370660258,63
i,1723653177.513321,172.16.3.2,11871,172.16.1.2,5101,15167,14647,1058,65728,65728,6,6,4,1460,152500,1,996,550000,33580,0,65700,1,0,0,370660258,63
o,1723653177.513344,172.16.3.2,11871,172.16.1.2,5101,15167,14647,1058,65728,65728,6,6,4,1460,152500,1,997,550000,33580,0,65700,2,0,0,370660258,63
o,1723653177.513769,172.16.3.2,60299,172.16.1.2,5101,15167,14480,38,65535,65700,6,6,4,1460,163437,1,16778208,570000,33580,33580,65700,0,37,0,1042907201,63
i,1723653177.539871,172.16.3.2,60299,172.16.1.2,5101,15167,14480,38,65535,65700,6,6,4,1460,163437,1,16778208,570000,33580,33580,65700,0,13069,0,1042907201,63
o,1723653177.539926,172.16.3.2,60299,172.16.1.2,5101,15167,14517,38,65728,65728,6,6,4,1460,159375,1,16778208,550000,33580,33543,65700,0,13032,0,1042907201,63
i,1723653177.884440,172.16.3.2,60299,172.16.1.2,5101,15167,14517,38,65728,65728,6,6,4,1460,159375,1,16778208,550000,33580,33543,65700,0,14480,0,1042907201,63
o,1723653177.884626,172.16.3.2,60299,172.16.1.2,5101,15167,17413,38,64256,65728,6,6,4,1460,185937,1,16778208,740000,33580,30647,65700,0,11584,0,1042907201,63
i,1723653177.936235,172.16.3.2,60299,172.16.1.2,5101,15167,17413,38,64256,65728,6,6,4,1460,185937,1,16778208,740000,41772,41772,65700,0,17376,0,1042907201,63
o,1723653177.936373,172.16.3.2,60299,172.16.1.2,5101,15167,20309,38,64256,65728,6,6,4,1460,215312,1,16778208,920000,41772,38876,65700,0,14480,0,1042907201,63
i,1723653177.987641,172.16.3.2,60299,172.16.1.2,5101,15167,20309,38,64256,65728,6,6,4,1460,215312,1,16778208,920000,49964,49964,65700,0,20272,0,1042907201,63
o,1723653177.987811,172.16.3.2,60299,172.16.1.2,5101,15167,23205,38,64256,65728,6,6,4,1460,247187,1,16778208,1080000,49964,47068,65700,0,17376,0,1042907201,63
i,1723653178.041203,172.16.3.2,60299,172.16.1.2,5101,15167,23205,38,64256,65728,6,6,4,1460,247187,1,16778208,1080000,49964,49964,65700,0,23168,0,1042907201,63
o,1723653178.041295,172.16.3.2,60299,172.16.1.2,5101,15167,26101,38,64256,65728,6,6,4,1460,281562,1,16778208,1230000,49964,47068,65700,0,20272,0,1042907201,63
i,1723653178.091532,172.16.3.2,60299,172.16.1.2,5101,15167,26101,38,64256,65728,6,6,4,1460,281562,1,16778208,1230000,58156,58156,65700,0,26064,0,1042907201,63
o,1723653178.091614,172.16.3.2,60299,172.16.1.2,5101,15167,28997,38,64256,65728,6,6,4,1460,317812,1,16778208,1370000,58156,55260,65700,0,23168,0,1042907201,63
o,1723653178.091768,172.16.3.2,60299,172.16.1.2,5101,15167,28997,38,64256,65728,6,6,4,1460,317812,1,16778208,1370000,58156,55260,65700,0,24616,0,1042907201,63
i,1723653178.546774,172.16.3.2,60299,172.16.1.2,5101,15167,28997,38,64256,65728,6,6,4,1460,317812,1,16778208,1370000,66348,66348,65700,0,28960,0,1042907201,63
o,1723653178.546860,172.16.3.2,60299,172.16.1.2,5101,15167,28997,38,65728,65728,6,6,4,1460,360625,1,16778208,1540000,66348,64900,65700,0,27512,0,1042907201,63
i,1723653178.619504,172.16.3.2,60299,172.16.1.2,5101,15167,28997,38,65728,65728,6,6,4,1460,360625,1,16778208,1540000,66348,64900,65700,0,28960,0,1042907201,63
o,1723653178.619538,172.16.3.2,60299,172.16.1.2,5101,15167,30408,34,65728,65728,6,6,4,1460,360625,1,16778208,1540000,66348,64900,65700,0,28960,0,1042907201,63
i,1723653178.650388,172.16.3.2,60299,172.16.1.2,5101,15167,28997,34,65728,65728,6,6,4,1460,360625,1,16778208,1540000,66348,64900,65700,0,30408,0,1042907201,63
o,1723653178.650416,172.16.3.2,60299,172.16.1.2,5101,15167,31856,34,65728,65728,6,6,4,1460,360625,1,16778208,1540000,66348,64900,65700,0,30408,0,1042907201,63
i,1723653178.681255,172.16.3.2,60299,172.16.1.2,5101,15167,28997,34,65728,65728,6,6,4,1460,360625,1,16778208,1540000,66348,64900,65700,0,31856,0,1042907201,63
o,1723653178.681307,172.16.3.2,60299,172.16.1.2,5101,14498,1448,98,65728,65728,6,6,4,1460,360625,1,554697696,1540000,66348,64900,65700,0,31856,0,1042907201,63
i,1723653178.705702,172.16.3.2,60299,172.16.1.2,5101,14498,1448,98,65728,65728,6,6,4,1460,360625,1,554697696,1540000,66348,64900,65700,0,31856,0,1042907201,63
i,1723653178.738768,172.16.3.2,60299,172.16.1.2,5101,14498,1448,98,65728,65728,6,6,4,1460,360625,1,554697696,1540000,66348,64900,65700,0,31856,0,1042907201,63
o,1723653178.738768,172.16.3.2,60299,172.16.1.2,5101,14498,2896,34,65728,65728,6,6,4,1460,360625,1,554697696,1540000,66348,64900,65700,0,31856,0,1042907201,63
i,1723653178.738768,172.16.3.2,60299,172.16.1.2,5101,14498,2896,34,65728,65728,6,6,4,1460,360625,1,554697696,1540000,66348,64900,65700,0,33304,0,1042907201,63
o,1723653178.738768,172.16.3.2,60299,172.16.1.2,5101,14498,2896,34,65728,65728,6,6,4,1460,360625,1,554697696,1540000,66348,64900,65700,0,33304,0,1042907201,63
i,1723653178.803807,172.16.3.2,60299,172.16.1.2,5101,14498,2896,34,65728,65728,6,6,4,1460,360625,1,554697696,1540000,66348,64900,65700,0,33304,0,1042907201,63
o,1723653178.803885,172.16.3.2,60299,172.16.1.2,5101,14498,4344,34,65728,65728,6,6,4,1460,360625,1,554697696,1540000,66348,64900,65700,0,33304,0,1042907201,63
i,1723653178.826199,172.16.3.2,60299,172.16.1.2,5101,14498,4344,34,65728,65728,6,6,4,1460,360625,1,554697696,1540000,66348,64900,65700,0,33304,0,1042907201,63
o,1723653178.826240,172.16.3.2,60299,172.16.1.2,5101,14498,5792,34,65728,65728,6,6,4,1460,360625,1,554697696,1540000,66348,64900,65700,0,33304,0,1042907201,63
i,1723653178.826445,172.16.3.2,60299,172.16.1.2,5101,14498,5792,34,65728,65728,6,6,4,1460,360625,1,554697696,1540000,66348,64900,65700,0,33304,0,1042907201,63
i,1723653178.868467,172.16.3.2,60299,172.16.1.2,5101,14498,7240,34,65728,65728,6,6,4,1460,360625,1,554697696,1540000,66348,64900,65700,0,33304,0,1042907201,63
o,1723653178.868502,172.16.3.2,60299,172.16.1.2,5101,14498,7240,34,65728,65728,6,6,4,1460,360625,1,554697696,1540000,66348,64900,65700,0,33304,0,1042907201,63
i,1723653178.909233,172.16.3.2,60299,172.16.1.2,5101,14498,7240,34,65728,65728,6,6,4,1460,360625,1,554697696,1540000,66348,64900,65700,0,33304,0,1042907201,63
o,1723653178.909264,172.16.3.2,60299,172.16.1.2,5101,14498,8688,34,65728,65728,6,6,4,1460,360625,1,554697696,1540000,66348,64900,65700,0,33304,0,1042907201,63
i,1723653178.910199,172.16.3.2,60299,172.16.1.2,5101,14498,8688,34,65728,65728,6,6,4,1460,360625,1,554697696,1540000,66348,64900,65700,0,33304,0,1042907201,63
o,1723653178.910232,172.16.3.2,60299,172.16.1.2,5101,14498,10136,34,65728,65728,6,6,4,1460,360625,1,554697696,1540000,66348,64900,65700,0,33304,0,1042907201,63
i,1723653178.992620,172.16.3.2,60299,172.16.1.2,5101,14498,10136,34,65728,65728,6,6,4,1460,360625,1,554697696,1540000,66348,64900,65700,0,33304,0,1042907201,63
i,1723653179.018609,172.16.3.2,60299,172.16.1.2,5101,14498,10136,34,65728,65728,6,6,4,1460,360625,1,554697696,1540000,66348,64900,65700,0,33304,0,1042907201,63
i,1723653179.068672,172.16.3.2,60299,172.16.1.2,5101,14498,8688,34,65728,65728,6,6,4,1460,360625,1,554697696,1540000,66348,64900,65700,0,33304,0,1042907201,63
i,1723653179.094443,172.16.3.2,60299,172.16.1.2,5101,14498,7240,34,65728,65728,6,6,4,1460,360625,1,554697696,1540000,66348,64900,65700,0,33304,0,1042907201,63
i,1723653179.125534,172.16.3.2,60299,172.16.1.2,5101,14498,5792,34,65728,65728,6,6,4,1460,360625,1,554697696,1540000,66348,64900,65700,0,33304,0,1042907201,63
o,1723653179.125567,172.16.3.2,60299,172.16.1.2,5101,14498,7240,38,65728,65728,6,6,4,1460,360625,1,554697696,1540000,66348,64900,65700,0,33304,0,1042907201,63
i,1723653179.249331,172.16.3.2,60299,172.16.1.2,5101,14498,7240,38,65728,65728,6,6,4,1460,360625,1,554697696,1540000,66348,64900,65700,0,36200,0,1042907201,63
o,1723653179.249394,172.16.3.2,60299,172.16.1.2,5101,14498,8688,38,65728,65728,6,6,4,1460,360625,1,554697696,1540000,66348,64900,65700,0,36200,0,1042907201,63
o,1723653179.249563,172.16.3.2,60299,172.16.1.2,5101,14498,8688,38,65728,65728,6,6,4,1460,360625,1,554697696,1540000,66348,64900,65700,0,36200,0,1042907201,63
o,1723653179.249743,172.16.3.2,60299,172.16.1.2,5101,14498,8688,34,65728,65728,6,6,4,1460,360625,1,554697696,1540000,66348,64900,65700,0,36200,0,1042907201,63
i,1723653179.249921,172.16.3.2,60299,172.16.1.2,5101,14498,8688,34,65728,65728,6,6,4,1460,360625,1,554697696,1540000,66348,64900,65700,0,36200,0,1042907201,63
i,1723653179.380037,172.16.3.2,60299,172.16.1.2,5101,14498,11584,34,65728,65728,6,6,4,1460,360625,1,554697696,1540000,66348,64900,65700,0,36200,0,1042907201,63
o,1723653179.380076,172.16.3.2,60299,172.16.1.2,5101,14498,11584,34,65728,65728,6,6,4,1460,360625,1,554697696,1540000,66348,64900,65700,0,36200,0,1042907201,63
i,1723653179.380217,172.16.3.2,60299,172.16.1.2,5101,14498,11584,34,65728,65728,6,6,4,1460,360625,1,554697696,1540000,66348,64900,65700,0,37648,0,1042907201,63
o,1723653179.380235,172.16.3.2,60299,172.16.1.2,5101,14498,13032,38,65728,65728,6,6,4,1460,360625,1,554697696,1540000,66348,64900,65700,0,37648,0,1042907201,63
i,1723653179.409340,172.16.3.2,60299,172.16.1.2,5101,14498,13032,38,65728,65728,6,6,4,1460,360625,1,554697696,1540000,66348,64900,65700,0,40544,0,1042907201,63
o,1723653179.409375,172.16.3.2,60299,172.16.1.2,5101,14498,14480,38,65728,65728,6,6,4,1460,360625,1,554697696,1540000,66348,64900,65700,0,40544,0,1042907201,63
i,1723653179.528454,172.16.3.2,60299,172.16.1.2,5101,14498,14480,38,65728,65728,6,6,4,1460,360625,1,554697696,1540000,66348,64900,65700,0,43440,0,1042907201,63
o,1723653179.528487,172.16.3.2,60299,172.16.1.2,5101,14498,15928,34,65728,65728,6,6,4,1460,360625,1,554697696,1540000,66348,64900,65700,0,43440,0,1042907201,63
i,1723653179.558432,172.16.3.2,60299,172.16.1.2,5101,14498,15928,34,65728,65728,6,6,4,1460,360625,1,554697696,1540000,66348,64900,65700,0,44888,0,1042907201,63
o,1723653179.558484,172.16.3.2,60299,172.16.1.2,5101,14498,17376,34,65728,65728,6,6,4,1460,360625,1,554697696,1540000,66348,64900,65700,0,44888,0,1042907201,63
i,1723653179.558698,172.16.3.2,60299,172.16.1.2,5101,14498,17376,34,65728,65728,6,6,4,1460,360625,1,554697696,1540000,66348,64900,65700,0,46336,0,1042907201,63
o,1723653179.558744,172.16.3.2,60299,172.16.1.2,5101,14498,18824,34,65728,65728,6,6,4,1460,360625,1,554697696,1540000,74540,64900,65700,0,46336,0,1042907201,63
i,1723653179.558977,172.16.3.2,60299,172.16.1.2,5101,14498,18824,34,65728,65728,6,6,4,1460,360625,1,554697696,1540000,74540,64900,65700,0,47784,0,1042907201,63
o,1723653179.559008,172.16.3.2,60299,172.16.1.2,5101,14498,20272,34,65728,65728,6,6,4,1460,360625,1,554697696,1540000,74540,64900,65700,0,47784,0,1042907201,63
i,1723653179.589931,172.16.3.2,60299,172.16.1.2,5101,14498,20272,34,65728,65728,6,6,4,1460,360625,1,554697696,1540000,74540,64900,65700,0,49232,0,1042907201,63
o,1723653179.589974,172.16.3.2,60299,172.16.1.2,5101,14498,21720,34,65728,65728,6,6,4,1460,360625,1,554697696,1540000,74540,64900,65700,0,49232,0,1042907201,63
i,1723653179.688188,172.16.3.2,60299,172.16.1.2,5101,14498,21720,34,65728,65728,6,6,4,1460,360625,1,554697696,1540000,74540,64900,65700,0,50680,0,1042907201,63
o,1723653179.688222,172.16.3.2,60299,172.16.1.2,5101,14498,23168,34,65728,65728,6,6,4,1460,360625,1,554697696,1540000,74540,64900,65700,0,50680,0,1042907201,63
i,1723653179.734182,172.16.3.2,60299,172.16.1.2,5101,14498,23168,34,65728,65728,6,6,4,1460,360625,1,554697696,1540000,74540,64900,65700,0,52128,0,1042907201,63
o,1723653179.734243,172.16.3.2,60299,172.16.1.2,5101,14498,24616,34,65728,65728,6,6,4,1460,360625,1,554697696,1540000,74540,64900,65700,0,52128,0,1042907201,63
i,1723653179.734475,172.16.3.2,60299,172.16.1.2,5101,14498,24616,34,65728,65728,6,6,4,1460,360625,1,554697696,1540000,74540,64900,65700,0,53576,0,1042907201,63
o,1723653179.734517,172.16.3.2,60299,172.16.1.2,5101,14498,26064,34,65728,65728,6,6,4,1460,360625,1,554697696,1540000,74540,64900,65700,0,53576,0,1042907201,63
i,1723653179.734717,172.16.3.2,60299,172.16.1.2,5101,14498,26064,34,65728,65728,6,6,4,1460,360625,1,554697696,1540000,74540,64900,65700,0,55024,0,1042907201,63
o,1723653179.734752,172.16.3.2,60299,172.16.1.2,5101,14498,27512,34,65728,65728,6,6,4,1460,360625,1,554697696,1540000,74540,64900,65700,0,55024,0,1042907201,63
i,1723653179.755215,172.16.3.2,60299,172.16.1.2,5101,14498,27512,34,65728,65728,6,6,4,1460,360625,1,554697696,1540000,74540,64900,65700,0,56472,0,1042907201,63
o,1723653179.755238,172.16.3.2,60299,172.16.1.2,5101,14498,28960,34,65728,65728,6,6,4,1460,360625,1,554697696,1540000,74540,64900,65700,0,56472,0,1042907201,63
i,1723653179.827960,172.16.3.2,60299,172.16.1.2,5101,14498,28960,34,65728,65728,6,6,4,1460,360625,1,554697696,1540000,74540,64900,65700,0,57920,0,1042907201,63
o,1723653179.827992,172.16.3.2,60299,172.16.1.2,5101,14498,30408,34,65728,65728,6,6,4,1460,360625,1,554697696,1540000,74540,64900,65700,0,57920,0,1042907201,63
i,1723653179.896730,172.16.3.2,60299,172.16.1.2,5101,14498,30408,34,65728,65728,6,6,4,1460,360625,1,554697696,1540000,74540,64900,65700,0,59368,0,1042907201,63
o,1723653179.896764,172.16.3.2,60299,172.16.1.2,5101,14498,31856,34,65728,65728,6,6,4,1460,360625,1,554697696,1540000,74540,64900,65700,0,59368,0,1042907201,63
i,1723653179.896897,172.16.3.2,60299,172.16.1.2,5101,14498,31856,34,65728,65728,6,6,4,1460,360625,1,554697696,1540000,74540,64900,65700,0,60816,0,1042907201,63
o,1723653179.896914,172.16.3.2,60299,172.16.1.2,5101,14498,33304,34,65728,65728,6,6,4,1460,360625,1,554697696,1540000,74540,64900,65700,0,60816,0,1042907201,63
i,1723653179.898248,172.16.3.2,60299,172.16.1.2,5101,14498,33304,34,65728,65728,6,6,4,1460,360625,1,554697696,1540000,74540,64900,65700,0,62264,0,1042907201,63
o,1723653179.898267,172.16.3.2,60299,172.16.1.2,5101,14498,34752,34,65728,65728,6,6,4,1460,360625,1,554697696,1540000,74540,64900,65700,0,62264,0,1042907201,63
i,1723653179.898409,172.16.3.2,60299,172.16.1.2,5101,14498,34752,34,65728,65728,6,6,4,1460,360625,1,554697696,1540000,74540,64900,65700,0,63712,0,1042907201,63
i,1723653179.993236,172.16.3.2,60299,172.16.1.2,5101,14498,36200,34,65728,65728,6,6,4,1460,360625,1,554697696,1540000,74540,64900,65700,0,63712,0,1042907201,63
i,1723653180.018109,172.16.3.2,60299,172.16.1.2,5101,14498,37648,34,65728,65728,6,6,4,1460,360625,1,537920480,1540000,74540,64900,65700,0,63712,0,1042907201,63
i,1723653180.054224,172.16.3.2,60299,172.16.1.2,5101,14498,39096,34,65728,65728,6,6,4,1460,360625,1,537920480,1540000,74540,64900,65700,0,63712,0,1042907201,63
i,1723653180.054300,172.16.3.2,60299,172.16.1.2,5101,14498,40544,34,65728,65728,6,6,4,1460,360625,1,537920480,1540000,74540,64900,65700,0,63712,0,1042907201,63
o,1723653180.223870,172.16.3.2,60299,172.16.1.2,5101,29361,1448,98,65728,65728,6,6,4,1460,360625,1,1092625377,2880000,74540,64900,65700,0,63712,0,1042907201,63
i,1723653180.358294,172.16.3.2,60299,172.16.1.2,5101,29361,1448,98,65728,65728,6,6,4,1460,360625,1,1092625376,2880000,74540,64900,65700,0,63712,0,1042907201,63
o,1723653180.358406,172.16.3.2,60299,172.16.1.2,5101,2896,2920,102,57088,65728,6,6,4,1460,331875,1,1092625376,1500000,74540,56212,65700,0,55024,0,1042907201,63
o,1723653180.358581,172.16.3.2,60299,172.16.1.2,5101,2896,2920,102,57088,65728,6,6,4,1460,331875,1,1092625376,1500000,74540,56212,65700,0,55024,0,1042907201,63
i,1723653180.498000,172.16.3.2,60299,172.16.1.2,5101,2896,2920,102,57088,65728,6,6,4,1460,331875,1,1092625376,1500000,74540,74540,65700,0,55024,0,1042907201,63
o,1723653180.498040,172.16.3.2,60299,172.16.1.2,5101,2896,2920,102,42560,65728,6,6,4,1460,308125,1,1092625376,1420000,74540,51372,65700,0,31856,0,1042907201,63
i,1723653180.498182,172.16.3.2,60299,172.16.1.2,5101,2896,2920,102,42560,65728,6,6,4,1460,308125,1,1092625376,1420000,74540,51372,65700,0,31856,0,1042907201,63
i,1723653180.498210,172.16.3.2,60299,172.16.1.2,5101,2896,2920,102,65728,65728,6,6,4,1460,308125,1,1075848160,1420000,74540,51372,65700,0,31856,0,1042907201,63
i,1723653180.637426,172.16.3.2,60299,172.16.1.2,5101,2896,2920,102,65728,65728,6,6,4,1460,308125,1,1075848160,1420000,74540,74540,65700,0,31856,0,1042907201,63
o,1723653180.637466,172.16.3.2,60299,172.16.1.2,5101,2896,2920,38,33920,65728,6,6,4,1460,287187,1,1092625376,1340000,74540,42684,65700,0,0,0,1042907201,63
o,1723653180.637589,172.16.3.2,60299,172.16.1.2,5101,2896,2920,38,33920,65728,6,6,4,1460,287187,1,1092625376,1340000,74540,42684,65700,0,1448,0,1042907201,63
i,1723653180.637733,172.16.3.2,60299,172.16.1.2,5101,2896,2920,38,33920,65728,6,6,4,1460,287187,1,1092625376,1340000,74540,42684,65700,0,2896,0,1042907201,63
o,1723653180.637748,172.16.3.2,60299,172.16.1.2,5101,2896,4344,34,33920,65728,6,6,4,1460,287187,1,1092625376,1340000,74540,42684,65700,0,2896,0,1042907201,63
i,1723653180.817977,172.16.3.2,60299,172.16.1.2,5101,2896,2920,34,33920,65728,6,6,4,1460,287187,1,1092625376,1340000,74540,74540,65700,0,4344,0,1042907201,63
i,1723653180.851398,172.16.3.2,60299,172.16.1.2,5101,2896,2920,34,65728,65728,6,6,4,1460,274062,1,1075848160,1220000,74540,73092,65700,0,2896,0,1042907201,63
o,1723653180.851428,172.16.3.2,60299,172.16.1.2,5101,2896,2920,38,64256,65728,6,6,4,1460,266250,1,1092625376,1090000,74540,70196,65700,0,0,0,1042907201,63
o,1723653180.851629,172.16.3.2,60299,172.16.1.2,5101,2896,2920,38,64256,65728,6,6,4,1460,266250,1,1092625376,1090000,74540,70196,65700,0,1448,0,1042907201,63
i,1723653181.003234,172.16.3.2,60299,172.16.1.2,5101,2896,2920,38,64256,65728,6,6,4,1460,266250,1,1092625376,1090000,74540,74540,65700,0,2896,0,1042907201,63
o,1723653181.003310,172.16.3.2,60299,172.16.1.2,5101,2896,3277,38,64256,65728,6,6,4,1460,251875,1,1092625376,1030000,74540,71644,65700,0,0,0,1042907201,63
o,1723653181.003422,172.16.3.2,60299,172.16.1.2,5101,2896,3277,38,64256,65728,6,6,4,1460,251875,1,1092625376,1030000,74540,71644,65700,0,1448,0,1042907201,63
i,1723653181.158272,172.16.3.2,60299,172.16.1.2,5101,2896,3277,38,64256,65728,6,6,4,1460,251875,1,1092625376,1030000,74540,74540,65700,0,2896,0,1042907201,63
o,1723653181.158306,172.16.3.2,60299,172.16.1.2,5101,2896,3640,38,64256,65728,6,6,4,1460,239375,1,1092625376,970000,74540,71644,65700,0,0,0,1042907201,63
o,1723653181.158441,172.16.3.2,60299,172.16.1.2,5101,2896,3640,38,64256,65728,6,6,4,1460,239375,1,1092625376,970000,74540,71644,65700,0,1448,0,1042907201,63
i,1723653181.337461,172.16.3.2,60299,172.16.1.2,5101,2896,3640,38,64256,65728,6,6,4,1460,239375,1,1092625376,970000,74540,74540,65700,0,2896,0,1042907201,63
o,1723653181.337566,172.16.3.2,60299,172.16.1.2,5101,2896,4076,38,64256,65728,6,6,4,1460,232187,1,1092625376,890000,74540,71644,65700,0,0,0,1042907201,63
o,1723653181.337712,172.16.3.2,60299,172.16.1.2,5101,2896,4076,38,64256,65728,6,6,4,1460,232187,1,1092625376,890000,74540,71644,65700,0,1448,0,1042907201,63
i,1723653181.501110,172.16.3.2,60299,172.16.1.2,5101,2896,4076,38,64256,65728,6,6,4,1460,232187,1,1092625376,890000,74540,74540,65700,0,2896,0,1042907201,63
o,1723653181.501199,172.16.3.2,60299,172.16.1.2,5101,2896,4464,38,64256,65728,6,6,4,1460,223437,1,1092625376,840000,74540,71644,65700,0,0,0,1042907201,63
o,1723653181.501337,172.16.3.2,60299,172.16.1.2,5101,2896,4464,38,64256,65728,6,6,4,1460,223437,1,1092625376,840000,74540,71644,65700,0,1448,0,1042907201,63
i,1723653181.682972,172.16.3.2,60299,172.16.1.2,5101,2896,4464,38,64256,65728,6,6,4,1460,223437,1,1092625376,840000,74540,74540,65700,0,4344,0,1042907201,63
o,1723653181.683009,172.16.3.2,60299,172.16.1.2,5101,2896,4924,38,64256,65728,6,6,4,1460,219375,1,1092625376,760000,74540,71644,65700,0,1448,0,1042907201,63
o,1723653181.683195,172.16.3.2,60299,172.16.1.2,5101,2896,4924,38,64256,65728,6,6,4,1460,219375,1,1092625376,760000,74540,71644,65700,0,2896,0,1042907201,63
i,1723653181.759665,172.16.3.2,60299,172.16.1.2,5101,2896,4924,38,64256,65728,6,6,4,1460,219375,1,1092625376,760000,74540,74540,65700,0,4344,0,1042907201,63
o,1723653181.759803,172.16.3.2,60299,172.16.1.2,5101,2896,5094,38,65728,65728,6,6,4,1460,224687,1,1092625376,720000,74540,73092,65700,0,2896,0,1042907201,63
i,1723653181.869496,172.16.3.2,60299,172.16.1.2,5101,2896,5094,38,65728,65728,6,6,4,1460,224687,1,1092625376,720000,74540,73092,65700,0,4344,0,1042907201,63
o,1723653181.869570,172.16.3.2,60299,172.16.1.2,5101,2896,5361,38,64256,65728,6,6,4,1460,219375,1,1092625376,690000,74540,70196,65700,0,1448,0,1042907201,63
o,1723653181.869766,172.16.3.2,60299,172.16.1.2,5101,2896,5361,38,64256,65728,6,6,4,1460,219375,1,1092625376,690000,74540,70196,65700,0,2896,0,1042907201,63
i,1723653181.978394,172.16.3.2,60299,172.16.1.2,5101,2896,5361,38,64256,65728,6,6,4,1460,219375,1,1092625376,690000,74540,74540,65700,0,4344,0,1042907201,63
o,1723653181.978492,172.16.3.2,60299,172.16.1.2,5101,2896,5627,38,65728,65728,6,6,4,1460,219687,1,1092625376,620000,74540,73092,65700,0,2896,0,1042907201,63
i,1723653182.027908,172.16.3.2,60299,172.16.1.2,5101,2896,5627,38,65728,65728,6,6,4,1460,219687,1,1092625376,620000,74540,73092,65700,0,4344,0,1042907201,63
o,1723653182.028008,172.16.3.2,60299,172.16.1.2,5101,2896,5748,38,64256,65728,6,6,4,1460,212500,1,1092625376,620000,74540,70196,65700,0,1448,0,1042907201,63
o,1723653182.028198,172.16.3.2,60299,172.16.1.2,5101,2896,5748,38,64256,65728,6,6,4,1460,212500,1,1092625376,620000,74540,70196,65700,0,2896,0,1042907201,63
i,1723653182.192729,172.16.3.2,60299,172.16.1.2,5101,2896,5748,38,64256,65728,6,6,4,1460,212500,1,1092625376,620000,74540,74540,65700,0,4344,0,1042907201,63
o,1723653182.192855,172.16.3.2,60299,172.16.1.2,5101,2896,6160,38,65728,65728,6,6,4,1460,212187,1,1092625376,570000,74540,73092,65700,0,2896,0,1042907201,63
i,1723653182.224001,172.16.3.2,60299,172.16.1.2,5101,2896,6160,38,65728,65728,6,6,4,1460,212187,1,1092625376,570000,74540,73092,65700,0,5792,0,1042907201,63
o,1723653182.224070,172.16.3.2,60299,172.16.1.2,5101,2896,6233,38,64256,65728,6,6,4,1460,210937,1,1092625376,540000,74540,70196,65700,0,2896,0,1042907201,63
o,1723653182.224182,172.16.3.2,60299,172.16.1.2,5101,2896,6233,38,64256,65728,6,6,4,1460,210937,1,1092625376,540000,74540,70196,65700,0,4344,0,1042907201,63
i,1723653182.399032,172.16.3.2,60299,172.16.1.2,5101,2896,6233,38,64256,65728,6,6,4,1460,210937,1,1092625376,540000,74540,74540,65700,0,5792,0,1042907201,63
o,1723653182.399069,172.16.3.2,60299,172.16.1.2,5101,2896,6645,38,64256,65728,6,6,4,1460,209687,1,1092625376,520000,74540,71644,65700,0,2896,0,1042907201,63
i,1723653182.429382,172.16.3.2,60299,172.16.1.2,5101,2896,6645,38,64256,65728,6,6,4,1460,209687,1,1092625376,520000,74540,74540,65700,0,5792,0,1042907201,63
o,1723653182.429413,172.16.3.2,60299,172.16.1.2,5101,2896,6717,38,64256,65728,6,6,4,1460,208750,1,1092625376,500000,74540,71644,65700,0,2896,0,1042907201,63
o,1723653182.429570,172.16.3.2,60299,172.16.1.2,5101,2896,6717,38,64256,65728,6,6,4,1460,208750,1,1092625376,500000,74540,71644,65700,0,4344,0,1042907201,63
i,1723653182.605363,172.16.3.2,60299,172.16.1.2,5101,2896,6717,38,64256,65728,6,6,4,1460,208750,1,1092625376,500000,74540,74540,65700,0,5792,0,1042907201,63
o,1723653182.605546,172.16.3.2,60299,172.16.1.2,5101,2896,7153,38,64256,65728,6,6,4,1460,209062,1,1092625376,480000,74540,71644,65700,0,2896,0,1042907201,63
i,1723653182.649035,172.16.3.2,60299,172.16.1.2,5101,2896,7153,38,64256,65728,6,6,4,1460,209062,1,1092625376,480000,74540,74540,65700,0,5792,0,1042907201,63
o,1723653182.649062,172.16.3.2,60299,172.16.1.2,5101,2896,7250,38,64256,65728,6,6,4,1460,210625,1,1092625376,470000,74540,71644,65700,0,2896,0,1042907201,63
o,1723653182.649197,172.16.3.2,60299,172.16.1.2,5101,2896,7250,38,64256,65728,6,6,4,1460,210625,1,1092625376,470000,74540,71644,65700,0,4344,0,1042907201,63
i,1723653182.760778,172.16.3.2,60299,172.16.1.2,5101,2896,7250,38,64256,65728,6,6,4,1460,210625,1,1092625376,470000,74540,74540,65700,0,7240,0,1042907201,63
o,1723653182.760985,172.16.3.2,60299,172.16.1.2,5101,2896,7517,38,64256,65728,6,6,4,1460,203125,1,1092625376,510000,74540,71644,65700,0,4344,0,1042907201,63
i,1723653182.875047,172.16.3.2,60299,172.16.1.2,5101,2896,7517,38,64256,65728,6,6,4,1460,203125,1,1092625376,510000,74540,74540,65700,0,7240,0,1042907201,63
o,1723653182.875204,172.16.3.2,60299,172.16.1.2,5101,2896,7808,38,65728,65728,6,6,4,1460,205312,1,1092625376,500000,74540,73092,65700,0,5792,0,1042907201,63
i,1723653182.896341,172.16.3.2,60299,172.16.1.2,5101,2896,7808,38,65728,65728,6,6,4,1460,205312,1,1092625376,500000,74540,73092,65700,0,7240,0,1042907201,63
o,1723653182.896417,172.16.3.2,60299,172.16.1.2,5101,2896,7856,38,64256,65728,6,6,4,1460,209687,1,1092625376,520000,74540,70196,65700,0,4344,0,1042907201,63
i,1723653182.979600,172.16.3.2,60299,172.16.1.2,5101,2896,7856,38,64256,65728,6,6,4,1460,209687,1,1092625376,520000,74540,74540,65700,0,7240,0,1042907201,63
o,1723653182.979684,172.16.3.2,60299,172.16.1.2,5101,2896,8050,38,64256,65728,6,6,4,1460,210000,1,1092625376,490000,74540,71644,65700,0,4344,0,1042907201,63
i,1723653183.144677,172.16.3.2,60299,172.16.1.2,5101,2896,8050,38,64256,65728,6,6,4,1460,210000,1,1092625376,490000,74540,74540,65700,0,7240,0,1042907201,63
o,1723653183.144736,172.16.3.2,60299,172.16.1.2,5101,2896,8462,38,64256,65728,6,6,4,1460,217500,1,1092625376,540000,74540,71644,65700,0,4344,0,1042907201,63
o,1723653183.144996,172.16.3.2,60299,172.16.1.2,5101,2896,8462,38,64256,65728,6,6,4,1460,217500,1,1092625376,540000,74540,71644,65700,0,5792,0,1042907201,63
i,1723653183.214930,172.16.3.2,60299,172.16.1.2,5101,2896,8462,38,64256,65728,6,6,4,1460,217500,1,1092625376,540000,74540,74540,65700,0,7240,0,1042907201,63
o,1723653183.215010,172.16.3.2,60299,172.16.1.2,5101,2896,8631,38,64256,65728,6,6,4,1460,230312,1,1092625376,630000,74540,71644,65700,0,4344,0,1042907201,63
i,1723653183.267987,172.16.3.2,60299,172.16.1.2,5101,2896,8631,38,64256,65728,6,6,4,1460,230312,1,1092625376,630000,74540,74540,65700,0,7240,0,1042907201,63
o,1723653183.268071,172.16.3.2,60299,172.16.1.2,5101,2896,8752,38,65728,65728,6,6,4,1460,237812,1,1092625376,640000,74540,73092,65700,0,5792,0,1042907201,63
i,1723653183.337914,172.16.3.2,60299,172.16.1.2,5101,2896,8752,38,65728,65728,6,6,4,1460,237812,1,1092625376,640000,74540,73092,65700,0,8688,0,1042907201,63
o,1723653183.337943,172.16.3.2,60299,172.16.1.2,5101,2896,8922,38,65728,65728,6,6,4,1460,231875,1,1092625376,630000,74540,71644,65700,0,7240,0,1042907201,63
i,1723653183.409567,172.16.3.2,60299,172.16.1.2,5101,2896,8922,38,65728,65728,6,6,4,1460,231875,1,1092625376,630000,74540,74540,65700,0,8688,0,1042907201,63
o,1723653183.409648,172.16.3.2,60299,172.16.1.2,5101,2896,9092,38,64256,65728,6,6,4,1460,235625,1,1092625376,620000,74540,71644,65700,0,5792,0,1042907201,63
i,1723653183.498346,172.16.3.2,60299,172.16.1.2,5101,2896,9092,38,64256,65728,6,6,4,1460,235625,1,1092625376,620000,74540,74540,65700,0,8688,0,1042907201,63
o,1723653183.498436,172.16.3.2,60299,172.16.1.2,5101,2896,9310,38,65728,65728,6,6,4,1460,240000,1,1092625376,610000,74540,73092,65700,0,7240,0,1042907201,63
i,1723653183.547287,172.16.3.2,60299,172.16.1.2,5101,2896,9310,38,65728,65728,6,6,4,1460,240000,1,1092625376,610000,74540,73092,65700,0,8688,0,1042907201,63
o,1723653183.547406,172.16.3.2,60299,172.16.1.2,5101,2896,9431,38,64256,65728,6,6,4,1460,245000,1,1092625376,610000,74540,70196,65700,0,5792,0,1042907201,63
i,1723653183.698013,172.16.3.2,60299,172.16.1.2,5101,2896,9431,38,64256,65728,6,6,4,1460,245000,1,1092625376,610000,74540,74540,65700,0,8688,0,1042907201,63
o,1723653183.698050,172.16.3.2,60299,172.16.1.2,5101,2896,10220,38,65728,65728,6,6,4,1460,258125,1,1092625376,690000,74540,73092,65700,0,7240,0,1042907201,63
o,1723653183.698161,172.16.3.2,60299,172.16.1.2,5101,2896,10220,38,65728,65728,6,6,4,1460,258125,1,1092625376,690000,74540,73092,65700,0,8688,0,1042907201,63
i,1723653183.698279,172.16.3.2,60299,172.16.1.2,5101,2896,10220,38,65728,65728,6,6,4,1460,258125,1,1092625376,690000,74540,73092,65700,0,10136,0,1042907201,63
o,1723653183.698295,172.16.3.2,60299,172.16.1.2,5101,2896,10220,38,64256,65728,6,6,4,1460,262187,1,1092625376,670000,74540,70196,65700,0,7240,0,1042907201,63
i,1723653183.764805,172.16.3.2,60299,172.16.1.2,5101,2896,10220,38,64256,65728,6,6,4,1460,262187,1,1092625376,670000,74540,74540,65700,0,10136,0,1042907201,63
o,1723653183.764839,172.16.3.2,60299,172.16.1.2,5101,2896,10220,38,64256,65728,6,6,4,1460,263437,1,1092625376,630000,74540,71644,65700,0,7240,0,1042907201,63
i,1723653183.798941,172.16.3.2,60299,172.16.1.2,5101,2896,10220,38,64256,65728,6,6,4,1460,263437,1,1092625376,630000,74540,74540,65700,0,10136,0,1042907201,63
o,1723653183.799030,172.16.3.2,60299,172.16.1.2,5101,2896,11680,38,65728,65728,6,6,4,1460,261875,1,1092625376,600000,74540,73092,65700,0,8688,0,1042907201,63
i,1723653183.888499,172.16.3.2,60299,172.16.1.2,5101,2896,11680,38,65728,65728,6,6,4,1460,261875,1,1092625376,600000,74540,73092,65700,0,11584,0,1042907201,63
o,1723653183.888535,172.16.3.2,60299,172.16.1.2,5101,2896,11680,38,64256,65728,6,6,4,1460,253125,1,1092625376,620000,74540,70196,65700,0,8688,0,1042907201,63
o,1723653183.888649,172.16.3.2,60299,172.16.1.2,5101,2896,11680,38,64256,65728,6,6,4,1460,253125,1,1092625376,620000,74540,70196,65700,0,10136,0,1042907201,63
i,1723653183.930572,172.16.3.2,60299,172.16.1.2,5101,2896,11680,38,64256,65728,6,6,4,1460,253125,1,1092625376,620000,74540,74540,65700,0,11584,0,1042907201,63
o,1723653183.930620,172.16.3.2,60299,172.16.1.2,5101,2896,13140,38,64256,65728,6,6,4,1460,250312,1,1092625376,600000,74540,71644,65700,0,8688,0,1042907201,63
i,1723653183.997914,172.16.3.2,60299,172.16.1.2,5101,2896,13140,38,64256,65728,6,6,4,1460,250312,1,1092625376,600000,74540,74540,65700,0,13032,0,1042907201,63
o,1723653183.997991,172.16.3.2,60299,172.16.1.2,5101,2896,13140,38,64256,65728,6,6,4,1460,247812,1,1092625376,580000,74540,71644,65700,0,10136,0,1042907201,63
i,1723653184.065544,172.16.3.2,60299,172.16.1.2,5101,2896,13140,38,64256,65728,6,6,4,1460,247812,1,1092625376,580000,74540,74540,65700,0,13032,0,1042907201,63
o,1723653184.065625,172.16.3.2,60299,172.16.1.2,5101,2896,14600,38,65728,65728,6,6,4,1460,249375,1,1092625376,560000,74540,73092,65700,0,11584,0,1042907201,63
i,1723653184.096461,172.16.3.2,60299,172.16.1.2,5101,2896,14600,38,65728,65728,6,6,4,1460,249375,1,1092625376,560000,74540,73092,65700,0,14480,0,1042907201,63
o,1723653184.096530,172.16.3.2,60299,172.16.1.2,5101,2896,14600,38,65728,65728,6,6,4,1460,254687,1,1092625376,580000,74540,71644,65700,0,13032,0,1042907201,63
i,1723653184.128920,172.16.3.2,60299,172.16.1.2,5101,2896,14600,38,65728,65728,6,6,4,1460,254687,1,1092625376,580000,74540,74540,65700,0,14480,0,1042907201,63
o,1723653184.128985,172.16.3.2,60299,172.16.1.2,5101,2896,14600,38,64256,65728,6,6,4,1460,251875,1,1092625376,570000,74540,71644,65700,0,11584,0,1042907201,63
o,1723653184.129097,172.16.3.2,60299,172.16.1.2,5101,2896,14600,38,64256,65728,6,6,4,1460,251875,1,1092625376,570000,74540,71644,65700,0,13032,0,1042907201,63
i,1723653184.261675,172.16.3.2,60299,172.16.1.2,5101,2896,14600,38,64256,65728,6,6,4,1460,251875,1,1092625376,570000,74540,74540,65700,0,14480,0,1042907201,63
o,1723653184.261710,172.16.3.2,60299,172.16.1.2,5101,2896,17520,38,65728,65728,6,6,4,1460,261875,1,1092625376,630000,74540,73092,65700,0,13032,0,1042907201,63
i,1723653184.261839,172.16.3.2,60299,172.16.1.2,5101,2896,17520,38,65728,65728,6,6,4,1460,261875,1,1092625376,630000,74540,73092,65700,0,17376,0,1042907201,63
o,1723653184.261856,172.16.3.2,60299,172.16.1.2,5101,2896,17520,38,62848,65728,6,6,4,1460,270625,1,1092625376,670000,74540,70196,65700,0,14480,0,1042907201,63
i,1723653184.329592,172.16.3.2,60299,172.16.1.2,5101,2896,17520,38,62848,65728,6,6,4,1460,270625,1,1092625376,670000,74540,74540,65700,0,17376,0,1042907201,63
o,1723653184.329669,172.16.3.2,60299,172.16.1.2,5101,2896,17520,38,64256,65728,6,6,4,1460,276875,1,1092625376,670000,74540,71644,65700,0,14480,0,1042907201,63
i,1723653184.395808,172.16.3.2,60299,172.16.1.2,5101,2896,17520,38,64256,65728,6,6,4,1460,276875,1,1092625376,670000,74540,74540,65700,0,17376,0,1042907201,63
o,1723653184.395916,172.16.3.2,60299,172.16.1.2,5101,2896,18980,38,65728,65728,6,6,4,1460,283750,1,1092625376,680000,74540,73092,65700,0,15928,0,1042907201,63
i,1723653184.428081,172.16.3.2,60299,172.16.1.2,5101,2896,18980,38,65728,65728,6,6,4,1460,283750,1,1092625376,680000,74540,73092,65700,0,18824,0,1042907201,63
o,1723653184.428110,172.16.3.2,60299,172.16.1.2,5101,2896,20440,38,64256,65728,6,6,4,1460,293437,1,1092625376,720000,74540,70196,65700,0,15928,0,1042907201,63
i,1723653184.490438,172.16.3.2,60299,172.16.1.2,5101,2896,20440,38,64256,65728,6,6,4,1460,293437,1,1092625376,720000,74540,74540,65700,0,20272,0,1042907201,63
o,1723653184.490476,172.16.3.2,60299,172.16.1.2,5101,2896,20440,38,64256,65728,6,6,4,1460,301875,1,1092625376,740000,74540,71644,65700,0,17376,0,1042907201,63
o,1723653184.490593,172.16.3.2,60299,172.16.1.2,5101,2896,20440,38,64256,65728,6,6,4,1460,301875,1,1092625376,740000,74540,71644,65700,0,18824,0,1042907201,63
i,1723653184.728528,172.16.3.2,60299,172.16.1.2,5101,2896,20440,38,64256,65728,6,6,4,1460,301875,1,1092625376,740000,74540,74540,65700,0,20272,0,1042907201,63
o,1723653184.728610,172.16.3.2,60299,172.16.1.2,5101,2896,24820,38,64256,65728,6,6,4,1460,323125,1,1092625376,870000,74540,71644,65700,0,17376,0,1042907201,63
i,1723653184.838915,172.16.3.2,60299,172.16.1.2,5101,2896,24820,38,64256,65728,6,6,4,1460,323125,1,1092625376,870000,74540,74540,65700,0,24616,0,1042907201,63
o,1723653184.838960,172.16.3.2,60299,172.16.1.2,5101,2896,27740,38,64256,65728,6,6,4,1460,355312,1,1092625376,1070000,74540,71644,65700,0,21720,0,1042907201,63
i,1723653184.889756,172.16.3.2,60299,172.16.1.2,5101,2896,27740,38,64256,65728,6,6,4,1460,355312,1,1092625376,1070000,74540,74540,65700,0,27512,0,1042907201,63
o,1723653184.889864,172.16.3.2,60299,172.16.1.2,5101,2896,29200,38,65728,65728,6,6,4,1460,389687,1,1092625376,1250000,74540,73092,65700,0,26064,0,1042907201,63
i,1723653184.977315,172.16.3.2,60299,172.16.1.2,5101,2896,29200,38,65728,65728,6,6,4,1460,389687,1,1092625376,1250000,74540,73092,65700,0,28960,0,1042907201,63
o,1723653184.977397,172.16.3.2,60299,172.16.1.2,5101,2896,30660,38,64256,65728,6,6,4,1460,422500,1,1092625376,1380000,74540,70196,65700,0,26064,0,1042907201,63
i,1723653185.018284,172.16.3.2,60299,172.16.1.2,5101,2896,30660,38,64256,65728,6,6,4,1460,422500,1,1092625376,1380000,74540,74540,65700,0,30408,0,1042907201,63
o,1723653185.018376,172.16.3.2,60299,172.16.1.2,5101,2896,32120,38,64256,65728,6,6,4,1460,447187,1,1092625376,1410000,74540,71644,65700,0,27512,0,1042907201,63
i,1723653185.070019,172.16.3.2,60299,172.16.1.2,5101,2896,32120,38,64256,65728,6,6,4,1460,447187,1,1092625376,1410000,74540,74540,65700,0,31856,0,1042907201,63
o,1723653185.070088,172.16.3.2,60299,172.16.1.2,5101,2896,33580,38,64256,65728,6,6,4,1460,470312,1,1092625376,1430000,74540,71644,65700,0,28960,0,1042907201,63
i,1723653185.111150,172.16.3.2,60299,172.16.1.2,5101,2896,33580,38,64256,65728,6,6,4,1460,470312,1,1092625376,1430000,74540,74540,65700,0,33304,0,1042907201,63
o,1723653185.111218,172.16.3.2,60299,172.16.1.2,5101,2896,33580,38,65728,65728,6,6,4,1460,495312,1,1092625376,1470000,74540,73092,65700,0,31856,0,1042907201,63
i,1723653185.260256,172.16.3.2,60299,172.16.1.2,5101,2896,33580,38,65728,65728,6,6,4,1460,495312,1,1092625376,1470000,74540,73092,65700,0,33304,0,1042907201,63
o,1723653185.260336,172.16.3.2,60299,172.16.1.2,5101,2896,37960,38,65728,65728,6,6,4,1460,528437,1,1092625376,1570000,74540,71644,65700,0,31856,0,1042907201,63
o,1723653185.260452,172.16.3.2,60299,172.16.1.2,5101,2896,37960,38,65728,65728,6,6,4,1460,528437,1,1092625376,1570000,74540,71644,65700,0,33304,0,1042907201,63
i,1723653185.473518,172.16.3.2,60299,172.16.1.2,5101,2896,37960,38,65728,65728,6,6,4,1460,528437,1,1092625376,1570000,82732,82732,65700,0,37648,0,1042907201,63
o,1723653185.473518,172.16.3.2,60299,172.16.1.2,5101,2896,39096,34,65728,65728,6,6,4,1460,528437,1,1092625376,1570000,82732,82732,65700,0,37648,0,1042907201,63
i,1723653185.498039,172.16.3.2,60299,172.16.1.2,5101,2896,37960,34,65728,65728,6,6,4,1460,528437,1,1092625376,1570000,82732,82732,65700,0,39096,0,1042907201,63
o,1723653185.498067,172.16.3.2,60299,172.16.1.2,5101,2896,40544,34,65728,65728,6,6,4,1460,528437,1,1092625376,1570000,82732,82732,65700,0,39096,0,1042907201,63
i,1723653185.568350,172.16.3.2,60299,172.16.1.2,5101,2896,37960,34,65728,65728,6,6,4,1460,528437,1,1092625376,1570000,82732,82732,65700,0,40544,0,1042907201,63
o,1723653185.568380,172.16.3.2,60299,172.16.1.2,5101,26542,1448,98,65728,65728,6,6,4,1460,528437,1,1630544864,1570000,82732,82732,65700,0,40544,0,1042907201,63
i,1723653185.609364,172.16.3.2,60299,172.16.1.2,5101,26542,1448,98,65728,65728,6,6,4,1460,528437,1,1630544864,1570000,82732,82732,65700,0,40544,0,1042907201,63
o,1723653185.609409,172.16.3.2,60299,172.16.1.2,5101,26542,2896,98,65728,65728,6,6,4,1460,528437,1,1630544864,1570000,82732,82732,65700,0,40544,0,1042907201,63
i,1723653185.628674,172.16.3.2,60299,172.16.1.2,5101,26542,2896,98,65728,65728,6,6,4,1460,528437,1,1630544864,1570000,82732,82732,65700,0,40544,0,1042907201,63
i,1723653185.672215,172.16.3.2,60299,172.16.1.2,5101,26542,2896,98,65728,65728,6,6,4,1460,528437,1,1630544864,1570000,82732,82732,65700,0,40544,0,1042907201,63
o,1723653185.672236,172.16.3.2,60299,172.16.1.2,5101,26542,4344,98,65728,65728,6,6,4,1460,528437,1,1630544864,1570000,82732,82732,65700,0,40544,0,1042907201,63
i,1723653185.778934,172.16.3.2,60299,172.16.1.2,5101,26542,4344,98,65728,65728,6,6,4,1460,528437,1,1630544864,1570000,82732,82732,65700,0,40544,0,1042907201,63
o,1723653185.778967,172.16.3.2,60299,172.16.1.2,5101,26542,5792,98,65728,65728,6,6,4,1460,528437,1,1630544864,1570000,82732,82732,65700,0,40544,0,1042907201,63
i,1723653185.779089,172.16.3.2,60299,172.16.1.2,5101,26542,5792,98,65728,65728,6,6,4,1460,528437,1,1630544864,1570000,82732,82732,65700,0,40544,0,1042907201,63
i,1723653185.800044,172.16.3.2,60299,172.16.1.2,5101,26542,5792,98,65728,65728,6,6,4,1460,528437,1,1630544864,1570000,82732,82732,65700,0,40544,0,1042907201,63
o,1723653185.800072,172.16.3.2,60299,172.16.1.2,5101,26542,7240,98,65728,65728,6,6,4,1460,528437,1,1630544864,1570000,82732,82732,65700,0,40544,0,1042907201,63
i,1723653185.886316,172.16.3.2,60299,172.16.1.2,5101,26542,7240,98,65728,65728,6,6,4,1460,528437,1,1630544864,1570000,82732,82732,65700,0,40544,0,1042907201,63
o,1723653185.886344,172.16.3.2,60299,172.16.1.2,5101,26542,8688,98,65728,65728,6,6,4,1460,528437,1,1630544864,1570000,82732,82732,65700,0,40544,0,1042907201,63
i,1723653185.887464,172.16.3.2,60299,172.16.1.2,5101,26542,8688,98,65728,65728,6,6,4,1460,528437,1,1630544864,1570000,82732,82732,65700,0,40544,0,1042907201,63
i,1723653185.945893,172.16.3.2,60299,172.16.1.2,5101,26542,8688,98,65728,65728,6,6,4,1460,528437,1,1630544864,1570000,82732,82732,65700,0,40544,0,1042907201,63
o,1723653185.945919,172.16.3.2,60299,172.16.1.2,5101,26542,8688,98,65728,65728,6,6,4,1460,528437,1,1630544865,1570000,82732,82732,65700,0,40544,0,1042907201,63
i,1723653185.997456,172.16.3.2,60299,172.16.1.2,5101,26542,8688,98,61440,65728,6,6,4,1460,510000,1,1630544864,1490000,82732,82732,65700,0,36200,0,1042907201,63
o,1723653185.997488,172.16.3.2,60299,172.16.1.2,5101,26542,8688,98,61440,65728,6,6,4,1460,510000,1,1630544864,1490000,82732,82732,65700,0,36200,0,1042907201,63
i,1723653186.064744,172.16.3.2,60299,172.16.1.2,5101,26542,8688,98,61440,65728,6,6,4,1460,510000,1,1630544864,1490000,82732,82732,65700,0,36200,0,1042907201,63
i,1723653186.117712,172.16.3.2,60299,172.16.1.2,5101,26542,7240,98,61440,65728,6,6,4,1460,510000,1,1613767648,1490000,82732,82732,65700,0,36200,0,1042907201,63
o,1723653186.117739,172.16.3.2,60299,172.16.1.2,5101,26542,7240,98,61440,65728,6,6,4,1460,510000,1,1630544864,1490000,82732,82732,65700,0,36200,0,1042907201,63
i,1723653186.169240,172.16.3.2,60299,172.16.1.2,5101,26542,7240,98,61440,65728,6,6,4,1460,510000,1,1630544864,1490000,82732,82732,65700,0,36200,0,1042907201,63
o,1723653186.169293,172.16.3.2,60299,172.16.1.2,5101,26542,8688,102,61440,65728,6,6,4,1460,510000,1,1630544864,1490000,82732,82732,65700,0,36200,0,1042907201,63
o,1723653186.169505,172.16.3.2,60299,172.16.1.2,5101,26542,8688,98,61440,65728,6,6,4,1460,510000,1,1630544864,1490000,82732,82732,65700,0,36200,0,1042907201,63
i,1723653186.268414,172.16.3.2,60299,172.16.1.2,5101,26542,8688,98,61440,65728,6,6,4,1460,510000,1,1630544864,1490000,82732,82732,65700,0,36200,0,1042907201,63
o,1723653186.268568,172.16.3.2,60299,172.16.1.2,5101,26542,10136,102,61440,65728,6,6,4,1460,510000,1,1630544864,1490000,82732,82732,65700,0,36200,0,1042907201,63
o,1723653186.268831,172.16.3.2,60299,172.16.1.2,5101,26542,10136,98,61440,65728,6,6,4,1460,510000,1,1630544864,1490000,82732,82732,65700,0,36200,0,1042907201,63
i,1723653186.340402,172.16.3.2,60299,172.16.1.2,5101,26542,10136,98,61440,65728,6,6,4,1460,510000,1,1630544864,1490000,82732,82732,65700,0,36200,0,1042907201,63
o,1723653186.340470,172.16.3.2,60299,172.16.1.2,5101,26542,11584,102,61440,65728,6,6,4,1460,510000,1,1630544864,1490000,82732,82732,65700,0,36200,0,1042907201,63
o,1723653186.340804,172.16.3.2,60299,172.16.1.2,5101,26542,11584,98,61440,65728,6,6,4,1460,510000,1,1630544864,1490000,82732,82732,65700,0,36200,0,1042907201,63
i,1723653186.341224,172.16.3.2,60299,172.16.1.2,5101,26542,11584,98,61440,65728,6,6,4,1460,510000,1,1630544864,1490000,82732,82732,65700,0,36200,0,1042907201,63
o,1723653186.341273,172.16.3.2,60299,172.16.1.2,5101,26542,13032,102,61440,65728,6,6,4,1460,510000,1,1630544864,1490000,82732,82732,65700,0,36200,0,1042907201,63
o,1723653186.341610,172.16.3.2,60299,172.16.1.2,5101,26542,13032,98,61440,65728,6,6,4,1460,510000,1,1630544864,1490000,82732,82732,65700,0,36200,0,1042907201,63
i,1723653186.419082,172.16.3.2,60299,172.16.1.2,5101,26542,13032,98,61440,65728,6,6,4,1460,510000,1,1630544864,1490000,82732,82732,65700,0,36200,0,1042907201,63
o,1723653186.419128,172.16.3.2,60299,172.16.1.2,5101,26542,14480,38,61440,65728,6,6,4,1460,510000,1,1630544864,1490000,82732,82732,65700,0,36200,0,1042907201,63
o,1723653186.419303,172.16.3.2,60299,172.16.1.2,5101,26542,14480,34,61440,65728,6,6,4,1460,510000,1,1630544864,1490000,82732,82732,65700,0,37648,0,1042907201,63
i,1723653186.448707,172.16.3.2,60299,172.16.1.2,5101,26542,14480,34,61440,65728,6,6,4,1460,510000,1,1630544864,1490000,82732,82732,65700,0,39096,0,1042907201,63
o,1723653186.448740,172.16.3.2,60299,172.16.1.2,5101,26542,15928,38,61440,65728,6,6,4,1460,510000,1,1630544864,1490000,82732,82732,65700,0,39096,0,1042907201,63
i,1723653186.583375,172.16.3.2,60299,172.16.1.2,5101,26542,15928,38,61440,65728,6,6,4,1460,510000,1,1630544864,1490000,82732,82732,65700,0,41992,0,1042907201,63
o,1723653186.583507,172.16.3.2,60299,172.16.1.2,5101,26542,17376,38,61440,65728,6,6,4,1460,510000,1,1630544864,1490000,82732,82732,65700,0,41992,0,1042907201,63
i,1723653186.634476,172.16.3.2,60299,172.16.1.2,5101,26542,17376,38,61440,65728,6,6,4,1460,510000,1,1630544864,1490000,82732,82732,65700,0,44888,0,1042907201,63
o,1723653186.634684,172.16.3.2,60299,172.16.1.2,5101,26542,18824,38,61440,65728,6,6,4,1460,510000,1,1630544864,1490000,82732,82732,65700,0,44888,0,1042907201,63
i,1723653186.686000,172.16.3.2,60299,172.16.1.2,5101,26542,18824,38,61440,65728,6,6,4,1460,510000,1,1630544864,1490000,82732,82732,65700,0,47784,0,1042907201,63
o,1723653186.686083,172.16.3.2,60299,172.16.1.2,5101,26542,20272,38,61440,65728,6,6,4,1460,510000,1,1630544864,1490000,82732,82732,65700,0,47784,0,1042907201,63
i,1723653186.710109,172.16.3.2,60299,172.16.1.2,5101,26542,20272,38,61440,65728,6,6,4,1460,510000,1,1630544864,1490000,82732,82732,65700,0,50680,0,1042907201,63
o,1723653186.710138,172.16.3.2,60299,172.16.1.2,5101,26542,21720,38,61440,65728,6,6,4,1460,510000,1,1630544864,1490000,82732,82732,65700,0,50680,0,1042907201,63
i,1723653186.710284,172.16.3.2,60299,172.16.1.2,5101,26542,21720,38,61440,65728,6,6,4,1460,510000,1,1630544864,1490000,82732,82732,65700,0,53576,0,1042907201,63
o,1723653186.710300,172.16.3.2,60299,172.16.1.2,5101,26542,23168,34,61440,65728,6,6,4,1460,510000,1,1630544864,1490000,82732,82732,65700,0,53576,0,1042907201,63
i,1723653186.770717,172.16.3.2,60299,172.16.1.2,5101,26542,23168,34,61440,65728,6,6,4,1460,510000,1,1630544864,1490000,82732,82732,65700,0,55024,0,1042907201,63
o,1723653186.770750,172.16.3.2,60299,172.16.1.2,5101,26542,24616,34,61440,65728,6,6,4,1460,510000,1,1630544864,1490000,82732,82732,65700,0,55024,0,1042907201,63
i,1723653186.798607,172.16.3.2,60299,172.16.1.2,5101,26542,24616,34,61440,65728,6,6,4,1460,510000,1,1630544864,1490000,82732,82732,65700,0,56472,0,1042907201,63
o,1723653186.798639,172.16.3.2,60299,172.16.1.2,5101,26542,26064,34,61440,65728,6,6,4,1460,510000,1,1630544864,1490000,82732,82732,65700,0,56472,0,1042907201,63
i,1723653186.798789,172.16.3.2,60299,172.16.1.2,5101,26542,26064,34,61440,65728,6,6,4,1460,510000,1,1630544864,1490000,82732,82732,65700,0,57920,0,1042907201,63
o,1723653186.798806,172.16.3.2,60299,172.16.1.2,5101,26542,27512,34,61440,65728,6,6,4,1460,510000,1,1630544864,1490000,82732,82732,65700,0,57920,0,1042907201,63
i,1723653186.914160,172.16.3.2,60299,172.16.1.2,5101,26542,27512,34,61440,65728,6,6,4,1460,510000,1,1630544864,1490000,82732,82732,65700,0,59368,0,1042907201,63
