enable_time_secs=1723653346	enable_time_usecs=387054	siftrver=1.3.0	sysname=FreeBSD	sysver=1401000	ipmode=4
o,1723653346.387260,10.0.2.15,22,10.0.2.2,50600,1073725440,17746,1026,65535,65700,0,0,4,1460,312,0,16777220,240000,33580,60,65700,0,0,0,2842470536,63
o,1723653346.387561,10.0.2.15,22,10.0.2.2,50600,1073725440,17746,1026,65535,65700,0,0,4,1460,312,0,16777220,240000,33580,208,65700,0,60,0,2842470536,63
o,1723653346.387726,10.0.2.15,22,10.0.2.2,50600,1073725440,17746,1026,65535,65700,0,0,4,1460,312,0,16777220,240000,33580,280,65700,0,208,0,2842470536,63
i,1723653346.387918,10.0.2.15,22,10.0.2.2,50600,1073725440,17746,1026,65535,65700,0,0,4,1460,312,0,16777220,240000,33580,280,65700,0,280,0,2842470536,63
i,1723653346.387940,10.0.2.15,22,10.0.2.2,50600,1073725440,17806,1026,65535,65700,0,0,4,1460,312,0,4,240000,33580,220,65700,0,220,0,2842470536,63
i,1723653346.388327,10.0.2.15,22,10.0.2.2,50600,1073725440,17954,1026,65535,65700,0,0,4,1460,312,0,4,240000,33580,72,65700,0,72,0,2842470536,63
i,1723653346.388352,10.0.2.15,22,10.0.2.2,50600,1073725440,18026,1026,65535,65700,0,0,4,1460,312,0,4,240000,33580,0,65700,0,0,0,2842470536,63
i,1723653346.388416,10.0.2.15,22,10.0.2.2,50600,1073725440,18026,1026,65535,65700,0,0,4,1460,312,0,4,240000,33580,0,65700,96,0,0,2842470536,63
o,1723653346.388437,10.0.2.15,22,10.0.2.2,50600,1073725440,18026,1026,65535,65604,0,0,5,1460,312,0,5,240000,33580,0,65700,96,0,0,2842470536,63
o,1723653346.389046,10.0.2.15,22,10.0.2.2,50600,1073725440,18026,1026,65535,65604,0,0,8,1460,312,0,4,240000,33580,0,65700,0,0,0,2842470536,63
i,1723653346.389618,10.0.2.15,22,10.0.2.2,50600,1073725440,18026,1026,65535,65604,0,0,8,1460,312,0,67108884,240000,33580,0,65700,0,1,0,2842470536,63
i,1723653348.650325,10.0.2.15,22,10.0.2.2,50592,1073725440,14600,0,65535,65700,0,0,4,1460,312,0,16777216,270000,33580,0,65700,0,0,0,2102825075,63
o,1723653348.659477,10.0.2.15,22,10.0.2.2,50592,1073725440,14600,1026,65535,65700,0,0,4,1460,312,0,16777216,270000,33580,38,65700,42,0,0,2102825075,63
i,1723653348.660175,10.0.2.15,22,10.0.2.2,50592,1073725440,14600,1026,65535,65700,0,0,4,1460,312,0,16777216,270000,33580,38,65700,0,38,0,2102825075,63
i,1723653348.660241,10.0.2.15,22,10.0.2.2,50592,1073725440,14638,1026,65535,65700,0,0,4,1460,312,0,0,240000,33580,0,65700,0,0,0,2102825075,63
i,1723653348.660289,10.0.2.15,22,10.0.2.2,50592,1073725440,14638,1026,65535,65700,0,0,4,1460,312,0,0,240000,33580,0,65700,1460,0,0,2102825075,63
o,1723653348.660307,10.0.2.15,22,10.0.2.2,50592,1073725440,14638,1026,65535,65700,0,0,4,1460,312,0,1,240000,33580,0,65700,1536,0,0,2102825075,63
o,1723653348.663743,10.0.2.15,22,10.0.2.2,50592,1073725440,14638,1026,65535,65700,0,0,4,1460,312,0,16777216,240000,33580,1120,65700,1536,0,0,2102825075,63
i,1723653348.665264,10.0.2.15,22,10.0.2.2,50592,1073725440,14638,1026,65535,65700,0,0,4,1460,312,0,16777216,240000,33580,1120,65700,0,1120,0,2102825075,63
i,1723653348.666238,10.0.2.15,22,10.0.2.2,50592,1073725440,15758,1026,65535,65700,0,0,4,1460,312,0,0,240000,33580,0,65700,0,0,0,2102825075,63
o,1723653348.669194,10.0.2.15,22,10.0.2.2,50592,1073725440,15758,1026,65535,65700,0,0,4,1460,312,0,16777216,240000,33580,492,65700,0,0,0,2102825075,63
i,1723653348.669994,10.0.2.15,22,10.0.2.2,50592,1073725440,15758,1026,65535,65700,0,0,4,1460,312,0,16777216,240000,33580,492,65700,0,492,0,2102825075,63
i,1723653348.674511,10.0.2.15,22,10.0.2.2,50592,1073725440,16250,1026,65535,65700,0,0,4,1460,312,0,0,240000,33580,0,65700,0,0,0,2102825075,63
i,1723653348.674536,10.0.2.15,22,10.0.2.2,50592,1073725440,16250,1026,65535,65700,0,0,4,1460,312,0,0,240000,33580,0,65700,16,0,0,2102825075,63
o,1723653348.674555,10.0.2.15,22,10.0.2.2,50592,1073725440,16250,1026,65535,65700,0,0,4,1460,312,0,1,240000,33580,0,65700,60,0,0,2102825075,63
o,1723653348.674857,10.0.2.15,22,10.0.2.2,50592,1073725440,16250,1026,65535,65700,0,0,4,1460,312,0,16777216,240000,33580,44,65700,0,0,0,2102825075,63
i,1723653348.676057,10.0.2.15,22,10.0.2.2,50592,1073725440,16250,1026,65535,65700,0,0,4,1460,312,0,16777216,240000,33580,44,65700,0,44,0,2102825075,63
i,1723653348.676084,10.0.2.15,22,10.0.2.2,50592,1073725440,16294,1026,65535,65700,0,0,4,1460,312,0,0,240000,33580,0,65700,0,0,0,2102825075,63
o,1723653348.677765,10.0.2.15,22,10.0.2.2,50592,1073725440,16294,1026,65535,65700,0,0,4,1460,312,0,16777216,240000,33580,68,65700,0,0,0,2102825075,63
i,1723653348.678440,10.0.2.15,22,10.0.2.2,50592,1073725440,16294,1026,65535,65700,0,0,4,1460,312,0,16777216,240000,33580,68,65700,0,68,0,2102825075,63
i,1723653348.678467,10.0.2.15,22,10.0.2.2,50592,1073725440,16362,1026,65535,65700,0,0,4,1460,312,0,0,240000,33580,0,65700,0,0,0,2102825075,63
o,1723653348.679628,10.0.2.15,22,10.0.2.2,50592,1073725440,16362,1026,65535,65700,0,0,4,1460,312,0,16777216,240000,33580,332,65700,0,0,0,2102825075,63
i,1723653348.680771,10.0.2.15,22,10.0.2.2,50592,1073725440,16362,1026,65535,65700,0,0,4,1460,312,0,16777216,240000,33580,332,65700,0,332,0,2102825075,63
i,1723653348.681752,10.0.2.15,22,10.0.2.2,50592,1073725440,16694,1026,65535,65700,0,0,4,1460,312,0,0,240000,33580,0,65700,0,0,0,2102825075,63
o,1723653348.704099,10.0.2.15,22,10.0.2.2,50592,1073725440,16694,1026,65535,65700,0,0,4,1460,312,0,16777216,240000,33580,28,65700,0,0,0,2102825075,63
i,1723653348.705403,10.0.2.15,22,10.0.2.2,50592,1073725440,16694,1026,65535,65700,0,0,4,1460,312,0,16777216,240000,33580,28,65700,0,28,0,2102825075,63
i,1723653348.705541,10.0.2.15,22,10.0.2.2,50592,1073725440,16722,1026,65535,65700,0,0,4,1460,312,0,0,240000,33580,0,65700,0,0,0,2102825075,63
o,1723653348.706731,10.0.2.15,22,10.0.2.2,50592,1073725440,16722,1026,65535,65700,0,0,4,1460,312,0,16777216,240000,33580,768,65700,112,0,0,2102825075,63
i,1723653348.707652,10.0.2.15,22,10.0.2.2,50592,1073725440,16722,1026,65535,65700,0,0,4,1460,312,0,16777216,240000,33580,908,65700,112,768,0,2102825075,63
o,1723653348.707670,10.0.2.15,22,10.0.2.2,50592,1073725440,17490,1026,65535,65700,0,0,4,1460,312,0,16777216,240000,33580,140,65700,112,0,0,2102825075,63
i,1723653348.708437,10.0.2.15,22,10.0.2.2,50592,1073725440,17490,1026,65535,65700,0,0,4,1460,312,0,16777216,240000,33580,140,65700,112,140,0,2102825075,63
o,1723653348.709075,10.0.2.15,22,10.0.2.2,50592,1073725440,17630,1026,65535,65700,0,0,4,1460,312,0,16777216,240000,33580,44,65700,0,0,0,2102825075,63
i,1723653348.709781,10.0.2.15,22,10.0.2.2,50592,1073725440,17630,1026,65535,65700,0,0,4,1460,312,0,16777216,240000,33580,44,65700,0,44,0,2102825075,63
i,1723653348.709799,10.0.2.15,22,10.0.2.2,50592,1073725440,17674,1026,65535,65700,0,0,4,1460,312,0,0,240000,33580,0,65700,0,0,0,2102825075,63
o,1723653348.710306,10.0.2.15,22,10.0.2.2,50592,1073725440,17674,1026,65535,65700,0,0,4,1460,312,0,16777220,240000,33580,72,65700,0,0,0,2102825075,63
i,1723653348.710691,10.0.2.15,22,10.0.2.2,50592,1073725440,17674,1026,65535,65700,0,0,4,1460,312,0,16777220,240000,33580,72,65700,0,72,0,2102825075,63
o,1723653348.713551,10.0.2.15,22,10.0.2.2,50592,1073725440,17746,1026,65535,65700,0,0,4,1460,312,0,16777220,240000,33580,104,65700,0,0,0,2102825075,63
i,1723653348.714031,10.0.2.15,22,10.0.2.2,50592,1073725440,17746,1026,65535,65700,0,0,4,1460,312,0,16777220,240000,33580,104,65700,0,104,0,2102825075,63
o,1723653348.714287,10.0.2.15,22,10.0.2.2,50592,1073725440,17850,1026,65535,65700,0,0,4,1460,312,0,16777220,240000,33580,72,65700,0,0,0,2102825075,63
i,1723653348.715084,10.0.2.15,22,10.0.2.2,50592,1073725440,17850,1026,65535,65700,0,0,4,1460,312,0,16777220,240000,33580,72,65700,0,72,0,2102825075,63
i,1723653348.718468,10.0.2.15,22,10.0.2.2,50592,1073725440,17922,1026,65535,65700,0,0,4,1460,312,0,4,240000,33580,0,65700,0,0,0,2102825075,63
i,1723653348.718486,10.0.2.15,22,10.0.2.2,50592,1073725440,17922,1026,65535,65700,0,0,4,1460,312,0,4,240000,33580,0,65700,96,0,0,2102825075,63
o,1723653348.718504,10.0.2.15,22,10.0.2.2,50592,1073725440,17922,1026,65535,65604,0,0,5,1460,312,0,5,240000,33580,0,65700,96,0,0,2102825075,63
o,1723653348.729514,10.0.2.15,22,10.0.2.2,50592,1073725440,17922,1026,65535,65604,0,0,8,1460,312,0,4,240000,33580,0,65700,0,0,0,2102825075,63
i,1723653348.731599,10.0.2.15,22,10.0.2.2,50592,1073725440,17922,1026,65535,65604,0,0,8,1460,312,0,67108884,240000,33580,0,65700,0,1,0,2102825075,63
i,1723653350.863148,10.0.2.15,22,10.0.2.2,50502,1073725440,14600,0,65535,65700,0,0,4,1460,312,0,16777216,270000,33580,0,65700,0,0,0,922773703,63
o,1723653350.873858,10.0.2.15,22,10.0.2.2,50502,1073725440,14600,1026,65535,65700,0,0,4,1460,312,0,16777216,270000,33580,38,65700,42,0,0,922773703,63
i,1723653350.874580,10.0.2.15,22,10.0.2.2,50502,1073725440,14600,1026,65535,65700,0,0,4,1460,312,0,16777216,270000,33580,38,65700,0,38,0,922773703,63
i,1723653350.874947,10.0.2.15,22,10.0.2.2,50502,1073725440,14638,1026,65535,65700,0,0,4,1460,312,0,0,240000,33580,0,65700,0,0,0,922773703,63
i,1723653350.874966,10.0.2.15,22,10.0.2.2,50502,1073725440,14638,1026,65535,65700,0,0,4,1460,312,0,0,240000,33580,0,65700,1460,0,0,922773703,63
o,1723653350.874983,10.0.2.15,22,10.0.2.2,50502,1073725440,14638,1026,65535,65700,0,0,4,1460,312,0,1,240000,33580,0,65700,1536,0,0,922773703,63
o,1723653350.876217,10.0.2.15,22,10.0.2.2,50502,1073725440,14638,1026,65535,65700,0,0,4,1460,312,0,16777216,240000,33580,1120,65700,1536,0,0,922773703,63
i,1723653350.877428,10.0.2.15,22,10.0.2.2,50502,1073725440,14638,1026,65535,65700,0,0,4,1460,312,0,16777216,240000,33580,1120,65700,0,1120,0,922773703,63
i,1723653350.878313,10.0.2.15,22,10.0.2.2,50502,1073725440,15758,1026,65535,65700,0,0,4,1460,312,0,0,240000,33580,0,65700,0,0,0,922773703,63
o,1723653350.881559,10.0.2.15,22,10.0.2.2,50502,1073725440,15758,1026,65535,65700,0,0,4,1460,312,0,16777216,240000,33580,492,65700,0,0,0,922773703,63
i,1723653350.882145,10.0.2.15,22,10.0.2.2,50502,1073725440,15758,1026,65535,65700,0,0,4,1460,312,0,16777216,240000,33580,492,65700,0,492,0,922773703,63
i,1723653350.887203,10.0.2.15,22,10.0.2.2,50502,1073725440,16250,1026,65535,65700,0,0,4,1460,312,0,0,230000,33580,0,65700,0,0,0,922773703,63
i,1723653350.887278,10.0.2.15,22,10.0.2.2,50502,1073725440,16250,1026,65535,65700,0,0,4,1460,312,0,0,230000,33580,0,65700,16,0,0,922773703,63
o,1723653350.887301,10.0.2.15,22,10.0.2.2,50502,1073725440,16250,1026,65535,65700,0,0,4,1460,312,0,1,230000,33580,0,65700,60,0,0,922773703,63
o,1723653350.887806,10.0.2.15,22,10.0.2.2,50502,1073725440,16250,1026,65535,65700,0,0,4,1460,312,0,16777216,230000,33580,44,65700,0,0,0,922773703,63
i,1723653350.888817,10.0.2.15,22,10.0.2.2,50502,1073725440,16250,1026,65535,65700,0,0,4,1460,312,0,16777216,230000,33580,44,65700,0,44,0,922773703,63
i,1723653350.888835,10.0.2.15,22,10.0.2.2,50502,1073725440,16294,1026,65535,65700,0,0,4,1460,312,0,0,230000,33580,0,65700,0,0,0,922773703,63
o,1723653350.890236,10.0.2.15,22,10.0.2.2,50502,1073725440,16294,1026,65535,65700,0,0,4,1460,312,0,16777216,230000,33580,68,65700,0,0,0,922773703,63
i,1723653350.890658,10.0.2.15,22,10.0.2.2,50502,1073725440,16294,1026,65535,65700,0,0,4,1460,312,0,16777216,230000,33580,68,65700,0,68,0,922773703,63
i,1723653350.890676,10.0.2.15,22,10.0.2.2,50502,1073725440,16362,1026,65535,65700,0,0,4,1460,312,0,0,230000,33580,0,65700,0,0,0,922773703,63
o,1723653350.892126,10.0.2.15,22,10.0.2.2,50502,1073725440,16362,1026,65535,65700,0,0,4,1460,312,0,16777216,230000,33580,332,65700,0,0,0,922773703,63
i,1723653350.892954,10.0.2.15,22,10.0.2.2,50502,1073725440,16362,1026,65535,65700,0,0,4,1460,312,0,16777216,230000,33580,332,65700,0,332,0,922773703,63
i,1723653350.894557,10.0.2.15,22,10.0.2.2,50502,1073725440,16694,1026,65535,65700,0,0,4,1460,312,0,0,230000,33580,0,65700,0,0,0,922773703,63
o,1723653350.912786,10.0.2.15,22,10.0.2.2,50502,1073725440,16694,1026,65535,65700,0,0,4,1460,312,0,16777216,230000,33580,28,65700,0,0,0,922773703,63
i,1723653350.913434,10.0.2.15,22,10.0.2.2,50502,1073725440,16694,1026,65535,65700,0,0,4,1460,312,0,16777216,230000,33580,28,65700,0,28,0,922773703,63
i,1723653350.913451,10.0.2.15,22,10.0.2.2,50502,1073725440,16722,1026,65535,65700,0,0,4,1460,312,0,0,240000,33580,0,65700,0,0,0,922773703,63
o,1723653350.914805,10.0.2.15,22,10.0.2.2,50502,1073725440,16722,1026,65535,65700,0,0,4,1460,312,0,16777216,240000,33580,768,65700,112,0,0,922773703,63
i,1723653350.916073,10.0.2.15,22,10.0.2.2,50502,1073725440,16722,1026,65535,65700,0,0,4,1460,312,0,16777216,240000,33580,908,65700,112,768,0,922773703,63
o,1723653350.916091,10.0.2.15,22,10.0.2.2,50502,1073725440,17490,1026,65535,65700,0,0,4,1460,312,0,16777216,240000,33580,140,65700,112,0,0,922773703,63
i,1723653350.916415,10.0.2.15,22,10.0.2.2,50502,1073725440,17490,1026,65535,65700,0,0,4,1460,312,0,16777216,240000,33580,140,65700,112,140,0,922773703,63
o,1723653350.917444,10.0.2.15,22,10.0.2.2,50502,1073725440,17630,1026,65535,65700,0,0,4,1460,312,0,16777216,240000,33580,44,65700,0,0,0,922773703,63
i,1723653350.918019,10.0.2.15,22,10.0.2.2,50502,1073725440,17630,1026,65535,65700,0,0,4,1460,312,0,16777216,240000,33580,44,65700,0,44,0,922773703,63
i,1723653350.918036,10.0.2.15,22,10.0.2.2,50502,1073725440,17674,1026,65535,65700,0,0,4,1460,312,0,0,240000,33580,0,65700,0,0,0,922773703,63
o,1723653350.918583,10.0.2.15,22,10.0.2.2,50502,1073725440,17674,1026,65535,65700,0,0,4,1460,312,0,16777220,240000,33580,72,65700,0,0,0,922773703,63
i,1723653350.919036,10.0.2.15,22,10.0.2.2,50502,1073725440,17674,1026,65535,65700,0,0,4,1460,312,0,16777220,240000,33580,72,65700,0,72,0,922773703,63
i,1723653350.919096,10.0.2.15,22,10.0.2.2,50502,1073725440,17746,1026,65535,65700,0,0,4,1460,312,0,4,240000,33580,0,65700,0,0,0,922773703,63
o,1723653350.993475,10.0.2.15,22,10.0.2.2,50502,1073725440,17746,1026,65535,65700,0,0,4,1460,312,0,5,240000,33580,0,65700,0,0,0,922773703,63
o,1723653351.041227,172.16.3.2,28985,172.16.1.2,5101,13166,14480,34,65535,65700,6,6,4,1460,180312,1,16778209,590000,33580,0,65700,0,0,0,807133866,63
o,1723653351.041753,172.16.3.2,28985,172.16.1.2,5101,13166,14480,34,65535,65700,6,6,4,1460,180312,1,16778212,590000,33580,37,65700,0,0,0,807133866,63
i,1723653351.165719,172.16.3.2,28985,172.16.1.2,5101,13166,14480,34,65535,65700,6,6,4,1460,180312,1,16778212,590000,33580,37,65700,0,37,0,807133866,63
o,1723653351.166144,172.16.3.2,28985,172.16.1.2,5101,13166,14517,1058,65728,65728,6,6,4,1460,174062,1,16778212,580000,33580,4,65700,0,0,0,807133866,63
o,1723653351.166421,172.16.3.2,28985,172.16.1.2,5101,13166,14517,1058,65728,65728,6,6,4,1460,174062,1,16778212,580000,33580,130,65700,0,4,0,807133866,63
i,1723653351.292949,172.16.3.2,28985,172.16.1.2,5101,13166,14517,1058,65728,65728,6,6,4,1460,174062,1,16778212,580000,33580,130,65700,0,130,0,807133866,63
i,1723653351.292989,172.16.3.2,28985,172.16.1.2,5101,13166,14647,1058,65600,65728,6,6,4,1460,168750,1,996,560000,33580,0,65700,0,0,0,807133866,63
o,1723653351.413554,172.16.3.2,49718,172.16.1.2,5101,13166,14480,34,65535,65700,6,6,4,1460,181562,1,16778209,580000,33580,0,65700,0,0,0,1487349262,63
o,1723653351.414061,172.16.3.2,49718,172.16.1.2,5101,13166,14480,34,65535,65700,6,6,4,1460,181562,1,16778208,580000,33580,37,65700,0,0,0,1487349262,63
o,1723653351.423016,172.16.3.2,28985,172.16.1.2,5101,13166,14647,1058,65728,65728,6,6,4,1460,168750,1,997,560000,33580,0,65700,0,0,0,807133866,63
i,1723653351.528778,172.16.3.2,28985,172.16.1.2,5101,13166,14647,1058,65728,65728,6,6,4,1460,168750,1,996,560000,33580,0,65700,0,0,0,807133866,63
i,1723653351.528863,172.16.3.2,28985,172.16.1.2,5101,13166,14647,1058,65728,65728,6,6,4,1460,168750,1,996,560000,33580,0,65700,1,0,0,807133866,63
o,1723653351.528886,172.16.3.2,28985,172.16.1.2,5101,13166,14647,1058,65728,65728,6,6,4,1460,168750,1,997,560000,33580,0,65700,2,0,0,807133866,63
o,1723653351.529470,172.16.3.2,49718,172.16.1.2,5101,13166,14480,38,65535,65700,6,6,4,1460,181562,1,16778208,580000,33580,33580,65700,0,37,0,1487349262,63
i,1723653351.559312,172.16.3.2,49718,172.16.1.2,5101,13166,14480,38,65535,65700,6,6,4,1460,181562,1,16778208,580000,33580,33580,65700,0,13069,0,1487349262,63
o,1723653351.559336,172.16.3.2,49718,172.16.1.2,5101,13166,14517,38,65728,65728,6,6,4,1460,176562,1,16778208,560000,33580,33543,65700,0,13032,0,1487349262,63
i,1723653351.631640,172.16.3.2,49718,172.16.1.2,5101,13166,14517,38,65728,65728,6,6,4,1460,176562,1,16778208,560000,33580,33543,65700,0,14480,0,1487349262,63
o,1723653351.631718,172.16.3.2,49718,172.16.1.2,5101,13166,17413,38,64256,65728,6,6,4,1460,167187,1,16778208,580000,33580,30647,65700,0,11584,0,1487349262,63
i,1723653351.662875,172.16.3.2,49718,172.16.1.2,5101,13166,17413,38,64256,65728,6,6,4,1460,167187,1,16778208,580000,41772,41772,65700,0,17376,0,1487349262,63
o,1723653351.662978,172.16.3.2,49718,172.16.1.2,5101,13166,20309,38,64256,65728,6,6,4,1460,164062,1,16778208,550000,41772,38876,65700,0,14480,0,1487349262,63
i,1723653351.663136,172.16.3.2,49718,172.16.1.2,5101,13166,20309,38,64256,65728,6,6,4,1460,164062,1,16778208,550000,49964,38876,65700,0,20272,0,1487349262,63
o,1723653351.663154,172.16.3.2,49718,172.16.1.2,5101,13166,23205,38,62848,65728,6,6,4,1460,161250,1,16778208,520000,49964,35980,65700,0,17376,0,1487349262,63
i,1723653351.663319,172.16.3.2,49718,172.16.1.2,5101,13166,23205,38,62848,65728,6,6,4,1460,161250,1,16778208,520000,49964,35980,65700,0,23168,0,1487349262,63
o,1723653351.663339,172.16.3.2,49718,172.16.1.2,5101,13166,26101,38,62848,65728,6,6,4,1460,158750,1,16778208,500000,49964,33084,65700,0,20272,0,1487349262,63
i,1723653351.688084,172.16.3.2,49718,172.16.1.2,5101,13166,26101,38,62848,65728,6,6,4,1460,158750,1,16778208,500000,58156,58156,65700,0,26064,0,1487349262,63
o,1723653351.688130,172.16.3.2,49718,172.16.1.2,5101,13166,28997,38,64256,65728,6,6,4,1460,159062,1,16778208,470000,58156,55260,65700,0,23168,0,1487349262,63
o,1723653351.688288,172.16.3.2,49718,172.16.1.2,5101,13166,28997,38,64256,65728,6,6,4,1460,159062,1,16778208,470000,58156,55260,65700,0,24616,0,1487349262,63
i,1723653351.748835,172.16.3.2,49718,172.16.1.2,5101,13166,28997,38,64256,65728,6,6,4,1460,159062,1,16778208,470000,66348,66348,65700,0,28960,0,1487349262,63
o,1723653351.748914,172.16.3.2,49718,172.16.1.2,5101,13166,28997,38,62848,65728,6,6,4,1460,154375,1,16778208,470000,66348,63452,65700,0,26064,0,1487349262,63
i,1723653351.749071,172.16.3.2,49718,172.16.1.2,5101,13166,28997,38,62848,65728,6,6,4,1460,154375,1,16778208,470000,66348,63452,65700,0,28960,0,1487349262,63
o,1723653351.749088,172.16.3.2,49718,172.16.1.2,5101,13166,28997,38,64256,65728,6,6,4,1460,150312,1,16778208,470000,66348,60556,65700,0,26064,0,1487349262,63
i,1723653351.777407,172.16.3.2,49718,172.16.1.2,5101,13166,28997,38,64256,65728,6,6,4,1460,150312,1,16778208,470000,66348,66348,65700,0,28960,0,1487349262,63
o,1723653351.777484,172.16.3.2,49718,172.16.1.2,5101,13166,28997,38,62848,65728,6,6,4,1460,145312,1,16778208,480000,66348,63452,65700,0,26064,0,1487349262,63
i,1723653351.777648,172.16.3.2,49718,172.16.1.2,5101,13166,28997,38,62848,65728,6,6,4,1460,145312,1,16778208,480000,66348,63452,65700,0,28960,0,1487349262,63
o,1723653351.777677,172.16.3.2,49718,172.16.1.2,5101,13166,28997,38,64256,65728,6,6,4,1460,140937,1,16778208,470000,66348,60556,65700,0,26064,0,1487349262,63
i,1723653351.787713,172.16.3.2,49718,172.16.1.2,5101,13166,28997,38,64256,65728,6,6,4,1460,140937,1,16778208,470000,66348,66348,65700,0,28960,0,1487349262,63
o,1723653351.787737,172.16.3.2,49718,172.16.1.2,5101,13166,28997,38,62848,65728,6,6,4,1460,138437,1,16778208,460000,66348,63452,65700,0,26064,0,1487349262,63
i,1723653351.787892,172.16.3.2,49718,172.16.1.2,5101,13166,28997,38,62848,65728,6,6,4,1460,138437,1,16778208,460000,66348,63452,65700,0,28960,0,1487349262,63
o,1723653351.787908,172.16.3.2,49718,172.16.1.2,5101,13166,28997,38,64256,65728,6,6,4,1460,136250,1,16778208,440000,66348,60556,65700,0,26064,0,1487349262,63
i,1723653351.789100,172.16.3.2,49718,172.16.1.2,5101,13166,28997,38,64256,65728,6,6,4,1460,136250,1,16778208,440000,66348,66348,65700,0,28960,0,1487349262,63
o,1723653351.789121,172.16.3.2,49718,172.16.1.2,5101,13166,28997,38,64256,65728,6,6,4,1460,134375,1,16778208,430000,66348,63452,65700,0,26064,0,1487349262,63
i,1723653351.789276,172.16.3.2,49718,172.16.1.2,5101,13166,28997,38,64256,65728,6,6,4,1460,134375,1,16778208,430000,66348,63452,65700,0,28960,0,1487349262,63
o,1723653351.789292,172.16.3.2,49718,172.16.1.2,5101,13166,28997,38,61376,65728,6,6,4,1460,132812,1,16778208,420000,66348,60556,65700,0,26064,0,1487349262,63
i,1723653351.808590,172.16.3.2,49718,172.16.1.2,5101,13166,28997,38,61376,65728,6,6,4,1460,132812,1,16778208,420000,66348,66348,65700,0,28960,0,1487349262,63
o,1723653351.808621,172.16.3.2,49718,172.16.1.2,5101,13166,28997,38,64256,65728,6,6,4,1460,131250,1,16778208,410000,66348,63452,65700,0,26064,0,1487349262,63
o,1723653351.808736,172.16.3.2,49718,172.16.1.2,5101,13166,28997,38,64256,65728,6,6,4,1460,131250,1,16778208,410000,66348,63452,65700,0,27512,0,1487349262,63
i,1723653351.808875,172.16.3.2,49718,172.16.1.2,5101,13166,28997,38,64256,65728,6,6,4,1460,131250,1,16778208,410000,66348,63452,65700,0,28960,0,1487349262,63
o,1723653351.808908,172.16.3.2,49718,172.16.1.2,5101,13166,28997,38,61376,65728,6,6,4,1460,130000,1,16778208,400000,66348,60556,65700,0,26064,0,1487349262,63
i,1723653351.849491,172.16.3.2,49718,172.16.1.2,5101,13166,28997,38,61376,65728,6,6,4,1460,130000,1,16778208,400000,66348,66348,65700,0,28960,0,1487349262,63
o,1723653351.849515,172.16.3.2,49718,172.16.1.2,5101,13166,28997,38,98560,65728,6,6,4,1460,125000,1,16778208,410000,66348,64900,65700,0,27512,0,1487349262,63
i,1723653351.849663,172.16.3.2,49718,172.16.1.2,5101,13166,28997,38,98560,65728,6,6,4,1460,125000,1,16778208,410000,66348,64900,65700,0,28960,0,1487349262,63
o,1723653351.849687,172.16.3.2,49718,172.16.1.2,5101,13166,28997,38,97152,65728,6,6,4,1460,120625,1,16778208,420000,66348,62004,65700,0,26064,0,1487349262,63
i,1723653351.888079,172.16.3.2,49718,172.16.1.2,5101,13166,28997,38,97152,65728,6,6,4,1460,120625,1,16778208,420000,66348,66348,65700,0,28960,0,1487349262,63
o,1723653351.888101,172.16.3.2,49718,172.16.1.2,5101,13166,28997,38,97152,65728,6,6,4,1460,123125,1,16778208,420000,66348,63452,65700,0,26064,0,1487349262,63
i,1723653351.888218,172.16.3.2,49718,172.16.1.2,5101,13166,28997,38,97152,65728,6,6,4,1460,123125,1,16778208,420000,66348,63452,65700,0,28960,0,1487349262,63
o,1723653351.888234,172.16.3.2,49718,172.16.1.2,5101,13166,28997,38,94272,65728,6,6,4,1460,121562,1,16778208,400000,66348,60556,65700,0,26064,0,1487349262,63
i,1723653351.888399,172.16.3.2,49718,172.16.1.2,5101,13166,28997,38,94272,65728,6,6,4,1460,121562,1,16778208,400000,66348,60556,65700,0,28960,0,1487349262,63
o,1723653351.888420,172.16.3.2,49718,172.16.1.2,5101,13166,28997,38,97152,65728,6,6,4,1460,120312,1,16778208,390000,66348,57660,65700,0,26064,0,1487349262,63
i,1723653351.888634,172.16.3.2,49718,172.16.1.2,5101,13166,28997,38,97152,65728,6,6,4,1460,120312,1,16778208,390000,66348,57660,65700,0,28960,0,1487349262,63
o,1723653351.888650,172.16.3.2,49718,172.16.1.2,5101,13166,28997,38,97152,65728,6,6,4,1460,117812,1,16778208,390000,66348,54764,65700,0,26064,0,1487349262,63
i,1723653351.916598,172.16.3.2,49718,172.16.1.2,5101,13166,28997,38,97152,65728,6,6,4,1460,117812,1,16778208,390000,66348,66348,65700,0,28960,0,1487349262,63
o,1723653351.916630,172.16.3.2,49718,172.16.1.2,5101,13166,28997,38,97152,65728,6,6,4,1460,119375,1,16778208,390000,66348,63452,65700,0,26064,0,1487349262,63
i,1723653351.916780,172.16.3.2,49718,172.16.1.2,5101,13166,28997,38,97152,65728,6,6,4,1460,119375,1,16778208,390000,66348,63452,65700,0,28960,0,1487349262,63
o,1723653351.916811,172.16.3.2,49718,172.16.1.2,5101,13166,28997,38,94272,65728,6,6,4,1460,120937,1,16778208,380000,66348,60556,65700,0,26064,0,1487349262,63
i,1723653351.929240,172.16.3.2,49718,172.16.1.2,5101,13166,28997,38,94272,65728,6,6,4,1460,120937,1,16778208,380000,66348,65912,65700,0,28960,0,1487349262,63
o,1723653351.929307,172.16.3.2,49718,172.16.1.2,5101,13166,28997,38,95680,65728,6,6,4,1460,123437,1,16778208,390000,66348,63016,65700,0,26064,0,1487349262,63
o,1723653351.929433,172.16.3.2,49718,172.16.1.2,5101,13166,28997,38,95680,65728,6,6,4,1460,123437,1,16778208,390000,66348,63016,65700,0,27512,0,1487349262,63
i,1723653351.942156,172.16.3.2,49718,172.16.1.2,5101,13166,28997,38,95680,65728,6,6,4,1460,123437,1,16778208,390000,66348,66348,65700,0,28960,0,1487349262,63
o,1723653351.942182,172.16.3.2,49718,172.16.1.2,5101,13166,28997,38,97152,65728,6,6,4,1460,124375,1,16778208,380000,66348,63452,65700,0,26064,0,1487349262,63
i,1723653351.974120,172.16.3.2,49718,172.16.1.2,5101,13166,28997,38,97152,65728,6,6,4,1460,124375,1,16778208,380000,66348,66348,65700,0,28960,0,1487349262,63
o,1723653351.974216,172.16.3.2,49718,172.16.1.2,5101,13166,28997,38,98560,65728,6,6,4,1460,129062,1,16778208,410000,66348,64900,65700,0,27512,0,1487349262,63
i,1723653351.979222,172.16.3.2,49718,172.16.1.2,5101,13166,28997,38,98560,65728,6,6,4,1460,129062,1,16778208,410000,66348,64900,65700,0,28960,0,1487349262,63
o,1723653351.979242,172.16.3.2,49718,172.16.1.2,5101,13166,28997,38,97152,65728,6,6,4,1460,129375,1,16778208,390000,66348,62004,65700,0,26064,0,1487349262,63
i,1723653352.016073,172.16.3.2,49718,172.16.1.2,5101,13166,28997,38,97152,65728,6,6,4,1460,129375,1,16778208,390000,66348,66348,65700,0,28960,0,1487349262,63
o,1723653352.016156,172.16.3.2,49718,172.16.1.2,5101,13166,28997,38,98560,65728,6,6,4,1460,134687,1,16778208,420000,66348,64900,65700,0,27512,0,1487349262,63
i,1723653352.016424,172.16.3.2,49718,172.16.1.2,5101,13166,28997,38,98560,65728,6,6,4,1460,134687,1,16778208,420000,66348,64900,65700,0,28960,0,1487349262,63
o,1723653352.016474,172.16.3.2,49718,172.16.1.2,5101,13166,28997,38,95680,65728,6,6,4,1460,133125,1,16778208,410000,66348,62004,65700,0,26064,0,1487349262,63
i,1723653352.018048,172.16.3.2,49718,172.16.1.2,5101,13166,28997,38,95680,65728,6,6,4,1460,133125,1,16778208,410000,66348,66348,65700,0,28960,0,1487349262,63
o,1723653352.018079,172.16.3.2,49718,172.16.1.2,5101,13166,28997,38,97152,65728,6,6,4,1460,131562,1,16778208,400000,66348,63452,65700,0,26064,0,1487349262,63
i,1723653352.028366,172.16.3.2,49718,172.16.1.2,5101,13166,28997,38,97152,65728,6,6,4,1460,131562,1,16778208,400000,66348,66348,65700,0,28960,0,1487349262,63
o,1723653352.028407,172.16.3.2,49718,172.16.1.2,5101,13166,28997,38,97152,65728,6,6,4,1460,131562,1,16778208,390000,66348,63452,65700,0,26064,0,1487349262,63
i,1723653352.056303,172.16.3.2,49718,172.16.1.2,5101,13166,28997,38,97152,65728,6,6,4,1460,131562,1,16778208,390000,66348,66348,65700,0,28960,0,1487349262,63
o,1723653352.056331,172.16.3.2,49718,172.16.1.2,5101,13166,28997,38,97152,65728,6,6,4,1460,135312,1,16778208,410000,66348,63452,65700,0,26064,0,1487349262,63
i,1723653352.056476,172.16.3.2,49718,172.16.1.2,5101,13166,28997,38,97152,65728,6,6,4,1460,135312,1,16778208,410000,66348,63452,65700,0,28960,0,1487349262,63
o,1723653352.056497,172.16.3.2,49718,172.16.1.2,5101,13166,28997,38,95680,65728,6,6,4,1460,134687,1,16778208,390000,66348,60556,65700,0,26064,0,1487349262,63
i,1723653352.068176,172.16.3.2,49718,172.16.1.2,5101,13166,28997,38,95680,65728,6,6,4,1460,134687,1,16778208,390000,66348,66348,65700,0,28960,0,1487349262,63
o,1723653352.068266,172.16.3.2,49718,172.16.1.2,5101,13166,28997,38,97152,65728,6,6,4,1460,136875,1,16778208,400000,66348,63452,65700,0,26064,0,1487349262,63
i,1723653352.068412,172.16.3.2,49718,172.16.1.2,5101,13166,28997,38,97152,65728,6,6,4,1460,136875,1,16778208,400000,66348,63452,65700,0,28960,0,1487349262,63
o,1723653352.068429,172.16.3.2,49718,172.16.1.2,5101,13166,28997,38,94272,65728,6,6,4,1460,137500,1,16778208,390000,66348,60556,65700,0,26064,0,1487349262,63
o,1723653352.068548,172.16.3.2,49718,172.16.1.2,5101,13166,28997,38,94272,65728,6,6,4,1460,137500,1,16778208,390000,66348,60556,65700,0,27512,0,1487349262,63
i,1723653352.077800,172.16.3.2,49718,172.16.1.2,5101,13166,28997,38,94272,65728,6,6,4,1460,137500,1,16778208,390000,66348,66348,65700,0,28960,0,1487349262,63
o,1723653352.077818,172.16.3.2,49718,172.16.1.2,5101,13166,28997,38,97152,65728,6,6,4,1460,136562,1,16778208,380000,66348,63452,65700,0,26064,0,1487349262,63
i,1723653352.108542,172.16.3.2,49718,172.16.1.2,5101,13166,28997,38,97152,65728,6,6,4,1460,136562,1,16778208,380000,66348,66348,65700,0,28960,0,1487349262,63
o,1723653352.108573,172.16.3.2,49718,172.16.1.2,5101,13166,28997,38,97152,65728,6,6,4,1460,135937,1,16778208,370000,66348,63452,65700,0,26064,0,1487349262,63
i,1723653352.149178,172.16.3.2,49718,172.16.1.2,5101,13166,28997,38,97152,65728,6,6,4,1460,135937,1,16778208,370000,66348,66348,65700,0,28960,0,1487349262,63
o,1723653352.149273,172.16.3.2,49718,172.16.1.2,5101,13166,28997,38,97152,65728,6,6,4,1460,140312,1,16778208,400000,66348,63452,65700,0,26064,0,1487349262,63
i,1723653352.149433,172.16.3.2,49718,172.16.1.2,5101,13166,28997,38,97152,65728,6,6,4,1460,140312,1,16778208,400000,66348,63452,65700,0,28960,0,1487349262,63
o,1723653352.149433,172.16.3.2,49718,172.16.1.2,5101,13166,28997,38,95680,65728,6,6,4,1460,139062,1,16778208,400000,66348,60556,65700,0,26064,0,1487349262,63
i,1723653352.151291,172.16.3.2,49718,172.16.1.2,5101,13166,28997,38,95680,65728,6,6,4,1460,139062,1,16778208,400000,66348,66348,65700,0,28960,0,1487349262,63
o,1723653352.151317,172.16.3.2,49718,172.16.1.2,5101,13166,28997,38,97152,65728,6,6,4,1460,138125,1,16778208,390000,66348,63452,65700,0,26064,0,1487349262,63
i,1723653352.151486,172.16.3.2,49718,172.16.1.2,5101,13166,28997,38,97152,65728,6,6,4,1460,138125,1,16778208,390000,66348,63452,65700,0,28960,0,1487349262,63
o,1723653352.151521,172.16.3.2,49718,172.16.1.2,5101,13166,28997,38,97152,65728,6,6,4,1460,135937,1,16778208,390000,66348,60556,65700,0,26064,0,1487349262,63
i,1723653352.169935,172.16.3.2,49718,172.16.1.2,5101,13166,28997,38,97152,65728,6,6,4,1460,135937,1,16778208,390000,66348,66348,65700,0,28960,0,1487349262,63
o,1723653352.169959,172.16.3.2,49718,172.16.1.2,5101,13166,28997,38,97152,65728,6,6,4,1460,132812,1,16778208,400000,66348,63452,65700,0,26064,0,1487349262,63
i,1723653352.177697,172.16.3.2,49718,172.16.1.2,5101,13166,28997,38,97152,65728,6,6,4,1460,132812,1,16778208,400000,66348,66348,65700,0,28960,0,1487349262,63
o,1723653352.177717,172.16.3.2,49718,172.16.1.2,5101,13166,28997,38,97152,65728,6,6,4,1460,131250,1,16778208,390000,66348,63452,65700,0,26064,0,1487349262,63
i,1723653352.178923,172.16.3.2,49718,172.16.1.2,5101,13166,28997,38,97152,65728,6,6,4,1460,131250,1,16778208,390000,66348,63452,65700,0,28960,0,1487349262,63
o,1723653352.178943,172.16.3.2,49718,172.16.1.2,5101,13166,28997,38,97152,65728,6,6,4,1460,128750,1,16778208,390000,66348,60556,65700,0,26064,0,1487349262,63
i,1723653352.200237,172.16.3.2,49718,172.16.1.2,5101,13166,28997,38,97152,65728,6,6,4,1460,128750,1,16778208,390000,66348,66348,65700,0,28960,0,1487349262,63
o,1723653352.200274,172.16.3.2,49718,172.16.1.2,5101,13166,28997,38,97152,65728,6,6,4,1460,127812,1,16778208,380000,66348,63452,65700,0,26064,0,1487349262,63
o,1723653352.200428,172.16.3.2,49718,172.16.1.2,5101,13166,28997,38,97152,65728,6,6,4,1460,127812,1,16778208,380000,66348,63452,65700,0,27512,0,1487349262,63
i,1723653352.200587,172.16.3.2,49718,172.16.1.2,5101,13166,28997,38,97152,65728,6,6,4,1460,127812,1,16778208,380000,66348,63452,65700,0,28960,0,1487349262,63
o,1723653352.200608,172.16.3.2,49718,172.16.1.2,5101,13166,28997,38,97152,65728,6,6,4,1460,126875,1,16778208,370000,66348,60556,65700,0,26064,0,1487349262,63
i,1723653352.228774,172.16.3.2,49718,172.16.1.2,5101,13166,28997,38,97152,65728,6,6,4,1460,126875,1,16778208,370000,66348,66348,65700,0,28960,0,1487349262,63
o,1723653352.228845,172.16.3.2,49718,172.16.1.2,5101,13166,28997,38,95680,65728,6,6,4,1460,126250,1,16778208,370000,66348,63452,65700,0,26064,0,1487349262,63
i,1723653352.269496,172.16.3.2,49718,172.16.1.2,5101,13166,28997,38,95680,65728,6,6,4,1460,126250,1,16778208,370000,66348,66348,65700,0,28960,0,1487349262,63
o,1723653352.269534,172.16.3.2,49718,172.16.1.2,5101,13166,28997,38,97152,65728,6,6,4,1460,124375,1,16778208,370000,66348,63452,65700,0,26064,0,1487349262,63
i,1723653352.269709,172.16.3.2,49718,172.16.1.2,5101,13166,28997,38,97152,65728,6,6,4,1460,124375,1,16778208,370000,66348,63452,65700,0,28960,0,1487349262,63
o,1723653352.269727,172.16.3.2,49718,172.16.1.2,5101,13166,28997,38,95680,65728,6,6,4,1460,122812,1,16778208,370000,66348,60556,65700,0,26064,0,1487349262,63
i,1723653352.269894,172.16.3.2,49718,172.16.1.2,5101,13166,28997,38,95680,65728,6,6,4,1460,122812,1,16778208,370000,66348,60556,65700,0,28960,0,1487349262,63
o,1723653352.269910,172.16.3.2,49718,172.16.1.2,5101,13166,28997,38,97152,65728,6,6,4,1460,121250,1,16778208,370000,66348,57660,65700,0,26064,0,1487349262,63
i,1723653352.290226,172.16.3.2,49718,172.16.1.2,5101,13166,28997,38,97152,65728,6,6,4,1460,121250,1,16778208,370000,66348,66348,65700,0,28960,0,1487349262,63
o,1723653352.290279,172.16.3.2,49718,172.16.1.2,5101,13166,28997,38,97152,65728,6,6,4,1460,122500,1,16778208,370000,66348,63452,65700,0,26064,0,1487349262,63
i,1723653352.305295,172.16.3.2,49718,172.16.1.2,5101,13166,28997,38,97152,65728,6,6,4,1460,122500,1,16778208,370000,66348,66348,65700,0,28960,0,1487349262,63
o,1723653352.305332,172.16.3.2,49718,172.16.1.2,5101,13166,28997,38,97152,65728,6,6,4,1460,124687,1,16778208,370000,66348,63452,65700,0,26064,0,1487349262,63
i,1723653352.305474,172.16.3.2,49718,172.16.1.2,5101,13166,28997,38,97152,65728,6,6,4,1460,124687,1,16778208,370000,66348,63452,65700,0,28960,0,1487349262,63
o,1723653352.305490,172.16.3.2,49718,172.16.1.2,5101,13166,28997,38,94272,65728,6,6,4,1460,124375,1,16778208,360000,66348,60556,65700,0,26064,0,1487349262,63
i,1723653352.305654,172.16.3.2,49718,172.16.1.2,5101,13166,28997,38,94272,65728,6,6,4,1460,124375,1,16778208,360000,66348,60556,65700,0,28960,0,1487349262,63
o,1723653352.305671,172.16.3.2,49718,172.16.1.2,5101,13166,28997,38,97152,65728,6,6,4,1460,124062,1,16778208,360000,66348,57660,65700,0,26064,0,1487349262,63
i,1723653352.317065,172.16.3.2,49718,172.16.1.2,5101,13166,28997,38,97152,65728,6,6,4,1460,124062,1,16778208,360000,66348,66348,65700,0,28960,0,1487349262,63
o,1723653352.317154,172.16.3.2,49718,172.16.1.2,5101,13166,28997,38,97152,65728,6,6,4,1460,123750,1,16778208,350000,66348,63452,65700,0,26064,0,1487349262,63
o,1723653352.317373,172.16.3.2,49718,172.16.1.2,5101,13166,28997,38,97152,65728,6,6,4,1460,123750,1,16778208,350000,66348,63452,65700,0,27512,0,1487349262,63
i,1723653352.328722,172.16.3.2,49718,172.16.1.2,5101,13166,28997,38,97152,65728,6,6,4,1460,123750,1,16778208,350000,66348,66348,65700,0,28960,0,1487349262,63
o,1723653352.328789,172.16.3.2,49718,172.16.1.2,5101,13166,28997,38,97152,65728,6,6,4,1460,124687,1,16778208,350000,66348,63452,65700,0,26064,0,1487349262,63
i,1723653352.348184,172.16.3.2,49718,172.16.1.2,5101,13166,28997,38,97152,65728,6,6,4,1460,124687,1,16778208,350000,66348,66348,65700,0,28960,0,1487349262,63
o,1723653352.348217,172.16.3.2,49718,172.16.1.2,5101,13166,28997,38,95680,65728,6,6,4,1460,123125,1,16778208,360000,66348,63452,65700,0,26064,0,1487349262,63
i,1723653352.393293,172.16.3.2,49718,172.16.1.2,5101,13166,28997,38,95680,65728,6,6,4,1460,123125,1,16778208,360000,66348,66348,65700,0,28960,0,1487349262,63
o,1723653352.393386,172.16.3.2,49718,172.16.1.2,5101,13166,28997,38,95680,65728,6,6,4,1460,124062,1,16778208,360000,66348,63452,65700,0,26064,0,1487349262,63
i,1723653352.393582,172.16.3.2,49718,172.16.1.2,5101,13166,28997,38,95680,65728,6,6,4,1460,124062,1,16778208,360000,66348,63452,65700,0,28960,0,1487349262,63
o,1723653352.393608,172.16.3.2,49718,172.16.1.2,5101,13166,28997,38,97152,65728,6,6,4,1460,125000,1,16778208,360000,66348,60556,65700,0,26064,0,1487349262,63
i,1723653352.395266,172.16.3.2,49718,172.16.1.2,5101,13166,28997,38,97152,65728,6,6,4,1460,125000,1,16778208,360000,66348,66348,65700,0,28960,0,1487349262,63
o,1723653352.395341,172.16.3.2,49718,172.16.1.2,5101,13166,28997,38,97152,65728,6,6,4,1460,125625,1,16778208,360000,66348,63452,65700,0,26064,0,1487349262,63
i,1723653352.397432,172.16.3.2,49718,172.16.1.2,5101,13166,28997,38,97152,65728,6,6,4,1460,125625,1,16778208,360000,66348,66348,65700,0,28960,0,1487349262,63
o,1723653352.397516,172.16.3.2,49718,172.16.1.2,5101,13166,28997,38,97152,65728,6,6,4,1460,123750,1,16778208,360000,66348,63452,65700,0,26064,0,1487349262,63
i,1723653352.419312,172.16.3.2,49718,172.16.1.2,5101,13166,28997,38,97152,65728,6,6,4,1460,123750,1,16778208,360000,66348,66348,65700,0,28960,0,1487349262,63
o,1723653352.419403,172.16.3.2,49718,172.16.1.2,5101,13166,28997,38,95680,65728,6,6,4,1460,122187,1,16778208,360000,66348,63452,65700,0,26064,0,1487349262,63
i,1723653352.419563,172.16.3.2,49718,172.16.1.2,5101,13166,28997,38,95680,65728,6,6,4,1460,122187,1,16778208,360000,66348,63452,65700,0,28960,0,1487349262,63
o,1723653352.419595,172.16.3.2,49718,172.16.1.2,5101,13166,28997,38,92800,65728,6,6,4,1460,120937,1,16778208,360000,66348,60556,65700,0,26064,0,1487349262,63
i,1723653352.428378,172.16.3.2,49718,172.16.1.2,5101,13166,28997,38,92800,65728,6,6,4,1460,120937,1,16778208,360000,66348,66348,65700,0,28960,0,1487349262,63
o,1723653352.428378,172.16.3.2,49718,172.16.1.2,5101,13166,28997,38,97152,65728,6,6,4,1460,120937,1,16778208,350000,66348,63452,65700,0,26064,0,1487349262,63
i,1723653352.450445,172.16.3.2,49718,172.16.1.2,5101,13166,28997,38,97152,65728,6,6,4,1460,120937,1,16778208,350000,66348,66348,65700,0,28960,0,1487349262,63
o,1723653352.450483,172.16.3.2,49718,172.16.1.2,5101,13166,28997,38,97152,65728,6,6,4,1460,122187,1,16778208,350000,66348,63452,65700,0,26064,0,1487349262,63
o,1723653352.450659,172.16.3.2,49718,172.16.1.2,5101,13166,28997,38,97152,65728,6,6,4,1460,122187,1,16778208,350000,66348,63452,65700,0,27512,0,1487349262,63
i,1723653352.450783,172.16.3.2,49718,172.16.1.2,5101,13166,28997,38,97152,65728,6,6,4,1460,122187,1,16778208,350000,66348,63452,65700,0,28960,0,1487349262,63
o,1723653352.450799,172.16.3.2,49718,172.16.1.2,5101,13166,28997,38,97152,65728,6,6,4,1460,122187,1,16778208,350000,66348,60556,65700,0,26064,0,1487349262,63
i,1723653352.460633,172.16.3.2,49718,172.16.1.2,5101,13166,28997,38,97152,65728,6,6,4,1460,122187,1,16778208,350000,66348,66348,65700,0,28960,0,1487349262,63
o,1723653352.460660,172.16.3.2,49718,172.16.1.2,5101,13166,28997,38,97152,65728,6,6,4,1460,120937,1,16778208,350000,66348,63452,65700,0,26064,0,1487349262,63
i,1723653352.513339,172.16.3.2,49718,172.16.1.2,5101,13166,28997,38,97152,65728,6,6,4,1460,120937,1,16778208,350000,66348,66348,65700,0,28960,0,1487349262,63
o,1723653352.513622,172.16.3.2,49718,172.16.1.2,5101,13166,28997,38,95680,65728,6,6,4,1460,120937,1,16778208,340000,66348,63452,65700,0,26064,0,1487349262,63
i,1723653352.513776,172.16.3.2,49718,172.16.1.2,5101,13166,28997,38,95680,65728,6,6,4,1460,120937,1,16778208,340000,66348,63452,65700,0,28960,0,1487349262,63
o,1723653352.513794,172.16.3.2,49718,172.16.1.2,5101,13166,28997,38,97152,65728,6,6,4,1460,120937,1,16778208,340000,66348,60556,65700,0,26064,0,1487349262,63
i,1723653352.518238,172.16.3.2,49718,172.16.1.2,5101,13166,28997,38,97152,65728,6,6,4,1460,120937,1,16778208,340000,66348,66348,65700,0,28960,0,1487349262,63
o,1723653352.518321,172.16.3.2,49718,172.16.1.2,5101,13166,28997,38,95680,65728,6,6,4,1460,120937,1,16778208,330000,66348,63452,65700,0,26064,0,1487349262,63
i,1723653352.519410,172.16.3.2,49718,172.16.1.2,5101,13166,28997,38,95680,65728,6,6,4,1460,120937,1,16778208,330000,66348,66348,65700,0,28960,0,1487349262,63
o,1723653352.519430,172.16.3.2,49718,172.16.1.2,5101,13166,28997,38,97152,65728,6,6,4,1460,120937,1,16778208,330000,66348,63452,65700,0,26064,0,1487349262,63
i,1723653352.537343,172.16.3.2,49718,172.16.1.2,5101,13166,28997,38,97152,65728,6,6,4,1460,120937,1,16778208,330000,66348,66348,65700,0,28960,0,1487349262,63
o,1723653352.537366,172.16.3.2,49718,172.16.1.2,5101,13166,28997,38,95680,65728,6,6,4,1460,119687,1,16778208,330000,66348,63452,65700,0,26064,0,1487349262,63
i,1723653352.546929,172.16.3.2,49718,172.16.1.2,5101,13166,28997,38,95680,65728,6,6,4,1460,119687,1,16778208,330000,66348,66348,65700,0,28960,0,1487349262,63
o,1723653352.546930,172.16.3.2,49718,172.16.1.2,5101,13166,28997,38,95680,65728,6,6,4,1460,121250,1,16778208,340000,66348,63452,65700,0,26064,0,1487349262,63
i,1723653352.574981,172.16.3.2,49718,172.16.1.2,5101,13166,28997,38,95680,65728,6,6,4,1460,121250,1,16778208,340000,66348,66348,65700,0,28960,0,1487349262,63
o,1723653352.575051,172.16.3.2,49718,172.16.1.2,5101,13166,28997,38,97152,65728,6,6,4,1460,125000,1,16778208,370000,66348,63452,65700,0,26064,0,1487349262,63
i,1723653352.575221,172.16.3.2,49718,172.16.1.2,5101,13166,28997,38,97152,65728,6,6,4,1460,125000,1,16778208,370000,66348,63452,65700,0,28960,0,1487349262,63
o,1723653352.575238,172.16.3.2,49718,172.16.1.2,5101,13166,28997,38,97152,65728,6,6,4,1460,125625,1,16778208,370000,66348,60556,65700,0,26064,0,1487349262,63
o,1723653352.575343,172.16.3.2,49718,172.16.1.2,5101,13166,28997,38,97152,65728,6,6,4,1460,125625,1,16778208,370000,66348,60556,65700,0,27512,0,1487349262,63
i,1723653352.588843,172.16.3.2,49718,172.16.1.2,5101,13166,28997,38,97152,65728,6,6,4,1460,125625,1,16778208,370000,66348,66348,65700,0,28960,0,1487349262,63
o,1723653352.588863,172.16.3.2,49718,172.16.1.2,5101,13166,28997,38,97152,65728,6,6,4,1460,127500,1,16778208,370000,66348,63452,65700,0,26064,0,1487349262,63
i,1723653352.589025,172.16.3.2,49718,172.16.1.2,5101,13166,28997,38,97152,65728,6,6,4,1460,127500,1,16778208,370000,66348,63452,65700,0,28960,0,1487349262,63
o,1723653352.589043,172.16.3.2,49718,172.16.1.2,5101,13166,28997,38,95680,65728,6,6,4,1460,127812,1,16778208,360000,66348,60556,65700,0,26064,0,1487349262,63
i,1723653352.648555,172.16.3.2,49718,172.16.1.2,5101,13166,28997,38,95680,65728,6,6,4,1460,127812,1,16778208,360000,66348,66348,65700,0,28960,0,1487349262,63
o,1723653352.648643,172.16.3.2,49718,172.16.1.2,5101,13166,28997,38,95680,65728,6,6,4,1460,128125,1,16778208,360000,66348,63452,65700,0,26064,0,1487349262,63
i,1723653352.648804,172.16.3.2,49718,172.16.1.2,5101,13166,28997,38,95680,65728,6,6,4,1460,128125,1,16778208,360000,66348,63452,65700,0,28960,0,1487349262,63
o,1723653352.648821,172.16.3.2,49718,172.16.1.2,5101,13166,28997,38,97152,65728,6,6,4,1460,128437,1,16778208,350000,66348,60556,65700,0,26064,0,1487349262,63
i,1723653352.652824,172.16.3.2,49718,172.16.1.2,5101,13166,28997,38,97152,65728,6,6,4,1460,128437,1,16778208,350000,66348,66348,65700,0,28960,0,1487349262,63
o,1723653352.652845,172.16.3.2,49718,172.16.1.2,5101,13166,28997,38,97152,65728,6,6,4,1460,130000,1,16778208,360000,66348,63452,65700,0,26064,0,1487349262,63
i,1723653352.653008,172.16.3.2,49718,172.16.1.2,5101,13166,28997,38,97152,65728,6,6,4,1460,130000,1,16778208,360000,66348,63452,65700,0,28960,0,1487349262,63
o,1723653352.653025,172.16.3.2,49718,172.16.1.2,5101,13166,28997,38,97152,65728,6,6,4,1460,131250,1,16778208,360000,66348,60556,65700,0,26064,0,1487349262,63
i,1723653352.667934,172.16.3.2,49718,172.16.1.2,5101,13166,28997,38,97152,65728,6,6,4,1460,131250,1,16778208,360000,66348,66348,65700,0,28960,0,1487349262,63
o,1723653352.668034,172.16.3.2,49718,172.16.1.2,5101,13166,28997,38,95680,65728,6,6,4,1460,131250,1,16778208,360000,66348,63452,65700,0,26064,0,1487349262,63
i,1723653352.668224,172.16.3.2,49718,172.16.1.2,5101,13166,28997,38,95680,65728,6,6,4,1460,131250,1,16778208,360000,66348,63452,65700,0,28960,0,1487349262,63
o,1723653352.668242,172.16.3.2,49718,172.16.1.2,5101,13166,28997,38,97152,65728,6,6,4,1460,130000,1,16778208,360000,66348,60556,65700,0,26064,0,1487349262,63
i,1723653352.699124,172.16.3.2,49718,172.16.1.2,5101,13166,28997,38,97152,65728,6,6,4,1460,130000,1,16778208,360000,66348,66348,65700,0,28960,0,1487349262,63
o,1723653352.699144,172.16.3.2,49718,172.16.1.2,5101,13166,28997,38,95680,65728,6,6,4,1460,128750,1,16778208,360000,66348,63452,65700,0,26064,0,1487349262,63
i,1723653352.708211,172.16.3.2,49718,172.16.1.2,5101,13166,28997,38,95680,65728,6,6,4,1460,128750,1,16778208,360000,66348,66348,65700,0,28960,0,1487349262,63
o,1723653352.708231,172.16.3.2,49718,172.16.1.2,5101,13166,28997,38,95680,65728,6,6,4,1460,129062,1,16778208,350000,66348,63452,65700,0,26064,0,1487349262,63
o,1723653352.708350,172.16.3.2,49718,172.16.1.2,5101,13166,28997,38,95680,65728,6,6,4,1460,129062,1,16778208,350000,66348,63452,65700,0,27512,0,1487349262,63
i,1723653352.708476,172.16.3.2,49718,172.16.1.2,5101,13166,28997,38,95680,65728,6,6,4,1460,129062,1,16778208,350000,66348,63452,65700,0,28960,0,1487349262,63
o,1723653352.708493,172.16.3.2,49718,172.16.1.2,5101,13166,28997,38,92800,65728,6,6,4,1460,126875,1,16778208,360000,66348,60556,65700,0,26064,0,1487349262,63
i,1723653352.708915,172.16.3.2,49718,172.16.1.2,5101,13166,28997,38,92800,65728,6,6,4,1460,126875,1,16778208,360000,66348,60556,65700,0,28960,0,1487349262,63
o,1723653352.708936,172.16.3.2,49718,172.16.1.2,5101,13166,28997,38,89920,65728,6,6,4,1460,125000,1,16778208,370000,66348,57660,65700,0,26064,0,1487349262,63
i,1723653352.748906,172.16.3.2,49718,172.16.1.2,5101,13166,28997,38,89920,65728,6,6,4,1460,125000,1,16778208,370000,66348,66348,65700,0,28960,0,1487349262,63
o,1723653352.748936,172.16.3.2,49718,172.16.1.2,5101,13166,28997,38,95680,65728,6,6,4,1460,121875,1,16778208,380000,66348,63452,65700,0,26064,0,1487349262,63
i,1723653352.757747,172.16.3.2,49718,172.16.1.2,5101,13166,28997,38,95680,65728,6,6,4,1460,121875,1,16778208,380000,66348,66348,65700,0,28960,0,1487349262,63
o,1723653352.758347,172.16.3.2,49718,172.16.1.2,5101,13166,28997,38,97152,65728,6,6,4,1460,120625,1,16778208,370000,66348,63452,65700,0,26064,0,1487349262,63
i,1723653352.782970,172.16.3.2,49718,172.16.1.2,5101,13166,28997,38,97152,65728,6,6,4,1460,120625,1,16778208,370000,66348,66348,65700,0,28960,0,1487349262,63
o,1723653352.782970,172.16.3.2,49718,172.16.1.2,5101,13166,28997,38,97152,65728,6,6,4,1460,121875,1,16778208,370000,66348,63452,65700,0,26064,0,1487349262,63
i,1723653352.783537,172.16.3.2,49718,172.16.1.2,5101,13166,28997,38,97152,65728,6,6,4,1460,121875,1,16778208,370000,66348,63452,65700,0,28960,0,1487349262,63
o,1723653352.783575,172.16.3.2,49718,172.16.1.2,5101,13166,28997,38,94272,65728,6,6,4,1460,123125,1,16778208,370000,66348,60556,65700,0,26064,0,1487349262,63
i,1723653352.783842,172.16.3.2,49718,172.16.1.2,5101,13166,28997,38,94272,65728,6,6,4,1460,123125,1,16778208,370000,66348,60556,65700,0,28960,0,1487349262,63
o,1723653352.783862,172.16.3.2,49718,172.16.1.2,5101,13166,28997,38,97152,65728,6,6,4,1460,121562,1,16778208,370000,66348,57660,65700,0,26064,0,1487349262,63
i,1723653352.789100,172.16.3.2,49718,172.16.1.2,5101,13166,28997,38,97152,65728,6,6,4,1460,121562,1,16778208,370000,66348,66348,65700,0,28960,0,1487349262,63
o,1723653352.789151,172.16.3.2,49718,172.16.1.2,5101,13166,28997,38,97152,65728,6,6,4,1460,120312,1,16778208,360000,66348,63452,65700,0,26064,0,1487349262,63
i,1723653352.813579,172.16.3.2,49718,172.16.1.2,5101,13166,28997,38,97152,65728,6,6,4,1460,120312,1,16778208,360000,66348,66348,65700,0,28960,0,1487349262,63
o,1723653352.813645,172.16.3.2,49718,172.16.1.2,5101,13166,28997,38,95680,65728,6,6,4,1460,119062,1,16778208,360000,66348,63452,65700,0,26064,0,1487349262,63
i,1723653352.824686,172.16.3.2,49718,172.16.1.2,5101,13166,28997,38,95680,65728,6,6,4,1460,119062,1,16778208,360000,66348,66348,65700,0,28960,0,1487349262,63
o,1723653352.824706,172.16.3.2,49718,172.16.1.2,5101,13166,28997,38,97152,65728,6,6,4,1460,119375,1,16778208,350000,66348,63452,65700,0,26064,0,1487349262,63
o,1723653352.824812,172.16.3.2,49718,172.16.1.2,5101,13166,28997,38,97152,65728,6,6,4,1460,119375,1,16778208,350000,66348,63452,65700,0,27512,0,1487349262,63
i,1723653352.838613,172.16.3.2,49718,172.16.1.2,5101,13166,28997,38,97152,65728,6,6,4,1460,119375,1,16778208,350000,66348,66348,65700,0,28960,0,1487349262,63
o,1723653352.838633,172.16.3.2,49718,172.16.1.2,5101,13166,28997,38,97152,65728,6,6,4,1460,120937,1,16778208,360000,66348,63452,65700,0,26064,0,1487349262,63
i,1723653352.843813,172.16.3.2,49718,172.16.1.2,5101,13166,28997,38,97152,65728,6,6,4,1460,120937,1,16778208,360000,66348,66348,65700,0,28960,0,1487349262,63
o,1723653352.843831,172.16.3.2,49718,172.16.1.2,5101,13166,28997,38,97152,65728,6,6,4,1460,123437,1,16778208,370000,66348,63452,65700,0,26064,0,1487349262,63
i,1723653352.878497,172.16.3.2,49718,172.16.1.2,5101,13166,28997,38,97152,65728,6,6,4,1460,123437,1,16778208,370000,66348,66348,65700,0,28960,0,1487349262,63
o,1723653352.878591,172.16.3.2,49718,172.16.1.2,5101,13166,28997,38,97152,65728,6,6,4,1460,124375,1,16778208,370000,66348,63452,65700,0,26064,0,1487349262,63
i,1723653352.878746,172.16.3.2,49718,172.16.1.2,5101,13166,28997,38,97152,65728,6,6,4,1460,124375,1,16778208,370000,66348,63452,65700,0,28960,0,1487349262,63
o,1723653352.878772,172.16.3.2,49718,172.16.1.2,5101,13166,28997,38,95680,65728,6,6,4,1460,122812,1,16778208,370000,66348,60556,65700,0,26064,0,1487349262,63
i,1723653352.905844,172.16.3.2,49718,172.16.1.2,5101,13166,28997,38,95680,65728,6,6,4,1460,122812,1,16778208,370000,66348,66348,65700,0,28960,0,1487349262,63
o,1723653352.906026,172.16.3.2,49718,172.16.1.2,5101,13166,28997,38,95680,65728,6,6,4,1460,122500,1,16778208,360000,66348,63452,65700,0,26064,0,1487349262,63
i,1723653352.906480,172.16.3.2,49718,172.16.1.2,5101,13166,28997,38,95680,65728,6,6,4,1460,122500,1,16778208,360000,66348,63452,65700,0,28960,0,1487349262,63
o,1723653352.906534,172.16.3.2,49718,172.16.1.2,5101,13166,28997,38,97152,65728,6,6,4,1460,122187,1,16778208,350000,66348,60556,65700,0,26064,0,1487349262,63
i,1723653352.918190,172.16.3.2,49718,172.16.1.2,5101,13166,28997,38,97152,65728,6,6,4,1460,122187,1,16778208,350000,66348,66348,65700,0,28960,0,1487349262,63
o,1723653352.918212,172.16.3.2,49718,172.16.1.2,5101,13166,28997,38,97152,65728,6,6,4,1460,123437,1,16778208,350000,66348,63452,65700,0,26064,0,1487349262,63
i,1723653352.918392,172.16.3.2,49718,172.16.1.2,5101,13166,28997,38,97152,65728,6,6,4,1460,123437,1,16778208,350000,66348,63452,65700,0,28960,0,1487349262,63
o,1723653352.918409,172.16.3.2,49718,172.16.1.2,5101,13166,28997,38,97152,65728,6,6,4,1460,124375,1,16778208,350000,66348,60556,65700,0,26064,0,1487349262,63
i,1723653352.948805,172.16.3.2,49718,172.16.1.2,5101,13166,28997,38,97152,65728,6,6,4,1460,124375,1,16778208,350000,66348,66348,65700,0,28960,0,1487349262,63
o,1723653352.948973,172.16.3.2,49718,172.16.1.2,5101,13166,28997,38,97152,65728,6,6,4,1460,125312,1,16778208,360000,66348,63452,65700,0,26064,0,1487349262,63
i,1723653352.949293,172.16.3.2,49718,172.16.1.2,5101,13166,28997,38,97152,65728,6,6,4,1460,125312,1,16778208,360000,66348,63452,65700,0,28960,0,1487349262,63
o,1723653352.949365,172.16.3.2,49718,172.16.1.2,5101,13166,28997,38,95680,65728,6,6,4,1460,124687,1,16778208,350000,66348,60556,65700,0,26064,0,1487349262,63
o,1723653352.949714,172.16.3.2,49718,172.16.1.2,5101,13166,28997,38,95680,65728,6,6,4,1460,124687,1,16778208,350000,66348,60556,65700,0,27512,0,1487349262,63
i,1723653352.949965,172.16.3.2,49718,172.16.1.2,5101,13166,28997,38,95680,65728,6,6,4,1460,124687,1,16778208,350000,66348,60556,65700,0,28960,0,1487349262,63
o,1723653352.949997,172.16.3.2,49718,172.16.1.2,5101,13166,28997,38,92800,65728,6,6,4,1460,123125,1,16778208,360000,66348,57660,65700,0,26064,0,1487349262,63
i,1723653352.958699,172.16.3.2,49718,172.16.1.2,5101,13166,28997,38,92800,65728,6,6,4,1460,123125,1,16778208,360000,66348,66348,65700,0,28960,0,1487349262,63
o,1723653352.958776,172.16.3.2,49718,172.16.1.2,5101,13166,28997,38,95680,65728,6,6,4,1460,121562,1,16778208,360000,66348,63452,65700,0,26064,0,1487349262,63
i,1723653352.989270,172.16.3.2,49718,172.16.1.2,5101,13166,28997,38,95680,65728,6,6,4,1460,121562,1,16778208,360000,66348,66348,65700,0,28960,0,1487349262,63
o,1723653352.989334,172.16.3.2,49718,172.16.1.2,5101,13166,28997,38,97152,65728,6,6,4,1460,119062,1,16778208,370000,66348,63452,65700,0,26064,0,1487349262,63
i,1723653353.012441,172.16.3.2,49718,172.16.1.2,5101,13166,28997,38,97152,65728,6,6,4,1460,119062,1,16778208,370000,66348,66348,65700,0,28960,0,1487349262,63
o,1723653353.012514,172.16.3.2,49718,172.16.1.2,5101,13166,28997,38,95680,65728,6,6,4,1460,120625,1,16778208,370000,66348,63452,65700,0,26064,0,1487349262,63
i,1723653353.019381,172.16.3.2,49718,172.16.1.2,5101,13166,28997,38,95680,65728,6,6,4,1460,120625,1,16778208,370000,66348,66348,65700,0,28960,0,1487349262,63
o,1723653353.019401,172.16.3.2,49718,172.16.1.2,5101,13166,28997,38,97152,65728,6,6,4,1460,118125,1,16778208,370000,66348,63452,65700,0,26064,0,1487349262,63
i,1723653353.019525,172.16.3.2,49718,172.16.1.2,5101,13166,28997,38,97152,65728,6,6,4,1460,118125,1,16778208,370000,66348,63452,65700,0,28960,0,1487349262,63
o,1723653353.019540,172.16.3.2,49718,172.16.1.2,5101,13166,28997,38,94272,65728,6,6,4,1460,115937,1,16778208,370000,66348,60556,65700,0,26064,0,1487349262,63
i,1723653353.041933,172.16.3.2,49718,172.16.1.2,5101,13166,28997,38,94272,65728,6,6,4,1460,115937,1,16778208,370000,66348,66348,65700,0,28960,0,1487349262,63
o,1723653353.041955,172.16.3.2,49718,172.16.1.2,5101,13166,28997,38,95680,65728,6,6,4,1460,116562,1,16778208,360000,66348,63452,65700,0,26064,0,1487349262,63
i,1723653353.042233,172.16.3.2,49718,172.16.1.2,5101,13166,28997,38,95680,65728,6,6,4,1460,116562,1,16778208,360000,66348,63452,65700,0,28960,0,1487349262,63
o,1723653353.042249,172.16.3.2,49718,172.16.1.2,5101,13166,28997,38,95680,65728,6,6,4,1460,117187,1,16778208,360000,66348,60556,65700,0,26064,0,1487349262,63
i,1723653353.069063,172.16.3.2,49718,172.16.1.2,5101,13166,28997,38,95680,65728,6,6,4,1460,117187,1,16778208,360000,66348,66348,65700,0,28960,0,1487349262,63
o,1723653353.069097,172.16.3.2,49718,172.16.1.2,5101,13166,28997,38,95680,65728,6,6,4,1460,116562,1,16778208,350000,66348,63452,65700,0,26064,0,1487349262,63
i,1723653353.069235,172.16.3.2,49718,172.16.1.2,5101,13166,28997,38,95680,65728,6,6,4,1460,116562,1,16778208,350000,66348,63452,65700,0,28960,0,1487349262,63
o,1723653353.069254,172.16.3.2,49718,172.16.1.2,5101,13166,28997,38,97152,65728,6,6,4,1460,115937,1,16778208,350000,66348,60556,65700,0,26064,0,1487349262,63
o,1723653353.069363,172.16.3.2,49718,172.16.1.2,5101,13166,28997,38,97152,65728,6,6,4,1460,115937,1,16778208,350000,66348,60556,65700,0,27512,0,1487349262,63
i,1723653353.079109,172.16.3.2,49718,172.16.1.2,5101,13166,28997,38,97152,65728,6,6,4,1460,115937,1,16778208,350000,66348,64520,65700,0,28960,0,1487349262,63
o,1723653353.079130,172.16.3.2,49718,172.16.1.2,5101,13166,28997,38,95680,65728,6,6,4,1460,116562,1,16778208,340000,66348,61624,65700,0,26064,0,1487349262,63
i,1723653353.079258,172.16.3.2,49718,172.16.1.2,5101,13166,28997,38,95680,65728,6,6,4,1460,116562,1,16778208,340000,66348,61624,65700,0,28960,0,1487349262,63
o,1723653353.079283,172.16.3.2,49718,172.16.1.2,5101,13166,28997,38,97152,65728,6,6,4,1460,117187,1,16778208,340000,66348,58728,65700,0,26064,0,1487349262,63
i,1723653353.109381,172.16.3.2,49718,172.16.1.2,5101,13166,28997,38,97152,65728,6,6,4,1460,117187,1,16778208,340000,66348,66348,65700,0,28960,0,1487349262,63
o,1723653353.109479,172.16.3.2,49718,172.16.1.2,5101,13166,28997,38,95680,65728,6,6,4,1460,117812,1,16778208,340000,66348,63452,65700,0,26064,0,1487349262,63
i,1723653353.134816,172.16.3.2,49718,172.16.1.2,5101,13166,28997,38,95680,65728,6,6,4,1460,117812,1,16778208,340000,66348,66348,65700,0,28960,0,1487349262,63
o,1723653353.134857,172.16.3.2,49718,172.16.1.2,5101,13166,28997,38,97152,65728,6,6,4,1460,118125,1,16778208,340000,66348,63452,65700,0,26064,0,1487349262,63
i,1723653353.137628,172.16.3.2,49718,172.16.1.2,5101,13166,28997,38,97152,65728,6,6,4,1460,118125,1,16778208,340000,66348,66348,65700,0,28960,0,1487349262,63
o,1723653353.137648,172.16.3.2,49718,172.16.1.2,5101,13166,28997,38,97152,65728,6,6,4,1460,118437,1,16778208,340000,66348,63452,65700,0,26064,0,1487349262,63
i,1723653353.137757,172.16.3.2,49718,172.16.1.2,5101,13166,28997,38,97152,65728,6,6,4,1460,118437,1,16778208,340000,66348,63452,65700,0,28960,0,1487349262,63
o,1723653353.137757,172.16.3.2,49718,172.16.1.2,5101,13166,28997,38,94272,65728,6,6,4,1460,118750,1,16778208,330000,66348,60556,65700,0,26064,0,1487349262,63
i,1723653353.149250,172.16.3.2,49718,172.16.1.2,5101,13166,28997,38,94272,65728,6,6,4,1460,118750,1,16778208,330000,66348,66348,65700,0,28960,0,1487349262,63
o,1723653353.149269,172.16.3.2,49718,172.16.1.2,5101,13166,28997,38,95680,65728,6,6,4,1460,116562,1,16778208,340000,66348,63452,65700,0,26064,0,1487349262,63
i,1723653353.150933,172.16.3.2,49718,172.16.1.2,5101,13166,28997,38,95680,65728,6,6,4,1460,116562,1,16778208,340000,66348,66348,65700,0,28960,0,1487349262,63
o,1723653353.150952,172.16.3.2,49718,172.16.1.2,5101,13166,28997,38,97152,65728,6,6,4,1460,114687,1,16778208,350000,66348,63452,65700,0,26064,0,1487349262,63
i,1723653353.186033,172.16.3.2,49718,172.16.1.2,5101,13166,28997,38,97152,65728,6,6,4,1460,114687,1,16778208,350000,66348,66348,65700,0,28960,0,1487349262,63
o,1723653353.186111,172.16.3.2,49718,172.16.1.2,5101,13166,28997,38,95680,65728,6,6,4,1460,115625,1,16778208,350000,66348,63452,65700,0,26064,0,1487349262,63
i,1723653353.188792,172.16.3.2,49718,172.16.1.2,5101,13166,28997,38,95680,65728,6,6,4,1460,115625,1,16778208,350000,66348,66348,65700,0,28960,0,1487349262,63
o,1723653353.188882,172.16.3.2,49718,172.16.1.2,5101,13166,28997,38,97152,65728,6,6,4,1460,116250,1,16778208,350000,66348,63452,65700,0,26064,0,1487349262,63
o,1723653353.189016,172.16.3.2,49718,172.16.1.2,5101,13166,28997,38,97152,65728,6,6,4,1460,116250,1,16778208,350000,66348,63452,65700,0,27512,0,1487349262,63
i,1723653353.199760,172.16.3.2,49718,172.16.1.2,5101,13166,28997,38,97152,65728,6,6,4,1460,116250,1,16778208,350000,66348,66348,65700,0,28960,0,1487349262,63
o,1723653353.199880,172.16.3.2,49718,172.16.1.2,5101,13166,28997,38,95680,65728,6,6,4,1460,116875,1,16778208,340000,66348,63452,65700,0,26064,0,1487349262,63
i,1723653353.208631,172.16.3.2,49718,172.16.1.2,5101,13166,28997,38,95680,65728,6,6,4,1460,116875,1,16778208,340000,66348,66348,65700,0,28960,0,1487349262,63
o,1723653353.208710,172.16.3.2,49718,172.16.1.2,5101,13166,28997,38,95680,65728,6,6,4,1460,118750,1,16778208,350000,66348,63452,65700,0,26064,0,1487349262,63
i,1723653353.227773,172.16.3.2,49718,172.16.1.2,5101,13166,28997,38,95680,65728,6,6,4,1460,118750,1,16778208,350000,66348,66348,65700,0,28960,0,1487349262,63
o,1723653353.227809,172.16.3.2,49718,172.16.1.2,5101,13166,28997,38,97152,65728,6,6,4,1460,119062,1,16778208,350000,66348,63452,65700,0,26064,0,1487349262,63
i,1723653353.258344,172.16.3.2,49718,172.16.1.2,5101,13166,28997,38,97152,65728,6,6,4,1460,119062,1,16778208,350000,66348,66348,65700,0,28960,0,1487349262,63
o,1723653353.258370,172.16.3.2,49718,172.16.1.2,5101,13166,28997,38,95680,65728,6,6,4,1460,119375,1,16778208,340000,66348,63452,65700,0,26064,0,1487349262,63
i,1723653353.269523,172.16.3.2,49718,172.16.1.2,5101,13166,28997,38,95680,65728,6,6,4,1460,119375,1,16778208,340000,66348,66348,65700,0,28960,0,1487349262,63
o,1723653353.269543,172.16.3.2,49718,172.16.1.2,5101,13166,28997,38,97152,65728,6,6,4,1460,120937,1,16778208,350000,66348,63452,65700,0,26064,0,1487349262,63
i,1723653353.271441,172.16.3.2,49718,172.16.1.2,5101,13166,28997,38,97152,65728,6,6,4,1460,120937,1,16778208,350000,66348,66348,65700,0,28960,0,1487349262,63
o,1723653353.271460,172.16.3.2,49718,172.16.1.2,5101,13166,28997,38,94272,65728,6,6,4,1460,122187,1,16778208,350000,66348,63452,65700,0,26064,0,1487349262,63
i,1723653353.271651,172.16.3.2,49718,172.16.1.2,5101,13166,28997,38,94272,65728,6,6,4,1460,122187,1,16778208,350000,66348,63452,65700,0,28960,0,1487349262,63
o,1723653353.271668,172.16.3.2,49718,172.16.1.2,5101,13166,28997,38,95680,65728,6,6,4,1460,122187,1,16778208,350000,66348,60556,65700,0,26064,0,1487349262,63
