enable_time_secs=1723653520	enable_time_usecs=359058	siftrver=1.3.0	sysname=FreeBSD	sysver=1401000	ipmode=4
o,1723653520.359369,10.0.2.15,22,10.0.2.2,50582,1073725440,17746,1026,65535,65700,0,0,4,1460,312,0,16777220,240000,33580,172,65700,0,0,0,2597949482,63
i,1723653520.360123,10.0.2.15,22,10.0.2.2,50582,1073725440,17746,1026,65535,65700,0,0,4,1460,312,0,16777220,240000,33580,172,65700,0,172,0,2597949482,63
o,1723653520.360173,10.0.2.15,22,10.0.2.2,50582,1073725440,17918,1026,65535,65700,0,0,4,1460,312,0,16777220,240000,33580,72,65700,0,0,0,2597949482,63
i,1723653520.360707,10.0.2.15,22,10.0.2.2,50582,1073725440,17918,1026,65535,65700,0,0,4,1460,312,0,16777220,240000,33580,72,65700,0,72,0,2597949482,63
i,1723653520.360722,10.0.2.15,22,10.0.2.2,50582,1073725440,17990,1026,65535,65700,0,0,4,1460,312,0,4,240000,33580,0,65700,0,0,0,2597949482,63
i,1723653520.360737,10.0.2.15,22,10.0.2.2,50582,1073725440,17990,1026,65535,65700,0,0,4,1460,312,0,4,240000,33580,0,65700,96,0,0,2597949482,63
o,1723653520.360753,10.0.2.15,22,10.0.2.2,50582,1073725440,17990,1026,65535,65604,0,0,5,1460,312,0,5,240000,33580,0,65700,96,0,0,2597949482,63
o,1723653520.361269,10.0.2.15,22,10.0.2.2,50582,1073725440,17990,1026,65535,65604,0,0,8,1460,312,0,4,240000,33580,0,65700,0,0,0,2597949482,63
i,1723653520.361909,10.0.2.15,22,10.0.2.2,50582,1073725440,17990,1026,65535,65604,0,0,8,1460,312,0,67108884,240000,33580,0,65700,0,1,0,2597949482,63
i,1723653522.634636,10.0.2.15,22,10.0.2.2,50584,1073725440,14600,0,65535,65700,0,0,4,1460,312,0,16777216,270000,33580,0,65700,0,0,0,3061791435,63
o,1723653522.645138,10.0.2.15,22,10.0.2.2,50584,1073725440,14600,1026,65535,65700,0,0,4,1460,312,0,16777216,270000,33580,38,65700,42,0,0,3061791435,63
i,1723653522.645853,10.0.2.15,22,10.0.2.2,50584,1073725440,14600,1026,65535,65700,0,0,4,1460,312,0,16777216,270000,33580,38,65700,0,38,0,3061791435,63
i,1723653522.645901,10.0.2.15,22,10.0.2.2,50584,1073725440,14638,1026,65535,65700,0,0,4,1460,312,0,0,240000,33580,0,65700,0,0,0,3061791435,63
i,1723653522.645966,10.0.2.15,22,10.0.2.2,50584,1073725440,14638,1026,65535,65700,0,0,4,1460,312,0,0,240000,33580,0,65700,1460,0,0,3061791435,63
o,1723653522.645983,10.0.2.15,22,10.0.2.2,50584,1073725440,14638,1026,65535,65700,0,0,4,1460,312,0,1,240000,33580,0,65700,1536,0,0,3061791435,63
o,1723653522.646733,10.0.2.15,22,10.0.2.2,50584,1073725440,14638,1026,65535,65700,0,0,4,1460,312,0,16777216,240000,33580,1120,65700,1536,0,0,3061791435,63
i,1723653522.647410,10.0.2.15,22,10.0.2.2,50584,1073725440,14638,1026,65535,65700,0,0,4,1460,312,0,16777216,240000,33580,1120,65700,0,1120,0,3061791435,63
i,1723653522.648699,10.0.2.15,22,10.0.2.2,50584,1073725440,15758,1026,65535,65700,0,0,4,1460,312,0,0,240000,33580,0,65700,0,0,0,3061791435,63
o,1723653522.651782,10.0.2.15,22,10.0.2.2,50584,1073725440,15758,1026,65535,65700,0,0,4,1460,312,0,16777216,240000,33580,492,65700,0,0,0,3061791435,63
i,1723653522.652200,10.0.2.15,22,10.0.2.2,50584,1073725440,15758,1026,65535,65700,0,0,4,1460,312,0,16777216,240000,33580,492,65700,0,492,0,3061791435,63
i,1723653522.656750,10.0.2.15,22,10.0.2.2,50584,1073725440,16250,1026,65535,65700,0,0,4,1460,312,0,0,230000,33580,0,65700,0,0,0,3061791435,63
i,1723653522.656775,10.0.2.15,22,10.0.2.2,50584,1073725440,16250,1026,65535,65700,0,0,4,1460,312,0,0,230000,33580,0,65700,16,0,0,3061791435,63
o,1723653522.656798,10.0.2.15,22,10.0.2.2,50584,1073725440,16250,1026,65535,65700,0,0,4,1460,312,0,1,230000,33580,0,65700,60,0,0,3061791435,63
o,1723653522.657089,10.0.2.15,22,10.0.2.2,50584,1073725440,16250,1026,65535,65700,0,0,4,1460,312,0,16777216,230000,33580,44,65700,0,0,0,3061791435,63
i,1723653522.658493,10.0.2.15,22,10.0.2.2,50584,1073725440,16250,1026,65535,65700,0,0,4,1460,312,0,16777216,230000,33580,44,65700,0,44,0,3061791435,63
i,1723653522.658511,10.0.2.15,22,10.0.2.2,50584,1073725440,16294,1026,65535,65700,0,0,4,1460,312,0,0,230000,33580,0,65700,0,0,0,3061791435,63
o,1723653522.660483,10.0.2.15,22,10.0.2.2,50584,1073725440,16294,1026,65535,65700,0,0,4,1460,312,0,16777216,230000,33580,68,65700,0,0,0,3061791435,63
i,1723653522.661276,10.0.2.15,22,10.0.2.2,50584,1073725440,16294,1026,65535,65700,0,0,4,1460,312,0,16777216,230000,33580,68,65700,0,68,0,3061791435,63
i,1723653522.661303,10.0.2.15,22,10.0.2.2,50584,1073725440,16362,1026,65535,65700,0,0,4,1460,312,0,0,230000,33580,0,65700,0,0,0,3061791435,63
o,1723653522.665136,10.0.2.15,22,10.0.2.2,50584,1073725440,16362,1026,65535,65700,0,0,4,1460,312,0,16777216,230000,33580,332,65700,0,0,0,3061791435,63
i,1723653522.666794,10.0.2.15,22,10.0.2.2,50584,1073725440,16362,1026,65535,65700,0,0,4,1460,312,0,16777216,230000,33580,332,65700,0,332,0,3061791435,63
i,1723653522.666922,10.0.2.15,22,10.0.2.2,50584,1073725440,16694,1026,65535,65700,0,0,4,1460,312,0,0,230000,33580,0,65700,0,0,0,3061791435,63
o,1723653522.683673,10.0.2.15,22,10.0.2.2,50584,1073725440,16694,1026,65535,65700,0,0,4,1460,312,0,16777216,230000,33580,28,65700,0,0,0,3061791435,63
i,1723653522.685263,10.0.2.15,22,10.0.2.2,50584,1073725440,16694,1026,65535,65700,0,0,4,1460,312,0,16777216,230000,33580,28,65700,0,28,0,3061791435,63
i,1723653522.685319,10.0.2.15,22,10.0.2.2,50584,1073725440,16722,1026,65535,65700,0,0,4,1460,312,0,0,240000,33580,0,65700,0,0,0,3061791435,63
o,1723653522.687762,10.0.2.15,22,10.0.2.2,50584,1073725440,16722,1026,65535,65700,0,0,4,1460,312,0,16777216,240000,33580,768,65700,112,0,0,3061791435,63
i,1723653522.688608,10.0.2.15,22,10.0.2.2,50584,1073725440,16722,1026,65535,65700,0,0,4,1460,312,0,16777216,240000,33580,908,65700,112,768,0,3061791435,63
o,1723653522.688644,10.0.2.15,22,10.0.2.2,50584,1073725440,17490,1026,65535,65700,0,0,4,1460,312,0,16777216,240000,33580,140,65700,112,0,0,3061791435,63
i,1723653522.689936,10.0.2.15,22,10.0.2.2,50584,1073725440,17490,1026,65535,65700,0,0,4,1460,312,0,16777216,240000,33580,140,65700,0,140,0,3061791435,63
o,1723653522.690184,10.0.2.15,22,10.0.2.2,50584,1073725440,17630,1026,65535,65700,0,0,4,1460,312,0,16777216,240000,33580,44,65700,0,0,0,3061791435,63
i,1723653522.691311,10.0.2.15,22,10.0.2.2,50584,1073725440,17630,1026,65535,65700,0,0,4,1460,312,0,16777216,240000,33580,44,65700,0,44,0,3061791435,63
i,1723653522.691327,10.0.2.15,22,10.0.2.2,50584,1073725440,17674,1026,65535,65700,0,0,4,1460,312,0,0,240000,33580,0,65700,0,0,0,3061791435,63
o,1723653522.691963,10.0.2.15,22,10.0.2.2,50584,1073725440,17674,1026,65535,65700,0,0,4,1460,312,0,16777220,240000,33580,72,65700,0,0,0,3061791435,63
i,1723653522.692919,10.0.2.15,22,10.0.2.2,50584,1073725440,17674,1026,65535,65700,0,0,4,1460,312,0,16777220,240000,33580,72,65700,0,72,0,3061791435,63
o,1723653522.695794,10.0.2.15,22,10.0.2.2,50584,1073725440,17746,1026,65535,65700,0,0,4,1460,312,0,16777220,240000,33580,104,65700,0,0,0,3061791435,63
i,1723653522.696289,10.0.2.15,22,10.0.2.2,50584,1073725440,17746,1026,65535,65700,0,0,4,1460,312,0,16777220,240000,33580,104,65700,0,104,0,3061791435,63
o,1723653522.696653,10.0.2.15,22,10.0.2.2,50584,1073725440,17850,1026,65535,65700,0,0,4,1460,312,0,16777220,240000,33580,72,65700,0,0,0,3061791435,63
i,1723653522.697567,10.0.2.15,22,10.0.2.2,50584,1073725440,17850,1026,65535,65700,0,0,4,1460,312,0,16777220,240000,33580,72,65700,0,72,0,3061791435,63
i,1723653522.697616,10.0.2.15,22,10.0.2.2,50584,1073725440,17922,1026,65535,65700,0,0,4,1460,312,0,4,240000,33580,0,65700,0,0,0,3061791435,63
i,1723653522.697686,10.0.2.15,22,10.0.2.2,50584,1073725440,17922,1026,65535,65700,0,0,4,1460,312,0,4,240000,33580,0,65700,96,0,0,3061791435,63
o,1723653522.697706,10.0.2.15,22,10.0.2.2,50584,1073725440,17922,1026,65535,65604,0,0,5,1460,312,0,5,240000,33580,0,65700,96,0,0,3061791435,63
o,1723653522.703231,10.0.2.15,22,10.0.2.2,50584,1073725440,17922,1026,65535,65604,0,0,8,1460,312,0,4,240000,33580,0,65700,0,0,0,3061791435,63
i,1723653522.704940,10.0.2.15,22,10.0.2.2,50584,1073725440,17922,1026,65535,65604,0,0,8,1460,312,0,67108884,240000,33580,0,65700,0,1,0,3061791435,63
i,1723653524.868023,10.0.2.15,22,10.0.2.2,50594,1073725440,14600,0,65535,65700,0,0,4,1460,312,0,16777216,270000,33580,0,65700,0,0,0,767456159,63
o,1723653524.879533,10.0.2.15,22,10.0.2.2,50594,1073725440,14600,1026,65535,65700,0,0,4,1460,312,0,16777216,270000,33580,38,65700,42,0,0,767456159,63
i,1723653524.879986,10.0.2.15,22,10.0.2.2,50594,1073725440,14600,1026,65535,65700,0,0,4,1460,312,0,16777216,270000,33580,38,65700,0,38,0,767456159,63
i,1723653524.880399,10.0.2.15,22,10.0.2.2,50594,1073725440,14638,1026,65535,65700,0,0,4,1460,312,0,0,240000,33580,0,65700,0,0,0,767456159,63
i,1723653524.880425,10.0.2.15,22,10.0.2.2,50594,1073725440,14638,1026,65535,65700,0,0,4,1460,312,0,0,240000,33580,0,65700,1460,0,0,767456159,63
o,1723653524.880450,10.0.2.15,22,10.0.2.2,50594,1073725440,14638,1026,65535,65700,0,0,4,1460,312,0,1,240000,33580,0,65700,1536,0,0,767456159,63
o,1723653524.881216,10.0.2.15,22,10.0.2.2,50594,1073725440,14638,1026,65535,65700,0,0,4,1460,312,0,16777216,240000,33580,1120,65700,1536,0,0,767456159,63
i,1723653524.882393,10.0.2.15,22,10.0.2.2,50594,1073725440,14638,1026,65535,65700,0,0,4,1460,312,0,16777216,240000,33580,1120,65700,0,1120,0,767456159,63
i,1723653524.883234,10.0.2.15,22,10.0.2.2,50594,1073725440,15758,1026,65535,65700,0,0,4,1460,312,0,0,240000,33580,0,65700,0,0,0,767456159,63
o,1723653524.886139,10.0.2.15,22,10.0.2.2,50594,1073725440,15758,1026,65535,65700,0,0,4,1460,312,0,16777216,240000,33580,492,65700,0,0,0,767456159,63
i,1723653524.886440,10.0.2.15,22,10.0.2.2,50594,1073725440,15758,1026,65535,65700,0,0,4,1460,312,0,16777216,240000,33580,492,65700,0,492,0,767456159,63
i,1723653524.890950,10.0.2.15,22,10.0.2.2,50594,1073725440,16250,1026,65535,65700,0,0,4,1460,312,0,0,240000,33580,0,65700,0,0,0,767456159,63
i,1723653524.890968,10.0.2.15,22,10.0.2.2,50594,1073725440,16250,1026,65535,65700,0,0,4,1460,312,0,0,240000,33580,0,65700,16,0,0,767456159,63
o,1723653524.890984,10.0.2.15,22,10.0.2.2,50594,1073725440,16250,1026,65535,65700,0,0,4,1460,312,0,1,240000,33580,0,65700,60,0,0,767456159,63
o,1723653524.891186,10.0.2.15,22,10.0.2.2,50594,1073725440,16250,1026,65535,65700,0,0,4,1460,312,0,16777216,240000,33580,44,65700,0,0,0,767456159,63
i,1723653524.891636,10.0.2.15,22,10.0.2.2,50594,1073725440,16250,1026,65535,65700,0,0,4,1460,312,0,16777216,240000,33580,44,65700,0,44,0,767456159,63
i,1723653524.891655,10.0.2.15,22,10.0.2.2,50594,1073725440,16294,1026,65535,65700,0,0,4,1460,312,0,0,240000,33580,0,65700,0,0,0,767456159,63
o,1723653524.892962,10.0.2.15,22,10.0.2.2,50594,1073725440,16294,1026,65535,65700,0,0,4,1460,312,0,16777216,240000,33580,68,65700,0,0,0,767456159,63
i,1723653524.893374,10.0.2.15,22,10.0.2.2,50594,1073725440,16294,1026,65535,65700,0,0,4,1460,312,0,16777216,240000,33580,68,65700,0,68,0,767456159,63
i,1723653524.893392,10.0.2.15,22,10.0.2.2,50594,1073725440,16362,1026,65535,65700,0,0,4,1460,312,0,0,240000,33580,0,65700,0,0,0,767456159,63
o,1723653524.894445,10.0.2.15,22,10.0.2.2,50594,1073725440,16362,1026,65535,65700,0,0,4,1460,312,0,16777216,240000,33580,332,65700,0,0,0,767456159,63
i,1723653524.895224,10.0.2.15,22,10.0.2.2,50594,1073725440,16362,1026,65535,65700,0,0,4,1460,312,0,16777216,240000,33580,332,65700,0,332,0,767456159,63
i,1723653524.896390,10.0.2.15,22,10.0.2.2,50594,1073725440,16694,1026,65535,65700,0,0,4,1460,312,0,0,240000,33580,0,65700,0,0,0,767456159,63
o,1723653524.917709,10.0.2.15,22,10.0.2.2,50594,1073725440,16694,1026,65535,65700,0,0,4,1460,312,0,16777216,240000,33580,28,65700,0,0,0,767456159,63
i,1723653524.918149,10.0.2.15,22,10.0.2.2,50594,1073725440,16694,1026,65535,65700,0,0,4,1460,312,0,16777216,240000,33580,28,65700,0,28,0,767456159,63
o,1723653524.919276,10.0.2.15,22,10.0.2.2,50594,1073725440,16722,1026,65535,65700,0,0,4,1460,312,0,16777216,240000,33580,768,65700,0,0,0,767456159,63
i,1723653524.920648,10.0.2.15,22,10.0.2.2,50594,1073725440,16722,1026,65535,65700,0,0,4,1460,312,0,16777216,240000,33580,908,65700,0,768,0,767456159,63
i,1723653524.920666,10.0.2.15,22,10.0.2.2,50594,1073725440,16722,1026,65535,65700,0,0,4,1460,312,0,16777216,240000,33580,908,65700,112,768,0,767456159,63
o,1723653524.920684,10.0.2.15,22,10.0.2.2,50594,1073725440,17490,1026,65535,65700,0,0,4,1460,312,0,16777216,240000,33580,140,65700,112,0,0,767456159,63
i,1723653524.921012,10.0.2.15,22,10.0.2.2,50594,1073725440,17490,1026,65535,65700,0,0,4,1460,312,0,16777216,240000,33580,140,65700,112,140,0,767456159,63
o,1723653524.921292,10.0.2.15,22,10.0.2.2,50594,1073725440,17630,1026,65535,65700,0,0,4,1460,312,0,16777216,240000,33580,44,65700,0,0,0,767456159,63
i,1723653524.921775,10.0.2.15,22,10.0.2.2,50594,1073725440,17630,1026,65535,65700,0,0,4,1460,312,0,16777216,240000,33580,44,65700,0,44,0,767456159,63
i,1723653524.921794,10.0.2.15,22,10.0.2.2,50594,1073725440,17674,1026,65535,65700,0,0,4,1460,312,0,0,240000,33580,0,65700,0,0,0,767456159,63
o,1723653524.922479,10.0.2.15,22,10.0.2.2,50594,1073725440,17674,1026,65535,65700,0,0,4,1460,312,0,16777220,240000,33580,72,65700,0,0,0,767456159,63
i,1723653524.922877,10.0.2.15,22,10.0.2.2,50594,1073725440,17674,1026,65535,65700,0,0,4,1460,312,0,16777220,240000,33580,72,65700,0,72,0,767456159,63
i,1723653524.922893,10.0.2.15,22,10.0.2.2,50594,1073725440,17746,1026,65535,65700,0,0,4,1460,312,0,4,240000,33580,0,65700,0,0,0,767456159,63
o,1723653524.963016,10.0.2.15,22,10.0.2.2,50594,1073725440,17746,1026,65535,65700,0,0,4,1460,312,0,5,240000,33580,0,65700,0,0,0,767456159,63
o,1723653525.042469,172.16.3.2,34527,172.16.1.2,5101,23916,14480,34,65535,65700,6,6,4,1460,161875,1,16778209,560000,33580,0,65700,0,0,0,599461117,63
o,1723653525.042857,172.16.3.2,34527,172.16.1.2,5101,23916,14480,34,65535,65700,6,6,4,1460,161875,1,16778212,560000,33580,37,65700,0,0,0,599461117,63
i,1723653525.158008,172.16.3.2,34527,172.16.1.2,5101,23916,14480,34,65535,65700,6,6,4,1460,161875,1,16778212,560000,33580,37,65700,0,37,0,599461117,63
o,1723653525.158414,172.16.3.2,34527,172.16.1.2,5101,23916,14517,1058,65728,65728,6,6,4,1460,155625,1,16778212,560000,33580,4,65700,0,0,0,599461117,63
o,1723653525.158577,172.16.3.2,34527,172.16.1.2,5101,23916,14517,1058,65728,65728,6,6,4,1460,155625,1,16778212,560000,33580,130,65700,0,4,0,599461117,63
i,1723653525.280463,172.16.3.2,34527,172.16.1.2,5101,23916,14517,1058,65728,65728,6,6,4,1460,155625,1,16778212,560000,33580,130,65700,0,130,0,599461117,63
i,1723653525.280500,172.16.3.2,34527,172.16.1.2,5101,23916,14647,1058,65600,65728,6,6,4,1460,151250,1,996,540000,33580,0,65700,0,0,0,599461117,63
o,1723653525.378063,172.16.3.2,34527,172.16.1.2,5101,23916,14647,1058,65728,65728,6,6,4,1460,151250,1,997,540000,33580,0,65700,0,0,0,599461117,63
o,1723653525.398722,172.16.3.2,47036,172.16.1.2,5101,23916,14480,34,65535,65700,6,6,4,1460,161875,1,16778209,560000,33580,0,65700,0,0,0,2541965811,63
o,1723653525.398957,172.16.3.2,47036,172.16.1.2,5101,23916,14480,34,65535,65700,6,6,4,1460,161875,1,16778208,560000,33580,37,65700,0,0,0,2541965811,63
i,1723653525.508016,172.16.3.2,34527,172.16.1.2,5101,23916,14647,1058,65728,65728,6,6,4,1460,151250,1,996,540000,33580,0,65700,0,0,0,599461117,63
i,1723653525.508104,172.16.3.2,34527,172.16.1.2,5101,23916,14647,1058,65728,65728,6,6,4,1460,151250,1,996,540000,33580,0,65700,1,0,0,599461117,63
o,1723653525.508149,172.16.3.2,34527,172.16.1.2,5101,23916,14647,1058,65728,65728,6,6,4,1460,151250,1,997,540000,33580,0,65700,2,0,0,599461117,63
o,1723653525.508676,172.16.3.2,47036,172.16.1.2,5101,23916,14480,38,65535,65700,6,6,4,1460,161875,1,16778208,560000,33580,33580,65700,0,37,0,2541965811,63
i,1723653525.538639,172.16.3.2,47036,172.16.1.2,5101,23916,14480,38,65535,65700,6,6,4,1460,161875,1,16778208,560000,33580,33580,65700,0,13069,0,2541965811,63
o,1723653525.538665,172.16.3.2,47036,172.16.1.2,5101,23916,14517,38,65728,65728,6,6,4,1460,158125,1,16778208,540000,33580,33543,65700,0,13032,0,2541965811,63
i,1723653526.068445,172.16.3.2,47036,172.16.1.2,5101,23916,14517,38,65728,65728,6,6,4,1460,158125,1,16778208,540000,33580,33543,65700,0,14480,0,2541965811,63
o,1723653526.068516,172.16.3.2,47036,172.16.1.2,5101,23916,15965,38,65728,65728,6,6,4,1460,208437,1,16778208,950000,33580,32095,65700,0,13032,0,2541965811,63
i,1723653526.068747,172.16.3.2,47036,172.16.1.2,5101,23916,15965,38,65728,65728,6,6,4,1460,208437,1,16778208,950000,33580,32095,65700,0,15928,0,2541965811,63
o,1723653526.068769,172.16.3.2,47036,172.16.1.2,5101,23916,18861,38,64256,65728,6,6,4,1460,252500,1,16778208,1210000,33580,29199,65700,0,13032,0,2541965811,63
i,1723653526.068912,172.16.3.2,47036,172.16.1.2,5101,23916,18861,38,64256,65728,6,6,4,1460,252500,1,16778208,1210000,33580,29199,65700,0,18824,0,2541965811,63
o,1723653526.068936,172.16.3.2,47036,172.16.1.2,5101,23916,20309,38,65728,65728,6,6,4,1460,290937,1,16778208,1370000,33580,27751,65700,0,17376,0,2541965811,63
i,1723653526.069114,172.16.3.2,47036,172.16.1.2,5101,23916,20309,38,65728,65728,6,6,4,1460,290937,1,16778208,1370000,33580,27751,65700,0,20272,0,2541965811,63
o,1723653526.069130,172.16.3.2,47036,172.16.1.2,5101,23916,23205,38,64256,65728,6,6,4,1460,324687,1,16778208,1450000,33580,24855,65700,0,17376,0,2541965811,63
i,1723653526.071764,172.16.3.2,47036,172.16.1.2,5101,23916,23205,38,64256,65728,6,6,4,1460,324687,1,16778208,1450000,49964,49964,65700,0,23168,0,2541965811,63
o,1723653526.071784,172.16.3.2,47036,172.16.1.2,5101,23916,26101,38,64256,65728,6,6,4,1460,354375,1,16778208,1480000,49964,47068,65700,0,20272,0,2541965811,63
i,1723653526.396901,172.16.3.2,47036,172.16.1.2,5101,23916,26101,38,64256,65728,6,6,4,1460,354375,1,16778208,1480000,58156,58156,65700,0,26064,0,2541965811,63
o,1723653526.396993,172.16.3.2,47036,172.16.1.2,5101,23916,26101,38,64256,65728,6,6,4,1460,421562,1,16778208,1860000,58156,55260,65700,0,23168,0,2541965811,63
o,1723653526.397160,172.16.3.2,47036,172.16.1.2,5101,23916,26101,38,64256,65728,6,6,4,1460,421562,1,16778208,1860000,58156,55260,65700,0,24616,0,2541965811,63
i,1723653526.828321,172.16.3.2,47036,172.16.1.2,5101,23916,26101,38,64256,65728,6,6,4,1460,421562,1,16778208,1860000,58156,58156,65700,0,26064,0,2541965811,63
o,1723653526.828357,172.16.3.2,47036,172.16.1.2,5101,23916,26101,38,64256,65728,6,6,4,1460,464062,1,16778208,1930000,58156,55260,65700,0,23168,0,2541965811,63
i,1723653526.828523,172.16.3.2,47036,172.16.1.2,5101,23916,26101,38,64256,65728,6,6,4,1460,464062,1,16778208,1930000,58156,55260,65700,0,26064,0,2541965811,63
o,1723653526.828541,172.16.3.2,47036,172.16.1.2,5101,23916,26101,38,64256,65728,6,6,4,1460,501250,1,16778208,1950000,58156,52364,65700,0,23168,0,2541965811,63
i,1723653526.828685,172.16.3.2,47036,172.16.1.2,5101,23916,26101,38,64256,65728,6,6,4,1460,501250,1,16778208,1950000,58156,52364,65700,0,26064,0,2541965811,63
o,1723653526.828702,172.16.3.2,47036,172.16.1.2,5101,23916,26101,38,64256,65728,6,6,4,1460,533750,1,16778208,1930000,58156,49468,65700,0,23168,0,2541965811,63
i,1723653526.829670,172.16.3.2,47036,172.16.1.2,5101,23916,26101,38,64256,65728,6,6,4,1460,533750,1,16778208,1930000,58156,58156,65700,0,26064,0,2541965811,63
o,1723653526.829689,172.16.3.2,47036,172.16.1.2,5101,23916,26101,38,64256,65728,6,6,4,1460,562187,1,16778208,1880000,58156,55260,65700,0,23168,0,2541965811,63
i,1723653526.829835,172.16.3.2,47036,172.16.1.2,5101,23916,26101,38,64256,65728,6,6,4,1460,562187,1,16778208,1880000,58156,55260,65700,0,26064,0,2541965811,63
o,1723653526.829851,172.16.3.2,47036,172.16.1.2,5101,23916,26101,38,64256,65728,6,6,4,1460,587187,1,16778208,1830000,58156,52364,65700,0,23168,0,2541965811,63
i,1723653526.830005,172.16.3.2,47036,172.16.1.2,5101,23916,26101,38,64256,65728,6,6,4,1460,587187,1,16778208,1830000,58156,52364,65700,0,26064,0,2541965811,63
o,1723653526.830020,172.16.3.2,47036,172.16.1.2,5101,23916,26101,38,64256,65728,6,6,4,1460,609062,1,16778208,1770000,58156,49468,65700,0,23168,0,2541965811,63
i,1723653526.852954,172.16.3.2,47036,172.16.1.2,5101,23916,26101,38,64256,65728,6,6,4,1460,609062,1,16778208,1770000,58156,58156,65700,0,26064,0,2541965811,63
o,1723653526.852978,172.16.3.2,47036,172.16.1.2,5101,23916,26101,38,65728,65728,6,6,4,1460,631875,1,16778208,1730000,58156,56708,65700,0,24616,0,2541965811,63
i,1723653526.853144,172.16.3.2,47036,172.16.1.2,5101,23916,26101,38,65728,65728,6,6,4,1460,631875,1,16778208,1730000,58156,56708,65700,0,26064,0,2541965811,63
o,1723653526.853163,172.16.3.2,47036,172.16.1.2,5101,13050,26064,38,64256,65728,6,6,4,1460,651875,1,553649120,1690000,58156,53812,65700,0,23168,0,2541965811,63
i,1723653526.997471,172.16.3.2,47036,172.16.1.2,5101,13050,26064,38,64256,65728,6,6,4,1460,651875,1,553649120,1690000,58156,58156,65700,0,26064,0,2541965811,63
o,1723653526.997552,172.16.3.2,47036,172.16.1.2,5101,13050,24616,34,64256,65728,6,6,4,1460,686875,1,553649120,1790000,58156,55260,65700,0,23168,0,2541965811,63
i,1723653527.140359,172.16.3.2,47036,172.16.1.2,5101,13050,24616,34,64256,65728,6,6,4,1460,686875,1,553649120,1790000,58156,58156,65700,0,24616,0,2541965811,63
i,1723653527.478874,172.16.3.2,47036,172.16.1.2,5101,13050,23168,34,65728,65728,6,6,4,1460,693750,1,553649120,1630000,58156,56708,65700,0,23168,0,2541965811,63
o,1723653527.478911,172.16.3.2,47036,172.16.1.2,5101,13050,21720,34,64256,65728,6,6,4,1460,688437,1,553649120,1480000,58156,53812,65700,0,20272,0,2541965811,63
i,1723653527.479044,172.16.3.2,47036,172.16.1.2,5101,13050,21720,34,64256,65728,6,6,4,1460,688437,1,553649120,1480000,58156,53812,65700,0,21720,0,2541965811,63
o,1723653527.479060,172.16.3.2,47036,172.16.1.2,5101,13050,20272,34,64256,65728,6,6,4,1460,683750,1,553649120,1370000,58156,50916,65700,0,18824,0,2541965811,63
i,1723653527.480133,172.16.3.2,47036,172.16.1.2,5101,13050,20272,34,64256,65728,6,6,4,1460,683750,1,553649120,1370000,58156,58156,65700,0,20272,0,2541965811,63
o,1723653527.480155,172.16.3.2,47036,172.16.1.2,5101,13050,18824,34,64256,65728,6,6,4,1460,679687,1,553649120,1270000,58156,55260,65700,0,17376,0,2541965811,63
i,1723653527.518094,172.16.3.2,47036,172.16.1.2,5101,13050,18824,34,64256,65728,6,6,4,1460,679687,1,553649120,1270000,58156,58156,65700,0,18824,0,2541965811,63
o,1723653527.518145,172.16.3.2,47036,172.16.1.2,5101,13050,17376,34,64256,65728,6,6,4,1460,681250,1,553649120,1190000,58156,55260,65700,0,15928,0,2541965811,63
i,1723653527.518372,172.16.3.2,47036,172.16.1.2,5101,13050,17376,34,64256,65728,6,6,4,1460,681250,1,553649120,1190000,58156,55260,65700,0,17376,0,2541965811,63
o,1723653527.518404,172.16.3.2,47036,172.16.1.2,5101,13050,14480,38,64256,65728,6,6,4,1460,682500,1,553649120,1120000,58156,49468,65700,0,11584,0,2541965811,63
i,1723653527.588934,172.16.3.2,47036,172.16.1.2,5101,13050,14480,38,64256,65728,6,6,4,1460,682500,1,553649120,1120000,58156,58156,65700,0,14480,0,2541965811,63
o,1723653527.589014,172.16.3.2,47036,172.16.1.2,5101,13050,14480,38,64256,65728,6,6,4,1460,688437,1,16778208,1120000,58156,55260,65700,0,11584,0,2541965811,63
i,1723653527.607184,172.16.3.2,47036,172.16.1.2,5101,13050,14480,38,64256,65728,6,6,4,1460,688437,1,16778208,1120000,58156,58156,65700,0,14480,0,2541965811,63
o,1723653527.607250,172.16.3.2,47036,172.16.1.2,5101,13050,16790,38,65728,65728,6,6,4,1460,696250,1,16778208,1130000,58156,56708,65700,0,13032,0,2541965811,63
i,1723653527.783208,172.16.3.2,47036,172.16.1.2,5101,13050,16790,38,65728,65728,6,6,4,1460,696250,1,16778208,1130000,58156,56708,65700,0,15928,0,2541965811,63
o,1723653527.783242,172.16.3.2,47036,172.16.1.2,5101,13050,16790,38,65728,65728,6,6,4,1460,706875,1,16778208,1170000,58156,55260,65700,0,14480,0,2541965811,63
i,1723653528.019016,172.16.3.2,47036,172.16.1.2,5101,13050,16790,38,65728,65728,6,6,4,1460,706875,1,16778208,1170000,58156,58156,65700,0,15928,0,2541965811,63
o,1723653528.019110,172.16.3.2,47036,172.16.1.2,5101,13050,16790,38,64256,65728,6,6,4,1460,686250,1,16778208,1250000,58156,55260,65700,0,13032,0,2541965811,63
i,1723653528.019307,172.16.3.2,47036,172.16.1.2,5101,13050,16790,38,64256,65728,6,6,4,1460,686250,1,16778208,1250000,58156,55260,65700,0,15928,0,2541965811,63
o,1723653528.019324,172.16.3.2,47036,172.16.1.2,5101,13050,16790,38,65728,65728,6,6,4,1460,668125,1,16778208,1280000,58156,53812,65700,0,14480,0,2541965811,63
i,1723653528.060646,172.16.3.2,47036,172.16.1.2,5101,13050,16790,38,65728,65728,6,6,4,1460,668125,1,16778208,1280000,58156,56708,65700,0,15928,0,2541965811,63
o,1723653528.060695,172.16.3.2,47036,172.16.1.2,5101,13050,16790,38,65728,65728,6,6,4,1460,652187,1,16778208,1290000,58156,55260,65700,0,14480,0,2541965811,63
i,1723653528.062231,172.16.3.2,47036,172.16.1.2,5101,13050,16790,38,65728,65728,6,6,4,1460,652187,1,16778208,1290000,58156,58156,65700,0,15928,0,2541965811,63
o,1723653528.062271,172.16.3.2,47036,172.16.1.2,5101,13050,16790,38,64256,65728,6,6,4,1460,629687,1,16778208,1340000,58156,52364,65700,0,10136,0,2541965811,63
i,1723653528.118540,172.16.3.2,47036,172.16.1.2,5101,13050,16790,38,64256,65728,6,6,4,1460,629687,1,16778208,1340000,58156,58156,65700,0,15928,0,2541965811,63
o,1723653528.118614,172.16.3.2,47036,172.16.1.2,5101,13050,16790,38,65728,65728,6,6,4,1460,615000,1,16778208,1310000,58156,56708,65700,0,14480,0,2541965811,63
i,1723653528.318704,172.16.3.2,47036,172.16.1.2,5101,13050,16790,38,65728,65728,6,6,4,1460,615000,1,16778208,1310000,58156,56708,65700,0,15928,0,2541965811,63
o,1723653528.318790,172.16.3.2,47036,172.16.1.2,5101,13050,16790,38,64256,65728,6,6,4,1460,626875,1,16778208,1290000,58156,53812,65700,0,13032,0,2541965811,63
o,1723653528.318912,172.16.3.2,47036,172.16.1.2,5101,13050,16790,38,64256,65728,6,6,4,1460,626875,1,16778208,1290000,58156,53812,65700,0,14480,0,2541965811,63
i,1723653528.538600,172.16.3.2,47036,172.16.1.2,5101,13050,16790,38,64256,65728,6,6,4,1460,626875,1,16778208,1290000,58156,58156,65700,0,15928,0,2541965811,63
o,1723653528.538704,172.16.3.2,47036,172.16.1.2,5101,13050,18250,38,64256,65728,6,6,4,1460,613750,1,16778208,1270000,58156,55260,65700,0,13032,0,2541965811,63
i,1723653528.598287,172.16.3.2,47036,172.16.1.2,5101,13050,18250,38,64256,65728,6,6,4,1460,613750,1,16778208,1270000,58156,58156,65700,0,17376,0,2541965811,63
o,1723653528.598323,172.16.3.2,47036,172.16.1.2,5101,13050,18250,38,65728,65728,6,6,4,1460,609687,1,16778208,1180000,58156,56708,65700,0,15928,0,2541965811,63
i,1723653528.598478,172.16.3.2,47036,172.16.1.2,5101,13050,18250,38,65728,65728,6,6,4,1460,609687,1,16778208,1180000,58156,56708,65700,0,17376,0,2541965811,63
o,1723653528.598495,172.16.3.2,47036,172.16.1.2,5101,13050,18250,38,65728,65728,6,6,4,1460,601250,1,16778208,1150000,58156,55260,65700,0,15928,0,2541965811,63
i,1723653528.608141,172.16.3.2,47036,172.16.1.2,5101,13050,18250,38,65728,65728,6,6,4,1460,601250,1,16778208,1150000,58156,58156,65700,0,17376,0,2541965811,63
o,1723653528.608174,172.16.3.2,47036,172.16.1.2,5101,12760,15928,34,64256,65728,6,6,4,1460,593750,1,553649120,1110000,58156,55260,65700,0,14480,0,2541965811,63
i,1723653528.608354,172.16.3.2,47036,172.16.1.2,5101,12760,15928,34,64256,65728,6,6,4,1460,593750,1,553649120,1110000,58156,55260,65700,0,15928,0,2541965811,63
o,1723653528.608375,172.16.3.2,47036,172.16.1.2,5101,12760,14480,34,64256,65728,6,6,4,1460,587187,1,553649120,1080000,58156,52364,65700,0,13032,0,2541965811,63
i,1723653528.838971,172.16.3.2,47036,172.16.1.2,5101,12760,14480,34,64256,65728,6,6,4,1460,587187,1,553649120,1080000,58156,58156,65700,0,14480,0,2541965811,63
o,1723653528.839014,172.16.3.2,47036,172.16.1.2,5101,12760,14480,34,65728,65728,6,6,4,1460,602812,1,553649120,1150000,58156,56708,65700,0,13032,0,2541965811,63
i,1723653528.839181,172.16.3.2,47036,172.16.1.2,5101,12760,14480,34,65728,65728,6,6,4,1460,602812,1,553649120,1150000,58156,56708,65700,0,14480,0,2541965811,63
o,1723653528.839200,172.16.3.2,47036,172.16.1.2,5101,12760,13032,34,64256,65728,6,6,4,1460,591250,1,553649120,1140000,58156,53812,65700,0,11584,0,2541965811,63
i,1723653529.048918,172.16.3.2,47036,172.16.1.2,5101,12760,13032,34,64256,65728,6,6,4,1460,591250,1,553649120,1140000,58156,58156,65700,0,13032,0,2541965811,63
o,1723653529.048994,172.16.3.2,47036,172.16.1.2,5101,12760,10136,34,65728,65728,6,6,4,1460,580000,1,553649120,1130000,58156,53812,65700,0,8688,0,2541965811,63
i,1723653529.058073,172.16.3.2,47036,172.16.1.2,5101,12760,10136,34,65728,65728,6,6,4,1460,580000,1,553649120,1130000,58156,58156,65700,0,10136,0,2541965811,63
o,1723653529.058170,172.16.3.2,47036,172.16.1.2,5101,12760,10136,38,65728,65728,6,6,4,1460,563750,1,16778208,1160000,58156,52364,65700,0,4344,0,2541965811,63
i,1723653529.171595,172.16.3.2,47036,172.16.1.2,5101,12760,10136,38,65728,65728,6,6,4,1460,563750,1,16778208,1160000,58156,58156,65700,0,10136,0,2541965811,63
o,1723653529.171708,172.16.3.2,47036,172.16.1.2,5101,6006,8688,34,64256,65728,6,6,4,1460,534687,1,553649120,1260000,58156,55260,65700,0,7240,0,2541965811,63
i,1723653529.337961,172.16.3.2,47036,172.16.1.2,5101,6006,8688,34,64256,65728,6,6,4,1460,534687,1,553649120,1260000,58156,58156,65700,0,8688,0,2541965811,63
i,1723653529.338075,172.16.3.2,47036,172.16.1.2,5101,6006,5792,34,64256,65728,6,6,4,1460,504375,1,553649120,1340000,58156,55260,65700,0,5792,0,2541965811,63
i,1723653529.367806,172.16.3.2,47036,172.16.1.2,5101,6006,2896,34,64256,65728,6,6,4,1460,476562,1,553649120,1380000,58156,58156,65700,0,2896,0,2541965811,63
o,1723653529.367851,172.16.3.2,47036,172.16.1.2,5101,6006,4344,34,64256,65728,6,6,4,1460,476562,1,553649120,1380000,58156,58156,65700,0,2896,0,2541965811,63
o,1723653529.368090,172.16.3.2,47036,172.16.1.2,5101,6006,4344,34,65728,65728,6,6,4,1460,455937,1,553649120,1350000,58156,56708,65700,0,2896,0,2541965811,63
i,1723653529.408822,172.16.3.2,47036,172.16.1.2,5101,6006,4344,34,65728,65728,6,6,4,1460,455937,1,553649120,1350000,58156,56708,65700,0,4344,0,2541965811,63
o,1723653529.408914,172.16.3.2,47036,172.16.1.2,5101,6006,4344,34,65728,65728,6,6,4,1460,429062,1,16778208,1360000,58156,55260,65700,0,2896,0,2541965811,63
i,1723653529.561662,172.16.3.2,47036,172.16.1.2,5101,6006,4344,34,65728,65728,6,6,4,1460,429062,1,16778208,1360000,58156,58156,65700,0,4344,0,2541965811,63
o,1723653529.561739,172.16.3.2,47036,172.16.1.2,5101,6006,7240,38,64256,65728,6,6,4,1460,398125,1,16778208,1400000,58156,55260,65700,0,1448,0,2541965811,63
i,1723653529.587016,172.16.3.2,47036,172.16.1.2,5101,6006,7240,38,64256,65728,6,6,4,1460,398125,1,16778208,1400000,58156,58156,65700,0,7240,0,2541965811,63
o,1723653529.587113,172.16.3.2,47036,172.16.1.2,5101,6006,7240,34,65728,65728,6,6,4,1460,370937,1,16778208,1390000,58156,56708,65700,0,5792,0,2541965811,63
i,1723653529.828053,172.16.3.2,47036,172.16.1.2,5101,6006,7240,34,65728,65728,6,6,4,1460,370937,1,16778208,1390000,58156,56708,65700,0,7240,0,2541965811,63
o,1723653529.828100,172.16.3.2,47036,172.16.1.2,5101,6006,7240,38,64256,65728,6,6,4,1460,358437,1,16778208,1270000,58156,53812,65700,0,4344,0,2541965811,63
i,1723653529.859556,172.16.3.2,47036,172.16.1.2,5101,6006,7240,38,64256,65728,6,6,4,1460,358437,1,16778208,1270000,58156,58156,65700,0,7240,0,2541965811,63
o,1723653529.859608,172.16.3.2,47036,172.16.1.2,5101,6006,7240,38,64256,65728,6,6,4,1460,351250,1,16778208,1140000,58156,55260,65700,0,4344,0,2541965811,63
i,1723653529.941879,172.16.3.2,47036,172.16.1.2,5101,6006,7240,38,64256,65728,6,6,4,1460,351250,1,16778208,1140000,58156,58156,65700,0,7240,0,2541965811,63
o,1723653529.941999,172.16.3.2,47036,172.16.1.2,5101,6006,7240,34,65728,65728,6,6,4,1460,351250,1,16778208,990000,58156,56708,65700,0,5792,0,2541965811,63
i,1723653530.123723,172.16.3.2,47036,172.16.1.2,5101,6006,7240,34,65728,65728,6,6,4,1460,351250,1,16778208,990000,58156,56708,65700,0,7240,0,2541965811,63
o,1723653530.123782,172.16.3.2,47036,172.16.1.2,5101,6006,7240,38,64256,65728,6,6,4,1460,343750,1,16778208,940000,58156,53812,65700,0,4344,0,2541965811,63
i,1723653530.137534,172.16.3.2,47036,172.16.1.2,5101,6006,7240,38,64256,65728,6,6,4,1460,343750,1,16778208,940000,58156,58156,65700,0,7240,0,2541965811,63
o,1723653530.137610,172.16.3.2,47036,172.16.1.2,5101,6006,7240,38,64256,65728,6,6,4,1460,335937,1,16778208,890000,58156,55260,65700,0,4344,0,2541965811,63
i,1723653530.268596,172.16.3.2,47036,172.16.1.2,5101,6006,7240,38,64256,65728,6,6,4,1460,335937,1,16778208,890000,58156,58156,65700,0,7240,0,2541965811,63
o,1723653530.268684,172.16.3.2,47036,172.16.1.2,5101,6006,7240,34,65728,65728,6,6,4,1460,335312,1,16778208,810000,58156,56708,65700,0,5792,0,2541965811,63
i,1723653530.355174,172.16.3.2,47036,172.16.1.2,5101,6006,7240,34,65728,65728,6,6,4,1460,335312,1,16778208,810000,58156,56708,65700,0,7240,0,2541965811,63
o,1723653530.355212,172.16.3.2,47036,172.16.1.2,5101,6006,7250,38,64256,65728,6,6,4,1460,322187,1,16778208,830000,58156,53812,65700,0,4344,0,2541965811,63
i,1723653530.382837,172.16.3.2,47036,172.16.1.2,5101,6006,7250,38,64256,65728,6,6,4,1460,322187,1,16778208,830000,58156,58156,65700,0,7240,0,2541965811,63
o,1723653530.382873,172.16.3.2,47036,172.16.1.2,5101,6006,7298,38,64256,65728,6,6,4,1460,313437,1,16778208,820000,58156,55260,65700,0,4344,0,2541965811,63
i,1723653530.567980,172.16.3.2,47036,172.16.1.2,5101,6006,7298,38,64256,65728,6,6,4,1460,313437,1,16778208,820000,58156,58156,65700,0,7240,0,2541965811,63
o,1723653530.568200,172.16.3.2,47036,172.16.1.2,5101,6006,7589,38,65728,65728,6,6,4,1460,311875,1,16778208,750000,58156,56708,65700,0,5792,0,2541965811,63
i,1723653530.608314,172.16.3.2,47036,172.16.1.2,5101,6006,7589,38,65728,65728,6,6,4,1460,311875,1,16778208,750000,58156,56708,65700,0,7240,0,2541965811,63
o,1723653530.608407,172.16.3.2,47036,172.16.1.2,5101,6006,7654,38,64256,65728,6,6,4,1460,304375,1,16778208,740000,58156,53812,65700,0,4344,0,2541965811,63
i,1723653530.617845,172.16.3.2,47036,172.16.1.2,5101,6006,7654,38,64256,65728,6,6,4,1460,304375,1,16778208,740000,58156,58156,65700,0,7240,0,2541965811,63
o,1723653530.617866,172.16.3.2,47036,172.16.1.2,5101,6006,7670,38,64256,65728,6,6,4,1460,295312,1,16778208,750000,58156,55260,65700,0,4344,0,2541965811,63
i,1723653530.888329,172.16.3.2,47036,172.16.1.2,5101,6006,7670,38,64256,65728,6,6,4,1460,295312,1,16778208,750000,58156,58156,65700,0,7240,0,2541965811,63
o,1723653530.888395,172.16.3.2,47036,172.16.1.2,5101,6006,8591,38,65728,65728,6,6,4,1460,298437,1,16778208,710000,58156,56708,65700,0,5792,0,2541965811,63
i,1723653530.888590,172.16.3.2,47036,172.16.1.2,5101,6006,8591,38,65728,65728,6,6,4,1460,298437,1,16778208,710000,58156,56708,65700,0,7240,0,2541965811,63
o,1723653530.888607,172.16.3.2,47036,172.16.1.2,5101,6006,8591,38,64256,65728,6,6,4,1460,296250,1,16778208,670000,58156,53812,65700,0,4344,0,2541965811,63
i,1723653530.888720,172.16.3.2,47036,172.16.1.2,5101,6006,8591,38,64256,65728,6,6,4,1460,296250,1,16778208,670000,58156,53812,65700,0,7240,0,2541965811,63
o,1723653530.888735,172.16.3.2,47036,172.16.1.2,5101,6006,8591,38,65728,65728,6,6,4,1460,293125,1,16778208,650000,58156,52364,65700,0,5792,0,2541965811,63
i,1723653531.035861,172.16.3.2,47036,172.16.1.2,5101,6006,8591,38,65728,65728,6,6,4,1460,293125,1,16778208,650000,58156,58156,65700,0,7240,0,2541965811,63
o,1723653531.036010,172.16.3.2,47036,172.16.1.2,5101,6006,8591,38,65728,65728,6,6,4,1460,309062,1,16778208,750000,58156,56708,65700,0,5792,0,2541965811,63
i,1723653531.186334,172.16.3.2,47036,172.16.1.2,5101,6006,8591,38,65728,65728,6,6,4,1460,309062,1,16778208,750000,58156,56708,65700,0,7240,0,2541965811,63
o,1723653531.186716,172.16.3.2,47036,172.16.1.2,5101,6006,8591,38,64256,65728,6,6,4,1460,308125,1,16778208,700000,58156,53812,65700,0,4344,0,2541965811,63
o,1723653531.187432,172.16.3.2,47036,172.16.1.2,5101,6006,8591,38,64256,65728,6,6,4,1460,308125,1,16778208,700000,58156,53812,65700,0,5792,0,2541965811,63
i,1723653531.188276,172.16.3.2,47036,172.16.1.2,5101,6006,8591,38,64256,65728,6,6,4,1460,308125,1,16778208,700000,58156,53812,65700,0,7240,0,2541965811,63
o,1723653531.188472,172.16.3.2,47036,172.16.1.2,5101,6006,8591,38,64256,65728,6,6,4,1460,307187,1,16778208,660000,58156,50916,65700,0,4344,0,2541965811,63
i,1723653531.409080,172.16.3.2,47036,172.16.1.2,5101,6006,8591,38,64256,65728,6,6,4,1460,307187,1,16778208,660000,58156,58156,65700,0,7240,0,2541965811,63
o,1723653531.409187,172.16.3.2,47036,172.16.1.2,5101,6006,8945,38,65728,65728,6,6,4,1460,315312,1,16778208,690000,58156,56708,65700,0,5792,0,2541965811,63
i,1723653531.458053,172.16.3.2,47036,172.16.1.2,5101,6006,8945,38,65728,65728,6,6,4,1460,315312,1,16778208,690000,58156,56708,65700,0,8688,0,2541965811,63
o,1723653531.458456,172.16.3.2,47036,172.16.1.2,5101,6006,9026,38,64256,65728,6,6,4,1460,309687,1,16778208,690000,58156,53812,65700,0,5792,0,2541965811,63
o,1723653531.459209,172.16.3.2,47036,172.16.1.2,5101,6006,9026,38,64256,65728,6,6,4,1460,309687,1,16778208,690000,58156,53812,65700,0,7240,0,2541965811,63
i,1723653531.459834,172.16.3.2,47036,172.16.1.2,5101,6006,9026,38,64256,65728,6,6,4,1460,309687,1,16778208,690000,58156,53812,65700,0,8688,0,2541965811,63
o,1723653531.459934,172.16.3.2,47036,172.16.1.2,5101,6006,9026,38,64256,65728,6,6,4,1460,305000,1,16778208,680000,58156,50916,65700,0,5792,0,2541965811,63
i,1723653531.648574,172.16.3.2,47036,172.16.1.2,5101,6006,9026,38,64256,65728,6,6,4,1460,305000,1,16778208,680000,58156,58156,65700,0,8688,0,2541965811,63
o,1723653531.648657,172.16.3.2,47036,172.16.1.2,5101,6006,9333,38,64256,65728,6,6,4,1460,296875,1,16778208,690000,58156,55260,65700,0,5792,0,2541965811,63
i,1723653531.677451,172.16.3.2,47036,172.16.1.2,5101,6006,9333,38,64256,65728,6,6,4,1460,296875,1,16778208,690000,58156,58156,65700,0,8688,0,2541965811,63
o,1723653531.677537,172.16.3.2,47036,172.16.1.2,5101,6006,9381,38,64256,65728,6,6,4,1460,286250,1,16778208,720000,58156,55260,65700,0,5792,0,2541965811,63
o,1723653531.677751,172.16.3.2,47036,172.16.1.2,5101,6006,9381,38,64256,65728,6,6,4,1460,286250,1,16778208,720000,58156,55260,65700,0,7240,0,2541965811,63
i,1723653531.697552,172.16.3.2,47036,172.16.1.2,5101,6006,9381,38,64256,65728,6,6,4,1460,286250,1,16778208,720000,58156,58156,65700,0,8688,0,2541965811,63
o,1723653531.697664,172.16.3.2,47036,172.16.1.2,5101,6006,9414,38,64256,65728,6,6,4,1460,279375,1,16778208,710000,58156,55260,65700,0,5792,0,2541965811,63
i,1723653531.909114,172.16.3.2,47036,172.16.1.2,5101,6006,9414,38,64256,65728,6,6,4,1460,279375,1,16778208,710000,58156,58156,65700,0,8688,0,2541965811,63
o,1723653531.909201,172.16.3.2,47036,172.16.1.2,5101,6006,9753,38,65728,65728,6,6,4,1460,275937,1,16778208,670000,58156,56708,65700,0,7240,0,2541965811,63
i,1723653531.931599,172.16.3.2,47036,172.16.1.2,5101,6006,9753,38,65728,65728,6,6,4,1460,275937,1,16778208,670000,58156,56708,65700,0,8688,0,2541965811,63
o,1723653531.931684,172.16.3.2,47036,172.16.1.2,5101,6006,9785,38,65728,65728,6,6,4,1460,276562,1,16778208,630000,58156,55260,65700,0,7240,0,2541965811,63
i,1723653531.931872,172.16.3.2,47036,172.16.1.2,5101,6006,9785,38,65728,65728,6,6,4,1460,276562,1,16778208,630000,58156,55260,65700,0,8688,0,2541965811,63
o,1723653531.931891,172.16.3.2,47036,172.16.1.2,5101,6006,9785,38,64256,65728,6,6,4,1460,273437,1,16778208,610000,58156,52364,65700,0,5792,0,2541965811,63
o,1723653531.932002,172.16.3.2,47036,172.16.1.2,5101,6006,9785,38,64256,65728,6,6,4,1460,273437,1,16778208,610000,58156,52364,65700,0,7240,0,2541965811,63
i,1723653531.957473,172.16.3.2,47036,172.16.1.2,5101,6006,9785,38,64256,65728,6,6,4,1460,273437,1,16778208,610000,58156,58156,65700,0,8688,0,2541965811,63
o,1723653531.957515,172.16.3.2,47036,172.16.1.2,5101,6006,9834,38,64256,65728,6,6,4,1460,271875,1,16778208,590000,58156,55260,65700,0,5792,0,2541965811,63
i,1723653532.228607,172.16.3.2,47036,172.16.1.2,5101,6006,9834,38,64256,65728,6,6,4,1460,271875,1,16778208,590000,58156,58156,65700,0,8688,0,2541965811,63
o,1723653532.228686,172.16.3.2,47036,172.16.1.2,5101,6006,10270,38,64256,65728,6,6,4,1460,278125,1,16778208,620000,58156,55260,65700,0,5792,0,2541965811,63
i,1723653532.275872,172.16.3.2,47036,172.16.1.2,5101,6006,10270,38,64256,65728,6,6,4,1460,278125,1,16778208,620000,58156,58156,65700,0,10136,0,2541965811,63
o,1723653532.275895,172.16.3.2,47036,172.16.1.2,5101,6006,10350,38,64256,65728,6,6,4,1460,285937,1,16778208,650000,58156,55260,65700,0,7240,0,2541965811,63
o,1723653532.276004,172.16.3.2,47036,172.16.1.2,5101,6006,10350,38,64256,65728,6,6,4,1460,285937,1,16778208,650000,58156,55260,65700,0,8688,0,2541965811,63
i,1723653532.322259,172.16.3.2,47036,172.16.1.2,5101,6006,10350,38,64256,65728,6,6,4,1460,285937,1,16778208,650000,58156,58156,65700,0,10136,0,2541965811,63
o,1723653532.322312,172.16.3.2,47036,172.16.1.2,5101,6006,10431,38,64256,65728,6,6,4,1460,295312,1,16778208,690000,58156,55260,65700,0,7240,0,2541965811,63
i,1723653532.558720,172.16.3.2,47036,172.16.1.2,5101,6006,10431,38,64256,65728,6,6,4,1460,295312,1,16778208,690000,58156,58156,65700,0,10136,0,2541965811,63
o,1723653532.558794,172.16.3.2,47036,172.16.1.2,5101,6006,11511,38,64256,65728,6,6,4,1460,299687,1,16778208,680000,58156,55260,65700,0,7240,0,2541965811,63
i,1723653532.559106,172.16.3.2,47036,172.16.1.2,5101,6006,11511,38,64256,65728,6,6,4,1460,299687,1,16778208,680000,58156,55260,65700,0,10136,0,2541965811,63
o,1723653532.559155,172.16.3.2,47036,172.16.1.2,5101,6006,11511,38,65728,65728,6,6,4,1460,303750,1,16778208,670000,58156,53812,65700,0,8688,0,2541965811,63
i,1723653532.579550,172.16.3.2,47036,172.16.1.2,5101,6006,11511,38,65728,65728,6,6,4,1460,303750,1,16778208,670000,58156,58156,65700,0,10136,0,2541965811,63
o,1723653532.579625,172.16.3.2,47036,172.16.1.2,5101,6006,11511,38,64256,65728,6,6,4,1460,303437,1,16778208,630000,58156,55260,65700,0,7240,0,2541965811,63
o,1723653532.579747,172.16.3.2,47036,172.16.1.2,5101,6006,11511,38,64256,65728,6,6,4,1460,303437,1,16778208,630000,58156,55260,65700,0,8688,0,2541965811,63
i,1723653532.669477,172.16.3.2,47036,172.16.1.2,5101,6006,11511,38,64256,65728,6,6,4,1460,303437,1,16778208,630000,58156,58156,65700,0,10136,0,2541965811,63
o,1723653532.669577,172.16.3.2,47036,172.16.1.2,5101,6006,12971,38,64256,65728,6,6,4,1460,308125,1,16778208,640000,58156,55260,65700,0,7240,0,2541965811,63
i,1723653532.949287,172.16.3.2,47036,172.16.1.2,5101,6006,12971,38,64256,65728,6,6,4,1460,308125,1,16778208,640000,58156,56528,65700,0,11584,0,2541965811,63
o,1723653532.949351,172.16.3.2,47036,172.16.1.2,5101,6006,14431,38,64256,65728,6,6,4,1460,318437,1,16778208,700000,58156,53632,65700,0,8688,0,2541965811,63
i,1723653532.949602,172.16.3.2,47036,172.16.1.2,5101,6006,14431,38,64256,65728,6,6,4,1460,318437,1,16778208,700000,58156,53632,65700,0,13032,0,2541965811,63
o,1723653532.949627,172.16.3.2,47036,172.16.1.2,5101,6006,14431,38,65728,65728,6,6,4,1460,327500,1,16778208,740000,58156,52184,65700,0,11584,0,2541965811,63
i,1723653532.968306,172.16.3.2,47036,172.16.1.2,5101,6006,14431,38,65728,65728,6,6,4,1460,327500,1,16778208,740000,58156,58156,65700,0,13032,0,2541965811,63
o,1723653532.968328,172.16.3.2,47036,172.16.1.2,5101,6006,14431,38,64256,65728,6,6,4,1460,334062,1,16778208,740000,58156,55260,65700,0,10136,0,2541965811,63
o,1723653532.968439,172.16.3.2,47036,172.16.1.2,5101,6006,14431,38,64256,65728,6,6,4,1460,334062,1,16778208,740000,58156,55260,65700,0,11584,0,2541965811,63
i,1723653533.078896,172.16.3.2,47036,172.16.1.2,5101,6006,14431,38,64256,65728,6,6,4,1460,334062,1,16778208,740000,58156,58156,65700,0,13032,0,2541965811,63
o,1723653533.078970,172.16.3.2,47036,172.16.1.2,5101,6006,15891,38,65728,65728,6,6,4,1460,343750,1,16778208,780000,58156,56708,65700,0,11584,0,2541965811,63
i,1723653533.087867,172.16.3.2,47036,172.16.1.2,5101,6006,15891,38,65728,65728,6,6,4,1460,343750,1,16778208,780000,58156,56708,65700,0,14480,0,2541965811,63
o,1723653533.087940,172.16.3.2,47036,172.16.1.2,5101,6006,15891,38,64256,65728,6,6,4,1460,353437,1,16778208,810000,58156,53812,65700,0,11584,0,2541965811,63
i,1723653533.387819,172.16.3.2,47036,172.16.1.2,5101,6006,15891,38,64256,65728,6,6,4,1460,353437,1,16778208,810000,58156,58156,65700,0,14480,0,2541965811,63
o,1723653533.387870,172.16.3.2,47036,172.16.1.2,5101,6006,18811,38,64256,65728,6,6,4,1460,364375,1,16778208,840000,58156,55260,65700,0,11584,0,2541965811,63
i,1723653533.398005,172.16.3.2,47036,172.16.1.2,5101,6006,18811,38,64256,65728,6,6,4,1460,364375,1,16778208,840000,58156,58156,65700,0,17376,0,2541965811,63
o,1723653533.398084,172.16.3.2,47036,172.16.1.2,5101,6006,20271,38,64256,65728,6,6,4,1460,375312,1,16778208,870000,58156,55260,65700,0,14480,0,2541965811,63
i,1723653533.407841,172.16.3.2,47036,172.16.1.2,5101,6006,20271,38,64256,65728,6,6,4,1460,375312,1,16778208,870000,58156,58156,65700,0,18824,0,2541965811,63
o,1723653533.407879,172.16.3.2,47036,172.16.1.2,5101,6006,20271,38,65728,65728,6,6,4,1460,383437,1,16778208,870000,58156,56708,65700,0,17376,0,2541965811,63
i,1723653533.596149,172.16.3.2,47036,172.16.1.2,5101,6006,20271,38,65728,65728,6,6,4,1460,383437,1,16778208,870000,58156,56708,65700,0,18824,0,2541965811,63
o,1723653533.596184,172.16.3.2,47036,172.16.1.2,5101,6006,21731,38,64256,65728,6,6,4,1460,414375,1,16778208,1070000,58156,53812,65700,0,15928,0,2541965811,63
i,1723653533.597712,172.16.3.2,47036,172.16.1.2,5101,6006,21731,38,64256,65728,6,6,4,1460,414375,1,16778208,1070000,58156,58156,65700,0,21720,0,2541965811,63
o,1723653533.597731,172.16.3.2,47036,172.16.1.2,5101,6006,21731,38,64256,65728,6,6,4,1460,426562,1,16778208,1070000,58156,55260,65700,0,18824,0,2541965811,63
i,1723653533.879357,172.16.3.2,47036,172.16.1.2,5101,6006,21731,38,64256,65728,6,6,4,1460,426562,1,16778208,1070000,58156,58156,65700,0,21720,0,2541965811,63
o,1723653533.879477,172.16.3.2,47036,172.16.1.2,5101,6006,27571,38,65728,65728,6,6,4,1460,472187,1,16778208,1370000,58156,56708,65700,0,20272,0,2541965811,63
i,1723653533.986887,172.16.3.2,47036,172.16.1.2,5101,6006,27571,38,65728,65728,6,6,4,1460,472187,1,16778208,1370000,58156,56708,65700,0,27512,0,2541965811,63
o,1723653533.986931,172.16.3.2,47036,172.16.1.2,5101,6006,29031,38,64256,65728,6,6,4,1460,488437,1,16778208,1340000,58156,53812,65700,0,24616,0,2541965811,63
i,1723653533.987102,172.16.3.2,47036,172.16.1.2,5101,6006,29031,38,64256,65728,6,6,4,1460,488437,1,16778208,1340000,66348,53812,65700,0,28960,0,2541965811,63
o,1723653533.987125,172.16.3.2,47036,172.16.1.2,5101,6006,29031,38,64256,65728,6,6,4,1460,502500,1,16778208,1310000,66348,50916,65700,0,26064,0,2541965811,63
i,1723653533.987305,172.16.3.2,47036,172.16.1.2,5101,6006,29031,38,64256,65728,6,6,4,1460,502500,1,16778208,1310000,66348,50916,65700,0,28960,0,2541965811,63
o,1723653533.987365,172.16.3.2,47036,172.16.1.2,5101,6006,29031,38,64256,65728,6,6,4,1460,513437,1,16778208,1250000,66348,48020,65700,0,26064,0,2541965811,63
i,1723653534.387981,172.16.3.2,47036,172.16.1.2,5101,6006,29031,38,64256,65728,6,6,4,1460,513437,1,16778208,1250000,66348,66348,65700,0,28960,0,2541965811,63
o,1723653534.388035,172.16.3.2,47036,172.16.1.2,5101,6006,37791,38,64256,65728,6,6,4,1460,571875,1,16778208,1640000,74540,62004,65700,0,24616,0,2541965811,63
o,1723653534.388206,172.16.3.2,47036,172.16.1.2,5101,6006,37791,38,64256,65728,6,6,4,1460,571875,1,16778208,1640000,74540,62004,65700,0,26064,0,2541965811,63
i,1723653534.388422,172.16.3.2,47036,172.16.1.2,5101,6006,37791,38,64256,65728,6,6,4,1460,571875,1,16778208,1640000,74540,62004,65700,0,37648,0,2541965811,63
o,1723653534.388445,172.16.3.2,47036,172.16.1.2,5101,6006,37791,38,64256,65728,6,6,4,1460,599375,1,16778208,1670000,74540,59108,65700,0,34752,0,2541965811,63
i,1723653534.398023,172.16.3.2,47036,172.16.1.2,5101,6006,37791,38,64256,65728,6,6,4,1460,599375,1,16778208,1670000,82732,82732,65700,0,37648,0,2541965811,63
o,1723653534.398043,172.16.3.2,47036,172.16.1.2,5101,26424,39096,34,64256,65728,6,6,4,1460,599375,1,553649120,1670000,82732,82732,65700,0,37648,0,2541965811,63
o,1723653534.398189,172.16.3.2,47036,172.16.1.2,5101,26424,39096,38,64256,65728,6,6,4,1460,624687,1,553649120,1680000,82732,79836,65700,0,36200,0,2541965811,63
i,1723653534.484608,172.16.3.2,47036,172.16.1.2,5101,26424,39096,38,64256,65728,6,6,4,1460,624687,1,553649120,1680000,82732,82732,65700,0,39096,0,2541965811,63
o,1723653534.484809,172.16.3.2,47036,172.16.1.2,5101,26424,39096,34,65728,65728,6,6,4,1460,658125,1,553649120,1770000,82732,81284,65700,0,37648,0,2541965811,63
i,1723653534.687476,172.16.3.2,47036,172.16.1.2,5101,26424,39096,34,65728,65728,6,6,4,1460,658125,1,553649120,1770000,82732,81284,65700,0,39096,0,2541965811,63
o,1723653534.687530,172.16.3.2,47036,172.16.1.2,5101,26424,39096,38,64256,65728,6,6,4,1460,677187,1,553649120,1710000,82732,78388,65700,0,36200,0,2541965811,63
i,1723653534.687680,172.16.3.2,47036,172.16.1.2,5101,26424,39096,38,64256,65728,6,6,4,1460,677187,1,553649120,1710000,82732,78388,65700,0,39096,0,2541965811,63
o,1723653534.687696,172.16.3.2,47036,172.16.1.2,5101,26424,39096,38,64256,65728,6,6,4,1460,694062,1,553649120,1650000,82732,75492,65700,0,36200,0,2541965811,63
i,1723653535.038234,172.16.3.2,47036,172.16.1.2,5101,26424,39096,38,64256,65728,6,6,4,1460,694062,1,553649120,1650000,82732,82732,65700,0,39096,0,2541965811,63
o,1723653535.038310,172.16.3.2,47036,172.16.1.2,5101,26424,39096,38,64256,65728,6,6,4,1460,752500,1,553649120,1990000,82732,79836,65700,0,36200,0,2541965811,63
i,1723653535.038433,172.16.3.2,47036,172.16.1.2,5101,26424,39096,38,64256,65728,6,6,4,1460,752500,1,553649120,1990000,82732,79836,65700,0,39096,0,2541965811,63
o,1723653535.038450,172.16.3.2,47036,172.16.1.2,5101,26424,39096,38,64256,65728,6,6,4,1460,788437,1,553649120,2050000,82732,76940,65700,0,36200,0,2541965811,63
i,1723653535.106408,172.16.3.2,47036,172.16.1.2,5101,26424,39096,38,64256,65728,6,6,4,1460,788437,1,553649120,2050000,82732,82732,65700,0,39096,0,2541965811,63
o,1723653535.106504,172.16.3.2,47036,172.16.1.2,5101,26424,39096,38,64256,65728,6,6,4,1460,828750,1,553649120,2150000,82732,76940,65700,0,33304,0,2541965811,63
i,1723653535.199602,172.16.3.2,47036,172.16.1.2,5101,26424,39096,38,64256,65728,6,6,4,1460,828750,1,553649120,2150000,82732,82732,65700,0,39096,0,2541965811,63
o,1723653535.199667,172.16.3.2,47036,172.16.1.2,5101,26424,39096,34,65728,65728,6,6,4,1460,826562,1,553649120,1880000,82732,81284,65700,0,37648,0,2541965811,63
i,1723653535.199869,172.16.3.2,47036,172.16.1.2,5101,26424,39096,34,65728,65728,6,6,4,1460,826562,1,553649120,1880000,82732,81284,65700,0,39096,0,2541965811,63
o,1723653535.199896,172.16.3.2,47036,172.16.1.2,5101,26424,39096,38,64256,65728,6,6,4,1460,824687,1,553649120,1680000,82732,78388,65700,0,36200,0,2541965811,63
i,1723653535.200089,172.16.3.2,47036,172.16.1.2,5101,26424,39096,38,64256,65728,6,6,4,1460,824687,1,553649120,1680000,82732,78388,65700,0,39096,0,2541965811,63
o,1723653535.200133,172.16.3.2,47036,172.16.1.2,5101,26424,39096,38,64256,65728,6,6,4,1460,823125,1,553649120,1530000,82732,75492,65700,0,36200,0,2541965811,63
i,1723653535.200331,172.16.3.2,47036,172.16.1.2,5101,26424,39096,38,64256,65728,6,6,4,1460,823125,1,553649120,1530000,82732,75492,65700,0,39096,0,2541965811,63
o,1723653535.200351,172.16.3.2,47036,172.16.1.2,5101,26424,39096,38,64256,65728,6,6,4,1460,821562,1,553649120,1410000,82732,72596,65700,0,36200,0,2541965811,63
i,1723653535.200484,172.16.3.2,47036,172.16.1.2,5101,26424,39096,38,64256,65728,6,6,4,1460,821562,1,553649120,1410000,82732,72596,65700,0,39096,0,2541965811,63
o,1723653535.200513,172.16.3.2,47036,172.16.1.2,5101,26424,39096,38,64256,65728,6,6,4,1460,820312,1,553649120,1320000,82732,69700,65700,0,36200,0,2541965811,63
i,1723653535.200689,172.16.3.2,47036,172.16.1.2,5101,26424,39096,38,64256,65728,6,6,4,1460,820312,1,553649120,1320000,82732,69700,65700,0,39096,0,2541965811,63
o,1723653535.200720,172.16.3.2,47036,172.16.1.2,5101,26424,39096,38,64256,65728,6,6,4,1460,819062,1,553649120,1260000,82732,66804,65700,0,36200,0,2541965811,63
i,1723653535.201010,172.16.3.2,47036,172.16.1.2,5101,26424,39096,38,64256,65728,6,6,4,1460,819062,1,553649120,1260000,82732,66804,65700,0,39096,0,2541965811,63
o,1723653535.201029,172.16.3.2,47036,172.16.1.2,5101,27336,40544,34,64256,65728,6,6,4,1460,819062,1,553649120,1260000,82732,66804,65700,0,39096,0,2541965811,63
o,1723653535.201191,172.16.3.2,47036,172.16.1.2,5101,27336,40544,38,64256,65728,6,6,4,1460,816875,1,553649120,1210000,82732,62460,65700,0,36200,0,2541965811,63
i,1723653535.807615,172.16.3.2,47036,172.16.1.2,5101,27336,40544,38,64256,65728,6,6,4,1460,816875,1,553649120,1210000,82732,82732,65700,0,40544,0,2541965811,63
o,1723653535.807651,172.16.3.2,47036,172.16.1.2,5101,27336,40544,38,64256,65728,6,6,4,1460,855000,1,553649120,1510000,82732,78388,65700,0,36200,0,2541965811,63
i,1723653535.998228,172.16.3.2,47036,172.16.1.2,5101,27336,40544,38,64256,65728,6,6,4,1460,855000,1,553649120,1510000,82732,82732,65700,0,40544,0,2541965811,63
o,1723653535.998270,172.16.3.2,47036,172.16.1.2,5101,27336,40544,38,64256,65728,6,6,4,1460,868125,1,553649120,1510000,82732,76940,65700,0,34752,0,2541965811,63
i,1723653535.998401,172.16.3.2,47036,172.16.1.2,5101,27336,40544,38,64256,65728,6,6,4,1460,868125,1,553649120,1510000,82732,76940,65700,0,40544,0,2541965811,63
o,1723653535.998418,172.16.3.2,47036,172.16.1.2,5101,27336,40544,38,64256,65728,6,6,4,1460,879687,1,553649120,1500000,82732,74044,65700,0,37648,0,2541965811,63
i,1723653536.038125,172.16.3.2,47036,172.16.1.2,5101,27336,40544,38,64256,65728,6,6,4,1460,879687,1,553649120,1500000,82732,82732,65700,0,40544,0,2541965811,63
o,1723653536.038149,172.16.3.2,47036,172.16.1.2,5101,27336,41992,34,64256,65728,6,6,4,1460,879687,1,553649120,1500000,82732,82732,65700,0,40544,0,2541965811,63
o,1723653536.038410,172.16.3.2,47036,172.16.1.2,5101,27336,41992,38,64256,65728,6,6,4,1460,886250,1,553649120,1460000,82732,78388,65700,0,37648,0,2541965811,63
i,1723653536.247883,172.16.3.2,47036,172.16.1.2,5101,27336,41992,38,64256,65728,6,6,4,1460,886250,1,553649120,1460000,82732,82732,65700,0,41992,0,2541965811,63
o,1723653536.247960,172.16.3.2,47036,172.16.1.2,5101,27336,41992,38,64256,65728,6,6,4,1460,918125,1,553649120,1650000,82732,79836,65700,0,39096,0,2541965811,63
o,1723653536.248073,172.16.3.2,47036,172.16.1.2,5101,27336,41992,34,64256,65728,6,6,4,1460,918125,1,553649120,1650000,82732,79836,65700,0,40544,0,2541965811,63
i,1723653536.248176,172.16.3.2,47036,172.16.1.2,5101,27336,41992,34,64256,65728,6,6,4,1460,918125,1,553649120,1650000,82732,79836,65700,0,41992,0,2541965811,63
o,1723653536.248196,172.16.3.2,47036,172.16.1.2,5101,29361,49232,38,64256,65728,6,6,4,1460,918125,1,553649120,1650000,82732,79836,65700,0,41992,0,2541965811,63
o,1723653536.248230,172.16.3.2,47036,172.16.1.2,5101,29361,49232,38,64256,65728,6,6,4,1460,934687,1,553649120,1670000,82732,59564,65700,0,28960,0,2541965811,63
i,1723653537.028299,172.16.3.2,47036,172.16.1.2,5101,29361,49232,38,64256,65728,6,6,4,1460,934687,1,553649120,1670000,82732,82732,65700,0,49232,0,2541965811,63
o,1723653537.028331,172.16.3.2,47036,172.16.1.2,5101,34423,78192,38,64256,65728,6,6,4,1460,934687,1,553649120,1670000,82732,82732,65700,0,49232,0,2541965811,63
o,1723653537.028480,172.16.3.2,47036,172.16.1.2,5101,34423,78192,38,64256,65728,6,6,4,1460,934687,1,553649120,1670000,82732,82732,65700,0,50680,0,2541965811,63
o,1723653537.028661,172.16.3.2,47036,172.16.1.2,5101,34423,78192,38,62848,65728,6,6,4,1460,915625,1,553649120,1670000,82732,39292,65700,0,20272,0,2541965811,63
i,1723653537.028796,172.16.3.2,47036,172.16.1.2,5101,34423,78192,38,62848,65728,6,6,4,1460,915625,1,553649120,1670000,82732,39292,65700,0,39292,0,2541965811,63
o,1723653537.028908,172.16.3.2,47036,172.16.1.2,5101,34423,79836,38,64256,65728,6,6,4,1460,898750,1,553649120,1650000,82732,82732,65700,0,36396,0,2541965811,63
i,1723653537.058405,172.16.3.2,47036,172.16.1.2,5101,34423,79836,38,64256,65728,6,6,4,1460,898750,1,553649120,1650000,82732,82732,65700,0,63908,0,2541965811,63
o,1723653537.058496,172.16.3.2,47036,172.16.1.2,5101,34423,81284,38,64256,65728,6,6,4,1460,887812,1,553649120,1590000,82732,79836,65700,0,61012,0,2541965811,63
i,1723653538.156395,172.16.3.2,47036,172.16.1.2,5101,34423,81284,38,64256,65728,6,6,4,1460,887812,1,553649120,1590000,82732,82732,65700,0,63908,0,2541965811,63
o,1723653538.156667,172.16.3.2,47036,172.16.1.2,5101,34423,81284,38,65728,65728,6,6,4,1460,918125,1,16778208,1740000,82732,81284,65700,0,62460,0,2541965811,63
o,1723653538.157116,172.16.3.2,47036,172.16.1.2,5101,34423,81284,38,65728,65728,6,6,4,1460,918125,1,16778208,1740000,82732,81284,65700,0,63908,0,2541965811,63
i,1723653538.168433,172.16.3.2,47036,172.16.1.2,5101,34423,81284,38,65728,65728,6,6,4,1460,918125,1,16778208,1740000,82732,81284,65700,0,65356,0,2541965811,63
o,1723653538.168505,172.16.3.2,47036,172.16.1.2,5101,34423,81284,38,64256,65728,6,6,4,1460,945937,1,16778208,1830000,82732,78388,65700,0,62460,0,2541965811,63
i,1723653538.168646,172.16.3.2,47036,172.16.1.2,5101,34423,81284,38,64256,65728,6,6,4,1460,945937,1,16778208,1830000,82732,78388,65700,0,63908,0,2541965811,63
o,1723653538.168671,172.16.3.2,47036,172.16.1.2,5101,34423,81284,38,64256,65728,6,6,4,1460,970312,1,16778208,1880000,82732,75492,65700,0,61012,0,2541965811,63
i,1723653538.168960,172.16.3.2,47036,172.16.1.2,5101,34423,81284,38,64256,65728,6,6,4,1460,970312,1,16778208,1880000,82732,75492,65700,0,63908,0,2541965811,63
o,1723653538.168977,172.16.3.2,47036,172.16.1.2,5101,34423,81284,38,64256,65728,6,6,4,1460,991562,1,16778208,1890000,82732,69700,65700,0,58116,0,2541965811,63
i,1723653538.169106,172.16.3.2,47036,172.16.1.2,5101,34423,81284,38,64256,65728,6,6,4,1460,991562,1,16778208,1890000,82732,69700,65700,0,63908,0,2541965811,63
o,1723653538.169123,172.16.3.2,47036,172.16.1.2,5101,34423,81284,38,64256,65728,6,6,4,1460,1010312,1,16778208,1890000,82732,63908,65700,0,58116,0,2541965811,63
i,1723653538.171111,172.16.3.2,47036,172.16.1.2,5101,34423,81284,38,64256,65728,6,6,4,1460,1010312,1,16778208,1890000,82732,82732,65700,0,63908,0,2541965811,63
o,1723653538.171150,172.16.3.2,47036,172.16.1.2,5101,34423,81284,38,62848,65728,6,6,4,1460,1026562,1,16778208,1860000,82732,78388,65700,0,59564,0,2541965811,63
i,1723653538.171403,172.16.3.2,47036,172.16.1.2,5101,34423,81284,38,62848,65728,6,6,4,1460,1026562,1,16778208,1860000,82732,78388,65700,0,62460,0,2541965811,63
o,1723653538.171421,172.16.3.2,47036,172.16.1.2,5101,34423,81284,38,64256,65728,6,6,4,1460,1040937,1,16778208,1830000,82732,72596,65700,0,56668,0,2541965811,63
i,1723653538.171579,172.16.3.2,47036,172.16.1.2,5101,34423,81284,38,64256,65728,6,6,4,1460,1040937,1,16778208,1830000,82732,72596,65700,0,63908,0,2541965811,63
o,1723653538.171596,172.16.3.2,47036,172.16.1.2,5101,56835,69504,38,64064,65728,6,6,4,1460,1053437,1,553649120,1800000,82732,68056,65700,0,59368,0,2541965811,63
i,1723653538.171755,172.16.3.2,47036,172.16.1.2,5101,56835,69504,38,64064,65728,6,6,4,1460,1053437,1,553649120,1800000,82732,68056,65700,0,63712,0,2541965811,63
o,1723653538.171783,172.16.3.2,47036,172.16.1.2,5101,56835,76744,38,64256,65728,6,6,4,1460,1064375,1,553649120,1760000,82732,62264,65700,0,57920,0,2541965811,63
i,1723653538.171922,172.16.3.2,47036,172.16.1.2,5101,56835,76744,38,64256,65728,6,6,4,1460,1064375,1,553649120,1760000,82732,62264,65700,0,62264,0,2541965811,63
i,1723653538.171961,172.16.3.2,47036,172.16.1.2,5101,56835,79640,38,64256,65728,6,6,4,1460,1074062,1,553649120,1720000,82732,59368,65700,0,59368,0,2541965811,63
o,1723653538.172167,172.16.3.2,47036,172.16.1.2,5101,56835,86880,38,64256,65728,6,6,4,1460,1082500,1,553649120,1690000,82732,82732,65700,0,53576,0,2541965811,63
i,1723653538.172472,172.16.3.2,47036,172.16.1.2,5101,56835,86880,38,64256,65728,6,6,4,1460,1082500,1,553649120,1690000,82732,82732,65700,0,63712,0,2541965811,63
o,1723653538.172532,172.16.3.2,47036,172.16.1.2,5101,56835,91224,38,64256,65728,6,6,4,1460,1089687,1,553649120,1650000,82732,79836,65700,0,60816,0,2541965811,63
i,1723653538.172880,172.16.3.2,47036,172.16.1.2,5101,56835,91224,38,64256,65728,6,6,4,1460,1089687,1,553649120,1650000,82732,79836,65700,0,63712,0,2541965811,63
o,1723653538.172905,172.16.3.2,47036,172.16.1.2,5101,56835,97016,38,64256,65728,6,6,4,1460,1096250,1,553649120,1620000,82732,74044,65700,0,57920,0,2541965811,63
