enable_time_secs=1723653695	enable_time_usecs=055177	siftrver=1.3.0	sysname=FreeBSD	sysver=1401000	ipmode=4
o,1723653695.055529,10.0.2.15,22,10.0.2.2,50598,1073725440,17746,1026,65535,65700,0,0,4,1460,312,0,16777220,240000,33580,172,65700,0,0,0,2244608617,63
o,1723653695.055680,10.0.2.15,22,10.0.2.2,50598,1073725440,17746,1026,65535,65700,0,0,4,1460,312,0,16777220,240000,33580,244,65700,0,172,0,2244608617,63
i,1723653695.055919,10.0.2.15,22,10.0.2.2,50598,1073725440,17746,1026,65535,65700,0,0,4,1460,312,0,16777220,240000,33580,244,65700,0,244,0,2244608617,63
i,1723653695.055947,10.0.2.15,22,10.0.2.2,50598,1073725440,17918,1026,65535,65700,0,0,4,1460,312,0,4,240000,33580,72,65700,0,72,0,2244608617,63
i,1723653695.056400,10.0.2.15,22,10.0.2.2,50598,1073725440,17990,1026,65535,65700,0,0,4,1460,312,0,4,240000,33580,0,65700,0,0,0,2244608617,63
i,1723653695.056416,10.0.2.15,22,10.0.2.2,50598,1073725440,17990,1026,65535,65700,0,0,4,1460,312,0,4,240000,33580,0,65700,96,0,0,2244608617,63
o,1723653695.056431,10.0.2.15,22,10.0.2.2,50598,1073725440,17990,1026,65535,65604,0,0,5,1460,312,0,5,240000,33580,0,65700,96,0,0,2244608617,63
o,1723653695.057050,10.0.2.15,22,10.0.2.2,50598,1073725440,17990,1026,65535,65604,0,0,8,1460,312,0,4,240000,33580,0,65700,0,0,0,2244608617,63
i,1723653695.057789,10.0.2.15,22,10.0.2.2,50598,1073725440,17990,1026,65535,65604,0,0,8,1460,312,0,67108884,240000,33580,0,65700,0,1,0,2244608617,63
i,1723653697.308870,10.0.2.15,22,10.0.2.2,50502,1073725440,14600,0,65535,65700,0,0,4,1460,312,0,16777216,270000,33580,0,65700,0,0,0,922773703,63
o,1723653697.322569,10.0.2.15,22,10.0.2.2,50502,1073725440,14600,1026,65535,65700,0,0,4,1460,312,0,16777216,270000,33580,38,65700,42,0,0,922773703,63
i,1723653697.323187,10.0.2.15,22,10.0.2.2,50502,1073725440,14600,1026,65535,65700,0,0,4,1460,312,0,16777216,270000,33580,38,65700,0,38,0,922773703,63
i,1723653697.323280,10.0.2.15,22,10.0.2.2,50502,1073725440,14638,1026,65535,65700,0,0,4,1460,312,0,0,240000,33580,0,65700,0,0,0,922773703,63
i,1723653697.323300,10.0.2.15,22,10.0.2.2,50502,1073725440,14638,1026,65535,65700,0,0,4,1460,312,0,0,240000,33580,0,65700,1460,0,0,922773703,63
o,1723653697.323323,10.0.2.15,22,10.0.2.2,50502,1073725440,14638,1026,65535,65700,0,0,4,1460,312,0,1,240000,33580,0,65700,1536,0,0,922773703,63
o,1723653697.324339,10.0.2.15,22,10.0.2.2,50502,1073725440,14638,1026,65535,65700,0,0,4,1460,312,0,16777216,240000,33580,1120,65700,1536,0,0,922773703,63
i,1723653697.324770,10.0.2.15,22,10.0.2.2,50502,1073725440,14638,1026,65535,65700,0,0,4,1460,312,0,16777216,240000,33580,1120,65700,0,1120,0,922773703,63
i,1723653697.326143,10.0.2.15,22,10.0.2.2,50502,1073725440,15758,1026,65535,65700,0,0,4,1460,312,0,0,240000,33580,0,65700,0,0,0,922773703,63
o,1723653697.328938,10.0.2.15,22,10.0.2.2,50502,1073725440,15758,1026,65535,65700,0,0,4,1460,312,0,16777216,240000,33580,492,65700,0,0,0,922773703,63
i,1723653697.329612,10.0.2.15,22,10.0.2.2,50502,1073725440,15758,1026,65535,65700,0,0,4,1460,312,0,16777216,240000,33580,492,65700,0,492,0,922773703,63
i,1723653697.334396,10.0.2.15,22,10.0.2.2,50502,1073725440,16250,1026,65535,65700,0,0,4,1460,312,0,0,240000,33580,0,65700,0,0,0,922773703,63
i,1723653697.334427,10.0.2.15,22,10.0.2.2,50502,1073725440,16250,1026,65535,65700,0,0,4,1460,312,0,0,240000,33580,0,65700,16,0,0,922773703,63
o,1723653697.334456,10.0.2.15,22,10.0.2.2,50502,1073725440,16250,1026,65535,65700,0,0,4,1460,312,0,1,240000,33580,0,65700,60,0,0,922773703,63
o,1723653697.334640,10.0.2.15,22,10.0.2.2,50502,1073725440,16250,1026,65535,65700,0,0,4,1460,312,0,16777216,240000,33580,44,65700,0,0,0,922773703,63
i,1723653697.337696,10.0.2.15,22,10.0.2.2,50502,1073725440,16250,1026,65535,65700,0,0,4,1460,312,0,16777216,240000,33580,44,65700,0,44,0,922773703,63
i,1723653697.337744,10.0.2.15,22,10.0.2.2,50502,1073725440,16294,1026,65535,65700,0,0,4,1460,312,0,0,240000,33580,0,65700,0,0,0,922773703,63
o,1723653697.339282,10.0.2.15,22,10.0.2.2,50502,1073725440,16294,1026,65535,65700,0,0,4,1460,312,0,16777216,240000,33580,68,65700,0,0,0,922773703,63
i,1723653697.339799,10.0.2.15,22,10.0.2.2,50502,1073725440,16294,1026,65535,65700,0,0,4,1460,312,0,16777216,240000,33580,68,65700,0,68,0,922773703,63
i,1723653697.340286,10.0.2.15,22,10.0.2.2,50502,1073725440,16362,1026,65535,65700,0,0,4,1460,312,0,0,240000,33580,0,65700,0,0,0,922773703,63
o,1723653697.341612,10.0.2.15,22,10.0.2.2,50502,1073725440,16362,1026,65535,65700,0,0,4,1460,312,0,16777216,240000,33580,332,65700,0,0,0,922773703,63
i,1723653697.342625,10.0.2.15,22,10.0.2.2,50502,1073725440,16362,1026,65535,65700,0,0,4,1460,312,0,16777216,240000,33580,332,65700,0,332,0,922773703,63
i,1723653697.343836,10.0.2.15,22,10.0.2.2,50502,1073725440,16694,1026,65535,65700,0,0,4,1460,312,0,0,240000,33580,0,65700,0,0,0,922773703,63
o,1723653697.361164,10.0.2.15,22,10.0.2.2,50502,1073725440,16694,1026,65535,65700,0,0,4,1460,312,0,16777216,240000,33580,28,65700,0,0,0,922773703,63
i,1723653697.361820,10.0.2.15,22,10.0.2.2,50502,1073725440,16694,1026,65535,65700,0,0,4,1460,312,0,16777216,240000,33580,28,65700,0,28,0,922773703,63
i,1723653697.361882,10.0.2.15,22,10.0.2.2,50502,1073725440,16722,1026,65535,65700,0,0,4,1460,312,0,0,240000,33580,0,65700,0,0,0,922773703,63
o,1723653697.364013,10.0.2.15,22,10.0.2.2,50502,1073725440,16722,1026,65535,65700,0,0,4,1460,312,0,16777216,240000,33580,768,65700,112,0,0,922773703,63
i,1723653697.365204,10.0.2.15,22,10.0.2.2,50502,1073725440,16722,1026,65535,65700,0,0,4,1460,312,0,16777216,240000,33580,908,65700,112,768,0,922773703,63
o,1723653697.365228,10.0.2.15,22,10.0.2.2,50502,1073725440,17490,1026,65535,65700,0,0,4,1460,312,0,16777216,240000,33580,140,65700,112,0,0,922773703,63
i,1723653697.365579,10.0.2.15,22,10.0.2.2,50502,1073725440,17490,1026,65535,65700,0,0,4,1460,312,0,16777216,240000,33580,140,65700,112,140,0,922773703,63
o,1723653697.366226,10.0.2.15,22,10.0.2.2,50502,1073725440,17630,1026,65535,65700,0,0,4,1460,312,0,16777216,240000,33580,44,65700,0,0,0,922773703,63
i,1723653697.366836,10.0.2.15,22,10.0.2.2,50502,1073725440,17630,1026,65535,65700,0,0,4,1460,312,0,16777216,240000,33580,44,65700,0,44,0,922773703,63
i,1723653697.367256,10.0.2.15,22,10.0.2.2,50502,1073725440,17674,1026,65535,65700,0,0,4,1460,312,0,0,240000,33580,0,65700,0,0,0,922773703,63
o,1723653697.367982,10.0.2.15,22,10.0.2.2,50502,1073725440,17674,1026,65535,65700,0,0,4,1460,312,0,16777220,240000,33580,72,65700,0,0,0,922773703,63
i,1723653697.368650,10.0.2.15,22,10.0.2.2,50502,1073725440,17674,1026,65535,65700,0,0,4,1460,312,0,16777220,240000,33580,72,65700,0,72,0,922773703,63
o,1723653697.371012,10.0.2.15,22,10.0.2.2,50502,1073725440,17746,1026,65535,65700,0,0,4,1460,312,0,16777220,240000,33580,104,65700,0,0,0,922773703,63
i,1723653697.372528,10.0.2.15,22,10.0.2.2,50502,1073725440,17746,1026,65535,65700,0,0,4,1460,312,0,16777220,240000,33580,104,65700,0,104,0,922773703,63
o,1723653697.373082,10.0.2.15,22,10.0.2.2,50502,1073725440,17850,1026,65535,65700,0,0,4,1460,312,0,16777220,230000,33580,72,65700,0,0,0,922773703,63
i,1723653697.373854,10.0.2.15,22,10.0.2.2,50502,1073725440,17850,1026,65535,65700,0,0,4,1460,312,0,16777220,230000,33580,72,65700,0,72,0,922773703,63
i,1723653697.373913,10.0.2.15,22,10.0.2.2,50502,1073725440,17922,1026,65535,65700,0,0,4,1460,312,0,4,230000,33580,0,65700,0,0,0,922773703,63
i,1723653697.373992,10.0.2.15,22,10.0.2.2,50502,1073725440,17922,1026,65535,65700,0,0,4,1460,312,0,4,230000,33580,0,65700,96,0,0,922773703,63
o,1723653697.374016,10.0.2.15,22,10.0.2.2,50502,1073725440,17922,1026,65535,65604,0,0,5,1460,312,0,5,230000,33580,0,65700,96,0,0,922773703,63
o,1723653697.396416,10.0.2.15,22,10.0.2.2,50502,1073725440,17922,1026,65535,65604,0,0,8,1460,312,0,4,230000,33580,0,65700,0,0,0,922773703,63
i,1723653697.397846,10.0.2.15,22,10.0.2.2,50502,1073725440,17922,1026,65535,65604,0,0,8,1460,312,0,67108884,230000,33580,0,65700,0,1,0,922773703,63
i,1723653699.525644,10.0.2.15,22,10.0.2.2,50514,1073725440,14600,0,65535,65700,0,0,4,1460,312,0,16777216,270000,33580,0,65700,0,0,0,1969816908,63
o,1723653699.537747,10.0.2.15,22,10.0.2.2,50514,1073725440,14600,1026,65535,65700,0,0,4,1460,312,0,16777216,270000,33580,38,65700,42,0,0,1969816908,63
i,1723653699.538126,10.0.2.15,22,10.0.2.2,50514,1073725440,14600,1026,65535,65700,0,0,4,1460,312,0,16777216,270000,33580,38,65700,0,38,0,1969816908,63
i,1723653699.538492,10.0.2.15,22,10.0.2.2,50514,1073725440,14638,1026,65535,65700,0,0,4,1460,312,0,0,230000,33580,0,65700,0,0,0,1969816908,63
i,1723653699.538510,10.0.2.15,22,10.0.2.2,50514,1073725440,14638,1026,65535,65700,0,0,4,1460,312,0,0,230000,33580,0,65700,1460,0,0,1969816908,63
o,1723653699.538528,10.0.2.15,22,10.0.2.2,50514,1073725440,14638,1026,65535,65700,0,0,4,1460,312,0,1,230000,33580,0,65700,1536,0,0,1969816908,63
o,1723653699.539179,10.0.2.15,22,10.0.2.2,50514,1073725440,14638,1026,65535,65700,0,0,4,1460,312,0,16777216,230000,33580,1120,65700,1536,0,0,1969816908,63
i,1723653699.539951,10.0.2.15,22,10.0.2.2,50514,1073725440,14638,1026,65535,65700,0,0,4,1460,312,0,16777216,230000,33580,1120,65700,0,1120,0,1969816908,63
i,1723653699.541088,10.0.2.15,22,10.0.2.2,50514,1073725440,15758,1026,65535,65700,0,0,4,1460,312,0,0,240000,33580,0,65700,0,0,0,1969816908,63
o,1723653699.544527,10.0.2.15,22,10.0.2.2,50514,1073725440,15758,1026,65535,65700,0,0,4,1460,312,0,16777216,240000,33580,492,65700,0,0,0,1969816908,63
i,1723653699.544963,10.0.2.15,22,10.0.2.2,50514,1073725440,15758,1026,65535,65700,0,0,4,1460,312,0,16777216,240000,33580,492,65700,0,492,0,1969816908,63
i,1723653699.549499,10.0.2.15,22,10.0.2.2,50514,1073725440,16250,1026,65535,65700,0,0,4,1460,312,0,0,240000,33580,0,65700,0,0,0,1969816908,63
i,1723653699.549519,10.0.2.15,22,10.0.2.2,50514,1073725440,16250,1026,65535,65700,0,0,4,1460,312,0,0,240000,33580,0,65700,16,0,0,1969816908,63
o,1723653699.549538,10.0.2.15,22,10.0.2.2,50514,1073725440,16250,1026,65535,65700,0,0,4,1460,312,0,1,240000,33580,0,65700,60,0,0,1969816908,63
o,1723653699.549783,10.0.2.15,22,10.0.2.2,50514,1073725440,16250,1026,65535,65700,0,0,4,1460,312,0,16777216,240000,33580,44,65700,0,0,0,1969816908,63
i,1723653699.550366,10.0.2.15,22,10.0.2.2,50514,1073725440,16250,1026,65535,65700,0,0,4,1460,312,0,16777216,240000,33580,44,65700,0,44,0,1969816908,63
i,1723653699.550385,10.0.2.15,22,10.0.2.2,50514,1073725440,16294,1026,65535,65700,0,0,4,1460,312,0,0,240000,33580,0,65700,0,0,0,1969816908,63
o,1723653699.551468,10.0.2.15,22,10.0.2.2,50514,1073725440,16294,1026,65535,65700,0,0,4,1460,312,0,16777216,240000,33580,68,65700,0,0,0,1969816908,63
i,1723653699.553420,10.0.2.15,22,10.0.2.2,50514,1073725440,16294,1026,65535,65700,0,0,4,1460,312,0,16777216,240000,33580,68,65700,0,68,0,1969816908,63
i,1723653699.553442,10.0.2.15,22,10.0.2.2,50514,1073725440,16362,1026,65535,65700,0,0,4,1460,312,0,0,240000,33580,0,65700,0,0,0,1969816908,63
o,1723653699.554221,10.0.2.15,22,10.0.2.2,50514,1073725440,16362,1026,65535,65700,0,0,4,1460,312,0,16777216,240000,33580,332,65700,0,0,0,1969816908,63
i,1723653699.555075,10.0.2.15,22,10.0.2.2,50514,1073725440,16362,1026,65535,65700,0,0,4,1460,312,0,16777216,240000,33580,332,65700,0,332,0,1969816908,63
i,1723653699.556447,10.0.2.15,22,10.0.2.2,50514,1073725440,16694,1026,65535,65700,0,0,4,1460,312,0,0,240000,33580,0,65700,0,0,0,1969816908,63
o,1723653699.575466,10.0.2.15,22,10.0.2.2,50514,1073725440,16694,1026,65535,65700,0,0,4,1460,312,0,16777216,240000,33580,28,65700,0,0,0,1969816908,63
i,1723653699.576560,10.0.2.15,22,10.0.2.2,50514,1073725440,16694,1026,65535,65700,0,0,4,1460,312,0,16777216,240000,33580,28,65700,0,28,0,1969816908,63
i,1723653699.576590,10.0.2.15,22,10.0.2.2,50514,1073725440,16722,1026,65535,65700,0,0,4,1460,312,0,0,240000,33580,0,65700,0,0,0,1969816908,63
o,1723653699.578143,10.0.2.15,22,10.0.2.2,50514,1073725440,16722,1026,65535,65700,0,0,4,1460,312,0,16777216,240000,33580,768,65700,112,0,0,1969816908,63
i,1723653699.579148,10.0.2.15,22,10.0.2.2,50514,1073725440,16722,1026,65535,65700,0,0,4,1460,312,0,16777216,240000,33580,908,65700,112,768,0,1969816908,63
o,1723653699.579178,10.0.2.15,22,10.0.2.2,50514,1073725440,17490,1026,65535,65700,0,0,4,1460,312,0,16777216,240000,33580,140,65700,112,0,0,1969816908,63
i,1723653699.579677,10.0.2.15,22,10.0.2.2,50514,1073725440,17490,1026,65535,65700,0,0,4,1460,312,0,16777216,240000,33580,140,65700,112,140,0,1969816908,63
o,1723653699.580131,10.0.2.15,22,10.0.2.2,50514,1073725440,17630,1026,65535,65700,0,0,4,1460,312,0,16777216,240000,33580,44,65700,0,0,0,1969816908,63
i,1723653699.580697,10.0.2.15,22,10.0.2.2,50514,1073725440,17630,1026,65535,65700,0,0,4,1460,312,0,16777216,240000,33580,44,65700,0,44,0,1969816908,63
i,1723653699.580717,10.0.2.15,22,10.0.2.2,50514,1073725440,17674,1026,65535,65700,0,0,4,1460,312,0,0,240000,33580,0,65700,0,0,0,1969816908,63
o,1723653699.581394,10.0.2.15,22,10.0.2.2,50514,1073725440,17674,1026,65535,65700,0,0,4,1460,312,0,16777220,240000,33580,72,65700,0,0,0,1969816908,63
i,1723653699.582083,10.0.2.15,22,10.0.2.2,50514,1073725440,17674,1026,65535,65700,0,0,4,1460,312,0,16777220,240000,33580,72,65700,0,72,0,1969816908,63
i,1723653699.582093,10.0.2.15,22,10.0.2.2,50514,1073725440,17746,1026,65535,65700,0,0,4,1460,312,0,4,230000,33580,0,65700,0,0,0,1969816908,63
o,1723653699.638866,10.0.2.15,22,10.0.2.2,50514,1073725440,17746,1026,65535,65700,0,0,4,1460,312,0,5,230000,33580,0,65700,0,0,0,1969816908,63
o,1723653699.713324,172.16.3.2,55483,172.16.1.2,5101,30708,14480,34,65535,65700,6,6,4,1460,318437,1,16778209,1050000,33580,0,65700,0,0,0,2137715644,63
o,1723653699.713799,172.16.3.2,55483,172.16.1.2,5101,30708,14480,34,65535,65700,6,6,4,1460,318437,1,16778212,1050000,33580,37,65700,0,0,0,2137715644,63
i,1723653699.830638,172.16.3.2,55483,172.16.1.2,5101,30708,14480,34,65535,65700,6,6,4,1460,318437,1,16778212,1050000,33580,37,65700,0,37,0,2137715644,63
o,1723653699.831537,172.16.3.2,55483,172.16.1.2,5101,30708,14517,1058,65728,65728,6,6,4,1460,292500,1,16778212,1100000,33580,4,65700,0,0,0,2137715644,63
o,1723653699.832076,172.16.3.2,55483,172.16.1.2,5101,30708,14517,1058,65728,65728,6,6,4,1460,292500,1,16778212,1100000,33580,130,65700,0,4,0,2137715644,63
i,1723653699.955045,172.16.3.2,55483,172.16.1.2,5101,30708,14517,1058,65728,65728,6,6,4,1460,292500,1,16778212,1100000,33580,130,65700,0,130,0,2137715644,63
i,1723653699.955184,172.16.3.2,55483,172.16.1.2,5101,30708,14647,1058,65600,65728,6,6,4,1460,270937,1,996,1100000,33580,0,65700,0,0,0,2137715644,63
o,1723653700.038769,172.16.3.2,55483,172.16.1.2,5101,30708,14647,1058,65728,65728,6,6,4,1460,270937,1,997,1100000,33580,0,65700,0,0,0,2137715644,63
o,1723653700.068508,172.16.3.2,13327,172.16.1.2,5101,30708,14480,34,65535,65700,6,6,4,1460,315937,1,16778209,1070000,33580,0,65700,0,0,0,2784392790,63
o,1723653700.068658,172.16.3.2,13327,172.16.1.2,5101,30708,14480,34,65535,65700,6,6,4,1460,315937,1,16778208,1070000,33580,37,65700,0,0,0,2784392790,63
i,1723653700.192003,172.16.3.2,55483,172.16.1.2,5101,30708,14647,1058,65728,65728,6,6,4,1460,270937,1,996,1100000,33580,0,65700,0,0,0,2137715644,63
i,1723653700.192622,172.16.3.2,55483,172.16.1.2,5101,30708,14647,1058,65728,65728,6,6,4,1460,270937,1,996,1100000,33580,0,65700,1,0,0,2137715644,63
o,1723653700.192672,172.16.3.2,55483,172.16.1.2,5101,30708,14647,1058,65728,65728,6,6,4,1460,270937,1,997,1100000,33580,0,65700,2,0,0,2137715644,63
o,1723653700.193543,172.16.3.2,13327,172.16.1.2,5101,30708,14480,38,65535,65700,6,6,4,1460,315937,1,16778208,1070000,33580,33580,65700,0,37,0,2784392790,63
i,1723653700.223859,172.16.3.2,13327,172.16.1.2,5101,30708,14480,38,65535,65700,6,6,4,1460,315937,1,16778208,1070000,33580,33580,65700,0,13069,0,2784392790,63
o,1723653700.223961,172.16.3.2,13327,172.16.1.2,5101,30708,14517,38,65728,65728,6,6,4,1460,296562,1,16778208,1060000,33580,33543,65700,0,13032,0,2784392790,63
i,1723653700.286916,172.16.3.2,13327,172.16.1.2,5101,30708,14517,38,65728,65728,6,6,4,1460,296562,1,16778208,1060000,33580,33543,65700,0,14480,0,2784392790,63
o,1723653700.286992,172.16.3.2,13327,172.16.1.2,5101,30708,17413,38,64256,65728,6,6,4,1460,270937,1,16778208,1100000,33580,30647,65700,0,11584,0,2784392790,63
i,1723653700.307153,172.16.3.2,13327,172.16.1.2,5101,30708,17413,38,64256,65728,6,6,4,1460,270937,1,16778208,1100000,41772,41772,65700,0,17376,0,2784392790,63
o,1723653700.307185,172.16.3.2,13327,172.16.1.2,5101,30708,20309,38,64256,65728,6,6,4,1460,250937,1,16778208,1080000,41772,38876,65700,0,14480,0,2784392790,63
i,1723653700.307365,172.16.3.2,13327,172.16.1.2,5101,30708,20309,38,64256,65728,6,6,4,1460,250937,1,16778208,1080000,49964,38876,65700,0,20272,0,2784392790,63
o,1723653700.307382,172.16.3.2,13327,172.16.1.2,5101,30708,23205,38,64256,65728,6,6,4,1460,233437,1,16778208,1050000,49964,35980,65700,0,17376,0,2784392790,63
i,1723653700.307552,172.16.3.2,13327,172.16.1.2,5101,30708,23205,38,64256,65728,6,6,4,1460,233437,1,16778208,1050000,49964,35980,65700,0,23168,0,2784392790,63
o,1723653700.307569,172.16.3.2,13327,172.16.1.2,5101,30708,26101,38,62848,65728,6,6,4,1460,218125,1,16778208,1000000,49964,33084,65700,0,20272,0,2784392790,63
i,1723653700.348428,172.16.3.2,13327,172.16.1.2,5101,30708,26101,38,62848,65728,6,6,4,1460,218125,1,16778208,1000000,58156,58156,65700,0,26064,0,2784392790,63
o,1723653700.348476,172.16.3.2,13327,172.16.1.2,5101,30708,28997,38,64256,65728,6,6,4,1460,209687,1,16778208,910000,58156,55260,65700,0,23168,0,2784392790,63
o,1723653700.348624,172.16.3.2,13327,172.16.1.2,5101,30708,28997,38,64256,65728,6,6,4,1460,209687,1,16778208,910000,58156,55260,65700,0,24616,0,2784392790,63
i,1723653700.439663,172.16.3.2,13327,172.16.1.2,5101,30708,28997,38,64256,65728,6,6,4,1460,209687,1,16778208,910000,66348,66348,65700,0,28960,0,2784392790,63
o,1723653700.439701,172.16.3.2,13327,172.16.1.2,5101,30708,31893,38,62848,65728,6,6,4,1460,201250,1,16778208,850000,66348,63452,65700,0,26064,0,2784392790,63
i,1723653700.439849,172.16.3.2,13327,172.16.1.2,5101,30708,31893,38,62848,65728,6,6,4,1460,201250,1,16778208,850000,74540,63452,65700,0,31856,0,2784392790,63
o,1723653700.439868,172.16.3.2,13327,172.16.1.2,5101,30708,31893,38,62848,65728,6,6,4,1460,193750,1,16778208,790000,74540,60556,65700,0,28960,0,2784392790,63
i,1723653700.440020,172.16.3.2,13327,172.16.1.2,5101,30708,31893,38,62848,65728,6,6,4,1460,193750,1,16778208,790000,74540,60556,65700,0,31856,0,2784392790,63
o,1723653700.440037,172.16.3.2,13327,172.16.1.2,5101,30708,31893,38,62848,65728,6,6,4,1460,185937,1,16778208,740000,74540,57660,65700,0,28960,0,2784392790,63
i,1723653700.440158,172.16.3.2,13327,172.16.1.2,5101,30708,31893,38,62848,65728,6,6,4,1460,185937,1,16778208,740000,74540,57660,65700,0,31856,0,2784392790,63
o,1723653700.440190,172.16.3.2,13327,172.16.1.2,5101,30708,31893,38,62848,65728,6,6,4,1460,179062,1,16778208,700000,74540,54764,65700,0,28960,0,2784392790,63
i,1723653700.458666,172.16.3.2,13327,172.16.1.2,5101,30708,31893,38,62848,65728,6,6,4,1460,179062,1,16778208,700000,74540,74540,65700,0,31856,0,2784392790,63
o,1723653700.458695,172.16.3.2,13327,172.16.1.2,5101,30708,31893,38,64256,65728,6,6,4,1460,175625,1,16778208,650000,74540,71644,65700,0,28960,0,2784392790,63
i,1723653700.458840,172.16.3.2,13327,172.16.1.2,5101,30708,31893,38,64256,65728,6,6,4,1460,175625,1,16778208,650000,74540,71644,65700,0,31856,0,2784392790,63
o,1723653700.458857,172.16.3.2,13327,172.16.1.2,5101,30708,31893,38,61376,65728,6,6,4,1460,172500,1,16778208,600000,74540,68748,65700,0,28960,0,2784392790,63
i,1723653700.458990,172.16.3.2,13327,172.16.1.2,5101,30708,31893,38,61376,65728,6,6,4,1460,172500,1,16778208,600000,74540,68748,65700,0,31856,0,2784392790,63
o,1723653700.459007,172.16.3.2,13327,172.16.1.2,5101,30708,31893,38,58496,65728,6,6,4,1460,169687,1,16778208,560000,74540,65852,65700,0,28960,0,2784392790,63
i,1723653700.459641,172.16.3.2,13327,172.16.1.2,5101,30708,31893,38,58496,65728,6,6,4,1460,169687,1,16778208,560000,74540,74540,65700,0,31856,0,2784392790,63
o,1723653700.459664,172.16.3.2,13327,172.16.1.2,5101,30708,31893,38,55616,65728,6,6,4,1460,167500,1,16778208,530000,74540,71644,65700,0,28960,0,2784392790,63
i,1723653700.459896,172.16.3.2,13327,172.16.1.2,5101,30708,31893,38,55616,65728,6,6,4,1460,167500,1,16778208,530000,74540,71644,65700,0,31856,0,2784392790,63
o,1723653700.459913,172.16.3.2,13327,172.16.1.2,5101,30708,31893,38,62848,65728,6,6,4,1460,160312,1,16778208,540000,74540,68748,65700,0,28960,0,2784392790,63
o,1723653700.460036,172.16.3.2,13327,172.16.1.2,5101,30708,31893,38,62848,65728,6,6,4,1460,160312,1,16778208,540000,74540,68748,65700,0,30408,0,2784392790,63
i,1723653700.460215,172.16.3.2,13327,172.16.1.2,5101,30708,31893,38,62848,65728,6,6,4,1460,160312,1,16778208,540000,74540,68748,65700,0,31856,0,2784392790,63
o,1723653700.460258,172.16.3.2,13327,172.16.1.2,5101,30708,31893,38,62848,65728,6,6,4,1460,154062,1,16778208,540000,74540,65852,65700,0,28960,0,2784392790,63
i,1723653700.568364,172.16.3.2,13327,172.16.1.2,5101,30708,31893,38,62848,65728,6,6,4,1460,154062,1,16778208,540000,74540,74540,65700,0,31856,0,2784392790,63
o,1723653700.568420,172.16.3.2,13327,172.16.1.2,5101,30708,31893,38,95680,65728,6,6,4,1460,151250,1,16778208,510000,74540,71644,65700,0,28960,0,2784392790,63
i,1723653700.568674,172.16.3.2,13327,172.16.1.2,5101,30708,31893,38,95680,65728,6,6,4,1460,151250,1,16778208,510000,74540,71644,65700,0,31856,0,2784392790,63
o,1723653700.568714,172.16.3.2,13327,172.16.1.2,5101,30708,31893,38,97152,65728,6,6,4,1460,148750,1,16778208,490000,74540,68748,65700,0,28960,0,2784392790,63
i,1723653700.569794,172.16.3.2,13327,172.16.1.2,5101,30708,31893,38,97152,65728,6,6,4,1460,148750,1,16778208,490000,74540,74540,65700,0,31856,0,2784392790,63
o,1723653700.569853,172.16.3.2,13327,172.16.1.2,5101,30708,31893,38,94272,65728,6,6,4,1460,146562,1,16778208,470000,74540,71644,65700,0,28960,0,2784392790,63
i,1723653700.570078,172.16.3.2,13327,172.16.1.2,5101,30708,31893,38,94272,65728,6,6,4,1460,146562,1,16778208,470000,74540,71644,65700,0,31856,0,2784392790,63
o,1723653700.570126,172.16.3.2,13327,172.16.1.2,5101,30708,31893,38,91392,65728,6,6,4,1460,144687,1,16778208,450000,74540,68748,65700,0,28960,0,2784392790,63
i,1723653700.570327,172.16.3.2,13327,172.16.1.2,5101,30708,31893,38,91392,65728,6,6,4,1460,144687,1,16778208,450000,74540,68748,65700,0,31856,0,2784392790,63
o,1723653700.570368,172.16.3.2,13327,172.16.1.2,5101,30708,31893,38,95680,65728,6,6,4,1460,143125,1,16778208,440000,74540,65852,65700,0,28960,0,2784392790,63
i,1723653700.571419,172.16.3.2,13327,172.16.1.2,5101,30708,31893,38,95680,65728,6,6,4,1460,143125,1,16778208,440000,74540,73152,65700,0,31856,0,2784392790,63
o,1723653700.571431,172.16.3.2,13327,172.16.1.2,5101,30708,31893,38,97152,65728,6,6,4,1460,139062,1,16778208,440000,74540,70256,65700,0,28960,0,2784392790,63
i,1723653700.571471,172.16.3.2,13327,172.16.1.2,5101,30708,31893,38,97152,65728,6,6,4,1460,139062,1,16778208,440000,74540,70256,65700,0,31856,0,2784392790,63
o,1723653700.571480,172.16.3.2,13327,172.16.1.2,5101,30708,31893,38,94272,65728,6,6,4,1460,135625,1,16778208,440000,74540,67360,65700,0,28960,0,2784392790,63
i,1723653700.617301,172.16.3.2,13327,172.16.1.2,5101,30708,31893,38,94272,65728,6,6,4,1460,135625,1,16778208,440000,74540,74540,65700,0,31856,0,2784392790,63
o,1723653700.617334,172.16.3.2,13327,172.16.1.2,5101,30708,31893,38,97152,65728,6,6,4,1460,137500,1,16778208,430000,74540,71644,65700,0,28960,0,2784392790,63
i,1723653700.617455,172.16.3.2,13327,172.16.1.2,5101,30708,31893,38,97152,65728,6,6,4,1460,137500,1,16778208,430000,74540,71644,65700,0,31856,0,2784392790,63
o,1723653700.617471,172.16.3.2,13327,172.16.1.2,5101,30708,31893,38,94272,65728,6,6,4,1460,139062,1,16778208,420000,74540,68748,65700,0,28960,0,2784392790,63
i,1723653700.619580,172.16.3.2,13327,172.16.1.2,5101,30708,31893,38,94272,65728,6,6,4,1460,139062,1,16778208,420000,74540,74540,65700,0,31856,0,2784392790,63
o,1723653700.619600,172.16.3.2,13327,172.16.1.2,5101,30708,31893,38,97152,65728,6,6,4,1460,140625,1,16778208,420000,74540,71644,65700,0,28960,0,2784392790,63
o,1723653700.619709,172.16.3.2,13327,172.16.1.2,5101,30708,31893,38,97152,65728,6,6,4,1460,140625,1,16778208,420000,74540,71644,65700,0,30408,0,2784392790,63
i,1723653700.619837,172.16.3.2,13327,172.16.1.2,5101,30708,31893,38,97152,65728,6,6,4,1460,140625,1,16778208,420000,74540,71644,65700,0,31856,0,2784392790,63
o,1723653700.619852,172.16.3.2,13327,172.16.1.2,5101,30708,31893,38,95680,65728,6,6,4,1460,141875,1,16778208,410000,74540,68748,65700,0,28960,0,2784392790,63
i,1723653700.691526,172.16.3.2,13327,172.16.1.2,5101,30708,31893,38,95680,65728,6,6,4,1460,141875,1,16778208,410000,74540,74540,65700,0,31856,0,2784392790,63
o,1723653700.691571,172.16.3.2,13327,172.16.1.2,5101,30708,31893,38,97152,65728,6,6,4,1460,138125,1,16778208,420000,74540,71644,65700,0,28960,0,2784392790,63
i,1723653700.698611,172.16.3.2,13327,172.16.1.2,5101,30708,31893,38,97152,65728,6,6,4,1460,138125,1,16778208,420000,74540,74540,65700,0,31856,0,2784392790,63
o,1723653700.698632,172.16.3.2,13327,172.16.1.2,5101,30708,31893,38,97152,65728,6,6,4,1460,135937,1,16778208,410000,74540,71644,65700,0,28960,0,2784392790,63
i,1723653700.721024,172.16.3.2,13327,172.16.1.2,5101,30708,31893,38,97152,65728,6,6,4,1460,135937,1,16778208,410000,74540,74540,65700,0,31856,0,2784392790,63
o,1723653700.721046,172.16.3.2,13327,172.16.1.2,5101,30708,31893,38,95680,65728,6,6,4,1460,137812,1,16778208,410000,74540,71644,65700,0,28960,0,2784392790,63
i,1723653700.721200,172.16.3.2,13327,172.16.1.2,5101,30708,31893,38,95680,65728,6,6,4,1460,137812,1,16778208,410000,74540,71644,65700,0,31856,0,2784392790,63
o,1723653700.721216,172.16.3.2,13327,172.16.1.2,5101,30708,31893,38,95680,65728,6,6,4,1460,139375,1,16778208,400000,74540,68748,65700,0,28960,0,2784392790,63
i,1723653700.721372,172.16.3.2,13327,172.16.1.2,5101,30708,31893,38,95680,65728,6,6,4,1460,139375,1,16778208,400000,74540,68748,65700,0,31856,0,2784392790,63
o,1723653700.721388,172.16.3.2,13327,172.16.1.2,5101,30708,31893,38,95680,65728,6,6,4,1460,140937,1,16778208,400000,74540,65852,65700,0,28960,0,2784392790,63
i,1723653700.721516,172.16.3.2,13327,172.16.1.2,5101,30708,31893,38,95680,65728,6,6,4,1460,140937,1,16778208,400000,74540,65852,65700,0,31856,0,2784392790,63
o,1723653700.721536,172.16.3.2,13327,172.16.1.2,5101,30708,31893,38,92800,65728,6,6,4,1460,142187,1,16778208,400000,74540,62956,65700,0,28960,0,2784392790,63
i,1723653700.724186,172.16.3.2,13327,172.16.1.2,5101,30708,31893,38,92800,65728,6,6,4,1460,142187,1,16778208,400000,74540,74540,65700,0,31856,0,2784392790,63
o,1723653700.724256,172.16.3.2,13327,172.16.1.2,5101,30708,31893,38,89920,65728,6,6,4,1460,143437,1,16778208,390000,74540,71644,65700,0,28960,0,2784392790,63
i,1723653700.737052,172.16.3.2,13327,172.16.1.2,5101,30708,31893,38,89920,65728,6,6,4,1460,143437,1,16778208,390000,74540,74540,65700,0,31856,0,2784392790,63
o,1723653700.737078,172.16.3.2,13327,172.16.1.2,5101,30708,31893,38,95680,65728,6,6,4,1460,140625,1,16778208,400000,74540,71644,65700,0,28960,0,2784392790,63
i,1723653700.737201,172.16.3.2,13327,172.16.1.2,5101,30708,31893,38,95680,65728,6,6,4,1460,140625,1,16778208,400000,74540,71644,65700,0,31856,0,2784392790,63
o,1723653700.737217,172.16.3.2,13327,172.16.1.2,5101,30708,31893,38,95680,65728,6,6,4,1460,138125,1,16778208,400000,74540,68748,65700,0,28960,0,2784392790,63
i,1723653700.737333,172.16.3.2,13327,172.16.1.2,5101,30708,31893,38,95680,65728,6,6,4,1460,138125,1,16778208,400000,74540,68748,65700,0,31856,0,2784392790,63
o,1723653700.737362,172.16.3.2,13327,172.16.1.2,5101,30708,31893,38,92800,65728,6,6,4,1460,135937,1,16778208,400000,74540,65852,65700,0,28960,0,2784392790,63
o,1723653700.737465,172.16.3.2,13327,172.16.1.2,5101,30708,31893,38,92800,65728,6,6,4,1460,135937,1,16778208,400000,74540,65852,65700,0,30408,0,2784392790,63
i,1723653700.737581,172.16.3.2,13327,172.16.1.2,5101,30708,31893,38,92800,65728,6,6,4,1460,135937,1,16778208,400000,74540,65852,65700,0,31856,0,2784392790,63
o,1723653700.737597,172.16.3.2,13327,172.16.1.2,5101,30708,31893,38,97152,65728,6,6,4,1460,134062,1,16778208,400000,74540,62956,65700,0,28960,0,2784392790,63
i,1723653700.814215,172.16.3.2,13327,172.16.1.2,5101,30708,31893,38,97152,65728,6,6,4,1460,134062,1,16778208,400000,74540,74540,65700,0,31856,0,2784392790,63
o,1723653700.814275,172.16.3.2,13327,172.16.1.2,5101,30708,31893,38,95680,65728,6,6,4,1460,133750,1,16778208,380000,74540,71644,65700,0,28960,0,2784392790,63
i,1723653700.814453,172.16.3.2,13327,172.16.1.2,5101,30708,31893,38,95680,65728,6,6,4,1460,133750,1,16778208,380000,74540,71644,65700,0,31856,0,2784392790,63
o,1723653700.814470,172.16.3.2,13327,172.16.1.2,5101,30708,31893,38,97152,65728,6,6,4,1460,132187,1,16778208,380000,74540,68748,65700,0,28960,0,2784392790,63
i,1723653700.814658,172.16.3.2,13327,172.16.1.2,5101,30708,31893,38,97152,65728,6,6,4,1460,132187,1,16778208,380000,74540,68748,65700,0,31856,0,2784392790,63
o,1723653700.814681,172.16.3.2,13327,172.16.1.2,5101,30708,31893,38,95680,65728,6,6,4,1460,127187,1,16778208,400000,74540,65852,65700,0,28960,0,2784392790,63
i,1723653700.815086,172.16.3.2,13327,172.16.1.2,5101,30708,31893,38,95680,65728,6,6,4,1460,127187,1,16778208,400000,74540,74540,65700,0,31856,0,2784392790,63
o,1723653700.815146,172.16.3.2,13327,172.16.1.2,5101,30708,31893,38,92800,65728,6,6,4,1460,122812,1,16778208,420000,74540,71644,65700,0,28960,0,2784392790,63
i,1723653700.846066,172.16.3.2,13327,172.16.1.2,5101,30708,31893,38,92800,65728,6,6,4,1460,122812,1,16778208,420000,74540,74540,65700,0,31856,0,2784392790,63
o,1723653700.846148,172.16.3.2,13327,172.16.1.2,5101,30708,31893,38,97152,65728,6,6,4,1460,123750,1,16778208,400000,74540,71644,65700,0,28960,0,2784392790,63
i,1723653700.846644,172.16.3.2,13327,172.16.1.2,5101,30708,31893,38,97152,65728,6,6,4,1460,123750,1,16778208,400000,74540,71644,65700,0,31856,0,2784392790,63
o,1723653700.846704,172.16.3.2,13327,172.16.1.2,5101,30708,31893,38,97152,65728,6,6,4,1460,124687,1,16778208,390000,74540,68748,65700,0,28960,0,2784392790,63
i,1723653700.847137,172.16.3.2,13327,172.16.1.2,5101,30708,31893,38,97152,65728,6,6,4,1460,124687,1,16778208,390000,74540,68748,65700,0,31856,0,2784392790,63
o,1723653700.847189,172.16.3.2,13327,172.16.1.2,5101,30708,31893,38,95680,65728,6,6,4,1460,124375,1,16778208,370000,74540,65852,65700,0,28960,0,2784392790,63
i,1723653700.861390,172.16.3.2,13327,172.16.1.2,5101,30708,31893,38,95680,65728,6,6,4,1460,124375,1,16778208,370000,74540,74540,65700,0,31856,0,2784392790,63
o,1723653700.861390,172.16.3.2,13327,172.16.1.2,5101,30708,31893,38,97152,65728,6,6,4,1460,124062,1,16778208,360000,74540,71644,65700,0,28960,0,2784392790,63
i,1723653700.861390,172.16.3.2,13327,172.16.1.2,5101,30708,31893,38,97152,65728,6,6,4,1460,124062,1,16778208,360000,74540,71644,65700,0,31856,0,2784392790,63
o,1723653700.861390,172.16.3.2,13327,172.16.1.2,5101,30708,31893,38,97152,65728,6,6,4,1460,123750,1,16778208,360000,74540,68748,65700,0,28960,0,2784392790,63
i,1723653700.862972,172.16.3.2,13327,172.16.1.2,5101,30708,31893,38,97152,65728,6,6,4,1460,123750,1,16778208,360000,74540,74540,65700,0,31856,0,2784392790,63
o,1723653700.862989,172.16.3.2,13327,172.16.1.2,5101,30708,31893,38,97152,65728,6,6,4,1460,123437,1,16778208,350000,74540,71644,65700,0,28960,0,2784392790,63
o,1723653700.863096,172.16.3.2,13327,172.16.1.2,5101,30708,31893,38,97152,65728,6,6,4,1460,123437,1,16778208,350000,74540,71644,65700,0,30408,0,2784392790,63
i,1723653700.864432,172.16.3.2,13327,172.16.1.2,5101,30708,31893,38,97152,65728,6,6,4,1460,123437,1,16778208,350000,74540,74540,65700,0,31856,0,2784392790,63
o,1723653700.864450,172.16.3.2,13327,172.16.1.2,5101,30708,31893,38,94272,65728,6,6,4,1460,123125,1,16778208,350000,74540,71644,65700,0,28960,0,2784392790,63
i,1723653700.947298,172.16.3.2,13327,172.16.1.2,5101,30708,31893,38,94272,65728,6,6,4,1460,123125,1,16778208,350000,74540,74540,65700,0,31856,0,2784392790,63
o,1723653700.947399,172.16.3.2,13327,172.16.1.2,5101,30708,31893,38,97152,65728,6,6,4,1460,124062,1,16778208,350000,74540,71644,65700,0,28960,0,2784392790,63
i,1723653700.957435,172.16.3.2,13327,172.16.1.2,5101,30708,31893,38,97152,65728,6,6,4,1460,124062,1,16778208,350000,74540,74540,65700,0,31856,0,2784392790,63
o,1723653700.957465,172.16.3.2,13327,172.16.1.2,5101,30708,31893,38,97152,65728,6,6,4,1460,126250,1,16778208,360000,74540,71644,65700,0,28960,0,2784392790,63
i,1723653700.959574,172.16.3.2,13327,172.16.1.2,5101,30708,31893,38,97152,65728,6,6,4,1460,126250,1,16778208,360000,74540,74540,65700,0,31856,0,2784392790,63
o,1723653700.959618,172.16.3.2,13327,172.16.1.2,5101,30708,31893,38,94272,65728,6,6,4,1460,128125,1,16778208,370000,74540,71644,65700,0,28960,0,2784392790,63
i,1723653700.959765,172.16.3.2,13327,172.16.1.2,5101,30708,31893,38,94272,65728,6,6,4,1460,128125,1,16778208,370000,74540,71644,65700,0,31856,0,2784392790,63
o,1723653700.959782,172.16.3.2,13327,172.16.1.2,5101,30708,31893,38,91392,65728,6,6,4,1460,129687,1,16778208,370000,74540,68748,65700,0,28960,0,2784392790,63
i,1723653700.960844,172.16.3.2,13327,172.16.1.2,5101,30708,31893,38,91392,65728,6,6,4,1460,129687,1,16778208,370000,74540,74540,65700,0,31856,0,2784392790,63
o,1723653700.960862,172.16.3.2,13327,172.16.1.2,5101,30708,31893,38,97152,65728,6,6,4,1460,127500,1,16778208,380000,74540,71644,65700,0,28960,0,2784392790,63
i,1723653700.990419,172.16.3.2,13327,172.16.1.2,5101,30708,31893,38,97152,65728,6,6,4,1460,127500,1,16778208,380000,74540,74540,65700,0,31856,0,2784392790,63
o,1723653700.990419,172.16.3.2,13327,172.16.1.2,5101,30708,31893,38,97152,65728,6,6,4,1460,129062,1,16778208,380000,74540,71644,65700,0,28960,0,2784392790,63
i,1723653700.992592,172.16.3.2,13327,172.16.1.2,5101,30708,31893,38,97152,65728,6,6,4,1460,129062,1,16778208,380000,74540,74540,65700,0,31856,0,2784392790,63
o,1723653700.992676,172.16.3.2,13327,172.16.1.2,5101,30708,31893,38,97152,65728,6,6,4,1460,130625,1,16778208,380000,74540,71644,65700,0,28960,0,2784392790,63
i,1723653700.992854,172.16.3.2,13327,172.16.1.2,5101,30708,31893,38,97152,65728,6,6,4,1460,130625,1,16778208,380000,74540,71644,65700,0,31856,0,2784392790,63
o,1723653700.992871,172.16.3.2,13327,172.16.1.2,5101,30708,31893,38,95680,65728,6,6,4,1460,131875,1,16778208,380000,74540,68748,65700,0,28960,0,2784392790,63
i,1723653700.995534,172.16.3.2,13327,172.16.1.2,5101,30708,31893,38,95680,65728,6,6,4,1460,131875,1,16778208,380000,74540,74540,65700,0,31856,0,2784392790,63
o,1723653700.995595,172.16.3.2,13327,172.16.1.2,5101,30708,31893,38,95680,65728,6,6,4,1460,133125,1,16778208,380000,74540,71644,65700,0,28960,0,2784392790,63
i,1723653700.995716,172.16.3.2,13327,172.16.1.2,5101,30708,31893,38,95680,65728,6,6,4,1460,133125,1,16778208,380000,74540,71644,65700,0,31856,0,2784392790,63
o,1723653700.995733,172.16.3.2,13327,172.16.1.2,5101,30708,31893,38,95680,65728,6,6,4,1460,132812,1,16778208,370000,74540,68748,65700,0,28960,0,2784392790,63
o,1723653700.995858,172.16.3.2,13327,172.16.1.2,5101,30708,31893,38,95680,65728,6,6,4,1460,132812,1,16778208,370000,74540,68748,65700,0,30408,0,2784392790,63
i,1723653701.018494,172.16.3.2,13327,172.16.1.2,5101,30708,31893,38,95680,65728,6,6,4,1460,132812,1,16778208,370000,74540,74540,65700,0,31856,0,2784392790,63
o,1723653701.018534,172.16.3.2,13327,172.16.1.2,5101,30708,31893,38,95680,65728,6,6,4,1460,135000,1,16778208,380000,74540,71644,65700,0,28960,0,2784392790,63
i,1723653701.080060,172.16.3.2,13327,172.16.1.2,5101,30708,31893,38,95680,65728,6,6,4,1460,135000,1,16778208,380000,74540,74540,65700,0,31856,0,2784392790,63
o,1723653701.080103,172.16.3.2,13327,172.16.1.2,5101,30708,31893,38,95680,65728,6,6,4,1460,134375,1,16778208,370000,74540,71644,65700,0,28960,0,2784392790,63
i,1723653701.081098,172.16.3.2,13327,172.16.1.2,5101,30708,31893,38,95680,65728,6,6,4,1460,134375,1,16778208,370000,74540,74540,65700,0,31856,0,2784392790,63
o,1723653701.081194,172.16.3.2,13327,172.16.1.2,5101,30708,31893,38,97152,65728,6,6,4,1460,131562,1,16778208,380000,74540,71644,65700,0,28960,0,2784392790,63
i,1723653701.100247,172.16.3.2,13327,172.16.1.2,5101,30708,31893,38,97152,65728,6,6,4,1460,131562,1,16778208,380000,74540,74540,65700,0,31856,0,2784392790,63
o,1723653701.100269,172.16.3.2,13327,172.16.1.2,5101,30708,31893,38,97152,65728,6,6,4,1460,132812,1,16778208,380000,74540,71644,65700,0,28960,0,2784392790,63
i,1723653701.100415,172.16.3.2,13327,172.16.1.2,5101,30708,31893,38,97152,65728,6,6,4,1460,132812,1,16778208,380000,74540,71644,65700,0,31856,0,2784392790,63
o,1723653701.100448,172.16.3.2,13327,172.16.1.2,5101,30708,31893,38,94272,65728,6,6,4,1460,133750,1,16778208,380000,74540,68748,65700,0,28960,0,2784392790,63
i,1723653701.100768,172.16.3.2,13327,172.16.1.2,5101,30708,31893,38,94272,65728,6,6,4,1460,133750,1,16778208,380000,74540,68748,65700,0,31856,0,2784392790,63
o,1723653701.100784,172.16.3.2,13327,172.16.1.2,5101,30708,31893,38,97152,65728,6,6,4,1460,134687,1,16778208,370000,74540,65852,65700,0,28960,0,2784392790,63
i,1723653701.128114,172.16.3.2,13327,172.16.1.2,5101,30708,31893,38,97152,65728,6,6,4,1460,134687,1,16778208,370000,74540,74540,65700,0,31856,0,2784392790,63
o,1723653701.128137,172.16.3.2,13327,172.16.1.2,5101,30708,31893,38,95680,65728,6,6,4,1460,134375,1,16778208,370000,74540,71644,65700,0,28960,0,2784392790,63
i,1723653701.128364,172.16.3.2,13327,172.16.1.2,5101,30708,31893,38,95680,65728,6,6,4,1460,134375,1,16778208,370000,74540,71644,65700,0,31856,0,2784392790,63
o,1723653701.128382,172.16.3.2,13327,172.16.1.2,5101,30708,31893,38,92800,65728,6,6,4,1460,134062,1,16778208,360000,74540,68748,65700,0,28960,0,2784392790,63
i,1723653701.128536,172.16.3.2,13327,172.16.1.2,5101,30708,31893,38,92800,65728,6,6,4,1460,134062,1,16778208,360000,74540,68748,65700,0,31856,0,2784392790,63
o,1723653701.128560,172.16.3.2,13327,172.16.1.2,5101,30708,31893,38,97152,65728,6,6,4,1460,133750,1,16778208,360000,74540,65852,65700,0,28960,0,2784392790,63
i,1723653701.128893,172.16.3.2,13327,172.16.1.2,5101,30708,31893,38,97152,65728,6,6,4,1460,133750,1,16778208,360000,74540,65852,65700,0,31856,0,2784392790,63
o,1723653701.128915,172.16.3.2,13327,172.16.1.2,5101,30708,31893,38,95680,65728,6,6,4,1460,133437,1,16778208,350000,74540,62956,65700,0,28960,0,2784392790,63
i,1723653701.130933,172.16.3.2,13327,172.16.1.2,5101,30708,31893,38,95680,65728,6,6,4,1460,133437,1,16778208,350000,74540,74540,65700,0,31856,0,2784392790,63
o,1723653701.130964,172.16.3.2,13327,172.16.1.2,5101,30708,31893,38,92800,65728,6,6,4,1460,133125,1,16778208,350000,74540,71644,65700,0,28960,0,2784392790,63
o,1723653701.131072,172.16.3.2,13327,172.16.1.2,5101,30708,31893,38,92800,65728,6,6,4,1460,133125,1,16778208,350000,74540,71644,65700,0,30408,0,2784392790,63
i,1723653701.131185,172.16.3.2,13327,172.16.1.2,5101,30708,31893,38,92800,65728,6,6,4,1460,133125,1,16778208,350000,74540,71644,65700,0,31856,0,2784392790,63
o,1723653701.131213,172.16.3.2,13327,172.16.1.2,5101,30708,31893,38,95680,65728,6,6,4,1460,129062,1,16778208,370000,74540,68748,65700,0,28960,0,2784392790,63
i,1723653701.229574,172.16.3.2,13327,172.16.1.2,5101,30708,31893,38,95680,65728,6,6,4,1460,129062,1,16778208,370000,74540,74540,65700,0,31856,0,2784392790,63
o,1723653701.229621,172.16.3.2,13327,172.16.1.2,5101,30708,31893,38,97152,65728,6,6,4,1460,131875,1,16778208,390000,74540,71644,65700,0,28960,0,2784392790,63
i,1723653701.231708,172.16.3.2,13327,172.16.1.2,5101,30708,31893,38,97152,65728,6,6,4,1460,131875,1,16778208,390000,74540,74540,65700,0,31856,0,2784392790,63
o,1723653701.231744,172.16.3.2,13327,172.16.1.2,5101,30708,31893,38,97152,65728,6,6,4,1460,134375,1,16778208,390000,74540,71644,65700,0,28960,0,2784392790,63
i,1723653701.258612,172.16.3.2,13327,172.16.1.2,5101,30708,31893,38,97152,65728,6,6,4,1460,134375,1,16778208,390000,74540,74540,65700,0,31856,0,2784392790,63
o,1723653701.258636,172.16.3.2,13327,172.16.1.2,5101,30708,31893,38,97152,65728,6,6,4,1460,137812,1,16778208,410000,74540,71644,65700,0,28960,0,2784392790,63
i,1723653701.258782,172.16.3.2,13327,172.16.1.2,5101,30708,31893,38,97152,65728,6,6,4,1460,137812,1,16778208,410000,74540,71644,65700,0,31856,0,2784392790,63
o,1723653701.258805,172.16.3.2,13327,172.16.1.2,5101,30708,31893,38,95680,65728,6,6,4,1460,140625,1,16778208,420000,74540,68748,65700,0,28960,0,2784392790,63
i,1723653701.258987,172.16.3.2,13327,172.16.1.2,5101,30708,31893,38,95680,65728,6,6,4,1460,140625,1,16778208,420000,74540,68748,65700,0,31856,0,2784392790,63
o,1723653701.259003,172.16.3.2,13327,172.16.1.2,5101,30708,31893,38,92800,65728,6,6,4,1460,143125,1,16778208,420000,74540,65852,65700,0,28960,0,2784392790,63
i,1723653701.260104,172.16.3.2,13327,172.16.1.2,5101,30708,31893,38,92800,65728,6,6,4,1460,143125,1,16778208,420000,74540,74540,65700,0,31856,0,2784392790,63
o,1723653701.260123,172.16.3.2,13327,172.16.1.2,5101,30708,31893,38,95680,65728,6,6,4,1460,141562,1,16778208,410000,74540,71644,65700,0,28960,0,2784392790,63
i,1723653701.260241,172.16.3.2,13327,172.16.1.2,5101,30708,31893,38,95680,65728,6,6,4,1460,141562,1,16778208,410000,74540,71644,65700,0,31856,0,2784392790,63
o,1723653701.260256,172.16.3.2,13327,172.16.1.2,5101,30708,31893,38,92800,65728,6,6,4,1460,140312,1,16778208,400000,74540,68748,65700,0,28960,0,2784392790,63
i,1723653701.260380,172.16.3.2,13327,172.16.1.2,5101,30708,31893,38,92800,65728,6,6,4,1460,140312,1,16778208,400000,74540,68748,65700,0,31856,0,2784392790,63
o,1723653701.260396,172.16.3.2,13327,172.16.1.2,5101,30708,31893,38,97152,65728,6,6,4,1460,139062,1,16778208,400000,74540,65852,65700,0,28960,0,2784392790,63
i,1723653701.290927,172.16.3.2,13327,172.16.1.2,5101,30708,31893,38,97152,65728,6,6,4,1460,139062,1,16778208,400000,74540,74540,65700,0,31856,0,2784392790,63
o,1723653701.290952,172.16.3.2,13327,172.16.1.2,5101,30708,31893,38,97152,65728,6,6,4,1460,141875,1,16778208,410000,74540,71644,65700,0,28960,0,2784392790,63
i,1723653701.291082,172.16.3.2,13327,172.16.1.2,5101,30708,31893,38,97152,65728,6,6,4,1460,141875,1,16778208,410000,74540,71644,65700,0,31856,0,2784392790,63
o,1723653701.291099,172.16.3.2,13327,172.16.1.2,5101,30708,31893,38,94272,65728,6,6,4,1460,144375,1,16778208,410000,74540,68748,65700,0,28960,0,2784392790,63
o,1723653701.291262,172.16.3.2,13327,172.16.1.2,5101,30708,31893,38,94272,65728,6,6,4,1460,144375,1,16778208,410000,74540,68748,65700,0,30408,0,2784392790,63
i,1723653701.291403,172.16.3.2,13327,172.16.1.2,5101,30708,31893,38,94272,65728,6,6,4,1460,144375,1,16778208,410000,74540,68748,65700,0,31856,0,2784392790,63
o,1723653701.291418,172.16.3.2,13327,172.16.1.2,5101,30708,31893,38,97152,65728,6,6,4,1460,146562,1,16778208,410000,74540,65852,65700,0,28960,0,2784392790,63
i,1723653701.388715,172.16.3.2,13327,172.16.1.2,5101,30708,31893,38,97152,65728,6,6,4,1460,146562,1,16778208,410000,74540,74540,65700,0,31856,0,2784392790,63
o,1723653701.388791,172.16.3.2,13327,172.16.1.2,5101,30708,31893,38,97152,65728,6,6,4,1460,148437,1,16778208,410000,74540,71644,65700,0,28960,0,2784392790,63
i,1723653701.390181,172.16.3.2,13327,172.16.1.2,5101,30708,31893,38,97152,65728,6,6,4,1460,148437,1,16778208,410000,74540,74540,65700,0,31856,0,2784392790,63
o,1723653701.390219,172.16.3.2,13327,172.16.1.2,5101,30708,31893,38,97152,65728,6,6,4,1460,150000,1,16778208,410000,74540,71644,65700,0,28960,0,2784392790,63
i,1723653701.425198,172.16.3.2,13327,172.16.1.2,5101,30708,31893,38,97152,65728,6,6,4,1460,150000,1,16778208,410000,74540,74540,65700,0,31856,0,2784392790,63
o,1723653701.425285,172.16.3.2,13327,172.16.1.2,5101,30708,31893,38,95680,65728,6,6,4,1460,151250,1,16778208,410000,74540,71644,65700,0,28960,0,2784392790,63
i,1723653701.425440,172.16.3.2,13327,172.16.1.2,5101,30708,31893,38,95680,65728,6,6,4,1460,151250,1,16778208,410000,74540,71644,65700,0,31856,0,2784392790,63
o,1723653701.425456,172.16.3.2,13327,172.16.1.2,5101,30708,31893,38,92800,65728,6,6,4,1460,152500,1,16778208,400000,74540,68748,65700,0,28960,0,2784392790,63
i,1723653701.426827,172.16.3.2,13327,172.16.1.2,5101,30708,31893,38,92800,65728,6,6,4,1460,152500,1,16778208,400000,74540,74540,65700,0,31856,0,2784392790,63
o,1723653701.426894,172.16.3.2,13327,172.16.1.2,5101,30708,31893,38,89920,65728,6,6,4,1460,153437,1,16778208,400000,74540,71644,65700,0,28960,0,2784392790,63
i,1723653701.427098,172.16.3.2,13327,172.16.1.2,5101,30708,31893,38,89920,65728,6,6,4,1460,153437,1,16778208,400000,74540,71644,65700,0,31856,0,2784392790,63
o,1723653701.427114,172.16.3.2,13327,172.16.1.2,5101,30708,31893,38,87040,65728,6,6,4,1460,154375,1,16778208,390000,74540,68748,65700,0,28960,0,2784392790,63
i,1723653701.427240,172.16.3.2,13327,172.16.1.2,5101,30708,31893,38,87040,65728,6,6,4,1460,154375,1,16778208,390000,74540,68748,65700,0,31856,0,2784392790,63
o,1723653701.427256,172.16.3.2,13327,172.16.1.2,5101,30708,31893,38,84160,65728,6,6,4,1460,155312,1,16778208,390000,74540,65852,65700,0,28960,0,2784392790,63
i,1723653701.427413,172.16.3.2,13327,172.16.1.2,5101,30708,31893,38,84160,65728,6,6,4,1460,155312,1,16778208,390000,74540,65852,65700,0,31856,0,2784392790,63
o,1723653701.427429,172.16.3.2,13327,172.16.1.2,5101,30708,31893,38,81280,65728,6,6,4,1460,155937,1,16778208,390000,74540,62956,65700,0,28960,0,2784392790,63
i,1723653701.427571,172.16.3.2,13327,172.16.1.2,5101,30708,31893,38,81280,65728,6,6,4,1460,155937,1,16778208,390000,74540,62956,65700,0,31856,0,2784392790,63
o,1723653701.427594,172.16.3.2,13327,172.16.1.2,5101,30708,31893,38,78400,65728,6,6,4,1460,152812,1,16778208,400000,74540,60060,65700,0,28960,0,2784392790,63
i,1723653701.428061,172.16.3.2,13327,172.16.1.2,5101,30708,31893,38,78400,65728,6,6,4,1460,152812,1,16778208,400000,74540,74540,65700,0,31856,0,2784392790,63
o,1723653701.428079,172.16.3.2,13327,172.16.1.2,5101,30708,31893,38,75520,65728,6,6,4,1460,150000,1,16778208,410000,74540,71644,65700,0,28960,0,2784392790,63
o,1723653701.428200,172.16.3.2,13327,172.16.1.2,5101,30708,31893,38,75520,65728,6,6,4,1460,150000,1,16778208,410000,74540,71644,65700,0,30408,0,2784392790,63
i,1723653701.438767,172.16.3.2,13327,172.16.1.2,5101,30708,31893,38,75520,65728,6,6,4,1460,150000,1,16778208,410000,74540,74540,65700,0,31856,0,2784392790,63
o,1723653701.438792,172.16.3.2,13327,172.16.1.2,5101,30708,31893,38,97152,65728,6,6,4,1460,150000,1,16778208,400000,74540,71644,65700,0,28960,0,2784392790,63
i,1723653701.528903,172.16.3.2,13327,172.16.1.2,5101,30708,31893,38,97152,65728,6,6,4,1460,150000,1,16778208,400000,74540,74540,65700,0,31856,0,2784392790,63
o,1723653701.529304,172.16.3.2,13327,172.16.1.2,5101,30708,31893,38,95680,65728,6,6,4,1460,147500,1,16778208,400000,74540,71644,65700,0,28960,0,2784392790,63
i,1723653701.558873,172.16.3.2,13327,172.16.1.2,5101,30708,31893,38,95680,65728,6,6,4,1460,147500,1,16778208,400000,74540,74540,65700,0,31856,0,2784392790,63
o,1723653701.559127,172.16.3.2,13327,172.16.1.2,5101,30708,31893,38,97152,65728,6,6,4,1460,150312,1,16778208,410000,74540,71644,65700,0,28960,0,2784392790,63
i,1723653701.577105,172.16.3.2,13327,172.16.1.2,5101,30708,31893,38,97152,65728,6,6,4,1460,150312,1,16778208,410000,74540,74540,65700,0,31856,0,2784392790,63
o,1723653701.577156,172.16.3.2,13327,172.16.1.2,5101,30708,31893,38,95680,65728,6,6,4,1460,150312,1,16778208,400000,74540,71644,65700,0,28960,0,2784392790,63
i,1723653701.578194,172.16.3.2,13327,172.16.1.2,5101,30708,31893,38,95680,65728,6,6,4,1460,150312,1,16778208,400000,74540,71644,65700,0,31856,0,2784392790,63
o,1723653701.578245,172.16.3.2,13327,172.16.1.2,5101,30708,31893,38,97152,65728,6,6,4,1460,150312,1,16778208,390000,74540,68748,65700,0,28960,0,2784392790,63
i,1723653701.578494,172.16.3.2,13327,172.16.1.2,5101,30708,31893,38,97152,65728,6,6,4,1460,150312,1,16778208,390000,74540,68748,65700,0,31856,0,2784392790,63
o,1723653701.578522,172.16.3.2,13327,172.16.1.2,5101,30708,31893,38,97152,65728,6,6,4,1460,150312,1,16778208,380000,74540,65852,65700,0,28960,0,2784392790,63
i,1723653701.578689,172.16.3.2,13327,172.16.1.2,5101,30708,31893,38,97152,65728,6,6,4,1460,150312,1,16778208,380000,74540,65852,65700,0,31856,0,2784392790,63
o,1723653701.578714,172.16.3.2,13327,172.16.1.2,5101,30708,31893,38,97152,65728,6,6,4,1460,150312,1,16778208,370000,74540,62956,65700,0,28960,0,2784392790,63
i,1723653701.578860,172.16.3.2,13327,172.16.1.2,5101,30708,31893,38,97152,65728,6,6,4,1460,150312,1,16778208,370000,74540,62956,65700,0,31856,0,2784392790,63
o,1723653701.578883,172.16.3.2,13327,172.16.1.2,5101,30708,31893,38,94272,65728,6,6,4,1460,150312,1,16778208,360000,74540,60060,65700,0,28960,0,2784392790,63
i,1723653701.581406,172.16.3.2,13327,172.16.1.2,5101,30708,31893,38,94272,65728,6,6,4,1460,150312,1,16778208,360000,74540,74540,65700,0,31856,0,2784392790,63
o,1723653701.581419,172.16.3.2,13327,172.16.1.2,5101,30708,31893,38,95680,65728,6,6,4,1460,150312,1,16778208,360000,74540,71644,65700,0,28960,0,2784392790,63
i,1723653701.581419,172.16.3.2,13327,172.16.1.2,5101,30708,31893,38,95680,65728,6,6,4,1460,150312,1,16778208,360000,74540,71644,65700,0,31856,0,2784392790,63
o,1723653701.581419,172.16.3.2,13327,172.16.1.2,5101,30708,31893,38,92800,65728,6,6,4,1460,150312,1,16778208,360000,74540,68748,65700,0,28960,0,2784392790,63
i,1723653701.581419,172.16.3.2,13327,172.16.1.2,5101,30708,31893,38,92800,65728,6,6,4,1460,150312,1,16778208,360000,74540,68748,65700,0,31856,0,2784392790,63
o,1723653701.581419,172.16.3.2,13327,172.16.1.2,5101,30708,31893,38,89920,65728,6,6,4,1460,150312,1,16778208,360000,74540,65852,65700,0,28960,0,2784392790,63
o,1723653701.582007,172.16.3.2,13327,172.16.1.2,5101,30708,31893,38,89920,65728,6,6,4,1460,150312,1,16778208,360000,74540,65852,65700,0,30408,0,2784392790,63
i,1723653701.588532,172.16.3.2,13327,172.16.1.2,5101,30708,31893,38,89920,65728,6,6,4,1460,150312,1,16778208,360000,74540,74540,65700,0,31856,0,2784392790,63
o,1723653701.588551,172.16.3.2,13327,172.16.1.2,5101,30708,31893,38,97152,65728,6,6,4,1460,149062,1,16778208,360000,74540,71644,65700,0,28960,0,2784392790,63
i,1723653701.668510,172.16.3.2,13327,172.16.1.2,5101,30708,31893,38,97152,65728,6,6,4,1460,149062,1,16778208,360000,74540,74540,65700,0,31856,0,2784392790,63
o,1723653701.668703,172.16.3.2,13327,172.16.1.2,5101,30708,31893,38,95680,65728,6,6,4,1460,148125,1,16778208,370000,74540,71644,65700,0,28960,0,2784392790,63
i,1723653701.692810,172.16.3.2,13327,172.16.1.2,5101,30708,31893,38,95680,65728,6,6,4,1460,148125,1,16778208,370000,74540,74540,65700,0,31856,0,2784392790,63
o,1723653701.692837,172.16.3.2,13327,172.16.1.2,5101,30708,31893,38,97152,65728,6,6,4,1460,145937,1,16778208,380000,74540,71644,65700,0,28960,0,2784392790,63
i,1723653701.694320,172.16.3.2,13327,172.16.1.2,5101,30708,31893,38,97152,65728,6,6,4,1460,145937,1,16778208,380000,74540,74540,65700,0,31856,0,2784392790,63
o,1723653701.694340,172.16.3.2,13327,172.16.1.2,5101,30708,31893,38,97152,65728,6,6,4,1460,142812,1,16778208,390000,74540,71644,65700,0,28960,0,2784392790,63
i,1723653701.694497,172.16.3.2,13327,172.16.1.2,5101,30708,31893,38,97152,65728,6,6,4,1460,142812,1,16778208,390000,74540,71644,65700,0,31856,0,2784392790,63
o,1723653701.694514,172.16.3.2,13327,172.16.1.2,5101,30708,31893,38,95680,65728,6,6,4,1460,140000,1,16778208,400000,74540,68748,65700,0,28960,0,2784392790,63
i,1723653701.695569,172.16.3.2,13327,172.16.1.2,5101,30708,31893,38,95680,65728,6,6,4,1460,140000,1,16778208,400000,74540,74540,65700,0,31856,0,2784392790,63
o,1723653701.695590,172.16.3.2,13327,172.16.1.2,5101,30708,31893,38,97152,65728,6,6,4,1460,137500,1,16778208,400000,74540,71644,65700,0,28960,0,2784392790,63
i,1723653701.695786,172.16.3.2,13327,172.16.1.2,5101,30708,31893,38,97152,65728,6,6,4,1460,137500,1,16778208,400000,74540,71644,65700,0,31856,0,2784392790,63
o,1723653701.695803,172.16.3.2,13327,172.16.1.2,5101,30708,31893,38,94272,65728,6,6,4,1460,135312,1,16778208,400000,74540,68748,65700,0,28960,0,2784392790,63
i,1723653701.717779,172.16.3.2,13327,172.16.1.2,5101,30708,31893,38,94272,65728,6,6,4,1460,135312,1,16778208,400000,74540,74540,65700,0,31856,0,2784392790,63
o,1723653701.717797,172.16.3.2,13327,172.16.1.2,5101,30708,31893,38,97152,65728,6,6,4,1460,135937,1,16778208,390000,74540,71644,65700,0,28960,0,2784392790,63
i,1723653701.717924,172.16.3.2,13327,172.16.1.2,5101,30708,31893,38,97152,65728,6,6,4,1460,135937,1,16778208,390000,74540,71644,65700,0,31856,0,2784392790,63
o,1723653701.717939,172.16.3.2,13327,172.16.1.2,5101,30708,31893,38,94272,65728,6,6,4,1460,136562,1,16778208,380000,74540,68748,65700,0,28960,0,2784392790,63
i,1723653701.718100,172.16.3.2,13327,172.16.1.2,5101,30708,31893,38,94272,65728,6,6,4,1460,136562,1,16778208,380000,74540,68748,65700,0,31856,0,2784392790,63
o,1723653701.718116,172.16.3.2,13327,172.16.1.2,5101,30708,31893,38,91392,65728,6,6,4,1460,137187,1,16778208,370000,74540,65852,65700,0,28960,0,2784392790,63
i,1723653701.718271,172.16.3.2,13327,172.16.1.2,5101,30708,31893,38,91392,65728,6,6,4,1460,137187,1,16778208,370000,74540,65852,65700,0,31856,0,2784392790,63
o,1723653701.718300,172.16.3.2,13327,172.16.1.2,5101,30708,31893,38,88512,65728,6,6,4,1460,137812,1,16778208,370000,74540,62956,65700,0,28960,0,2784392790,63
o,1723653701.718452,172.16.3.2,13327,172.16.1.2,5101,30708,31893,38,88512,65728,6,6,4,1460,137812,1,16778208,370000,74540,62956,65700,0,30408,0,2784392790,63
i,1723653701.718574,172.16.3.2,13327,172.16.1.2,5101,30708,31893,38,88512,65728,6,6,4,1460,137812,1,16778208,370000,74540,62956,65700,0,31856,0,2784392790,63
o,1723653701.718590,172.16.3.2,13327,172.16.1.2,5101,30708,31893,38,97152,65728,6,6,4,1460,136875,1,16778208,370000,74540,60060,65700,0,28960,0,2784392790,63
i,1723653701.818872,172.16.3.2,13327,172.16.1.2,5101,30708,31893,38,97152,65728,6,6,4,1460,136875,1,16778208,370000,74540,74540,65700,0,31856,0,2784392790,63
o,1723653701.818910,172.16.3.2,13327,172.16.1.2,5101,30708,31893,38,97152,65728,6,6,4,1460,137500,1,16778208,370000,74540,71644,65700,0,28960,0,2784392790,63
i,1723653701.819057,172.16.3.2,13327,172.16.1.2,5101,30708,31893,38,97152,65728,6,6,4,1460,137500,1,16778208,370000,74540,71644,65700,0,31856,0,2784392790,63
o,1723653701.819076,172.16.3.2,13327,172.16.1.2,5101,30708,31893,38,95680,65728,6,6,4,1460,135312,1,16778208,380000,74540,68748,65700,0,28960,0,2784392790,63
i,1723653701.819221,172.16.3.2,13327,172.16.1.2,5101,30708,31893,38,95680,65728,6,6,4,1460,135312,1,16778208,380000,74540,68748,65700,0,31856,0,2784392790,63
o,1723653701.819252,172.16.3.2,13327,172.16.1.2,5101,30708,31893,38,92800,65728,6,6,4,1460,133437,1,16778208,380000,74540,65852,65700,0,28960,0,2784392790,63
i,1723653701.848949,172.16.3.2,13327,172.16.1.2,5101,30708,31893,38,92800,65728,6,6,4,1460,133437,1,16778208,380000,74540,74540,65700,0,31856,0,2784392790,63
o,1723653701.848977,172.16.3.2,13327,172.16.1.2,5101,30708,31893,38,95680,65728,6,6,4,1460,135625,1,16778208,390000,74540,71644,65700,0,28960,0,2784392790,63
i,1723653701.849271,172.16.3.2,13327,172.16.1.2,5101,30708,31893,38,95680,65728,6,6,4,1460,135625,1,16778208,390000,74540,71644,65700,0,31856,0,2784392790,63
o,1723653701.849289,172.16.3.2,13327,172.16.1.2,5101,30708,31893,38,97152,65728,6,6,4,1460,137500,1,16778208,390000,74540,68748,65700,0,28960,0,2784392790,63
i,1723653701.851396,172.16.3.2,13327,172.16.1.2,5101,30708,31893,38,97152,65728,6,6,4,1460,137500,1,16778208,390000,74540,74540,65700,0,31856,0,2784392790,63
o,1723653701.851417,172.16.3.2,13327,172.16.1.2,5101,30708,31893,38,94272,65728,6,6,4,1460,139062,1,16778208,390000,74540,71644,65700,0,28960,0,2784392790,63
i,1723653701.851701,172.16.3.2,13327,172.16.1.2,5101,30708,31893,38,94272,65728,6,6,4,1460,139062,1,16778208,390000,74540,71644,65700,0,31856,0,2784392790,63
o,1723653701.851717,172.16.3.2,13327,172.16.1.2,5101,30708,31893,38,91392,65728,6,6,4,1460,138125,1,16778208,390000,74540,68748,65700,0,28960,0,2784392790,63
i,1723653701.851843,172.16.3.2,13327,172.16.1.2,5101,30708,31893,38,91392,65728,6,6,4,1460,138125,1,16778208,390000,74540,68748,65700,0,31856,0,2784392790,63
o,1723653701.851859,172.16.3.2,13327,172.16.1.2,5101,30708,31893,38,88512,65728,6,6,4,1460,137187,1,16778208,380000,74540,65852,65700,0,28960,0,2784392790,63
i,1723653701.852227,172.16.3.2,13327,172.16.1.2,5101,30708,31893,38,88512,65728,6,6,4,1460,137187,1,16778208,380000,74540,65852,65700,0,31856,0,2784392790,63
o,1723653701.852243,172.16.3.2,13327,172.16.1.2,5101,30708,31893,38,85632,65728,6,6,4,1460,136562,1,16778208,370000,74540,62956,65700,0,28960,0,2784392790,63
i,1723653701.852363,172.16.3.2,13327,172.16.1.2,5101,30708,31893,38,85632,65728,6,6,4,1460,136562,1,16778208,370000,74540,62956,65700,0,31856,0,2784392790,63
o,1723653701.852380,172.16.3.2,13327,172.16.1.2,5101,30708,31893,38,82752,65728,6,6,4,1460,135937,1,16778208,370000,74540,60060,65700,0,28960,0,2784392790,63
o,1723653701.852504,172.16.3.2,13327,172.16.1.2,5101,30708,31893,38,82752,65728,6,6,4,1460,135937,1,16778208,370000,74540,60060,65700,0,30408,0,2784392790,63
i,1723653701.878759,172.16.3.2,13327,172.16.1.2,5101,30708,31893,38,82752,65728,6,6,4,1460,135937,1,16778208,370000,74540,74540,65700,0,31856,0,2784392790,63
o,1723653701.878836,172.16.3.2,13327,172.16.1.2,5101,30708,31893,38,97152,65728,6,6,4,1460,139062,1,16778208,390000,74540,71644,65700,0,28960,0,2784392790,63
i,1723653701.978332,172.16.3.2,13327,172.16.1.2,5101,30708,31893,38,97152,65728,6,6,4,1460,139062,1,16778208,390000,74540,74540,65700,0,31856,0,2784392790,63
o,1723653701.978413,172.16.3.2,13327,172.16.1.2,5101,30708,31893,38,95680,65728,6,6,4,1460,141875,1,16778208,400000,74540,71644,65700,0,28960,0,2784392790,63
i,1723653701.988801,172.16.3.2,13327,172.16.1.2,5101,30708,31893,38,95680,65728,6,6,4,1460,141875,1,16778208,400000,74540,74540,65700,0,31856,0,2784392790,63
o,1723653701.988822,172.16.3.2,13327,172.16.1.2,5101,30708,31893,38,97152,65728,6,6,4,1460,145625,1,16778208,420000,74540,71644,65700,0,28960,0,2784392790,63
i,1723653701.991101,172.16.3.2,13327,172.16.1.2,5101,30708,31893,38,97152,65728,6,6,4,1460,145625,1,16778208,420000,74540,74540,65700,0,31856,0,2784392790,63
o,1723653701.991168,172.16.3.2,13327,172.16.1.2,5101,30708,31893,38,94272,65728,6,6,4,1460,148750,1,16778208,430000,74540,71644,65700,0,28960,0,2784392790,63
i,1723653701.992162,172.16.3.2,13327,172.16.1.2,5101,30708,31893,38,94272,65728,6,6,4,1460,148750,1,16778208,430000,74540,71644,65700,0,31856,0,2784392790,63
o,1723653701.992222,172.16.3.2,13327,172.16.1.2,5101,30708,31893,38,91392,65728,6,6,4,1460,147812,1,16778208,420000,74540,68748,65700,0,28960,0,2784392790,63
i,1723653701.992373,172.16.3.2,13327,172.16.1.2,5101,30708,31893,38,91392,65728,6,6,4,1460,147812,1,16778208,420000,74540,68748,65700,0,31856,0,2784392790,63
o,1723653701.992406,172.16.3.2,13327,172.16.1.2,5101,30708,31893,38,95680,65728,6,6,4,1460,146875,1,16778208,400000,74540,65852,65700,0,28960,0,2784392790,63
i,1723653702.008205,172.16.3.2,13327,172.16.1.2,5101,30708,31893,38,95680,65728,6,6,4,1460,146875,1,16778208,400000,74540,74540,65700,0,31856,0,2784392790,63
o,1723653702.008234,172.16.3.2,13327,172.16.1.2,5101,30708,31893,38,95680,65728,6,6,4,1460,148750,1,16778208,410000,74540,71644,65700,0,28960,0,2784392790,63
i,1723653702.008401,172.16.3.2,13327,172.16.1.2,5101,30708,31893,38,95680,65728,6,6,4,1460,148750,1,16778208,410000,74540,71644,65700,0,31856,0,2784392790,63
o,1723653702.008423,172.16.3.2,13327,172.16.1.2,5101,30708,31893,38,97152,65728,6,6,4,1460,150312,1,16778208,410000,74540,68748,65700,0,28960,0,2784392790,63
i,1723653702.009823,172.16.3.2,13327,172.16.1.2,5101,30708,31893,38,97152,65728,6,6,4,1460,150312,1,16778208,410000,74540,74540,65700,0,31856,0,2784392790,63
o,1723653702.009847,172.16.3.2,13327,172.16.1.2,5101,30708,31893,38,97152,65728,6,6,4,1460,151562,1,16778208,400000,74540,71644,65700,0,28960,0,2784392790,63
i,1723653702.010010,172.16.3.2,13327,172.16.1.2,5101,30708,31893,38,97152,65728,6,6,4,1460,151562,1,16778208,400000,74540,71644,65700,0,31856,0,2784392790,63
