enable_time_secs=1717625570	enable_time_usecs=218741	siftrver=1.2.4	hz=100	tcp_rtt_scale=32	sysname=FreeBSD	sysver=1301000	ipmode=4
o,0x00000000,1717625570.218775,10.0.2.15,22,10.0.2.2,64588,1073725440,17298,0,65535,65700,0,0,4,1460,1,0,4,24,33580,44,65700,0,0,0,0,0
i,0x00000000,1717625570.219342,10.0.2.15,22,10.0.2.2,64588,1073725440,17298,0,65535,65700,0,0,4,1460,1,0,4,24,33580,44,65700,0,44,0,0,0
o,0x00000000,1717625570.219412,10.0.2.15,22,10.0.2.2,64588,1073725440,17342,0,65535,65700,0,0,4,1460,1,0,4,23,33580,36,65700,0,0,0,0,0
i,0x00000000,1717625570.219813,10.0.2.15,22,10.0.2.2,64588,1073725440,17342,0,65535,65700,0,0,4,1460,1,0,4,23,33580,36,65700,0,36,0,0,0
o,0x00000000,1717625570.219877,10.0.2.15,22,10.0.2.2,64588,1073725440,17378,0,65535,65700,0,0,4,1460,1,0,4,23,33580,36,65700,0,0,0,0,0
i,0x00000000,1717625570.220309,10.0.2.15,22,10.0.2.2,64588,1073725440,17378,0,65535,65700,0,0,4,1460,1,0,4,23,33580,36,65700,0,36,0,0,0
o,0x00000000,1717625570.220492,10.0.2.15,22,10.0.2.2,64588,1073725440,17414,0,65535,65700,0,0,4,1460,1,0,4,23,33580,176,65700,0,0,0,0,0
i,0x00000000,1717625570.221025,10.0.2.15,22,10.0.2.2,64588,1073725440,17414,0,65535,65700,0,0,4,1460,1,0,4,23,33580,176,65700,0,176,0,0,0
i,0x00000000,1717625570.221636,10.0.2.15,22,10.0.2.2,64588,1073725440,17590,0,65535,65700,0,0,4,1460,1,0,4,23,33580,0,65700,0,0,0,0,0
i,0x00000000,1717625570.221638,10.0.2.15,22,10.0.2.2,64588,1073725440,17590,0,65535,65700,0,0,4,1460,1,0,4,23,33580,0,65700,36,0,0,0,0
o,0x00000000,1717625570.221640,10.0.2.15,22,10.0.2.2,64588,1073725440,17590,0,65535,65700,0,0,4,1460,1,0,5,23,33580,0,65700,96,0,0,0,0
i,0x00000000,1717625570.221717,10.0.2.15,22,10.0.2.2,64588,1073725440,17590,0,65535,65700,0,0,4,1460,1,0,4,23,33580,0,65700,96,0,0,0,0
o,0x00000000,1717625570.221721,10.0.2.15,22,10.0.2.2,64588,1073725440,17590,0,65535,65604,0,0,5,1460,1,0,7,23,33580,0,65700,96,0,0,0,0
o,0x00000000,1717625570.222373,10.0.2.15,22,10.0.2.2,64588,1073725440,17590,0,65535,65604,0,0,8,1460,1,0,4,23,33580,0,65700,0,0,0,0,0
i,0x00000000,1717625570.222797,10.0.2.15,22,10.0.2.2,64588,1073725440,17590,0,65535,65604,0,0,8,1460,1,0,20,23,33580,0,65700,0,1,0,0,0
i,0x00000000,1717625572.306756,10.0.2.15,22,10.0.2.2,64592,1073725440,14600,0,65535,65700,0,0,4,1460,1,0,0,27,33580,0,65700,0,0,0,0,0
o,0x00000000,1717625572.311136,10.0.2.15,22,10.0.2.2,64592,1073725440,14600,0,65535,65700,0,0,4,1460,1,0,0,27,33580,38,65700,41,0,0,0,0
i,0x00000000,1717625572.311707,10.0.2.15,22,10.0.2.2,64592,1073725440,14600,0,65535,65700,0,0,4,1460,1,0,0,27,33580,38,65700,0,38,0,0,0
i,0x00000000,1717625572.312406,10.0.2.15,22,10.0.2.2,64592,1073725440,14638,0,65535,65700,0,0,4,1460,1,0,0,24,33580,0,65700,0,0,0,0,0
i,0x00000000,1717625572.312409,10.0.2.15,22,10.0.2.2,64592,1073725440,14638,0,65535,65700,0,0,4,1460,1,0,0,24,33580,0,65700,1460,0,0,0,0
o,0x00000000,1717625572.312412,10.0.2.15,22,10.0.2.2,64592,1073725440,14638,0,65535,65700,0,0,4,1460,1,0,1,24,33580,0,65700,1536,0,0,0,0
o,0x00000000,1717625572.312909,10.0.2.15,22,10.0.2.2,64592,1073725440,14638,0,65535,65700,0,0,4,1460,1,0,0,24,33580,1056,65700,1536,0,0,0,0
i,0x00000000,1717625572.313682,10.0.2.15,22,10.0.2.2,64592,1073725440,14638,0,65535,65700,0,0,4,1460,1,0,0,24,33580,1056,65700,1536,1056,0,0,0
i,0x00000000,1717625572.315634,10.0.2.15,22,10.0.2.2,64592,1073725440,15694,0,65535,65700,0,0,4,1460,1,0,0,24,33580,0,65700,0,0,0,0,0
o,0x00000000,1717625572.318065,10.0.2.15,22,10.0.2.2,64592,1073725440,15694,0,65535,65700,0,0,4,1460,1,0,0,24,33580,484,65700,0,0,0,0,0
i,0x00000000,1717625572.319082,10.0.2.15,22,10.0.2.2,64592,1073725440,15694,0,65535,65700,0,0,4,1460,1,0,0,24,33580,484,65700,0,484,0,0,0
i,0x00000000,1717625572.323412,10.0.2.15,22,10.0.2.2,64592,1073725440,16178,0,65535,65700,0,0,4,1460,1,0,0,24,33580,0,65700,0,0,0,0,0
i,0x00000000,1717625572.327511,10.0.2.15,22,10.0.2.2,64592,1073725440,16178,0,65535,65700,0,0,4,1460,1,0,0,24,33580,0,65700,0,0,0,0,0
o,0x00000000,1717625572.327515,10.0.2.15,22,10.0.2.2,64592,1073725440,16178,0,65535,65700,0,0,4,1460,1,0,1,24,33580,0,65700,44,0,0,0,0
o,0x00000000,1717625572.327664,10.0.2.15,22,10.0.2.2,64592,1073725440,16178,0,65535,65700,0,0,4,1460,1,0,0,24,33580,44,65700,0,0,0,0,0
i,0x00000000,1717625572.328340,10.0.2.15,22,10.0.2.2,64592,1073725440,16178,0,65535,65700,0,0,4,1460,1,0,0,24,33580,44,65700,0,44,0,0,0
i,0x00000000,1717625572.328845,10.0.2.15,22,10.0.2.2,64592,1073725440,16222,0,65535,65700,0,0,4,1460,1,0,0,24,33580,0,65700,0,0,0,0,0
o,0x00000000,1717625572.338692,10.0.2.15,22,10.0.2.2,64592,1073725440,16222,0,65535,65700,0,0,4,1460,1,0,0,24,33580,68,65700,0,0,0,0,0
i,0x00000000,1717625572.339324,10.0.2.15,22,10.0.2.2,64592,1073725440,16222,0,65535,65700,0,0,4,1460,1,0,0,24,33580,68,65700,0,68,0,0,0
i,0x00000000,1717625572.341525,10.0.2.15,22,10.0.2.2,64592,1073725440,16290,0,65535,65700,0,0,4,1460,1,0,0,23,33580,0,65700,0,0,0,0,0
o,0x00000000,1717625572.350424,10.0.2.15,22,10.0.2.2,64592,1073725440,16290,0,65535,65700,0,0,4,1460,1,0,0,23,33580,28,65700,0,0,0,0,0
i,0x00000000,1717625572.351119,10.0.2.15,22,10.0.2.2,64592,1073725440,16290,0,65535,65700,0,0,4,1460,1,0,0,23,33580,28,65700,0,28,0,0,0
i,0x00000000,1717625572.351564,10.0.2.15,22,10.0.2.2,64592,1073725440,16318,0,65535,65700,0,0,4,1460,1,0,0,23,33580,0,65700,0,0,0,0,0
o,0x00000000,1717625572.352260,10.0.2.15,22,10.0.2.2,64592,1073725440,16318,0,65535,65700,0,0,4,1460,1,0,0,23,33580,768,65700,112,0,0,0,0
i,0x00000000,1717625572.352979,10.0.2.15,22,10.0.2.2,64592,1073725440,16318,0,65535,65700,0,0,4,1460,1,0,0,23,33580,768,65700,112,768,0,0,0
o,0x00000000,1717625572.353077,10.0.2.15,22,10.0.2.2,64592,1073725440,17086,0,65535,65700,0,0,4,1460,1,0,0,23,33580,44,65700,0,0,0,0,0
i,0x00000000,1717625572.353665,10.0.2.15,22,10.0.2.2,64592,1073725440,17086,0,65535,65700,0,0,4,1460,1,0,0,23,33580,44,65700,0,44,0,0,0
i,0x00000000,1717625572.353973,10.0.2.15,22,10.0.2.2,64592,1073725440,17130,0,65535,65700,0,0,4,1460,1,0,0,23,33580,0,65700,0,0,0,0,0
o,0x00000000,1717625572.354255,10.0.2.15,22,10.0.2.2,64592,1073725440,17130,0,65535,65700,0,0,4,1460,1,0,4,23,33580,72,65700,0,0,0,0,0
i,0x00000000,1717625572.355022,10.0.2.15,22,10.0.2.2,64592,1073725440,17130,0,65535,65700,0,0,4,1460,1,0,4,23,33580,72,65700,0,72,0,0,0
o,0x00000000,1717625572.357650,10.0.2.15,22,10.0.2.2,64592,1073725440,17202,0,65535,65700,0,0,4,1460,1,0,4,24,33580,44,65700,0,0,0,0,0
i,0x00000000,1717625572.358123,10.0.2.15,22,10.0.2.2,64592,1073725440,17202,0,65535,65700,0,0,4,1460,1,0,4,24,33580,44,65700,0,44,0,0,0
o,0x00000000,1717625572.358485,10.0.2.15,22,10.0.2.2,64592,1073725440,17246,0,65535,65700,0,0,4,1460,1,0,4,24,33580,44,65700,0,0,0,0,0
i,0x00000000,1717625572.359251,10.0.2.15,22,10.0.2.2,64592,1073725440,17246,0,65535,65700,0,0,4,1460,1,0,4,24,33580,44,65700,0,44,0,0,0
o,0x00000000,1717625572.362462,10.0.2.15,22,10.0.2.2,64592,1073725440,17290,0,65535,65700,0,0,4,1460,1,0,4,24,33580,176,65700,0,0,0,0,0
i,0x00000000,1717625572.363245,10.0.2.15,22,10.0.2.2,64592,1073725440,17290,0,65535,65700,0,0,4,1460,1,0,4,24,33580,176,65700,0,176,0,0,0
i,0x00000000,1717625572.363583,10.0.2.15,22,10.0.2.2,64592,1073725440,17466,0,65535,65700,0,0,4,1460,1,0,4,24,33580,0,65700,0,0,0,0,0
i,0x00000000,1717625572.363586,10.0.2.15,22,10.0.2.2,64592,1073725440,17466,0,65535,65700,0,0,4,1460,1,0,4,24,33580,0,65700,36,0,0,0,0
o,0x00000000,1717625572.363587,10.0.2.15,22,10.0.2.2,64592,1073725440,17466,0,65535,65700,0,0,4,1460,1,0,5,24,33580,0,65700,96,0,0,0,0
i,0x00000000,1717625572.363663,10.0.2.15,22,10.0.2.2,64592,1073725440,17466,0,65535,65700,0,0,4,1460,1,0,4,24,33580,0,65700,96,0,0,0,0
o,0x00000000,1717625572.363666,10.0.2.15,22,10.0.2.2,64592,1073725440,17466,0,65535,65604,0,0,5,1460,1,0,7,24,33580,0,65700,96,0,0,0,0
o,0x00000000,1717625572.368824,10.0.2.15,22,10.0.2.2,64592,1073725440,17466,0,65535,65604,0,0,8,1460,1,0,4,24,33580,0,65700,0,0,0,0,0
i,0x00000000,1717625572.369501,10.0.2.15,22,10.0.2.2,64592,1073725440,17466,0,65535,65604,0,0,8,1460,1,0,20,24,33580,0,65700,0,1,0,0,0
i,0x00000000,1717625572.605482,172.16.3.2,5101,172.16.1.2,48456,10124,14480,0,65728,65700,6,6,4,1460,1952,1,992,254,33580,0,65700,0,0,0,0,0
o,0x00000000,1717625572.605617,172.16.3.2,5101,172.16.1.2,48456,10124,14480,0,65728,65700,6,6,4,1460,1952,1,996,254,33580,1,65700,0,0,0,0,0
i,0x00000000,1717625572.725340,172.16.3.2,5101,172.16.1.2,48456,10124,14480,0,65728,65700,6,6,4,1460,1952,1,996,254,33580,1,65700,0,1,0,0,0
i,0x00000000,1717625572.725371,172.16.3.2,5101,172.16.1.2,48456,10124,14480,0,65728,65728,6,6,4,1460,1756,1,996,253,33580,0,65700,4,0,0,0,0
o,0x00000000,1717625572.725379,172.16.3.2,5101,172.16.1.2,48456,10124,14480,0,65728,65728,6,6,4,1460,1756,1,997,253,33580,0,65700,128,0,0,0,0
o,0x00000000,1717625572.725755,172.16.3.2,5101,172.16.1.2,48456,10124,14480,0,65728,65728,6,6,4,1460,1756,1,996,253,33580,1,65700,0,0,0,0,0
o,0x00000000,1717625572.725913,10.0.2.15,22,10.0.2.2,61555,1073725440,14600,0,65535,65700,0,0,4,1460,1,0,4,24,33580,84,65700,0,0,0,0,0
i,0x00000000,1717625572.726681,10.0.2.15,22,10.0.2.2,61555,1073725440,14600,0,65535,65700,0,0,4,1460,1,0,4,24,33580,84,65700,0,84,0,0,0
i,0x00000000,1717625572.876181,172.16.3.2,5101,172.16.1.2,48456,10124,14480,0,65728,65728,6,6,4,1460,1756,1,996,253,33580,1,65700,0,1,0,0,0
i,0x00000000,1717625572.966690,172.16.3.2,5101,172.16.1.2,10692,10124,14480,0,65728,65700,6,6,4,1460,1952,1,992,254,33580,0,65700,0,0,0,0,0
o,0x00000000,1717625572.972972,172.16.3.2,5101,172.16.1.2,48456,10124,14480,0,65728,65728,6,6,4,1460,1593,1,996,244,33580,1,65700,0,0,0,0,0
o,0x00000000,1717625572.973217,172.16.3.2,5101,172.16.1.2,48456,10124,14480,0,65728,65728,6,6,4,1460,1593,1,996,244,33580,2,65700,0,1,0,0,0
o,0x00000000,1717625572.974284,10.0.2.15,22,10.0.2.2,61555,1073725440,14600,0,65535,65700,0,0,4,1460,1,0,4,24,33580,108,65700,0,0,0,0,0
i,0x00000000,1717625572.975427,10.0.2.15,22,10.0.2.2,61555,1073725440,14600,0,65535,65700,0,0,4,1460,1,0,4,24,33580,108,65700,0,108,0,0,0
o,0x00000000,1717625572.999970,172.16.3.2,5101,172.16.1.2,10692,10124,14480,0,65728,65700,6,6,4,1460,1952,1,993,254,33580,0,65700,0,0,0,0,0
i,0x00000000,1717625573.154626,172.16.3.2,5101,172.16.1.2,48456,10124,14480,0,65728,65728,6,6,4,1460,1593,1,996,244,33580,2,65700,0,2,0,0,0
i,0x00000000,1717625573.185725,172.16.3.2,5101,172.16.1.2,10692,10124,14480,0,65728,65700,6,6,4,1460,1952,1,992,254,33580,0,65700,0,0,0,0,0
i,0x00000000,1717625573.195317,172.16.3.2,5101,172.16.1.2,10692,10124,14480,0,65728,65700,6,6,4,1460,1952,1,992,254,33580,0,65700,0,0,0,0,0
o,0x00000000,1717625573.195334,172.16.3.2,5101,172.16.1.2,10692,10124,14480,0,65728,65700,6,6,4,1460,1952,1,993,254,33580,0,65700,1448,0,0,0,0
i,0x00000000,1717625573.205339,172.16.3.2,5101,172.16.1.2,10692,10124,14480,0,65728,65700,6,6,4,1460,1952,1,992,254,33580,0,65700,0,0,0,0,0
i,0x00000000,1717625573.216268,172.16.3.2,5101,172.16.1.2,10692,10124,14480,0,65728,65700,6,6,4,1460,1952,1,992,254,33580,0,65700,0,0,0,0,0
o,0x00000000,1717625573.216290,172.16.3.2,5101,172.16.1.2,10692,10124,14480,0,65728,65700,6,6,4,1460,1952,1,993,254,33580,0,65700,1448,0,0,0,0
i,0x00000000,1717625573.235502,172.16.3.2,5101,172.16.1.2,10692,10124,14480,0,65728,65700,6,6,4,1460,1952,1,992,254,33580,0,65700,0,0,0,0,0
i,0x00000000,1717625573.244769,172.16.3.2,5101,172.16.1.2,10692,10124,14480,0,65728,65700,6,6,4,1460,1952,1,992,254,33580,0,65700,0,0,0,0,0
o,0x00000000,1717625573.244791,172.16.3.2,5101,172.16.1.2,10692,10124,14480,0,65728,65700,6,6,4,1460,1952,1,993,254,33580,0,65700,1448,0,0,0,0
i,0x00000000,1717625573.255130,172.16.3.2,5101,172.16.1.2,10692,10124,14480,0,65728,65700,6,6,4,1460,1952,1,992,254,33580,0,65700,0,0,0,0,0
i,0x00000000,1717625573.265315,172.16.3.2,5101,172.16.1.2,10692,10124,14480,0,65728,65700,6,6,4,1460,1952,1,992,254,33580,0,65700,0,0,0,0,0
o,0x00000000,1717625573.265341,172.16.3.2,5101,172.16.1.2,10692,10124,14480,0,65728,65700,6,6,4,1460,1952,1,993,254,33580,0,65700,1448,0,0,0,0
i,0x00000000,1717625573.274610,172.16.3.2,5101,172.16.1.2,10692,10124,14480,0,65728,65700,6,6,4,1460,1952,1,992,254,33580,0,65700,0,0,0,0,0
i,0x00000000,1717625573.294453,172.16.3.2,5101,172.16.1.2,10692,10124,14480,0,65728,65700,6,6,4,1460,1952,1,992,254,33580,0,65700,0,0,0,0,0
o,0x00000000,1717625573.294478,172.16.3.2,5101,172.16.1.2,10692,10124,14480,0,65728,65700,6,6,4,1460,1952,1,993,254,33580,0,65700,1448,0,0,0,0
i,0x00000000,1717625573.494869,172.16.3.2,5101,172.16.1.2,10692,10124,14480,0,65728,65700,6,6,4,1460,1952,1,992,254,33580,0,65700,0,0,0,0,0
i,0x00000000,1717625573.505108,172.16.3.2,5101,172.16.1.2,10692,10124,14480,0,65728,65700,6,6,4,1460,1952,1,992,254,33580,0,65700,0,0,0,0,0
o,0x00000000,1717625573.505125,172.16.3.2,5101,172.16.1.2,10692,10124,14480,0,65728,65700,6,6,4,1460,1952,1,993,254,33580,0,65700,1448,0,0,0,0
i,0x00000000,1717625573.515567,172.16.3.2,5101,172.16.1.2,10692,10124,14480,0,65728,65700,6,6,4,1460,1952,1,992,254,33580,0,65700,0,0,0,0,0
i,0x00000000,1717625573.535327,172.16.3.2,5101,172.16.1.2,10692,10124,14480,0,65728,65700,6,6,4,1460,1952,1,992,254,33580,0,65700,0,0,0,0,0
o,0x00000000,1717625573.535351,172.16.3.2,5101,172.16.1.2,10692,10124,14480,0,65728,65700,6,6,4,1460,1952,1,993,254,33580,0,65700,1448,0,0,0,0
i,0x00000000,1717625573.545571,172.16.3.2,5101,172.16.1.2,10692,10124,14480,0,65728,65700,6,6,4,1460,1952,1,992,254,33580,0,65700,0,0,0,0,0
i,0x00000000,1717625573.555502,172.16.3.2,5101,172.16.1.2,10692,10124,14480,0,65728,65700,6,6,4,1460,1952,1,992,254,33580,0,65700,0,0,0,0,0
o,0x00000000,1717625573.555514,172.16.3.2,5101,172.16.1.2,10692,10124,14480,0,65728,65700,6,6,4,1460,1952,1,993,254,33580,0,65700,1448,0,0,0,0
i,0x00000000,1717625573.564492,172.16.3.2,5101,172.16.1.2,10692,10124,14480,0,65728,65700,6,6,4,1460,1952,1,992,254,33580,0,65700,0,0,0,0,0
i,0x00000000,1717625573.574921,172.16.3.2,5101,172.16.1.2,10692,10124,14480,0,65728,65700,6,6,4,1460,1952,1,992,254,33580,0,65700,0,0,0,0,0
o,0x00000000,1717625573.574930,172.16.3.2,5101,172.16.1.2,10692,10124,14480,0,65728,65700,6,6,4,1460,1952,1,993,254,33580,0,65700,1448,0,0,0,0
i,0x00000000,1717625573.594703,172.16.3.2,5101,172.16.1.2,10692,10124,14480,0,65728,65700,6,6,4,1460,1952,1,992,254,33580,0,65700,0,0,0,0,0
i,0x00000000,1717625573.604959,172.16.3.2,5101,172.16.1.2,10692,10124,14480,0,65728,65700,6,6,4,1460,1952,1,992,254,33580,0,65700,0,0,0,0,0
o,0x00000000,1717625573.604967,172.16.3.2,5101,172.16.1.2,10692,10124,14480,0,65728,65700,6,6,4,1460,1952,1,993,254,33580,0,65700,1448,0,0,0,0
i,0x00000000,1717625573.614416,172.16.3.2,5101,172.16.1.2,10692,10124,14480,0,65728,65700,6,6,4,1460,1952,1,992,254,33580,0,65700,0,0,0,0,0
o,0x00000000,1717625573.650208,172.16.3.2,5101,172.16.1.2,10692,10124,14480,0,65728,65700,6,6,4,1460,1952,1,993,254,33580,0,65700,0,0,0,0,0
i,0x00000000,1717625573.795171,172.16.3.2,5101,172.16.1.2,10692,10124,14480,0,65728,65700,6,6,4,1460,1952,1,992,254,33580,0,65700,0,0,0,0,0
i,0x00000000,1717625573.804360,172.16.3.2,5101,172.16.1.2,10692,10124,14480,0,65728,65700,6,6,4,1460,1952,1,992,254,33580,0,65700,0,0,0,0,0
o,0x00000000,1717625573.804372,172.16.3.2,5101,172.16.1.2,10692,10124,14480,0,65728,65700,6,6,4,1460,1952,1,993,254,33580,0,65700,1448,0,0,0,0
i,0x00000000,1717625573.814755,172.16.3.2,5101,172.16.1.2,10692,10124,14480,0,65728,65700,6,6,4,1460,1952,1,992,254,33580,0,65700,0,0,0,0,0
i,0x00000000,1717625573.825098,172.16.3.2,5101,172.16.1.2,10692,10124,14480,0,65728,65700,6,6,4,1460,1952,1,992,254,33580,0,65700,0,0,0,0,0
o,0x00000000,1717625573.825107,172.16.3.2,5101,172.16.1.2,10692,10124,14480,0,65728,65700,6,6,4,1460,1952,1,993,254,33580,0,65700,1448,0,0,0,0
i,0x00000000,1717625573.844954,172.16.3.2,5101,172.16.1.2,10692,10124,14480,0,65728,65700,6,6,4,1460,1952,1,992,254,33580,0,65700,0,0,0,0,0
i,0x00000000,1717625573.854388,172.16.3.2,5101,172.16.1.2,10692,10124,14480,0,65728,65700,6,6,4,1460,1952,1,992,254,33580,0,65700,0,0,0,0,0
o,0x00000000,1717625573.854397,172.16.3.2,5101,172.16.1.2,10692,10124,14480,0,65728,65700,6,6,4,1460,1952,1,993,254,33580,0,65700,1448,0,0,0,0
i,0x00000000,1717625573.864765,172.16.3.2,5101,172.16.1.2,10692,10124,14480,0,65728,65700,6,6,4,1460,1952,1,992,254,33580,0,65700,0,0,0,0,0
i,0x00000000,1717625573.875123,172.16.3.2,5101,172.16.1.2,10692,10124,14480,0,65728,65700,6,6,4,1460,1952,1,992,254,33580,0,65700,0,0,0,0,0
o,0x00000000,1717625573.875132,172.16.3.2,5101,172.16.1.2,10692,10124,14480,0,65728,65700,6,6,4,1460,1952,1,993,254,33580,0,65700,1448,0,0,0,0
i,0x00000000,1717625573.884625,172.16.3.2,5101,172.16.1.2,10692,10124,14480,0,65728,65700,6,6,4,1460,1952,1,992,254,33580,0,65700,0,0,0,0,0
i,0x00000000,1717625573.905438,172.16.3.2,5101,172.16.1.2,10692,10124,14480,0,65728,65700,6,6,4,1460,1952,1,992,254,33580,0,65700,0,0,0,0,0
o,0x00000000,1717625573.905448,172.16.3.2,5101,172.16.1.2,10692,10124,14480,0,65728,65700,6,6,4,1460,1952,1,993,254,33580,0,65700,1448,0,0,0,0
i,0x00000000,1717625573.955471,172.16.3.2,5101,172.16.1.2,10692,10124,14480,0,65728,65700,6,6,4,1460,1952,1,992,254,33580,0,65700,0,0,0,0,0
i,0x00000000,1717625573.964788,172.16.3.2,5101,172.16.1.2,10692,10124,14480,0,65728,65700,6,6,4,1460,1952,1,992,254,33580,0,65700,0,0,0,0,0
o,0x00000000,1717625573.964798,172.16.3.2,5101,172.16.1.2,10692,10124,14480,0,65728,65700,6,6,4,1460,1952,1,993,254,33580,0,65700,1448,0,0,0,0
o,0x00000000,1717625573.981274,10.0.2.15,22,10.0.2.2,61555,1073725440,14600,0,65535,65700,0,0,4,1460,1,0,4,24,33580,156,65700,0,0,0,0,0
i,0x00000000,1717625573.981978,10.0.2.15,22,10.0.2.2,61555,1073725440,14600,0,65535,65700,0,0,4,1460,1,0,4,24,33580,156,65700,0,156,0,0,0
i,0x00000000,1717625574.094321,172.16.3.2,5101,172.16.1.2,10692,10124,14480,0,65728,65700,6,6,4,1460,1952,1,992,254,33580,0,65700,0,0,0,0,0
i,0x00000000,1717625574.104743,172.16.3.2,5101,172.16.1.2,10692,10124,14480,0,65728,65700,6,6,4,1460,1952,1,992,254,33580,0,65700,0,0,0,0,0
o,0x00000000,1717625574.104761,172.16.3.2,5101,172.16.1.2,10692,10124,14480,0,65728,65700,6,6,4,1460,1952,1,993,254,33580,0,65700,1448,0,0,0,0
i,0x00000000,1717625574.125470,172.16.3.2,5101,172.16.1.2,10692,10124,14480,0,65728,65700,6,6,4,1460,1952,1,992,254,33580,0,65700,0,0,0,0,0
i,0x00000000,1717625574.135090,172.16.3.2,5101,172.16.1.2,10692,10124,14480,0,65728,65700,6,6,4,1460,1952,1,992,254,33580,0,65700,0,0,0,0,0
o,0x00000000,1717625574.135134,172.16.3.2,5101,172.16.1.2,10692,10124,14480,0,65728,65700,6,6,4,1460,1952,1,993,254,33580,0,65700,1448,0,0,0,0
i,0x00000000,1717625574.145228,172.16.3.2,5101,172.16.1.2,10692,10124,14480,0,65728,65700,6,6,4,1460,1952,1,992,254,33580,0,65700,0,0,0,0,0
i,0x00000000,1717625574.155155,172.16.3.2,5101,172.16.1.2,10692,10124,14480,0,65728,65700,6,6,4,1460,1952,1,992,254,33580,0,65700,0,0,0,0,0
o,0x00000000,1717625574.155174,172.16.3.2,5101,172.16.1.2,10692,10124,14480,0,65728,65700,6,6,4,1460,1952,1,993,254,33580,0,65700,1448,0,0,0,0
i,0x00000000,1717625574.165092,172.16.3.2,5101,172.16.1.2,10692,10124,14480,0,65728,65700,6,6,4,1460,1952,1,992,254,33580,0,65700,0,0,0,0,0
i,0x00000000,1717625574.184671,172.16.3.2,5101,172.16.1.2,10692,10124,14480,0,65728,65700,6,6,4,1460,1952,1,992,254,33580,0,65700,0,0,0,0,0
o,0x00000000,1717625574.184681,172.16.3.2,5101,172.16.1.2,10692,10124,14480,0,65728,65700,6,6,4,1460,1952,1,993,254,33580,0,65700,1448,0,0,0,0
i,0x00000000,1717625574.195423,172.16.3.2,5101,172.16.1.2,10692,10124,14480,0,65728,65700,6,6,4,1460,1952,1,992,254,33580,0,65700,0,0,0,0,0
i,0x00000000,1717625574.204621,172.16.3.2,5101,172.16.1.2,10692,10124,14480,0,65728,65700,6,6,4,1460,1952,1,992,254,33580,0,65700,0,0,0,0,0
o,0x00000000,1717625574.204636,172.16.3.2,5101,172.16.1.2,10692,10124,14480,0,65728,65700,6,6,4,1460,1952,1,993,254,33580,0,65700,1448,0,0,0,0
i,0x00000000,1717625574.255001,172.16.3.2,5101,172.16.1.2,10692,10124,14480,0,65728,65700,6,6,4,1460,1952,1,992,254,33580,0,65700,0,0,0,0,0
i,0x00000000,1717625574.265029,172.16.3.2,5101,172.16.1.2,10692,10124,14480,0,65728,65700,6,6,4,1460,1952,1,992,254,33580,0,65700,0,0,0,0,0
o,0x00000000,1717625574.265043,172.16.3.2,5101,172.16.1.2,10692,10124,14480,0,65728,65700,6,6,4,1460,1952,1,993,254,33580,0,65700,1448,0,0,0,0
i,0x00000000,1717625574.284330,172.16.3.2,5101,172.16.1.2,10692,10124,14480,0,65728,65700,6,6,4,1460,1952,1,992,254,33580,0,65700,0,0,0,0,0
o,0x00000000,1717625574.319628,172.16.3.2,5101,172.16.1.2,10692,10124,14480,0,65728,65700,6,6,4,1460,1952,1,993,254,33580,0,65700,0,0,0,0,0
i,0x00000000,1717625574.414505,172.16.3.2,5101,172.16.1.2,10692,10124,14480,0,65728,65700,6,6,4,1460,1952,1,992,254,33580,0,65700,0,0,0,0,0
i,0x00000000,1717625574.424795,172.16.3.2,5101,172.16.1.2,10692,10124,14480,0,65728,65700,6,6,4,1460,1952,1,992,254,33580,0,65700,0,0,0,0,0
o,0x00000000,1717625574.424805,172.16.3.2,5101,172.16.1.2,10692,10124,14480,0,65728,65700,6,6,4,1460,1952,1,993,254,33580,0,65700,1448,0,0,0,0
i,0x00000000,1717625574.434157,172.16.3.2,5101,172.16.1.2,10692,10124,14480,0,65728,65700,6,6,4,1460,1952,1,992,254,33580,0,65700,0,0,0,0,0
i,0x00000000,1717625574.454138,172.16.3.2,5101,172.16.1.2,10692,10124,14480,0,65728,65700,6,6,4,1460,1952,1,992,254,33580,0,65700,0,0,0,0,0
o,0x00000000,1717625574.454150,172.16.3.2,5101,172.16.1.2,10692,10124,14480,0,65728,65700,6,6,4,1460,1952,1,993,254,33580,0,65700,1448,0,0,0,0
i,0x00000000,1717625574.465411,172.16.3.2,5101,172.16.1.2,10692,10124,14480,0,65728,65700,6,6,4,1460,1952,1,992,254,33580,0,65700,0,0,0,0,0
i,0x00000000,1717625574.474782,172.16.3.2,5101,172.16.1.2,10692,10124,14480,0,65728,65700,6,6,4,1460,1952,1,992,254,33580,0,65700,0,0,0,0,0
o,0x00000000,1717625574.474790,172.16.3.2,5101,172.16.1.2,10692,10124,14480,0,65728,65700,6,6,4,1460,1952,1,993,254,33580,0,65700,1448,0,0,0,0
i,0x00000000,1717625574.485207,172.16.3.2,5101,172.16.1.2,10692,10124,14480,0,65728,65700,6,6,4,1460,1952,1,992,254,33580,0,65700,0,0,0,0,0
i,0x00000000,1717625574.494635,172.16.3.2,5101,172.16.1.2,10692,10124,14480,0,65728,65700,6,6,4,1460,1952,1,992,254,33580,0,65700,0,0,0,0,0
o,0x00000000,1717625574.494643,172.16.3.2,5101,172.16.1.2,10692,10124,14480,0,65728,65700,6,6,4,1460,1952,1,993,254,33580,0,65700,1448,0,0,0,0
i,0x00000000,1717625574.514526,172.16.3.2,5101,172.16.1.2,10692,10124,14480,0,65728,65700,6,6,4,1460,1952,1,992,254,33580,0,65700,0,0,0,0,0
i,0x00000000,1717625574.525113,172.16.3.2,5101,172.16.1.2,10692,10124,14480,0,65728,65700,6,6,4,1460,1952,1,992,254,33580,0,65700,0,0,0,0,0
o,0x00000000,1717625574.525123,172.16.3.2,5101,172.16.1.2,10692,10124,14480,0,65728,65700,6,6,4,1460,1952,1,993,254,33580,0,65700,1448,0,0,0,0
i,0x00000000,1717625574.575670,172.16.3.2,5101,172.16.1.2,10692,10124,14480,0,65728,65700,6,6,4,1460,1952,1,992,254,33580,0,65700,0,0,0,0,0
i,0x00000000,1717625574.584023,172.16.3.2,5101,172.16.1.2,10692,10124,14480,0,65728,65700,6,6,4,1460,1952,1,992,254,33580,0,65700,0,0,0,0,0
o,0x00000000,1717625574.584038,172.16.3.2,5101,172.16.1.2,10692,10124,14480,0,65728,65700,6,6,4,1460,1952,1,993,254,33580,0,65700,1448,0,0,0,0
i,0x00000000,1717625574.703830,172.16.3.2,5101,172.16.1.2,10692,10124,14480,0,65728,65700,6,6,4,1460,1952,1,992,254,33580,0,65700,0,0,0,0,0
i,0x00000000,1717625574.715269,172.16.3.2,5101,172.16.1.2,10692,10124,14480,0,65728,65700,6,6,4,1460,1952,1,992,254,33580,0,65700,0,0,0,0,0
o,0x00000000,1717625574.715283,172.16.3.2,5101,172.16.1.2,10692,10124,14480,0,65728,65700,6,6,4,1460,1952,1,993,254,33580,0,65700,1448,0,0,0,0
i,0x00000000,1717625574.734979,172.16.3.2,5101,172.16.1.2,10692,10124,14480,0,65728,65700,6,6,4,1460,1952,1,992,254,33580,0,65700,0,0,0,0,0
i,0x00000000,1717625574.744358,172.16.3.2,5101,172.16.1.2,10692,10124,14480,0,65728,65700,6,6,4,1460,1952,1,992,254,33580,0,65700,0,0,0,0,0
o,0x00000000,1717625574.744368,172.16.3.2,5101,172.16.1.2,10692,10124,14480,0,65728,65700,6,6,4,1460,1952,1,993,254,33580,0,65700,1448,0,0,0,0
i,0x00000000,1717625574.754824,172.16.3.2,5101,172.16.1.2,10692,10124,14480,0,65728,65700,6,6,4,1460,1952,1,992,254,33580,0,65700,0,0,0,0,0
i,0x00000000,1717625574.765210,172.16.3.2,5101,172.16.1.2,10692,10124,14480,0,65728,65700,6,6,4,1460,1952,1,992,254,33580,0,65700,0,0,0,0,0
o,0x00000000,1717625574.765220,172.16.3.2,5101,172.16.1.2,10692,10124,14480,0,65728,65700,6,6,4,1460,1952,1,993,254,33580,0,65700,1448,0,0,0,0
i,0x00000000,1717625574.774756,172.16.3.2,5101,172.16.1.2,10692,10124,14480,0,65728,65700,6,6,4,1460,1952,1,992,254,33580,0,65700,0,0,0,0,0
i,0x00000000,1717625574.795548,172.16.3.2,5101,172.16.1.2,10692,10124,14480,0,65728,65700,6,6,4,1460,1952,1,992,254,33580,0,65700,0,0,0,0,0
o,0x00000000,1717625574.795558,172.16.3.2,5101,172.16.1.2,10692,10124,14480,0,65728,65700,6,6,4,1460,1952,1,993,254,33580,0,65700,1448,0,0,0,0
i,0x00000000,1717625574.824999,172.16.3.2,5101,172.16.1.2,10692,10124,14480,0,65728,65700,6,6,4,1460,1952,1,992,254,33580,0,65700,0,0,0,0,0
i,0x00000000,1717625574.834274,172.16.3.2,5101,172.16.1.2,10692,10124,14480,0,65728,65700,6,6,4,1460,1952,1,992,254,33580,0,65700,0,0,0,0,0
o,0x00000000,1717625574.834283,172.16.3.2,5101,172.16.1.2,10692,10124,14480,0,65728,65700,6,6,4,1460,1952,1,993,254,33580,0,65700,1448,0,0,0,0
i,0x00000000,1717625574.854057,172.16.3.2,5101,172.16.1.2,10692,10124,14480,0,65728,65700,6,6,4,1460,1952,1,992,254,33580,0,65700,0,0,0,0,0
i,0x00000000,1717625574.864419,172.16.3.2,5101,172.16.1.2,10692,10124,14480,0,65728,65700,6,6,4,1460,1952,1,992,254,33580,0,65700,0,0,0,0,0
o,0x00000000,1717625574.864426,172.16.3.2,5101,172.16.1.2,10692,10124,14480,0,65728,65700,6,6,4,1460,1952,1,993,254,33580,0,65700,1448,0,0,0,0
o,0x00000000,1717625574.989661,10.0.2.15,22,10.0.2.2,61555,1073725440,14600,0,65535,65700,0,0,4,1460,1,0,4,24,33580,108,65700,0,0,0,0,0
i,0x00000000,1717625574.990220,10.0.2.15,22,10.0.2.2,61555,1073725440,14600,0,65535,65700,0,0,4,1460,1,0,4,24,33580,108,65700,0,108,0,0,0
i,0x00000000,1717625575.015347,172.16.3.2,5101,172.16.1.2,10692,10124,14480,0,65728,65700,6,6,4,1460,1952,1,992,254,33580,0,65700,0,0,0,0,0
i,0x00000000,1717625575.023963,172.16.3.2,5101,172.16.1.2,10692,10124,14480,0,65728,65700,6,6,4,1460,1952,1,992,254,33580,0,65700,0,0,0,0,0
o,0x00000000,1717625575.023976,172.16.3.2,5101,172.16.1.2,10692,10124,14480,0,65728,65700,6,6,4,1460,1952,1,993,254,33580,0,65700,1448,0,0,0,0
i,0x00000000,1717625575.065572,172.16.3.2,5101,172.16.1.2,10692,10124,14480,0,65728,65700,6,6,4,1460,1952,1,992,254,33580,0,65700,0,0,0,0,0
i,0x00000000,1717625575.074117,172.16.3.2,5101,172.16.1.2,10692,10124,14480,0,65728,65700,6,6,4,1460,1952,1,992,254,33580,0,65700,0,0,0,0,0
o,0x00000000,1717625575.074135,172.16.3.2,5101,172.16.1.2,10692,10124,14480,0,65728,65700,6,6,4,1460,1952,1,993,254,33580,0,65700,1448,0,0,0,0
i,0x00000000,1717625575.084447,172.16.3.2,5101,172.16.1.2,10692,10124,14480,0,65728,65700,6,6,4,1460,1952,1,992,254,33580,0,65700,0,0,0,0,0
i,0x00000000,1717625575.094960,172.16.3.2,5101,172.16.1.2,10692,10124,14480,0,65728,65700,6,6,4,1460,1952,1,992,254,33580,0,65700,0,0,0,0,0
o,0x00000000,1717625575.094966,172.16.3.2,5101,172.16.1.2,10692,10124,14480,0,65728,65700,6,6,4,1460,1952,1,993,254,33580,0,65700,1448,0,0,0,0
i,0x00000000,1717625575.104261,172.16.3.2,5101,172.16.1.2,10692,10124,14480,0,65728,65700,6,6,4,1460,1952,1,992,254,33580,0,65700,0,0,0,0,0
i,0x00000000,1717625575.125127,172.16.3.2,5101,172.16.1.2,10692,10124,14480,0,65728,65700,6,6,4,1460,1952,1,992,254,33580,0,65700,0,0,0,0,0
o,0x00000000,1717625575.125138,172.16.3.2,5101,172.16.1.2,10692,10124,14480,0,65728,65700,6,6,4,1460,1952,1,993,254,33580,0,65700,1448,0,0,0,0
i,0x00000000,1717625575.134515,172.16.3.2,5101,172.16.1.2,10692,10124,14480,0,65728,65700,6,6,4,1460,1952,1,992,254,33580,0,65700,0,0,0,0,0
i,0x00000000,1717625575.143944,172.16.3.2,5101,172.16.1.2,10692,10124,14480,0,65728,65700,6,6,4,1460,1952,1,992,254,33580,0,65700,0,0,0,0,0
o,0x00000000,1717625575.143952,172.16.3.2,5101,172.16.1.2,10692,10124,14480,0,65728,65700,6,6,4,1460,1952,1,993,254,33580,0,65700,1448,0,0,0,0
i,0x00000000,1717625575.154437,172.16.3.2,5101,172.16.1.2,10692,10124,14480,0,65728,65700,6,6,4,1460,1952,1,992,254,33580,0,65700,0,0,0,0,0
o,0x00000000,1717625575.190103,172.16.3.2,5101,172.16.1.2,10692,10124,14480,0,65728,65700,6,6,4,1460,1952,1,993,254,33580,0,65700,0,0,0,0,0
i,0x00000000,1717625575.194329,172.16.3.2,5101,172.16.1.2,10692,10124,14480,0,65728,65700,6,6,4,1460,1952,1,992,254,33580,0,65700,0,0,0,0,0
i,0x00000000,1717625575.204872,172.16.3.2,5101,172.16.1.2,10692,10124,14480,0,65728,65700,6,6,4,1460,1952,1,992,254,33580,0,65700,0,0,0,0,0
o,0x00000000,1717625575.204879,172.16.3.2,5101,172.16.1.2,10692,10124,14480,0,65728,65700,6,6,4,1460,1952,1,993,254,33580,0,65700,1448,0,0,0,0
i,0x00000000,1717625575.214198,172.16.3.2,5101,172.16.1.2,10692,10124,14480,0,65728,65700,6,6,4,1460,1952,1,992,254,33580,0,65700,0,0,0,0,0
i,0x00000000,1717625575.234202,172.16.3.2,5101,172.16.1.2,10692,10124,14480,0,65728,65700,6,6,4,1460,1952,1,992,254,33580,0,65700,0,0,0,0,0
o,0x00000000,1717625575.234210,172.16.3.2,5101,172.16.1.2,10692,10124,14480,0,65728,65700,6,6,4,1460,1952,1,993,254,33580,0,65700,1448,0,0,0,0
i,0x00000000,1717625575.373999,172.16.3.2,5101,172.16.1.2,10692,10124,14480,0,65728,65700,6,6,4,1460,1952,1,992,254,33580,0,65700,0,0,0,0,0
i,0x00000000,1717625575.394894,172.16.3.2,5101,172.16.1.2,10692,10124,14480,0,65728,65700,6,6,4,1460,1952,1,992,254,33580,0,65700,0,0,0,0,0
o,0x00000000,1717625575.394904,172.16.3.2,5101,172.16.1.2,10692,10124,14480,0,65728,65700,6,6,4,1460,1952,1,993,254,33580,0,65700,1448,0,0,0,0
i,0x00000000,1717625575.434314,172.16.3.2,5101,172.16.1.2,10692,10124,14480,0,65728,65700,6,6,4,1460,1952,1,992,254,33580,0,65700,0,0,0,0,0
i,0x00000000,1717625575.454049,172.16.3.2,5101,172.16.1.2,10692,10124,14480,0,65728,65700,6,6,4,1460,1952,1,992,254,33580,0,65700,0,0,0,0,0
o,0x00000000,1717625575.454060,172.16.3.2,5101,172.16.1.2,10692,10124,14480,0,65728,65700,6,6,4,1460,1952,1,993,254,33580,0,65700,1448,0,0,0,0
i,0x00000000,1717625575.464309,172.16.3.2,5101,172.16.1.2,10692,10124,14480,0,65728,65700,6,6,4,1460,1952,1,992,254,33580,0,65700,0,0,0,0,0
i,0x00000000,1717625575.473854,172.16.3.2,5101,172.16.1.2,10692,10124,14480,0,65728,65700,6,6,4,1460,1952,1,992,254,33580,0,65700,0,0,0,0,0
o,0x00000000,1717625575.473863,172.16.3.2,5101,172.16.1.2,10692,10124,14480,0,65728,65700,6,6,4,1460,1952,1,993,254,33580,0,65700,1448,0,0,0,0
i,0x00000000,1717625575.484219,172.16.3.2,5101,172.16.1.2,10692,10124,14480,0,65728,65700,6,6,4,1460,1952,1,992,254,33580,0,65700,0,0,0,0,0
i,0x00000000,1717625575.494566,172.16.3.2,5101,172.16.1.2,10692,10124,14480,0,65728,65700,6,6,4,1460,1952,1,992,254,33580,0,65700,0,0,0,0,0
o,0x00000000,1717625575.494572,172.16.3.2,5101,172.16.1.2,10692,10124,14480,0,65728,65700,6,6,4,1460,1952,1,993,254,33580,0,65700,1448,0,0,0,0
i,0x00000000,1717625575.514373,172.16.3.2,5101,172.16.1.2,10692,10124,14480,0,65728,65700,6,6,4,1460,1952,1,992,254,33580,0,65700,0,0,0,0,0
i,0x00000000,1717625575.523926,172.16.3.2,5101,172.16.1.2,10692,10124,14480,0,65728,65700,6,6,4,1460,1952,1,992,254,33580,0,65700,0,0,0,0,0
o,0x00000000,1717625575.523933,172.16.3.2,5101,172.16.1.2,10692,10124,14480,0,65728,65700,6,6,4,1460,1952,1,993,254,33580,0,65700,1448,0,0,0,0
i,0x00000000,1717625575.534133,172.16.3.2,5101,172.16.1.2,10692,10124,14480,0,65728,65700,6,6,4,1460,1952,1,992,254,33580,0,65700,0,0,0,0,0
o,0x00000000,1717625575.569845,172.16.3.2,5101,172.16.1.2,10692,10124,14480,0,65728,65700,6,6,4,1460,1952,1,993,254,33580,0,65700,0,0,0,0,0
i,0x00000000,1717625575.574747,172.16.3.2,5101,172.16.1.2,10692,10124,14480,0,65728,65700,6,6,4,1460,1952,1,992,254,33580,0,65700,0,0,0,0,0
i,0x00000000,1717625575.583586,172.16.3.2,5101,172.16.1.2,10692,10124,14480,0,65728,65700,6,6,4,1460,1952,1,992,254,33580,0,65700,0,0,0,0,0
o,0x00000000,1717625575.583593,172.16.3.2,5101,172.16.1.2,10692,10124,14480,0,65728,65700,6,6,4,1460,1952,1,993,254,33580,0,65700,1448,0,0,0,0
i,0x00000000,1717625575.595491,172.16.3.2,5101,172.16.1.2,10692,10124,14480,0,65728,65700,6,6,4,1460,1952,1,992,254,33580,0,65700,0,0,0,0,0
i,0x00000000,1717625575.614703,172.16.3.2,5101,172.16.1.2,10692,10124,14480,0,65728,65700,6,6,4,1460,1952,1,992,254,33580,0,65700,0,0,0,0,0
o,0x00000000,1717625575.614712,172.16.3.2,5101,172.16.1.2,10692,10124,14480,0,65728,65700,6,6,4,1460,1952,1,993,254,33580,0,65700,1448,0,0,0,0
i,0x00000000,1717625575.625435,172.16.3.2,5101,172.16.1.2,10692,10124,14480,0,65728,65700,6,6,4,1460,1952,1,992,254,33580,0,65700,0,0,0,0,0
o,0x00000000,1717625575.660275,172.16.3.2,5101,172.16.1.2,10692,10124,14480,0,65728,65700,6,6,4,1460,1952,1,993,254,33580,0,65700,0,0,0,0,0
i,0x00000000,1717625575.764736,172.16.3.2,5101,172.16.1.2,10692,10124,14480,0,65728,65700,6,6,4,1460,1952,1,992,254,33580,0,65700,0,0,0,0,0
i,0x00000000,1717625575.784617,172.16.3.2,5101,172.16.1.2,10692,10124,14480,0,65728,65700,6,6,4,1460,1952,1,992,254,33580,0,65700,0,0,0,0,0
o,0x00000000,1717625575.784638,172.16.3.2,5101,172.16.1.2,10692,10124,14480,0,65728,65700,6,6,4,1460,1952,1,993,254,33580,0,65700,1448,0,0,0,0
i,0x00000000,1717625575.834582,172.16.3.2,5101,172.16.1.2,10692,10124,14480,0,65728,65700,6,6,4,1460,1952,1,992,254,33580,0,65700,0,0,0,0,0
i,0x00000000,1717625575.844815,172.16.3.2,5101,172.16.1.2,10692,10124,14480,0,65728,65700,6,6,4,1460,1952,1,992,254,33580,0,65700,0,0,0,0,0
o,0x00000000,1717625575.844825,172.16.3.2,5101,172.16.1.2,10692,10124,14480,0,65728,65700,6,6,4,1460,1952,1,993,254,33580,0,65700,1448,0,0,0,0
i,0x00000000,1717625575.854185,172.16.3.2,5101,172.16.1.2,10692,10124,14480,0,65728,65700,6,6,4,1460,1952,1,992,254,33580,0,65700,0,0,0,0,0
i,0x00000000,1717625575.864130,172.16.3.2,5101,172.16.1.2,10692,10124,14480,0,65728,65700,6,6,4,1460,1952,1,992,254,33580,0,65700,0,0,0,0,0
o,0x00000000,1717625575.864138,172.16.3.2,5101,172.16.1.2,10692,10124,14480,0,65728,65700,6,6,4,1460,1952,1,993,254,33580,0,65700,1448,0,0,0,0
i,0x00000000,1717625575.874637,172.16.3.2,5101,172.16.1.2,10692,10124,14480,0,65728,65700,6,6,4,1460,1952,1,992,254,33580,0,65700,0,0,0,0,0
i,0x00000000,1717625575.894446,172.16.3.2,5101,172.16.1.2,10692,10124,14480,0,65728,65700,6,6,4,1460,1952,1,992,254,33580,0,65700,0,0,0,0,0
o,0x00000000,1717625575.894456,172.16.3.2,5101,172.16.1.2,10692,10124,14480,0,65728,65700,6,6,4,1460,1952,1,993,254,33580,0,65700,1448,0,0,0,0
i,0x00000000,1717625575.903700,172.16.3.2,5101,172.16.1.2,10692,10124,14480,0,65728,65700,6,6,4,1460,1952,1,992,254,33580,0,65700,0,0,0,0,0
i,0x00000000,1717625575.914059,172.16.3.2,5101,172.16.1.2,10692,10124,14480,0,65728,65700,6,6,4,1460,1952,1,992,254,33580,0,65700,0,0,0,0,0
o,0x00000000,1717625575.914064,172.16.3.2,5101,172.16.1.2,10692,10124,14480,0,65728,65700,6,6,4,1460,1952,1,993,254,33580,0,65700,1448,0,0,0,0
i,0x00000000,1717625575.924415,172.16.3.2,5101,172.16.1.2,10692,10124,14480,0,65728,65700,6,6,4,1460,1952,1,992,254,33580,0,65700,0,0,0,0,0
o,0x00000000,1717625575.959781,172.16.3.2,5101,172.16.1.2,10692,10124,14480,0,65728,65700,6,6,4,1460,1952,1,993,254,33580,0,65700,0,0,0,0,0
i,0x00000000,1717625575.964071,172.16.3.2,5101,172.16.1.2,10692,10124,14480,0,65728,65700,6,6,4,1460,1952,1,992,254,33580,0,65700,0,0,0,0,0
i,0x00000000,1717625575.974613,172.16.3.2,5101,172.16.1.2,10692,10124,14480,0,65728,65700,6,6,4,1460,1952,1,992,254,33580,0,65700,0,0,0,0,0
o,0x00000000,1717625575.974620,172.16.3.2,5101,172.16.1.2,10692,10124,14480,0,65728,65700,6,6,4,1460,1952,1,993,254,33580,0,65700,1448,0,0,0,0
i,0x00000000,1717625575.983926,172.16.3.2,5101,172.16.1.2,10692,10124,14480,0,65728,65700,6,6,4,1460,1952,1,992,254,33580,0,65700,0,0,0,0,0
o,0x00000000,1717625575.990062,10.0.2.15,22,10.0.2.2,61555,1073725440,14600,0,65535,65700,0,0,4,1460,1,0,4,24,33580,108,65700,0,0,0,0,0
i,0x00000000,1717625575.990774,10.0.2.15,22,10.0.2.2,61555,1073725440,14600,0,65535,65700,0,0,4,1460,1,0,4,24,33580,108,65700,0,108,0,0,0
i,0x00000000,1717625576.004794,172.16.3.2,5101,172.16.1.2,10692,10124,14480,0,65728,65700,6,6,4,1460,1952,1,992,254,33580,0,65700,0,0,0,0,0
o,0x00000000,1717625576.004815,172.16.3.2,5101,172.16.1.2,10692,10124,14480,0,65728,65700,6,6,4,1460,1952,1,993,254,33580,0,65700,1448,0,0,0,0
i,0x00000000,1717625576.014062,172.16.3.2,5101,172.16.1.2,10692,10124,14480,0,65728,65700,6,6,4,1460,1952,1,992,254,33580,0,65700,0,0,0,0,0
o,0x00000000,1717625576.049759,172.16.3.2,5101,172.16.1.2,10692,10124,14480,0,65728,65700,6,6,4,1460,1952,1,993,254,33580,0,65700,0,0,0,0,0
i,0x00000000,1717625576.173832,172.16.3.2,5101,172.16.1.2,10692,10124,14480,0,65728,65700,6,6,4,1460,1952,1,992,254,33580,0,65700,0,0,0,0,0
i,0x00000000,1717625576.184170,172.16.3.2,5101,172.16.1.2,10692,10124,14480,0,65728,65700,6,6,4,1460,1952,1,992,254,33580,0,65700,0,0,0,0,0
o,0x00000000,1717625576.184180,172.16.3.2,5101,172.16.1.2,10692,10124,14480,0,65728,65700,6,6,4,1460,1952,1,993,254,33580,0,65700,1448,0,0,0,0
i,0x00000000,1717625576.193544,172.16.3.2,5101,172.16.1.2,10692,10124,14480,0,65728,65700,6,6,4,1460,1952,1,992,254,33580,0,65700,0,0,0,0,0
o,0x00000000,1717625576.229887,172.16.3.2,5101,172.16.1.2,10692,10124,14480,0,65728,65700,6,6,4,1460,1952,1,993,254,33580,0,65700,0,0,0,0,0
i,0x00000000,1717625576.243568,172.16.3.2,5101,172.16.1.2,10692,10124,14480,0,65728,65700,6,6,4,1460,1952,1,992,254,33580,0,65700,0,0,0,0,0
i,0x00000000,1717625576.253958,172.16.3.2,5101,172.16.1.2,10692,10124,14480,0,65728,65700,6,6,4,1460,1952,1,992,254,33580,0,65700,0,0,0,0,0
o,0x00000000,1717625576.253967,172.16.3.2,5101,172.16.1.2,10692,10124,14480,0,65728,65700,6,6,4,1460,1952,1,993,254,33580,0,65700,1448,0,0,0,0
i,0x00000000,1717625576.274824,172.16.3.2,5101,172.16.1.2,10692,10124,14480,0,65728,65700,6,6,4,1460,1952,1,992,254,33580,0,65700,0,0,0,0,0
i,0x00000000,1717625576.284202,172.16.3.2,5101,172.16.1.2,10692,10124,14480,0,65728,65700,6,6,4,1460,1952,1,992,254,33580,0,65700,0,0,0,0,0
o,0x00000000,1717625576.284211,172.16.3.2,5101,172.16.1.2,10692,10124,14480,0,65728,65700,6,6,4,1460,1952,1,993,254,33580,0,65700,1448,0,0,0,0
i,0x00000000,1717625576.293569,172.16.3.2,5101,172.16.1.2,10692,10124,14480,0,65728,65700,6,6,4,1460,1952,1,992,254,33580,0,65700,0,0,0,0,0
i,0x00000000,1717625576.303319,172.16.3.2,5101,172.16.1.2,10692,10124,14480,0,65728,65700,6,6,4,1460,1952,1,992,254,33580,0,65700,0,0,0,0,0
o,0x00000000,1717625576.303329,172.16.3.2,5101,172.16.1.2,10692,10124,14480,0,65728,65700,6,6,4,1460,1952,1,993,254,33580,0,65700,1448,0,0,0,0
i,0x00000000,1717625576.314387,172.16.3.2,5101,172.16.1.2,10692,10124,14480,0,65728,65700,6,6,4,1460,1952,1,992,254,33580,0,65700,0,0,0,0,0
i,0x00000000,1717625576.334125,172.16.3.2,5101,172.16.1.2,10692,10124,14480,0,65728,65700,6,6,4,1460,1952,1,992,254,33580,0,65700,0,0,0,0,0
o,0x00000000,1717625576.334134,172.16.3.2,5101,172.16.1.2,10692,10124,14480,0,65728,65700,6,6,4,1460,1952,1,993,254,33580,0,65700,1448,0,0,0,0
i,0x00000000,1717625576.344806,172.16.3.2,5101,172.16.1.2,10692,10124,14480,0,65728,65700,6,6,4,1460,1952,1,992,254,33580,0,65700,0,0,0,0,0
i,0x00000000,1717625576.374799,172.16.3.2,5101,172.16.1.2,10692,10124,14480,0,65728,65700,6,6,4,1460,1952,1,992,254,33580,0,65700,0,0,0,0,0
o,0x00000000,1717625576.374805,172.16.3.2,5101,172.16.1.2,10692,10124,14480,0,65728,65700,6,6,4,1460,1952,1,993,254,33580,0,65700,1448,0,0,0,0
i,0x00000000,1717625576.394002,172.16.3.2,5101,172.16.1.2,10692,10124,14480,0,65728,65700,6,6,4,1460,1952,1,992,254,33580,0,65700,0,0,0,0,0
i,0x00000000,1717625576.403390,172.16.3.2,5101,172.16.1.2,10692,10124,14480,0,65728,65700,6,6,4,1460,1952,1,992,254,33580,0,65700,0,0,0,0,0
o,0x00000000,1717625576.403397,172.16.3.2,5101,172.16.1.2,10692,10124,14480,0,65728,65700,6,6,4,1460,1952,1,993,254,33580,0,65700,1448,0,0,0,0
i,0x00000000,1717625576.424188,172.16.3.2,5101,172.16.1.2,10692,10124,14480,0,65728,65700,6,6,4,1460,1952,1,992,254,33580,0,65700,0,0,0,0,0
i,0x00000000,1717625576.443923,172.16.3.2,5101,172.16.1.2,10692,10124,14480,0,65728,65700,6,6,4,1460,1952,1,992,254,33580,0,65700,0,0,0,0,0
o,0x00000000,1717625576.443931,172.16.3.2,5101,172.16.1.2,10692,10124,14480,0,65728,65700,6,6,4,1460,1952,1,993,254,33580,0,65700,1448,0,0,0,0
i,0x00000000,1717625576.484514,172.16.3.2,5101,172.16.1.2,10692,10124,14480,0,65728,65700,6,6,4,1460,1952,1,992,254,33580,0,65700,0,0,0,0,0
o,0x00000000,1717625576.519756,172.16.3.2,5101,172.16.1.2,10692,10124,14480,0,65728,65700,6,6,4,1460,1952,1,993,254,33580,0,65700,0,0,0,0,0
i,0x00000000,1717625576.613752,172.16.3.2,5101,172.16.1.2,10692,10124,14480,0,65728,65700,6,6,4,1460,1952,1,992,254,33580,0,65700,0,0,0,0,0
i,0x00000000,1717625576.624139,172.16.3.2,5101,172.16.1.2,10692,10124,14480,0,65728,65700,6,6,4,1460,1952,1,992,254,33580,0,65700,0,0,0,0,0
o,0x00000000,1717625576.624150,172.16.3.2,5101,172.16.1.2,10692,10124,14480,0,65728,65700,6,6,4,1460,1952,1,993,254,33580,0,65700,1448,0,0,0,0
i,0x00000000,1717625576.683993,172.16.3.2,5101,172.16.1.2,10692,10124,14480,0,65728,65700,6,6,4,1460,1952,1,992,254,33580,0,65700,0,0,0,0,0
i,0x00000000,1717625576.695320,172.16.3.2,5101,172.16.1.2,10692,10124,14480,0,65728,65700,6,6,4,1460,1952,1,992,254,33580,0,65700,0,0,0,0,0
o,0x00000000,1717625576.695330,172.16.3.2,5101,172.16.1.2,10692,10124,14480,0,65728,65700,6,6,4,1460,1952,1,993,254,33580,0,65700,1448,0,0,0,0
i,0x00000000,1717625576.714084,172.16.3.2,5101,172.16.1.2,10692,10124,14480,0,65728,65700,6,6,4,1460,1952,1,992,254,33580,0,65700,0,0,0,0,0
i,0x00000000,1717625576.723455,172.16.3.2,5101,172.16.1.2,10692,10124,14480,0,65728,65700,6,6,4,1460,1952,1,992,254,33580,0,65700,0,0,0,0,0
o,0x00000000,1717625576.723463,172.16.3.2,5101,172.16.1.2,10692,10124,14480,0,65728,65700,6,6,4,1460,1952,1,993,254,33580,0,65700,1448,0,0,0,0
i,0x00000000,1717625576.733854,172.16.3.2,5101,172.16.1.2,10692,10124,14480,0,65728,65700,6,6,4,1460,1952,1,992,254,33580,0,65700,0,0,0,0,0
i,0x00000000,1717625576.743272,172.16.3.2,5101,172.16.1.2,10692,10124,14480,0,65728,65700,6,6,4,1460,1952,1,992,254,33580,0,65700,0,0,0,0,0
o,0x00000000,1717625576.743279,172.16.3.2,5101,172.16.1.2,10692,10124,14480,0,65728,65700,6,6,4,1460,1952,1,993,254,33580,0,65700,1448,0,0,0,0
i,0x00000000,1717625576.753725,172.16.3.2,5101,172.16.1.2,10692,10124,14480,0,65728,65700,6,6,4,1460,1952,1,992,254,33580,0,65700,0,0,0,0,0
i,0x00000000,1717625576.774417,172.16.3.2,5101,172.16.1.2,10692,10124,14480,0,65728,65700,6,6,4,1460,1952,1,992,254,33580,0,65700,0,0,0,0,0
o,0x00000000,1717625576.774426,172.16.3.2,5101,172.16.1.2,10692,10124,14480,0,65728,65700,6,6,4,1460,1952,1,993,254,33580,0,65700,1448,0,0,0,0
i,0x00000000,1717625576.783801,172.16.3.2,5101,172.16.1.2,10692,10124,14480,0,65728,65700,6,6,4,1460,1952,1,992,254,33580,0,65700,0,0,0,0,0
i,0x00000000,1717625576.794225,172.16.3.2,5101,172.16.1.2,10692,10124,14480,0,65728,65700,6,6,4,1460,1952,1,992,254,33580,0,65700,0,0,0,0,0
o,0x00000000,1717625576.794234,172.16.3.2,5101,172.16.1.2,10692,10124,14480,0,65728,65700,6,6,4,1460,1952,1,993,254,33580,0,65700,1448,0,0,0,0
i,0x00000000,1717625576.833728,172.16.3.2,5101,172.16.1.2,10692,10124,14480,0,65728,65700,6,6,4,1460,1952,1,992,254,33580,0,65700,0,0,0,0,0
i,0x00000000,1717625576.844223,172.16.3.2,5101,172.16.1.2,10692,10124,14480,0,65728,65700,6,6,4,1460,1952,1,992,254,33580,0,65700,0,0,0,0,0
o,0x00000000,1717625576.844233,172.16.3.2,5101,172.16.1.2,10692,10124,14480,0,65728,65700,6,6,4,1460,1952,1,993,254,33580,0,65700,1448,0,0,0,0
i,0x00000000,1717625576.854512,172.16.3.2,5101,172.16.1.2,10692,10124,14480,0,65728,65700,6,6,4,1460,1952,1,992,254,33580,0,65700,0,0,0,0,0
i,0x00000000,1717625576.864079,172.16.3.2,5101,172.16.1.2,10692,10124,14480,0,65728,65700,6,6,4,1460,1952,1,992,254,33580,0,65700,0,0,0,0,0
o,0x00000000,1717625576.864087,172.16.3.2,5101,172.16.1.2,10692,10124,14480,0,65728,65700,6,6,4,1460,1952,1,993,254,33580,0,65700,1448,0,0,0,0
i,0x00000000,1717625576.883629,172.16.3.2,5101,172.16.1.2,10692,10124,14480,0,65728,65700,6,6,4,1460,1952,1,992,254,33580,0,65700,0,0,0,0,0
i,0x00000000,1717625576.894121,172.16.3.2,5101,172.16.1.2,10692,10124,14480,0,65728,65700,6,6,4,1460,1952,1,992,254,33580,0,65700,0,0,0,0,0
o,0x00000000,1717625576.894129,172.16.3.2,5101,172.16.1.2,10692,10124,14480,0,65728,65700,6,6,4,1460,1952,1,993,254,33580,0,65700,1448,0,0,0,0
o,0x00000000,1717625576.989323,10.0.2.15,22,10.0.2.2,61555,1073725440,14600,0,65535,65700,0,0,4,1460,1,0,4,24,33580,108,65700,0,0,0,0,0
i,0x00000000,1717625576.990091,10.0.2.15,22,10.0.2.2,61555,1073725440,14600,0,65535,65700,0,0,4,1460,1,0,4,24,33580,108,65700,0,108,0,0,0
i,0x00000000,1717625577.073815,172.16.3.2,5101,172.16.1.2,10692,10124,14480,0,65728,65700,6,6,4,1460,1952,1,992,254,33580,0,65700,0,0,0,0,0
i,0x00000000,1717625577.093605,172.16.3.2,5101,172.16.1.2,10692,10124,14480,0,65728,65700,6,6,4,1460,1952,1,992,254,33580,0,65700,0,0,0,0,0
o,0x00000000,1717625577.093619,172.16.3.2,5101,172.16.1.2,10692,10124,14480,0,65728,65700,6,6,4,1460,1952,1,993,254,33580,0,65700,1448,0,0,0,0
i,0x00000000,1717625577.103896,172.16.3.2,5101,172.16.1.2,10692,10124,14480,0,65728,65700,6,6,4,1460,1952,1,992,254,33580,0,65700,0,0,0,0,0
o,0x00000000,1717625577.139580,172.16.3.2,5101,172.16.1.2,10692,10124,14480,0,65728,65700,6,6,4,1460,1952,1,993,254,33580,0,65700,0,0,0,0,0
i,0x00000000,1717625577.164355,172.16.3.2,5101,172.16.1.2,10692,10124,14480,0,65728,65700,6,6,4,1460,1952,1,992,254,33580,0,65700,0,0,0,0,0
i,0x00000000,1717625577.173161,172.16.3.2,5101,172.16.1.2,10692,10124,14480,0,65728,65700,6,6,4,1460,1952,1,992,254,33580,0,65700,0,0,0,0,0
o,0x00000000,1717625577.173170,172.16.3.2,5101,172.16.1.2,10692,10124,14480,0,65728,65700,6,6,4,1460,1952,1,993,254,33580,0,65700,1448,0,0,0,0
i,0x00000000,1717625577.183508,172.16.3.2,5101,172.16.1.2,10692,10124,14480,0,65728,65700,6,6,4,1460,1952,1,992,254,33580,0,65700,0,0,0,0,0
i,0x00000000,1717625577.194024,172.16.3.2,5101,172.16.1.2,10692,10124,14480,0,65728,65700,6,6,4,1460,1952,1,992,254,33580,0,65700,0,0,0,0,0
o,0x00000000,1717625577.194035,172.16.3.2,5101,172.16.1.2,10692,10124,14480,0,65728,65700,6,6,4,1460,1952,1,993,254,33580,0,65700,1448,0,0,0,0
i,0x00000000,1717625577.213646,172.16.3.2,5101,172.16.1.2,10692,10124,14480,0,65728,65700,6,6,4,1460,1952,1,992,254,33580,0,65700,0,0,0,0,0
i,0x00000000,1717625577.222984,172.16.3.2,5101,172.16.1.2,10692,10124,14480,0,65728,65700,6,6,4,1460,1952,1,992,254,33580,0,65700,0,0,0,0,0
o,0x00000000,1717625577.222996,172.16.3.2,5101,172.16.1.2,10692,10124,14480,0,65728,65700,6,6,4,1460,1952,1,993,254,33580,0,65700,1448,0,0,0,0
i,0x00000000,1717625577.234476,172.16.3.2,5101,172.16.1.2,10692,10124,14480,0,65728,65700,6,6,4,1460,1952,1,992,254,33580,0,65700,0,0,0,0,0
i,0x00000000,1717625577.243614,172.16.3.2,5101,172.16.1.2,10692,10124,14480,0,65728,65700,6,6,4,1460,1952,1,992,254,33580,0,65700,0,0,0,0,0
o,0x00000000,1717625577.243631,172.16.3.2,5101,172.16.1.2,10692,10124,14480,0,65728,65700,6,6,4,1460,1952,1,993,254,33580,0,65700,1448,0,0,0,0
i,0x00000000,1717625577.253793,172.16.3.2,5101,172.16.1.2,10692,10124,14480,0,65728,65700,6,6,4,1460,1952,1,992,254,33580,0,65700,0,0,0,0,0
i,0x00000000,1717625577.274796,172.16.3.2,5101,172.16.1.2,10692,10124,14480,0,65728,65700,6,6,4,1460,1952,1,992,254,33580,0,65700,0,0,0,0,0
o,0x00000000,1717625577.274876,172.16.3.2,5101,172.16.1.2,10692,10124,14480,0,65728,65700,6,6,4,1460,1952,1,993,254,33580,0,65700,1448,0,0,0,0
i,0x00000000,1717625577.285290,172.16.3.2,5101,172.16.1.2,10692,10124,14480,0,65728,65700,6,6,4,1460,1952,1,992,254,33580,0,65700,0,0,0,0,0
i,0x00000000,1717625577.314945,172.16.3.2,5101,172.16.1.2,10692,10124,14480,0,65728,65700,6,6,4,1460,1952,1,992,254,33580,0,65700,0,0,0,0,0
o,0x00000000,1717625577.315110,172.16.3.2,5101,172.16.1.2,10692,10124,14480,0,65728,65700,6,6,4,1460,1952,1,993,254,33580,0,65700,1448,0,0,0,0
i,0x00000000,1717625577.334713,172.16.3.2,5101,172.16.1.2,10692,10124,14480,0,65728,65700,6,6,4,1460,1952,1,992,254,33580,0,65700,0,0,0,0,0
i,0x00000000,1717625577.344727,172.16.3.2,5101,172.16.1.2,10692,10124,14480,0,65728,65700,6,6,4,1460,1952,1,992,254,33580,0,65700,0,0,0,0,0
o,0x00000000,1717625577.344767,172.16.3.2,5101,172.16.1.2,10692,10124,14480,0,65728,65700,6,6,4,1460,1952,1,993,254,33580,0,65700,1448,0,0,0,0
i,0x00000000,1717625577.354080,172.16.3.2,5101,172.16.1.2,10692,10124,14480,0,65728,65700,6,6,4,1460,1952,1,992,254,33580,0,65700,0,0,0,0,0
i,0x00000000,1717625577.363591,172.16.3.2,5101,172.16.1.2,10692,10124,14480,0,65728,65700,6,6,4,1460,1952,1,992,254,33580,0,65700,0,0,0,0,0
o,0x00000000,1717625577.363660,172.16.3.2,5101,172.16.1.2,10692,10124,14480,0,65728,65700,6,6,4,1460,1952,1,993,254,33580,0,65700,1448,0,0,0,0
i,0x00000000,1717625577.384274,172.16.3.2,5101,172.16.1.2,10692,10124,14480,0,65728,65700,6,6,4,1460,1952,1,992,254,33580,0,65700,0,0,0,0,0
o,0x00000000,1717625577.419606,172.16.3.2,5101,172.16.1.2,10692,10124,14480,0,65728,65700,6,6,4,1460,1952,1,993,254,33580,0,65700,0,0,0,0,0
i,0x00000000,1717625577.563786,172.16.3.2,5101,172.16.1.2,10692,10124,14480,0,65728,65700,6,6,4,1460,1952,1,992,254,33580,0,65700,0,0,0,0,0
o,0x00000000,1717625577.563869,172.16.3.2,5101,172.16.1.2,10692,10124,14480,0,65728,65700,6,6,4,1460,1952,1,992,254,33580,0,98550,0,0,0,0,0
i,0x00000000,1717625577.573219,172.16.3.2,5101,172.16.1.2,10692,10124,14480,0,65728,65700,6,6,4,1460,1952,1,992,254,33580,0,98550,0,0,0,0,0
o,0x00000000,1717625577.610002,172.16.3.2,5101,172.16.1.2,10692,10124,14480,0,65728,65700,6,6,4,1460,1952,1,993,254,33580,0,98550,0,0,0,0,0
i,0x00000000,1717625577.634314,172.16.3.2,5101,172.16.1.2,10692,10124,14480,0,65728,65700,6,6,4,1460,1952,1,992,254,33580,0,98550,0,0,0,0,0
i,0x00000000,1717625577.653139,172.16.3.2,5101,172.16.1.2,10692,10124,14480,0,65728,65700,6,6,4,1460,1952,1,992,254,33580,0,98550,0,0,0,0,0
o,0x00000000,1717625577.653152,172.16.3.2,5101,172.16.1.2,10692,10124,14480,0,65728,65700,6,6,4,1460,1952,1,993,254,33580,0,98550,1448,0,0,0,0
i,0x00000000,1717625577.664399,172.16.3.2,5101,172.16.1.2,10692,10124,14480,0,65728,65700,6,6,4,1460,1952,1,992,254,33580,0,98550,0,0,0,0,0
i,0x00000000,1717625577.673875,172.16.3.2,5101,172.16.1.2,10692,10124,14480,0,65728,65700,6,6,4,1460,1952,1,992,254,33580,0,98550,0,0,0,0,0
o,0x00000000,1717625577.673884,172.16.3.2,5101,172.16.1.2,10692,10124,14480,0,65728,65700,6,6,4,1460,1952,1,993,254,33580,0,98550,1448,0,0,0,0
i,0x00000000,1717625577.684130,172.16.3.2,5101,172.16.1.2,10692,10124,14480,0,65728,65700,6,6,4,1460,1952,1,992,254,33580,0,98550,0,0,0,0,0
i,0x00000000,1717625577.694865,172.16.3.2,5101,172.16.1.2,10692,10124,14480,0,65728,65700,6,6,4,1460,1952,1,992,254,33580,0,98550,0,0,0,0,0
o,0x00000000,1717625577.694872,172.16.3.2,5101,172.16.1.2,10692,10124,14480,0,65728,65700,6,6,4,1460,1952,1,993,254,33580,0,98550,1448,0,0,0,0
i,0x00000000,1717625577.713437,172.16.3.2,5101,172.16.1.2,10692,10124,14480,0,65728,65700,6,6,4,1460,1952,1,992,254,33580,0,98550,0,0,0,0,0
i,0x00000000,1717625577.723784,172.16.3.2,5101,172.16.1.2,10692,10124,14480,0,65728,65700,6,6,4,1460,1952,1,992,254,33580,0,98550,0,0,0,0,0
o,0x00000000,1717625577.723794,172.16.3.2,5101,172.16.1.2,10692,10124,14480,0,65728,65700,6,6,4,1460,1952,1,993,254,33580,0,98550,1448,0,0,0,0
i,0x00000000,1717625577.734169,172.16.3.2,5101,172.16.1.2,10692,10124,14480,0,65728,65700,6,6,4,1460,1952,1,992,254,33580,0,98550,0,0,0,0,0
i,0x00000000,1717625577.743707,172.16.3.2,5101,172.16.1.2,10692,10124,14480,0,65728,65700,6,6,4,1460,1952,1,992,254,33580,0,98550,0,0,0,0,0
o,0x00000000,1717625577.743714,172.16.3.2,5101,172.16.1.2,10692,10124,14480,0,65728,65700,6,6,4,1460,1952,1,993,254,33580,0,98550,1448,0,0,0,0
i,0x00000000,1717625577.754142,172.16.3.2,5101,172.16.1.2,10692,10124,14480,0,65728,65700,6,6,4,1460,1952,1,992,254,33580,0,98550,0,0,0,0,0
i,0x00000000,1717625577.773043,172.16.3.2,5101,172.16.1.2,10692,10124,14480,0,65728,65700,6,6,4,1460,1952,1,992,254,33580,0,98550,0,0,0,0,0
o,0x00000000,1717625577.773053,172.16.3.2,5101,172.16.1.2,10692,10124,14480,0,65728,65700,6,6,4,1460,1952,1,993,254,33580,0,98550,1448,0,0,0,0
i,0x00000000,1717625577.803137,172.16.3.2,5101,172.16.1.2,10692,10124,14480,0,65728,65700,6,6,4,1460,1952,1,992,254,33580,0,98550,0,0,0,0,0
i,0x00000000,1717625577.814738,172.16.3.2,5101,172.16.1.2,10692,10124,14480,0,65728,65700,6,6,4,1460,1952,1,992,254,33580,0,98550,0,0,0,0,0
o,0x00000000,1717625577.814777,172.16.3.2,5101,172.16.1.2,10692,10124,14480,0,65728,65700,6,6,4,1460,1952,1,993,254,33580,0,98550,1448,0,0,0,0
i,0x00000000,1717625577.833609,172.16.3.2,5101,172.16.1.2,10692,10124,14480,0,65728,65700,6,6,4,1460,1952,1,992,254,33580,0,98550,0,0,0,0,0
i,0x00000000,1717625577.844210,172.16.3.2,5101,172.16.1.2,10692,10124,14480,0,65728,65700,6,6,4,1460,1952,1,992,254,33580,0,98550,0,0,0,0,0
o,0x00000000,1717625577.844237,172.16.3.2,5101,172.16.1.2,10692,10124,14480,0,65728,65700,6,6,4,1460,1952,1,993,254,33580,0,98550,1448,0,0,0,0
i,0x00000000,1717625577.853522,172.16.3.2,5101,172.16.1.2,10692,10124,14480,0,65728,65700,6,6,4,1460,1952,1,992,254,33580,0,98550,0,0,0,0,0
i,0x00000000,1717625577.873685,172.16.3.2,5101,172.16.1.2,10692,10124,14480,0,65728,65700,6,6,4,1460,1952,1,992,254,33580,0,98550,0,0,0,0,0
o,0x00000000,1717625577.873705,172.16.3.2,5101,172.16.1.2,10692,10124,14480,0,65728,65700,6,6,4,1460,1952,1,993,254,33580,0,98550,1448,0,0,0,0
o,0x00000000,1717625577.990437,10.0.2.15,22,10.0.2.2,61555,1073725440,14600,0,65535,65700,0,0,4,1460,1,0,4,24,33580,108,65700,0,0,0,0,0
i,0x00000000,1717625577.991166,10.0.2.15,22,10.0.2.2,61555,1073725440,14600,0,65535,65700,0,0,4,1460,1,0,4,24,33580,108,65700,0,108,0,0,0
i,0x00000000,1717625578.083478,172.16.3.2,5101,172.16.1.2,10692,10124,14480,0,65728,65700,6,6,4,1460,1952,1,992,254,33580,0,98550,0,0,0,0,0
i,0x00000000,1717625578.092907,172.16.3.2,5101,172.16.1.2,10692,10124,14480,0,65728,65700,6,6,4,1460,1952,1,992,254,33580,0,98550,0,0,0,0,0
o,0x00000000,1717625578.092918,172.16.3.2,5101,172.16.1.2,10692,10124,14480,0,65728,65700,6,6,4,1460,1952,1,993,254,33580,0,98550,1448,0,0,0,0
i,0x00000000,1717625578.154171,172.16.3.2,5101,172.16.1.2,10692,10124,14480,0,65728,65700,6,6,4,1460,1952,1,992,254,33580,0,98550,0,0,0,0,0
i,0x00000000,1717625578.163486,172.16.3.2,5101,172.16.1.2,10692,10124,14480,0,65728,65700,6,6,4,1460,1952,1,992,254,33580,0,98550,0,0,0,0,0
o,0x00000000,1717625578.163509,172.16.3.2,5101,172.16.1.2,10692,10124,14480,0,65728,65700,6,6,4,1460,1952,1,993,254,33580,0,98550,1448,0,0,0,0
i,0x00000000,1717625578.173822,172.16.3.2,5101,172.16.1.2,10692,10124,14480,0,65728,65700,6,6,4,1460,1952,1,992,254,33580,0,98550,0,0,0,0,0
i,0x00000000,1717625578.184040,172.16.3.2,5101,172.16.1.2,10692,10124,14480,0,65728,65700,6,6,4,1460,1952,1,992,254,33580,0,98550,0,0,0,0,0
o,0x00000000,1717625578.184057,172.16.3.2,5101,172.16.1.2,10692,10124,14480,0,65728,65700,6,6,4,1460,1952,1,993,254,33580,0,98550,1448,0,0,0,0
i,0x00000000,1717625578.202877,172.16.3.2,5101,172.16.1.2,10692,10124,14480,0,65728,65700,6,6,4,1460,1952,1,992,254,33580,0,98550,0,0,0,0,0
i,0x00000000,1717625578.213176,172.16.3.2,5101,172.16.1.2,10692,10124,14480,0,65728,65700,6,6,4,1460,1952,1,992,254,33580,0,98550,0,0,0,0,0
o,0x00000000,1717625578.213190,172.16.3.2,5101,172.16.1.2,10692,10124,14480,0,65728,65700,6,6,4,1460,1952,1,993,254,33580,0,98550,1448,0,0,0,0
i,0x00000000,1717625578.223569,172.16.3.2,5101,172.16.1.2,10692,10124,14480,0,65728,65700,6,6,4,1460,1952,1,992,254,33580,0,98550,0,0,0,0,0
i,0x00000000,1717625578.234084,172.16.3.2,5101,172.16.1.2,10692,10124,14480,0,65728,65700,6,6,4,1460,1952,1,992,254,33580,0,98550,0,0,0,0,0
o,0x00000000,1717625578.234095,172.16.3.2,5101,172.16.1.2,10692,10124,14480,0,65728,65700,6,6,4,1460,1952,1,993,254,33580,0,98550,1448,0,0,0,0
i,0x00000000,1717625578.243362,172.16.3.2,5101,172.16.1.2,10692,10124,14480,0,65728,65700,6,6,4,1460,1952,1,992,254,33580,0,98550,0,0,0,0,0
i,0x00000000,1717625578.263271,172.16.3.2,5101,172.16.1.2,10692,10124,14480,0,65728,65700,6,6,4,1460,1952,1,992,254,33580,0,98550,0,0,0,0,0
o,0x00000000,1717625578.263292,172.16.3.2,5101,172.16.1.2,10692,10124,14480,0,65728,65700,6,6,4,1460,1952,1,993,254,33580,0,98550,1448,0,0,0,0
i,0x00000000,1717625578.273810,172.16.3.2,5101,172.16.1.2,10692,10124,14480,0,65728,65700,6,6,4,1460,1952,1,992,254,33580,0,98550,0,0,0,0,0
i,0x00000000,1717625578.284049,172.16.3.2,5101,172.16.1.2,10692,10124,14480,0,65728,65700,6,6,4,1460,1952,1,992,254,33580,0,98550,0,0,0,0,0
o,0x00000000,1717625578.284064,172.16.3.2,5101,172.16.1.2,10692,10124,14480,0,65728,65700,6,6,4,1460,1952,1,993,254,33580,0,98550,1448,0,0,0,0
i,0x00000000,1717625578.293401,172.16.3.2,5101,172.16.1.2,10692,10124,14480,0,65728,65700,6,6,4,1460,1952,1,992,254,33580,0,98550,0,0,0,0,0
i,0x00000000,1717625578.303810,172.16.3.2,5101,172.16.1.2,10692,10124,14480,0,65728,65700,6,6,4,1460,1952,1,992,254,33580,0,98550,0,0,0,0,0
o,0x00000000,1717625578.303819,172.16.3.2,5101,172.16.1.2,10692,10124,14480,0,65728,65700,6,6,4,1460,1952,1,993,254,33580,0,98550,1448,0,0,0,0
i,0x00000000,1717625578.323739,172.16.3.2,5101,172.16.1.2,10692,10124,14480,0,65728,65700,6,6,4,1460,1952,1,992,254,33580,0,98550,0,0,0,0,0
i,0x00000000,1717625578.333104,172.16.3.2,5101,172.16.1.2,10692,10124,14480,0,65728,65700,6,6,4,1460,1952,1,992,254,33580,0,98550,0,0,0,0,0
o,0x00000000,1717625578.333112,172.16.3.2,5101,172.16.1.2,10692,10124,14480,0,65728,65700,6,6,4,1460,1952,1,993,254,33580,0,98550,1448,0,0,0,0
i,0x00000000,1717625578.343536,172.16.3.2,5101,172.16.1.2,10692,10124,14480,0,65728,65700,6,6,4,1460,1952,1,992,254,33580,0,98550,0,0,0,0,0
i,0x00000000,1717625578.354262,172.16.3.2,5101,172.16.1.2,10692,10124,14480,0,65728,65700,6,6,4,1460,1952,1,992,254,33580,0,98550,0,0,0,0,0
o,0x00000000,1717625578.354271,172.16.3.2,5101,172.16.1.2,10692,10124,14480,0,65728,65700,6,6,4,1460,1952,1,993,254,33580,0,98550,1448,0,0,0,0
i,0x00000000,1717625578.394311,172.16.3.2,5101,172.16.1.2,10692,10124,14480,0,65728,65700,6,6,4,1460,1952,1,992,254,33580,0,98550,0,0,0,0,0
i,0x00000000,1717625578.423044,172.16.3.2,5101,172.16.1.2,10692,10124,14480,0,65728,65700,6,6,4,1460,1952,1,992,254,33580,0,98550,0,0,0,0,0
o,0x00000000,1717625578.423074,172.16.3.2,5101,172.16.1.2,10692,10124,14480,0,65728,65700,6,6,4,1460,1952,1,993,254,33580,0,98550,1448,0,0,0,0
i,0x00000000,1717625578.693265,172.16.3.2,5101,172.16.1.2,10692,10124,14480,0,65728,65700,6,6,4,1460,1952,1,992,254,33580,0,98550,0,0,0,0,0
i,0x00000000,1717625578.703281,172.16.3.2,5101,172.16.1.2,10692,10124,14480,0,65728,65700,6,6,4,1460,1952,1,992,254,33580,0,98550,0,0,0,0,0
o,0x00000000,1717625578.703296,172.16.3.2,5101,172.16.1.2,10692,10124,14480,0,65728,65700,6,6,4,1460,1952,1,993,254,33580,0,98550,1448,0,0,0,0
i,0x00000000,1717625578.713550,172.16.3.2,5101,172.16.1.2,10692,10124,14480,0,65728,65700,6,6,4,1460,1952,1,992,254,33580,0,98550,0,0,0,0,0
i,0x00000000,1717625578.724056,172.16.3.2,5101,172.16.1.2,10692,10124,14480,0,65728,65700,6,6,4,1460,1952,1,992,254,33580,0,98550,0,0,0,0,0
o,0x00000000,1717625578.724068,172.16.3.2,5101,172.16.1.2,10692,10124,14480,0,65728,65700,6,6,4,1460,1952,1,993,254,33580,0,98550,1448,0,0,0,0
i,0x00000000,1717625578.733399,172.16.3.2,5101,172.16.1.2,10692,10124,14480,0,65728,65700,6,6,4,1460,1952,1,992,254,33580,0,98550,0,0,0,0,0
i,0x00000000,1717625578.753614,172.16.3.2,5101,172.16.1.2,10692,10124,14480,0,65728,65700,6,6,4,1460,1952,1,992,254,33580,0,98550,0,0,0,0,0
o,0x00000000,1717625578.753624,172.16.3.2,5101,172.16.1.2,10692,10124,14480,0,65728,65700,6,6,4,1460,1952,1,993,254,33580,0,98550,1448,0,0,0,0
i,0x00000000,1717625578.763333,172.16.3.2,5101,172.16.1.2,10692,10124,14480,0,65728,65700,6,6,4,1460,1952,1,992,254,33580,0,98550,0,0,0,0,0
i,0x00000000,1717625578.773918,172.16.3.2,5101,172.16.1.2,10692,10124,14480,0,65728,65700,6,6,4,1460,1952,1,992,254,33580,0,98550,0,0,0,0,0
o,0x00000000,1717625578.773938,172.16.3.2,5101,172.16.1.2,10692,10124,14480,0,65728,65700,6,6,4,1460,1952,1,993,254,33580,0,98550,1448,0,0,0,0
i,0x00000000,1717625578.783239,172.16.3.2,5101,172.16.1.2,10692,10124,14480,0,65728,65700,6,6,4,1460,1952,1,992,254,33580,0,98550,0,0,0,0,0
i,0x00000000,1717625578.793457,172.16.3.2,5101,172.16.1.2,10692,10124,14480,0,65728,65700,6,6,4,1460,1952,1,992,254,33580,0,98550,0,0,0,0,0
