enable_time_secs=1717625143	enable_time_usecs=737079	siftrver=1.2.4	hz=100	tcp_rtt_scale=32	sysname=FreeBSD	sysver=1301000	ipmode=4
o,0x00000000,1717625143.737111,10.0.2.15,22,10.0.2.2,64144,1073725440,17298,0,65535,65700,0,0,4,1460,1,0,4,24,33580,44,65700,0,0,0,0,0
i,0x00000000,1717625143.737556,10.0.2.15,22,10.0.2.2,64144,1073725440,17298,0,65535,65700,0,0,4,1460,1,0,4,24,33580,44,65700,0,44,0,0,0
o,0x00000000,1717625143.737635,10.0.2.15,22,10.0.2.2,64144,1073725440,17342,0,65535,65700,0,0,4,1460,1,0,4,24,33580,36,65700,0,0,0,0,0
i,0x00000000,1717625143.738020,10.0.2.15,22,10.0.2.2,64144,1073725440,17342,0,65535,65700,0,0,4,1460,1,0,4,24,33580,36,65700,0,36,0,0,0
o,0x00000000,1717625143.738091,10.0.2.15,22,10.0.2.2,64144,1073725440,17378,0,65535,65700,0,0,4,1460,1,0,4,24,33580,36,65700,0,0,0,0,0
i,0x00000000,1717625143.738557,10.0.2.15,22,10.0.2.2,64144,1073725440,17378,0,65535,65700,0,0,4,1460,1,0,4,24,33580,36,65700,0,36,0,0,0
o,0x00000000,1717625143.738712,10.0.2.15,22,10.0.2.2,64144,1073725440,17414,0,65535,65700,0,0,4,1460,1,0,4,24,33580,176,65700,0,0,0,0,0
i,0x00000000,1717625143.739470,10.0.2.15,22,10.0.2.2,64144,1073725440,17414,0,65535,65700,0,0,4,1460,1,0,4,24,33580,176,65700,0,176,0,0,0
i,0x00000000,1717625143.739479,10.0.2.15,22,10.0.2.2,64144,1073725440,17590,0,65535,65700,0,0,4,1460,1,0,4,24,33580,0,65700,0,0,0,0,0
i,0x00000000,1717625143.739482,10.0.2.15,22,10.0.2.2,64144,1073725440,17590,0,65535,65700,0,0,4,1460,1,0,4,24,33580,0,65700,36,0,0,0,0
o,0x00000000,1717625143.739484,10.0.2.15,22,10.0.2.2,64144,1073725440,17590,0,65535,65700,0,0,4,1460,1,0,5,24,33580,0,65700,96,0,0,0,0
i,0x00000000,1717625143.739900,10.0.2.15,22,10.0.2.2,64144,1073725440,17590,0,65535,65700,0,0,4,1460,1,0,4,24,33580,0,65700,96,0,0,0,0
o,0x00000000,1717625143.739904,10.0.2.15,22,10.0.2.2,64144,1073725440,17590,0,65535,65604,0,0,5,1460,1,0,7,24,33580,0,65700,96,0,0,0,0
o,0x00000000,1717625143.740669,10.0.2.15,22,10.0.2.2,64144,1073725440,17590,0,65535,65604,0,0,8,1460,1,0,4,24,33580,0,65700,0,0,0,0,0
i,0x00000000,1717625143.741108,10.0.2.15,22,10.0.2.2,64144,1073725440,17590,0,65535,65604,0,0,8,1460,1,0,20,24,33580,0,65700,0,1,0,0,0
i,0x00000000,1717625145.822144,10.0.2.15,22,10.0.2.2,64148,1073725440,14600,0,65535,65700,0,0,4,1460,1,0,0,27,33580,0,65700,0,0,0,0,0
o,0x00000000,1717625145.828432,10.0.2.15,22,10.0.2.2,64148,1073725440,14600,0,65535,65700,0,0,4,1460,1,0,0,27,33580,38,65700,41,0,0,0,0
i,0x00000000,1717625145.829253,10.0.2.15,22,10.0.2.2,64148,1073725440,14600,0,65535,65700,0,0,4,1460,1,0,0,27,33580,38,65700,0,38,0,0,0
i,0x00000000,1717625145.829831,10.0.2.15,22,10.0.2.2,64148,1073725440,14638,0,65535,65700,0,0,4,1460,1,0,0,23,33580,0,65700,0,0,0,0,0
i,0x00000000,1717625145.829834,10.0.2.15,22,10.0.2.2,64148,1073725440,14638,0,65535,65700,0,0,4,1460,1,0,0,23,33580,0,65700,1460,0,0,0,0
o,0x00000000,1717625145.829838,10.0.2.15,22,10.0.2.2,64148,1073725440,14638,0,65535,65700,0,0,4,1460,1,0,1,23,33580,0,65700,1536,0,0,0,0
o,0x00000000,1717625145.830742,10.0.2.15,22,10.0.2.2,64148,1073725440,14638,0,65535,65700,0,0,4,1460,1,0,0,23,33580,1056,65700,1536,0,0,0,0
i,0x00000000,1717625145.831413,10.0.2.15,22,10.0.2.2,64148,1073725440,14638,0,65535,65700,0,0,4,1460,1,0,0,23,33580,1056,65700,1536,1056,0,0,0
i,0x00000000,1717625145.832804,10.0.2.15,22,10.0.2.2,64148,1073725440,15694,0,65535,65700,0,0,4,1460,1,0,0,23,33580,0,65700,0,0,0,0,0
o,0x00000000,1717625145.835229,10.0.2.15,22,10.0.2.2,64148,1073725440,15694,0,65535,65700,0,0,4,1460,1,0,0,23,33580,484,65700,0,0,0,0,0
i,0x00000000,1717625145.835776,10.0.2.15,22,10.0.2.2,64148,1073725440,15694,0,65535,65700,0,0,4,1460,1,0,0,23,33580,484,65700,0,484,0,0,0
i,0x00000000,1717625145.840617,10.0.2.15,22,10.0.2.2,64148,1073725440,16178,0,65535,65700,0,0,4,1460,1,0,0,23,33580,0,65700,0,0,0,0,0
i,0x00000000,1717625145.844732,10.0.2.15,22,10.0.2.2,64148,1073725440,16178,0,65535,65700,0,0,4,1460,1,0,0,23,33580,0,65700,0,0,0,0,0
o,0x00000000,1717625145.844737,10.0.2.15,22,10.0.2.2,64148,1073725440,16178,0,65535,65700,0,0,4,1460,1,0,1,23,33580,0,65700,44,0,0,0,0
o,0x00000000,1717625145.844893,10.0.2.15,22,10.0.2.2,64148,1073725440,16178,0,65535,65700,0,0,4,1460,1,0,0,23,33580,44,65700,0,0,0,0,0
i,0x00000000,1717625145.845292,10.0.2.15,22,10.0.2.2,64148,1073725440,16178,0,65535,65700,0,0,4,1460,1,0,0,23,33580,44,65700,0,44,0,0,0
i,0x00000000,1717625145.845979,10.0.2.15,22,10.0.2.2,64148,1073725440,16222,0,65535,65700,0,0,4,1460,1,0,0,23,33580,0,65700,0,0,0,0,0
o,0x00000000,1717625145.855333,10.0.2.15,22,10.0.2.2,64148,1073725440,16222,0,65535,65700,0,0,4,1460,1,0,0,23,33580,68,65700,0,0,0,0,0
i,0x00000000,1717625145.855851,10.0.2.15,22,10.0.2.2,64148,1073725440,16222,0,65535,65700,0,0,4,1460,1,0,0,23,33580,68,65700,0,68,0,0,0
i,0x00000000,1717625145.858412,10.0.2.15,22,10.0.2.2,64148,1073725440,16290,0,65535,65700,0,0,4,1460,1,0,0,24,33580,0,65700,0,0,0,0,0
o,0x00000000,1717625145.869417,10.0.2.15,22,10.0.2.2,64148,1073725440,16290,0,65535,65700,0,0,4,1460,1,0,0,24,33580,28,65700,0,0,0,0,0
i,0x00000000,1717625145.870108,10.0.2.15,22,10.0.2.2,64148,1073725440,16290,0,65535,65700,0,0,4,1460,1,0,0,24,33580,28,65700,0,28,0,0,0
i,0x00000000,1717625145.870479,10.0.2.15,22,10.0.2.2,64148,1073725440,16318,0,65535,65700,0,0,4,1460,1,0,0,24,33580,0,65700,0,0,0,0,0
o,0x00000000,1717625145.871208,10.0.2.15,22,10.0.2.2,64148,1073725440,16318,0,65535,65700,0,0,4,1460,1,0,0,24,33580,768,65700,112,0,0,0,0
i,0x00000000,1717625145.871846,10.0.2.15,22,10.0.2.2,64148,1073725440,16318,0,65535,65700,0,0,4,1460,1,0,0,24,33580,768,65700,112,768,0,0,0
o,0x00000000,1717625145.872007,10.0.2.15,22,10.0.2.2,64148,1073725440,17086,0,65535,65700,0,0,4,1460,1,0,0,24,33580,44,65700,0,0,0,0,0
i,0x00000000,1717625145.872523,10.0.2.15,22,10.0.2.2,64148,1073725440,17086,0,65535,65700,0,0,4,1460,1,0,0,24,33580,44,65700,0,44,0,0,0
i,0x00000000,1717625145.872976,10.0.2.15,22,10.0.2.2,64148,1073725440,17130,0,65535,65700,0,0,4,1460,1,0,0,24,33580,0,65700,0,0,0,0,0
o,0x00000000,1717625145.873277,10.0.2.15,22,10.0.2.2,64148,1073725440,17130,0,65535,65700,0,0,4,1460,1,0,4,24,33580,72,65700,0,0,0,0,0
i,0x00000000,1717625145.873918,10.0.2.15,22,10.0.2.2,64148,1073725440,17130,0,65535,65700,0,0,4,1460,1,0,4,24,33580,72,65700,0,72,0,0,0
o,0x00000000,1717625145.876758,10.0.2.15,22,10.0.2.2,64148,1073725440,17202,0,65535,65700,0,0,4,1460,1,0,4,24,33580,44,65700,0,0,0,0,0
i,0x00000000,1717625145.877232,10.0.2.15,22,10.0.2.2,64148,1073725440,17202,0,65535,65700,0,0,4,1460,1,0,4,24,33580,44,65700,0,44,0,0,0
o,0x00000000,1717625145.877576,10.0.2.15,22,10.0.2.2,64148,1073725440,17246,0,65535,65700,0,0,4,1460,1,0,4,24,33580,44,65700,0,0,0,0,0
i,0x00000000,1717625145.878243,10.0.2.15,22,10.0.2.2,64148,1073725440,17246,0,65535,65700,0,0,4,1460,1,0,4,24,33580,44,65700,0,44,0,0,0
o,0x00000000,1717625145.881482,10.0.2.15,22,10.0.2.2,64148,1073725440,17290,0,65535,65700,0,0,4,1460,1,0,4,24,33580,176,65700,0,0,0,0,0
i,0x00000000,1717625145.882265,10.0.2.15,22,10.0.2.2,64148,1073725440,17290,0,65535,65700,0,0,4,1460,1,0,4,24,33580,176,65700,0,176,0,0,0
i,0x00000000,1717625145.882269,10.0.2.15,22,10.0.2.2,64148,1073725440,17466,0,65535,65700,0,0,4,1460,1,0,4,24,33580,0,65700,0,0,0,0,0
i,0x00000000,1717625145.882616,10.0.2.15,22,10.0.2.2,64148,1073725440,17466,0,65535,65700,0,0,4,1460,1,0,4,24,33580,0,65700,36,0,0,0,0
o,0x00000000,1717625145.882618,10.0.2.15,22,10.0.2.2,64148,1073725440,17466,0,65535,65700,0,0,4,1460,1,0,5,24,33580,0,65700,96,0,0,0,0
i,0x00000000,1717625145.882691,10.0.2.15,22,10.0.2.2,64148,1073725440,17466,0,65535,65700,0,0,4,1460,1,0,4,24,33580,0,65700,96,0,0,0,0
o,0x00000000,1717625145.882695,10.0.2.15,22,10.0.2.2,64148,1073725440,17466,0,65535,65604,0,0,5,1460,1,0,7,24,33580,0,65700,96,0,0,0,0
o,0x00000000,1717625145.887869,10.0.2.15,22,10.0.2.2,64148,1073725440,17466,0,65535,65604,0,0,8,1460,1,0,4,24,33580,0,65700,0,0,0,0,0
i,0x00000000,1717625145.888363,10.0.2.15,22,10.0.2.2,64148,1073725440,17466,0,65535,65604,0,0,8,1460,1,0,20,24,33580,0,65700,0,1,0,0,0
i,0x00000000,1717625146.127606,172.16.3.2,5101,172.16.1.2,58803,10459,14480,0,65728,65700,6,6,4,1460,1763,1,992,245,33580,0,65700,0,0,0,0,0
o,0x00000000,1717625146.127683,172.16.3.2,5101,172.16.1.2,58803,10459,14480,0,65728,65700,6,6,4,1460,1763,1,996,245,33580,1,65700,0,0,0,0,0
i,0x00000000,1717625146.248615,172.16.3.2,5101,172.16.1.2,58803,10459,14480,0,65728,65700,6,6,4,1460,1763,1,996,245,33580,1,65700,0,1,0,0,0
i,0x00000000,1717625146.248631,172.16.3.2,5101,172.16.1.2,58803,10459,14480,0,65728,65728,6,6,4,1460,1591,1,996,240,33580,0,65700,4,0,0,0,0
o,0x00000000,1717625146.248638,172.16.3.2,5101,172.16.1.2,58803,10459,14480,0,65728,65728,6,6,4,1460,1591,1,997,240,33580,0,65700,128,0,0,0,0
o,0x00000000,1717625146.248880,172.16.3.2,5101,172.16.1.2,58803,10459,14480,0,65728,65728,6,6,4,1460,1591,1,996,240,33580,1,65700,0,0,0,0,0
o,0x00000000,1717625146.249423,10.0.2.15,22,10.0.2.2,61555,1073725440,14600,0,65535,65700,0,0,4,1460,1,0,4,24,33580,84,65700,0,0,0,0,0
i,0x00000000,1717625146.250082,10.0.2.15,22,10.0.2.2,61555,1073725440,14600,0,65535,65700,0,0,4,1460,1,0,4,24,33580,84,65700,0,84,0,0,0
i,0x00000000,1717625146.397673,172.16.3.2,5101,172.16.1.2,58803,10459,14480,0,65728,65728,6,6,4,1460,1591,1,996,240,33580,1,65700,0,1,0,0,0
i,0x00000000,1717625146.488686,172.16.3.2,5101,172.16.1.2,41092,10459,14480,0,65728,65700,6,6,4,1460,1763,1,992,245,33580,0,65700,0,0,0,0,0
o,0x00000000,1717625146.490797,172.16.3.2,5101,172.16.1.2,58803,10459,14480,0,65728,65728,6,6,4,1460,1453,1,996,228,33580,1,65700,0,0,0,0,0
o,0x00000000,1717625146.491190,172.16.3.2,5101,172.16.1.2,58803,10459,14480,0,65728,65728,6,6,4,1460,1453,1,996,228,33580,2,65700,0,1,0,0,0
o,0x00000000,1717625146.491364,10.0.2.15,22,10.0.2.2,61555,1073725440,14600,0,65535,65700,0,0,4,1460,1,0,4,24,33580,108,65700,0,0,0,0,0
i,0x00000000,1717625146.492224,10.0.2.15,22,10.0.2.2,61555,1073725440,14600,0,65535,65700,0,0,4,1460,1,0,4,24,33580,108,65700,0,108,0,0,0
o,0x00000000,1717625146.520027,172.16.3.2,5101,172.16.1.2,41092,10459,14480,0,65728,65700,6,6,4,1460,1763,1,993,245,33580,0,65700,0,0,0,0,0
i,0x00000000,1717625146.677369,172.16.3.2,5101,172.16.1.2,58803,10459,14480,0,65728,65728,6,6,4,1460,1453,1,996,228,33580,2,65700,0,2,0,0,0
i,0x00000000,1717625146.708468,172.16.3.2,5101,172.16.1.2,41092,10459,14480,0,65728,65700,6,6,4,1460,1763,1,992,245,33580,0,65700,0,0,0,0,0
i,0x00000000,1717625146.717856,172.16.3.2,5101,172.16.1.2,41092,10459,14480,0,65728,65700,6,6,4,1460,1763,1,992,245,33580,0,65700,0,0,0,0,0
o,0x00000000,1717625146.717867,172.16.3.2,5101,172.16.1.2,41092,10459,14480,0,65728,65700,6,6,4,1460,1763,1,993,245,33580,0,65700,1448,0,0,0,0
i,0x00000000,1717625146.728300,172.16.3.2,5101,172.16.1.2,41092,10459,14480,0,65728,65700,6,6,4,1460,1763,1,992,245,33580,0,65700,0,0,0,0,0
i,0x00000000,1717625146.737658,172.16.3.2,5101,172.16.1.2,41092,10459,14480,0,65728,65700,6,6,4,1460,1763,1,992,245,33580,0,65700,0,0,0,0,0
o,0x00000000,1717625146.737667,172.16.3.2,5101,172.16.1.2,41092,10459,14480,0,65728,65700,6,6,4,1460,1763,1,993,245,33580,0,65700,1448,0,0,0,0
i,0x00000000,1717625146.757446,172.16.3.2,5101,172.16.1.2,41092,10459,14480,0,65728,65700,6,6,4,1460,1763,1,992,245,33580,0,65700,0,0,0,0,0
i,0x00000000,1717625146.767831,172.16.3.2,5101,172.16.1.2,41092,10459,14480,0,65728,65700,6,6,4,1460,1763,1,992,245,33580,0,65700,0,0,0,0,0
o,0x00000000,1717625146.767839,172.16.3.2,5101,172.16.1.2,41092,10459,14480,0,65728,65700,6,6,4,1460,1763,1,993,245,33580,0,65700,1448,0,0,0,0
i,0x00000000,1717625146.777231,172.16.3.2,5101,172.16.1.2,41092,10459,14480,0,65728,65700,6,6,4,1460,1763,1,992,245,33580,0,65700,0,0,0,0,0
i,0x00000000,1717625146.787696,172.16.3.2,5101,172.16.1.2,41092,10459,14480,0,65728,65700,6,6,4,1460,1763,1,992,245,33580,0,65700,0,0,0,0,0
o,0x00000000,1717625146.787703,172.16.3.2,5101,172.16.1.2,41092,10459,14480,0,65728,65700,6,6,4,1460,1763,1,993,245,33580,0,65700,1448,0,0,0,0
i,0x00000000,1717625146.798077,172.16.3.2,5101,172.16.1.2,41092,10459,14480,0,65728,65700,6,6,4,1460,1763,1,992,245,33580,0,65700,0,0,0,0,0
i,0x00000000,1717625146.817930,172.16.3.2,5101,172.16.1.2,41092,10459,14480,0,65728,65700,6,6,4,1460,1763,1,992,245,33580,0,65700,0,0,0,0,0
o,0x00000000,1717625146.817937,172.16.3.2,5101,172.16.1.2,41092,10459,14480,0,65728,65700,6,6,4,1460,1763,1,993,245,33580,0,65700,1448,0,0,0,0
i,0x00000000,1717625147.018313,172.16.3.2,5101,172.16.1.2,41092,10459,14480,0,65728,65700,6,6,4,1460,1763,1,992,245,33580,0,65700,0,0,0,0,0
i,0x00000000,1717625147.027683,172.16.3.2,5101,172.16.1.2,41092,10459,14480,0,65728,65700,6,6,4,1460,1763,1,992,245,33580,0,65700,0,0,0,0,0
o,0x00000000,1717625147.027695,172.16.3.2,5101,172.16.1.2,41092,10459,14480,0,65728,65700,6,6,4,1460,1763,1,993,245,33580,0,65700,1448,0,0,0,0
i,0x00000000,1717625147.038032,172.16.3.2,5101,172.16.1.2,41092,10459,14480,0,65728,65700,6,6,4,1460,1763,1,992,245,33580,0,65700,0,0,0,0,0
i,0x00000000,1717625147.057767,172.16.3.2,5101,172.16.1.2,41092,10459,14480,0,65728,65700,6,6,4,1460,1763,1,992,245,33580,0,65700,0,0,0,0,0
o,0x00000000,1717625147.057777,172.16.3.2,5101,172.16.1.2,41092,10459,14480,0,65728,65700,6,6,4,1460,1763,1,993,245,33580,0,65700,1448,0,0,0,0
i,0x00000000,1717625147.068176,172.16.3.2,5101,172.16.1.2,41092,10459,14480,0,65728,65700,6,6,4,1460,1763,1,992,245,33580,0,65700,0,0,0,0,0
i,0x00000000,1717625147.077590,172.16.3.2,5101,172.16.1.2,41092,10459,14480,0,65728,65700,6,6,4,1460,1763,1,992,245,33580,0,65700,0,0,0,0,0
o,0x00000000,1717625147.077597,172.16.3.2,5101,172.16.1.2,41092,10459,14480,0,65728,65700,6,6,4,1460,1763,1,993,245,33580,0,65700,1448,0,0,0,0
i,0x00000000,1717625147.087890,172.16.3.2,5101,172.16.1.2,41092,10459,14480,0,65728,65700,6,6,4,1460,1763,1,992,245,33580,0,65700,0,0,0,0,0
i,0x00000000,1717625147.097366,172.16.3.2,5101,172.16.1.2,41092,10459,14480,0,65728,65700,6,6,4,1460,1763,1,992,245,33580,0,65700,0,0,0,0,0
o,0x00000000,1717625147.097372,172.16.3.2,5101,172.16.1.2,41092,10459,14480,0,65728,65700,6,6,4,1460,1763,1,993,245,33580,0,65700,1448,0,0,0,0
i,0x00000000,1717625147.118289,172.16.3.2,5101,172.16.1.2,41092,10459,14480,0,65728,65700,6,6,4,1460,1763,1,992,245,33580,0,65700,0,0,0,0,0
i,0x00000000,1717625147.127785,172.16.3.2,5101,172.16.1.2,41092,10459,14480,0,65728,65700,6,6,4,1460,1763,1,992,245,33580,0,65700,0,0,0,0,0
o,0x00000000,1717625147.127792,172.16.3.2,5101,172.16.1.2,41092,10459,14480,0,65728,65700,6,6,4,1460,1763,1,993,245,33580,0,65700,1448,0,0,0,0
i,0x00000000,1717625147.137985,172.16.3.2,5101,172.16.1.2,41092,10459,14480,0,65728,65700,6,6,4,1460,1763,1,992,245,33580,0,65700,0,0,0,0,0
o,0x00000000,1717625147.170788,172.16.3.2,5101,172.16.1.2,41092,10459,14480,0,65728,65700,6,6,4,1460,1763,1,993,245,33580,0,65700,0,0,0,0,0
i,0x00000000,1717625147.317473,172.16.3.2,5101,172.16.1.2,41092,10459,14480,0,65728,65700,6,6,4,1460,1763,1,992,245,33580,0,65700,0,0,0,0,0
i,0x00000000,1717625147.327882,172.16.3.2,5101,172.16.1.2,41092,10459,14480,0,65728,65700,6,6,4,1460,1763,1,992,245,33580,0,65700,0,0,0,0,0
o,0x00000000,1717625147.327895,172.16.3.2,5101,172.16.1.2,41092,10459,14480,0,65728,65700,6,6,4,1460,1763,1,993,245,33580,0,65700,1448,0,0,0,0
i,0x00000000,1717625147.337341,172.16.3.2,5101,172.16.1.2,41092,10459,14480,0,65728,65700,6,6,4,1460,1763,1,992,245,33580,0,65700,0,0,0,0,0
i,0x00000000,1717625147.347642,172.16.3.2,5101,172.16.1.2,41092,10459,14480,0,65728,65700,6,6,4,1460,1763,1,992,245,33580,0,65700,0,0,0,0,0
o,0x00000000,1717625147.347648,172.16.3.2,5101,172.16.1.2,41092,10459,14480,0,65728,65700,6,6,4,1460,1763,1,993,245,33580,0,65700,1448,0,0,0,0
i,0x00000000,1717625147.367440,172.16.3.2,5101,172.16.1.2,41092,10459,14480,0,65728,65700,6,6,4,1460,1763,1,992,245,33580,0,65700,0,0,0,0,0
i,0x00000000,1717625147.377805,172.16.3.2,5101,172.16.1.2,41092,10459,14480,0,65728,65700,6,6,4,1460,1763,1,992,245,33580,0,65700,0,0,0,0,0
o,0x00000000,1717625147.377812,172.16.3.2,5101,172.16.1.2,41092,10459,14480,0,65728,65700,6,6,4,1460,1763,1,993,245,33580,0,65700,1448,0,0,0,0
i,0x00000000,1717625147.387249,172.16.3.2,5101,172.16.1.2,41092,10459,14480,0,65728,65700,6,6,4,1460,1763,1,992,245,33580,0,65700,0,0,0,0,0
i,0x00000000,1717625147.397748,172.16.3.2,5101,172.16.1.2,41092,10459,14480,0,65728,65700,6,6,4,1460,1763,1,992,245,33580,0,65700,0,0,0,0,0
o,0x00000000,1717625147.397755,172.16.3.2,5101,172.16.1.2,41092,10459,14480,0,65728,65700,6,6,4,1460,1763,1,993,245,33580,0,65700,1448,0,0,0,0
i,0x00000000,1717625147.408041,172.16.3.2,5101,172.16.1.2,41092,10459,14480,0,65728,65700,6,6,4,1460,1763,1,992,245,33580,0,65700,0,0,0,0,0
i,0x00000000,1717625147.427907,172.16.3.2,5101,172.16.1.2,41092,10459,14480,0,65728,65700,6,6,4,1460,1763,1,992,245,33580,0,65700,0,0,0,0,0
o,0x00000000,1717625147.427915,172.16.3.2,5101,172.16.1.2,41092,10459,14480,0,65728,65700,6,6,4,1460,1763,1,993,245,33580,0,65700,1448,0,0,0,0
i,0x00000000,1717625147.478239,172.16.3.2,5101,172.16.1.2,41092,10459,14480,0,65728,65700,6,6,4,1460,1763,1,992,245,33580,0,65700,0,0,0,0,0
i,0x00000000,1717625147.487627,172.16.3.2,5101,172.16.1.2,41092,10459,14480,0,65728,65700,6,6,4,1460,1763,1,992,245,33580,0,65700,0,0,0,0,0
o,0x00000000,1717625147.487636,172.16.3.2,5101,172.16.1.2,41092,10459,14480,0,65728,65700,6,6,4,1460,1763,1,993,245,33580,0,65700,1448,0,0,0,0
o,0x00000000,1717625147.500234,10.0.2.15,22,10.0.2.2,61555,1073725440,14600,0,65535,65700,0,0,4,1460,1,0,4,24,33580,156,65700,0,0,0,0,0
i,0x00000000,1717625147.500888,10.0.2.15,22,10.0.2.2,61555,1073725440,14600,0,65535,65700,0,0,4,1460,1,0,4,24,33580,156,65700,0,156,0,0,0
i,0x00000000,1717625147.617903,172.16.3.2,5101,172.16.1.2,41092,10459,14480,0,65728,65700,6,6,4,1460,1763,1,992,245,33580,0,65700,0,0,0,0,0
i,0x00000000,1717625147.627339,172.16.3.2,5101,172.16.1.2,41092,10459,14480,0,65728,65700,6,6,4,1460,1763,1,992,245,33580,0,65700,0,0,0,0,0
o,0x00000000,1717625147.627349,172.16.3.2,5101,172.16.1.2,41092,10459,14480,0,65728,65700,6,6,4,1460,1763,1,993,245,33580,0,65700,1448,0,0,0,0
i,0x00000000,1717625147.647342,172.16.3.2,5101,172.16.1.2,41092,10459,14480,0,65728,65700,6,6,4,1460,1763,1,992,245,33580,0,65700,0,0,0,0,0
i,0x00000000,1717625147.657491,172.16.3.2,5101,172.16.1.2,41092,10459,14480,0,65728,65700,6,6,4,1460,1763,1,992,245,33580,0,65700,0,0,0,0,0
o,0x00000000,1717625147.657499,172.16.3.2,5101,172.16.1.2,41092,10459,14480,0,65728,65700,6,6,4,1460,1763,1,993,245,33580,0,65700,1448,0,0,0,0
i,0x00000000,1717625147.667988,172.16.3.2,5101,172.16.1.2,41092,10459,14480,0,65728,65700,6,6,4,1460,1763,1,992,245,33580,0,65700,0,0,0,0,0
i,0x00000000,1717625147.677422,172.16.3.2,5101,172.16.1.2,41092,10459,14480,0,65728,65700,6,6,4,1460,1763,1,992,245,33580,0,65700,0,0,0,0,0
o,0x00000000,1717625147.677427,172.16.3.2,5101,172.16.1.2,41092,10459,14480,0,65728,65700,6,6,4,1460,1763,1,993,245,33580,0,65700,1448,0,0,0,0
i,0x00000000,1717625147.687658,172.16.3.2,5101,172.16.1.2,41092,10459,14480,0,65728,65700,6,6,4,1460,1763,1,992,245,33580,0,65700,0,0,0,0,0
i,0x00000000,1717625147.708612,172.16.3.2,5101,172.16.1.2,41092,10459,14480,0,65728,65700,6,6,4,1460,1763,1,992,245,33580,0,65700,0,0,0,0,0
o,0x00000000,1717625147.708621,172.16.3.2,5101,172.16.1.2,41092,10459,14480,0,65728,65700,6,6,4,1460,1763,1,993,245,33580,0,65700,1448,0,0,0,0
i,0x00000000,1717625147.719039,172.16.3.2,5101,172.16.1.2,41092,10459,14480,0,65728,65700,6,6,4,1460,1763,1,992,245,33580,0,65700,0,0,0,0,0
i,0x00000000,1717625147.726777,172.16.3.2,5101,172.16.1.2,41092,10459,14480,0,65728,65700,6,6,4,1460,1763,1,992,245,33580,0,65700,0,0,0,0,0
o,0x00000000,1717625147.726787,172.16.3.2,5101,172.16.1.2,41092,10459,14480,0,65728,65700,6,6,4,1460,1763,1,993,245,33580,0,65700,1448,0,0,0,0
i,0x00000000,1717625147.777766,172.16.3.2,5101,172.16.1.2,41092,10459,14480,0,65728,65700,6,6,4,1460,1763,1,992,245,33580,0,65700,0,0,0,0,0
i,0x00000000,1717625147.788184,172.16.3.2,5101,172.16.1.2,41092,10459,14480,0,65728,65700,6,6,4,1460,1763,1,992,245,33580,0,65700,0,0,0,0,0
o,0x00000000,1717625147.788195,172.16.3.2,5101,172.16.1.2,41092,10459,14480,0,65728,65700,6,6,4,1460,1763,1,993,245,33580,0,65700,1448,0,0,0,0
i,0x00000000,1717625147.806975,172.16.3.2,5101,172.16.1.2,41092,10459,14480,0,65728,65700,6,6,4,1460,1763,1,992,245,33580,0,65700,0,0,0,0,0
o,0x00000000,1717625147.839610,172.16.3.2,5101,172.16.1.2,41092,10459,14480,0,65728,65700,6,6,4,1460,1763,1,993,245,33580,0,65700,0,0,0,0,0
i,0x00000000,1717625147.937283,172.16.3.2,5101,172.16.1.2,41092,10459,14480,0,65728,65700,6,6,4,1460,1763,1,992,245,33580,0,65700,0,0,0,0,0
i,0x00000000,1717625147.947315,172.16.3.2,5101,172.16.1.2,41092,10459,14480,0,65728,65700,6,6,4,1460,1763,1,992,245,33580,0,65700,0,0,0,0,0
o,0x00000000,1717625147.947326,172.16.3.2,5101,172.16.1.2,41092,10459,14480,0,65728,65700,6,6,4,1460,1763,1,993,245,33580,0,65700,1448,0,0,0,0
i,0x00000000,1717625147.957875,172.16.3.2,5101,172.16.1.2,41092,10459,14480,0,65728,65700,6,6,4,1460,1763,1,992,245,33580,0,65700,0,0,0,0,0
i,0x00000000,1717625147.976932,172.16.3.2,5101,172.16.1.2,41092,10459,14480,0,65728,65700,6,6,4,1460,1763,1,992,245,33580,0,65700,0,0,0,0,0
o,0x00000000,1717625147.976940,172.16.3.2,5101,172.16.1.2,41092,10459,14480,0,65728,65700,6,6,4,1460,1763,1,993,245,33580,0,65700,1448,0,0,0,0
i,0x00000000,1717625147.989131,172.16.3.2,5101,172.16.1.2,41092,10459,14480,0,65728,65700,6,6,4,1460,1763,1,992,245,33580,0,65700,0,0,0,0,0
i,0x00000000,1717625147.997813,172.16.3.2,5101,172.16.1.2,41092,10459,14480,0,65728,65700,6,6,4,1460,1763,1,992,245,33580,0,65700,0,0,0,0,0
o,0x00000000,1717625147.997820,172.16.3.2,5101,172.16.1.2,41092,10459,14480,0,65728,65700,6,6,4,1460,1763,1,993,245,33580,0,65700,1448,0,0,0,0
i,0x00000000,1717625148.008095,172.16.3.2,5101,172.16.1.2,41092,10459,14480,0,65728,65700,6,6,4,1460,1763,1,992,245,33580,0,65700,0,0,0,0,0
i,0x00000000,1717625148.017465,172.16.3.2,5101,172.16.1.2,41092,10459,14480,0,65728,65700,6,6,4,1460,1763,1,992,245,33580,0,65700,0,0,0,0,0
o,0x00000000,1717625148.017471,172.16.3.2,5101,172.16.1.2,41092,10459,14480,0,65728,65700,6,6,4,1460,1763,1,993,245,33580,0,65700,1448,0,0,0,0
i,0x00000000,1717625148.038211,172.16.3.2,5101,172.16.1.2,41092,10459,14480,0,65728,65700,6,6,4,1460,1763,1,992,245,33580,0,65700,0,0,0,0,0
i,0x00000000,1717625148.046674,172.16.3.2,5101,172.16.1.2,41092,10459,14480,0,65728,65700,6,6,4,1460,1763,1,992,245,33580,0,65700,0,0,0,0,0
o,0x00000000,1717625148.046682,172.16.3.2,5101,172.16.1.2,41092,10459,14480,0,65728,65700,6,6,4,1460,1763,1,993,245,33580,0,65700,1448,0,0,0,0
i,0x00000000,1717625148.098501,172.16.3.2,5101,172.16.1.2,41092,10459,14480,0,65728,65700,6,6,4,1460,1763,1,992,245,33580,0,65700,0,0,0,0,0
i,0x00000000,1717625148.107827,172.16.3.2,5101,172.16.1.2,41092,10459,14480,0,65728,65700,6,6,4,1460,1763,1,992,245,33580,0,65700,0,0,0,0,0
o,0x00000000,1717625148.107836,172.16.3.2,5101,172.16.1.2,41092,10459,14480,0,65728,65700,6,6,4,1460,1763,1,993,245,33580,0,65700,1448,0,0,0,0
i,0x00000000,1717625148.227251,172.16.3.2,5101,172.16.1.2,41092,10459,14480,0,65728,65700,6,6,4,1460,1763,1,992,245,33580,0,65700,0,0,0,0,0
i,0x00000000,1717625148.237180,172.16.3.2,5101,172.16.1.2,41092,10459,14480,0,65728,65700,6,6,4,1460,1763,1,992,245,33580,0,65700,0,0,0,0,0
o,0x00000000,1717625148.237193,172.16.3.2,5101,172.16.1.2,41092,10459,14480,0,65728,65700,6,6,4,1460,1763,1,993,245,33580,0,65700,1448,0,0,0,0
i,0x00000000,1717625148.258094,172.16.3.2,5101,172.16.1.2,41092,10459,14480,0,65728,65700,6,6,4,1460,1763,1,992,245,33580,0,65700,0,0,0,0,0
i,0x00000000,1717625148.266511,172.16.3.2,5101,172.16.1.2,41092,10459,14480,0,65728,65700,6,6,4,1460,1763,1,992,245,33580,0,65700,0,0,0,0,0
o,0x00000000,1717625148.266517,172.16.3.2,5101,172.16.1.2,41092,10459,14480,0,65728,65700,6,6,4,1460,1763,1,993,245,33580,0,65700,1448,0,0,0,0
i,0x00000000,1717625148.276898,172.16.3.2,5101,172.16.1.2,41092,10459,14480,0,65728,65700,6,6,4,1460,1763,1,992,245,33580,0,65700,0,0,0,0,0
i,0x00000000,1717625148.287478,172.16.3.2,5101,172.16.1.2,41092,10459,14480,0,65728,65700,6,6,4,1460,1763,1,992,245,33580,0,65700,0,0,0,0,0
o,0x00000000,1717625148.287485,172.16.3.2,5101,172.16.1.2,41092,10459,14480,0,65728,65700,6,6,4,1460,1763,1,993,245,33580,0,65700,1448,0,0,0,0
i,0x00000000,1717625148.297893,172.16.3.2,5101,172.16.1.2,41092,10459,14480,0,65728,65700,6,6,4,1460,1763,1,992,245,33580,0,65700,0,0,0,0,0
i,0x00000000,1717625148.317828,172.16.3.2,5101,172.16.1.2,41092,10459,14480,0,65728,65700,6,6,4,1460,1763,1,992,245,33580,0,65700,0,0,0,0,0
o,0x00000000,1717625148.317834,172.16.3.2,5101,172.16.1.2,41092,10459,14480,0,65728,65700,6,6,4,1460,1763,1,993,245,33580,0,65700,1448,0,0,0,0
i,0x00000000,1717625148.347160,172.16.3.2,5101,172.16.1.2,41092,10459,14480,0,65728,65700,6,6,4,1460,1763,1,992,245,33580,0,65700,0,0,0,0,0
i,0x00000000,1717625148.357619,172.16.3.2,5101,172.16.1.2,41092,10459,14480,0,65728,65700,6,6,4,1460,1763,1,992,245,33580,0,65700,0,0,0,0,0
o,0x00000000,1717625148.357630,172.16.3.2,5101,172.16.1.2,41092,10459,14480,0,65728,65700,6,6,4,1460,1763,1,993,245,33580,0,65700,1448,0,0,0,0
i,0x00000000,1717625148.377440,172.16.3.2,5101,172.16.1.2,41092,10459,14480,0,65728,65700,6,6,4,1460,1763,1,992,245,33580,0,65700,0,0,0,0,0
i,0x00000000,1717625148.387036,172.16.3.2,5101,172.16.1.2,41092,10459,14480,0,65728,65700,6,6,4,1460,1763,1,992,245,33580,0,65700,0,0,0,0,0
o,0x00000000,1717625148.387058,172.16.3.2,5101,172.16.1.2,41092,10459,14480,0,65728,65700,6,6,4,1460,1763,1,993,245,33580,0,65700,1448,0,0,0,0
o,0x00000000,1717625148.510178,10.0.2.15,22,10.0.2.2,61555,1073725440,14600,0,65535,65700,0,0,4,1460,1,0,4,24,33580,108,65700,0,0,0,0,0
i,0x00000000,1717625148.510840,10.0.2.15,22,10.0.2.2,61555,1073725440,14600,0,65535,65700,0,0,4,1460,1,0,4,24,33580,108,65700,0,108,0,0,0
i,0x00000000,1717625148.537287,172.16.3.2,5101,172.16.1.2,41092,10459,14480,0,65728,65700,6,6,4,1460,1763,1,992,245,33580,0,65700,0,0,0,0,0
i,0x00000000,1717625148.546668,172.16.3.2,5101,172.16.1.2,41092,10459,14480,0,65728,65700,6,6,4,1460,1763,1,992,245,33580,0,65700,0,0,0,0,0
o,0x00000000,1717625148.546679,172.16.3.2,5101,172.16.1.2,41092,10459,14480,0,65728,65700,6,6,4,1460,1763,1,993,245,33580,0,65700,1448,0,0,0,0
i,0x00000000,1717625148.587411,172.16.3.2,5101,172.16.1.2,41092,10459,14480,0,65728,65700,6,6,4,1460,1763,1,992,245,33580,0,65700,0,0,0,0,0
i,0x00000000,1717625148.596932,172.16.3.2,5101,172.16.1.2,41092,10459,14480,0,65728,65700,6,6,4,1460,1763,1,992,245,33580,0,65700,0,0,0,0,0
o,0x00000000,1717625148.596943,172.16.3.2,5101,172.16.1.2,41092,10459,14480,0,65728,65700,6,6,4,1460,1763,1,993,245,33580,0,65700,1448,0,0,0,0
i,0x00000000,1717625148.607288,172.16.3.2,5101,172.16.1.2,41092,10459,14480,0,65728,65700,6,6,4,1460,1763,1,992,245,33580,0,65700,0,0,0,0,0
i,0x00000000,1717625148.616998,172.16.3.2,5101,172.16.1.2,41092,10459,14480,0,65728,65700,6,6,4,1460,1763,1,992,245,33580,0,65700,0,0,0,0,0
o,0x00000000,1717625148.617004,172.16.3.2,5101,172.16.1.2,41092,10459,14480,0,65728,65700,6,6,4,1460,1763,1,993,245,33580,0,65700,1448,0,0,0,0
i,0x00000000,1717625148.627410,172.16.3.2,5101,172.16.1.2,41092,10459,14480,0,65728,65700,6,6,4,1460,1763,1,992,245,33580,0,65700,0,0,0,0,0
i,0x00000000,1717625148.647319,172.16.3.2,5101,172.16.1.2,41092,10459,14480,0,65728,65700,6,6,4,1460,1763,1,992,245,33580,0,65700,0,0,0,0,0
o,0x00000000,1717625148.647324,172.16.3.2,5101,172.16.1.2,41092,10459,14480,0,65728,65700,6,6,4,1460,1763,1,993,245,33580,0,65700,1448,0,0,0,0
i,0x00000000,1717625148.656882,172.16.3.2,5101,172.16.1.2,41092,10459,14480,0,65728,65700,6,6,4,1460,1763,1,992,245,33580,0,65700,0,0,0,0,0
i,0x00000000,1717625148.667012,172.16.3.2,5101,172.16.1.2,41092,10459,14480,0,65728,65700,6,6,4,1460,1763,1,992,245,33580,0,65700,0,0,0,0,0
o,0x00000000,1717625148.667018,172.16.3.2,5101,172.16.1.2,41092,10459,14480,0,65728,65700,6,6,4,1460,1763,1,993,245,33580,0,65700,1448,0,0,0,0
i,0x00000000,1717625148.677657,172.16.3.2,5101,172.16.1.2,41092,10459,14480,0,65728,65700,6,6,4,1460,1763,1,992,245,33580,0,65700,0,0,0,0,0
o,0x00000000,1717625148.710301,172.16.3.2,5101,172.16.1.2,41092,10459,14480,0,65728,65700,6,6,4,1460,1763,1,993,245,33580,0,65700,0,0,0,0,0
i,0x00000000,1717625148.716717,172.16.3.2,5101,172.16.1.2,41092,10459,14480,0,65728,65700,6,6,4,1460,1763,1,992,245,33580,0,65700,0,0,0,0,0
i,0x00000000,1717625148.727649,172.16.3.2,5101,172.16.1.2,41092,10459,14480,0,65728,65700,6,6,4,1460,1763,1,992,245,33580,0,65700,0,0,0,0,0
o,0x00000000,1717625148.727660,172.16.3.2,5101,172.16.1.2,41092,10459,14480,0,65728,65700,6,6,4,1460,1763,1,993,245,33580,0,65700,1448,0,0,0,0
i,0x00000000,1717625148.737551,172.16.3.2,5101,172.16.1.2,41092,10459,14480,0,65728,65700,6,6,4,1460,1763,1,992,245,33580,0,65700,0,0,0,0,0
i,0x00000000,1717625148.757580,172.16.3.2,5101,172.16.1.2,41092,10459,14480,0,65728,65700,6,6,4,1460,1763,1,992,245,33580,0,65700,0,0,0,0,0
o,0x00000000,1717625148.757590,172.16.3.2,5101,172.16.1.2,41092,10459,14480,0,65728,65700,6,6,4,1460,1763,1,993,245,33580,0,65700,1448,0,0,0,0
i,0x00000000,1717625148.897075,172.16.3.2,5101,172.16.1.2,41092,10459,14480,0,65728,65700,6,6,4,1460,1763,1,992,245,33580,0,65700,0,0,0,0,0
i,0x00000000,1717625148.917746,172.16.3.2,5101,172.16.1.2,41092,10459,14480,0,65728,65700,6,6,4,1460,1763,1,992,245,33580,0,65700,0,0,0,0,0
o,0x00000000,1717625148.917765,172.16.3.2,5101,172.16.1.2,41092,10459,14480,0,65728,65700,6,6,4,1460,1763,1,993,245,33580,0,65700,1448,0,0,0,0
i,0x00000000,1717625148.956879,172.16.3.2,5101,172.16.1.2,41092,10459,14480,0,65728,65700,6,6,4,1460,1763,1,992,245,33580,0,65700,0,0,0,0,0
i,0x00000000,1717625148.977712,172.16.3.2,5101,172.16.1.2,41092,10459,14480,0,65728,65700,6,6,4,1460,1763,1,992,245,33580,0,65700,0,0,0,0,0
o,0x00000000,1717625148.977721,172.16.3.2,5101,172.16.1.2,41092,10459,14480,0,65728,65700,6,6,4,1460,1763,1,993,245,33580,0,65700,1448,0,0,0,0
i,0x00000000,1717625148.987137,172.16.3.2,5101,172.16.1.2,41092,10459,14480,0,65728,65700,6,6,4,1460,1763,1,992,245,33580,0,65700,0,0,0,0,0
i,0x00000000,1717625148.996550,172.16.3.2,5101,172.16.1.2,41092,10459,14480,0,65728,65700,6,6,4,1460,1763,1,992,245,33580,0,65700,0,0,0,0,0
o,0x00000000,1717625148.996557,172.16.3.2,5101,172.16.1.2,41092,10459,14480,0,65728,65700,6,6,4,1460,1763,1,993,245,33580,0,65700,1448,0,0,0,0
i,0x00000000,1717625149.006873,172.16.3.2,5101,172.16.1.2,41092,10459,14480,0,65728,65700,6,6,4,1460,1763,1,992,245,33580,0,65700,0,0,0,0,0
i,0x00000000,1717625149.017369,172.16.3.2,5101,172.16.1.2,41092,10459,14480,0,65728,65700,6,6,4,1460,1763,1,992,245,33580,0,65700,0,0,0,0,0
o,0x00000000,1717625149.017377,172.16.3.2,5101,172.16.1.2,41092,10459,14480,0,65728,65700,6,6,4,1460,1763,1,993,245,33580,0,65700,1448,0,0,0,0
i,0x00000000,1717625149.037284,172.16.3.2,5101,172.16.1.2,41092,10459,14480,0,65728,65700,6,6,4,1460,1763,1,992,245,33580,0,65700,0,0,0,0,0
i,0x00000000,1717625149.046626,172.16.3.2,5101,172.16.1.2,41092,10459,14480,0,65728,65700,6,6,4,1460,1763,1,992,245,33580,0,65700,0,0,0,0,0
o,0x00000000,1717625149.046632,172.16.3.2,5101,172.16.1.2,41092,10459,14480,0,65728,65700,6,6,4,1460,1763,1,993,245,33580,0,65700,1448,0,0,0,0
i,0x00000000,1717625149.056980,172.16.3.2,5101,172.16.1.2,41092,10459,14480,0,65728,65700,6,6,4,1460,1763,1,992,245,33580,0,65700,0,0,0,0,0
o,0x00000000,1717625149.089838,172.16.3.2,5101,172.16.1.2,41092,10459,14480,0,65728,65700,6,6,4,1460,1763,1,993,245,33580,0,65700,0,0,0,0,0
i,0x00000000,1717625149.096806,172.16.3.2,5101,172.16.1.2,41092,10459,14480,0,65728,65700,6,6,4,1460,1763,1,992,245,33580,0,65700,0,0,0,0,0
i,0x00000000,1717625149.107178,172.16.3.2,5101,172.16.1.2,41092,10459,14480,0,65728,65700,6,6,4,1460,1763,1,992,245,33580,0,65700,0,0,0,0,0
o,0x00000000,1717625149.107185,172.16.3.2,5101,172.16.1.2,41092,10459,14480,0,65728,65700,6,6,4,1460,1763,1,993,245,33580,0,65700,1448,0,0,0,0
i,0x00000000,1717625149.116558,172.16.3.2,5101,172.16.1.2,41092,10459,14480,0,65728,65700,6,6,4,1460,1763,1,992,245,33580,0,65700,0,0,0,0,0
i,0x00000000,1717625149.136886,172.16.3.2,5101,172.16.1.2,41092,10459,14480,0,65728,65700,6,6,4,1460,1763,1,992,245,33580,0,65700,0,0,0,0,0
o,0x00000000,1717625149.136893,172.16.3.2,5101,172.16.1.2,41092,10459,14480,0,65728,65700,6,6,4,1460,1763,1,993,245,33580,0,65700,1448,0,0,0,0
i,0x00000000,1717625149.146868,172.16.3.2,5101,172.16.1.2,41092,10459,14480,0,65728,65700,6,6,4,1460,1763,1,992,245,33580,0,65700,0,0,0,0,0
o,0x00000000,1717625149.179703,172.16.3.2,5101,172.16.1.2,41092,10459,14480,0,65728,65700,6,6,4,1460,1763,1,993,245,33580,0,65700,0,0,0,0,0
i,0x00000000,1717625149.287205,172.16.3.2,5101,172.16.1.2,41092,10459,14480,0,65728,65700,6,6,4,1460,1763,1,992,245,33580,0,65700,0,0,0,0,0
i,0x00000000,1717625149.307238,172.16.3.2,5101,172.16.1.2,41092,10459,14480,0,65728,65700,6,6,4,1460,1763,1,992,245,33580,0,65700,0,0,0,0,0
o,0x00000000,1717625149.307249,172.16.3.2,5101,172.16.1.2,41092,10459,14480,0,65728,65700,6,6,4,1460,1763,1,993,245,33580,0,65700,1448,0,0,0,0
i,0x00000000,1717625149.357302,172.16.3.2,5101,172.16.1.2,41092,10459,14480,0,65728,65700,6,6,4,1460,1763,1,992,245,33580,0,65700,0,0,0,0,0
i,0x00000000,1717625149.366669,172.16.3.2,5101,172.16.1.2,41092,10459,14480,0,65728,65700,6,6,4,1460,1763,1,992,245,33580,0,65700,0,0,0,0,0
o,0x00000000,1717625149.366679,172.16.3.2,5101,172.16.1.2,41092,10459,14480,0,65728,65700,6,6,4,1460,1763,1,993,245,33580,0,65700,1448,0,0,0,0
i,0x00000000,1717625149.377111,172.16.3.2,5101,172.16.1.2,41092,10459,14480,0,65728,65700,6,6,4,1460,1763,1,992,245,33580,0,65700,0,0,0,0,0
i,0x00000000,1717625149.387039,172.16.3.2,5101,172.16.1.2,41092,10459,14480,0,65728,65700,6,6,4,1460,1763,1,992,245,33580,0,65700,0,0,0,0,0
o,0x00000000,1717625149.387046,172.16.3.2,5101,172.16.1.2,41092,10459,14480,0,65728,65700,6,6,4,1460,1763,1,993,245,33580,0,65700,1448,0,0,0,0
i,0x00000000,1717625149.396868,172.16.3.2,5101,172.16.1.2,41092,10459,14480,0,65728,65700,6,6,4,1460,1763,1,992,245,33580,0,65700,0,0,0,0,0
i,0x00000000,1717625149.417714,172.16.3.2,5101,172.16.1.2,41092,10459,14480,0,65728,65700,6,6,4,1460,1763,1,992,245,33580,0,65700,0,0,0,0,0
o,0x00000000,1717625149.417721,172.16.3.2,5101,172.16.1.2,41092,10459,14480,0,65728,65700,6,6,4,1460,1763,1,993,245,33580,0,65700,1448,0,0,0,0
i,0x00000000,1717625149.428713,172.16.3.2,5101,172.16.1.2,41092,10459,14480,0,65728,65700,6,6,4,1460,1763,1,992,245,33580,0,65700,0,0,0,0,0
i,0x00000000,1717625149.437009,172.16.3.2,5101,172.16.1.2,41092,10459,14480,0,65728,65700,6,6,4,1460,1763,1,992,245,33580,0,65700,0,0,0,0,0
o,0x00000000,1717625149.437016,172.16.3.2,5101,172.16.1.2,41092,10459,14480,0,65728,65700,6,6,4,1460,1763,1,993,245,33580,0,65700,1448,0,0,0,0
i,0x00000000,1717625149.446456,172.16.3.2,5101,172.16.1.2,41092,10459,14480,0,65728,65700,6,6,4,1460,1763,1,992,245,33580,0,65700,0,0,0,0,0
o,0x00000000,1717625149.479763,172.16.3.2,5101,172.16.1.2,41092,10459,14480,0,65728,65700,6,6,4,1460,1763,1,993,245,33580,0,65700,0,0,0,0,0
i,0x00000000,1717625149.487058,172.16.3.2,5101,172.16.1.2,41092,10459,14480,0,65728,65700,6,6,4,1460,1763,1,992,245,33580,0,65700,0,0,0,0,0
i,0x00000000,1717625149.496492,172.16.3.2,5101,172.16.1.2,41092,10459,14480,0,65728,65700,6,6,4,1460,1763,1,992,245,33580,0,65700,0,0,0,0,0
o,0x00000000,1717625149.496500,172.16.3.2,5101,172.16.1.2,41092,10459,14480,0,65728,65700,6,6,4,1460,1763,1,993,245,33580,0,65700,1448,0,0,0,0
i,0x00000000,1717625149.506940,172.16.3.2,5101,172.16.1.2,41092,10459,14480,0,65728,65700,6,6,4,1460,1763,1,992,245,33580,0,65700,0,0,0,0,0
o,0x00000000,1717625149.509506,10.0.2.15,22,10.0.2.2,61555,1073725440,14600,0,65535,65700,0,0,4,1460,1,0,4,24,33580,108,65700,0,0,0,0,0
i,0x00000000,1717625149.510206,10.0.2.15,22,10.0.2.2,61555,1073725440,14600,0,65535,65700,0,0,4,1460,1,0,4,24,33580,108,65700,0,108,0,0,0
i,0x00000000,1717625149.527055,172.16.3.2,5101,172.16.1.2,41092,10459,14480,0,65728,65700,6,6,4,1460,1763,1,992,245,33580,0,65700,0,0,0,0,0
o,0x00000000,1717625149.527071,172.16.3.2,5101,172.16.1.2,41092,10459,14480,0,65728,65700,6,6,4,1460,1763,1,993,245,33580,0,65700,1448,0,0,0,0
i,0x00000000,1717625149.537260,172.16.3.2,5101,172.16.1.2,41092,10459,14480,0,65728,65700,6,6,4,1460,1763,1,992,245,33580,0,65700,0,0,0,0,0
o,0x00000000,1717625149.569974,172.16.3.2,5101,172.16.1.2,41092,10459,14480,0,65728,65700,6,6,4,1460,1763,1,993,245,33580,0,65700,0,0,0,0,0
i,0x00000000,1717625149.696532,172.16.3.2,5101,172.16.1.2,41092,10459,14480,0,65728,65700,6,6,4,1460,1763,1,992,245,33580,0,65700,0,0,0,0,0
i,0x00000000,1717625149.706871,172.16.3.2,5101,172.16.1.2,41092,10459,14480,0,65728,65700,6,6,4,1460,1763,1,992,245,33580,0,65700,0,0,0,0,0
o,0x00000000,1717625149.706881,172.16.3.2,5101,172.16.1.2,41092,10459,14480,0,65728,65700,6,6,4,1460,1763,1,993,245,33580,0,65700,1448,0,0,0,0
i,0x00000000,1717625149.717260,172.16.3.2,5101,172.16.1.2,41092,10459,14480,0,65728,65700,6,6,4,1460,1763,1,992,245,33580,0,65700,0,0,0,0,0
o,0x00000000,1717625149.750411,172.16.3.2,5101,172.16.1.2,41092,10459,14480,0,65728,65700,6,6,4,1460,1763,1,993,245,33580,0,65700,0,0,0,0,0
i,0x00000000,1717625149.767430,172.16.3.2,5101,172.16.1.2,41092,10459,14480,0,65728,65700,6,6,4,1460,1763,1,992,245,33580,0,65700,0,0,0,0,0
i,0x00000000,1717625149.776782,172.16.3.2,5101,172.16.1.2,41092,10459,14480,0,65728,65700,6,6,4,1460,1763,1,992,245,33580,0,65700,0,0,0,0,0
o,0x00000000,1717625149.776790,172.16.3.2,5101,172.16.1.2,41092,10459,14480,0,65728,65700,6,6,4,1460,1763,1,993,245,33580,0,65700,1448,0,0,0,0
i,0x00000000,1717625149.797586,172.16.3.2,5101,172.16.1.2,41092,10459,14480,0,65728,65700,6,6,4,1460,1763,1,992,245,33580,0,65700,0,0,0,0,0
i,0x00000000,1717625149.806059,172.16.3.2,5101,172.16.1.2,41092,10459,14480,0,65728,65700,6,6,4,1460,1763,1,992,245,33580,0,65700,0,0,0,0,0
o,0x00000000,1717625149.806067,172.16.3.2,5101,172.16.1.2,41092,10459,14480,0,65728,65700,6,6,4,1460,1763,1,993,245,33580,0,65700,1448,0,0,0,0
i,0x00000000,1717625149.817458,172.16.3.2,5101,172.16.1.2,41092,10459,14480,0,65728,65700,6,6,4,1460,1763,1,992,245,33580,0,65700,0,0,0,0,0
i,0x00000000,1717625149.827457,172.16.3.2,5101,172.16.1.2,41092,10459,14480,0,65728,65700,6,6,4,1460,1763,1,992,245,33580,0,65700,0,0,0,0,0
o,0x00000000,1717625149.827464,172.16.3.2,5101,172.16.1.2,41092,10459,14480,0,65728,65700,6,6,4,1460,1763,1,993,245,33580,0,65700,1448,0,0,0,0
i,0x00000000,1717625149.836325,172.16.3.2,5101,172.16.1.2,41092,10459,14480,0,65728,65700,6,6,4,1460,1763,1,992,245,33580,0,65700,0,0,0,0,0
i,0x00000000,1717625149.857019,172.16.3.2,5101,172.16.1.2,41092,10459,14480,0,65728,65700,6,6,4,1460,1763,1,992,245,33580,0,65700,0,0,0,0,0
o,0x00000000,1717625149.857027,172.16.3.2,5101,172.16.1.2,41092,10459,14480,0,65728,65700,6,6,4,1460,1763,1,993,245,33580,0,65700,1448,0,0,0,0
i,0x00000000,1717625149.866449,172.16.3.2,5101,172.16.1.2,41092,10459,14480,0,65728,65700,6,6,4,1460,1763,1,992,245,33580,0,65700,0,0,0,0,0
i,0x00000000,1717625149.896708,172.16.3.2,5101,172.16.1.2,41092,10459,14480,0,65728,65700,6,6,4,1460,1763,1,992,245,33580,0,65700,0,0,0,0,0
o,0x00000000,1717625149.896717,172.16.3.2,5101,172.16.1.2,41092,10459,14480,0,65728,65700,6,6,4,1460,1763,1,993,245,33580,0,65700,1448,0,0,0,0
i,0x00000000,1717625149.917570,172.16.3.2,5101,172.16.1.2,41092,10459,14480,0,65728,65700,6,6,4,1460,1763,1,992,245,33580,0,65700,0,0,0,0,0
i,0x00000000,1717625149.929315,172.16.3.2,5101,172.16.1.2,41092,10459,14480,0,65728,65700,6,6,4,1460,1763,1,992,245,33580,0,65700,0,0,0,0,0
o,0x00000000,1717625149.929322,172.16.3.2,5101,172.16.1.2,41092,10459,14480,0,65728,65700,6,6,4,1460,1763,1,993,245,33580,0,65700,1448,0,0,0,0
i,0x00000000,1717625149.946294,172.16.3.2,5101,172.16.1.2,41092,10459,14480,0,65728,65700,6,6,4,1460,1763,1,992,245,33580,0,65700,0,0,0,0,0
i,0x00000000,1717625149.967149,172.16.3.2,5101,172.16.1.2,41092,10459,14480,0,65728,65700,6,6,4,1460,1763,1,992,245,33580,0,65700,0,0,0,0,0
o,0x00000000,1717625149.967159,172.16.3.2,5101,172.16.1.2,41092,10459,14480,0,65728,65700,6,6,4,1460,1763,1,993,245,33580,0,65700,1448,0,0,0,0
i,0x00000000,1717625150.006681,172.16.3.2,5101,172.16.1.2,41092,10459,14480,0,65728,65700,6,6,4,1460,1763,1,992,245,33580,0,65700,0,0,0,0,0
o,0x00000000,1717625150.039511,172.16.3.2,5101,172.16.1.2,41092,10459,14480,0,65728,65700,6,6,4,1460,1763,1,993,245,33580,0,65700,0,0,0,0,0
i,0x00000000,1717625150.136338,172.16.3.2,5101,172.16.1.2,41092,10459,14480,0,65728,65700,6,6,4,1460,1763,1,992,245,33580,0,65700,0,0,0,0,0
i,0x00000000,1717625150.146340,172.16.3.2,5101,172.16.1.2,41092,10459,14480,0,65728,65700,6,6,4,1460,1763,1,992,245,33580,0,65700,0,0,0,0,0
o,0x00000000,1717625150.146350,172.16.3.2,5101,172.16.1.2,41092,10459,14480,0,65728,65700,6,6,4,1460,1763,1,993,245,33580,0,65700,1448,0,0,0,0
i,0x00000000,1717625150.186260,172.16.3.2,5101,172.16.1.2,41092,10459,14480,0,65728,65700,6,6,4,1460,1763,1,992,245,33580,0,65700,0,0,0,0,0
i,0x00000000,1717625150.196544,172.16.3.2,5101,172.16.1.2,41092,10459,14480,0,65728,65700,6,6,4,1460,1763,1,992,245,33580,0,65700,0,0,0,0,0
o,0x00000000,1717625150.196553,172.16.3.2,5101,172.16.1.2,41092,10459,14480,0,65728,65700,6,6,4,1460,1763,1,993,245,33580,0,65700,1448,0,0,0,0
i,0x00000000,1717625150.206919,172.16.3.2,5101,172.16.1.2,41092,10459,14480,0,65728,65700,6,6,4,1460,1763,1,992,245,33580,0,65700,0,0,0,0,0
i,0x00000000,1717625150.217391,172.16.3.2,5101,172.16.1.2,41092,10459,14480,0,65728,65700,6,6,4,1460,1763,1,992,245,33580,0,65700,0,0,0,0,0
o,0x00000000,1717625150.217400,172.16.3.2,5101,172.16.1.2,41092,10459,14480,0,65728,65700,6,6,4,1460,1763,1,993,245,33580,0,65700,1448,0,0,0,0
i,0x00000000,1717625150.237343,172.16.3.2,5101,172.16.1.2,41092,10459,14480,0,65728,65700,6,6,4,1460,1763,1,992,245,33580,0,65700,0,0,0,0,0
i,0x00000000,1717625150.246515,172.16.3.2,5101,172.16.1.2,41092,10459,14480,0,65728,65700,6,6,4,1460,1763,1,992,245,33580,0,65700,0,0,0,0,0
o,0x00000000,1717625150.246523,172.16.3.2,5101,172.16.1.2,41092,10459,14480,0,65728,65700,6,6,4,1460,1763,1,993,245,33580,0,65700,1448,0,0,0,0
i,0x00000000,1717625150.256907,172.16.3.2,5101,172.16.1.2,41092,10459,14480,0,65728,65700,6,6,4,1460,1763,1,992,245,33580,0,65700,0,0,0,0,0
i,0x00000000,1717625150.267257,172.16.3.2,5101,172.16.1.2,41092,10459,14480,0,65728,65700,6,6,4,1460,1763,1,992,245,33580,0,65700,0,0,0,0,0
o,0x00000000,1717625150.267263,172.16.3.2,5101,172.16.1.2,41092,10459,14480,0,65728,65700,6,6,4,1460,1763,1,993,245,33580,0,65700,1448,0,0,0,0
i,0x00000000,1717625150.276648,172.16.3.2,5101,172.16.1.2,41092,10459,14480,0,65728,65700,6,6,4,1460,1763,1,992,245,33580,0,65700,0,0,0,0,0
i,0x00000000,1717625150.296313,172.16.3.2,5101,172.16.1.2,41092,10459,14480,0,65728,65700,6,6,4,1460,1763,1,992,245,33580,0,65700,0,0,0,0,0
o,0x00000000,1717625150.296319,172.16.3.2,5101,172.16.1.2,41092,10459,14480,0,65728,65700,6,6,4,1460,1763,1,993,245,33580,0,65700,1448,0,0,0,0
i,0x00000000,1717625150.356348,172.16.3.2,5101,172.16.1.2,41092,10459,14480,0,65728,65700,6,6,4,1460,1763,1,992,245,33580,0,65700,0,0,0,0,0
i,0x00000000,1717625150.366616,172.16.3.2,5101,172.16.1.2,41092,10459,14480,0,65728,65700,6,6,4,1460,1763,1,992,245,33580,0,65700,0,0,0,0,0
o,0x00000000,1717625150.366626,172.16.3.2,5101,172.16.1.2,41092,10459,14480,0,65728,65700,6,6,4,1460,1763,1,993,245,33580,0,65700,1448,0,0,0,0
i,0x00000000,1717625150.376866,172.16.3.2,5101,172.16.1.2,41092,10459,14480,0,65728,65700,6,6,4,1460,1763,1,992,245,33580,0,65700,0,0,0,0,0
i,0x00000000,1717625150.387233,172.16.3.2,5101,172.16.1.2,41092,10459,14480,0,65728,65700,6,6,4,1460,1763,1,992,245,33580,0,65700,0,0,0,0,0
o,0x00000000,1717625150.387241,172.16.3.2,5101,172.16.1.2,41092,10459,14480,0,65728,65700,6,6,4,1460,1763,1,993,245,33580,0,65700,1448,0,0,0,0
i,0x00000000,1717625150.406001,172.16.3.2,5101,172.16.1.2,41092,10459,14480,0,65728,65700,6,6,4,1460,1763,1,992,245,33580,0,65700,0,0,0,0,0
i,0x00000000,1717625150.416195,172.16.3.2,5101,172.16.1.2,41092,10459,14480,0,65728,65700,6,6,4,1460,1763,1,992,245,33580,0,65700,0,0,0,0,0
o,0x00000000,1717625150.416203,172.16.3.2,5101,172.16.1.2,41092,10459,14480,0,65728,65700,6,6,4,1460,1763,1,993,245,33580,0,65700,1448,0,0,0,0
o,0x00000000,1717625150.509793,10.0.2.15,22,10.0.2.2,61555,1073725440,14600,0,65535,65700,0,0,4,1460,1,0,4,24,33580,108,65700,0,0,0,0,0
i,0x00000000,1717625150.510555,10.0.2.15,22,10.0.2.2,61555,1073725440,14600,0,65535,65700,0,0,4,1460,1,0,4,24,33580,108,65700,0,108,0,0,0
i,0x00000000,1717625150.596032,172.16.3.2,5101,172.16.1.2,41092,10459,14480,0,65728,65700,6,6,4,1460,1763,1,992,245,33580,0,65700,0,0,0,0,0
i,0x00000000,1717625150.606302,172.16.3.2,5101,172.16.1.2,41092,10459,14480,0,65728,65700,6,6,4,1460,1763,1,992,245,33580,0,65700,0,0,0,0,0
o,0x00000000,1717625150.606311,172.16.3.2,5101,172.16.1.2,41092,10459,14480,0,65728,65700,6,6,4,1460,1763,1,993,245,33580,0,65700,1448,0,0,0,0
i,0x00000000,1717625150.626013,172.16.3.2,5101,172.16.1.2,41092,10459,14480,0,65728,65700,6,6,4,1460,1763,1,992,245,33580,0,65700,0,0,0,0,0
i,0x00000000,1717625150.657084,172.16.3.2,5101,172.16.1.2,41092,10459,14480,0,65728,65700,6,6,4,1460,1763,1,992,245,33580,0,65700,0,0,0,0,0
o,0x00000000,1717625150.657097,172.16.3.2,5101,172.16.1.2,41092,10459,14480,0,65728,65700,6,6,4,1460,1763,1,993,245,33580,0,65700,1448,0,0,0,0
i,0x00000000,1717625150.676567,172.16.3.2,5101,172.16.1.2,41092,10459,14480,0,65728,65700,6,6,4,1460,1763,1,992,245,33580,0,65700,0,0,0,0,0
i,0x00000000,1717625150.686977,172.16.3.2,5101,172.16.1.2,41092,10459,14480,0,65728,65700,6,6,4,1460,1763,1,992,245,33580,0,65700,0,0,0,0,0
o,0x00000000,1717625150.686983,172.16.3.2,5101,172.16.1.2,41092,10459,14480,0,65728,65700,6,6,4,1460,1763,1,993,245,33580,0,65700,1448,0,0,0,0
i,0x00000000,1717625150.696347,172.16.3.2,5101,172.16.1.2,41092,10459,14480,0,65728,65700,6,6,4,1460,1763,1,992,245,33580,0,65700,0,0,0,0,0
i,0x00000000,1717625150.706572,172.16.3.2,5101,172.16.1.2,41092,10459,14480,0,65728,65700,6,6,4,1460,1763,1,992,245,33580,0,65700,0,0,0,0,0
o,0x00000000,1717625150.706578,172.16.3.2,5101,172.16.1.2,41092,10459,14480,0,65728,65700,6,6,4,1460,1763,1,993,245,33580,0,65700,1448,0,0,0,0
i,0x00000000,1717625150.716914,172.16.3.2,5101,172.16.1.2,41092,10459,14480,0,65728,65700,6,6,4,1460,1763,1,992,245,33580,0,65700,0,0,0,0,0
i,0x00000000,1717625150.736919,172.16.3.2,5101,172.16.1.2,41092,10459,14480,0,65728,65700,6,6,4,1460,1763,1,992,245,33580,0,65700,0,0,0,0,0
o,0x00000000,1717625150.736930,172.16.3.2,5101,172.16.1.2,41092,10459,14480,0,65728,65700,6,6,4,1460,1763,1,993,245,33580,0,65700,1448,0,0,0,0
i,0x00000000,1717625150.746970,172.16.3.2,5101,172.16.1.2,41092,10459,14480,0,65728,65700,6,6,4,1460,1763,1,992,245,33580,0,65700,0,0,0,0,0
i,0x00000000,1717625150.755858,172.16.3.2,5101,172.16.1.2,41092,10459,14480,0,65728,65700,6,6,4,1460,1763,1,992,245,33580,0,65700,0,0,0,0,0
o,0x00000000,1717625150.755865,172.16.3.2,5101,172.16.1.2,41092,10459,14480,0,65728,65700,6,6,4,1460,1763,1,993,245,33580,0,65700,1448,0,0,0,0
i,0x00000000,1717625150.766065,172.16.3.2,5101,172.16.1.2,41092,10459,14480,0,65728,65700,6,6,4,1460,1763,1,992,245,33580,0,65700,0,0,0,0,0
i,0x00000000,1717625150.776601,172.16.3.2,5101,172.16.1.2,41092,10459,14480,0,65728,65700,6,6,4,1460,1763,1,992,245,33580,0,65700,0,0,0,0,0
o,0x00000000,1717625150.776609,172.16.3.2,5101,172.16.1.2,41092,10459,14480,0,65728,65700,6,6,4,1460,1763,1,993,245,33580,0,65700,1448,0,0,0,0
i,0x00000000,1717625150.836640,172.16.3.2,5101,172.16.1.2,41092,10459,14480,0,65728,65700,6,6,4,1460,1763,1,992,245,33580,0,65700,0,0,0,0,0
i,0x00000000,1717625150.856349,172.16.3.2,5101,172.16.1.2,41092,10459,14480,0,65728,65700,6,6,4,1460,1763,1,992,245,33580,0,65700,0,0,0,0,0
o,0x00000000,1717625150.856360,172.16.3.2,5101,172.16.1.2,41092,10459,14480,0,65728,65700,6,6,4,1460,1763,1,993,245,33580,0,65700,1448,0,0,0,0
i,0x00000000,1717625150.866556,172.16.3.2,5101,172.16.1.2,41092,10459,14480,0,65728,65700,6,6,4,1460,1763,1,992,245,33580,0,65700,0,0,0,0,0
i,0x00000000,1717625150.875997,172.16.3.2,5101,172.16.1.2,41092,10459,14480,0,65728,65700,6,6,4,1460,1763,1,992,245,33580,0,65700,0,0,0,0,0
o,0x00000000,1717625150.876004,172.16.3.2,5101,172.16.1.2,41092,10459,14480,0,65728,65700,6,6,4,1460,1763,1,993,245,33580,0,65700,1448,0,0,0,0
i,0x00000000,1717625150.886335,172.16.3.2,5101,172.16.1.2,41092,10459,14480,0,65728,65700,6,6,4,1460,1763,1,992,245,33580,0,65700,0,0,0,0,0
i,0x00000000,1717625150.906006,172.16.3.2,5101,172.16.1.2,41092,10459,14480,0,65728,65700,6,6,4,1460,1763,1,992,245,33580,0,65700,0,0,0,0,0
o,0x00000000,1717625150.906012,172.16.3.2,5101,172.16.1.2,41092,10459,14480,0,65728,65700,6,6,4,1460,1763,1,993,245,33580,0,65700,1448,0,0,0,0
i,0x00000000,1717625151.097234,172.16.3.2,5101,172.16.1.2,41092,10459,14480,0,65728,65700,6,6,4,1460,1763,1,992,245,33580,0,65700,0,0,0,0,0
i,0x00000000,1717625151.106481,172.16.3.2,5101,172.16.1.2,41092,10459,14480,0,65728,65700,6,6,4,1460,1763,1,992,245,33580,0,65700,0,0,0,0,0
o,0x00000000,1717625151.106491,172.16.3.2,5101,172.16.1.2,41092,10459,14480,0,65728,65700,6,6,4,1460,1763,1,993,245,33580,0,65700,1448,0,0,0,0
i,0x00000000,1717625151.147113,172.16.3.2,5101,172.16.1.2,41092,10459,14480,0,65728,65700,6,6,4,1460,1763,1,992,245,33580,0,65700,0,0,0,0,0
i,0x00000000,1717625151.156297,172.16.3.2,5101,172.16.1.2,41092,10459,14480,0,65728,65700,6,6,4,1460,1763,1,992,245,33580,0,65700,0,0,0,0,0
o,0x00000000,1717625151.156308,172.16.3.2,5101,172.16.1.2,41092,10459,14480,0,65728,65700,6,6,4,1460,1763,1,993,245,33580,0,65700,1448,0,0,0,0
i,0x00000000,1717625151.176233,172.16.3.2,5101,172.16.1.2,41092,10459,14480,0,65728,65700,6,6,4,1460,1763,1,992,245,33580,0,65700,0,0,0,0,0
i,0x00000000,1717625151.186533,172.16.3.2,5101,172.16.1.2,41092,10459,14480,0,65728,65700,6,6,4,1460,1763,1,992,245,33580,0,65700,0,0,0,0,0
o,0x00000000,1717625151.186545,172.16.3.2,5101,172.16.1.2,41092,10459,14480,0,65728,65700,6,6,4,1460,1763,1,993,245,33580,0,65700,1448,0,0,0,0
i,0x00000000,1717625151.195819,172.16.3.2,5101,172.16.1.2,41092,10459,14480,0,65728,65700,6,6,4,1460,1763,1,992,245,33580,0,65700,0,0,0,0,0
i,0x00000000,1717625151.206095,172.16.3.2,5101,172.16.1.2,41092,10459,14480,0,65728,65700,6,6,4,1460,1763,1,992,245,33580,0,65700,0,0,0,0,0
o,0x00000000,1717625151.206103,172.16.3.2,5101,172.16.1.2,41092,10459,14480,0,65728,65700,6,6,4,1460,1763,1,993,245,33580,0,65700,1448,0,0,0,0
i,0x00000000,1717625151.216513,172.16.3.2,5101,172.16.1.2,41092,10459,14480,0,65728,65700,6,6,4,1460,1763,1,992,245,33580,0,65700,0,0,0,0,0
i,0x00000000,1717625151.236355,172.16.3.2,5101,172.16.1.2,41092,10459,14480,0,65728,65700,6,6,4,1460,1763,1,992,245,33580,0,65700,0,0,0,0,0
o,0x00000000,1717625151.236364,172.16.3.2,5101,172.16.1.2,41092,10459,14480,0,65728,65700,6,6,4,1460,1763,1,993,245,33580,0,65700,1448,0,0,0,0
i,0x00000000,1717625151.246521,172.16.3.2,5101,172.16.1.2,41092,10459,14480,0,65728,65700,6,6,4,1460,1763,1,992,245,33580,0,65700,0,0,0,0,0
i,0x00000000,1717625151.255970,172.16.3.2,5101,172.16.1.2,41092,10459,14480,0,65728,65700,6,6,4,1460,1763,1,992,245,33580,0,65700,0,0,0,0,0
o,0x00000000,1717625151.255976,172.16.3.2,5101,172.16.1.2,41092,10459,14480,0,65728,65700,6,6,4,1460,1763,1,993,245,33580,0,65700,1448,0,0,0,0
i,0x00000000,1717625151.266314,172.16.3.2,5101,172.16.1.2,41092,10459,14480,0,65728,65700,6,6,4,1460,1763,1,992,245,33580,0,65700,0,0,0,0,0
i,0x00000000,1717625151.276698,172.16.3.2,5101,172.16.1.2,41092,10459,14480,0,65728,65700,6,6,4,1460,1763,1,992,245,33580,0,65700,0,0,0,0,0
o,0x00000000,1717625151.276703,172.16.3.2,5101,172.16.1.2,41092,10459,14480,0,65728,65700,6,6,4,1460,1763,1,993,245,33580,0,65700,1448,0,0,0,0
i,0x00000000,1717625151.296367,172.16.3.2,5101,172.16.1.2,41092,10459,14480,0,65728,65700,6,6,4,1460,1763,1,992,245,33580,0,65700,0,0,0,0,0
o,0x00000000,1717625151.329979,172.16.3.2,5101,172.16.1.2,41092,10459,14480,0,65728,65700,6,6,4,1460,1763,1,993,245,33580,0,65700,0,0,0,0,0
i,0x00000000,1717625151.357123,172.16.3.2,5101,172.16.1.2,41092,10459,14480,0,65728,65700,6,6,4,1460,1763,1,992,245,33580,0,65700,0,0,0,0,0
i,0x00000000,1717625151.366307,172.16.3.2,5101,172.16.1.2,41092,10459,14480,0,65728,65700,6,6,4,1460,1763,1,992,245,33580,0,65700,0,0,0,0,0
o,0x00000000,1717625151.366314,172.16.3.2,5101,172.16.1.2,41092,10459,14480,0,65728,65700,6,6,4,1460,1763,1,993,245,33580,0,65700,1448,0,0,0,0
i,0x00000000,1717625151.376891,172.16.3.2,5101,172.16.1.2,41092,10459,14480,0,65728,65700,6,6,4,1460,1763,1,992,245,33580,0,65700,0,0,0,0,0
i,0x00000000,1717625151.396501,172.16.3.2,5101,172.16.1.2,41092,10459,14480,0,65728,65700,6,6,4,1460,1763,1,992,245,33580,0,65700,0,0,0,0,0
o,0x00000000,1717625151.396508,172.16.3.2,5101,172.16.1.2,41092,10459,14480,0,65728,65700,6,6,4,1460,1763,1,993,245,33580,0,65700,1448,0,0,0,0
i,0x00000000,1717625151.405763,172.16.3.2,5101,172.16.1.2,41092,10459,14480,0,65728,65700,6,6,4,1460,1763,1,992,245,33580,0,65700,0,0,0,0,0
i,0x00000000,1717625151.416185,172.16.3.2,5101,172.16.1.2,41092,10459,14480,0,65728,65700,6,6,4,1460,1763,1,992,245,33580,0,65700,0,0,0,0,0
o,0x00000000,1717625151.416192,172.16.3.2,5101,172.16.1.2,41092,10459,14480,0,65728,65700,6,6,4,1460,1763,1,993,245,33580,0,65700,1448,0,0,0,0
o,0x00000000,1717625151.509863,10.0.2.15,22,10.0.2.2,61555,1073725440,14600,0,65535,65700,0,0,4,1460,1,0,4,24,33580,108,65700,0,0,0,0,0
i,0x00000000,1717625151.510634,10.0.2.15,22,10.0.2.2,61555,1073725440,14600,0,65535,65700,0,0,4,1460,1,0,4,24,33580,108,65700,0,108,0,0,0
i,0x00000000,1717625151.615898,172.16.3.2,5101,172.16.1.2,41092,10459,14480,0,65728,65700,6,6,4,1460,1763,1,992,245,33580,0,65700,0,0,0,0,0
i,0x00000000,1717625151.626508,172.16.3.2,5101,172.16.1.2,41092,10459,14480,0,65728,65700,6,6,4,1460,1763,1,992,245,33580,0,65700,0,0,0,0,0
o,0x00000000,1717625151.626518,172.16.3.2,5101,172.16.1.2,41092,10459,14480,0,65728,65700,6,6,4,1460,1763,1,993,245,33580,0,65700,1448,0,0,0,0
i,0x00000000,1717625151.675959,172.16.3.2,5101,172.16.1.2,41092,10459,14480,0,65728,65700,6,6,4,1460,1763,1,992,245,33580,0,65700,0,0,0,0,0
i,0x00000000,1717625151.686419,172.16.3.2,5101,172.16.1.2,41092,10459,14480,0,65728,65700,6,6,4,1460,1763,1,992,245,33580,0,65700,0,0,0,0,0
o,0x00000000,1717625151.686428,172.16.3.2,5101,172.16.1.2,41092,10459,14480,0,65728,65700,6,6,4,1460,1763,1,993,245,33580,0,65700,1448,0,0,0,0
i,0x00000000,1717625151.696695,172.16.3.2,5101,172.16.1.2,41092,10459,14480,0,65728,65700,6,6,4,1460,1763,1,992,245,33580,0,65700,0,0,0,0,0
i,0x00000000,1717625151.706195,172.16.3.2,5101,172.16.1.2,41092,10459,14480,0,65728,65700,6,6,4,1460,1763,1,992,245,33580,0,65700,0,0,0,0,0
o,0x00000000,1717625151.706201,172.16.3.2,5101,172.16.1.2,41092,10459,14480,0,65728,65700,6,6,4,1460,1763,1,993,245,33580,0,65700,1448,0,0,0,0
i,0x00000000,1717625151.716708,172.16.3.2,5101,172.16.1.2,41092,10459,14480,0,65728,65700,6,6,4,1460,1763,1,992,245,33580,0,65700,0,0,0,0,0
i,0x00000000,1717625151.736398,172.16.3.2,5101,172.16.1.2,41092,10459,14480,0,65728,65700,6,6,4,1460,1763,1,992,245,33580,0,65700,0,0,0,0,0
o,0x00000000,1717625151.736411,172.16.3.2,5101,172.16.1.2,41092,10459,14480,0,65728,65700,6,6,4,1460,1763,1,993,245,33580,0,65700,1448,0,0,0,0
i,0x00000000,1717625151.746813,172.16.3.2,5101,172.16.1.2,41092,10459,14480,0,65728,65700,6,6,4,1460,1763,1,992,245,33580,0,65700,0,0,0,0,0
i,0x00000000,1717625151.756094,172.16.3.2,5101,172.16.1.2,41092,10459,14480,0,65728,65700,6,6,4,1460,1763,1,992,245,33580,0,65700,0,0,0,0,0
o,0x00000000,1717625151.756101,172.16.3.2,5101,172.16.1.2,41092,10459,14480,0,65728,65700,6,6,4,1460,1763,1,993,245,33580,0,65700,1448,0,0,0,0
i,0x00000000,1717625151.766757,172.16.3.2,5101,172.16.1.2,41092,10459,14480,0,65728,65700,6,6,4,1460,1763,1,992,245,33580,0,65700,0,0,0,0,0
i,0x00000000,1717625151.776922,172.16.3.2,5101,172.16.1.2,41092,10459,14480,0,65728,65700,6,6,4,1460,1763,1,992,245,33580,0,65700,0,0,0,0,0
o,0x00000000,1717625151.776930,172.16.3.2,5101,172.16.1.2,41092,10459,14480,0,65728,65700,6,6,4,1460,1763,1,993,245,33580,0,65700,1448,0,0,0,0
i,0x00000000,1717625151.795599,172.16.3.2,5101,172.16.1.2,41092,10459,14480,0,65728,65700,6,6,4,1460,1763,1,992,245,33580,0,65700,0,0,0,0,0
i,0x00000000,1717625151.805946,172.16.3.2,5101,172.16.1.2,41092,10459,14480,0,65728,65700,6,6,4,1460,1763,1,992,245,33580,0,65700,0,0,0,0,0
o,0x00000000,1717625151.805953,172.16.3.2,5101,172.16.1.2,41092,10459,14480,0,65728,65700,6,6,4,1460,1763,1,993,245,33580,0,65700,1448,0,0,0,0
i,0x00000000,1717625151.816257,172.16.3.2,5101,172.16.1.2,41092,10459,14480,0,65728,65700,6,6,4,1460,1763,1,992,245,33580,0,65700,0,0,0,0,0
o,0x00000000,1717625151.849875,172.16.3.2,5101,172.16.1.2,41092,10459,14480,0,65728,65700,6,6,4,1460,1763,1,993,245,33580,0,65700,0,0,0,0,0
i,0x00000000,1717625151.876547,172.16.3.2,5101,172.16.1.2,41092,10459,14480,0,65728,65700,6,6,4,1460,1763,1,992,245,33580,0,65700,0,0,0,0,0
i,0x00000000,1717625151.885299,172.16.3.2,5101,172.16.1.2,41092,10459,14480,0,65728,65700,6,6,4,1460,1763,1,992,245,33580,0,65700,0,0,0,0,0
o,0x00000000,1717625151.885307,172.16.3.2,5101,172.16.1.2,41092,10459,14480,0,65728,65700,6,6,4,1460,1763,1,993,245,33580,0,65700,1448,0,0,0,0
i,0x00000000,1717625151.906148,172.16.3.2,5101,172.16.1.2,41092,10459,14480,0,65728,65700,6,6,4,1460,1763,1,992,245,33580,0,65700,0,0,0,0,0
i,0x00000000,1717625151.916765,172.16.3.2,5101,172.16.1.2,41092,10459,14480,0,65728,65700,6,6,4,1460,1763,1,992,245,33580,0,65700,0,0,0,0,0
o,0x00000000,1717625151.916771,172.16.3.2,5101,172.16.1.2,41092,10459,14480,0,65728,65700,6,6,4,1460,1763,1,993,245,33580,0,65700,1448,0,0,0,0
i,0x00000000,1717625151.926779,172.16.3.2,5101,172.16.1.2,41092,10459,14480,0,65728,65700,6,6,4,1460,1763,1,992,245,33580,0,65700,0,0,0,0,0
i,0x00000000,1717625151.936108,172.16.3.2,5101,172.16.1.2,41092,10459,14480,0,65728,65700,6,6,4,1460,1763,1,992,245,33580,0,65700,0,0,0,0,0
o,0x00000000,1717625151.936114,172.16.3.2,5101,172.16.1.2,41092,10459,14480,0,65728,65700,6,6,4,1460,1763,1,993,245,33580,0,65700,1448,0,0,0,0
i,0x00000000,1717625151.955879,172.16.3.2,5101,172.16.1.2,41092,10459,14480,0,65728,65700,6,6,4,1460,1763,1,992,245,33580,0,65700,0,0,0,0,0
o,0x00000000,1717625151.989935,172.16.3.2,5101,172.16.1.2,41092,10459,14480,0,65728,65700,6,6,4,1460,1763,1,993,245,33580,0,65700,0,0,0,0,0
i,0x00000000,1717625152.136483,172.16.3.2,5101,172.16.1.2,41092,10459,14480,0,65728,65700,6,6,4,1460,1763,1,992,245,33580,0,65700,0,0,0,0,0
o,0x00000000,1717625152.136559,172.16.3.2,5101,172.16.1.2,41092,10459,14480,0,65728,65700,6,6,4,1460,1763,1,992,245,33580,0,98550,0,0,0,0,0
i,0x00000000,1717625152.146742,172.16.3.2,5101,172.16.1.2,41092,10459,14480,0,65728,65700,6,6,4,1460,1763,1,992,245,33580,0,98550,0,0,0,0,0
o,0x00000000,1717625152.179288,172.16.3.2,5101,172.16.1.2,41092,10459,14480,0,65728,65700,6,6,4,1460,1763,1,993,245,33580,0,98550,0,0,0,0,0
i,0x00000000,1717625152.206572,172.16.3.2,5101,172.16.1.2,41092,10459,14480,0,65728,65700,6,6,4,1460,1763,1,992,245,33580,0,98550,0,0,0,0,0
i,0x00000000,1717625152.225988,172.16.3.2,5101,172.16.1.2,41092,10459,14480,0,65728,65700,6,6,4,1460,1763,1,992,245,33580,0,98550,0,0,0,0,0
o,0x00000000,1717625152.226000,172.16.3.2,5101,172.16.1.2,41092,10459,14480,0,65728,65700,6,6,4,1460,1763,1,993,245,33580,0,98550,1448,0,0,0,0
i,0x00000000,1717625152.236268,172.16.3.2,5101,172.16.1.2,41092,10459,14480,0,65728,65700,6,6,4,1460,1763,1,992,245,33580,0,98550,0,0,0,0,0
i,0x00000000,1717625152.246864,172.16.3.2,5101,172.16.1.2,41092,10459,14480,0,65728,65700,6,6,4,1460,1763,1,992,245,33580,0,98550,0,0,0,0,0
o,0x00000000,1717625152.246882,172.16.3.2,5101,172.16.1.2,41092,10459,14480,0,65728,65700,6,6,4,1460,1763,1,993,245,33580,0,98550,1448,0,0,0,0
i,0x00000000,1717625152.255967,172.16.3.2,5101,172.16.1.2,41092,10459,14480,0,65728,65700,6,6,4,1460,1763,1,992,245,33580,0,98550,0,0,0,0,0
i,0x00000000,1717625152.266403,172.16.3.2,5101,172.16.1.2,41092,10459,14480,0,65728,65700,6,6,4,1460,1763,1,992,245,33580,0,98550,0,0,0,0,0
o,0x00000000,1717625152.266410,172.16.3.2,5101,172.16.1.2,41092,10459,14480,0,65728,65700,6,6,4,1460,1763,1,993,245,33580,0,98550,1448,0,0,0,0
