enable_time_secs=1717626215	enable_time_usecs=219609	siftrver=1.2.4	hz=100	tcp_rtt_scale=32	sysname=FreeBSD	sysver=1301000	ipmode=4
o,0x00000000,1717626215.219640,10.0.2.15,22,10.0.2.2,65227,1073725440,17298,0,65535,65700,0,0,4,1460,1,0,4,24,33580,44,65700,0,0,0,0,0
o,0x00000000,1717626215.219744,10.0.2.15,22,10.0.2.2,65227,1073725440,17298,0,65535,65700,0,0,4,1460,1,0,4,24,33580,80,65700,0,44,0,0,0
i,0x00000000,1717626215.220130,10.0.2.15,22,10.0.2.2,65227,1073725440,17298,0,65535,65700,0,0,4,1460,1,0,4,24,33580,80,65700,0,80,0,0,0
i,0x00000000,1717626215.220133,10.0.2.15,22,10.0.2.2,65227,1073725440,17342,0,65535,65700,0,0,4,1460,1,0,4,24,33580,36,65700,0,36,0,0,0
o,0x00000000,1717626215.220203,10.0.2.15,22,10.0.2.2,65227,1073725440,17378,0,65535,65700,0,0,4,1460,1,0,4,24,33580,36,65700,0,0,0,0,0
i,0x00000000,1717626215.220699,10.0.2.15,22,10.0.2.2,65227,1073725440,17378,0,65535,65700,0,0,4,1460,1,0,4,24,33580,36,65700,0,36,0,0,0
o,0x00000000,1717626215.220899,10.0.2.15,22,10.0.2.2,65227,1073725440,17414,0,65535,65700,0,0,4,1460,1,0,4,24,33580,176,65700,0,0,0,0,0
i,0x00000000,1717626215.221322,10.0.2.15,22,10.0.2.2,65227,1073725440,17414,0,65535,65700,0,0,4,1460,1,0,4,24,33580,176,65700,0,176,0,0,0
i,0x00000000,1717626215.222209,10.0.2.15,22,10.0.2.2,65227,1073725440,17590,0,65535,65700,0,0,4,1460,1,0,4,24,33580,0,65700,0,0,0,0,0
i,0x00000000,1717626215.222213,10.0.2.15,22,10.0.2.2,65227,1073725440,17590,0,65535,65700,0,0,4,1460,1,0,4,24,33580,0,65700,36,0,0,0,0
o,0x00000000,1717626215.222215,10.0.2.15,22,10.0.2.2,65227,1073725440,17590,0,65535,65700,0,0,4,1460,1,0,5,24,33580,0,65700,96,0,0,0,0
i,0x00000000,1717626215.222313,10.0.2.15,22,10.0.2.2,65227,1073725440,17590,0,65535,65700,0,0,4,1460,1,0,4,24,33580,0,65700,96,0,0,0,0
o,0x00000000,1717626215.222317,10.0.2.15,22,10.0.2.2,65227,1073725440,17590,0,65535,65604,0,0,5,1460,1,0,7,24,33580,0,65700,96,0,0,0,0
o,0x00000000,1717626215.222928,10.0.2.15,22,10.0.2.2,65227,1073725440,17590,0,65535,65604,0,0,8,1460,1,0,4,24,33580,0,65700,0,0,0,0,0
i,0x00000000,1717626215.223386,10.0.2.15,22,10.0.2.2,65227,1073725440,17590,0,65535,65604,0,0,8,1460,1,0,20,24,33580,0,65700,0,1,0,0,0
i,0x00000000,1717626217.308298,10.0.2.15,22,10.0.2.2,65232,1073725440,14600,0,65535,65700,0,0,4,1460,1,0,0,27,33580,0,65700,0,0,0,0,0
o,0x00000000,1717626217.314019,10.0.2.15,22,10.0.2.2,65232,1073725440,14600,0,65535,65700,0,0,4,1460,1,0,0,27,33580,38,65700,41,0,0,0,0
i,0x00000000,1717626217.314649,10.0.2.15,22,10.0.2.2,65232,1073725440,14600,0,65535,65700,0,0,4,1460,1,0,0,27,33580,38,65700,0,38,0,0,0
i,0x00000000,1717626217.315332,10.0.2.15,22,10.0.2.2,65232,1073725440,14638,0,65535,65700,0,0,4,1460,1,0,0,24,33580,0,65700,0,0,0,0,0
i,0x00000000,1717626217.315334,10.0.2.15,22,10.0.2.2,65232,1073725440,14638,0,65535,65700,0,0,4,1460,1,0,0,24,33580,0,65700,1460,0,0,0,0
o,0x00000000,1717626217.315337,10.0.2.15,22,10.0.2.2,65232,1073725440,14638,0,65535,65700,0,0,4,1460,1,0,1,24,33580,0,65700,1536,0,0,0,0
o,0x00000000,1717626217.316064,10.0.2.15,22,10.0.2.2,65232,1073725440,14638,0,65535,65700,0,0,4,1460,1,0,0,24,33580,1056,65700,1536,0,0,0,0
i,0x00000000,1717626217.316703,10.0.2.15,22,10.0.2.2,65232,1073725440,14638,0,65535,65700,0,0,4,1460,1,0,0,24,33580,1056,65700,1536,1056,0,0,0
i,0x00000000,1717626217.320114,10.0.2.15,22,10.0.2.2,65232,1073725440,15694,0,65535,65700,0,0,4,1460,1,0,0,24,33580,0,65700,0,0,0,0,0
o,0x00000000,1717626217.322477,10.0.2.15,22,10.0.2.2,65232,1073725440,15694,0,65535,65700,0,0,4,1460,1,0,0,24,33580,484,65700,0,0,0,0,0
i,0x00000000,1717626217.323459,10.0.2.15,22,10.0.2.2,65232,1073725440,15694,0,65535,65700,0,0,4,1460,1,0,0,24,33580,484,65700,0,484,0,0,0
i,0x00000000,1717626217.327921,10.0.2.15,22,10.0.2.2,65232,1073725440,16178,0,65535,65700,0,0,4,1460,1,0,0,24,33580,0,65700,0,0,0,0,0
i,0x00000000,1717626217.331594,10.0.2.15,22,10.0.2.2,65232,1073725440,16178,0,65535,65700,0,0,4,1460,1,0,0,24,33580,0,65700,0,0,0,0,0
o,0x00000000,1717626217.331599,10.0.2.15,22,10.0.2.2,65232,1073725440,16178,0,65535,65700,0,0,4,1460,1,0,1,24,33580,0,65700,44,0,0,0,0
o,0x00000000,1717626217.331736,10.0.2.15,22,10.0.2.2,65232,1073725440,16178,0,65535,65700,0,0,4,1460,1,0,0,24,33580,44,65700,0,0,0,0,0
i,0x00000000,1717626217.332674,10.0.2.15,22,10.0.2.2,65232,1073725440,16178,0,65535,65700,0,0,4,1460,1,0,0,24,33580,44,65700,0,44,0,0,0
i,0x00000000,1717626217.332700,10.0.2.15,22,10.0.2.2,65232,1073725440,16222,0,65535,65700,0,0,4,1460,1,0,0,24,33580,0,65700,0,0,0,0,0
o,0x00000000,1717626217.342523,10.0.2.15,22,10.0.2.2,65232,1073725440,16222,0,65535,65700,0,0,4,1460,1,0,0,24,33580,68,65700,0,0,0,0,0
i,0x00000000,1717626217.343032,10.0.2.15,22,10.0.2.2,65232,1073725440,16222,0,65535,65700,0,0,4,1460,1,0,0,24,33580,68,65700,0,68,0,0,0
i,0x00000000,1717626217.345617,10.0.2.15,22,10.0.2.2,65232,1073725440,16290,0,65535,65700,0,0,4,1460,1,0,0,24,33580,0,65700,0,0,0,0,0
o,0x00000000,1717626217.355469,10.0.2.15,22,10.0.2.2,65232,1073725440,16290,0,65535,65700,0,0,4,1460,1,0,0,24,33580,28,65700,0,0,0,0,0
i,0x00000000,1717626217.356102,10.0.2.15,22,10.0.2.2,65232,1073725440,16290,0,65535,65700,0,0,4,1460,1,0,0,24,33580,28,65700,0,28,0,0,0
i,0x00000000,1717626217.356716,10.0.2.15,22,10.0.2.2,65232,1073725440,16318,0,65535,65700,0,0,4,1460,1,0,0,24,33580,0,65700,0,0,0,0,0
o,0x00000000,1717626217.357228,10.0.2.15,22,10.0.2.2,65232,1073725440,16318,0,65535,65700,0,0,4,1460,1,0,0,24,33580,768,65700,112,0,0,0,0
i,0x00000000,1717626217.357929,10.0.2.15,22,10.0.2.2,65232,1073725440,16318,0,65535,65700,0,0,4,1460,1,0,0,24,33580,768,65700,112,768,0,0,0
o,0x00000000,1717626217.358022,10.0.2.15,22,10.0.2.2,65232,1073725440,17086,0,65535,65700,0,0,4,1460,1,0,0,24,33580,44,65700,0,0,0,0,0
i,0x00000000,1717626217.358672,10.0.2.15,22,10.0.2.2,65232,1073725440,17086,0,65535,65700,0,0,4,1460,1,0,0,24,33580,44,65700,0,44,0,0,0
i,0x00000000,1717626217.359512,10.0.2.15,22,10.0.2.2,65232,1073725440,17130,0,65535,65700,0,0,4,1460,1,0,0,24,33580,0,65700,0,0,0,0,0
o,0x00000000,1717626217.359795,10.0.2.15,22,10.0.2.2,65232,1073725440,17130,0,65535,65700,0,0,4,1460,1,0,4,24,33580,72,65700,0,0,0,0,0
i,0x00000000,1717626217.360449,10.0.2.15,22,10.0.2.2,65232,1073725440,17130,0,65535,65700,0,0,4,1460,1,0,4,24,33580,72,65700,0,72,0,0,0
o,0x00000000,1717626217.362822,10.0.2.15,22,10.0.2.2,65232,1073725440,17202,0,65535,65700,0,0,4,1460,1,0,4,24,33580,44,65700,0,0,0,0,0
i,0x00000000,1717626217.363476,10.0.2.15,22,10.0.2.2,65232,1073725440,17202,0,65535,65700,0,0,4,1460,1,0,4,24,33580,44,65700,0,44,0,0,0
o,0x00000000,1717626217.363877,10.0.2.15,22,10.0.2.2,65232,1073725440,17246,0,65535,65700,0,0,4,1460,1,0,4,24,33580,44,65700,0,0,0,0,0
i,0x00000000,1717626217.364593,10.0.2.15,22,10.0.2.2,65232,1073725440,17246,0,65535,65700,0,0,4,1460,1,0,4,24,33580,44,65700,0,44,0,0,0
o,0x00000000,1717626217.367571,10.0.2.15,22,10.0.2.2,65232,1073725440,17290,0,65535,65700,0,0,4,1460,1,0,4,24,33580,176,65700,0,0,0,0,0
i,0x00000000,1717626217.368248,10.0.2.15,22,10.0.2.2,65232,1073725440,17290,0,65535,65700,0,0,4,1460,1,0,4,24,33580,176,65700,0,176,0,0,0
i,0x00000000,1717626217.368996,10.0.2.15,22,10.0.2.2,65232,1073725440,17466,0,65535,65700,0,0,4,1460,1,0,4,24,33580,0,65700,0,0,0,0,0
i,0x00000000,1717626217.368999,10.0.2.15,22,10.0.2.2,65232,1073725440,17466,0,65535,65700,0,0,4,1460,1,0,4,24,33580,0,65700,96,0,0,0,0
o,0x00000000,1717626217.369011,10.0.2.15,22,10.0.2.2,65232,1073725440,17466,0,65535,65604,0,0,5,1460,1,0,5,24,33580,0,65700,96,0,0,0,0
o,0x00000000,1717626217.373269,10.0.2.15,22,10.0.2.2,65232,1073725440,17466,0,65535,65604,0,0,8,1460,1,0,4,24,33580,0,65700,0,0,0,0,0
i,0x00000000,1717626217.374000,10.0.2.15,22,10.0.2.2,65232,1073725440,17466,0,65535,65604,0,0,8,1460,1,0,20,24,33580,0,65700,0,1,0,0,0
i,0x00000000,1717626217.604347,172.16.3.2,5101,172.16.1.2,61458,10499,14480,0,65728,65700,6,6,4,1460,2086,1,992,253,33580,0,65700,0,0,0,0,0
o,0x00000000,1717626217.604471,172.16.3.2,5101,172.16.1.2,61458,10499,14480,0,65728,65700,6,6,4,1460,2086,1,996,253,33580,1,65700,0,0,0,0,0
i,0x00000000,1717626217.724651,172.16.3.2,5101,172.16.1.2,61458,10499,14480,0,65728,65700,6,6,4,1460,2086,1,996,253,33580,1,65700,0,1,0,0,0
i,0x00000000,1717626217.724667,172.16.3.2,5101,172.16.1.2,61458,10499,14480,0,65728,65728,6,6,4,1460,1874,1,996,258,33580,0,65700,4,0,0,0,0
o,0x00000000,1717626217.724674,172.16.3.2,5101,172.16.1.2,61458,10499,14480,0,65728,65728,6,6,4,1460,1874,1,997,258,33580,0,65700,128,0,0,0,0
o,0x00000000,1717626217.725112,172.16.3.2,5101,172.16.1.2,61458,10499,14480,0,65728,65728,6,6,4,1460,1874,1,996,258,33580,1,65700,0,0,0,0,0
o,0x00000000,1717626217.725304,10.0.2.15,22,10.0.2.2,61555,1073725440,14600,0,65535,65700,0,0,4,1460,1,0,4,24,33580,84,65700,0,0,0,0,0
i,0x00000000,1717626217.726138,10.0.2.15,22,10.0.2.2,61555,1073725440,14600,0,65535,65700,0,0,4,1460,1,0,4,24,33580,84,65700,0,84,0,0,0
i,0x00000000,1717626217.874372,172.16.3.2,5101,172.16.1.2,61458,10499,14480,0,65728,65728,6,6,4,1460,1874,1,996,258,33580,1,65700,0,1,0,0,0
i,0x00000000,1717626217.964626,172.16.3.2,5101,172.16.1.2,47476,10499,14480,0,65728,65700,6,6,4,1460,2082,1,992,254,33580,0,65700,0,0,0,0,0
o,0x00000000,1717626217.967100,172.16.3.2,5101,172.16.1.2,61458,10499,14480,0,65728,65728,6,6,4,1460,1700,1,996,251,33580,1,65700,0,0,0,0,0
o,0x00000000,1717626217.967197,172.16.3.2,5101,172.16.1.2,61458,10499,14480,0,65728,65728,6,6,4,1460,1700,1,996,251,33580,2,65700,0,1,0,0,0
o,0x00000000,1717626217.967767,10.0.2.15,22,10.0.2.2,61555,1073725440,14600,0,65535,65700,0,0,4,1460,1,0,4,24,33580,108,65700,0,0,0,0,0
i,0x00000000,1717626217.968499,10.0.2.15,22,10.0.2.2,61555,1073725440,14600,0,65535,65700,0,0,4,1460,1,0,4,24,33580,108,65700,0,108,0,0,0
o,0x00000000,1717626218.000560,172.16.3.2,5101,172.16.1.2,47476,10499,14480,0,65728,65700,6,6,4,1460,2082,1,993,254,33580,0,65700,0,0,0,0,0
i,0x00000000,1717626218.155325,172.16.3.2,5101,172.16.1.2,61458,10499,14480,0,65728,65728,6,6,4,1460,1700,1,996,251,33580,2,65700,0,2,0,0,0
i,0x00000000,1717626218.184005,172.16.3.2,5101,172.16.1.2,47476,10499,14480,0,65728,65700,6,6,4,1460,2082,1,992,254,33580,0,65700,0,0,0,0,0
i,0x00000000,1717626218.193870,172.16.3.2,5101,172.16.1.2,47476,10499,14480,0,65728,65700,6,6,4,1460,2082,1,992,254,33580,0,65700,0,0,0,0,0
o,0x00000000,1717626218.193880,172.16.3.2,5101,172.16.1.2,47476,10499,14480,0,65728,65700,6,6,4,1460,2082,1,993,254,33580,0,65700,1448,0,0,0,0
i,0x00000000,1717626218.204230,172.16.3.2,5101,172.16.1.2,47476,10499,14480,0,65728,65700,6,6,4,1460,2082,1,992,254,33580,0,65700,0,0,0,0,0
i,0x00000000,1717626218.214634,172.16.3.2,5101,172.16.1.2,47476,10499,14480,0,65728,65700,6,6,4,1460,2082,1,992,254,33580,0,65700,0,0,0,0,0
o,0x00000000,1717626218.214640,172.16.3.2,5101,172.16.1.2,47476,10499,14480,0,65728,65700,6,6,4,1460,2082,1,993,254,33580,0,65700,1448,0,0,0,0
i,0x00000000,1717626218.234455,172.16.3.2,5101,172.16.1.2,47476,10499,14480,0,65728,65700,6,6,4,1460,2082,1,992,254,33580,0,65700,0,0,0,0,0
i,0x00000000,1717626218.243837,172.16.3.2,5101,172.16.1.2,47476,10499,14480,0,65728,65700,6,6,4,1460,2082,1,992,254,33580,0,65700,0,0,0,0,0
o,0x00000000,1717626218.243843,172.16.3.2,5101,172.16.1.2,47476,10499,14480,0,65728,65700,6,6,4,1460,2082,1,993,254,33580,0,65700,1448,0,0,0,0
i,0x00000000,1717626218.254086,172.16.3.2,5101,172.16.1.2,47476,10499,14480,0,65728,65700,6,6,4,1460,2082,1,992,254,33580,0,65700,0,0,0,0,0
i,0x00000000,1717626218.263843,172.16.3.2,5101,172.16.1.2,47476,10499,14480,0,65728,65700,6,6,4,1460,2082,1,992,254,33580,0,65700,0,0,0,0,0
o,0x00000000,1717626218.263852,172.16.3.2,5101,172.16.1.2,47476,10499,14480,0,65728,65700,6,6,4,1460,2082,1,993,254,33580,0,65700,1448,0,0,0,0
i,0x00000000,1717626218.274196,172.16.3.2,5101,172.16.1.2,47476,10499,14480,0,65728,65700,6,6,4,1460,2082,1,992,254,33580,0,65700,0,0,0,0,0
i,0x00000000,1717626218.294817,172.16.3.2,5101,172.16.1.2,47476,10499,14480,0,65728,65700,6,6,4,1460,2082,1,992,254,33580,0,65700,0,0,0,0,0
o,0x00000000,1717626218.294825,172.16.3.2,5101,172.16.1.2,47476,10499,14480,0,65728,65700,6,6,4,1460,2082,1,993,254,33580,0,65700,1448,0,0,0,0
i,0x00000000,1717626218.493919,172.16.3.2,5101,172.16.1.2,47476,10499,14480,0,65728,65700,6,6,4,1460,2082,1,992,254,33580,0,65700,0,0,0,0,0
i,0x00000000,1717626218.504162,172.16.3.2,5101,172.16.1.2,47476,10499,14480,0,65728,65700,6,6,4,1460,2082,1,992,254,33580,0,65700,0,0,0,0,0
o,0x00000000,1717626218.504173,172.16.3.2,5101,172.16.1.2,47476,10499,14480,0,65728,65700,6,6,4,1460,2082,1,993,254,33580,0,65700,1448,0,0,0,0
i,0x00000000,1717626218.514543,172.16.3.2,5101,172.16.1.2,47476,10499,14480,0,65728,65700,6,6,4,1460,2082,1,992,254,33580,0,65700,0,0,0,0,0
i,0x00000000,1717626218.534285,172.16.3.2,5101,172.16.1.2,47476,10499,14480,0,65728,65700,6,6,4,1460,2082,1,992,254,33580,0,65700,0,0,0,0,0
o,0x00000000,1717626218.534294,172.16.3.2,5101,172.16.1.2,47476,10499,14480,0,65728,65700,6,6,4,1460,2082,1,993,254,33580,0,65700,1448,0,0,0,0
i,0x00000000,1717626218.544839,172.16.3.2,5101,172.16.1.2,47476,10499,14480,0,65728,65700,6,6,4,1460,2082,1,992,254,33580,0,65700,0,0,0,0,0
i,0x00000000,1717626218.555028,172.16.3.2,5101,172.16.1.2,47476,10499,14480,0,65728,65700,6,6,4,1460,2082,1,992,254,33580,0,65700,0,0,0,0,0
o,0x00000000,1717626218.555036,172.16.3.2,5101,172.16.1.2,47476,10499,14480,0,65728,65700,6,6,4,1460,2082,1,993,254,33580,0,65700,1448,0,0,0,0
i,0x00000000,1717626218.564489,172.16.3.2,5101,172.16.1.2,47476,10499,14480,0,65728,65700,6,6,4,1460,2082,1,992,254,33580,0,65700,0,0,0,0,0
i,0x00000000,1717626218.574800,172.16.3.2,5101,172.16.1.2,47476,10499,14480,0,65728,65700,6,6,4,1460,2082,1,992,254,33580,0,65700,0,0,0,0,0
o,0x00000000,1717626218.574807,172.16.3.2,5101,172.16.1.2,47476,10499,14480,0,65728,65700,6,6,4,1460,2082,1,993,254,33580,0,65700,1448,0,0,0,0
i,0x00000000,1717626218.594507,172.16.3.2,5101,172.16.1.2,47476,10499,14480,0,65728,65700,6,6,4,1460,2082,1,992,254,33580,0,65700,0,0,0,0,0
i,0x00000000,1717626218.603975,172.16.3.2,5101,172.16.1.2,47476,10499,14480,0,65728,65700,6,6,4,1460,2082,1,992,254,33580,0,65700,0,0,0,0,0
o,0x00000000,1717626218.603984,172.16.3.2,5101,172.16.1.2,47476,10499,14480,0,65728,65700,6,6,4,1460,2082,1,993,254,33580,0,65700,1448,0,0,0,0
i,0x00000000,1717626218.614339,172.16.3.2,5101,172.16.1.2,47476,10499,14480,0,65728,65700,6,6,4,1460,2082,1,992,254,33580,0,65700,0,0,0,0,0
o,0x00000000,1717626218.649677,172.16.3.2,5101,172.16.1.2,47476,10499,14480,0,65728,65700,6,6,4,1460,2082,1,993,254,33580,0,65700,0,0,0,0,0
i,0x00000000,1717626218.794846,172.16.3.2,5101,172.16.1.2,47476,10499,14480,0,65728,65700,6,6,4,1460,2082,1,992,254,33580,0,65700,0,0,0,0,0
i,0x00000000,1717626218.804193,172.16.3.2,5101,172.16.1.2,47476,10499,14480,0,65728,65700,6,6,4,1460,2082,1,992,254,33580,0,65700,0,0,0,0,0
o,0x00000000,1717626218.804205,172.16.3.2,5101,172.16.1.2,47476,10499,14480,0,65728,65700,6,6,4,1460,2082,1,993,254,33580,0,65700,1448,0,0,0,0
i,0x00000000,1717626218.814567,172.16.3.2,5101,172.16.1.2,47476,10499,14480,0,65728,65700,6,6,4,1460,2082,1,992,254,33580,0,65700,0,0,0,0,0
i,0x00000000,1717626218.824920,172.16.3.2,5101,172.16.1.2,47476,10499,14480,0,65728,65700,6,6,4,1460,2082,1,992,254,33580,0,65700,0,0,0,0,0
o,0x00000000,1717626218.824931,172.16.3.2,5101,172.16.1.2,47476,10499,14480,0,65728,65700,6,6,4,1460,2082,1,993,254,33580,0,65700,1448,0,0,0,0
i,0x00000000,1717626218.844606,172.16.3.2,5101,172.16.1.2,47476,10499,14480,0,65728,65700,6,6,4,1460,2082,1,992,254,33580,0,65700,0,0,0,0,0
i,0x00000000,1717626218.854006,172.16.3.2,5101,172.16.1.2,47476,10499,14480,0,65728,65700,6,6,4,1460,2082,1,992,254,33580,0,65700,0,0,0,0,0
o,0x00000000,1717626218.854017,172.16.3.2,5101,172.16.1.2,47476,10499,14480,0,65728,65700,6,6,4,1460,2082,1,993,254,33580,0,65700,1448,0,0,0,0
i,0x00000000,1717626218.864372,172.16.3.2,5101,172.16.1.2,47476,10499,14480,0,65728,65700,6,6,4,1460,2082,1,992,254,33580,0,65700,0,0,0,0,0
i,0x00000000,1717626218.874769,172.16.3.2,5101,172.16.1.2,47476,10499,14480,0,65728,65700,6,6,4,1460,2082,1,992,254,33580,0,65700,0,0,0,0,0
o,0x00000000,1717626218.874777,172.16.3.2,5101,172.16.1.2,47476,10499,14480,0,65728,65700,6,6,4,1460,2082,1,993,254,33580,0,65700,1448,0,0,0,0
i,0x00000000,1717626218.884071,172.16.3.2,5101,172.16.1.2,47476,10499,14480,0,65728,65700,6,6,4,1460,2082,1,992,254,33580,0,65700,0,0,0,0,0
i,0x00000000,1717626218.904722,172.16.3.2,5101,172.16.1.2,47476,10499,14480,0,65728,65700,6,6,4,1460,2082,1,992,254,33580,0,65700,0,0,0,0,0
o,0x00000000,1717626218.904732,172.16.3.2,5101,172.16.1.2,47476,10499,14480,0,65728,65700,6,6,4,1460,2082,1,993,254,33580,0,65700,1448,0,0,0,0
i,0x00000000,1717626218.954124,172.16.3.2,5101,172.16.1.2,47476,10499,14480,0,65728,65700,6,6,4,1460,2082,1,992,254,33580,0,65700,0,0,0,0,0
i,0x00000000,1717626218.964605,172.16.3.2,5101,172.16.1.2,47476,10499,14480,0,65728,65700,6,6,4,1460,2082,1,992,254,33580,0,65700,0,0,0,0,0
o,0x00000000,1717626218.964613,172.16.3.2,5101,172.16.1.2,47476,10499,14480,0,65728,65700,6,6,4,1460,2082,1,993,254,33580,0,65700,1448,0,0,0,0
o,0x00000000,1717626218.970481,10.0.2.15,22,10.0.2.2,61555,1073725440,14600,0,65535,65700,0,0,4,1460,1,0,4,24,33580,156,65700,0,0,0,0,0
i,0x00000000,1717626218.971324,10.0.2.15,22,10.0.2.2,61555,1073725440,14600,0,65535,65700,0,0,4,1460,1,0,4,24,33580,156,65700,0,156,0,0,0
i,0x00000000,1717626219.094444,172.16.3.2,5101,172.16.1.2,47476,10499,14480,0,65728,65700,6,6,4,1460,2082,1,992,254,33580,0,65700,0,0,0,0,0
i,0x00000000,1717626219.104958,172.16.3.2,5101,172.16.1.2,47476,10499,14480,0,65728,65700,6,6,4,1460,2082,1,992,254,33580,0,65700,0,0,0,0,0
o,0x00000000,1717626219.104973,172.16.3.2,5101,172.16.1.2,47476,10499,14480,0,65728,65700,6,6,4,1460,2082,1,993,254,33580,0,65700,1448,0,0,0,0
i,0x00000000,1717626219.124380,172.16.3.2,5101,172.16.1.2,47476,10499,14480,0,65728,65700,6,6,4,1460,2082,1,992,254,33580,0,65700,0,0,0,0,0
i,0x00000000,1717626219.134778,172.16.3.2,5101,172.16.1.2,47476,10499,14480,0,65728,65700,6,6,4,1460,2082,1,992,254,33580,0,65700,0,0,0,0,0
o,0x00000000,1717626219.134794,172.16.3.2,5101,172.16.1.2,47476,10499,14480,0,65728,65700,6,6,4,1460,2082,1,993,254,33580,0,65700,1448,0,0,0,0
i,0x00000000,1717626219.145137,172.16.3.2,5101,172.16.1.2,47476,10499,14480,0,65728,65700,6,6,4,1460,2082,1,992,254,33580,0,65700,0,0,0,0,0
i,0x00000000,1717626219.154383,172.16.3.2,5101,172.16.1.2,47476,10499,14480,0,65728,65700,6,6,4,1460,2082,1,992,254,33580,0,65700,0,0,0,0,0
o,0x00000000,1717626219.154394,172.16.3.2,5101,172.16.1.2,47476,10499,14480,0,65728,65700,6,6,4,1460,2082,1,993,254,33580,0,65700,1448,0,0,0,0
i,0x00000000,1717626219.164927,172.16.3.2,5101,172.16.1.2,47476,10499,14480,0,65728,65700,6,6,4,1460,2082,1,992,254,33580,0,65700,0,0,0,0,0
i,0x00000000,1717626219.184721,172.16.3.2,5101,172.16.1.2,47476,10499,14480,0,65728,65700,6,6,4,1460,2082,1,992,254,33580,0,65700,0,0,0,0,0
o,0x00000000,1717626219.184731,172.16.3.2,5101,172.16.1.2,47476,10499,14480,0,65728,65700,6,6,4,1460,2082,1,993,254,33580,0,65700,1448,0,0,0,0
i,0x00000000,1717626219.194976,172.16.3.2,5101,172.16.1.2,47476,10499,14480,0,65728,65700,6,6,4,1460,2082,1,992,254,33580,0,65700,0,0,0,0,0
i,0x00000000,1717626219.203531,172.16.3.2,5101,172.16.1.2,47476,10499,14480,0,65728,65700,6,6,4,1460,2082,1,992,254,33580,0,65700,0,0,0,0,0
o,0x00000000,1717626219.203540,172.16.3.2,5101,172.16.1.2,47476,10499,14480,0,65728,65700,6,6,4,1460,2082,1,993,254,33580,0,65700,1448,0,0,0,0
i,0x00000000,1717626219.254709,172.16.3.2,5101,172.16.1.2,47476,10499,14480,0,65728,65700,6,6,4,1460,2082,1,992,254,33580,0,65700,0,0,0,0,0
i,0x00000000,1717626219.264909,172.16.3.2,5101,172.16.1.2,47476,10499,14480,0,65728,65700,6,6,4,1460,2082,1,992,254,33580,0,65700,0,0,0,0,0
o,0x00000000,1717626219.264921,172.16.3.2,5101,172.16.1.2,47476,10499,14480,0,65728,65700,6,6,4,1460,2082,1,993,254,33580,0,65700,1448,0,0,0,0
i,0x00000000,1717626219.283661,172.16.3.2,5101,172.16.1.2,47476,10499,14480,0,65728,65700,6,6,4,1460,2082,1,992,254,33580,0,65700,0,0,0,0,0
o,0x00000000,1717626219.320589,172.16.3.2,5101,172.16.1.2,47476,10499,14480,0,65728,65700,6,6,4,1460,2082,1,993,254,33580,0,65700,0,0,0,0,0
i,0x00000000,1717626219.415379,172.16.3.2,5101,172.16.1.2,47476,10499,14480,0,65728,65700,6,6,4,1460,2082,1,992,254,33580,0,65700,0,0,0,0,0
i,0x00000000,1717626219.424837,172.16.3.2,5101,172.16.1.2,47476,10499,14480,0,65728,65700,6,6,4,1460,2082,1,992,254,33580,0,65700,0,0,0,0,0
o,0x00000000,1717626219.424853,172.16.3.2,5101,172.16.1.2,47476,10499,14480,0,65728,65700,6,6,4,1460,2082,1,993,254,33580,0,65700,1448,0,0,0,0
i,0x00000000,1717626219.434111,172.16.3.2,5101,172.16.1.2,47476,10499,14480,0,65728,65700,6,6,4,1460,2082,1,992,254,33580,0,65700,0,0,0,0,0
i,0x00000000,1717626219.453820,172.16.3.2,5101,172.16.1.2,47476,10499,14480,0,65728,65700,6,6,4,1460,2082,1,992,254,33580,0,65700,0,0,0,0,0
o,0x00000000,1717626219.453830,172.16.3.2,5101,172.16.1.2,47476,10499,14480,0,65728,65700,6,6,4,1460,2082,1,993,254,33580,0,65700,1448,0,0,0,0
i,0x00000000,1717626219.464211,172.16.3.2,5101,172.16.1.2,47476,10499,14480,0,65728,65700,6,6,4,1460,2082,1,992,254,33580,0,65700,0,0,0,0,0
i,0x00000000,1717626219.474580,172.16.3.2,5101,172.16.1.2,47476,10499,14480,0,65728,65700,6,6,4,1460,2082,1,992,254,33580,0,65700,0,0,0,0,0
o,0x00000000,1717626219.474589,172.16.3.2,5101,172.16.1.2,47476,10499,14480,0,65728,65700,6,6,4,1460,2082,1,993,254,33580,0,65700,1448,0,0,0,0
i,0x00000000,1717626219.483891,172.16.3.2,5101,172.16.1.2,47476,10499,14480,0,65728,65700,6,6,4,1460,2082,1,992,254,33580,0,65700,0,0,0,0,0
i,0x00000000,1717626219.495242,172.16.3.2,5101,172.16.1.2,47476,10499,14480,0,65728,65700,6,6,4,1460,2082,1,992,254,33580,0,65700,0,0,0,0,0
o,0x00000000,1717626219.495252,172.16.3.2,5101,172.16.1.2,47476,10499,14480,0,65728,65700,6,6,4,1460,2082,1,993,254,33580,0,65700,1448,0,0,0,0
i,0x00000000,1717626219.513537,172.16.3.2,5101,172.16.1.2,47476,10499,14480,0,65728,65700,6,6,4,1460,2082,1,992,254,33580,0,65700,0,0,0,0,0
i,0x00000000,1717626219.524032,172.16.3.2,5101,172.16.1.2,47476,10499,14480,0,65728,65700,6,6,4,1460,2082,1,992,254,33580,0,65700,0,0,0,0,0
o,0x00000000,1717626219.524042,172.16.3.2,5101,172.16.1.2,47476,10499,14480,0,65728,65700,6,6,4,1460,2082,1,993,254,33580,0,65700,1448,0,0,0,0
i,0x00000000,1717626219.574615,172.16.3.2,5101,172.16.1.2,47476,10499,14480,0,65728,65700,6,6,4,1460,2082,1,992,254,33580,0,65700,0,0,0,0,0
i,0x00000000,1717626219.585094,172.16.3.2,5101,172.16.1.2,47476,10499,14480,0,65728,65700,6,6,4,1460,2082,1,992,254,33580,0,65700,0,0,0,0,0
o,0x00000000,1717626219.585105,172.16.3.2,5101,172.16.1.2,47476,10499,14480,0,65728,65700,6,6,4,1460,2082,1,993,254,33580,0,65700,1448,0,0,0,0
i,0x00000000,1717626219.703364,172.16.3.2,5101,172.16.1.2,47476,10499,14480,0,65728,65700,6,6,4,1460,2082,1,992,254,33580,0,65700,0,0,0,0,0
i,0x00000000,1717626219.713710,172.16.3.2,5101,172.16.1.2,47476,10499,14480,0,65728,65700,6,6,4,1460,2082,1,992,254,33580,0,65700,0,0,0,0,0
o,0x00000000,1717626219.713724,172.16.3.2,5101,172.16.1.2,47476,10499,14480,0,65728,65700,6,6,4,1460,2082,1,993,254,33580,0,65700,1448,0,0,0,0
i,0x00000000,1717626219.733442,172.16.3.2,5101,172.16.1.2,47476,10499,14480,0,65728,65700,6,6,4,1460,2082,1,992,254,33580,0,65700,0,0,0,0,0
i,0x00000000,1717626219.744784,172.16.3.2,5101,172.16.1.2,47476,10499,14480,0,65728,65700,6,6,4,1460,2082,1,992,254,33580,0,65700,0,0,0,0,0
o,0x00000000,1717626219.744793,172.16.3.2,5101,172.16.1.2,47476,10499,14480,0,65728,65700,6,6,4,1460,2082,1,993,254,33580,0,65700,1448,0,0,0,0
i,0x00000000,1717626219.754100,172.16.3.2,5101,172.16.1.2,47476,10499,14480,0,65728,65700,6,6,4,1460,2082,1,992,254,33580,0,65700,0,0,0,0,0
i,0x00000000,1717626219.763541,172.16.3.2,5101,172.16.1.2,47476,10499,14480,0,65728,65700,6,6,4,1460,2082,1,992,254,33580,0,65700,0,0,0,0,0
o,0x00000000,1717626219.763549,172.16.3.2,5101,172.16.1.2,47476,10499,14480,0,65728,65700,6,6,4,1460,2082,1,993,254,33580,0,65700,1448,0,0,0,0
i,0x00000000,1717626219.773887,172.16.3.2,5101,172.16.1.2,47476,10499,14480,0,65728,65700,6,6,4,1460,2082,1,992,254,33580,0,65700,0,0,0,0,0
i,0x00000000,1717626219.794621,172.16.3.2,5101,172.16.1.2,47476,10499,14480,0,65728,65700,6,6,4,1460,2082,1,992,254,33580,0,65700,0,0,0,0,0
o,0x00000000,1717626219.794634,172.16.3.2,5101,172.16.1.2,47476,10499,14480,0,65728,65700,6,6,4,1460,2082,1,993,254,33580,0,65700,1448,0,0,0,0
i,0x00000000,1717626219.824252,172.16.3.2,5101,172.16.1.2,47476,10499,14480,0,65728,65700,6,6,4,1460,2082,1,992,254,33580,0,65700,0,0,0,0,0
i,0x00000000,1717626219.834219,172.16.3.2,5101,172.16.1.2,47476,10499,14480,0,65728,65700,6,6,4,1460,2082,1,992,254,33580,0,65700,0,0,0,0,0
o,0x00000000,1717626219.834232,172.16.3.2,5101,172.16.1.2,47476,10499,14480,0,65728,65700,6,6,4,1460,2082,1,993,254,33580,0,65700,1448,0,0,0,0
i,0x00000000,1717626219.854568,172.16.3.2,5101,172.16.1.2,47476,10499,14480,0,65728,65700,6,6,4,1460,2082,1,992,254,33580,0,65700,0,0,0,0,0
i,0x00000000,1717626219.864234,172.16.3.2,5101,172.16.1.2,47476,10499,14480,0,65728,65700,6,6,4,1460,2082,1,992,254,33580,0,65700,0,0,0,0,0
o,0x00000000,1717626219.864247,172.16.3.2,5101,172.16.1.2,47476,10499,14480,0,65728,65700,6,6,4,1460,2082,1,993,254,33580,0,65700,1448,0,0,0,0
o,0x00000000,1717626219.980510,10.0.2.15,22,10.0.2.2,61555,1073725440,14600,0,65535,65700,0,0,4,1460,1,0,4,24,33580,108,65700,0,0,0,0,0
i,0x00000000,1717626219.981303,10.0.2.15,22,10.0.2.2,61555,1073725440,14600,0,65535,65700,0,0,4,1460,1,0,4,24,33580,108,65700,0,108,0,0,0
i,0x00000000,1717626220.014532,172.16.3.2,5101,172.16.1.2,47476,10499,14480,0,65728,65700,6,6,4,1460,2082,1,992,254,33580,0,65700,0,0,0,0,0
i,0x00000000,1717626220.023520,172.16.3.2,5101,172.16.1.2,47476,10499,14480,0,65728,65700,6,6,4,1460,2082,1,992,254,33580,0,65700,0,0,0,0,0
o,0x00000000,1717626220.023547,172.16.3.2,5101,172.16.1.2,47476,10499,14480,0,65728,65700,6,6,4,1460,2082,1,993,254,33580,0,65700,1448,0,0,0,0
i,0x00000000,1717626220.063997,172.16.3.2,5101,172.16.1.2,47476,10499,14480,0,65728,65700,6,6,4,1460,2082,1,992,254,33580,0,65700,0,0,0,0,0
i,0x00000000,1717626220.074645,172.16.3.2,5101,172.16.1.2,47476,10499,14480,0,65728,65700,6,6,4,1460,2082,1,992,254,33580,0,65700,0,0,0,0,0
o,0x00000000,1717626220.074663,172.16.3.2,5101,172.16.1.2,47476,10499,14480,0,65728,65700,6,6,4,1460,2082,1,993,254,33580,0,65700,1448,0,0,0,0
i,0x00000000,1717626220.083792,172.16.3.2,5101,172.16.1.2,47476,10499,14480,0,65728,65700,6,6,4,1460,2082,1,992,254,33580,0,65700,0,0,0,0,0
i,0x00000000,1717626220.094079,172.16.3.2,5101,172.16.1.2,47476,10499,14480,0,65728,65700,6,6,4,1460,2082,1,992,254,33580,0,65700,0,0,0,0,0
o,0x00000000,1717626220.094089,172.16.3.2,5101,172.16.1.2,47476,10499,14480,0,65728,65700,6,6,4,1460,2082,1,993,254,33580,0,65700,1448,0,0,0,0
i,0x00000000,1717626220.103914,172.16.3.2,5101,172.16.1.2,47476,10499,14480,0,65728,65700,6,6,4,1460,2082,1,992,254,33580,0,65700,0,0,0,0,0
i,0x00000000,1717626220.124635,172.16.3.2,5101,172.16.1.2,47476,10499,14480,0,65728,65700,6,6,4,1460,2082,1,992,254,33580,0,65700,0,0,0,0,0
o,0x00000000,1717626220.124644,172.16.3.2,5101,172.16.1.2,47476,10499,14480,0,65728,65700,6,6,4,1460,2082,1,993,254,33580,0,65700,1448,0,0,0,0
i,0x00000000,1717626220.134113,172.16.3.2,5101,172.16.1.2,47476,10499,14480,0,65728,65700,6,6,4,1460,2082,1,992,254,33580,0,65700,0,0,0,0,0
i,0x00000000,1717626220.143338,172.16.3.2,5101,172.16.1.2,47476,10499,14480,0,65728,65700,6,6,4,1460,2082,1,992,254,33580,0,65700,0,0,0,0,0
o,0x00000000,1717626220.143348,172.16.3.2,5101,172.16.1.2,47476,10499,14480,0,65728,65700,6,6,4,1460,2082,1,993,254,33580,0,65700,1448,0,0,0,0
i,0x00000000,1717626220.153693,172.16.3.2,5101,172.16.1.2,47476,10499,14480,0,65728,65700,6,6,4,1460,2082,1,992,254,33580,0,65700,0,0,0,0,0
o,0x00000000,1717626220.189750,172.16.3.2,5101,172.16.1.2,47476,10499,14480,0,65728,65700,6,6,4,1460,2082,1,993,254,33580,0,65700,0,0,0,0,0
i,0x00000000,1717626220.194196,172.16.3.2,5101,172.16.1.2,47476,10499,14480,0,65728,65700,6,6,4,1460,2082,1,992,254,33580,0,65700,0,0,0,0,0
i,0x00000000,1717626220.203531,172.16.3.2,5101,172.16.1.2,47476,10499,14480,0,65728,65700,6,6,4,1460,2082,1,992,254,33580,0,65700,0,0,0,0,0
o,0x00000000,1717626220.203538,172.16.3.2,5101,172.16.1.2,47476,10499,14480,0,65728,65700,6,6,4,1460,2082,1,993,254,33580,0,65700,1448,0,0,0,0
i,0x00000000,1717626220.213917,172.16.3.2,5101,172.16.1.2,47476,10499,14480,0,65728,65700,6,6,4,1460,2082,1,992,254,33580,0,65700,0,0,0,0,0
i,0x00000000,1717626220.233594,172.16.3.2,5101,172.16.1.2,47476,10499,14480,0,65728,65700,6,6,4,1460,2082,1,992,254,33580,0,65700,0,0,0,0,0
o,0x00000000,1717626220.233605,172.16.3.2,5101,172.16.1.2,47476,10499,14480,0,65728,65700,6,6,4,1460,2082,1,993,254,33580,0,65700,1448,0,0,0,0
i,0x00000000,1717626220.373635,172.16.3.2,5101,172.16.1.2,47476,10499,14480,0,65728,65700,6,6,4,1460,2082,1,992,254,33580,0,65700,0,0,0,0,0
i,0x00000000,1717626220.393936,172.16.3.2,5101,172.16.1.2,47476,10499,14480,0,65728,65700,6,6,4,1460,2082,1,992,254,33580,0,65700,0,0,0,0,0
o,0x00000000,1717626220.393950,172.16.3.2,5101,172.16.1.2,47476,10499,14480,0,65728,65700,6,6,4,1460,2082,1,993,254,33580,0,65700,1448,0,0,0,0
i,0x00000000,1717626220.434442,172.16.3.2,5101,172.16.1.2,47476,10499,14480,0,65728,65700,6,6,4,1460,2082,1,992,254,33580,0,65700,0,0,0,0,0
i,0x00000000,1717626220.454171,172.16.3.2,5101,172.16.1.2,47476,10499,14480,0,65728,65700,6,6,4,1460,2082,1,992,254,33580,0,65700,0,0,0,0,0
o,0x00000000,1717626220.454182,172.16.3.2,5101,172.16.1.2,47476,10499,14480,0,65728,65700,6,6,4,1460,2082,1,993,254,33580,0,65700,1448,0,0,0,0
i,0x00000000,1717626220.463879,172.16.3.2,5101,172.16.1.2,47476,10499,14480,0,65728,65700,6,6,4,1460,2082,1,992,254,33580,0,65700,0,0,0,0,0
i,0x00000000,1717626220.473946,172.16.3.2,5101,172.16.1.2,47476,10499,14480,0,65728,65700,6,6,4,1460,2082,1,992,254,33580,0,65700,0,0,0,0,0
o,0x00000000,1717626220.473956,172.16.3.2,5101,172.16.1.2,47476,10499,14480,0,65728,65700,6,6,4,1460,2082,1,993,254,33580,0,65700,1448,0,0,0,0
i,0x00000000,1717626220.483177,172.16.3.2,5101,172.16.1.2,47476,10499,14480,0,65728,65700,6,6,4,1460,2082,1,992,254,33580,0,65700,0,0,0,0,0
i,0x00000000,1717626220.493508,172.16.3.2,5101,172.16.1.2,47476,10499,14480,0,65728,65700,6,6,4,1460,2082,1,992,254,33580,0,65700,0,0,0,0,0
o,0x00000000,1717626220.493516,172.16.3.2,5101,172.16.1.2,47476,10499,14480,0,65728,65700,6,6,4,1460,2082,1,993,254,33580,0,65700,1448,0,0,0,0
i,0x00000000,1717626220.514398,172.16.3.2,5101,172.16.1.2,47476,10499,14480,0,65728,65700,6,6,4,1460,2082,1,992,254,33580,0,65700,0,0,0,0,0
i,0x00000000,1717626220.523586,172.16.3.2,5101,172.16.1.2,47476,10499,14480,0,65728,65700,6,6,4,1460,2082,1,992,254,33580,0,65700,0,0,0,0,0
o,0x00000000,1717626220.523595,172.16.3.2,5101,172.16.1.2,47476,10499,14480,0,65728,65700,6,6,4,1460,2082,1,993,254,33580,0,65700,1448,0,0,0,0
i,0x00000000,1717626220.534095,172.16.3.2,5101,172.16.1.2,47476,10499,14480,0,65728,65700,6,6,4,1460,2082,1,992,254,33580,0,65700,0,0,0,0,0
o,0x00000000,1717626220.569949,172.16.3.2,5101,172.16.1.2,47476,10499,14480,0,65728,65700,6,6,4,1460,2082,1,993,254,33580,0,65700,0,0,0,0,0
i,0x00000000,1717626220.574407,172.16.3.2,5101,172.16.1.2,47476,10499,14480,0,65728,65700,6,6,4,1460,2082,1,992,254,33580,0,65700,0,0,0,0,0
i,0x00000000,1717626220.583809,172.16.3.2,5101,172.16.1.2,47476,10499,14480,0,65728,65700,6,6,4,1460,2082,1,992,254,33580,0,65700,0,0,0,0,0
o,0x00000000,1717626220.583817,172.16.3.2,5101,172.16.1.2,47476,10499,14480,0,65728,65700,6,6,4,1460,2082,1,993,254,33580,0,65700,1448,0,0,0,0
i,0x00000000,1717626220.593175,172.16.3.2,5101,172.16.1.2,47476,10499,14480,0,65728,65700,6,6,4,1460,2082,1,992,254,33580,0,65700,0,0,0,0,0
i,0x00000000,1717626220.613917,172.16.3.2,5101,172.16.1.2,47476,10499,14480,0,65728,65700,6,6,4,1460,2082,1,992,254,33580,0,65700,0,0,0,0,0
o,0x00000000,1717626220.613924,172.16.3.2,5101,172.16.1.2,47476,10499,14480,0,65728,65700,6,6,4,1460,2082,1,993,254,33580,0,65700,1448,0,0,0,0
i,0x00000000,1717626220.623263,172.16.3.2,5101,172.16.1.2,47476,10499,14480,0,65728,65700,6,6,4,1460,2082,1,992,254,33580,0,65700,0,0,0,0,0
o,0x00000000,1717626220.659833,172.16.3.2,5101,172.16.1.2,47476,10499,14480,0,65728,65700,6,6,4,1460,2082,1,993,254,33580,0,65700,0,0,0,0,0
i,0x00000000,1717626220.763336,172.16.3.2,5101,172.16.1.2,47476,10499,14480,0,65728,65700,6,6,4,1460,2082,1,992,254,33580,0,65700,0,0,0,0,0
i,0x00000000,1717626220.783535,172.16.3.2,5101,172.16.1.2,47476,10499,14480,0,65728,65700,6,6,4,1460,2082,1,992,254,33580,0,65700,0,0,0,0,0
o,0x00000000,1717626220.783549,172.16.3.2,5101,172.16.1.2,47476,10499,14480,0,65728,65700,6,6,4,1460,2082,1,993,254,33580,0,65700,1448,0,0,0,0
i,0x00000000,1717626220.834316,172.16.3.2,5101,172.16.1.2,47476,10499,14480,0,65728,65700,6,6,4,1460,2082,1,992,254,33580,0,65700,0,0,0,0,0
i,0x00000000,1717626220.844641,172.16.3.2,5101,172.16.1.2,47476,10499,14480,0,65728,65700,6,6,4,1460,2082,1,992,254,33580,0,65700,0,0,0,0,0
o,0x00000000,1717626220.844653,172.16.3.2,5101,172.16.1.2,47476,10499,14480,0,65728,65700,6,6,4,1460,2082,1,993,254,33580,0,65700,1448,0,0,0,0
i,0x00000000,1717626220.853139,172.16.3.2,5101,172.16.1.2,47476,10499,14480,0,65728,65700,6,6,4,1460,2082,1,992,254,33580,0,65700,0,0,0,0,0
i,0x00000000,1717626220.863339,172.16.3.2,5101,172.16.1.2,47476,10499,14480,0,65728,65700,6,6,4,1460,2082,1,992,254,33580,0,65700,0,0,0,0,0
o,0x00000000,1717626220.863350,172.16.3.2,5101,172.16.1.2,47476,10499,14480,0,65728,65700,6,6,4,1460,2082,1,993,254,33580,0,65700,1448,0,0,0,0
i,0x00000000,1717626220.873765,172.16.3.2,5101,172.16.1.2,47476,10499,14480,0,65728,65700,6,6,4,1460,2082,1,992,254,33580,0,65700,0,0,0,0,0
i,0x00000000,1717626220.894237,172.16.3.2,5101,172.16.1.2,47476,10499,14480,0,65728,65700,6,6,4,1460,2082,1,992,254,33580,0,65700,0,0,0,0,0
o,0x00000000,1717626220.894247,172.16.3.2,5101,172.16.1.2,47476,10499,14480,0,65728,65700,6,6,4,1460,2082,1,993,254,33580,0,65700,1448,0,0,0,0
i,0x00000000,1717626220.903550,172.16.3.2,5101,172.16.1.2,47476,10499,14480,0,65728,65700,6,6,4,1460,2082,1,992,254,33580,0,65700,0,0,0,0,0
i,0x00000000,1717626220.913914,172.16.3.2,5101,172.16.1.2,47476,10499,14480,0,65728,65700,6,6,4,1460,2082,1,992,254,33580,0,65700,0,0,0,0,0
o,0x00000000,1717626220.913923,172.16.3.2,5101,172.16.1.2,47476,10499,14480,0,65728,65700,6,6,4,1460,2082,1,993,254,33580,0,65700,1448,0,0,0,0
i,0x00000000,1717626220.924293,172.16.3.2,5101,172.16.1.2,47476,10499,14480,0,65728,65700,6,6,4,1460,2082,1,992,254,33580,0,65700,0,0,0,0,0
o,0x00000000,1717626220.961126,172.16.3.2,5101,172.16.1.2,47476,10499,14480,0,65728,65700,6,6,4,1460,2082,1,993,254,33580,0,65700,0,0,0,0,0
i,0x00000000,1717626220.963876,172.16.3.2,5101,172.16.1.2,47476,10499,14480,0,65728,65700,6,6,4,1460,2082,1,992,254,33580,0,65700,0,0,0,0,0
i,0x00000000,1717626220.973906,172.16.3.2,5101,172.16.1.2,47476,10499,14480,0,65728,65700,6,6,4,1460,2082,1,992,254,33580,0,65700,0,0,0,0,0
o,0x00000000,1717626220.973915,172.16.3.2,5101,172.16.1.2,47476,10499,14480,0,65728,65700,6,6,4,1460,2082,1,993,254,33580,0,65700,1448,0,0,0,0
o,0x00000000,1717626220.981006,10.0.2.15,22,10.0.2.2,61555,1073725440,14600,0,65535,65700,0,0,4,1460,1,0,4,24,33580,108,65700,0,0,0,0,0
i,0x00000000,1717626220.981857,10.0.2.15,22,10.0.2.2,61555,1073725440,14600,0,65535,65700,0,0,4,1460,1,0,4,24,33580,108,65700,0,108,0,0,0
i,0x00000000,1717626220.984537,172.16.3.2,5101,172.16.1.2,47476,10499,14480,0,65728,65700,6,6,4,1460,2082,1,992,254,33580,0,65700,0,0,0,0,0
i,0x00000000,1717626221.003412,172.16.3.2,5101,172.16.1.2,47476,10499,14480,0,65728,65700,6,6,4,1460,2082,1,992,254,33580,0,65700,0,0,0,0,0
o,0x00000000,1717626221.003438,172.16.3.2,5101,172.16.1.2,47476,10499,14480,0,65728,65700,6,6,4,1460,2082,1,993,254,33580,0,65700,1448,0,0,0,0
i,0x00000000,1717626221.013993,172.16.3.2,5101,172.16.1.2,47476,10499,14480,0,65728,65700,6,6,4,1460,2082,1,992,254,33580,0,65700,0,0,0,0,0
o,0x00000000,1717626221.049688,172.16.3.2,5101,172.16.1.2,47476,10499,14480,0,65728,65700,6,6,4,1460,2082,1,993,254,33580,0,65700,0,0,0,0,0
i,0x00000000,1717626221.174271,172.16.3.2,5101,172.16.1.2,47476,10499,14480,0,65728,65700,6,6,4,1460,2082,1,992,254,33580,0,65700,0,0,0,0,0
i,0x00000000,1717626221.183563,172.16.3.2,5101,172.16.1.2,47476,10499,14480,0,65728,65700,6,6,4,1460,2082,1,992,254,33580,0,65700,0,0,0,0,0
o,0x00000000,1717626221.183578,172.16.3.2,5101,172.16.1.2,47476,10499,14480,0,65728,65700,6,6,4,1460,2082,1,993,254,33580,0,65700,1448,0,0,0,0
i,0x00000000,1717626221.193845,172.16.3.2,5101,172.16.1.2,47476,10499,14480,0,65728,65700,6,6,4,1460,2082,1,992,254,33580,0,65700,0,0,0,0,0
o,0x00000000,1717626221.230011,172.16.3.2,5101,172.16.1.2,47476,10499,14480,0,65728,65700,6,6,4,1460,2082,1,993,254,33580,0,65700,0,0,0,0,0
i,0x00000000,1717626221.243589,172.16.3.2,5101,172.16.1.2,47476,10499,14480,0,65728,65700,6,6,4,1460,2082,1,992,254,33580,0,65700,0,0,0,0,0
i,0x00000000,1717626221.253784,172.16.3.2,5101,172.16.1.2,47476,10499,14480,0,65728,65700,6,6,4,1460,2082,1,992,254,33580,0,65700,0,0,0,0,0
o,0x00000000,1717626221.253795,172.16.3.2,5101,172.16.1.2,47476,10499,14480,0,65728,65700,6,6,4,1460,2082,1,993,254,33580,0,65700,1448,0,0,0,0
i,0x00000000,1717626221.273836,172.16.3.2,5101,172.16.1.2,47476,10499,14480,0,65728,65700,6,6,4,1460,2082,1,992,254,33580,0,65700,0,0,0,0,0
i,0x00000000,1717626221.284826,172.16.3.2,5101,172.16.1.2,47476,10499,14480,0,65728,65700,6,6,4,1460,2082,1,992,254,33580,0,65700,0,0,0,0,0
o,0x00000000,1717626221.284839,172.16.3.2,5101,172.16.1.2,47476,10499,14480,0,65728,65700,6,6,4,1460,2082,1,993,254,33580,0,65700,1448,0,0,0,0
i,0x00000000,1717626221.294283,172.16.3.2,5101,172.16.1.2,47476,10499,14480,0,65728,65700,6,6,4,1460,2082,1,992,254,33580,0,65700,0,0,0,0,0
i,0x00000000,1717626221.302877,172.16.3.2,5101,172.16.1.2,47476,10499,14480,0,65728,65700,6,6,4,1460,2082,1,992,254,33580,0,65700,0,0,0,0,0
o,0x00000000,1717626221.302887,172.16.3.2,5101,172.16.1.2,47476,10499,14480,0,65728,65700,6,6,4,1460,2082,1,993,254,33580,0,65700,1448,0,0,0,0
i,0x00000000,1717626221.313198,172.16.3.2,5101,172.16.1.2,47476,10499,14480,0,65728,65700,6,6,4,1460,2082,1,992,254,33580,0,65700,0,0,0,0,0
i,0x00000000,1717626221.333843,172.16.3.2,5101,172.16.1.2,47476,10499,14480,0,65728,65700,6,6,4,1460,2082,1,992,254,33580,0,65700,0,0,0,0,0
o,0x00000000,1717626221.333855,172.16.3.2,5101,172.16.1.2,47476,10499,14480,0,65728,65700,6,6,4,1460,2082,1,993,254,33580,0,65700,1448,0,0,0,0
i,0x00000000,1717626221.344121,172.16.3.2,5101,172.16.1.2,47476,10499,14480,0,65728,65700,6,6,4,1460,2082,1,992,254,33580,0,65700,0,0,0,0,0
i,0x00000000,1717626221.374142,172.16.3.2,5101,172.16.1.2,47476,10499,14480,0,65728,65700,6,6,4,1460,2082,1,992,254,33580,0,65700,0,0,0,0,0
o,0x00000000,1717626221.374152,172.16.3.2,5101,172.16.1.2,47476,10499,14480,0,65728,65700,6,6,4,1460,2082,1,993,254,33580,0,65700,1448,0,0,0,0
i,0x00000000,1717626221.393736,172.16.3.2,5101,172.16.1.2,47476,10499,14480,0,65728,65700,6,6,4,1460,2082,1,992,254,33580,0,65700,0,0,0,0,0
i,0x00000000,1717626221.403990,172.16.3.2,5101,172.16.1.2,47476,10499,14480,0,65728,65700,6,6,4,1460,2082,1,992,254,33580,0,65700,0,0,0,0,0
o,0x00000000,1717626221.404000,172.16.3.2,5101,172.16.1.2,47476,10499,14480,0,65728,65700,6,6,4,1460,2082,1,993,254,33580,0,65700,1448,0,0,0,0
i,0x00000000,1717626221.423672,172.16.3.2,5101,172.16.1.2,47476,10499,14480,0,65728,65700,6,6,4,1460,2082,1,992,254,33580,0,65700,0,0,0,0,0
i,0x00000000,1717626221.443335,172.16.3.2,5101,172.16.1.2,47476,10499,14480,0,65728,65700,6,6,4,1460,2082,1,992,254,33580,0,65700,0,0,0,0,0
o,0x00000000,1717626221.443347,172.16.3.2,5101,172.16.1.2,47476,10499,14480,0,65728,65700,6,6,4,1460,2082,1,993,254,33580,0,65700,1448,0,0,0,0
i,0x00000000,1717626221.483651,172.16.3.2,5101,172.16.1.2,47476,10499,14480,0,65728,65700,6,6,4,1460,2082,1,992,254,33580,0,65700,0,0,0,0,0
o,0x00000000,1717626221.520415,172.16.3.2,5101,172.16.1.2,47476,10499,14480,0,65728,65700,6,6,4,1460,2082,1,993,254,33580,0,65700,0,0,0,0,0
i,0x00000000,1717626221.613785,172.16.3.2,5101,172.16.1.2,47476,10499,14480,0,65728,65700,6,6,4,1460,2082,1,992,254,33580,0,65700,0,0,0,0,0
i,0x00000000,1717626221.622589,172.16.3.2,5101,172.16.1.2,47476,10499,14480,0,65728,65700,6,6,4,1460,2082,1,992,254,33580,0,65700,0,0,0,0,0
o,0x00000000,1717626221.622602,172.16.3.2,5101,172.16.1.2,47476,10499,14480,0,65728,65700,6,6,4,1460,2082,1,993,254,33580,0,65700,1448,0,0,0,0
i,0x00000000,1717626221.683561,172.16.3.2,5101,172.16.1.2,47476,10499,14480,0,65728,65700,6,6,4,1460,2082,1,992,254,33580,0,65700,0,0,0,0,0
i,0x00000000,1717626221.692767,172.16.3.2,5101,172.16.1.2,47476,10499,14480,0,65728,65700,6,6,4,1460,2082,1,992,254,33580,0,65700,0,0,0,0,0
o,0x00000000,1717626221.692778,172.16.3.2,5101,172.16.1.2,47476,10499,14480,0,65728,65700,6,6,4,1460,2082,1,993,254,33580,0,65700,1448,0,0,0,0
i,0x00000000,1717626221.713476,172.16.3.2,5101,172.16.1.2,47476,10499,14480,0,65728,65700,6,6,4,1460,2082,1,992,254,33580,0,65700,0,0,0,0,0
i,0x00000000,1717626221.722836,172.16.3.2,5101,172.16.1.2,47476,10499,14480,0,65728,65700,6,6,4,1460,2082,1,992,254,33580,0,65700,0,0,0,0,0
o,0x00000000,1717626221.722845,172.16.3.2,5101,172.16.1.2,47476,10499,14480,0,65728,65700,6,6,4,1460,2082,1,993,254,33580,0,65700,1448,0,0,0,0
i,0x00000000,1717626221.734110,172.16.3.2,5101,172.16.1.2,47476,10499,14480,0,65728,65700,6,6,4,1460,2082,1,992,254,33580,0,65700,0,0,0,0,0
i,0x00000000,1717626221.743422,172.16.3.2,5101,172.16.1.2,47476,10499,14480,0,65728,65700,6,6,4,1460,2082,1,992,254,33580,0,65700,0,0,0,0,0
o,0x00000000,1717626221.743430,172.16.3.2,5101,172.16.1.2,47476,10499,14480,0,65728,65700,6,6,4,1460,2082,1,993,254,33580,0,65700,1448,0,0,0,0
i,0x00000000,1717626221.753769,172.16.3.2,5101,172.16.1.2,47476,10499,14480,0,65728,65700,6,6,4,1460,2082,1,992,254,33580,0,65700,0,0,0,0,0
i,0x00000000,1717626221.773445,172.16.3.2,5101,172.16.1.2,47476,10499,14480,0,65728,65700,6,6,4,1460,2082,1,992,254,33580,0,65700,0,0,0,0,0
o,0x00000000,1717626221.773453,172.16.3.2,5101,172.16.1.2,47476,10499,14480,0,65728,65700,6,6,4,1460,2082,1,993,254,33580,0,65700,1448,0,0,0,0
i,0x00000000,1717626221.783755,172.16.3.2,5101,172.16.1.2,47476,10499,14480,0,65728,65700,6,6,4,1460,2082,1,992,254,33580,0,65700,0,0,0,0,0
i,0x00000000,1717626221.793128,172.16.3.2,5101,172.16.1.2,47476,10499,14480,0,65728,65700,6,6,4,1460,2082,1,992,254,33580,0,65700,0,0,0,0,0
o,0x00000000,1717626221.793137,172.16.3.2,5101,172.16.1.2,47476,10499,14480,0,65728,65700,6,6,4,1460,2082,1,993,254,33580,0,65700,1448,0,0,0,0
i,0x00000000,1717626221.833448,172.16.3.2,5101,172.16.1.2,47476,10499,14480,0,65728,65700,6,6,4,1460,2082,1,992,254,33580,0,65700,0,0,0,0,0
i,0x00000000,1717626221.842680,172.16.3.2,5101,172.16.1.2,47476,10499,14480,0,65728,65700,6,6,4,1460,2082,1,992,254,33580,0,65700,0,0,0,0,0
o,0x00000000,1717626221.842692,172.16.3.2,5101,172.16.1.2,47476,10499,14480,0,65728,65700,6,6,4,1460,2082,1,993,254,33580,0,65700,1448,0,0,0,0
i,0x00000000,1717626221.854033,172.16.3.2,5101,172.16.1.2,47476,10499,14480,0,65728,65700,6,6,4,1460,2082,1,992,254,33580,0,65700,0,0,0,0,0
i,0x00000000,1717626221.863946,172.16.3.2,5101,172.16.1.2,47476,10499,14480,0,65728,65700,6,6,4,1460,2082,1,992,254,33580,0,65700,0,0,0,0,0
o,0x00000000,1717626221.863956,172.16.3.2,5101,172.16.1.2,47476,10499,14480,0,65728,65700,6,6,4,1460,2082,1,993,254,33580,0,65700,1448,0,0,0,0
i,0x00000000,1717626221.883241,172.16.3.2,5101,172.16.1.2,47476,10499,14480,0,65728,65700,6,6,4,1460,2082,1,992,254,33580,0,65700,0,0,0,0,0
i,0x00000000,1717626221.893344,172.16.3.2,5101,172.16.1.2,47476,10499,14480,0,65728,65700,6,6,4,1460,2082,1,992,254,33580,0,65700,0,0,0,0,0
o,0x00000000,1717626221.893353,172.16.3.2,5101,172.16.1.2,47476,10499,14480,0,65728,65700,6,6,4,1460,2082,1,993,254,33580,0,65700,1448,0,0,0,0
o,0x00000000,1717626221.980087,10.0.2.15,22,10.0.2.2,61555,1073725440,14600,0,65535,65700,0,0,4,1460,1,0,4,24,33580,108,65700,0,0,0,0,0
i,0x00000000,1717626221.981036,10.0.2.15,22,10.0.2.2,61555,1073725440,14600,0,65535,65700,0,0,4,1460,1,0,4,24,33580,108,65700,0,108,0,0,0
i,0x00000000,1717626222.072783,172.16.3.2,5101,172.16.1.2,47476,10499,14480,0,65728,65700,6,6,4,1460,2082,1,992,254,33580,0,65700,0,0,0,0,0
i,0x00000000,1717626222.093344,172.16.3.2,5101,172.16.1.2,47476,10499,14480,0,65728,65700,6,6,4,1460,2082,1,992,254,33580,0,65700,0,0,0,0,0
o,0x00000000,1717626222.093358,172.16.3.2,5101,172.16.1.2,47476,10499,14480,0,65728,65700,6,6,4,1460,2082,1,993,254,33580,0,65700,1448,0,0,0,0
i,0x00000000,1717626222.103670,172.16.3.2,5101,172.16.1.2,47476,10499,14480,0,65728,65700,6,6,4,1460,2082,1,992,254,33580,0,65700,0,0,0,0,0
o,0x00000000,1717626222.140447,172.16.3.2,5101,172.16.1.2,47476,10499,14480,0,65728,65700,6,6,4,1460,2082,1,993,254,33580,0,65700,0,0,0,0,0
i,0x00000000,1717626222.162591,172.16.3.2,5101,172.16.1.2,47476,10499,14480,0,65728,65700,6,6,4,1460,2082,1,992,254,33580,0,65700,0,0,0,0,0
i,0x00000000,1717626222.173131,172.16.3.2,5101,172.16.1.2,47476,10499,14480,0,65728,65700,6,6,4,1460,2082,1,992,254,33580,0,65700,0,0,0,0,0
o,0x00000000,1717626222.173141,172.16.3.2,5101,172.16.1.2,47476,10499,14480,0,65728,65700,6,6,4,1460,2082,1,993,254,33580,0,65700,1448,0,0,0,0
i,0x00000000,1717626222.183568,172.16.3.2,5101,172.16.1.2,47476,10499,14480,0,65728,65700,6,6,4,1460,2082,1,992,254,33580,0,65700,0,0,0,0,0
i,0x00000000,1717626222.193721,172.16.3.2,5101,172.16.1.2,47476,10499,14480,0,65728,65700,6,6,4,1460,2082,1,992,254,33580,0,65700,0,0,0,0,0
o,0x00000000,1717626222.193727,172.16.3.2,5101,172.16.1.2,47476,10499,14480,0,65728,65700,6,6,4,1460,2082,1,993,254,33580,0,65700,1448,0,0,0,0
i,0x00000000,1717626222.213410,172.16.3.2,5101,172.16.1.2,47476,10499,14480,0,65728,65700,6,6,4,1460,2082,1,992,254,33580,0,65700,0,0,0,0,0
i,0x00000000,1717626222.222973,172.16.3.2,5101,172.16.1.2,47476,10499,14480,0,65728,65700,6,6,4,1460,2082,1,992,254,33580,0,65700,0,0,0,0,0
o,0x00000000,1717626222.222980,172.16.3.2,5101,172.16.1.2,47476,10499,14480,0,65728,65700,6,6,4,1460,2082,1,993,254,33580,0,65700,1448,0,0,0,0
i,0x00000000,1717626222.233321,172.16.3.2,5101,172.16.1.2,47476,10499,14480,0,65728,65700,6,6,4,1460,2082,1,992,254,33580,0,65700,0,0,0,0,0
i,0x00000000,1717626222.243755,172.16.3.2,5101,172.16.1.2,47476,10499,14480,0,65728,65700,6,6,4,1460,2082,1,992,254,33580,0,65700,0,0,0,0,0
o,0x00000000,1717626222.243762,172.16.3.2,5101,172.16.1.2,47476,10499,14480,0,65728,65700,6,6,4,1460,2082,1,993,254,33580,0,65700,1448,0,0,0,0
i,0x00000000,1717626222.253836,172.16.3.2,5101,172.16.1.2,47476,10499,14480,0,65728,65700,6,6,4,1460,2082,1,992,254,33580,0,65700,0,0,0,0,0
i,0x00000000,1717626222.273933,172.16.3.2,5101,172.16.1.2,47476,10499,14480,0,65728,65700,6,6,4,1460,2082,1,992,254,33580,0,65700,0,0,0,0,0
o,0x00000000,1717626222.273943,172.16.3.2,5101,172.16.1.2,47476,10499,14480,0,65728,65700,6,6,4,1460,2082,1,993,254,33580,0,65700,1448,0,0,0,0
i,0x00000000,1717626222.282881,172.16.3.2,5101,172.16.1.2,47476,10499,14480,0,65728,65700,6,6,4,1460,2082,1,992,254,33580,0,65700,0,0,0,0,0
i,0x00000000,1717626222.313059,172.16.3.2,5101,172.16.1.2,47476,10499,14480,0,65728,65700,6,6,4,1460,2082,1,992,254,33580,0,65700,0,0,0,0,0
o,0x00000000,1717626222.313071,172.16.3.2,5101,172.16.1.2,47476,10499,14480,0,65728,65700,6,6,4,1460,2082,1,993,254,33580,0,65700,1448,0,0,0,0
i,0x00000000,1717626222.333663,172.16.3.2,5101,172.16.1.2,47476,10499,14480,0,65728,65700,6,6,4,1460,2082,1,992,254,33580,0,65700,0,0,0,0,0
i,0x00000000,1717626222.343032,172.16.3.2,5101,172.16.1.2,47476,10499,14480,0,65728,65700,6,6,4,1460,2082,1,992,254,33580,0,65700,0,0,0,0,0
o,0x00000000,1717626222.343041,172.16.3.2,5101,172.16.1.2,47476,10499,14480,0,65728,65700,6,6,4,1460,2082,1,993,254,33580,0,65700,1448,0,0,0,0
i,0x00000000,1717626222.353513,172.16.3.2,5101,172.16.1.2,47476,10499,14480,0,65728,65700,6,6,4,1460,2082,1,992,254,33580,0,65700,0,0,0,0,0
i,0x00000000,1717626222.363789,172.16.3.2,5101,172.16.1.2,47476,10499,14480,0,65728,65700,6,6,4,1460,2082,1,992,254,33580,0,65700,0,0,0,0,0
o,0x00000000,1717626222.363798,172.16.3.2,5101,172.16.1.2,47476,10499,14480,0,65728,65700,6,6,4,1460,2082,1,993,254,33580,0,65700,1448,0,0,0,0
i,0x00000000,1717626222.383900,172.16.3.2,5101,172.16.1.2,47476,10499,14480,0,65728,65700,6,6,4,1460,2082,1,992,254,33580,0,65700,0,0,0,0,0
o,0x00000000,1717626222.419946,172.16.3.2,5101,172.16.1.2,47476,10499,14480,0,65728,65700,6,6,4,1460,2082,1,993,254,33580,0,65700,0,0,0,0,0
i,0x00000000,1717626222.562493,172.16.3.2,5101,172.16.1.2,47476,10499,14480,0,65728,65700,6,6,4,1460,2082,1,992,254,33580,0,65700,0,0,0,0,0
o,0x00000000,1717626222.562587,172.16.3.2,5101,172.16.1.2,47476,10499,14480,0,65728,65700,6,6,4,1460,2082,1,992,254,33580,0,98550,0,0,0,0,0
i,0x00000000,1717626222.572849,172.16.3.2,5101,172.16.1.2,47476,10499,14480,0,65728,65700,6,6,4,1460,2082,1,992,254,33580,0,98550,0,0,0,0,0
o,0x00000000,1717626222.609840,172.16.3.2,5101,172.16.1.2,47476,10499,14480,0,65728,65700,6,6,4,1460,2082,1,993,254,33580,0,98550,0,0,0,0,0
i,0x00000000,1717626222.632248,172.16.3.2,5101,172.16.1.2,47476,10499,14480,0,65728,65700,6,6,4,1460,2082,1,992,254,33580,0,98550,0,0,0,0,0
i,0x00000000,1717626222.653912,172.16.3.2,5101,172.16.1.2,47476,10499,14480,0,65728,65700,6,6,4,1460,2082,1,992,254,33580,0,98550,0,0,0,0,0
o,0x00000000,1717626222.653924,172.16.3.2,5101,172.16.1.2,47476,10499,14480,0,65728,65700,6,6,4,1460,2082,1,993,254,33580,0,98550,1448,0,0,0,0
i,0x00000000,1717626222.663277,172.16.3.2,5101,172.16.1.2,47476,10499,14480,0,65728,65700,6,6,4,1460,2082,1,992,254,33580,0,98550,0,0,0,0,0
i,0x00000000,1717626222.672526,172.16.3.2,5101,172.16.1.2,47476,10499,14480,0,65728,65700,6,6,4,1460,2082,1,992,254,33580,0,98550,0,0,0,0,0
o,0x00000000,1717626222.672534,172.16.3.2,5101,172.16.1.2,47476,10499,14480,0,65728,65700,6,6,4,1460,2082,1,993,254,33580,0,98550,1448,0,0,0,0
i,0x00000000,1717626222.682989,172.16.3.2,5101,172.16.1.2,47476,10499,14480,0,65728,65700,6,6,4,1460,2082,1,992,254,33580,0,98550,0,0,0,0,0
i,0x00000000,1717626222.693344,172.16.3.2,5101,172.16.1.2,47476,10499,14480,0,65728,65700,6,6,4,1460,2082,1,992,254,33580,0,98550,0,0,0,0,0
o,0x00000000,1717626222.693353,172.16.3.2,5101,172.16.1.2,47476,10499,14480,0,65728,65700,6,6,4,1460,2082,1,993,254,33580,0,98550,1448,0,0,0,0
i,0x00000000,1717626222.713016,172.16.3.2,5101,172.16.1.2,47476,10499,14480,0,65728,65700,6,6,4,1460,2082,1,992,254,33580,0,98550,0,0,0,0,0
i,0x00000000,1717626222.723350,172.16.3.2,5101,172.16.1.2,47476,10499,14480,0,65728,65700,6,6,4,1460,2082,1,992,254,33580,0,98550,0,0,0,0,0
o,0x00000000,1717626222.723359,172.16.3.2,5101,172.16.1.2,47476,10499,14480,0,65728,65700,6,6,4,1460,2082,1,993,254,33580,0,98550,1448,0,0,0,0
i,0x00000000,1717626222.733665,172.16.3.2,5101,172.16.1.2,47476,10499,14480,0,65728,65700,6,6,4,1460,2082,1,992,254,33580,0,98550,0,0,0,0,0
i,0x00000000,1717626222.743000,172.16.3.2,5101,172.16.1.2,47476,10499,14480,0,65728,65700,6,6,4,1460,2082,1,992,254,33580,0,98550,0,0,0,0,0
o,0x00000000,1717626222.743008,172.16.3.2,5101,172.16.1.2,47476,10499,14480,0,65728,65700,6,6,4,1460,2082,1,993,254,33580,0,98550,1448,0,0,0,0
i,0x00000000,1717626222.753273,172.16.3.2,5101,172.16.1.2,47476,10499,14480,0,65728,65700,6,6,4,1460,2082,1,992,254,33580,0,98550,0,0,0,0,0
i,0x00000000,1717626222.772807,172.16.3.2,5101,172.16.1.2,47476,10499,14480,0,65728,65700,6,6,4,1460,2082,1,992,254,33580,0,98550,0,0,0,0,0
o,0x00000000,1717626222.772815,172.16.3.2,5101,172.16.1.2,47476,10499,14480,0,65728,65700,6,6,4,1460,2082,1,993,254,33580,0,98550,1448,0,0,0,0
i,0x00000000,1717626222.803080,172.16.3.2,5101,172.16.1.2,47476,10499,14480,0,65728,65700,6,6,4,1460,2082,1,992,254,33580,0,98550,0,0,0,0,0
i,0x00000000,1717626222.813188,172.16.3.2,5101,172.16.1.2,47476,10499,14480,0,65728,65700,6,6,4,1460,2082,1,992,254,33580,0,98550,0,0,0,0,0
o,0x00000000,1717626222.813197,172.16.3.2,5101,172.16.1.2,47476,10499,14480,0,65728,65700,6,6,4,1460,2082,1,993,254,33580,0,98550,1448,0,0,0,0
i,0x00000000,1717626222.832377,172.16.3.2,5101,172.16.1.2,47476,10499,14480,0,65728,65700,6,6,4,1460,2082,1,992,254,33580,0,98550,0,0,0,0,0
i,0x00000000,1717626222.842824,172.16.3.2,5101,172.16.1.2,47476,10499,14480,0,65728,65700,6,6,4,1460,2082,1,992,254,33580,0,98550,0,0,0,0,0
o,0x00000000,1717626222.842837,172.16.3.2,5101,172.16.1.2,47476,10499,14480,0,65728,65700,6,6,4,1460,2082,1,993,254,33580,0,98550,1448,0,0,0,0
i,0x00000000,1717626222.853134,172.16.3.2,5101,172.16.1.2,47476,10499,14480,0,65728,65700,6,6,4,1460,2082,1,992,254,33580,0,98550,0,0,0,0,0
i,0x00000000,1717626222.873813,172.16.3.2,5101,172.16.1.2,47476,10499,14480,0,65728,65700,6,6,4,1460,2082,1,992,254,33580,0,98550,0,0,0,0,0
o,0x00000000,1717626222.873824,172.16.3.2,5101,172.16.1.2,47476,10499,14480,0,65728,65700,6,6,4,1460,2082,1,993,254,33580,0,98550,1448,0,0,0,0
o,0x00000000,1717626222.980836,10.0.2.15,22,10.0.2.2,61555,1073725440,14600,0,65535,65700,0,0,4,1460,1,0,4,24,33580,108,65700,0,0,0,0,0
i,0x00000000,1717626222.981754,10.0.2.15,22,10.0.2.2,61555,1073725440,14600,0,65535,65700,0,0,4,1460,1,0,4,24,33580,108,65700,0,108,0,0,0
i,0x00000000,1717626223.082795,172.16.3.2,5101,172.16.1.2,47476,10499,14480,0,65728,65700,6,6,4,1460,2082,1,992,254,33580,0,98550,0,0,0,0,0
i,0x00000000,1717626223.094004,172.16.3.2,5101,172.16.1.2,47476,10499,14480,0,65728,65700,6,6,4,1460,2082,1,992,254,33580,0,98550,0,0,0,0,0
o,0x00000000,1717626223.094019,172.16.3.2,5101,172.16.1.2,47476,10499,14480,0,65728,65700,6,6,4,1460,2082,1,993,254,33580,0,98550,1448,0,0,0,0
i,0x00000000,1717626223.152564,172.16.3.2,5101,172.16.1.2,47476,10499,14480,0,65728,65700,6,6,4,1460,2082,1,992,254,33580,0,98550,0,0,0,0,0
i,0x00000000,1717626223.163065,172.16.3.2,5101,172.16.1.2,47476,10499,14480,0,65728,65700,6,6,4,1460,2082,1,992,254,33580,0,98550,0,0,0,0,0
o,0x00000000,1717626223.163079,172.16.3.2,5101,172.16.1.2,47476,10499,14480,0,65728,65700,6,6,4,1460,2082,1,993,254,33580,0,98550,1448,0,0,0,0
i,0x00000000,1717626223.172779,172.16.3.2,5101,172.16.1.2,47476,10499,14480,0,65728,65700,6,6,4,1460,2082,1,992,254,33580,0,98550,0,0,0,0,0
i,0x00000000,1717626223.182685,172.16.3.2,5101,172.16.1.2,47476,10499,14480,0,65728,65700,6,6,4,1460,2082,1,992,254,33580,0,98550,0,0,0,0,0
o,0x00000000,1717626223.182698,172.16.3.2,5101,172.16.1.2,47476,10499,14480,0,65728,65700,6,6,4,1460,2082,1,993,254,33580,0,98550,1448,0,0,0,0
i,0x00000000,1717626223.203387,172.16.3.2,5101,172.16.1.2,47476,10499,14480,0,65728,65700,6,6,4,1460,2082,1,992,254,33580,0,98550,0,0,0,0,0
i,0x00000000,1717626223.212743,172.16.3.2,5101,172.16.1.2,47476,10499,14480,0,65728,65700,6,6,4,1460,2082,1,992,254,33580,0,98550,0,0,0,0,0
o,0x00000000,1717626223.212751,172.16.3.2,5101,172.16.1.2,47476,10499,14480,0,65728,65700,6,6,4,1460,2082,1,993,254,33580,0,98550,1448,0,0,0,0
i,0x00000000,1717626223.223042,172.16.3.2,5101,172.16.1.2,47476,10499,14480,0,65728,65700,6,6,4,1460,2082,1,992,254,33580,0,98550,0,0,0,0,0
i,0x00000000,1717626223.233362,172.16.3.2,5101,172.16.1.2,47476,10499,14480,0,65728,65700,6,6,4,1460,2082,1,992,254,33580,0,98550,0,0,0,0,0
o,0x00000000,1717626223.233370,172.16.3.2,5101,172.16.1.2,47476,10499,14480,0,65728,65700,6,6,4,1460,2082,1,993,254,33580,0,98550,1448,0,0,0,0
i,0x00000000,1717626223.242558,172.16.3.2,5101,172.16.1.2,47476,10499,14480,0,65728,65700,6,6,4,1460,2082,1,992,254,33580,0,98550,0,0,0,0,0
i,0x00000000,1717626223.262214,172.16.3.2,5101,172.16.1.2,47476,10499,14480,0,65728,65700,6,6,4,1460,2082,1,992,254,33580,0,98550,0,0,0,0,0
o,0x00000000,1717626223.262222,172.16.3.2,5101,172.16.1.2,47476,10499,14480,0,65728,65700,6,6,4,1460,2082,1,993,254,33580,0,98550,1448,0,0,0,0
i,0x00000000,1717626223.273533,172.16.3.2,5101,172.16.1.2,47476,10499,14480,0,65728,65700,6,6,4,1460,2082,1,992,254,33580,0,98550,0,0,0,0,0
i,0x00000000,1717626223.283043,172.16.3.2,5101,172.16.1.2,47476,10499,14480,0,65728,65700,6,6,4,1460,2082,1,992,254,33580,0,98550,0,0,0,0,0
o,0x00000000,1717626223.283068,172.16.3.2,5101,172.16.1.2,47476,10499,14480,0,65728,65700,6,6,4,1460,2082,1,993,254,33580,0,98550,1448,0,0,0,0
i,0x00000000,1717626223.293232,172.16.3.2,5101,172.16.1.2,47476,10499,14480,0,65728,65700,6,6,4,1460,2082,1,992,254,33580,0,98550,0,0,0,0,0
i,0x00000000,1717626223.303642,172.16.3.2,5101,172.16.1.2,47476,10499,14480,0,65728,65700,6,6,4,1460,2082,1,992,254,33580,0,98550,0,0,0,0,0
o,0x00000000,1717626223.303651,172.16.3.2,5101,172.16.1.2,47476,10499,14480,0,65728,65700,6,6,4,1460,2082,1,993,254,33580,0,98550,1448,0,0,0,0
i,0x00000000,1717626223.322284,172.16.3.2,5101,172.16.1.2,47476,10499,14480,0,65728,65700,6,6,4,1460,2082,1,992,254,33580,0,98550,0,0,0,0,0
i,0x00000000,1717626223.332503,172.16.3.2,5101,172.16.1.2,47476,10499,14480,0,65728,65700,6,6,4,1460,2082,1,992,254,33580,0,98550,0,0,0,0,0
o,0x00000000,1717626223.332512,172.16.3.2,5101,172.16.1.2,47476,10499,14480,0,65728,65700,6,6,4,1460,2082,1,993,254,33580,0,98550,1448,0,0,0,0
i,0x00000000,1717626223.342956,172.16.3.2,5101,172.16.1.2,47476,10499,14480,0,65728,65700,6,6,4,1460,2082,1,992,254,33580,0,98550,0,0,0,0,0
i,0x00000000,1717626223.353115,172.16.3.2,5101,172.16.1.2,47476,10499,14480,0,65728,65700,6,6,4,1460,2082,1,992,254,33580,0,98550,0,0,0,0,0
o,0x00000000,1717626223.353124,172.16.3.2,5101,172.16.1.2,47476,10499,14480,0,65728,65700,6,6,4,1460,2082,1,993,254,33580,0,98550,1448,0,0,0,0
i,0x00000000,1717626223.393451,172.16.3.2,5101,172.16.1.2,47476,10499,14480,0,65728,65700,6,6,4,1460,2082,1,992,254,33580,0,98550,0,0,0,0,0
i,0x00000000,1717626223.424359,172.16.3.2,5101,172.16.1.2,47476,10499,14480,0,65728,65700,6,6,4,1460,2082,1,992,254,33580,0,98550,0,0,0,0,0
o,0x00000000,1717626223.424372,172.16.3.2,5101,172.16.1.2,47476,10499,14480,0,65728,65700,6,6,4,1460,2082,1,993,254,33580,0,98550,1448,0,0,0,0
i,0x00000000,1717626223.692856,172.16.3.2,5101,172.16.1.2,47476,10499,14480,0,65728,65700,6,6,4,1460,2082,1,992,254,33580,0,98550,0,0,0,0,0
i,0x00000000,1717626223.703164,172.16.3.2,5101,172.16.1.2,47476,10499,14480,0,65728,65700,6,6,4,1460,2082,1,992,254,33580,0,98550,0,0,0,0,0
o,0x00000000,1717626223.703176,172.16.3.2,5101,172.16.1.2,47476,10499,14480,0,65728,65700,6,6,4,1460,2082,1,993,254,33580,0,98550,1448,0,0,0,0
i,0x00000000,1717626223.712483,172.16.3.2,5101,172.16.1.2,47476,10499,14480,0,65728,65700,6,6,4,1460,2082,1,992,254,33580,0,98550,0,0,0,0,0
i,0x00000000,1717626223.722822,172.16.3.2,5101,172.16.1.2,47476,10499,14480,0,65728,65700,6,6,4,1460,2082,1,992,254,33580,0,98550,0,0,0,0,0
o,0x00000000,1717626223.722832,172.16.3.2,5101,172.16.1.2,47476,10499,14480,0,65728,65700,6,6,4,1460,2082,1,993,254,33580,0,98550,1448,0,0,0,0
i,0x00000000,1717626223.733177,172.16.3.2,5101,172.16.1.2,47476,10499,14480,0,65728,65700,6,6,4,1460,2082,1,992,254,33580,0,98550,0,0,0,0,0
i,0x00000000,1717626223.752933,172.16.3.2,5101,172.16.1.2,47476,10499,14480,0,65728,65700,6,6,4,1460,2082,1,992,254,33580,0,98550,0,0,0,0,0
o,0x00000000,1717626223.752942,172.16.3.2,5101,172.16.1.2,47476,10499,14480,0,65728,65700,6,6,4,1460,2082,1,993,254,33580,0,98550,1448,0,0,0,0
i,0x00000000,1717626223.763009,172.16.3.2,5101,172.16.1.2,47476,10499,14480,0,65728,65700,6,6,4,1460,2082,1,992,254,33580,0,98550,0,0,0,0,0
i,0x00000000,1717626223.772509,172.16.3.2,5101,172.16.1.2,47476,10499,14480,0,65728,65700,6,6,4,1460,2082,1,992,254,33580,0,98550,0,0,0,0,0
o,0x00000000,1717626223.772517,172.16.3.2,5101,172.16.1.2,47476,10499,14480,0,65728,65700,6,6,4,1460,2082,1,993,254,33580,0,98550,1448,0,0,0,0
i,0x00000000,1717626223.782393,172.16.3.2,5101,172.16.1.2,47476,10499,14480,0,65728,65700,6,6,4,1460,2082,1,992,254,33580,0,98550,0,0,0,0,0
i,0x00000000,1717626223.792790,172.16.3.2,5101,172.16.1.2,47476,10499,14480,0,65728,65700,6,6,4,1460,2082,1,992,254,33580,0,98550,0,0,0,0,0
o,0x00000000,1717626223.792801,172.16.3.2,5101,172.16.1.2,47476,10499,14480,0,65728,65700,6,6,4,1460,2082,1,993,254,33580,0,98550,1448,0,0,0,0
i,0x00000000,1717626223.812574,172.16.3.2,5101,172.16.1.2,47476,10499,14480,0,65728,65700,6,6,4,1460,2082,1,992,254,33580,0,98550,0,0,0,0,0
