enable_time_secs=1718137074	enable_time_usecs=315916	siftrver=1.2.4	hz=100	tcp_rtt_scale=32	sysname=FreeBSD	sysver=1301000	ipmode=4
o,0x00000000,1718137074.315963,10.0.2.15,22,10.0.2.2,63798,1073725440,17298,0,65535,65700,0,0,4,1460,1,0,4,24,33580,44,65700,0,0,0,0,0
i,0x00000000,1718137074.316421,10.0.2.15,22,10.0.2.2,63798,1073725440,17298,0,65535,65700,0,0,4,1460,1,0,4,24,33580,44,65700,0,44,0,0,0
o,0x00000000,1718137074.316509,10.0.2.15,22,10.0.2.2,63798,1073725440,17342,0,65535,65700,0,0,4,1460,1,0,4,24,33580,36,65700,0,0,0,0,0
i,0x00000000,1718137074.317181,10.0.2.15,22,10.0.2.2,63798,1073725440,17342,0,65535,65700,0,0,4,1460,1,0,4,24,33580,36,65700,0,36,0,0,0
o,0x00000000,1718137074.317242,10.0.2.15,22,10.0.2.2,63798,1073725440,17378,0,65535,65700,0,0,4,1460,1,0,4,24,33580,36,65700,0,0,0,0,0
i,0x00000000,1718137074.317646,10.0.2.15,22,10.0.2.2,63798,1073725440,17378,0,65535,65700,0,0,4,1460,1,0,4,24,33580,36,65700,0,36,0,0,0
o,0x00000000,1718137074.317846,10.0.2.15,22,10.0.2.2,63798,1073725440,17414,0,65535,65700,0,0,4,1460,1,0,4,24,33580,176,65700,0,0,0,0,0
i,0x00000000,1718137074.318276,10.0.2.15,22,10.0.2.2,63798,1073725440,17414,0,65535,65700,0,0,4,1460,1,0,4,24,33580,176,65700,0,176,0,0,0
i,0x00000000,1718137074.321191,10.0.2.15,22,10.0.2.2,63798,1073725440,17590,0,65535,65700,0,0,4,1460,1,0,4,24,33580,0,65700,0,0,0,0,0
i,0x00000000,1718137074.321196,10.0.2.15,22,10.0.2.2,63798,1073725440,17590,0,65535,65700,0,0,4,1460,1,0,4,24,33580,0,65700,96,0,0,0,0
o,0x00000000,1718137074.321199,10.0.2.15,22,10.0.2.2,63798,1073725440,17590,0,65535,65604,0,0,5,1460,1,0,5,24,33580,0,65700,96,0,0,0,0
o,0x00000000,1718137074.321555,10.0.2.15,22,10.0.2.2,63798,1073725440,17590,0,65535,65604,0,0,8,1460,1,0,4,24,33580,0,65700,0,0,0,0,0
i,0x00000000,1718137074.322201,10.0.2.15,22,10.0.2.2,63798,1073725440,17590,0,65535,65604,0,0,8,1460,1,0,20,24,33580,0,65700,0,1,0,0,0
i,0x00000000,1718137076.408360,10.0.2.15,22,10.0.2.2,63802,1073725440,14600,0,65535,65700,0,0,4,1460,1,0,0,27,33580,0,65700,0,0,0,0,0
o,0x00000000,1718137076.414675,10.0.2.15,22,10.0.2.2,63802,1073725440,14600,0,65535,65700,0,0,4,1460,1,0,0,27,33580,38,65700,41,0,0,0,0
i,0x00000000,1718137076.415347,10.0.2.15,22,10.0.2.2,63802,1073725440,14600,0,65535,65700,0,0,4,1460,1,0,0,27,33580,38,65700,41,38,0,0,0
i,0x00000000,1718137076.415740,10.0.2.15,22,10.0.2.2,63802,1073725440,14638,0,65535,65700,0,0,4,1460,1,0,0,24,33580,0,65700,0,0,0,0,0
i,0x00000000,1718137076.415742,10.0.2.15,22,10.0.2.2,63802,1073725440,14638,0,65535,65700,0,0,4,1460,1,0,0,24,33580,0,65700,1460,0,0,0,0
o,0x00000000,1718137076.415745,10.0.2.15,22,10.0.2.2,63802,1073725440,14638,0,65535,65700,0,0,4,1460,1,0,1,24,33580,0,65700,1536,0,0,0,0
o,0x00000000,1718137076.416440,10.0.2.15,22,10.0.2.2,63802,1073725440,14638,0,65535,65700,0,0,4,1460,1,0,0,24,33580,1056,65700,1536,0,0,0,0
i,0x00000000,1718137076.417269,10.0.2.15,22,10.0.2.2,63802,1073725440,14638,0,65535,65700,0,0,4,1460,1,0,0,24,33580,1056,65700,1536,1056,0,0,0
i,0x00000000,1718137076.418834,10.0.2.15,22,10.0.2.2,63802,1073725440,15694,0,65535,65700,0,0,4,1460,1,0,0,24,33580,0,65700,0,0,0,0,0
o,0x00000000,1718137076.421237,10.0.2.15,22,10.0.2.2,63802,1073725440,15694,0,65535,65700,0,0,4,1460,1,0,0,24,33580,484,65700,0,0,0,0,0
i,0x00000000,1718137076.422080,10.0.2.15,22,10.0.2.2,63802,1073725440,15694,0,65535,65700,0,0,4,1460,1,0,0,24,33580,484,65700,0,484,0,0,0
i,0x00000000,1718137076.426906,10.0.2.15,22,10.0.2.2,63802,1073725440,16178,0,65535,65700,0,0,4,1460,1,0,0,24,33580,0,65700,0,0,0,0,0
i,0x00000000,1718137076.431087,10.0.2.15,22,10.0.2.2,63802,1073725440,16178,0,65535,65700,0,0,4,1460,1,0,0,24,33580,0,65700,0,0,0,0,0
o,0x00000000,1718137076.431092,10.0.2.15,22,10.0.2.2,63802,1073725440,16178,0,65535,65700,0,0,4,1460,1,0,1,24,33580,0,65700,44,0,0,0,0
o,0x00000000,1718137076.431229,10.0.2.15,22,10.0.2.2,63802,1073725440,16178,0,65535,65700,0,0,4,1460,1,0,0,24,33580,44,65700,0,0,0,0,0
i,0x00000000,1718137076.431872,10.0.2.15,22,10.0.2.2,63802,1073725440,16178,0,65535,65700,0,0,4,1460,1,0,0,24,33580,44,65700,0,44,0,0,0
i,0x00000000,1718137076.432220,10.0.2.15,22,10.0.2.2,63802,1073725440,16222,0,65535,65700,0,0,4,1460,1,0,0,24,33580,0,65700,0,0,0,0,0
o,0x00000000,1718137076.441202,10.0.2.15,22,10.0.2.2,63802,1073725440,16222,0,65535,65700,0,0,4,1460,1,0,0,24,33580,68,65700,0,0,0,0,0
i,0x00000000,1718137076.441833,10.0.2.15,22,10.0.2.2,63802,1073725440,16222,0,65535,65700,0,0,4,1460,1,0,0,24,33580,68,65700,0,68,0,0,0
i,0x00000000,1718137076.444180,10.0.2.15,22,10.0.2.2,63802,1073725440,16290,0,65535,65700,0,0,4,1460,1,0,0,24,33580,0,65700,0,0,0,0,0
o,0x00000000,1718137076.454015,10.0.2.15,22,10.0.2.2,63802,1073725440,16290,0,65535,65700,0,0,4,1460,1,0,0,24,33580,28,65700,0,0,0,0,0
i,0x00000000,1718137076.454676,10.0.2.15,22,10.0.2.2,63802,1073725440,16290,0,65535,65700,0,0,4,1460,1,0,0,24,33580,28,65700,0,28,0,0,0
i,0x00000000,1718137076.455307,10.0.2.15,22,10.0.2.2,63802,1073725440,16318,0,65535,65700,0,0,4,1460,1,0,0,24,33580,0,65700,0,0,0,0,0
o,0x00000000,1718137076.455813,10.0.2.15,22,10.0.2.2,63802,1073725440,16318,0,65535,65700,0,0,4,1460,1,0,0,24,33580,768,65700,112,0,0,0,0
i,0x00000000,1718137076.456700,10.0.2.15,22,10.0.2.2,63802,1073725440,16318,0,65535,65700,0,0,4,1460,1,0,0,24,33580,768,65700,112,768,0,0,0
o,0x00000000,1718137076.456797,10.0.2.15,22,10.0.2.2,63802,1073725440,17086,0,65535,65700,0,0,4,1460,1,0,0,24,33580,44,65700,0,0,0,0,0
i,0x00000000,1718137076.457482,10.0.2.15,22,10.0.2.2,63802,1073725440,17086,0,65535,65700,0,0,4,1460,1,0,0,24,33580,44,65700,0,44,0,0,0
i,0x00000000,1718137076.458282,10.0.2.15,22,10.0.2.2,63802,1073725440,17130,0,65535,65700,0,0,4,1460,1,0,0,24,33580,0,65700,0,0,0,0,0
o,0x00000000,1718137076.458548,10.0.2.15,22,10.0.2.2,63802,1073725440,17130,0,65535,65700,0,0,4,1460,1,0,4,24,33580,72,65700,0,0,0,0,0
i,0x00000000,1718137076.459201,10.0.2.15,22,10.0.2.2,63802,1073725440,17130,0,65535,65700,0,0,4,1460,1,0,4,24,33580,72,65700,0,72,0,0,0
o,0x00000000,1718137076.461836,10.0.2.15,22,10.0.2.2,63802,1073725440,17202,0,65535,65700,0,0,4,1460,1,0,4,24,33580,44,65700,0,0,0,0,0
i,0x00000000,1718137076.462381,10.0.2.15,22,10.0.2.2,63802,1073725440,17202,0,65535,65700,0,0,4,1460,1,0,4,24,33580,44,65700,0,44,0,0,0
o,0x00000000,1718137076.462789,10.0.2.15,22,10.0.2.2,63802,1073725440,17246,0,65535,65700,0,0,4,1460,1,0,4,24,33580,44,65700,0,0,0,0,0
i,0x00000000,1718137076.463218,10.0.2.15,22,10.0.2.2,63802,1073725440,17246,0,65535,65700,0,0,4,1460,1,0,4,24,33580,44,65700,0,44,0,0,0
o,0x00000000,1718137076.464405,10.0.2.15,22,10.0.2.2,63802,1073725440,17290,0,65535,65700,0,0,4,1460,1,0,4,24,33580,176,65700,0,0,0,0,0
i,0x00000000,1718137076.464838,10.0.2.15,22,10.0.2.2,63802,1073725440,17290,0,65535,65700,0,0,4,1460,1,0,4,24,33580,176,65700,0,176,0,0,0
i,0x00000000,1718137076.465970,10.0.2.15,22,10.0.2.2,63802,1073725440,17466,0,65535,65700,0,0,4,1460,1,0,4,24,33580,0,65700,0,0,0,0,0
i,0x00000000,1718137076.465974,10.0.2.15,22,10.0.2.2,63802,1073725440,17466,0,65535,65700,0,0,4,1460,1,0,4,24,33580,0,65700,36,0,0,0,0
o,0x00000000,1718137076.465976,10.0.2.15,22,10.0.2.2,63802,1073725440,17466,0,65535,65700,0,0,4,1460,1,0,5,24,33580,0,65700,96,0,0,0,0
i,0x00000000,1718137076.466053,10.0.2.15,22,10.0.2.2,63802,1073725440,17466,0,65535,65700,0,0,4,1460,1,0,4,24,33580,0,65700,96,0,0,0,0
o,0x00000000,1718137076.466056,10.0.2.15,22,10.0.2.2,63802,1073725440,17466,0,65535,65604,0,0,5,1460,1,0,7,24,33580,0,65700,96,0,0,0,0
o,0x00000000,1718137076.472954,10.0.2.15,22,10.0.2.2,63802,1073725440,17466,0,65535,65604,0,0,8,1460,1,0,4,24,33580,0,65700,0,0,0,0,0
i,0x00000000,1718137076.473549,10.0.2.15,22,10.0.2.2,63802,1073725440,17466,0,65535,65604,0,0,8,1460,1,0,20,24,33580,0,65700,0,1,0,0,0
i,0x00000000,1718137076.704473,172.16.3.2,5101,172.16.1.2,34821,10474,14480,0,65728,65700,6,6,4,1460,421,1,992,43,33580,0,65700,0,0,0,0,0
o,0x00000000,1718137076.704554,172.16.3.2,5101,172.16.1.2,34821,10474,14480,0,65728,65700,6,6,4,1460,421,1,996,43,33580,1,65700,0,0,0,0,0
i,0x00000000,1718137076.824964,172.16.3.2,5101,172.16.1.2,34821,10474,14480,0,65728,65700,6,6,4,1460,421,1,996,43,33580,1,65700,0,1,0,0,0
i,0x00000000,1718137076.824979,172.16.3.2,5101,172.16.1.2,34821,10474,14480,0,65728,65728,6,6,4,1460,413,1,996,42,33580,0,65700,4,0,0,0,0
o,0x00000000,1718137076.824987,172.16.3.2,5101,172.16.1.2,34821,10474,14480,0,65728,65728,6,6,4,1460,413,1,997,42,33580,0,65700,128,0,0,0,0
o,0x00000000,1718137076.825366,172.16.3.2,5101,172.16.1.2,34821,10474,14480,0,65728,65728,6,6,4,1460,413,1,996,42,33580,1,65700,0,0,0,0,0
o,0x00000000,1718137076.825523,10.0.2.15,22,10.0.2.2,56402,1073725440,14600,0,65535,65700,0,0,4,1460,0,0,4,23,33580,84,65700,0,0,0,0,0
i,0x00000000,1718137076.826248,10.0.2.15,22,10.0.2.2,56402,1073725440,14600,0,65535,65700,0,0,4,1460,0,0,4,23,33580,84,65700,0,84,0,0,0
i,0x00000000,1718137076.975607,172.16.3.2,5101,172.16.1.2,34821,10474,14480,0,65728,65728,6,6,4,1460,413,1,996,42,33580,1,65700,0,1,0,0,0
i,0x00000000,1718137077.064684,172.16.3.2,5101,172.16.1.2,17792,10474,14480,0,65728,65700,6,6,4,1460,421,1,992,43,33580,0,65700,0,0,0,0,0
o,0x00000000,1718137077.067086,172.16.3.2,5101,172.16.1.2,34821,10474,14480,0,65728,65728,6,6,4,1460,422,1,996,42,33580,1,65700,0,0,0,0,0
o,0x00000000,1718137077.067186,172.16.3.2,5101,172.16.1.2,34821,10474,14480,0,65728,65728,6,6,4,1460,422,1,996,42,33580,2,65700,0,1,0,0,0
o,0x00000000,1718137077.067851,10.0.2.15,22,10.0.2.2,56402,1073725440,14600,0,65535,65700,0,0,4,1460,0,0,4,23,33580,108,65700,0,0,0,0,0
i,0x00000000,1718137077.068582,10.0.2.15,22,10.0.2.2,56402,1073725440,14600,0,65535,65700,0,0,4,1460,0,0,4,23,33580,108,65700,0,108,0,0,0
o,0x00000000,1718137077.100886,172.16.3.2,5101,172.16.1.2,17792,10474,14480,0,65728,65700,6,6,4,1460,421,1,993,43,33580,0,65700,0,0,0,0,0
i,0x00000000,1718137077.186063,172.16.3.2,5101,172.16.1.2,34821,10474,14480,0,65728,65728,6,6,4,1460,422,1,996,42,33580,2,65700,0,2,0,0,0
i,0x00000000,1718137077.285909,172.16.3.2,5101,172.16.1.2,17792,10474,14480,0,65728,65700,6,6,4,1460,421,1,992,43,33580,0,65700,0,0,0,0,0
i,0x00000000,1718137077.296052,172.16.3.2,5101,172.16.1.2,17792,10474,14480,0,65728,65700,6,6,4,1460,421,1,992,43,33580,0,65700,0,0,0,0,0
o,0x00000000,1718137077.296063,172.16.3.2,5101,172.16.1.2,17792,10474,14480,0,65728,65700,6,6,4,1460,421,1,993,43,33580,0,65700,1448,0,0,0,0
i,0x00000000,1718137077.304855,172.16.3.2,5101,172.16.1.2,17792,10474,14480,0,65728,65700,6,6,4,1460,421,1,992,43,33580,0,65700,0,0,0,0,0
i,0x00000000,1718137077.315382,172.16.3.2,5101,172.16.1.2,17792,10474,14480,0,65728,65700,6,6,4,1460,421,1,992,43,33580,0,65700,0,0,0,0,0
o,0x00000000,1718137077.315388,172.16.3.2,5101,172.16.1.2,17792,10474,14480,0,65728,65700,6,6,4,1460,421,1,993,43,33580,0,65700,1448,0,0,0,0
i,0x00000000,1718137077.334990,172.16.3.2,5101,172.16.1.2,17792,10474,14480,0,65728,65700,6,6,4,1460,421,1,992,43,33580,0,65700,0,0,0,0,0
i,0x00000000,1718137077.345841,172.16.3.2,5101,172.16.1.2,17792,10474,14480,0,65728,65700,6,6,4,1460,421,1,992,43,33580,0,65700,0,0,0,0,0
o,0x00000000,1718137077.345847,172.16.3.2,5101,172.16.1.2,17792,10474,14480,0,65728,65700,6,6,4,1460,421,1,993,43,33580,0,65700,1448,0,0,0,0
i,0x00000000,1718137077.355654,172.16.3.2,5101,172.16.1.2,17792,10474,14480,0,65728,65700,6,6,4,1460,421,1,992,43,33580,0,65700,0,0,0,0,0
i,0x00000000,1718137077.365102,172.16.3.2,5101,172.16.1.2,17792,10474,14480,0,65728,65700,6,6,4,1460,421,1,992,43,33580,0,65700,0,0,0,0,0
o,0x00000000,1718137077.365108,172.16.3.2,5101,172.16.1.2,17792,10474,14480,0,65728,65700,6,6,4,1460,421,1,993,43,33580,0,65700,1448,0,0,0,0
i,0x00000000,1718137077.385944,172.16.3.2,5101,172.16.1.2,17792,10474,14480,0,65728,65700,6,6,4,1460,421,1,992,43,33580,0,65700,0,0,0,0,0
i,0x00000000,1718137077.395177,172.16.3.2,5101,172.16.1.2,17792,10474,14480,0,65728,65700,6,6,4,1460,421,1,992,43,33580,0,65700,0,0,0,0,0
o,0x00000000,1718137077.395187,172.16.3.2,5101,172.16.1.2,17792,10474,14480,0,65728,65700,6,6,4,1460,421,1,993,43,33580,0,65700,1448,0,0,0,0
i,0x00000000,1718137077.505343,172.16.3.2,5101,172.16.1.2,17792,10474,14480,0,65728,65700,6,6,4,1460,421,1,992,43,33580,0,65700,0,0,0,0,0
i,0x00000000,1718137077.515681,172.16.3.2,5101,172.16.1.2,17792,10474,14480,0,65728,65700,6,6,4,1460,421,1,992,43,33580,0,65700,0,0,0,0,0
o,0x00000000,1718137077.515691,172.16.3.2,5101,172.16.1.2,17792,10474,14480,0,65728,65700,6,6,4,1460,421,1,993,43,33580,0,65700,1448,0,0,0,0
i,0x00000000,1718137077.576015,172.16.3.2,5101,172.16.1.2,17792,10474,14480,0,65728,65700,6,6,4,1460,421,1,992,43,33580,0,65700,0,0,0,0,0
o,0x00000000,1718137077.610146,172.16.3.2,5101,172.16.1.2,17792,10474,14480,0,65728,65700,6,6,4,1460,421,1,993,43,33580,0,65700,0,0,0,0,0
i,0x00000000,1718137077.615467,172.16.3.2,5101,172.16.1.2,17792,10474,14480,0,65728,65700,6,6,4,1460,421,1,992,43,33580,0,65700,0,0,0,0,0
i,0x00000000,1718137077.627304,172.16.3.2,5101,172.16.1.2,17792,10474,14480,0,65728,65700,6,6,4,1460,421,1,992,43,33580,0,65700,0,0,0,0,0
o,0x00000000,1718137077.627312,172.16.3.2,5101,172.16.1.2,17792,10474,14480,0,65728,65700,6,6,4,1460,421,1,993,43,33580,0,65700,1448,0,0,0,0
i,0x00000000,1718137077.636062,172.16.3.2,5101,172.16.1.2,17792,10474,14480,0,65728,65700,6,6,4,1460,421,1,992,43,33580,0,65700,0,0,0,0,0
o,0x00000000,1718137077.671115,172.16.3.2,5101,172.16.1.2,17792,10474,14480,0,65728,65700,6,6,4,1460,421,1,993,43,33580,0,65700,0,0,0,0,0
i,0x00000000,1718137077.676432,172.16.3.2,5101,172.16.1.2,17792,10474,14480,0,65728,65700,6,6,4,1460,421,1,992,43,33580,0,65700,0,0,0,0,0
i,0x00000000,1718137077.685759,172.16.3.2,5101,172.16.1.2,17792,10474,14480,0,65728,65700,6,6,4,1460,421,1,992,43,33580,0,65700,0,0,0,0,0
o,0x00000000,1718137077.685766,172.16.3.2,5101,172.16.1.2,17792,10474,14480,0,65728,65700,6,6,4,1460,421,1,993,43,33580,0,65700,1448,0,0,0,0
i,0x00000000,1718137077.695102,172.16.3.2,5101,172.16.1.2,17792,10474,14480,0,65728,65700,6,6,4,1460,421,1,992,43,33580,0,65700,0,0,0,0,0
i,0x00000000,1718137077.715777,172.16.3.2,5101,172.16.1.2,17792,10474,14480,0,65728,65700,6,6,4,1460,421,1,992,43,33580,0,65700,0,0,0,0,0
o,0x00000000,1718137077.715785,172.16.3.2,5101,172.16.1.2,17792,10474,14480,0,65728,65700,6,6,4,1460,421,1,993,43,33580,0,65700,1448,0,0,0,0
i,0x00000000,1718137077.726104,172.16.3.2,5101,172.16.1.2,17792,10474,14480,0,65728,65700,6,6,4,1460,421,1,992,43,33580,0,65700,0,0,0,0,0
i,0x00000000,1718137077.736404,172.16.3.2,5101,172.16.1.2,17792,10474,14480,0,65728,65700,6,6,4,1460,421,1,992,43,33580,0,65700,0,0,0,0,0
o,0x00000000,1718137077.736411,172.16.3.2,5101,172.16.1.2,17792,10474,14480,0,65728,65700,6,6,4,1460,421,1,993,43,33580,0,65700,1448,0,0,0,0
i,0x00000000,1718137077.745791,172.16.3.2,5101,172.16.1.2,17792,10474,14480,0,65728,65700,6,6,4,1460,421,1,992,43,33580,0,65700,0,0,0,0,0
o,0x00000000,1718137077.780624,172.16.3.2,5101,172.16.1.2,17792,10474,14480,0,65728,65700,6,6,4,1460,421,1,993,43,33580,0,65700,0,0,0,0,0
i,0x00000000,1718137077.786392,172.16.3.2,5101,172.16.1.2,17792,10474,14480,0,65728,65700,6,6,4,1460,421,1,992,43,33580,0,65700,0,0,0,0,0
i,0x00000000,1718137077.795693,172.16.3.2,5101,172.16.1.2,17792,10474,14480,0,65728,65700,6,6,4,1460,421,1,992,43,33580,0,65700,0,0,0,0,0
o,0x00000000,1718137077.795699,172.16.3.2,5101,172.16.1.2,17792,10474,14480,0,65728,65700,6,6,4,1460,421,1,993,43,33580,0,65700,1448,0,0,0,0
i,0x00000000,1718137077.806032,172.16.3.2,5101,172.16.1.2,17792,10474,14480,0,65728,65700,6,6,4,1460,421,1,992,43,33580,0,65700,0,0,0,0,0
o,0x00000000,1718137077.839662,172.16.3.2,5101,172.16.1.2,17792,10474,14480,0,65728,65700,6,6,4,1460,421,1,993,43,33580,0,65700,0,0,0,0,0
i,0x00000000,1718137077.896471,172.16.3.2,5101,172.16.1.2,17792,10474,14480,0,65728,65700,6,6,4,1460,421,1,992,43,33580,0,65700,0,0,0,0,0
i,0x00000000,1718137077.906770,172.16.3.2,5101,172.16.1.2,17792,10474,14480,0,65728,65700,6,6,4,1460,421,1,992,43,33580,0,65700,0,0,0,0,0
o,0x00000000,1718137077.906781,172.16.3.2,5101,172.16.1.2,17792,10474,14480,0,65728,65700,6,6,4,1460,421,1,993,43,33580,0,65700,1448,0,0,0,0
i,0x00000000,1718137077.955708,172.16.3.2,5101,172.16.1.2,17792,10474,14480,0,65728,65700,6,6,4,1460,421,1,992,43,33580,0,65700,0,0,0,0,0
i,0x00000000,1718137077.966200,172.16.3.2,5101,172.16.1.2,17792,10474,14480,0,65728,65700,6,6,4,1460,421,1,992,43,33580,0,65700,0,0,0,0,0
o,0x00000000,1718137077.966208,172.16.3.2,5101,172.16.1.2,17792,10474,14480,0,65728,65700,6,6,4,1460,421,1,993,43,33580,0,65700,1448,0,0,0,0
i,0x00000000,1718137078.005328,172.16.3.2,5101,172.16.1.2,17792,10474,14480,0,65728,65700,6,6,4,1460,421,1,992,43,33580,0,65700,0,0,0,0,0
i,0x00000000,1718137078.015666,172.16.3.2,5101,172.16.1.2,17792,10474,14480,0,65728,65700,6,6,4,1460,421,1,992,43,33580,0,65700,0,0,0,0,0
o,0x00000000,1718137078.015675,172.16.3.2,5101,172.16.1.2,17792,10474,14480,0,65728,65700,6,6,4,1460,421,1,993,43,33580,0,65700,1448,0,0,0,0
i,0x00000000,1718137078.045375,172.16.3.2,5101,172.16.1.2,17792,10474,14480,0,65728,65700,6,6,4,1460,421,1,992,43,33580,0,65700,0,0,0,0,0
i,0x00000000,1718137078.056189,172.16.3.2,5101,172.16.1.2,17792,10474,14480,0,65728,65700,6,6,4,1460,421,1,992,43,33580,0,65700,0,0,0,0,0
o,0x00000000,1718137078.056198,172.16.3.2,5101,172.16.1.2,17792,10474,14480,0,65728,65700,6,6,4,1460,421,1,993,43,33580,0,65700,1448,0,0,0,0
o,0x00000000,1718137078.071602,10.0.2.15,22,10.0.2.2,56402,1073725440,14600,0,65535,65700,0,0,4,1460,0,0,4,23,33580,156,65700,0,0,0,0,0
i,0x00000000,1718137078.072313,10.0.2.15,22,10.0.2.2,56402,1073725440,14600,0,65535,65700,0,0,4,1460,0,0,4,23,33580,156,65700,0,156,0,0,0
i,0x00000000,1718137078.075894,172.16.3.2,5101,172.16.1.2,17792,10474,14480,0,65728,65700,6,6,4,1460,421,1,992,43,33580,0,65700,0,0,0,0,0
i,0x00000000,1718137078.095552,172.16.3.2,5101,172.16.1.2,17792,10474,14480,0,65728,65700,6,6,4,1460,421,1,992,43,33580,0,65700,0,0,0,0,0
o,0x00000000,1718137078.095560,172.16.3.2,5101,172.16.1.2,17792,10474,14480,0,65728,65700,6,6,4,1460,421,1,993,43,33580,0,65700,1448,0,0,0,0
i,0x00000000,1718137078.105819,172.16.3.2,5101,172.16.1.2,17792,10474,14480,0,65728,65700,6,6,4,1460,421,1,992,43,33580,0,65700,0,0,0,0,0
i,0x00000000,1718137078.135825,172.16.3.2,5101,172.16.1.2,17792,10474,14480,0,65728,65700,6,6,4,1460,421,1,992,43,33580,0,65700,0,0,0,0,0
o,0x00000000,1718137078.135833,172.16.3.2,5101,172.16.1.2,17792,10474,14480,0,65728,65700,6,6,4,1460,421,1,993,43,33580,0,65700,0,0,1,0,0
i,0x00000000,1718137078.156627,172.16.3.2,5101,172.16.1.2,17792,10474,14480,0,65728,65700,6,6,4,1460,421,1,992,43,33580,0,65700,0,0,1,0,0
o,0x00000000,1718137078.156645,172.16.3.2,5101,172.16.1.2,17792,10474,14480,0,65728,65728,6,6,4,1460,421,1,993,43,33580,0,65700,0,0,2,0,0
i,0x00000000,1718137078.185604,172.16.3.2,5101,172.16.1.2,17792,10474,14480,0,65728,65728,6,6,4,1460,421,1,992,43,33580,0,65700,0,0,2,0,0
o,0x00000000,1718137078.185621,172.16.3.2,5101,172.16.1.2,17792,10474,14480,0,65728,65728,6,6,4,1460,421,1,993,43,33580,0,65700,0,0,2,0,0
i,0x00000000,1718137078.216914,172.16.3.2,5101,172.16.1.2,17792,10474,14480,0,65728,65728,6,6,4,1460,421,1,992,43,33580,0,65700,0,0,2,0,0
o,0x00000000,1718137078.216933,172.16.3.2,5101,172.16.1.2,17792,10474,14480,0,65728,65728,6,6,4,1460,421,1,993,43,33580,0,65700,0,0,2,0,0
i,0x00000000,1718137078.227259,172.16.3.2,5101,172.16.1.2,17792,10474,14480,0,65728,65728,6,6,4,1460,421,1,992,43,33580,0,65700,0,0,2,0,0
o,0x00000000,1718137078.227266,172.16.3.2,5101,172.16.1.2,17792,10474,14480,0,65728,65728,6,6,4,1460,421,1,993,43,33580,0,65700,0,0,2,0,0
i,0x00000000,1718137078.276441,172.16.3.2,5101,172.16.1.2,17792,10474,14480,0,65728,65728,6,6,4,1460,421,1,992,43,33580,0,65700,0,0,2,0,0
o,0x00000000,1718137078.276448,172.16.3.2,5101,172.16.1.2,17792,10474,14480,0,65728,65728,6,6,4,1460,421,1,993,43,33580,0,65700,0,0,3,0,0
i,0x00000000,1718137078.286759,172.16.3.2,5101,172.16.1.2,17792,10474,14480,0,65728,65728,6,6,4,1460,421,1,992,43,33580,0,65700,0,0,3,0,0
o,0x00000000,1718137078.286764,172.16.3.2,5101,172.16.1.2,17792,10474,14480,0,65728,65728,6,6,4,1460,421,1,993,43,33580,0,65700,0,0,3,0,0
i,0x00000000,1718137078.355997,172.16.3.2,5101,172.16.1.2,17792,10474,14480,0,65728,65728,6,6,4,1460,421,1,992,43,33580,0,65700,0,0,3,0,0
o,0x00000000,1718137078.356009,172.16.3.2,5101,172.16.1.2,17792,10474,14480,0,65728,65728,6,6,4,1460,421,1,993,43,33580,0,65700,1448,0,3,0,0
i,0x00000000,1718137078.366207,172.16.3.2,5101,172.16.1.2,17792,10474,14480,0,65728,65728,6,6,4,1460,421,1,992,43,33580,0,65700,0,0,3,0,0
o,0x00000000,1718137078.366216,172.16.3.2,5101,172.16.1.2,17792,10474,14480,0,65728,65700,6,6,4,1460,421,1,993,43,33580,0,65700,2896,0,2,0,0
i,0x00000000,1718137078.376808,172.16.3.2,5101,172.16.1.2,17792,10474,14480,0,65728,65700,6,6,4,1460,421,1,992,43,33580,0,65700,0,0,2,0,0
o,0x00000000,1718137078.376813,172.16.3.2,5101,172.16.1.2,17792,10474,14480,0,65728,65700,6,6,4,1460,421,1,993,43,33580,0,65700,0,0,2,0,0
i,0x00000000,1718137078.386058,172.16.3.2,5101,172.16.1.2,17792,10474,14480,0,65728,65700,6,6,4,1460,421,1,992,43,33580,0,65700,0,0,2,0,0
o,0x00000000,1718137078.386067,172.16.3.2,5101,172.16.1.2,17792,10474,14480,0,65728,65728,6,6,4,1460,421,1,993,43,33580,0,65700,0,0,2,0,0
i,0x00000000,1718137078.406509,172.16.3.2,5101,172.16.1.2,17792,10474,14480,0,65728,65728,6,6,4,1460,421,1,992,43,33580,0,65700,0,0,2,0,0
o,0x00000000,1718137078.406515,172.16.3.2,5101,172.16.1.2,17792,10474,14480,0,65728,65728,6,6,4,1460,421,1,993,43,33580,0,65700,0,0,2,0,0
i,0x00000000,1718137078.476336,172.16.3.2,5101,172.16.1.2,17792,10474,14480,0,65728,65728,6,6,4,1460,421,1,992,43,33580,0,65700,0,0,2,0,0
o,0x00000000,1718137078.476353,172.16.3.2,5101,172.16.1.2,17792,10474,14480,0,65728,65728,6,6,4,1460,421,1,993,43,33580,0,65700,7240,0,1,0,0
i,0x00000000,1718137078.495917,172.16.3.2,5101,172.16.1.2,17792,10474,14480,0,65728,65728,6,6,4,1460,421,1,992,43,33580,0,65700,0,0,1,0,0
i,0x00000000,1718137078.607953,172.16.3.2,5101,172.16.1.2,17792,10474,14480,0,65728,65700,6,6,4,1460,421,1,992,43,33580,0,65700,0,0,1,0,0
o,0x00000000,1718137078.607974,172.16.3.2,5101,172.16.1.2,17792,10474,14480,0,65728,65700,6,6,4,1460,421,1,993,43,33580,0,65700,4344,0,0,0,0
i,0x00000000,1718137078.726209,172.16.3.2,5101,172.16.1.2,17792,10474,14480,0,65728,65700,6,6,4,1460,421,1,992,43,33580,0,65700,0,0,0,0,0
o,0x00000000,1718137079.080761,10.0.2.15,22,10.0.2.2,56402,1073725440,14600,0,65535,65700,0,0,4,1460,0,0,4,23,33580,108,65700,0,0,0,0,0
i,0x00000000,1718137079.081526,10.0.2.15,22,10.0.2.2,56402,1073725440,14600,0,65535,65700,0,0,4,1460,0,0,4,23,33580,108,65700,0,108,0,0,0
i,0x00000000,1718137079.757238,172.16.3.2,5101,172.16.1.2,17792,10474,14480,0,65728,65700,6,6,4,1460,421,1,992,43,33580,0,65700,0,0,0,0,0
o,0x00000000,1718137079.790461,172.16.3.2,5101,172.16.1.2,17792,10474,14480,0,65728,65700,6,6,4,1460,421,1,993,43,33580,0,65700,0,0,0,0,0
i,0x00000000,1718137079.928006,172.16.3.2,5101,172.16.1.2,17792,10474,14480,0,65728,65700,6,6,4,1460,421,1,992,43,33580,0,65700,0,0,0,0,0
i,0x00000000,1718137079.937347,172.16.3.2,5101,172.16.1.2,17792,10474,14480,0,65728,65700,6,6,4,1460,421,1,992,43,33580,0,65700,0,0,0,0,0
o,0x00000000,1718137079.937358,172.16.3.2,5101,172.16.1.2,17792,10474,14480,0,65728,65700,6,6,4,1460,421,1,993,43,33580,0,65700,1448,0,0,0,0
i,0x00000000,1718137080.068101,172.16.3.2,5101,172.16.1.2,17792,10474,14480,0,65728,65700,6,6,4,1460,421,1,992,43,33580,0,65700,0,0,0,0,0
o,0x00000000,1718137080.080765,10.0.2.15,22,10.0.2.2,56402,1073725440,14600,0,65535,65700,0,0,4,1460,0,0,4,23,33580,108,65700,0,0,0,0,0
i,0x00000000,1718137080.081563,10.0.2.15,22,10.0.2.2,56402,1073725440,14600,0,65535,65700,0,0,4,1460,0,0,4,23,33580,108,65700,0,108,0,0,0
i,0x00000000,1718137080.087019,172.16.3.2,5101,172.16.1.2,17792,10474,14480,0,65728,65700,6,6,4,1460,421,1,992,43,33580,0,65700,0,0,0,0,0
o,0x00000000,1718137080.087029,172.16.3.2,5101,172.16.1.2,17792,10474,14480,0,65728,65700,6,6,4,1460,421,1,993,43,33580,0,65700,1448,0,0,0,0
i,0x00000000,1718137080.099043,172.16.3.2,5101,172.16.1.2,17792,10474,14480,0,65728,65700,6,6,4,1460,421,1,992,43,33580,0,65700,0,0,0,0,0
i,0x00000000,1718137080.099052,172.16.3.2,5101,172.16.1.2,17792,10474,14480,0,65728,65700,6,6,4,1460,421,1,992,43,33580,0,65700,1448,0,0,0,0
o,0x00000000,1718137080.099067,172.16.3.2,5101,172.16.1.2,17792,10474,14480,0,65728,65700,6,6,4,1460,421,1,993,43,33580,0,65700,1460,0,0,0,0
i,0x00000000,1718137080.227703,172.16.3.2,5101,172.16.1.2,17792,10474,14480,0,65728,65700,6,6,4,1460,421,1,992,43,33580,0,65700,0,0,0,0,0
i,0x00000000,1718137080.248191,172.16.3.2,5101,172.16.1.2,17792,10474,14480,0,65728,65700,6,6,4,1460,421,1,992,43,33580,0,65700,0,0,0,0,0
o,0x00000000,1718137080.248212,172.16.3.2,5101,172.16.1.2,17792,10474,14480,0,65728,65700,6,6,4,1460,421,1,993,43,33580,0,65700,1448,0,0,0,0
i,0x00000000,1718137080.257589,172.16.3.2,5101,172.16.1.2,17792,10474,14480,0,65728,65700,6,6,4,1460,421,1,992,43,33580,0,65700,0,0,0,0,0
o,0x00000000,1718137080.257666,172.16.3.2,5101,172.16.1.2,17792,10474,14480,0,65728,65700,6,6,4,1460,421,1,993,43,33580,0,65700,0,0,0,0,0
i,0x00000000,1718137080.267885,172.16.3.2,5101,172.16.1.2,17792,10474,14480,0,65728,65700,6,6,4,1460,421,1,992,43,33580,0,65700,0,0,0,0,0
o,0x00000000,1718137080.300415,172.16.3.2,5101,172.16.1.2,17792,10474,14480,0,65728,65700,6,6,4,1460,421,1,993,43,33580,0,65700,0,0,0,0,0
i,0x00000000,1718137080.357451,172.16.3.2,5101,172.16.1.2,17792,10474,14480,0,65728,65700,6,6,4,1460,421,1,992,43,33580,0,65700,0,0,0,0,0
i,0x00000000,1718137080.378188,172.16.3.2,5101,172.16.1.2,17792,10474,14480,0,65728,65700,6,6,4,1460,421,1,992,43,33580,0,65700,0,0,0,0,0
o,0x00000000,1718137080.378200,172.16.3.2,5101,172.16.1.2,17792,10474,14480,0,65728,65700,6,6,4,1460,421,1,993,43,33580,0,65700,1448,0,0,0,0
i,0x00000000,1718137080.388525,172.16.3.2,5101,172.16.1.2,17792,10474,14480,0,65728,65700,6,6,4,1460,421,1,992,43,33580,0,65700,0,0,0,0,0
o,0x00000000,1718137080.420970,172.16.3.2,5101,172.16.1.2,17792,10474,14480,0,65728,65700,6,6,4,1460,421,1,993,43,33580,0,65700,0,0,0,0,0
i,0x00000000,1718137080.446933,172.16.3.2,5101,172.16.1.2,17792,10474,14480,0,65728,65700,6,6,4,1460,421,1,992,43,33580,0,65700,0,0,0,0,0
o,0x00000000,1718137080.481078,172.16.3.2,5101,172.16.1.2,17792,10474,14480,0,65728,65700,6,6,4,1460,421,1,993,43,33580,0,65700,0,0,0,0,0
i,0x00000000,1718137080.507916,172.16.3.2,5101,172.16.1.2,17792,10474,14480,0,65728,65700,6,6,4,1460,421,1,992,43,33580,0,65700,0,0,0,0,0
i,0x00000000,1718137080.528449,172.16.3.2,5101,172.16.1.2,17792,10474,14480,0,65728,65700,6,6,4,1460,421,1,992,43,33580,0,65700,0,0,0,0,0
o,0x00000000,1718137080.528461,172.16.3.2,5101,172.16.1.2,17792,10474,14480,0,65728,65700,6,6,4,1460,421,1,993,43,33580,0,65700,1448,0,0,0,0
i,0x00000000,1718137080.548130,172.16.3.2,5101,172.16.1.2,17792,10474,14480,0,65728,65700,6,6,4,1460,421,1,992,43,33580,0,65700,0,0,0,0,0
i,0x00000000,1718137080.578116,172.16.3.2,5101,172.16.1.2,17792,10474,14480,0,65728,65700,6,6,4,1460,421,1,992,43,33580,0,65700,0,0,0,0,0
o,0x00000000,1718137080.578123,172.16.3.2,5101,172.16.1.2,17792,10474,14480,0,65728,65700,6,6,4,1460,421,1,993,43,33580,0,65700,1448,0,0,0,0
i,0x00000000,1718137080.618688,172.16.3.2,5101,172.16.1.2,17792,10474,14480,0,65728,65700,6,6,4,1460,421,1,992,43,33580,0,65700,0,0,0,0,0
o,0x00000000,1718137080.651632,172.16.3.2,5101,172.16.1.2,17792,10474,14480,0,65728,65700,6,6,4,1460,421,1,993,43,33580,0,65700,0,0,0,0,0
i,0x00000000,1718137080.667604,172.16.3.2,5101,172.16.1.2,17792,10474,14480,0,65728,65700,6,6,4,1460,421,1,992,43,33580,0,65700,0,0,0,0,0
i,0x00000000,1718137080.677815,172.16.3.2,5101,172.16.1.2,17792,10474,14480,0,65728,65700,6,6,4,1460,421,1,992,43,33580,0,65700,0,0,0,0,0
o,0x00000000,1718137080.677822,172.16.3.2,5101,172.16.1.2,17792,10474,14480,0,65728,65700,6,6,4,1460,421,1,993,43,33580,0,65700,1448,0,0,0,0
i,0x00000000,1718137080.707300,172.16.3.2,5101,172.16.1.2,17792,10474,14480,0,65728,65700,6,6,4,1460,421,1,992,43,33580,0,65700,0,0,0,0,0
i,0x00000000,1718137080.728022,172.16.3.2,5101,172.16.1.2,17792,10474,14480,0,65728,65700,6,6,4,1460,421,1,992,43,33580,0,65700,0,0,0,0,0
o,0x00000000,1718137080.728033,172.16.3.2,5101,172.16.1.2,17792,10474,14480,0,65728,65700,6,6,4,1460,421,1,993,43,33580,0,65700,1448,0,0,0,0
i,0x00000000,1718137080.738167,172.16.3.2,5101,172.16.1.2,17792,10474,14480,0,65728,65700,6,6,4,1460,421,1,992,43,33580,0,65700,0,0,0,0,0
o,0x00000000,1718137080.770546,172.16.3.2,5101,172.16.1.2,17792,10474,14480,0,65728,65700,6,6,4,1460,421,1,993,43,33580,0,65700,0,0,0,0,0
i,0x00000000,1718137080.788136,172.16.3.2,5101,172.16.1.2,17792,10474,14480,0,65728,65700,6,6,4,1460,421,1,992,43,33580,0,65700,0,0,0,0,0
o,0x00000000,1718137080.820859,172.16.3.2,5101,172.16.1.2,17792,10474,14480,0,65728,65700,6,6,4,1460,421,1,993,43,33580,0,65700,0,0,0,0,0
i,0x00000000,1718137080.838071,172.16.3.2,5101,172.16.1.2,17792,10474,14480,0,65728,65700,6,6,4,1460,421,1,992,43,33580,0,65700,0,0,0,0,0
o,0x00000000,1718137080.870589,172.16.3.2,5101,172.16.1.2,17792,10474,14480,0,65728,65700,6,6,4,1460,421,1,993,43,33580,0,65700,0,0,0,0,0
i,0x00000000,1718137080.887787,172.16.3.2,5101,172.16.1.2,17792,10474,14480,0,65728,65700,6,6,4,1460,421,1,992,43,33580,0,65700,0,0,0,0,0
i,0x00000000,1718137080.898040,172.16.3.2,5101,172.16.1.2,17792,10474,14480,0,65728,65700,6,6,4,1460,421,1,992,43,33580,0,65700,0,0,0,0,0
o,0x00000000,1718137080.898046,172.16.3.2,5101,172.16.1.2,17792,10474,14480,0,65728,65700,6,6,4,1460,421,1,993,43,33580,0,65700,1448,0,0,0,0
i,0x00000000,1718137080.918712,172.16.3.2,5101,172.16.1.2,17792,10474,14480,0,65728,65700,6,6,4,1460,421,1,992,43,33580,0,65700,0,0,0,0,0
i,0x00000000,1718137080.927981,172.16.3.2,5101,172.16.1.2,17792,10474,14480,0,65728,65700,6,6,4,1460,421,1,992,43,33580,0,65700,0,0,0,0,0
o,0x00000000,1718137080.927988,172.16.3.2,5101,172.16.1.2,17792,10474,14480,0,65728,65700,6,6,4,1460,421,1,993,43,33580,0,65700,1448,0,0,0,0
i,0x00000000,1718137080.958000,172.16.3.2,5101,172.16.1.2,17792,10474,14480,0,65728,65700,6,6,4,1460,421,1,992,43,33580,0,65700,0,0,0,0,0
i,0x00000000,1718137080.978005,172.16.3.2,5101,172.16.1.2,17792,10474,14480,0,65728,65700,6,6,4,1460,421,1,992,43,33580,0,65700,0,0,0,0,0
o,0x00000000,1718137080.978013,172.16.3.2,5101,172.16.1.2,17792,10474,14480,0,65728,65700,6,6,4,1460,421,1,993,43,33580,0,65700,1448,0,0,0,0
i,0x00000000,1718137081.017754,172.16.3.2,5101,172.16.1.2,17792,10474,14480,0,65728,65700,6,6,4,1460,421,1,992,43,33580,0,65700,0,0,0,0,0
o,0x00000000,1718137081.050455,172.16.3.2,5101,172.16.1.2,17792,10474,14480,0,65728,65700,6,6,4,1460,421,1,993,43,33580,0,65700,0,0,0,0,0
i,0x00000000,1718137081.068955,172.16.3.2,5101,172.16.1.2,17792,10474,14480,0,65728,65700,6,6,4,1460,421,1,992,43,33580,0,65700,0,0,0,0,0
i,0x00000000,1718137081.078343,172.16.3.2,5101,172.16.1.2,17792,10474,14480,0,65728,65700,6,6,4,1460,421,1,992,43,33580,0,65700,0,0,0,0,0
o,0x00000000,1718137081.078350,172.16.3.2,5101,172.16.1.2,17792,10474,14480,0,65728,65700,6,6,4,1460,421,1,993,43,33580,0,65700,1448,0,0,0,0
o,0x00000000,1718137081.081597,10.0.2.15,22,10.0.2.2,56402,1073725440,14600,0,65535,65700,0,0,4,1460,0,0,4,23,33580,108,65700,0,0,0,0,0
i,0x00000000,1718137081.082300,10.0.2.15,22,10.0.2.2,56402,1073725440,14600,0,65535,65700,0,0,4,1460,0,0,4,23,33580,108,65700,0,108,0,0,0
i,0x00000000,1718137081.087653,172.16.3.2,5101,172.16.1.2,17792,10474,14480,0,65728,65700,6,6,4,1460,421,1,992,43,33580,0,65700,0,0,0,0,0
i,0x00000000,1718137081.108255,172.16.3.2,5101,172.16.1.2,17792,10474,14480,0,65728,65700,6,6,4,1460,421,1,992,43,33580,0,65700,0,0,0,0,0
o,0x00000000,1718137081.108265,172.16.3.2,5101,172.16.1.2,17792,10474,14480,0,65728,65700,6,6,4,1460,421,1,993,43,33580,0,65700,1448,0,0,0,0
i,0x00000000,1718137081.138321,172.16.3.2,5101,172.16.1.2,17792,10474,14480,0,65728,65700,6,6,4,1460,421,1,992,43,33580,0,65700,0,0,0,0,0
i,0x00000000,1718137081.168566,172.16.3.2,5101,172.16.1.2,17792,10474,14480,0,65728,65700,6,6,4,1460,421,1,992,43,33580,0,65700,0,0,0,0,0
o,0x00000000,1718137081.168578,172.16.3.2,5101,172.16.1.2,17792,10474,14480,0,65728,65700,6,6,4,1460,421,1,993,43,33580,0,65700,1448,0,0,0,0
i,0x00000000,1718137081.177851,172.16.3.2,5101,172.16.1.2,17792,10474,14480,0,65728,65700,6,6,4,1460,421,1,992,43,33580,0,65700,0,0,0,0,0
o,0x00000000,1718137081.210428,172.16.3.2,5101,172.16.1.2,17792,10474,14480,0,65728,65700,6,6,4,1460,421,1,993,43,33580,0,65700,0,0,0,0,0
i,0x00000000,1718137081.218341,172.16.3.2,5101,172.16.1.2,17792,10474,14480,0,65728,65700,6,6,4,1460,421,1,992,43,33580,0,65700,0,0,0,0,0
o,0x00000000,1718137081.249811,172.16.3.2,5101,172.16.1.2,17792,10474,14480,0,65728,65700,6,6,4,1460,421,1,993,43,33580,0,65700,0,0,0,0,0
i,0x00000000,1718137081.268076,172.16.3.2,5101,172.16.1.2,17792,10474,14480,0,65728,65700,6,6,4,1460,421,1,992,43,33580,0,65700,0,0,0,0,0
i,0x00000000,1718137081.278195,172.16.3.2,5101,172.16.1.2,17792,10474,14480,0,65728,65700,6,6,4,1460,421,1,992,43,33580,0,65700,0,0,0,0,0
o,0x00000000,1718137081.278203,172.16.3.2,5101,172.16.1.2,17792,10474,14480,0,65728,65700,6,6,4,1460,421,1,993,43,33580,0,65700,1448,0,0,0,0
i,0x00000000,1718137081.288626,172.16.3.2,5101,172.16.1.2,17792,10474,14480,0,65728,65700,6,6,4,1460,421,1,992,43,33580,0,65700,0,0,0,0,0
o,0x00000000,1718137081.321119,172.16.3.2,5101,172.16.1.2,17792,10474,14480,0,65728,65700,6,6,4,1460,421,1,993,43,33580,0,65700,0,0,0,0,0
i,0x00000000,1718137081.328435,172.16.3.2,5101,172.16.1.2,17792,10474,14480,0,65728,65700,6,6,4,1460,421,1,992,43,33580,0,65700,0,0,0,0,0
i,0x00000000,1718137081.337678,172.16.3.2,5101,172.16.1.2,17792,10474,14480,0,65728,65700,6,6,4,1460,421,1,992,43,33580,0,65700,0,0,0,0,0
o,0x00000000,1718137081.337684,172.16.3.2,5101,172.16.1.2,17792,10474,14480,0,65728,65700,6,6,4,1460,421,1,993,43,33580,0,65700,1448,0,0,0,0
i,0x00000000,1718137081.357856,172.16.3.2,5101,172.16.1.2,17792,10474,14480,0,65728,65700,6,6,4,1460,421,1,992,43,33580,0,65700,0,0,0,0,0
i,0x00000000,1718137081.379183,172.16.3.2,5101,172.16.1.2,17792,10474,14480,0,65728,65700,6,6,4,1460,421,1,992,43,33580,0,65700,0,0,0,0,0
o,0x00000000,1718137081.379198,172.16.3.2,5101,172.16.1.2,17792,10474,14480,0,65728,65700,6,6,4,1460,421,1,993,43,33580,0,65700,1448,0,0,0,0
i,0x00000000,1718137081.428880,172.16.3.2,5101,172.16.1.2,17792,10474,14480,0,65728,65700,6,6,4,1460,421,1,992,43,33580,0,65700,0,0,0,0,0
i,0x00000000,1718137081.448530,172.16.3.2,5101,172.16.1.2,17792,10474,14480,0,65728,65700,6,6,4,1460,421,1,992,43,33580,0,65700,0,0,0,0,0
o,0x00000000,1718137081.448540,172.16.3.2,5101,172.16.1.2,17792,10474,14480,0,65728,65700,6,6,4,1460,421,1,993,43,33580,0,65700,1448,0,0,0,0
i,0x00000000,1718137081.458885,172.16.3.2,5101,172.16.1.2,17792,10474,14480,0,65728,65700,6,6,4,1460,421,1,992,43,33580,0,65700,0,0,0,0,0
i,0x00000000,1718137081.468259,172.16.3.2,5101,172.16.1.2,17792,10474,14480,0,65728,65700,6,6,4,1460,421,1,992,43,33580,0,65700,0,0,0,0,0
o,0x00000000,1718137081.468264,172.16.3.2,5101,172.16.1.2,17792,10474,14480,0,65728,65700,6,6,4,1460,421,1,993,43,33580,0,65700,1448,0,0,0,0
i,0x00000000,1718137081.518937,172.16.3.2,5101,172.16.1.2,17792,10474,14480,0,65728,65700,6,6,4,1460,421,1,992,43,33580,0,65700,0,0,0,0,0
o,0x00000000,1718137081.551022,172.16.3.2,5101,172.16.1.2,17792,10474,14480,0,65728,65700,6,6,4,1460,421,1,993,43,33580,0,65700,0,0,0,0,0
i,0x00000000,1718137081.558267,172.16.3.2,5101,172.16.1.2,17792,10474,14480,0,65728,65700,6,6,4,1460,421,1,992,43,33580,0,65700,0,0,0,0,0
i,0x00000000,1718137081.567863,172.16.3.2,5101,172.16.1.2,17792,10474,14480,0,65728,65700,6,6,4,1460,421,1,992,43,33580,0,65700,0,0,0,0,0
o,0x00000000,1718137081.567868,172.16.3.2,5101,172.16.1.2,17792,10474,14480,0,65728,65700,6,6,4,1460,421,1,993,43,33580,0,65700,1448,0,0,0,0
i,0x00000000,1718137081.578460,172.16.3.2,5101,172.16.1.2,17792,10474,14480,0,65728,65700,6,6,4,1460,421,1,992,43,33580,0,65700,0,0,0,0,0
o,0x00000000,1718137081.610638,172.16.3.2,5101,172.16.1.2,17792,10474,14480,0,65728,65700,6,6,4,1460,421,1,993,43,33580,0,65700,0,0,0,0,0
i,0x00000000,1718137081.617976,172.16.3.2,5101,172.16.1.2,17792,10474,14480,0,65728,65700,6,6,4,1460,421,1,992,43,33580,0,65700,0,0,0,0,0
o,0x00000000,1718137081.650289,172.16.3.2,5101,172.16.1.2,17792,10474,14480,0,65728,65700,6,6,4,1460,421,1,993,43,33580,0,65700,0,0,0,0,0
i,0x00000000,1718137081.658669,172.16.3.2,5101,172.16.1.2,17792,10474,14480,0,65728,65700,6,6,4,1460,421,1,992,43,33580,0,65700,0,0,0,0,0
i,0x00000000,1718137081.668818,172.16.3.2,5101,172.16.1.2,17792,10474,14480,0,65728,65700,6,6,4,1460,421,1,992,43,33580,0,65700,0,0,0,0,0
o,0x00000000,1718137081.668824,172.16.3.2,5101,172.16.1.2,17792,10474,14480,0,65728,65700,6,6,4,1460,421,1,993,43,33580,0,65700,1448,0,0,0,0
i,0x00000000,1718137081.678222,172.16.3.2,5101,172.16.1.2,17792,10474,14480,0,65728,65700,6,6,4,1460,421,1,992,43,33580,0,65700,0,0,0,0,0
i,0x00000000,1718137081.709218,172.16.3.2,5101,172.16.1.2,17792,10474,14480,0,65728,65700,6,6,4,1460,421,1,992,43,33580,0,65700,0,0,0,0,0
o,0x00000000,1718137081.709228,172.16.3.2,5101,172.16.1.2,17792,10474,14480,0,65728,65700,6,6,4,1460,421,1,993,43,33580,0,65700,1448,0,0,0,0
i,0x00000000,1718137081.738174,172.16.3.2,5101,172.16.1.2,17792,10474,14480,0,65728,65700,6,6,4,1460,421,1,992,43,33580,0,65700,0,0,0,0,0
o,0x00000000,1718137081.770720,172.16.3.2,5101,172.16.1.2,17792,10474,14480,0,65728,65700,6,6,4,1460,421,1,993,43,33580,0,65700,0,0,0,0,0
i,0x00000000,1718137081.778812,172.16.3.2,5101,172.16.1.2,17792,10474,14480,0,65728,65700,6,6,4,1460,421,1,992,43,33580,0,65700,0,0,0,0,0
i,0x00000000,1718137081.798579,172.16.3.2,5101,172.16.1.2,17792,10474,14480,0,65728,65700,6,6,4,1460,421,1,992,43,33580,0,65700,0,0,0,0,0
o,0x00000000,1718137081.798611,172.16.3.2,5101,172.16.1.2,17792,10474,14480,0,65728,65700,6,6,4,1460,421,1,993,43,33580,0,65700,1448,0,0,0,0
i,0x00000000,1718137081.819234,172.16.3.2,5101,172.16.1.2,17792,10474,14480,0,65728,65700,6,6,4,1460,421,1,992,43,33580,0,65700,0,0,0,0,0
i,0x00000000,1718137081.849431,172.16.3.2,5101,172.16.1.2,17792,10474,14480,0,65728,65700,6,6,4,1460,421,1,992,43,33580,0,65700,0,0,0,0,0
o,0x00000000,1718137081.849451,172.16.3.2,5101,172.16.1.2,17792,10474,14480,0,65728,65700,6,6,4,1460,421,1,993,43,33580,0,65700,1448,0,0,0,0
i,0x00000000,1718137081.868261,172.16.3.2,5101,172.16.1.2,17792,10474,14480,0,65728,65700,6,6,4,1460,421,1,992,43,33580,0,65700,0,0,0,0,0
i,0x00000000,1718137081.899623,172.16.3.2,5101,172.16.1.2,17792,10474,14480,0,65728,65700,6,6,4,1460,421,1,992,43,33580,0,65700,0,0,0,0,0
o,0x00000000,1718137081.899632,172.16.3.2,5101,172.16.1.2,17792,10474,14480,0,65728,65700,6,6,4,1460,421,1,993,43,33580,0,65700,1448,0,0,0,0
i,0x00000000,1718137081.909756,172.16.3.2,5101,172.16.1.2,17792,10474,14480,0,65728,65700,6,6,4,1460,421,1,992,43,33580,0,65700,0,0,0,0,0
i,0x00000000,1718137081.938281,172.16.3.2,5101,172.16.1.2,17792,10474,14480,0,65728,65700,6,6,4,1460,421,1,992,43,33580,0,65700,0,0,0,0,0
o,0x00000000,1718137081.938291,172.16.3.2,5101,172.16.1.2,17792,10474,14480,0,65728,65700,6,6,4,1460,421,1,993,43,33580,0,65700,1448,0,0,0,0
i,0x00000000,1718137081.978876,172.16.3.2,5101,172.16.1.2,17792,10474,14480,0,65728,65700,6,6,4,1460,421,1,992,43,33580,0,65700,0,0,0,0,0
i,0x00000000,1718137081.989316,172.16.3.2,5101,172.16.1.2,17792,10474,14480,0,65728,65700,6,6,4,1460,421,1,992,43,33580,0,65700,0,0,0,0,0
o,0x00000000,1718137081.989325,172.16.3.2,5101,172.16.1.2,17792,10474,14480,0,65728,65700,6,6,4,1460,421,1,993,43,33580,0,65700,1448,0,0,0,0
i,0x00000000,1718137082.019481,172.16.3.2,5101,172.16.1.2,17792,10474,14480,0,65728,65700,6,6,4,1460,421,1,992,43,33580,0,65700,0,0,0,0,0
i,0x00000000,1718137082.038292,172.16.3.2,5101,172.16.1.2,17792,10474,14480,0,65728,65700,6,6,4,1460,421,1,992,43,33580,0,65700,0,0,0,0,0
o,0x00000000,1718137082.038300,172.16.3.2,5101,172.16.1.2,17792,10474,14480,0,65728,65700,6,6,4,1460,421,1,993,43,33580,0,65700,1448,0,0,0,0
i,0x00000000,1718137082.049568,172.16.3.2,5101,172.16.1.2,17792,10474,14480,0,65728,65700,6,6,4,1460,421,1,992,43,33580,0,65700,0,0,0,0,0
o,0x00000000,1718137082.081129,10.0.2.15,22,10.0.2.2,56402,1073725440,14600,0,65535,65700,0,0,4,1460,0,0,4,23,33580,108,65700,0,0,0,0,0
i,0x00000000,1718137082.081860,10.0.2.15,22,10.0.2.2,56402,1073725440,14600,0,65535,65700,0,0,4,1460,0,0,4,23,33580,108,65700,0,108,0,0,0
o,0x00000000,1718137082.090702,172.16.3.2,5101,172.16.1.2,17792,10474,14480,0,65728,65700,6,6,4,1460,421,1,993,43,33580,0,65700,0,0,0,0,0
i,0x00000000,1718137082.098487,172.16.3.2,5101,172.16.1.2,17792,10474,14480,0,65728,65700,6,6,4,1460,421,1,992,43,33580,0,65700,0,0,0,0,0
i,0x00000000,1718137082.108791,172.16.3.2,5101,172.16.1.2,17792,10474,14480,0,65728,65700,6,6,4,1460,421,1,992,43,33580,0,65700,0,0,0,0,0
o,0x00000000,1718137082.108797,172.16.3.2,5101,172.16.1.2,17792,10474,14480,0,65728,65700,6,6,4,1460,421,1,993,43,33580,0,65700,1448,0,0,0,0
i,0x00000000,1718137082.149225,172.16.3.2,5101,172.16.1.2,17792,10474,14480,0,65728,65700,6,6,4,1460,421,1,992,43,33580,0,65700,0,0,0,0,0
i,0x00000000,1718137082.179348,172.16.3.2,5101,172.16.1.2,17792,10474,14480,0,65728,65700,6,6,4,1460,421,1,992,43,33580,0,65700,0,0,0,0,0
o,0x00000000,1718137082.179370,172.16.3.2,5101,172.16.1.2,17792,10474,14480,0,65728,65700,6,6,4,1460,421,1,993,43,33580,0,65700,1448,0,0,0,0
i,0x00000000,1718137082.199940,172.16.3.2,5101,172.16.1.2,17792,10474,14480,0,65728,65700,6,6,4,1460,421,1,992,43,33580,0,65700,0,0,0,0,0
i,0x00000000,1718137082.229684,172.16.3.2,5101,172.16.1.2,17792,10474,14480,0,65728,65700,6,6,4,1460,421,1,992,43,33580,0,65700,0,0,0,0,0
o,0x00000000,1718137082.229698,172.16.3.2,5101,172.16.1.2,17792,10474,14480,0,65728,65700,6,6,4,1460,421,1,993,43,33580,0,65700,1448,0,0,0,0
i,0x00000000,1718137082.238875,172.16.3.2,5101,172.16.1.2,17792,10474,14480,0,65728,65700,6,6,4,1460,421,1,992,43,33580,0,65700,0,0,0,0,0
i,0x00000000,1718137082.268980,172.16.3.2,5101,172.16.1.2,17792,10474,14480,0,65728,65700,6,6,4,1460,421,1,992,43,33580,0,65700,0,0,0,0,0
o,0x00000000,1718137082.268989,172.16.3.2,5101,172.16.1.2,17792,10474,14480,0,65728,65700,6,6,4,1460,421,1,993,43,33580,0,65700,1448,0,0,0,0
i,0x00000000,1718137082.279183,172.16.3.2,5101,172.16.1.2,17792,10474,14480,0,65728,65700,6,6,4,1460,421,1,992,43,33580,0,65700,0,0,0,0,0
o,0x00000000,1718137082.310778,172.16.3.2,5101,172.16.1.2,17792,10474,14480,0,65728,65700,6,6,4,1460,421,1,993,43,33580,0,65700,0,0,0,0,0
i,0x00000000,1718137082.319607,172.16.3.2,5101,172.16.1.2,17792,10474,14480,0,65728,65700,6,6,4,1460,421,1,992,43,33580,0,65700,0,0,0,0,0
i,0x00000000,1718137082.329978,172.16.3.2,5101,172.16.1.2,17792,10474,14480,0,65728,65700,6,6,4,1460,421,1,992,43,33580,0,65700,0,0,0,0,0
o,0x00000000,1718137082.329998,172.16.3.2,5101,172.16.1.2,17792,10474,14480,0,65728,65700,6,6,4,1460,421,1,993,43,33580,0,65700,1448,0,0,0,0
i,0x00000000,1718137082.378559,172.16.3.2,5101,172.16.1.2,17792,10474,14480,0,65728,65700,6,6,4,1460,421,1,992,43,33580,0,65700,0,0,0,0,0
i,0x00000000,1718137082.389889,172.16.3.2,5101,172.16.1.2,17792,10474,14480,0,65728,65700,6,6,4,1460,421,1,992,43,33580,0,65700,0,0,0,0,0
o,0x00000000,1718137082.389900,172.16.3.2,5101,172.16.1.2,17792,10474,14480,0,65728,65700,6,6,4,1460,421,1,993,43,33580,0,65700,1448,0,0,0,0
i,0x00000000,1718137082.429282,172.16.3.2,5101,172.16.1.2,17792,10474,14480,0,65728,65700,6,6,4,1460,421,1,992,43,33580,0,65700,0,0,0,0,0
i,0x00000000,1718137082.439693,172.16.3.2,5101,172.16.1.2,17792,10474,14480,0,65728,65700,6,6,4,1460,421,1,992,43,33580,0,65700,0,0,0,0,0
o,0x00000000,1718137082.439710,172.16.3.2,5101,172.16.1.2,17792,10474,14480,0,65728,65700,6,6,4,1460,421,1,993,43,33580,0,65700,1448,0,0,0,0
i,0x00000000,1718137082.479992,172.16.3.2,5101,172.16.1.2,17792,10474,14480,0,65728,65700,6,6,4,1460,421,1,992,43,33580,0,65700,0,0,0,0,0
i,0x00000000,1718137082.489915,172.16.3.2,5101,172.16.1.2,17792,10474,14480,0,65728,65700,6,6,4,1460,421,1,992,43,33580,0,65700,0,0,0,0,0
o,0x00000000,1718137082.489926,172.16.3.2,5101,172.16.1.2,17792,10474,14480,0,65728,65700,6,6,4,1460,421,1,993,43,33580,0,65700,1448,0,0,0,0
i,0x00000000,1718137082.510665,172.16.3.2,5101,172.16.1.2,17792,10474,14480,0,65728,65700,6,6,4,1460,421,1,992,43,33580,0,65700,0,0,0,0,0
i,0x00000000,1718137082.549723,172.16.3.2,5101,172.16.1.2,17792,10474,14480,0,65728,65700,6,6,4,1460,421,1,992,43,33580,0,65700,0,0,0,0,0
o,0x00000000,1718137082.549733,172.16.3.2,5101,172.16.1.2,17792,10474,14480,0,65728,65700,6,6,4,1460,421,1,993,43,33580,0,65700,1448,0,0,0,0
i,0x00000000,1718137082.558745,172.16.3.2,5101,172.16.1.2,17792,10474,14480,0,65728,65700,6,6,4,1460,421,1,992,43,33580,0,65700,0,0,0,0,0
o,0x00000000,1718137082.590708,172.16.3.2,5101,172.16.1.2,17792,10474,14480,0,65728,65700,6,6,4,1460,421,1,993,43,33580,0,65700,0,0,0,0,0
i,0x00000000,1718137082.599670,172.16.3.2,5101,172.16.1.2,17792,10474,14480,0,65728,65700,6,6,4,1460,421,1,992,43,33580,0,65700,0,0,0,0,0
i,0x00000000,1718137082.608821,172.16.3.2,5101,172.16.1.2,17792,10474,14480,0,65728,65700,6,6,4,1460,421,1,992,43,33580,0,65700,0,0,0,0,0
o,0x00000000,1718137082.608830,172.16.3.2,5101,172.16.1.2,17792,10474,14480,0,65728,65700,6,6,4,1460,421,1,993,43,33580,0,65700,1448,0,0,0,0
i,0x00000000,1718137082.649192,172.16.3.2,5101,172.16.1.2,17792,10474,14480,0,65728,65700,6,6,4,1460,421,1,992,43,33580,0,65700,0,0,0,0,0
i,0x00000000,1718137082.659622,172.16.3.2,5101,172.16.1.2,17792,10474,14480,0,65728,65700,6,6,4,1460,421,1,992,43,33580,0,65700,0,0,0,0,0
o,0x00000000,1718137082.659629,172.16.3.2,5101,172.16.1.2,17792,10474,14480,0,65728,65700,6,6,4,1460,421,1,993,43,33580,0,65700,1448,0,0,0,0
i,0x00000000,1718137082.709374,172.16.3.2,5101,172.16.1.2,17792,10474,14480,0,65728,65700,6,6,4,1460,421,1,992,43,33580,0,65700,0,0,0,0,0
i,0x00000000,1718137082.719623,172.16.3.2,5101,172.16.1.2,17792,10474,14480,0,65728,65700,6,6,4,1460,421,1,992,43,33580,0,65700,0,0,0,0,0
o,0x00000000,1718137082.719629,172.16.3.2,5101,172.16.1.2,17792,10474,14480,0,65728,65700,6,6,4,1460,421,1,993,43,33580,0,65700,1448,0,0,0,0
i,0x00000000,1718137082.729351,172.16.3.2,5101,172.16.1.2,17792,10474,14480,0,65728,65700,6,6,4,1460,421,1,992,43,33580,0,65700,0,0,0,0,0
o,0x00000000,1718137082.759875,172.16.3.2,5101,172.16.1.2,17792,10474,14480,0,65728,65700,6,6,4,1460,421,1,993,43,33580,0,65700,0,0,0,0,0
i,0x00000000,1718137082.769787,172.16.3.2,5101,172.16.1.2,17792,10474,14480,0,65728,65700,6,6,4,1460,421,1,992,43,33580,0,65700,0,0,0,0,0
i,0x00000000,1718137082.790657,172.16.3.2,5101,172.16.1.2,17792,10474,14480,0,65728,65700,6,6,4,1460,421,1,992,43,33580,0,65700,0,0,0,0,0
o,0x00000000,1718137082.790663,172.16.3.2,5101,172.16.1.2,17792,10474,14480,0,65728,65700,6,6,4,1460,421,1,993,43,33580,0,65700,1448,0,0,0,0
i,0x00000000,1718137082.829397,172.16.3.2,5101,172.16.1.2,17792,10474,14480,0,65728,65700,6,6,4,1460,421,1,992,43,33580,0,65700,0,0,0,0,0
o,0x00000000,1718137082.829408,172.16.3.2,5101,172.16.1.2,17792,10474,14480,0,65728,65700,6,6,4,1460,421,1,993,43,33580,0,65700,0,0,1,0,0
i,0x00000000,1718137082.868927,172.16.3.2,5101,172.16.1.2,17792,10474,14480,0,65728,65700,6,6,4,1460,421,1,992,43,33580,0,65700,0,0,1,0,0
o,0x00000000,1718137082.868933,172.16.3.2,5101,172.16.1.2,17792,10474,14480,0,65728,65728,6,6,4,1460,421,1,993,43,33580,0,65700,0,0,1,0,0
i,0x00000000,1718137082.879225,172.16.3.2,5101,172.16.1.2,17792,10474,14480,0,65728,65728,6,6,4,1460,421,1,992,43,33580,0,65700,0,0,1,0,0
o,0x00000000,1718137082.879229,172.16.3.2,5101,172.16.1.2,17792,10474,14480,0,65728,65728,6,6,4,1460,421,1,993,43,33580,0,65700,0,0,1,0,0
i,0x00000000,1718137082.889805,172.16.3.2,5101,172.16.1.2,17792,10474,14480,0,65728,65728,6,6,4,1460,421,1,992,43,33580,0,65700,0,0,1,0,0
o,0x00000000,1718137082.889811,172.16.3.2,5101,172.16.1.2,17792,10474,14480,0,65728,65728,6,6,4,1460,421,1,993,43,33580,0,65700,0,0,1,0,0
i,0x00000000,1718137082.930170,172.16.3.2,5101,172.16.1.2,17792,10474,14480,0,65728,65728,6,6,4,1460,421,1,992,43,33580,0,65700,0,0,1,0,0
o,0x00000000,1718137082.930178,172.16.3.2,5101,172.16.1.2,17792,10474,14480,0,65728,65728,6,6,4,1460,421,1,993,43,33580,0,65700,0,0,1,0,0
i,0x00000000,1718137082.939556,172.16.3.2,5101,172.16.1.2,17792,10474,14480,0,65728,65728,6,6,4,1460,421,1,992,43,33580,0,65700,0,0,1,0,0
o,0x00000000,1718137082.939562,172.16.3.2,5101,172.16.1.2,17792,10474,14480,0,65728,65728,6,6,4,1460,421,1,993,43,33580,0,65700,0,0,1,0,0
i,0x00000000,1718137082.969499,172.16.3.2,5101,172.16.1.2,17792,10474,14480,0,65728,65728,6,6,4,1460,421,1,992,43,33580,0,65700,0,0,1,0,0
o,0x00000000,1718137082.969504,172.16.3.2,5101,172.16.1.2,17792,10474,14480,0,65728,65728,6,6,4,1460,421,1,993,43,33580,0,65700,0,0,1,0,0
i,0x00000000,1718137082.989320,172.16.3.2,5101,172.16.1.2,17792,10474,14480,0,65728,65728,6,6,4,1460,421,1,992,43,33580,0,65700,0,0,1,0,0
o,0x00000000,1718137082.989326,172.16.3.2,5101,172.16.1.2,17792,10474,14480,0,65728,65728,6,6,4,1460,421,1,993,43,33580,0,65700,0,0,1,0,0
i,0x00000000,1718137083.019916,172.16.3.2,5101,172.16.1.2,17792,10474,14480,0,65728,65728,6,6,4,1460,421,1,992,43,33580,0,65700,0,0,1,0,0
o,0x00000000,1718137083.019959,172.16.3.2,5101,172.16.1.2,17792,10474,14480,0,65728,65728,6,6,4,1460,421,1,993,43,33580,0,65700,13032,0,0,0,0
i,0x00000000,1718137083.060498,172.16.3.2,5101,172.16.1.2,17792,10474,14480,0,65728,65728,6,6,4,1460,421,1,992,43,33580,0,65700,0,0,0,0,0
o,0x00000000,1718137083.060514,172.16.3.2,5101,172.16.1.2,17792,10474,14480,0,65728,65700,6,6,4,1460,421,1,993,43,33580,0,65700,0,0,0,0,0
i,0x00000000,1718137083.070517,172.16.3.2,5101,172.16.1.2,17792,10474,14480,0,65728,65700,6,6,4,1460,421,1,992,43,33580,0,65700,0,0,0,0,0
o,0x00000000,1718137083.070522,172.16.3.2,5101,172.16.1.2,17792,10474,14480,0,65728,65728,6,6,4,1460,421,1,993,43,33580,0,65700,0,0,0,0,0
o,0x00000000,1718137083.080462,10.0.2.15,22,10.0.2.2,56402,1073725440,14600,0,65535,65700,0,0,4,1460,0,0,4,23,33580,108,65700,0,0,0,0,0
i,0x00000000,1718137083.081245,10.0.2.15,22,10.0.2.2,56402,1073725440,14600,0,65535,65700,0,0,4,1460,0,0,4,23,33580,108,65700,0,108,0,0,0
i,0x00000000,1718137083.089899,172.16.3.2,5101,172.16.1.2,17792,10474,14480,0,65728,65728,6,6,4,1460,421,1,992,43,33580,0,65700,0,0,0,0,0
o,0x00000000,1718137083.089905,172.16.3.2,5101,172.16.1.2,17792,10474,14480,0,65728,65728,6,6,4,1460,421,1,993,43,33580,0,65700,0,0,0,0,0
i,0x00000000,1718137083.109775,172.16.3.2,5101,172.16.1.2,17792,10474,14480,0,65728,65728,6,6,4,1460,421,1,992,43,33580,0,65700,0,0,0,0,0
o,0x00000000,1718137083.109779,172.16.3.2,5101,172.16.1.2,17792,10474,14480,0,65728,65728,6,6,4,1460,421,1,993,43,33580,0,65700,0,0,0,0,0
i,0x00000000,1718137083.119832,172.16.3.2,5101,172.16.1.2,17792,10474,14480,0,65728,65728,6,6,4,1460,421,1,992,43,33580,0,65700,0,0,0,0,0
o,0x00000000,1718137083.119837,172.16.3.2,5101,172.16.1.2,17792,10474,14480,0,65728,65728,6,6,4,1460,421,1,993,43,33580,0,65700,0,0,0,0,0
i,0x00000000,1718137083.129174,172.16.3.2,5101,172.16.1.2,17792,10474,14480,0,65728,65728,6,6,4,1460,421,1,992,43,33580,0,65700,0,0,0,0,0
o,0x00000000,1718137083.129180,172.16.3.2,5101,172.16.1.2,17792,10474,14480,0,65728,65728,6,6,4,1460,421,1,993,43,33580,0,65700,0,0,1,0,0
i,0x00000000,1718137083.150012,172.16.3.2,5101,172.16.1.2,17792,10474,14480,0,65728,65728,6,6,4,1460,421,1,992,43,33580,0,65700,0,0,1,0,0
i,0x00000000,1718137083.199648,172.16.3.2,5101,172.16.1.2,17792,10474,14480,0,65728,65728,6,6,4,1460,421,1,992,43,33580,0,65700,0,0,1,0,0
o,0x00000000,1718137083.199663,172.16.3.2,5101,172.16.1.2,17792,10474,14480,0,65728,65728,6,6,4,1460,421,1,993,43,33580,0,65700,0,0,1,0,0
i,0x00000000,1718137083.209963,172.16.3.2,5101,172.16.1.2,17792,10474,14480,0,65728,65728,6,6,4,1460,421,1,992,43,33580,0,65700,0,0,1,0,0
o,0x00000000,1718137083.209969,172.16.3.2,5101,172.16.1.2,17792,10474,14480,0,65728,65728,6,6,4,1460,421,1,993,43,33580,0,65700,0,0,1,0,0
i,0x00000000,1718137083.239044,172.16.3.2,5101,172.16.1.2,17792,10474,14480,0,65728,65728,6,6,4,1460,421,1,992,43,33580,0,65700,0,0,1,0,0
o,0x00000000,1718137083.239050,172.16.3.2,5101,172.16.1.2,17792,10474,14480,0,65728,65728,6,6,4,1460,421,1,993,43,33580,0,65700,0,0,1,0,0
i,0x00000000,1718137083.289654,172.16.3.2,5101,172.16.1.2,17792,10474,14480,0,65728,65728,6,6,4,1460,421,1,992,43,33580,0,65700,0,0,1,0,0
o,0x00000000,1718137083.289664,172.16.3.2,5101,172.16.1.2,17792,10474,14480,0,65728,65728,6,6,4,1460,421,1,993,43,33580,0,65700,0,0,1,0,0
i,0x00000000,1718137083.319540,172.16.3.2,5101,172.16.1.2,17792,10474,14480,0,65728,65728,6,6,4,1460,421,1,992,43,33580,0,65700,0,0,1,0,0
o,0x00000000,1718137083.319547,172.16.3.2,5101,172.16.1.2,17792,10474,14480,0,65728,65728,6,6,4,1460,421,1,993,43,33580,0,65700,0,0,1,0,0
i,0x00000000,1718137083.359894,172.16.3.2,5101,172.16.1.2,17792,10474,14480,0,65728,65728,6,6,4,1460,421,1,992,43,33580,0,65700,0,0,1,0,0
o,0x00000000,1718137083.359904,172.16.3.2,5101,172.16.1.2,17792,10474,14480,0,65728,65728,6,6,4,1460,421,1,993,43,33580,0,65700,1448,0,1,0,0
i,0x00000000,1718137083.370319,172.16.3.2,5101,172.16.1.2,17792,10474,14480,0,65728,65728,6,6,4,1460,421,1,992,43,33580,0,65700,0,0,1,0,0
o,0x00000000,1718137083.370325,172.16.3.2,5101,172.16.1.2,17792,10474,14480,0,65728,65700,6,6,4,1460,421,1,993,43,33580,0,65700,1448,0,1,0,0
i,0x00000000,1718137083.380523,172.16.3.2,5101,172.16.1.2,17792,10474,14480,0,65728,65700,6,6,4,1460,421,1,992,43,33580,0,65700,0,0,1,0,0
o,0x00000000,1718137083.380530,172.16.3.2,5101,172.16.1.2,17792,10474,14480,0,65728,65700,6,6,4,1460,421,1,993,43,33580,0,65700,1448,0,1,0,0
i,0x00000000,1718137083.391052,172.16.3.2,5101,172.16.1.2,17792,10474,14480,0,65728,65700,6,6,4,1460,421,1,992,43,33580,0,65700,0,0,1,0,0
o,0x00000000,1718137083.391065,172.16.3.2,5101,172.16.1.2,17792,10474,14480,0,65728,65700,6,6,4,1460,421,1,993,43,33580,0,65700,1448,0,1,0,0
i,0x00000000,1718137083.409157,172.16.3.2,5101,172.16.1.2,17792,10474,14480,0,65728,65700,6,6,4,1460,421,1,992,43,33580,0,65700,0,0,1,0,0
o,0x00000000,1718137083.409167,172.16.3.2,5101,172.16.1.2,17792,10474,14480,0,65728,65700,6,6,4,1460,421,1,993,43,33580,0,65700,1448,0,1,0,0
i,0x00000000,1718137083.419379,172.16.3.2,5101,172.16.1.2,17792,10474,14480,0,65728,65700,6,6,4,1460,421,1,992,43,33580,0,65700,0,0,1,0,0
o,0x00000000,1718137083.419389,172.16.3.2,5101,172.16.1.2,17792,10474,14480,0,65728,65700,6,6,4,1460,421,1,993,43,33580,0,65700,10136,0,0,0,0
i,0x00000000,1718137083.470016,172.16.3.2,5101,172.16.1.2,17792,10474,14480,0,65728,65700,6,6,4,1460,421,1,992,43,33580,0,65700,0,0,0,0,0
o,0x00000000,1718137083.509925,172.16.3.2,5101,172.16.1.2,17792,10474,14480,0,65728,65700,6,6,4,1460,421,1,993,43,33580,0,65700,0,0,0,0,0
i,0x00000000,1718137083.519769,172.16.3.2,5101,172.16.1.2,17792,10474,14480,0,65728,65700,6,6,4,1460,421,1,992,43,33580,0,65700,0,0,0,0,0
i,0x00000000,1718137083.540269,172.16.3.2,5101,172.16.1.2,17792,10474,14480,0,65728,65700,6,6,4,1460,421,1,992,43,33580,0,65700,0,0,0,0,0
o,0x00000000,1718137083.540276,172.16.3.2,5101,172.16.1.2,17792,10474,14480,0,65728,65700,6,6,4,1460,421,1,993,43,33580,0,65700,1448,0,0,0,0
i,0x00000000,1718137083.569334,172.16.3.2,5101,172.16.1.2,17792,10474,14480,0,65728,65700,6,6,4,1460,421,1,992,43,33580,0,65700,0,0,0,0,0
i,0x00000000,1718137083.579683,172.16.3.2,5101,172.16.1.2,17792,10474,14480,0,65728,65700,6,6,4,1460,421,1,992,43,33580,0,65700,0,0,0,0,0
o,0x00000000,1718137083.579690,172.16.3.2,5101,172.16.1.2,17792,10474,14480,0,65728,65700,6,6,4,1460,421,1,993,43,33580,0,65700,1448,0,0,0,0
i,0x00000000,1718137083.589956,172.16.3.2,5101,172.16.1.2,17792,10474,14480,0,65728,65700,6,6,4,1460,421,1,992,43,33580,0,65700,0,0,0,0,0
i,0x00000000,1718137083.600455,172.16.3.2,5101,172.16.1.2,17792,10474,14480,0,65728,65700,6,6,4,1460,421,1,992,43,33580,0,65700,0,0,0,0,0
o,0x00000000,1718137083.600466,172.16.3.2,5101,172.16.1.2,17792,10474,14480,0,65728,65700,6,6,4,1460,421,1,993,43,33580,0,65700,1448,0,0,0,0
i,0x00000000,1718137083.670823,172.16.3.2,5101,172.16.1.2,17792,10474,14480,0,65728,65700,6,6,4,1460,421,1,992,43,33580,0,65700,0,0,0,0,0
i,0x00000000,1718137083.680044,172.16.3.2,5101,172.16.1.2,17792,10474,14480,0,65728,65700,6,6,4,1460,421,1,992,43,33580,0,65700,0,0,0,0,0
o,0x00000000,1718137083.680065,172.16.3.2,5101,172.16.1.2,17792,10474,14480,0,65728,65700,6,6,4,1460,421,1,993,43,33580,0,65700,1448,0,0,0,0
i,0x00000000,1718137083.690435,172.16.3.2,5101,172.16.1.2,17792,10474,14480,0,65728,65700,6,6,4,1460,421,1,992,43,33580,0,65700,0,0,0,0,0
i,0x00000000,1718137083.700722,172.16.3.2,5101,172.16.1.2,17792,10474,14480,0,65728,65700,6,6,4,1460,421,1,992,43,33580,0,65700,0,0,0,0,0
o,0x00000000,1718137083.700733,172.16.3.2,5101,172.16.1.2,17792,10474,14480,0,65728,65700,6,6,4,1460,421,1,993,43,33580,0,65700,1448,0,0,0,0
i,0x00000000,1718137083.759662,172.16.3.2,5101,172.16.1.2,17792,10474,14480,0,65728,65700,6,6,4,1460,421,1,992,43,33580,0,65700,0,0,0,0,0
i,0x00000000,1718137083.780665,172.16.3.2,5101,172.16.1.2,17792,10474,14480,0,65728,65700,6,6,4,1460,421,1,992,43,33580,0,65700,0,0,0,0,0
o,0x00000000,1718137083.780688,172.16.3.2,5101,172.16.1.2,17792,10474,14480,0,65728,65700,6,6,4,1460,421,1,993,43,33580,0,65700,1448,0,0,0,0
i,0x00000000,1718137083.790017,172.16.3.2,5101,172.16.1.2,17792,10474,14480,0,65728,65700,6,6,4,1460,421,1,992,43,33580,0,65700,0,0,0,0,0
o,0x00000000,1718137083.831065,172.16.3.2,5101,172.16.1.2,17792,10474,14480,0,65728,65700,6,6,4,1460,421,1,993,43,33580,0,65700,0,0,0,0,0
i,0x00000000,1718137083.840016,172.16.3.2,5101,172.16.1.2,17792,10474,14480,0,65728,65700,6,6,4,1460,421,1,992,43,33580,0,65700,0,0,0,0,0
i,0x00000000,1718137083.870267,172.16.3.2,5101,172.16.1.2,17792,10474,14480,0,65728,65700,6,6,4,1460,421,1,992,43,33580,0,65700,0,0,0,0,0
o,0x00000000,1718137083.870287,172.16.3.2,5101,172.16.1.2,17792,10474,14480,0,65728,65700,6,6,4,1460,421,1,993,43,33580,0,65700,1448,0,0,0,0
i,0x00000000,1718137083.890706,172.16.3.2,5101,172.16.1.2,17792,10474,14480,0,65728,65700,6,6,4,1460,421,1,992,43,33580,0,65700,0,0,0,0,0
i,0x00000000,1718137083.900257,172.16.3.2,5101,172.16.1.2,17792,10474,14480,0,65728,65700,6,6,4,1460,421,1,992,43,33580,0,65700,0,0,0,0,0
o,0x00000000,1718137083.900276,172.16.3.2,5101,172.16.1.2,17792,10474,14480,0,65728,65700,6,6,4,1460,421,1,993,43,33580,0,65700,1448,0,0,0,0
i,0x00000000,1718137083.930348,172.16.3.2,5101,172.16.1.2,17792,10474,14480,0,65728,65700,6,6,4,1460,421,1,992,43,33580,0,65700,0,0,0,0,0
i,0x00000000,1718137083.950822,172.16.3.2,5101,172.16.1.2,17792,10474,14480,0,65728,65700,6,6,4,1460,421,1,992,43,33580,0,65700,0,0,0,0,0
o,0x00000000,1718137083.950834,172.16.3.2,5101,172.16.1.2,17792,10474,14480,0,65728,65700,6,6,4,1460,421,1,993,43,33580,0,65700,1448,0,0,0,0
i,0x00000000,1718137083.970573,172.16.3.2,5101,172.16.1.2,17792,10474,14480,0,65728,65700,6,6,4,1460,421,1,992,43,33580,0,65700,0,0,0,0,0
i,0x00000000,1718137083.979882,172.16.3.2,5101,172.16.1.2,17792,10474,14480,0,65728,65700,6,6,4,1460,421,1,992,43,33580,0,65700,0,0,0,0,0
o,0x00000000,1718137083.979889,172.16.3.2,5101,172.16.1.2,17792,10474,14480,0,65728,65700,6,6,4,1460,421,1,993,43,33580,0,65700,1448,0,0,0,0
i,0x00000000,1718137084.021525,172.16.3.2,5101,172.16.1.2,17792,10474,14480,0,65728,65700,6,6,4,1460,421,1,992,43,33580,0,65700,0,0,0,0,0
o,0x00000000,1718137084.060695,172.16.3.2,5101,172.16.1.2,17792,10474,14480,0,65728,65700,6,6,4,1460,421,1,993,43,33580,0,65700,0,0,0,0,0
i,0x00000000,1718137084.070573,172.16.3.2,5101,172.16.1.2,17792,10474,14480,0,65728,65700,6,6,4,1460,421,1,992,43,33580,0,65700,0,0,0,0,0
o,0x00000000,1718137084.080544,10.0.2.15,22,10.0.2.2,56402,1073725440,14600,0,65535,65700,0,0,4,1460,0,0,4,23,33580,108,65700,0,0,0,0,0
i,0x00000000,1718137084.081488,172.16.3.2,5101,172.16.1.2,17792,10474,14480,0,65728,65700,6,6,4,1460,421,1,992,43,33580,0,65700,0,0,0,0,0
o,0x00000000,1718137084.081504,172.16.3.2,5101,172.16.1.2,17792,10474,14480,0,65728,65700,6,6,4,1460,421,1,993,43,33580,0,65700,1448,0,0,0,0
i,0x00000000,1718137084.081921,10.0.2.15,22,10.0.2.2,56402,1073725440,14600,0,65535,65700,0,0,4,1460,0,0,4,23,33580,108,65700,0,108,0,0,0
