enable_time_secs=1717624926	enable_time_usecs=576704	siftrver=1.2.4	hz=100	tcp_rtt_scale=32	sysname=FreeBSD	sysver=1301000	ipmode=4
o,0x00000000,1717624926.576738,10.0.2.15,22,10.0.2.2,63919,1073725440,17298,0,65535,65700,0,0,4,1460,1,0,4,24,33580,44,65700,0,0,0,0,0
o,0x00000000,1717624926.576837,10.0.2.15,22,10.0.2.2,63919,1073725440,17298,0,65535,65700,0,0,4,1460,1,0,4,24,33580,80,65700,0,44,0,0,0
i,0x00000000,1717624926.577500,10.0.2.15,22,10.0.2.2,63919,1073725440,17298,0,65535,65700,0,0,4,1460,1,0,4,24,33580,80,65700,0,80,0,0,0
i,0x00000000,1717624926.577503,10.0.2.15,22,10.0.2.2,63919,1073725440,17342,0,65535,65700,0,0,4,1460,1,0,4,24,33580,36,65700,0,36,0,0,0
o,0x00000000,1717624926.577611,10.0.2.15,22,10.0.2.2,63919,1073725440,17378,0,65535,65700,0,0,4,1460,1,0,4,24,33580,36,65700,0,0,0,0,0
i,0x00000000,1717624926.578129,10.0.2.15,22,10.0.2.2,63919,1073725440,17378,0,65535,65700,0,0,4,1460,1,0,4,24,33580,36,65700,0,36,0,0,0
o,0x00000000,1717624926.578306,10.0.2.15,22,10.0.2.2,63919,1073725440,17414,0,65535,65700,0,0,4,1460,1,0,4,24,33580,176,65700,0,0,0,0,0
i,0x00000000,1717624926.578723,10.0.2.15,22,10.0.2.2,63919,1073725440,17414,0,65535,65700,0,0,4,1460,1,0,4,24,33580,176,65700,0,176,0,0,0
i,0x00000000,1717624926.580342,10.0.2.15,22,10.0.2.2,63919,1073725440,17590,0,65535,65700,0,0,4,1460,1,0,4,24,33580,0,65700,0,0,0,0,0
i,0x00000000,1717624926.580344,10.0.2.15,22,10.0.2.2,63919,1073725440,17590,0,65535,65700,0,0,4,1460,1,0,4,24,33580,0,65700,36,0,0,0,0
o,0x00000000,1717624926.580346,10.0.2.15,22,10.0.2.2,63919,1073725440,17590,0,65535,65700,0,0,4,1460,1,0,5,24,33580,0,65700,96,0,0,0,0
i,0x00000000,1717624926.580419,10.0.2.15,22,10.0.2.2,63919,1073725440,17590,0,65535,65700,0,0,4,1460,1,0,4,24,33580,0,65700,96,0,0,0,0
o,0x00000000,1717624926.580422,10.0.2.15,22,10.0.2.2,63919,1073725440,17590,0,65535,65604,0,0,5,1460,1,0,7,24,33580,0,65700,96,0,0,0,0
o,0x00000000,1717624926.581074,10.0.2.15,22,10.0.2.2,63919,1073725440,17590,0,65535,65604,0,0,8,1460,1,0,4,24,33580,0,65700,0,0,0,0,0
i,0x00000000,1717624926.581490,10.0.2.15,22,10.0.2.2,63919,1073725440,17590,0,65535,65604,0,0,8,1460,1,0,20,24,33580,0,65700,0,1,0,0,0
i,0x00000000,1717624928.661607,10.0.2.15,22,10.0.2.2,63922,1073725440,14600,0,65535,65700,0,0,4,1460,1,0,0,27,33580,0,65700,0,0,0,0,0
o,0x00000000,1717624928.667720,10.0.2.15,22,10.0.2.2,63922,1073725440,14600,0,65535,65700,0,0,4,1460,1,0,0,27,33580,38,65700,41,0,0,0,0
i,0x00000000,1717624928.668197,10.0.2.15,22,10.0.2.2,63922,1073725440,14600,0,65535,65700,0,0,4,1460,1,0,0,27,33580,38,65700,0,38,0,0,0
i,0x00000000,1717624928.668751,10.0.2.15,22,10.0.2.2,63922,1073725440,14638,0,65535,65700,0,0,4,1460,1,0,0,24,33580,0,65700,0,0,0,0,0
i,0x00000000,1717624928.668755,10.0.2.15,22,10.0.2.2,63922,1073725440,14638,0,65535,65700,0,0,4,1460,1,0,0,24,33580,0,65700,1460,0,0,0,0
o,0x00000000,1717624928.668758,10.0.2.15,22,10.0.2.2,63922,1073725440,14638,0,65535,65700,0,0,4,1460,1,0,1,24,33580,0,65700,1536,0,0,0,0
o,0x00000000,1717624928.669630,10.0.2.15,22,10.0.2.2,63922,1073725440,14638,0,65535,65700,0,0,4,1460,1,0,0,24,33580,1056,65700,1536,0,0,0,0
i,0x00000000,1717624928.670411,10.0.2.15,22,10.0.2.2,63922,1073725440,14638,0,65535,65700,0,0,4,1460,1,0,0,24,33580,1056,65700,1536,1056,0,0,0
i,0x00000000,1717624928.672193,10.0.2.15,22,10.0.2.2,63922,1073725440,15694,0,65535,65700,0,0,4,1460,1,0,0,24,33580,0,65700,0,0,0,0,0
o,0x00000000,1717624928.674884,10.0.2.15,22,10.0.2.2,63922,1073725440,15694,0,65535,65700,0,0,4,1460,1,0,0,24,33580,484,65700,0,0,0,0,0
i,0x00000000,1717624928.675541,10.0.2.15,22,10.0.2.2,63922,1073725440,15694,0,65535,65700,0,0,4,1460,1,0,0,24,33580,484,65700,0,484,0,0,0
i,0x00000000,1717624928.679908,10.0.2.15,22,10.0.2.2,63922,1073725440,16178,0,65535,65700,0,0,4,1460,1,0,0,24,33580,0,65700,0,0,0,0,0
i,0x00000000,1717624928.684004,10.0.2.15,22,10.0.2.2,63922,1073725440,16178,0,65535,65700,0,0,4,1460,1,0,0,24,33580,0,65700,0,0,0,0,0
o,0x00000000,1717624928.684008,10.0.2.15,22,10.0.2.2,63922,1073725440,16178,0,65535,65700,0,0,4,1460,1,0,1,24,33580,0,65700,44,0,0,0,0
o,0x00000000,1717624928.684150,10.0.2.15,22,10.0.2.2,63922,1073725440,16178,0,65535,65700,0,0,4,1460,1,0,0,24,33580,44,65700,0,0,0,0,0
i,0x00000000,1717624928.687076,10.0.2.15,22,10.0.2.2,63922,1073725440,16178,0,65535,65700,0,0,4,1460,1,0,0,24,33580,44,65700,0,44,0,0,0
i,0x00000000,1717624928.687886,10.0.2.15,22,10.0.2.2,63922,1073725440,16222,0,65535,65700,0,0,4,1460,1,0,0,24,33580,0,65700,0,0,0,0,0
o,0x00000000,1717624928.697317,10.0.2.15,22,10.0.2.2,63922,1073725440,16222,0,65535,65700,0,0,4,1460,1,0,0,24,33580,68,65700,0,0,0,0,0
i,0x00000000,1717624928.697781,10.0.2.15,22,10.0.2.2,63922,1073725440,16222,0,65535,65700,0,0,4,1460,1,0,0,24,33580,68,65700,0,68,0,0,0
i,0x00000000,1717624928.700479,10.0.2.15,22,10.0.2.2,63922,1073725440,16290,0,65535,65700,0,0,4,1460,1,0,0,24,33580,0,65700,0,0,0,0,0
o,0x00000000,1717624928.709838,10.0.2.15,22,10.0.2.2,63922,1073725440,16290,0,65535,65700,0,0,4,1460,1,0,0,24,33580,28,65700,0,0,0,0,0
i,0x00000000,1717624928.710357,10.0.2.15,22,10.0.2.2,63922,1073725440,16290,0,65535,65700,0,0,4,1460,1,0,0,24,33580,28,65700,0,28,0,0,0
i,0x00000000,1717624928.711081,10.0.2.15,22,10.0.2.2,63922,1073725440,16318,0,65535,65700,0,0,4,1460,1,0,0,24,33580,0,65700,0,0,0,0,0
o,0x00000000,1717624928.711512,10.0.2.15,22,10.0.2.2,63922,1073725440,16318,0,65535,65700,0,0,4,1460,1,0,0,24,33580,768,65700,112,0,0,0,0
i,0x00000000,1717624928.711934,10.0.2.15,22,10.0.2.2,63922,1073725440,16318,0,65535,65700,0,0,4,1460,1,0,0,24,33580,768,65700,112,768,0,0,0
o,0x00000000,1717624928.712032,10.0.2.15,22,10.0.2.2,63922,1073725440,17086,0,65535,65700,0,0,4,1460,1,0,0,24,33580,44,65700,0,0,0,0,0
i,0x00000000,1717624928.712545,10.0.2.15,22,10.0.2.2,63922,1073725440,17086,0,65535,65700,0,0,4,1460,1,0,0,24,33580,44,65700,0,44,0,0,0
i,0x00000000,1717624928.713087,10.0.2.15,22,10.0.2.2,63922,1073725440,17130,0,65535,65700,0,0,4,1460,1,0,0,24,33580,0,65700,0,0,0,0,0
o,0x00000000,1717624928.713402,10.0.2.15,22,10.0.2.2,63922,1073725440,17130,0,65535,65700,0,0,4,1460,1,0,4,24,33580,72,65700,0,0,0,0,0
i,0x00000000,1717624928.714059,10.0.2.15,22,10.0.2.2,63922,1073725440,17130,0,65535,65700,0,0,4,1460,1,0,4,24,33580,72,65700,0,72,0,0,0
o,0x00000000,1717624928.716708,10.0.2.15,22,10.0.2.2,63922,1073725440,17202,0,65535,65700,0,0,4,1460,1,0,4,24,33580,44,65700,0,0,0,0,0
i,0x00000000,1717624928.717277,10.0.2.15,22,10.0.2.2,63922,1073725440,17202,0,65535,65700,0,0,4,1460,1,0,4,24,33580,44,65700,0,44,0,0,0
o,0x00000000,1717624928.717602,10.0.2.15,22,10.0.2.2,63922,1073725440,17246,0,65535,65700,0,0,4,1460,1,0,4,24,33580,44,65700,0,0,0,0,0
i,0x00000000,1717624928.718031,10.0.2.15,22,10.0.2.2,63922,1073725440,17246,0,65535,65700,0,0,4,1460,1,0,4,24,33580,44,65700,0,44,0,0,0
o,0x00000000,1717624928.719423,10.0.2.15,22,10.0.2.2,63922,1073725440,17290,0,65535,65700,0,0,4,1460,1,0,4,24,33580,176,65700,0,0,0,0,0
i,0x00000000,1717624928.720113,10.0.2.15,22,10.0.2.2,63922,1073725440,17290,0,65535,65700,0,0,4,1460,1,0,4,24,33580,176,65700,0,176,0,0,0
i,0x00000000,1717624928.720116,10.0.2.15,22,10.0.2.2,63922,1073725440,17466,0,65535,65700,0,0,4,1460,1,0,4,24,33580,0,65700,0,0,0,0,0
i,0x00000000,1717624928.720459,10.0.2.15,22,10.0.2.2,63922,1073725440,17466,0,65535,65700,0,0,4,1460,1,0,4,24,33580,0,65700,36,0,0,0,0
o,0x00000000,1717624928.720462,10.0.2.15,22,10.0.2.2,63922,1073725440,17466,0,65535,65700,0,0,4,1460,1,0,5,24,33580,0,65700,96,0,0,0,0
i,0x00000000,1717624928.720540,10.0.2.15,22,10.0.2.2,63922,1073725440,17466,0,65535,65700,0,0,4,1460,1,0,4,24,33580,0,65700,96,0,0,0,0
o,0x00000000,1717624928.720544,10.0.2.15,22,10.0.2.2,63922,1073725440,17466,0,65535,65604,0,0,5,1460,1,0,7,24,33580,0,65700,96,0,0,0,0
o,0x00000000,1717624928.726699,10.0.2.15,22,10.0.2.2,63922,1073725440,17466,0,65535,65604,0,0,8,1460,1,0,4,24,33580,0,65700,0,0,0,0,0
i,0x00000000,1717624928.727150,10.0.2.15,22,10.0.2.2,63922,1073725440,17466,0,65535,65604,0,0,8,1460,1,0,20,24,33580,0,65700,0,1,0,0,0
i,0x00000000,1717624928.956458,172.16.3.2,5101,172.16.1.2,31106,9851,14480,0,65728,65700,6,6,4,1460,1282,1,992,185,33580,0,65700,0,0,0,0,0
o,0x00000000,1717624928.956533,172.16.3.2,5101,172.16.1.2,31106,9851,14480,0,65728,65700,6,6,4,1460,1282,1,996,185,33580,1,65700,0,0,0,0,0
i,0x00000000,1717624929.075665,172.16.3.2,5101,172.16.1.2,31106,9851,14480,0,65728,65700,6,6,4,1460,1282,1,996,185,33580,1,65700,0,1,0,0,0
i,0x00000000,1717624929.075681,172.16.3.2,5101,172.16.1.2,31106,9851,14480,0,65728,65728,6,6,4,1460,1170,1,996,178,33580,0,65700,4,0,0,0,0
o,0x00000000,1717624929.075688,172.16.3.2,5101,172.16.1.2,31106,9851,14480,0,65728,65728,6,6,4,1460,1170,1,997,178,33580,0,65700,128,0,0,0,0
o,0x00000000,1717624929.076093,172.16.3.2,5101,172.16.1.2,31106,9851,14480,0,65728,65728,6,6,4,1460,1170,1,996,178,33580,1,65700,0,0,0,0,0
o,0x00000000,1717624929.076237,10.0.2.15,22,10.0.2.2,61555,1073725440,14600,0,65535,65700,0,0,4,1460,0,0,4,23,33580,84,65700,0,0,0,0,0
i,0x00000000,1717624929.077214,10.0.2.15,22,10.0.2.2,61555,1073725440,14600,0,65535,65700,0,0,4,1460,0,0,4,23,33580,84,65700,0,84,0,0,0
i,0x00000000,1717624929.226582,172.16.3.2,5101,172.16.1.2,31106,9851,14480,0,65728,65728,6,6,4,1460,1170,1,996,178,33580,1,65700,0,1,0,0,0
i,0x00000000,1717624929.315635,172.16.3.2,5101,172.16.1.2,27540,9851,14480,0,65728,65700,6,6,4,1460,1282,1,992,185,33580,0,65700,0,0,0,0,0
o,0x00000000,1717624929.318022,172.16.3.2,5101,172.16.1.2,31106,9851,14480,0,65728,65728,6,6,4,1460,1080,1,996,167,33580,1,65700,0,0,0,0,0
o,0x00000000,1717624929.318118,172.16.3.2,5101,172.16.1.2,31106,9851,14480,0,65728,65728,6,6,4,1460,1080,1,996,167,33580,2,65700,0,1,0,0,0
o,0x00000000,1717624929.318504,10.0.2.15,22,10.0.2.2,61555,1073725440,14600,0,65535,65700,0,0,4,1460,0,0,4,23,33580,108,65700,0,0,0,0,0
i,0x00000000,1717624929.319345,10.0.2.15,22,10.0.2.2,61555,1073725440,14600,0,65535,65700,0,0,4,1460,0,0,4,23,33580,108,65700,0,108,0,0,0
o,0x00000000,1717624929.349458,172.16.3.2,5101,172.16.1.2,27540,9851,14480,0,65728,65700,6,6,4,1460,1282,1,993,185,33580,0,65700,0,0,0,0,0
i,0x00000000,1717624929.505414,172.16.3.2,5101,172.16.1.2,31106,9851,14480,0,65728,65728,6,6,4,1460,1080,1,996,167,33580,2,65700,0,2,0,0,0
i,0x00000000,1717624929.534633,172.16.3.2,5101,172.16.1.2,27540,9851,14480,0,65728,65700,6,6,4,1460,1282,1,992,185,33580,0,65700,0,0,0,0,0
i,0x00000000,1717624929.545065,172.16.3.2,5101,172.16.1.2,27540,9851,14480,0,65728,65700,6,6,4,1460,1282,1,992,185,33580,0,65700,0,0,0,0,0
o,0x00000000,1717624929.545076,172.16.3.2,5101,172.16.1.2,27540,9851,14480,0,65728,65700,6,6,4,1460,1282,1,993,185,33580,0,65700,1448,0,0,0,0
i,0x00000000,1717624929.555567,172.16.3.2,5101,172.16.1.2,27540,9851,14480,0,65728,65700,6,6,4,1460,1282,1,992,185,33580,0,65700,0,0,0,0,0
i,0x00000000,1717624929.565170,172.16.3.2,5101,172.16.1.2,27540,9851,14480,0,65728,65700,6,6,4,1460,1282,1,992,185,33580,0,65700,0,0,0,0,0
o,0x00000000,1717624929.565180,172.16.3.2,5101,172.16.1.2,27540,9851,14480,0,65728,65700,6,6,4,1460,1282,1,993,185,33580,0,65700,1448,0,0,0,0
i,0x00000000,1717624929.585235,172.16.3.2,5101,172.16.1.2,27540,9851,14480,0,65728,65700,6,6,4,1460,1282,1,992,185,33580,0,65700,0,0,0,0,0
i,0x00000000,1717624929.595644,172.16.3.2,5101,172.16.1.2,27540,9851,14480,0,65728,65700,6,6,4,1460,1282,1,992,185,33580,0,65700,0,0,0,0,0
o,0x00000000,1717624929.595652,172.16.3.2,5101,172.16.1.2,27540,9851,14480,0,65728,65700,6,6,4,1460,1282,1,993,185,33580,0,65700,1448,0,0,0,0
i,0x00000000,1717624929.604367,172.16.3.2,5101,172.16.1.2,27540,9851,14480,0,65728,65700,6,6,4,1460,1282,1,992,185,33580,0,65700,0,0,0,0,0
i,0x00000000,1717624929.614829,172.16.3.2,5101,172.16.1.2,27540,9851,14480,0,65728,65700,6,6,4,1460,1282,1,992,185,33580,0,65700,0,0,0,0,0
o,0x00000000,1717624929.614835,172.16.3.2,5101,172.16.1.2,27540,9851,14480,0,65728,65700,6,6,4,1460,1282,1,993,185,33580,0,65700,1448,0,0,0,0
i,0x00000000,1717624929.625200,172.16.3.2,5101,172.16.1.2,27540,9851,14480,0,65728,65700,6,6,4,1460,1282,1,992,185,33580,0,65700,0,0,0,0,0
i,0x00000000,1717624929.645089,172.16.3.2,5101,172.16.1.2,27540,9851,14480,0,65728,65700,6,6,4,1460,1282,1,992,185,33580,0,65700,0,0,0,0,0
o,0x00000000,1717624929.645096,172.16.3.2,5101,172.16.1.2,27540,9851,14480,0,65728,65700,6,6,4,1460,1282,1,993,185,33580,0,65700,1448,0,0,0,0
i,0x00000000,1717624929.844543,172.16.3.2,5101,172.16.1.2,27540,9851,14480,0,65728,65700,6,6,4,1460,1282,1,992,185,33580,0,65700,0,0,0,0,0
i,0x00000000,1717624929.856553,172.16.3.2,5101,172.16.1.2,27540,9851,14480,0,65728,65700,6,6,4,1460,1282,1,992,185,33580,0,65700,0,0,0,0,0
o,0x00000000,1717624929.856564,172.16.3.2,5101,172.16.1.2,27540,9851,14480,0,65728,65700,6,6,4,1460,1282,1,993,185,33580,0,65700,1448,0,0,0,0
i,0x00000000,1717624929.865479,172.16.3.2,5101,172.16.1.2,27540,9851,14480,0,65728,65700,6,6,4,1460,1282,1,992,185,33580,0,65700,0,0,0,0,0
i,0x00000000,1717624929.885316,172.16.3.2,5101,172.16.1.2,27540,9851,14480,0,65728,65700,6,6,4,1460,1282,1,992,185,33580,0,65700,0,0,0,0,0
o,0x00000000,1717624929.885322,172.16.3.2,5101,172.16.1.2,27540,9851,14480,0,65728,65700,6,6,4,1460,1282,1,993,185,33580,0,65700,1448,0,0,0,0
i,0x00000000,1717624929.894566,172.16.3.2,5101,172.16.1.2,27540,9851,14480,0,65728,65700,6,6,4,1460,1282,1,992,185,33580,0,65700,0,0,0,0,0
i,0x00000000,1717624929.905053,172.16.3.2,5101,172.16.1.2,27540,9851,14480,0,65728,65700,6,6,4,1460,1282,1,992,185,33580,0,65700,0,0,0,0,0
o,0x00000000,1717624929.905060,172.16.3.2,5101,172.16.1.2,27540,9851,14480,0,65728,65700,6,6,4,1460,1282,1,993,185,33580,0,65700,1448,0,0,0,0
i,0x00000000,1717624929.915517,172.16.3.2,5101,172.16.1.2,27540,9851,14480,0,65728,65700,6,6,4,1460,1282,1,992,185,33580,0,65700,0,0,0,0,0
i,0x00000000,1717624929.926019,172.16.3.2,5101,172.16.1.2,27540,9851,14480,0,65728,65700,6,6,4,1460,1282,1,992,185,33580,0,65700,0,0,0,0,0
o,0x00000000,1717624929.926026,172.16.3.2,5101,172.16.1.2,27540,9851,14480,0,65728,65700,6,6,4,1460,1282,1,993,185,33580,0,65700,1448,0,0,0,0
i,0x00000000,1717624929.944871,172.16.3.2,5101,172.16.1.2,27540,9851,14480,0,65728,65700,6,6,4,1460,1282,1,992,185,33580,0,65700,0,0,0,0,0
i,0x00000000,1717624929.955304,172.16.3.2,5101,172.16.1.2,27540,9851,14480,0,65728,65700,6,6,4,1460,1282,1,992,185,33580,0,65700,0,0,0,0,0
o,0x00000000,1717624929.955311,172.16.3.2,5101,172.16.1.2,27540,9851,14480,0,65728,65700,6,6,4,1460,1282,1,993,185,33580,0,65700,1448,0,0,0,0
i,0x00000000,1717624929.965900,172.16.3.2,5101,172.16.1.2,27540,9851,14480,0,65728,65700,6,6,4,1460,1282,1,992,185,33580,0,65700,0,0,0,0,0
o,0x00000000,1717624929.999600,172.16.3.2,5101,172.16.1.2,27540,9851,14480,0,65728,65700,6,6,4,1460,1282,1,993,185,33580,0,65700,0,0,0,0,0
i,0x00000000,1717624930.145348,172.16.3.2,5101,172.16.1.2,27540,9851,14480,0,65728,65700,6,6,4,1460,1282,1,992,185,33580,0,65700,0,0,0,0,0
i,0x00000000,1717624930.155597,172.16.3.2,5101,172.16.1.2,27540,9851,14480,0,65728,65700,6,6,4,1460,1282,1,992,185,33580,0,65700,0,0,0,0,0
o,0x00000000,1717624930.155607,172.16.3.2,5101,172.16.1.2,27540,9851,14480,0,65728,65700,6,6,4,1460,1282,1,993,185,33580,0,65700,1448,0,0,0,0
i,0x00000000,1717624930.165006,172.16.3.2,5101,172.16.1.2,27540,9851,14480,0,65728,65700,6,6,4,1460,1282,1,992,185,33580,0,65700,0,0,0,0,0
i,0x00000000,1717624930.174578,172.16.3.2,5101,172.16.1.2,27540,9851,14480,0,65728,65700,6,6,4,1460,1282,1,992,185,33580,0,65700,0,0,0,0,0
o,0x00000000,1717624930.174584,172.16.3.2,5101,172.16.1.2,27540,9851,14480,0,65728,65700,6,6,4,1460,1282,1,993,185,33580,0,65700,1448,0,0,0,0
i,0x00000000,1717624930.195433,172.16.3.2,5101,172.16.1.2,27540,9851,14480,0,65728,65700,6,6,4,1460,1282,1,992,185,33580,0,65700,0,0,0,0,0
i,0x00000000,1717624930.204961,172.16.3.2,5101,172.16.1.2,27540,9851,14480,0,65728,65700,6,6,4,1460,1282,1,992,185,33580,0,65700,0,0,0,0,0
o,0x00000000,1717624930.204968,172.16.3.2,5101,172.16.1.2,27540,9851,14480,0,65728,65700,6,6,4,1460,1282,1,993,185,33580,0,65700,1448,0,0,0,0
i,0x00000000,1717624930.215379,172.16.3.2,5101,172.16.1.2,27540,9851,14480,0,65728,65700,6,6,4,1460,1282,1,992,185,33580,0,65700,0,0,0,0,0
i,0x00000000,1717624930.224768,172.16.3.2,5101,172.16.1.2,27540,9851,14480,0,65728,65700,6,6,4,1460,1282,1,992,185,33580,0,65700,0,0,0,0,0
o,0x00000000,1717624930.224778,172.16.3.2,5101,172.16.1.2,27540,9851,14480,0,65728,65700,6,6,4,1460,1282,1,993,185,33580,0,65700,1448,0,0,0,0
i,0x00000000,1717624930.235134,172.16.3.2,5101,172.16.1.2,27540,9851,14480,0,65728,65700,6,6,4,1460,1282,1,992,185,33580,0,65700,0,0,0,0,0
i,0x00000000,1717624930.255093,172.16.3.2,5101,172.16.1.2,27540,9851,14480,0,65728,65700,6,6,4,1460,1282,1,992,185,33580,0,65700,0,0,0,0,0
o,0x00000000,1717624930.255101,172.16.3.2,5101,172.16.1.2,27540,9851,14480,0,65728,65700,6,6,4,1460,1282,1,993,185,33580,0,65700,1448,0,0,0,0
i,0x00000000,1717624930.305351,172.16.3.2,5101,172.16.1.2,27540,9851,14480,0,65728,65700,6,6,4,1460,1282,1,992,185,33580,0,65700,0,0,0,0,0
i,0x00000000,1717624930.315971,172.16.3.2,5101,172.16.1.2,27540,9851,14480,0,65728,65700,6,6,4,1460,1282,1,992,185,33580,0,65700,0,0,0,0,0
o,0x00000000,1717624930.315981,172.16.3.2,5101,172.16.1.2,27540,9851,14480,0,65728,65700,6,6,4,1460,1282,1,993,185,33580,0,65700,1448,0,0,0,0
o,0x00000000,1717624930.320391,10.0.2.15,22,10.0.2.2,61555,1073725440,14600,0,65535,65700,0,0,4,1460,32,0,4,23,33580,156,65700,0,0,0,0,0
i,0x00000000,1717624930.321053,10.0.2.15,22,10.0.2.2,61555,1073725440,14600,0,65535,65700,0,0,4,1460,32,0,4,23,33580,156,65700,0,156,0,0,0
i,0x00000000,1717624930.444929,172.16.3.2,5101,172.16.1.2,27540,9851,14480,0,65728,65700,6,6,4,1460,1282,1,992,185,33580,0,65700,0,0,0,0,0
i,0x00000000,1717624930.454351,172.16.3.2,5101,172.16.1.2,27540,9851,14480,0,65728,65700,6,6,4,1460,1282,1,992,185,33580,0,65700,0,0,0,0,0
o,0x00000000,1717624930.454363,172.16.3.2,5101,172.16.1.2,27540,9851,14480,0,65728,65700,6,6,4,1460,1282,1,993,185,33580,0,65700,1448,0,0,0,0
i,0x00000000,1717624930.475410,172.16.3.2,5101,172.16.1.2,27540,9851,14480,0,65728,65700,6,6,4,1460,1282,1,992,185,33580,0,65700,0,0,0,0,0
i,0x00000000,1717624930.484780,172.16.3.2,5101,172.16.1.2,27540,9851,14480,0,65728,65700,6,6,4,1460,1282,1,992,185,33580,0,65700,0,0,0,0,0
o,0x00000000,1717624930.484789,172.16.3.2,5101,172.16.1.2,27540,9851,14480,0,65728,65700,6,6,4,1460,1282,1,993,185,33580,0,65700,1448,0,0,0,0
i,0x00000000,1717624930.494190,172.16.3.2,5101,172.16.1.2,27540,9851,14480,0,65728,65700,6,6,4,1460,1282,1,992,185,33580,0,65700,0,0,0,0,0
i,0x00000000,1717624930.505684,172.16.3.2,5101,172.16.1.2,27540,9851,14480,0,65728,65700,6,6,4,1460,1282,1,992,185,33580,0,65700,0,0,0,0,0
o,0x00000000,1717624930.505690,172.16.3.2,5101,172.16.1.2,27540,9851,14480,0,65728,65700,6,6,4,1460,1282,1,993,185,33580,0,65700,1448,0,0,0,0
i,0x00000000,1717624930.515044,172.16.3.2,5101,172.16.1.2,27540,9851,14480,0,65728,65700,6,6,4,1460,1282,1,992,185,33580,0,65700,0,0,0,0,0
i,0x00000000,1717624930.534805,172.16.3.2,5101,172.16.1.2,27540,9851,14480,0,65728,65700,6,6,4,1460,1282,1,992,185,33580,0,65700,0,0,0,0,0
o,0x00000000,1717624930.534812,172.16.3.2,5101,172.16.1.2,27540,9851,14480,0,65728,65700,6,6,4,1460,1282,1,993,185,33580,0,65700,1448,0,0,0,0
i,0x00000000,1717624930.545504,172.16.3.2,5101,172.16.1.2,27540,9851,14480,0,65728,65700,6,6,4,1460,1282,1,992,185,33580,0,65700,0,0,0,0,0
i,0x00000000,1717624930.555829,172.16.3.2,5101,172.16.1.2,27540,9851,14480,0,65728,65700,6,6,4,1460,1282,1,992,185,33580,0,65700,0,0,0,0,0
o,0x00000000,1717624930.555837,172.16.3.2,5101,172.16.1.2,27540,9851,14480,0,65728,65700,6,6,4,1460,1282,1,993,185,33580,0,65700,1448,0,0,0,0
i,0x00000000,1717624930.605463,172.16.3.2,5101,172.16.1.2,27540,9851,14480,0,65728,65700,6,6,4,1460,1282,1,992,185,33580,0,65700,0,0,0,0,0
i,0x00000000,1717624930.614955,172.16.3.2,5101,172.16.1.2,27540,9851,14480,0,65728,65700,6,6,4,1460,1282,1,992,185,33580,0,65700,0,0,0,0,0
o,0x00000000,1717624930.614964,172.16.3.2,5101,172.16.1.2,27540,9851,14480,0,65728,65700,6,6,4,1460,1282,1,993,185,33580,0,65700,1448,0,0,0,0
i,0x00000000,1717624930.634834,172.16.3.2,5101,172.16.1.2,27540,9851,14480,0,65728,65700,6,6,4,1460,1282,1,992,185,33580,0,65700,0,0,0,0,0
o,0x00000000,1717624930.670320,172.16.3.2,5101,172.16.1.2,27540,9851,14480,0,65728,65700,6,6,4,1460,1282,1,993,185,33580,0,65700,0,0,0,0,0
i,0x00000000,1717624930.764671,172.16.3.2,5101,172.16.1.2,27540,9851,14480,0,65728,65700,6,6,4,1460,1282,1,992,185,33580,0,65700,0,0,0,0,0
i,0x00000000,1717624930.775265,172.16.3.2,5101,172.16.1.2,27540,9851,14480,0,65728,65700,6,6,4,1460,1282,1,992,185,33580,0,65700,0,0,0,0,0
o,0x00000000,1717624930.775275,172.16.3.2,5101,172.16.1.2,27540,9851,14480,0,65728,65700,6,6,4,1460,1282,1,993,185,33580,0,65700,1448,0,0,0,0
i,0x00000000,1717624930.785488,172.16.3.2,5101,172.16.1.2,27540,9851,14480,0,65728,65700,6,6,4,1460,1282,1,992,185,33580,0,65700,0,0,0,0,0
i,0x00000000,1717624930.804806,172.16.3.2,5101,172.16.1.2,27540,9851,14480,0,65728,65700,6,6,4,1460,1282,1,992,185,33580,0,65700,0,0,0,0,0
o,0x00000000,1717624930.804814,172.16.3.2,5101,172.16.1.2,27540,9851,14480,0,65728,65700,6,6,4,1460,1282,1,993,185,33580,0,65700,1448,0,0,0,0
i,0x00000000,1717624930.815183,172.16.3.2,5101,172.16.1.2,27540,9851,14480,0,65728,65700,6,6,4,1460,1282,1,992,185,33580,0,65700,0,0,0,0,0
i,0x00000000,1717624930.824651,172.16.3.2,5101,172.16.1.2,27540,9851,14480,0,65728,65700,6,6,4,1460,1282,1,992,185,33580,0,65700,0,0,0,0,0
o,0x00000000,1717624930.824657,172.16.3.2,5101,172.16.1.2,27540,9851,14480,0,65728,65700,6,6,4,1460,1282,1,993,185,33580,0,65700,1448,0,0,0,0
i,0x00000000,1717624930.835058,172.16.3.2,5101,172.16.1.2,27540,9851,14480,0,65728,65700,6,6,4,1460,1282,1,992,185,33580,0,65700,0,0,0,0,0
i,0x00000000,1717624930.844513,172.16.3.2,5101,172.16.1.2,27540,9851,14480,0,65728,65700,6,6,4,1460,1282,1,992,185,33580,0,65700,0,0,0,0,0
o,0x00000000,1717624930.844520,172.16.3.2,5101,172.16.1.2,27540,9851,14480,0,65728,65700,6,6,4,1460,1282,1,993,185,33580,0,65700,1448,0,0,0,0
i,0x00000000,1717624930.864288,172.16.3.2,5101,172.16.1.2,27540,9851,14480,0,65728,65700,6,6,4,1460,1282,1,992,185,33580,0,65700,0,0,0,0,0
i,0x00000000,1717624930.874820,172.16.3.2,5101,172.16.1.2,27540,9851,14480,0,65728,65700,6,6,4,1460,1282,1,992,185,33580,0,65700,0,0,0,0,0
o,0x00000000,1717624930.874826,172.16.3.2,5101,172.16.1.2,27540,9851,14480,0,65728,65700,6,6,4,1460,1282,1,993,185,33580,0,65700,1448,0,0,0,0
i,0x00000000,1717624930.925047,172.16.3.2,5101,172.16.1.2,27540,9851,14480,0,65728,65700,6,6,4,1460,1282,1,992,185,33580,0,65700,0,0,0,0,0
i,0x00000000,1717624930.935407,172.16.3.2,5101,172.16.1.2,27540,9851,14480,0,65728,65700,6,6,4,1460,1282,1,992,185,33580,0,65700,0,0,0,0,0
o,0x00000000,1717624930.935416,172.16.3.2,5101,172.16.1.2,27540,9851,14480,0,65728,65700,6,6,4,1460,1282,1,993,185,33580,0,65700,1448,0,0,0,0
i,0x00000000,1717624931.054120,172.16.3.2,5101,172.16.1.2,27540,9851,14480,0,65728,65700,6,6,4,1460,1282,1,992,185,33580,0,65700,0,0,0,0,0
i,0x00000000,1717624931.064595,172.16.3.2,5101,172.16.1.2,27540,9851,14480,0,65728,65700,6,6,4,1460,1282,1,992,185,33580,0,65700,0,0,0,0,0
o,0x00000000,1717624931.064607,172.16.3.2,5101,172.16.1.2,27540,9851,14480,0,65728,65700,6,6,4,1460,1282,1,993,185,33580,0,65700,1448,0,0,0,0
i,0x00000000,1717624931.084647,172.16.3.2,5101,172.16.1.2,27540,9851,14480,0,65728,65700,6,6,4,1460,1282,1,992,185,33580,0,65700,0,0,0,0,0
i,0x00000000,1717624931.095032,172.16.3.2,5101,172.16.1.2,27540,9851,14480,0,65728,65700,6,6,4,1460,1282,1,992,185,33580,0,65700,0,0,0,0,0
o,0x00000000,1717624931.095041,172.16.3.2,5101,172.16.1.2,27540,9851,14480,0,65728,65700,6,6,4,1460,1282,1,993,185,33580,0,65700,1448,0,0,0,0
i,0x00000000,1717624931.105854,172.16.3.2,5101,172.16.1.2,27540,9851,14480,0,65728,65700,6,6,4,1460,1282,1,992,185,33580,0,65700,0,0,0,0,0
i,0x00000000,1717624931.114848,172.16.3.2,5101,172.16.1.2,27540,9851,14480,0,65728,65700,6,6,4,1460,1282,1,992,185,33580,0,65700,0,0,0,0,0
o,0x00000000,1717624931.114856,172.16.3.2,5101,172.16.1.2,27540,9851,14480,0,65728,65700,6,6,4,1460,1282,1,993,185,33580,0,65700,1448,0,0,0,0
i,0x00000000,1717624931.125472,172.16.3.2,5101,172.16.1.2,27540,9851,14480,0,65728,65700,6,6,4,1460,1282,1,992,185,33580,0,65700,0,0,0,0,0
i,0x00000000,1717624931.144288,172.16.3.2,5101,172.16.1.2,27540,9851,14480,0,65728,65700,6,6,4,1460,1282,1,992,185,33580,0,65700,0,0,0,0,0
o,0x00000000,1717624931.144296,172.16.3.2,5101,172.16.1.2,27540,9851,14480,0,65728,65700,6,6,4,1460,1282,1,993,185,33580,0,65700,1448,0,0,0,0
i,0x00000000,1717624931.174670,172.16.3.2,5101,172.16.1.2,27540,9851,14480,0,65728,65700,6,6,4,1460,1282,1,992,185,33580,0,65700,0,0,0,0,0
i,0x00000000,1717624931.185107,172.16.3.2,5101,172.16.1.2,27540,9851,14480,0,65728,65700,6,6,4,1460,1282,1,992,185,33580,0,65700,0,0,0,0,0
o,0x00000000,1717624931.185115,172.16.3.2,5101,172.16.1.2,27540,9851,14480,0,65728,65700,6,6,4,1460,1282,1,993,185,33580,0,65700,1448,0,0,0,0
i,0x00000000,1717624931.204053,172.16.3.2,5101,172.16.1.2,27540,9851,14480,0,65728,65700,6,6,4,1460,1282,1,992,185,33580,0,65700,0,0,0,0,0
i,0x00000000,1717624931.215524,172.16.3.2,5101,172.16.1.2,27540,9851,14480,0,65728,65700,6,6,4,1460,1282,1,992,185,33580,0,65700,0,0,0,0,0
o,0x00000000,1717624931.215534,172.16.3.2,5101,172.16.1.2,27540,9851,14480,0,65728,65700,6,6,4,1460,1282,1,993,185,33580,0,65700,1448,0,0,0,0
o,0x00000000,1717624931.330985,10.0.2.15,22,10.0.2.2,61555,1073725440,14600,0,65535,65700,0,0,4,1460,24,0,4,24,33580,108,65700,0,0,0,0,0
i,0x00000000,1717624931.331745,10.0.2.15,22,10.0.2.2,61555,1073725440,14600,0,65535,65700,0,0,4,1460,24,0,4,24,33580,108,65700,0,108,0,0,0
i,0x00000000,1717624931.365446,172.16.3.2,5101,172.16.1.2,27540,9851,14480,0,65728,65700,6,6,4,1460,1282,1,992,185,33580,0,65700,0,0,0,0,0
i,0x00000000,1717624931.375035,172.16.3.2,5101,172.16.1.2,27540,9851,14480,0,65728,65700,6,6,4,1460,1282,1,992,185,33580,0,65700,0,0,0,0,0
o,0x00000000,1717624931.375044,172.16.3.2,5101,172.16.1.2,27540,9851,14480,0,65728,65700,6,6,4,1460,1282,1,993,185,33580,0,65700,1448,0,0,0,0
i,0x00000000,1717624931.414710,172.16.3.2,5101,172.16.1.2,27540,9851,14480,0,65728,65700,6,6,4,1460,1282,1,992,185,33580,0,65700,0,0,0,0,0
i,0x00000000,1717624931.426073,172.16.3.2,5101,172.16.1.2,27540,9851,14480,0,65728,65700,6,6,4,1460,1282,1,992,185,33580,0,65700,0,0,0,0,0
o,0x00000000,1717624931.426086,172.16.3.2,5101,172.16.1.2,27540,9851,14480,0,65728,65700,6,6,4,1460,1282,1,993,185,33580,0,65700,1448,0,0,0,0
i,0x00000000,1717624931.434381,172.16.3.2,5101,172.16.1.2,27540,9851,14480,0,65728,65700,6,6,4,1460,1282,1,992,185,33580,0,65700,0,0,0,0,0
i,0x00000000,1717624931.444931,172.16.3.2,5101,172.16.1.2,27540,9851,14480,0,65728,65700,6,6,4,1460,1282,1,992,185,33580,0,65700,0,0,0,0,0
o,0x00000000,1717624931.444939,172.16.3.2,5101,172.16.1.2,27540,9851,14480,0,65728,65700,6,6,4,1460,1282,1,993,185,33580,0,65700,1448,0,0,0,0
i,0x00000000,1717624931.454150,172.16.3.2,5101,172.16.1.2,27540,9851,14480,0,65728,65700,6,6,4,1460,1282,1,992,185,33580,0,65700,0,0,0,0,0
i,0x00000000,1717624931.475377,172.16.3.2,5101,172.16.1.2,27540,9851,14480,0,65728,65700,6,6,4,1460,1282,1,992,185,33580,0,65700,0,0,0,0,0
o,0x00000000,1717624931.475387,172.16.3.2,5101,172.16.1.2,27540,9851,14480,0,65728,65700,6,6,4,1460,1282,1,993,185,33580,0,65700,1448,0,0,0,0
i,0x00000000,1717624931.484638,172.16.3.2,5101,172.16.1.2,27540,9851,14480,0,65728,65700,6,6,4,1460,1282,1,992,185,33580,0,65700,0,0,0,0,0
i,0x00000000,1717624931.495244,172.16.3.2,5101,172.16.1.2,27540,9851,14480,0,65728,65700,6,6,4,1460,1282,1,992,185,33580,0,65700,0,0,0,0,0
o,0x00000000,1717624931.495251,172.16.3.2,5101,172.16.1.2,27540,9851,14480,0,65728,65700,6,6,4,1460,1282,1,993,185,33580,0,65700,1448,0,0,0,0
i,0x00000000,1717624931.505569,172.16.3.2,5101,172.16.1.2,27540,9851,14480,0,65728,65700,6,6,4,1460,1282,1,992,185,33580,0,65700,0,0,0,0,0
o,0x00000000,1717624931.540332,172.16.3.2,5101,172.16.1.2,27540,9851,14480,0,65728,65700,6,6,4,1460,1282,1,993,185,33580,0,65700,0,0,0,0,0
i,0x00000000,1717624931.544599,172.16.3.2,5101,172.16.1.2,27540,9851,14480,0,65728,65700,6,6,4,1460,1282,1,992,185,33580,0,65700,0,0,0,0,0
i,0x00000000,1717624931.555072,172.16.3.2,5101,172.16.1.2,27540,9851,14480,0,65728,65700,6,6,4,1460,1282,1,992,185,33580,0,65700,0,0,0,0,0
o,0x00000000,1717624931.555080,172.16.3.2,5101,172.16.1.2,27540,9851,14480,0,65728,65700,6,6,4,1460,1282,1,993,185,33580,0,65700,1448,0,0,0,0
i,0x00000000,1717624931.564690,172.16.3.2,5101,172.16.1.2,27540,9851,14480,0,65728,65700,6,6,4,1460,1282,1,992,185,33580,0,65700,0,0,0,0,0
i,0x00000000,1717624931.584398,172.16.3.2,5101,172.16.1.2,27540,9851,14480,0,65728,65700,6,6,4,1460,1282,1,992,185,33580,0,65700,0,0,0,0,0
o,0x00000000,1717624931.584406,172.16.3.2,5101,172.16.1.2,27540,9851,14480,0,65728,65700,6,6,4,1460,1282,1,993,185,33580,0,65700,1448,0,0,0,0
i,0x00000000,1717624931.724811,172.16.3.2,5101,172.16.1.2,27540,9851,14480,0,65728,65700,6,6,4,1460,1282,1,992,185,33580,0,65700,0,0,0,0,0
i,0x00000000,1717624931.744013,172.16.3.2,5101,172.16.1.2,27540,9851,14480,0,65728,65700,6,6,4,1460,1282,1,992,185,33580,0,65700,0,0,0,0,0
o,0x00000000,1717624931.744025,172.16.3.2,5101,172.16.1.2,27540,9851,14480,0,65728,65700,6,6,4,1460,1282,1,993,185,33580,0,65700,1448,0,0,0,0
i,0x00000000,1717624931.783819,172.16.3.2,5101,172.16.1.2,27540,9851,14480,0,65728,65700,6,6,4,1460,1282,1,992,185,33580,0,65700,0,0,0,0,0
i,0x00000000,1717624931.804632,172.16.3.2,5101,172.16.1.2,27540,9851,14480,0,65728,65700,6,6,4,1460,1282,1,992,185,33580,0,65700,0,0,0,0,0
o,0x00000000,1717624931.804641,172.16.3.2,5101,172.16.1.2,27540,9851,14480,0,65728,65700,6,6,4,1460,1282,1,993,185,33580,0,65700,1448,0,0,0,0
i,0x00000000,1717624931.814972,172.16.3.2,5101,172.16.1.2,27540,9851,14480,0,65728,65700,6,6,4,1460,1282,1,992,185,33580,0,65700,0,0,0,0,0
i,0x00000000,1717624931.824571,172.16.3.2,5101,172.16.1.2,27540,9851,14480,0,65728,65700,6,6,4,1460,1282,1,992,185,33580,0,65700,0,0,0,0,0
o,0x00000000,1717624931.824577,172.16.3.2,5101,172.16.1.2,27540,9851,14480,0,65728,65700,6,6,4,1460,1282,1,993,185,33580,0,65700,1448,0,0,0,0
i,0x00000000,1717624931.834945,172.16.3.2,5101,172.16.1.2,27540,9851,14480,0,65728,65700,6,6,4,1460,1282,1,992,185,33580,0,65700,0,0,0,0,0
i,0x00000000,1717624931.844433,172.16.3.2,5101,172.16.1.2,27540,9851,14480,0,65728,65700,6,6,4,1460,1282,1,992,185,33580,0,65700,0,0,0,0,0
o,0x00000000,1717624931.844440,172.16.3.2,5101,172.16.1.2,27540,9851,14480,0,65728,65700,6,6,4,1460,1282,1,993,185,33580,0,65700,1448,0,0,0,0
i,0x00000000,1717624931.865378,172.16.3.2,5101,172.16.1.2,27540,9851,14480,0,65728,65700,6,6,4,1460,1282,1,992,185,33580,0,65700,0,0,0,0,0
i,0x00000000,1717624931.874800,172.16.3.2,5101,172.16.1.2,27540,9851,14480,0,65728,65700,6,6,4,1460,1282,1,992,185,33580,0,65700,0,0,0,0,0
o,0x00000000,1717624931.874807,172.16.3.2,5101,172.16.1.2,27540,9851,14480,0,65728,65700,6,6,4,1460,1282,1,993,185,33580,0,65700,1448,0,0,0,0
i,0x00000000,1717624931.884318,172.16.3.2,5101,172.16.1.2,27540,9851,14480,0,65728,65700,6,6,4,1460,1282,1,992,185,33580,0,65700,0,0,0,0,0
o,0x00000000,1717624931.920049,172.16.3.2,5101,172.16.1.2,27540,9851,14480,0,65728,65700,6,6,4,1460,1282,1,993,185,33580,0,65700,0,0,0,0,0
i,0x00000000,1717624931.923984,172.16.3.2,5101,172.16.1.2,27540,9851,14480,0,65728,65700,6,6,4,1460,1282,1,992,185,33580,0,65700,0,0,0,0,0
i,0x00000000,1717624931.934592,172.16.3.2,5101,172.16.1.2,27540,9851,14480,0,65728,65700,6,6,4,1460,1282,1,992,185,33580,0,65700,0,0,0,0,0
o,0x00000000,1717624931.934598,172.16.3.2,5101,172.16.1.2,27540,9851,14480,0,65728,65700,6,6,4,1460,1282,1,993,185,33580,0,65700,1448,0,0,0,0
i,0x00000000,1717624931.945061,172.16.3.2,5101,172.16.1.2,27540,9851,14480,0,65728,65700,6,6,4,1460,1282,1,992,185,33580,0,65700,0,0,0,0,0
i,0x00000000,1717624931.964818,172.16.3.2,5101,172.16.1.2,27540,9851,14480,0,65728,65700,6,6,4,1460,1282,1,992,185,33580,0,65700,0,0,0,0,0
o,0x00000000,1717624931.964826,172.16.3.2,5101,172.16.1.2,27540,9851,14480,0,65728,65700,6,6,4,1460,1282,1,993,185,33580,0,65700,1448,0,0,0,0
i,0x00000000,1717624931.975361,172.16.3.2,5101,172.16.1.2,27540,9851,14480,0,65728,65700,6,6,4,1460,1282,1,992,185,33580,0,65700,0,0,0,0,0
o,0x00000000,1717624932.010119,172.16.3.2,5101,172.16.1.2,27540,9851,14480,0,65728,65700,6,6,4,1460,1282,1,993,185,33580,0,65700,0,0,0,0,0
i,0x00000000,1717624932.113859,172.16.3.2,5101,172.16.1.2,27540,9851,14480,0,65728,65700,6,6,4,1460,1282,1,992,185,33580,0,65700,0,0,0,0,0
i,0x00000000,1717624932.134840,172.16.3.2,5101,172.16.1.2,27540,9851,14480,0,65728,65700,6,6,4,1460,1282,1,992,185,33580,0,65700,0,0,0,0,0
o,0x00000000,1717624932.134852,172.16.3.2,5101,172.16.1.2,27540,9851,14480,0,65728,65700,6,6,4,1460,1282,1,993,185,33580,0,65700,1448,0,0,0,0
i,0x00000000,1717624932.185052,172.16.3.2,5101,172.16.1.2,27540,9851,14480,0,65728,65700,6,6,4,1460,1282,1,992,185,33580,0,65700,0,0,0,0,0
i,0x00000000,1717624932.195417,172.16.3.2,5101,172.16.1.2,27540,9851,14480,0,65728,65700,6,6,4,1460,1282,1,992,185,33580,0,65700,0,0,0,0,0
o,0x00000000,1717624932.195426,172.16.3.2,5101,172.16.1.2,27540,9851,14480,0,65728,65700,6,6,4,1460,1282,1,993,185,33580,0,65700,1448,0,0,0,0
i,0x00000000,1717624932.205026,172.16.3.2,5101,172.16.1.2,27540,9851,14480,0,65728,65700,6,6,4,1460,1282,1,992,185,33580,0,65700,0,0,0,0,0
i,0x00000000,1717624932.213736,172.16.3.2,5101,172.16.1.2,27540,9851,14480,0,65728,65700,6,6,4,1460,1282,1,992,185,33580,0,65700,0,0,0,0,0
o,0x00000000,1717624932.213744,172.16.3.2,5101,172.16.1.2,27540,9851,14480,0,65728,65700,6,6,4,1460,1282,1,993,185,33580,0,65700,1448,0,0,0,0
i,0x00000000,1717624932.225879,172.16.3.2,5101,172.16.1.2,27540,9851,14480,0,65728,65700,6,6,4,1460,1282,1,992,185,33580,0,65700,0,0,0,0,0
i,0x00000000,1717624932.243982,172.16.3.2,5101,172.16.1.2,27540,9851,14480,0,65728,65700,6,6,4,1460,1282,1,992,185,33580,0,65700,0,0,0,0,0
o,0x00000000,1717624932.243993,172.16.3.2,5101,172.16.1.2,27540,9851,14480,0,65728,65700,6,6,4,1460,1282,1,993,185,33580,0,65700,1448,0,0,0,0
i,0x00000000,1717624932.254500,172.16.3.2,5101,172.16.1.2,27540,9851,14480,0,65728,65700,6,6,4,1460,1282,1,992,185,33580,0,65700,0,0,0,0,0
i,0x00000000,1717624932.264967,172.16.3.2,5101,172.16.1.2,27540,9851,14480,0,65728,65700,6,6,4,1460,1282,1,992,185,33580,0,65700,0,0,0,0,0
o,0x00000000,1717624932.264976,172.16.3.2,5101,172.16.1.2,27540,9851,14480,0,65728,65700,6,6,4,1460,1282,1,993,185,33580,0,65700,1448,0,0,0,0
i,0x00000000,1717624932.274499,172.16.3.2,5101,172.16.1.2,27540,9851,14480,0,65728,65700,6,6,4,1460,1282,1,992,185,33580,0,65700,0,0,0,0,0
o,0x00000000,1717624932.310941,172.16.3.2,5101,172.16.1.2,27540,9851,14480,0,65728,65700,6,6,4,1460,1282,1,993,185,33580,0,65700,0,0,0,0,0
i,0x00000000,1717624932.314309,172.16.3.2,5101,172.16.1.2,27540,9851,14480,0,65728,65700,6,6,4,1460,1282,1,992,185,33580,0,65700,0,0,0,0,0
i,0x00000000,1717624932.324746,172.16.3.2,5101,172.16.1.2,27540,9851,14480,0,65728,65700,6,6,4,1460,1282,1,992,185,33580,0,65700,0,0,0,0,0
o,0x00000000,1717624932.324752,172.16.3.2,5101,172.16.1.2,27540,9851,14480,0,65728,65700,6,6,4,1460,1282,1,993,185,33580,0,65700,1448,0,0,0,0
o,0x00000000,1717624932.329792,10.0.2.15,22,10.0.2.2,61555,1073725440,14600,0,65535,65700,0,0,4,1460,17,0,4,25,33580,108,65700,0,0,0,0,0
i,0x00000000,1717624932.330598,10.0.2.15,22,10.0.2.2,61555,1073725440,14600,0,65535,65700,0,0,4,1460,17,0,4,25,33580,108,65700,0,108,0,0,0
i,0x00000000,1717624932.335308,172.16.3.2,5101,172.16.1.2,27540,9851,14480,0,65728,65700,6,6,4,1460,1282,1,992,185,33580,0,65700,0,0,0,0,0
i,0x00000000,1717624932.354985,172.16.3.2,5101,172.16.1.2,27540,9851,14480,0,65728,65700,6,6,4,1460,1282,1,992,185,33580,0,65700,0,0,0,0,0
o,0x00000000,1717624932.354993,172.16.3.2,5101,172.16.1.2,27540,9851,14480,0,65728,65700,6,6,4,1460,1282,1,993,185,33580,0,65700,1448,0,0,0,0
i,0x00000000,1717624932.364567,172.16.3.2,5101,172.16.1.2,27540,9851,14480,0,65728,65700,6,6,4,1460,1282,1,992,185,33580,0,65700,0,0,0,0,0
o,0x00000000,1717624932.400264,172.16.3.2,5101,172.16.1.2,27540,9851,14480,0,65728,65700,6,6,4,1460,1282,1,993,185,33580,0,65700,0,0,0,0,0
i,0x00000000,1717624932.524971,172.16.3.2,5101,172.16.1.2,27540,9851,14480,0,65728,65700,6,6,4,1460,1282,1,992,185,33580,0,65700,0,0,0,0,0
i,0x00000000,1717624932.534282,172.16.3.2,5101,172.16.1.2,27540,9851,14480,0,65728,65700,6,6,4,1460,1282,1,992,185,33580,0,65700,0,0,0,0,0
o,0x00000000,1717624932.534293,172.16.3.2,5101,172.16.1.2,27540,9851,14480,0,65728,65700,6,6,4,1460,1282,1,993,185,33580,0,65700,1448,0,0,0,0
i,0x00000000,1717624932.543867,172.16.3.2,5101,172.16.1.2,27540,9851,14480,0,65728,65700,6,6,4,1460,1282,1,992,185,33580,0,65700,0,0,0,0,0
o,0x00000000,1717624932.580257,172.16.3.2,5101,172.16.1.2,27540,9851,14480,0,65728,65700,6,6,4,1460,1282,1,993,185,33580,0,65700,0,0,0,0,0
i,0x00000000,1717624932.594210,172.16.3.2,5101,172.16.1.2,27540,9851,14480,0,65728,65700,6,6,4,1460,1282,1,992,185,33580,0,65700,0,0,0,0,0
i,0x00000000,1717624932.604628,172.16.3.2,5101,172.16.1.2,27540,9851,14480,0,65728,65700,6,6,4,1460,1282,1,992,185,33580,0,65700,0,0,0,0,0
o,0x00000000,1717624932.604634,172.16.3.2,5101,172.16.1.2,27540,9851,14480,0,65728,65700,6,6,4,1460,1282,1,993,185,33580,0,65700,1448,0,0,0,0
i,0x00000000,1717624932.624289,172.16.3.2,5101,172.16.1.2,27540,9851,14480,0,65728,65700,6,6,4,1460,1282,1,992,185,33580,0,65700,0,0,0,0,0
i,0x00000000,1717624932.634792,172.16.3.2,5101,172.16.1.2,27540,9851,14480,0,65728,65700,6,6,4,1460,1282,1,992,185,33580,0,65700,0,0,0,0,0
o,0x00000000,1717624932.634800,172.16.3.2,5101,172.16.1.2,27540,9851,14480,0,65728,65700,6,6,4,1460,1282,1,993,185,33580,0,65700,1448,0,0,0,0
i,0x00000000,1717624932.645159,172.16.3.2,5101,172.16.1.2,27540,9851,14480,0,65728,65700,6,6,4,1460,1282,1,992,185,33580,0,65700,0,0,0,0,0
i,0x00000000,1717624932.653654,172.16.3.2,5101,172.16.1.2,27540,9851,14480,0,65728,65700,6,6,4,1460,1282,1,992,185,33580,0,65700,0,0,0,0,0
o,0x00000000,1717624932.653661,172.16.3.2,5101,172.16.1.2,27540,9851,14480,0,65728,65700,6,6,4,1460,1282,1,993,185,33580,0,65700,1448,0,0,0,0
i,0x00000000,1717624932.664260,172.16.3.2,5101,172.16.1.2,27540,9851,14480,0,65728,65700,6,6,4,1460,1282,1,992,185,33580,0,65700,0,0,0,0,0
i,0x00000000,1717624932.684599,172.16.3.2,5101,172.16.1.2,27540,9851,14480,0,65728,65700,6,6,4,1460,1282,1,992,185,33580,0,65700,0,0,0,0,0
o,0x00000000,1717624932.684606,172.16.3.2,5101,172.16.1.2,27540,9851,14480,0,65728,65700,6,6,4,1460,1282,1,993,185,33580,0,65700,1448,0,0,0,0
i,0x00000000,1717624932.695125,172.16.3.2,5101,172.16.1.2,27540,9851,14480,0,65728,65700,6,6,4,1460,1282,1,992,185,33580,0,65700,0,0,0,0,0
i,0x00000000,1717624932.724950,172.16.3.2,5101,172.16.1.2,27540,9851,14480,0,65728,65700,6,6,4,1460,1282,1,992,185,33580,0,65700,0,0,0,0,0
o,0x00000000,1717624932.724958,172.16.3.2,5101,172.16.1.2,27540,9851,14480,0,65728,65700,6,6,4,1460,1282,1,993,185,33580,0,65700,1448,0,0,0,0
i,0x00000000,1717624932.744932,172.16.3.2,5101,172.16.1.2,27540,9851,14480,0,65728,65700,6,6,4,1460,1282,1,992,185,33580,0,65700,0,0,0,0,0
i,0x00000000,1717624932.754365,172.16.3.2,5101,172.16.1.2,27540,9851,14480,0,65728,65700,6,6,4,1460,1282,1,992,185,33580,0,65700,0,0,0,0,0
o,0x00000000,1717624932.754371,172.16.3.2,5101,172.16.1.2,27540,9851,14480,0,65728,65700,6,6,4,1460,1282,1,993,185,33580,0,65700,1448,0,0,0,0
i,0x00000000,1717624932.774471,172.16.3.2,5101,172.16.1.2,27540,9851,14480,0,65728,65700,6,6,4,1460,1282,1,992,185,33580,0,65700,0,0,0,0,0
i,0x00000000,1717624932.794440,172.16.3.2,5101,172.16.1.2,27540,9851,14480,0,65728,65700,6,6,4,1460,1282,1,992,185,33580,0,65700,0,0,0,0,0
o,0x00000000,1717624932.794449,172.16.3.2,5101,172.16.1.2,27540,9851,14480,0,65728,65700,6,6,4,1460,1282,1,993,185,33580,0,65700,1448,0,0,0,0
i,0x00000000,1717624932.834506,172.16.3.2,5101,172.16.1.2,27540,9851,14480,0,65728,65700,6,6,4,1460,1282,1,992,185,33580,0,65700,0,0,0,0,0
o,0x00000000,1717624932.869026,172.16.3.2,5101,172.16.1.2,27540,9851,14480,0,65728,65700,6,6,4,1460,1282,1,993,185,33580,0,65700,0,0,0,0,0
i,0x00000000,1717624932.964495,172.16.3.2,5101,172.16.1.2,27540,9851,14480,0,65728,65700,6,6,4,1460,1282,1,992,185,33580,0,65700,0,0,0,0,0
i,0x00000000,1717624932.974151,172.16.3.2,5101,172.16.1.2,27540,9851,14480,0,65728,65700,6,6,4,1460,1282,1,992,185,33580,0,65700,0,0,0,0,0
o,0x00000000,1717624932.974161,172.16.3.2,5101,172.16.1.2,27540,9851,14480,0,65728,65700,6,6,4,1460,1282,1,993,185,33580,0,65700,1448,0,0,0,0
i,0x00000000,1717624933.034638,172.16.3.2,5101,172.16.1.2,27540,9851,14480,0,65728,65700,6,6,4,1460,1282,1,992,185,33580,0,65700,0,0,0,0,0
i,0x00000000,1717624933.045333,172.16.3.2,5101,172.16.1.2,27540,9851,14480,0,65728,65700,6,6,4,1460,1282,1,992,185,33580,0,65700,0,0,0,0,0
o,0x00000000,1717624933.045343,172.16.3.2,5101,172.16.1.2,27540,9851,14480,0,65728,65700,6,6,4,1460,1282,1,993,185,33580,0,65700,1448,0,0,0,0
i,0x00000000,1717624933.064130,172.16.3.2,5101,172.16.1.2,27540,9851,14480,0,65728,65700,6,6,4,1460,1282,1,992,185,33580,0,65700,0,0,0,0,0
i,0x00000000,1717624933.074576,172.16.3.2,5101,172.16.1.2,27540,9851,14480,0,65728,65700,6,6,4,1460,1282,1,992,185,33580,0,65700,0,0,0,0,0
o,0x00000000,1717624933.074583,172.16.3.2,5101,172.16.1.2,27540,9851,14480,0,65728,65700,6,6,4,1460,1282,1,993,185,33580,0,65700,1448,0,0,0,0
i,0x00000000,1717624933.084012,172.16.3.2,5101,172.16.1.2,27540,9851,14480,0,65728,65700,6,6,4,1460,1282,1,992,185,33580,0,65700,0,0,0,0,0
i,0x00000000,1717624933.093420,172.16.3.2,5101,172.16.1.2,27540,9851,14480,0,65728,65700,6,6,4,1460,1282,1,992,185,33580,0,65700,0,0,0,0,0
o,0x00000000,1717624933.093426,172.16.3.2,5101,172.16.1.2,27540,9851,14480,0,65728,65700,6,6,4,1460,1282,1,993,185,33580,0,65700,1448,0,0,0,0
i,0x00000000,1717624933.104877,172.16.3.2,5101,172.16.1.2,27540,9851,14480,0,65728,65700,6,6,4,1460,1282,1,992,185,33580,0,65700,0,0,0,0,0
i,0x00000000,1717624933.124822,172.16.3.2,5101,172.16.1.2,27540,9851,14480,0,65728,65700,6,6,4,1460,1282,1,992,185,33580,0,65700,0,0,0,0,0
o,0x00000000,1717624933.124828,172.16.3.2,5101,172.16.1.2,27540,9851,14480,0,65728,65700,6,6,4,1460,1282,1,993,185,33580,0,65700,1448,0,0,0,0
i,0x00000000,1717624933.134547,172.16.3.2,5101,172.16.1.2,27540,9851,14480,0,65728,65700,6,6,4,1460,1282,1,992,185,33580,0,65700,0,0,0,0,0
i,0x00000000,1717624933.144608,172.16.3.2,5101,172.16.1.2,27540,9851,14480,0,65728,65700,6,6,4,1460,1282,1,992,185,33580,0,65700,0,0,0,0,0
o,0x00000000,1717624933.144614,172.16.3.2,5101,172.16.1.2,27540,9851,14480,0,65728,65700,6,6,4,1460,1282,1,993,185,33580,0,65700,1448,0,0,0,0
i,0x00000000,1717624933.183945,172.16.3.2,5101,172.16.1.2,27540,9851,14480,0,65728,65700,6,6,4,1460,1282,1,992,185,33580,0,65700,0,0,0,0,0
i,0x00000000,1717624933.194433,172.16.3.2,5101,172.16.1.2,27540,9851,14480,0,65728,65700,6,6,4,1460,1282,1,992,185,33580,0,65700,0,0,0,0,0
o,0x00000000,1717624933.194440,172.16.3.2,5101,172.16.1.2,27540,9851,14480,0,65728,65700,6,6,4,1460,1282,1,993,185,33580,0,65700,1448,0,0,0,0
i,0x00000000,1717624933.204954,172.16.3.2,5101,172.16.1.2,27540,9851,14480,0,65728,65700,6,6,4,1460,1282,1,992,185,33580,0,65700,0,0,0,0,0
i,0x00000000,1717624933.214413,172.16.3.2,5101,172.16.1.2,27540,9851,14480,0,65728,65700,6,6,4,1460,1282,1,992,185,33580,0,65700,0,0,0,0,0
o,0x00000000,1717624933.214419,172.16.3.2,5101,172.16.1.2,27540,9851,14480,0,65728,65700,6,6,4,1460,1282,1,993,185,33580,0,65700,1448,0,0,0,0
i,0x00000000,1717624933.235182,172.16.3.2,5101,172.16.1.2,27540,9851,14480,0,65728,65700,6,6,4,1460,1282,1,992,185,33580,0,65700,0,0,0,0,0
i,0x00000000,1717624933.244618,172.16.3.2,5101,172.16.1.2,27540,9851,14480,0,65728,65700,6,6,4,1460,1282,1,992,185,33580,0,65700,0,0,0,0,0
o,0x00000000,1717624933.244629,172.16.3.2,5101,172.16.1.2,27540,9851,14480,0,65728,65700,6,6,4,1460,1282,1,993,185,33580,0,65700,1448,0,0,0,0
o,0x00000000,1717624933.329728,10.0.2.15,22,10.0.2.2,61555,1073725440,14600,0,65535,65700,0,0,4,1460,11,0,4,25,33580,108,65700,0,0,0,0,0
i,0x00000000,1717624933.330499,10.0.2.15,22,10.0.2.2,61555,1073725440,14600,0,65535,65700,0,0,4,1460,11,0,4,25,33580,108,65700,0,108,0,0,0
i,0x00000000,1717624933.424266,172.16.3.2,5101,172.16.1.2,27540,9851,14480,0,65728,65700,6,6,4,1460,1282,1,992,185,33580,0,65700,0,0,0,0,0
i,0x00000000,1717624933.444010,172.16.3.2,5101,172.16.1.2,27540,9851,14480,0,65728,65700,6,6,4,1460,1282,1,992,185,33580,0,65700,0,0,0,0,0
o,0x00000000,1717624933.444026,172.16.3.2,5101,172.16.1.2,27540,9851,14480,0,65728,65700,6,6,4,1460,1282,1,993,185,33580,0,65700,1448,0,0,0,0
i,0x00000000,1717624933.453544,172.16.3.2,5101,172.16.1.2,27540,9851,14480,0,65728,65700,6,6,4,1460,1282,1,992,185,33580,0,65700,0,0,0,0,0
o,0x00000000,1717624933.489047,172.16.3.2,5101,172.16.1.2,27540,9851,14480,0,65728,65700,6,6,4,1460,1282,1,993,185,33580,0,65700,0,0,0,0,0
i,0x00000000,1717624933.514207,172.16.3.2,5101,172.16.1.2,27540,9851,14480,0,65728,65700,6,6,4,1460,1282,1,992,185,33580,0,65700,0,0,0,0,0
i,0x00000000,1717624933.524754,172.16.3.2,5101,172.16.1.2,27540,9851,14480,0,65728,65700,6,6,4,1460,1282,1,992,185,33580,0,65700,0,0,0,0,0
o,0x00000000,1717624933.524761,172.16.3.2,5101,172.16.1.2,27540,9851,14480,0,65728,65700,6,6,4,1460,1282,1,993,185,33580,0,65700,1448,0,0,0,0
i,0x00000000,1717624933.534097,172.16.3.2,5101,172.16.1.2,27540,9851,14480,0,65728,65700,6,6,4,1460,1282,1,992,185,33580,0,65700,0,0,0,0,0
i,0x00000000,1717624933.544985,172.16.3.2,5101,172.16.1.2,27540,9851,14480,0,65728,65700,6,6,4,1460,1282,1,992,185,33580,0,65700,0,0,0,0,0
o,0x00000000,1717624933.544991,172.16.3.2,5101,172.16.1.2,27540,9851,14480,0,65728,65700,6,6,4,1460,1282,1,993,185,33580,0,65700,1448,0,0,0,0
i,0x00000000,1717624933.564506,172.16.3.2,5101,172.16.1.2,27540,9851,14480,0,65728,65700,6,6,4,1460,1282,1,992,185,33580,0,65700,0,0,0,0,0
i,0x00000000,1717624933.573973,172.16.3.2,5101,172.16.1.2,27540,9851,14480,0,65728,65700,6,6,4,1460,1282,1,992,185,33580,0,65700,0,0,0,0,0
o,0x00000000,1717624933.573980,172.16.3.2,5101,172.16.1.2,27540,9851,14480,0,65728,65700,6,6,4,1460,1282,1,993,185,33580,0,65700,1448,0,0,0,0
i,0x00000000,1717624933.584430,172.16.3.2,5101,172.16.1.2,27540,9851,14480,0,65728,65700,6,6,4,1460,1282,1,992,185,33580,0,65700,0,0,0,0,0
i,0x00000000,1717624933.593843,172.16.3.2,5101,172.16.1.2,27540,9851,14480,0,65728,65700,6,6,4,1460,1282,1,992,185,33580,0,65700,0,0,0,0,0
o,0x00000000,1717624933.593852,172.16.3.2,5101,172.16.1.2,27540,9851,14480,0,65728,65700,6,6,4,1460,1282,1,993,185,33580,0,65700,1448,0,0,0,0
i,0x00000000,1717624933.604331,172.16.3.2,5101,172.16.1.2,27540,9851,14480,0,65728,65700,6,6,4,1460,1282,1,992,185,33580,0,65700,0,0,0,0,0
i,0x00000000,1717624933.625223,172.16.3.2,5101,172.16.1.2,27540,9851,14480,0,65728,65700,6,6,4,1460,1282,1,992,185,33580,0,65700,0,0,0,0,0
o,0x00000000,1717624933.625232,172.16.3.2,5101,172.16.1.2,27540,9851,14480,0,65728,65700,6,6,4,1460,1282,1,993,185,33580,0,65700,1448,0,0,0,0
i,0x00000000,1717624933.633855,172.16.3.2,5101,172.16.1.2,27540,9851,14480,0,65728,65700,6,6,4,1460,1282,1,992,185,33580,0,65700,0,0,0,0,0
i,0x00000000,1717624933.664276,172.16.3.2,5101,172.16.1.2,27540,9851,14480,0,65728,65700,6,6,4,1460,1282,1,992,185,33580,0,65700,0,0,0,0,0
o,0x00000000,1717624933.664285,172.16.3.2,5101,172.16.1.2,27540,9851,14480,0,65728,65700,6,6,4,1460,1282,1,993,185,33580,0,65700,1448,0,0,0,0
i,0x00000000,1717624933.684176,172.16.3.2,5101,172.16.1.2,27540,9851,14480,0,65728,65700,6,6,4,1460,1282,1,992,185,33580,0,65700,0,0,0,0,0
i,0x00000000,1717624933.694634,172.16.3.2,5101,172.16.1.2,27540,9851,14480,0,65728,65700,6,6,4,1460,1282,1,992,185,33580,0,65700,0,0,0,0,0
o,0x00000000,1717624933.694640,172.16.3.2,5101,172.16.1.2,27540,9851,14480,0,65728,65700,6,6,4,1460,1282,1,993,185,33580,0,65700,1448,0,0,0,0
i,0x00000000,1717624933.704105,172.16.3.2,5101,172.16.1.2,27540,9851,14480,0,65728,65700,6,6,4,1460,1282,1,992,185,33580,0,65700,0,0,0,0,0
i,0x00000000,1717624933.713495,172.16.3.2,5101,172.16.1.2,27540,9851,14480,0,65728,65700,6,6,4,1460,1282,1,992,185,33580,0,65700,0,0,0,0,0
o,0x00000000,1717624933.713501,172.16.3.2,5101,172.16.1.2,27540,9851,14480,0,65728,65700,6,6,4,1460,1282,1,993,185,33580,0,65700,1448,0,0,0,0
i,0x00000000,1717624933.734390,172.16.3.2,5101,172.16.1.2,27540,9851,14480,0,65728,65700,6,6,4,1460,1282,1,992,185,33580,0,65700,0,0,0,0,0
o,0x00000000,1717624933.769261,172.16.3.2,5101,172.16.1.2,27540,9851,14480,0,65728,65700,6,6,4,1460,1282,1,993,185,33580,0,65700,0,0,0,0,0
i,0x00000000,1717624933.913932,172.16.3.2,5101,172.16.1.2,27540,9851,14480,0,65728,65700,6,6,4,1460,1282,1,992,185,33580,0,65700,0,0,0,0,0
i,0x00000000,1717624933.924338,172.16.3.2,5101,172.16.1.2,27540,9851,14480,0,65728,65700,6,6,4,1460,1282,1,992,185,33580,0,65700,0,0,0,0,0
o,0x00000000,1717624933.924385,172.16.3.2,5101,172.16.1.2,27540,9851,14480,0,65728,65700,6,6,4,1460,1282,1,993,185,33580,0,65700,1448,0,0,0,0
i,0x00000000,1717624933.984065,172.16.3.2,5101,172.16.1.2,27540,9851,14480,0,65728,65700,6,6,4,1460,1282,1,992,185,33580,0,65700,0,0,0,0,0
i,0x00000000,1717624934.004015,172.16.3.2,5101,172.16.1.2,27540,9851,14480,0,65728,65700,6,6,4,1460,1282,1,992,185,33580,0,65700,0,0,0,0,0
o,0x00000000,1717624934.004024,172.16.3.2,5101,172.16.1.2,27540,9851,14480,0,65728,65700,6,6,4,1460,1282,1,993,185,33580,0,65700,1448,0,0,0,0
i,0x00000000,1717624934.014400,172.16.3.2,5101,172.16.1.2,27540,9851,14480,0,65728,65700,6,6,4,1460,1282,1,992,185,33580,0,65700,0,0,0,0,0
i,0x00000000,1717624934.023789,172.16.3.2,5101,172.16.1.2,27540,9851,14480,0,65728,65700,6,6,4,1460,1282,1,992,185,33580,0,65700,0,0,0,0,0
o,0x00000000,1717624934.023794,172.16.3.2,5101,172.16.1.2,27540,9851,14480,0,65728,65700,6,6,4,1460,1282,1,993,185,33580,0,65700,1448,0,0,0,0
i,0x00000000,1717624934.033190,172.16.3.2,5101,172.16.1.2,27540,9851,14480,0,65728,65700,6,6,4,1460,1282,1,992,185,33580,0,65700,0,0,0,0,0
i,0x00000000,1717624934.043670,172.16.3.2,5101,172.16.1.2,27540,9851,14480,0,65728,65700,6,6,4,1460,1282,1,992,185,33580,0,65700,0,0,0,0,0
o,0x00000000,1717624934.043676,172.16.3.2,5101,172.16.1.2,27540,9851,14480,0,65728,65700,6,6,4,1460,1282,1,993,185,33580,0,65700,1448,0,0,0,0
i,0x00000000,1717624934.064466,172.16.3.2,5101,172.16.1.2,27540,9851,14480,0,65728,65700,6,6,4,1460,1282,1,992,185,33580,0,65700,0,0,0,0,0
i,0x00000000,1717624934.074060,172.16.3.2,5101,172.16.1.2,27540,9851,14480,0,65728,65700,6,6,4,1460,1282,1,992,185,33580,0,65700,0,0,0,0,0
o,0x00000000,1717624934.074067,172.16.3.2,5101,172.16.1.2,27540,9851,14480,0,65728,65700,6,6,4,1460,1282,1,993,185,33580,0,65700,1448,0,0,0,0
i,0x00000000,1717624934.084611,172.16.3.2,5101,172.16.1.2,27540,9851,14480,0,65728,65700,6,6,4,1460,1282,1,992,185,33580,0,65700,0,0,0,0,0
i,0x00000000,1717624934.094835,172.16.3.2,5101,172.16.1.2,27540,9851,14480,0,65728,65700,6,6,4,1460,1282,1,992,185,33580,0,65700,0,0,0,0,0
o,0x00000000,1717624934.094842,172.16.3.2,5101,172.16.1.2,27540,9851,14480,0,65728,65700,6,6,4,1460,1282,1,993,185,33580,0,65700,1448,0,0,0,0
i,0x00000000,1717624934.103709,172.16.3.2,5101,172.16.1.2,27540,9851,14480,0,65728,65700,6,6,4,1460,1282,1,992,185,33580,0,65700,0,0,0,0,0
i,0x00000000,1717624934.124638,172.16.3.2,5101,172.16.1.2,27540,9851,14480,0,65728,65700,6,6,4,1460,1282,1,992,185,33580,0,65700,0,0,0,0,0
o,0x00000000,1717624934.124645,172.16.3.2,5101,172.16.1.2,27540,9851,14480,0,65728,65700,6,6,4,1460,1282,1,993,185,33580,0,65700,1448,0,0,0,0
i,0x00000000,1717624934.153695,172.16.3.2,5101,172.16.1.2,27540,9851,14480,0,65728,65700,6,6,4,1460,1282,1,992,185,33580,0,65700,0,0,0,0,0
i,0x00000000,1717624934.164499,172.16.3.2,5101,172.16.1.2,27540,9851,14480,0,65728,65700,6,6,4,1460,1282,1,992,185,33580,0,65700,0,0,0,0,0
o,0x00000000,1717624934.164509,172.16.3.2,5101,172.16.1.2,27540,9851,14480,0,65728,65700,6,6,4,1460,1282,1,993,185,33580,0,65700,1448,0,0,0,0
i,0x00000000,1717624934.184291,172.16.3.2,5101,172.16.1.2,27540,9851,14480,0,65728,65700,6,6,4,1460,1282,1,992,185,33580,0,65700,0,0,0,0,0
i,0x00000000,1717624934.193628,172.16.3.2,5101,172.16.1.2,27540,9851,14480,0,65728,65700,6,6,4,1460,1282,1,992,185,33580,0,65700,0,0,0,0,0
o,0x00000000,1717624934.193635,172.16.3.2,5101,172.16.1.2,27540,9851,14480,0,65728,65700,6,6,4,1460,1282,1,993,185,33580,0,65700,1448,0,0,0,0
i,0x00000000,1717624934.204540,172.16.3.2,5101,172.16.1.2,27540,9851,14480,0,65728,65700,6,6,4,1460,1282,1,992,185,33580,0,65700,0,0,0,0,0
i,0x00000000,1717624934.224296,172.16.3.2,5101,172.16.1.2,27540,9851,14480,0,65728,65700,6,6,4,1460,1282,1,992,185,33580,0,65700,0,0,0,0,0
o,0x00000000,1717624934.224307,172.16.3.2,5101,172.16.1.2,27540,9851,14480,0,65728,65700,6,6,4,1460,1282,1,993,185,33580,0,65700,1448,0,0,0,0
o,0x00000000,1717624934.329759,10.0.2.15,22,10.0.2.2,61555,1073725440,14600,0,65535,65700,0,0,4,1460,6,0,4,25,33580,108,65700,0,0,0,0,0
i,0x00000000,1717624934.330486,10.0.2.15,22,10.0.2.2,61555,1073725440,14600,0,65535,65700,0,0,4,1460,6,0,4,25,33580,108,65700,0,108,0,0,0
i,0x00000000,1717624934.424169,172.16.3.2,5101,172.16.1.2,27540,9851,14480,0,65728,65700,6,6,4,1460,1282,1,992,185,33580,0,65700,0,0,0,0,0
i,0x00000000,1717624934.444991,172.16.3.2,5101,172.16.1.2,27540,9851,14480,0,65728,65700,6,6,4,1460,1282,1,992,185,33580,0,65700,0,0,0,0,0
o,0x00000000,1717624934.445003,172.16.3.2,5101,172.16.1.2,27540,9851,14480,0,65728,65700,6,6,4,1460,1282,1,993,185,33580,0,65700,1448,0,0,0,0
i,0x00000000,1717624934.453443,172.16.3.2,5101,172.16.1.2,27540,9851,14480,0,65728,65700,6,6,4,1460,1282,1,992,185,33580,0,65700,0,0,0,0,0
o,0x00000000,1717624934.490300,172.16.3.2,5101,172.16.1.2,27540,9851,14480,0,65728,65700,6,6,4,1460,1282,1,993,185,33580,0,65700,0,0,0,0,0
i,0x00000000,1717624934.513777,172.16.3.2,5101,172.16.1.2,27540,9851,14480,0,65728,65700,6,6,4,1460,1282,1,992,185,33580,0,65700,0,0,0,0,0
i,0x00000000,1717624934.523113,172.16.3.2,5101,172.16.1.2,27540,9851,14480,0,65728,65700,6,6,4,1460,1282,1,992,185,33580,0,65700,0,0,0,0,0
o,0x00000000,1717624934.523122,172.16.3.2,5101,172.16.1.2,27540,9851,14480,0,65728,65700,6,6,4,1460,1282,1,993,185,33580,0,65700,1448,0,0,0,0
i,0x00000000,1717624934.533763,172.16.3.2,5101,172.16.1.2,27540,9851,14480,0,65728,65700,6,6,4,1460,1282,1,992,185,33580,0,65700,0,0,0,0,0
i,0x00000000,1717624934.543914,172.16.3.2,5101,172.16.1.2,27540,9851,14480,0,65728,65700,6,6,4,1460,1282,1,992,185,33580,0,65700,0,0,0,0,0
o,0x00000000,1717624934.543920,172.16.3.2,5101,172.16.1.2,27540,9851,14480,0,65728,65700,6,6,4,1460,1282,1,993,185,33580,0,65700,1448,0,0,0,0
i,0x00000000,1717624934.563739,172.16.3.2,5101,172.16.1.2,27540,9851,14480,0,65728,65700,6,6,4,1460,1282,1,992,185,33580,0,65700,0,0,0,0,0
i,0x00000000,1717624934.573646,172.16.3.2,5101,172.16.1.2,27540,9851,14480,0,65728,65700,6,6,4,1460,1282,1,992,185,33580,0,65700,0,0,0,0,0
o,0x00000000,1717624934.573653,172.16.3.2,5101,172.16.1.2,27540,9851,14480,0,65728,65700,6,6,4,1460,1282,1,993,185,33580,0,65700,1448,0,0,0,0
i,0x00000000,1717624934.583669,172.16.3.2,5101,172.16.1.2,27540,9851,14480,0,65728,65700,6,6,4,1460,1282,1,992,185,33580,0,65700,0,0,0,0,0
i,0x00000000,1717624934.594570,172.16.3.2,5101,172.16.1.2,27540,9851,14480,0,65728,65700,6,6,4,1460,1282,1,992,185,33580,0,65700,0,0,0,0,0
o,0x00000000,1717624934.594576,172.16.3.2,5101,172.16.1.2,27540,9851,14480,0,65728,65700,6,6,4,1460,1282,1,993,185,33580,0,65700,1448,0,0,0,0
i,0x00000000,1717624934.603700,172.16.3.2,5101,172.16.1.2,27540,9851,14480,0,65728,65700,6,6,4,1460,1282,1,992,185,33580,0,65700,0,0,0,0,0
i,0x00000000,1717624934.623598,172.16.3.2,5101,172.16.1.2,27540,9851,14480,0,65728,65700,6,6,4,1460,1282,1,992,185,33580,0,65700,0,0,0,0,0
o,0x00000000,1717624934.623605,172.16.3.2,5101,172.16.1.2,27540,9851,14480,0,65728,65700,6,6,4,1460,1282,1,993,185,33580,0,65700,1448,0,0,0,0
i,0x00000000,1717624934.633052,172.16.3.2,5101,172.16.1.2,27540,9851,14480,0,65728,65700,6,6,4,1460,1282,1,992,185,33580,0,65700,0,0,0,0,0
i,0x00000000,1717624934.643492,172.16.3.2,5101,172.16.1.2,27540,9851,14480,0,65728,65700,6,6,4,1460,1282,1,992,185,33580,0,65700,0,0,0,0,0
o,0x00000000,1717624934.643500,172.16.3.2,5101,172.16.1.2,27540,9851,14480,0,65728,65700,6,6,4,1460,1282,1,993,185,33580,0,65700,1448,0,0,0,0
i,0x00000000,1717624934.653926,172.16.3.2,5101,172.16.1.2,27540,9851,14480,0,65728,65700,6,6,4,1460,1282,1,992,185,33580,0,65700,0,0,0,0,0
o,0x00000000,1717624934.689801,172.16.3.2,5101,172.16.1.2,27540,9851,14480,0,65728,65700,6,6,4,1460,1282,1,993,185,33580,0,65700,0,0,0,0,0
i,0x00000000,1717624934.693724,172.16.3.2,5101,172.16.1.2,27540,9851,14480,0,65728,65700,6,6,4,1460,1282,1,992,185,33580,0,65700,0,0,0,0,0
i,0x00000000,1717624934.704215,172.16.3.2,5101,172.16.1.2,27540,9851,14480,0,65728,65700,6,6,4,1460,1282,1,992,185,33580,0,65700,0,0,0,0,0
o,0x00000000,1717624934.704236,172.16.3.2,5101,172.16.1.2,27540,9851,14480,0,65728,65700,6,6,4,1460,1282,1,993,185,33580,0,65700,1448,0,0,0,0
i,0x00000000,1717624934.713764,172.16.3.2,5101,172.16.1.2,27540,9851,14480,0,65728,65700,6,6,4,1460,1282,1,992,185,33580,0,65700,0,0,0,0,0
i,0x00000000,1717624934.734509,172.16.3.2,5101,172.16.1.2,27540,9851,14480,0,65728,65700,6,6,4,1460,1282,1,992,185,33580,0,65700,0,0,0,0,0
o,0x00000000,1717624934.734528,172.16.3.2,5101,172.16.1.2,27540,9851,14480,0,65728,65700,6,6,4,1460,1282,1,993,185,33580,0,65700,1448,0,0,0,0
i,0x00000000,1717624934.744958,172.16.3.2,5101,172.16.1.2,27540,9851,14480,0,65728,65700,6,6,4,1460,1282,1,992,185,33580,0,65700,0,0,0,0,0
i,0x00000000,1717624934.753754,172.16.3.2,5101,172.16.1.2,27540,9851,14480,0,65728,65700,6,6,4,1460,1282,1,992,185,33580,0,65700,0,0,0,0,0
o,0x00000000,1717624934.753762,172.16.3.2,5101,172.16.1.2,27540,9851,14480,0,65728,65700,6,6,4,1460,1282,1,993,185,33580,0,65700,1448,0,0,0,0
i,0x00000000,1717624934.953882,172.16.3.2,5101,172.16.1.2,27540,9851,14480,0,65728,65700,6,6,4,1460,1282,1,992,185,33580,0,65700,0,0,0,0,0
i,0x00000000,1717624934.964246,172.16.3.2,5101,172.16.1.2,27540,9851,14480,0,65728,65700,6,6,4,1460,1282,1,992,185,33580,0,65700,0,0,0,0,0
o,0x00000000,1717624934.964258,172.16.3.2,5101,172.16.1.2,27540,9851,14480,0,65728,65700,6,6,4,1460,1282,1,993,185,33580,0,65700,1448,0,0,0,0
i,0x00000000,1717624935.023605,172.16.3.2,5101,172.16.1.2,27540,9851,14480,0,65728,65700,6,6,4,1460,1282,1,992,185,33580,0,65700,0,0,0,0,0
i,0x00000000,1717624935.034008,172.16.3.2,5101,172.16.1.2,27540,9851,14480,0,65728,65700,6,6,4,1460,1282,1,992,185,33580,0,65700,0,0,0,0,0
o,0x00000000,1717624935.034019,172.16.3.2,5101,172.16.1.2,27540,9851,14480,0,65728,65700,6,6,4,1460,1282,1,993,185,33580,0,65700,1448,0,0,0,0
i,0x00000000,1717624935.054090,172.16.3.2,5101,172.16.1.2,27540,9851,14480,0,65728,65700,6,6,4,1460,1282,1,992,185,33580,0,65700,0,0,0,0,0
i,0x00000000,1717624935.064196,172.16.3.2,5101,172.16.1.2,27540,9851,14480,0,65728,65700,6,6,4,1460,1282,1,992,185,33580,0,65700,0,0,0,0,0
o,0x00000000,1717624935.064205,172.16.3.2,5101,172.16.1.2,27540,9851,14480,0,65728,65700,6,6,4,1460,1282,1,993,185,33580,0,65700,1448,0,0,0,0
i,0x00000000,1717624935.073889,172.16.3.2,5101,172.16.1.2,27540,9851,14480,0,65728,65700,6,6,4,1460,1282,1,992,185,33580,0,65700,0,0,0,0,0
o,0x00000000,1717624935.110425,172.16.3.2,5101,172.16.1.2,27540,9851,14480,0,65728,65700,6,6,4,1460,1282,1,993,185,33580,0,65700,0,0,0,0,0
i,0x00000000,1717624935.113719,172.16.3.2,5101,172.16.1.2,27540,9851,14480,0,65728,65700,6,6,4,1460,1282,1,992,185,33580,0,65700,0,0,0,0,0
i,0x00000000,1717624935.124107,172.16.3.2,5101,172.16.1.2,27540,9851,14480,0,65728,65700,6,6,4,1460,1282,1,992,185,33580,0,65700,0,0,0,0,0
o,0x00000000,1717624935.124114,172.16.3.2,5101,172.16.1.2,27540,9851,14480,0,65728,65700,6,6,4,1460,1282,1,993,185,33580,0,65700,1448,0,0,0,0
i,0x00000000,1717624935.133678,172.16.3.2,5101,172.16.1.2,27540,9851,14480,0,65728,65700,6,6,4,1460,1282,1,992,185,33580,0,65700,0,0,0,0,0
i,0x00000000,1717624935.144027,172.16.3.2,5101,172.16.1.2,27540,9851,14480,0,65728,65700,6,6,4,1460,1282,1,992,185,33580,0,65700,0,0,0,0,0
