enable_time_secs=1734977046	enable_time_usecs=379502	siftrver=1.3.0	sysname=FreeBSD	sysver=1401000	ipmode=4
o,1734977046.380666,10.0.2.15,22,192.168.56.1,54696,1073725440,18998,1026,65535,65700,0,0,4,1460,312,0,16777220,230000,33580,172,65700,0,0,0,3397652475,63
o,1734977046.385554,10.0.2.15,22,192.168.56.1,54696,1073725440,18998,1026,65535,65700,0,0,4,1460,312,0,16777220,230000,33580,244,65700,0,172,0,3397652475,63
i,1734977046.385946,10.0.2.15,22,192.168.56.1,54696,1073725440,18998,1026,65535,65700,0,0,4,1460,312,0,16777220,230000,33580,244,65700,0,244,0,3397652475,63
i,1734977046.387982,10.0.2.15,22,192.168.56.1,54696,1073725440,19170,1026,65535,65700,0,0,4,1460,312,0,4,230000,33580,72,65700,0,72,0,3397652475,63
i,1734977046.388046,10.0.2.15,22,192.168.56.1,54696,1073725440,19242,1026,65535,65700,0,0,4,1460,312,0,4,230000,33580,0,65700,0,0,0,3397652475,63
o,1734977046.390579,10.0.2.15,22,192.168.56.1,54696,1073725440,19242,1026,65535,65700,0,0,6,1460,312,0,4,230000,33580,0,65700,0,0,0,3397652475,63
i,1734977046.394929,10.0.2.15,22,192.168.56.1,54696,1073725440,19242,1026,65535,65700,0,0,6,1460,312,0,67108884,230000,33580,0,65700,0,1,0,3397652475,63
i,1734977061.368781,10.0.2.15,22,192.168.56.1,54740,1073725440,14725,1026,65535,65700,0,0,9,1460,312,0,67108884,230000,33580,0,65700,0,0,0,3546190762,63
i,1734977061.371779,10.0.2.15,22,192.168.56.1,54740,1073725440,14725,1026,65535,65700,0,0,9,1460,312,0,67108884,230000,33580,0,65700,0,0,0,3546190762,63
i,1734977067.378443,10.0.2.15,22,192.168.56.1,54740,1073725440,14600,0,65535,65700,0,0,4,1460,312,0,16777216,250000,33580,0,65700,0,0,0,3546190762,63
o,1734977067.412500,10.0.2.15,22,192.168.56.1,54740,1073725440,14600,2,65535,65700,0,0,4,1460,312,0,16777217,250000,33580,0,65700,42,0,0,3546190762,63
o,1734977067.415898,10.0.2.15,22,192.168.56.1,54740,1073725440,14600,1026,65535,65700,0,0,4,1460,312,0,16777216,250000,33580,38,65700,42,0,0,3546190762,63
i,1734977067.418565,10.0.2.15,22,192.168.56.1,54740,1073725440,14600,1026,65535,65700,0,0,4,1460,312,0,16777216,250000,33580,1158,65700,0,38,0,3546190762,63
o,1734977067.418690,10.0.2.15,22,192.168.56.1,54740,1073725440,14638,1026,65535,65700,0,0,4,1460,312,0,16777216,230000,33580,1120,65700,0,0,0,3546190762,63
i,1734977067.419127,10.0.2.15,22,192.168.56.1,54740,1073725440,14638,1026,65535,65700,0,0,4,1460,312,0,16777216,230000,33580,1120,65700,0,1120,0,3546190762,63
i,1734977067.419201,10.0.2.15,22,192.168.56.1,54740,1073725440,14638,1026,65535,65700,0,0,4,1460,312,0,16777216,230000,33580,1120,65700,1460,1120,0,3546190762,63
o,1734977067.419271,10.0.2.15,22,192.168.56.1,54740,1073725440,14638,1026,65535,65700,0,0,4,1460,312,0,16777217,230000,33580,1120,65700,1536,1120,0,3546190762,63
i,1734977067.421174,10.0.2.15,22,192.168.56.1,54740,1073725440,14638,1026,65535,65700,0,0,4,1460,312,0,16777216,230000,33580,1120,65700,0,1120,0,3546190762,63
i,1734977067.457978,10.0.2.15,22,192.168.56.1,54740,1073725440,15758,1026,65535,65700,0,0,4,1460,312,0,0,230000,33580,0,65700,0,0,0,3546190762,63
o,1734977067.480616,10.0.2.15,22,192.168.56.1,54740,1073725440,15758,1030,65535,65700,0,0,4,1460,312,0,16777216,230000,33580,1532,65700,0,0,0,3546190762,63
o,1734977067.481345,10.0.2.15,22,192.168.56.1,54740,1073725440,15758,1026,65535,65700,0,0,4,1460,312,0,16777216,230000,33580,1532,65700,0,1460,0,3546190762,63
i,1734977067.483193,10.0.2.15,22,192.168.56.1,54740,1073725440,15758,1026,65535,65700,0,0,4,1460,312,0,16777216,230000,33580,1532,65700,0,1532,0,3546190762,63
i,1734977067.503563,10.0.2.15,22,192.168.56.1,54740,1073725440,17290,1026,65535,65700,0,0,4,1460,312,0,0,230000,33580,0,65700,0,0,0,3546190762,63
o,1734977067.504636,10.0.2.15,22,192.168.56.1,54740,1073725440,17290,1026,65535,65700,0,0,4,1460,312,0,16777216,230000,33580,44,65700,0,0,0,3546190762,63
i,1734977067.509179,10.0.2.15,22,192.168.56.1,54740,1073725440,17290,1026,65535,65700,0,0,4,1460,312,0,16777216,230000,33580,44,65700,0,44,0,3546190762,63
o,1734977067.512753,10.0.2.15,22,192.168.56.1,54740,1073725440,17334,1026,65535,65700,0,0,4,1460,312,0,16777216,230000,33580,280,65700,0,0,0,3546190762,63
i,1734977067.516861,10.0.2.15,22,192.168.56.1,54740,1073725440,17334,1026,65535,65700,0,0,4,1460,312,0,16777216,230000,33580,280,65700,0,280,0,3546190762,63
o,1734977067.519432,10.0.2.15,22,192.168.56.1,54740,1073725440,17614,1026,65535,65700,0,0,4,1460,312,0,16777216,230000,33580,332,65700,0,0,0,3546190762,63
i,1734977067.524172,10.0.2.15,22,192.168.56.1,54740,1073725440,17614,1026,65535,65700,0,0,4,1460,312,0,16777216,230000,33580,332,65700,0,332,0,3546190762,63
i,1734977067.524250,10.0.2.15,22,192.168.56.1,54740,1073725440,17946,1026,65535,65700,0,0,4,1460,312,0,0,230000,33580,0,65700,0,0,0,3546190762,63
o,1734977067.543685,10.0.2.15,22,192.168.56.1,54740,1073725440,17946,1026,65535,65700,0,0,4,1460,312,0,16777216,230000,33580,28,65700,0,0,0,3546190762,63
i,1734977067.548154,10.0.2.15,22,192.168.56.1,54740,1073725440,17946,1026,65535,65700,0,0,4,1460,312,0,16777216,230000,33580,936,65700,0,28,0,3546190762,63
o,1734977067.548154,10.0.2.15,22,192.168.56.1,54740,1073725440,17974,1026,65535,65700,0,0,4,1460,312,0,16777218,230000,33580,908,65700,112,0,0,3546190762,63
i,1734977067.553925,10.0.2.15,22,192.168.56.1,54740,1073725440,17974,1026,65535,65700,0,0,4,1460,312,0,16777216,230000,33580,952,65700,0,908,0,3546190762,63
o,1734977067.554082,10.0.2.15,22,192.168.56.1,54740,1073725440,18882,1026,65535,65700,0,0,4,1460,312,0,16777216,230000,33580,44,65700,0,0,0,3546190762,63
i,1734977067.558558,10.0.2.15,22,192.168.56.1,54740,1073725440,18882,1026,65535,65700,0,0,4,1460,312,0,16777216,230000,33580,44,65700,0,44,0,3546190762,63
i,1734977067.558650,10.0.2.15,22,192.168.56.1,54740,1073725440,18926,1026,65535,65700,0,0,4,1460,312,0,0,230000,33580,0,65700,0,0,0,3546190762,63
o,1734977067.560761,10.0.2.15,22,192.168.56.1,54740,1073725440,18926,1026,65535,65700,0,0,4,1460,312,0,16777220,230000,33580,72,65700,0,0,0,3546190762,63
i,1734977067.565746,10.0.2.15,22,192.168.56.1,54740,1073725440,18926,1026,65535,65700,0,0,4,1460,312,0,16777220,230000,33580,72,65700,0,72,0,3546190762,63
o,1734977067.568545,10.0.2.15,22,192.168.56.1,54740,1073725440,18998,1026,65535,65700,0,0,4,1460,312,0,16777220,230000,33580,104,65700,0,0,0,3546190762,63
i,1734977067.570537,10.0.2.15,22,192.168.56.1,54740,1073725440,18998,1026,65535,65700,0,0,4,1460,312,0,16777220,230000,33580,104,65700,0,104,0,3546190762,63
o,1734977067.601634,10.0.2.15,22,192.168.56.1,54740,1073725440,19102,1026,65535,65700,0,0,4,1460,312,0,16777220,230000,33580,72,65700,0,0,0,3546190762,63
i,1734977067.607306,10.0.2.15,22,192.168.56.1,54740,1073725440,19102,1026,65535,65700,0,0,4,1460,312,0,16777220,230000,33580,72,65700,0,72,0,3546190762,63
i,1734977067.607398,10.0.2.15,22,192.168.56.1,54740,1073725440,19174,1026,65535,65700,0,0,4,1460,312,0,4,230000,33580,0,65700,0,0,0,3546190762,63
o,1734977067.608897,10.0.2.15,22,192.168.56.1,54740,1073725440,19174,1026,65535,65700,0,0,6,1460,312,0,4,230000,33580,0,65700,0,0,0,3546190762,63
i,1734977067.611293,10.0.2.15,22,192.168.56.1,54740,1073725440,19174,1026,65535,65700,0,0,6,1460,312,0,67108884,230000,33580,0,65700,0,1,0,3546190762,63
i,1734977076.131022,10.0.2.15,22,192.168.56.1,54688,1073725440,14777,1026,65535,65700,0,0,9,1460,312,0,67108884,230000,33580,0,65700,0,0,0,515782400,63
i,1734977076.135664,10.0.2.15,22,192.168.56.1,54688,1073725440,14777,1026,65535,65700,0,0,9,1460,312,0,67108884,230000,33580,0,65700,0,0,0,515782400,63
i,1734977077.194458,10.0.2.15,22,192.168.56.1,54706,1073725440,19259,1026,65535,65700,0,0,9,1460,312,0,67108884,230000,33580,0,65700,0,0,0,2756429969,63
i,1734977077.200100,10.0.2.15,22,192.168.56.1,54706,1073725440,19259,1026,65535,65700,0,0,9,1460,312,0,67108884,230000,33580,0,65700,0,0,0,2756429969,63
i,1734977082.214156,10.0.2.15,22,192.168.56.1,54688,1073725440,14600,0,65535,65700,0,0,4,1460,312,0,16777216,250000,33580,0,65700,0,0,0,515782400,63
o,1734977082.250126,10.0.2.15,22,192.168.56.1,54688,1073725440,14600,1026,65535,65700,0,0,4,1460,312,0,16777216,250000,33580,38,65700,42,0,0,515782400,63
i,1734977082.255633,10.0.2.15,22,192.168.56.1,54688,1073725440,14600,1026,65535,65700,0,0,4,1460,312,0,16777216,250000,33580,1158,65700,0,38,0,515782400,63
o,1734977082.255911,10.0.2.15,22,192.168.56.1,54688,1073725440,14638,1026,65535,65700,0,0,4,1460,312,0,16777218,230000,33580,1120,65700,1460,0,0,515782400,63
i,1734977082.256352,10.0.2.15,22,192.168.56.1,54688,1073725440,14638,1026,65535,65700,0,0,4,1460,312,0,16777216,230000,33580,1120,65700,1460,1120,0,515782400,63
i,1734977082.260609,10.0.2.15,22,192.168.56.1,54688,1073725440,14638,1026,65535,65700,0,0,4,1460,312,0,16777216,230000,33580,1120,65700,0,1120,0,515782400,63
i,1734977082.291620,10.0.2.15,22,192.168.56.1,54688,1073725440,15758,1026,65535,65700,0,0,4,1460,312,0,0,230000,33580,0,65700,0,0,0,515782400,63
o,1734977082.292755,10.0.2.15,22,192.168.56.1,54688,1073725440,15758,1026,65535,65700,0,0,4,1460,312,0,1,230000,33580,0,65700,1208,0,0,515782400,63
o,1734977082.317211,10.0.2.15,22,192.168.56.1,54688,1073725440,15758,1030,65535,65700,0,0,4,1460,312,0,16777216,230000,33580,1532,65700,0,0,0,515782400,63
o,1734977082.319670,10.0.2.15,22,192.168.56.1,54688,1073725440,15758,1026,65535,65700,0,0,4,1460,312,0,16777216,230000,33580,1532,65700,0,1460,0,515782400,63
i,1734977082.322240,10.0.2.15,22,192.168.56.1,54688,1073725440,15758,1026,65535,65700,0,0,4,1460,312,0,16777216,230000,33580,1532,65700,0,1532,0,515782400,63
i,1734977082.322324,10.0.2.15,22,192.168.56.1,54688,1073725440,17218,1026,65535,65700,0,0,4,1460,312,0,0,230000,33580,72,65700,0,72,0,515782400,63
i,1734977082.336595,10.0.2.15,22,192.168.56.1,54688,1073725440,17290,1026,65535,65700,0,0,4,1460,312,0,0,230000,33580,0,65700,0,0,0,515782400,63
o,1734977082.337109,10.0.2.15,22,192.168.56.1,54688,1073725440,17290,1026,65535,65700,0,0,4,1460,312,0,16777216,230000,33580,44,65700,0,0,0,515782400,63
i,1734977082.340804,10.0.2.15,22,192.168.56.1,54688,1073725440,17290,1026,65535,65700,0,0,4,1460,312,0,16777216,230000,33580,44,65700,0,44,0,515782400,63
i,1734977082.340887,10.0.2.15,22,192.168.56.1,54688,1073725440,17334,1026,65535,65700,0,0,4,1460,312,0,0,230000,33580,0,65700,0,0,0,515782400,63
o,1734977082.344668,10.0.2.15,22,192.168.56.1,54688,1073725440,17334,1026,65535,65700,0,0,4,1460,312,0,16777216,230000,33580,280,65700,0,0,0,515782400,63
i,1734977082.348192,10.0.2.15,22,192.168.56.1,54688,1073725440,17334,1026,65535,65700,0,0,4,1460,312,0,16777216,230000,33580,280,65700,0,280,0,515782400,63
o,1734977082.351985,10.0.2.15,22,192.168.56.1,54688,1073725440,17614,1026,65535,65700,0,0,4,1460,312,0,16777216,230000,33580,332,65700,0,0,0,515782400,63
i,1734977082.356800,10.0.2.15,22,192.168.56.1,54688,1073725440,17614,1026,65535,65700,0,0,4,1460,312,0,16777216,230000,33580,332,65700,0,332,0,515782400,63
i,1734977082.356878,10.0.2.15,22,192.168.56.1,54688,1073725440,17946,1026,65535,65700,0,0,4,1460,312,0,0,230000,33580,0,65700,0,0,0,515782400,63
o,1734977082.373363,10.0.2.15,22,192.168.56.1,54688,1073725440,17946,1026,65535,65700,0,0,4,1460,312,0,16777216,230000,33580,28,65700,0,0,0,515782400,63
i,1734977082.377309,10.0.2.15,22,192.168.56.1,54688,1073725440,17946,1026,65535,65700,0,0,4,1460,312,0,16777216,230000,33580,28,65700,0,28,0,515782400,63
o,1734977082.378832,10.0.2.15,22,192.168.56.1,54688,1073725440,17974,1026,65535,65700,0,0,4,1460,312,0,16777216,230000,33580,768,65700,112,0,0,515782400,63
i,1734977082.383867,10.0.2.15,22,192.168.56.1,54688,1073725440,17974,1026,65535,65700,0,0,4,1460,312,0,16777216,230000,33580,952,65700,0,768,0,515782400,63
o,1734977082.383948,10.0.2.15,22,192.168.56.1,54688,1073725440,18742,1026,65535,65700,0,0,4,1460,312,0,16777216,230000,33580,184,65700,0,0,0,515782400,63
i,1734977082.387501,10.0.2.15,22,192.168.56.1,54688,1073725440,18742,1026,65535,65700,0,0,4,1460,312,0,16777216,230000,33580,184,65700,0,184,0,515782400,63
i,1734977082.387532,10.0.2.15,22,192.168.56.1,54688,1073725440,18926,1026,65535,65700,0,0,4,1460,312,0,0,230000,33580,0,65700,0,0,0,515782400,63
o,1734977082.389009,10.0.2.15,22,192.168.56.1,54688,1073725440,18926,1026,65535,65700,0,0,4,1460,312,0,16777220,230000,33580,72,65700,0,0,0,515782400,63
i,1734977082.393547,10.0.2.15,22,192.168.56.1,54688,1073725440,18926,1026,65535,65700,0,0,4,1460,312,0,16777220,230000,33580,72,65700,0,72,0,515782400,63
o,1734977082.449097,10.0.2.15,22,192.168.56.1,54688,1073725440,18998,1026,65535,65700,0,0,4,1460,312,0,5,230000,33580,0,65700,0,0,0,515782400,63
o,1734977082.535601,172.16.3.2,58854,172.16.1.2,5101,37555,14480,34,65535,65700,6,6,4,1460,466250,1,16778209,1880000,33580,0,65700,0,0,0,197290363,63
o,1734977082.540221,172.16.3.2,58854,172.16.1.2,5101,37555,14480,34,65535,65700,6,6,4,1460,466250,1,16778212,1880000,33580,37,65700,0,0,0,197290363,63
i,1734977082.700237,172.16.3.2,58854,172.16.1.2,5101,37555,14480,34,65535,65700,6,6,4,1460,466250,1,16778212,1880000,33580,37,65700,0,37,0,197290363,63
o,1734977082.701302,172.16.3.2,58854,172.16.1.2,5101,37555,14517,1058,65728,65728,6,6,4,1460,426875,1,16778212,1850000,33580,4,65700,0,0,0,197290363,63
o,1734977082.701585,172.16.3.2,58854,172.16.1.2,5101,37555,14517,1058,65728,65728,6,6,4,1460,426875,1,16778212,1850000,33580,151,65700,0,4,0,197290363,63
i,1734977082.865119,172.16.3.2,58854,172.16.1.2,5101,37555,14517,1058,65728,65728,6,6,4,1460,426875,1,16778212,1850000,33580,151,65700,0,151,0,197290363,63
i,1734977082.865325,172.16.3.2,58854,172.16.1.2,5101,37555,14668,1058,65600,65728,6,6,4,1460,395000,1,996,1770000,33580,0,65700,0,0,0,197290363,63
o,1734977082.948722,172.16.3.2,58854,172.16.1.2,5101,37555,14668,1058,65728,65728,6,6,4,1460,395000,1,997,1770000,33580,0,65700,0,0,0,197290363,63
o,1734977083.018004,172.16.3.2,27937,172.16.1.2,5101,37555,14480,34,65535,65700,6,6,4,1460,467500,1,16778209,1880000,33580,0,65700,0,0,0,1255014683,63
o,1734977083.018521,172.16.3.2,27937,172.16.1.2,5101,37555,14480,34,65535,65700,6,6,4,1460,467500,1,16778208,1880000,33580,37,65700,0,0,0,1255014683,63
i,1734977083.149923,172.16.3.2,58854,172.16.1.2,5101,37555,14668,1058,65728,65728,6,6,4,1460,395000,1,996,1770000,33580,0,65700,0,0,0,197290363,63
i,1734977083.150220,172.16.3.2,58854,172.16.1.2,5101,37555,14668,1058,65728,65728,6,6,4,1460,395000,1,996,1770000,33580,0,65700,1,0,0,197290363,63
o,1734977083.150299,172.16.3.2,58854,172.16.1.2,5101,37555,14668,1058,65728,65728,6,6,4,1460,395000,1,997,1770000,33580,0,65700,2,0,0,197290363,63
o,1734977083.151851,172.16.3.2,27937,172.16.1.2,5101,37555,14480,38,65535,65700,6,6,4,1460,467500,1,16778208,1880000,33580,33580,65700,0,37,0,1255014683,63
i,1734977083.160418,172.16.3.2,27937,172.16.1.2,5101,37555,14480,38,65535,65700,6,6,4,1460,467500,1,16778208,1880000,33580,33580,65700,0,13069,0,1255014683,63
o,1734977083.160517,172.16.3.2,27937,172.16.1.2,5101,37555,14517,38,65728,65728,6,6,4,1460,425312,1,16778208,1870000,33580,33543,65700,0,13032,0,1255014683,63
i,1734977083.279460,172.16.3.2,27937,172.16.1.2,5101,37555,14517,38,65728,65728,6,6,4,1460,425312,1,16778208,1870000,33580,33543,65700,0,14480,0,1255014683,63
o,1734977083.279802,172.16.3.2,27937,172.16.1.2,5101,37555,17413,38,62848,65728,6,6,4,1460,387187,1,16778208,1820000,33580,30647,65700,0,11584,0,1255014683,63
i,1734977083.289915,172.16.3.2,27937,172.16.1.2,5101,37555,17413,38,62848,65728,6,6,4,1460,387187,1,16778208,1820000,41772,41772,65700,0,17376,0,1255014683,63
o,1734977083.290040,172.16.3.2,27937,172.16.1.2,5101,37555,20309,38,62848,65728,6,6,4,1460,355312,1,16778208,1740000,41772,38876,65700,0,14480,0,1255014683,63
i,1734977083.292454,172.16.3.2,27937,172.16.1.2,5101,37555,20309,38,62848,65728,6,6,4,1460,355312,1,16778208,1740000,49964,38876,65700,0,20272,0,1255014683,63
o,1734977083.292551,172.16.3.2,27937,172.16.1.2,5101,37555,23205,38,59968,65728,6,6,4,1460,328437,1,16778208,1630000,49964,35980,65700,0,17376,0,1255014683,63
i,1734977083.310276,172.16.3.2,27937,172.16.1.2,5101,37555,23205,38,59968,65728,6,6,4,1460,328437,1,16778208,1630000,49964,49964,65700,0,23168,0,1255014683,63
o,1734977083.310368,172.16.3.2,27937,172.16.1.2,5101,37555,26101,38,64256,65728,6,6,4,1460,306250,1,16778208,1510000,49964,47068,65700,0,20272,0,1255014683,63
i,1734977083.311955,172.16.3.2,27937,172.16.1.2,5101,37555,26101,38,64256,65728,6,6,4,1460,306250,1,16778208,1510000,58156,47068,65700,0,26064,0,1255014683,63
o,1734977083.311998,172.16.3.2,27937,172.16.1.2,5101,37555,28997,38,64256,65728,6,6,4,1460,288125,1,16778208,1390000,58156,44172,65700,0,23168,0,1255014683,63
o,1734977083.313117,172.16.3.2,27937,172.16.1.2,5101,37555,28997,38,64256,65728,6,6,4,1460,288125,1,16778208,1390000,58156,44172,65700,0,24616,0,1255014683,63
i,1734977083.443796,172.16.3.2,27937,172.16.1.2,5101,37555,28997,38,64256,65728,6,6,4,1460,288125,1,16778208,1390000,58156,58156,65700,0,28960,0,1255014683,63
o,1734977083.443892,172.16.3.2,27937,172.16.1.2,5101,37555,31893,38,64256,65728,6,6,4,1460,273437,1,16778208,1260000,66348,55260,65700,0,26064,0,1255014683,63
i,1734977083.444454,172.16.3.2,27937,172.16.1.2,5101,37555,31893,38,64256,65728,6,6,4,1460,273437,1,16778208,1260000,66348,55260,65700,0,31856,0,1255014683,63
o,1734977083.444530,172.16.3.2,27937,172.16.1.2,5101,37555,34789,38,62848,65728,6,6,4,1460,260625,1,16778208,1160000,66348,52364,65700,0,28960,0,1255014683,63
i,1734977083.459296,10.0.2.15,22,192.168.56.1,54706,1073725440,14600,0,65535,65700,0,0,4,1460,312,0,16777216,250000,33580,0,65700,0,0,0,2756429969,63
i,1734977083.479172,172.16.3.2,27937,172.16.1.2,5101,37555,34789,38,62848,65728,6,6,4,1460,260625,1,16778208,1160000,74540,74540,65700,0,34752,0,1255014683,63
o,1734977083.479223,172.16.3.2,27937,172.16.1.2,5101,37555,37685,38,64256,65728,6,6,4,1460,251875,1,16778208,1040000,74540,71644,65700,0,31856,0,1255014683,63
i,1734977083.490363,172.16.3.2,27937,172.16.1.2,5101,37555,37685,38,64256,65728,6,6,4,1460,251875,1,16778208,1040000,82732,82732,65700,0,37648,0,1255014683,63
o,1734977083.490495,172.16.3.2,27937,172.16.1.2,5101,37555,37685,38,61376,65728,6,6,4,1460,245625,1,16778208,940000,82732,79836,65700,0,34752,0,1255014683,63
i,1734977083.491168,172.16.3.2,27937,172.16.1.2,5101,37555,37685,38,61376,65728,6,6,4,1460,245625,1,16778208,940000,82732,79836,65700,0,37648,0,1255014683,63
o,1734977083.491257,172.16.3.2,27937,172.16.1.2,5101,37555,37685,38,62848,65728,6,6,4,1460,238750,1,16778208,860000,82732,76940,65700,0,34752,0,1255014683,63
i,1734977083.492368,172.16.3.2,27937,172.16.1.2,5101,37555,37685,38,62848,65728,6,6,4,1460,238750,1,16778208,860000,82732,76940,65700,0,37648,0,1255014683,63
o,1734977083.492441,172.16.3.2,27937,172.16.1.2,5101,37555,37685,38,62848,65728,6,6,4,1460,234062,1,16778208,790000,82732,74044,65700,0,34752,0,1255014683,63
i,1734977083.493162,172.16.3.2,27937,172.16.1.2,5101,37555,37685,38,62848,65728,6,6,4,1460,234062,1,16778208,790000,82732,74044,65700,0,37648,0,1255014683,63
o,1734977083.493239,172.16.3.2,27937,172.16.1.2,5101,37555,37685,38,62848,65728,6,6,4,1460,228750,1,16778208,740000,82732,71148,65700,0,34752,0,1255014683,63
o,1734977083.496322,10.0.2.15,22,192.168.56.1,54706,1073725440,14600,2,65535,65700,0,0,4,1460,312,0,16777217,250000,33580,0,65700,42,0,0,2756429969,63
i,1734977083.496574,172.16.3.2,27937,172.16.1.2,5101,37555,37685,38,62848,65728,6,6,4,1460,228750,1,16778208,740000,82732,82732,65700,0,37648,0,1255014683,63
o,1734977083.496659,172.16.3.2,27937,172.16.1.2,5101,37555,37685,38,59968,65728,6,6,4,1460,224062,1,16778208,690000,82732,79836,65700,0,34752,0,1255014683,63
o,1734977083.502320,10.0.2.15,22,192.168.56.1,54706,1073725440,14600,1026,65535,65700,0,0,4,1460,312,0,16777216,250000,33580,38,65700,42,0,0,2756429969,63
i,1734977083.504576,10.0.2.15,22,192.168.56.1,54706,1073725440,14600,1026,65535,65700,0,0,4,1460,312,0,16777216,250000,33580,38,65700,0,38,0,2756429969,63
o,1734977083.506435,10.0.2.15,22,192.168.56.1,54706,1073725440,14638,1026,65535,65700,0,0,4,1460,312,0,16777216,230000,33580,1120,65700,0,0,0,2756429969,63
i,1734977083.510417,10.0.2.15,22,192.168.56.1,54706,1073725440,14638,1026,65535,65700,0,0,4,1460,312,0,16777216,230000,33580,1120,65700,0,1120,0,2756429969,63
i,1734977083.510493,10.0.2.15,22,192.168.56.1,54706,1073725440,14638,1026,65535,65700,0,0,4,1460,312,0,16777216,230000,33580,1120,65700,1460,1120,0,2756429969,63
o,1734977083.510565,10.0.2.15,22,192.168.56.1,54706,1073725440,14638,1026,65535,65700,0,0,4,1460,312,0,16777217,230000,33580,1120,65700,1536,1120,0,2756429969,63
i,1734977083.510991,10.0.2.15,22,192.168.56.1,54706,1073725440,14638,1026,65535,65700,0,0,4,1460,312,0,16777216,230000,33580,1120,65700,1536,1120,0,2756429969,63
i,1734977083.541538,10.0.2.15,22,192.168.56.1,54706,1073725440,15758,1026,65535,65700,0,0,4,1460,312,0,0,230000,33580,0,65700,0,0,0,2756429969,63
i,1734977083.557222,172.16.3.2,27937,172.16.1.2,5101,37555,37685,38,59968,65728,6,6,4,1460,224062,1,16778208,690000,82732,82732,65700,0,37648,0,1255014683,63
o,1734977083.557438,172.16.3.2,27937,172.16.1.2,5101,37555,37685,38,64256,65728,6,6,4,1460,226250,1,16778208,640000,82732,79836,65700,0,34752,0,1255014683,63
o,1734977083.557833,172.16.3.2,27937,172.16.1.2,5101,37555,37685,38,64256,65728,6,6,4,1460,226250,1,16778208,640000,82732,79836,65700,0,36200,0,1255014683,63
i,1734977083.558202,172.16.3.2,27937,172.16.1.2,5101,37555,37685,38,64256,65728,6,6,4,1460,226250,1,16778208,640000,82732,79836,65700,0,37648,0,1255014683,63
o,1734977083.558266,172.16.3.2,27937,172.16.1.2,5101,37555,37685,38,61376,65728,6,6,4,1460,228125,1,16778208,610000,82732,76940,65700,0,34752,0,1255014683,63
o,1734977083.559375,10.0.2.15,22,192.168.56.1,54706,1073725440,15758,1030,65535,65700,0,0,4,1460,312,0,16777216,230000,33580,1532,65700,0,0,0,2756429969,63
o,1734977083.559664,10.0.2.15,22,192.168.56.1,54706,1073725440,15758,1026,65535,65700,0,0,4,1460,312,0,16777216,230000,33580,1532,65700,0,1460,0,2756429969,63
i,1734977083.561906,10.0.2.15,22,192.168.56.1,54706,1073725440,15758,1026,65535,65700,0,0,4,1460,312,0,16777216,230000,33580,1532,65700,0,1532,0,2756429969,63
i,1734977083.577583,10.0.2.15,22,192.168.56.1,54706,1073725440,17290,1026,65535,65700,0,0,4,1460,312,0,0,230000,33580,0,65700,0,0,0,2756429969,63
o,1734977083.578097,10.0.2.15,22,192.168.56.1,54706,1073725440,17290,1026,65535,65700,0,0,4,1460,312,0,16777216,230000,33580,44,65700,0,0,0,2756429969,63
i,1734977083.581739,10.0.2.15,22,192.168.56.1,54706,1073725440,17290,1026,65535,65700,0,0,4,1460,312,0,16777216,230000,33580,44,65700,0,44,0,2756429969,63
i,1734977083.581820,10.0.2.15,22,192.168.56.1,54706,1073725440,17334,1026,65535,65700,0,0,4,1460,312,0,0,230000,33580,0,65700,0,0,0,2756429969,63
o,1734977083.585127,10.0.2.15,22,192.168.56.1,54706,1073725440,17334,1026,65535,65700,0,0,4,1460,312,0,16777216,230000,33580,280,65700,0,0,0,2756429969,63
i,1734977083.588581,10.0.2.15,22,192.168.56.1,54706,1073725440,17334,1026,65535,65700,0,0,4,1460,312,0,16777216,230000,33580,280,65700,0,280,0,2756429969,63
o,1734977083.589557,10.0.2.15,22,192.168.56.1,54706,1073725440,17614,1026,65535,65700,0,0,4,1460,312,0,16777216,230000,33580,332,65700,0,0,0,2756429969,63
i,1734977083.593571,10.0.2.15,22,192.168.56.1,54706,1073725440,17614,1026,65535,65700,0,0,4,1460,312,0,16777216,230000,33580,332,65700,0,332,0,2756429969,63
i,1734977083.593645,10.0.2.15,22,192.168.56.1,54706,1073725440,17946,1026,65535,65700,0,0,4,1460,312,0,0,230000,33580,0,65700,0,0,0,2756429969,63
o,1734977083.613439,10.0.2.15,22,192.168.56.1,54706,1073725440,17946,1026,65535,65700,0,0,4,1460,312,0,16777216,230000,33580,28,65700,0,0,0,2756429969,63
i,1734977083.617472,10.0.2.15,22,192.168.56.1,54706,1073725440,17946,1026,65535,65700,0,0,4,1460,312,0,16777216,230000,33580,28,65700,0,28,0,2756429969,63
i,1734977083.617472,10.0.2.15,22,192.168.56.1,54706,1073725440,17974,1026,65535,65700,0,0,4,1460,312,0,0,230000,33580,0,65700,0,0,0,2756429969,63
o,1734977083.617472,10.0.2.15,22,192.168.56.1,54706,1073725440,17974,1026,65535,65700,0,0,4,1460,312,0,16777216,230000,33580,768,65700,112,0,0,2756429969,63
i,1734977083.621948,10.0.2.15,22,192.168.56.1,54706,1073725440,17974,1026,65535,65700,0,0,4,1460,312,0,16777216,230000,33580,908,65700,112,768,0,2756429969,63
o,1734977083.622028,10.0.2.15,22,192.168.56.1,54706,1073725440,18742,1026,65535,65700,0,0,4,1460,312,0,16777216,230000,33580,140,65700,112,0,0,2756429969,63
i,1734977083.624666,10.0.2.15,22,192.168.56.1,54706,1073725440,18742,1026,65535,65700,0,0,4,1460,312,0,16777216,230000,33580,140,65700,112,140,0,2756429969,63
o,1734977083.625750,10.0.2.15,22,192.168.56.1,54706,1073725440,18882,1026,65535,65700,0,0,4,1460,312,0,16777216,230000,33580,44,65700,0,0,0,2756429969,63
i,1734977083.628077,10.0.2.15,22,192.168.56.1,54706,1073725440,18882,1026,65535,65700,0,0,4,1460,312,0,16777216,230000,33580,44,65700,0,44,0,2756429969,63
i,1734977083.628152,10.0.2.15,22,192.168.56.1,54706,1073725440,18926,1026,65535,65700,0,0,4,1460,312,0,0,230000,33580,0,65700,0,0,0,2756429969,63
o,1734977083.629711,10.0.2.15,22,192.168.56.1,54706,1073725440,18926,1026,65535,65700,0,0,4,1460,312,0,16777220,230000,33580,72,65700,0,0,0,2756429969,63
i,1734977083.635429,10.0.2.15,22,192.168.56.1,54706,1073725440,18926,1026,65535,65700,0,0,4,1460,312,0,16777220,230000,33580,72,65700,0,72,0,2756429969,63
i,1734977083.852588,172.16.3.2,27937,172.16.1.2,5101,37555,37685,38,61376,65728,6,6,4,1460,228125,1,16778208,610000,82732,82732,65700,0,37648,0,1255014683,63
o,1734977083.852815,172.16.3.2,27937,172.16.1.2,5101,37555,37685,38,95680,65728,6,6,4,1460,250937,1,16778208,770000,82732,79836,65700,0,34752,0,1255014683,63
i,1734977083.854212,172.16.3.2,27937,172.16.1.2,5101,37555,37685,38,95680,65728,6,6,4,1460,250937,1,16778208,770000,82732,82732,65700,0,37648,0,1255014683,63
o,1734977083.854257,172.16.3.2,27937,172.16.1.2,5101,37555,37685,38,95680,65728,6,6,4,1460,270937,1,16778208,870000,82732,79836,65700,0,34752,0,1255014683,63
i,1734977083.854533,172.16.3.2,27937,172.16.1.2,5101,37555,37685,38,95680,65728,6,6,4,1460,270937,1,16778208,870000,82732,79836,65700,0,37648,0,1255014683,63
o,1734977083.854563,172.16.3.2,27937,172.16.1.2,5101,37555,37685,38,95680,65728,6,6,4,1460,288437,1,16778208,920000,82732,76940,65700,0,34752,0,1255014683,63
i,1734977083.855297,172.16.3.2,27937,172.16.1.2,5101,37555,37685,38,95680,65728,6,6,4,1460,288437,1,16778208,920000,82732,76940,65700,0,37648,0,1255014683,63
o,1734977083.855380,172.16.3.2,27937,172.16.1.2,5101,37555,37685,38,97152,65728,6,6,4,1460,303750,1,16778208,950000,82732,74044,65700,0,34752,0,1255014683,63
i,1734977083.883361,172.16.3.2,27937,172.16.1.2,5101,37555,37685,38,97152,65728,6,6,4,1460,303750,1,16778208,950000,90924,90924,65700,0,37648,0,1255014683,63
o,1734977083.883456,172.16.3.2,27937,172.16.1.2,5101,37555,37685,38,97152,65728,6,6,4,1460,317187,1,16778208,960000,90924,88028,65700,0,34752,0,1255014683,63
i,1734977083.919774,172.16.3.2,27937,172.16.1.2,5101,37555,37685,38,97152,65728,6,6,4,1460,317187,1,16778208,960000,90924,90924,65700,0,37648,0,1255014683,63
o,1734977083.920036,172.16.3.2,27937,172.16.1.2,5101,37555,37685,38,97152,65728,6,6,4,1460,332812,1,16778208,990000,90924,88028,65700,0,34752,0,1255014683,63
i,1734977083.933668,172.16.3.2,27937,172.16.1.2,5101,37555,37685,38,97152,65728,6,6,4,1460,332812,1,16778208,990000,90924,90924,65700,0,37648,0,1255014683,63
o,1734977083.933714,172.16.3.2,27937,172.16.1.2,5101,37555,37685,38,95680,65728,6,6,4,1460,347500,1,16778208,1010000,90924,88028,65700,0,34752,0,1255014683,63
i,1734977083.933995,172.16.3.2,27937,172.16.1.2,5101,37555,37685,38,95680,65728,6,6,4,1460,347500,1,16778208,1010000,90924,88028,65700,0,37648,0,1255014683,63
o,1734977083.934069,172.16.3.2,27937,172.16.1.2,5101,37555,37685,38,92800,65728,6,6,4,1460,360312,1,16778208,1010000,90924,85132,65700,0,34752,0,1255014683,63
i,1734977083.936681,172.16.3.2,27937,172.16.1.2,5101,37555,37685,38,92800,65728,6,6,4,1460,360312,1,16778208,1010000,90924,85132,65700,0,37648,0,1255014683,63
o,1734977083.936758,172.16.3.2,27937,172.16.1.2,5101,37555,37685,38,89920,65728,6,6,4,1460,370312,1,16778208,990000,90924,82236,65700,0,34752,0,1255014683,63
i,1734977083.940108,172.16.3.2,27937,172.16.1.2,5101,37555,37685,38,89920,65728,6,6,4,1460,370312,1,16778208,990000,90924,90924,65700,0,37648,0,1255014683,63
o,1734977083.940207,172.16.3.2,27937,172.16.1.2,5101,37555,37685,38,95680,65728,6,6,4,1460,379062,1,16778208,960000,90924,88028,65700,0,34752,0,1255014683,63
i,1734977083.948902,172.16.3.2,27937,172.16.1.2,5101,37555,37685,38,95680,65728,6,6,4,1460,379062,1,16778208,960000,90924,90924,65700,0,37648,0,1255014683,63
o,1734977083.949002,172.16.3.2,27937,172.16.1.2,5101,37555,37685,38,97152,65728,6,6,4,1460,386875,1,16778208,930000,90924,88028,65700,0,34752,0,1255014683,63
i,1734977084.025416,172.16.3.2,27937,172.16.1.2,5101,37555,37685,38,97152,65728,6,6,4,1460,386875,1,16778208,930000,90924,90924,65700,0,37648,0,1255014683,63
o,1734977084.025676,172.16.3.2,27937,172.16.1.2,5101,37555,37685,38,95680,65728,6,6,4,1460,397500,1,16778208,940000,90924,88028,65700,0,34752,0,1255014683,63
o,1734977084.026180,172.16.3.2,27937,172.16.1.2,5101,37555,37685,38,95680,65728,6,6,4,1460,397500,1,16778208,940000,90924,88028,65700,0,36200,0,1255014683,63
i,1734977084.026760,172.16.3.2,27937,172.16.1.2,5101,37555,37685,38,95680,65728,6,6,4,1460,397500,1,16778208,940000,90924,88028,65700,0,37648,0,1255014683,63
o,1734977084.026835,172.16.3.2,27937,172.16.1.2,5101,37555,37685,38,97152,65728,6,6,4,1460,406562,1,16778208,940000,90924,85132,65700,0,34752,0,1255014683,63
o,1734977084.038393,172.16.3.2,15110,172.16.1.2,5102,37555,14480,34,65535,65700,6,6,4,1460,498750,1,16778209,1660000,33580,0,65700,0,0,0,1691288068,63
o,1734977084.039476,172.16.3.2,15110,172.16.1.2,5102,37555,14480,34,65535,65700,6,6,4,1460,498750,1,16778212,1660000,33580,37,65700,0,0,0,1691288068,63
i,1734977084.258129,172.16.3.2,27937,172.16.1.2,5101,37555,37685,38,97152,65728,6,6,4,1460,406562,1,16778208,940000,90924,90924,65700,0,37648,0,1255014683,63
o,1734977084.258410,172.16.3.2,27937,172.16.1.2,5101,37555,37685,38,95680,65728,6,6,4,1460,405937,1,16778208,860000,90924,88028,65700,0,34752,0,1255014683,63
i,1734977084.265740,172.16.3.2,27937,172.16.1.2,5101,37555,37685,38,95680,65728,6,6,4,1460,405937,1,16778208,860000,90924,88028,65700,0,37648,0,1255014683,63
o,1734977084.265932,172.16.3.2,27937,172.16.1.2,5101,37555,37685,38,97152,65728,6,6,4,1460,406562,1,16778208,800000,90924,85132,65700,0,34752,0,1255014683,63
i,1734977084.267640,172.16.3.2,27937,172.16.1.2,5101,37555,37685,38,97152,65728,6,6,4,1460,406562,1,16778208,800000,90924,85132,65700,0,37648,0,1255014683,63
o,1734977084.267768,172.16.3.2,27937,172.16.1.2,5101,37555,37685,38,94272,65728,6,6,4,1460,407187,1,16778208,760000,90924,82236,65700,0,34752,0,1255014683,63
i,1734977084.268409,172.16.3.2,27937,172.16.1.2,5101,37555,37685,38,94272,65728,6,6,4,1460,407187,1,16778208,760000,90924,82236,65700,0,37648,0,1255014683,63
o,1734977084.268501,172.16.3.2,27937,172.16.1.2,5101,37555,37685,38,97152,65728,6,6,4,1460,407812,1,16778208,730000,90924,79340,65700,0,34752,0,1255014683,63
i,1734977084.331969,172.16.3.2,27937,172.16.1.2,5101,37555,37685,38,97152,65728,6,6,4,1460,407812,1,16778208,730000,90924,90924,65700,0,37648,0,1255014683,63
o,1734977084.332082,172.16.3.2,27937,172.16.1.2,5101,37555,37685,38,95680,65728,6,6,4,1460,411875,1,16778208,730000,90924,88028,65700,0,34752,0,1255014683,63
i,1734977084.332702,172.16.3.2,27937,172.16.1.2,5101,37555,37685,38,95680,65728,6,6,4,1460,411875,1,16778208,730000,90924,88028,65700,0,37648,0,1255014683,63
o,1734977084.332788,172.16.3.2,27937,172.16.1.2,5101,37555,37685,38,92800,65728,6,6,4,1460,411875,1,16778208,700000,90924,85132,65700,0,34752,0,1255014683,63
i,1734977084.333962,172.16.3.2,27937,172.16.1.2,5101,37555,37685,38,92800,65728,6,6,4,1460,411875,1,16778208,700000,90924,85132,65700,0,37648,0,1255014683,63
o,1734977084.334040,172.16.3.2,27937,172.16.1.2,5101,37555,37685,38,89920,65728,6,6,4,1460,409375,1,16778208,700000,90924,82236,65700,0,34752,0,1255014683,63
i,1734977084.401905,172.16.3.2,27937,172.16.1.2,5101,37555,37685,38,89920,65728,6,6,4,1460,409375,1,16778208,700000,90924,90924,65700,0,37648,0,1255014683,63
o,1734977084.402000,172.16.3.2,27937,172.16.1.2,5101,37555,37685,38,95680,65728,6,6,4,1460,415937,1,16778208,730000,90924,88028,65700,0,34752,0,1255014683,63
i,1734977084.405536,172.16.3.2,27937,172.16.1.2,5101,37555,37685,38,95680,65728,6,6,4,1460,415937,1,16778208,730000,90924,90924,65700,0,37648,0,1255014683,63
o,1734977084.405620,172.16.3.2,27937,172.16.1.2,5101,37555,37685,38,95680,65728,6,6,4,1460,421562,1,16778208,750000,90924,88028,65700,0,34752,0,1255014683,63
i,1734977084.414477,172.16.3.2,27937,172.16.1.2,5101,37555,37685,38,95680,65728,6,6,4,1460,421562,1,16778208,750000,90924,90924,65700,0,37648,0,1255014683,63
o,1734977084.414571,172.16.3.2,27937,172.16.1.2,5101,37555,37685,38,98560,65728,6,6,4,1460,429062,1,16778208,790000,90924,89476,65700,0,36200,0,1255014683,63
i,1734977084.424127,172.16.3.2,27937,172.16.1.2,5101,37555,37685,38,98560,65728,6,6,4,1460,429062,1,16778208,790000,90924,89476,65700,0,37648,0,1255014683,63
o,1734977084.424220,172.16.3.2,27937,172.16.1.2,5101,37555,37685,38,97152,65728,6,6,4,1460,435625,1,16778208,810000,90924,86580,65700,0,34752,0,1255014683,63
i,1734977084.493155,172.16.3.2,27937,172.16.1.2,5101,37555,37685,38,97152,65728,6,6,4,1460,435625,1,16778208,810000,90924,90924,65700,0,37648,0,1255014683,63
o,1734977084.493248,172.16.3.2,27937,172.16.1.2,5101,37555,37685,38,97152,65728,6,6,4,1460,450000,1,16778208,900000,90924,88028,65700,0,34752,0,1255014683,63
o,1734977084.494272,172.16.3.2,27937,172.16.1.2,5101,37555,37685,38,97152,65728,6,6,4,1460,450000,1,16778208,900000,90924,88028,65700,0,36200,0,1255014683,63
i,1734977084.496083,172.16.3.2,27937,172.16.1.2,5101,37555,37685,38,97152,65728,6,6,4,1460,450000,1,16778208,900000,90924,90924,65700,0,37648,0,1255014683,63
o,1734977084.496160,172.16.3.2,27937,172.16.1.2,5101,37555,37685,38,97152,65728,6,6,4,1460,452500,1,16778208,860000,90924,88028,65700,0,34752,0,1255014683,63
i,1734977084.522717,172.16.3.2,27937,172.16.1.2,5101,37555,37685,38,97152,65728,6,6,4,1460,452500,1,16778208,860000,90924,90924,65700,0,37648,0,1255014683,63
o,1734977084.522817,172.16.3.2,27937,172.16.1.2,5101,37555,37685,38,98560,65728,6,6,4,1460,458437,1,16778208,860000,90924,89476,65700,0,36200,0,1255014683,63
i,1734977084.579509,172.16.3.2,15110,172.16.1.2,5102,37555,14480,34,65535,65700,6,6,4,1460,498750,1,16778212,1660000,33580,37,65700,0,37,0,1691288068,63
o,1734977084.580084,172.16.3.2,15110,172.16.1.2,5102,37555,14517,1058,65728,65728,6,6,4,1460,502812,1,16778212,1450000,33580,4,65700,0,0,0,1691288068,63
o,1734977084.580590,172.16.3.2,15110,172.16.1.2,5102,37555,14517,1058,65728,65728,6,6,4,1460,502812,1,16778212,1450000,33580,130,65700,0,4,0,1691288068,63
i,1734977084.709020,172.16.3.2,27937,172.16.1.2,5101,37555,37685,38,98560,65728,6,6,4,1460,458437,1,16778208,860000,90924,89476,65700,0,37648,0,1255014683,63
o,1734977084.709469,172.16.3.2,27937,172.16.1.2,5101,37555,37685,38,95680,65728,6,6,4,1460,457500,1,16778208,820000,90924,86580,65700,0,34752,0,1255014683,63
i,1734977084.711132,172.16.3.2,27937,172.16.1.2,5101,37555,37685,38,95680,65728,6,6,4,1460,457500,1,16778208,820000,90924,86580,65700,0,37648,0,1255014683,63
o,1734977084.711412,172.16.3.2,27937,172.16.1.2,5101,37555,37685,38,97152,65728,6,6,4,1460,455312,1,16778208,790000,90924,83684,65700,0,34752,0,1255014683,63
i,1734977084.715437,172.16.3.2,27937,172.16.1.2,5101,37555,37685,38,97152,65728,6,6,4,1460,455312,1,16778208,790000,90924,83684,65700,0,37648,0,1255014683,63
o,1734977084.715588,172.16.3.2,27937,172.16.1.2,5101,37555,37685,38,95680,65728,6,6,4,1460,454687,1,16778208,760000,90924,80788,65700,0,34752,0,1255014683,63
i,1734977084.716559,172.16.3.2,27937,172.16.1.2,5101,37555,37685,38,95680,65728,6,6,4,1460,454687,1,16778208,760000,90924,80788,65700,0,37648,0,1255014683,63
o,1734977084.716687,172.16.3.2,27937,172.16.1.2,5101,37555,37685,38,97152,65728,6,6,4,1460,454375,1,16778208,730000,90924,77892,65700,0,34752,0,1255014683,63
i,1734977084.758208,172.16.3.2,27937,172.16.1.2,5101,37555,37685,38,97152,65728,6,6,4,1460,454375,1,16778208,730000,90924,90924,65700,0,37648,0,1255014683,63
o,1734977084.758483,172.16.3.2,27937,172.16.1.2,5101,37555,37685,38,95680,65728,6,6,4,1460,450312,1,16778208,740000,90924,88028,65700,0,34752,0,1255014683,63
i,1734977084.762462,172.16.3.2,27937,172.16.1.2,5101,37555,37685,38,95680,65728,6,6,4,1460,450312,1,16778208,740000,90924,90924,65700,0,37648,0,1255014683,63
o,1734977084.762540,172.16.3.2,27937,172.16.1.2,5101,37555,37685,38,92800,65728,6,6,4,1460,447812,1,16778208,740000,90924,88028,65700,0,34752,0,1255014683,63
i,1734977084.768591,172.16.3.2,27937,172.16.1.2,5101,37555,37685,38,92800,65728,6,6,4,1460,447812,1,16778208,740000,90924,90924,65700,0,37648,0,1255014683,63
o,1734977084.768680,172.16.3.2,27937,172.16.1.2,5101,37555,37685,38,97152,65728,6,6,4,1460,445625,1,16778208,730000,90924,88028,65700,0,34752,0,1255014683,63
i,1734977084.842166,172.16.3.2,27937,172.16.1.2,5101,37555,37685,38,97152,65728,6,6,4,1460,445625,1,16778208,730000,90924,90924,65700,0,37648,0,1255014683,63
o,1734977084.842336,172.16.3.2,27937,172.16.1.2,5101,37555,37685,38,95680,65728,6,6,4,1460,445000,1,16778208,710000,90924,88028,65700,0,34752,0,1255014683,63
i,1734977084.842991,172.16.3.2,27937,172.16.1.2,5101,37555,37685,38,95680,65728,6,6,4,1460,445000,1,16778208,710000,90924,88028,65700,0,37648,0,1255014683,63
o,1734977084.843067,172.16.3.2,27937,172.16.1.2,5101,37555,37685,38,92800,65728,6,6,4,1460,444375,1,16778208,700000,90924,85132,65700,0,34752,0,1255014683,63
i,1734977084.850154,172.16.3.2,27937,172.16.1.2,5101,37555,37685,38,92800,65728,6,6,4,1460,444375,1,16778208,700000,90924,90924,65700,0,37648,0,1255014683,63
o,1734977084.850423,172.16.3.2,27937,172.16.1.2,5101,37555,37685,38,97152,65728,6,6,4,1460,441562,1,16778208,700000,90924,88028,65700,0,34752,0,1255014683,63
i,1734977084.851077,172.16.3.2,27937,172.16.1.2,5101,37555,37685,38,97152,65728,6,6,4,1460,441562,1,16778208,700000,90924,88028,65700,0,37648,0,1255014683,63
o,1734977084.851153,172.16.3.2,27937,172.16.1.2,5101,37555,37685,38,97152,65728,6,6,4,1460,437812,1,16778208,720000,90924,85132,65700,0,34752,0,1255014683,63
o,1734977084.852423,172.16.3.2,27937,172.16.1.2,5101,37555,37685,38,97152,65728,6,6,4,1460,437812,1,16778208,720000,90924,85132,65700,0,36200,0,1255014683,63
i,1734977084.858571,172.16.3.2,27937,172.16.1.2,5101,37555,37685,38,97152,65728,6,6,4,1460,437812,1,16778208,720000,90924,90924,65700,0,37648,0,1255014683,63
o,1734977084.858660,172.16.3.2,27937,172.16.1.2,5101,37555,37685,38,97152,65728,6,6,4,1460,426875,1,16778208,770000,90924,88028,65700,0,34752,0,1255014683,63
i,1734977084.859421,172.16.3.2,27937,172.16.1.2,5101,37555,37685,38,97152,65728,6,6,4,1460,426875,1,16778208,770000,90924,88028,65700,0,37648,0,1255014683,63
o,1734977084.859497,172.16.3.2,27937,172.16.1.2,5101,37555,37685,38,98560,65728,6,6,4,1460,417500,1,16778208,800000,90924,86580,65700,0,36200,0,1255014683,63
i,1734977085.011935,172.16.3.2,27937,172.16.1.2,5101,37555,37685,38,98560,65728,6,6,4,1460,417500,1,16778208,800000,90924,90924,65700,0,37648,0,1255014683,63
o,1734977085.012003,172.16.3.2,27937,172.16.1.2,5101,37555,37685,38,98560,65728,6,6,4,1460,426562,1,16778208,840000,90924,89476,65700,0,36200,0,1255014683,63
i,1734977085.022398,172.16.3.2,15110,172.16.1.2,5102,37555,14517,1058,65728,65728,6,6,4,1460,502812,1,16778212,1450000,33580,130,65700,0,130,0,1691288068,63
i,1734977085.036467,172.16.3.2,15110,172.16.1.2,5102,37555,14647,1058,65600,65728,6,6,4,1460,495000,1,996,1320000,33580,0,65700,0,0,0,1691288068,63
o,1734977085.076894,172.16.3.2,15110,172.16.1.2,5102,37555,14647,1058,65728,65728,6,6,4,1460,495000,1,997,1320000,33580,0,65700,0,0,0,1691288068,63
i,1734977085.139029,172.16.3.2,27937,172.16.1.2,5101,37555,37685,38,98560,65728,6,6,4,1460,426562,1,16778208,840000,90924,89476,65700,0,37648,0,1255014683,63
o,1734977085.140966,172.16.3.2,27937,172.16.1.2,5101,37555,37685,38,95680,65728,6,6,4,1460,427187,1,16778208,790000,90924,86580,65700,0,34752,0,1255014683,63
i,1734977085.141657,172.16.3.2,27937,172.16.1.2,5101,37555,37685,38,95680,65728,6,6,4,1460,427187,1,16778208,790000,90924,86580,65700,0,37648,0,1255014683,63
o,1734977085.141732,172.16.3.2,27937,172.16.1.2,5101,37555,37685,38,97152,65728,6,6,4,1460,427812,1,16778208,760000,90924,83684,65700,0,34752,0,1255014683,63
i,1734977085.146538,172.16.3.2,27937,172.16.1.2,5101,37555,37685,38,97152,65728,6,6,4,1460,427812,1,16778208,760000,90924,90924,65700,0,37648,0,1255014683,63
o,1734977085.146791,172.16.3.2,27937,172.16.1.2,5101,37555,37685,38,95680,65728,6,6,4,1460,426875,1,16778208,730000,90924,88028,65700,0,34752,0,1255014683,63
i,1734977085.171125,172.16.3.2,27937,172.16.1.2,5101,37555,37685,38,95680,65728,6,6,4,1460,426875,1,16778208,730000,90924,90924,65700,0,37648,0,1255014683,63
o,1734977085.171341,172.16.3.2,27937,172.16.1.2,5101,37555,37685,38,97152,65728,6,6,4,1460,430000,1,16778208,730000,90924,88028,65700,0,34752,0,1255014683,63
i,1734977085.241897,172.16.3.2,27937,172.16.1.2,5101,37555,37685,38,97152,65728,6,6,4,1460,430000,1,16778208,730000,90924,90924,65700,0,37648,0,1255014683,63
o,1734977085.241994,172.16.3.2,27937,172.16.1.2,5101,37555,37685,38,95680,65728,6,6,4,1460,436250,1,16778208,760000,90924,88028,65700,0,34752,0,1255014683,63
i,1734977085.246681,172.16.3.2,27937,172.16.1.2,5101,37555,37685,38,95680,65728,6,6,4,1460,436250,1,16778208,760000,90924,90924,65700,0,37648,0,1255014683,63
o,1734977085.246772,172.16.3.2,27937,172.16.1.2,5101,37555,37685,38,97152,65728,6,6,4,1460,440625,1,16778208,770000,90924,88028,65700,0,34752,0,1255014683,63
i,1734977085.255527,172.16.3.2,27937,172.16.1.2,5101,37555,37685,38,97152,65728,6,6,4,1460,440625,1,16778208,770000,90924,90924,65700,0,37648,0,1255014683,63
o,1734977085.255773,172.16.3.2,27937,172.16.1.2,5101,37555,37685,38,94272,65728,6,6,4,1460,446875,1,16778208,790000,90924,88028,65700,0,34752,0,1255014683,63
i,1734977085.301518,172.16.3.2,27937,172.16.1.2,5101,37555,37685,38,94272,65728,6,6,4,1460,446875,1,16778208,790000,90924,90924,65700,0,37648,0,1255014683,63
o,1734977085.302769,172.16.3.2,27937,172.16.1.2,5101,37555,37685,38,95680,65728,6,6,4,1460,448750,1,16778208,770000,90924,88028,65700,0,34752,0,1255014683,63
i,1734977085.303518,172.16.3.2,27937,172.16.1.2,5101,37555,37685,38,95680,65728,6,6,4,1460,448750,1,16778208,770000,90924,88028,65700,0,37648,0,1255014683,63
o,1734977085.303643,172.16.3.2,27937,172.16.1.2,5101,37555,37685,38,92800,65728,6,6,4,1460,450312,1,16778208,760000,90924,85132,65700,0,34752,0,1255014683,63
i,1734977085.313606,172.16.3.2,27937,172.16.1.2,5101,37555,37685,38,92800,65728,6,6,4,1460,450312,1,16778208,760000,90924,90924,65700,0,37648,0,1255014683,63
o,1734977085.313889,172.16.3.2,27937,172.16.1.2,5101,37555,37685,38,89920,65728,6,6,4,1460,452812,1,16778208,750000,90924,88028,65700,0,34752,0,1255014683,63
i,1734977085.322199,172.16.3.2,27937,172.16.1.2,5101,37555,37685,38,89920,65728,6,6,4,1460,452812,1,16778208,750000,90924,90924,65700,0,37648,0,1255014683,63
o,1734977085.322298,172.16.3.2,27937,172.16.1.2,5101,37555,37685,38,95680,65728,6,6,4,1460,456250,1,16778208,760000,90924,88028,65700,0,34752,0,1255014683,63
o,1734977085.322830,172.16.3.2,27937,172.16.1.2,5101,37555,37685,38,95680,65728,6,6,4,1460,456250,1,16778208,760000,90924,88028,65700,0,36200,0,1255014683,63
i,1734977085.339335,172.16.3.2,27937,172.16.1.2,5101,37555,37685,38,95680,65728,6,6,4,1460,456250,1,16778208,760000,90924,90924,65700,0,37648,0,1255014683,63
o,1734977085.339425,172.16.3.2,27937,172.16.1.2,5101,37555,37685,38,95680,65728,6,6,4,1460,459375,1,16778208,760000,90924,88028,65700,0,34752,0,1255014683,63
i,1734977085.385386,172.16.3.2,27937,172.16.1.2,5101,37555,37685,38,95680,65728,6,6,4,1460,459375,1,16778208,760000,90924,90924,65700,0,37648,0,1255014683,63
o,1734977085.385755,172.16.3.2,27937,172.16.1.2,5101,37555,37685,38,98560,65728,6,6,4,1460,468437,1,16778208,820000,90924,89476,65700,0,36200,0,1255014683,63
i,1734977085.413151,172.16.3.2,27937,172.16.1.2,5101,37555,37685,38,98560,65728,6,6,4,1460,468437,1,16778208,820000,90924,89476,65700,0,37648,0,1255014683,63
o,1734977085.413529,172.16.3.2,27937,172.16.1.2,5101,37555,37685,38,98560,65728,6,6,4,1460,460000,1,16778208,840000,90924,88028,65700,0,36200,0,1255014683,63
o,1734977085.417768,172.16.3.2,57873,172.16.1.2,5102,37555,14480,34,65535,65700,6,6,4,1460,497500,1,16778209,1670000,33580,0,65700,0,0,0,2413836940,63
o,1734977085.418635,172.16.3.2,57873,172.16.1.2,5102,37555,14480,34,65535,65700,6,6,4,1460,497500,1,16778208,1670000,33580,37,65700,0,0,0,2413836940,63
i,1734977085.559967,172.16.3.2,27937,172.16.1.2,5101,37555,37685,38,98560,65728,6,6,4,1460,460000,1,16778208,840000,90924,90924,65700,0,37648,0,1255014683,63
o,1734977085.560080,172.16.3.2,27937,172.16.1.2,5101,37555,37685,38,95680,65728,6,6,4,1460,453750,1,16778208,840000,90924,88028,65700,0,34752,0,1255014683,63
i,1734977085.560326,172.16.3.2,27937,172.16.1.2,5101,37555,37685,38,95680,65728,6,6,4,1460,453750,1,16778208,840000,90924,88028,65700,0,37648,0,1255014683,63
o,1734977085.560358,172.16.3.2,27937,172.16.1.2,5101,37555,37685,38,92800,65728,6,6,4,1460,448437,1,16778208,830000,90924,85132,65700,0,34752,0,1255014683,63
i,1734977085.561205,172.16.3.2,27937,172.16.1.2,5101,37555,37685,38,92800,65728,6,6,4,1460,448437,1,16778208,830000,90924,90924,65700,0,37648,0,1255014683,63
o,1734977085.561530,172.16.3.2,27937,172.16.1.2,5101,37555,37685,38,95680,65728,6,6,4,1460,443750,1,16778208,820000,90924,88028,65700,0,34752,0,1255014683,63
i,1734977085.562483,172.16.3.2,27937,172.16.1.2,5101,37555,37685,38,95680,65728,6,6,4,1460,443750,1,16778208,820000,90924,88028,65700,0,37648,0,1255014683,63
o,1734977085.562557,172.16.3.2,27937,172.16.1.2,5101,37555,37685,38,92800,65728,6,6,4,1460,437187,1,16778208,820000,90924,85132,65700,0,34752,0,1255014683,63
i,1734977085.568936,172.16.3.2,27937,172.16.1.2,5101,37555,37685,38,92800,65728,6,6,4,1460,437187,1,16778208,820000,90924,90924,65700,0,37648,0,1255014683,63
o,1734977085.569193,172.16.3.2,27937,172.16.1.2,5101,37555,37685,38,95680,65728,6,6,4,1460,422812,1,16778208,880000,90924,88028,65700,0,34752,0,1255014683,63
i,1734977085.581249,172.16.3.2,27937,172.16.1.2,5101,37555,37685,38,95680,65728,6,6,4,1460,422812,1,16778208,880000,90924,90924,65700,0,37648,0,1255014683,63
o,1734977085.582029,172.16.3.2,27937,172.16.1.2,5101,37555,37685,38,97152,65728,6,6,4,1460,411250,1,16778208,890000,90924,88028,65700,0,34752,0,1255014683,63
i,1734977085.587188,172.16.3.2,27937,172.16.1.2,5101,37555,37685,38,97152,65728,6,6,4,1460,411250,1,16778208,890000,90924,90924,65700,0,37648,0,1255014683,63
o,1734977085.587292,172.16.3.2,27937,172.16.1.2,5101,37555,37685,38,95680,65728,6,6,4,1460,400000,1,16778208,900000,90924,88028,65700,0,34752,0,1255014683,63
i,1734977085.592202,172.16.3.2,27937,172.16.1.2,5101,37555,37685,38,95680,65728,6,6,4,1460,400000,1,16778208,900000,90924,90924,65700,0,37648,0,1255014683,63
o,1734977085.592243,172.16.3.2,27937,172.16.1.2,5101,37555,37685,38,97152,65728,6,6,4,1460,386250,1,16778208,920000,90924,88028,65700,0,34752,0,1255014683,63
i,1734977085.595698,172.16.3.2,27937,172.16.1.2,5101,37555,37685,38,97152,65728,6,6,4,1460,386250,1,16778208,920000,90924,90924,65700,0,37648,0,1255014683,63
o,1734977085.595737,172.16.3.2,27937,172.16.1.2,5101,37555,37685,38,95680,65728,6,6,4,1460,374375,1,16778208,920000,90924,88028,65700,0,34752,0,1255014683,63
i,1734977085.597332,172.16.3.2,27937,172.16.1.2,5101,37555,37685,38,95680,65728,6,6,4,1460,374375,1,16778208,920000,90924,90924,65700,0,37648,0,1255014683,63
o,1734977085.597415,172.16.3.2,27937,172.16.1.2,5101,37555,37685,38,95680,65728,6,6,4,1460,362812,1,16778208,920000,90924,88028,65700,0,34752,0,1255014683,63
i,1734977085.601929,172.16.3.2,27937,172.16.1.2,5101,37555,37685,38,95680,65728,6,6,4,1460,362812,1,16778208,920000,90924,90924,65700,0,37648,0,1255014683,63
o,1734977085.602019,172.16.3.2,27937,172.16.1.2,5101,37555,37685,38,97152,65728,6,6,4,1460,352500,1,16778208,900000,90924,88028,65700,0,34752,0,1255014683,63
o,1734977085.602507,172.16.3.2,27937,172.16.1.2,5101,37555,37685,38,97152,65728,6,6,4,1460,352500,1,16778208,900000,90924,88028,65700,0,36200,0,1255014683,63
i,1734977085.666389,172.16.3.2,27937,172.16.1.2,5101,37555,37685,38,97152,65728,6,6,4,1460,352500,1,16778208,900000,90924,90924,65700,0,37648,0,1255014683,63
o,1734977085.666704,172.16.3.2,27937,172.16.1.2,5101,37555,37685,38,95680,65728,6,6,4,1460,349687,1,16778208,830000,90924,88028,65700,0,34752,0,1255014683,63
i,1734977085.902054,172.16.3.2,27937,172.16.1.2,5101,37555,37685,38,95680,65728,6,6,4,1460,349687,1,16778208,830000,90924,90924,65700,0,37648,0,1255014683,63
o,1734977085.902177,172.16.3.2,27937,172.16.1.2,5101,37555,37685,38,97152,65728,6,6,4,1460,370000,1,16778208,950000,90924,88028,65700,0,34752,0,1255014683,63
i,1734977085.926996,172.16.3.2,15110,172.16.1.2,5102,37555,14647,1058,65728,65728,6,6,4,1460,495000,1,996,1320000,33580,0,65700,0,0,0,1691288068,63
i,1734977085.927155,172.16.3.2,15110,172.16.1.2,5102,37555,14647,1058,65728,65728,6,6,4,1460,495000,1,996,1320000,33580,0,65700,1,0,0,1691288068,63
o,1734977085.927239,172.16.3.2,15110,172.16.1.2,5102,37555,14480,1058,65728,65728,6,6,4,1460,495000,1,997,1320000,33580,0,65700,2,0,0,1691288068,63
i,1734977085.927822,172.16.3.2,57873,172.16.1.2,5102,37555,14480,34,65535,65700,6,6,4,1460,497500,1,16778208,1670000,33580,37,65700,0,37,0,2413836940,63
o,1734977085.928819,172.16.3.2,57873,172.16.1.2,5102,37555,14517,38,65728,65728,6,6,4,1460,499062,1,16778208,1440000,33580,33580,65700,0,0,0,2413836940,63
o,1734977085.929314,172.16.3.2,57873,172.16.1.2,5102,37555,14517,38,65728,65728,6,6,4,1460,499062,1,16778208,1440000,33580,33580,65700,0,1448,0,2413836940,63
i,1734977086.055417,172.16.3.2,27937,172.16.1.2,5101,37555,37685,38,97152,65728,6,6,4,1460,370000,1,16778208,950000,90924,90924,65700,0,37648,0,1255014683,63
o,1734977086.055518,172.16.3.2,27937,172.16.1.2,5101,37555,37685,38,95680,65728,6,6,4,1460,386250,1,16778208,1000000,90924,88028,65700,0,34752,0,1255014683,63
i,1734977086.106619,172.16.3.2,27937,172.16.1.2,5101,37555,37685,38,95680,65728,6,6,4,1460,386250,1,16778208,1000000,90924,90924,65700,0,37648,0,1255014683,63
o,1734977086.106729,172.16.3.2,27937,172.16.1.2,5101,37555,37685,38,97152,65728,6,6,4,1460,406875,1,16778208,1080000,90924,88028,65700,0,34752,0,1255014683,63
i,1734977086.110355,172.16.3.2,27937,172.16.1.2,5101,37555,37685,38,97152,65728,6,6,4,1460,406875,1,16778208,1080000,90924,90924,65700,0,37648,0,1255014683,63
o,1734977086.110437,172.16.3.2,27937,172.16.1.2,5101,37555,37685,38,94272,65728,6,6,4,1460,423750,1,16778208,1110000,90924,88028,65700,0,34752,0,1255014683,63
i,1734977086.111091,172.16.3.2,27937,172.16.1.2,5101,37555,37685,38,94272,65728,6,6,4,1460,423750,1,16778208,1110000,90924,88028,65700,0,37648,0,1255014683,63
o,1734977086.111169,172.16.3.2,27937,172.16.1.2,5101,37555,37685,38,95680,65728,6,6,4,1460,438437,1,16778208,1120000,90924,85132,65700,0,34752,0,1255014683,63
i,1734977086.114213,172.16.3.2,27937,172.16.1.2,5101,37555,37685,38,95680,65728,6,6,4,1460,438437,1,16778208,1120000,90924,90924,65700,0,37648,0,1255014683,63
o,1734977086.114461,172.16.3.2,27937,172.16.1.2,5101,37555,37685,38,97152,65728,6,6,4,1460,452500,1,16778208,1130000,90924,88028,65700,0,34752,0,1255014683,63
i,1734977086.137176,172.16.3.2,27937,172.16.1.2,5101,37555,37685,38,97152,65728,6,6,4,1460,452500,1,16778208,1130000,90924,90924,65700,0,37648,0,1255014683,63
o,1734977086.137437,172.16.3.2,27937,172.16.1.2,5101,37555,37685,38,97152,65728,6,6,4,1460,464687,1,16778208,1120000,90924,88028,65700,0,34752,0,1255014683,63
i,1734977086.141264,172.16.3.2,27937,172.16.1.2,5101,37555,37685,38,97152,65728,6,6,4,1460,464687,1,16778208,1120000,90924,90924,65700,0,37648,0,1255014683,63
o,1734977086.141944,172.16.3.2,27937,172.16.1.2,5101,37555,37685,38,97152,65728,6,6,4,1460,475625,1,16778208,1100000,90924,88028,65700,0,34752,0,1255014683,63
i,1734977086.192351,172.16.3.2,27937,172.16.1.2,5101,37555,37685,38,97152,65728,6,6,4,1460,475625,1,16778208,1100000,90924,90924,65700,0,37648,0,1255014683,63
o,1734977086.192595,172.16.3.2,27937,172.16.1.2,5101,37555,37685,38,97152,65728,6,6,4,1460,491250,1,16778208,1140000,90924,88028,65700,0,34752,0,1255014683,63
i,1734977086.203530,172.16.3.2,27937,172.16.1.2,5101,37555,37685,38,97152,65728,6,6,4,1460,491250,1,16778208,1140000,90924,90924,65700,0,37648,0,1255014683,63
o,1734977086.203776,172.16.3.2,27937,172.16.1.2,5101,37555,37685,38,98560,65728,6,6,4,1460,506250,1,16778208,1160000,90924,89476,65700,0,36200,0,1255014683,63
i,1734977086.219688,172.16.3.2,27937,172.16.1.2,5101,37555,37685,38,98560,65728,6,6,4,1460,506250,1,16778208,1160000,90924,89476,65700,0,37648,0,1255014683,63
o,1734977086.219791,172.16.3.2,27937,172.16.1.2,5101,37555,37685,38,97152,65728,6,6,4,1460,520625,1,16778208,1180000,90924,86580,65700,0,34752,0,1255014683,63
i,1734977086.226253,172.16.3.2,27937,172.16.1.2,5101,37555,37685,38,97152,65728,6,6,4,1460,520625,1,16778208,1180000,90924,90924,65700,0,37648,0,1255014683,63
o,1734977086.226358,172.16.3.2,27937,172.16.1.2,5101,37555,37685,38,97152,65728,6,6,4,1460,534375,1,16778208,1180000,90924,88028,65700,0,34752,0,1255014683,63
o,1734977086.226903,172.16.3.2,27937,172.16.1.2,5101,37555,37685,38,97152,65728,6,6,4,1460,534375,1,16778208,1180000,90924,88028,65700,0,36200,0,1255014683,63
i,1734977086.304030,172.16.3.2,27937,172.16.1.2,5101,37555,37685,38,97152,65728,6,6,4,1460,534375,1,16778208,1180000,90924,90924,65700,0,37648,0,1255014683,63
o,1734977086.304100,172.16.3.2,27937,172.16.1.2,5101,37555,37685,38,97152,65728,6,6,4,1460,555312,1,16778208,1260000,90924,88028,65700,0,34752,0,1255014683,63
i,1734977086.337059,172.16.3.2,27937,172.16.1.2,5101,37555,37685,38,97152,65728,6,6,4,1460,555312,1,16778208,1260000,90924,90924,65700,0,37648,0,1255014683,63
o,1734977086.337130,172.16.3.2,27937,172.16.1.2,5101,37555,37685,38,98560,65728,6,6,4,1460,569687,1,16778208,1260000,90924,89476,65700,0,36200,0,1255014683,63
i,1734977086.609096,172.16.3.2,27937,172.16.1.2,5101,37555,37685,38,98560,65728,6,6,4,1460,569687,1,16778208,1260000,90924,89476,65700,0,37648,0,1255014683,63
o,1734977086.609372,172.16.3.2,27937,172.16.1.2,5101,37555,37685,38,95680,65728,6,6,4,1460,586250,1,16778208,1290000,90924,86580,65700,0,34752,0,1255014683,63
i,1734977086.626617,172.16.3.2,57873,172.16.1.2,5102,37555,14517,38,65728,65728,6,6,4,1460,499062,1,16778208,1440000,33580,33580,65700,0,14480,0,2413836940,63
o,1734977086.626667,172.16.3.2,57873,172.16.1.2,5102,37555,17413,38,64256,65728,6,6,4,1460,524375,1,16778208,1480000,33580,30684,65700,0,11584,0,2413836940,63
o,1734977086.626875,172.16.3.2,57873,172.16.1.2,5102,37555,17413,38,64256,65728,6,6,4,1460,524375,1,16778208,1480000,33580,30684,65700,0,13032,0,2413836940,63
i,1734977086.630799,172.16.3.2,57873,172.16.1.2,5102,37555,17413,38,64256,65728,6,6,4,1460,524375,1,16778208,1480000,41772,41772,65700,0,17376,0,2413836940,63
o,1734977086.631051,172.16.3.2,57873,172.16.1.2,5102,37555,20309,38,64256,65728,6,6,4,1460,546562,1,16778208,1490000,41772,38876,65700,0,14480,0,2413836940,63
i,1734977086.632058,172.16.3.2,57873,172.16.1.2,5102,37555,20309,38,64256,65728,6,6,4,1460,546562,1,16778208,1490000,49964,38876,65700,0,20272,0,2413836940,63
o,1734977086.632132,172.16.3.2,57873,172.16.1.2,5102,37555,23205,38,64256,65728,6,6,4,1460,565937,1,16778208,1480000,49964,35980,65700,0,17376,0,2413836940,63
i,1734977086.632667,172.16.3.2,57873,172.16.1.2,5102,37555,23205,38,64256,65728,6,6,4,1460,565937,1,16778208,1480000,49964,35980,65700,0,23168,0,2413836940,63
o,1734977086.632707,172.16.3.2,57873,172.16.1.2,5102,37555,26101,38,64256,65728,6,6,4,1460,582812,1,16778208,1450000,49964,33084,65700,0,20272,0,2413836940,63
i,1734977086.632921,172.16.3.2,57873,172.16.1.2,5102,37555,26101,38,64256,65728,6,6,4,1460,582812,1,16778208,1450000,49964,33084,65700,0,26064,0,2413836940,63
o,1734977086.632952,172.16.3.2,57873,172.16.1.2,5102,37555,28997,38,61376,65728,6,6,4,1460,597500,1,16778208,1420000,49964,30188,65700,0,23168,0,2413836940,63
i,1734977086.700848,172.16.3.2,27937,172.16.1.2,5101,37555,37685,38,95680,65728,6,6,4,1460,586250,1,16778208,1290000,90924,90924,65700,0,37648,0,1255014683,63
o,1734977086.700949,172.16.3.2,27937,172.16.1.2,5101,37555,37685,38,97152,65728,6,6,4,1460,593125,1,16778208,1230000,90924,88028,65700,0,34752,0,1255014683,63
i,1734977086.704980,172.16.3.2,27937,172.16.1.2,5101,37555,37685,38,97152,65728,6,6,4,1460,593125,1,16778208,1230000,90924,90924,65700,0,37648,0,1255014683,63
o,1734977086.705079,172.16.3.2,27937,172.16.1.2,5101,37555,37685,38,97152,65728,6,6,4,1460,594062,1,16778208,1130000,90924,88028,65700,0,34752,0,1255014683,63
i,1734977086.750541,172.16.3.2,27937,172.16.1.2,5101,37555,37685,38,97152,65728,6,6,4,1460,594062,1,16778208,1130000,90924,90924,65700,0,37648,0,1255014683,63
o,1734977086.750802,172.16.3.2,27937,172.16.1.2,5101,37555,37685,38,97152,65728,6,6,4,1460,600000,1,16778208,1100000,90924,88028,65700,0,34752,0,1255014683,63
i,1734977086.756844,172.16.3.2,27937,172.16.1.2,5101,37555,37685,38,97152,65728,6,6,4,1460,600000,1,16778208,1100000,90924,90924,65700,0,37648,0,1255014683,63
o,1734977086.757005,172.16.3.2,27937,172.16.1.2,5101,37555,37685,38,95680,65728,6,6,4,1460,606250,1,16778208,1080000,90924,88028,65700,0,34752,0,1255014683,63
i,1734977086.757561,172.16.3.2,27937,172.16.1.2,5101,37555,37685,38,95680,65728,6,6,4,1460,606250,1,16778208,1080000,90924,88028,65700,0,37648,0,1255014683,63
o,1734977086.757639,172.16.3.2,27937,172.16.1.2,5101,37555,37685,38,95680,65728,6,6,4,1460,610625,1,16778208,1050000,90924,85132,65700,0,34752,0,1255014683,63
i,1734977086.765296,172.16.3.2,27937,172.16.1.2,5101,37555,37685,38,95680,65728,6,6,4,1460,610625,1,16778208,1050000,90924,90924,65700,0,37648,0,1255014683,63
o,1734977086.765392,172.16.3.2,27937,172.16.1.2,5101,37555,37685,38,97152,65728,6,6,4,1460,613125,1,16778208,1010000,90924,88028,65700,0,34752,0,1255014683,63
i,1734977086.772830,172.16.3.2,27937,172.16.1.2,5101,37555,37685,38,97152,65728,6,6,4,1460,613125,1,16778208,1010000,90924,90924,65700,0,37648,0,1255014683,63
o,1734977086.772928,172.16.3.2,27937,172.16.1.2,5101,37555,37685,38,97152,65728,6,6,4,1460,615312,1,16778208,980000,90924,88028,65700,0,34752,0,1255014683,63
i,1734977086.835868,172.16.3.2,27937,172.16.1.2,5101,37555,37685,38,97152,65728,6,6,4,1460,615312,1,16778208,980000,90924,90924,65700,0,37648,0,1255014683,63
o,1734977086.836037,172.16.3.2,27937,172.16.1.2,5101,37555,37685,38,95680,65728,6,6,4,1460,618437,1,16778208,970000,90924,88028,65700,0,34752,0,1255014683,63
i,1734977086.844663,172.16.3.2,27937,172.16.1.2,5101,37555,37685,38,95680,65728,6,6,4,1460,618437,1,16778208,970000,90924,90924,65700,0,37648,0,1255014683,63
o,1734977086.844775,172.16.3.2,27937,172.16.1.2,5101,37555,37685,38,97152,65728,6,6,4,1460,621250,1,16778208,960000,90924,88028,65700,0,34752,0,1255014683,63
i,1734977086.870474,172.16.3.2,27937,172.16.1.2,5101,37555,37685,38,97152,65728,6,6,4,1460,621250,1,16778208,960000,90924,90924,65700,0,37648,0,1255014683,63
o,1734977086.870682,172.16.3.2,27937,172.16.1.2,5101,37555,37685,38,97152,65728,6,6,4,1460,623750,1,16778208,940000,90924,88028,65700,0,34752,0,1255014683,63
o,1734977086.870994,172.16.3.2,27937,172.16.1.2,5101,37555,37685,38,97152,65728,6,6,4,1460,623750,1,16778208,940000,90924,88028,65700,0,36200,0,1255014683,63
i,1734977086.905502,172.16.3.2,27937,172.16.1.2,5101,37555,37685,38,97152,65728,6,6,4,1460,623750,1,16778208,940000,90924,90924,65700,0,37648,0,1255014683,63
