enable_time_secs=1734975393	enable_time_usecs=488940	siftrver=1.3.0	sysname=FreeBSD	sysver=1401000	ipmode=4
o,1734975393.491021,10.0.2.15,22,192.168.56.1,54680,1073725440,18998,1026,65535,65700,0,0,4,1460,312,0,16777220,230000,33580,172,65700,0,0,0,3583483320,63
o,1734975393.492586,10.0.2.15,22,192.168.56.1,54680,1073725440,18998,1026,65535,65700,0,0,4,1460,312,0,16777220,230000,33580,244,65700,0,172,0,3583483320,63
i,1734975393.495576,10.0.2.15,22,192.168.56.1,54680,1073725440,18998,1026,65535,65700,0,0,4,1460,312,0,16777220,230000,33580,244,65700,0,244,0,3583483320,63
i,1734975393.495654,10.0.2.15,22,192.168.56.1,54680,1073725440,19170,1026,65535,65700,0,0,4,1460,312,0,4,230000,33580,72,65700,0,72,0,3583483320,63
i,1734975393.495722,10.0.2.15,22,192.168.56.1,54680,1073725440,19242,1026,65535,65700,0,0,4,1460,312,0,4,230000,33580,0,65700,0,0,0,3583483320,63
o,1734975393.497394,10.0.2.15,22,192.168.56.1,54680,1073725440,19242,1026,65535,65700,0,0,6,1460,312,0,4,230000,33580,0,65700,0,0,0,3583483320,63
i,1734975393.501320,10.0.2.15,22,192.168.56.1,54680,1073725440,19242,1026,65535,65700,0,0,6,1460,312,0,67108884,230000,33580,0,65700,0,1,0,3583483320,63
i,1734975396.452970,10.0.2.15,22,192.168.56.1,54686,1073725440,14600,0,65535,65700,0,0,4,1460,312,0,16777216,250000,33580,0,65700,0,0,0,755699618,63
o,1734975396.491620,10.0.2.15,22,192.168.56.1,54686,1073725440,14600,1026,65535,65700,0,0,4,1460,312,0,16777216,250000,33580,38,65700,42,0,0,755699618,63
i,1734975396.499676,10.0.2.15,22,192.168.56.1,54686,1073725440,14600,1026,65535,65700,0,0,4,1460,312,0,16777216,250000,33580,1158,65700,0,38,0,755699618,63
o,1734975396.499773,10.0.2.15,22,192.168.56.1,54686,1073725440,14638,1026,65535,65700,0,0,4,1460,312,0,16777216,230000,33580,1120,65700,0,0,0,755699618,63
i,1734975396.500201,10.0.2.15,22,192.168.56.1,54686,1073725440,14638,1026,65535,65700,0,0,4,1460,312,0,16777216,230000,33580,1120,65700,0,1120,0,755699618,63
i,1734975396.500279,10.0.2.15,22,192.168.56.1,54686,1073725440,14638,1026,65535,65700,0,0,4,1460,312,0,16777216,230000,33580,1120,65700,1460,1120,0,755699618,63
o,1734975396.500400,10.0.2.15,22,192.168.56.1,54686,1073725440,14638,1026,65535,65700,0,0,4,1460,312,0,16777217,230000,33580,1120,65700,1536,1120,0,755699618,63
i,1734975396.503658,10.0.2.15,22,192.168.56.1,54686,1073725440,14638,1026,65535,65700,0,0,4,1460,312,0,16777216,230000,33580,1120,65700,0,1120,0,755699618,63
i,1734975396.542168,10.0.2.15,22,192.168.56.1,54686,1073725440,15758,1026,65535,65700,0,0,4,1460,312,0,0,230000,33580,0,65700,0,0,0,755699618,63
o,1734975396.572004,10.0.2.15,22,192.168.56.1,54686,1073725440,15758,1030,65535,65700,0,0,4,1460,312,0,16777216,230000,33580,1532,65700,0,0,0,755699618,63
o,1734975396.572953,10.0.2.15,22,192.168.56.1,54686,1073725440,15758,1026,65535,65700,0,0,4,1460,312,0,16777216,230000,33580,1532,65700,0,1460,0,755699618,63
i,1734975396.578575,10.0.2.15,22,192.168.56.1,54686,1073725440,15758,1026,65535,65700,0,0,4,1460,312,0,16777216,230000,33580,1532,65700,0,1532,0,755699618,63
i,1734975396.598883,10.0.2.15,22,192.168.56.1,54686,1073725440,17290,1026,65535,65700,0,0,4,1460,312,0,0,230000,33580,0,65700,0,0,0,755699618,63
o,1734975396.600316,10.0.2.15,22,192.168.56.1,54686,1073725440,17290,1026,65535,65700,0,0,4,1460,312,0,16777216,230000,33580,44,65700,0,0,0,755699618,63
i,1734975396.605146,10.0.2.15,22,192.168.56.1,54686,1073725440,17290,1026,65535,65700,0,0,4,1460,312,0,16777216,230000,33580,44,65700,0,44,0,755699618,63
o,1734975396.609896,10.0.2.15,22,192.168.56.1,54686,1073725440,17334,1026,65535,65700,0,0,4,1460,312,0,16777216,230000,33580,280,65700,0,0,0,755699618,63
i,1734975396.614008,10.0.2.15,22,192.168.56.1,54686,1073725440,17334,1026,65535,65700,0,0,4,1460,312,0,16777216,230000,33580,280,65700,0,280,0,755699618,63
o,1734975396.616646,10.0.2.15,22,192.168.56.1,54686,1073725440,17614,1026,65535,65700,0,0,4,1460,312,0,16777216,230000,33580,332,65700,0,0,0,755699618,63
i,1734975396.622123,10.0.2.15,22,192.168.56.1,54686,1073725440,17614,1026,65535,65700,0,0,4,1460,312,0,16777216,230000,33580,332,65700,0,332,0,755699618,63
i,1734975396.622214,10.0.2.15,22,192.168.56.1,54686,1073725440,17946,1026,65535,65700,0,0,4,1460,312,0,0,230000,33580,0,65700,0,0,0,755699618,63
o,1734975396.640632,10.0.2.15,22,192.168.56.1,54686,1073725440,17946,1026,65535,65700,0,0,4,1460,312,0,16777216,230000,33580,28,65700,0,0,0,755699618,63
i,1734975396.645110,10.0.2.15,22,192.168.56.1,54686,1073725440,17946,1026,65535,65700,0,0,4,1460,312,0,16777216,230000,33580,28,65700,0,28,0,755699618,63
i,1734975396.645193,10.0.2.15,22,192.168.56.1,54686,1073725440,17974,1026,65535,65700,0,0,4,1460,312,0,0,230000,33580,0,65700,0,0,0,755699618,63
o,1734975396.648371,10.0.2.15,22,192.168.56.1,54686,1073725440,17974,1026,65535,65700,0,0,4,1460,312,0,16777216,230000,33580,768,65700,112,0,0,755699618,63
i,1734975396.656123,10.0.2.15,22,192.168.56.1,54686,1073725440,17974,1026,65535,65700,0,0,4,1460,312,0,16777216,230000,33580,952,65700,0,768,0,755699618,63
o,1734975396.656224,10.0.2.15,22,192.168.56.1,54686,1073725440,18742,1026,65535,65700,0,0,4,1460,312,0,16777216,230000,33580,184,65700,0,0,0,755699618,63
i,1734975396.660425,10.0.2.15,22,192.168.56.1,54686,1073725440,18742,1026,65535,65700,0,0,4,1460,312,0,16777216,230000,33580,184,65700,0,184,0,755699618,63
i,1734975396.663002,10.0.2.15,22,192.168.56.1,54686,1073725440,18926,1026,65535,65700,0,0,4,1460,312,0,0,230000,33580,0,65700,0,0,0,755699618,63
o,1734975396.665153,10.0.2.15,22,192.168.56.1,54686,1073725440,18926,1026,65535,65700,0,0,4,1460,312,0,16777220,230000,33580,72,65700,0,0,0,755699618,63
i,1734975396.670464,10.0.2.15,22,192.168.56.1,54686,1073725440,18926,1026,65535,65700,0,0,4,1460,312,0,16777220,230000,33580,72,65700,0,72,0,755699618,63
o,1734975396.675387,10.0.2.15,22,192.168.56.1,54686,1073725440,18998,1026,65535,65700,0,0,4,1460,312,0,16777220,230000,33580,104,65700,0,0,0,755699618,63
i,1734975396.679786,10.0.2.15,22,192.168.56.1,54686,1073725440,18998,1026,65535,65700,0,0,4,1460,312,0,16777220,230000,33580,104,65700,0,104,0,755699618,63
o,1734975396.680988,10.0.2.15,22,192.168.56.1,54686,1073725440,19102,1026,65535,65700,0,0,4,1460,312,0,16777220,230000,33580,72,65700,0,0,0,755699618,63
i,1734975396.683162,10.0.2.15,22,192.168.56.1,54686,1073725440,19102,1026,65535,65700,0,0,4,1460,312,0,16777220,230000,33580,72,65700,0,72,0,755699618,63
i,1734975396.684765,10.0.2.15,22,192.168.56.1,54686,1073725440,19174,1026,65535,65700,0,0,4,1460,312,0,4,230000,33580,0,65700,0,0,0,755699618,63
o,1734975396.692498,10.0.2.15,22,192.168.56.1,54686,1073725440,19174,1026,65535,65700,0,0,6,1460,312,0,4,230000,33580,0,65700,0,0,0,755699618,63
i,1734975396.696383,10.0.2.15,22,192.168.56.1,54686,1073725440,19174,1026,65535,65700,0,0,6,1460,312,0,67108884,230000,33580,0,65700,0,1,0,755699618,63
i,1734975399.165672,10.0.2.15,22,192.168.56.1,54688,1073725440,14600,0,65535,65700,0,0,4,1460,312,0,16777216,250000,33580,0,65700,0,0,0,515782400,63
o,1734975399.202476,10.0.2.15,22,192.168.56.1,54688,1073725440,14600,2,65535,65700,0,0,4,1460,312,0,16777217,250000,33580,0,65700,42,0,0,515782400,63
o,1734975399.205066,10.0.2.15,22,192.168.56.1,54688,1073725440,14600,1026,65535,65700,0,0,4,1460,312,0,16777216,250000,33580,38,65700,42,0,0,515782400,63
i,1734975399.207580,10.0.2.15,22,192.168.56.1,54688,1073725440,14600,1026,65535,65700,0,0,4,1460,312,0,16777216,250000,33580,38,65700,0,38,0,515782400,63
i,1734975399.209490,10.0.2.15,22,192.168.56.1,54688,1073725440,14638,1026,65535,65700,0,0,4,1460,312,0,0,230000,33580,0,65700,0,0,0,515782400,63
i,1734975399.209570,10.0.2.15,22,192.168.56.1,54688,1073725440,14638,1026,65535,65700,0,0,4,1460,312,0,0,230000,33580,0,65700,1460,0,0,515782400,63
o,1734975399.209645,10.0.2.15,22,192.168.56.1,54688,1073725440,14638,1026,65535,65700,0,0,4,1460,312,0,1,230000,33580,0,65700,1536,0,0,515782400,63
o,1734975399.210845,10.0.2.15,22,192.168.56.1,54688,1073725440,14638,1026,65535,65700,0,0,4,1460,312,0,16777216,230000,33580,1120,65700,1536,0,0,515782400,63
i,1734975399.213794,10.0.2.15,22,192.168.56.1,54688,1073725440,14638,1026,65535,65700,0,0,4,1460,312,0,16777216,230000,33580,1120,65700,0,1120,0,515782400,63
i,1734975399.249231,10.0.2.15,22,192.168.56.1,54688,1073725440,15758,1026,65535,65700,0,0,4,1460,312,0,0,230000,33580,0,65700,0,0,0,515782400,63
o,1734975399.277716,10.0.2.15,22,192.168.56.1,54688,1073725440,15758,1030,65535,65700,0,0,4,1460,312,0,16777216,230000,33580,1532,65700,0,0,0,515782400,63
o,1734975399.278320,10.0.2.15,22,192.168.56.1,54688,1073725440,15758,1026,65535,65700,0,0,4,1460,312,0,16777216,230000,33580,1532,65700,0,1460,0,515782400,63
i,1734975399.280955,10.0.2.15,22,192.168.56.1,54688,1073725440,15758,1026,65535,65700,0,0,4,1460,312,0,16777216,230000,33580,1532,65700,0,1532,0,515782400,63
i,1734975399.295574,10.0.2.15,22,192.168.56.1,54688,1073725440,17290,1026,65535,65700,0,0,4,1460,312,0,0,230000,33580,0,65700,0,0,0,515782400,63
o,1734975399.296349,10.0.2.15,22,192.168.56.1,54688,1073725440,17290,1026,65535,65700,0,0,4,1460,312,0,16777216,230000,33580,44,65700,0,0,0,515782400,63
i,1734975399.301295,10.0.2.15,22,192.168.56.1,54688,1073725440,17290,1026,65535,65700,0,0,4,1460,312,0,16777216,230000,33580,44,65700,0,44,0,515782400,63
o,1734975399.304285,10.0.2.15,22,192.168.56.1,54688,1073725440,17334,1026,65535,65700,0,0,4,1460,312,0,16777216,230000,33580,280,65700,0,0,0,515782400,63
i,1734975399.308409,10.0.2.15,22,192.168.56.1,54688,1073725440,17334,1026,65535,65700,0,0,4,1460,312,0,16777216,230000,33580,280,65700,0,280,0,515782400,63
o,1734975399.311588,10.0.2.15,22,192.168.56.1,54688,1073725440,17614,1026,65535,65700,0,0,4,1460,312,0,16777216,230000,33580,332,65700,0,0,0,515782400,63
i,1734975399.317979,10.0.2.15,22,192.168.56.1,54688,1073725440,17614,1026,65535,65700,0,0,4,1460,312,0,16777216,230000,33580,332,65700,0,332,0,515782400,63
i,1734975399.318059,10.0.2.15,22,192.168.56.1,54688,1073725440,17946,1026,65535,65700,0,0,4,1460,312,0,0,230000,33580,0,65700,0,0,0,515782400,63
o,1734975399.332739,10.0.2.15,22,192.168.56.1,54688,1073725440,17946,1026,65535,65700,0,0,4,1460,312,0,16777216,230000,33580,28,65700,0,0,0,515782400,63
i,1734975399.338228,10.0.2.15,22,192.168.56.1,54688,1073725440,17946,1026,65535,65700,0,0,4,1460,312,0,16777216,230000,33580,28,65700,0,28,0,515782400,63
i,1734975399.338308,10.0.2.15,22,192.168.56.1,54688,1073725440,17974,1026,65535,65700,0,0,4,1460,312,0,0,240000,33580,0,65700,0,0,0,515782400,63
o,1734975399.339649,10.0.2.15,22,192.168.56.1,54688,1073725440,17974,1026,65535,65700,0,0,4,1460,312,0,16777216,240000,33580,768,65700,112,0,0,515782400,63
i,1734975399.345255,10.0.2.15,22,192.168.56.1,54688,1073725440,17974,1026,65535,65700,0,0,4,1460,312,0,16777216,240000,33580,952,65700,0,768,0,515782400,63
o,1734975399.345332,10.0.2.15,22,192.168.56.1,54688,1073725440,18742,1026,65535,65700,0,0,4,1460,312,0,16777216,240000,33580,184,65700,0,0,0,515782400,63
i,1734975399.348238,10.0.2.15,22,192.168.56.1,54688,1073725440,18742,1026,65535,65700,0,0,4,1460,312,0,16777216,240000,33580,184,65700,0,184,0,515782400,63
i,1734975399.348319,10.0.2.15,22,192.168.56.1,54688,1073725440,18926,1026,65535,65700,0,0,4,1460,312,0,0,240000,33580,0,65700,0,0,0,515782400,63
o,1734975399.349663,10.0.2.15,22,192.168.56.1,54688,1073725440,18926,1026,65535,65700,0,0,4,1460,312,0,16777220,240000,33580,72,65700,0,0,0,515782400,63
i,1734975399.355536,10.0.2.15,22,192.168.56.1,54688,1073725440,18926,1026,65535,65700,0,0,4,1460,312,0,16777220,240000,33580,72,65700,0,72,0,515782400,63
o,1734975399.571568,172.16.3.2,61663,172.16.1.2,5102,1073725440,14480,34,65535,65700,6,6,4,1460,210000,1,16778209,830000,33580,0,65700,0,0,0,734279508,63
o,1734975399.573533,172.16.3.2,61663,172.16.1.2,5102,1073725440,14480,34,65535,65700,6,6,4,1460,210000,1,16778212,830000,33580,37,65700,0,0,0,734279508,63
i,1734975399.719941,172.16.3.2,61663,172.16.1.2,5102,1073725440,14480,34,65535,65700,6,6,4,1460,210000,1,16778212,830000,33580,37,65700,0,37,0,734279508,63
o,1734975399.721028,172.16.3.2,61663,172.16.1.2,5102,1073725440,14517,1058,65728,65728,6,6,4,1460,201250,1,16778212,780000,33580,4,65700,0,0,0,734279508,63
o,1734975399.722506,172.16.3.2,61663,172.16.1.2,5102,1073725440,14517,1058,65728,65728,6,6,4,1460,201250,1,16778212,780000,33580,130,65700,0,4,0,734279508,63
i,1734975399.853681,172.16.3.2,61663,172.16.1.2,5102,1073725440,14517,1058,65728,65728,6,6,4,1460,201250,1,16778212,780000,33580,130,65700,0,130,0,734279508,63
i,1734975399.859834,172.16.3.2,61663,172.16.1.2,5102,1073725440,14647,1058,65600,65728,6,6,4,1460,193750,1,996,740000,33580,0,65700,0,0,0,734279508,63
o,1734975399.893013,172.16.3.2,61663,172.16.1.2,5102,1073725440,14647,1058,65728,65728,6,6,4,1460,193750,1,997,740000,33580,0,65700,0,0,0,734279508,63
o,1734975400.010949,172.16.3.2,12108,172.16.1.2,5102,1073725440,14480,34,65535,65700,6,6,4,1460,150000,1,16778209,650000,33580,0,65700,0,0,0,910455315,63
o,1734975400.012235,172.16.3.2,12108,172.16.1.2,5102,1073725440,14480,34,65535,65700,6,6,4,1460,150000,1,16778208,650000,33580,37,65700,0,0,0,910455315,63
i,1734975400.152718,172.16.3.2,61663,172.16.1.2,5102,1073725440,14647,1058,65728,65728,6,6,4,1460,193750,1,996,740000,33580,0,65700,0,0,0,734279508,63
i,1734975400.153137,172.16.3.2,61663,172.16.1.2,5102,1073725440,14647,1058,65728,65728,6,6,4,1460,193750,1,996,740000,33580,0,65700,1,0,0,734279508,63
o,1734975400.153268,172.16.3.2,61663,172.16.1.2,5102,1073725440,14647,1058,65728,65728,6,6,4,1460,193750,1,997,740000,33580,0,65700,2,0,0,734279508,63
i,1734975400.154116,172.16.3.2,12108,172.16.1.2,5102,1073725440,14480,34,65535,65700,6,6,4,1460,150000,1,16778208,650000,33580,37,65700,0,37,0,910455315,63
o,1734975400.155941,172.16.3.2,12108,172.16.1.2,5102,1073725440,14517,38,65728,65728,6,6,4,1460,148750,1,16778208,580000,33580,33580,65700,0,0,0,910455315,63
o,1734975400.155941,172.16.3.2,12108,172.16.1.2,5102,1073725440,14517,38,65728,65728,6,6,4,1460,148750,1,16778208,580000,33580,33580,65700,0,1448,0,910455315,63
i,1734975400.174509,10.0.2.15,22,192.168.56.1,54694,1073725440,14600,0,65535,65700,0,0,4,1460,312,0,16777216,250000,33580,0,65700,0,0,0,3861030170,63
o,1734975400.212424,10.0.2.15,22,192.168.56.1,54694,1073725440,14600,1026,65535,65700,0,0,4,1460,312,0,16777216,250000,33580,38,65700,42,0,0,3861030170,63
i,1734975400.218348,10.0.2.15,22,192.168.56.1,54694,1073725440,14600,1026,65535,65700,0,0,4,1460,312,0,16777216,250000,33580,1158,65700,0,38,0,3861030170,63
o,1734975400.218434,10.0.2.15,22,192.168.56.1,54694,1073725440,14638,1026,65535,65700,0,0,4,1460,312,0,16777216,230000,33580,1120,65700,0,0,0,3861030170,63
i,1734975400.218882,10.0.2.15,22,192.168.56.1,54694,1073725440,14638,1026,65535,65700,0,0,4,1460,312,0,16777216,230000,33580,1120,65700,0,1120,0,3861030170,63
i,1734975400.218970,10.0.2.15,22,192.168.56.1,54694,1073725440,14638,1026,65535,65700,0,0,4,1460,312,0,16777216,230000,33580,1120,65700,1460,1120,0,3861030170,63
o,1734975400.219000,10.0.2.15,22,192.168.56.1,54694,1073725440,14638,1026,65535,65700,0,0,4,1460,312,0,16777217,230000,33580,1120,65700,1536,1120,0,3861030170,63
i,1734975400.219200,10.0.2.15,22,192.168.56.1,54694,1073725440,14638,1026,65535,65700,0,0,4,1460,312,0,16777216,230000,33580,1120,65700,1536,1120,0,3861030170,63
i,1734975400.254803,10.0.2.15,22,192.168.56.1,54694,1073725440,15758,1026,65535,65700,0,0,4,1460,312,0,0,230000,33580,0,65700,0,0,0,3861030170,63
o,1734975400.284345,10.0.2.15,22,192.168.56.1,54694,1073725440,15758,1030,65535,65700,0,0,4,1460,312,0,16777216,230000,33580,1532,65700,0,0,0,3861030170,63
o,1734975400.285633,10.0.2.15,22,192.168.56.1,54694,1073725440,15758,1026,65535,65700,0,0,4,1460,312,0,16777216,230000,33580,1532,65700,0,1460,0,3861030170,63
i,1734975400.289270,10.0.2.15,22,192.168.56.1,54694,1073725440,15758,1026,65535,65700,0,0,4,1460,312,0,16777216,230000,33580,1532,65700,0,1532,0,3861030170,63
i,1734975400.305478,10.0.2.15,22,192.168.56.1,54694,1073725440,17290,1026,65535,65700,0,0,4,1460,312,0,0,230000,33580,0,65700,0,0,0,3861030170,63
o,1734975400.306168,10.0.2.15,22,192.168.56.1,54694,1073725440,17290,1026,65535,65700,0,0,4,1460,312,0,16777216,230000,33580,44,65700,0,0,0,3861030170,63
i,1734975400.309642,10.0.2.15,22,192.168.56.1,54694,1073725440,17290,1026,65535,65700,0,0,4,1460,312,0,16777216,230000,33580,44,65700,0,44,0,3861030170,63
o,1734975400.316069,10.0.2.15,22,192.168.56.1,54694,1073725440,17334,1026,65535,65700,0,0,4,1460,312,0,16777216,240000,33580,280,65700,0,0,0,3861030170,63
i,1734975400.320631,10.0.2.15,22,192.168.56.1,54694,1073725440,17334,1026,65535,65700,0,0,4,1460,312,0,16777216,240000,33580,280,65700,0,280,0,3861030170,63
i,1734975400.320725,10.0.2.15,22,192.168.56.1,54694,1073725440,17614,1026,65535,65700,0,0,4,1460,312,0,0,240000,33580,0,65700,0,0,0,3861030170,63
o,1734975400.324530,10.0.2.15,22,192.168.56.1,54694,1073725440,17614,1026,65535,65700,0,0,4,1460,312,0,16777216,240000,33580,332,65700,0,0,0,3861030170,63
i,1734975400.329507,10.0.2.15,22,192.168.56.1,54694,1073725440,17614,1026,65535,65700,0,0,4,1460,312,0,16777216,240000,33580,332,65700,0,332,0,3861030170,63
i,1734975400.329587,10.0.2.15,22,192.168.56.1,54694,1073725440,17946,1026,65535,65700,0,0,4,1460,312,0,0,240000,33580,0,65700,0,0,0,3861030170,63
o,1734975400.345256,10.0.2.15,22,192.168.56.1,54694,1073725440,17946,1026,65535,65700,0,0,4,1460,312,0,16777216,240000,33580,28,65700,0,0,0,3861030170,63
i,1734975400.350664,10.0.2.15,22,192.168.56.1,54694,1073725440,17946,1026,65535,65700,0,0,4,1460,312,0,16777216,240000,33580,28,65700,0,28,0,3861030170,63
o,1734975400.351409,10.0.2.15,22,192.168.56.1,54694,1073725440,17974,1026,65535,65700,0,0,4,1460,312,0,16777216,240000,33580,768,65700,112,0,0,3861030170,63
i,1734975400.357326,10.0.2.15,22,192.168.56.1,54694,1073725440,17974,1026,65535,65700,0,0,4,1460,312,0,16777216,240000,33580,952,65700,0,768,0,3861030170,63
o,1734975400.357375,10.0.2.15,22,192.168.56.1,54694,1073725440,18742,1026,65535,65700,0,0,4,1460,312,0,16777216,240000,33580,184,65700,0,0,0,3861030170,63
i,1734975400.362405,10.0.2.15,22,192.168.56.1,54694,1073725440,18742,1026,65535,65700,0,0,4,1460,312,0,16777216,240000,33580,184,65700,0,184,0,3861030170,63
i,1734975400.362487,10.0.2.15,22,192.168.56.1,54694,1073725440,18926,1026,65535,65700,0,0,4,1460,312,0,0,230000,33580,0,65700,0,0,0,3861030170,63
o,1734975400.364440,10.0.2.15,22,192.168.56.1,54694,1073725440,18926,1026,65535,65700,0,0,4,1460,312,0,16777220,230000,33580,72,65700,0,0,0,3861030170,63
i,1734975400.367762,10.0.2.15,22,192.168.56.1,54694,1073725440,18926,1026,65535,65700,0,0,4,1460,312,0,16777220,230000,33580,72,65700,0,72,0,3861030170,63
o,1734975400.403850,10.0.2.15,22,192.168.56.1,54694,1073725440,18998,1026,65535,65700,0,0,4,1460,312,0,5,230000,33580,0,65700,0,0,0,3861030170,63
i,1734975400.419720,172.16.3.2,12108,172.16.1.2,5102,1073725440,14517,38,65728,65728,6,6,4,1460,148750,1,16778208,580000,33580,33580,65700,0,14480,0,910455315,63
o,1734975400.419814,172.16.3.2,12108,172.16.1.2,5102,1073725440,17413,38,62848,65728,6,6,4,1460,162812,1,16778208,650000,33580,30684,65700,0,11584,0,910455315,63
o,1734975400.420320,172.16.3.2,12108,172.16.1.2,5102,1073725440,17413,38,62848,65728,6,6,4,1460,162812,1,16778208,650000,33580,30684,65700,0,13032,0,910455315,63
i,1734975400.421013,172.16.3.2,12108,172.16.1.2,5102,1073725440,17413,38,62848,65728,6,6,4,1460,162812,1,16778208,650000,41772,30684,65700,0,17376,0,910455315,63
o,1734975400.421087,172.16.3.2,12108,172.16.1.2,5102,1073725440,20309,38,64256,65728,6,6,4,1460,175000,1,16778208,690000,41772,27788,65700,0,14480,0,910455315,63
i,1734975400.430022,172.16.3.2,12108,172.16.1.2,5102,1073725440,20309,38,64256,65728,6,6,4,1460,175000,1,16778208,690000,41772,41772,65700,0,20272,0,910455315,63
o,1734975400.430114,172.16.3.2,12108,172.16.1.2,5102,1073725440,23205,38,62848,65728,6,6,4,1460,186875,1,16778208,710000,49964,38876,65700,0,17376,0,910455315,63
i,1734975400.440307,172.16.3.2,12108,172.16.1.2,5102,1073725440,23205,38,62848,65728,6,6,4,1460,186875,1,16778208,710000,49964,49964,65700,0,23168,0,910455315,63
o,1734975400.440436,172.16.3.2,12108,172.16.1.2,5102,1073725440,26101,38,59968,65728,6,6,4,1460,198750,1,16778208,740000,49964,47068,65700,0,20272,0,910455315,63
i,1734975400.441043,172.16.3.2,12108,172.16.1.2,5102,1073725440,26101,38,59968,65728,6,6,4,1460,198750,1,16778208,740000,58156,47068,65700,0,26064,0,910455315,63
o,1734975400.441125,172.16.3.2,12108,172.16.1.2,5102,1073725440,28997,38,64256,65728,6,6,4,1460,209062,1,16778208,750000,58156,44172,65700,0,23168,0,910455315,63
o,1734975400.541099,172.16.3.2,48522,172.16.1.2,5101,1073725440,14480,34,65535,65700,6,6,4,1460,160000,1,16778209,680000,33580,0,65700,0,0,0,1349364472,63
o,1734975400.542307,172.16.3.2,48522,172.16.1.2,5101,1073725440,14480,34,65535,65700,6,6,4,1460,160000,1,16778212,680000,33580,37,65700,0,0,0,1349364472,63
i,1734975400.605127,172.16.3.2,12108,172.16.1.2,5102,1073725440,28997,38,64256,65728,6,6,4,1460,209062,1,16778208,750000,58156,58156,65700,0,28960,0,910455315,63
o,1734975400.605298,172.16.3.2,12108,172.16.1.2,5102,1073725440,31893,38,64256,65728,6,6,4,1460,206875,1,16778208,680000,66348,55260,65700,0,26064,0,910455315,63
o,1734975400.606052,172.16.3.2,12108,172.16.1.2,5102,1073725440,31893,38,64256,65728,6,6,4,1460,206875,1,16778208,680000,66348,55260,65700,0,27512,0,910455315,63
i,1734975400.610135,172.16.3.2,12108,172.16.1.2,5102,1073725440,31893,38,64256,65728,6,6,4,1460,206875,1,16778208,680000,66348,66348,65700,0,31856,0,910455315,63
o,1734975400.610219,172.16.3.2,12108,172.16.1.2,5102,1073725440,34789,38,64256,65728,6,6,4,1460,205000,1,16778208,620000,74540,63452,65700,0,28960,0,910455315,63
i,1734975400.616016,172.16.3.2,12108,172.16.1.2,5102,1073725440,34789,38,64256,65728,6,6,4,1460,205000,1,16778208,620000,74540,74540,65700,0,34752,0,910455315,63
o,1734975400.616110,172.16.3.2,12108,172.16.1.2,5102,1073725440,37685,38,64256,65728,6,6,4,1460,204375,1,16778208,570000,74540,71644,65700,0,31856,0,910455315,63
i,1734975400.619858,172.16.3.2,12108,172.16.1.2,5102,1073725440,37685,38,64256,65728,6,6,4,1460,204375,1,16778208,570000,82732,82732,65700,0,37648,0,910455315,63
o,1734975400.619959,172.16.3.2,12108,172.16.1.2,5102,1073725440,40581,38,61376,65728,6,6,4,1460,204062,1,16778208,530000,82732,79836,65700,0,34752,0,910455315,63
i,1734975400.620600,172.16.3.2,12108,172.16.1.2,5102,1073725440,40581,38,61376,65728,6,6,4,1460,204062,1,16778208,530000,82732,79836,65700,0,40544,0,910455315,63
o,1734975400.620674,172.16.3.2,12108,172.16.1.2,5102,1073725440,43477,38,58496,65728,6,6,4,1460,202500,1,16778208,510000,82732,76940,65700,0,37648,0,910455315,63
i,1734975400.621281,172.16.3.2,12108,172.16.1.2,5102,1073725440,43477,38,58496,65728,6,6,4,1460,202500,1,16778208,510000,82732,76940,65700,0,43440,0,910455315,63
o,1734975400.621357,172.16.3.2,12108,172.16.1.2,5102,1073725440,46373,38,55616,65728,6,6,4,1460,200937,1,16778208,490000,82732,74044,65700,0,40544,0,910455315,63
i,1734975400.681477,172.16.3.2,12108,172.16.1.2,5102,1073725440,46373,38,55616,65728,6,6,4,1460,200937,1,16778208,490000,82732,82732,65700,0,46336,0,910455315,63
o,1734975400.682898,172.16.3.2,12108,172.16.1.2,5102,1073725440,49269,38,62848,65728,6,6,4,1460,205937,1,16778208,520000,82732,79836,65700,0,43440,0,910455315,63
i,1734975400.683861,172.16.3.2,12108,172.16.1.2,5102,1073725440,49269,38,62848,65728,6,6,4,1460,205937,1,16778208,520000,82732,79836,65700,0,49232,0,910455315,63
o,1734975400.683968,172.16.3.2,12108,172.16.1.2,5102,1073725440,52165,38,59968,65728,6,6,4,1460,210312,1,16778208,530000,82732,76940,65700,0,46336,0,910455315,63
i,1734975400.684712,172.16.3.2,12108,172.16.1.2,5102,1073725440,52165,38,59968,65728,6,6,4,1460,210312,1,16778208,530000,82732,76940,65700,0,52128,0,910455315,63
o,1734975400.684802,172.16.3.2,12108,172.16.1.2,5102,1073725440,55061,38,62848,65728,6,6,4,1460,214062,1,16778208,530000,82732,74044,65700,0,49232,0,910455315,63
i,1734975400.686018,172.16.3.2,12108,172.16.1.2,5102,1073725440,55061,38,62848,65728,6,6,4,1460,214062,1,16778208,530000,82732,74044,65700,0,55024,0,910455315,63
o,1734975400.686059,172.16.3.2,12108,172.16.1.2,5102,1073725440,57957,38,59968,65728,6,6,4,1460,217500,1,16778208,530000,82732,71148,65700,0,52128,0,910455315,63
i,1734975401.044289,172.16.3.2,48522,172.16.1.2,5101,1073725440,14480,34,65535,65700,6,6,4,1460,160000,1,16778212,680000,33580,37,65700,0,37,0,1349364472,63
o,1734975401.044942,172.16.3.2,48522,172.16.1.2,5101,1073725440,14517,1058,65728,65728,6,6,4,1460,202500,1,16778212,980000,33580,4,65700,0,0,0,1349364472,63
o,1734975401.045454,172.16.3.2,48522,172.16.1.2,5101,1073725440,14517,1058,65728,65728,6,6,4,1460,202500,1,16778212,980000,33580,151,65700,0,4,0,1349364472,63
i,1734975401.048668,172.16.3.2,12108,172.16.1.2,5102,1073725440,57957,38,59968,65728,6,6,4,1460,217500,1,16778208,530000,82732,82732,65700,0,57920,0,910455315,63
o,1734975401.048712,172.16.3.2,12108,172.16.1.2,5102,1073725440,60853,38,95680,65728,6,6,4,1460,244062,1,16778208,740000,90924,79836,65700,0,55024,0,910455315,63
o,1734975401.049039,172.16.3.2,12108,172.16.1.2,5102,1073725440,60853,38,95680,65728,6,6,4,1460,244062,1,16778208,740000,99116,79836,65700,0,56472,0,910455315,63
i,1734975401.049575,172.16.3.2,12108,172.16.1.2,5102,1073725440,60853,38,95680,65728,6,6,4,1460,244062,1,16778208,740000,99116,79836,65700,0,60816,0,910455315,63
o,1734975401.049651,172.16.3.2,12108,172.16.1.2,5102,1073725440,63749,38,95680,65728,6,6,4,1460,267500,1,16778208,880000,99116,76940,65700,0,57920,0,910455315,63
i,1734975401.050275,172.16.3.2,12108,172.16.1.2,5102,1073725440,63749,38,95680,65728,6,6,4,1460,267500,1,16778208,880000,99116,76940,65700,0,63712,0,910455315,63
o,1734975401.050353,172.16.3.2,12108,172.16.1.2,5102,1073725440,66645,38,97152,65728,6,6,4,1460,287812,1,16778208,960000,99116,74044,65700,0,60816,0,910455315,63
i,1734975401.057452,172.16.3.2,12108,172.16.1.2,5102,1073725440,66645,38,97152,65728,6,6,4,1460,287812,1,16778208,960000,123692,123692,65700,0,66608,0,910455315,63
o,1734975401.057780,172.16.3.2,12108,172.16.1.2,5102,1073725440,69541,38,97152,65728,6,6,4,1460,306875,1,16778208,1010000,123692,120796,65700,0,63712,0,910455315,63
i,1734975401.068348,172.16.3.2,12108,172.16.1.2,5102,1073725440,69541,38,97152,65728,6,6,4,1460,306875,1,16778208,1010000,123692,123692,65700,0,69504,0,910455315,63
o,1734975401.068452,172.16.3.2,12108,172.16.1.2,5102,1073725440,72437,38,97152,65728,6,6,4,1460,325000,1,16778208,1050000,123692,120796,65700,0,66608,0,910455315,63
i,1734975401.073041,172.16.3.2,12108,172.16.1.2,5102,1073725440,72437,38,97152,65728,6,6,4,1460,325000,1,16778208,1050000,123692,123692,65700,0,72400,0,910455315,63
o,1734975401.073288,172.16.3.2,12108,172.16.1.2,5102,1073725440,75333,38,95680,65728,6,6,4,1460,341875,1,16778208,1070000,123692,120796,65700,0,69504,0,910455315,63
i,1734975401.073934,172.16.3.2,12108,172.16.1.2,5102,1073725440,75333,38,95680,65728,6,6,4,1460,341875,1,16778208,1070000,123692,120796,65700,0,75296,0,910455315,63
o,1734975401.074009,172.16.3.2,12108,172.16.1.2,5102,1073725440,78229,38,95680,65728,6,6,4,1460,356875,1,16778208,1070000,123692,117900,65700,0,72400,0,910455315,63
i,1734975401.074567,172.16.3.2,12108,172.16.1.2,5102,1073725440,78229,38,95680,65728,6,6,4,1460,356875,1,16778208,1070000,123692,117900,65700,0,78192,0,910455315,63
o,1734975401.074641,172.16.3.2,12108,172.16.1.2,5102,1073725440,81125,38,92800,65728,6,6,4,1460,370000,1,16778208,1060000,123692,115004,65700,0,75296,0,910455315,63
i,1734975401.075322,172.16.3.2,12108,172.16.1.2,5102,1073725440,81125,38,92800,65728,6,6,4,1460,370000,1,16778208,1060000,123692,115004,65700,0,81088,0,910455315,63
o,1734975401.075396,172.16.3.2,12108,172.16.1.2,5102,1073725440,84021,38,89920,65728,6,6,4,1460,381250,1,16778208,1040000,123692,112108,65700,0,78192,0,910455315,63
i,1734975401.076521,172.16.3.2,12108,172.16.1.2,5102,1073725440,84021,38,89920,65728,6,6,4,1460,381250,1,16778208,1040000,123692,112108,65700,0,83984,0,910455315,63
o,1734975401.076550,172.16.3.2,12108,172.16.1.2,5102,1073725440,86917,38,87040,65728,6,6,4,1460,391250,1,16778208,1010000,123692,109212,65700,0,81088,0,910455315,63
i,1734975401.078947,172.16.3.2,12108,172.16.1.2,5102,1073725440,86917,38,87040,65728,6,6,4,1460,391250,1,16778208,1010000,123692,109212,65700,0,86880,0,910455315,63
i,1734975401.079087,172.16.3.2,12108,172.16.1.2,5102,1073725440,89813,38,84160,65728,6,6,4,1460,400000,1,16778208,990000,123692,106316,65700,0,83984,0,910455315,63
o,1734975401.079216,172.16.3.2,12108,172.16.1.2,5102,1073725440,89813,38,95680,65728,6,6,4,1460,407500,1,16778208,960000,123692,103420,65700,0,81088,0,910455315,63
i,1734975401.079895,172.16.3.2,12108,172.16.1.2,5102,1073725440,89813,38,95680,65728,6,6,4,1460,407500,1,16778208,960000,123692,103420,65700,0,89776,0,910455315,63
o,1734975401.080015,172.16.3.2,12108,172.16.1.2,5102,1073725440,92709,38,92800,65728,6,6,4,1460,405312,1,16778208,890000,123692,100524,65700,0,86880,0,910455315,63
i,1734975401.080661,172.16.3.2,12108,172.16.1.2,5102,1073725440,92709,38,92800,65728,6,6,4,1460,405312,1,16778208,890000,123692,100524,65700,0,92672,0,910455315,63
i,1734975401.080714,172.16.3.2,12108,172.16.1.2,5102,1073725440,95605,38,89920,65728,6,6,4,1460,403437,1,16778208,830000,123692,97628,65700,0,89776,0,910455315,63
o,1734975401.080784,172.16.3.2,12108,172.16.1.2,5102,1073725440,95605,38,95680,65728,6,6,4,1460,401875,1,16778208,780000,123692,94732,65700,0,86880,0,910455315,63
i,1734975401.080999,172.16.3.2,12108,172.16.1.2,5102,1073725440,95605,38,95680,65728,6,6,4,1460,401875,1,16778208,780000,123692,94732,65700,0,94732,0,910455315,63
i,1734975401.081051,172.16.3.2,12108,172.16.1.2,5102,1073725440,98501,38,92800,65728,6,6,4,1460,400625,1,16778208,750000,123692,91836,65700,0,91836,0,910455315,63
i,1734975401.081102,172.16.3.2,12108,172.16.1.2,5102,1073725440,98501,38,95680,65728,6,6,4,1460,399375,1,16778208,720000,123692,88940,65700,0,88940,0,910455315,63
i,1734975401.081152,172.16.3.2,12108,172.16.1.2,5102,1073725440,98501,38,92800,65728,6,6,4,1460,398437,1,16778208,690000,123692,86044,65700,0,86044,0,910455315,63
o,1734975401.081295,172.16.3.2,12108,172.16.1.2,5102,1073725440,98501,38,89920,65728,6,6,4,1460,397500,1,16778208,680000,123692,123692,65700,0,83148,0,910455315,63
i,1734975401.252888,172.16.3.2,12108,172.16.1.2,5102,1073725440,98501,38,89920,65728,6,6,4,1460,397500,1,16778208,680000,123692,123692,65700,0,88940,0,910455315,63
o,1734975401.253149,172.16.3.2,12108,172.16.1.2,5102,1073725440,98501,38,95680,65728,6,6,4,1460,419062,1,16778208,850000,123692,120796,65700,0,86044,0,910455315,63
i,1734975401.446796,172.16.3.2,48522,172.16.1.2,5101,1073725440,14517,1058,65728,65728,6,6,4,1460,202500,1,16778212,980000,33580,151,65700,0,151,0,1349364472,63
i,1734975401.446950,172.16.3.2,48522,172.16.1.2,5101,1073725440,14668,1058,65600,65728,6,6,4,1460,227187,1,996,1050000,33580,0,65700,0,0,0,1349364472,63
i,1734975401.448483,172.16.3.2,12108,172.16.1.2,5102,1073725440,98501,38,95680,65728,6,6,4,1460,419062,1,16778208,850000,123692,123692,65700,0,94732,0,910455315,63
o,1734975401.448761,172.16.3.2,12108,172.16.1.2,5102,1073725440,98501,38,144960,65728,6,6,4,1460,416875,1,16778208,810000,131884,120796,65700,0,91836,0,910455315,63
o,1734975401.449245,172.16.3.2,12108,172.16.1.2,5102,1073725440,98501,38,144960,65728,6,6,4,1460,416875,1,16778208,810000,140076,120796,65700,0,93284,0,910455315,63
i,1734975401.449882,172.16.3.2,12108,172.16.1.2,5102,1073725440,98501,38,144960,65728,6,6,4,1460,416875,1,16778208,810000,140076,120796,65700,0,97628,0,910455315,63
o,1734975401.450258,172.16.3.2,12108,172.16.1.2,5102,1073725440,101397,38,142080,65728,6,6,4,1460,415000,1,16778208,770000,140076,117900,65700,0,94732,0,910455315,63
i,1734975401.451289,172.16.3.2,12108,172.16.1.2,5102,1073725440,101397,38,142080,65728,6,6,4,1460,415000,1,16778208,770000,140076,117900,65700,0,100524,0,910455315,63
o,1734975401.451329,172.16.3.2,12108,172.16.1.2,5102,1073725440,104293,38,146432,65728,6,6,4,1460,413125,1,16778208,750000,140076,115004,65700,0,97628,0,910455315,63
i,1734975401.451896,172.16.3.2,12108,172.16.1.2,5102,1073725440,104293,38,146432,65728,6,6,4,1460,413125,1,16778208,750000,140076,115004,65700,0,103420,0,910455315,63
o,1734975401.451928,172.16.3.2,12108,172.16.1.2,5102,1073725440,107189,38,146432,65728,6,6,4,1460,411562,1,16778208,720000,140076,112108,65700,0,100524,0,910455315,63
i,1734975401.453332,172.16.3.2,12108,172.16.1.2,5102,1073725440,107189,38,146432,65728,6,6,4,1460,411562,1,16778208,720000,189228,189228,65700,0,106316,0,910455315,63
o,1734975401.453423,172.16.3.2,12108,172.16.1.2,5102,1073725440,110085,38,144960,65728,6,6,4,1460,410312,1,16778208,710000,189228,186332,65700,0,103420,0,910455315,63
i,1734975401.454633,172.16.3.2,12108,172.16.1.2,5102,1073725440,110085,38,144960,65728,6,6,4,1460,410312,1,16778208,710000,189228,186332,65700,0,109212,0,910455315,63
o,1734975401.454709,172.16.3.2,12108,172.16.1.2,5102,1073725440,112981,38,146432,65728,6,6,4,1460,409062,1,16778208,690000,189228,183436,65700,0,106316,0,910455315,63
i,1734975401.456555,172.16.3.2,12108,172.16.1.2,5102,1073725440,112981,38,146432,65728,6,6,4,1460,409062,1,16778208,690000,189228,189228,65700,0,112108,0,910455315,63
o,1734975401.456591,172.16.3.2,12108,172.16.1.2,5102,1073725440,115877,38,144960,65728,6,6,4,1460,406875,1,16778208,680000,189228,186332,65700,0,109212,0,910455315,63
i,1734975401.457108,172.16.3.2,12108,172.16.1.2,5102,1073725440,115877,38,144960,65728,6,6,4,1460,406875,1,16778208,680000,189228,186332,65700,0,115004,0,910455315,63
o,1734975401.457235,172.16.3.2,12108,172.16.1.2,5102,1073725440,118773,38,144960,65728,6,6,4,1460,405000,1,16778208,680000,189228,183436,65700,0,112108,0,910455315,63
i,1734975401.457907,172.16.3.2,12108,172.16.1.2,5102,1073725440,118773,38,144960,65728,6,6,4,1460,405000,1,16778208,680000,189228,183436,65700,0,117900,0,910455315,63
o,1734975401.457981,172.16.3.2,12108,172.16.1.2,5102,1073725440,121669,38,144960,65728,6,6,4,1460,401875,1,16778208,680000,189228,180540,65700,0,115004,0,910455315,63
i,1734975401.458527,172.16.3.2,12108,172.16.1.2,5102,1073725440,121669,38,144960,65728,6,6,4,1460,401875,1,16778208,680000,189228,180540,65700,0,120796,0,910455315,63
o,1734975401.458602,172.16.3.2,12108,172.16.1.2,5102,1073725440,124565,38,142080,65728,6,6,4,1460,399375,1,16778208,680000,189228,177644,65700,0,117900,0,910455315,63
i,1734975401.459136,172.16.3.2,12108,172.16.1.2,5102,1073725440,124565,38,142080,65728,6,6,4,1460,399375,1,16778208,680000,189228,177644,65700,0,123692,0,910455315,63
o,1734975401.459252,172.16.3.2,12108,172.16.1.2,5102,1073725440,127461,38,144960,65728,6,6,4,1460,395937,1,16778208,680000,189228,174748,65700,0,120796,0,910455315,63
i,1734975401.459675,172.16.3.2,12108,172.16.1.2,5102,1073725440,127461,38,144960,65728,6,6,4,1460,395937,1,16778208,680000,189228,174748,65700,0,126588,0,910455315,63
o,1734975401.459703,172.16.3.2,12108,172.16.1.2,5102,1073725440,130357,38,142080,65728,6,6,4,1460,392812,1,16778208,680000,189228,171852,65700,0,123692,0,910455315,63
i,1734975401.459910,172.16.3.2,12108,172.16.1.2,5102,1073725440,130357,38,142080,65728,6,6,4,1460,392812,1,16778208,680000,189228,171852,65700,0,129484,0,910455315,63
o,1734975401.459939,172.16.3.2,12108,172.16.1.2,5102,1073725440,133253,38,139200,65728,6,6,4,1460,390000,1,16778208,680000,189228,168956,65700,0,126588,0,910455315,63
i,1734975401.460184,172.16.3.2,12108,172.16.1.2,5102,1073725440,133253,38,139200,65728,6,6,4,1460,390000,1,16778208,680000,189228,168956,65700,0,132380,0,910455315,63
o,1734975401.460213,172.16.3.2,12108,172.16.1.2,5102,1073725440,136149,38,144960,65728,6,6,4,1460,387500,1,16778208,680000,189228,166060,65700,0,129484,0,910455315,63
i,1734975401.460470,172.16.3.2,12108,172.16.1.2,5102,1073725440,136149,38,144960,65728,6,6,4,1460,387500,1,16778208,680000,189228,166060,65700,0,135276,0,910455315,63
o,1734975401.460501,172.16.3.2,12108,172.16.1.2,5102,1073725440,139045,38,142080,65728,6,6,4,1460,385312,1,16778208,670000,189228,163164,65700,0,132380,0,910455315,63
o,1734975401.502573,172.16.3.2,48522,172.16.1.2,5101,1073725440,14668,1058,65728,65728,6,6,4,1460,227187,1,997,1050000,33580,0,65700,0,0,0,1349364472,63
i,1734975401.529570,172.16.3.2,12108,172.16.1.2,5102,1073725440,139045,38,142080,65728,6,6,4,1460,385312,1,16778208,670000,189228,189228,65700,0,138172,0,910455315,63
o,1734975401.529712,172.16.3.2,12108,172.16.1.2,5102,1073725440,141941,38,146432,65728,6,6,4,1460,393437,1,16778208,720000,189228,186332,65700,0,135276,0,910455315,63
i,1734975401.538125,172.16.3.2,12108,172.16.1.2,5102,1073725440,141941,38,146432,65728,6,6,4,1460,393437,1,16778208,720000,189228,189228,65700,0,141068,0,910455315,63
o,1734975401.538272,172.16.3.2,12108,172.16.1.2,5102,1073725440,144837,38,143552,65728,6,6,4,1460,401875,1,16778208,760000,189228,186332,65700,0,138172,0,910455315,63
i,1734975401.539031,172.16.3.2,12108,172.16.1.2,5102,1073725440,144837,38,143552,65728,6,6,4,1460,401875,1,16778208,760000,189228,186332,65700,0,142516,0,910455315,63
i,1734975401.539227,172.16.3.2,12108,172.16.1.2,5102,1073725440,144837,38,140672,65728,6,6,4,1460,409375,1,16778208,790000,189228,183436,65700,0,139620,0,910455315,63
i,1734975401.539960,172.16.3.2,12108,172.16.1.2,5102,1073725440,144837,38,137792,65728,6,6,4,1460,415937,1,16778208,810000,189228,180540,65700,0,136724,0,910455315,63
i,1734975401.540070,172.16.3.2,12108,172.16.1.2,5102,1073725440,144837,38,134912,65728,6,6,4,1460,421562,1,16778208,810000,189228,177644,65700,0,133828,0,910455315,63
i,1734975401.540261,172.16.3.2,12108,172.16.1.2,5102,1073725440,144837,38,132032,65728,6,6,4,1460,426562,1,16778208,810000,189228,174748,65700,0,130932,0,910455315,63
i,1734975401.540351,172.16.3.2,12108,172.16.1.2,5102,1073725440,144837,38,129152,65728,6,6,4,1460,430937,1,16778208,800000,189228,171852,65700,0,128036,0,910455315,63
i,1734975401.954375,172.16.3.2,12108,172.16.1.2,5102,1073725440,144837,38,126272,65728,6,6,4,1460,434687,1,16778208,790000,189228,189228,65700,0,125140,0,910455315,63
i,1734975401.957828,172.16.3.2,12108,172.16.1.2,5102,1073725440,144837,38,123392,65728,6,6,4,1460,490625,1,16778208,1260000,189228,189228,65700,0,122244,0,910455315,63
i,1734975401.958498,172.16.3.2,12108,172.16.1.2,5102,1073725440,144837,38,120512,65728,6,6,4,1460,539375,1,16778208,1550000,189228,186332,65700,0,119348,0,910455315,63
i,1734975401.958629,172.16.3.2,12108,172.16.1.2,5102,1073725440,144837,38,117632,65728,6,6,4,1460,582187,1,16778208,1730000,189228,183436,65700,0,116452,0,910455315,63
i,1734975401.958868,172.16.3.2,12108,172.16.1.2,5102,1073725440,144837,38,114752,65728,6,6,4,1460,619687,1,16778208,1830000,189228,180540,65700,0,113556,0,910455315,63
i,1734975401.962154,172.16.3.2,12108,172.16.1.2,5102,1073725440,144837,38,112704,65728,6,6,4,1460,652500,1,16778208,1880000,189228,189228,65700,0,111496,0,910455315,63
o,1734975401.962260,172.16.3.2,12108,172.16.1.2,5102,1073725440,144837,38,144960,65728,6,6,4,1460,680937,1,16778208,1880000,189228,186332,65700,0,108600,0,910455315,63
i,1734975401.969078,172.16.3.2,12108,172.16.1.2,5102,1073725440,144837,38,144960,65728,6,6,4,1460,680937,1,16778208,1880000,189228,189228,65700,0,144800,0,910455315,63
o,1734975401.969116,172.16.3.2,12108,172.16.1.2,5102,1073725440,147733,38,144960,65728,6,6,4,1460,705937,1,16778208,1850000,189228,186332,65700,0,141904,0,910455315,63
i,1734975401.969525,172.16.3.2,12108,172.16.1.2,5102,1073725440,147733,38,144960,65728,6,6,4,1460,705937,1,16778208,1850000,189228,186332,65700,0,144800,0,910455315,63
o,1734975401.969600,172.16.3.2,12108,172.16.1.2,5102,1073725440,147733,38,144960,65728,6,6,4,1460,705312,1,16778208,1620000,189228,183436,65700,0,141904,0,910455315,63
i,1734975401.970436,172.16.3.2,12108,172.16.1.2,5102,1073725440,147733,38,144960,65728,6,6,4,1460,705312,1,16778208,1620000,189228,183436,65700,0,144800,0,910455315,63
i,1734975401.973134,172.16.3.2,12108,172.16.1.2,5102,1073725440,147733,38,142080,65728,6,6,4,1460,704687,1,16778208,1440000,189228,189228,65700,0,141904,0,910455315,63
o,1734975401.973222,172.16.3.2,12108,172.16.1.2,5102,1073725440,147733,38,146432,65728,6,6,4,1460,706875,1,16778208,1330000,189228,186332,65700,0,139008,0,910455315,63
o,1734975402.243274,172.16.3.2,56449,172.16.1.2,5101,1073725440,14480,34,65535,65700,6,6,4,1460,810000,1,16778209,2630000,33580,0,65700,0,0,0,1294979029,63
i,1734975402.244122,172.16.3.2,12108,172.16.1.2,5102,1073725440,147733,38,146432,65728,6,6,4,1460,706875,1,16778208,1330000,189228,189228,65700,0,146248,0,910455315,63
o,1734975402.244238,172.16.3.2,12108,172.16.1.2,5102,1073725440,147733,38,221760,65728,6,6,4,1460,718750,1,16778208,1330000,197420,187780,65700,0,144800,0,910455315,63
o,1734975402.244803,172.16.3.2,12108,172.16.1.2,5102,1073725440,147733,38,221760,65728,6,6,4,1460,718750,1,16778208,1330000,205612,187780,65700,0,146248,0,910455315,63
o,1734975402.245865,172.16.3.2,56449,172.16.1.2,5101,1073725440,14480,34,65535,65700,6,6,4,1460,810000,1,16778208,2630000,33580,37,65700,0,0,0,1294979029,63
i,1734975402.250088,172.16.3.2,12108,172.16.1.2,5102,1073725440,147733,38,221760,65728,6,6,4,1460,718750,1,16778208,1330000,279340,279340,65700,0,147696,0,910455315,63
o,1734975402.250182,172.16.3.2,12108,172.16.1.2,5102,1073725440,150629,38,218880,65728,6,6,4,1460,729062,1,16778208,1320000,279340,276444,65700,0,144800,0,910455315,63
i,1734975402.250268,172.16.3.2,12108,172.16.1.2,5102,1073725440,150629,38,218880,65728,6,6,4,1460,729062,1,16778208,1320000,279340,276444,65700,0,150592,0,910455315,63
o,1734975402.250835,172.16.3.2,12108,172.16.1.2,5102,1073725440,153525,38,220352,65728,6,6,4,1460,738125,1,16778208,1310000,279340,273548,65700,0,147696,0,910455315,63
i,1734975402.251375,172.16.3.2,12108,172.16.1.2,5102,1073725440,153525,38,220352,65728,6,6,4,1460,738125,1,16778208,1310000,279340,273548,65700,0,153488,0,910455315,63
o,1734975402.251532,172.16.3.2,12108,172.16.1.2,5102,1073725440,156421,38,220352,65728,6,6,4,1460,745937,1,16778208,1280000,279340,270652,65700,0,150592,0,910455315,63
i,1734975402.252822,172.16.3.2,12108,172.16.1.2,5102,1073725440,156421,38,220352,65728,6,6,4,1460,745937,1,16778208,1280000,279340,270652,65700,0,156384,0,910455315,63
o,1734975402.252951,172.16.3.2,12108,172.16.1.2,5102,1073725440,159317,38,220352,65728,6,6,4,1460,754062,1,16778208,1270000,279340,267756,65700,0,153488,0,910455315,63
i,1734975402.253626,172.16.3.2,12108,172.16.1.2,5102,1073725440,159317,38,220352,65728,6,6,4,1460,754062,1,16778208,1270000,279340,267756,65700,0,159280,0,910455315,63
o,1734975402.254135,172.16.3.2,12108,172.16.1.2,5102,1073725440,162213,38,217472,65728,6,6,4,1460,761250,1,16778208,1260000,279340,264860,65700,0,156384,0,910455315,63
i,1734975402.255851,172.16.3.2,12108,172.16.1.2,5102,1073725440,162213,38,217472,65728,6,6,4,1460,761250,1,16778208,1260000,279340,264860,65700,0,162176,0,910455315,63
o,1734975402.255948,172.16.3.2,12108,172.16.1.2,5102,1073725440,165109,38,218880,65728,6,6,4,1460,767500,1,16778208,1240000,279340,261964,65700,0,159280,0,910455315,63
i,1734975402.256696,172.16.3.2,12108,172.16.1.2,5102,1073725440,165109,38,218880,65728,6,6,4,1460,767500,1,16778208,1240000,279340,261964,65700,0,165072,0,910455315,63
o,1734975402.256784,172.16.3.2,12108,172.16.1.2,5102,1073725440,168005,38,220352,65728,6,6,4,1460,771562,1,16778208,1210000,279340,259068,65700,0,162176,0,910455315,63
i,1734975402.257904,172.16.3.2,12108,172.16.1.2,5102,1073725440,168005,38,220352,65728,6,6,4,1460,771562,1,16778208,1210000,279340,259068,65700,0,167968,0,910455315,63
o,1734975402.258049,172.16.3.2,12108,172.16.1.2,5102,1073725440,170901,38,217472,65728,6,6,4,1460,775312,1,16778208,1180000,279340,256172,65700,0,165072,0,910455315,63
i,1734975402.258653,172.16.3.2,12108,172.16.1.2,5102,1073725440,170901,38,217472,65728,6,6,4,1460,775312,1,16778208,1180000,279340,256172,65700,0,170864,0,910455315,63
o,1734975402.258726,172.16.3.2,12108,172.16.1.2,5102,1073725440,173797,38,218880,65728,6,6,4,1460,778437,1,16778208,1160000,279340,253276,65700,0,167968,0,910455315,63
i,1734975402.259254,172.16.3.2,12108,172.16.1.2,5102,1073725440,173797,38,218880,65728,6,6,4,1460,778437,1,16778208,1160000,279340,253276,65700,0,173760,0,910455315,63
o,1734975402.259327,172.16.3.2,12108,172.16.1.2,5102,1073725440,176693,38,218880,65728,6,6,4,1460,781250,1,16778208,1140000,279340,250380,65700,0,170864,0,910455315,63
i,1734975402.259868,172.16.3.2,12108,172.16.1.2,5102,1073725440,176693,38,218880,65728,6,6,4,1460,781250,1,16778208,1140000,279340,250380,65700,0,176656,0,910455315,63
o,1734975402.259940,172.16.3.2,12108,172.16.1.2,5102,1073725440,179589,38,220352,65728,6,6,4,1460,783750,1,16778208,1120000,279340,247484,65700,0,173760,0,910455315,63
i,1734975402.261266,172.16.3.2,12108,172.16.1.2,5102,1073725440,179589,38,220352,65728,6,6,4,1460,783750,1,16778208,1120000,279340,247484,65700,0,179552,0,910455315,63
o,1734975402.261344,172.16.3.2,12108,172.16.1.2,5102,1073725440,182485,38,217472,65728,6,6,4,1460,785937,1,16778208,1100000,279340,244588,65700,0,176656,0,910455315,63
i,1734975402.262381,172.16.3.2,12108,172.16.1.2,5102,1073725440,182485,38,217472,65728,6,6,4,1460,785937,1,16778208,1100000,279340,244588,65700,0,182448,0,910455315,63
o,1734975402.262456,172.16.3.2,12108,172.16.1.2,5102,1073725440,185381,38,214592,65728,6,6,4,1460,789062,1,16778208,1100000,279340,241692,65700,0,179552,0,910455315,63
i,1734975402.263001,172.16.3.2,12108,172.16.1.2,5102,1073725440,185381,38,214592,65728,6,6,4,1460,789062,1,16778208,1100000,279340,241692,65700,0,185344,0,910455315,63
o,1734975402.263075,172.16.3.2,12108,172.16.1.2,5102,1073725440,188277,38,220352,65728,6,6,4,1460,791875,1,16778208,1100000,279340,238796,65700,0,182448,0,910455315,63
i,1734975402.263596,172.16.3.2,12108,172.16.1.2,5102,1073725440,188277,38,220352,65728,6,6,4,1460,791875,1,16778208,1100000,279340,238796,65700,0,188240,0,910455315,63
o,1734975402.263668,172.16.3.2,12108,172.16.1.2,5102,1073725440,191173,38,220352,65728,6,6,4,1460,794375,1,16778208,1090000,279340,235900,65700,0,185344,0,910455315,63
i,1734975402.264530,172.16.3.2,12108,172.16.1.2,5102,1073725440,191173,38,220352,65728,6,6,4,1460,794375,1,16778208,1090000,279340,235900,65700,0,191136,0,910455315,63
o,1734975402.264657,172.16.3.2,12108,172.16.1.2,5102,1073725440,194069,38,220352,65728,6,6,4,1460,796562,1,16778208,1090000,279340,233004,65700,0,188240,0,910455315,63
i,1734975402.268758,172.16.3.2,12108,172.16.1.2,5102,1073725440,194069,38,220352,65728,6,6,4,1460,796562,1,16778208,1090000,279340,279340,65700,0,194032,0,910455315,63
o,1734975402.268833,172.16.3.2,12108,172.16.1.2,5102,1073725440,196965,38,220352,65728,6,6,4,1460,798437,1,16778208,1080000,279340,276444,65700,0,191136,0,910455315,63
i,1734975402.273226,172.16.3.2,12108,172.16.1.2,5102,1073725440,196965,38,220352,65728,6,6,4,1460,798437,1,16778208,1080000,279340,277516,65700,0,196928,0,910455315,63
o,1734975402.273320,172.16.3.2,12108,172.16.1.2,5102,1073725440,199861,38,217472,65728,6,6,4,1460,801250,1,16778208,1090000,279340,274620,65700,0,194032,0,910455315,63
i,1734975402.277892,172.16.3.2,12108,172.16.1.2,5102,1073725440,199861,38,217472,65728,6,6,4,1460,801250,1,16778208,1090000,279340,279340,65700,0,199824,0,910455315,63
o,1734975402.277971,172.16.3.2,12108,172.16.1.2,5102,1073725440,202757,38,214592,65728,6,6,4,1460,803750,1,16778208,1090000,279340,276444,65700,0,196928,0,910455315,63
i,1734975402.281124,172.16.3.2,12108,172.16.1.2,5102,1073725440,202757,38,214592,65728,6,6,4,1460,803750,1,16778208,1090000,279340,279340,65700,0,202720,0,910455315,63
o,1734975402.281202,172.16.3.2,12108,172.16.1.2,5102,1073725440,205653,38,211712,65728,6,6,4,1460,805937,1,16778208,1090000,279340,276444,65700,0,199824,0,910455315,63
i,1734975402.282111,172.16.3.2,12108,172.16.1.2,5102,1073725440,205653,38,211712,65728,6,6,4,1460,805937,1,16778208,1090000,279340,276444,65700,0,205616,0,910455315,63
o,1734975402.282111,172.16.3.2,12108,172.16.1.2,5102,1073725440,208549,38,208832,65728,6,6,4,1460,809062,1,16778208,1090000,279340,273548,65700,0,202720,0,910455315,63
i,1734975402.287264,172.16.3.2,12108,172.16.1.2,5102,1073725440,208549,38,208832,65728,6,6,4,1460,809062,1,16778208,1090000,279340,279340,65700,0,208512,0,910455315,63
o,1734975402.287358,172.16.3.2,12108,172.16.1.2,5102,1073725440,211445,38,220352,65728,6,6,4,1460,811875,1,16778208,1100000,279340,276444,65700,0,205616,0,910455315,63
i,1734975402.292127,172.16.3.2,12108,172.16.1.2,5102,1073725440,211445,38,220352,65728,6,6,4,1460,811875,1,16778208,1100000,279340,279340,65700,0,211408,0,910455315,63
o,1734975402.292211,172.16.3.2,12108,172.16.1.2,5102,1073725440,214341,38,220352,65728,6,6,4,1460,815625,1,16778208,1110000,279340,276444,65700,0,208512,0,910455315,63
i,1734975402.293264,172.16.3.2,12108,172.16.1.2,5102,1073725440,214341,38,220352,65728,6,6,4,1460,815625,1,16778208,1110000,279340,276444,65700,0,214304,0,910455315,63
o,1734975402.293294,172.16.3.2,12108,172.16.1.2,5102,1073725440,217237,38,220352,65728,6,6,4,1460,818750,1,16778208,1110000,279340,273548,65700,0,211408,0,910455315,63
i,1734975402.293506,172.16.3.2,12108,172.16.1.2,5102,1073725440,217237,38,220352,65728,6,6,4,1460,818750,1,16778208,1110000,279340,273548,65700,0,217200,0,910455315,63
o,1734975402.293535,172.16.3.2,12108,172.16.1.2,5102,1073725440,220133,38,220352,65728,6,6,4,1460,821562,1,16778208,1110000,279340,270652,65700,0,214304,0,910455315,63
i,1734975402.293848,172.16.3.2,12108,172.16.1.2,5102,1073725440,220133,38,220352,65728,6,6,4,1460,821562,1,16778208,1110000,279340,270652,65700,0,220096,0,910455315,63
o,1734975402.293922,172.16.3.2,12108,172.16.1.2,5102,1073725440,223029,38,220352,65728,6,6,4,1460,824062,1,16778208,1110000,279340,267756,65700,0,217200,0,910455315,63
i,1734975402.299593,172.16.3.2,12108,172.16.1.2,5102,1073725440,223029,38,220352,65728,6,6,4,1460,824062,1,16778208,1110000,279340,279340,65700,0,220096,0,910455315,63
i,1734975402.299738,172.16.3.2,12108,172.16.1.2,5102,1073725440,223029,38,217472,65728,6,6,4,1460,826250,1,16778208,1110000,279340,276444,65700,0,217200,0,910455315,63
i,1734975402.299871,172.16.3.2,12108,172.16.1.2,5102,1073725440,223029,38,214592,65728,6,6,4,1460,828125,1,16778208,1110000,279340,273548,65700,0,214304,0,910455315,63
o,1734975402.299948,172.16.3.2,12108,172.16.1.2,5102,1073725440,223029,38,218880,65728,6,6,4,1460,829687,1,16778208,1100000,279340,270652,65700,0,211408,0,910455315,63
i,1734975402.305076,172.16.3.2,12108,172.16.1.2,5102,1073725440,223029,38,218880,65728,6,6,4,1460,829687,1,16778208,1100000,279340,279340,65700,0,218648,0,910455315,63
o,1734975402.305326,172.16.3.2,12108,172.16.1.2,5102,1073725440,223029,38,220352,65728,6,6,4,1460,832500,1,16778208,1110000,279340,276444,65700,0,215752,0,910455315,63
i,1734975402.305873,172.16.3.2,12108,172.16.1.2,5102,1073725440,223029,38,220352,65728,6,6,4,1460,832500,1,16778208,1110000,279340,276444,65700,0,220096,0,910455315,63
i,1734975402.306007,172.16.3.2,12108,172.16.1.2,5102,1073725440,223029,38,217472,65728,6,6,4,1460,824687,1,16778208,1140000,279340,273548,65700,0,217200,0,910455315,63
i,1734975402.306139,172.16.3.2,12108,172.16.1.2,5102,1073725440,223029,38,214592,65728,6,6,4,1460,818125,1,16778208,1160000,279340,270652,65700,0,214304,0,910455315,63
o,1734975402.306213,172.16.3.2,12108,172.16.1.2,5102,1073725440,223029,38,220352,65728,6,6,4,1460,812187,1,16778208,1160000,279340,267756,65700,0,211408,0,910455315,63
i,1734975402.811265,172.16.3.2,12108,172.16.1.2,5102,1073725440,223029,38,220352,65728,6,6,4,1460,812187,1,16778208,1160000,279340,279340,65700,0,220096,0,910455315,63
o,1734975402.811363,172.16.3.2,12108,172.16.1.2,5102,1073725440,223029,38,218880,65728,6,6,4,1460,815937,1,16778208,1160000,279340,276444,65700,0,217200,0,910455315,63
i,1734975402.812771,172.16.3.2,12108,172.16.1.2,5102,1073725440,223029,38,218880,65728,6,6,4,1460,815937,1,16778208,1160000,279340,276444,65700,0,218648,0,910455315,63
i,1734975402.812904,172.16.3.2,12108,172.16.1.2,5102,1073725440,223029,38,216000,65728,6,6,4,1460,820312,1,16778208,1160000,279340,273548,65700,0,215752,0,910455315,63
i,1734975402.813082,172.16.3.2,12108,172.16.1.2,5102,1073725440,223029,38,213120,65728,6,6,4,1460,824062,1,16778208,1160000,279340,270652,65700,0,212856,0,910455315,63
i,1734975402.813235,172.16.3.2,12108,172.16.1.2,5102,1073725440,223029,38,210240,65728,6,6,4,1460,827500,1,16778208,1160000,279340,267756,65700,0,209960,0,910455315,63
i,1734975402.813367,172.16.3.2,12108,172.16.1.2,5102,1073725440,223029,38,207360,65728,6,6,4,1460,830312,1,16778208,1150000,279340,264860,65700,0,207064,0,910455315,63
i,1734975402.813498,172.16.3.2,12108,172.16.1.2,5102,1073725440,223029,38,204480,65728,6,6,4,1460,832812,1,16778208,1140000,279340,261964,65700,0,204168,0,910455315,63
i,1734975402.813809,172.16.3.2,12108,172.16.1.2,5102,1073725440,223029,38,201600,65728,6,6,4,1460,835000,1,16778208,1140000,279340,259068,65700,0,201272,0,910455315,63
i,1734975402.814066,172.16.3.2,12108,172.16.1.2,5102,1073725440,223029,38,198720,65728,6,6,4,1460,836875,1,16778208,1130000,279340,279340,65700,0,198376,0,910455315,63
i,1734975402.814395,172.16.3.2,12108,172.16.1.2,5102,1073725440,223029,38,195840,65728,6,6,4,1460,838750,1,16778208,1120000,279340,276444,65700,0,195480,0,910455315,63
i,1734975402.814642,172.16.3.2,12108,172.16.1.2,5102,1073725440,223029,38,192960,65728,6,6,4,1460,840312,1,16778208,1120000,279340,273548,65700,0,192584,0,910455315,63
i,1734975402.814776,172.16.3.2,12108,172.16.1.2,5102,1073725440,223029,38,190080,65728,6,6,4,1460,841562,1,16778208,1110000,279340,270652,65700,0,189688,0,910455315,63
i,1734975402.814926,172.16.3.2,12108,172.16.1.2,5102,1073725440,223029,38,187200,65728,6,6,4,1460,842812,1,16778208,1100000,279340,276444,65700,0,186792,0,910455315,63
i,1734975402.818890,172.16.3.2,12108,172.16.1.2,5102,1073725440,223029,38,184320,65728,6,6,4,1460,843750,1,16778208,1090000,279340,279340,65700,0,183896,0,910455315,63
o,1734975402.819000,172.16.3.2,12108,172.16.1.2,5102,1073725440,223029,38,218880,65728,6,6,4,1460,844687,1,16778208,1090000,279340,276444,65700,0,181000,0,910455315,63
i,1734975402.819597,172.16.3.2,12108,172.16.1.2,5102,1073725440,223029,38,218880,65728,6,6,4,1460,844687,1,16778208,1090000,279340,276444,65700,0,218648,0,910455315,63
o,1734975402.819671,172.16.3.2,12108,172.16.1.2,5102,1073725440,223029,38,218880,65728,6,6,4,1460,845625,1,16778208,1090000,279340,273548,65700,0,215752,0,910455315,63
i,1734975402.820258,172.16.3.2,12108,172.16.1.2,5102,1073725440,223029,38,218880,65728,6,6,4,1460,845625,1,16778208,1090000,279340,273548,65700,0,218648,0,910455315,63
i,1734975402.820499,172.16.3.2,12108,172.16.1.2,5102,1073725440,223029,38,216000,65728,6,6,4,1460,845000,1,16778208,1080000,279340,270652,65700,0,215752,0,910455315,63
i,1734975403.127303,172.16.3.2,12108,172.16.1.2,5102,1073725440,223029,38,213120,65728,6,6,4,1460,844375,1,16778208,1070000,279340,279340,65700,0,212856,0,910455315,63
o,1734975403.127458,172.16.3.2,12108,172.16.1.2,5102,1073725440,223029,38,218880,65728,6,6,4,1460,849062,1,16778208,1110000,279340,276444,65700,0,209960,0,910455315,63
o,1734975403.128001,172.16.3.2,12108,172.16.1.2,5102,1073725440,223029,38,218880,65728,6,6,4,1460,849062,1,16778208,1110000,279340,276444,65700,0,211408,0,910455315,63
i,1734975403.128549,172.16.3.2,12108,172.16.1.2,5102,1073725440,223029,38,218880,65728,6,6,4,1460,849062,1,16778208,1110000,279340,276444,65700,0,218648,0,910455315,63
i,1734975403.128858,172.16.3.2,12108,172.16.1.2,5102,1073725440,223029,38,216000,65728,6,6,4,1460,853125,1,16778208,1130000,279340,273548,65700,0,215752,0,910455315,63
i,1734975403.128993,172.16.3.2,12108,172.16.1.2,5102,1073725440,223029,38,213120,65728,6,6,4,1460,856562,1,16778208,1140000,279340,270652,65700,0,212856,0,910455315,63
o,1734975403.129067,172.16.3.2,12108,172.16.1.2,5102,1073725440,223029,38,218880,65728,6,6,4,1460,859687,1,16778208,1150000,279340,267756,65700,0,209960,0,910455315,63
i,1734975403.129806,172.16.3.2,12108,172.16.1.2,5102,1073725440,223029,38,218880,65728,6,6,4,1460,859687,1,16778208,1150000,279340,267756,65700,0,218648,0,910455315,63
i,1734975403.129934,172.16.3.2,12108,172.16.1.2,5102,1073725440,223029,38,216000,65728,6,6,4,1460,862500,1,16778208,1150000,279340,264860,65700,0,215752,0,910455315,63
i,1734975403.130179,172.16.3.2,12108,172.16.1.2,5102,1073725440,223029,38,213120,65728,6,6,4,1460,864687,1,16778208,1150000,279340,261964,65700,0,212856,0,910455315,63
i,1734975403.130460,172.16.3.2,12108,172.16.1.2,5102,1073725440,223029,38,210240,65728,6,6,4,1460,866875,1,16778208,1150000,279340,259068,65700,0,209960,0,910455315,63
i,1734975403.130687,172.16.3.2,12108,172.16.1.2,5102,1073725440,223029,38,207360,65728,6,6,4,1460,867500,1,16778208,1130000,279340,256172,65700,0,207064,0,910455315,63
i,1734975403.130952,172.16.3.2,12108,172.16.1.2,5102,1073725440,223029,38,204480,65728,6,6,4,1460,867812,1,16778208,1120000,279340,253276,65700,0,204168,0,910455315,63
i,1734975403.133477,172.16.3.2,48522,172.16.1.2,5101,1073725440,14668,1058,65728,65728,6,6,4,1460,227187,1,996,1050000,33580,0,65700,0,0,0,1349364472,63
i,1734975403.133620,172.16.3.2,48522,172.16.1.2,5101,1073725440,14668,1058,65728,65728,6,6,4,1460,227187,1,996,1050000,33580,0,65700,1,0,0,1349364472,63
o,1734975403.133698,172.16.3.2,48522,172.16.1.2,5101,1073725440,14480,1058,65728,65728,6,6,4,1460,227187,1,997,1050000,33580,0,65700,2,0,0,1349364472,63
i,1734975403.134492,172.16.3.2,56449,172.16.1.2,5101,1073725440,14480,34,65535,65700,6,6,4,1460,810000,1,16778208,2630000,33580,37,65700,0,37,0,1294979029,63
i,1734975403.134630,172.16.3.2,12108,172.16.1.2,5102,1073725440,223029,38,201600,65728,6,6,4,1460,868125,1,16778208,1110000,279340,279340,65700,0,201272,0,910455315,63
o,1734975403.134709,172.16.3.2,12108,172.16.1.2,5102,1073725440,223029,38,221760,65728,6,6,4,1460,868437,1,16778208,1100000,279340,277892,65700,0,199824,0,910455315,63
o,1734975403.135404,172.16.3.2,56449,172.16.1.2,5101,1073725440,14517,38,65728,65728,6,6,4,1460,818750,1,16778208,2300000,33580,33580,65700,0,0,0,1294979029,63
o,1734975403.135676,172.16.3.2,56449,172.16.1.2,5101,1073725440,14517,38,65728,65728,6,6,4,1460,818750,1,16778208,2300000,33580,33580,65700,0,1448,0,1294979029,63
i,1734975403.138103,172.16.3.2,12108,172.16.1.2,5102,1073725440,223029,38,221760,65728,6,6,4,1460,868437,1,16778208,1100000,279340,277892,65700,0,221544,0,910455315,63
i,1734975403.138169,172.16.3.2,12108,172.16.1.2,5102,1073725440,223029,38,218880,65728,6,6,4,1460,868750,1,16778208,1100000,279340,274996,65700,0,218648,0,910455315,63
i,1734975403.138228,172.16.3.2,12108,172.16.1.2,5102,1073725440,223029,38,216000,65728,6,6,4,1460,869062,1,16778208,1090000,279340,272100,65700,0,215752,0,910455315,63
i,1734975403.139819,172.16.3.2,12108,172.16.1.2,5102,1073725440,223029,38,213120,65728,6,6,4,1460,869375,1,16778208,1090000,279340,279340,65700,0,212856,0,910455315,63
i,1734975403.139963,172.16.3.2,12108,172.16.1.2,5102,1073725440,223029,38,210240,65728,6,6,4,1460,869687,1,16778208,1090000,279340,276444,65700,0,209960,0,910455315,63
i,1734975403.140098,172.16.3.2,12108,172.16.1.2,5102,1073725440,223029,38,207360,65728,6,6,4,1460,870000,1,16778208,1090000,279340,276444,65700,0,207064,0,910455315,63
o,1734975403.140174,172.16.3.2,12108,172.16.1.2,5102,1073725440,223029,38,220352,65728,6,6,4,1460,870000,1,16778208,1080000,279340,273548,65700,0,204168,0,910455315,63
i,1734975403.158553,172.16.3.2,12108,172.16.1.2,5102,1073725440,223029,38,220352,65728,6,6,4,1460,870000,1,16778208,1080000,279340,279340,65700,0,220096,0,910455315,63
o,1734975403.158650,172.16.3.2,12108,172.16.1.2,5102,1073725440,223029,38,220352,65728,6,6,4,1460,873750,1,16778208,1110000,279340,276444,65700,0,217200,0,910455315,63
