enable_time_secs=1734975511	enable_time_usecs=379693	siftrver=1.3.0	sysname=FreeBSD	sysver=1401000	ipmode=4
o,1734975511.382432,10.0.2.15,22,192.168.56.1,54750,1073725440,18998,1026,65535,65700,0,0,4,1460,312,0,16777220,230000,33580,172,65700,0,0,0,1468811453,63
o,1734975511.384293,10.0.2.15,22,192.168.56.1,54750,1073725440,18998,1026,65535,65700,0,0,4,1460,312,0,16777220,230000,33580,244,65700,0,172,0,1468811453,63
i,1734975511.386102,10.0.2.15,22,192.168.56.1,54750,1073725440,18998,1026,65535,65700,0,0,4,1460,312,0,16777220,230000,33580,244,65700,0,244,0,1468811453,63
i,1734975511.386221,10.0.2.15,22,192.168.56.1,54750,1073725440,19170,1026,65535,65700,0,0,4,1460,312,0,4,230000,33580,72,65700,0,72,0,1468811453,63
i,1734975511.387436,10.0.2.15,22,192.168.56.1,54750,1073725440,19242,1026,65535,65700,0,0,4,1460,312,0,4,230000,33580,0,65700,0,0,0,1468811453,63
o,1734975511.389784,10.0.2.15,22,192.168.56.1,54750,1073725440,19242,1026,65535,65700,0,0,6,1460,312,0,4,230000,33580,0,65700,0,0,0,1468811453,63
i,1734975511.394870,10.0.2.15,22,192.168.56.1,54750,1073725440,19242,1026,65535,65700,0,0,6,1460,312,0,67108884,230000,33580,0,65700,0,1,0,1468811453,63
i,1734975520.331284,10.0.2.15,22,192.168.56.1,54730,1073725440,14600,0,65535,65700,0,0,4,1460,312,0,16777216,250000,33580,0,65700,0,0,0,367338806,63
o,1734975520.368882,10.0.2.15,22,192.168.56.1,54730,1073725440,14600,1026,65535,65700,0,0,4,1460,312,0,16777216,250000,33580,38,65700,42,0,0,367338806,63
i,1734975520.373672,10.0.2.15,22,192.168.56.1,54730,1073725440,14600,1026,65535,65700,0,0,4,1460,312,0,16777216,250000,33580,38,65700,0,38,0,367338806,63
i,1734975520.373731,10.0.2.15,22,192.168.56.1,54730,1073725440,14638,1026,65535,65700,0,0,4,1460,312,0,0,230000,33580,0,65700,1460,0,0,367338806,63
o,1734975520.373764,10.0.2.15,22,192.168.56.1,54730,1073725440,14638,1026,65535,65700,0,0,4,1460,312,0,1,230000,33580,0,65700,1536,0,0,367338806,63
o,1734975520.376069,10.0.2.15,22,192.168.56.1,54730,1073725440,14638,1026,65535,65700,0,0,4,1460,312,0,16777216,230000,33580,1120,65700,1536,0,0,367338806,63
i,1734975520.380207,10.0.2.15,22,192.168.56.1,54730,1073725440,14638,1026,65535,65700,0,0,4,1460,312,0,16777216,230000,33580,1120,65700,0,1120,0,367338806,63
i,1734975520.409092,10.0.2.15,22,192.168.56.1,54730,1073725440,15758,1026,65535,65700,0,0,4,1460,312,0,0,230000,33580,0,65700,0,0,0,367338806,63
o,1734975520.432841,10.0.2.15,22,192.168.56.1,54730,1073725440,15758,1030,65535,65700,0,0,4,1460,312,0,16777216,230000,33580,1532,65700,0,0,0,367338806,63
o,1734975520.434726,10.0.2.15,22,192.168.56.1,54730,1073725440,15758,1026,65535,65700,0,0,4,1460,312,0,16777216,230000,33580,1532,65700,0,1460,0,367338806,63
i,1734975520.437413,10.0.2.15,22,192.168.56.1,54730,1073725440,15758,1026,65535,65700,0,0,4,1460,312,0,16777216,230000,33580,1532,65700,0,1532,0,367338806,63
i,1734975520.453396,10.0.2.15,22,192.168.56.1,54730,1073725440,17290,1026,65535,65700,0,0,4,1460,312,0,0,230000,33580,0,65700,0,0,0,367338806,63
o,1734975520.453917,10.0.2.15,22,192.168.56.1,54730,1073725440,17290,1026,65535,65700,0,0,4,1460,312,0,16777216,230000,33580,44,65700,0,0,0,367338806,63
i,1734975520.457935,10.0.2.15,22,192.168.56.1,54730,1073725440,17290,1026,65535,65700,0,0,4,1460,312,0,16777216,230000,33580,44,65700,0,44,0,367338806,63
o,1734975520.464007,10.0.2.15,22,192.168.56.1,54730,1073725440,17334,1026,65535,65700,0,0,4,1460,312,0,16777216,230000,33580,280,65700,0,0,0,367338806,63
i,1734975520.467766,10.0.2.15,22,192.168.56.1,54730,1073725440,17334,1026,65535,65700,0,0,4,1460,312,0,16777216,230000,33580,280,65700,0,280,0,367338806,63
o,1734975520.470245,10.0.2.15,22,192.168.56.1,54730,1073725440,17614,1026,65535,65700,0,0,4,1460,312,0,16777216,230000,33580,332,65700,0,0,0,367338806,63
i,1734975520.475021,10.0.2.15,22,192.168.56.1,54730,1073725440,17614,1026,65535,65700,0,0,4,1460,312,0,16777216,230000,33580,332,65700,0,332,0,367338806,63
i,1734975520.475113,10.0.2.15,22,192.168.56.1,54730,1073725440,17946,1026,65535,65700,0,0,4,1460,312,0,0,240000,33580,0,65700,0,0,0,367338806,63
o,1734975520.493176,10.0.2.15,22,192.168.56.1,54730,1073725440,17946,1026,65535,65700,0,0,4,1460,312,0,16777216,240000,33580,28,65700,0,0,0,367338806,63
i,1734975520.497543,10.0.2.15,22,192.168.56.1,54730,1073725440,17946,1026,65535,65700,0,0,4,1460,312,0,16777216,240000,33580,28,65700,0,28,0,367338806,63
o,1734975520.498950,10.0.2.15,22,192.168.56.1,54730,1073725440,17974,1026,65535,65700,0,0,4,1460,312,0,16777216,240000,33580,768,65700,112,0,0,367338806,63
i,1734975520.505145,10.0.2.15,22,192.168.56.1,54730,1073725440,17974,1026,65535,65700,0,0,4,1460,312,0,16777216,240000,33580,952,65700,0,768,0,367338806,63
o,1734975520.505240,10.0.2.15,22,192.168.56.1,54730,1073725440,18742,1026,65535,65700,0,0,4,1460,312,0,16777216,230000,33580,184,65700,0,0,0,367338806,63
i,1734975520.508943,10.0.2.15,22,192.168.56.1,54730,1073725440,18742,1026,65535,65700,0,0,4,1460,312,0,16777216,230000,33580,184,65700,0,184,0,367338806,63
i,1734975520.509005,10.0.2.15,22,192.168.56.1,54730,1073725440,18926,1026,65535,65700,0,0,4,1460,312,0,0,230000,33580,0,65700,0,0,0,367338806,63
o,1734975520.511276,10.0.2.15,22,192.168.56.1,54730,1073725440,18926,1026,65535,65700,0,0,4,1460,312,0,16777220,230000,33580,72,65700,0,0,0,367338806,63
i,1734975520.517493,10.0.2.15,22,192.168.56.1,54730,1073725440,18926,1026,65535,65700,0,0,4,1460,312,0,16777220,230000,33580,72,65700,0,72,0,367338806,63
o,1734975520.564288,10.0.2.15,22,192.168.56.1,54730,1073725440,18998,1026,65535,65700,0,0,4,1460,312,0,16777220,230000,33580,104,65700,0,0,0,367338806,63
o,1734975520.566238,10.0.2.15,22,192.168.56.1,54730,1073725440,18998,1026,65535,65700,0,0,4,1460,312,0,16777220,230000,33580,176,65700,0,104,0,367338806,63
i,1734975520.568468,10.0.2.15,22,192.168.56.1,54730,1073725440,18998,1026,65535,65700,0,0,4,1460,312,0,16777220,230000,33580,176,65700,0,176,0,367338806,63
i,1734975520.568546,10.0.2.15,22,192.168.56.1,54730,1073725440,19102,1026,65535,65700,0,0,4,1460,312,0,4,230000,33580,72,65700,0,72,0,367338806,63
i,1734975520.570880,10.0.2.15,22,192.168.56.1,54730,1073725440,19174,1026,65535,65700,0,0,4,1460,312,0,4,230000,33580,0,65700,0,0,0,367338806,63
o,1734975520.575989,10.0.2.15,22,192.168.56.1,54730,1073725440,19174,1026,65535,65700,0,0,6,1460,312,0,4,230000,33580,0,65700,0,0,0,367338806,63
i,1734975520.580617,10.0.2.15,22,192.168.56.1,54730,1073725440,19174,1026,65535,65700,0,0,6,1460,312,0,67108884,230000,33580,0,65700,0,1,0,367338806,63
i,1734975523.105542,10.0.2.15,22,192.168.56.1,54732,1073725440,14600,0,65535,65700,0,0,4,1460,312,0,16777216,250000,33580,0,65700,0,0,0,3984176940,63
o,1734975523.134257,10.0.2.15,22,192.168.56.1,54732,1073725440,14600,1026,65535,65700,0,0,4,1460,312,0,16777216,250000,33580,38,65700,42,0,0,3984176940,63
i,1734975523.138069,10.0.2.15,22,192.168.56.1,54732,1073725440,14600,1026,65535,65700,0,0,4,1460,312,0,16777216,250000,33580,1158,65700,0,38,0,3984176940,63
o,1734975523.138306,10.0.2.15,22,192.168.56.1,54732,1073725440,14638,1026,65535,65700,0,0,4,1460,312,0,16777218,230000,33580,1120,65700,1460,0,0,3984176940,63
i,1734975523.138719,10.0.2.15,22,192.168.56.1,54732,1073725440,14638,1026,65535,65700,0,0,4,1460,312,0,16777216,230000,33580,1120,65700,1460,1120,0,3984176940,63
i,1734975523.144454,10.0.2.15,22,192.168.56.1,54732,1073725440,14638,1026,65535,65700,0,0,4,1460,312,0,16777216,230000,33580,1120,65700,0,1120,0,3984176940,63
i,1734975523.175363,10.0.2.15,22,192.168.56.1,54732,1073725440,15758,1026,65535,65700,0,0,4,1460,312,0,0,230000,33580,0,65700,0,0,0,3984176940,63
o,1734975523.175488,10.0.2.15,22,192.168.56.1,54732,1073725440,15758,1026,65535,65700,0,0,4,1460,312,0,1,230000,33580,0,65700,1208,0,0,3984176940,63
o,1734975523.193164,10.0.2.15,22,192.168.56.1,54732,1073725440,15758,1030,65535,65700,0,0,4,1460,312,0,16777216,230000,33580,1532,65700,0,0,0,3984176940,63
o,1734975523.194439,10.0.2.15,22,192.168.56.1,54732,1073725440,15758,1026,65535,65700,0,0,4,1460,312,0,16777216,230000,33580,1532,65700,0,1460,0,3984176940,63
i,1734975523.196513,10.0.2.15,22,192.168.56.1,54732,1073725440,15758,1026,65535,65700,0,0,4,1460,312,0,16777216,230000,33580,1532,65700,0,1532,0,3984176940,63
i,1734975523.214040,10.0.2.15,22,192.168.56.1,54732,1073725440,17290,1026,65535,65700,0,0,4,1460,312,0,0,230000,33580,0,65700,0,0,0,3984176940,63
o,1734975523.214514,10.0.2.15,22,192.168.56.1,54732,1073725440,17290,1026,65535,65700,0,0,4,1460,312,0,16777216,230000,33580,44,65700,0,0,0,3984176940,63
i,1734975523.217492,10.0.2.15,22,192.168.56.1,54732,1073725440,17290,1026,65535,65700,0,0,4,1460,312,0,16777216,230000,33580,44,65700,0,44,0,3984176940,63
o,1734975523.220000,10.0.2.15,22,192.168.56.1,54732,1073725440,17334,1026,65535,65700,0,0,4,1460,312,0,16777216,230000,33580,280,65700,0,0,0,3984176940,63
i,1734975523.223143,10.0.2.15,22,192.168.56.1,54732,1073725440,17334,1026,65535,65700,0,0,4,1460,312,0,16777216,230000,33580,280,65700,0,280,0,3984176940,63
i,1734975523.223221,10.0.2.15,22,192.168.56.1,54732,1073725440,17614,1026,65535,65700,0,0,4,1460,312,0,0,230000,33580,0,65700,0,0,0,3984176940,63
o,1734975523.224434,10.0.2.15,22,192.168.56.1,54732,1073725440,17614,1026,65535,65700,0,0,4,1460,312,0,16777216,230000,33580,332,65700,0,0,0,3984176940,63
i,1734975523.227946,10.0.2.15,22,192.168.56.1,54732,1073725440,17614,1026,65535,65700,0,0,4,1460,312,0,16777216,230000,33580,332,65700,0,332,0,3984176940,63
i,1734975523.227980,10.0.2.15,22,192.168.56.1,54732,1073725440,17946,1026,65535,65700,0,0,4,1460,312,0,0,230000,33580,0,65700,0,0,0,3984176940,63
o,1734975523.246325,10.0.2.15,22,192.168.56.1,54732,1073725440,17946,1026,65535,65700,0,0,4,1460,312,0,16777216,230000,33580,28,65700,0,0,0,3984176940,63
i,1734975523.249812,10.0.2.15,22,192.168.56.1,54732,1073725440,17946,1026,65535,65700,0,0,4,1460,312,0,16777216,230000,33580,936,65700,0,28,0,3984176940,63
o,1734975523.249918,10.0.2.15,22,192.168.56.1,54732,1073725440,17974,1026,65535,65700,0,0,4,1460,312,0,16777218,230000,33580,908,65700,112,0,0,3984176940,63
i,1734975523.253953,10.0.2.15,22,192.168.56.1,54732,1073725440,17974,1026,65535,65700,0,0,4,1460,312,0,16777216,230000,33580,952,65700,0,908,0,3984176940,63
o,1734975523.253988,10.0.2.15,22,192.168.56.1,54732,1073725440,18882,1026,65535,65700,0,0,4,1460,312,0,16777216,230000,33580,44,65700,0,0,0,3984176940,63
i,1734975523.256167,10.0.2.15,22,192.168.56.1,54732,1073725440,18882,1026,65535,65700,0,0,4,1460,312,0,16777216,230000,33580,44,65700,0,44,0,3984176940,63
i,1734975523.257977,10.0.2.15,22,192.168.56.1,54732,1073725440,18926,1026,65535,65700,0,0,4,1460,312,0,0,230000,33580,0,65700,0,0,0,3984176940,63
o,1734975523.260529,10.0.2.15,22,192.168.56.1,54732,1073725440,18926,1026,65535,65700,0,0,4,1460,312,0,16777220,230000,33580,72,65700,0,0,0,3984176940,63
i,1734975523.263926,10.0.2.15,22,192.168.56.1,54732,1073725440,18926,1026,65535,65700,0,0,4,1460,312,0,16777220,230000,33580,72,65700,0,72,0,3984176940,63
o,1734975523.305971,10.0.2.15,22,192.168.56.1,54732,1073725440,18998,1026,65535,65700,0,0,4,1460,312,0,5,230000,33580,0,65700,0,0,0,3984176940,63
o,1734975523.429085,172.16.3.2,45770,172.16.1.2,5101,128250,14480,34,65535,65700,6,6,4,1460,1051562,1,16778209,2610000,33580,0,65700,0,0,0,1324021234,63
o,1734975523.432010,172.16.3.2,45770,172.16.1.2,5101,128250,14480,34,65535,65700,6,6,4,1460,1051562,1,16778212,2610000,33580,37,65700,0,0,0,1324021234,63
i,1734975523.543019,172.16.3.2,45770,172.16.1.2,5101,128250,14480,34,65535,65700,6,6,4,1460,1051562,1,16778212,2610000,33580,37,65700,0,37,0,1324021234,63
o,1734975523.544200,172.16.3.2,45770,172.16.1.2,5101,128250,14517,1058,65728,65728,6,6,4,1460,934062,1,16778212,3090000,33580,4,65700,0,0,0,1324021234,63
o,1734975523.545685,172.16.3.2,45770,172.16.1.2,5101,128250,14517,1058,65728,65728,6,6,4,1460,934062,1,16778212,3090000,33580,151,65700,0,4,0,1324021234,63
i,1734975523.689588,172.16.3.2,45770,172.16.1.2,5101,128250,14517,1058,65728,65728,6,6,4,1460,934062,1,16778212,3090000,33580,151,65700,0,151,0,1324021234,63
i,1734975523.689746,172.16.3.2,45770,172.16.1.2,5101,128250,14668,1058,65600,65728,6,6,4,1460,835000,1,996,3290000,33580,0,65700,0,0,0,1324021234,63
o,1734975523.726489,172.16.3.2,45770,172.16.1.2,5101,128250,14668,1058,65728,65728,6,6,4,1460,835000,1,997,3290000,33580,0,65700,0,0,0,1324021234,63
o,1734975523.830072,172.16.3.2,64227,172.16.1.2,5101,128250,14480,34,65535,65700,6,6,4,1460,760000,1,16778209,2390000,33580,0,65700,0,0,0,2786028729,63
o,1734975523.831362,172.16.3.2,64227,172.16.1.2,5101,128250,14480,34,65535,65700,6,6,4,1460,760000,1,16778208,2390000,33580,37,65700,0,0,0,2786028729,63
i,1734975523.969688,172.16.3.2,45770,172.16.1.2,5101,128250,14668,1058,65728,65728,6,6,4,1460,835000,1,996,3290000,33580,0,65700,0,0,0,1324021234,63
i,1734975523.970154,172.16.3.2,45770,172.16.1.2,5101,128250,14668,1058,65728,65728,6,6,4,1460,835000,1,996,3290000,33580,0,65700,1,0,0,1324021234,63
o,1734975523.970370,172.16.3.2,45770,172.16.1.2,5101,128250,14668,1058,65728,65728,6,6,4,1460,835000,1,997,3290000,33580,0,65700,2,0,0,1324021234,63
o,1734975523.977906,172.16.3.2,64227,172.16.1.2,5101,128250,14480,38,65535,65700,6,6,4,1460,760000,1,16778208,2390000,33580,33580,65700,0,37,0,2786028729,63
i,1734975523.980569,172.16.3.2,64227,172.16.1.2,5101,128250,14480,38,65535,65700,6,6,4,1460,760000,1,16778208,2390000,33580,33580,65700,0,13069,0,2786028729,63
o,1734975523.980876,172.16.3.2,64227,172.16.1.2,5101,128250,14517,38,65728,65728,6,6,4,1460,683750,1,16778208,2570000,33580,33543,65700,0,13032,0,2786028729,63
i,1734975524.107383,10.0.2.15,22,192.168.56.1,54742,1073725440,19251,1026,65535,65700,0,0,9,1460,312,0,67108884,230000,33580,0,65700,0,0,0,2209771590,63
i,1734975524.112311,10.0.2.15,22,192.168.56.1,54742,1073725440,19251,1026,65535,65700,0,0,9,1460,312,0,67108884,230000,33580,0,65700,0,0,0,2209771590,63
i,1734975524.129528,172.16.3.2,64227,172.16.1.2,5101,128250,14517,38,65728,65728,6,6,4,1460,683750,1,16778208,2570000,33580,33543,65700,0,14480,0,2786028729,63
o,1734975524.129623,172.16.3.2,64227,172.16.1.2,5101,128250,17413,38,64256,65728,6,6,4,1460,617187,1,16778208,2610000,33580,30647,65700,0,11584,0,2786028729,63
i,1734975524.138036,172.16.3.2,64227,172.16.1.2,5101,128250,17413,38,64256,65728,6,6,4,1460,617187,1,16778208,2610000,41772,41772,65700,0,17376,0,2786028729,63
o,1734975524.138128,172.16.3.2,64227,172.16.1.2,5101,128250,20309,38,62848,65728,6,6,4,1460,559062,1,16778208,2570000,41772,38876,65700,0,14480,0,2786028729,63
i,1734975524.168125,172.16.3.2,64227,172.16.1.2,5101,128250,20309,38,62848,65728,6,6,4,1460,559062,1,16778208,2570000,49964,49964,65700,0,20272,0,2786028729,63
o,1734975524.168240,172.16.3.2,64227,172.16.1.2,5101,128250,23205,38,64256,65728,6,6,4,1460,511875,1,16778208,2450000,49964,47068,65700,0,17376,0,2786028729,63
i,1734975524.187417,172.16.3.2,64227,172.16.1.2,5101,128250,23205,38,64256,65728,6,6,4,1460,511875,1,16778208,2450000,49964,49964,65700,0,23168,0,2786028729,63
o,1734975524.187482,172.16.3.2,64227,172.16.1.2,5101,128250,26101,38,62848,65728,6,6,4,1460,473125,1,16778208,2280000,49964,47068,65700,0,20272,0,2786028729,63
i,1734975524.188051,172.16.3.2,64227,172.16.1.2,5101,128250,26101,38,62848,65728,6,6,4,1460,473125,1,16778208,2280000,58156,47068,65700,0,26064,0,2786028729,63
o,1734975524.188126,172.16.3.2,64227,172.16.1.2,5101,128250,28997,38,59968,65728,6,6,4,1460,439062,1,16778208,2120000,58156,44172,65700,0,23168,0,2786028729,63
o,1734975524.188597,172.16.3.2,64227,172.16.1.2,5101,128250,28997,38,59968,65728,6,6,4,1460,439062,1,16778208,2120000,58156,44172,65700,0,24616,0,2786028729,63
i,1734975524.269933,172.16.3.2,64227,172.16.1.2,5101,128250,28997,38,59968,65728,6,6,4,1460,439062,1,16778208,2120000,58156,58156,65700,0,28960,0,2786028729,63
o,1734975524.270070,172.16.3.2,64227,172.16.1.2,5101,128250,31893,38,64256,65728,6,6,4,1460,401875,1,16778208,2010000,66348,55260,65700,0,26064,0,2786028729,63
i,1734975524.270709,172.16.3.2,64227,172.16.1.2,5101,128250,31893,38,64256,65728,6,6,4,1460,401875,1,16778208,2010000,66348,55260,65700,0,31856,0,2786028729,63
o,1734975524.270788,172.16.3.2,64227,172.16.1.2,5101,128250,34789,38,64256,65728,6,6,4,1460,369375,1,16778208,1880000,66348,52364,65700,0,28960,0,2786028729,63
i,1734975524.271944,172.16.3.2,64227,172.16.1.2,5101,128250,34789,38,64256,65728,6,6,4,1460,369375,1,16778208,1880000,66348,52364,65700,0,34752,0,2786028729,63
o,1734975524.272041,172.16.3.2,64227,172.16.1.2,5101,128250,37685,38,64256,65728,6,6,4,1460,339687,1,16778208,1760000,66348,49468,65700,0,31856,0,2786028729,63
i,1734975524.272587,172.16.3.2,64227,172.16.1.2,5101,128250,37685,38,64256,65728,6,6,4,1460,339687,1,16778208,1760000,66348,49468,65700,0,37648,0,2786028729,63
o,1734975524.272663,172.16.3.2,64227,172.16.1.2,5101,128250,40581,38,64256,65728,6,6,4,1460,313750,1,16778208,1640000,66348,46572,65700,0,34752,0,2786028729,63
i,1734975524.274295,172.16.3.2,64227,172.16.1.2,5101,128250,40581,38,64256,65728,6,6,4,1460,313750,1,16778208,1640000,66348,46572,65700,0,40544,0,2786028729,63
o,1734975524.274351,172.16.3.2,64227,172.16.1.2,5101,128250,43477,38,64256,65728,6,6,4,1460,287187,1,16778208,1540000,66348,43676,65700,0,37648,0,2786028729,63
i,1734975524.299388,172.16.3.2,64227,172.16.1.2,5101,128250,43477,38,64256,65728,6,6,4,1460,287187,1,16778208,1540000,82732,82732,65700,0,43440,0,2786028729,63
o,1734975524.299488,172.16.3.2,64227,172.16.1.2,5101,128250,46373,38,62848,65728,6,6,4,1460,267812,1,16778208,1410000,82732,79836,65700,0,40544,0,2786028729,63
i,1734975524.300119,172.16.3.2,64227,172.16.1.2,5101,128250,46373,38,62848,65728,6,6,4,1460,267812,1,16778208,1410000,82732,79836,65700,0,46336,0,2786028729,63
o,1734975524.300198,172.16.3.2,64227,172.16.1.2,5101,128250,49269,38,64256,65728,6,6,4,1460,248125,1,16778208,1310000,82732,76940,65700,0,43440,0,2786028729,63
i,1734975524.300805,172.16.3.2,64227,172.16.1.2,5101,128250,49269,38,64256,65728,6,6,4,1460,248125,1,16778208,1310000,82732,76940,65700,0,49232,0,2786028729,63
o,1734975524.300882,172.16.3.2,64227,172.16.1.2,5101,128250,52165,38,61376,65728,6,6,4,1460,230937,1,16778208,1220000,82732,74044,65700,0,46336,0,2786028729,63
i,1734975524.302207,172.16.3.2,64227,172.16.1.2,5101,128250,52165,38,61376,65728,6,6,4,1460,230937,1,16778208,1220000,82732,74044,65700,0,52128,0,2786028729,63
o,1734975524.302284,172.16.3.2,64227,172.16.1.2,5101,128250,55061,38,62848,65728,6,6,4,1460,217187,1,16778208,1110000,82732,71148,65700,0,49232,0,2786028729,63
o,1734975524.302515,172.16.3.2,64227,172.16.1.2,5101,128250,55061,38,62848,65728,6,6,4,1460,217187,1,16778208,1110000,82732,71148,65700,0,50680,0,2786028729,63
i,1734975524.623776,172.16.3.2,64227,172.16.1.2,5101,128250,55061,38,62848,65728,6,6,4,1460,217187,1,16778208,1110000,82732,82732,65700,0,55024,0,2786028729,63
o,1734975524.623828,172.16.3.2,64227,172.16.1.2,5101,128250,57957,38,64256,65728,6,6,4,1460,245312,1,16778208,1190000,82732,79836,65700,0,52128,0,2786028729,63
i,1734975524.692375,172.16.3.2,64227,172.16.1.2,5101,128250,57957,38,64256,65728,6,6,4,1460,245312,1,16778208,1190000,82732,82732,65700,0,57920,0,2786028729,63
o,1734975524.692517,172.16.3.2,64227,172.16.1.2,5101,128250,59405,38,65728,65728,6,6,4,1460,267187,1,16778208,1200000,82732,81284,65700,0,56472,0,2786028729,63
i,1734975524.693379,172.16.3.2,64227,172.16.1.2,5101,128250,59405,38,65728,65728,6,6,4,1460,267187,1,16778208,1200000,82732,81284,65700,0,59368,0,2786028729,63
o,1734975524.693494,172.16.3.2,64227,172.16.1.2,5101,128250,60853,38,98560,65728,6,6,4,1460,286562,1,16778208,1190000,90924,79836,65700,0,57920,0,2786028729,63
i,1734975524.767063,172.16.3.2,64227,172.16.1.2,5101,128250,60853,38,98560,65728,6,6,4,1460,286562,1,16778208,1190000,123692,123692,65700,0,60816,0,2786028729,63
o,1734975524.767262,172.16.3.2,64227,172.16.1.2,5101,128250,63749,38,95680,65728,6,6,4,1460,313437,1,16778208,1260000,123692,120796,65700,0,57920,0,2786028729,63
i,1734975524.770932,172.16.3.2,64227,172.16.1.2,5101,128250,63749,38,95680,65728,6,6,4,1460,313437,1,16778208,1260000,123692,120796,65700,0,63712,0,2786028729,63
o,1734975524.771010,172.16.3.2,64227,172.16.1.2,5101,128250,66645,38,97152,65728,6,6,4,1460,336875,1,16778208,1280000,123692,117900,65700,0,60816,0,2786028729,63
i,1734975524.772097,172.16.3.2,64227,172.16.1.2,5101,128250,66645,38,97152,65728,6,6,4,1460,336875,1,16778208,1280000,123692,117900,65700,0,66608,0,2786028729,63
o,1734975524.772175,172.16.3.2,64227,172.16.1.2,5101,128250,69541,38,97152,65728,6,6,4,1460,357500,1,16778208,1280000,123692,115004,65700,0,63712,0,2786028729,63
i,1734975524.772713,172.16.3.2,64227,172.16.1.2,5101,128250,69541,38,97152,65728,6,6,4,1460,357500,1,16778208,1280000,123692,115004,65700,0,69504,0,2786028729,63
o,1734975524.772789,172.16.3.2,64227,172.16.1.2,5101,128250,72437,38,94272,65728,6,6,4,1460,375312,1,16778208,1260000,123692,112108,65700,0,66608,0,2786028729,63
i,1734975524.774006,172.16.3.2,64227,172.16.1.2,5101,128250,72437,38,94272,65728,6,6,4,1460,375312,1,16778208,1260000,123692,112108,65700,0,72400,0,2786028729,63
o,1734975524.774091,172.16.3.2,64227,172.16.1.2,5101,128250,75333,38,97152,65728,6,6,4,1460,390937,1,16778208,1230000,123692,109212,65700,0,69504,0,2786028729,63
i,1734975524.774642,172.16.3.2,64227,172.16.1.2,5101,128250,75333,38,97152,65728,6,6,4,1460,390937,1,16778208,1230000,123692,109212,65700,0,75296,0,2786028729,63
o,1734975524.774718,172.16.3.2,64227,172.16.1.2,5101,128250,78229,38,94272,65728,6,6,4,1460,404687,1,16778208,1190000,123692,106316,65700,0,72400,0,2786028729,63
i,1734975524.827310,172.16.3.2,64227,172.16.1.2,5101,128250,78229,38,94272,65728,6,6,4,1460,404687,1,16778208,1190000,123692,123692,65700,0,78192,0,2786028729,63
o,1734975524.827645,172.16.3.2,64227,172.16.1.2,5101,128250,81125,38,97152,65728,6,6,4,1460,423125,1,16778208,1210000,123692,120796,65700,0,75296,0,2786028729,63
i,1734975524.828653,172.16.3.2,64227,172.16.1.2,5101,128250,81125,38,97152,65728,6,6,4,1460,423125,1,16778208,1210000,123692,120796,65700,0,81088,0,2786028729,63
o,1734975524.828727,172.16.3.2,64227,172.16.1.2,5101,128250,84021,38,97152,65728,6,6,4,1460,439062,1,16778208,1210000,123692,117900,65700,0,78192,0,2786028729,63
i,1734975524.838719,172.16.3.2,64227,172.16.1.2,5101,128250,84021,38,97152,65728,6,6,4,1460,439062,1,16778208,1210000,123692,123692,65700,0,83984,0,2786028729,63
o,1734975524.838826,172.16.3.2,64227,172.16.1.2,5101,128250,86917,38,97152,65728,6,6,4,1460,454375,1,16778208,1200000,123692,120796,65700,0,81088,0,2786028729,63
i,1734975524.839394,172.16.3.2,64227,172.16.1.2,5101,128250,86917,38,97152,65728,6,6,4,1460,454375,1,16778208,1200000,123692,120796,65700,0,86880,0,2786028729,63
o,1734975524.839473,172.16.3.2,64227,172.16.1.2,5101,128250,89813,38,95680,65728,6,6,4,1460,465312,1,16778208,1160000,123692,117900,65700,0,83984,0,2786028729,63
i,1734975524.845820,172.16.3.2,64227,172.16.1.2,5101,128250,89813,38,95680,65728,6,6,4,1460,465312,1,16778208,1160000,123692,123692,65700,0,89776,0,2786028729,63
o,1734975524.845916,172.16.3.2,64227,172.16.1.2,5101,128250,92709,38,97152,65728,6,6,4,1460,475937,1,16778208,1130000,123692,120796,65700,0,86880,0,2786028729,63
i,1734975524.846539,172.16.3.2,64227,172.16.1.2,5101,128250,92709,38,97152,65728,6,6,4,1460,475937,1,16778208,1130000,123692,120796,65700,0,92672,0,2786028729,63
o,1734975524.846615,172.16.3.2,64227,172.16.1.2,5101,128250,95605,38,95680,65728,6,6,4,1460,485312,1,16778208,1100000,123692,117900,65700,0,89776,0,2786028729,63
i,1734975524.852265,172.16.3.2,64227,172.16.1.2,5101,128250,95605,38,95680,65728,6,6,4,1460,485312,1,16778208,1100000,123692,123692,65700,0,95568,0,2786028729,63
o,1734975524.852348,172.16.3.2,64227,172.16.1.2,5101,128250,98501,38,95680,65728,6,6,4,1460,493437,1,16778208,1070000,123692,120796,65700,0,92672,0,2786028729,63
i,1734975524.853229,172.16.3.2,64227,172.16.1.2,5101,128250,98501,38,95680,65728,6,6,4,1460,493437,1,16778208,1070000,123692,123692,65700,0,95568,0,2786028729,63
i,1734975524.853311,172.16.3.2,64227,172.16.1.2,5101,128250,98501,38,92800,65728,6,6,4,1460,500625,1,16778208,1040000,123692,120796,65700,0,92672,0,2786028729,63
o,1734975524.853311,172.16.3.2,64227,172.16.1.2,5101,128250,98501,38,95680,65728,6,6,4,1460,506875,1,16778208,1010000,123692,117900,65700,0,89776,0,2786028729,63
i,1734975524.854401,172.16.3.2,64227,172.16.1.2,5101,128250,98501,38,95680,65728,6,6,4,1460,506875,1,16778208,1010000,123692,117900,65700,0,95568,0,2786028729,63
i,1734975524.854667,172.16.3.2,64227,172.16.1.2,5101,128250,98501,38,92800,65728,6,6,4,1460,511250,1,992,970000,123692,115004,65700,0,92672,0,2786028729,63
o,1734975524.854750,172.16.3.2,64227,172.16.1.2,5101,128250,98501,38,97152,65728,6,6,4,1460,515000,1,16778208,940000,123692,112108,65700,0,89776,0,2786028729,63
o,1734975524.855260,172.16.3.2,64227,172.16.1.2,5101,128250,98501,38,97152,65728,6,6,4,1460,515000,1,16778208,940000,123692,112108,65700,0,91224,0,2786028729,63
i,1734975525.226407,172.16.3.2,64227,172.16.1.2,5101,128250,98501,38,97152,65728,6,6,4,1460,515000,1,16778208,940000,123692,123692,65700,0,97016,0,2786028729,63
o,1734975525.226518,172.16.3.2,64227,172.16.1.2,5101,128250,98501,38,97152,65728,6,6,4,1460,525625,1,16778208,980000,123692,120796,65700,0,94120,0,2786028729,63
i,1734975525.227098,172.16.3.2,64227,172.16.1.2,5101,128250,98501,38,97152,65728,6,6,4,1460,525625,1,16778208,980000,123692,120796,65700,0,97016,0,2786028729,63
o,1734975525.227175,172.16.3.2,64227,172.16.1.2,5101,128250,98501,38,98560,65728,6,6,4,1460,535000,1,16778208,1000000,123692,119348,65700,0,95568,0,2786028729,63
i,1734975525.253471,172.16.3.2,64227,172.16.1.2,5101,128250,98501,38,98560,65728,6,6,4,1460,535000,1,16778208,1000000,123692,123692,65700,0,98464,0,2786028729,63
o,1734975525.253596,172.16.3.2,64227,172.16.1.2,5101,128250,99949,38,98560,65728,6,6,4,1460,546875,1,16778208,1040000,123692,122244,65700,0,97016,0,2786028729,63
i,1734975525.301924,172.16.3.2,64227,172.16.1.2,5101,128250,99949,38,98560,65728,6,6,4,1460,546875,1,16778208,1040000,123692,122244,65700,0,98464,0,2786028729,63
o,1734975525.302020,172.16.3.2,64227,172.16.1.2,5101,128250,99949,38,97152,65728,6,6,4,1460,553750,1,16778208,1030000,123692,119348,65700,0,95568,0,2786028729,63
i,1734975525.308798,172.16.3.2,64227,172.16.1.2,5101,128250,99949,38,97152,65728,6,6,4,1460,553750,1,16778208,1030000,123692,123692,65700,0,97016,0,2786028729,63
o,1734975525.309082,172.16.3.2,64227,172.16.1.2,5101,128250,99949,38,95680,65728,6,6,4,1460,559687,1,16778208,1010000,123692,120796,65700,0,94120,0,2786028729,63
i,1734975525.312970,172.16.3.2,64227,172.16.1.2,5101,128250,99949,38,95680,65728,6,6,4,1460,559687,1,16778208,1010000,123692,123692,65700,0,95568,0,2786028729,63
o,1734975525.313163,172.16.3.2,64227,172.16.1.2,5101,128250,99949,38,97152,65728,6,6,4,1460,557500,1,16778208,970000,123692,120796,65700,0,92672,0,2786028729,63
i,1734975525.313720,172.16.3.2,64227,172.16.1.2,5101,128250,99949,38,97152,65728,6,6,4,1460,557500,1,16778208,970000,123692,120796,65700,0,97016,0,2786028729,63
i,1734975525.313931,172.16.3.2,64227,172.16.1.2,5101,128250,99949,38,94272,65728,6,6,4,1460,555312,1,16778208,930000,123692,117900,65700,0,94120,0,2786028729,63
o,1734975525.314642,172.16.3.2,64227,172.16.1.2,5101,128250,99949,38,97152,65728,6,6,4,1460,553437,1,16778208,900000,123692,115004,65700,0,91224,0,2786028729,63
i,1734975525.315313,172.16.3.2,64227,172.16.1.2,5101,128250,99949,38,97152,65728,6,6,4,1460,553437,1,16778208,900000,123692,115004,65700,0,97016,0,2786028729,63
i,1734975525.315444,172.16.3.2,64227,172.16.1.2,5101,128250,99949,38,94272,65728,6,6,4,1460,551875,1,16778208,870000,123692,112108,65700,0,94120,0,2786028729,63
i,1734975525.315589,172.16.3.2,64227,172.16.1.2,5101,128250,99949,38,91392,65728,6,6,4,1460,550625,1,16778208,850000,123692,123692,65700,0,91224,0,2786028729,63
o,1734975525.315665,172.16.3.2,64227,172.16.1.2,5101,128250,99949,38,95680,65728,6,6,4,1460,549375,1,16778208,830000,123692,120796,65700,0,88328,0,2786028729,63
i,1734975525.316233,172.16.3.2,64227,172.16.1.2,5101,128250,99949,38,95680,65728,6,6,4,1460,549375,1,16778208,830000,123692,120796,65700,0,95568,0,2786028729,63
o,1734975525.316308,172.16.3.2,64227,172.16.1.2,5101,128250,99949,38,95680,65728,6,6,4,1460,548437,1,16778208,820000,123692,117900,65700,0,92672,0,2786028729,63
i,1734975525.328948,172.16.3.2,64227,172.16.1.2,5101,128250,99949,38,95680,65728,6,6,4,1460,548437,1,16778208,820000,123692,123692,65700,0,95568,0,2786028729,63
o,1734975525.330397,172.16.3.2,64227,172.16.1.2,5101,128250,99949,38,97152,65728,6,6,4,1460,548750,1,16778208,800000,123692,120796,65700,0,92672,0,2786028729,63
i,1734975525.330627,172.16.3.2,64227,172.16.1.2,5101,128250,99949,38,97152,65728,6,6,4,1460,548750,1,16778208,800000,123692,120796,65700,0,97016,0,2786028729,63
i,1734975525.330731,172.16.3.2,64227,172.16.1.2,5101,128250,99949,38,94272,65728,6,6,4,1460,549062,1,16778208,790000,123692,117900,65700,0,94120,0,2786028729,63
o,1734975525.330761,172.16.3.2,64227,172.16.1.2,5101,128250,99949,38,95680,65728,6,6,4,1460,549375,1,16778208,780000,123692,115004,65700,0,91224,0,2786028729,63
i,1734975525.333937,172.16.3.2,64227,172.16.1.2,5101,128250,99949,38,95680,65728,6,6,4,1460,549375,1,16778208,780000,123692,123692,65700,0,95568,0,2786028729,63
o,1734975525.334025,172.16.3.2,64227,172.16.1.2,5101,128250,99949,38,95680,65728,6,6,4,1460,550937,1,16778208,790000,123692,120796,65700,0,92672,0,2786028729,63
i,1734975525.334621,172.16.3.2,64227,172.16.1.2,5101,128250,99949,38,95680,65728,6,6,4,1460,550937,1,16778208,790000,123692,120796,65700,0,95568,0,2786028729,63
i,1734975525.334755,172.16.3.2,64227,172.16.1.2,5101,128250,99949,38,92800,65728,6,6,4,1460,552187,1,16778208,790000,123692,117900,65700,0,92672,0,2786028729,63
o,1734975525.334831,172.16.3.2,64227,172.16.1.2,5101,128250,99949,38,97152,65728,6,6,4,1460,545937,1,16778208,820000,123692,115004,65700,0,89776,0,2786028729,63
i,1734975525.402081,172.16.3.2,64227,172.16.1.2,5101,128250,99949,38,97152,65728,6,6,4,1460,545937,1,16778208,820000,123692,123692,65700,0,97016,0,2786028729,63
o,1734975525.402081,172.16.3.2,64227,172.16.1.2,5101,128250,99949,38,97152,65728,6,6,4,1460,549062,1,16778208,830000,123692,120796,65700,0,94120,0,2786028729,63
i,1734975525.402891,172.16.3.2,64227,172.16.1.2,5101,128250,99949,38,97152,65728,6,6,4,1460,549062,1,16778208,830000,123692,120796,65700,0,97016,0,2786028729,63
o,1734975525.402924,172.16.3.2,64227,172.16.1.2,5101,128250,99949,38,95680,65728,6,6,4,1460,551875,1,16778208,840000,123692,117900,65700,0,94120,0,2786028729,63
i,1734975525.403209,172.16.3.2,64227,172.16.1.2,5101,128250,99949,38,95680,65728,6,6,4,1460,551875,1,16778208,840000,123692,117900,65700,0,95568,0,2786028729,63
i,1734975525.408655,172.16.3.2,64227,172.16.1.2,5101,128250,99949,38,92800,65728,6,6,4,1460,554375,1,16778208,840000,123692,123692,65700,0,92672,0,2786028729,63
o,1734975525.408743,172.16.3.2,64227,172.16.1.2,5101,128250,99949,38,97152,65728,6,6,4,1460,556562,1,16778208,840000,123692,120796,65700,0,89776,0,2786028729,63
i,1734975525.409305,172.16.3.2,64227,172.16.1.2,5101,128250,99949,38,97152,65728,6,6,4,1460,556562,1,16778208,840000,123692,120796,65700,0,97016,0,2786028729,63
o,1734975525.409379,172.16.3.2,64227,172.16.1.2,5101,128250,99949,38,97152,65728,6,6,4,1460,558437,1,16778208,830000,123692,117900,65700,0,94120,0,2786028729,63
i,1734975525.410488,172.16.3.2,64227,172.16.1.2,5101,128250,99949,38,97152,65728,6,6,4,1460,558437,1,16778208,830000,123692,117900,65700,0,97016,0,2786028729,63
i,1734975525.411088,172.16.3.2,64227,172.16.1.2,5101,128250,99949,38,94272,65728,6,6,4,1460,560000,1,16778208,830000,123692,115004,65700,0,94120,0,2786028729,63
i,1734975525.411217,172.16.3.2,64227,172.16.1.2,5101,128250,99949,38,91392,65728,6,6,4,1460,561250,1,16778208,820000,123692,112108,65700,0,91224,0,2786028729,63
i,1734975525.411972,172.16.3.2,64227,172.16.1.2,5101,128250,99949,38,88512,65728,6,6,4,1460,561250,1,16778208,810000,123692,109212,65700,0,88328,0,2786028729,63
i,1734975525.412104,172.16.3.2,64227,172.16.1.2,5101,128250,99949,38,85632,65728,6,6,4,1460,562500,1,16778208,810000,123692,106316,65700,0,85432,0,2786028729,63
i,1734975525.412235,172.16.3.2,64227,172.16.1.2,5101,128250,99949,38,82752,65728,6,6,4,1460,563437,1,16778208,800000,123692,103420,65700,0,82536,0,2786028729,63
i,1734975525.412910,172.16.3.2,64227,172.16.1.2,5101,128250,99949,38,79872,65728,6,6,4,1460,564375,1,16778208,800000,123692,100524,65700,0,79640,0,2786028729,63
i,1734975525.413054,172.16.3.2,64227,172.16.1.2,5101,128250,99949,38,76992,65728,6,6,4,1460,564062,1,16778208,790000,123692,97628,65700,0,76744,0,2786028729,63
i,1734975525.413204,172.16.3.2,64227,172.16.1.2,5101,128250,99949,38,74112,65728,6,6,4,1460,563750,1,16778208,790000,123692,94732,65700,0,73848,0,2786028729,63
i,1734975525.413334,172.16.3.2,64227,172.16.1.2,5101,128250,99949,38,71232,65728,6,6,4,1460,563437,1,16778208,780000,123692,91836,65700,0,70952,0,2786028729,63
i,1734975525.413464,172.16.3.2,64227,172.16.1.2,5101,128250,99949,38,68352,65728,6,6,4,1460,563125,1,992,780000,123692,88940,65700,0,68056,0,2786028729,63
i,1734975525.413702,172.16.3.2,64227,172.16.1.2,5101,128250,99949,38,68352,65728,6,6,4,1460,563125,1,992,780000,123692,88940,65700,0,68056,0,2786028729,63
o,1734975525.413778,172.16.3.2,64227,172.16.1.2,5101,128250,99949,38,97152,65728,6,6,4,1460,562812,1,16778208,780000,123692,86044,65700,0,65160,0,2786028729,63
o,1734975525.414282,172.16.3.2,64227,172.16.1.2,5101,128250,99949,38,97152,65728,6,6,4,1460,562812,1,16778208,780000,123692,86044,65700,0,66608,0,2786028729,63
o,1734975525.415880,172.16.3.2,64227,172.16.1.2,5101,128250,99949,38,97152,65728,6,6,4,1460,562812,1,16778208,780000,123692,123692,65700,0,86044,0,2786028729,63
i,1734975525.525464,172.16.3.2,64227,172.16.1.2,5101,128250,99949,38,97152,65728,6,6,4,1460,562812,1,16778208,780000,123692,123692,65700,0,96180,0,2786028729,63
o,1734975525.525737,172.16.3.2,64227,172.16.1.2,5101,128250,99949,38,98560,65728,6,6,4,1460,576250,1,16778208,890000,123692,122244,65700,0,94732,0,2786028729,63
i,1734975525.736293,172.16.3.2,64227,172.16.1.2,5101,128250,99949,38,98560,65728,6,6,4,1460,576250,1,16778208,890000,123692,122244,65700,0,97628,0,2786028729,63
o,1734975525.736387,172.16.3.2,64227,172.16.1.2,5101,128250,99949,38,98560,65728,6,6,4,1460,566875,1,16778208,930000,123692,120796,65700,0,96180,0,2786028729,63
i,1734975525.737143,172.16.3.2,64227,172.16.1.2,5101,128250,99949,38,98560,65728,6,6,4,1460,566875,1,16778208,930000,123692,120796,65700,0,97628,0,2786028729,63
o,1734975525.737232,172.16.3.2,64227,172.16.1.2,5101,128250,99949,38,147840,65728,6,6,4,1460,558750,1,16778208,950000,131884,119348,65700,0,96180,0,2786028729,63
i,1734975525.740671,172.16.3.2,64227,172.16.1.2,5101,128250,99949,38,147840,65728,6,6,4,1460,558750,1,16778208,950000,189228,189228,65700,0,99076,0,2786028729,63
o,1734975525.740913,172.16.3.2,64227,172.16.1.2,5101,128250,102845,38,144960,65728,6,6,4,1460,551562,1,16778208,950000,189228,186332,65700,0,96180,0,2786028729,63
i,1734975525.870095,172.16.3.2,64227,172.16.1.2,5101,128250,102845,38,144960,65728,6,6,4,1460,551562,1,16778208,950000,189228,189228,65700,0,101972,0,2786028729,63
o,1734975525.870202,172.16.3.2,64227,172.16.1.2,5101,128250,104293,38,147840,65728,6,6,4,1460,559062,1,16778208,970000,189228,187780,65700,0,100524,0,2786028729,63
i,1734975525.918171,172.16.3.2,64227,172.16.1.2,5101,128250,104293,38,147840,65728,6,6,4,1460,559062,1,16778208,970000,189228,187780,65700,0,103420,0,2786028729,63
o,1734975525.918269,172.16.3.2,64227,172.16.1.2,5101,128250,107189,38,144960,65728,6,6,4,1460,565625,1,16778208,970000,189228,184884,65700,0,100524,0,2786028729,63
i,1734975525.924663,172.16.3.2,64227,172.16.1.2,5101,128250,107189,38,144960,65728,6,6,4,1460,565625,1,16778208,970000,189228,189228,65700,0,106316,0,2786028729,63
o,1734975525.924733,172.16.3.2,64227,172.16.1.2,5101,128250,110085,38,142080,65728,6,6,4,1460,571250,1,16778208,970000,189228,186332,65700,0,103420,0,2786028729,63
i,1734975525.925445,172.16.3.2,64227,172.16.1.2,5101,128250,110085,38,142080,65728,6,6,4,1460,571250,1,16778208,970000,189228,186332,65700,0,109212,0,2786028729,63
o,1734975525.925522,172.16.3.2,64227,172.16.1.2,5101,128250,112981,38,139200,65728,6,6,4,1460,576250,1,16778208,970000,189228,183436,65700,0,106316,0,2786028729,63
i,1734975525.932838,172.16.3.2,64227,172.16.1.2,5101,128250,112981,38,139200,65728,6,6,4,1460,576250,1,16778208,970000,189228,189228,65700,0,112108,0,2786028729,63
o,1734975525.932933,172.16.3.2,64227,172.16.1.2,5101,128250,115877,38,146432,65728,6,6,4,1460,580625,1,16778208,960000,189228,186332,65700,0,109212,0,2786028729,63
i,1734975525.933533,172.16.3.2,64227,172.16.1.2,5101,128250,115877,38,146432,65728,6,6,4,1460,580625,1,16778208,960000,189228,186332,65700,0,115004,0,2786028729,63
o,1734975525.933612,172.16.3.2,64227,172.16.1.2,5101,128250,117325,38,147840,65728,6,6,4,1460,584375,1,16778208,950000,189228,184884,65700,0,113556,0,2786028729,63
i,1734975525.939811,172.16.3.2,64227,172.16.1.2,5101,128250,117325,38,147840,65728,6,6,4,1460,584375,1,16778208,950000,189228,187780,65700,0,116452,0,2786028729,63
o,1734975525.939901,172.16.3.2,64227,172.16.1.2,5101,128250,120221,38,146432,65728,6,6,4,1460,587812,1,16778208,940000,189228,184884,65700,0,113556,0,2786028729,63
i,1734975525.944766,172.16.3.2,64227,172.16.1.2,5101,128250,120221,38,146432,65728,6,6,4,1460,587812,1,16778208,940000,189228,189228,65700,0,119348,0,2786028729,63
o,1734975525.944885,172.16.3.2,64227,172.16.1.2,5101,128250,123117,38,144960,65728,6,6,4,1460,593125,1,16778208,950000,189228,186332,65700,0,116452,0,2786028729,63
i,1734975525.947265,172.16.3.2,64227,172.16.1.2,5101,128250,123117,38,144960,65728,6,6,4,1460,593125,1,16778208,950000,189228,186332,65700,0,122244,0,2786028729,63
o,1734975525.947345,172.16.3.2,64227,172.16.1.2,5101,128250,126013,38,146432,65728,6,6,4,1460,597812,1,16778208,950000,189228,183436,65700,0,119348,0,2786028729,63
i,1734975525.948015,172.16.3.2,64227,172.16.1.2,5101,128250,126013,38,146432,65728,6,6,4,1460,597812,1,16778208,950000,189228,183436,65700,0,125140,0,2786028729,63
o,1734975525.948092,172.16.3.2,64227,172.16.1.2,5101,128250,128909,38,146432,65728,6,6,4,1460,601875,1,16778208,950000,189228,180540,65700,0,122244,0,2786028729,63
i,1734975526.042187,172.16.3.2,64227,172.16.1.2,5101,128250,128909,38,146432,65728,6,6,4,1460,601875,1,16778208,950000,189228,189228,65700,0,128036,0,2786028729,63
o,1734975526.042288,172.16.3.2,64227,172.16.1.2,5101,128250,128909,38,146432,65728,6,6,4,1460,615625,1,16778208,1040000,189228,186332,65700,0,125140,0,2786028729,63
i,1734975526.042922,172.16.3.2,64227,172.16.1.2,5101,128250,128909,38,146432,65728,6,6,4,1460,615625,1,16778208,1040000,189228,186332,65700,0,128036,0,2786028729,63
o,1734975526.043069,172.16.3.2,64227,172.16.1.2,5101,128250,128909,38,143552,65728,6,6,4,1460,627500,1,16778208,1090000,189228,183436,65700,0,125140,0,2786028729,63
i,1734975526.043715,172.16.3.2,64227,172.16.1.2,5101,128250,128909,38,143552,65728,6,6,4,1460,627500,1,16778208,1090000,189228,183436,65700,0,128036,0,2786028729,63
o,1734975526.043790,172.16.3.2,64227,172.16.1.2,5101,128250,128909,38,140672,65728,6,6,4,1460,637812,1,16778208,1120000,189228,180540,65700,0,125140,0,2786028729,63
i,1734975526.044417,172.16.3.2,64227,172.16.1.2,5101,128250,128909,38,140672,65728,6,6,4,1460,637812,1,16778208,1120000,189228,180540,65700,0,128036,0,2786028729,63
o,1734975526.044452,172.16.3.2,64227,172.16.1.2,5101,128250,128909,38,137792,65728,6,6,4,1460,645625,1,16778208,1120000,189228,177644,65700,0,125140,0,2786028729,63
i,1734975526.045300,172.16.3.2,64227,172.16.1.2,5101,128250,128909,38,137792,65728,6,6,4,1460,645625,1,16778208,1120000,189228,177644,65700,0,128036,0,2786028729,63
o,1734975526.045417,172.16.3.2,64227,172.16.1.2,5101,128250,128909,38,134912,65728,6,6,4,1460,652500,1,16778208,1110000,189228,174748,65700,0,125140,0,2786028729,63
i,1734975526.045990,172.16.3.2,64227,172.16.1.2,5101,128250,128909,38,134912,65728,6,6,4,1460,652500,1,16778208,1110000,189228,174748,65700,0,128036,0,2786028729,63
o,1734975526.046076,172.16.3.2,64227,172.16.1.2,5101,128250,128909,38,132032,65728,6,6,4,1460,658437,1,16778208,1100000,189228,171852,65700,0,125140,0,2786028729,63
i,1734975526.139537,172.16.3.2,64227,172.16.1.2,5101,128250,128909,38,132032,65728,6,6,4,1460,658437,1,16778208,1100000,189228,189228,65700,0,128036,0,2786028729,63
o,1734975526.139634,172.16.3.2,64227,172.16.1.2,5101,128250,128909,38,146432,65728,6,6,4,1460,667500,1,16778208,1120000,189228,186332,65700,0,125140,0,2786028729,63
i,1734975526.140247,172.16.3.2,64227,172.16.1.2,5101,128250,128909,38,146432,65728,6,6,4,1460,667500,1,16778208,1120000,189228,186332,65700,0,128036,0,2786028729,63
o,1734975526.140324,172.16.3.2,64227,172.16.1.2,5101,128250,128909,38,144960,65728,6,6,4,1460,675312,1,16778208,1130000,189228,183436,65700,0,125140,0,2786028729,63
i,1734975526.148171,172.16.3.2,64227,172.16.1.2,5101,128250,128909,38,144960,65728,6,6,4,1460,675312,1,16778208,1130000,189228,189228,65700,0,128036,0,2786028729,63
o,1734975526.148263,172.16.3.2,64227,172.16.1.2,5101,128250,128909,38,147840,65728,6,6,4,1460,683437,1,16778208,1140000,189228,187780,65700,0,126588,0,2786028729,63
i,1734975526.158937,172.16.3.2,64227,172.16.1.2,5101,128250,128909,38,147840,65728,6,6,4,1460,683437,1,16778208,1140000,189228,187780,65700,0,128036,0,2786028729,63
o,1734975526.159047,172.16.3.2,64227,172.16.1.2,5101,128250,128909,38,144960,65728,6,6,4,1460,691875,1,16778208,1150000,189228,184884,65700,0,125140,0,2786028729,63
i,1734975526.159710,172.16.3.2,64227,172.16.1.2,5101,128250,128909,38,144960,65728,6,6,4,1460,691875,1,16778208,1150000,189228,184884,65700,0,128036,0,2786028729,63
o,1734975526.159786,172.16.3.2,64227,172.16.1.2,5101,128250,128909,38,142080,65728,6,6,4,1460,699375,1,16778208,1150000,189228,181988,65700,0,125140,0,2786028729,63
i,1734975526.160692,172.16.3.2,64227,172.16.1.2,5101,128250,128909,38,142080,65728,6,6,4,1460,699375,1,16778208,1150000,189228,181988,65700,0,128036,0,2786028729,63
o,1734975526.160746,172.16.3.2,64227,172.16.1.2,5101,128250,128909,38,146432,65728,6,6,4,1460,705937,1,16778208,1150000,189228,179092,65700,0,125140,0,2786028729,63
o,1734975526.161293,172.16.3.2,64227,172.16.1.2,5101,128250,128909,38,146432,65728,6,6,4,1460,705937,1,16778208,1150000,189228,179092,65700,0,126588,0,2786028729,63
i,1734975526.162466,172.16.3.2,64227,172.16.1.2,5101,128250,128909,38,146432,65728,6,6,4,1460,705937,1,16778208,1150000,189228,179092,65700,0,128036,0,2786028729,63
o,1734975526.162549,172.16.3.2,64227,172.16.1.2,5101,128250,128909,38,146432,65728,6,6,4,1460,711562,1,16778208,1140000,189228,176196,65700,0,125140,0,2786028729,63
i,1734975526.163711,172.16.3.2,64227,172.16.1.2,5101,128250,128909,38,146432,65728,6,6,4,1460,711562,1,16778208,1140000,189228,176196,65700,0,128036,0,2786028729,63
o,1734975526.163850,172.16.3.2,64227,172.16.1.2,5101,128250,128909,38,143552,65728,6,6,4,1460,716562,1,16778208,1130000,189228,173300,65700,0,125140,0,2786028729,63
i,1734975526.164454,172.16.3.2,64227,172.16.1.2,5101,128250,128909,38,143552,65728,6,6,4,1460,716562,1,16778208,1130000,189228,173300,65700,0,128036,0,2786028729,63
o,1734975526.164532,172.16.3.2,64227,172.16.1.2,5101,128250,128909,38,146432,65728,6,6,4,1460,720937,1,16778208,1110000,189228,170404,65700,0,125140,0,2786028729,63
i,1734975526.165377,172.16.3.2,64227,172.16.1.2,5101,128250,128909,38,146432,65728,6,6,4,1460,720937,1,16778208,1110000,189228,170404,65700,0,128036,0,2786028729,63
o,1734975526.165459,172.16.3.2,64227,172.16.1.2,5101,128250,128909,38,143552,65728,6,6,4,1460,724687,1,16778208,1100000,189228,167508,65700,0,125140,0,2786028729,63
i,1734975526.165998,172.16.3.2,64227,172.16.1.2,5101,128250,128909,38,143552,65728,6,6,4,1460,724687,1,16778208,1100000,189228,167508,65700,0,128036,0,2786028729,63
o,1734975526.166072,172.16.3.2,64227,172.16.1.2,5101,128250,128909,38,146432,65728,6,6,4,1460,728125,1,16778208,1090000,189228,164612,65700,0,125140,0,2786028729,63
i,1734975526.166911,172.16.3.2,64227,172.16.1.2,5101,128250,128909,38,146432,65728,6,6,4,1460,728125,1,16778208,1090000,189228,164612,65700,0,128036,0,2786028729,63
o,1734975526.166986,172.16.3.2,64227,172.16.1.2,5101,128250,128909,38,143552,65728,6,6,4,1460,730937,1,16778208,1070000,189228,161716,65700,0,125140,0,2786028729,63
i,1734975526.168204,172.16.3.2,64227,172.16.1.2,5101,128250,128909,38,143552,65728,6,6,4,1460,730937,1,16778208,1070000,189228,161716,65700,0,128036,0,2786028729,63
o,1734975526.168294,172.16.3.2,64227,172.16.1.2,5101,128250,128909,38,145792,65728,6,6,4,1460,733437,1,16778208,1060000,189228,159656,65700,0,125976,0,2786028729,63
i,1734975526.172907,172.16.3.2,64227,172.16.1.2,5101,128250,128909,38,145792,65728,6,6,4,1460,733437,1,16778208,1060000,189228,189228,65700,0,128872,0,2786028729,63
o,1734975526.172995,172.16.3.2,64227,172.16.1.2,5101,128250,128909,38,146432,65728,6,6,4,1460,736875,1,16778208,1060000,189228,186332,65700,0,125976,0,2786028729,63
i,1734975526.174007,172.16.3.2,64227,172.16.1.2,5101,128250,128909,38,146432,65728,6,6,4,1460,736875,1,16778208,1060000,189228,186332,65700,0,128872,0,2786028729,63
o,1734975526.174090,172.16.3.2,64227,172.16.1.2,5101,128250,128909,38,143552,65728,6,6,4,1460,740000,1,16778208,1060000,189228,183436,65700,0,125976,0,2786028729,63
i,1734975526.174657,172.16.3.2,64227,172.16.1.2,5101,128250,128909,38,143552,65728,6,6,4,1460,740000,1,16778208,1060000,189228,183436,65700,0,128872,0,2786028729,63
o,1734975526.174657,172.16.3.2,64227,172.16.1.2,5101,128250,128909,38,140672,65728,6,6,4,1460,742500,1,16778208,1050000,189228,180540,65700,0,125976,0,2786028729,63
i,1734975526.175512,172.16.3.2,64227,172.16.1.2,5101,128250,128909,38,140672,65728,6,6,4,1460,742500,1,16778208,1050000,189228,180540,65700,0,128872,0,2786028729,63
o,1734975526.175592,172.16.3.2,64227,172.16.1.2,5101,128250,128909,38,147840,65728,6,6,4,1460,744687,1,16778208,1040000,189228,179092,65700,0,127424,0,2786028729,63
i,1734975526.263968,172.16.3.2,64227,172.16.1.2,5101,128250,128909,38,147840,65728,6,6,4,1460,744687,1,16778208,1040000,189228,189228,65700,0,128872,0,2786028729,63
o,1734975526.264237,172.16.3.2,64227,172.16.1.2,5101,128250,128909,38,144960,65728,6,6,4,1460,743125,1,16778208,1030000,189228,186332,65700,0,125976,0,2786028729,63
i,1734975526.361927,172.16.3.2,64227,172.16.1.2,5101,128250,128909,38,144960,65728,6,6,4,1460,743125,1,16778208,1030000,189228,189228,65700,0,128872,0,2786028729,63
o,1734975526.362020,172.16.3.2,64227,172.16.1.2,5101,128250,128909,38,144960,65728,6,6,4,1460,727812,1,16778208,1110000,189228,186332,65700,0,125976,0,2786028729,63
i,1734975526.362597,172.16.3.2,64227,172.16.1.2,5101,128250,128909,38,144960,65728,6,6,4,1460,727812,1,16778208,1110000,189228,186332,65700,0,128872,0,2786028729,63
o,1734975526.362673,172.16.3.2,64227,172.16.1.2,5101,128250,128909,38,142080,65728,6,6,4,1460,714375,1,16778208,1160000,189228,183436,65700,0,125976,0,2786028729,63
i,1734975526.363303,172.16.3.2,64227,172.16.1.2,5101,128250,128909,38,142080,65728,6,6,4,1460,714375,1,16778208,1160000,189228,183436,65700,0,128872,0,2786028729,63
o,1734975526.363377,172.16.3.2,64227,172.16.1.2,5101,128250,128909,38,146432,65728,6,6,4,1460,702812,1,16778208,1180000,189228,180540,65700,0,125976,0,2786028729,63
i,1734975526.363910,172.16.3.2,64227,172.16.1.2,5101,128250,128909,38,146432,65728,6,6,4,1460,702812,1,16778208,1180000,189228,180540,65700,0,128872,0,2786028729,63
o,1734975526.363983,172.16.3.2,64227,172.16.1.2,5101,128250,128909,38,147840,65728,6,6,4,1460,692500,1,16778208,1180000,189228,179092,65700,0,127424,0,2786028729,63
i,1734975526.413382,172.16.3.2,64227,172.16.1.2,5101,128250,128909,38,147840,65728,6,6,4,1460,692500,1,16778208,1180000,189228,189228,65700,0,128872,0,2786028729,63
o,1734975526.413499,172.16.3.2,64227,172.16.1.2,5101,128250,128909,38,146432,65728,6,6,4,1460,674687,1,16778208,1230000,189228,186332,65700,0,125976,0,2786028729,63
i,1734975526.418487,172.16.3.2,64227,172.16.1.2,5101,128250,128909,38,146432,65728,6,6,4,1460,674687,1,16778208,1230000,189228,189228,65700,0,128872,0,2786028729,63
o,1734975526.418532,172.16.3.2,64227,172.16.1.2,5101,128250,128909,38,146432,65728,6,6,4,1460,653125,1,16778208,1290000,189228,186332,65700,0,125976,0,2786028729,63
i,1734975526.512917,172.16.3.2,64227,172.16.1.2,5101,128250,128909,38,146432,65728,6,6,4,1460,653125,1,16778208,1290000,189228,189228,65700,0,128872,0,2786028729,63
o,1734975526.513019,172.16.3.2,64227,172.16.1.2,5101,128250,128909,38,143552,65728,6,6,4,1460,646562,1,16778208,1230000,189228,186332,65700,0,125976,0,2786028729,63
i,1734975526.513794,172.16.3.2,64227,172.16.1.2,5101,128250,128909,38,143552,65728,6,6,4,1460,646562,1,16778208,1230000,189228,186332,65700,0,128872,0,2786028729,63
o,1734975526.513870,172.16.3.2,64227,172.16.1.2,5101,128250,128909,38,140672,65728,6,6,4,1460,638437,1,16778208,1190000,189228,183436,65700,0,125976,0,2786028729,63
i,1734975526.520134,172.16.3.2,64227,172.16.1.2,5101,128250,128909,38,140672,65728,6,6,4,1460,638437,1,16778208,1190000,189228,189228,65700,0,128872,0,2786028729,63
o,1734975526.520223,172.16.3.2,64227,172.16.1.2,5101,128250,128909,38,137792,65728,6,6,4,1460,631250,1,16778208,1150000,189228,186332,65700,0,125976,0,2786028729,63
i,1734975526.525643,172.16.3.2,64227,172.16.1.2,5101,128250,128909,38,137792,65728,6,6,4,1460,631250,1,16778208,1150000,189228,189228,65700,0,128872,0,2786028729,63
o,1734975526.525739,172.16.3.2,64227,172.16.1.2,5101,128250,128909,38,146432,65728,6,6,4,1460,626250,1,16778208,1110000,189228,186332,65700,0,125976,0,2786028729,63
i,1734975526.531645,172.16.3.2,64227,172.16.1.2,5101,128250,128909,38,146432,65728,6,6,4,1460,626250,1,16778208,1110000,189228,189228,65700,0,128872,0,2786028729,63
o,1734975526.531685,172.16.3.2,64227,172.16.1.2,5101,128250,128909,38,146432,65728,6,6,4,1460,623125,1,16778208,1060000,189228,186332,65700,0,125976,0,2786028729,63
i,1734975526.539917,172.16.3.2,64227,172.16.1.2,5101,128250,128909,38,146432,65728,6,6,4,1460,623125,1,16778208,1060000,189228,189228,65700,0,128872,0,2786028729,63
o,1734975526.540031,172.16.3.2,64227,172.16.1.2,5101,128250,128909,38,144960,65728,6,6,4,1460,620312,1,16778208,1020000,189228,186332,65700,0,125976,0,2786028729,63
i,1734975526.558933,172.16.3.2,64227,172.16.1.2,5101,128250,128909,38,144960,65728,6,6,4,1460,620312,1,16778208,1020000,189228,189228,65700,0,128872,0,2786028729,63
o,1734975526.559044,172.16.3.2,64227,172.16.1.2,5101,128250,128909,38,146432,65728,6,6,4,1460,620312,1,16778208,970000,189228,186332,65700,0,125976,0,2786028729,63
i,1734975526.559609,172.16.3.2,64227,172.16.1.2,5101,128250,128909,38,146432,65728,6,6,4,1460,620312,1,16778208,970000,189228,186332,65700,0,128872,0,2786028729,63
o,1734975526.559686,172.16.3.2,64227,172.16.1.2,5101,128250,128909,38,144960,65728,6,6,4,1460,620312,1,16778208,930000,189228,183436,65700,0,125976,0,2786028729,63
i,1734975526.560756,172.16.3.2,64227,172.16.1.2,5101,128250,128909,38,144960,65728,6,6,4,1460,620312,1,16778208,930000,189228,183436,65700,0,128872,0,2786028729,63
o,1734975526.560842,172.16.3.2,64227,172.16.1.2,5101,128250,128909,38,142080,65728,6,6,4,1460,620312,1,16778208,910000,189228,180540,65700,0,125976,0,2786028729,63
i,1734975526.561936,172.16.3.2,64227,172.16.1.2,5101,128250,128909,38,142080,65728,6,6,4,1460,620312,1,16778208,910000,189228,180540,65700,0,128872,0,2786028729,63
o,1734975526.562013,172.16.3.2,64227,172.16.1.2,5101,128250,128909,38,139200,65728,6,6,4,1460,621562,1,16778208,890000,189228,177644,65700,0,125976,0,2786028729,63
i,1734975526.562552,172.16.3.2,64227,172.16.1.2,5101,128250,128909,38,139200,65728,6,6,4,1460,621562,1,16778208,890000,189228,177644,65700,0,128872,0,2786028729,63
o,1734975526.562630,172.16.3.2,64227,172.16.1.2,5101,128250,128909,38,136320,65728,6,6,4,1460,621562,1,16778208,880000,189228,174748,65700,0,125976,0,2786028729,63
i,1734975526.563363,172.16.3.2,64227,172.16.1.2,5101,128250,128909,38,136320,65728,6,6,4,1460,621562,1,16778208,880000,189228,174748,65700,0,128872,0,2786028729,63
o,1734975526.563500,172.16.3.2,64227,172.16.1.2,5101,128250,128909,38,133440,65728,6,6,4,1460,621562,1,16778208,860000,189228,171852,65700,0,125976,0,2786028729,63
i,1734975526.564852,172.16.3.2,64227,172.16.1.2,5101,128250,128909,38,133440,65728,6,6,4,1460,621562,1,16778208,860000,189228,171852,65700,0,128872,0,2786028729,63
o,1734975526.564935,172.16.3.2,64227,172.16.1.2,5101,128250,128909,38,130560,65728,6,6,4,1460,621562,1,16778208,850000,189228,168956,65700,0,125976,0,2786028729,63
i,1734975526.565473,172.16.3.2,64227,172.16.1.2,5101,128250,128909,38,130560,65728,6,6,4,1460,621562,1,16778208,850000,189228,168956,65700,0,128872,0,2786028729,63
o,1734975526.565551,172.16.3.2,64227,172.16.1.2,5101,128250,128909,38,127680,65728,6,6,4,1460,621562,1,16778208,840000,189228,166060,65700,0,125976,0,2786028729,63
i,1734975526.566113,172.16.3.2,64227,172.16.1.2,5101,128250,128909,38,127680,65728,6,6,4,1460,621562,1,16778208,840000,189228,166060,65700,0,127424,0,2786028729,63
i,1734975526.566273,172.16.3.2,64227,172.16.1.2,5101,128250,128909,38,124800,65728,6,6,4,1460,621562,1,16778208,840000,189228,163164,65700,0,124528,0,2786028729,63
o,1734975526.566349,172.16.3.2,64227,172.16.1.2,5101,128250,128909,38,144960,65728,6,6,4,1460,621562,1,16778208,830000,189228,160268,65700,0,121632,0,2786028729,63
i,1734975526.566922,172.16.3.2,64227,172.16.1.2,5101,128250,128909,38,144960,65728,6,6,4,1460,621562,1,16778208,830000,189228,160268,65700,0,128872,0,2786028729,63
o,1734975526.567002,172.16.3.2,64227,172.16.1.2,5101,128250,128909,38,144960,65728,6,6,4,1460,609062,1,16778208,920000,189228,157372,65700,0,125976,0,2786028729,63
i,1734975526.567559,172.16.3.2,64227,172.16.1.2,5101,128250,128909,38,144960,65728,6,6,4,1460,609062,1,16778208,920000,189228,157372,65700,0,128872,0,2786028729,63
o,1734975526.567638,172.16.3.2,64227,172.16.1.2,5101,128250,128909,38,142080,65728,6,6,4,1460,598125,1,16778208,970000,189228,154476,65700,0,125976,0,2786028729,63
i,1734975526.568730,172.16.3.2,64227,172.16.1.2,5101,128250,128909,38,142080,65728,6,6,4,1460,598125,1,16778208,970000,189228,154476,65700,0,128872,0,2786028729,63
o,1734975526.568809,172.16.3.2,64227,172.16.1.2,5101,128250,128909,38,139200,65728,6,6,4,1460,588437,1,16778208,990000,189228,151580,65700,0,125976,0,2786028729,63
i,1734975526.569520,172.16.3.2,64227,172.16.1.2,5101,128250,128909,38,139200,65728,6,6,4,1460,588437,1,16778208,990000,189228,151580,65700,0,128872,0,2786028729,63
o,1734975526.569599,172.16.3.2,64227,172.16.1.2,5101,128250,128909,38,136320,65728,6,6,4,1460,580000,1,16778208,1000000,189228,148684,65700,0,125976,0,2786028729,63
i,1734975526.570133,172.16.3.2,64227,172.16.1.2,5101,128250,128909,38,136320,65728,6,6,4,1460,580000,1,16778208,1000000,189228,148684,65700,0,128872,0,2786028729,63
o,1734975526.570210,172.16.3.2,64227,172.16.1.2,5101,128250,128909,38,133440,65728,6,6,4,1460,572500,1,16778208,1000000,189228,145788,65700,0,125976,0,2786028729,63
i,1734975526.570800,172.16.3.2,64227,172.16.1.2,5101,128250,128909,38,133440,65728,6,6,4,1460,572500,1,16778208,1000000,189228,145788,65700,0,128872,0,2786028729,63
o,1734975526.570885,172.16.3.2,64227,172.16.1.2,5101,128250,128909,38,130560,65728,6,6,4,1460,565937,1,16778208,990000,189228,142892,65700,0,125976,0,2786028729,63
i,1734975526.624026,172.16.3.2,64227,172.16.1.2,5101,128250,128909,38,130560,65728,6,6,4,1460,565937,1,16778208,990000,189228,189228,65700,0,128872,0,2786028729,63
o,1734975526.624280,172.16.3.2,64227,172.16.1.2,5101,128250,128909,38,144960,65728,6,6,4,1460,556562,1,16778208,1000000,189228,186332,65700,0,125976,0,2786028729,63
i,1734975526.624943,172.16.3.2,64227,172.16.1.2,5101,128250,128909,38,144960,65728,6,6,4,1460,556562,1,16778208,1000000,189228,186332,65700,0,128872,0,2786028729,63
o,1734975526.625020,172.16.3.2,64227,172.16.1.2,5101,128250,128909,38,142080,65728,6,6,4,1460,548437,1,16778208,990000,189228,183436,65700,0,125976,0,2786028729,63
i,1734975526.639640,172.16.3.2,64227,172.16.1.2,5101,128250,128909,38,142080,65728,6,6,4,1460,548437,1,16778208,990000,189228,189228,65700,0,128872,0,2786028729,63
o,1734975526.639747,172.16.3.2,64227,172.16.1.2,5101,128250,128909,38,144960,65728,6,6,4,1460,541250,1,16778208,980000,189228,186332,65700,0,125976,0,2786028729,63
i,1734975526.649540,172.16.3.2,64227,172.16.1.2,5101,128250,128909,38,144960,65728,6,6,4,1460,541250,1,16778208,980000,189228,189228,65700,0,128872,0,2786028729,63
o,1734975526.649650,172.16.3.2,64227,172.16.1.2,5101,128250,128909,38,142080,65728,6,6,4,1460,535000,1,16778208,970000,189228,186332,65700,0,125976,0,2786028729,63
i,1734975526.650750,172.16.3.2,64227,172.16.1.2,5101,128250,128909,38,142080,65728,6,6,4,1460,535000,1,16778208,970000,189228,186332,65700,0,128872,0,2786028729,63
o,1734975526.651339,172.16.3.2,64227,172.16.1.2,5101,128250,128909,38,139200,65728,6,6,4,1460,529375,1,16778208,950000,189228,183436,65700,0,125976,0,2786028729,63
o,1734975526.652288,172.16.3.2,64227,172.16.1.2,5101,128250,128909,38,139200,65728,6,6,4,1460,529375,1,16778208,950000,189228,183436,65700,0,127424,0,2786028729,63
i,1734975526.652521,172.16.3.2,64227,172.16.1.2,5101,128250,128909,38,139200,65728,6,6,4,1460,529375,1,16778208,950000,189228,183436,65700,0,128872,0,2786028729,63
o,1734975526.652554,172.16.3.2,64227,172.16.1.2,5101,128250,128909,38,136320,65728,6,6,4,1460,524687,1,16778208,920000,189228,180540,65700,0,125976,0,2786028729,63
i,1734975526.652828,172.16.3.2,64227,172.16.1.2,5101,128250,128909,38,136320,65728,6,6,4,1460,524687,1,16778208,920000,189228,180540,65700,0,128872,0,2786028729,63
o,1734975526.652858,172.16.3.2,64227,172.16.1.2,5101,128250,128909,38,146432,65728,6,6,4,1460,519375,1,16778208,910000,189228,177644,65700,0,125976,0,2786028729,63
i,1734975526.653277,172.16.3.2,64227,172.16.1.2,5101,128250,128909,38,146432,65728,6,6,4,1460,519375,1,16778208,910000,189228,177644,65700,0,128872,0,2786028729,63
o,1734975526.653353,172.16.3.2,64227,172.16.1.2,5101,128250,128909,38,143552,65728,6,6,4,1460,514687,1,16778208,900000,189228,174748,65700,0,125976,0,2786028729,63
i,1734975526.654508,172.16.3.2,64227,172.16.1.2,5101,128250,128909,38,143552,65728,6,6,4,1460,514687,1,16778208,900000,189228,174748,65700,0,128872,0,2786028729,63
o,1734975526.654589,172.16.3.2,64227,172.16.1.2,5101,128250,128909,38,140672,65728,6,6,4,1460,510625,1,16778208,880000,189228,171852,65700,0,125976,0,2786028729,63
i,1734975526.655148,172.16.3.2,64227,172.16.1.2,5101,128250,128909,38,140672,65728,6,6,4,1460,510625,1,16778208,880000,189228,171852,65700,0,128872,0,2786028729,63
o,1734975526.655306,172.16.3.2,64227,172.16.1.2,5101,128250,128909,38,146432,65728,6,6,4,1460,506875,1,16778208,860000,189228,168956,65700,0,125976,0,2786028729,63
i,1734975527.153432,172.16.3.2,64227,172.16.1.2,5101,128250,128909,38,146432,65728,6,6,4,1460,506875,1,16778208,860000,189228,189228,65700,0,128872,0,2786028729,63
o,1734975527.153584,172.16.3.2,64227,172.16.1.2,5101,128250,128909,38,146432,65728,6,6,4,1460,567500,1,16778208,1370000,189228,186332,65700,0,125976,0,2786028729,63
i,1734975527.154169,172.16.3.2,64227,172.16.1.2,5101,128250,128909,38,146432,65728,6,6,4,1460,567500,1,16778208,1370000,189228,186332,65700,0,128872,0,2786028729,63
o,1734975527.154248,172.16.3.2,64227,172.16.1.2,5101,128250,128909,38,143552,65728,6,6,4,1460,620312,1,16778208,1700000,189228,183436,65700,0,125976,0,2786028729,63
i,1734975527.154921,172.16.3.2,64227,172.16.1.2,5101,128250,128909,38,143552,65728,6,6,4,1460,620312,1,16778208,1700000,189228,183436,65700,0,128872,0,2786028729,63
o,1734975527.155006,172.16.3.2,64227,172.16.1.2,5101,128250,128909,38,140672,65728,6,6,4,1460,666562,1,16778208,1890000,189228,180540,65700,0,125976,0,2786028729,63
