enable_time_secs=1734975677	enable_time_usecs=418009	siftrver=1.3.0	sysname=FreeBSD	sysver=1401000	ipmode=4
o,1734975677.420002,10.0.2.15,22,192.168.56.1,54758,1073725440,18998,1026,65535,65700,0,0,4,1460,312,0,16777220,230000,33580,172,65700,0,0,0,2628116997,63
o,1734975677.420948,10.0.2.15,22,192.168.56.1,54758,1073725440,18998,1026,65535,65700,0,0,4,1460,312,0,16777220,230000,33580,244,65700,0,172,0,2628116997,63
i,1734975677.432062,10.0.2.15,22,192.168.56.1,54758,1073725440,18998,1026,65535,65700,0,0,4,1460,312,0,16777220,230000,33580,244,65700,0,244,0,2628116997,63
i,1734975677.432219,10.0.2.15,22,192.168.56.1,54758,1073725440,19170,1026,65535,65700,0,0,4,1460,312,0,4,230000,33580,72,65700,0,72,0,2628116997,63
i,1734975677.432810,10.0.2.15,22,192.168.56.1,54758,1073725440,19242,1026,65535,65700,0,0,4,1460,312,0,4,230000,33580,0,65700,0,0,0,2628116997,63
o,1734975677.434861,10.0.2.15,22,192.168.56.1,54758,1073725440,19242,1026,65535,65700,0,0,6,1460,312,0,4,230000,33580,0,65700,0,0,0,2628116997,63
i,1734975677.438654,10.0.2.15,22,192.168.56.1,54758,1073725440,19242,1026,65535,65700,0,0,6,1460,312,0,67108884,230000,33580,0,65700,0,1,0,2628116997,63
i,1734975686.287626,10.0.2.15,22,192.168.56.1,54730,1073725440,19175,1026,65535,65700,0,0,9,1460,312,0,67108884,240000,33580,0,65700,0,0,0,367338806,63
i,1734975686.294078,10.0.2.15,22,192.168.56.1,54730,1073725440,19175,1026,65535,65700,0,0,9,1460,312,0,67108884,240000,33580,0,65700,0,0,0,367338806,63
i,1734975692.304077,10.0.2.15,22,192.168.56.1,54730,1073725440,14600,0,65535,65700,0,0,4,1460,312,0,16777216,260000,33580,0,65700,0,0,0,367338806,63
o,1734975692.342796,10.0.2.15,22,192.168.56.1,54730,1073725440,14600,2,65535,65700,0,0,4,1460,312,0,16777217,260000,33580,0,65700,42,0,0,367338806,63
o,1734975692.362027,10.0.2.15,22,192.168.56.1,54730,1073725440,14600,1026,65535,65700,0,0,4,1460,312,0,16777216,260000,33580,38,65700,42,0,0,367338806,63
i,1734975692.364677,10.0.2.15,22,192.168.56.1,54730,1073725440,14600,1026,65535,65700,0,0,4,1460,312,0,16777216,260000,33580,38,65700,0,38,0,367338806,63
i,1734975692.364755,10.0.2.15,22,192.168.56.1,54730,1073725440,14638,1026,65535,65700,0,0,4,1460,312,0,0,230000,33580,0,65700,0,0,0,367338806,63
i,1734975692.364823,10.0.2.15,22,192.168.56.1,54730,1073725440,14638,1026,65535,65700,0,0,4,1460,312,0,0,230000,33580,0,65700,1460,0,0,367338806,63
o,1734975692.364895,10.0.2.15,22,192.168.56.1,54730,1073725440,14638,1026,65535,65700,0,0,4,1460,312,0,1,230000,33580,0,65700,1536,0,0,367338806,63
o,1734975692.366287,10.0.2.15,22,192.168.56.1,54730,1073725440,14638,1026,65535,65700,0,0,4,1460,312,0,16777216,230000,33580,1120,65700,1536,0,0,367338806,63
i,1734975692.369960,10.0.2.15,22,192.168.56.1,54730,1073725440,14638,1026,65535,65700,0,0,4,1460,312,0,16777216,230000,33580,1120,65700,0,1120,0,367338806,63
i,1734975692.403311,10.0.2.15,22,192.168.56.1,54730,1073725440,15758,1026,65535,65700,0,0,4,1460,312,0,0,230000,33580,0,65700,0,0,0,367338806,63
o,1734975692.432578,10.0.2.15,22,192.168.56.1,54730,1073725440,15758,1030,65535,65700,0,0,4,1460,312,0,16777216,230000,33580,1532,65700,0,0,0,367338806,63
o,1734975692.434573,10.0.2.15,22,192.168.56.1,54730,1073725440,15758,1026,65535,65700,0,0,4,1460,312,0,16777216,230000,33580,1532,65700,0,1460,0,367338806,63
i,1734975692.438865,10.0.2.15,22,192.168.56.1,54730,1073725440,15758,1026,65535,65700,0,0,4,1460,312,0,16777216,230000,33580,1532,65700,0,1532,0,367338806,63
i,1734975692.438945,10.0.2.15,22,192.168.56.1,54730,1073725440,17218,1026,65535,65700,0,0,4,1460,312,0,0,230000,33580,72,65700,0,72,0,367338806,63
i,1734975692.453482,10.0.2.15,22,192.168.56.1,54730,1073725440,17290,1026,65535,65700,0,0,4,1460,312,0,0,230000,33580,0,65700,0,0,0,367338806,63
o,1734975692.454298,10.0.2.15,22,192.168.56.1,54730,1073725440,17290,1026,65535,65700,0,0,4,1460,312,0,16777216,230000,33580,44,65700,0,0,0,367338806,63
i,1734975692.465086,10.0.2.15,22,192.168.56.1,54730,1073725440,17290,1026,65535,65700,0,0,4,1460,312,0,16777216,230000,33580,44,65700,0,44,0,367338806,63
o,1734975692.469633,10.0.2.15,22,192.168.56.1,54730,1073725440,17334,1026,65535,65700,0,0,4,1460,312,0,16777216,230000,33580,280,65700,0,0,0,367338806,63
i,1734975692.474091,10.0.2.15,22,192.168.56.1,54730,1073725440,17334,1026,65535,65700,0,0,4,1460,312,0,16777216,230000,33580,280,65700,0,280,0,367338806,63
o,1734975692.476690,10.0.2.15,22,192.168.56.1,54730,1073725440,17614,1026,65535,65700,0,0,4,1460,312,0,16777216,230000,33580,332,65700,0,0,0,367338806,63
i,1734975692.481386,10.0.2.15,22,192.168.56.1,54730,1073725440,17614,1026,65535,65700,0,0,4,1460,312,0,16777216,230000,33580,332,65700,0,332,0,367338806,63
i,1734975692.482208,10.0.2.15,22,192.168.56.1,54730,1073725440,17946,1026,65535,65700,0,0,4,1460,312,0,0,230000,33580,0,65700,0,0,0,367338806,63
o,1734975692.500004,10.0.2.15,22,192.168.56.1,54730,1073725440,17946,1026,65535,65700,0,0,4,1460,312,0,16777216,230000,33580,28,65700,0,0,0,367338806,63
i,1734975692.503380,10.0.2.15,22,192.168.56.1,54730,1073725440,17946,1026,65535,65700,0,0,4,1460,312,0,16777216,230000,33580,28,65700,0,28,0,367338806,63
o,1734975692.505613,10.0.2.15,22,192.168.56.1,54730,1073725440,17974,1026,65535,65700,0,0,4,1460,312,0,16777216,230000,33580,768,65700,112,0,0,367338806,63
i,1734975692.510629,10.0.2.15,22,192.168.56.1,54730,1073725440,17974,1026,65535,65700,0,0,4,1460,312,0,16777216,230000,33580,952,65700,0,768,0,367338806,63
o,1734975692.510709,10.0.2.15,22,192.168.56.1,54730,1073725440,18742,1026,65535,65700,0,0,4,1460,312,0,16777216,230000,33580,184,65700,0,0,0,367338806,63
i,1734975692.511232,10.0.2.15,22,192.168.56.1,54730,1073725440,18742,1026,65535,65700,0,0,4,1460,312,0,16777216,230000,33580,184,65700,0,184,0,367338806,63
i,1734975692.514172,10.0.2.15,22,192.168.56.1,54730,1073725440,18926,1026,65535,65700,0,0,4,1460,312,0,0,230000,33580,0,65700,0,0,0,367338806,63
o,1734975692.516324,10.0.2.15,22,192.168.56.1,54730,1073725440,18926,1026,65535,65700,0,0,4,1460,312,0,16777220,230000,33580,72,65700,0,0,0,367338806,63
i,1734975692.523927,10.0.2.15,22,192.168.56.1,54730,1073725440,18926,1026,65535,65700,0,0,4,1460,312,0,16777220,230000,33580,72,65700,0,72,0,367338806,63
o,1734975692.527763,10.0.2.15,22,192.168.56.1,54730,1073725440,18998,1026,65535,65700,0,0,4,1460,312,0,16777220,230000,33580,104,65700,0,0,0,367338806,63
o,1734975692.529445,10.0.2.15,22,192.168.56.1,54730,1073725440,18998,1026,65535,65700,0,0,4,1460,312,0,16777220,230000,33580,176,65700,0,104,0,367338806,63
i,1734975692.531269,10.0.2.15,22,192.168.56.1,54730,1073725440,18998,1026,65535,65700,0,0,4,1460,312,0,16777220,230000,33580,176,65700,0,176,0,367338806,63
i,1734975692.533617,10.0.2.15,22,192.168.56.1,54730,1073725440,19102,1026,65535,65700,0,0,4,1460,312,0,4,230000,33580,72,65700,0,72,0,367338806,63
i,1734975692.533690,10.0.2.15,22,192.168.56.1,54730,1073725440,19174,1026,65535,65700,0,0,4,1460,312,0,4,230000,33580,0,65700,0,0,0,367338806,63
o,1734975692.534719,10.0.2.15,22,192.168.56.1,54730,1073725440,19174,1026,65535,65700,0,0,6,1460,312,0,4,230000,33580,0,65700,0,0,0,367338806,63
i,1734975692.537583,10.0.2.15,22,192.168.56.1,54730,1073725440,19174,1026,65535,65700,0,0,6,1460,312,0,67108884,230000,33580,0,65700,0,1,0,367338806,63
i,1734975706.998478,10.0.2.15,22,192.168.56.1,54756,1073725440,19259,1026,65535,65700,0,0,9,1460,312,0,67108884,230000,33580,0,65700,0,0,0,3427598825,63
i,1734975706.999907,10.0.2.15,22,192.168.56.1,54756,1073725440,19259,1026,65535,65700,0,0,9,1460,312,0,67108884,230000,33580,0,65700,0,0,0,3427598825,63
i,1734975707.004110,10.0.2.15,22,192.168.56.1,54700,1073725440,14600,0,65535,65700,0,0,4,1460,312,0,16777216,250000,33580,0,65700,0,0,0,1659928077,63
o,1734975707.041302,10.0.2.15,22,192.168.56.1,54700,1073725440,14600,1026,65535,65700,0,0,4,1460,312,0,16777216,250000,33580,38,65700,42,0,0,1659928077,63
i,1734975707.045457,10.0.2.15,22,192.168.56.1,54700,1073725440,14600,1026,65535,65700,0,0,4,1460,312,0,16777216,250000,33580,38,65700,0,38,0,1659928077,63
i,1734975707.045582,10.0.2.15,22,192.168.56.1,54700,1073725440,14638,1026,65535,65700,0,0,4,1460,312,0,0,230000,33580,0,65700,1460,0,0,1659928077,63
o,1734975707.045692,10.0.2.15,22,192.168.56.1,54700,1073725440,14638,1026,65535,65700,0,0,4,1460,312,0,1,230000,33580,0,65700,1536,0,0,1659928077,63
o,1734975707.047518,10.0.2.15,22,192.168.56.1,54700,1073725440,14638,1026,65535,65700,0,0,4,1460,312,0,16777216,230000,33580,1120,65700,1536,0,0,1659928077,63
i,1734975707.050035,10.0.2.15,22,192.168.56.1,54700,1073725440,14638,1026,65535,65700,0,0,4,1460,312,0,16777216,230000,33580,1120,65700,0,1120,0,1659928077,63
i,1734975707.081866,10.0.2.15,22,192.168.56.1,54700,1073725440,15758,1026,65535,65700,0,0,4,1460,312,0,0,230000,33580,0,65700,0,0,0,1659928077,63
o,1734975707.110611,10.0.2.15,22,192.168.56.1,54700,1073725440,15758,1030,65535,65700,0,0,4,1460,312,0,16777216,230000,33580,1532,65700,0,0,0,1659928077,63
o,1734975707.111211,10.0.2.15,22,192.168.56.1,54700,1073725440,15758,1026,65535,65700,0,0,4,1460,312,0,16777216,230000,33580,1532,65700,0,1460,0,1659928077,63
i,1734975707.115488,10.0.2.15,22,192.168.56.1,54700,1073725440,15758,1026,65535,65700,0,0,4,1460,312,0,16777216,230000,33580,1532,65700,0,1532,0,1659928077,63
i,1734975707.129940,10.0.2.15,22,192.168.56.1,54700,1073725440,17290,1026,65535,65700,0,0,4,1460,312,0,0,230000,33580,0,65700,0,0,0,1659928077,63
o,1734975707.130623,10.0.2.15,22,192.168.56.1,54700,1073725440,17290,1026,65535,65700,0,0,4,1460,312,0,16777216,230000,33580,44,65700,0,0,0,1659928077,63
i,1734975707.134416,10.0.2.15,22,192.168.56.1,54700,1073725440,17290,1026,65535,65700,0,0,4,1460,312,0,16777216,230000,33580,44,65700,0,44,0,1659928077,63
i,1734975707.134491,10.0.2.15,22,192.168.56.1,54700,1073725440,17334,1026,65535,65700,0,0,4,1460,312,0,0,230000,33580,0,65700,0,0,0,1659928077,63
o,1734975707.138092,10.0.2.15,22,192.168.56.1,54700,1073725440,17334,1026,65535,65700,0,0,4,1460,312,0,16777216,230000,33580,280,65700,0,0,0,1659928077,63
i,1734975707.142919,10.0.2.15,22,192.168.56.1,54700,1073725440,17334,1026,65535,65700,0,0,4,1460,312,0,16777216,230000,33580,280,65700,0,280,0,1659928077,63
o,1734975707.145119,10.0.2.15,22,192.168.56.1,54700,1073725440,17614,1026,65535,65700,0,0,4,1460,312,0,16777216,230000,33580,332,65700,0,0,0,1659928077,63
i,1734975707.150130,10.0.2.15,22,192.168.56.1,54700,1073725440,17614,1026,65535,65700,0,0,4,1460,312,0,16777216,230000,33580,332,65700,0,332,0,1659928077,63
i,1734975707.150175,10.0.2.15,22,192.168.56.1,54700,1073725440,17946,1026,65535,65700,0,0,4,1460,312,0,0,230000,33580,0,65700,0,0,0,1659928077,63
o,1734975707.167335,10.0.2.15,22,192.168.56.1,54700,1073725440,17946,1026,65535,65700,0,0,4,1460,312,0,16777216,230000,33580,28,65700,0,0,0,1659928077,63
i,1734975707.171368,10.0.2.15,22,192.168.56.1,54700,1073725440,17946,1026,65535,65700,0,0,4,1460,312,0,16777216,230000,33580,28,65700,0,28,0,1659928077,63
o,1734975707.173220,10.0.2.15,22,192.168.56.1,54700,1073725440,17974,1026,65535,65700,0,0,4,1460,312,0,16777216,230000,33580,768,65700,112,0,0,1659928077,63
i,1734975707.178863,10.0.2.15,22,192.168.56.1,54700,1073725440,17974,1026,65535,65700,0,0,4,1460,312,0,16777216,230000,33580,952,65700,0,768,0,1659928077,63
o,1734975707.178940,10.0.2.15,22,192.168.56.1,54700,1073725440,18742,1026,65535,65700,0,0,4,1460,312,0,16777216,230000,33580,184,65700,0,0,0,1659928077,63
i,1734975707.180859,10.0.2.15,22,192.168.56.1,54700,1073725440,18742,1026,65535,65700,0,0,4,1460,312,0,16777216,230000,33580,184,65700,0,184,0,1659928077,63
i,1734975707.182169,10.0.2.15,22,192.168.56.1,54700,1073725440,18926,1026,65535,65700,0,0,4,1460,312,0,0,230000,33580,0,65700,0,0,0,1659928077,63
o,1734975707.183998,10.0.2.15,22,192.168.56.1,54700,1073725440,18926,1026,65535,65700,0,0,4,1460,312,0,16777220,230000,33580,72,65700,0,0,0,1659928077,63
i,1734975707.192091,10.0.2.15,22,192.168.56.1,54700,1073725440,18926,1026,65535,65700,0,0,4,1460,312,0,16777220,230000,33580,72,65700,0,72,0,1659928077,63
o,1734975707.289850,172.16.3.2,16008,172.16.1.2,5102,122437,14480,34,65535,65700,6,6,4,1460,562500,1,16778209,2390000,33580,0,65700,0,0,0,3274124008,63
o,1734975707.291361,172.16.3.2,16008,172.16.1.2,5102,122437,14480,34,65535,65700,6,6,4,1460,562500,1,16778212,2390000,33580,37,65700,0,0,0,3274124008,63
i,1734975707.399830,172.16.3.2,16008,172.16.1.2,5102,122437,14480,34,65535,65700,6,6,4,1460,562500,1,16778212,2390000,33580,37,65700,0,37,0,3274124008,63
o,1734975707.400486,172.16.3.2,16008,172.16.1.2,5102,122437,14517,1058,65728,65728,6,6,4,1460,504687,1,16778212,2380000,33580,4,65700,0,0,0,3274124008,63
o,1734975707.402755,172.16.3.2,16008,172.16.1.2,5102,122437,14517,1058,65728,65728,6,6,4,1460,504687,1,16778212,2380000,33580,130,65700,0,4,0,3274124008,63
i,1734975707.559878,172.16.3.2,16008,172.16.1.2,5102,122437,14517,1058,65728,65728,6,6,4,1460,504687,1,16778212,2380000,33580,130,65700,0,130,0,3274124008,63
i,1734975707.562072,172.16.3.2,16008,172.16.1.2,5102,122437,14647,1058,65600,65728,6,6,4,1460,461875,1,996,2260000,33580,0,65700,0,0,0,3274124008,63
o,1734975707.605624,172.16.3.2,16008,172.16.1.2,5102,122437,14647,1058,65728,65728,6,6,4,1460,461875,1,997,2260000,33580,0,65700,0,0,0,3274124008,63
o,1734975707.693223,172.16.3.2,64460,172.16.1.2,5102,122437,14480,34,65535,65700,6,6,4,1460,568750,1,16778209,2340000,33580,0,65700,0,0,0,3038096981,63
o,1734975707.693888,172.16.3.2,64460,172.16.1.2,5102,122437,14480,34,65535,65700,6,6,4,1460,568750,1,16778208,2340000,33580,37,65700,0,0,0,3038096981,63
i,1734975707.858948,172.16.3.2,16008,172.16.1.2,5102,122437,14647,1058,65728,65728,6,6,4,1460,461875,1,996,2260000,33580,0,65700,0,0,0,3274124008,63
i,1734975707.859166,172.16.3.2,16008,172.16.1.2,5102,122437,14647,1058,65728,65728,6,6,4,1460,461875,1,996,2260000,33580,0,65700,1,0,0,3274124008,63
o,1734975707.859275,172.16.3.2,16008,172.16.1.2,5102,122437,14647,1058,65728,65728,6,6,4,1460,461875,1,997,2260000,33580,0,65700,2,0,0,3274124008,63
o,1734975707.861466,172.16.3.2,64460,172.16.1.2,5102,122437,14480,38,65535,65700,6,6,4,1460,568750,1,16778208,2340000,33580,33580,65700,0,37,0,3038096981,63
i,1734975707.865310,172.16.3.2,64460,172.16.1.2,5102,122437,14480,38,65535,65700,6,6,4,1460,568750,1,16778208,2340000,33580,33580,65700,0,13069,0,3038096981,63
o,1734975707.865418,172.16.3.2,64460,172.16.1.2,5102,122437,14517,38,65728,65728,6,6,4,1460,519062,1,16778208,2300000,33580,33543,65700,0,13032,0,3038096981,63
i,1734975708.149464,172.16.3.2,64460,172.16.1.2,5102,122437,14517,38,65728,65728,6,6,4,1460,519062,1,16778208,2300000,33580,33543,65700,0,14480,0,3038096981,63
o,1734975708.149958,172.16.3.2,64460,172.16.1.2,5102,122437,17413,38,64256,65728,6,6,4,1460,490625,1,16778208,2100000,33580,30647,65700,0,11584,0,3038096981,63
i,1734975708.150282,172.16.3.2,64460,172.16.1.2,5102,122437,17413,38,64256,65728,6,6,4,1460,490625,1,16778208,2100000,41772,30647,65700,0,17376,0,3038096981,63
o,1734975708.150315,172.16.3.2,64460,172.16.1.2,5102,122437,20309,38,64256,65728,6,6,4,1460,465625,1,16778208,1920000,41772,27751,65700,0,14480,0,3038096981,63
i,1734975708.150522,172.16.3.2,64460,172.16.1.2,5102,122437,20309,38,64256,65728,6,6,4,1460,465625,1,16778208,1920000,41772,27751,65700,0,20272,0,3038096981,63
o,1734975708.150552,172.16.3.2,64460,172.16.1.2,5102,122437,23205,38,64256,65728,6,6,4,1460,443750,1,16778208,1760000,41772,24855,65700,0,17376,0,3038096981,63
i,1734975708.152092,172.16.3.2,64460,172.16.1.2,5102,122437,23205,38,64256,65728,6,6,4,1460,443750,1,16778208,1760000,41772,24855,65700,0,23168,0,3038096981,63
o,1734975708.152178,172.16.3.2,64460,172.16.1.2,5102,122437,26101,38,64256,65728,6,6,4,1460,425937,1,16778208,1610000,41772,21959,65700,0,20272,0,3038096981,63
i,1734975708.152726,172.16.3.2,64460,172.16.1.2,5102,122437,26101,38,64256,65728,6,6,4,1460,425937,1,16778208,1610000,41772,21959,65700,0,21959,0,3038096981,63
o,1734975708.153084,172.16.3.2,64460,172.16.1.2,5102,122437,28997,38,64256,65728,6,6,4,1460,410312,1,16778208,1470000,49964,41772,65700,0,19063,0,3038096981,63
o,1734975708.153957,172.16.3.2,64460,172.16.1.2,5102,122437,28997,38,64256,65728,6,6,4,1460,410312,1,16778208,1470000,49964,41772,65700,0,20511,0,3038096981,63
i,1734975708.430834,172.16.3.2,64460,172.16.1.2,5102,122437,28997,38,64256,65728,6,6,4,1460,410312,1,16778208,1470000,58156,58156,65700,0,27751,0,3038096981,63
o,1734975708.430940,172.16.3.2,64460,172.16.1.2,5102,122437,31893,38,64256,65728,6,6,4,1460,394062,1,16778208,1370000,66348,55260,65700,0,24855,0,3038096981,63
i,1734975708.441022,172.16.3.2,64460,172.16.1.2,5102,122437,31893,38,64256,65728,6,6,4,1460,394062,1,16778208,1370000,66348,66348,65700,0,30647,0,3038096981,63
o,1734975708.441074,172.16.3.2,64460,172.16.1.2,5102,122437,34789,38,62848,65728,6,6,4,1460,381250,1,16778208,1260000,66348,63452,65700,0,27751,0,3038096981,63
i,1734975708.442287,172.16.3.2,64460,172.16.1.2,5102,122437,34789,38,62848,65728,6,6,4,1460,381250,1,16778208,1260000,74540,63452,65700,0,33543,0,3038096981,63
o,1734975708.442369,172.16.3.2,64460,172.16.1.2,5102,122437,37685,38,62848,65728,6,6,4,1460,371250,1,16778208,1160000,74540,60556,65700,0,30647,0,3038096981,63
i,1734975708.442936,172.16.3.2,64460,172.16.1.2,5102,122437,37685,38,62848,65728,6,6,4,1460,371250,1,16778208,1160000,74540,60556,65700,0,36439,0,3038096981,63
o,1734975708.443104,172.16.3.2,64460,172.16.1.2,5102,122437,40581,38,59968,65728,6,6,4,1460,362500,1,16778208,1080000,74540,57660,65700,0,33543,0,3038096981,63
i,1734975708.443655,172.16.3.2,64460,172.16.1.2,5102,122437,40581,38,59968,65728,6,6,4,1460,362500,1,16778208,1080000,74540,57660,65700,0,39335,0,3038096981,63
o,1734975708.443732,172.16.3.2,64460,172.16.1.2,5102,122437,43477,38,57088,65728,6,6,4,1460,354687,1,16778208,1000000,74540,54764,65700,0,36439,0,3038096981,63
i,1734975708.444442,172.16.3.2,64460,172.16.1.2,5102,122437,43477,38,57088,65728,6,6,4,1460,354687,1,16778208,1000000,74540,54764,65700,0,42231,0,3038096981,63
o,1734975708.444518,172.16.3.2,64460,172.16.1.2,5102,122437,46373,38,54208,65728,6,6,4,1460,348125,1,16778208,940000,74540,51868,65700,0,39335,0,3038096981,63
i,1734975708.445257,172.16.3.2,64460,172.16.1.2,5102,122437,46373,38,54208,65728,6,6,4,1460,348125,1,16778208,940000,74540,51868,65700,0,45127,0,3038096981,63
o,1734975708.445334,172.16.3.2,64460,172.16.1.2,5102,122437,48060,38,52544,65728,6,6,4,1460,340937,1,16778208,890000,74540,50181,65700,0,43440,0,3038096981,63
i,1734975708.446026,172.16.3.2,64460,172.16.1.2,5102,122437,48060,38,52544,65728,6,6,4,1460,340937,1,16778208,890000,74540,50181,65700,0,47784,0,3038096981,63
o,1734975708.446075,172.16.3.2,64460,172.16.1.2,5102,122437,50956,38,64256,65728,6,6,4,1460,334687,1,16778208,840000,74540,47285,65700,0,44888,0,3038096981,63
i,1734975708.447199,172.16.3.2,64460,172.16.1.2,5102,122437,50956,38,64256,65728,6,6,4,1460,334687,1,16778208,840000,74540,47285,65700,0,46336,0,3038096981,63
i,1734975708.447329,172.16.3.2,64460,172.16.1.2,5102,122437,53852,38,61376,65728,6,6,4,1460,329375,1,16778208,800000,74540,44389,65700,0,43440,0,3038096981,63
o,1734975708.447614,172.16.3.2,64460,172.16.1.2,5102,122437,56748,38,58496,65728,6,6,4,1460,324687,1,16778208,770000,74540,74540,65700,0,40544,0,3038096981,63
i,1734975708.805062,172.16.3.2,64460,172.16.1.2,5102,122437,56748,38,58496,65728,6,6,4,1460,324687,1,16778208,770000,74540,74540,65700,0,56472,0,3038096981,63
o,1734975708.805320,172.16.3.2,64460,172.16.1.2,5102,122437,59644,38,62848,65728,6,6,4,1460,331875,1,16778208,770000,82732,71644,65700,0,53576,0,3038096981,63
i,1734975708.806357,172.16.3.2,64460,172.16.1.2,5102,122437,59644,38,62848,65728,6,6,4,1460,331875,1,16778208,770000,82732,71644,65700,0,59368,0,3038096981,63
o,1734975708.806529,172.16.3.2,64460,172.16.1.2,5102,122437,61092,38,98560,65728,6,6,4,1460,338125,1,16778208,770000,82732,70196,65700,0,57920,0,3038096981,63
i,1734975708.812068,172.16.3.2,64460,172.16.1.2,5102,122437,61092,38,98560,65728,6,6,4,1460,338125,1,16778208,770000,123692,123692,65700,0,60816,0,3038096981,63
o,1734975708.812121,172.16.3.2,64460,172.16.1.2,5102,122437,62540,38,98560,65728,6,6,4,1460,343437,1,16778208,760000,123692,122244,65700,0,59368,0,3038096981,63
i,1734975708.829605,172.16.3.2,64460,172.16.1.2,5102,122437,62540,38,98560,65728,6,6,4,1460,343437,1,16778208,760000,123692,122244,65700,0,62264,0,3038096981,63
o,1734975708.829710,172.16.3.2,64460,172.16.1.2,5102,122437,65436,38,95680,65728,6,6,4,1460,349375,1,16778208,760000,123692,119348,65700,0,59368,0,3038096981,63
i,1734975708.830390,172.16.3.2,64460,172.16.1.2,5102,122437,65436,38,95680,65728,6,6,4,1460,349375,1,16778208,760000,123692,119348,65700,0,65160,0,3038096981,63
o,1734975708.830466,172.16.3.2,64460,172.16.1.2,5102,122437,68332,38,97152,65728,6,6,4,1460,354687,1,16778208,750000,123692,116452,65700,0,62264,0,3038096981,63
i,1734975708.834135,172.16.3.2,64460,172.16.1.2,5102,122437,68332,38,97152,65728,6,6,4,1460,354687,1,16778208,750000,123692,123692,65700,0,68056,0,3038096981,63
o,1734975708.834224,172.16.3.2,64460,172.16.1.2,5102,122437,71228,38,97152,65728,6,6,4,1460,359375,1,16778208,740000,123692,120796,65700,0,65160,0,3038096981,63
i,1734975708.835652,172.16.3.2,64460,172.16.1.2,5102,122437,71228,38,97152,65728,6,6,4,1460,359375,1,16778208,740000,123692,120796,65700,0,70952,0,3038096981,63
o,1734975708.835745,172.16.3.2,64460,172.16.1.2,5102,122437,74124,38,94272,65728,6,6,4,1460,363437,1,16778208,730000,123692,117900,65700,0,68056,0,3038096981,63
i,1734975708.836417,172.16.3.2,64460,172.16.1.2,5102,122437,74124,38,94272,65728,6,6,4,1460,363437,1,16778208,730000,123692,117900,65700,0,73848,0,3038096981,63
o,1734975708.836498,172.16.3.2,64460,172.16.1.2,5102,122437,77020,38,91392,65728,6,6,4,1460,366875,1,16778208,720000,123692,115004,65700,0,70952,0,3038096981,63
i,1734975708.837046,172.16.3.2,64460,172.16.1.2,5102,122437,77020,38,91392,65728,6,6,4,1460,366875,1,16778208,720000,123692,115004,65700,0,76744,0,3038096981,63
o,1734975708.837331,172.16.3.2,64460,172.16.1.2,5102,122437,79916,38,95680,65728,6,6,4,1460,370000,1,16778208,710000,123692,112108,65700,0,73848,0,3038096981,63
i,1734975708.838166,172.16.3.2,64460,172.16.1.2,5102,122437,79916,38,95680,65728,6,6,4,1460,370000,1,16778208,710000,123692,112108,65700,0,79640,0,3038096981,63
o,1734975708.838254,172.16.3.2,64460,172.16.1.2,5102,122437,82812,38,97152,65728,6,6,4,1460,372500,1,16778208,700000,123692,109212,65700,0,76744,0,3038096981,63
i,1734975708.838810,172.16.3.2,64460,172.16.1.2,5102,122437,82812,38,97152,65728,6,6,4,1460,372500,1,16778208,700000,123692,109212,65700,0,82536,0,3038096981,63
o,1734975708.838930,172.16.3.2,64460,172.16.1.2,5102,122437,85708,38,97152,65728,6,6,4,1460,374687,1,16778208,680000,123692,106316,65700,0,79640,0,3038096981,63
i,1734975708.840271,172.16.3.2,64460,172.16.1.2,5102,122437,85708,38,97152,65728,6,6,4,1460,374687,1,16778208,680000,123692,106316,65700,0,85432,0,3038096981,63
o,1734975708.840352,172.16.3.2,64460,172.16.1.2,5102,122437,88604,38,95680,65728,6,6,4,1460,376875,1,16778208,680000,123692,103420,65700,0,82536,0,3038096981,63
i,1734975708.840932,172.16.3.2,64460,172.16.1.2,5102,122437,88604,38,95680,65728,6,6,4,1460,376875,1,16778208,680000,123692,103420,65700,0,88328,0,3038096981,63
o,1734975708.841012,172.16.3.2,64460,172.16.1.2,5102,122437,91500,38,97152,65728,6,6,4,1460,378750,1,16778208,670000,123692,100524,65700,0,85432,0,3038096981,63
i,1734975708.899843,172.16.3.2,64460,172.16.1.2,5102,122437,91500,38,97152,65728,6,6,4,1460,378750,1,16778208,670000,123692,123692,65700,0,91224,0,3038096981,63
o,1734975708.899898,172.16.3.2,64460,172.16.1.2,5102,122437,94396,38,95680,65728,6,6,4,1460,387812,1,16778208,730000,123692,120796,65700,0,88328,0,3038096981,63
i,1734975708.900191,172.16.3.2,64460,172.16.1.2,5102,122437,94396,38,95680,65728,6,6,4,1460,387812,1,16778208,730000,123692,120796,65700,0,94120,0,3038096981,63
o,1734975708.900225,172.16.3.2,64460,172.16.1.2,5102,122437,97292,38,92800,65728,6,6,4,1460,395625,1,16778208,760000,123692,117900,65700,0,91224,0,3038096981,63
i,1734975708.900455,172.16.3.2,64460,172.16.1.2,5102,122437,97292,38,92800,65728,6,6,4,1460,395625,1,16778208,760000,123692,117900,65700,0,92672,0,3038096981,63
i,1734975708.900557,172.16.3.2,64460,172.16.1.2,5102,122437,97292,38,89920,65728,6,6,4,1460,402500,1,16778208,780000,123692,115004,65700,0,89776,0,3038096981,63
i,1734975708.900612,172.16.3.2,64460,172.16.1.2,5102,122437,97292,38,87040,65728,6,6,4,1460,408437,1,16778208,790000,123692,112108,65700,0,86880,0,3038096981,63
o,1734975708.900643,172.16.3.2,64460,172.16.1.2,5102,122437,97292,38,95680,65728,6,6,4,1460,413750,1,16778208,790000,123692,109212,65700,0,83984,0,3038096981,63
i,1734975708.900921,172.16.3.2,64460,172.16.1.2,5102,122437,97292,38,95680,65728,6,6,4,1460,413750,1,16778208,790000,123692,109212,65700,0,95568,0,3038096981,63
o,1734975708.900982,172.16.3.2,64460,172.16.1.2,5102,122437,97292,38,97152,65728,6,6,4,1460,418437,1,16778208,790000,123692,106316,65700,0,92672,0,3038096981,63
i,1734975708.902186,172.16.3.2,64460,172.16.1.2,5102,122437,97292,38,97152,65728,6,6,4,1460,418437,1,16778208,790000,123692,106316,65700,0,97016,0,3038096981,63
o,1734975708.902221,172.16.3.2,64460,172.16.1.2,5102,122437,97292,38,97152,65728,6,6,4,1460,423750,1,16778208,800000,123692,103420,65700,0,94120,0,3038096981,63
i,1734975709.289455,172.16.3.2,64460,172.16.1.2,5102,122437,97292,38,97152,65728,6,6,4,1460,423750,1,16778208,800000,123692,123692,65700,0,97016,0,3038096981,63
o,1734975709.289576,172.16.3.2,64460,172.16.1.2,5102,122437,97292,38,98560,65728,6,6,4,1460,475937,1,16778208,1220000,123692,122244,65700,0,95568,0,3038096981,63
i,1734975709.407546,172.16.3.2,64460,172.16.1.2,5102,122437,97292,38,98560,65728,6,6,4,1460,475937,1,16778208,1220000,123692,122244,65700,0,97016,0,3038096981,63
o,1734975709.407606,172.16.3.2,64460,172.16.1.2,5102,122437,100188,38,95680,65728,6,6,4,1460,490312,1,16778208,1220000,123692,119348,65700,0,94120,0,3038096981,63
i,1734975709.412841,172.16.3.2,64460,172.16.1.2,5102,122437,100188,38,95680,65728,6,6,4,1460,490312,1,16778208,1220000,123692,123692,65700,0,95568,0,3038096981,63
o,1734975709.412928,172.16.3.2,64460,172.16.1.2,5102,122437,100188,38,97152,65728,6,6,4,1460,504062,1,16778208,1210000,123692,120796,65700,0,92672,0,3038096981,63
i,1734975709.592055,172.16.3.2,64460,172.16.1.2,5102,122437,100188,38,97152,65728,6,6,4,1460,504062,1,16778208,1210000,123692,123692,65700,0,97016,0,3038096981,63
o,1734975709.592194,172.16.3.2,64460,172.16.1.2,5102,122437,100188,38,97152,65728,6,6,4,1460,538750,1,16778208,1390000,123692,120796,65700,0,94120,0,3038096981,63
i,1734975709.596723,172.16.3.2,64460,172.16.1.2,5102,122437,100188,38,97152,65728,6,6,4,1460,538750,1,16778208,1390000,123692,123692,65700,0,97016,0,3038096981,63
i,1734975709.597298,172.16.3.2,64460,172.16.1.2,5102,122437,100188,38,94272,65728,6,6,4,1460,569062,1,16778208,1500000,123692,120796,65700,0,94120,0,3038096981,63
i,1734975709.597437,172.16.3.2,64460,172.16.1.2,5102,122437,100188,38,91392,65728,6,6,4,1460,593125,1,16778208,1540000,123692,117900,65700,0,91224,0,3038096981,63
i,1734975709.597686,172.16.3.2,64460,172.16.1.2,5102,122437,100188,38,88512,65728,6,6,4,1460,614062,1,16778208,1540000,123692,115004,65700,0,88328,0,3038096981,63
i,1734975709.600097,172.16.3.2,64460,172.16.1.2,5102,122437,100188,38,85632,65728,6,6,4,1460,632500,1,16778208,1520000,123692,123692,65700,0,85432,0,3038096981,63
o,1734975709.600136,172.16.3.2,64460,172.16.1.2,5102,122437,100188,38,97152,65728,6,6,4,1460,648437,1,16778208,1490000,123692,120796,65700,0,82536,0,3038096981,63
i,1734975709.606406,172.16.3.2,64460,172.16.1.2,5102,122437,100188,38,97152,65728,6,6,4,1460,648437,1,16778208,1490000,123692,123692,65700,0,97016,0,3038096981,63
o,1734975709.606506,172.16.3.2,64460,172.16.1.2,5102,122437,100188,38,97152,65728,6,6,4,1460,663750,1,16778208,1470000,123692,120796,65700,0,94120,0,3038096981,63
i,1734975709.607065,172.16.3.2,64460,172.16.1.2,5102,122437,100188,38,97152,65728,6,6,4,1460,663750,1,16778208,1470000,123692,120796,65700,0,97016,0,3038096981,63
i,1734975709.609929,172.16.3.2,64460,172.16.1.2,5102,122437,100188,38,94272,65728,6,6,4,1460,677187,1,16778208,1440000,123692,123692,65700,0,94120,0,3038096981,63
o,1734975709.610041,172.16.3.2,64460,172.16.1.2,5102,122437,100188,38,97152,65728,6,6,4,1460,689062,1,16778208,1400000,123692,120796,65700,0,91224,0,3038096981,63
i,1734975709.610717,172.16.3.2,64460,172.16.1.2,5102,122437,100188,38,97152,65728,6,6,4,1460,689062,1,16778208,1400000,123692,120796,65700,0,97016,0,3038096981,63
i,1734975709.610993,172.16.3.2,64460,172.16.1.2,5102,122437,100188,38,94272,65728,6,6,4,1460,699375,1,16778208,1370000,123692,117900,65700,0,94120,0,3038096981,63
o,1734975709.611073,172.16.3.2,64460,172.16.1.2,5102,122437,100188,38,97152,65728,6,6,4,1460,708437,1,16778208,1330000,123692,115004,65700,0,91224,0,3038096981,63
i,1734975709.612228,172.16.3.2,64460,172.16.1.2,5102,122437,100188,38,97152,65728,6,6,4,1460,708437,1,16778208,1330000,123692,115004,65700,0,97016,0,3038096981,63
i,1734975709.615213,172.16.3.2,64460,172.16.1.2,5102,122437,100188,38,94272,65728,6,6,4,1460,716250,1,16778208,1300000,123692,122897,65700,0,94120,0,3038096981,63
o,1734975709.615310,172.16.3.2,64460,172.16.1.2,5102,122437,100188,38,95680,65728,6,6,4,1460,723125,1,16778208,1260000,123692,120001,65700,0,91224,0,3038096981,63
i,1734975709.616085,172.16.3.2,64460,172.16.1.2,5102,122437,100188,38,95680,65728,6,6,4,1460,723125,1,16778208,1260000,123692,120001,65700,0,95568,0,3038096981,63
o,1734975709.616236,172.16.3.2,64460,172.16.1.2,5102,122437,100188,38,97152,65728,6,6,4,1460,729062,1,16778208,1230000,123692,117105,65700,0,92672,0,3038096981,63
i,1734975709.616811,172.16.3.2,64460,172.16.1.2,5102,122437,100188,38,97152,65728,6,6,4,1460,729062,1,16778208,1230000,123692,117105,65700,0,97016,0,3038096981,63
i,1734975709.617931,172.16.3.2,64460,172.16.1.2,5102,122437,100188,38,94272,65728,6,6,4,1460,734375,1,16778208,1200000,123692,123692,65700,0,94120,0,3038096981,63
o,1734975709.618017,172.16.3.2,64460,172.16.1.2,5102,122437,100188,38,95680,65728,6,6,4,1460,739062,1,16778208,1180000,123692,120796,65700,0,91224,0,3038096981,63
i,1734975709.618859,172.16.3.2,64460,172.16.1.2,5102,122437,100188,38,95680,65728,6,6,4,1460,739062,1,16778208,1180000,123692,120796,65700,0,95568,0,3038096981,63
i,1734975709.622336,172.16.3.2,64460,172.16.1.2,5102,122437,100188,38,92800,65728,6,6,4,1460,743125,1,16778208,1160000,123692,123692,65700,0,92672,0,3038096981,63
i,1734975709.622487,172.16.3.2,64460,172.16.1.2,5102,122437,100188,38,89920,65728,6,6,4,1460,749062,1,16778208,1160000,123692,120796,65700,0,89776,0,3038096981,63
i,1734975709.622621,172.16.3.2,64460,172.16.1.2,5102,122437,100188,38,87040,65728,6,6,4,1460,754375,1,16778208,1150000,123692,117900,65700,0,86880,0,3038096981,63
o,1734975709.622701,172.16.3.2,64460,172.16.1.2,5102,122437,100188,38,95680,65728,6,6,4,1460,759062,1,16778208,1140000,123692,115004,65700,0,83984,0,3038096981,63
i,1734975709.623310,172.16.3.2,64460,172.16.1.2,5102,122437,100188,38,95680,65728,6,6,4,1460,759062,1,16778208,1140000,123692,115004,65700,0,95568,0,3038096981,63
o,1734975709.623388,172.16.3.2,64460,172.16.1.2,5102,122437,100188,38,95680,65728,6,6,4,1460,763125,1,16778208,1130000,123692,112108,65700,0,92672,0,3038096981,63
i,1734975709.624049,172.16.3.2,64460,172.16.1.2,5102,122437,100188,38,95680,65728,6,6,4,1460,763125,1,16778208,1130000,123692,112108,65700,0,95568,0,3038096981,63
o,1734975709.624130,172.16.3.2,64460,172.16.1.2,5102,122437,100188,38,98560,65728,6,6,4,1460,766562,1,16778208,1120000,123692,110660,65700,0,94120,0,3038096981,63
i,1734975709.716131,172.16.3.2,64460,172.16.1.2,5102,122437,100188,38,98560,65728,6,6,4,1460,766562,1,16778208,1120000,123692,123692,65700,0,98464,0,3038096981,63
o,1734975709.716267,172.16.3.2,64460,172.16.1.2,5102,122437,100188,38,144960,65728,6,6,4,1460,780937,1,16778208,1210000,131884,120796,65700,0,95568,0,3038096981,63
i,1734975709.780364,172.16.3.2,64460,172.16.1.2,5102,122437,100188,38,144960,65728,6,6,4,1460,780937,1,16778208,1210000,189228,189228,65700,0,99912,0,3038096981,63
o,1734975709.780613,172.16.3.2,64460,172.16.1.2,5102,122437,103084,38,146432,65728,6,6,4,1460,793437,1,16778208,1270000,189228,186332,65700,0,97016,0,3038096981,63
i,1734975709.782005,172.16.3.2,64460,172.16.1.2,5102,122437,103084,38,146432,65728,6,6,4,1460,793437,1,16778208,1270000,189228,186332,65700,0,102808,0,3038096981,63
o,1734975709.782081,172.16.3.2,64460,172.16.1.2,5102,122437,105980,38,143552,65728,6,6,4,1460,804375,1,16778208,1300000,189228,183436,65700,0,99912,0,3038096981,63
o,1734975709.783091,172.16.3.2,64460,172.16.1.2,5102,122437,105980,38,143552,65728,6,6,4,1460,804375,1,16778208,1300000,189228,183436,65700,0,101360,0,3038096981,63
i,1734975709.783808,172.16.3.2,64460,172.16.1.2,5102,122437,105980,38,143552,65728,6,6,4,1460,804375,1,16778208,1300000,189228,183436,65700,0,105704,0,3038096981,63
o,1734975709.783887,172.16.3.2,64460,172.16.1.2,5102,122437,108876,38,144960,65728,6,6,4,1460,814062,1,16778208,1310000,189228,180540,65700,0,102808,0,3038096981,63
i,1734975709.788987,172.16.3.2,64460,172.16.1.2,5102,122437,108876,38,144960,65728,6,6,4,1460,814062,1,16778208,1310000,189228,189228,65700,0,108600,0,3038096981,63
o,1734975709.789076,172.16.3.2,64460,172.16.1.2,5102,122437,111772,38,142080,65728,6,6,4,1460,822500,1,16778208,1310000,189228,186332,65700,0,105704,0,3038096981,63
i,1734975709.795514,172.16.3.2,64460,172.16.1.2,5102,122437,111772,38,142080,65728,6,6,4,1460,822500,1,16778208,1310000,189228,189228,65700,0,111496,0,3038096981,63
o,1734975709.795604,172.16.3.2,64460,172.16.1.2,5102,122437,114668,38,144960,65728,6,6,4,1460,832187,1,16778208,1330000,189228,186332,65700,0,108600,0,3038096981,63
i,1734975709.796408,172.16.3.2,64460,172.16.1.2,5102,122437,114668,38,144960,65728,6,6,4,1460,832187,1,16778208,1330000,189228,186332,65700,0,114392,0,3038096981,63
o,1734975709.796484,172.16.3.2,64460,172.16.1.2,5102,122437,117564,38,146432,65728,6,6,4,1460,840937,1,16778208,1330000,189228,183436,65700,0,111496,0,3038096981,63
i,1734975709.797994,172.16.3.2,64460,172.16.1.2,5102,122437,117564,38,146432,65728,6,6,4,1460,840937,1,16778208,1330000,189228,183436,65700,0,117288,0,3038096981,63
o,1734975709.798074,172.16.3.2,64460,172.16.1.2,5102,122437,120460,38,144960,65728,6,6,4,1460,848437,1,16778208,1330000,189228,180540,65700,0,114392,0,3038096981,63
i,1734975709.803844,172.16.3.2,64460,172.16.1.2,5102,122437,120460,38,144960,65728,6,6,4,1460,848437,1,16778208,1330000,189228,189228,65700,0,120184,0,3038096981,63
o,1734975709.804166,172.16.3.2,64460,172.16.1.2,5102,122437,123356,38,146432,65728,6,6,4,1460,856250,1,16778208,1330000,189228,186332,65700,0,117288,0,3038096981,63
i,1734975709.884173,172.16.3.2,64460,172.16.1.2,5102,122437,123356,38,146432,65728,6,6,4,1460,856250,1,16778208,1330000,189228,189228,65700,0,123080,0,3038096981,63
o,1734975709.884282,172.16.3.2,64460,172.16.1.2,5102,122437,123356,38,147840,65728,6,6,4,1460,871875,1,16778208,1400000,189228,187780,65700,0,121632,0,3038096981,63
i,1734975709.962743,172.16.3.2,64460,172.16.1.2,5102,122437,123356,38,147840,65728,6,6,4,1460,871875,1,16778208,1400000,189228,187780,65700,0,123080,0,3038096981,63
o,1734975709.964791,172.16.3.2,64460,172.16.1.2,5102,122437,123356,38,147840,65728,6,6,4,1460,848125,1,16778208,1480000,189228,186332,65700,0,121632,0,3038096981,63
i,1734975710.060013,172.16.3.2,64460,172.16.1.2,5102,122437,123356,38,147840,65728,6,6,4,1460,848125,1,16778208,1480000,189228,189228,65700,0,123080,0,3038096981,63
o,1734975710.060145,172.16.3.2,64460,172.16.1.2,5102,122437,123356,38,146432,65728,6,6,4,1460,823437,1,16778208,1550000,189228,186332,65700,0,120184,0,3038096981,63
i,1734975710.078823,172.16.3.2,64460,172.16.1.2,5102,122437,123356,38,146432,65728,6,6,4,1460,823437,1,16778208,1550000,189228,189228,65700,0,123080,0,3038096981,63
o,1734975710.078936,172.16.3.2,64460,172.16.1.2,5102,122437,123356,38,144960,65728,6,6,4,1460,803125,1,16778208,1560000,189228,186332,65700,0,120184,0,3038096981,63
i,1734975710.107318,172.16.3.2,64460,172.16.1.2,5102,122437,123356,38,144960,65728,6,6,4,1460,803125,1,16778208,1560000,189228,189228,65700,0,123080,0,3038096981,63
o,1734975710.107435,172.16.3.2,64460,172.16.1.2,5102,122437,123356,38,146432,65728,6,6,4,1460,766562,1,16778208,1670000,189228,186332,65700,0,120184,0,3038096981,63
i,1734975710.113385,172.16.3.2,64460,172.16.1.2,5102,122437,123356,38,146432,65728,6,6,4,1460,766562,1,16778208,1670000,189228,188809,65700,0,123080,0,3038096981,63
o,1734975710.113491,172.16.3.2,64460,172.16.1.2,5102,122437,123356,38,144960,65728,6,6,4,1460,735937,1,16778208,1710000,189228,185913,65700,0,120184,0,3038096981,63
i,1734975710.114311,172.16.3.2,64460,172.16.1.2,5102,122437,123356,38,144960,65728,6,6,4,1460,735937,1,16778208,1710000,189228,185913,65700,0,123080,0,3038096981,63
o,1734975710.114387,172.16.3.2,64460,172.16.1.2,5102,122437,123356,38,142080,65728,6,6,4,1460,709062,1,16778208,1700000,189228,183017,65700,0,120184,0,3038096981,63
i,1734975710.114929,172.16.3.2,64460,172.16.1.2,5102,122437,123356,38,142080,65728,6,6,4,1460,709062,1,16778208,1700000,189228,183017,65700,0,123080,0,3038096981,63
o,1734975710.115005,172.16.3.2,64460,172.16.1.2,5102,122437,123356,38,139200,65728,6,6,4,1460,685625,1,16778208,1670000,189228,180121,65700,0,120184,0,3038096981,63
i,1734975710.139352,172.16.3.2,64460,172.16.1.2,5102,122437,123356,38,139200,65728,6,6,4,1460,685625,1,16778208,1670000,189228,189228,65700,0,123080,0,3038096981,63
o,1734975710.139480,172.16.3.2,64460,172.16.1.2,5102,122437,123356,38,144960,65728,6,6,4,1460,667500,1,16778208,1600000,189228,186332,65700,0,120184,0,3038096981,63
i,1734975710.150906,172.16.3.2,64460,172.16.1.2,5102,122437,123356,38,144960,65728,6,6,4,1460,667500,1,16778208,1600000,189228,189228,65700,0,123080,0,3038096981,63
o,1734975710.151000,172.16.3.2,64460,172.16.1.2,5102,122437,123356,38,146432,65728,6,6,4,1460,652812,1,16778208,1520000,189228,186332,65700,0,120184,0,3038096981,63
i,1734975710.154456,172.16.3.2,64460,172.16.1.2,5102,122437,123356,38,146432,65728,6,6,4,1460,652812,1,16778208,1520000,189228,189228,65700,0,123080,0,3038096981,63
o,1734975710.154551,172.16.3.2,64460,172.16.1.2,5102,122437,123356,38,143552,65728,6,6,4,1460,640000,1,16778208,1440000,189228,186332,65700,0,120184,0,3038096981,63
i,1734975710.155669,172.16.3.2,64460,172.16.1.2,5102,122437,123356,38,143552,65728,6,6,4,1460,640000,1,16778208,1440000,189228,186332,65700,0,123080,0,3038096981,63
o,1734975710.155746,172.16.3.2,64460,172.16.1.2,5102,122437,123356,38,140672,65728,6,6,4,1460,628750,1,16778208,1370000,189228,183436,65700,0,120184,0,3038096981,63
i,1734975710.159600,172.16.3.2,64460,172.16.1.2,5102,122437,123356,38,140672,65728,6,6,4,1460,628750,1,16778208,1370000,189228,189228,65700,0,123080,0,3038096981,63
o,1734975710.159874,172.16.3.2,64460,172.16.1.2,5102,122437,123356,38,146432,65728,6,6,4,1460,619062,1,16778208,1300000,189228,186332,65700,0,120184,0,3038096981,63
i,1734975710.160430,172.16.3.2,64460,172.16.1.2,5102,122437,123356,38,146432,65728,6,6,4,1460,619062,1,16778208,1300000,189228,186332,65700,0,123080,0,3038096981,63
o,1734975710.160506,172.16.3.2,64460,172.16.1.2,5102,122437,123356,38,144960,65728,6,6,4,1460,610625,1,16778208,1240000,189228,183436,65700,0,120184,0,3038096981,63
i,1734975710.162082,172.16.3.2,64460,172.16.1.2,5102,122437,123356,38,144960,65728,6,6,4,1460,610625,1,16778208,1240000,189228,183436,65700,0,123080,0,3038096981,63
o,1734975710.162162,172.16.3.2,64460,172.16.1.2,5102,122437,123356,38,144960,65728,6,6,4,1460,604375,1,16778208,1180000,189228,180540,65700,0,120184,0,3038096981,63
i,1734975710.162674,172.16.3.2,64460,172.16.1.2,5102,122437,123356,38,144960,65728,6,6,4,1460,604375,1,16778208,1180000,189228,180540,65700,0,123080,0,3038096981,63
o,1734975710.163208,172.16.3.2,64460,172.16.1.2,5102,122437,123356,38,146432,65728,6,6,4,1460,597812,1,16778208,1130000,189228,177644,65700,0,120184,0,3038096981,63
i,1734975710.164170,172.16.3.2,64460,172.16.1.2,5102,122437,123356,38,146432,65728,6,6,4,1460,597812,1,16778208,1130000,189228,177644,65700,0,123080,0,3038096981,63
o,1734975710.164246,172.16.3.2,64460,172.16.1.2,5102,122437,123356,38,143552,65728,6,6,4,1460,591875,1,16778208,1090000,189228,174748,65700,0,120184,0,3038096981,63
i,1734975710.164826,172.16.3.2,64460,172.16.1.2,5102,122437,123356,38,143552,65728,6,6,4,1460,591875,1,16778208,1090000,189228,174748,65700,0,123080,0,3038096981,63
o,1734975710.164902,172.16.3.2,64460,172.16.1.2,5102,122437,123356,38,140672,65728,6,6,4,1460,586875,1,16778208,1050000,189228,171852,65700,0,120184,0,3038096981,63
i,1734975710.165448,172.16.3.2,64460,172.16.1.2,5102,122437,123356,38,140672,65728,6,6,4,1460,586875,1,16778208,1050000,189228,171852,65700,0,123080,0,3038096981,63
o,1734975710.165522,172.16.3.2,64460,172.16.1.2,5102,122437,123356,38,137792,65728,6,6,4,1460,582500,1,16778208,1020000,189228,168956,65700,0,120184,0,3038096981,63
i,1734975710.165684,172.16.3.2,64460,172.16.1.2,5102,122437,123356,38,137792,65728,6,6,4,1460,582500,1,16778208,1020000,189228,168956,65700,0,123080,0,3038096981,63
o,1734975710.165684,172.16.3.2,64460,172.16.1.2,5102,122437,123356,38,146432,65728,6,6,4,1460,578437,1,16778208,990000,189228,166060,65700,0,120184,0,3038096981,63
i,1734975710.165684,172.16.3.2,64460,172.16.1.2,5102,122437,123356,38,146432,65728,6,6,4,1460,578437,1,16778208,990000,189228,166060,65700,0,123080,0,3038096981,63
o,1734975710.166842,172.16.3.2,64460,172.16.1.2,5102,122437,123356,38,144960,65728,6,6,4,1460,573750,1,16778208,970000,189228,163164,65700,0,120184,0,3038096981,63
i,1734975710.167581,172.16.3.2,64460,172.16.1.2,5102,122437,123356,38,144960,65728,6,6,4,1460,573750,1,16778208,970000,189228,163164,65700,0,123080,0,3038096981,63
o,1734975710.167658,172.16.3.2,64460,172.16.1.2,5102,122437,123356,38,146432,65728,6,6,4,1460,569687,1,16778208,950000,189228,160268,65700,0,120184,0,3038096981,63
i,1734975710.168186,172.16.3.2,64460,172.16.1.2,5102,122437,123356,38,146432,65728,6,6,4,1460,569687,1,16778208,950000,189228,160268,65700,0,123080,0,3038096981,63
o,1734975710.168259,172.16.3.2,64460,172.16.1.2,5102,122437,123356,38,144960,65728,6,6,4,1460,566250,1,16778208,930000,189228,157372,65700,0,120184,0,3038096981,63
i,1734975710.172988,172.16.3.2,64460,172.16.1.2,5102,122437,123356,38,144960,65728,6,6,4,1460,566250,1,16778208,930000,189228,189228,65700,0,123080,0,3038096981,63
o,1734975710.173089,172.16.3.2,64460,172.16.1.2,5102,122437,123356,38,144960,65728,6,6,4,1460,564375,1,16778208,900000,189228,186332,65700,0,120184,0,3038096981,63
i,1734975710.174064,172.16.3.2,64460,172.16.1.2,5102,122437,123356,38,144960,65728,6,6,4,1460,564375,1,16778208,900000,189228,186332,65700,0,123080,0,3038096981,63
o,1734975710.174145,172.16.3.2,64460,172.16.1.2,5102,122437,123356,38,142080,65728,6,6,4,1460,562812,1,16778208,880000,189228,183436,65700,0,120184,0,3038096981,63
i,1734975710.174709,172.16.3.2,64460,172.16.1.2,5102,122437,123356,38,142080,65728,6,6,4,1460,562812,1,16778208,880000,189228,183436,65700,0,123080,0,3038096981,63
o,1734975710.174785,172.16.3.2,64460,172.16.1.2,5102,122437,123356,38,144960,65728,6,6,4,1460,561250,1,16778208,860000,189228,180540,65700,0,120184,0,3038096981,63
i,1734975710.215119,172.16.3.2,64460,172.16.1.2,5102,122437,123356,38,144960,65728,6,6,4,1460,561250,1,16778208,860000,189228,189228,65700,0,123080,0,3038096981,63
o,1734975710.215229,172.16.3.2,64460,172.16.1.2,5102,122437,123356,38,146432,65728,6,6,4,1460,553750,1,16778208,890000,189228,186332,65700,0,120184,0,3038096981,63
i,1734975710.228608,172.16.3.2,64460,172.16.1.2,5102,122437,123356,38,146432,65728,6,6,4,1460,553750,1,16778208,890000,189228,189228,65700,0,123080,0,3038096981,63
o,1734975710.228861,172.16.3.2,64460,172.16.1.2,5102,122437,123356,38,146432,65728,6,6,4,1460,547187,1,16778208,900000,189228,186332,65700,0,120184,0,3038096981,63
i,1734975710.229508,172.16.3.2,64460,172.16.1.2,5102,122437,123356,38,146432,65728,6,6,4,1460,547187,1,16778208,900000,189228,186332,65700,0,123080,0,3038096981,63
o,1734975710.229629,172.16.3.2,64460,172.16.1.2,5102,122437,123356,38,146432,65728,6,6,4,1460,534062,1,16778208,950000,189228,183436,65700,0,120184,0,3038096981,63
i,1734975710.234849,172.16.3.2,64460,172.16.1.2,5102,122437,123356,38,146432,65728,6,6,4,1460,534062,1,16778208,950000,189228,183436,65700,0,123080,0,3038096981,63
o,1734975710.234962,172.16.3.2,64460,172.16.1.2,5102,122437,123356,38,146432,65728,6,6,4,1460,525000,1,16778208,960000,189228,180540,65700,0,120184,0,3038096981,63
o,1734975710.235851,172.16.3.2,64460,172.16.1.2,5102,122437,123356,38,146432,65728,6,6,4,1460,525000,1,16778208,960000,189228,180540,65700,0,121632,0,3038096981,63
i,1734975710.237604,172.16.3.2,64460,172.16.1.2,5102,122437,123356,38,146432,65728,6,6,4,1460,525000,1,16778208,960000,189228,180540,65700,0,123080,0,3038096981,63
o,1734975710.237699,172.16.3.2,64460,172.16.1.2,5102,122437,123356,38,144960,65728,6,6,4,1460,515625,1,16778208,970000,189228,177644,65700,0,120184,0,3038096981,63
i,1734975710.238315,172.16.3.2,64460,172.16.1.2,5102,122437,123356,38,144960,65728,6,6,4,1460,515625,1,16778208,970000,189228,177644,65700,0,123080,0,3038096981,63
o,1734975710.238418,172.16.3.2,64460,172.16.1.2,5102,122437,123356,38,146432,65728,6,6,4,1460,507500,1,16778208,960000,189228,174748,65700,0,120184,0,3038096981,63
i,1734975710.238992,172.16.3.2,64460,172.16.1.2,5102,122437,123356,38,146432,65728,6,6,4,1460,507500,1,16778208,960000,189228,174748,65700,0,123080,0,3038096981,63
o,1734975710.239070,172.16.3.2,64460,172.16.1.2,5102,122437,123356,38,143552,65728,6,6,4,1460,500312,1,16778208,950000,189228,171852,65700,0,120184,0,3038096981,63
i,1734975710.239612,172.16.3.2,64460,172.16.1.2,5102,122437,123356,38,143552,65728,6,6,4,1460,500312,1,16778208,950000,189228,171852,65700,0,123080,0,3038096981,63
o,1734975710.239685,172.16.3.2,64460,172.16.1.2,5102,122437,123356,38,146432,65728,6,6,4,1460,494062,1,16778208,930000,189228,168956,65700,0,120184,0,3038096981,63
i,1734975710.240568,172.16.3.2,64460,172.16.1.2,5102,122437,123356,38,146432,65728,6,6,4,1460,494062,1,16778208,930000,189228,168956,65700,0,123080,0,3038096981,63
o,1734975710.240657,172.16.3.2,64460,172.16.1.2,5102,122437,123356,38,143552,65728,6,6,4,1460,488750,1,16778208,910000,189228,166060,65700,0,120184,0,3038096981,63
i,1734975710.244916,172.16.3.2,64460,172.16.1.2,5102,122437,123356,38,143552,65728,6,6,4,1460,488750,1,16778208,910000,189228,189228,65700,0,123080,0,3038096981,63
o,1734975710.244952,172.16.3.2,64460,172.16.1.2,5102,122437,123356,38,146432,65728,6,6,4,1460,485312,1,16778208,880000,189228,186332,65700,0,120184,0,3038096981,63
i,1734975710.245243,172.16.3.2,64460,172.16.1.2,5102,122437,123356,38,146432,65728,6,6,4,1460,485312,1,16778208,880000,189228,186332,65700,0,123080,0,3038096981,63
o,1734975710.245318,172.16.3.2,64460,172.16.1.2,5102,122437,123356,38,146432,65728,6,6,4,1460,479687,1,16778208,870000,189228,183436,65700,0,120184,0,3038096981,63
i,1734975710.245892,172.16.3.2,64460,172.16.1.2,5102,122437,123356,38,146432,65728,6,6,4,1460,479687,1,16778208,870000,189228,183436,65700,0,123080,0,3038096981,63
o,1734975710.245967,172.16.3.2,64460,172.16.1.2,5102,122437,123356,38,144960,65728,6,6,4,1460,475000,1,16778208,850000,189228,180540,65700,0,120184,0,3038096981,63
i,1734975710.254710,172.16.3.2,64460,172.16.1.2,5102,122437,123356,38,144960,65728,6,6,4,1460,475000,1,16778208,850000,189228,189228,65700,0,123080,0,3038096981,63
o,1734975710.254804,172.16.3.2,64460,172.16.1.2,5102,122437,123356,38,142080,65728,6,6,4,1460,471875,1,16778208,830000,189228,186332,65700,0,120184,0,3038096981,63
i,1734975710.255375,172.16.3.2,64460,172.16.1.2,5102,122437,123356,38,142080,65728,6,6,4,1460,471875,1,16778208,830000,189228,186332,65700,0,123080,0,3038096981,63
o,1734975710.255478,172.16.3.2,64460,172.16.1.2,5102,122437,123356,38,139200,65728,6,6,4,1460,469375,1,16778208,810000,189228,183436,65700,0,120184,0,3038096981,63
i,1734975710.256021,172.16.3.2,64460,172.16.1.2,5102,122437,123356,38,139200,65728,6,6,4,1460,469375,1,16778208,810000,189228,183436,65700,0,123080,0,3038096981,63
o,1734975710.256141,172.16.3.2,64460,172.16.1.2,5102,122437,123356,38,136320,65728,6,6,4,1460,467187,1,16778208,790000,189228,180540,65700,0,120184,0,3038096981,63
i,1734975710.256671,172.16.3.2,64460,172.16.1.2,5102,122437,123356,38,136320,65728,6,6,4,1460,467187,1,16778208,790000,189228,180540,65700,0,123080,0,3038096981,63
o,1734975710.256745,172.16.3.2,64460,172.16.1.2,5102,122437,123356,38,146432,65728,6,6,4,1460,465312,1,16778208,770000,189228,177644,65700,0,120184,0,3038096981,63
i,1734975710.258152,172.16.3.2,64460,172.16.1.2,5102,122437,123356,38,146432,65728,6,6,4,1460,465312,1,16778208,770000,189228,177644,65700,0,123080,0,3038096981,63
o,1734975710.258229,172.16.3.2,64460,172.16.1.2,5102,122437,123356,38,146432,65728,6,6,4,1460,463437,1,16778208,760000,189228,174748,65700,0,120184,0,3038096981,63
i,1734975710.299447,172.16.3.2,64460,172.16.1.2,5102,122437,123356,38,146432,65728,6,6,4,1460,463437,1,16778208,760000,189228,189228,65700,0,123080,0,3038096981,63
o,1734975710.299539,172.16.3.2,64460,172.16.1.2,5102,122437,124816,38,146432,65728,6,6,4,1460,466875,1,16778208,760000,189228,186332,65700,0,120184,0,3038096981,63
i,1734975710.436690,172.16.3.2,64460,172.16.1.2,5102,122437,124816,38,146432,65728,6,6,4,1460,466875,1,16778208,760000,189228,189228,65700,0,124528,0,3038096981,63
o,1734975710.436992,172.16.3.2,64460,172.16.1.2,5102,122437,124816,38,221760,65728,6,6,4,1460,467500,1,16778208,750000,197420,187780,65700,0,123080,0,3038096981,63
i,1734975710.449664,172.16.3.2,64460,172.16.1.2,5102,122437,124816,38,221760,65728,6,6,4,1460,467500,1,16778208,750000,254764,254764,65700,0,124528,0,3038096981,63
o,1734975710.449707,172.16.3.2,64460,172.16.1.2,5102,122437,124816,38,218880,65728,6,6,4,1460,457812,1,16778208,790000,254764,251868,65700,0,121632,0,3038096981,63
i,1734975710.450086,172.16.3.2,64460,172.16.1.2,5102,122437,124816,38,218880,65728,6,6,4,1460,457812,1,16778208,790000,254764,251868,65700,0,124528,0,3038096981,63
o,1734975710.450161,172.16.3.2,64460,172.16.1.2,5102,122437,124816,38,216000,65728,6,6,4,1460,446875,1,16778208,830000,254764,248972,65700,0,121632,0,3038096981,63
i,1734975710.481864,172.16.3.2,64460,172.16.1.2,5102,122437,124816,38,216000,65728,6,6,4,1460,446875,1,16778208,830000,262956,262956,65700,0,124528,0,3038096981,63
o,1734975710.481962,172.16.3.2,64460,172.16.1.2,5102,122437,124816,38,220352,65728,6,6,4,1460,437500,1,16778208,850000,262956,260060,65700,0,121632,0,3038096981,63
i,1734975710.485170,172.16.3.2,64460,172.16.1.2,5102,122437,124816,38,220352,65728,6,6,4,1460,437500,1,16778208,850000,262956,262956,65700,0,124528,0,3038096981,63
o,1734975710.485281,172.16.3.2,64460,172.16.1.2,5102,122437,124816,38,218880,65728,6,6,4,1460,427812,1,16778208,870000,262956,260060,65700,0,121632,0,3038096981,63
i,1734975710.486299,172.16.3.2,64460,172.16.1.2,5102,122437,124816,38,218880,65728,6,6,4,1460,427812,1,16778208,870000,262956,260060,65700,0,124528,0,3038096981,63
o,1734975710.486373,172.16.3.2,64460,172.16.1.2,5102,122437,124816,38,220352,65728,6,6,4,1460,419375,1,16778208,860000,262956,257164,65700,0,121632,0,3038096981,63
i,1734975710.486908,172.16.3.2,64460,172.16.1.2,5102,122437,124816,38,220352,65728,6,6,4,1460,419375,1,16778208,860000,262956,257164,65700,0,124528,0,3038096981,63
o,1734975710.486981,172.16.3.2,64460,172.16.1.2,5102,122437,124816,38,217472,65728,6,6,4,1460,412187,1,16778208,850000,262956,254268,65700,0,121632,0,3038096981,63
i,1734975710.487576,172.16.3.2,64460,172.16.1.2,5102,122437,124816,38,217472,65728,6,6,4,1460,412187,1,16778208,850000,262956,254268,65700,0,124528,0,3038096981,63
o,1734975710.487650,172.16.3.2,64460,172.16.1.2,5102,122437,124816,38,214592,65728,6,6,4,1460,403437,1,16778208,850000,262956,251372,65700,0,121632,0,3038096981,63
i,1734975710.488362,172.16.3.2,64460,172.16.1.2,5102,122437,124816,38,214592,65728,6,6,4,1460,403437,1,16778208,850000,262956,251372,65700,0,124528,0,3038096981,63
o,1734975710.488435,172.16.3.2,64460,172.16.1.2,5102,122437,124816,38,220352,65728,6,6,4,1460,394375,1,16778208,850000,262956,248476,65700,0,121632,0,3038096981,63
i,1734975710.489001,172.16.3.2,64460,172.16.1.2,5102,122437,124816,38,220352,65728,6,6,4,1460,394375,1,16778208,850000,271148,248476,65700,0,124528,0,3038096981,63
o,1734975710.489074,172.16.3.2,64460,172.16.1.2,5102,122437,124816,38,218880,65728,6,6,4,1460,385312,1,16778208,850000,279340,245580,65700,0,121632,0,3038096981,63
i,1734975710.489628,172.16.3.2,64460,172.16.1.2,5102,122437,124816,38,218880,65728,6,6,4,1460,385312,1,16778208,850000,279340,245580,65700,0,124528,0,3038096981,63
o,1734975710.489701,172.16.3.2,64460,172.16.1.2,5102,122437,124816,38,218880,65728,6,6,4,1460,377187,1,16778208,840000,279340,242684,65700,0,121632,0,3038096981,63
i,1734975710.490244,172.16.3.2,64460,172.16.1.2,5102,122437,124816,38,218880,65728,6,6,4,1460,377187,1,16778208,840000,279340,242684,65700,0,124528,0,3038096981,63
o,1734975710.490433,172.16.3.2,64460,172.16.1.2,5102,122437,124816,38,216000,65728,6,6,4,1460,370312,1,16778208,820000,279340,239788,65700,0,121632,0,3038096981,63
i,1734975710.491973,172.16.3.2,64460,172.16.1.2,5102,122437,124816,38,216000,65728,6,6,4,1460,370312,1,16778208,820000,279340,239788,65700,0,124528,0,3038096981,63
o,1734975710.492073,172.16.3.2,64460,172.16.1.2,5102,122437,124816,38,213120,65728,6,6,4,1460,366562,1,16778208,790000,279340,236892,65700,0,121632,0,3038096981,63
i,1734975710.492717,172.16.3.2,64460,172.16.1.2,5102,122437,124816,38,213120,65728,6,6,4,1460,366562,1,16778208,790000,279340,236892,65700,0,124528,0,3038096981,63
o,1734975710.492799,172.16.3.2,64460,172.16.1.2,5102,122437,124816,38,220352,65728,6,6,4,1460,362187,1,16778208,760000,279340,233996,65700,0,121632,0,3038096981,63
i,1734975710.493904,172.16.3.2,64460,172.16.1.2,5102,122437,124816,38,220352,65728,6,6,4,1460,362187,1,16778208,760000,279340,233996,65700,0,124528,0,3038096981,63
o,1734975710.493979,172.16.3.2,64460,172.16.1.2,5102,122437,124816,38,218880,65728,6,6,4,1460,358437,1,16778208,740000,279340,231100,65700,0,121632,0,3038096981,63
i,1734975710.568026,172.16.3.2,64460,172.16.1.2,5102,122437,124816,38,218880,65728,6,6,4,1460,358437,1,16778208,740000,279340,279340,65700,0,124528,0,3038096981,63
o,1734975710.568381,172.16.3.2,64460,172.16.1.2,5102,122437,124816,38,218880,65728,6,6,4,1460,363750,1,16778208,740000,279340,276444,65700,0,121632,0,3038096981,63
i,1734975710.569651,172.16.3.2,64460,172.16.1.2,5102,122437,124816,38,218880,65728,6,6,4,1460,363750,1,16778208,740000,279340,276444,65700,0,124528,0,3038096981,63
o,1734975710.569889,172.16.3.2,64460,172.16.1.2,5102,122437,124816,38,216000,65728,6,6,4,1460,368437,1,16778208,740000,279340,273548,65700,0,121632,0,3038096981,63
i,1734975710.571132,172.16.3.2,64460,172.16.1.2,5102,122437,124816,38,216000,65728,6,6,4,1460,368437,1,16778208,740000,279340,273548,65700,0,124528,0,3038096981,63
o,1734975710.571308,172.16.3.2,64460,172.16.1.2,5102,122437,124816,38,213120,65728,6,6,4,1460,372500,1,16778208,730000,279340,270652,65700,0,121632,0,3038096981,63
i,1734975710.572778,172.16.3.2,64460,172.16.1.2,5102,122437,124816,38,213120,65728,6,6,4,1460,372500,1,16778208,730000,279340,270652,65700,0,124528,0,3038096981,63
o,1734975710.572854,172.16.3.2,64460,172.16.1.2,5102,122437,124816,38,210240,65728,6,6,4,1460,377187,1,16778208,730000,279340,267756,65700,0,121632,0,3038096981,63
i,1734975710.573521,172.16.3.2,64460,172.16.1.2,5102,122437,124816,38,210240,65728,6,6,4,1460,377187,1,16778208,730000,279340,267756,65700,0,124528,0,3038096981,63
o,1734975710.573715,172.16.3.2,64460,172.16.1.2,5102,122437,124816,38,207360,65728,6,6,4,1460,381562,1,16778208,730000,279340,264860,65700,0,121632,0,3038096981,63
i,1734975710.574107,172.16.3.2,64460,172.16.1.2,5102,122437,124816,38,207360,65728,6,6,4,1460,381562,1,16778208,730000,279340,264860,65700,0,124528,0,3038096981,63
o,1734975710.574189,172.16.3.2,64460,172.16.1.2,5102,122437,124816,38,204480,65728,6,6,4,1460,385312,1,16778208,730000,279340,261964,65700,0,121632,0,3038096981,63
i,1734975710.574850,172.16.3.2,64460,172.16.1.2,5102,122437,124816,38,204480,65728,6,6,4,1460,385312,1,16778208,730000,279340,261964,65700,0,124528,0,3038096981,63
o,1734975710.574926,172.16.3.2,64460,172.16.1.2,5102,122437,124816,38,201600,65728,6,6,4,1460,388437,1,16778208,720000,279340,259068,65700,0,121632,0,3038096981,63
i,1734975710.575518,172.16.3.2,64460,172.16.1.2,5102,122437,124816,38,201600,65728,6,6,4,1460,388437,1,16778208,720000,279340,259068,65700,0,124528,0,3038096981,63
o,1734975710.575596,172.16.3.2,64460,172.16.1.2,5102,122437,124816,38,218880,65728,6,6,4,1460,390000,1,16778208,700000,279340,256172,65700,0,121632,0,3038096981,63
i,1734975710.576155,172.16.3.2,64460,172.16.1.2,5102,122437,124816,38,218880,65728,6,6,4,1460,390000,1,16778208,700000,279340,256172,65700,0,124528,0,3038096981,63
o,1734975710.576229,172.16.3.2,64460,172.16.1.2,5102,122437,124816,38,216000,65728,6,6,4,1460,391250,1,16778208,690000,279340,253276,65700,0,121632,0,3038096981,63
i,1734975710.576817,172.16.3.2,64460,172.16.1.2,5102,122437,124816,38,216000,65728,6,6,4,1460,391250,1,16778208,690000,279340,253276,65700,0,124528,0,3038096981,63
o,1734975710.576891,172.16.3.2,64460,172.16.1.2,5102,122437,124816,38,213120,65728,6,6,4,1460,392500,1,16778208,670000,279340,250380,65700,0,121632,0,3038096981,63
i,1734975710.577420,172.16.3.2,64460,172.16.1.2,5102,122437,124816,38,213120,65728,6,6,4,1460,392500,1,16778208,670000,279340,250380,65700,0,124528,0,3038096981,63
o,1734975710.577787,172.16.3.2,64460,172.16.1.2,5102,122437,124816,38,210240,65728,6,6,4,1460,387187,1,16778208,690000,279340,247484,65700,0,121632,0,3038096981,63
i,1734975710.578141,172.16.3.2,64460,172.16.1.2,5102,122437,124816,38,210240,65728,6,6,4,1460,387187,1,16778208,690000,279340,247484,65700,0,124528,0,3038096981,63
o,1734975710.578175,172.16.3.2,64460,172.16.1.2,5102,122437,124816,38,207360,65728,6,6,4,1460,382812,1,16778208,700000,279340,244588,65700,0,121632,0,3038096981,63
i,1734975710.583537,172.16.3.2,64460,172.16.1.2,5102,122437,124816,38,207360,65728,6,6,4,1460,382812,1,16778208,700000,279340,279340,65700,0,124528,0,3038096981,63
o,1734975710.583626,172.16.3.2,64460,172.16.1.2,5102,122437,124816,38,204480,65728,6,6,4,1460,380000,1,16778208,690000,279340,276444,65700,0,121632,0,3038096981,63
i,1734975710.584168,172.16.3.2,64460,172.16.1.2,5102,122437,124816,38,204480,65728,6,6,4,1460,380000,1,16778208,690000,279340,276444,65700,0,124528,0,3038096981,63
o,1734975710.584244,172.16.3.2,64460,172.16.1.2,5102,122437,124816,38,201600,65728,6,6,4,1460,375000,1,16778208,700000,279340,273548,65700,0,121632,0,3038096981,63
o,1734975710.584719,172.16.3.2,64460,172.16.1.2,5102,122437,124816,38,201600,65728,6,6,4,1460,375000,1,16778208,700000,279340,273548,65700,0,123080,0,3038096981,63
i,1734975710.585323,172.16.3.2,64460,172.16.1.2,5102,122437,124816,38,201600,65728,6,6,4,1460,375000,1,16778208,700000,279340,273548,65700,0,124528,0,3038096981,63
o,1734975710.585444,172.16.3.2,64460,172.16.1.2,5102,122437,124816,38,198720,65728,6,6,4,1460,370625,1,16778208,700000,279340,270652,65700,0,121632,0,3038096981,63
i,1734975710.586148,172.16.3.2,64460,172.16.1.2,5102,122437,124816,38,198720,65728,6,6,4,1460,370625,1,16778208,700000,279340,270652,65700,0,124528,0,3038096981,63
o,1734975710.586226,172.16.3.2,64460,172.16.1.2,5102,122437,124816,38,195840,65728,6,6,4,1460,366875,1,16778208,690000,279340,267756,65700,0,121632,0,3038096981,63
i,1734975710.680660,172.16.3.2,64460,172.16.1.2,5102,122437,124816,38,195840,65728,6,6,4,1460,366875,1,16778208,690000,279340,279340,65700,0,124528,0,3038096981,63
