enable_time_secs=1734975890	enable_time_usecs=548431	siftrver=1.3.0	sysname=FreeBSD	sysver=1401000	ipmode=4
o,1734975890.549630,10.0.2.15,22,192.168.56.1,54676,1073725440,18998,1026,65535,65700,0,0,4,1460,312,0,16777220,230000,33580,60,65700,0,0,0,2849625269,63
o,1734975890.551024,10.0.2.15,22,192.168.56.1,54676,1073725440,18998,1026,65535,65700,0,0,4,1460,312,0,16777220,230000,33580,208,65700,0,60,0,2849625269,63
o,1734975890.552445,10.0.2.15,22,192.168.56.1,54676,1073725440,18998,1026,65535,65700,0,0,4,1460,312,0,16777220,230000,33580,280,65700,0,208,0,2849625269,63
i,1734975890.554287,10.0.2.15,22,192.168.56.1,54676,1073725440,18998,1026,65535,65700,0,0,4,1460,312,0,16777220,230000,33580,280,65700,0,280,0,2849625269,63
i,1734975890.554366,10.0.2.15,22,192.168.56.1,54676,1073725440,19058,1026,65535,65700,0,0,4,1460,312,0,4,230000,33580,220,65700,0,220,0,2849625269,63
i,1734975890.554435,10.0.2.15,22,192.168.56.1,54676,1073725440,19206,1026,65535,65700,0,0,4,1460,312,0,4,230000,33580,72,65700,0,72,0,2849625269,63
i,1734975890.556940,10.0.2.15,22,192.168.56.1,54676,1073725440,19278,1026,65535,65700,0,0,4,1460,312,0,4,230000,33580,0,65700,0,0,0,2849625269,63
o,1734975890.558365,10.0.2.15,22,192.168.56.1,54676,1073725440,19278,1026,65535,65700,0,0,6,1460,312,0,4,230000,33580,0,65700,0,0,0,2849625269,63
i,1734975890.562828,10.0.2.15,22,192.168.56.1,54676,1073725440,19278,1026,65535,65700,0,0,6,1460,312,0,67108884,230000,33580,0,65700,0,1,0,2849625269,63
i,1734975893.450976,10.0.2.15,22,192.168.56.1,54682,1073725440,19463,1026,65535,65700,0,0,9,1460,312,0,67108884,240000,33580,0,65700,0,0,0,2239725140,63
i,1734975893.453641,10.0.2.15,22,192.168.56.1,54682,1073725440,19463,1026,65535,65700,0,0,9,1460,312,0,67108884,240000,33580,0,65700,0,0,0,2239725140,63
i,1734975899.460276,10.0.2.15,22,192.168.56.1,54682,1073725440,14600,0,65535,65700,0,0,4,1460,312,0,16777216,270000,33580,0,65700,0,0,0,2239725140,63
o,1734975899.493277,10.0.2.15,22,192.168.56.1,54682,1073725440,14600,2,65535,65700,0,0,4,1460,312,0,16777217,270000,33580,0,65700,42,0,0,2239725140,63
o,1734975899.494874,10.0.2.15,22,192.168.56.1,54682,1073725440,14600,1026,65535,65700,0,0,4,1460,312,0,16777216,270000,33580,38,65700,42,0,0,2239725140,63
i,1734975899.501797,10.0.2.15,22,192.168.56.1,54682,1073725440,14600,1026,65535,65700,0,0,4,1460,312,0,16777216,270000,33580,38,65700,0,38,0,2239725140,63
i,1734975899.501887,10.0.2.15,22,192.168.56.1,54682,1073725440,14638,1026,65535,65700,0,0,4,1460,312,0,0,230000,33580,0,65700,0,0,0,2239725140,63
i,1734975899.501958,10.0.2.15,22,192.168.56.1,54682,1073725440,14638,1026,65535,65700,0,0,4,1460,312,0,0,230000,33580,0,65700,1460,0,0,2239725140,63
o,1734975899.502035,10.0.2.15,22,192.168.56.1,54682,1073725440,14638,1026,65535,65700,0,0,4,1460,312,0,1,230000,33580,0,65700,1536,0,0,2239725140,63
o,1734975899.503114,10.0.2.15,22,192.168.56.1,54682,1073725440,14638,1026,65535,65700,0,0,4,1460,312,0,16777216,230000,33580,1120,65700,1536,0,0,2239725140,63
i,1734975899.506064,10.0.2.15,22,192.168.56.1,54682,1073725440,14638,1026,65535,65700,0,0,4,1460,312,0,16777216,230000,33580,1120,65700,0,1120,0,2239725140,63
i,1734975899.538799,10.0.2.15,22,192.168.56.1,54682,1073725440,15758,1026,65535,65700,0,0,4,1460,312,0,0,230000,33580,0,65700,0,0,0,2239725140,63
o,1734975899.570097,10.0.2.15,22,192.168.56.1,54682,1073725440,15758,1030,65535,65700,0,0,4,1460,312,0,16777216,230000,33580,1532,65700,0,0,0,2239725140,63
o,1734975899.574928,10.0.2.15,22,192.168.56.1,54682,1073725440,15758,1026,65535,65700,0,0,4,1460,312,0,16777216,230000,33580,1532,65700,0,1460,0,2239725140,63
i,1734975899.577560,10.0.2.15,22,192.168.56.1,54682,1073725440,15758,1026,65535,65700,0,0,4,1460,312,0,16777216,230000,33580,1532,65700,0,1532,0,2239725140,63
i,1734975899.577640,10.0.2.15,22,192.168.56.1,54682,1073725440,17218,1026,65535,65700,0,0,4,1460,312,0,0,230000,33580,72,65700,0,72,0,2239725140,63
i,1734975899.592216,10.0.2.15,22,192.168.56.1,54682,1073725440,17290,1026,65535,65700,0,0,4,1460,312,0,0,230000,33580,0,65700,0,0,0,2239725140,63
o,1734975899.592664,10.0.2.15,22,192.168.56.1,54682,1073725440,17290,1026,65535,65700,0,0,4,1460,312,0,16777216,230000,33580,44,65700,0,0,0,2239725140,63
i,1734975899.596701,10.0.2.15,22,192.168.56.1,54682,1073725440,17290,1026,65535,65700,0,0,4,1460,312,0,16777216,230000,33580,44,65700,0,44,0,2239725140,63
o,1734975899.601042,10.0.2.15,22,192.168.56.1,54682,1073725440,17334,1026,65535,65700,0,0,4,1460,312,0,16777216,230000,33580,280,65700,0,0,0,2239725140,63
i,1734975899.604845,10.0.2.15,22,192.168.56.1,54682,1073725440,17334,1026,65535,65700,0,0,4,1460,312,0,16777216,230000,33580,280,65700,0,280,0,2239725140,63
o,1734975899.609192,10.0.2.15,22,192.168.56.1,54682,1073725440,17614,1026,65535,65700,0,0,4,1460,312,0,16777216,240000,33580,332,65700,0,0,0,2239725140,63
i,1734975899.614143,10.0.2.15,22,192.168.56.1,54682,1073725440,17614,1026,65535,65700,0,0,4,1460,312,0,16777216,240000,33580,332,65700,0,332,0,2239725140,63
i,1734975899.614224,10.0.2.15,22,192.168.56.1,54682,1073725440,17946,1026,65535,65700,0,0,4,1460,312,0,0,230000,33580,0,65700,0,0,0,2239725140,63
o,1734975899.629141,10.0.2.15,22,192.168.56.1,54682,1073725440,17946,1026,65535,65700,0,0,4,1460,312,0,16777216,230000,33580,28,65700,0,0,0,2239725140,63
i,1734975899.634588,10.0.2.15,22,192.168.56.1,54682,1073725440,17946,1026,65535,65700,0,0,4,1460,312,0,16777216,230000,33580,28,65700,0,28,0,2239725140,63
i,1734975899.634698,10.0.2.15,22,192.168.56.1,54682,1073725440,17974,1026,65535,65700,0,0,4,1460,312,0,0,230000,33580,0,65700,0,0,0,2239725140,63
o,1734975899.636120,10.0.2.15,22,192.168.56.1,54682,1073725440,17974,1026,65535,65700,0,0,4,1460,312,0,16777216,230000,33580,768,65700,112,0,0,2239725140,63
i,1734975899.641858,10.0.2.15,22,192.168.56.1,54682,1073725440,17974,1026,65535,65700,0,0,4,1460,312,0,16777216,230000,33580,952,65700,0,768,0,2239725140,63
o,1734975899.641940,10.0.2.15,22,192.168.56.1,54682,1073725440,18742,1026,65535,65700,0,0,4,1460,312,0,16777216,230000,33580,184,65700,0,0,0,2239725140,63
i,1734975899.645867,10.0.2.15,22,192.168.56.1,54682,1073725440,18742,1026,65535,65700,0,0,4,1460,312,0,16777216,230000,33580,184,65700,0,184,0,2239725140,63
i,1734975899.645974,10.0.2.15,22,192.168.56.1,54682,1073725440,18926,1026,65535,65700,0,0,4,1460,312,0,0,230000,33580,0,65700,0,0,0,2239725140,63
o,1734975899.648447,10.0.2.15,22,192.168.56.1,54682,1073725440,18926,1026,65535,65700,0,0,4,1460,312,0,16777220,230000,33580,72,65700,0,0,0,2239725140,63
i,1734975899.653385,10.0.2.15,22,192.168.56.1,54682,1073725440,18926,1026,65535,65700,0,0,4,1460,312,0,16777220,230000,33580,72,65700,0,72,0,2239725140,63
o,1734975899.655333,10.0.2.15,22,192.168.56.1,54682,1073725440,18998,1026,65535,65700,0,0,4,1460,312,0,16777220,230000,33580,104,65700,0,0,0,2239725140,63
i,1734975899.657855,10.0.2.15,22,192.168.56.1,54682,1073725440,18998,1026,65535,65700,0,0,4,1460,312,0,16777220,230000,33580,104,65700,0,104,0,2239725140,63
o,1734975899.674517,10.0.2.15,22,192.168.56.1,54682,1073725440,19102,1026,65535,65700,0,0,4,1460,312,0,16777220,230000,33580,72,65700,0,0,0,2239725140,63
i,1734975899.678852,10.0.2.15,22,192.168.56.1,54682,1073725440,19102,1026,65535,65700,0,0,4,1460,312,0,16777220,230000,33580,72,65700,0,72,0,2239725140,63
i,1734975899.678935,10.0.2.15,22,192.168.56.1,54682,1073725440,19174,1026,65535,65700,0,0,4,1460,312,0,4,230000,33580,0,65700,0,0,0,2239725140,63
o,1734975899.687253,10.0.2.15,22,192.168.56.1,54682,1073725440,19174,1026,65535,65700,0,0,6,1460,312,0,4,230000,33580,0,65700,0,0,0,2239725140,63
i,1734975899.688980,10.0.2.15,22,192.168.56.1,54682,1073725440,19174,1026,65535,65700,0,0,6,1460,312,0,67108884,230000,33580,0,65700,0,1,0,2239725140,63
i,1734975908.188111,10.0.2.15,22,192.168.56.1,54702,1073725440,19283,1026,65535,65700,0,0,9,1460,312,0,67108884,230000,33580,0,65700,0,0,0,840474081,63
i,1734975908.192313,10.0.2.15,22,192.168.56.1,54702,1073725440,19283,1026,65535,65700,0,0,9,1460,312,0,67108884,230000,33580,0,65700,0,0,0,840474081,63
i,1734975908.192432,10.0.2.15,22,192.168.56.1,54708,1073725440,14600,0,65535,65700,0,0,4,1460,312,0,16777216,270000,33580,0,65700,0,0,0,1557617291,63
o,1734975908.228807,10.0.2.15,22,192.168.56.1,54708,1073725440,14600,1026,65535,65700,0,0,4,1460,312,0,16777216,270000,33580,38,65700,42,0,0,1557617291,63
i,1734975908.233318,10.0.2.15,22,192.168.56.1,54708,1073725440,14600,1026,65535,65700,0,0,4,1460,312,0,16777216,270000,33580,38,65700,0,38,0,1557617291,63
i,1734975908.233402,10.0.2.15,22,192.168.56.1,54708,1073725440,14638,1026,65535,65700,0,0,4,1460,312,0,0,230000,33580,0,65700,1460,0,0,1557617291,63
o,1734975908.233661,10.0.2.15,22,192.168.56.1,54708,1073725440,14638,1026,65535,65700,0,0,4,1460,312,0,16777216,230000,33580,1120,65700,1460,0,0,1557617291,63
i,1734975908.239935,10.0.2.15,22,192.168.56.1,54708,1073725440,14638,1026,65535,65700,0,0,4,1460,312,0,16777216,230000,33580,1120,65700,0,1120,0,1557617291,63
i,1734975908.270448,10.0.2.15,22,192.168.56.1,54708,1073725440,15758,1026,65535,65700,0,0,4,1460,312,0,0,230000,33580,0,65700,0,0,0,1557617291,63
o,1734975908.270547,10.0.2.15,22,192.168.56.1,54708,1073725440,15758,1026,65535,65700,0,0,4,1460,312,0,1,230000,33580,0,65700,1208,0,0,1557617291,63
o,1734975908.298543,10.0.2.15,22,192.168.56.1,54708,1073725440,15758,1030,65535,65700,0,0,4,1460,312,0,16777216,230000,33580,1532,65700,0,0,0,1557617291,63
o,1734975908.301402,10.0.2.15,22,192.168.56.1,54708,1073725440,15758,1026,65535,65700,0,0,4,1460,312,0,16777216,230000,33580,1532,65700,0,1460,0,1557617291,63
i,1734975908.304862,10.0.2.15,22,192.168.56.1,54708,1073725440,15758,1026,65535,65700,0,0,4,1460,312,0,16777216,230000,33580,1532,65700,0,1532,0,1557617291,63
i,1734975908.304940,10.0.2.15,22,192.168.56.1,54708,1073725440,17218,1026,65535,65700,0,0,4,1460,312,0,0,230000,33580,72,65700,0,72,0,1557617291,63
i,1734975908.319030,10.0.2.15,22,192.168.56.1,54708,1073725440,17290,1026,65535,65700,0,0,4,1460,312,0,0,230000,33580,0,65700,0,0,0,1557617291,63
o,1734975908.319678,10.0.2.15,22,192.168.56.1,54708,1073725440,17290,1026,65535,65700,0,0,4,1460,312,0,16777216,230000,33580,44,65700,0,0,0,1557617291,63
i,1734975908.324301,10.0.2.15,22,192.168.56.1,54708,1073725440,17290,1026,65535,65700,0,0,4,1460,312,0,16777216,230000,33580,44,65700,0,44,0,1557617291,63
o,1734975908.328788,10.0.2.15,22,192.168.56.1,54708,1073725440,17334,1026,65535,65700,0,0,4,1460,312,0,16777216,230000,33580,280,65700,0,0,0,1557617291,63
i,1734975908.332679,10.0.2.15,22,192.168.56.1,54708,1073725440,17334,1026,65535,65700,0,0,4,1460,312,0,16777216,230000,33580,280,65700,0,280,0,1557617291,63
o,1734975908.335407,10.0.2.15,22,192.168.56.1,54708,1073725440,17614,1026,65535,65700,0,0,4,1460,312,0,16777216,230000,33580,332,65700,0,0,0,1557617291,63
i,1734975908.340464,10.0.2.15,22,192.168.56.1,54708,1073725440,17614,1026,65535,65700,0,0,4,1460,312,0,16777216,230000,33580,332,65700,0,332,0,1557617291,63
i,1734975908.340496,10.0.2.15,22,192.168.56.1,54708,1073725440,17946,1026,65535,65700,0,0,4,1460,312,0,0,230000,33580,0,65700,0,0,0,1557617291,63
o,1734975908.365855,10.0.2.15,22,192.168.56.1,54708,1073725440,17946,1026,65535,65700,0,0,4,1460,312,0,16777216,230000,33580,28,65700,0,0,0,1557617291,63
i,1734975908.369608,10.0.2.15,22,192.168.56.1,54708,1073725440,17946,1026,65535,65700,0,0,4,1460,312,0,16777216,230000,33580,28,65700,0,28,0,1557617291,63
i,1734975908.369685,10.0.2.15,22,192.168.56.1,54708,1073725440,17974,1026,65535,65700,0,0,4,1460,312,0,0,230000,33580,0,65700,0,0,0,1557617291,63
o,1734975908.371193,10.0.2.15,22,192.168.56.1,54708,1073725440,17974,1026,65535,65700,0,0,4,1460,312,0,16777216,230000,33580,768,65700,112,0,0,1557617291,63
i,1734975908.376482,10.0.2.15,22,192.168.56.1,54708,1073725440,17974,1026,65535,65700,0,0,4,1460,312,0,16777216,230000,33580,952,65700,0,768,0,1557617291,63
o,1734975908.376560,10.0.2.15,22,192.168.56.1,54708,1073725440,18742,1026,65535,65700,0,0,4,1460,312,0,16777216,230000,33580,184,65700,0,0,0,1557617291,63
i,1734975908.379774,10.0.2.15,22,192.168.56.1,54708,1073725440,18742,1026,65535,65700,0,0,4,1460,312,0,16777216,230000,33580,184,65700,0,184,0,1557617291,63
i,1734975908.379850,10.0.2.15,22,192.168.56.1,54708,1073725440,18926,1026,65535,65700,0,0,4,1460,312,0,0,230000,33580,0,65700,0,0,0,1557617291,63
o,1734975908.381501,10.0.2.15,22,192.168.56.1,54708,1073725440,18926,1026,65535,65700,0,0,4,1460,312,0,16777220,230000,33580,72,65700,0,0,0,1557617291,63
i,1734975908.385096,10.0.2.15,22,192.168.56.1,54708,1073725440,18926,1026,65535,65700,0,0,4,1460,312,0,16777220,230000,33580,72,65700,0,72,0,1557617291,63
o,1734975908.463330,10.0.2.15,22,192.168.56.1,54708,1073725440,18998,1026,65535,65700,0,0,4,1460,312,0,5,240000,33580,0,65700,0,0,0,1557617291,63
o,1734975908.523195,172.16.3.2,12028,172.16.1.2,5101,68718,14480,34,65535,65700,6,6,4,1460,648750,1,16778209,2480000,33580,0,65700,0,0,0,3061312214,63
o,1734975908.524662,172.16.3.2,12028,172.16.1.2,5101,68718,14480,34,65535,65700,6,6,4,1460,648750,1,16778212,2480000,33580,37,65700,0,0,0,3061312214,63
i,1734975908.672101,172.16.3.2,12028,172.16.1.2,5101,68718,14480,34,65535,65700,6,6,4,1460,648750,1,16778212,2480000,33580,37,65700,0,37,0,3061312214,63
o,1734975908.672466,172.16.3.2,12028,172.16.1.2,5101,68718,14517,1058,65728,65728,6,6,4,1460,585312,1,16778212,2520000,33580,4,65700,0,0,0,3061312214,63
o,1734975908.674328,172.16.3.2,12028,172.16.1.2,5101,68718,14517,1058,65728,65728,6,6,4,1460,585312,1,16778212,2520000,33580,151,65700,0,4,0,3061312214,63
i,1734975908.838211,172.16.3.2,12028,172.16.1.2,5101,68718,14517,1058,65728,65728,6,6,4,1460,585312,1,16778212,2520000,33580,151,65700,0,151,0,3061312214,63
i,1734975908.838356,172.16.3.2,12028,172.16.1.2,5101,68718,14668,1058,65600,65728,6,6,4,1460,532187,1,996,2460000,33580,0,65700,0,0,0,3061312214,63
o,1734975908.873806,172.16.3.2,12028,172.16.1.2,5101,68718,14668,1058,65728,65728,6,6,4,1460,532187,1,997,2460000,33580,0,65700,0,0,0,3061312214,63
o,1734975908.979283,172.16.3.2,35549,172.16.1.2,5101,68718,14480,34,65535,65700,6,6,4,1460,650000,1,16778209,2480000,33580,0,65700,0,0,0,3496126569,63
o,1734975908.979803,172.16.3.2,35549,172.16.1.2,5101,68718,14480,34,65535,65700,6,6,4,1460,650000,1,16778208,2480000,33580,37,65700,0,0,0,3496126569,63
i,1734975909.129179,172.16.3.2,12028,172.16.1.2,5101,68718,14668,1058,65728,65728,6,6,4,1460,532187,1,996,2460000,33580,0,65700,0,0,0,3061312214,63
i,1734975909.129539,172.16.3.2,12028,172.16.1.2,5101,68718,14668,1058,65728,65728,6,6,4,1460,532187,1,996,2460000,33580,0,65700,1,0,0,3061312214,63
o,1734975909.129706,172.16.3.2,12028,172.16.1.2,5101,68718,14668,1058,65728,65728,6,6,4,1460,532187,1,997,2460000,33580,0,65700,2,0,0,3061312214,63
o,1734975909.131640,172.16.3.2,35549,172.16.1.2,5101,68718,14480,38,65535,65700,6,6,4,1460,650000,1,16778208,2480000,33580,33580,65700,0,37,0,3496126569,63
i,1734975909.140194,172.16.3.2,35549,172.16.1.2,5101,68718,14480,38,65535,65700,6,6,4,1460,650000,1,16778208,2480000,33580,33580,65700,0,13069,0,3496126569,63
o,1734975909.140237,172.16.3.2,35549,172.16.1.2,5101,68718,14517,38,65728,65728,6,6,4,1460,587500,1,16778208,2510000,33580,33543,65700,0,13032,0,3496126569,63
i,1734975909.429276,172.16.3.2,35549,172.16.1.2,5101,68718,14517,38,65728,65728,6,6,4,1460,587500,1,16778208,2510000,33580,33543,65700,0,14480,0,3496126569,63
o,1734975909.429507,172.16.3.2,35549,172.16.1.2,5101,68718,17413,38,62848,65728,6,6,4,1460,550312,1,16778208,2340000,33580,30647,65700,0,11584,0,3496126569,63
i,1734975909.430142,172.16.3.2,35549,172.16.1.2,5101,68718,17413,38,62848,65728,6,6,4,1460,550312,1,16778208,2340000,41772,30647,65700,0,17376,0,3496126569,63
o,1734975909.430224,172.16.3.2,35549,172.16.1.2,5101,68718,20309,38,64256,65728,6,6,4,1460,517812,1,16778208,2170000,41772,27751,65700,0,14480,0,3496126569,63
i,1734975909.439117,172.16.3.2,35549,172.16.1.2,5101,68718,20309,38,64256,65728,6,6,4,1460,517812,1,16778208,2170000,41772,41772,65700,0,20272,0,3496126569,63
o,1734975909.439385,172.16.3.2,35549,172.16.1.2,5101,68718,23205,38,61376,65728,6,6,4,1460,490625,1,16778208,1990000,49964,38876,65700,0,17376,0,3496126569,63
i,1734975909.439975,172.16.3.2,35549,172.16.1.2,5101,68718,23205,38,61376,65728,6,6,4,1460,490625,1,16778208,1990000,49964,38876,65700,0,23168,0,3496126569,63
o,1734975909.440050,172.16.3.2,35549,172.16.1.2,5101,68718,26101,38,58496,65728,6,6,4,1460,466875,1,16778208,1830000,49964,35980,65700,0,20272,0,3496126569,63
i,1734975909.440601,172.16.3.2,35549,172.16.1.2,5101,68718,26101,38,58496,65728,6,6,4,1460,466875,1,16778208,1830000,49964,35980,65700,0,26064,0,3496126569,63
o,1734975909.440675,172.16.3.2,35549,172.16.1.2,5101,68718,28997,38,64256,65728,6,6,4,1460,446250,1,16778208,1690000,49964,33084,65700,0,23168,0,3496126569,63
o,1734975909.441165,172.16.3.2,35549,172.16.1.2,5101,68718,28997,38,64256,65728,6,6,4,1460,446250,1,16778208,1690000,49964,33084,65700,0,24616,0,3496126569,63
i,1734975909.662663,172.16.3.2,35549,172.16.1.2,5101,68718,28997,38,64256,65728,6,6,4,1460,446250,1,16778208,1690000,58156,58156,65700,0,28960,0,3496126569,63
o,1734975909.662777,172.16.3.2,35549,172.16.1.2,5101,68718,31893,38,62848,65728,6,6,4,1460,419375,1,16778208,1610000,66348,55260,65700,0,26064,0,3496126569,63
i,1734975909.663420,172.16.3.2,35549,172.16.1.2,5101,68718,31893,38,62848,65728,6,6,4,1460,419375,1,16778208,1610000,66348,55260,65700,0,31856,0,3496126569,63
o,1734975909.663502,172.16.3.2,35549,172.16.1.2,5101,68718,34789,38,64256,65728,6,6,4,1460,395937,1,16778208,1530000,66348,52364,65700,0,28960,0,3496126569,63
i,1734975909.664059,172.16.3.2,35549,172.16.1.2,5101,68718,34789,38,64256,65728,6,6,4,1460,395937,1,16778208,1530000,66348,52364,65700,0,34752,0,3496126569,63
o,1734975909.664137,172.16.3.2,35549,172.16.1.2,5101,68718,36237,38,65728,65728,6,6,4,1460,375312,1,16778208,1440000,66348,50916,65700,0,33304,0,3496126569,63
i,1734975909.679287,172.16.3.2,35549,172.16.1.2,5101,68718,36237,38,65728,65728,6,6,4,1460,375312,1,16778208,1440000,74540,74540,65700,0,36200,0,3496126569,63
o,1734975909.679384,172.16.3.2,35549,172.16.1.2,5101,68718,39133,38,64256,65728,6,6,4,1460,359687,1,16778208,1330000,82732,71644,65700,0,33304,0,3496126569,63
i,1734975909.680072,172.16.3.2,35549,172.16.1.2,5101,68718,39133,38,64256,65728,6,6,4,1460,359687,1,16778208,1330000,82732,71644,65700,0,39096,0,3496126569,63
o,1734975909.680149,172.16.3.2,35549,172.16.1.2,5101,68718,42029,38,64256,65728,6,6,4,1460,346250,1,16778208,1230000,82732,68748,65700,0,36200,0,3496126569,63
i,1734975909.683057,172.16.3.2,35549,172.16.1.2,5101,68718,42029,38,64256,65728,6,6,4,1460,346250,1,16778208,1230000,82732,68748,65700,0,41992,0,3496126569,63
o,1734975909.683226,172.16.3.2,35549,172.16.1.2,5101,68718,44925,38,61376,65728,6,6,4,1460,334375,1,16778208,1140000,82732,65852,65700,0,39096,0,3496126569,63
i,1734975909.684265,172.16.3.2,35549,172.16.1.2,5101,68718,44925,38,61376,65728,6,6,4,1460,334375,1,16778208,1140000,82732,65852,65700,0,44888,0,3496126569,63
o,1734975909.684377,172.16.3.2,35549,172.16.1.2,5101,68718,47821,38,62848,65728,6,6,4,1460,324062,1,16778208,1060000,82732,62956,65700,0,41992,0,3496126569,63
i,1734975909.685047,172.16.3.2,35549,172.16.1.2,5101,68718,47821,38,62848,65728,6,6,4,1460,324062,1,16778208,1060000,82732,62956,65700,0,47784,0,3496126569,63
o,1734975909.685151,172.16.3.2,35549,172.16.1.2,5101,68718,50717,38,59968,65728,6,6,4,1460,315000,1,16778208,990000,82732,60060,65700,0,44888,0,3496126569,63
i,1734975909.686010,172.16.3.2,35549,172.16.1.2,5101,68718,50717,38,59968,65728,6,6,4,1460,315000,1,16778208,990000,82732,60060,65700,0,50680,0,3496126569,63
o,1734975909.686059,172.16.3.2,35549,172.16.1.2,5101,68718,53613,38,62848,65728,6,6,4,1460,306875,1,16778208,930000,82732,57164,65700,0,47784,0,3496126569,63
o,1734975909.686284,172.16.3.2,35549,172.16.1.2,5101,68718,53613,38,62848,65728,6,6,4,1460,306875,1,16778208,930000,82732,57164,65700,0,49232,0,3496126569,63
i,1734975909.686549,172.16.3.2,35549,172.16.1.2,5101,68718,53613,38,62848,65728,6,6,4,1460,306875,1,16778208,930000,82732,57164,65700,0,53576,0,3496126569,63
o,1734975909.686611,172.16.3.2,35549,172.16.1.2,5101,68718,56509,38,59968,65728,6,6,4,1460,300000,1,16778208,870000,82732,54268,65700,0,50680,0,3496126569,63
i,1734975909.687267,172.16.3.2,35549,172.16.1.2,5101,68718,56509,38,59968,65728,6,6,4,1460,300000,1,16778208,870000,82732,54268,65700,0,54268,0,3496126569,63
o,1734975909.687792,172.16.3.2,35549,172.16.1.2,5101,68718,57957,38,65728,65728,6,6,4,1460,293750,1,16778208,820000,82732,75492,65700,0,52820,0,3496126569,63
i,1734975910.093204,172.16.3.2,35549,172.16.1.2,5101,68718,57957,38,65728,65728,6,6,4,1460,293750,1,16778208,820000,82732,82732,65700,0,57164,0,3496126569,63
o,1734975910.093325,172.16.3.2,35549,172.16.1.2,5101,68718,59405,38,98560,65728,6,6,4,1460,310937,1,16778208,900000,90924,81284,65700,0,55716,0,3496126569,63
i,1734975910.115426,172.16.3.2,35549,172.16.1.2,5101,68718,59405,38,98560,65728,6,6,4,1460,310937,1,16778208,900000,123692,123692,65700,0,58612,0,3496126569,63
o,1734975910.117952,172.16.3.2,35549,172.16.1.2,5101,68718,62301,38,97152,65728,6,6,4,1460,328437,1,16778208,960000,123692,120796,65700,0,55716,0,3496126569,63
i,1734975910.121016,172.16.3.2,35549,172.16.1.2,5101,68718,62301,38,97152,65728,6,6,4,1460,328437,1,16778208,960000,123692,120796,65700,0,61508,0,3496126569,63
o,1734975910.121100,172.16.3.2,35549,172.16.1.2,5101,68718,65197,38,97152,65728,6,6,4,1460,343750,1,16778208,990000,123692,117900,65700,0,58612,0,3496126569,63
i,1734975910.122280,172.16.3.2,35549,172.16.1.2,5101,68718,65197,38,97152,65728,6,6,4,1460,343750,1,16778208,990000,123692,117900,65700,0,64404,0,3496126569,63
o,1734975910.122356,172.16.3.2,35549,172.16.1.2,5101,68718,68093,38,95680,65728,6,6,4,1460,358437,1,16778208,1010000,123692,115004,65700,0,61508,0,3496126569,63
i,1734975910.123086,172.16.3.2,35549,172.16.1.2,5101,68718,68093,38,95680,65728,6,6,4,1460,358437,1,16778208,1010000,123692,115004,65700,0,67300,0,3496126569,63
o,1734975910.123161,172.16.3.2,35549,172.16.1.2,5101,68718,70989,38,95680,65728,6,6,4,1460,371250,1,16778208,1010000,123692,112108,65700,0,64404,0,3496126569,63
i,1734975910.124223,172.16.3.2,35549,172.16.1.2,5101,68718,70989,38,95680,65728,6,6,4,1460,371250,1,16778208,1010000,123692,112108,65700,0,70196,0,3496126569,63
o,1734975910.124303,172.16.3.2,35549,172.16.1.2,5101,68718,70989,38,97152,65728,6,6,4,1460,382500,1,16778208,1000000,123692,109212,65700,0,67300,0,3496126569,63
i,1734975910.124965,172.16.3.2,35549,172.16.1.2,5101,68718,70989,38,97152,65728,6,6,4,1460,382500,1,16778208,1000000,123692,109212,65700,0,70196,0,3496126569,63
o,1734975910.125042,172.16.3.2,35549,172.16.1.2,5101,68718,70989,38,94272,65728,6,6,4,1460,389687,1,16778208,960000,123692,106316,65700,0,67300,0,3496126569,63
i,1734975910.125645,172.16.3.2,35549,172.16.1.2,5101,68718,70989,38,94272,65728,6,6,4,1460,389687,1,16778208,960000,123692,106316,65700,0,70196,0,3496126569,63
o,1734975910.125720,172.16.3.2,35549,172.16.1.2,5101,68718,70989,38,91392,65728,6,6,4,1460,396250,1,16778208,930000,123692,103420,65700,0,67300,0,3496126569,63
i,1734975910.129039,172.16.3.2,35549,172.16.1.2,5101,68718,70989,38,91392,65728,6,6,4,1460,396250,1,16778208,930000,123692,123692,65700,0,70196,0,3496126569,63
o,1734975910.129304,172.16.3.2,35549,172.16.1.2,5101,68718,70989,38,95680,65728,6,6,4,1460,401875,1,16778208,900000,123692,120796,65700,0,67300,0,3496126569,63
i,1734975910.129990,172.16.3.2,35549,172.16.1.2,5101,68718,70989,38,95680,65728,6,6,4,1460,401875,1,16778208,900000,123692,120796,65700,0,70196,0,3496126569,63
o,1734975910.130092,172.16.3.2,35549,172.16.1.2,5101,68718,70989,38,95680,65728,6,6,4,1460,406875,1,16778208,870000,123692,117900,65700,0,67300,0,3496126569,63
i,1734975910.189905,172.16.3.2,35549,172.16.1.2,5101,68718,70989,38,95680,65728,6,6,4,1460,406875,1,16778208,870000,123692,123692,65700,0,70196,0,3496126569,63
o,1734975910.190009,172.16.3.2,35549,172.16.1.2,5101,68718,70989,38,97152,65728,6,6,4,1460,418750,1,16778208,910000,123692,120796,65700,0,67300,0,3496126569,63
i,1734975910.205553,172.16.3.2,35549,172.16.1.2,5101,68718,70989,38,97152,65728,6,6,4,1460,418750,1,16778208,910000,123692,123692,65700,0,70196,0,3496126569,63
o,1734975910.205798,172.16.3.2,35549,172.16.1.2,5101,68718,70989,38,97152,65728,6,6,4,1460,431562,1,16778208,950000,123692,120796,65700,0,67300,0,3496126569,63
i,1734975910.209768,172.16.3.2,35549,172.16.1.2,5101,68718,70989,38,97152,65728,6,6,4,1460,431562,1,16778208,950000,123692,120796,65700,0,70196,0,3496126569,63
o,1734975910.209999,172.16.3.2,35549,172.16.1.2,5101,68718,70989,38,95680,65728,6,6,4,1460,442812,1,16778208,970000,123692,117900,65700,0,67300,0,3496126569,63
i,1734975910.211881,172.16.3.2,35549,172.16.1.2,5101,68718,70989,38,95680,65728,6,6,4,1460,442812,1,16778208,970000,123692,117900,65700,0,70196,0,3496126569,63
o,1734975910.212195,172.16.3.2,35549,172.16.1.2,5101,68718,70989,38,92800,65728,6,6,4,1460,452500,1,16778208,980000,123692,115004,65700,0,67300,0,3496126569,63
i,1734975910.213790,172.16.3.2,35549,172.16.1.2,5101,68718,70989,38,92800,65728,6,6,4,1460,452500,1,16778208,980000,123692,115004,65700,0,70196,0,3496126569,63
o,1734975910.213883,172.16.3.2,35549,172.16.1.2,5101,68718,70989,38,95680,65728,6,6,4,1460,462187,1,16778208,980000,123692,112108,65700,0,67300,0,3496126569,63
i,1734975910.214454,172.16.3.2,35549,172.16.1.2,5101,68718,70989,38,95680,65728,6,6,4,1460,462187,1,16778208,980000,123692,112108,65700,0,70196,0,3496126569,63
o,1734975910.214530,172.16.3.2,35549,172.16.1.2,5101,68718,70989,38,92800,65728,6,6,4,1460,470937,1,16778208,980000,123692,109212,65700,0,67300,0,3496126569,63
o,1734975910.214867,172.16.3.2,35549,172.16.1.2,5101,68718,70989,38,92800,65728,6,6,4,1460,470937,1,16778208,980000,123692,109212,65700,0,68748,0,3496126569,63
i,1734975910.215417,172.16.3.2,35549,172.16.1.2,5101,68718,70989,38,92800,65728,6,6,4,1460,470937,1,16778208,980000,123692,109212,65700,0,70196,0,3496126569,63
o,1734975910.215491,172.16.3.2,35549,172.16.1.2,5101,68718,70989,38,97152,65728,6,6,4,1460,478437,1,16778208,970000,123692,106316,65700,0,67300,0,3496126569,63
i,1734975910.215663,172.16.3.2,35549,172.16.1.2,5101,68718,70989,38,97152,65728,6,6,4,1460,478437,1,16778208,970000,123692,106316,65700,0,70196,0,3496126569,63
o,1734975910.215663,172.16.3.2,35549,172.16.1.2,5101,68718,70989,38,94272,65728,6,6,4,1460,485000,1,16778208,960000,123692,103420,65700,0,67300,0,3496126569,63
i,1734975910.216813,172.16.3.2,35549,172.16.1.2,5101,68718,70989,38,94272,65728,6,6,4,1460,485000,1,16778208,960000,123692,103420,65700,0,70196,0,3496126569,63
o,1734975910.216888,172.16.3.2,35549,172.16.1.2,5101,68718,70989,38,97920,65728,6,6,4,1460,490625,1,16778208,940000,123692,101280,65700,0,68056,0,3496126569,63
i,1734975910.217498,172.16.3.2,35549,172.16.1.2,5101,68718,70989,38,97920,65728,6,6,4,1460,490625,1,16778208,940000,123692,101280,65700,0,70952,0,3496126569,63
o,1734975910.217573,172.16.3.2,35549,172.16.1.2,5101,68718,70989,38,95680,65728,6,6,4,1460,495625,1,16778208,920000,123692,98384,65700,0,68056,0,3496126569,63
i,1734975910.218655,172.16.3.2,35549,172.16.1.2,5101,68718,70989,38,95680,65728,6,6,4,1460,495625,1,16778208,920000,123692,98384,65700,0,70952,0,3496126569,63
o,1734975910.218732,172.16.3.2,35549,172.16.1.2,5101,68718,70989,38,98560,65728,6,6,4,1460,500000,1,16778208,910000,123692,96936,65700,0,69504,0,3496126569,63
i,1734975910.602894,172.16.3.2,35549,172.16.1.2,5101,68718,70989,38,98560,65728,6,6,4,1460,500000,1,16778208,910000,123692,123692,65700,0,70952,0,3496126569,63
o,1734975910.603051,172.16.3.2,35549,172.16.1.2,5101,68718,70989,38,147840,65728,6,6,4,1460,500000,1,16778208,850000,131884,122244,65700,0,69504,0,3496126569,63
i,1734975910.604554,172.16.3.2,35549,172.16.1.2,5101,68718,70989,38,147840,65728,6,6,4,1460,500000,1,16778208,850000,140076,122244,65700,0,70952,0,3496126569,63
o,1734975910.604798,172.16.3.2,35549,172.16.1.2,5101,68718,70989,38,146432,65728,6,6,4,1460,500000,1,16778208,820000,140076,119348,65700,0,68056,0,3496126569,63
i,1734975910.605783,172.16.3.2,35549,172.16.1.2,5101,68718,70989,38,146432,65728,6,6,4,1460,500000,1,16778208,820000,140076,119348,65700,0,70952,0,3496126569,63
o,1734975910.605905,172.16.3.2,35549,172.16.1.2,5101,68718,70989,38,146432,65728,6,6,4,1460,497500,1,16778208,800000,140076,116452,65700,0,68056,0,3496126569,63
i,1734975910.606469,172.16.3.2,35549,172.16.1.2,5101,68718,70989,38,146432,65728,6,6,4,1460,497500,1,16778208,800000,140076,116452,65700,0,70952,0,3496126569,63
o,1734975910.606525,172.16.3.2,35549,172.16.1.2,5101,68718,70989,38,146432,65728,6,6,4,1460,495312,1,16778208,790000,140076,113556,65700,0,68056,0,3496126569,63
i,1734975910.608497,172.16.3.2,35549,172.16.1.2,5101,68718,70989,38,146432,65728,6,6,4,1460,495312,1,16778208,790000,140076,113556,65700,0,70952,0,3496126569,63
o,1734975910.608598,172.16.3.2,35549,172.16.1.2,5101,68718,70989,38,143552,65728,6,6,4,1460,493437,1,16778208,780000,140076,110660,65700,0,68056,0,3496126569,63
i,1734975910.609466,172.16.3.2,35549,172.16.1.2,5101,68718,70989,38,143552,65728,6,6,4,1460,493437,1,16778208,780000,140076,110660,65700,0,70952,0,3496126569,63
o,1734975910.609590,172.16.3.2,35549,172.16.1.2,5101,68718,70989,38,140672,65728,6,6,4,1460,491875,1,16778208,770000,140076,107764,65700,0,68056,0,3496126569,63
i,1734975910.610192,172.16.3.2,35549,172.16.1.2,5101,68718,70989,38,140672,65728,6,6,4,1460,491875,1,16778208,770000,140076,107764,65700,0,70952,0,3496126569,63
o,1734975910.610272,172.16.3.2,35549,172.16.1.2,5101,68718,70989,38,146432,65728,6,6,4,1460,489375,1,16778208,760000,140076,104868,65700,0,68056,0,3496126569,63
i,1734975910.611054,172.16.3.2,35549,172.16.1.2,5101,68718,70989,38,146432,65728,6,6,4,1460,489375,1,16778208,760000,140076,104868,65700,0,70952,0,3496126569,63
o,1734975910.611086,172.16.3.2,35549,172.16.1.2,5101,68718,70989,38,144960,65728,6,6,4,1460,487187,1,16778208,760000,140076,101972,65700,0,68056,0,3496126569,63
i,1734975910.611301,172.16.3.2,35549,172.16.1.2,5101,68718,70989,38,144960,65728,6,6,4,1460,487187,1,16778208,760000,140076,101972,65700,0,70952,0,3496126569,63
o,1734975910.611332,172.16.3.2,35549,172.16.1.2,5101,68718,70989,38,146432,65728,6,6,4,1460,485312,1,16778208,760000,140076,99076,65700,0,68056,0,3496126569,63
i,1734975910.614224,172.16.3.2,35549,172.16.1.2,5101,68718,70989,38,146432,65728,6,6,4,1460,485312,1,16778208,760000,140076,99076,65700,0,70952,0,3496126569,63
o,1734975910.614308,172.16.3.2,35549,172.16.1.2,5101,68718,70989,38,146432,65728,6,6,4,1460,485937,1,16778208,740000,140076,96180,65700,0,68056,0,3496126569,63
i,1734975910.648841,172.16.3.2,35549,172.16.1.2,5101,68718,70989,38,146432,65728,6,6,4,1460,485937,1,16778208,740000,156460,156460,65700,0,70952,0,3496126569,63
o,1734975910.648889,172.16.3.2,35549,172.16.1.2,5101,68718,70989,38,146432,65728,6,6,4,1460,490312,1,16778208,770000,156460,153564,65700,0,68056,0,3496126569,63
i,1734975910.649117,172.16.3.2,35549,172.16.1.2,5101,68718,70989,38,146432,65728,6,6,4,1460,490312,1,16778208,770000,156460,153564,65700,0,70952,0,3496126569,63
o,1734975910.649149,172.16.3.2,35549,172.16.1.2,5101,68718,70989,38,143552,65728,6,6,4,1460,494062,1,16778208,780000,156460,150668,65700,0,68056,0,3496126569,63
i,1734975910.649362,172.16.3.2,35549,172.16.1.2,5101,68718,70989,38,143552,65728,6,6,4,1460,494062,1,16778208,780000,156460,150668,65700,0,70952,0,3496126569,63
o,1734975910.649393,172.16.3.2,35549,172.16.1.2,5101,68718,70989,38,140672,65728,6,6,4,1460,497500,1,16778208,790000,156460,147772,65700,0,68056,0,3496126569,63
i,1734975910.649690,172.16.3.2,35549,172.16.1.2,5101,68718,70989,38,140672,65728,6,6,4,1460,497500,1,16778208,790000,156460,147772,65700,0,70952,0,3496126569,63
o,1734975910.649764,172.16.3.2,35549,172.16.1.2,5101,68718,70989,38,137792,65728,6,6,4,1460,500312,1,16778208,790000,156460,144876,65700,0,68056,0,3496126569,63
i,1734975910.650509,172.16.3.2,35549,172.16.1.2,5101,68718,70989,38,137792,65728,6,6,4,1460,500312,1,16778208,790000,156460,144876,65700,0,70952,0,3496126569,63
o,1734975910.650615,172.16.3.2,35549,172.16.1.2,5101,68718,70989,38,134912,65728,6,6,4,1460,502812,1,16778208,790000,156460,141980,65700,0,68056,0,3496126569,63
i,1734975910.652137,172.16.3.2,35549,172.16.1.2,5101,68718,70989,38,134912,65728,6,6,4,1460,502812,1,16778208,790000,156460,141980,65700,0,70952,0,3496126569,63
o,1734975910.652212,172.16.3.2,35549,172.16.1.2,5101,68718,70989,38,132032,65728,6,6,4,1460,497500,1,16778208,810000,156460,139084,65700,0,68056,0,3496126569,63
i,1734975910.652533,172.16.3.2,35549,172.16.1.2,5101,68718,70989,38,132032,65728,6,6,4,1460,497500,1,16778208,810000,164652,139084,65700,0,70952,0,3496126569,63
o,1734975910.652562,172.16.3.2,35549,172.16.1.2,5101,68718,70989,38,129152,65728,6,6,4,1460,490312,1,16778208,830000,164652,136188,65700,0,68056,0,3496126569,63
i,1734975910.652768,172.16.3.2,35549,172.16.1.2,5101,68718,70989,38,129152,65728,6,6,4,1460,490312,1,16778208,830000,164652,136188,65700,0,70952,0,3496126569,63
o,1734975910.652797,172.16.3.2,35549,172.16.1.2,5101,68718,70989,38,126272,65728,6,6,4,1460,484062,1,16778208,840000,164652,133292,65700,0,68056,0,3496126569,63
i,1734975910.653049,172.16.3.2,35549,172.16.1.2,5101,68718,70989,38,126272,65728,6,6,4,1460,484062,1,16778208,840000,164652,133292,65700,0,70952,0,3496126569,63
o,1734975910.653078,172.16.3.2,35549,172.16.1.2,5101,68718,70989,38,146432,65728,6,6,4,1460,478750,1,16778208,840000,164652,130396,65700,0,68056,0,3496126569,63
i,1734975910.653520,172.16.3.2,35549,172.16.1.2,5101,68718,70989,38,146432,65728,6,6,4,1460,478750,1,16778208,840000,164652,130396,65700,0,70952,0,3496126569,63
o,1734975910.653594,172.16.3.2,35549,172.16.1.2,5101,68718,70989,38,144960,65728,6,6,4,1460,472812,1,16778208,840000,164652,127500,65700,0,68056,0,3496126569,63
o,1734975910.654078,172.16.3.2,35549,172.16.1.2,5101,68718,70989,38,144960,65728,6,6,4,1460,472812,1,16778208,840000,164652,127500,65700,0,69504,0,3496126569,63
i,1734975910.654619,172.16.3.2,35549,172.16.1.2,5101,68718,70989,38,144960,65728,6,6,4,1460,472812,1,16778208,840000,164652,127500,65700,0,70952,0,3496126569,63
o,1734975910.654694,172.16.3.2,35549,172.16.1.2,5101,68718,70989,38,142080,65728,6,6,4,1460,467500,1,16778208,830000,164652,124604,65700,0,68056,0,3496126569,63
i,1734975910.655269,172.16.3.2,35549,172.16.1.2,5101,68718,70989,38,142080,65728,6,6,4,1460,467500,1,16778208,830000,164652,124604,65700,0,70952,0,3496126569,63
o,1734975910.655342,172.16.3.2,35549,172.16.1.2,5101,68718,70989,38,146432,65728,6,6,4,1460,462812,1,16778208,820000,164652,121708,65700,0,68056,0,3496126569,63
i,1734975910.655872,172.16.3.2,35549,172.16.1.2,5101,68718,70989,38,146432,65728,6,6,4,1460,462812,1,16778208,820000,164652,121708,65700,0,70952,0,3496126569,63
o,1734975910.655945,172.16.3.2,35549,172.16.1.2,5101,68718,70989,38,144960,65728,6,6,4,1460,458750,1,16778208,810000,164652,118812,65700,0,68056,0,3496126569,63
i,1734975910.749640,172.16.3.2,35549,172.16.1.2,5101,68718,70989,38,144960,65728,6,6,4,1460,458750,1,16778208,810000,164652,164652,65700,0,70952,0,3496126569,63
o,1734975910.749787,172.16.3.2,35549,172.16.1.2,5101,68718,70989,38,142080,65728,6,6,4,1460,466562,1,16778208,840000,164652,161756,65700,0,68056,0,3496126569,63
i,1734975910.750015,172.16.3.2,35549,172.16.1.2,5101,68718,70989,38,142080,65728,6,6,4,1460,466562,1,16778208,840000,164652,161756,65700,0,70952,0,3496126569,63
o,1734975910.750046,172.16.3.2,35549,172.16.1.2,5101,68718,70989,38,144960,65728,6,6,4,1460,473437,1,16778208,860000,164652,158860,65700,0,68056,0,3496126569,63
i,1734975911.231950,172.16.3.2,35549,172.16.1.2,5101,68718,70989,38,144960,65728,6,6,4,1460,473437,1,16778208,860000,164652,164652,65700,0,70952,0,3496126569,63
o,1734975911.232207,172.16.3.2,35549,172.16.1.2,5101,68718,70989,38,218880,65728,6,6,4,1460,493125,1,16778208,990000,164652,161756,65700,0,68056,0,3496126569,63
i,1734975911.236770,172.16.3.2,35549,172.16.1.2,5101,68718,70989,38,218880,65728,6,6,4,1460,493125,1,16778208,990000,164652,164652,65700,0,70952,0,3496126569,63
o,1734975911.237054,172.16.3.2,35549,172.16.1.2,5101,68718,70989,38,220352,65728,6,6,4,1460,510312,1,16778208,1070000,164652,161756,65700,0,68056,0,3496126569,63
i,1734975911.241712,172.16.3.2,35549,172.16.1.2,5101,68718,70989,38,220352,65728,6,6,4,1460,510312,1,16778208,1070000,164652,164652,65700,0,70952,0,3496126569,63
o,1734975911.241805,172.16.3.2,35549,172.16.1.2,5101,68718,70989,38,221760,65728,6,6,4,1460,526562,1,16778208,1130000,164652,163204,65700,0,69504,0,3496126569,63
i,1734975911.275444,172.16.3.2,35549,172.16.1.2,5101,68718,70989,38,221760,65728,6,6,4,1460,526562,1,16778208,1130000,164652,163204,65700,0,70952,0,3496126569,63
o,1734975911.275552,172.16.3.2,35549,172.16.1.2,5101,68718,70989,38,218880,65728,6,6,4,1460,544687,1,16778208,1190000,164652,160308,65700,0,68056,0,3496126569,63
i,1734975911.276419,172.16.3.2,35549,172.16.1.2,5101,68718,70989,38,218880,65728,6,6,4,1460,544687,1,16778208,1190000,164652,160308,65700,0,70952,0,3496126569,63
o,1734975911.276496,172.16.3.2,35549,172.16.1.2,5101,68718,70989,38,220352,65728,6,6,4,1460,560625,1,16778208,1220000,164652,157412,65700,0,68056,0,3496126569,63
i,1734975911.277100,172.16.3.2,35549,172.16.1.2,5101,68718,70989,38,220352,65728,6,6,4,1460,560625,1,16778208,1220000,164652,157412,65700,0,70952,0,3496126569,63
o,1734975911.277175,172.16.3.2,35549,172.16.1.2,5101,68718,70989,38,220352,65728,6,6,4,1460,574375,1,16778208,1230000,164652,154516,65700,0,68056,0,3496126569,63
i,1734975911.282808,172.16.3.2,35549,172.16.1.2,5101,68718,70989,38,220352,65728,6,6,4,1460,574375,1,16778208,1230000,164652,164652,65700,0,70952,0,3496126569,63
o,1734975911.282909,172.16.3.2,35549,172.16.1.2,5101,68718,70989,38,221760,65728,6,6,4,1460,587812,1,16778208,1240000,164652,163204,65700,0,69504,0,3496126569,63
i,1734975911.283467,172.16.3.2,35549,172.16.1.2,5101,68718,70989,38,221760,65728,6,6,4,1460,587812,1,16778208,1240000,164652,163204,65700,0,70952,0,3496126569,63
o,1734975911.283544,172.16.3.2,35549,172.16.1.2,5101,68718,70989,38,218880,65728,6,6,4,1460,599375,1,16778208,1230000,164652,160308,65700,0,68056,0,3496126569,63
i,1734975911.284251,172.16.3.2,35549,172.16.1.2,5101,68718,70989,38,218880,65728,6,6,4,1460,599375,1,16778208,1230000,164652,160308,65700,0,70952,0,3496126569,63
o,1734975911.284329,172.16.3.2,35549,172.16.1.2,5101,68718,70989,38,216000,65728,6,6,4,1460,609687,1,16778208,1210000,164652,157412,65700,0,68056,0,3496126569,63
i,1734975911.316616,172.16.3.2,35549,172.16.1.2,5101,68718,70989,38,216000,65728,6,6,4,1460,609687,1,16778208,1210000,164652,164652,65700,0,70952,0,3496126569,63
o,1734975911.316739,172.16.3.2,35549,172.16.1.2,5101,68718,70989,38,213120,65728,6,6,4,1460,622500,1,16778208,1230000,164652,161756,65700,0,68056,0,3496126569,63
i,1734975911.339326,172.16.3.2,35549,172.16.1.2,5101,68718,70989,38,213120,65728,6,6,4,1460,622500,1,16778208,1230000,164652,164652,65700,0,70952,0,3496126569,63
o,1734975911.339571,172.16.3.2,35549,172.16.1.2,5101,68718,70989,38,220352,65728,6,6,4,1460,634687,1,16778208,1230000,164652,161756,65700,0,68056,0,3496126569,63
i,1734975911.340122,172.16.3.2,35549,172.16.1.2,5101,68718,70989,38,220352,65728,6,6,4,1460,634687,1,16778208,1230000,164652,161756,65700,0,70952,0,3496126569,63
o,1734975911.340196,172.16.3.2,35549,172.16.1.2,5101,68718,70989,38,220352,65728,6,6,4,1460,640625,1,16778208,1190000,164652,158860,65700,0,68056,0,3496126569,63
i,1734975911.342958,172.16.3.2,35549,172.16.1.2,5101,68718,70989,38,220352,65728,6,6,4,1460,640625,1,16778208,1190000,164652,158860,65700,0,70952,0,3496126569,63
o,1734975911.343031,172.16.3.2,35549,172.16.1.2,5101,68718,70989,38,220352,65728,6,6,4,1460,646875,1,16778208,1160000,164652,155964,65700,0,68056,0,3496126569,63
i,1734975911.344129,172.16.3.2,35549,172.16.1.2,5101,68718,70989,38,220352,65728,6,6,4,1460,646875,1,16778208,1160000,164652,155964,65700,0,70952,0,3496126569,63
o,1734975911.344215,172.16.3.2,35549,172.16.1.2,5101,68718,70989,38,217472,65728,6,6,4,1460,652500,1,16778208,1130000,164652,153068,65700,0,68056,0,3496126569,63
i,1734975911.345144,172.16.3.2,35549,172.16.1.2,5101,68718,70989,38,217472,65728,6,6,4,1460,652500,1,16778208,1130000,164652,153068,65700,0,70952,0,3496126569,63
o,1734975911.345219,172.16.3.2,35549,172.16.1.2,5101,68718,70989,38,214592,65728,6,6,4,1460,657187,1,16778208,1100000,164652,150172,65700,0,68056,0,3496126569,63
i,1734975911.345815,172.16.3.2,35549,172.16.1.2,5101,68718,70989,38,214592,65728,6,6,4,1460,657187,1,16778208,1100000,164652,150172,65700,0,70952,0,3496126569,63
o,1734975911.345889,172.16.3.2,35549,172.16.1.2,5101,68718,70989,38,211712,65728,6,6,4,1460,661562,1,16778208,1080000,164652,147276,65700,0,68056,0,3496126569,63
i,1734975911.346518,172.16.3.2,35549,172.16.1.2,5101,68718,70989,38,211712,65728,6,6,4,1460,661562,1,16778208,1080000,164652,147276,65700,0,70952,0,3496126569,63
o,1734975911.346593,172.16.3.2,35549,172.16.1.2,5101,68718,70989,38,208832,65728,6,6,4,1460,665312,1,16778208,1060000,164652,144380,65700,0,68056,0,3496126569,63
i,1734975911.349880,172.16.3.2,35549,172.16.1.2,5101,68718,70989,38,208832,65728,6,6,4,1460,665312,1,16778208,1060000,164652,164652,65700,0,70952,0,3496126569,63
o,1734975911.349965,172.16.3.2,35549,172.16.1.2,5101,68718,70989,38,205952,65728,6,6,4,1460,668437,1,16778208,1040000,164652,161756,65700,0,68056,0,3496126569,63
i,1734975911.350652,172.16.3.2,35549,172.16.1.2,5101,68718,70989,38,205952,65728,6,6,4,1460,668437,1,16778208,1040000,164652,161756,65700,0,70952,0,3496126569,63
o,1734975911.350729,172.16.3.2,35549,172.16.1.2,5101,68718,70989,38,220352,65728,6,6,4,1460,671250,1,16778208,1020000,164652,158860,65700,0,68056,0,3496126569,63
i,1734975911.351274,172.16.3.2,35549,172.16.1.2,5101,68718,70989,38,220352,65728,6,6,4,1460,671250,1,16778208,1020000,164652,158860,65700,0,70952,0,3496126569,63
o,1734975911.351347,172.16.3.2,35549,172.16.1.2,5101,68718,70989,38,221760,65728,6,6,4,1460,673750,1,16778208,1010000,164652,157412,65700,0,69504,0,3496126569,63
i,1734975911.352896,172.16.3.2,35549,172.16.1.2,5101,68718,70989,38,221760,65728,6,6,4,1460,673750,1,16778208,1010000,164652,157412,65700,0,70952,0,3496126569,63
o,1734975911.352976,172.16.3.2,35549,172.16.1.2,5101,68718,70989,38,218880,65728,6,6,4,1460,677187,1,16778208,1000000,164652,154516,65700,0,68056,0,3496126569,63
o,1734975911.353453,172.16.3.2,35549,172.16.1.2,5101,68718,70989,38,218880,65728,6,6,4,1460,677187,1,16778208,1000000,164652,154516,65700,0,69504,0,3496126569,63
i,1734975911.353981,172.16.3.2,35549,172.16.1.2,5101,68718,70989,38,218880,65728,6,6,4,1460,677187,1,16778208,1000000,164652,154516,65700,0,70952,0,3496126569,63
o,1734975911.354055,172.16.3.2,35549,172.16.1.2,5101,68718,70989,38,218880,65728,6,6,4,1460,680312,1,16778208,1000000,164652,151620,65700,0,68056,0,3496126569,63
i,1734975911.354736,172.16.3.2,35549,172.16.1.2,5101,68718,70989,38,218880,65728,6,6,4,1460,680312,1,16778208,1000000,164652,151620,65700,0,70952,0,3496126569,63
o,1734975911.354810,172.16.3.2,35549,172.16.1.2,5101,68718,70989,38,218880,65728,6,6,4,1460,682812,1,16778208,990000,164652,148724,65700,0,68056,0,3496126569,63
i,1734975911.358170,172.16.3.2,35549,172.16.1.2,5101,68718,70989,38,218880,65728,6,6,4,1460,682812,1,16778208,990000,164652,164652,65700,0,70952,0,3496126569,63
o,1734975911.358209,172.16.3.2,35549,172.16.1.2,5101,68718,70989,38,218880,65728,6,6,4,1460,685000,1,16778208,990000,164652,161756,65700,0,68056,0,3496126569,63
i,1734975911.358657,172.16.3.2,35549,172.16.1.2,5101,68718,70989,38,218880,65728,6,6,4,1460,685000,1,16778208,990000,164652,161756,65700,0,70952,0,3496126569,63
o,1734975911.358731,172.16.3.2,35549,172.16.1.2,5101,68718,70989,38,220352,65728,6,6,4,1460,674375,1,16778208,1030000,164652,158860,65700,0,68056,0,3496126569,63
i,1734975911.401029,172.16.3.2,35549,172.16.1.2,5101,68718,70989,38,220352,65728,6,6,4,1460,674375,1,16778208,1030000,164652,164652,65700,0,70952,0,3496126569,63
o,1734975911.401123,172.16.3.2,35549,172.16.1.2,5101,68718,70989,38,220352,65728,6,6,4,1460,671562,1,16778208,1010000,164652,161756,65700,0,68056,0,3496126569,63
i,1734975911.716332,172.16.3.2,35549,172.16.1.2,5101,68718,70989,38,220352,65728,6,6,4,1460,671562,1,16778208,1010000,164652,164652,65700,0,70952,0,3496126569,63
o,1734975911.716432,172.16.3.2,35549,172.16.1.2,5101,68718,70989,38,218880,65728,6,6,4,1460,647812,1,16778208,1150000,164652,161756,65700,0,68056,0,3496126569,63
i,1734975911.717321,172.16.3.2,35549,172.16.1.2,5101,68718,70989,38,218880,65728,6,6,4,1460,647812,1,16778208,1150000,164652,161756,65700,0,70952,0,3496126569,63
o,1734975911.717397,172.16.3.2,35549,172.16.1.2,5101,68718,70989,38,216000,65728,6,6,4,1460,626875,1,16778208,1220000,164652,158860,65700,0,68056,0,3496126569,63
i,1734975911.733158,172.16.3.2,35549,172.16.1.2,5101,68718,70989,38,216000,65728,6,6,4,1460,626875,1,16778208,1220000,164652,164652,65700,0,70952,0,3496126569,63
o,1734975911.733272,172.16.3.2,35549,172.16.1.2,5101,68718,70989,38,221760,65728,6,6,4,1460,610000,1,16778208,1240000,164652,163204,65700,0,69504,0,3496126569,63
i,1734975911.814044,172.16.3.2,35549,172.16.1.2,5101,68718,70989,38,221760,65728,6,6,4,1460,610000,1,16778208,1240000,164652,163204,65700,0,70952,0,3496126569,63
o,1734975911.814140,172.16.3.2,35549,172.16.1.2,5101,68718,70989,38,218880,65728,6,6,4,1460,600000,1,16778208,1200000,164652,160308,65700,0,68056,0,3496126569,63
i,1734975911.814753,172.16.3.2,35549,172.16.1.2,5101,68718,70989,38,218880,65728,6,6,4,1460,600000,1,16778208,1200000,164652,160308,65700,0,70952,0,3496126569,63
o,1734975911.814830,172.16.3.2,35549,172.16.1.2,5101,68718,70989,38,216000,65728,6,6,4,1460,591250,1,16778208,1160000,164652,157412,65700,0,68056,0,3496126569,63
i,1734975911.815374,172.16.3.2,35549,172.16.1.2,5101,68718,70989,38,216000,65728,6,6,4,1460,591250,1,16778208,1160000,164652,157412,65700,0,70952,0,3496126569,63
o,1734975911.815452,172.16.3.2,35549,172.16.1.2,5101,68718,70989,38,213120,65728,6,6,4,1460,583750,1,16778208,1120000,164652,154516,65700,0,68056,0,3496126569,63
i,1734975911.816090,172.16.3.2,35549,172.16.1.2,5101,68718,70989,38,213120,65728,6,6,4,1460,583750,1,16778208,1120000,164652,154516,65700,0,70952,0,3496126569,63
o,1734975911.816095,172.16.3.2,35549,172.16.1.2,5101,68718,70989,38,210240,65728,6,6,4,1460,577187,1,16778208,1080000,164652,151620,65700,0,68056,0,3496126569,63
i,1734975911.817287,172.16.3.2,35549,172.16.1.2,5101,68718,70989,38,210240,65728,6,6,4,1460,577187,1,16778208,1080000,164652,151620,65700,0,70952,0,3496126569,63
o,1734975911.817385,172.16.3.2,35549,172.16.1.2,5101,68718,70989,38,207360,65728,6,6,4,1460,571562,1,16778208,1040000,164652,148724,65700,0,68056,0,3496126569,63
i,1734975911.818091,172.16.3.2,35549,172.16.1.2,5101,68718,70989,38,207360,65728,6,6,4,1460,571562,1,16778208,1040000,164652,148724,65700,0,70952,0,3496126569,63
o,1734975911.818185,172.16.3.2,35549,172.16.1.2,5101,68718,70989,38,204480,65728,6,6,4,1460,566562,1,16778208,1010000,164652,145828,65700,0,68056,0,3496126569,63
i,1734975911.818827,172.16.3.2,35549,172.16.1.2,5101,68718,70989,38,204480,65728,6,6,4,1460,566562,1,16778208,1010000,164652,145828,65700,0,70952,0,3496126569,63
o,1734975911.818916,172.16.3.2,35549,172.16.1.2,5101,68718,70989,38,201600,65728,6,6,4,1460,558437,1,16778208,1010000,164652,142932,65700,0,68056,0,3496126569,63
i,1734975911.819737,172.16.3.2,35549,172.16.1.2,5101,68718,70989,38,201600,65728,6,6,4,1460,558437,1,16778208,1010000,164652,164652,65700,0,70952,0,3496126569,63
o,1734975911.819835,172.16.3.2,35549,172.16.1.2,5101,68718,70989,38,198720,65728,6,6,4,1460,548750,1,16778208,1010000,164652,161756,65700,0,68056,0,3496126569,63
i,1734975911.865375,172.16.3.2,35549,172.16.1.2,5101,68718,70989,38,198720,65728,6,6,4,1460,548750,1,16778208,1010000,164652,164652,65700,0,70952,0,3496126569,63
o,1734975911.867126,172.16.3.2,35549,172.16.1.2,5101,68718,70989,38,195840,65728,6,6,4,1460,546562,1,16778208,960000,164652,161756,65700,0,68056,0,3496126569,63
i,1734975911.868114,172.16.3.2,35549,172.16.1.2,5101,68718,70989,38,195840,65728,6,6,4,1460,546562,1,16778208,960000,164652,161756,65700,0,70952,0,3496126569,63
o,1734975911.868260,172.16.3.2,35549,172.16.1.2,5101,68718,70989,38,192960,65728,6,6,4,1460,543437,1,16778208,930000,164652,158860,65700,0,68056,0,3496126569,63
i,1734975911.868974,172.16.3.2,35549,172.16.1.2,5101,68718,70989,38,192960,65728,6,6,4,1460,543437,1,16778208,930000,164652,158860,65700,0,70952,0,3496126569,63
o,1734975911.869087,172.16.3.2,35549,172.16.1.2,5101,68718,70989,38,190080,65728,6,6,4,1460,540625,1,16778208,900000,164652,155964,65700,0,68056,0,3496126569,63
i,1734975911.869902,172.16.3.2,35549,172.16.1.2,5101,68718,70989,38,190080,65728,6,6,4,1460,540625,1,16778208,900000,164652,155964,65700,0,70952,0,3496126569,63
o,1734975911.869977,172.16.3.2,35549,172.16.1.2,5101,68718,70989,38,187200,65728,6,6,4,1460,538125,1,16778208,880000,164652,153068,65700,0,68056,0,3496126569,63
i,1734975911.870180,172.16.3.2,35549,172.16.1.2,5101,68718,70989,38,187200,65728,6,6,4,1460,538125,1,16778208,880000,164652,153068,65700,0,70952,0,3496126569,63
o,1734975911.870186,172.16.3.2,35549,172.16.1.2,5101,68718,70989,38,184320,65728,6,6,4,1460,535937,1,16778208,860000,164652,150172,65700,0,68056,0,3496126569,63
i,1734975911.878058,172.16.3.2,35549,172.16.1.2,5101,68718,70989,38,184320,65728,6,6,4,1460,535937,1,16778208,860000,164652,164652,65700,0,70952,0,3496126569,63
o,1734975911.878153,172.16.3.2,35549,172.16.1.2,5101,68718,70989,38,220352,65728,6,6,4,1460,535312,1,16778208,830000,164652,161756,65700,0,68056,0,3496126569,63
i,1734975911.890514,172.16.3.2,35549,172.16.1.2,5101,68718,70989,38,220352,65728,6,6,4,1460,535312,1,16778208,830000,164652,164652,65700,0,70952,0,3496126569,63
o,1734975911.890764,172.16.3.2,35549,172.16.1.2,5101,68718,70989,38,218880,65728,6,6,4,1460,534687,1,16778208,810000,164652,161756,65700,0,68056,0,3496126569,63
i,1734975911.893765,172.16.3.2,35549,172.16.1.2,5101,68718,70989,38,218880,65728,6,6,4,1460,534687,1,16778208,810000,164652,161756,65700,0,70952,0,3496126569,63
o,1734975911.893952,172.16.3.2,35549,172.16.1.2,5101,68718,70989,38,216000,65728,6,6,4,1460,536875,1,16778208,810000,164652,158860,65700,0,68056,0,3496126569,63
i,1734975911.894884,172.16.3.2,35549,172.16.1.2,5101,68718,70989,38,216000,65728,6,6,4,1460,536875,1,16778208,810000,164652,158860,65700,0,70952,0,3496126569,63
o,1734975911.895023,172.16.3.2,35549,172.16.1.2,5101,68718,70989,38,213120,65728,6,6,4,1460,537500,1,16778208,800000,164652,155964,65700,0,68056,0,3496126569,63
o,1734975911.896080,172.16.3.2,35549,172.16.1.2,5101,68718,70989,38,213120,65728,6,6,4,1460,537500,1,16778208,800000,164652,155964,65700,0,69504,0,3496126569,63
i,1734975911.896645,172.16.3.2,35549,172.16.1.2,5101,68718,70989,38,213120,65728,6,6,4,1460,537500,1,16778208,800000,164652,155964,65700,0,70952,0,3496126569,63
o,1734975911.896719,172.16.3.2,35549,172.16.1.2,5101,68718,70989,38,210240,65728,6,6,4,1460,537812,1,16778208,790000,164652,153068,65700,0,68056,0,3496126569,63
i,1734975911.897488,172.16.3.2,35549,172.16.1.2,5101,68718,70989,38,210240,65728,6,6,4,1460,537812,1,16778208,790000,164652,153068,65700,0,70952,0,3496126569,63
o,1734975911.897615,172.16.3.2,35549,172.16.1.2,5101,68718,70989,38,207360,65728,6,6,4,1460,538125,1,16778208,780000,164652,150172,65700,0,68056,0,3496126569,63
i,1734975911.898199,172.16.3.2,35549,172.16.1.2,5101,68718,70989,38,207360,65728,6,6,4,1460,538125,1,16778208,780000,164652,150172,65700,0,70952,0,3496126569,63
o,1734975911.898272,172.16.3.2,35549,172.16.1.2,5101,68718,70989,38,218880,65728,6,6,4,1460,538437,1,16778208,770000,164652,147276,65700,0,68056,0,3496126569,63
i,1734975911.902000,172.16.3.2,35549,172.16.1.2,5101,68718,70989,38,218880,65728,6,6,4,1460,538437,1,16778208,770000,164652,164652,65700,0,70952,0,3496126569,63
o,1734975911.902074,172.16.3.2,35549,172.16.1.2,5101,68718,70989,38,220352,65728,6,6,4,1460,540000,1,16778208,780000,164652,161756,65700,0,68056,0,3496126569,63
i,1734975911.962814,172.16.3.2,35549,172.16.1.2,5101,68718,70989,38,220352,65728,6,6,4,1460,540000,1,16778208,780000,164652,164652,65700,0,70952,0,3496126569,63
o,1734975911.963115,172.16.3.2,35549,172.16.1.2,5101,68718,70989,38,218880,65728,6,6,4,1460,542500,1,16778208,790000,164652,161756,65700,0,68056,0,3496126569,63
i,1734975912.375264,172.16.3.2,35549,172.16.1.2,5101,68718,70989,38,218880,65728,6,6,4,1460,542500,1,16778208,790000,164652,164652,65700,0,70952,0,3496126569,63
o,1734975912.375852,172.16.3.2,35549,172.16.1.2,5101,68718,70989,38,218880,65728,6,6,4,1460,557187,1,16778208,910000,164652,161756,65700,0,68056,0,3496126569,63
i,1734975912.400186,172.16.3.2,35549,172.16.1.2,5101,68718,70989,38,218880,65728,6,6,4,1460,557187,1,16778208,910000,164652,164652,65700,0,70952,0,3496126569,63
o,1734975912.400500,172.16.3.2,35549,172.16.1.2,5101,68718,70989,38,220352,65728,6,6,4,1460,572812,1,16778208,1010000,164652,161756,65700,0,68056,0,3496126569,63
i,1734975912.412893,172.16.3.2,35549,172.16.1.2,5101,68718,70989,38,220352,65728,6,6,4,1460,572812,1,16778208,1010000,164652,164652,65700,0,70952,0,3496126569,63
o,1734975912.413003,172.16.3.2,35549,172.16.1.2,5101,68718,70989,38,221760,65728,6,6,4,1460,586250,1,16778208,1070000,164652,163204,65700,0,69504,0,3496126569,63
i,1734975912.532184,172.16.3.2,35549,172.16.1.2,5101,68718,70989,38,221760,65728,6,6,4,1460,586250,1,16778208,1070000,164652,163204,65700,0,70952,0,3496126569,63
o,1734975912.532287,172.16.3.2,35549,172.16.1.2,5101,68718,70989,38,220352,65728,6,6,4,1460,601875,1,16778208,1140000,164652,160308,65700,0,68056,0,3496126569,63
i,1734975912.535243,172.16.3.2,35549,172.16.1.2,5101,68718,70989,38,220352,65728,6,6,4,1460,601875,1,16778208,1140000,164652,160308,65700,0,70952,0,3496126569,63
o,1734975912.535357,172.16.3.2,35549,172.16.1.2,5101,68718,70989,38,217472,65728,6,6,4,1460,615625,1,16778208,1180000,164652,157412,65700,0,68056,0,3496126569,63
i,1734975912.535946,172.16.3.2,35549,172.16.1.2,5101,68718,70989,38,217472,65728,6,6,4,1460,615625,1,16778208,1180000,164652,157412,65700,0,70952,0,3496126569,63
o,1734975912.536173,172.16.3.2,35549,172.16.1.2,5101,68718,70989,38,214592,65728,6,6,4,1460,627500,1,16778208,1200000,164652,154516,65700,0,68056,0,3496126569,63
i,1734975912.536949,172.16.3.2,35549,172.16.1.2,5101,68718,70989,38,214592,65728,6,6,4,1460,627500,1,16778208,1200000,164652,154516,65700,0,70952,0,3496126569,63
o,1734975912.537026,172.16.3.2,35549,172.16.1.2,5101,68718,70989,38,220352,65728,6,6,4,1460,637812,1,16778208,1200000,164652,151620,65700,0,68056,0,3496126569,63
i,1734975912.537581,172.16.3.2,35549,172.16.1.2,5101,68718,70989,38,220352,65728,6,6,4,1460,637812,1,16778208,1200000,164652,151620,65700,0,70952,0,3496126569,63
o,1734975912.537656,172.16.3.2,35549,172.16.1.2,5101,68718,70989,38,217472,65728,6,6,4,1460,646875,1,16778208,1190000,164652,148724,65700,0,68056,0,3496126569,63
i,1734975912.541083,172.16.3.2,35549,172.16.1.2,5101,68718,70989,38,217472,65728,6,6,4,1460,646875,1,16778208,1190000,164652,164652,65700,0,70952,0,3496126569,63
o,1734975912.541338,172.16.3.2,35549,172.16.1.2,5101,68718,70989,38,214592,65728,6,6,4,1460,655000,1,16778208,1180000,164652,161756,65700,0,68056,0,3496126569,63
i,1734975912.542446,172.16.3.2,35549,172.16.1.2,5101,68718,70989,38,214592,65728,6,6,4,1460,655000,1,16778208,1180000,164652,161756,65700,0,70952,0,3496126569,63
o,1734975912.542523,172.16.3.2,35549,172.16.1.2,5101,68718,70989,38,220352,65728,6,6,4,1460,664375,1,16778208,1180000,164652,158860,65700,0,68056,0,3496126569,63
i,1734975912.543330,172.16.3.2,35549,172.16.1.2,5101,68718,70989,38,220352,65728,6,6,4,1460,664375,1,16778208,1180000,164652,158860,65700,0,70952,0,3496126569,63
o,1734975912.543431,172.16.3.2,35549,172.16.1.2,5101,68718,70989,38,220352,65728,6,6,4,1460,672812,1,16778208,1180000,164652,155964,65700,0,68056,0,3496126569,63
i,1734975912.549831,172.16.3.2,35549,172.16.1.2,5101,68718,70989,38,220352,65728,6,6,4,1460,672812,1,16778208,1180000,164652,164652,65700,0,70952,0,3496126569,63
o,1734975912.549929,172.16.3.2,35549,172.16.1.2,5101,68718,70989,38,220352,65728,6,6,4,1460,672500,1,16778208,1100000,164652,161756,65700,0,68056,0,3496126569,63
i,1734975912.550570,172.16.3.2,35549,172.16.1.2,5101,68718,70989,38,220352,65728,6,6,4,1460,672500,1,16778208,1100000,164652,161756,65700,0,70952,0,3496126569,63
o,1734975912.550648,172.16.3.2,35549,172.16.1.2,5101,68718,70989,38,217472,65728,6,6,4,1460,672187,1,16778208,1050000,164652,158860,65700,0,68056,0,3496126569,63
i,1734975912.551190,172.16.3.2,35549,172.16.1.2,5101,68718,70989,38,217472,65728,6,6,4,1460,672187,1,16778208,1050000,164652,158860,65700,0,70952,0,3496126569,63
o,1734975912.551267,172.16.3.2,35549,172.16.1.2,5101,68718,70989,38,220352,65728,6,6,4,1460,672187,1,16778208,1000000,164652,155964,65700,0,68056,0,3496126569,63
i,1734975912.556861,172.16.3.2,35549,172.16.1.2,5101,68718,70989,38,220352,65728,6,6,4,1460,672187,1,16778208,1000000,164652,164652,65700,0,70952,0,3496126569,63
o,1734975912.556952,172.16.3.2,35549,172.16.1.2,5101,68718,70989,38,218880,65728,6,6,4,1460,673437,1,16778208,980000,164652,161756,65700,0,68056,0,3496126569,63
i,1734975912.557541,172.16.3.2,35549,172.16.1.2,5101,68718,70989,38,218880,65728,6,6,4,1460,673437,1,16778208,980000,164652,161756,65700,0,70952,0,3496126569,63
o,1734975912.557620,172.16.3.2,35549,172.16.1.2,5101,68718,70989,38,216000,65728,6,6,4,1460,674375,1,16778208,960000,164652,158860,65700,0,68056,0,3496126569,63
i,1734975912.558820,172.16.3.2,35549,172.16.1.2,5101,68718,70989,38,216000,65728,6,6,4,1460,674375,1,16778208,960000,164652,158860,65700,0,70952,0,3496126569,63
o,1734975912.558919,172.16.3.2,35549,172.16.1.2,5101,68718,70989,38,220352,65728,6,6,4,1460,675312,1,16778208,950000,164652,155964,65700,0,68056,0,3496126569,63
i,1734975912.564137,172.16.3.2,35549,172.16.1.2,5101,68718,70989,38,220352,65728,6,6,4,1460,675312,1,16778208,950000,164652,163044,65700,0,70952,0,3496126569,63
o,1734975912.564496,172.16.3.2,35549,172.16.1.2,5101,68718,70989,38,217472,65728,6,6,4,1460,675937,1,16778208,940000,164652,160148,65700,0,68056,0,3496126569,63
i,1734975912.564726,172.16.3.2,35549,172.16.1.2,5101,68718,70989,38,217472,65728,6,6,4,1460,675937,1,16778208,940000,164652,160148,65700,0,70952,0,3496126569,63
o,1734975912.564769,172.16.3.2,35549,172.16.1.2,5101,68718,70989,38,214592,65728,6,6,4,1460,675312,1,16778208,930000,164652,157252,65700,0,68056,0,3496126569,63
i,1734975912.565010,172.16.3.2,35549,172.16.1.2,5101,68718,70989,38,214592,65728,6,6,4,1460,675312,1,16778208,930000,164652,157252,65700,0,70952,0,3496126569,63
o,1734975912.565039,172.16.3.2,35549,172.16.1.2,5101,68718,70989,38,211712,65728,6,6,4,1460,674687,1,16778208,920000,164652,154356,65700,0,68056,0,3496126569,63
o,1734975912.565227,172.16.3.2,35549,172.16.1.2,5101,68718,70989,38,211712,65728,6,6,4,1460,674687,1,16778208,920000,164652,154356,65700,0,69504,0,3496126569,63
i,1734975912.565481,172.16.3.2,35549,172.16.1.2,5101,68718,70989,38,211712,65728,6,6,4,1460,674687,1,16778208,920000,164652,154356,65700,0,70952,0,3496126569,63
o,1734975912.565511,172.16.3.2,35549,172.16.1.2,5101,68718,70989,38,220352,65728,6,6,4,1460,674375,1,16778208,910000,164652,151460,65700,0,68056,0,3496126569,63
i,1734975912.649531,172.16.3.2,35549,172.16.1.2,5101,68718,70989,38,220352,65728,6,6,4,1460,674375,1,16778208,910000,164652,164652,65700,0,70952,0,3496126569,63
o,1734975912.649806,172.16.3.2,35549,172.16.1.2,5101,68718,70989,38,220352,65728,6,6,4,1460,684062,1,16778208,990000,164652,161756,65700,0,68056,0,3496126569,63
i,1734975912.660423,172.16.3.2,35549,172.16.1.2,5101,68718,70989,38,220352,65728,6,6,4,1460,684062,1,16778208,990000,164652,164652,65700,0,70952,0,3496126569,63
