enable_time_secs=1734976068	enable_time_usecs=023878	siftrver=1.3.0	sysname=FreeBSD	sysver=1401000	ipmode=4
o,1734976068.025207,10.0.2.15,22,192.168.56.1,54736,1073725440,18998,1026,65535,65700,0,0,4,1460,312,0,16777220,230000,33580,172,65700,0,0,0,2066408028,63
o,1734976068.025942,10.0.2.15,22,192.168.56.1,54736,1073725440,18998,1026,65535,65700,0,0,4,1460,312,0,16777220,230000,33580,244,65700,0,172,0,2066408028,63
i,1734976068.028110,10.0.2.15,22,192.168.56.1,54736,1073725440,18998,1026,65535,65700,0,0,4,1460,312,0,16777220,230000,33580,244,65700,0,244,0,2066408028,63
i,1734976068.028152,10.0.2.15,22,192.168.56.1,54736,1073725440,19170,1026,65535,65700,0,0,4,1460,312,0,4,230000,33580,72,65700,0,72,0,2066408028,63
i,1734976068.029679,10.0.2.15,22,192.168.56.1,54736,1073725440,19242,1026,65535,65700,0,0,4,1460,312,0,4,230000,33580,0,65700,0,0,0,2066408028,63
o,1734976068.031192,10.0.2.15,22,192.168.56.1,54736,1073725440,19242,1026,65535,65700,0,0,6,1460,312,0,4,230000,33580,0,65700,0,0,0,2066408028,63
i,1734976068.034115,10.0.2.15,22,192.168.56.1,54736,1073725440,19242,1026,65535,65700,0,0,6,1460,312,0,67108884,230000,33580,0,65700,0,1,0,2066408028,63
i,1734976082.906956,10.0.2.15,22,192.168.56.1,54732,1073725440,14725,1026,65535,65700,0,0,9,1460,312,0,67108884,230000,33580,0,65700,0,0,0,3984176940,63
i,1734976082.912082,10.0.2.15,22,192.168.56.1,54732,1073725440,14725,1026,65535,65700,0,0,9,1460,312,0,67108884,230000,33580,0,65700,0,0,0,3984176940,63
i,1734976088.915281,10.0.2.15,22,192.168.56.1,54732,1073725440,14600,0,65535,65700,0,0,4,1460,312,0,16777216,250000,33580,0,65700,0,0,0,3984176940,63
o,1734976088.954628,10.0.2.15,22,192.168.56.1,54732,1073725440,14600,2,65535,65700,0,0,4,1460,312,0,16777217,250000,33580,0,65700,42,0,0,3984176940,63
o,1734976088.956046,10.0.2.15,22,192.168.56.1,54732,1073725440,14600,1026,65535,65700,0,0,4,1460,312,0,16777216,250000,33580,38,65700,42,0,0,3984176940,63
i,1734976088.957867,10.0.2.15,22,192.168.56.1,54732,1073725440,14600,1026,65535,65700,0,0,4,1460,312,0,16777216,250000,33580,38,65700,0,38,0,3984176940,63
i,1734976088.961980,10.0.2.15,22,192.168.56.1,54732,1073725440,14638,1026,65535,65700,0,0,4,1460,312,0,0,230000,33580,0,65700,0,0,0,3984176940,63
i,1734976088.962113,10.0.2.15,22,192.168.56.1,54732,1073725440,14638,1026,65535,65700,0,0,4,1460,312,0,0,230000,33580,0,65700,1460,0,0,3984176940,63
o,1734976088.962896,10.0.2.15,22,192.168.56.1,54732,1073725440,14638,1026,65535,65700,0,0,4,1460,312,0,1,230000,33580,0,65700,1536,0,0,3984176940,63
o,1734976088.965603,10.0.2.15,22,192.168.56.1,54732,1073725440,14638,1026,65535,65700,0,0,4,1460,312,0,16777216,230000,33580,1120,65700,1536,0,0,3984176940,63
i,1734976088.969500,10.0.2.15,22,192.168.56.1,54732,1073725440,14638,1026,65535,65700,0,0,4,1460,312,0,16777216,230000,33580,1120,65700,0,1120,0,3984176940,63
i,1734976089.000564,10.0.2.15,22,192.168.56.1,54732,1073725440,15758,1026,65535,65700,0,0,4,1460,312,0,0,230000,33580,0,65700,0,0,0,3984176940,63
o,1734976089.030599,10.0.2.15,22,192.168.56.1,54732,1073725440,15758,1030,65535,65700,0,0,4,1460,312,0,16777216,230000,33580,1532,65700,0,0,0,3984176940,63
o,1734976089.034052,10.0.2.15,22,192.168.56.1,54732,1073725440,15758,1026,65535,65700,0,0,4,1460,312,0,16777216,230000,33580,1532,65700,0,1460,0,3984176940,63
i,1734976089.037138,10.0.2.15,22,192.168.56.1,54732,1073725440,15758,1026,65535,65700,0,0,4,1460,312,0,16777216,230000,33580,1532,65700,0,1532,0,3984176940,63
i,1734976089.037257,10.0.2.15,22,192.168.56.1,54732,1073725440,17218,1026,65535,65700,0,0,4,1460,312,0,0,230000,33580,72,65700,0,72,0,3984176940,63
i,1734976089.052249,10.0.2.15,22,192.168.56.1,54732,1073725440,17290,1026,65535,65700,0,0,4,1460,312,0,0,230000,33580,0,65700,0,0,0,3984176940,63
o,1734976089.053450,10.0.2.15,22,192.168.56.1,54732,1073725440,17290,1026,65535,65700,0,0,4,1460,312,0,16777216,230000,33580,44,65700,0,0,0,3984176940,63
i,1734976089.056979,10.0.2.15,22,192.168.56.1,54732,1073725440,17290,1026,65535,65700,0,0,4,1460,312,0,16777216,230000,33580,44,65700,0,44,0,3984176940,63
o,1734976089.060192,10.0.2.15,22,192.168.56.1,54732,1073725440,17334,1026,65535,65700,0,0,4,1460,312,0,16777216,230000,33580,280,65700,0,0,0,3984176940,63
i,1734976089.064725,10.0.2.15,22,192.168.56.1,54732,1073725440,17334,1026,65535,65700,0,0,4,1460,312,0,16777216,230000,33580,280,65700,0,280,0,3984176940,63
o,1734976089.068496,10.0.2.15,22,192.168.56.1,54732,1073725440,17614,1026,65535,65700,0,0,4,1460,312,0,16777216,240000,33580,332,65700,0,0,0,3984176940,63
i,1734976089.074124,10.0.2.15,22,192.168.56.1,54732,1073725440,17614,1026,65535,65700,0,0,4,1460,312,0,16777216,240000,33580,332,65700,0,332,0,3984176940,63
i,1734976089.074234,10.0.2.15,22,192.168.56.1,54732,1073725440,17946,1026,65535,65700,0,0,4,1460,312,0,0,230000,33580,0,65700,0,0,0,3984176940,63
o,1734976089.092621,10.0.2.15,22,192.168.56.1,54732,1073725440,17946,1026,65535,65700,0,0,4,1460,312,0,16777216,230000,33580,28,65700,0,0,0,3984176940,63
i,1734976089.099225,10.0.2.15,22,192.168.56.1,54732,1073725440,17946,1026,65535,65700,0,0,4,1460,312,0,16777216,230000,33580,936,65700,0,28,0,3984176940,63
o,1734976089.099318,10.0.2.15,22,192.168.56.1,54732,1073725440,17974,1026,65535,65700,0,0,4,1460,312,0,16777216,230000,33580,908,65700,0,0,0,3984176940,63
i,1734976089.100427,10.0.2.15,22,192.168.56.1,54732,1073725440,17974,1026,65535,65700,0,0,4,1460,312,0,16777216,230000,33580,908,65700,0,908,0,3984176940,63
i,1734976089.100648,10.0.2.15,22,192.168.56.1,54732,1073725440,17974,1026,65535,65700,0,0,4,1460,312,0,16777216,230000,33580,908,65700,112,908,0,3984176940,63
o,1734976089.102260,10.0.2.15,22,192.168.56.1,54732,1073725440,18882,1026,65535,65700,0,0,4,1460,312,0,16777216,230000,33580,44,65700,0,0,0,3984176940,63
i,1734976089.105791,10.0.2.15,22,192.168.56.1,54732,1073725440,18882,1026,65535,65700,0,0,4,1460,312,0,16777216,230000,33580,44,65700,0,44,0,3984176940,63
o,1734976089.107848,10.0.2.15,22,192.168.56.1,54732,1073725440,18926,1026,65535,65700,0,0,4,1460,312,0,16777220,230000,33580,72,65700,0,0,0,3984176940,63
i,1734976089.112134,10.0.2.15,22,192.168.56.1,54732,1073725440,18926,1026,65535,65700,0,0,4,1460,312,0,16777220,230000,33580,72,65700,0,72,0,3984176940,63
o,1734976089.119679,10.0.2.15,22,192.168.56.1,54732,1073725440,18998,1026,65535,65700,0,0,4,1460,312,0,16777220,230000,33580,104,65700,0,0,0,3984176940,63
o,1734976089.122179,10.0.2.15,22,192.168.56.1,54732,1073725440,18998,1026,65535,65700,0,0,4,1460,312,0,16777220,230000,33580,176,65700,0,104,0,3984176940,63
i,1734976089.124320,10.0.2.15,22,192.168.56.1,54732,1073725440,18998,1026,65535,65700,0,0,4,1460,312,0,16777220,230000,33580,176,65700,0,176,0,3984176940,63
i,1734976089.125782,10.0.2.15,22,192.168.56.1,54732,1073725440,19102,1026,65535,65700,0,0,4,1460,312,0,4,230000,33580,72,65700,0,72,0,3984176940,63
i,1734976089.127662,10.0.2.15,22,192.168.56.1,54732,1073725440,19174,1026,65535,65700,0,0,4,1460,312,0,4,230000,33580,0,65700,0,0,0,3984176940,63
o,1734976089.174077,10.0.2.15,22,192.168.56.1,54732,1073725440,19174,1026,65535,65700,0,0,4,1460,312,0,5,230000,33580,0,65700,96,0,0,3984176940,63
o,1734976089.189984,10.0.2.15,22,192.168.56.1,54732,1073725440,19174,1026,65535,65700,0,0,6,1460,312,0,4,230000,33580,0,65700,0,0,0,3984176940,63
i,1734976089.197153,10.0.2.15,22,192.168.56.1,54732,1073725440,19174,1026,65535,65700,0,0,6,1460,312,0,67108884,230000,33580,0,65700,0,1,0,3984176940,63
i,1734976097.573010,10.0.2.15,22,192.168.56.1,54726,1073725440,14600,0,65535,65700,0,0,4,1460,312,0,16777216,250000,33580,0,65700,0,0,0,1772842043,63
i,1734976097.573087,10.0.2.15,22,192.168.56.1,54706,1073725440,14600,0,65535,65700,0,0,4,1460,312,0,16777216,250000,33580,0,65700,0,0,0,2756429969,63
o,1734976097.611210,10.0.2.15,22,192.168.56.1,54726,1073725440,14600,1026,65535,65700,0,0,4,1460,312,0,16777216,250000,33580,38,65700,42,0,0,1772842043,63
o,1734976097.611906,10.0.2.15,22,192.168.56.1,54706,1073725440,14600,2,65535,65700,0,0,4,1460,312,0,16777217,250000,33580,0,65700,42,0,0,2756429969,63
o,1734976097.614315,10.0.2.15,22,192.168.56.1,54706,1073725440,14600,1026,65535,65700,0,0,4,1460,312,0,16777216,250000,33580,38,65700,42,0,0,2756429969,63
i,1734976097.615413,10.0.2.15,22,192.168.56.1,54726,1073725440,14600,1026,65535,65700,0,0,4,1460,312,0,16777216,250000,33580,38,65700,0,38,0,1772842043,63
i,1734976097.615494,10.0.2.15,22,192.168.56.1,54726,1073725440,14638,1026,65535,65700,0,0,4,1460,312,0,0,230000,33580,0,65700,1460,0,0,1772842043,63
o,1734976097.615565,10.0.2.15,22,192.168.56.1,54726,1073725440,14638,1026,65535,65700,0,0,4,1460,312,0,1,230000,33580,0,65700,1536,0,0,1772842043,63
o,1734976097.616280,10.0.2.15,22,192.168.56.1,54726,1073725440,14638,1026,65535,65700,0,0,4,1460,312,0,16777216,230000,33580,1120,65700,1536,0,0,1772842043,63
i,1734976097.619430,10.0.2.15,22,192.168.56.1,54706,1073725440,14600,1026,65535,65700,0,0,4,1460,312,0,16777216,250000,33580,38,65700,0,38,0,2756429969,63
i,1734976097.619512,10.0.2.15,22,192.168.56.1,54706,1073725440,14638,1026,65535,65700,0,0,4,1460,312,0,0,230000,33580,0,65700,0,0,0,2756429969,63
i,1734976097.619540,10.0.2.15,22,192.168.56.1,54706,1073725440,14638,1026,65535,65700,0,0,4,1460,312,0,0,230000,33580,0,65700,1460,0,0,2756429969,63
o,1734976097.619578,10.0.2.15,22,192.168.56.1,54706,1073725440,14638,1026,65535,65700,0,0,4,1460,312,0,1,230000,33580,0,65700,1536,0,0,2756429969,63
i,1734976097.620253,10.0.2.15,22,192.168.56.1,54726,1073725440,14638,1026,65535,65700,0,0,4,1460,312,0,16777216,230000,33580,1120,65700,0,1120,0,1772842043,63
o,1734976097.621245,10.0.2.15,22,192.168.56.1,54706,1073725440,14638,1026,65535,65700,0,0,4,1460,312,0,16777216,230000,33580,1120,65700,1536,0,0,2756429969,63
i,1734976097.625034,10.0.2.15,22,192.168.56.1,54706,1073725440,14638,1026,65535,65700,0,0,4,1460,312,0,16777216,230000,33580,1120,65700,1536,1120,0,2756429969,63
i,1734976097.655840,10.0.2.15,22,192.168.56.1,54726,1073725440,15758,1026,65535,65700,0,0,4,1460,312,0,0,230000,33580,0,65700,0,0,0,1772842043,63
i,1734976097.659855,10.0.2.15,22,192.168.56.1,54706,1073725440,15758,1026,65535,65700,0,0,4,1460,312,0,0,230000,33580,0,65700,0,0,0,2756429969,63
o,1734976097.684362,10.0.2.15,22,192.168.56.1,54726,1073725440,15758,1030,65535,65700,0,0,4,1460,312,0,16777216,230000,33580,1532,65700,0,0,0,1772842043,63
o,1734976097.685384,10.0.2.15,22,192.168.56.1,54726,1073725440,15758,1026,65535,65700,0,0,4,1460,312,0,16777216,230000,33580,1532,65700,0,1460,0,1772842043,63
o,1734976097.686285,10.0.2.15,22,192.168.56.1,54706,1073725440,15758,1030,65535,65700,0,0,4,1460,312,0,16777216,230000,33580,1532,65700,0,0,0,2756429969,63
o,1734976097.686723,10.0.2.15,22,192.168.56.1,54706,1073725440,15758,1026,65535,65700,0,0,4,1460,312,0,16777216,230000,33580,1532,65700,0,1460,0,2756429969,63
i,1734976097.687810,10.0.2.15,22,192.168.56.1,54726,1073725440,15758,1026,65535,65700,0,0,4,1460,312,0,16777216,230000,33580,1532,65700,0,1532,0,1772842043,63
i,1734976097.687887,10.0.2.15,22,192.168.56.1,54726,1073725440,17218,1026,65535,65700,0,0,4,1460,312,0,0,230000,33580,72,65700,0,72,0,1772842043,63
i,1734976097.688001,10.0.2.15,22,192.168.56.1,54706,1073725440,15758,1026,65535,65700,0,0,4,1460,312,0,16777216,230000,33580,1532,65700,0,1532,0,2756429969,63
i,1734976097.704591,10.0.2.15,22,192.168.56.1,54726,1073725440,17290,1026,65535,65700,0,0,4,1460,312,0,0,230000,33580,0,65700,0,0,0,1772842043,63
i,1734976097.704709,10.0.2.15,22,192.168.56.1,54706,1073725440,17290,1026,65535,65700,0,0,4,1460,312,0,0,230000,33580,0,65700,0,0,0,2756429969,63
o,1734976097.705198,10.0.2.15,22,192.168.56.1,54726,1073725440,17290,1026,65535,65700,0,0,4,1460,312,0,16777216,230000,33580,44,65700,0,0,0,1772842043,63
o,1734976097.705762,10.0.2.15,22,192.168.56.1,54706,1073725440,17290,1026,65535,65700,0,0,4,1460,312,0,16777216,230000,33580,44,65700,0,0,0,2756429969,63
i,1734976097.708092,10.0.2.15,22,192.168.56.1,54726,1073725440,17290,1026,65535,65700,0,0,4,1460,312,0,16777216,230000,33580,44,65700,0,44,0,1772842043,63
i,1734976097.708285,10.0.2.15,22,192.168.56.1,54706,1073725440,17290,1026,65535,65700,0,0,4,1460,312,0,16777216,230000,33580,44,65700,0,44,0,2756429969,63
i,1734976097.708358,10.0.2.15,22,192.168.56.1,54706,1073725440,17334,1026,65535,65700,0,0,4,1460,312,0,0,230000,33580,0,65700,0,0,0,2756429969,63
o,1734976097.715779,10.0.2.15,22,192.168.56.1,54726,1073725440,17334,1026,65535,65700,0,0,4,1460,312,0,16777216,230000,33580,280,65700,0,0,0,1772842043,63
o,1734976097.715998,10.0.2.15,22,192.168.56.1,54706,1073725440,17334,1026,65535,65700,0,0,4,1460,312,0,16777216,230000,33580,280,65700,0,0,0,2756429969,63
i,1734976097.719720,10.0.2.15,22,192.168.56.1,54706,1073725440,17334,1026,65535,65700,0,0,4,1460,312,0,16777216,230000,33580,280,65700,0,280,0,2756429969,63
i,1734976097.719761,10.0.2.15,22,192.168.56.1,54726,1073725440,17334,1026,65535,65700,0,0,4,1460,312,0,16777216,230000,33580,280,65700,0,280,0,1772842043,63
i,1734976097.719789,10.0.2.15,22,192.168.56.1,54726,1073725440,17614,1026,65535,65700,0,0,4,1460,312,0,0,240000,33580,0,65700,0,0,0,1772842043,63
o,1734976097.720747,10.0.2.15,22,192.168.56.1,54726,1073725440,17614,1026,65535,65700,0,0,4,1460,312,0,16777216,240000,33580,332,65700,0,0,0,1772842043,63
i,1734976097.725449,10.0.2.15,22,192.168.56.1,54726,1073725440,17614,1026,65535,65700,0,0,4,1460,312,0,16777216,240000,33580,332,65700,0,332,0,1772842043,63
i,1734976097.725537,10.0.2.15,22,192.168.56.1,54726,1073725440,17946,1026,65535,65700,0,0,4,1460,312,0,0,230000,33580,0,65700,0,0,0,1772842043,63
o,1734976097.725657,10.0.2.15,22,192.168.56.1,54706,1073725440,17614,1026,65535,65700,0,0,4,1460,312,0,16777216,240000,33580,332,65700,0,0,0,2756429969,63
i,1734976097.730206,10.0.2.15,22,192.168.56.1,54706,1073725440,17614,1026,65535,65700,0,0,4,1460,312,0,16777216,240000,33580,332,65700,0,332,0,2756429969,63
i,1734976097.730285,10.0.2.15,22,192.168.56.1,54706,1073725440,17946,1026,65535,65700,0,0,4,1460,312,0,0,240000,33580,0,65700,0,0,0,2756429969,63
o,1734976097.744261,10.0.2.15,22,192.168.56.1,54706,1073725440,17946,1026,65535,65700,0,0,4,1460,312,0,16777216,240000,33580,28,65700,0,0,0,2756429969,63
o,1734976097.744523,10.0.2.15,22,192.168.56.1,54726,1073725440,17946,1026,65535,65700,0,0,4,1460,312,0,16777216,230000,33580,28,65700,0,0,0,1772842043,63
i,1734976097.747701,10.0.2.15,22,192.168.56.1,54706,1073725440,17946,1026,65535,65700,0,0,4,1460,312,0,16777216,240000,33580,28,65700,0,28,0,2756429969,63
i,1734976097.747866,10.0.2.15,22,192.168.56.1,54726,1073725440,17946,1026,65535,65700,0,0,4,1460,312,0,16777216,230000,33580,28,65700,0,28,0,1772842043,63
i,1734976097.747940,10.0.2.15,22,192.168.56.1,54726,1073725440,17974,1026,65535,65700,0,0,4,1460,312,0,0,230000,33580,0,65700,0,0,0,1772842043,63
o,1734976097.749616,10.0.2.15,22,192.168.56.1,54726,1073725440,17974,1026,65535,65700,0,0,4,1460,312,0,16777216,230000,33580,768,65700,112,0,0,1772842043,63
o,1734976097.753775,10.0.2.15,22,192.168.56.1,54706,1073725440,17974,1026,65535,65700,0,0,4,1460,312,0,16777216,240000,33580,768,65700,112,0,0,2756429969,63
i,1734976097.755191,10.0.2.15,22,192.168.56.1,54726,1073725440,17974,1026,65535,65700,0,0,4,1460,312,0,16777216,230000,33580,952,65700,0,768,0,1772842043,63
o,1734976097.755272,10.0.2.15,22,192.168.56.1,54726,1073725440,18742,1026,65535,65700,0,0,4,1460,312,0,16777216,230000,33580,184,65700,0,0,0,1772842043,63
i,1734976097.760292,10.0.2.15,22,192.168.56.1,54706,1073725440,17974,1026,65535,65700,0,0,4,1460,312,0,16777216,240000,33580,908,65700,112,768,0,2756429969,63
o,1734976097.760375,10.0.2.15,22,192.168.56.1,54706,1073725440,18742,1026,65535,65700,0,0,4,1460,312,0,16777216,240000,33580,140,65700,112,0,0,2756429969,63
i,1734976097.760771,10.0.2.15,22,192.168.56.1,54726,1073725440,18742,1026,65535,65700,0,0,4,1460,312,0,16777216,230000,33580,184,65700,0,184,0,1772842043,63
i,1734976097.760970,10.0.2.15,22,192.168.56.1,54726,1073725440,18926,1026,65535,65700,0,0,4,1460,312,0,0,230000,33580,0,65700,0,0,0,1772842043,63
i,1734976097.761803,10.0.2.15,22,192.168.56.1,54706,1073725440,18742,1026,65535,65700,0,0,4,1460,312,0,16777216,240000,33580,140,65700,112,140,0,2756429969,63
o,1734976097.763842,10.0.2.15,22,192.168.56.1,54726,1073725440,18926,1026,65535,65700,0,0,4,1460,312,0,16777220,230000,33580,72,65700,0,0,0,1772842043,63
o,1734976097.764181,10.0.2.15,22,192.168.56.1,54706,1073725440,18882,1026,65535,65700,0,0,4,1460,312,0,16777216,230000,33580,44,65700,0,0,0,2756429969,63
i,1734976097.765867,10.0.2.15,22,192.168.56.1,54706,1073725440,18882,1026,65535,65700,0,0,4,1460,312,0,16777216,230000,33580,44,65700,0,44,0,2756429969,63
i,1734976097.766857,10.0.2.15,22,192.168.56.1,54706,1073725440,18926,1026,65535,65700,0,0,4,1460,312,0,0,230000,33580,0,65700,0,0,0,2756429969,63
i,1734976097.769731,10.0.2.15,22,192.168.56.1,54726,1073725440,18926,1026,65535,65700,0,0,4,1460,312,0,16777220,230000,33580,72,65700,0,72,0,1772842043,63
i,1734976097.769808,10.0.2.15,22,192.168.56.1,54726,1073725440,18998,1026,65535,65700,0,0,4,1460,312,0,4,230000,33580,0,65700,0,0,0,1772842043,63
o,1734976097.772875,10.0.2.15,22,192.168.56.1,54706,1073725440,18926,1026,65535,65700,0,0,4,1460,312,0,16777220,230000,33580,72,65700,0,0,0,2756429969,63
i,1734976097.777738,10.0.2.15,22,192.168.56.1,54706,1073725440,18926,1026,65535,65700,0,0,4,1460,312,0,16777220,230000,33580,72,65700,0,72,0,2756429969,63
o,1734976097.818759,10.0.2.15,22,192.168.56.1,54726,1073725440,18998,1026,65535,65700,0,0,4,1460,312,0,5,230000,33580,0,65700,0,0,0,1772842043,63
o,1734976097.893118,172.16.3.2,18548,172.16.1.2,5101,59929,14480,34,65535,65700,6,6,4,1460,549062,1,16778209,2070000,33580,0,65700,0,0,0,1367225816,63
o,1734976097.894157,172.16.3.2,18548,172.16.1.2,5101,59929,14480,34,65535,65700,6,6,4,1460,549062,1,16778212,2070000,33580,37,65700,0,0,0,1367225816,63
o,1734976097.929907,172.16.3.2,38895,172.16.1.2,5102,59929,14480,34,65535,65700,6,6,4,1460,552812,1,16778209,2040000,33580,0,65700,0,0,0,3482615953,63
o,1734976097.930444,172.16.3.2,38895,172.16.1.2,5102,59929,14480,34,65535,65700,6,6,4,1460,552812,1,16778212,2040000,33580,37,65700,0,0,0,3482615953,63
i,1734976098.048431,172.16.3.2,18548,172.16.1.2,5101,59929,14480,34,65535,65700,6,6,4,1460,549062,1,16778212,2070000,33580,37,65700,0,37,0,1367225816,63
i,1734976098.049411,172.16.3.2,38895,172.16.1.2,5102,59929,14480,34,65535,65700,6,6,4,1460,552812,1,16778212,2040000,33580,37,65700,0,37,0,3482615953,63
o,1734976098.049953,172.16.3.2,18548,172.16.1.2,5101,59929,14517,1058,65728,65728,6,6,4,1460,499375,1,16778212,2090000,33580,4,65700,0,0,0,1367225816,63
o,1734976098.050101,172.16.3.2,38895,172.16.1.2,5102,59929,14517,1058,65728,65728,6,6,4,1460,498750,1,16778212,2100000,33580,4,65700,0,0,0,3482615953,63
o,1734976098.050183,172.16.3.2,38895,172.16.1.2,5102,59929,14517,1058,65728,65728,6,6,4,1460,498750,1,16778212,2100000,33580,130,65700,0,4,0,3482615953,63
o,1734976098.051067,172.16.3.2,18548,172.16.1.2,5101,59929,14517,1058,65728,65728,6,6,4,1460,499375,1,16778212,2090000,33580,151,65700,0,4,0,1367225816,63
i,1734976098.219046,172.16.3.2,38895,172.16.1.2,5102,59929,14517,1058,65728,65728,6,6,4,1460,498750,1,16778212,2100000,33580,130,65700,0,130,0,3482615953,63
i,1734976098.219199,172.16.3.2,18548,172.16.1.2,5101,59929,14517,1058,65728,65728,6,6,4,1460,499375,1,16778212,2090000,33580,151,65700,0,151,0,1367225816,63
i,1734976098.219417,172.16.3.2,18548,172.16.1.2,5101,59929,14668,1058,65600,65728,6,6,4,1460,457187,1,996,2030000,33580,0,65700,0,0,0,1367225816,63
i,1734976098.223592,172.16.3.2,38895,172.16.1.2,5102,59929,14647,1058,65600,65728,6,6,4,1460,456562,1,996,2040000,33580,0,65700,0,0,0,3482615953,63
o,1734976098.313642,172.16.3.2,18548,172.16.1.2,5101,59929,14668,1058,65728,65728,6,6,4,1460,457187,1,997,2030000,33580,0,65700,0,0,0,1367225816,63
o,1734976098.314491,172.16.3.2,38895,172.16.1.2,5102,59929,14647,1058,65728,65728,6,6,4,1460,456562,1,997,2040000,33580,0,65700,0,0,0,3482615953,63
o,1734976098.378140,172.16.3.2,33458,172.16.1.2,5101,59929,14480,34,65535,65700,6,6,4,1460,555312,1,16778209,2030000,33580,0,65700,0,0,0,1508636995,63
o,1734976098.378628,172.16.3.2,33458,172.16.1.2,5101,59929,14480,34,65535,65700,6,6,4,1460,555312,1,16778208,2030000,33580,37,65700,0,0,0,1508636995,63
o,1734976098.378720,172.16.3.2,32118,172.16.1.2,5102,59929,14480,34,65535,65700,6,6,4,1460,554062,1,16778209,2030000,33580,0,65700,0,0,0,4175152402,63
o,1734976098.379034,172.16.3.2,32118,172.16.1.2,5102,59929,14480,34,65535,65700,6,6,4,1460,554062,1,16778208,2030000,33580,37,65700,0,0,0,4175152402,63
i,1734976098.497369,172.16.3.2,38895,172.16.1.2,5102,59929,14647,1058,65728,65728,6,6,4,1460,456562,1,996,2040000,33580,0,65700,0,0,0,3482615953,63
i,1734976098.497594,172.16.3.2,38895,172.16.1.2,5102,59929,14647,1058,65728,65728,6,6,4,1460,456562,1,996,2040000,33580,0,65700,1,0,0,3482615953,63
o,1734976098.497668,172.16.3.2,38895,172.16.1.2,5102,59929,14647,1058,65728,65728,6,6,4,1460,456562,1,997,2040000,33580,0,65700,2,0,0,3482615953,63
i,1734976098.498741,172.16.3.2,18548,172.16.1.2,5101,59929,14668,1058,65728,65728,6,6,4,1460,457187,1,996,2030000,33580,0,65700,0,0,0,1367225816,63
i,1734976098.498909,172.16.3.2,18548,172.16.1.2,5101,59929,14668,1058,65728,65728,6,6,4,1460,457187,1,996,2030000,33580,0,65700,1,0,0,1367225816,63
o,1734976098.498997,172.16.3.2,18548,172.16.1.2,5101,59929,14668,1058,65728,65728,6,6,4,1460,457187,1,997,2030000,33580,0,65700,2,0,0,1367225816,63
i,1734976098.499743,172.16.3.2,32118,172.16.1.2,5102,59929,14480,34,65535,65700,6,6,4,1460,554062,1,16778208,2030000,33580,37,65700,0,37,0,4175152402,63
i,1734976098.499880,172.16.3.2,33458,172.16.1.2,5101,59929,14480,34,65535,65700,6,6,4,1460,555312,1,16778208,2030000,33580,37,65700,0,37,0,1508636995,63
o,1734976098.500192,172.16.3.2,33458,172.16.1.2,5101,59929,14517,38,65728,65728,6,6,4,1460,500937,1,16778208,2090000,33580,33580,65700,0,0,0,1508636995,63
o,1734976098.500215,172.16.3.2,32118,172.16.1.2,5102,59929,14517,38,65728,65728,6,6,4,1460,500000,1,16778208,2090000,33580,33580,65700,0,0,0,4175152402,63
o,1734976098.500337,172.16.3.2,32118,172.16.1.2,5102,59929,14517,38,65728,65728,6,6,4,1460,500000,1,16778208,2090000,33580,33580,65700,0,1448,0,4175152402,63
o,1734976098.502017,172.16.3.2,33458,172.16.1.2,5101,59929,14517,38,65728,65728,6,6,4,1460,500937,1,16778208,2090000,33580,33580,65700,0,1448,0,1508636995,63
i,1734976098.741303,172.16.3.2,32118,172.16.1.2,5102,59929,14517,38,65728,65728,6,6,4,1460,500000,1,16778208,2090000,33580,33580,65700,0,14480,0,4175152402,63
o,1734976098.741955,172.16.3.2,32118,172.16.1.2,5102,59929,17413,38,62848,65728,6,6,4,1460,467500,1,16778208,1970000,33580,30684,65700,0,11584,0,4175152402,63
o,1734976098.742322,172.16.3.2,32118,172.16.1.2,5102,59929,17413,38,62848,65728,6,6,4,1460,467500,1,16778208,1970000,33580,30684,65700,0,13032,0,4175152402,63
i,1734976098.743234,172.16.3.2,32118,172.16.1.2,5102,59929,17413,38,62848,65728,6,6,4,1460,467500,1,16778208,1970000,41772,30684,65700,0,17376,0,4175152402,63
o,1734976098.743316,172.16.3.2,32118,172.16.1.2,5102,59929,20309,38,64256,65728,6,6,4,1460,439062,1,16778208,1840000,41772,27788,65700,0,14480,0,4175152402,63
i,1734976098.748498,172.16.3.2,32118,172.16.1.2,5102,59929,20309,38,64256,65728,6,6,4,1460,439062,1,16778208,1840000,41772,41772,65700,0,20272,0,4175152402,63
o,1734976098.748721,172.16.3.2,32118,172.16.1.2,5102,59929,23205,38,61376,65728,6,6,4,1460,414375,1,16778208,1710000,49964,38876,65700,0,17376,0,4175152402,63
i,1734976098.759492,172.16.3.2,32118,172.16.1.2,5102,59929,23205,38,61376,65728,6,6,4,1460,414375,1,16778208,1710000,49964,49964,65700,0,23168,0,4175152402,63
o,1734976098.759764,172.16.3.2,32118,172.16.1.2,5102,59929,26101,38,62848,65728,6,6,4,1460,394062,1,16778208,1580000,49964,47068,65700,0,20272,0,4175152402,63
i,1734976098.768321,172.16.3.2,32118,172.16.1.2,5102,59929,26101,38,62848,65728,6,6,4,1460,394062,1,16778208,1580000,58156,58156,65700,0,26064,0,4175152402,63
o,1734976098.768413,172.16.3.2,32118,172.16.1.2,5102,59929,28997,38,59968,65728,6,6,4,1460,377500,1,16778208,1450000,58156,55260,65700,0,23168,0,4175152402,63
i,1734976098.769460,172.16.3.2,33458,172.16.1.2,5101,59929,14517,38,65728,65728,6,6,4,1460,500937,1,16778208,2090000,33580,33580,65700,0,14480,0,1508636995,63
o,1734976098.769537,172.16.3.2,33458,172.16.1.2,5101,59929,17413,38,64256,65728,6,6,4,1460,470937,1,16778208,1950000,33580,30684,65700,0,11584,0,1508636995,63
o,1734976098.770068,172.16.3.2,33458,172.16.1.2,5101,59929,17413,38,64256,65728,6,6,4,1460,470937,1,16778208,1950000,33580,30684,65700,0,13032,0,1508636995,63
i,1734976098.770603,172.16.3.2,33458,172.16.1.2,5101,59929,17413,38,64256,65728,6,6,4,1460,470937,1,16778208,1950000,41772,30684,65700,0,17376,0,1508636995,63
o,1734976098.770681,172.16.3.2,33458,172.16.1.2,5101,59929,20309,38,61376,65728,6,6,4,1460,444687,1,16778208,1810000,41772,27788,65700,0,14480,0,1508636995,63
i,1734976098.771225,172.16.3.2,33458,172.16.1.2,5101,59929,20309,38,61376,65728,6,6,4,1460,444687,1,16778208,1810000,41772,27788,65700,0,20272,0,1508636995,63
o,1734976098.771363,172.16.3.2,33458,172.16.1.2,5101,59929,23205,38,58496,65728,6,6,4,1460,421875,1,16778208,1680000,41772,24892,65700,0,17376,0,1508636995,63
i,1734976098.772577,172.16.3.2,33458,172.16.1.2,5101,59929,23205,38,58496,65728,6,6,4,1460,421875,1,16778208,1680000,41772,24892,65700,0,23168,0,1508636995,63
o,1734976098.772652,172.16.3.2,33458,172.16.1.2,5101,59929,26101,38,64256,65728,6,6,4,1460,403125,1,16778208,1550000,41772,21996,65700,0,20272,0,1508636995,63
o,1734976098.773667,172.16.3.2,33458,172.16.1.2,5101,59929,26101,38,64256,65728,6,6,4,1460,403125,1,16778208,1550000,49964,41772,65700,0,21996,0,1508636995,63
i,1734976098.776301,172.16.3.2,33458,172.16.1.2,5101,59929,26101,38,64256,65728,6,6,4,1460,403125,1,16778208,1550000,58156,58156,65700,0,24892,0,1508636995,63
o,1734976098.776404,172.16.3.2,33458,172.16.1.2,5101,59929,28997,38,64256,65728,6,6,4,1460,386562,1,16778208,1430000,58156,55260,65700,0,21996,0,1508636995,63
i,1734976099.074516,172.16.3.2,32118,172.16.1.2,5102,59929,28997,38,59968,65728,6,6,4,1460,377500,1,16778208,1450000,66348,66348,65700,0,28960,0,4175152402,63
o,1734976099.074746,172.16.3.2,32118,172.16.1.2,5102,59929,31893,38,64256,65728,6,6,4,1460,371562,1,16778208,1270000,66348,63452,65700,0,26064,0,4175152402,63
o,1734976099.075305,172.16.3.2,32118,172.16.1.2,5102,59929,31893,38,64256,65728,6,6,4,1460,371562,1,16778208,1270000,66348,63452,65700,0,27512,0,4175152402,63
i,1734976099.075967,172.16.3.2,32118,172.16.1.2,5102,59929,31893,38,64256,65728,6,6,4,1460,371562,1,16778208,1270000,74540,63452,65700,0,31856,0,4175152402,63
o,1734976099.076042,172.16.3.2,32118,172.16.1.2,5102,59929,34789,38,61376,65728,6,6,4,1460,366562,1,16778208,1130000,74540,60556,65700,0,28960,0,4175152402,63
i,1734976099.076502,172.16.3.2,32118,172.16.1.2,5102,59929,34789,38,61376,65728,6,6,4,1460,366562,1,16778208,1130000,74540,60556,65700,0,34752,0,4175152402,63
o,1734976099.076597,172.16.3.2,32118,172.16.1.2,5102,59929,37685,38,62848,65728,6,6,4,1460,362187,1,16778208,1020000,74540,57660,65700,0,31856,0,4175152402,63
i,1734976099.077747,172.16.3.2,32118,172.16.1.2,5102,59929,37685,38,62848,65728,6,6,4,1460,362187,1,16778208,1020000,74540,57660,65700,0,37648,0,4175152402,63
o,1734976099.077814,172.16.3.2,32118,172.16.1.2,5102,59929,39133,38,65728,65728,6,6,4,1460,358437,1,16778208,930000,74540,56212,65700,0,36200,0,4175152402,63
i,1734976099.078091,172.16.3.2,32118,172.16.1.2,5102,59929,39133,38,65728,65728,6,6,4,1460,358437,1,16778208,930000,74540,56212,65700,0,39096,0,4175152402,63
o,1734976099.078121,172.16.3.2,32118,172.16.1.2,5102,59929,42029,38,62848,65728,6,6,4,1460,355000,1,16778208,860000,74540,53316,65700,0,36200,0,4175152402,63
i,1734976099.078410,172.16.3.2,32118,172.16.1.2,5102,59929,42029,38,62848,65728,6,6,4,1460,355000,1,16778208,860000,74540,53316,65700,0,41992,0,4175152402,63
o,1734976099.078440,172.16.3.2,32118,172.16.1.2,5102,59929,44925,38,62848,65728,6,6,4,1460,351875,1,16778208,810000,74540,50420,65700,0,39096,0,4175152402,63
i,1734976099.078837,172.16.3.2,32118,172.16.1.2,5102,59929,44925,38,62848,65728,6,6,4,1460,351875,1,16778208,810000,74540,50420,65700,0,44888,0,4175152402,63
o,1734976099.078916,172.16.3.2,32118,172.16.1.2,5102,59929,47821,38,59968,65728,6,6,4,1460,349375,1,16778208,760000,74540,47524,65700,0,41992,0,4175152402,63
i,1734976099.079629,172.16.3.2,32118,172.16.1.2,5102,59929,47821,38,59968,65728,6,6,4,1460,349375,1,16778208,760000,74540,47524,65700,0,47524,0,4175152402,63
o,1734976099.080196,172.16.3.2,32118,172.16.1.2,5102,59929,50717,38,57088,65728,6,6,4,1460,345937,1,16778208,730000,74540,74540,65700,0,44628,0,4175152402,63
i,1734976099.087698,172.16.3.2,32118,172.16.1.2,5102,59929,50717,38,57088,65728,6,6,4,1460,345937,1,16778208,730000,74540,74540,65700,0,50420,0,4175152402,63
o,1734976099.087803,172.16.3.2,32118,172.16.1.2,5102,59929,53613,38,62848,65728,6,6,4,1460,344062,1,16778208,700000,82732,71644,65700,0,47524,0,4175152402,63
i,1734976099.088368,172.16.3.2,32118,172.16.1.2,5102,59929,53613,38,62848,65728,6,6,4,1460,344062,1,16778208,700000,82732,71644,65700,0,53316,0,4175152402,63
o,1734976099.088442,172.16.3.2,32118,172.16.1.2,5102,59929,56509,38,59968,65728,6,6,4,1460,341250,1,16778208,680000,82732,68748,65700,0,50420,0,4175152402,63
i,1734976099.089143,172.16.3.2,33458,172.16.1.2,5101,59929,28997,38,64256,65728,6,6,4,1460,386562,1,16778208,1430000,66348,66348,65700,0,27788,0,1508636995,63
o,1734976099.089223,172.16.3.2,33458,172.16.1.2,5101,59929,31893,38,62848,65728,6,6,4,1460,378437,1,16778208,1270000,66348,63452,65700,0,24892,0,1508636995,63
o,1734976099.089706,172.16.3.2,33458,172.16.1.2,5101,59929,31893,38,62848,65728,6,6,4,1460,378437,1,16778208,1270000,66348,63452,65700,0,26340,0,1508636995,63
i,1734976099.090254,172.16.3.2,33458,172.16.1.2,5101,59929,31893,38,62848,65728,6,6,4,1460,378437,1,16778208,1270000,66348,63452,65700,0,30684,0,1508636995,63
o,1734976099.090290,172.16.3.2,33458,172.16.1.2,5101,59929,34789,38,64256,65728,6,6,4,1460,371250,1,16778208,1150000,74540,60556,65700,0,27788,0,1508636995,63
i,1734976099.090528,172.16.3.2,33458,172.16.1.2,5101,59929,34789,38,64256,65728,6,6,4,1460,371250,1,16778208,1150000,74540,60556,65700,0,33580,0,1508636995,63
o,1734976099.090558,172.16.3.2,33458,172.16.1.2,5101,59929,37685,38,61376,65728,6,6,4,1460,365000,1,16778208,1050000,74540,57660,65700,0,30684,0,1508636995,63
i,1734976099.092701,172.16.3.2,33458,172.16.1.2,5101,59929,37685,38,61376,65728,6,6,4,1460,365000,1,16778208,1050000,74540,57660,65700,0,36476,0,1508636995,63
o,1734976099.092811,172.16.3.2,33458,172.16.1.2,5101,59929,40581,38,64256,65728,6,6,4,1460,360625,1,16778208,960000,82732,71644,65700,0,33580,0,1508636995,63
i,1734976099.093392,172.16.3.2,33458,172.16.1.2,5101,59929,40581,38,64256,65728,6,6,4,1460,360625,1,16778208,960000,82732,71644,65700,0,39372,0,1508636995,63
o,1734976099.093468,172.16.3.2,33458,172.16.1.2,5101,59929,43477,38,64256,65728,6,6,4,1460,356875,1,16778208,880000,82732,68748,65700,0,36476,0,1508636995,63
i,1734976099.094078,172.16.3.2,33458,172.16.1.2,5101,59929,43477,38,64256,65728,6,6,4,1460,356875,1,16778208,880000,82732,68748,65700,0,42268,0,1508636995,63
o,1734976099.094248,172.16.3.2,33458,172.16.1.2,5101,59929,46373,38,61376,65728,6,6,4,1460,353750,1,16778208,820000,82732,65852,65700,0,39372,0,1508636995,63
i,1734976099.094525,172.16.3.2,33458,172.16.1.2,5101,59929,46373,38,61376,65728,6,6,4,1460,353750,1,16778208,820000,82732,65852,65700,0,45164,0,1508636995,63
o,1734976099.094562,172.16.3.2,33458,172.16.1.2,5101,59929,48097,38,64000,65728,6,6,4,1460,349687,1,16778208,780000,82732,64128,65700,0,43440,0,1508636995,63
i,1734976099.095223,172.16.3.2,33458,172.16.1.2,5101,59929,48097,38,64000,65728,6,6,4,1460,349687,1,16778208,780000,82732,64128,65700,0,47784,0,1508636995,63
o,1734976099.095298,172.16.3.2,33458,172.16.1.2,5101,59929,50993,38,61120,65728,6,6,4,1460,346250,1,16778208,750000,82732,61232,65700,0,44888,0,1508636995,63
i,1734976099.095890,172.16.3.2,32118,172.16.1.2,5102,59929,56509,38,59968,65728,6,6,4,1460,341250,1,16778208,680000,82732,82732,65700,0,56212,0,4175152402,63
o,1734976099.096014,172.16.3.2,32118,172.16.1.2,5102,59929,57957,38,65728,65728,6,6,4,1460,340000,1,16778208,650000,82732,81284,65700,0,54764,0,4175152402,63
i,1734976099.096564,172.16.3.2,33458,172.16.1.2,5101,59929,50993,38,61120,65728,6,6,4,1460,346250,1,16778208,750000,82732,61232,65700,0,50680,0,1508636995,63
o,1734976099.096640,172.16.3.2,33458,172.16.1.2,5101,59929,53889,38,62848,65728,6,6,4,1460,343125,1,16778208,720000,82732,58336,65700,0,47784,0,1508636995,63
i,1734976099.097215,172.16.3.2,33458,172.16.1.2,5101,59929,53889,38,62848,65728,6,6,4,1460,343125,1,16778208,720000,82732,58336,65700,0,53576,0,1508636995,63
o,1734976099.097290,172.16.3.2,33458,172.16.1.2,5101,59929,56785,38,59968,65728,6,6,4,1460,340312,1,16778208,700000,82732,55440,65700,0,50680,0,1508636995,63
o,1734976099.763402,172.16.3.2,32118,172.16.1.2,5102,28960,1448,98,65728,65728,6,6,4,1460,340000,1,16786401,1100000,82732,81284,65700,0,57660,0,4175152402,63
o,1734976099.813129,172.16.3.2,33458,172.16.1.2,5101,39705,1448,98,59968,65728,6,6,4,1460,340312,1,16786401,1200000,82732,82732,65700,0,55440,0,1508636995,63
i,1734976099.862818,172.16.3.2,32118,172.16.1.2,5102,28960,1448,98,65728,65728,6,6,4,1460,340000,1,16786400,1100000,82732,81284,65700,0,57660,0,4175152402,63
o,1734976099.863121,172.16.3.2,32118,172.16.1.2,5102,59929,59405,38,98560,65728,6,6,4,1460,395000,1,16778208,1120000,90924,79836,65700,0,56212,0,4175152402,63
o,1734976099.865325,172.16.3.2,32118,172.16.1.2,5102,59929,59405,38,98560,65728,6,6,4,1460,395000,1,16778208,1120000,99116,79836,65700,0,57660,0,4175152402,63
i,1734976099.874059,172.16.3.2,32118,172.16.1.2,5102,59929,59405,38,98560,65728,6,6,4,1460,395000,1,16778208,1120000,123692,123692,65700,0,59108,0,4175152402,63
o,1734976099.874125,172.16.3.2,32118,172.16.1.2,5102,59929,62301,38,97152,65728,6,6,4,1460,445625,1,16778208,1440000,123692,120796,65700,0,56212,0,4175152402,63
i,1734976099.874944,172.16.3.2,32118,172.16.1.2,5102,59929,62301,38,97152,65728,6,6,4,1460,445625,1,16778208,1440000,123692,120796,65700,0,62004,0,4175152402,63
o,1734976099.875042,172.16.3.2,32118,172.16.1.2,5102,59929,62301,38,94272,65728,6,6,4,1460,490000,1,16778208,1640000,123692,117900,65700,0,59108,0,4175152402,63
i,1734976099.879627,172.16.3.2,32118,172.16.1.2,5102,59929,62301,38,94272,65728,6,6,4,1460,490000,1,16778208,1640000,123692,123692,65700,0,62004,0,4175152402,63
o,1734976099.879715,172.16.3.2,32118,172.16.1.2,5102,59929,62301,38,95680,65728,6,6,4,1460,528750,1,16778208,1750000,123692,120796,65700,0,59108,0,4175152402,63
i,1734976099.880267,172.16.3.2,32118,172.16.1.2,5102,59929,62301,38,95680,65728,6,6,4,1460,528750,1,16778208,1750000,123692,120796,65700,0,62004,0,4175152402,63
o,1734976099.880343,172.16.3.2,32118,172.16.1.2,5102,59929,62301,38,92800,65728,6,6,4,1460,562812,1,16778208,1800000,123692,117900,65700,0,59108,0,4175152402,63
i,1734976099.883390,172.16.3.2,32118,172.16.1.2,5102,59929,62301,38,92800,65728,6,6,4,1460,562812,1,16778208,1800000,123692,123692,65700,0,62004,0,4175152402,63
o,1734976099.883492,172.16.3.2,32118,172.16.1.2,5102,59929,62301,38,97152,65728,6,6,4,1460,592500,1,16778208,1810000,123692,120796,65700,0,59108,0,4175152402,63
i,1734976099.884087,172.16.3.2,32118,172.16.1.2,5102,59929,62301,38,97152,65728,6,6,4,1460,592500,1,16778208,1810000,123692,120796,65700,0,62004,0,4175152402,63
o,1734976099.884163,172.16.3.2,32118,172.16.1.2,5102,59929,62301,38,97152,65728,6,6,4,1460,618437,1,16778208,1790000,123692,117900,65700,0,59108,0,4175152402,63
i,1734976099.885430,172.16.3.2,32118,172.16.1.2,5102,59929,62301,38,97152,65728,6,6,4,1460,618437,1,16778208,1790000,123692,117900,65700,0,62004,0,4175152402,63
o,1734976099.885507,172.16.3.2,32118,172.16.1.2,5102,59929,62301,38,94272,65728,6,6,4,1460,641250,1,16778208,1750000,123692,115004,65700,0,59108,0,4175152402,63
i,1734976099.886149,172.16.3.2,32118,172.16.1.2,5102,59929,62301,38,94272,65728,6,6,4,1460,641250,1,16778208,1750000,123692,115004,65700,0,62004,0,4175152402,63
o,1734976099.886234,172.16.3.2,32118,172.16.1.2,5102,59929,62301,38,91392,65728,6,6,4,1460,661250,1,16778208,1700000,123692,112108,65700,0,59108,0,4175152402,63
i,1734976099.886796,172.16.3.2,32118,172.16.1.2,5102,59929,62301,38,91392,65728,6,6,4,1460,661250,1,16778208,1700000,123692,112108,65700,0,62004,0,4175152402,63
o,1734976099.886872,172.16.3.2,32118,172.16.1.2,5102,59929,62301,38,97152,65728,6,6,4,1460,678750,1,16778208,1650000,123692,109212,65700,0,59108,0,4175152402,63
i,1734976099.950493,172.16.3.2,32118,172.16.1.2,5102,59929,62301,38,97152,65728,6,6,4,1460,678750,1,16778208,1650000,123692,123692,65700,0,62004,0,4175152402,63
o,1734976099.950593,172.16.3.2,32118,172.16.1.2,5102,59929,62301,38,95680,65728,6,6,4,1460,702812,1,16778208,1680000,123692,120796,65700,0,59108,0,4175152402,63
i,1734976099.951168,172.16.3.2,32118,172.16.1.2,5102,59929,62301,38,95680,65728,6,6,4,1460,702812,1,16778208,1680000,123692,120796,65700,0,62004,0,4175152402,63
o,1734976099.951242,172.16.3.2,32118,172.16.1.2,5102,59929,62301,38,95680,65728,6,6,4,1460,723750,1,16778208,1670000,123692,117900,65700,0,59108,0,4175152402,63
i,1734976099.952380,172.16.3.2,32118,172.16.1.2,5102,59929,62301,38,95680,65728,6,6,4,1460,723750,1,16778208,1670000,123692,117900,65700,0,62004,0,4175152402,63
o,1734976099.952454,172.16.3.2,32118,172.16.1.2,5102,59929,62301,38,92800,65728,6,6,4,1460,742187,1,16778208,1650000,123692,115004,65700,0,59108,0,4175152402,63
i,1734976099.952923,172.16.3.2,32118,172.16.1.2,5102,59929,62301,38,92800,65728,6,6,4,1460,742187,1,16778208,1650000,123692,115004,65700,0,62004,0,4175152402,63
o,1734976099.953001,172.16.3.2,32118,172.16.1.2,5102,59929,62301,38,90176,65728,6,6,4,1460,758437,1,16778208,1620000,123692,112368,65700,0,59368,0,4175152402,63
i,1734976099.953535,172.16.3.2,32118,172.16.1.2,5102,59929,62301,38,90176,65728,6,6,4,1460,758437,1,16778208,1620000,123692,112368,65700,0,62264,0,4175152402,63
o,1734976099.953661,172.16.3.2,32118,172.16.1.2,5102,59929,62301,38,87296,65728,6,6,4,1460,772500,1,16778208,1580000,123692,109472,65700,0,59368,0,4175152402,63
i,1734976099.954214,172.16.3.2,32118,172.16.1.2,5102,59929,62301,38,87296,65728,6,6,4,1460,772500,1,16778208,1580000,123692,109472,65700,0,62264,0,4175152402,63
o,1734976099.954289,172.16.3.2,32118,172.16.1.2,5102,59929,62301,38,84416,65728,6,6,4,1460,784687,1,16778208,1540000,123692,106576,65700,0,59368,0,4175152402,63
i,1734976099.955250,172.16.3.2,32118,172.16.1.2,5102,59929,62301,38,84416,65728,6,6,4,1460,784687,1,16778208,1540000,123692,106576,65700,0,62264,0,4175152402,63
o,1734976099.955329,172.16.3.2,32118,172.16.1.2,5102,59929,62301,38,97152,65728,6,6,4,1460,794375,1,16778208,1490000,123692,103680,65700,0,59368,0,4175152402,63
i,1734976099.955909,172.16.3.2,32118,172.16.1.2,5102,59929,62301,38,97152,65728,6,6,4,1460,794375,1,16778208,1490000,123692,103680,65700,0,62264,0,4175152402,63
o,1734976099.956052,172.16.3.2,32118,172.16.1.2,5102,59929,62301,38,94272,65728,6,6,4,1460,802812,1,16778208,1440000,123692,100784,65700,0,59368,0,4175152402,63
i,1734976099.956961,172.16.3.2,32118,172.16.1.2,5102,59929,62301,38,94272,65728,6,6,4,1460,802812,1,16778208,1440000,123692,123692,65700,0,62264,0,4175152402,63
o,1734976099.956994,172.16.3.2,32118,172.16.1.2,5102,59929,62301,38,97152,65728,6,6,4,1460,810000,1,16778208,1400000,123692,120796,65700,0,59368,0,4175152402,63
i,1734976099.957340,172.16.3.2,32118,172.16.1.2,5102,59929,62301,38,97152,65728,6,6,4,1460,810000,1,16778208,1400000,123692,120796,65700,0,62264,0,4175152402,63
o,1734976099.957415,172.16.3.2,32118,172.16.1.2,5102,59929,62301,38,146432,65728,6,6,4,1460,816250,1,16778208,1350000,131884,119348,65700,0,60816,0,4175152402,63
i,1734976099.958489,172.16.3.2,33458,172.16.1.2,5101,39705,1448,98,59968,65728,6,6,4,1460,340312,1,16786400,1200000,82732,82732,65700,0,55440,0,1508636995,63
o,1734976099.958589,172.16.3.2,33458,172.16.1.2,5101,59929,59681,38,95680,65728,6,6,4,1460,405312,1,16778208,1240000,90924,79836,65700,0,52544,0,1508636995,63
o,1734976099.959068,172.16.3.2,33458,172.16.1.2,5101,59929,59681,38,95680,65728,6,6,4,1460,405312,1,16778208,1240000,99116,79836,65700,0,53992,0,1508636995,63
i,1734976099.959677,172.16.3.2,33458,172.16.1.2,5101,59929,59681,38,95680,65728,6,6,4,1460,405312,1,16778208,1240000,99116,79836,65700,0,58336,0,1508636995,63
o,1734976099.959751,172.16.3.2,33458,172.16.1.2,5101,59929,62577,38,95680,65728,6,6,4,1460,462187,1,16778208,1590000,99116,76940,65700,0,55440,0,1508636995,63
i,1734976099.960347,172.16.3.2,33458,172.16.1.2,5101,59929,62577,38,95680,65728,6,6,4,1460,462187,1,16778208,1590000,99116,76940,65700,0,61232,0,1508636995,63
o,1734976099.960457,172.16.3.2,33458,172.16.1.2,5101,59929,62577,38,95680,65728,6,6,4,1460,512187,1,16778208,1810000,99116,74044,65700,0,58336,0,1508636995,63
i,1734976099.961008,172.16.3.2,33458,172.16.1.2,5101,59929,62577,38,95680,65728,6,6,4,1460,512187,1,16778208,1810000,99116,74044,65700,0,61232,0,1508636995,63
o,1734976099.961084,172.16.3.2,33458,172.16.1.2,5101,59929,62577,38,97152,65728,6,6,4,1460,555937,1,16778208,1930000,99116,71148,65700,0,58336,0,1508636995,63
i,1734976099.962244,172.16.3.2,33458,172.16.1.2,5101,59929,62577,38,97152,65728,6,6,4,1460,555937,1,16778208,1930000,99116,71148,65700,0,61232,0,1508636995,63
o,1734976099.962320,172.16.3.2,33458,172.16.1.2,5101,59929,62577,38,94272,65728,6,6,4,1460,596562,1,16778208,2000000,99116,68252,65700,0,58336,0,1508636995,63
i,1734976099.962860,172.16.3.2,33458,172.16.1.2,5101,59929,62577,38,94272,65728,6,6,4,1460,596562,1,16778208,2000000,99116,68252,65700,0,61232,0,1508636995,63
o,1734976099.962982,172.16.3.2,33458,172.16.1.2,5101,59929,62577,38,91392,65728,6,6,4,1460,632187,1,16778208,2020000,99116,65356,65700,0,58336,0,1508636995,63
i,1734976099.963517,172.16.3.2,33458,172.16.1.2,5101,59929,62577,38,91392,65728,6,6,4,1460,632187,1,16778208,2020000,99116,65356,65700,0,61232,0,1508636995,63
o,1734976099.963590,172.16.3.2,33458,172.16.1.2,5101,59929,62577,38,88512,65728,6,6,4,1460,662187,1,16778208,1990000,99116,62460,65700,0,58336,0,1508636995,63
i,1734976099.964254,172.16.3.2,33458,172.16.1.2,5101,59929,62577,38,88512,65728,6,6,4,1460,662187,1,16778208,1990000,99116,62460,65700,0,62460,0,1508636995,63
i,1734976099.964386,172.16.3.2,33458,172.16.1.2,5101,59929,62577,38,85632,65728,6,6,4,1460,688437,1,16778208,1950000,99116,59564,65700,0,59564,0,1508636995,63
i,1734976099.964518,172.16.3.2,33458,172.16.1.2,5101,59929,62577,38,82752,65728,6,6,4,1460,711250,1,16778208,1890000,99116,56668,65700,0,56668,0,1508636995,63
i,1734976099.964648,172.16.3.2,33458,172.16.1.2,5101,59929,62577,38,79872,65728,6,6,4,1460,731250,1,16778208,1820000,99116,53772,65700,0,53772,0,1508636995,63
o,1734976099.964850,172.16.3.2,33458,172.16.1.2,5101,59929,62577,38,76992,65728,6,6,4,1460,748750,1,16778208,1760000,99116,56948,65700,0,50876,0,1508636995,63
o,1734976099.966774,172.16.3.2,33458,172.16.1.2,5101,59929,62577,38,76992,65728,6,6,4,1460,748750,1,16778208,1760000,99116,99116,65700,0,56948,0,1508636995,63
i,1734976100.072841,172.16.3.2,33458,172.16.1.2,5101,59929,62577,38,76992,65728,6,6,4,1460,748750,1,16778208,1760000,99116,99116,65700,0,61292,0,1508636995,63
o,1734976100.072942,172.16.3.2,33458,172.16.1.2,5101,59929,62577,38,74112,65728,6,6,4,1460,777812,1,16778208,1820000,99116,96220,65700,0,58396,0,1508636995,63
i,1734976100.073540,172.16.3.2,33458,172.16.1.2,5101,59929,62577,38,74112,65728,6,6,4,1460,777812,1,16778208,1820000,99116,96220,65700,0,61292,0,1508636995,63
o,1734976100.073616,172.16.3.2,33458,172.16.1.2,5101,59929,62577,38,71232,65728,6,6,4,1460,803125,1,16778208,1830000,99116,93324,65700,0,58396,0,1508636995,63
i,1734976100.074545,172.16.3.2,33458,172.16.1.2,5101,59929,62577,38,71232,65728,6,6,4,1460,803125,1,16778208,1830000,99116,93324,65700,0,61292,0,1508636995,63
o,1734976100.074622,172.16.3.2,33458,172.16.1.2,5101,59929,62577,38,68352,65728,6,6,4,1460,825312,1,16778208,1830000,99116,90428,65700,0,58396,0,1508636995,63
i,1734976100.075165,172.16.3.2,33458,172.16.1.2,5101,59929,62577,38,68352,65728,6,6,4,1460,825312,1,16778208,1830000,99116,90428,65700,0,61292,0,1508636995,63
o,1734976100.075294,172.16.3.2,33458,172.16.1.2,5101,59929,62577,38,65472,65728,6,6,4,1460,844687,1,16778208,1800000,99116,87532,65700,0,58396,0,1508636995,63
i,1734976100.076512,172.16.3.2,32118,172.16.1.2,5102,59929,62301,38,146432,65728,6,6,4,1460,816250,1,16778208,1350000,140076,140076,65700,0,62264,0,4175152402,63
o,1734976100.076598,172.16.3.2,32118,172.16.1.2,5102,59929,62301,38,144960,65728,6,6,4,1460,836875,1,16778208,1450000,140076,137180,65700,0,59368,0,4175152402,63
i,1734976100.079581,172.16.3.2,33458,172.16.1.2,5101,59929,62577,38,65472,65728,6,6,4,1460,844687,1,16778208,1800000,99116,99116,65700,0,61292,0,1508636995,63
o,1734976100.079677,172.16.3.2,33458,172.16.1.2,5101,59929,62577,38,62592,65728,6,6,4,1460,861875,1,16778208,1760000,99116,96220,65700,0,58396,0,1508636995,63
i,1734976100.080228,172.16.3.2,33458,172.16.1.2,5101,59929,62577,38,62592,65728,6,6,4,1460,861875,1,16778208,1760000,99116,96220,65700,0,61292,0,1508636995,63
i,1734976100.080674,172.16.3.2,33458,172.16.1.2,5101,59929,62577,38,59712,65728,6,6,4,1460,876875,1,16778208,1720000,99116,93324,65700,0,58396,0,1508636995,63
i,1734976100.085343,172.16.3.2,33458,172.16.1.2,5101,59929,62577,38,59712,65728,6,6,4,1460,876875,1,16778208,1720000,99116,99116,65700,0,58396,0,1508636995,63
o,1734976100.085440,172.16.3.2,33458,172.16.1.2,5101,59929,62577,38,95680,65728,6,6,4,1460,890000,1,16778208,1680000,107308,96220,65700,0,55500,0,1508636995,63
i,1734976100.086140,172.16.3.2,33458,172.16.1.2,5101,59929,62577,38,95680,65728,6,6,4,1460,890000,1,16778208,1680000,115500,96220,65700,0,61292,0,1508636995,63
o,1734976100.086175,172.16.3.2,33458,172.16.1.2,5101,59929,62577,38,95680,65728,6,6,4,1460,901250,1,16778208,1630000,115500,93324,65700,0,58396,0,1508636995,63
i,1734976100.090668,172.16.3.2,33458,172.16.1.2,5101,59929,62577,38,95680,65728,6,6,4,1460,901250,1,16778208,1630000,123692,123692,65700,0,61292,0,1508636995,63
o,1734976100.090942,172.16.3.2,33458,172.16.1.2,5101,59929,62577,38,98560,65728,6,6,4,1460,911250,1,16778208,1590000,123692,123276,65700,0,60876,0,1508636995,63
i,1734976100.335219,172.16.3.2,32118,172.16.1.2,5102,59929,62301,38,144960,65728,6,6,4,1460,836875,1,16778208,1450000,140076,140076,65700,0,62264,0,4175152402,63
i,1734976100.470233,172.16.3.2,33458,172.16.1.2,5101,59929,62577,38,98560,65728,6,6,4,1460,911250,1,16778208,1590000,123692,123276,65700,0,62324,0,1508636995,63
i,1734976100.475874,172.16.3.2,32118,172.16.1.2,5102,59929,62301,38,147840,65728,6,6,4,1460,836875,1,16778208,1450000,140076,140076,65700,0,62264,0,4175152402,63
o,1734976100.475966,172.16.3.2,32118,172.16.1.2,5102,59929,62301,38,147840,65728,6,6,4,1460,808750,1,16778208,1550000,140076,138628,65700,0,60816,0,4175152402,63
i,1734976100.481911,172.16.3.2,32118,172.16.1.2,5102,59929,62301,38,147840,65728,6,6,4,1460,808750,1,16778208,1550000,140076,138628,65700,0,62264,0,4175152402,63
o,1734976100.481996,172.16.3.2,32118,172.16.1.2,5102,59929,62301,38,144960,65728,6,6,4,1460,785312,1,16778208,1580000,140076,135732,65700,0,59368,0,4175152402,63
i,1734976100.482667,172.16.3.2,32118,172.16.1.2,5102,59929,62301,38,144960,65728,6,6,4,1460,785312,1,16778208,1580000,140076,135732,65700,0,62264,0,4175152402,63
o,1734976100.482741,172.16.3.2,32118,172.16.1.2,5102,59929,62301,38,142080,65728,6,6,4,1460,762187,1,16778208,1590000,140076,132836,65700,0,59368,0,4175152402,63
i,1734976100.490156,172.16.3.2,32118,172.16.1.2,5102,59929,62301,38,142080,65728,6,6,4,1460,762187,1,16778208,1590000,140076,140076,65700,0,62264,0,4175152402,63
o,1734976100.490316,172.16.3.2,32118,172.16.1.2,5102,59929,63761,38,139200,65728,6,6,4,1460,742187,1,16778208,1570000,140076,137180,65700,0,59368,0,4175152402,63
i,1734976100.491244,172.16.3.2,32118,172.16.1.2,5102,59929,63761,38,139200,65728,6,6,4,1460,742187,1,16778208,1570000,140076,140076,65700,0,63712,0,4175152402,63
o,1734976100.491802,172.16.3.2,32118,172.16.1.2,5102,59929,63761,38,136320,65728,6,6,4,1460,725937,1,16778208,1530000,140076,137180,65700,0,60816,0,4175152402,63
i,1734976100.492824,172.16.3.2,32118,172.16.1.2,5102,59929,63761,38,136320,65728,6,6,4,1460,725937,1,16778208,1530000,140076,137180,65700,0,63712,0,4175152402,63
o,1734976100.492899,172.16.3.2,32118,172.16.1.2,5102,59929,63761,38,133440,65728,6,6,4,1460,711562,1,16778208,1480000,140076,134284,65700,0,60816,0,4175152402,63
i,1734976100.494001,172.16.3.2,32118,172.16.1.2,5102,59929,63761,38,133440,65728,6,6,4,1460,711562,1,16778208,1480000,140076,134284,65700,0,63712,0,4175152402,63
o,1734976100.494077,172.16.3.2,32118,172.16.1.2,5102,59929,63761,38,146432,65728,6,6,4,1460,699062,1,16778208,1420000,140076,131388,65700,0,60816,0,4175152402,63
i,1734976100.494821,172.16.3.2,32118,172.16.1.2,5102,59929,63761,38,146432,65728,6,6,4,1460,699062,1,16778208,1420000,140076,131388,65700,0,63712,0,4175152402,63
o,1734976100.494897,172.16.3.2,32118,172.16.1.2,5102,59929,63761,38,146432,65728,6,6,4,1460,686875,1,16778208,1380000,140076,128492,65700,0,60816,0,4175152402,63
i,1734976100.495631,172.16.3.2,32118,172.16.1.2,5102,59929,63761,38,146432,65728,6,6,4,1460,686875,1,16778208,1380000,140076,128492,65700,0,63712,0,4175152402,63
o,1734976100.495710,172.16.3.2,32118,172.16.1.2,5102,59929,63761,38,144960,65728,6,6,4,1460,676250,1,16778208,1330000,140076,125596,65700,0,60816,0,4175152402,63
i,1734976100.548651,172.16.3.2,32118,172.16.1.2,5102,59929,63761,38,144960,65728,6,6,4,1460,676250,1,16778208,1330000,148268,148268,65700,0,63712,0,4175152402,63
o,1734976100.548712,172.16.3.2,32118,172.16.1.2,5102,59929,63761,38,144960,65728,6,6,4,1460,674375,1,16778208,1230000,148268,145372,65700,0,60816,0,4175152402,63
i,1734976100.548986,172.16.3.2,32118,172.16.1.2,5102,59929,63761,38,144960,65728,6,6,4,1460,674375,1,16778208,1230000,148268,145372,65700,0,63712,0,4175152402,63
o,1734976100.549017,172.16.3.2,32118,172.16.1.2,5102,59929,63761,38,144960,65728,6,6,4,1460,672812,1,16778208,1150000,148268,142476,65700,0,60816,0,4175152402,63
i,1734976100.549766,172.16.3.2,32118,172.16.1.2,5102,59929,63761,38,144960,65728,6,6,4,1460,672812,1,16778208,1150000,148268,142476,65700,0,63712,0,4175152402,63
o,1734976100.549813,172.16.3.2,32118,172.16.1.2,5102,59929,63761,38,146432,65728,6,6,4,1460,671250,1,16778208,1090000,148268,139580,65700,0,60816,0,4175152402,63
i,1734976100.550059,172.16.3.2,32118,172.16.1.2,5102,59929,63761,38,146432,65728,6,6,4,1460,671250,1,16778208,1090000,148268,139580,65700,0,63712,0,4175152402,63
o,1734976100.550090,172.16.3.2,32118,172.16.1.2,5102,59929,63761,38,143552,65728,6,6,4,1460,661250,1,16778208,1110000,148268,136684,65700,0,60816,0,4175152402,63
i,1734976100.550336,172.16.3.2,32118,172.16.1.2,5102,59929,63761,38,143552,65728,6,6,4,1460,661250,1,16778208,1110000,148268,136684,65700,0,63712,0,4175152402,63
o,1734976100.550366,172.16.3.2,32118,172.16.1.2,5102,59929,63761,38,140672,65728,6,6,4,1460,652500,1,16778208,1110000,148268,133788,65700,0,60816,0,4175152402,63
i,1734976100.552759,172.16.3.2,32118,172.16.1.2,5102,59929,63761,38,140672,65728,6,6,4,1460,652500,1,16778208,1110000,148268,148268,65700,0,63712,0,4175152402,63
o,1734976100.552794,172.16.3.2,32118,172.16.1.2,5102,59929,63761,38,146432,65728,6,6,4,1460,645937,1,16778208,1090000,148268,145372,65700,0,60816,0,4175152402,63
i,1734976100.553461,172.16.3.2,32118,172.16.1.2,5102,59929,63761,38,146432,65728,6,6,4,1460,645937,1,16778208,1090000,148268,145372,65700,0,63712,0,4175152402,63
o,1734976100.553542,172.16.3.2,32118,172.16.1.2,5102,59929,63761,38,146432,65728,6,6,4,1460,640312,1,16778208,1070000,148268,142476,65700,0,60816,0,4175152402,63
i,1734976100.554121,172.16.3.2,32118,172.16.1.2,5102,59929,63761,38,146432,65728,6,6,4,1460,640312,1,16778208,1070000,148268,142476,65700,0,63712,0,4175152402,63
o,1734976100.554196,172.16.3.2,32118,172.16.1.2,5102,59929,63761,38,146432,65728,6,6,4,1460,635312,1,16778208,1050000,148268,139580,65700,0,60816,0,4175152402,63
i,1734976100.555148,172.16.3.2,32118,172.16.1.2,5102,59929,63761,38,146432,65728,6,6,4,1460,635312,1,16778208,1050000,148268,139580,65700,0,63712,0,4175152402,63
o,1734976100.555190,172.16.3.2,32118,172.16.1.2,5102,59929,63761,38,146432,65728,6,6,4,1460,630937,1,16778208,1020000,148268,136684,65700,0,60816,0,4175152402,63
i,1734976100.555691,172.16.3.2,32118,172.16.1.2,5102,59929,63761,38,146432,65728,6,6,4,1460,630937,1,16778208,1020000,148268,136684,65700,0,63712,0,4175152402,63
o,1734976100.555767,172.16.3.2,32118,172.16.1.2,5102,59929,63761,38,144960,65728,6,6,4,1460,627187,1,16778208,1000000,148268,133788,65700,0,60816,0,4175152402,63
i,1734976100.556364,172.16.3.2,32118,172.16.1.2,5102,59929,63761,38,144960,65728,6,6,4,1460,627187,1,16778208,1000000,148268,133788,65700,0,63712,0,4175152402,63
o,1734976100.556437,172.16.3.2,32118,172.16.1.2,5102,59929,63761,38,144960,65728,6,6,4,1460,624062,1,16778208,980000,148268,130892,65700,0,60816,0,4175152402,63
i,1734976100.557500,172.16.3.2,32118,172.16.1.2,5102,59929,63761,38,144960,65728,6,6,4,1460,624062,1,16778208,980000,148268,130892,65700,0,63712,0,4175152402,63
o,1734976100.557573,172.16.3.2,32118,172.16.1.2,5102,59929,63761,38,144960,65728,6,6,4,1460,621250,1,16778208,960000,148268,127996,65700,0,60816,0,4175152402,63
i,1734976100.558119,172.16.3.2,33458,172.16.1.2,5101,59929,62577,38,98560,65728,6,6,4,1460,911250,1,16778208,1590000,123692,123276,65700,0,62324,0,1508636995,63
o,1734976100.558200,172.16.3.2,33458,172.16.1.2,5101,59929,62577,38,144960,65728,6,6,4,1460,872500,1,16778208,1740000,131884,120380,65700,0,59428,0,1508636995,63
o,1734976100.558712,172.16.3.2,33458,172.16.1.2,5101,59929,62577,38,144960,65728,6,6,4,1460,872500,1,16778208,1740000,140076,120380,65700,0,60876,0,1508636995,63
i,1734976100.559296,172.16.3.2,33458,172.16.1.2,5101,59929,62577,38,144960,65728,6,6,4,1460,872500,1,16778208,1740000,140076,120380,65700,0,62324,0,1508636995,63
o,1734976100.559371,172.16.3.2,33458,172.16.1.2,5101,59929,62577,38,144960,65728,6,6,4,1460,838437,1,16778208,1810000,140076,117484,65700,0,59428,0,1508636995,63
i,1734976100.559908,172.16.3.2,33458,172.16.1.2,5101,59929,62577,38,144960,65728,6,6,4,1460,838437,1,16778208,1810000,140076,117484,65700,0,62324,0,1508636995,63
o,1734976100.559984,172.16.3.2,33458,172.16.1.2,5101,59929,62577,38,146432,65728,6,6,4,1460,808750,1,16778208,1830000,140076,114588,65700,0,59428,0,1508636995,63
i,1734976100.594230,172.16.3.2,33458,172.16.1.2,5101,59929,62577,38,146432,65728,6,6,4,1460,808750,1,16778208,1830000,140076,140076,65700,0,62324,0,1508636995,63
o,1734976100.594305,172.16.3.2,33458,172.16.1.2,5101,59929,62577,38,143552,65728,6,6,4,1460,787812,1,16778208,1770000,140076,137180,65700,0,59428,0,1508636995,63
i,1734976100.594589,172.16.3.2,33458,172.16.1.2,5101,59929,62577,38,143552,65728,6,6,4,1460,787812,1,16778208,1770000,140076,137180,65700,0,62324,0,1508636995,63
o,1734976100.594632,172.16.3.2,33458,172.16.1.2,5101,59929,62577,38,144960,65728,6,6,4,1460,769375,1,16778208,1700000,140076,134284,65700,0,59428,0,1508636995,63
i,1734976100.595008,172.16.3.2,33458,172.16.1.2,5101,59929,62577,38,144960,65728,6,6,4,1460,769375,1,16778208,1700000,140076,134284,65700,0,62324,0,1508636995,63
o,1734976100.595048,172.16.3.2,33458,172.16.1.2,5101,59929,62577,38,146432,65728,6,6,4,1460,753437,1,16778208,1630000,140076,131388,65700,0,59428,0,1508636995,63
i,1734976100.595293,172.16.3.2,33458,172.16.1.2,5101,59929,62577,38,146432,65728,6,6,4,1460,753437,1,16778208,1630000,140076,131388,65700,0,62324,0,1508636995,63
o,1734976100.595329,172.16.3.2,33458,172.16.1.2,5101,59929,62577,38,143552,65728,6,6,4,1460,738125,1,16778208,1570000,140076,128492,65700,0,59428,0,1508636995,63
i,1734976100.595859,172.16.3.2,33458,172.16.1.2,5101,59929,62577,38,143552,65728,6,6,4,1460,738125,1,16778208,1570000,140076,128492,65700,0,62324,0,1508636995,63
o,1734976100.595913,172.16.3.2,33458,172.16.1.2,5101,59929,62577,38,140672,65728,6,6,4,1460,724687,1,16778208,1500000,140076,125596,65700,0,59428,0,1508636995,63
i,1734976100.596120,172.16.3.2,33458,172.16.1.2,5101,59929,62577,38,140672,65728,6,6,4,1460,724687,1,16778208,1500000,140076,125596,65700,0,62324,0,1508636995,63
o,1734976100.596149,172.16.3.2,33458,172.16.1.2,5101,59929,62577,38,144960,65728,6,6,4,1460,713125,1,16778208,1440000,140076,122700,65700,0,59428,0,1508636995,63
i,1734976100.596399,172.16.3.2,33458,172.16.1.2,5101,59929,62577,38,144960,65728,6,6,4,1460,713125,1,16778208,1440000,148268,122700,65700,0,62324,0,1508636995,63
o,1734976100.596429,172.16.3.2,33458,172.16.1.2,5101,59929,62577,38,146432,65728,6,6,4,1460,702812,1,16778208,1380000,148268,120024,65700,0,59648,0,1508636995,63
i,1734976100.596634,172.16.3.2,33458,172.16.1.2,5101,59929,62577,38,146432,65728,6,6,4,1460,702812,1,16778208,1380000,148268,120024,65700,0,62544,0,1508636995,63
o,1734976100.596663,172.16.3.2,33458,172.16.1.2,5101,59929,62577,38,143552,65728,6,6,4,1460,693750,1,16778208,1320000,148268,117128,65700,0,59648,0,1508636995,63
i,1734976100.596869,172.16.3.2,33458,172.16.1.2,5101,59929,62577,38,143552,65728,6,6,4,1460,693750,1,16778208,1320000,148268,117128,65700,0,62544,0,1508636995,63
o,1734976100.596898,172.16.3.2,33458,172.16.1.2,5101,59929,62577,38,141824,65728,6,6,4,1460,685937,1,16778208,1270000,148268,115400,65700,0,60816,0,1508636995,63
i,1734976100.597114,172.16.3.2,33458,172.16.1.2,5101,59929,62577,38,141824,65728,6,6,4,1460,685937,1,16778208,1270000,148268,115400,65700,0,62264,0,1508636995,63
o,1734976100.597143,172.16.3.2,33458,172.16.1.2,5101,59929,62577,38,144960,65728,6,6,4,1460,679062,1,16778208,1220000,148268,112504,65700,0,59368,0,1508636995,63
i,1734976100.598120,172.16.3.2,33458,172.16.1.2,5101,59929,62577,38,144960,65728,6,6,4,1460,679062,1,16778208,1220000,148268,112504,65700,0,62264,0,1508636995,63
o,1734976100.598202,172.16.3.2,33458,172.16.1.2,5101,59929,62577,38,146432,65728,6,6,4,1460,673125,1,16778208,1180000,148268,109608,65700,0,59368,0,1508636995,63
i,1734976100.599321,172.16.3.2,33458,172.16.1.2,5101,59929,62577,38,146432,65728,6,6,4,1460,673125,1,16778208,1180000,148268,109608,65700,0,62264,0,1508636995,63
o,1734976100.599354,172.16.3.2,33458,172.16.1.2,5101,59929,62577,38,144960,65728,6,6,4,1460,654062,1,16778208,1230000,148268,106712,65700,0,59368,0,1508636995,63
i,1734976100.599568,172.16.3.2,33458,172.16.1.2,5101,59929,62577,38,144960,65728,6,6,4,1460,654062,1,16778208,1230000,148268,106712,65700,0,62264,0,1508636995,63
o,1734976100.599598,172.16.3.2,33458,172.16.1.2,5101,59929,62577,38,142080,65728,6,6,4,1460,637500,1,16778208,1260000,148268,103816,65700,0,59368,0,1508636995,63
i,1734976100.599813,172.16.3.2,33458,172.16.1.2,5101,59929,62577,38,142080,65728,6,6,4,1460,637500,1,16778208,1260000,148268,103816,65700,0,62264,0,1508636995,63
o,1734976100.599844,172.16.3.2,33458,172.16.1.2,5101,59929,62577,38,139200,65728,6,6,4,1460,622812,1,16778208,1250000,148268,100920,65700,0,59368,0,1508636995,63
i,1734976100.600057,172.16.3.2,32118,172.16.1.2,5102,59929,63761,38,144960,65728,6,6,4,1460,621250,1,16778208,960000,148268,148268,65700,0,63712,0,4175152402,63
o,1734976100.600090,172.16.3.2,32118,172.16.1.2,5102,59929,63761,38,144960,65728,6,6,4,1460,608750,1,16778208,1010000,148268,145372,65700,0,60816,0,4175152402,63
i,1734976100.600290,172.16.3.2,33458,172.16.1.2,5101,59929,62577,38,139200,65728,6,6,4,1460,622812,1,16778208,1250000,148268,100920,65700,0,62264,0,1508636995,63
o,1734976100.600320,172.16.3.2,33458,172.16.1.2,5101,59929,62577,38,136320,65728,6,6,4,1460,610000,1,16778208,1240000,148268,98024,65700,0,59368,0,1508636995,63
