enable_time_secs=1734976239	enable_time_usecs=480884	siftrver=1.3.0	sysname=FreeBSD	sysver=1401000	ipmode=4
o,1734976239.483956,10.0.2.15,22,192.168.56.1,54678,1073725440,18998,1026,65535,65700,0,0,4,1460,312,0,16777220,230000,33580,172,65700,0,0,0,4180752217,63
o,1734976239.485290,10.0.2.15,22,192.168.56.1,54678,1073725440,18998,1026,65535,65700,0,0,4,1460,312,0,16777220,230000,33580,244,65700,0,172,0,4180752217,63
i,1734976239.487818,10.0.2.15,22,192.168.56.1,54678,1073725440,18998,1026,65535,65700,0,0,4,1460,312,0,16777220,230000,33580,244,65700,0,244,0,4180752217,63
i,1734976239.487893,10.0.2.15,22,192.168.56.1,54678,1073725440,19170,1026,65535,65700,0,0,4,1460,312,0,4,230000,33580,72,65700,0,72,0,4180752217,63
i,1734976239.487963,10.0.2.15,22,192.168.56.1,54678,1073725440,19242,1026,65535,65700,0,0,4,1460,312,0,4,230000,33580,0,65700,0,0,0,4180752217,63
o,1734976239.489720,10.0.2.15,22,192.168.56.1,54678,1073725440,19242,1026,65535,65700,0,0,6,1460,312,0,4,230000,33580,0,65700,0,0,0,4180752217,63
i,1734976239.494292,10.0.2.15,22,192.168.56.1,54678,1073725440,19242,1026,65535,65700,0,0,6,1460,312,0,67108884,230000,33580,0,65700,0,1,0,4180752217,63
i,1734976254.456031,10.0.2.15,22,192.168.56.1,54714,1073725440,19259,1026,65535,65700,0,0,9,1460,312,0,67108884,230000,33580,0,65700,0,0,0,1886515306,63
i,1734976254.460161,10.0.2.15,22,192.168.56.1,54714,1073725440,19259,1026,65535,65700,0,0,9,1460,312,0,67108884,230000,33580,0,65700,0,0,0,1886515306,63
i,1734976260.467130,10.0.2.15,22,192.168.56.1,54714,1073725440,14600,0,65535,65700,0,0,4,1460,312,0,16777216,240000,33580,0,65700,0,0,0,1886515306,63
o,1734976260.503701,10.0.2.15,22,192.168.56.1,54714,1073725440,14600,2,65535,65700,0,0,4,1460,312,0,16777217,240000,33580,0,65700,42,0,0,1886515306,63
o,1734976260.520856,10.0.2.15,22,192.168.56.1,54714,1073725440,14600,1026,65535,65700,0,0,4,1460,312,0,16777216,240000,33580,38,65700,42,0,0,1886515306,63
i,1734976260.525680,10.0.2.15,22,192.168.56.1,54714,1073725440,14600,1026,65535,65700,0,0,4,1460,312,0,16777216,240000,33580,1158,65700,0,38,0,1886515306,63
o,1734976260.525771,10.0.2.15,22,192.168.56.1,54714,1073725440,14638,1026,65535,65700,0,0,4,1460,312,0,16777216,230000,33580,1120,65700,0,0,0,1886515306,63
i,1734976260.532528,10.0.2.15,22,192.168.56.1,54714,1073725440,14638,1026,65535,65700,0,0,4,1460,312,0,16777216,230000,33580,1120,65700,0,1120,0,1886515306,63
i,1734976260.533067,10.0.2.15,22,192.168.56.1,54714,1073725440,14638,1026,65535,65700,0,0,4,1460,312,0,16777216,230000,33580,1120,65700,1460,1120,0,1886515306,63
o,1734976260.533148,10.0.2.15,22,192.168.56.1,54714,1073725440,14638,1026,65535,65700,0,0,4,1460,312,0,16777217,230000,33580,1120,65700,1536,1120,0,1886515306,63
i,1734976260.533560,10.0.2.15,22,192.168.56.1,54714,1073725440,14638,1026,65535,65700,0,0,4,1460,312,0,16777216,230000,33580,1120,65700,1536,1120,0,1886515306,63
i,1734976260.567114,10.0.2.15,22,192.168.56.1,54714,1073725440,15758,1026,65535,65700,0,0,4,1460,312,0,0,230000,33580,0,65700,0,0,0,1886515306,63
o,1734976260.597579,10.0.2.15,22,192.168.56.1,54714,1073725440,15758,1030,65535,65700,0,0,4,1460,312,0,16777216,230000,33580,1532,65700,0,0,0,1886515306,63
o,1734976260.599485,10.0.2.15,22,192.168.56.1,54714,1073725440,15758,1026,65535,65700,0,0,4,1460,312,0,16777216,230000,33580,1532,65700,0,1460,0,1886515306,63
i,1734976260.601963,10.0.2.15,22,192.168.56.1,54714,1073725440,15758,1026,65535,65700,0,0,4,1460,312,0,16777216,230000,33580,1532,65700,0,1532,0,1886515306,63
i,1734976260.622462,10.0.2.15,22,192.168.56.1,54714,1073725440,17290,1026,65535,65700,0,0,4,1460,312,0,0,230000,33580,0,65700,0,0,0,1886515306,63
o,1734976260.622945,10.0.2.15,22,192.168.56.1,54714,1073725440,17290,1026,65535,65700,0,0,4,1460,312,0,16777216,230000,33580,44,65700,0,0,0,1886515306,63
i,1734976260.627518,10.0.2.15,22,192.168.56.1,54714,1073725440,17290,1026,65535,65700,0,0,4,1460,312,0,16777216,230000,33580,44,65700,0,44,0,1886515306,63
o,1734976260.631239,10.0.2.15,22,192.168.56.1,54714,1073725440,17334,1026,65535,65700,0,0,4,1460,312,0,16777216,230000,33580,280,65700,0,0,0,1886515306,63
i,1734976260.636511,10.0.2.15,22,192.168.56.1,54714,1073725440,17334,1026,65535,65700,0,0,4,1460,312,0,16777216,230000,33580,280,65700,0,280,0,1886515306,63
o,1734976260.638430,10.0.2.15,22,192.168.56.1,54714,1073725440,17614,1026,65535,65700,0,0,4,1460,312,0,16777216,230000,33580,332,65700,0,0,0,1886515306,63
i,1734976260.644533,10.0.2.15,22,192.168.56.1,54714,1073725440,17614,1026,65535,65700,0,0,4,1460,312,0,16777216,230000,33580,332,65700,0,332,0,1886515306,63
i,1734976260.644613,10.0.2.15,22,192.168.56.1,54714,1073725440,17946,1026,65535,65700,0,0,4,1460,312,0,0,230000,33580,0,65700,0,0,0,1886515306,63
o,1734976260.661448,10.0.2.15,22,192.168.56.1,54714,1073725440,17946,1026,65535,65700,0,0,4,1460,312,0,16777216,230000,33580,28,65700,0,0,0,1886515306,63
i,1734976260.668636,10.0.2.15,22,192.168.56.1,54714,1073725440,17946,1026,65535,65700,0,0,4,1460,312,0,16777216,230000,33580,28,65700,0,28,0,1886515306,63
i,1734976260.668728,10.0.2.15,22,192.168.56.1,54714,1073725440,17974,1026,65535,65700,0,0,4,1460,312,0,0,230000,33580,0,65700,0,0,0,1886515306,63
o,1734976260.668930,10.0.2.15,22,192.168.56.1,54714,1073725440,17974,1026,65535,65700,0,0,4,1460,312,0,16777216,230000,33580,768,65700,112,0,0,1886515306,63
i,1734976260.676461,10.0.2.15,22,192.168.56.1,54714,1073725440,17974,1026,65535,65700,0,0,4,1460,312,0,16777216,230000,33580,952,65700,0,768,0,1886515306,63
o,1734976260.676603,10.0.2.15,22,192.168.56.1,54714,1073725440,18742,1026,65535,65700,0,0,4,1460,312,0,16777216,230000,33580,184,65700,0,0,0,1886515306,63
i,1734976260.679480,10.0.2.15,22,192.168.56.1,54714,1073725440,18742,1026,65535,65700,0,0,4,1460,312,0,16777216,230000,33580,184,65700,0,184,0,1886515306,63
i,1734976260.679559,10.0.2.15,22,192.168.56.1,54714,1073725440,18926,1026,65535,65700,0,0,4,1460,312,0,0,230000,33580,0,65700,0,0,0,1886515306,63
o,1734976260.681222,10.0.2.15,22,192.168.56.1,54714,1073725440,18926,1026,65535,65700,0,0,4,1460,312,0,16777220,230000,33580,72,65700,0,0,0,1886515306,63
i,1734976260.687545,10.0.2.15,22,192.168.56.1,54714,1073725440,18926,1026,65535,65700,0,0,4,1460,312,0,16777220,230000,33580,72,65700,0,72,0,1886515306,63
o,1734976260.692196,10.0.2.15,22,192.168.56.1,54714,1073725440,18998,1026,65535,65700,0,0,4,1460,312,0,16777220,230000,33580,104,65700,0,0,0,1886515306,63
o,1734976260.693826,10.0.2.15,22,192.168.56.1,54714,1073725440,18998,1026,65535,65700,0,0,4,1460,312,0,16777220,230000,33580,176,65700,0,104,0,1886515306,63
i,1734976260.694951,10.0.2.15,22,192.168.56.1,54714,1073725440,18998,1026,65535,65700,0,0,4,1460,312,0,16777220,230000,33580,176,65700,0,176,0,1886515306,63
i,1734976260.696509,10.0.2.15,22,192.168.56.1,54714,1073725440,19102,1026,65535,65700,0,0,4,1460,312,0,4,230000,33580,72,65700,0,72,0,1886515306,63
i,1734976260.696697,10.0.2.15,22,192.168.56.1,54714,1073725440,19174,1026,65535,65700,0,0,4,1460,312,0,4,230000,33580,0,65700,0,0,0,1886515306,63
o,1734976260.743028,10.0.2.15,22,192.168.56.1,54714,1073725440,19174,1026,65535,65700,0,0,4,1460,312,0,5,230000,33580,0,65700,96,0,0,1886515306,63
o,1734976260.747997,10.0.2.15,22,192.168.56.1,54714,1073725440,19174,1026,65535,65700,0,0,6,1460,312,0,4,230000,33580,0,65700,0,0,0,1886515306,63
i,1734976260.751362,10.0.2.15,22,192.168.56.1,54714,1073725440,19174,1026,65535,65700,0,0,6,1460,312,0,67108884,230000,33580,0,65700,0,1,0,1886515306,63
i,1734976275.216908,10.0.2.15,22,192.168.56.1,54680,1073725440,19175,1026,65535,65700,0,0,9,1460,312,0,67108884,230000,33580,0,65700,0,0,0,3583483320,63
i,1734976275.218675,10.0.2.15,22,192.168.56.1,54682,1073725440,19175,1026,65535,65700,0,0,9,1460,312,0,67108884,230000,33580,0,65700,0,0,0,2239725140,63
i,1734976275.219170,10.0.2.15,22,192.168.56.1,54680,1073725440,19175,1026,65535,65700,0,0,9,1460,312,0,67108884,230000,33580,0,65700,0,0,0,3583483320,63
i,1734976275.222130,10.0.2.15,22,192.168.56.1,54682,1073725440,19175,1026,65535,65700,0,0,9,1460,312,0,67108884,230000,33580,0,65700,0,0,0,2239725140,63
i,1734976281.230254,10.0.2.15,22,192.168.56.1,54682,1073725440,14600,0,65535,65700,0,0,4,1460,312,0,16777216,260000,33580,0,65700,0,0,0,2239725140,63
i,1734976281.230291,10.0.2.15,22,192.168.56.1,54680,1073725440,14600,0,65535,65700,0,0,4,1460,312,0,16777216,260000,33580,0,65700,0,0,0,3583483320,63
o,1734976281.262157,10.0.2.15,22,192.168.56.1,54680,1073725440,14600,2,65535,65700,0,0,4,1460,312,0,16777217,260000,33580,0,65700,42,0,0,3583483320,63
o,1734976281.263514,10.0.2.15,22,192.168.56.1,54682,1073725440,14600,2,65535,65700,0,0,4,1460,312,0,16777217,260000,33580,0,65700,42,0,0,2239725140,63
o,1734976281.264202,10.0.2.15,22,192.168.56.1,54680,1073725440,14600,1026,65535,65700,0,0,4,1460,312,0,16777216,260000,33580,38,65700,42,0,0,3583483320,63
i,1734976281.267258,10.0.2.15,22,192.168.56.1,54680,1073725440,14600,1026,65535,65700,0,0,4,1460,312,0,16777216,260000,33580,38,65700,0,38,0,3583483320,63
i,1734976281.267337,10.0.2.15,22,192.168.56.1,54680,1073725440,14638,1026,65535,65700,0,0,4,1460,312,0,0,230000,33580,0,65700,0,0,0,3583483320,63
i,1734976281.267405,10.0.2.15,22,192.168.56.1,54680,1073725440,14638,1026,65535,65700,0,0,4,1460,312,0,0,230000,33580,0,65700,1460,0,0,3583483320,63
o,1734976281.267477,10.0.2.15,22,192.168.56.1,54680,1073725440,14638,1026,65535,65700,0,0,4,1460,312,0,1,230000,33580,0,65700,1536,0,0,3583483320,63
o,1734976281.268161,10.0.2.15,22,192.168.56.1,54682,1073725440,14600,1026,65535,65700,0,0,4,1460,312,0,16777216,260000,33580,38,65700,42,0,0,2239725140,63
o,1734976281.268438,10.0.2.15,22,192.168.56.1,54680,1073725440,14638,1026,65535,65700,0,0,4,1460,312,0,16777216,230000,33580,1120,65700,1536,0,0,3583483320,63
i,1734976281.273379,10.0.2.15,22,192.168.56.1,54682,1073725440,14600,1026,65535,65700,0,0,4,1460,312,0,16777216,260000,33580,38,65700,0,38,0,2239725140,63
i,1734976281.273459,10.0.2.15,22,192.168.56.1,54682,1073725440,14638,1026,65535,65700,0,0,4,1460,312,0,0,230000,33580,0,65700,0,0,0,2239725140,63
i,1734976281.273529,10.0.2.15,22,192.168.56.1,54682,1073725440,14638,1026,65535,65700,0,0,4,1460,312,0,0,230000,33580,0,65700,1460,0,0,2239725140,63
o,1734976281.273600,10.0.2.15,22,192.168.56.1,54682,1073725440,14638,1026,65535,65700,0,0,4,1460,312,0,1,230000,33580,0,65700,1536,0,0,2239725140,63
i,1734976281.274106,10.0.2.15,22,192.168.56.1,54680,1073725440,14638,1026,65535,65700,0,0,4,1460,312,0,16777216,230000,33580,1120,65700,0,1120,0,3583483320,63
o,1734976281.275872,10.0.2.15,22,192.168.56.1,54682,1073725440,14638,1026,65535,65700,0,0,4,1460,312,0,16777216,230000,33580,1120,65700,1536,0,0,2239725140,63
i,1734976281.279947,10.0.2.15,22,192.168.56.1,54682,1073725440,14638,1026,65535,65700,0,0,4,1460,312,0,16777216,230000,33580,1120,65700,0,1120,0,2239725140,63
i,1734976281.308171,10.0.2.15,22,192.168.56.1,54680,1073725440,15758,1026,65535,65700,0,0,4,1460,312,0,0,230000,33580,0,65700,0,0,0,3583483320,63
i,1734976281.311608,10.0.2.15,22,192.168.56.1,54682,1073725440,15758,1026,65535,65700,0,0,4,1460,312,0,0,230000,33580,0,65700,0,0,0,2239725140,63
o,1734976281.327078,10.0.2.15,22,192.168.56.1,54680,1073725440,15758,1030,65535,65700,0,0,4,1460,312,0,16777216,230000,33580,1532,65700,0,0,0,3583483320,63
o,1734976281.328537,10.0.2.15,22,192.168.56.1,54680,1073725440,15758,1026,65535,65700,0,0,4,1460,312,0,16777216,230000,33580,1532,65700,0,1460,0,3583483320,63
i,1734976281.331473,10.0.2.15,22,192.168.56.1,54680,1073725440,15758,1026,65535,65700,0,0,4,1460,312,0,16777216,230000,33580,1532,65700,0,1532,0,3583483320,63
o,1734976281.337261,10.0.2.15,22,192.168.56.1,54682,1073725440,15758,1030,65535,65700,0,0,4,1460,312,0,16777216,230000,33580,1532,65700,0,0,0,2239725140,63
o,1734976281.339316,10.0.2.15,22,192.168.56.1,54682,1073725440,15758,1026,65535,65700,0,0,4,1460,312,0,16777216,230000,33580,1532,65700,0,1460,0,2239725140,63
i,1734976281.341805,10.0.2.15,22,192.168.56.1,54682,1073725440,15758,1026,65535,65700,0,0,4,1460,312,0,16777216,230000,33580,1532,65700,0,1532,0,2239725140,63
i,1734976281.341840,10.0.2.15,22,192.168.56.1,54682,1073725440,17218,1026,65535,65700,0,0,4,1460,312,0,0,230000,33580,72,65700,0,72,0,2239725140,63
i,1734976281.349727,10.0.2.15,22,192.168.56.1,54680,1073725440,17290,1026,65535,65700,0,0,4,1460,312,0,0,230000,33580,0,65700,0,0,0,3583483320,63
o,1734976281.350562,10.0.2.15,22,192.168.56.1,54680,1073725440,17290,1026,65535,65700,0,0,4,1460,312,0,16777216,230000,33580,44,65700,0,0,0,3583483320,63
i,1734976281.355318,10.0.2.15,22,192.168.56.1,54680,1073725440,17290,1026,65535,65700,0,0,4,1460,312,0,16777216,230000,33580,44,65700,0,44,0,3583483320,63
i,1734976281.357253,10.0.2.15,22,192.168.56.1,54682,1073725440,17290,1026,65535,65700,0,0,4,1460,312,0,0,230000,33580,0,65700,0,0,0,2239725140,63
o,1734976281.357564,10.0.2.15,22,192.168.56.1,54682,1073725440,17290,1026,65535,65700,0,0,4,1460,312,0,16777216,230000,33580,44,65700,0,0,0,2239725140,63
o,1734976281.360285,10.0.2.15,22,192.168.56.1,54680,1073725440,17334,1026,65535,65700,0,0,4,1460,312,0,16777216,230000,33580,280,65700,0,0,0,3583483320,63
i,1734976281.361968,10.0.2.15,22,192.168.56.1,54682,1073725440,17290,1026,65535,65700,0,0,4,1460,312,0,16777216,230000,33580,44,65700,0,44,0,2239725140,63
i,1734976281.365129,10.0.2.15,22,192.168.56.1,54680,1073725440,17334,1026,65535,65700,0,0,4,1460,312,0,16777216,230000,33580,280,65700,0,280,0,3583483320,63
o,1734976281.366205,10.0.2.15,22,192.168.56.1,54680,1073725440,17614,1026,65535,65700,0,0,4,1460,312,0,16777216,230000,33580,332,65700,0,0,0,3583483320,63
o,1734976281.367125,10.0.2.15,22,192.168.56.1,54682,1073725440,17334,1026,65535,65700,0,0,4,1460,312,0,16777216,230000,33580,280,65700,0,0,0,2239725140,63
i,1734976281.371732,10.0.2.15,22,192.168.56.1,54682,1073725440,17334,1026,65535,65700,0,0,4,1460,312,0,16777216,230000,33580,280,65700,0,280,0,2239725140,63
i,1734976281.371814,10.0.2.15,22,192.168.56.1,54680,1073725440,17614,1026,65535,65700,0,0,4,1460,312,0,16777216,230000,33580,332,65700,0,332,0,3583483320,63
i,1734976281.371900,10.0.2.15,22,192.168.56.1,54682,1073725440,17614,1026,65535,65700,0,0,4,1460,312,0,0,230000,33580,0,65700,0,0,0,2239725140,63
i,1734976281.371973,10.0.2.15,22,192.168.56.1,54680,1073725440,17946,1026,65535,65700,0,0,4,1460,312,0,0,230000,33580,0,65700,0,0,0,3583483320,63
o,1734976281.374309,10.0.2.15,22,192.168.56.1,54682,1073725440,17614,1026,65535,65700,0,0,4,1460,312,0,16777216,230000,33580,332,65700,0,0,0,2239725140,63
i,1734976281.378775,10.0.2.15,22,192.168.56.1,54682,1073725440,17614,1026,65535,65700,0,0,4,1460,312,0,16777216,230000,33580,332,65700,0,332,0,2239725140,63
i,1734976281.378831,10.0.2.15,22,192.168.56.1,54682,1073725440,17946,1026,65535,65700,0,0,4,1460,312,0,0,230000,33580,0,65700,0,0,0,2239725140,63
o,1734976281.389490,10.0.2.15,22,192.168.56.1,54680,1073725440,17946,1026,65535,65700,0,0,4,1460,312,0,16777216,230000,33580,28,65700,0,0,0,3583483320,63
i,1734976281.393289,10.0.2.15,22,192.168.56.1,54680,1073725440,17946,1026,65535,65700,0,0,4,1460,312,0,16777216,230000,33580,28,65700,0,28,0,3583483320,63
o,1734976281.394869,10.0.2.15,22,192.168.56.1,54682,1073725440,17946,1026,65535,65700,0,0,4,1460,312,0,16777216,230000,33580,28,65700,0,0,0,2239725140,63
o,1734976281.394981,10.0.2.15,22,192.168.56.1,54680,1073725440,17974,1026,65535,65700,0,0,4,1460,312,0,16777216,230000,33580,768,65700,112,0,0,3583483320,63
i,1734976281.398699,10.0.2.15,22,192.168.56.1,54682,1073725440,17946,1026,65535,65700,0,0,4,1460,312,0,16777216,230000,33580,28,65700,0,28,0,2239725140,63
i,1734976281.398775,10.0.2.15,22,192.168.56.1,54682,1073725440,17974,1026,65535,65700,0,0,4,1460,312,0,0,230000,33580,0,65700,0,0,0,2239725140,63
i,1734976281.401030,10.0.2.15,22,192.168.56.1,54680,1073725440,17974,1026,65535,65700,0,0,4,1460,312,0,16777216,230000,33580,952,65700,0,768,0,3583483320,63
o,1734976281.401109,10.0.2.15,22,192.168.56.1,54680,1073725440,18742,1026,65535,65700,0,0,4,1460,312,0,16777216,230000,33580,184,65700,0,0,0,3583483320,63
i,1734976281.402111,10.0.2.15,22,192.168.56.1,54680,1073725440,18742,1026,65535,65700,0,0,4,1460,312,0,16777216,230000,33580,184,65700,0,184,0,3583483320,63
i,1734976281.404988,10.0.2.15,22,192.168.56.1,54680,1073725440,18926,1026,65535,65700,0,0,4,1460,312,0,0,230000,33580,0,65700,0,0,0,3583483320,63
o,1734976281.403485,10.0.2.15,22,192.168.56.1,54682,1073725440,17974,1026,65535,65700,0,0,4,1460,312,0,16777216,230000,33580,768,65700,112,0,0,2239725140,63
o,1734976281.407209,10.0.2.15,22,192.168.56.1,54680,1073725440,18926,1026,65535,65700,0,0,4,1460,312,0,16777220,230000,33580,72,65700,0,0,0,3583483320,63
i,1734976281.409985,10.0.2.15,22,192.168.56.1,54682,1073725440,17974,1026,65535,65700,0,0,4,1460,312,0,16777216,230000,33580,908,65700,0,768,0,2239725140,63
o,1734976281.410072,10.0.2.15,22,192.168.56.1,54682,1073725440,18742,1026,65535,65700,0,0,4,1460,312,0,16777216,230000,33580,140,65700,0,0,0,2239725140,63
i,1734976281.410574,10.0.2.15,22,192.168.56.1,54680,1073725440,18926,1026,65535,65700,0,0,4,1460,312,0,16777220,230000,33580,72,65700,0,72,0,3583483320,63
i,1734976281.410991,10.0.2.15,22,192.168.56.1,54682,1073725440,18742,1026,65535,65700,0,0,4,1460,312,0,16777216,230000,33580,140,65700,0,140,0,2239725140,63
o,1734976281.413214,10.0.2.15,22,192.168.56.1,54682,1073725440,18882,1026,65535,65700,0,0,4,1460,312,0,16777216,230000,33580,44,65700,0,0,0,2239725140,63
i,1734976281.416694,10.0.2.15,22,192.168.56.1,54682,1073725440,18882,1026,65535,65700,0,0,4,1460,312,0,16777216,230000,33580,44,65700,0,44,0,2239725140,63
i,1734976281.416772,10.0.2.15,22,192.168.56.1,54682,1073725440,18926,1026,65535,65700,0,0,4,1460,312,0,0,230000,33580,0,65700,0,0,0,2239725140,63
o,1734976281.418814,10.0.2.15,22,192.168.56.1,54682,1073725440,18926,1026,65535,65700,0,0,4,1460,312,0,16777220,230000,33580,72,65700,0,0,0,2239725140,63
i,1734976281.424056,10.0.2.15,22,192.168.56.1,54682,1073725440,18926,1026,65535,65700,0,0,4,1460,312,0,16777220,230000,33580,72,65700,0,72,0,2239725140,63
o,1734976281.443257,10.0.2.15,22,192.168.56.1,54680,1073725440,18998,1026,65535,65700,0,0,4,1460,312,0,5,230000,33580,0,65700,0,0,0,3583483320,63
o,1734976281.551039,172.16.3.2,54795,172.16.1.2,5101,23232,14480,34,65535,65700,6,6,4,1460,608437,1,16778209,2380000,33580,0,65700,0,0,0,3735907008,63
o,1734976281.552918,172.16.3.2,37140,172.16.1.2,5102,23232,14480,34,65535,65700,6,6,4,1460,608437,1,16778209,2380000,33580,0,65700,0,0,0,2682852797,63
o,1734976281.554296,172.16.3.2,54795,172.16.1.2,5101,23232,14480,34,65535,65700,6,6,4,1460,608437,1,16778212,2380000,33580,37,65700,0,0,0,3735907008,63
o,1734976281.554766,172.16.3.2,37140,172.16.1.2,5102,23232,14480,34,65535,65700,6,6,4,1460,608437,1,16778212,2380000,33580,37,65700,0,0,0,2682852797,63
i,1734976281.689399,172.16.3.2,54795,172.16.1.2,5101,23232,14480,34,65535,65700,6,6,4,1460,608437,1,16778212,2380000,33580,37,65700,0,37,0,3735907008,63
i,1734976281.689952,172.16.3.2,37140,172.16.1.2,5102,23232,14480,34,65535,65700,6,6,4,1460,608437,1,16778212,2380000,33580,37,65700,0,37,0,2682852797,63
o,1734976281.691047,172.16.3.2,54795,172.16.1.2,5101,23232,14517,1058,65728,65728,6,6,4,1460,548750,1,16778212,2410000,33580,4,65700,0,0,0,3735907008,63
o,1734976281.691320,172.16.3.2,37140,172.16.1.2,5102,23232,14517,1058,65728,65728,6,6,4,1460,548750,1,16778212,2410000,33580,4,65700,0,0,0,2682852797,63
o,1734976281.691357,172.16.3.2,37140,172.16.1.2,5102,23232,14517,1058,65728,65728,6,6,4,1460,548750,1,16778212,2410000,33580,130,65700,0,4,0,2682852797,63
o,1734976281.694458,172.16.3.2,54795,172.16.1.2,5101,23232,14517,1058,65728,65728,6,6,4,1460,548750,1,16778212,2410000,33580,151,65700,0,4,0,3735907008,63
i,1734976281.857217,172.16.3.2,37140,172.16.1.2,5102,23232,14517,1058,65728,65728,6,6,4,1460,548750,1,16778212,2410000,33580,130,65700,0,130,0,2682852797,63
i,1734976281.857410,172.16.3.2,54795,172.16.1.2,5101,23232,14517,1058,65728,65728,6,6,4,1460,548750,1,16778212,2410000,33580,151,65700,0,151,0,3735907008,63
i,1734976281.859902,172.16.3.2,54795,172.16.1.2,5101,23232,14668,1058,65600,65728,6,6,4,1460,501562,1,996,2320000,33580,0,65700,0,0,0,3735907008,63
i,1734976281.860087,172.16.3.2,37140,172.16.1.2,5102,23232,14647,1058,65600,65728,6,6,4,1460,501562,1,996,2320000,33580,0,65700,0,0,0,2682852797,63
o,1734976281.893385,172.16.3.2,37140,172.16.1.2,5102,23232,14647,1058,65728,65728,6,6,4,1460,501562,1,997,2320000,33580,0,65700,0,0,0,2682852797,63
o,1734976281.893947,172.16.3.2,54795,172.16.1.2,5101,23232,14668,1058,65728,65728,6,6,4,1460,501562,1,997,2320000,33580,0,65700,0,0,0,3735907008,63
o,1734976281.987019,172.16.3.2,28423,172.16.1.2,5101,23232,14480,34,65535,65700,6,6,4,1460,609687,1,16778209,2370000,33580,0,65700,0,0,0,2725987289,63
o,1734976281.987626,172.16.3.2,28423,172.16.1.2,5101,23232,14480,34,65535,65700,6,6,4,1460,609687,1,16778208,2370000,33580,37,65700,0,0,0,2725987289,63
o,1734976281.987644,172.16.3.2,28384,172.16.1.2,5102,23232,14480,34,65535,65700,6,6,4,1460,609687,1,16778209,2370000,33580,0,65700,0,0,0,1784484555,63
o,1734976281.987768,172.16.3.2,28384,172.16.1.2,5102,23232,14480,34,65535,65700,6,6,4,1460,609687,1,16778208,2370000,33580,37,65700,0,0,0,1784484555,63
i,1734976282.129004,172.16.3.2,54795,172.16.1.2,5101,23232,14668,1058,65728,65728,6,6,4,1460,501562,1,996,2320000,33580,0,65700,0,0,0,3735907008,63
i,1734976282.129886,172.16.3.2,54795,172.16.1.2,5101,23232,14668,1058,65728,65728,6,6,4,1460,501562,1,996,2320000,33580,0,65700,1,0,0,3735907008,63
o,1734976282.129962,172.16.3.2,54795,172.16.1.2,5101,23232,14668,1058,65728,65728,6,6,4,1460,501562,1,997,2320000,33580,0,65700,2,0,0,3735907008,63
i,1734976282.130506,172.16.3.2,28423,172.16.1.2,5101,23232,14480,34,65535,65700,6,6,4,1460,609687,1,16778208,2370000,33580,37,65700,0,37,0,2725987289,63
i,1734976282.130751,172.16.3.2,37140,172.16.1.2,5102,23232,14647,1058,65728,65728,6,6,4,1460,501562,1,996,2320000,33580,0,65700,0,0,0,2682852797,63
o,1734976282.132251,172.16.3.2,28423,172.16.1.2,5101,23232,14517,38,65728,65728,6,6,4,1460,550000,1,16778208,2400000,33580,33580,65700,0,0,0,2725987289,63
o,1734976282.132754,172.16.3.2,28423,172.16.1.2,5101,23232,14517,38,65728,65728,6,6,4,1460,550000,1,16778208,2400000,33580,33580,65700,0,1448,0,2725987289,63
i,1734976282.133555,172.16.3.2,37140,172.16.1.2,5102,23232,14647,1058,65728,65728,6,6,4,1460,501562,1,996,2320000,33580,0,65700,0,0,0,2682852797,63
o,1734976282.133629,172.16.3.2,37140,172.16.1.2,5102,23232,14647,1058,65728,65728,6,6,4,1460,501562,1,997,2320000,33580,0,65700,1,0,0,2682852797,63
o,1734976282.134684,172.16.3.2,28384,172.16.1.2,5102,23232,14480,38,65535,65700,6,6,4,1460,609687,1,16778208,2370000,33580,33580,65700,0,37,0,1784484555,63
i,1734976282.169969,172.16.3.2,28384,172.16.1.2,5102,23232,14480,38,65535,65700,6,6,4,1460,609687,1,16778208,2370000,33580,33580,65700,0,13069,0,1784484555,63
o,1734976282.170301,172.16.3.2,28384,172.16.1.2,5102,23232,14517,38,65728,65728,6,6,4,1460,555000,1,16778208,2370000,33580,33543,65700,0,13032,0,1784484555,63
i,1734976282.368460,172.16.3.2,28423,172.16.1.2,5101,23232,14517,38,65728,65728,6,6,4,1460,550000,1,16778208,2400000,33580,33580,65700,0,14480,0,2725987289,63
o,1734976282.368553,172.16.3.2,28423,172.16.1.2,5101,23232,17413,38,62848,65728,6,6,4,1460,510000,1,16778208,2270000,33580,30684,65700,0,11584,0,2725987289,63
o,1734976282.369072,172.16.3.2,28423,172.16.1.2,5101,23232,17413,38,62848,65728,6,6,4,1460,510000,1,16778208,2270000,33580,30684,65700,0,13032,0,2725987289,63
i,1734976282.378504,172.16.3.2,28423,172.16.1.2,5101,23232,17413,38,62848,65728,6,6,4,1460,510000,1,16778208,2270000,41772,41772,65700,0,17376,0,2725987289,63
o,1734976282.378603,172.16.3.2,28423,172.16.1.2,5101,23232,20309,38,62848,65728,6,6,4,1460,476250,1,16778208,2110000,41772,38876,65700,0,14480,0,2725987289,63
i,1734976282.379152,172.16.3.2,28423,172.16.1.2,5101,23232,20309,38,62848,65728,6,6,4,1460,476250,1,16778208,2110000,49964,38876,65700,0,20272,0,2725987289,63
o,1734976282.379228,172.16.3.2,28423,172.16.1.2,5101,23232,23205,38,59968,65728,6,6,4,1460,446875,1,16778208,1960000,49964,35980,65700,0,17376,0,2725987289,63
i,1734976282.381184,172.16.3.2,28423,172.16.1.2,5101,23232,23205,38,59968,65728,6,6,4,1460,446875,1,16778208,1960000,49964,49964,65700,0,23168,0,2725987289,63
o,1734976282.381263,172.16.3.2,28423,172.16.1.2,5101,23232,26101,38,62848,65728,6,6,4,1460,421250,1,16778208,1810000,49964,47068,65700,0,20272,0,2725987289,63
i,1734976282.382716,172.16.3.2,28423,172.16.1.2,5101,23232,26101,38,62848,65728,6,6,4,1460,421250,1,16778208,1810000,58156,47068,65700,0,26064,0,2725987289,63
o,1734976282.382803,172.16.3.2,28423,172.16.1.2,5101,23232,28997,38,59968,65728,6,6,4,1460,400000,1,16778208,1660000,58156,44172,65700,0,23168,0,2725987289,63
i,1734976282.383782,172.16.3.2,28384,172.16.1.2,5102,23232,14517,38,65728,65728,6,6,4,1460,555000,1,16778208,2370000,33580,33543,65700,0,14480,0,1784484555,63
o,1734976282.383864,172.16.3.2,28384,172.16.1.2,5102,23232,17413,38,62848,65728,6,6,4,1460,516875,1,16778208,2230000,33580,30647,65700,0,11584,0,1784484555,63
i,1734976282.384557,172.16.3.2,28384,172.16.1.2,5102,23232,17413,38,62848,65728,6,6,4,1460,516875,1,16778208,2230000,41772,30647,65700,0,17376,0,1784484555,63
o,1734976282.384631,172.16.3.2,28384,172.16.1.2,5102,23232,20309,38,64256,65728,6,6,4,1460,483750,1,16778208,2080000,41772,27751,65700,0,14480,0,1784484555,63
i,1734976282.400283,172.16.3.2,28384,172.16.1.2,5102,23232,20309,38,64256,65728,6,6,4,1460,483750,1,16778208,2080000,41772,41772,65700,0,20272,0,1784484555,63
o,1734976282.400375,172.16.3.2,28384,172.16.1.2,5102,23232,23205,38,62848,65728,6,6,4,1460,455937,1,16778208,1930000,49964,38876,65700,0,17376,0,1784484555,63
i,1734976282.401126,172.16.3.2,28384,172.16.1.2,5102,23232,23205,38,62848,65728,6,6,4,1460,455937,1,16778208,1930000,49964,38876,65700,0,23168,0,1784484555,63
o,1734976282.401205,172.16.3.2,28384,172.16.1.2,5102,23232,26101,38,62848,65728,6,6,4,1460,431562,1,16778208,1780000,49964,35980,65700,0,20272,0,1784484555,63
i,1734976282.402321,172.16.3.2,28384,172.16.1.2,5102,23232,26101,38,62848,65728,6,6,4,1460,431562,1,16778208,1780000,49964,35980,65700,0,26064,0,1784484555,63
o,1734976282.402397,172.16.3.2,28384,172.16.1.2,5102,23232,26101,38,59968,65728,6,6,4,1460,411562,1,16778208,1630000,49964,33084,65700,0,23168,0,1784484555,63
o,1734976282.402868,172.16.3.2,28384,172.16.1.2,5102,23232,26101,38,59968,65728,6,6,4,1460,411562,1,16778208,1630000,49964,33084,65700,0,24616,0,1784484555,63
i,1734976282.694282,172.16.3.2,28423,172.16.1.2,5101,23232,28997,38,59968,65728,6,6,4,1460,400000,1,16778208,1660000,58156,58156,65700,0,28960,0,2725987289,63
o,1734976282.694409,172.16.3.2,28423,172.16.1.2,5101,23232,28997,38,62848,65728,6,6,4,1460,390000,1,16778208,1470000,58156,55260,65700,0,26064,0,2725987289,63
o,1734976282.694911,172.16.3.2,28423,172.16.1.2,5101,23232,28997,38,62848,65728,6,6,4,1460,390000,1,16778208,1470000,66348,55260,65700,0,27512,0,2725987289,63
i,1734976282.700384,172.16.3.2,28423,172.16.1.2,5101,23232,28997,38,62848,65728,6,6,4,1460,390000,1,16778208,1470000,66348,66348,65700,0,28960,0,2725987289,63
o,1734976282.700429,172.16.3.2,28423,172.16.1.2,5101,23232,28997,38,64256,65728,6,6,4,1460,381250,1,16778208,1310000,66348,63452,65700,0,26064,0,2725987289,63
i,1734976282.770592,172.16.3.2,28423,172.16.1.2,5101,23232,28997,38,64256,65728,6,6,4,1460,381250,1,16778208,1310000,66348,66348,65700,0,28960,0,2725987289,63
o,1734976282.770951,172.16.3.2,28423,172.16.1.2,5101,23232,28997,38,65728,65728,6,6,4,1460,381250,1,16778208,1130000,66348,64900,65700,0,27512,0,2725987289,63
i,1734976282.772652,172.16.3.2,28423,172.16.1.2,5101,23232,28997,38,65728,65728,6,6,4,1460,381250,1,16778208,1130000,66348,64900,65700,0,28960,0,2725987289,63
o,1734976282.772794,172.16.3.2,28423,172.16.1.2,5101,23232,28997,38,62848,65728,6,6,4,1460,382500,1,16778208,1000000,66348,62004,65700,0,26064,0,2725987289,63
i,1734976282.773516,172.16.3.2,28423,172.16.1.2,5101,23232,28997,38,62848,65728,6,6,4,1460,382500,1,16778208,1000000,66348,62004,65700,0,28960,0,2725987289,63
o,1734976282.773630,172.16.3.2,28423,172.16.1.2,5101,23232,28997,38,59968,65728,6,6,4,1460,383437,1,16778208,900000,66348,59108,65700,0,26064,0,2725987289,63
i,1734976282.773930,172.16.3.2,28423,172.16.1.2,5101,23232,28997,38,59968,65728,6,6,4,1460,383437,1,16778208,900000,66348,59108,65700,0,28960,0,2725987289,63
o,1734976282.773949,172.16.3.2,28423,172.16.1.2,5101,23232,28997,38,65728,65728,6,6,4,1460,384375,1,16778208,830000,66348,57660,65700,0,27512,0,2725987289,63
i,1734976282.775521,172.16.3.2,28423,172.16.1.2,5101,23232,28997,38,65728,65728,6,6,4,1460,384375,1,16778208,830000,66348,57660,65700,0,28960,0,2725987289,63
o,1734976282.775596,172.16.3.2,28423,172.16.1.2,5101,23232,28997,38,62848,65728,6,6,4,1460,385312,1,16778208,780000,66348,54764,65700,0,26064,0,2725987289,63
i,1734976282.790290,172.16.3.2,28423,172.16.1.2,5101,23232,28997,38,62848,65728,6,6,4,1460,385312,1,16778208,780000,66348,66348,65700,0,28960,0,2725987289,63
o,1734976282.790566,172.16.3.2,28423,172.16.1.2,5101,23232,28997,38,59968,65728,6,6,4,1460,387187,1,16778208,750000,66348,63452,65700,0,26064,0,2725987289,63
i,1734976282.791153,172.16.3.2,28423,172.16.1.2,5101,23232,28997,38,59968,65728,6,6,4,1460,387187,1,16778208,750000,66348,63452,65700,0,28960,0,2725987289,63
o,1734976282.791230,172.16.3.2,28423,172.16.1.2,5101,23232,28997,38,57088,65728,6,6,4,1460,389062,1,16778208,720000,66348,60556,65700,0,26064,0,2725987289,63
i,1734976282.792494,172.16.3.2,28423,172.16.1.2,5101,23232,28997,38,57088,65728,6,6,4,1460,389062,1,16778208,720000,66348,60556,65700,0,28960,0,2725987289,63
o,1734976282.792538,172.16.3.2,28423,172.16.1.2,5101,23232,28997,38,54208,65728,6,6,4,1460,390625,1,16778208,700000,66348,57660,65700,0,26064,0,2725987289,63
i,1734976282.797209,172.16.3.2,28423,172.16.1.2,5101,23232,28997,38,54208,65728,6,6,4,1460,390625,1,16778208,700000,66348,66348,65700,0,28960,0,2725987289,63
o,1734976282.797307,172.16.3.2,28423,172.16.1.2,5101,23232,28997,38,62848,65728,6,6,4,1460,391875,1,16778208,690000,66348,63452,65700,0,26064,0,2725987289,63
i,1734976282.797929,172.16.3.2,28384,172.16.1.2,5102,23232,26101,38,59968,65728,6,6,4,1460,411562,1,16778208,1630000,58156,58156,65700,0,26064,0,1784484555,63
o,1734976282.798008,172.16.3.2,28384,172.16.1.2,5102,23232,26101,38,62848,65728,6,6,4,1460,410312,1,16778208,1390000,58156,55260,65700,0,23168,0,1784484555,63
i,1734976282.798544,172.16.3.2,28384,172.16.1.2,5102,23232,26101,38,62848,65728,6,6,4,1460,410312,1,16778208,1390000,58156,55260,65700,0,26064,0,1784484555,63
o,1734976282.798620,172.16.3.2,28384,172.16.1.2,5102,23232,26101,38,64256,65728,6,6,4,1460,409062,1,16778208,1200000,58156,52364,65700,0,23168,0,1784484555,63
i,1734976282.799199,172.16.3.2,28384,172.16.1.2,5102,23232,26101,38,64256,65728,6,6,4,1460,409062,1,16778208,1200000,58156,52364,65700,0,26064,0,1784484555,63
o,1734976282.799273,172.16.3.2,28384,172.16.1.2,5102,23232,26101,38,61376,65728,6,6,4,1460,408125,1,16778208,1060000,58156,49468,65700,0,23168,0,1784484555,63
i,1734976282.799764,172.16.3.2,28384,172.16.1.2,5102,23232,26101,38,61376,65728,6,6,4,1460,408125,1,16778208,1060000,58156,49468,65700,0,26064,0,1784484555,63
o,1734976282.799793,172.16.3.2,28384,172.16.1.2,5102,23232,26101,38,58496,65728,6,6,4,1460,407187,1,16778208,950000,58156,46572,65700,0,23168,0,1784484555,63
i,1734976282.800109,172.16.3.2,28384,172.16.1.2,5102,23232,26101,38,58496,65728,6,6,4,1460,407187,1,16778208,950000,58156,46572,65700,0,26064,0,1784484555,63
o,1734976282.800243,172.16.3.2,28384,172.16.1.2,5102,23232,26101,38,62848,65728,6,6,4,1460,405312,1,16778208,880000,58156,43676,65700,0,23168,0,1784484555,63
i,1734976282.801275,172.16.3.2,28384,172.16.1.2,5102,23232,26101,38,62848,65728,6,6,4,1460,405312,1,16778208,880000,58156,43676,65700,0,26064,0,1784484555,63
o,1734976282.801352,172.16.3.2,28384,172.16.1.2,5102,23232,26101,38,62848,65728,6,6,4,1460,403437,1,16778208,820000,58156,40780,65700,0,23168,0,1784484555,63
i,1734976282.802468,172.16.3.2,28384,172.16.1.2,5102,23232,26101,38,62848,65728,6,6,4,1460,403437,1,16778208,820000,58156,40780,65700,0,26064,0,1784484555,63
o,1734976282.802543,172.16.3.2,28384,172.16.1.2,5102,23232,26101,38,59968,65728,6,6,4,1460,403125,1,16778208,770000,58156,37884,65700,0,23168,0,1784484555,63
i,1734976282.803083,172.16.3.2,28384,172.16.1.2,5102,23232,26101,38,59968,65728,6,6,4,1460,403125,1,16778208,770000,58156,37884,65700,0,26064,0,1784484555,63
o,1734976282.803160,172.16.3.2,28384,172.16.1.2,5102,23232,26101,38,57088,65728,6,6,4,1460,402812,1,16778208,730000,58156,34988,65700,0,23168,0,1784484555,63
i,1734976282.803933,172.16.3.2,28384,172.16.1.2,5102,23232,26101,38,57088,65728,6,6,4,1460,402812,1,16778208,730000,58156,34988,65700,0,26064,0,1784484555,63
o,1734976282.804015,172.16.3.2,28384,172.16.1.2,5102,23232,27561,38,64256,65728,6,6,4,1460,402500,1,16778208,700000,58156,32092,65700,0,23168,0,1784484555,63
o,1734976282.804531,172.16.3.2,28384,172.16.1.2,5102,23232,27561,38,64256,65728,6,6,4,1460,402500,1,16778208,700000,58156,32092,65700,0,24616,0,1784484555,63
i,1734976283.097064,172.16.3.2,28423,172.16.1.2,5101,23232,28997,38,62848,65728,6,6,4,1460,391875,1,16778208,690000,66348,66348,65700,0,28960,0,2725987289,63
o,1734976283.097178,172.16.3.2,28423,172.16.1.2,5101,23232,28997,38,65728,65728,6,6,4,1460,393125,1,16778208,670000,66348,64900,65700,0,27512,0,2725987289,63
i,1734976283.097779,172.16.3.2,28423,172.16.1.2,5101,23232,28997,38,65728,65728,6,6,4,1460,393125,1,16778208,670000,66348,64900,65700,0,28960,0,2725987289,63
o,1734976283.097864,172.16.3.2,28423,172.16.1.2,5101,23232,28997,38,64256,65728,6,6,4,1460,394062,1,16778208,660000,66348,62004,65700,0,26064,0,2725987289,63
i,1734976283.099586,172.16.3.2,28423,172.16.1.2,5101,23232,28997,38,64256,65728,6,6,4,1460,394062,1,16778208,660000,66348,62004,65700,0,28960,0,2725987289,63
o,1734976283.099905,172.16.3.2,28423,172.16.1.2,5101,23232,28997,38,65728,65728,6,6,4,1460,395000,1,16778208,650000,66348,60556,65700,0,27512,0,2725987289,63
i,1734976283.170155,172.16.3.2,28423,172.16.1.2,5101,23232,28997,38,65728,65728,6,6,4,1460,395000,1,16778208,650000,66348,66348,65700,0,28960,0,2725987289,63
o,1734976283.170221,172.16.3.2,28423,172.16.1.2,5101,23232,28997,38,62848,65728,6,6,4,1460,395625,1,16778208,640000,66348,63452,65700,0,26064,0,2725987289,63
i,1734976283.171326,172.16.3.2,28423,172.16.1.2,5101,23232,28997,38,62848,65728,6,6,4,1460,395625,1,16778208,640000,66348,63452,65700,0,28960,0,2725987289,63
o,1734976283.172231,172.16.3.2,28423,172.16.1.2,5101,23232,28997,38,59968,65728,6,6,4,1460,396250,1,16778208,640000,66348,60556,65700,0,26064,0,2725987289,63
i,1734976283.175764,172.16.3.2,28423,172.16.1.2,5101,23232,28997,38,59968,65728,6,6,4,1460,396250,1,16778208,640000,66348,66348,65700,0,28960,0,2725987289,63
o,1734976283.175854,172.16.3.2,28423,172.16.1.2,5101,23232,28997,38,57088,65728,6,6,4,1460,396875,1,16778208,630000,66348,63452,65700,0,26064,0,2725987289,63
i,1734976283.176530,172.16.3.2,28423,172.16.1.2,5101,23232,28997,38,57088,65728,6,6,4,1460,396875,1,16778208,630000,66348,63452,65700,0,28960,0,2725987289,63
o,1734976283.176606,172.16.3.2,28423,172.16.1.2,5101,23232,28997,38,54208,65728,6,6,4,1460,397500,1,16778208,630000,66348,60556,65700,0,26064,0,2725987289,63
i,1734976283.177334,172.16.3.2,28423,172.16.1.2,5101,23232,28997,38,54208,65728,6,6,4,1460,397500,1,16778208,630000,66348,60556,65700,0,28960,0,2725987289,63
o,1734976283.177407,172.16.3.2,28423,172.16.1.2,5101,23232,28997,38,51328,65728,6,6,4,1460,395312,1,16778208,640000,66348,57660,65700,0,26064,0,2725987289,63
i,1734976283.180622,172.16.3.2,28423,172.16.1.2,5101,23232,28997,38,51328,65728,6,6,4,1460,395312,1,16778208,640000,66348,66348,65700,0,28960,0,2725987289,63
o,1734976283.180713,172.16.3.2,28423,172.16.1.2,5101,23232,28997,38,48448,65728,6,6,4,1460,393437,1,16778208,640000,66348,63452,65700,0,26064,0,2725987289,63
i,1734976283.182645,172.16.3.2,28423,172.16.1.2,5101,23232,28997,38,48448,65728,6,6,4,1460,393437,1,16778208,640000,66348,63452,65700,0,28960,0,2725987289,63
o,1734976283.182770,172.16.3.2,28423,172.16.1.2,5101,23232,28997,38,62848,65728,6,6,4,1460,393125,1,16778208,630000,66348,60556,65700,0,26064,0,2725987289,63
i,1734976283.183279,172.16.3.2,28423,172.16.1.2,5101,23232,28997,38,62848,65728,6,6,4,1460,393125,1,16778208,630000,66348,60556,65700,0,28960,0,2725987289,63
o,1734976283.183320,172.16.3.2,28423,172.16.1.2,5101,23232,28997,38,64256,65728,6,6,4,1460,392812,1,16778208,620000,66348,57660,65700,0,26064,0,2725987289,63
i,1734976283.404952,172.16.3.2,28384,172.16.1.2,5102,23232,27561,38,64256,65728,6,6,4,1460,402500,1,16778208,700000,58156,58156,65700,0,27512,0,1784484555,63
o,1734976283.405204,172.16.3.2,28384,172.16.1.2,5102,23232,27561,38,64256,65728,6,6,4,1460,428437,1,16778208,910000,58156,55260,65700,0,24616,0,1784484555,63
i,1734976283.405771,172.16.3.2,28384,172.16.1.2,5102,23232,27561,38,64256,65728,6,6,4,1460,428437,1,16778208,910000,58156,55260,65700,0,27512,0,1784484555,63
o,1734976283.405847,172.16.3.2,28384,172.16.1.2,5102,23232,27561,38,61376,65728,6,6,4,1460,451250,1,16778208,1040000,58156,52364,65700,0,24616,0,1784484555,63
i,1734976283.406391,172.16.3.2,28384,172.16.1.2,5102,23232,27561,38,61376,65728,6,6,4,1460,451250,1,16778208,1040000,66348,52364,65700,0,27512,0,1784484555,63
o,1734976283.406466,172.16.3.2,28384,172.16.1.2,5102,23232,27561,38,58496,65728,6,6,4,1460,471250,1,16778208,1130000,66348,49468,65700,0,24616,0,1784484555,63
i,1734976283.407076,172.16.3.2,28384,172.16.1.2,5102,23232,27561,38,58496,65728,6,6,4,1460,471250,1,16778208,1130000,66348,49468,65700,0,27512,0,1784484555,63
o,1734976283.407150,172.16.3.2,28384,172.16.1.2,5102,23232,27561,38,55616,65728,6,6,4,1460,488750,1,16778208,1170000,66348,46572,65700,0,24616,0,1784484555,63
i,1734976283.408351,172.16.3.2,28384,172.16.1.2,5102,23232,27561,38,55616,65728,6,6,4,1460,488750,1,16778208,1170000,66348,46572,65700,0,27512,0,1784484555,63
o,1734976283.408445,172.16.3.2,28384,172.16.1.2,5102,23232,27561,38,52736,65728,6,6,4,1460,504062,1,16778208,1190000,66348,43676,65700,0,24616,0,1784484555,63
i,1734976283.409028,172.16.3.2,28384,172.16.1.2,5102,23232,27561,38,52736,65728,6,6,4,1460,504062,1,16778208,1190000,66348,43676,65700,0,27512,0,1784484555,63
o,1734976283.409105,172.16.3.2,28384,172.16.1.2,5102,23232,27561,38,49856,65728,6,6,4,1460,517500,1,16778208,1190000,66348,40780,65700,0,24616,0,1784484555,63
i,1734976283.409639,172.16.3.2,28384,172.16.1.2,5102,23232,27561,38,49856,65728,6,6,4,1460,517500,1,16778208,1190000,66348,40780,65700,0,27512,0,1784484555,63
o,1734976283.409712,172.16.3.2,28384,172.16.1.2,5102,23232,27561,38,46976,65728,6,6,4,1460,527812,1,16778208,1160000,66348,37884,65700,0,24616,0,1784484555,63
i,1734976283.410270,172.16.3.2,28384,172.16.1.2,5102,23232,27561,38,46976,65728,6,6,4,1460,527812,1,16778208,1160000,66348,37884,65700,0,27512,0,1784484555,63
o,1734976283.410353,172.16.3.2,28384,172.16.1.2,5102,23232,27561,38,44096,65728,6,6,4,1460,536875,1,16778208,1130000,66348,34988,65700,0,24616,0,1784484555,63
i,1734976283.410953,172.16.3.2,28384,172.16.1.2,5102,23232,27561,38,44096,65728,6,6,4,1460,536875,1,16778208,1130000,66348,34988,65700,0,27512,0,1784484555,63
o,1734976283.411031,172.16.3.2,28384,172.16.1.2,5102,23232,29021,38,41216,65728,6,6,4,1460,545000,1,16778208,1110000,66348,32092,65700,0,24616,0,1784484555,63
o,1734976283.412059,172.16.3.2,28384,172.16.1.2,5102,23232,29021,38,41216,65728,6,6,4,1460,545000,1,16778208,1110000,66348,32092,65700,0,26064,0,1784484555,63
i,1734976283.412616,172.16.3.2,28384,172.16.1.2,5102,23232,29021,38,41216,65728,6,6,4,1460,545000,1,16778208,1110000,66348,32092,65700,0,28960,0,1784484555,63
o,1734976283.412694,172.16.3.2,28384,172.16.1.2,5102,23232,29021,38,65728,65728,6,6,4,1460,553125,1,16778208,1090000,66348,30644,65700,0,27512,0,1784484555,63
i,1734976283.619984,172.16.3.2,28423,172.16.1.2,5101,23232,28997,38,64256,65728,6,6,4,1460,392812,1,16778208,620000,66348,66348,65700,0,28960,0,2725987289,63
o,1734976283.620095,172.16.3.2,28423,172.16.1.2,5101,23232,28997,38,62848,65728,6,6,4,1460,408750,1,16778208,760000,66348,63452,65700,0,26064,0,2725987289,63
o,1734976283.620756,172.16.3.2,28423,172.16.1.2,5101,23232,28997,38,62848,65728,6,6,4,1460,408750,1,16778208,760000,66348,63452,65700,0,27512,0,2725987289,63
i,1734976283.621301,172.16.3.2,28423,172.16.1.2,5101,23232,28997,38,62848,65728,6,6,4,1460,408750,1,16778208,760000,66348,63452,65700,0,28960,0,2725987289,63
o,1734976283.621364,172.16.3.2,28423,172.16.1.2,5101,23232,28997,38,64256,65728,6,6,4,1460,422812,1,16778208,850000,66348,60556,65700,0,26064,0,2725987289,63
i,1734976283.631028,172.16.3.2,28423,172.16.1.2,5101,23232,28997,38,64256,65728,6,6,4,1460,422812,1,16778208,850000,66348,66348,65700,0,28960,0,2725987289,63
o,1734976283.631126,172.16.3.2,28423,172.16.1.2,5101,23232,28997,38,62848,65728,6,6,4,1460,426250,1,16778208,820000,66348,63452,65700,0,26064,0,2725987289,63
i,1734976283.712316,172.16.3.2,28423,172.16.1.2,5101,23232,28997,38,62848,65728,6,6,4,1460,426250,1,16778208,820000,66348,66348,65700,0,28960,0,2725987289,63
o,1734976283.712604,172.16.3.2,28423,172.16.1.2,5101,23232,28997,38,64256,65728,6,6,4,1460,439375,1,16778208,890000,66348,63452,65700,0,26064,0,2725987289,63
i,1734976283.716930,172.16.3.2,28423,172.16.1.2,5101,23232,28997,38,64256,65728,6,6,4,1460,439375,1,16778208,890000,66348,66348,65700,0,28960,0,2725987289,63
o,1734976283.717025,172.16.3.2,28423,172.16.1.2,5101,23232,28997,38,64256,65728,6,6,4,1460,450937,1,16778208,930000,66348,63452,65700,0,26064,0,2725987289,63
i,1734976283.722421,172.16.3.2,28423,172.16.1.2,5101,23232,28997,38,64256,65728,6,6,4,1460,450937,1,16778208,930000,66348,66348,65700,0,28960,0,2725987289,63
o,1734976283.722502,172.16.3.2,28423,172.16.1.2,5101,23232,28997,38,64256,65728,6,6,4,1460,463437,1,16778208,970000,66348,63452,65700,0,26064,0,2725987289,63
i,1734976283.724489,172.16.3.2,28423,172.16.1.2,5101,23232,28997,38,64256,65728,6,6,4,1460,463437,1,16778208,970000,66348,63452,65700,0,28960,0,2725987289,63
o,1734976283.724672,172.16.3.2,28423,172.16.1.2,5101,23232,28997,38,61376,65728,6,6,4,1460,474375,1,16778208,990000,66348,60556,65700,0,26064,0,2725987289,63
i,1734976283.727361,172.16.3.2,28423,172.16.1.2,5101,23232,28997,38,61376,65728,6,6,4,1460,474375,1,16778208,990000,66348,66348,65700,0,28960,0,2725987289,63
o,1734976283.727450,172.16.3.2,28423,172.16.1.2,5101,23232,28997,38,64256,65728,6,6,4,1460,484062,1,16778208,1000000,66348,63452,65700,0,26064,0,2725987289,63
i,1734976283.728127,172.16.3.2,28423,172.16.1.2,5101,23232,28997,38,64256,65728,6,6,4,1460,484062,1,16778208,1000000,66348,63452,65700,0,28960,0,2725987289,63
o,1734976283.728203,172.16.3.2,28423,172.16.1.2,5101,23232,28997,38,61376,65728,6,6,4,1460,491250,1,16778208,990000,66348,60556,65700,0,26064,0,2725987289,63
i,1734976283.778680,172.16.3.2,28423,172.16.1.2,5101,23232,28997,38,61376,65728,6,6,4,1460,491250,1,16778208,990000,66348,66348,65700,0,28960,0,2725987289,63
o,1734976283.778774,172.16.3.2,28423,172.16.1.2,5101,23232,28997,38,62848,65728,6,6,4,1460,503750,1,16778208,1020000,66348,63452,65700,0,26064,0,2725987289,63
i,1734976283.866666,172.16.3.2,28384,172.16.1.2,5102,23232,29021,38,65728,65728,6,6,4,1460,553125,1,16778208,1090000,66348,66348,65700,0,28960,0,1784484555,63
o,1734976283.866838,172.16.3.2,28384,172.16.1.2,5102,23232,29021,38,98560,65728,6,6,4,1460,541562,1,16778208,1090000,66348,64900,65700,0,27512,0,1784484555,63
i,1734976283.881423,172.16.3.2,28384,172.16.1.2,5102,23232,29021,38,98560,65728,6,6,4,1460,541562,1,16778208,1090000,66348,64900,65700,0,28960,0,1784484555,63
o,1734976283.881970,172.16.3.2,28384,172.16.1.2,5102,23232,29021,38,95680,65728,6,6,4,1460,532812,1,16778208,1060000,66348,62004,65700,0,26064,0,1784484555,63
i,1734976283.882526,172.16.3.2,28384,172.16.1.2,5102,23232,29021,38,95680,65728,6,6,4,1460,532812,1,16778208,1060000,66348,62004,65700,0,28960,0,1784484555,63
o,1734976283.882601,172.16.3.2,28384,172.16.1.2,5102,23232,29021,38,97152,65728,6,6,4,1460,525000,1,16778208,1030000,66348,59108,65700,0,26064,0,1784484555,63
i,1734976283.884513,172.16.3.2,28384,172.16.1.2,5102,23232,29021,38,97152,65728,6,6,4,1460,525000,1,16778208,1030000,66348,59108,65700,0,28960,0,1784484555,63
o,1734976283.884596,172.16.3.2,28384,172.16.1.2,5102,23232,29021,38,95680,65728,6,6,4,1460,518125,1,16778208,1000000,66348,56212,65700,0,26064,0,1784484555,63
i,1734976283.885135,172.16.3.2,28384,172.16.1.2,5102,23232,29021,38,95680,65728,6,6,4,1460,518125,1,16778208,1000000,66348,56212,65700,0,28960,0,1784484555,63
o,1734976283.885209,172.16.3.2,28384,172.16.1.2,5102,23232,29021,38,98560,65728,6,6,4,1460,512187,1,16778208,970000,66348,54764,65700,0,27512,0,1784484555,63
i,1734976283.885794,172.16.3.2,28384,172.16.1.2,5102,23232,29021,38,98560,65728,6,6,4,1460,512187,1,16778208,970000,66348,54764,65700,0,28960,0,1784484555,63
o,1734976283.885871,172.16.3.2,28384,172.16.1.2,5102,23232,29021,38,95680,65728,6,6,4,1460,507187,1,16778208,940000,66348,51868,65700,0,26064,0,1784484555,63
i,1734976283.889787,172.16.3.2,28384,172.16.1.2,5102,23232,29021,38,95680,65728,6,6,4,1460,507187,1,16778208,940000,66348,66348,65700,0,28960,0,1784484555,63
o,1734976283.889871,172.16.3.2,28384,172.16.1.2,5102,23232,29021,38,95680,65728,6,6,4,1460,502812,1,16778208,910000,66348,63452,65700,0,26064,0,1784484555,63
i,1734976283.890483,172.16.3.2,28384,172.16.1.2,5102,23232,29021,38,95680,65728,6,6,4,1460,502812,1,16778208,910000,66348,63452,65700,0,28960,0,1784484555,63
o,1734976283.890570,172.16.3.2,28384,172.16.1.2,5102,23232,29021,38,97152,65728,6,6,4,1460,498750,1,16778208,890000,66348,60556,65700,0,26064,0,1784484555,63
i,1734976283.891191,172.16.3.2,28384,172.16.1.2,5102,23232,29021,38,97152,65728,6,6,4,1460,498750,1,16778208,890000,66348,60556,65700,0,28960,0,1784484555,63
o,1734976283.891264,172.16.3.2,28384,172.16.1.2,5102,23232,29021,38,94272,65728,6,6,4,1460,495312,1,16778208,870000,66348,57660,65700,0,26064,0,1784484555,63
i,1734976283.895840,172.16.3.2,28384,172.16.1.2,5102,23232,29021,38,94272,65728,6,6,4,1460,495312,1,16778208,870000,66348,66348,65700,0,28960,0,1784484555,63
o,1734976283.895926,172.16.3.2,28384,172.16.1.2,5102,23232,29021,38,91392,65728,6,6,4,1460,494687,1,16778208,830000,66348,63452,65700,0,26064,0,1784484555,63
o,1734976283.896433,172.16.3.2,28384,172.16.1.2,5102,23232,29021,38,91392,65728,6,6,4,1460,494687,1,16778208,830000,66348,63452,65700,0,27512,0,1784484555,63
i,1734976283.896958,172.16.3.2,28384,172.16.1.2,5102,23232,29021,38,91392,65728,6,6,4,1460,494687,1,16778208,830000,66348,63452,65700,0,28960,0,1784484555,63
o,1734976283.897033,172.16.3.2,28384,172.16.1.2,5102,23232,30481,38,88512,65728,6,6,4,1460,493125,1,16778208,810000,66348,60556,65700,0,26064,0,1784484555,63
i,1734976284.131627,172.16.3.2,28423,172.16.1.2,5101,23232,28997,38,62848,65728,6,6,4,1460,503750,1,16778208,1020000,66348,66348,65700,0,28960,0,2725987289,63
o,1734976284.131723,172.16.3.2,28423,172.16.1.2,5101,23232,28997,38,64256,65728,6,6,4,1460,504687,1,16778208,950000,66348,63452,65700,0,26064,0,2725987289,63
o,1734976284.132225,172.16.3.2,28423,172.16.1.2,5101,23232,28997,38,64256,65728,6,6,4,1460,504687,1,16778208,950000,66348,63452,65700,0,27512,0,2725987289,63
i,1734976284.132837,172.16.3.2,28423,172.16.1.2,5101,23232,28997,38,64256,65728,6,6,4,1460,504687,1,16778208,950000,66348,63452,65700,0,28960,0,2725987289,63
o,1734976284.132873,172.16.3.2,28423,172.16.1.2,5101,23232,28997,38,64256,65728,6,6,4,1460,505625,1,16778208,900000,66348,60556,65700,0,26064,0,2725987289,63
i,1734976284.133307,172.16.3.2,28423,172.16.1.2,5101,23232,28997,38,64256,65728,6,6,4,1460,505625,1,16778208,900000,66348,60556,65700,0,28960,0,2725987289,63
o,1734976284.133384,172.16.3.2,28423,172.16.1.2,5101,23232,28997,38,64256,65728,6,6,4,1460,506250,1,16778208,860000,66348,57660,65700,0,26064,0,2725987289,63
i,1734976284.239628,172.16.3.2,28423,172.16.1.2,5101,23232,28997,38,64256,65728,6,6,4,1460,506250,1,16778208,860000,66348,66348,65700,0,28960,0,2725987289,63
o,1734976284.239742,172.16.3.2,28423,172.16.1.2,5101,23232,28997,38,65728,65728,6,6,4,1460,508125,1,16778208,840000,66348,64900,65700,0,27512,0,2725987289,63
i,1734976284.240366,172.16.3.2,28423,172.16.1.2,5101,23232,28997,38,65728,65728,6,6,4,1460,508125,1,16778208,840000,66348,64900,65700,0,28960,0,2725987289,63
o,1734976284.240459,172.16.3.2,28423,172.16.1.2,5101,23232,28997,38,62848,65728,6,6,4,1460,509687,1,16778208,820000,66348,62004,65700,0,26064,0,2725987289,63
i,1734976284.241079,172.16.3.2,28423,172.16.1.2,5101,23232,28997,38,62848,65728,6,6,4,1460,509687,1,16778208,820000,66348,62004,65700,0,28960,0,2725987289,63
o,1734976284.241177,172.16.3.2,28423,172.16.1.2,5101,23232,28997,38,64256,65728,6,6,4,1460,511250,1,16778208,800000,66348,59108,65700,0,26064,0,2725987289,63
i,1734976284.242107,172.16.3.2,28423,172.16.1.2,5101,23232,28997,38,64256,65728,6,6,4,1460,511250,1,16778208,800000,66348,59108,65700,0,28960,0,2725987289,63
o,1734976284.242136,172.16.3.2,28423,172.16.1.2,5101,23232,28997,38,62848,65728,6,6,4,1460,511250,1,16778208,780000,66348,56212,65700,0,26064,0,2725987289,63
i,1734976284.242344,172.16.3.2,28423,172.16.1.2,5101,23232,28997,38,62848,65728,6,6,4,1460,511250,1,16778208,780000,66348,56212,65700,0,28960,0,2725987289,63
o,1734976284.242373,172.16.3.2,28423,172.16.1.2,5101,23232,28997,38,64256,65728,6,6,4,1460,511250,1,16778208,760000,66348,53316,65700,0,26064,0,2725987289,63
i,1734976284.242622,172.16.3.2,28423,172.16.1.2,5101,23232,28997,38,64256,65728,6,6,4,1460,511250,1,16778208,760000,66348,53316,65700,0,28960,0,2725987289,63
o,1734976284.242651,172.16.3.2,28423,172.16.1.2,5101,23232,28997,38,64256,65728,6,6,4,1460,511250,1,16778208,750000,66348,50420,65700,0,26064,0,2725987289,63
i,1734976284.245828,172.16.3.2,28423,172.16.1.2,5101,23232,28997,38,64256,65728,6,6,4,1460,511250,1,16778208,750000,66348,66348,65700,0,28960,0,2725987289,63
o,1734976284.246587,172.16.3.2,28423,172.16.1.2,5101,23232,28997,38,62848,65728,6,6,4,1460,511250,1,16778208,740000,66348,63452,65700,0,26064,0,2725987289,63
i,1734976284.311141,172.16.3.2,28423,172.16.1.2,5101,23232,28997,38,62848,65728,6,6,4,1460,511250,1,16778208,740000,66348,66348,65700,0,28960,0,2725987289,63
o,1734976284.311270,172.16.3.2,28423,172.16.1.2,5101,23232,28997,38,65728,65728,6,6,4,1460,513750,1,16778208,760000,66348,64900,65700,0,27512,0,2725987289,63
i,1734976284.312811,172.16.3.2,28384,172.16.1.2,5102,23232,30481,38,88512,65728,6,6,4,1460,493125,1,16778208,810000,74540,74540,65700,0,30408,0,1784484555,63
o,1734976284.312869,172.16.3.2,28384,172.16.1.2,5102,23232,30481,38,97152,65728,6,6,4,1460,486562,1,16778208,820000,74540,71644,65700,0,27512,0,1784484555,63
i,1734976284.313667,172.16.3.2,28384,172.16.1.2,5102,23232,30481,38,97152,65728,6,6,4,1460,486562,1,16778208,820000,74540,71644,65700,0,30408,0,1784484555,63
o,1734976284.313816,172.16.3.2,28384,172.16.1.2,5102,23232,30481,38,98560,65728,6,6,4,1460,479687,1,16778208,840000,74540,70196,65700,0,28960,0,1784484555,63
i,1734976284.314368,172.16.3.2,28384,172.16.1.2,5102,23232,30481,38,98560,65728,6,6,4,1460,479687,1,16778208,840000,74540,70196,65700,0,30408,0,1784484555,63
o,1734976284.314445,172.16.3.2,28384,172.16.1.2,5102,23232,30481,38,97152,65728,6,6,4,1460,473750,1,16778208,840000,74540,67300,65700,0,27512,0,1784484555,63
i,1734976284.315565,172.16.3.2,28384,172.16.1.2,5102,23232,30481,38,97152,65728,6,6,4,1460,473750,1,16778208,840000,74540,67300,65700,0,30408,0,1784484555,63
o,1734976284.315643,172.16.3.2,28384,172.16.1.2,5102,23232,30481,38,94272,65728,6,6,4,1460,468437,1,16778208,830000,74540,64404,65700,0,27512,0,1784484555,63
i,1734976284.316300,172.16.3.2,28384,172.16.1.2,5102,23232,30481,38,94272,65728,6,6,4,1460,468437,1,16778208,830000,74540,64404,65700,0,30408,0,1784484555,63
o,1734976284.316427,172.16.3.2,28384,172.16.1.2,5102,23232,30481,38,97152,65728,6,6,4,1460,463750,1,16778208,820000,74540,61508,65700,0,27512,0,1784484555,63
i,1734976284.317062,172.16.3.2,28384,172.16.1.2,5102,23232,30481,38,97152,65728,6,6,4,1460,463750,1,16778208,820000,74540,61508,65700,0,30408,0,1784484555,63
o,1734976284.317319,172.16.3.2,28384,172.16.1.2,5102,23232,30481,38,94272,65728,6,6,4,1460,459687,1,16778208,810000,74540,58612,65700,0,27512,0,1784484555,63
i,1734976284.317865,172.16.3.2,28384,172.16.1.2,5102,23232,30481,38,94272,65728,6,6,4,1460,459687,1,16778208,810000,74540,58612,65700,0,30408,0,1784484555,63
o,1734976284.317940,172.16.3.2,28384,172.16.1.2,5102,23232,30481,38,97152,65728,6,6,4,1460,456250,1,16778208,800000,74540,55716,65700,0,27512,0,1784484555,63
i,1734976284.318510,172.16.3.2,28384,172.16.1.2,5102,23232,30481,38,97152,65728,6,6,4,1460,456250,1,16778208,800000,74540,55716,65700,0,30408,0,1784484555,63
o,1734976284.318583,172.16.3.2,28384,172.16.1.2,5102,23232,30481,38,94272,65728,6,6,4,1460,453125,1,16778208,790000,74540,52820,65700,0,27512,0,1784484555,63
i,1734976284.319109,172.16.3.2,28384,172.16.1.2,5102,23232,30481,38,94272,65728,6,6,4,1460,453125,1,16778208,790000,74540,52820,65700,0,30408,0,1784484555,63
o,1734976284.319309,172.16.3.2,28384,172.16.1.2,5102,23232,30481,38,95680,65728,6,6,4,1460,450312,1,16778208,770000,74540,49924,65700,0,27512,0,1784484555,63
o,1734976284.319779,172.16.3.2,28384,172.16.1.2,5102,23232,30481,38,95680,65728,6,6,4,1460,450312,1,16778208,770000,74540,49924,65700,0,28960,0,1784484555,63
i,1734976284.320325,172.16.3.2,28384,172.16.1.2,5102,23232,30481,38,95680,65728,6,6,4,1460,450312,1,16778208,770000,74540,49924,65700,0,30408,0,1784484555,63
o,1734976284.320356,172.16.3.2,28384,172.16.1.2,5102,23232,30481,38,95680,65728,6,6,4,1460,446562,1,16778208,770000,74540,47028,65700,0,27512,0,1784484555,63
i,1734976284.320865,172.16.3.2,28384,172.16.1.2,5102,23232,30481,38,95680,65728,6,6,4,1460,446562,1,16778208,770000,74540,47028,65700,0,30408,0,1784484555,63
o,1734976284.320942,172.16.3.2,28384,172.16.1.2,5102,23232,31941,38,92800,65728,6,6,4,1460,443437,1,16778208,760000,74540,44132,65700,0,27512,0,1784484555,63
i,1734976284.529105,172.16.3.2,28423,172.16.1.2,5101,23232,28997,38,65728,65728,6,6,4,1460,513750,1,16778208,760000,66348,64900,65700,0,28960,0,2725987289,63
o,1734976284.529156,172.16.3.2,28423,172.16.1.2,5101,23232,28997,38,64256,65728,6,6,4,1460,498437,1,16778208,850000,66348,62004,65700,0,26064,0,2725987289,63
o,1734976284.529374,172.16.3.2,28423,172.16.1.2,5101,23232,28997,38,64256,65728,6,6,4,1460,498437,1,16778208,850000,66348,62004,65700,0,27512,0,2725987289,63
i,1734976284.677018,172.16.3.2,28423,172.16.1.2,5101,23232,28997,38,64256,65728,6,6,4,1460,498437,1,16778208,850000,66348,66348,65700,0,28960,0,2725987289,63
o,1734976284.677184,172.16.3.2,28423,172.16.1.2,5101,23232,28997,38,62848,65728,6,6,4,1460,503750,1,16778208,860000,66348,63452,65700,0,26064,0,2725987289,63
i,1734976284.680786,172.16.3.2,28423,172.16.1.2,5101,23232,28997,38,62848,65728,6,6,4,1460,503750,1,16778208,860000,66348,66348,65700,0,28960,0,2725987289,63
o,1734976284.680876,172.16.3.2,28423,172.16.1.2,5101,23232,28997,38,59968,65728,6,6,4,1460,508437,1,16778208,860000,66348,63452,65700,0,26064,0,2725987289,63
i,1734976284.744041,172.16.3.2,28423,172.16.1.2,5101,23232,28997,38,59968,65728,6,6,4,1460,508437,1,16778208,860000,66348,66348,65700,0,28960,0,2725987289,63
o,1734976284.744439,172.16.3.2,28423,172.16.1.2,5101,23232,28997,38,62848,65728,6,6,4,1460,508750,1,16778208,830000,66348,63452,65700,0,26064,0,2725987289,63
i,1734976284.745763,172.16.3.2,28423,172.16.1.2,5101,23232,28997,38,62848,65728,6,6,4,1460,508750,1,16778208,830000,66348,63452,65700,0,28960,0,2725987289,63
o,1734976284.745934,172.16.3.2,28423,172.16.1.2,5101,23232,28997,38,64256,65728,6,6,4,1460,509062,1,16778208,800000,66348,60556,65700,0,26064,0,2725987289,63
i,1734976284.747164,172.16.3.2,28423,172.16.1.2,5101,23232,28997,38,64256,65728,6,6,4,1460,509062,1,16778208,800000,66348,66348,65700,0,28960,0,2725987289,63
o,1734976284.747244,172.16.3.2,28423,172.16.1.2,5101,23232,28997,38,64256,65728,6,6,4,1460,509375,1,16778208,780000,66348,63452,65700,0,26064,0,2725987289,63
i,1734976284.747803,172.16.3.2,28423,172.16.1.2,5101,23232,28997,38,64256,65728,6,6,4,1460,509375,1,16778208,780000,66348,63452,65700,0,28960,0,2725987289,63
o,1734976284.747877,172.16.3.2,28423,172.16.1.2,5101,23232,28997,38,64256,65728,6,6,4,1460,508437,1,16778208,770000,66348,60556,65700,0,26064,0,2725987289,63
i,1734976284.749946,172.16.3.2,28423,172.16.1.2,5101,23232,28997,38,64256,65728,6,6,4,1460,508437,1,16778208,770000,66348,66348,65700,0,28960,0,2725987289,63
o,1734976284.750048,172.16.3.2,28423,172.16.1.2,5101,23232,28997,38,62848,65728,6,6,4,1460,507500,1,16778208,760000,66348,63452,65700,0,26064,0,2725987289,63
i,1734976284.760235,172.16.3.2,28423,172.16.1.2,5101,23232,28997,38,62848,65728,6,6,4,1460,507500,1,16778208,760000,66348,66348,65700,0,28960,0,2725987289,63
o,1734976284.760498,172.16.3.2,28423,172.16.1.2,5101,23232,28997,38,64256,65728,6,6,4,1460,507812,1,16778208,750000,66348,63452,65700,0,26064,0,2725987289,63
i,1734976284.761713,172.16.3.2,28423,172.16.1.2,5101,23232,28997,38,64256,65728,6,6,4,1460,507812,1,16778208,750000,66348,63452,65700,0,28960,0,2725987289,63
o,1734976284.761800,172.16.3.2,28423,172.16.1.2,5101,23232,28997,38,65728,65728,6,6,4,1460,509375,1,16778208,750000,66348,62004,65700,0,27512,0,2725987289,63
i,1734976284.782368,172.16.3.2,28423,172.16.1.2,5101,23232,28997,38,65728,65728,6,6,4,1460,509375,1,16778208,750000,66348,66348,65700,0,28960,0,2725987289,63
o,1734976284.782474,172.16.3.2,28423,172.16.1.2,5101,23232,28997,38,98560,65728,6,6,4,1460,505937,1,16778208,770000,66348,64900,65700,0,27512,0,2725987289,63
i,1734976284.783073,172.16.3.2,28384,172.16.1.2,5102,23232,31941,38,92800,65728,6,6,4,1460,443437,1,16778208,760000,74540,74540,65700,0,31856,0,1784484555,63
o,1734976284.783196,172.16.3.2,28384,172.16.1.2,5102,23232,31941,38,97152,65728,6,6,4,1460,446875,1,16778208,760000,74540,71644,65700,0,28960,0,1784484555,63
i,1734976284.785355,172.16.3.2,28384,172.16.1.2,5102,23232,31941,38,97152,65728,6,6,4,1460,446875,1,16778208,760000,74540,74540,65700,0,31856,0,1784484555,63
o,1734976284.785435,172.16.3.2,28384,172.16.1.2,5102,23232,31941,38,97152,65728,6,6,4,1460,450000,1,16778208,760000,74540,71644,65700,0,28960,0,1784484555,63
i,1734976284.847119,172.16.3.2,28384,172.16.1.2,5102,23232,31941,38,97152,65728,6,6,4,1460,450000,1,16778208,760000,74540,74540,65700,0,31856,0,1784484555,63
o,1734976284.847251,172.16.3.2,28384,172.16.1.2,5102,23232,31941,38,97152,65728,6,6,4,1460,460000,1,16778208,820000,74540,71644,65700,0,28960,0,1784484555,63
i,1734976284.848317,172.16.3.2,28384,172.16.1.2,5102,23232,31941,38,97152,65728,6,6,4,1460,460000,1,16778208,820000,74540,71644,65700,0,31856,0,1784484555,63
o,1734976284.848392,172.16.3.2,28384,172.16.1.2,5102,23232,31941,38,97152,65728,6,6,4,1460,468750,1,16778208,860000,74540,68748,65700,0,28960,0,1784484555,63
i,1734976284.848924,172.16.3.2,28384,172.16.1.2,5102,23232,31941,38,97152,65728,6,6,4,1460,468750,1,16778208,860000,74540,68748,65700,0,31856,0,1784484555,63
o,1734976284.848999,172.16.3.2,28384,172.16.1.2,5102,23232,31941,38,94272,65728,6,6,4,1460,476562,1,16778208,880000,74540,65852,65700,0,28960,0,1784484555,63
i,1734976284.854766,172.16.3.2,28384,172.16.1.2,5102,23232,31941,38,94272,65728,6,6,4,1460,476562,1,16778208,880000,74540,74540,65700,0,31856,0,1784484555,63
o,1734976284.854863,172.16.3.2,28384,172.16.1.2,5102,23232,31941,38,91392,65728,6,6,4,1460,484687,1,16778208,900000,74540,71644,65700,0,28960,0,1784484555,63
i,1734976284.855475,172.16.3.2,28384,172.16.1.2,5102,23232,31941,38,91392,65728,6,6,4,1460,484687,1,16778208,900000,74540,71644,65700,0,31856,0,1784484555,63
