enable_time_secs=1734976446	enable_time_usecs=828744	siftrver=1.3.0	sysname=FreeBSD	sysver=1401000	ipmode=4
o,1734976446.830241,10.0.2.15,22,192.168.56.1,54726,1073725440,18998,1026,65535,65700,0,0,4,1460,312,0,16777220,230000,33580,172,65700,0,0,0,1772842043,63
o,1734976446.830967,10.0.2.15,22,192.168.56.1,54726,1073725440,18998,1026,65535,65700,0,0,4,1460,312,0,16777220,230000,33580,244,65700,0,172,0,1772842043,63
i,1734976446.833420,10.0.2.15,22,192.168.56.1,54726,1073725440,18998,1026,65535,65700,0,0,4,1460,312,0,16777220,230000,33580,244,65700,0,244,0,1772842043,63
i,1734976446.833499,10.0.2.15,22,192.168.56.1,54726,1073725440,19170,1026,65535,65700,0,0,4,1460,312,0,4,230000,33580,72,65700,0,72,0,1772842043,63
i,1734976446.833568,10.0.2.15,22,192.168.56.1,54726,1073725440,19242,1026,65535,65700,0,0,4,1460,312,0,4,230000,33580,0,65700,0,0,0,1772842043,63
o,1734976446.835660,10.0.2.15,22,192.168.56.1,54726,1073725440,19242,1026,65535,65700,0,0,6,1460,312,0,4,230000,33580,0,65700,0,0,0,1772842043,63
i,1734976446.839571,10.0.2.15,22,192.168.56.1,54726,1073725440,19242,1026,65535,65700,0,0,6,1460,312,0,67108884,230000,33580,0,65700,0,1,0,1772842043,63
i,1734976461.768385,10.0.2.15,22,192.168.56.1,54720,1073725440,19175,1026,65535,65700,0,0,9,1460,312,0,67108884,230000,33580,0,65700,0,0,0,2436365857,63
i,1734976461.772973,10.0.2.15,22,192.168.56.1,54720,1073725440,19175,1026,65535,65700,0,0,9,1460,312,0,67108884,230000,33580,0,65700,0,0,0,2436365857,63
i,1734976467.786659,10.0.2.15,22,192.168.56.1,54720,1073725440,14600,0,65535,65700,0,0,4,1460,312,0,16777216,250000,33580,0,65700,0,0,0,2436365857,63
o,1734976467.822759,10.0.2.15,22,192.168.56.1,54720,1073725440,14600,2,65535,65700,0,0,4,1460,312,0,16777217,250000,33580,0,65700,42,0,0,2436365857,63
o,1734976467.824592,10.0.2.15,22,192.168.56.1,54720,1073725440,14600,1026,65535,65700,0,0,4,1460,312,0,16777216,250000,33580,38,65700,42,0,0,2436365857,63
i,1734976467.827708,10.0.2.15,22,192.168.56.1,54720,1073725440,14600,1026,65535,65700,0,0,4,1460,312,0,16777216,250000,33580,1158,65700,0,38,0,2436365857,63
o,1734976467.827817,10.0.2.15,22,192.168.56.1,54720,1073725440,14638,1026,65535,65700,0,0,4,1460,312,0,16777216,230000,33580,1120,65700,0,0,0,2436365857,63
i,1734976467.831571,10.0.2.15,22,192.168.56.1,54720,1073725440,14638,1026,65535,65700,0,0,4,1460,312,0,16777216,230000,33580,1120,65700,0,1120,0,2436365857,63
i,1734976467.831636,10.0.2.15,22,192.168.56.1,54720,1073725440,14638,1026,65535,65700,0,0,4,1460,312,0,16777216,230000,33580,1120,65700,1460,1120,0,2436365857,63
o,1734976467.831709,10.0.2.15,22,192.168.56.1,54720,1073725440,14638,1026,65535,65700,0,0,4,1460,312,0,16777217,230000,33580,1120,65700,1536,1120,0,2436365857,63
i,1734976467.832843,10.0.2.15,22,192.168.56.1,54720,1073725440,14638,1026,65535,65700,0,0,4,1460,312,0,16777216,230000,33580,1120,65700,1536,1120,0,2436365857,63
i,1734976467.863284,10.0.2.15,22,192.168.56.1,54720,1073725440,15758,1026,65535,65700,0,0,4,1460,312,0,0,230000,33580,0,65700,0,0,0,2436365857,63
o,1734976467.887810,10.0.2.15,22,192.168.56.1,54720,1073725440,15758,1030,65535,65700,0,0,4,1460,312,0,16777216,230000,33580,1532,65700,0,0,0,2436365857,63
o,1734976467.889642,10.0.2.15,22,192.168.56.1,54720,1073725440,15758,1026,65535,65700,0,0,4,1460,312,0,16777216,230000,33580,1532,65700,0,1460,0,2436365857,63
i,1734976467.894452,10.0.2.15,22,192.168.56.1,54720,1073725440,15758,1026,65535,65700,0,0,4,1460,312,0,16777216,230000,33580,1532,65700,0,1532,0,2436365857,63
i,1734976467.894535,10.0.2.15,22,192.168.56.1,54720,1073725440,17218,1026,65535,65700,0,0,4,1460,312,0,0,230000,33580,72,65700,0,72,0,2436365857,63
i,1734976467.909302,10.0.2.15,22,192.168.56.1,54720,1073725440,17290,1026,65535,65700,0,0,4,1460,312,0,0,230000,33580,0,65700,0,0,0,2436365857,63
o,1734976467.909793,10.0.2.15,22,192.168.56.1,54720,1073725440,17290,1026,65535,65700,0,0,4,1460,312,0,16777216,230000,33580,44,65700,0,0,0,2436365857,63
i,1734976467.913482,10.0.2.15,22,192.168.56.1,54720,1073725440,17290,1026,65535,65700,0,0,4,1460,312,0,16777216,230000,33580,44,65700,0,44,0,2436365857,63
o,1734976467.916230,10.0.2.15,22,192.168.56.1,54720,1073725440,17334,1026,65535,65700,0,0,4,1460,312,0,16777216,230000,33580,280,65700,0,0,0,2436365857,63
i,1734976467.922872,10.0.2.15,22,192.168.56.1,54720,1073725440,17334,1026,65535,65700,0,0,4,1460,312,0,16777216,230000,33580,280,65700,0,280,0,2436365857,63
o,1734976467.928586,10.0.2.15,22,192.168.56.1,54720,1073725440,17614,1026,65535,65700,0,0,4,1460,312,0,16777216,230000,33580,332,65700,0,0,0,2436365857,63
i,1734976467.933118,10.0.2.15,22,192.168.56.1,54720,1073725440,17614,1026,65535,65700,0,0,4,1460,312,0,16777216,230000,33580,332,65700,0,332,0,2436365857,63
i,1734976467.933194,10.0.2.15,22,192.168.56.1,54720,1073725440,17946,1026,65535,65700,0,0,4,1460,312,0,0,230000,33580,0,65700,0,0,0,2436365857,63
o,1734976467.947261,10.0.2.15,22,192.168.56.1,54720,1073725440,17946,1026,65535,65700,0,0,4,1460,312,0,16777216,230000,33580,28,65700,0,0,0,2436365857,63
i,1734976467.951386,10.0.2.15,22,192.168.56.1,54720,1073725440,17946,1026,65535,65700,0,0,4,1460,312,0,16777216,230000,33580,28,65700,0,28,0,2436365857,63
o,1734976467.952533,10.0.2.15,22,192.168.56.1,54720,1073725440,17974,1026,65535,65700,0,0,4,1460,312,0,16777216,230000,33580,768,65700,112,0,0,2436365857,63
i,1734976467.957835,10.0.2.15,22,192.168.56.1,54720,1073725440,17974,1026,65535,65700,0,0,4,1460,312,0,16777216,230000,33580,952,65700,0,768,0,2436365857,63
o,1734976467.958379,10.0.2.15,22,192.168.56.1,54720,1073725440,18742,1026,65535,65700,0,0,4,1460,312,0,16777216,230000,33580,184,65700,0,0,0,2436365857,63
i,1734976467.960688,10.0.2.15,22,192.168.56.1,54720,1073725440,18742,1026,65535,65700,0,0,4,1460,312,0,16777216,230000,33580,184,65700,0,184,0,2436365857,63
i,1734976467.960773,10.0.2.15,22,192.168.56.1,54720,1073725440,18926,1026,65535,65700,0,0,4,1460,312,0,0,230000,33580,0,65700,0,0,0,2436365857,63
o,1734976467.963781,10.0.2.15,22,192.168.56.1,54720,1073725440,18926,1026,65535,65700,0,0,4,1460,312,0,16777220,230000,33580,72,65700,0,0,0,2436365857,63
i,1734976467.969288,10.0.2.15,22,192.168.56.1,54720,1073725440,18926,1026,65535,65700,0,0,4,1460,312,0,16777220,230000,33580,72,65700,0,72,0,2436365857,63
o,1734976467.976013,10.0.2.15,22,192.168.56.1,54720,1073725440,18998,1026,65535,65700,0,0,4,1460,312,0,16777220,230000,33580,104,65700,0,0,0,2436365857,63
o,1734976467.977795,10.0.2.15,22,192.168.56.1,54720,1073725440,18998,1026,65535,65700,0,0,4,1460,312,0,16777220,230000,33580,176,65700,0,104,0,2436365857,63
i,1734976467.979780,10.0.2.15,22,192.168.56.1,54720,1073725440,18998,1026,65535,65700,0,0,4,1460,312,0,16777220,230000,33580,176,65700,0,176,0,2436365857,63
i,1734976467.979856,10.0.2.15,22,192.168.56.1,54720,1073725440,19102,1026,65535,65700,0,0,4,1460,312,0,4,230000,33580,72,65700,0,72,0,2436365857,63
i,1734976467.983268,10.0.2.15,22,192.168.56.1,54720,1073725440,19174,1026,65535,65700,0,0,4,1460,312,0,4,230000,33580,0,65700,0,0,0,2436365857,63
o,1734976468.007213,10.0.2.15,22,192.168.56.1,54720,1073725440,19174,1026,65535,65700,0,0,6,1460,312,0,4,230000,33580,0,65700,0,0,0,2436365857,63
i,1734976468.010213,10.0.2.15,22,192.168.56.1,54720,1073725440,19174,1026,65535,65700,0,0,6,1460,312,0,67108884,230000,33580,0,65700,0,1,0,2436365857,63
i,1734976470.473532,10.0.2.15,22,192.168.56.1,54728,1073725440,19283,1026,65535,65700,0,0,9,1460,312,0,67108884,230000,33580,0,65700,0,0,0,1158530778,63
i,1734976470.476576,10.0.2.15,22,192.168.56.1,54728,1073725440,19283,1026,65535,65700,0,0,9,1460,312,0,67108884,230000,33580,0,65700,0,0,0,1158530778,63
i,1734976470.476720,10.0.2.15,22,192.168.56.1,54738,1073725440,14600,0,65535,65700,0,0,4,1460,312,0,16777216,250000,33580,0,65700,0,0,0,734134704,63
o,1734976470.513226,10.0.2.15,22,192.168.56.1,54738,1073725440,14600,2,65535,65700,0,0,4,1460,312,0,16777217,250000,33580,0,65700,42,0,0,734134704,63
o,1734976470.513682,10.0.2.15,22,192.168.56.1,54738,1073725440,14600,1026,65535,65700,0,0,4,1460,312,0,16777216,250000,33580,38,65700,42,0,0,734134704,63
i,1734976470.518390,10.0.2.15,22,192.168.56.1,54738,1073725440,14600,1026,65535,65700,0,0,4,1460,312,0,16777216,250000,33580,1158,65700,0,38,0,734134704,63
o,1734976470.518523,10.0.2.15,22,192.168.56.1,54738,1073725440,14638,1026,65535,65700,0,0,4,1460,312,0,16777216,230000,33580,1120,65700,0,0,0,734134704,63
i,1734976470.518971,10.0.2.15,22,192.168.56.1,54738,1073725440,14638,1026,65535,65700,0,0,4,1460,312,0,16777216,230000,33580,1120,65700,0,1120,0,734134704,63
i,1734976470.519196,10.0.2.15,22,192.168.56.1,54738,1073725440,14638,1026,65535,65700,0,0,4,1460,312,0,16777216,230000,33580,1120,65700,1460,1120,0,734134704,63
o,1734976470.519270,10.0.2.15,22,192.168.56.1,54738,1073725440,14638,1026,65535,65700,0,0,4,1460,312,0,16777217,230000,33580,1120,65700,1536,1120,0,734134704,63
i,1734976470.522795,10.0.2.15,22,192.168.56.1,54738,1073725440,14638,1026,65535,65700,0,0,4,1460,312,0,16777216,230000,33580,1120,65700,0,1120,0,734134704,63
i,1734976470.556695,10.0.2.15,22,192.168.56.1,54738,1073725440,15758,1026,65535,65700,0,0,4,1460,312,0,0,230000,33580,0,65700,0,0,0,734134704,63
o,1734976470.583413,10.0.2.15,22,192.168.56.1,54738,1073725440,15758,1030,65535,65700,0,0,4,1460,312,0,16777216,230000,33580,1532,65700,0,0,0,734134704,63
o,1734976470.585595,10.0.2.15,22,192.168.56.1,54738,1073725440,15758,1026,65535,65700,0,0,4,1460,312,0,16777216,230000,33580,1532,65700,0,1460,0,734134704,63
i,1734976470.588851,10.0.2.15,22,192.168.56.1,54738,1073725440,15758,1026,65535,65700,0,0,4,1460,312,0,16777216,230000,33580,1532,65700,0,1532,0,734134704,63
i,1734976470.588931,10.0.2.15,22,192.168.56.1,54738,1073725440,17218,1026,65535,65700,0,0,4,1460,312,0,0,230000,33580,72,65700,0,72,0,734134704,63
i,1734976470.603034,10.0.2.15,22,192.168.56.1,54738,1073725440,17290,1026,65535,65700,0,0,4,1460,312,0,0,230000,33580,0,65700,0,0,0,734134704,63
o,1734976470.603487,10.0.2.15,22,192.168.56.1,54738,1073725440,17290,1026,65535,65700,0,0,4,1460,312,0,16777216,230000,33580,44,65700,0,0,0,734134704,63
i,1734976470.608320,10.0.2.15,22,192.168.56.1,54738,1073725440,17290,1026,65535,65700,0,0,4,1460,312,0,16777216,230000,33580,44,65700,0,44,0,734134704,63
o,1734976470.611113,10.0.2.15,22,192.168.56.1,54738,1073725440,17334,1026,65535,65700,0,0,4,1460,312,0,16777216,230000,33580,280,65700,0,0,0,734134704,63
i,1734976470.615049,10.0.2.15,22,192.168.56.1,54738,1073725440,17334,1026,65535,65700,0,0,4,1460,312,0,16777216,230000,33580,280,65700,0,280,0,734134704,63
o,1734976470.617170,10.0.2.15,22,192.168.56.1,54738,1073725440,17614,1026,65535,65700,0,0,4,1460,312,0,16777216,230000,33580,332,65700,0,0,0,734134704,63
i,1734976470.622884,10.0.2.15,22,192.168.56.1,54738,1073725440,17614,1026,65535,65700,0,0,4,1460,312,0,16777216,230000,33580,332,65700,0,332,0,734134704,63
i,1734976470.622966,10.0.2.15,22,192.168.56.1,54738,1073725440,17946,1026,65535,65700,0,0,4,1460,312,0,0,230000,33580,0,65700,0,0,0,734134704,63
o,1734976470.640790,10.0.2.15,22,192.168.56.1,54738,1073725440,17946,1026,65535,65700,0,0,4,1460,312,0,16777216,230000,33580,28,65700,0,0,0,734134704,63
i,1734976470.644189,10.0.2.15,22,192.168.56.1,54738,1073725440,17946,1026,65535,65700,0,0,4,1460,312,0,16777216,230000,33580,28,65700,0,28,0,734134704,63
o,1734976470.645828,10.0.2.15,22,192.168.56.1,54738,1073725440,17974,1026,65535,65700,0,0,4,1460,312,0,16777216,230000,33580,768,65700,112,0,0,734134704,63
i,1734976470.650576,10.0.2.15,22,192.168.56.1,54738,1073725440,17974,1026,65535,65700,0,0,4,1460,312,0,16777216,230000,33580,952,65700,0,768,0,734134704,63
o,1734976470.650612,10.0.2.15,22,192.168.56.1,54738,1073725440,18742,1026,65535,65700,0,0,4,1460,312,0,16777216,230000,33580,184,65700,0,0,0,734134704,63
i,1734976470.654059,10.0.2.15,22,192.168.56.1,54738,1073725440,18742,1026,65535,65700,0,0,4,1460,312,0,16777216,230000,33580,184,65700,0,184,0,734134704,63
i,1734976470.654124,10.0.2.15,22,192.168.56.1,54738,1073725440,18926,1026,65535,65700,0,0,4,1460,312,0,0,230000,33580,0,65700,0,0,0,734134704,63
o,1734976470.657358,10.0.2.15,22,192.168.56.1,54738,1073725440,18926,1026,65535,65700,0,0,4,1460,312,0,16777220,230000,33580,72,65700,0,0,0,734134704,63
i,1734976470.661945,10.0.2.15,22,192.168.56.1,54738,1073725440,18926,1026,65535,65700,0,0,4,1460,312,0,16777220,230000,33580,72,65700,0,72,0,734134704,63
i,1734976470.662031,10.0.2.15,22,192.168.56.1,54738,1073725440,18998,1026,65535,65700,0,0,4,1460,312,0,4,230000,33580,0,65700,0,0,0,734134704,63
o,1734976470.703061,10.0.2.15,22,192.168.56.1,54738,1073725440,18998,1026,65535,65700,0,0,4,1460,312,0,5,230000,33580,0,65700,0,0,0,734134704,63
o,1734976470.819814,172.16.3.2,41329,172.16.1.2,5101,101058,14480,34,65535,65700,6,6,4,1460,685625,1,16778209,2720000,33580,0,65700,0,0,0,1150421690,63
o,1734976470.820378,172.16.3.2,41329,172.16.1.2,5101,101058,14480,34,65535,65700,6,6,4,1460,685625,1,16778212,2720000,33580,37,65700,0,0,0,1150421690,63
i,1734976470.974140,172.16.3.2,41329,172.16.1.2,5101,101058,14480,34,65535,65700,6,6,4,1460,685625,1,16778212,2720000,33580,37,65700,0,37,0,1150421690,63
o,1734976470.974730,172.16.3.2,41329,172.16.1.2,5101,101058,14517,1058,65728,65728,6,6,4,1460,620000,1,16778212,2720000,33580,4,65700,0,0,0,1150421690,63
o,1734976470.975223,172.16.3.2,41329,172.16.1.2,5101,101058,14517,1058,65728,65728,6,6,4,1460,620000,1,16778212,2720000,33580,151,65700,0,4,0,1150421690,63
i,1734976471.109590,172.16.3.2,41329,172.16.1.2,5101,101058,14517,1058,65728,65728,6,6,4,1460,620000,1,16778212,2720000,33580,151,65700,0,151,0,1150421690,63
i,1734976471.113008,172.16.3.2,41329,172.16.1.2,5101,101058,14668,1058,65600,65728,6,6,4,1460,558750,1,996,2670000,33580,0,65700,0,0,0,1150421690,63
o,1734976471.157545,172.16.3.2,41329,172.16.1.2,5101,101058,14668,1058,65728,65728,6,6,4,1460,558750,1,997,2670000,33580,0,65700,0,0,0,1150421690,63
o,1734976471.267144,172.16.3.2,52417,172.16.1.2,5101,101058,14480,34,65535,65700,6,6,4,1460,686875,1,16778209,2710000,33580,0,65700,0,0,0,2287770808,63
o,1734976471.267936,172.16.3.2,52417,172.16.1.2,5101,101058,14480,34,65535,65700,6,6,4,1460,686875,1,16778208,2710000,33580,37,65700,0,0,0,2287770808,63
i,1734976471.399290,172.16.3.2,41329,172.16.1.2,5101,101058,14668,1058,65728,65728,6,6,4,1460,558750,1,996,2670000,33580,0,65700,0,0,0,1150421690,63
i,1734976471.399436,172.16.3.2,41329,172.16.1.2,5101,101058,14668,1058,65728,65728,6,6,4,1460,558750,1,996,2670000,33580,0,65700,1,0,0,1150421690,63
o,1734976471.399518,172.16.3.2,41329,172.16.1.2,5101,101058,14668,1058,65728,65728,6,6,4,1460,558750,1,997,2670000,33580,0,65700,2,0,0,1150421690,63
o,1734976471.401351,172.16.3.2,52417,172.16.1.2,5101,101058,14480,38,65535,65700,6,6,4,1460,686875,1,16778208,2710000,33580,33580,65700,0,37,0,2287770808,63
i,1734976471.448865,172.16.3.2,52417,172.16.1.2,5101,101058,14480,38,65535,65700,6,6,4,1460,686875,1,16778208,2710000,33580,33580,65700,0,13069,0,2287770808,63
o,1734976471.449178,172.16.3.2,52417,172.16.1.2,5101,101058,14517,38,65728,65728,6,6,4,1460,623750,1,16778208,2700000,33580,33543,65700,0,13032,0,2287770808,63
i,1734976471.548214,172.16.3.2,52417,172.16.1.2,5101,101058,14517,38,65728,65728,6,6,4,1460,623750,1,16778208,2700000,33580,33543,65700,0,14480,0,2287770808,63
o,1734976471.548332,172.16.3.2,52417,172.16.1.2,5101,101058,17413,38,64256,65728,6,6,4,1460,564687,1,16778208,2640000,33580,30647,65700,0,11584,0,2287770808,63
i,1734976471.552705,172.16.3.2,52417,172.16.1.2,5101,101058,17413,38,64256,65728,6,6,4,1460,564687,1,16778208,2640000,41772,41772,65700,0,17376,0,2287770808,63
o,1734976471.552804,172.16.3.2,52417,172.16.1.2,5101,101058,20309,38,62848,65728,6,6,4,1460,514375,1,16778208,2520000,41772,38876,65700,0,14480,0,2287770808,63
i,1734976471.553957,172.16.3.2,52417,172.16.1.2,5101,101058,20309,38,62848,65728,6,6,4,1460,514375,1,16778208,2520000,49964,38876,65700,0,20272,0,2287770808,63
o,1734976471.554035,172.16.3.2,52417,172.16.1.2,5101,101058,23205,38,64256,65728,6,6,4,1460,470312,1,16778208,2380000,49964,35980,65700,0,17376,0,2287770808,63
i,1734976471.556937,172.16.3.2,52417,172.16.1.2,5101,101058,23205,38,64256,65728,6,6,4,1460,470312,1,16778208,2380000,49964,49964,65700,0,23168,0,2287770808,63
o,1734976471.557489,172.16.3.2,52417,172.16.1.2,5101,101058,26101,38,61376,65728,6,6,4,1460,431562,1,16778208,2220000,49964,47068,65700,0,20272,0,2287770808,63
i,1734976471.623067,172.16.3.2,52417,172.16.1.2,5101,101058,26101,38,61376,65728,6,6,4,1460,431562,1,16778208,2220000,58156,58156,65700,0,26064,0,2287770808,63
o,1734976471.623164,172.16.3.2,52417,172.16.1.2,5101,101058,28997,38,64256,65728,6,6,4,1460,406562,1,16778208,2000000,58156,55260,65700,0,23168,0,2287770808,63
o,1734976471.623679,172.16.3.2,52417,172.16.1.2,5101,101058,28997,38,64256,65728,6,6,4,1460,406562,1,16778208,2000000,58156,55260,65700,0,24616,0,2287770808,63
i,1734976471.715644,172.16.3.2,52417,172.16.1.2,5101,101058,28997,38,64256,65728,6,6,4,1460,406562,1,16778208,2000000,66348,66348,65700,0,28960,0,2287770808,63
o,1734976471.715912,172.16.3.2,52417,172.16.1.2,5101,101058,31893,38,62848,65728,6,6,4,1460,377187,1,16778208,1860000,66348,63452,65700,0,26064,0,2287770808,63
i,1734976471.723046,172.16.3.2,52417,172.16.1.2,5101,101058,31893,38,62848,65728,6,6,4,1460,377187,1,16778208,1860000,74540,74540,65700,0,31856,0,2287770808,63
o,1734976471.723145,172.16.3.2,52417,172.16.1.2,5101,101058,34789,38,64256,65728,6,6,4,1460,352812,1,16778208,1710000,74540,71644,65700,0,28960,0,2287770808,63
i,1734976471.723714,172.16.3.2,52417,172.16.1.2,5101,101058,34789,38,64256,65728,6,6,4,1460,352812,1,16778208,1710000,74540,71644,65700,0,34752,0,2287770808,63
o,1734976471.723791,172.16.3.2,52417,172.16.1.2,5101,101058,37685,38,64256,65728,6,6,4,1460,330000,1,16778208,1580000,82732,68748,65700,0,31856,0,2287770808,63
i,1734976471.724511,172.16.3.2,52417,172.16.1.2,5101,101058,37685,38,64256,65728,6,6,4,1460,330000,1,16778208,1580000,82732,68748,65700,0,37648,0,2287770808,63
o,1734976471.724587,172.16.3.2,52417,172.16.1.2,5101,101058,40581,38,62848,65728,6,6,4,1460,310000,1,16778208,1460000,82732,65852,65700,0,34752,0,2287770808,63
i,1734976471.725098,172.16.3.2,52417,172.16.1.2,5101,101058,40581,38,62848,65728,6,6,4,1460,310000,1,16778208,1460000,82732,65852,65700,0,40544,0,2287770808,63
o,1734976471.725127,172.16.3.2,52417,172.16.1.2,5101,101058,43477,38,62848,65728,6,6,4,1460,292500,1,16778208,1340000,82732,62956,65700,0,37648,0,2287770808,63
i,1734976471.725764,172.16.3.2,52417,172.16.1.2,5101,101058,43477,38,62848,65728,6,6,4,1460,292500,1,16778208,1340000,82732,62956,65700,0,43440,0,2287770808,63
o,1734976471.725799,172.16.3.2,52417,172.16.1.2,5101,101058,46373,38,62848,65728,6,6,4,1460,277187,1,16778208,1230000,82732,60060,65700,0,40544,0,2287770808,63
i,1734976471.726060,172.16.3.2,52417,172.16.1.2,5101,101058,46373,38,62848,65728,6,6,4,1460,277187,1,16778208,1230000,82732,60060,65700,0,46336,0,2287770808,63
o,1734976471.726174,172.16.3.2,52417,172.16.1.2,5101,101058,49269,38,59968,65728,6,6,4,1460,264062,1,16778208,1140000,82732,57164,65700,0,43440,0,2287770808,63
i,1734976471.768867,172.16.3.2,52417,172.16.1.2,5101,101058,49269,38,59968,65728,6,6,4,1460,264062,1,16778208,1140000,82732,82732,65700,0,49232,0,2287770808,63
o,1734976471.769452,172.16.3.2,52417,172.16.1.2,5101,101058,52165,38,62848,65728,6,6,4,1460,257500,1,16778208,1020000,82732,79836,65700,0,46336,0,2287770808,63
i,1734976471.778731,172.16.3.2,52417,172.16.1.2,5101,101058,52165,38,62848,65728,6,6,4,1460,257500,1,16778208,1020000,82732,82732,65700,0,52128,0,2287770808,63
o,1734976471.778839,172.16.3.2,52417,172.16.1.2,5101,101058,55061,38,59968,65728,6,6,4,1460,244062,1,16778208,970000,82732,79836,65700,0,49232,0,2287770808,63
o,1734976471.779397,172.16.3.2,52417,172.16.1.2,5101,101058,55061,38,59968,65728,6,6,4,1460,244062,1,16778208,970000,82732,79836,65700,0,50680,0,2287770808,63
i,1734976471.920549,172.16.3.2,52417,172.16.1.2,5101,101058,55061,38,59968,65728,6,6,4,1460,244062,1,16778208,970000,82732,82732,65700,0,55024,0,2287770808,63
o,1734976471.920647,172.16.3.2,52417,172.16.1.2,5101,101058,57957,38,64256,65728,6,6,4,1460,250000,1,16778208,890000,82732,79836,65700,0,52128,0,2287770808,63
i,1734976472.097426,172.16.3.2,52417,172.16.1.2,5101,101058,57957,38,64256,65728,6,6,4,1460,250000,1,16778208,890000,82732,82732,65700,0,57920,0,2287770808,63
o,1734976472.097685,172.16.3.2,52417,172.16.1.2,5101,101058,60853,38,62848,65728,6,6,4,1460,265000,1,16778208,920000,82732,79836,65700,0,55024,0,2287770808,63
i,1734976472.103120,172.16.3.2,52417,172.16.1.2,5101,101058,60853,38,62848,65728,6,6,4,1460,265000,1,16778208,920000,82732,82732,65700,0,60816,0,2287770808,63
o,1734976472.103155,172.16.3.2,52417,172.16.1.2,5101,101058,63749,38,59968,65728,6,6,4,1460,279375,1,16778208,930000,82732,79836,65700,0,57920,0,2287770808,63
i,1734976472.108389,172.16.3.2,52417,172.16.1.2,5101,101058,63749,38,59968,65728,6,6,4,1460,279375,1,16778208,930000,82732,81840,65700,0,59368,0,2287770808,63
o,1734976472.108640,172.16.3.2,52417,172.16.1.2,5101,101058,63749,38,62848,65728,6,6,4,1460,292187,1,16778208,930000,82732,78944,65700,0,56472,0,2287770808,63
i,1734976472.109307,172.16.3.2,52417,172.16.1.2,5101,101058,63749,38,62848,65728,6,6,4,1460,292187,1,16778208,930000,82732,78944,65700,0,62264,0,2287770808,63
o,1734976472.109384,172.16.3.2,52417,172.16.1.2,5101,101058,63749,38,64256,65728,6,6,4,1460,303437,1,16778208,930000,82732,76048,65700,0,59368,0,2287770808,63
i,1734976472.129114,172.16.3.2,52417,172.16.1.2,5101,101058,63749,38,64256,65728,6,6,4,1460,303437,1,16778208,930000,82732,82732,65700,0,63712,0,2287770808,63
o,1734976472.129383,172.16.3.2,52417,172.16.1.2,5101,101058,66645,38,64256,65728,6,6,4,1460,315625,1,16778208,930000,82732,79836,65700,0,60816,0,2287770808,63
i,1734976472.129934,172.16.3.2,52417,172.16.1.2,5101,101058,66645,38,64256,65728,6,6,4,1460,315625,1,16778208,930000,82732,79836,65700,0,63712,0,2287770808,63
i,1734976472.155415,172.16.3.2,52417,172.16.1.2,5101,101058,66645,38,61376,65728,6,6,4,1460,326250,1,16778208,920000,82732,82732,65700,0,60816,0,2287770808,63
i,1734976472.155873,172.16.3.2,52417,172.16.1.2,5101,101058,66645,38,58496,65728,6,6,4,1460,339375,1,16778208,940000,82732,79836,65700,0,57920,0,2287770808,63
o,1734976472.156083,172.16.3.2,52417,172.16.1.2,5101,101058,66645,38,62848,65728,6,6,4,1460,350937,1,16778208,940000,82732,76940,65700,0,55024,0,2287770808,63
i,1734976472.157031,172.16.3.2,52417,172.16.1.2,5101,101058,66645,38,62848,65728,6,6,4,1460,350937,1,16778208,940000,82732,76940,65700,0,62264,0,2287770808,63
o,1734976472.157254,172.16.3.2,52417,172.16.1.2,5101,101058,66645,38,64256,65728,6,6,4,1460,360937,1,16778208,940000,82732,74044,65700,0,59368,0,2287770808,63
i,1734976472.158183,172.16.3.2,52417,172.16.1.2,5101,101058,66645,38,64256,65728,6,6,4,1460,360937,1,16778208,940000,82732,74044,65700,0,63712,0,2287770808,63
o,1734976472.158329,172.16.3.2,52417,172.16.1.2,5101,101058,66645,38,64256,65728,6,6,4,1460,369687,1,16778208,920000,82732,71148,65700,0,60816,0,2287770808,63
i,1734976472.159364,172.16.3.2,52417,172.16.1.2,5101,101058,66645,38,64256,65728,6,6,4,1460,369687,1,16778208,920000,82732,71148,65700,0,63712,0,2287770808,63
i,1734976472.159534,172.16.3.2,52417,172.16.1.2,5101,101058,66645,38,61376,65728,6,6,4,1460,377500,1,16778208,900000,82732,68252,65700,0,60816,0,2287770808,63
o,1734976472.159627,172.16.3.2,52417,172.16.1.2,5101,101058,66645,38,64256,65728,6,6,4,1460,384062,1,16778208,880000,82732,65356,65700,0,57920,0,2287770808,63
i,1734976472.160836,172.16.3.2,52417,172.16.1.2,5101,101058,66645,38,64256,65728,6,6,4,1460,384062,1,16778208,880000,82732,65356,65700,0,63712,0,2287770808,63
i,1734976472.193134,172.16.3.2,52417,172.16.1.2,5101,101058,66645,38,61376,65728,6,6,4,1460,390000,1,16778208,860000,82732,82732,65700,0,60816,0,2287770808,63
o,1734976472.194156,172.16.3.2,52417,172.16.1.2,5101,101058,66645,38,64256,65728,6,6,4,1460,400000,1,16778208,880000,82732,79836,65700,0,57920,0,2287770808,63
i,1734976472.195697,172.16.3.2,52417,172.16.1.2,5101,101058,66645,38,64256,65728,6,6,4,1460,400000,1,16778208,880000,82732,79836,65700,0,63712,0,2287770808,63
i,1734976472.195871,172.16.3.2,52417,172.16.1.2,5101,101058,66645,38,61376,65728,6,6,4,1460,403750,1,16778208,840000,82732,76940,65700,0,60816,0,2287770808,63
o,1734976472.195947,172.16.3.2,52417,172.16.1.2,5101,101058,66645,38,64256,65728,6,6,4,1460,407187,1,16778208,810000,82732,74044,65700,0,57920,0,2287770808,63
i,1734976472.196486,172.16.3.2,52417,172.16.1.2,5101,101058,66645,38,64256,65728,6,6,4,1460,407187,1,16778208,810000,82732,74044,65700,0,63712,0,2287770808,63
o,1734976472.196560,172.16.3.2,52417,172.16.1.2,5101,101058,66645,38,62848,65728,6,6,4,1460,409062,1,16778208,780000,82732,71148,65700,0,60816,0,2287770808,63
i,1734976472.197135,172.16.3.2,52417,172.16.1.2,5101,101058,66645,38,62848,65728,6,6,4,1460,409062,1,16778208,780000,82732,71148,65700,0,62264,0,2287770808,63
o,1734976472.197209,172.16.3.2,52417,172.16.1.2,5101,101058,66645,38,62848,65728,6,6,4,1460,410625,1,16778208,750000,82732,68252,65700,0,59368,0,2287770808,63
i,1734976472.339155,172.16.3.2,52417,172.16.1.2,5101,101058,66645,38,62848,65728,6,6,4,1460,410625,1,16778208,750000,82732,82732,65700,0,62264,0,2287770808,63
o,1734976472.339253,172.16.3.2,52417,172.16.1.2,5101,101058,66645,38,95680,65728,6,6,4,1460,411875,1,16778208,730000,90924,79836,65700,0,59368,0,2287770808,63
i,1734976472.339838,172.16.3.2,52417,172.16.1.2,5101,101058,66645,38,95680,65728,6,6,4,1460,411875,1,16778208,730000,99116,79836,65700,0,66608,0,2287770808,63
o,1734976472.339913,172.16.3.2,52417,172.16.1.2,5101,101058,69541,38,97152,65728,6,6,4,1460,413125,1,16778208,710000,99116,76940,65700,0,63712,0,2287770808,63
i,1734976472.540811,172.16.3.2,52417,172.16.1.2,5101,101058,69541,38,97152,65728,6,6,4,1460,413125,1,16778208,710000,123692,123692,65700,0,69504,0,2287770808,63
o,1734976472.540907,172.16.3.2,52417,172.16.1.2,5101,101058,72437,38,97152,65728,6,6,4,1460,416562,1,16778208,710000,123692,120796,65700,0,66608,0,2287770808,63
i,1734976472.549077,172.16.3.2,52417,172.16.1.2,5101,101058,72437,38,97152,65728,6,6,4,1460,416562,1,16778208,710000,123692,123692,65700,0,72400,0,2287770808,63
o,1734976472.549345,172.16.3.2,52417,172.16.1.2,5101,101058,75333,38,97152,65728,6,6,4,1460,419687,1,16778208,720000,123692,120796,65700,0,69504,0,2287770808,63
i,1734976472.555972,172.16.3.2,52417,172.16.1.2,5101,101058,75333,38,97152,65728,6,6,4,1460,419687,1,16778208,720000,123692,123692,65700,0,75296,0,2287770808,63
o,1734976472.556062,172.16.3.2,52417,172.16.1.2,5101,101058,78229,38,94272,65728,6,6,4,1460,423750,1,16778208,730000,123692,120796,65700,0,72400,0,2287770808,63
i,1734976472.556946,172.16.3.2,52417,172.16.1.2,5101,101058,78229,38,94272,65728,6,6,4,1460,423750,1,16778208,730000,123692,120796,65700,0,78192,0,2287770808,63
o,1734976472.557021,172.16.3.2,52417,172.16.1.2,5101,101058,81125,38,97152,65728,6,6,4,1460,427187,1,16778208,730000,123692,117900,65700,0,75296,0,2287770808,63
i,1734976472.562765,172.16.3.2,52417,172.16.1.2,5101,101058,81125,38,97152,65728,6,6,4,1460,427187,1,16778208,730000,123692,123692,65700,0,81088,0,2287770808,63
o,1734976472.562810,172.16.3.2,52417,172.16.1.2,5101,101058,84021,38,94272,65728,6,6,4,1460,431562,1,16778208,740000,123692,120796,65700,0,78192,0,2287770808,63
i,1734976472.563257,172.16.3.2,52417,172.16.1.2,5101,101058,84021,38,94272,65728,6,6,4,1460,431562,1,16778208,740000,123692,120796,65700,0,83984,0,2287770808,63
o,1734976472.563335,172.16.3.2,52417,172.16.1.2,5101,101058,86917,38,91392,65728,6,6,4,1460,435312,1,16778208,750000,123692,117900,65700,0,81088,0,2287770808,63
i,1734976472.569982,172.16.3.2,52417,172.16.1.2,5101,101058,86917,38,91392,65728,6,6,4,1460,435312,1,16778208,750000,123692,123692,65700,0,86880,0,2287770808,63
o,1734976472.570069,172.16.3.2,52417,172.16.1.2,5101,101058,89813,38,95680,65728,6,6,4,1460,435937,1,16778208,730000,123692,120796,65700,0,83984,0,2287770808,63
i,1734976472.570617,172.16.3.2,52417,172.16.1.2,5101,101058,89813,38,95680,65728,6,6,4,1460,435937,1,16778208,730000,123692,120796,65700,0,89776,0,2287770808,63
o,1734976472.570695,172.16.3.2,52417,172.16.1.2,5101,101058,92709,38,92800,65728,6,6,4,1460,431562,1,16778208,730000,123692,117900,65700,0,86880,0,2287770808,63
i,1734976472.624401,172.16.3.2,52417,172.16.1.2,5101,101058,92709,38,92800,65728,6,6,4,1460,431562,1,16778208,730000,123692,123692,65700,0,92672,0,2287770808,63
i,1734976472.630744,172.16.3.2,52417,172.16.1.2,5101,101058,95605,38,89920,65728,6,6,4,1460,435312,1,16778208,740000,123692,123692,65700,0,89776,0,2287770808,63
o,1734976472.630991,172.16.3.2,52417,172.16.1.2,5101,101058,95605,38,97152,65728,6,6,4,1460,438437,1,16778208,740000,123692,120796,65700,0,86880,0,2287770808,63
i,1734976472.632103,172.16.3.2,52417,172.16.1.2,5101,101058,95605,38,97152,65728,6,6,4,1460,438437,1,16778208,740000,123692,120796,65700,0,95568,0,2287770808,63
o,1734976472.632178,172.16.3.2,52417,172.16.1.2,5101,101058,97053,38,98560,65728,6,6,4,1460,442500,1,16778208,750000,123692,119348,65700,0,94120,0,2287770808,63
i,1734976472.650367,172.16.3.2,52417,172.16.1.2,5101,101058,97053,38,98560,65728,6,6,4,1460,442500,1,16778208,750000,123692,123692,65700,0,97016,0,2287770808,63
o,1734976472.650457,172.16.3.2,52417,172.16.1.2,5101,101058,99949,38,97152,65728,6,6,4,1460,447187,1,16778208,770000,123692,120796,65700,0,94120,0,2287770808,63
i,1734976472.651999,172.16.3.2,52417,172.16.1.2,5101,101058,99949,38,97152,65728,6,6,4,1460,447187,1,16778208,770000,123692,120796,65700,0,97016,0,2287770808,63
o,1734976472.652073,172.16.3.2,52417,172.16.1.2,5101,101058,99949,38,97152,65728,6,6,4,1460,452812,1,16778208,790000,123692,117900,65700,0,94120,0,2287770808,63
i,1734976472.652647,172.16.3.2,52417,172.16.1.2,5101,101058,99949,38,97152,65728,6,6,4,1460,452812,1,16778208,790000,123692,117900,65700,0,97016,0,2287770808,63
o,1734976472.652721,172.16.3.2,52417,172.16.1.2,5101,101058,99949,38,95680,65728,6,6,4,1460,457500,1,16778208,800000,123692,115004,65700,0,94120,0,2287770808,63
i,1734976472.653246,172.16.3.2,52417,172.16.1.2,5101,101058,99949,38,95680,65728,6,6,4,1460,457500,1,16778208,800000,123692,115004,65700,0,95568,0,2287770808,63
o,1734976472.653320,172.16.3.2,52417,172.16.1.2,5101,101058,99949,38,95680,65728,6,6,4,1460,461562,1,16778208,800000,123692,112108,65700,0,92672,0,2287770808,63
i,1734976472.734013,172.16.3.2,52417,172.16.1.2,5101,101058,99949,38,95680,65728,6,6,4,1460,461562,1,16778208,800000,123692,123692,65700,0,95568,0,2287770808,63
o,1734976472.734268,172.16.3.2,52417,172.16.1.2,5101,101058,99949,38,97152,65728,6,6,4,1460,470312,1,16778208,840000,123692,120796,65700,0,92672,0,2287770808,63
i,1734976472.737864,172.16.3.2,52417,172.16.1.2,5101,101058,99949,38,97152,65728,6,6,4,1460,470312,1,16778208,840000,123692,123692,65700,0,97016,0,2287770808,63
o,1734976472.737964,172.16.3.2,52417,172.16.1.2,5101,101058,99949,38,97152,65728,6,6,4,1460,477812,1,16778208,870000,123692,120796,65700,0,94120,0,2287770808,63
i,1734976472.738508,172.16.3.2,52417,172.16.1.2,5101,101058,99949,38,97152,65728,6,6,4,1460,477812,1,16778208,870000,123692,120796,65700,0,97016,0,2287770808,63
o,1734976472.738646,172.16.3.2,52417,172.16.1.2,5101,101058,99949,38,147840,65728,6,6,4,1460,484375,1,16778208,880000,131884,119348,65700,0,95568,0,2287770808,63
i,1734976472.739508,172.16.3.2,52417,172.16.1.2,5101,101058,99949,38,147840,65728,6,6,4,1460,484375,1,16778208,880000,140076,119348,65700,0,99912,0,2287770808,63
o,1734976472.739604,172.16.3.2,52417,172.16.1.2,5101,101058,102845,38,144960,65728,6,6,4,1460,490312,1,16778208,880000,140076,116452,65700,0,97016,0,2287770808,63
i,1734976472.740156,172.16.3.2,52417,172.16.1.2,5101,101058,102845,38,144960,65728,6,6,4,1460,490312,1,16778208,880000,140076,116452,65700,0,102808,0,2287770808,63
o,1734976472.740255,172.16.3.2,52417,172.16.1.2,5101,101058,102845,38,142080,65728,6,6,4,1460,495312,1,16778208,880000,140076,113556,65700,0,99912,0,2287770808,63
o,1734976472.740719,172.16.3.2,52417,172.16.1.2,5101,101058,102845,38,142080,65728,6,6,4,1460,495312,1,16778208,880000,140076,113556,65700,0,101360,0,2287770808,63
i,1734976472.810903,172.16.3.2,52417,172.16.1.2,5101,101058,102845,38,142080,65728,6,6,4,1460,495312,1,16778208,880000,181036,181036,65700,0,102808,0,2287770808,63
o,1734976472.811071,172.16.3.2,52417,172.16.1.2,5101,101058,102845,38,146432,65728,6,6,4,1460,508437,1,16778208,950000,189228,178140,65700,0,99912,0,2287770808,63
i,1734976472.812767,172.16.3.2,52417,172.16.1.2,5101,101058,102845,38,146432,65728,6,6,4,1460,508437,1,16778208,950000,189228,178140,65700,0,102808,0,2287770808,63
o,1734976472.812853,172.16.3.2,52417,172.16.1.2,5101,101058,102845,38,146432,65728,6,6,4,1460,503750,1,16778208,920000,189228,186332,65700,0,99912,0,2287770808,63
i,1734976472.813403,172.16.3.2,52417,172.16.1.2,5101,101058,102845,38,146432,65728,6,6,4,1460,503750,1,16778208,920000,189228,186332,65700,0,102808,0,2287770808,63
o,1734976472.813480,172.16.3.2,52417,172.16.1.2,5101,101058,102845,38,144960,65728,6,6,4,1460,499687,1,16778208,900000,189228,183436,65700,0,99912,0,2287770808,63
i,1734976472.814038,172.16.3.2,52417,172.16.1.2,5101,101058,102845,38,144960,65728,6,6,4,1460,499687,1,16778208,900000,189228,183436,65700,0,102808,0,2287770808,63
o,1734976472.814113,172.16.3.2,52417,172.16.1.2,5101,101058,102845,38,142080,65728,6,6,4,1460,496250,1,16778208,870000,189228,180540,65700,0,99912,0,2287770808,63
i,1734976472.814757,172.16.3.2,52417,172.16.1.2,5101,101058,102845,38,142080,65728,6,6,4,1460,496250,1,16778208,870000,189228,180540,65700,0,102808,0,2287770808,63
o,1734976472.814831,172.16.3.2,52417,172.16.1.2,5101,101058,102845,38,139200,65728,6,6,4,1460,493125,1,16778208,850000,189228,177644,65700,0,99912,0,2287770808,63
i,1734976473.046774,172.16.3.2,52417,172.16.1.2,5101,101058,102845,38,139200,65728,6,6,4,1460,493125,1,16778208,850000,189228,189228,65700,0,102808,0,2287770808,63
o,1734976473.047214,172.16.3.2,52417,172.16.1.2,5101,101058,102845,38,144960,65728,6,6,4,1460,494062,1,16778208,820000,189228,186332,65700,0,99912,0,2287770808,63
i,1734976473.056736,172.16.3.2,52417,172.16.1.2,5101,101058,102845,38,144960,65728,6,6,4,1460,494062,1,16778208,820000,189228,189228,65700,0,102808,0,2287770808,63
o,1734976473.056849,172.16.3.2,52417,172.16.1.2,5101,101058,102845,38,146432,65728,6,6,4,1460,496250,1,16778208,810000,189228,186332,65700,0,99912,0,2287770808,63
i,1734976473.062507,172.16.3.2,52417,172.16.1.2,5101,101058,102845,38,146432,65728,6,6,4,1460,496250,1,16778208,810000,189228,189228,65700,0,102808,0,2287770808,63
o,1734976473.062594,172.16.3.2,52417,172.16.1.2,5101,101058,102845,38,143552,65728,6,6,4,1460,499375,1,16778208,810000,189228,186332,65700,0,99912,0,2287770808,63
i,1734976473.063265,172.16.3.2,52417,172.16.1.2,5101,101058,102845,38,143552,65728,6,6,4,1460,499375,1,16778208,810000,189228,186332,65700,0,102808,0,2287770808,63
o,1734976473.063340,172.16.3.2,52417,172.16.1.2,5101,101058,102845,38,146432,65728,6,6,4,1460,502187,1,16778208,800000,189228,183436,65700,0,99912,0,2287770808,63
i,1734976473.114940,172.16.3.2,52417,172.16.1.2,5101,101058,102845,38,146432,65728,6,6,4,1460,502187,1,16778208,800000,189228,189228,65700,0,102808,0,2287770808,63
o,1734976473.115009,172.16.3.2,52417,172.16.1.2,5101,101058,102845,38,144960,65728,6,6,4,1460,509687,1,16778208,850000,189228,186332,65700,0,99912,0,2287770808,63
i,1734976473.116147,172.16.3.2,52417,172.16.1.2,5101,101058,102845,38,144960,65728,6,6,4,1460,509687,1,16778208,850000,189228,186332,65700,0,102808,0,2287770808,63
o,1734976473.116181,172.16.3.2,52417,172.16.1.2,5101,101058,102845,38,142080,65728,6,6,4,1460,516250,1,16778208,870000,189228,183436,65700,0,99912,0,2287770808,63
i,1734976473.121333,172.16.3.2,52417,172.16.1.2,5101,101058,102845,38,142080,65728,6,6,4,1460,516250,1,16778208,870000,189228,189228,65700,0,102808,0,2287770808,63
o,1734976473.121940,172.16.3.2,52417,172.16.1.2,5101,101058,102845,38,139200,65728,6,6,4,1460,523125,1,16778208,890000,189228,186332,65700,0,99912,0,2287770808,63
i,1734976473.126078,172.16.3.2,52417,172.16.1.2,5101,101058,102845,38,139200,65728,6,6,4,1460,523125,1,16778208,890000,189228,189228,65700,0,102808,0,2287770808,63
o,1734976473.126173,172.16.3.2,52417,172.16.1.2,5101,101058,102845,38,136320,65728,6,6,4,1460,529062,1,16778208,900000,189228,186332,65700,0,99912,0,2287770808,63
i,1734976473.126759,172.16.3.2,52417,172.16.1.2,5101,101058,102845,38,136320,65728,6,6,4,1460,529062,1,16778208,900000,189228,186332,65700,0,102808,0,2287770808,63
o,1734976473.126833,172.16.3.2,52417,172.16.1.2,5101,101058,102845,38,146432,65728,6,6,4,1460,533125,1,16778208,900000,189228,183436,65700,0,99912,0,2287770808,63
i,1734976473.133950,172.16.3.2,52417,172.16.1.2,5101,101058,102845,38,146432,65728,6,6,4,1460,533125,1,16778208,900000,189228,189228,65700,0,102808,0,2287770808,63
o,1734976473.134053,172.16.3.2,52417,172.16.1.2,5101,101058,102845,38,143552,65728,6,6,4,1460,537812,1,16778208,900000,189228,186332,65700,0,99912,0,2287770808,63
i,1734976473.134673,172.16.3.2,52417,172.16.1.2,5101,101058,102845,38,143552,65728,6,6,4,1460,537812,1,16778208,900000,189228,186332,65700,0,102808,0,2287770808,63
o,1734976473.134760,172.16.3.2,52417,172.16.1.2,5101,101058,102845,38,140672,65728,6,6,4,1460,541875,1,16778208,890000,189228,183436,65700,0,99912,0,2287770808,63
i,1734976473.135370,172.16.3.2,52417,172.16.1.2,5101,101058,102845,38,140672,65728,6,6,4,1460,541875,1,16778208,890000,189228,183436,65700,0,102808,0,2287770808,63
o,1734976473.135467,172.16.3.2,52417,172.16.1.2,5101,101058,102845,38,137792,65728,6,6,4,1460,545625,1,16778208,890000,189228,180540,65700,0,99912,0,2287770808,63
i,1734976473.136547,172.16.3.2,52417,172.16.1.2,5101,101058,102845,38,137792,65728,6,6,4,1460,545625,1,16778208,890000,189228,180540,65700,0,102808,0,2287770808,63
o,1734976473.136587,172.16.3.2,52417,172.16.1.2,5101,101058,102845,38,146432,65728,6,6,4,1460,548750,1,16778208,880000,189228,177644,65700,0,99912,0,2287770808,63
i,1734976473.140115,172.16.3.2,52417,172.16.1.2,5101,101058,102845,38,146432,65728,6,6,4,1460,548750,1,16778208,880000,189228,189228,65700,0,102808,0,2287770808,63
o,1734976473.140200,172.16.3.2,52417,172.16.1.2,5101,101058,102845,38,146432,65728,6,6,4,1460,551562,1,16778208,870000,189228,186332,65700,0,99912,0,2287770808,63
i,1734976473.140786,172.16.3.2,52417,172.16.1.2,5101,101058,102845,38,146432,65728,6,6,4,1460,551562,1,16778208,870000,189228,186332,65700,0,102808,0,2287770808,63
o,1734976473.140861,172.16.3.2,52417,172.16.1.2,5101,101058,102845,38,143552,65728,6,6,4,1460,554062,1,16778208,870000,189228,183436,65700,0,99912,0,2287770808,63
i,1734976473.141353,172.16.3.2,52417,172.16.1.2,5101,101058,102845,38,143552,65728,6,6,4,1460,554062,1,16778208,870000,189228,183436,65700,0,102808,0,2287770808,63
o,1734976473.141617,172.16.3.2,52417,172.16.1.2,5101,101058,102845,38,140672,65728,6,6,4,1460,556250,1,16778208,860000,189228,180540,65700,0,99912,0,2287770808,63
i,1734976473.141866,172.16.3.2,52417,172.16.1.2,5101,101058,102845,38,140672,65728,6,6,4,1460,556250,1,16778208,860000,189228,180540,65700,0,102808,0,2287770808,63
o,1734976473.141895,172.16.3.2,52417,172.16.1.2,5101,101058,102845,38,137792,65728,6,6,4,1460,550625,1,16778208,870000,189228,177644,65700,0,99912,0,2287770808,63
i,1734976473.142524,172.16.3.2,52417,172.16.1.2,5101,101058,102845,38,137792,65728,6,6,4,1460,550625,1,16778208,870000,189228,177644,65700,0,102808,0,2287770808,63
o,1734976473.142607,172.16.3.2,52417,172.16.1.2,5101,101058,102845,38,144960,65728,6,6,4,1460,545625,1,16778208,880000,189228,174748,65700,0,99912,0,2287770808,63
i,1734976473.144760,172.16.3.2,52417,172.16.1.2,5101,101058,102845,38,144960,65728,6,6,4,1460,545625,1,16778208,880000,189228,189228,65700,0,102808,0,2287770808,63
o,1734976473.145015,172.16.3.2,52417,172.16.1.2,5101,101058,102845,38,142080,65728,6,6,4,1460,541250,1,16778208,880000,189228,186332,65700,0,99912,0,2287770808,63
i,1734976473.146865,172.16.3.2,52417,172.16.1.2,5101,101058,102845,38,142080,65728,6,6,4,1460,541250,1,16778208,880000,189228,186332,65700,0,102808,0,2287770808,63
o,1734976473.146902,172.16.3.2,52417,172.16.1.2,5101,101058,102845,38,146432,65728,6,6,4,1460,537500,1,16778208,870000,189228,183436,65700,0,99912,0,2287770808,63
i,1734976473.208798,172.16.3.2,52417,172.16.1.2,5101,101058,102845,38,146432,65728,6,6,4,1460,537500,1,16778208,870000,189228,189228,65700,0,102808,0,2287770808,63
o,1734976473.208909,172.16.3.2,52417,172.16.1.2,5101,101058,102845,38,221760,65728,6,6,4,1460,540312,1,16778208,860000,197420,187780,65700,0,101360,0,2287770808,63
i,1734976473.209573,172.16.3.2,52417,172.16.1.2,5101,101058,102845,38,221760,65728,6,6,4,1460,540312,1,16778208,860000,205612,187780,65700,0,102808,0,2287770808,63
o,1734976473.209649,172.16.3.2,52417,172.16.1.2,5101,101058,102845,38,218880,65728,6,6,4,1460,542812,1,16778208,850000,213804,184884,65700,0,99912,0,2287770808,63
i,1734976473.703444,172.16.3.2,52417,172.16.1.2,5101,101058,102845,38,218880,65728,6,6,4,1460,542812,1,16778208,850000,213804,213804,65700,0,102808,0,2287770808,63
o,1734976473.703552,172.16.3.2,52417,172.16.1.2,5101,101058,102845,38,218880,65728,6,6,4,1460,606250,1,16778208,1400000,213804,210908,65700,0,99912,0,2287770808,63
i,1734976473.705260,172.16.3.2,52417,172.16.1.2,5101,101058,102845,38,218880,65728,6,6,4,1460,606250,1,16778208,1400000,213804,210908,65700,0,102808,0,2287770808,63
o,1734976473.705339,172.16.3.2,52417,172.16.1.2,5101,101058,102845,38,218880,65728,6,6,4,1460,661875,1,16778208,1750000,213804,208012,65700,0,99912,0,2287770808,63
i,1734976473.705905,172.16.3.2,52417,172.16.1.2,5101,101058,102845,38,218880,65728,6,6,4,1460,661875,1,16778208,1750000,213804,208012,65700,0,102808,0,2287770808,63
o,1734976473.705980,172.16.3.2,52417,172.16.1.2,5101,101058,102845,38,218880,65728,6,6,4,1460,699375,1,16778208,1860000,213804,205116,65700,0,99912,0,2287770808,63
i,1734976473.707422,172.16.3.2,52417,172.16.1.2,5101,101058,102845,38,218880,65728,6,6,4,1460,699375,1,16778208,1860000,221996,205116,65700,0,102808,0,2287770808,63
o,1734976473.707509,172.16.3.2,52417,172.16.1.2,5101,101058,102845,38,216000,65728,6,6,4,1460,732187,1,16778208,1920000,230188,202220,65700,0,99912,0,2287770808,63
i,1734976473.708065,172.16.3.2,52417,172.16.1.2,5101,101058,102845,38,216000,65728,6,6,4,1460,732187,1,16778208,1920000,238380,202220,65700,0,102808,0,2287770808,63
o,1734976473.708140,172.16.3.2,52417,172.16.1.2,5101,101058,102845,38,213120,65728,6,6,4,1460,760937,1,16778208,1930000,238380,199324,65700,0,99912,0,2287770808,63
i,1734976473.708714,172.16.3.2,52417,172.16.1.2,5101,101058,102845,38,213120,65728,6,6,4,1460,760937,1,16778208,1930000,238380,199324,65700,0,102808,0,2287770808,63
o,1734976473.708787,172.16.3.2,52417,172.16.1.2,5101,101058,102845,38,218880,65728,6,6,4,1460,785937,1,16778208,1910000,238380,196428,65700,0,99912,0,2287770808,63
i,1734976473.709310,172.16.3.2,52417,172.16.1.2,5101,101058,102845,38,218880,65728,6,6,4,1460,785937,1,16778208,1910000,238380,196428,65700,0,102808,0,2287770808,63
o,1734976473.709384,172.16.3.2,52417,172.16.1.2,5101,101058,102845,38,220352,65728,6,6,4,1460,807812,1,16778208,1880000,238380,193532,65700,0,99912,0,2287770808,63
i,1734976473.710138,172.16.3.2,52417,172.16.1.2,5101,101058,102845,38,220352,65728,6,6,4,1460,807812,1,16778208,1880000,238380,193532,65700,0,102808,0,2287770808,63
o,1734976473.710214,172.16.3.2,52417,172.16.1.2,5101,101058,102845,38,217472,65728,6,6,4,1460,826875,1,16778208,1830000,238380,190636,65700,0,99912,0,2287770808,63
i,1734976473.710832,172.16.3.2,52417,172.16.1.2,5101,101058,102845,38,217472,65728,6,6,4,1460,826875,1,16778208,1830000,238380,190636,65700,0,102808,0,2287770808,63
o,1734976473.710967,172.16.3.2,52417,172.16.1.2,5101,101058,102845,38,220352,65728,6,6,4,1460,843750,1,16778208,1780000,238380,187740,65700,0,99912,0,2287770808,63
o,1734976473.712682,172.16.3.2,52417,172.16.1.2,5101,101058,102845,38,220352,65728,6,6,4,1460,843750,1,16778208,1780000,238380,187740,65700,0,101360,0,2287770808,63
i,1734976473.832271,172.16.3.2,52417,172.16.1.2,5101,101058,102845,38,220352,65728,6,6,4,1460,843750,1,16778208,1780000,238380,238380,65700,0,102808,0,2287770808,63
o,1734976473.832378,172.16.3.2,52417,172.16.1.2,5101,101058,102845,38,218880,65728,6,6,4,1460,867187,1,16778208,1810000,238380,235484,65700,0,99912,0,2287770808,63
i,1734976473.833103,172.16.3.2,52417,172.16.1.2,5101,101058,102845,38,218880,65728,6,6,4,1460,867187,1,16778208,1810000,238380,235484,65700,0,102808,0,2287770808,63
o,1734976473.833254,172.16.3.2,52417,172.16.1.2,5101,101058,102845,38,216000,65728,6,6,4,1460,886562,1,16778208,1800000,238380,232588,65700,0,99912,0,2287770808,63
i,1734976473.836351,172.16.3.2,52417,172.16.1.2,5101,101058,102845,38,216000,65728,6,6,4,1460,886562,1,16778208,1800000,238380,238380,65700,0,102808,0,2287770808,63
o,1734976473.836476,172.16.3.2,52417,172.16.1.2,5101,101058,102845,38,213120,65728,6,6,4,1460,903437,1,16778208,1770000,238380,235484,65700,0,99912,0,2287770808,63
i,1734976473.837038,172.16.3.2,52417,172.16.1.2,5101,101058,102845,38,213120,65728,6,6,4,1460,903437,1,16778208,1770000,238380,235484,65700,0,102808,0,2287770808,63
o,1734976473.837114,172.16.3.2,52417,172.16.1.2,5101,101058,102845,38,220352,65728,6,6,4,1460,918125,1,16778208,1740000,238380,232588,65700,0,99912,0,2287770808,63
i,1734976473.839518,172.16.3.2,52417,172.16.1.2,5101,101058,102845,38,220352,65728,6,6,4,1460,918125,1,16778208,1740000,238380,238380,65700,0,102808,0,2287770808,63
o,1734976473.840277,172.16.3.2,52417,172.16.1.2,5101,101058,102845,38,218880,65728,6,6,4,1460,930937,1,16778208,1700000,238380,235484,65700,0,99912,0,2287770808,63
i,1734976473.986255,172.16.3.2,52417,172.16.1.2,5101,101058,102845,38,218880,65728,6,6,4,1460,930937,1,16778208,1700000,238380,238380,65700,0,102808,0,2287770808,63
o,1734976473.986395,172.16.3.2,52417,172.16.1.2,5101,101058,102845,38,218880,65728,6,6,4,1460,932187,1,16778208,1560000,238380,235484,65700,0,99912,0,2287770808,63
i,1734976474.009179,172.16.3.2,52417,172.16.1.2,5101,101058,102845,38,218880,65728,6,6,4,1460,932187,1,16778208,1560000,238380,238380,65700,0,102808,0,2287770808,63
o,1734976474.009302,172.16.3.2,52417,172.16.1.2,5101,101058,102845,38,218880,65728,6,6,4,1460,934687,1,16778208,1480000,238380,235484,65700,0,99912,0,2287770808,63
i,1734976474.009994,172.16.3.2,52417,172.16.1.2,5101,101058,102845,38,218880,65728,6,6,4,1460,934687,1,16778208,1480000,238380,235484,65700,0,102808,0,2287770808,63
o,1734976474.010090,172.16.3.2,52417,172.16.1.2,5101,101058,102845,38,216000,65728,6,6,4,1460,935625,1,16778208,1400000,238380,232588,65700,0,99912,0,2287770808,63
i,1734976474.012625,172.16.3.2,52417,172.16.1.2,5101,101058,102845,38,216000,65728,6,6,4,1460,935625,1,16778208,1400000,238380,238380,65700,0,102808,0,2287770808,63
o,1734976474.012715,172.16.3.2,52417,172.16.1.2,5101,101058,102845,38,220352,65728,6,6,4,1460,937500,1,16778208,1350000,238380,235484,65700,0,99912,0,2287770808,63
i,1734976474.013931,172.16.3.2,52417,172.16.1.2,5101,101058,102845,38,220352,65728,6,6,4,1460,937500,1,16778208,1350000,238380,235484,65700,0,102808,0,2287770808,63
o,1734976474.014030,172.16.3.2,52417,172.16.1.2,5101,101058,102845,38,220352,65728,6,6,4,1460,931562,1,16778208,1340000,238380,232588,65700,0,99912,0,2287770808,63
i,1734976474.014931,172.16.3.2,52417,172.16.1.2,5101,101058,102845,38,220352,65728,6,6,4,1460,931562,1,16778208,1340000,238380,232588,65700,0,102808,0,2287770808,63
o,1734976474.015016,172.16.3.2,52417,172.16.1.2,5101,101058,102845,38,218880,65728,6,6,4,1460,926562,1,16778208,1320000,238380,229692,65700,0,99912,0,2287770808,63
i,1734976474.015666,172.16.3.2,52417,172.16.1.2,5101,101058,102845,38,218880,65728,6,6,4,1460,926562,1,16778208,1320000,238380,229692,65700,0,102808,0,2287770808,63
o,1734976474.015752,172.16.3.2,52417,172.16.1.2,5101,101058,102845,38,220352,65728,6,6,4,1460,922187,1,16778208,1300000,238380,226796,65700,0,99912,0,2287770808,63
i,1734976474.016483,172.16.3.2,52417,172.16.1.2,5101,101058,102845,38,220352,65728,6,6,4,1460,922187,1,16778208,1300000,238380,226796,65700,0,102808,0,2287770808,63
o,1734976474.016562,172.16.3.2,52417,172.16.1.2,5101,101058,102845,38,220352,65728,6,6,4,1460,918437,1,16778208,1280000,238380,223900,65700,0,99912,0,2287770808,63
i,1734976474.017221,172.16.3.2,52417,172.16.1.2,5101,101058,102845,38,220352,65728,6,6,4,1460,918437,1,16778208,1280000,238380,223900,65700,0,102808,0,2287770808,63
o,1734976474.017340,172.16.3.2,52417,172.16.1.2,5101,101058,102845,38,220352,65728,6,6,4,1460,915000,1,16778208,1270000,238380,221004,65700,0,99912,0,2287770808,63
i,1734976474.028966,172.16.3.2,52417,172.16.1.2,5101,101058,102845,38,220352,65728,6,6,4,1460,915000,1,16778208,1270000,238380,238380,65700,0,102808,0,2287770808,63
o,1734976474.029027,172.16.3.2,52417,172.16.1.2,5101,101058,102845,38,218880,65728,6,6,4,1460,911875,1,16778208,1250000,238380,235484,65700,0,99912,0,2287770808,63
i,1734976474.033416,172.16.3.2,52417,172.16.1.2,5101,101058,102845,38,218880,65728,6,6,4,1460,911875,1,16778208,1250000,238380,238380,65700,0,102808,0,2287770808,63
o,1734976474.033465,172.16.3.2,52417,172.16.1.2,5101,101058,102845,38,220352,65728,6,6,4,1460,910625,1,16778208,1220000,238380,235484,65700,0,99912,0,2287770808,63
i,1734976474.038836,172.16.3.2,52417,172.16.1.2,5101,101058,102845,38,220352,65728,6,6,4,1460,910625,1,16778208,1220000,238380,238380,65700,0,102808,0,2287770808,63
o,1734976474.038874,172.16.3.2,52417,172.16.1.2,5101,101058,102845,38,217472,65728,6,6,4,1460,909375,1,16778208,1200000,238380,235484,65700,0,99912,0,2287770808,63
i,1734976474.042733,172.16.3.2,52417,172.16.1.2,5101,101058,102845,38,217472,65728,6,6,4,1460,909375,1,16778208,1200000,238380,238380,65700,0,102808,0,2287770808,63
o,1734976474.042823,172.16.3.2,52417,172.16.1.2,5101,101058,102845,38,220352,65728,6,6,4,1460,909687,1,16778208,1180000,238380,235484,65700,0,99912,0,2287770808,63
i,1734976474.046519,172.16.3.2,52417,172.16.1.2,5101,101058,102845,38,220352,65728,6,6,4,1460,909687,1,16778208,1180000,238380,238380,65700,0,102808,0,2287770808,63
o,1734976474.046763,172.16.3.2,52417,172.16.1.2,5101,101058,102845,38,218880,65728,6,6,4,1460,910000,1,16778208,1170000,238380,235484,65700,0,99912,0,2287770808,63
i,1734976474.050971,172.16.3.2,52417,172.16.1.2,5101,101058,102845,38,218880,65728,6,6,4,1460,910000,1,16778208,1170000,238380,238380,65700,0,102808,0,2287770808,63
o,1734976474.051090,172.16.3.2,52417,172.16.1.2,5101,101058,102845,38,216000,65728,6,6,4,1460,910000,1,16778208,1150000,238380,235484,65700,0,99912,0,2287770808,63
i,1734976474.057587,172.16.3.2,52417,172.16.1.2,5101,101058,102845,38,216000,65728,6,6,4,1460,910000,1,16778208,1150000,238380,238380,65700,0,102808,0,2287770808,63
o,1734976474.057628,172.16.3.2,52417,172.16.1.2,5101,101058,102845,38,220352,65728,6,6,4,1460,910000,1,16778208,1140000,238380,235484,65700,0,99912,0,2287770808,63
i,1734976474.057898,172.16.3.2,52417,172.16.1.2,5101,101058,102845,38,220352,65728,6,6,4,1460,910000,1,16778208,1140000,238380,235484,65700,0,102808,0,2287770808,63
o,1734976474.057930,172.16.3.2,52417,172.16.1.2,5101,101058,102845,38,220352,65728,6,6,4,1460,910000,1,16778208,1140000,238380,232588,65700,0,99912,0,2287770808,63
i,1734976474.064608,172.16.3.2,52417,172.16.1.2,5101,101058,102845,38,220352,65728,6,6,4,1460,910000,1,16778208,1140000,238380,238380,65700,0,102808,0,2287770808,63
o,1734976474.064696,172.16.3.2,52417,172.16.1.2,5101,101058,102845,38,220352,65728,6,6,4,1460,911250,1,16778208,1140000,238380,235484,65700,0,99912,0,2287770808,63
i,1734976474.065243,172.16.3.2,52417,172.16.1.2,5101,101058,102845,38,220352,65728,6,6,4,1460,911250,1,16778208,1140000,238380,235484,65700,0,102808,0,2287770808,63
o,1734976474.065340,172.16.3.2,52417,172.16.1.2,5101,101058,102845,38,220352,65728,6,6,4,1460,912500,1,16778208,1140000,238380,232588,65700,0,99912,0,2287770808,63
i,1734976474.065949,172.16.3.2,52417,172.16.1.2,5101,101058,102845,38,220352,65728,6,6,4,1460,912500,1,16778208,1140000,238380,232588,65700,0,102808,0,2287770808,63
o,1734976474.066023,172.16.3.2,52417,172.16.1.2,5101,101058,102845,38,220352,65728,6,6,4,1460,913437,1,16778208,1140000,238380,229692,65700,0,99912,0,2287770808,63
i,1734976474.223272,172.16.3.2,52417,172.16.1.2,5101,101058,102845,38,220352,65728,6,6,4,1460,913437,1,16778208,1140000,238380,238380,65700,0,102808,0,2287770808,63
o,1734976474.223388,172.16.3.2,52417,172.16.1.2,5101,101058,102845,38,220352,65728,6,6,4,1460,926875,1,16778208,1260000,238380,235484,65700,0,99912,0,2287770808,63
i,1734976474.223942,172.16.3.2,52417,172.16.1.2,5101,101058,102845,38,220352,65728,6,6,4,1460,926875,1,16778208,1260000,238380,235484,65700,0,102808,0,2287770808,63
o,1734976474.224019,172.16.3.2,52417,172.16.1.2,5101,101058,102845,38,217472,65728,6,6,4,1460,938750,1,16778208,1330000,238380,232588,65700,0,99912,0,2287770808,63
i,1734976474.225005,172.16.3.2,52417,172.16.1.2,5101,101058,102845,38,217472,65728,6,6,4,1460,938750,1,16778208,1330000,238380,232588,65700,0,102808,0,2287770808,63
o,1734976474.225096,172.16.3.2,52417,172.16.1.2,5101,101058,102845,38,214592,65728,6,6,4,1460,886562,1,16778208,1650000,238380,229692,65700,0,99912,0,2287770808,63
i,1734976474.242120,172.16.3.2,52417,172.16.1.2,5101,101058,102845,38,214592,65728,6,6,4,1460,886562,1,16778208,1650000,238380,238380,65700,0,102808,0,2287770808,63
o,1734976474.242214,172.16.3.2,52417,172.16.1.2,5101,101058,102845,38,211712,65728,6,6,4,1460,843437,1,16778208,1810000,238380,235484,65700,0,99912,0,2287770808,63
i,1734976474.245957,172.16.3.2,52417,172.16.1.2,5101,101058,102845,38,211712,65728,6,6,4,1460,843437,1,16778208,1810000,238380,238380,65700,0,102808,0,2287770808,63
o,1734976474.246043,172.16.3.2,52417,172.16.1.2,5101,101058,102845,38,208832,65728,6,6,4,1460,805625,1,16778208,1880000,238380,235484,65700,0,99912,0,2287770808,63
i,1734976474.249425,172.16.3.2,52417,172.16.1.2,5101,101058,102845,38,208832,65728,6,6,4,1460,805625,1,16778208,1880000,238380,235484,65700,0,102808,0,2287770808,63
o,1734976474.249503,172.16.3.2,52417,172.16.1.2,5101,101058,102845,38,218880,65728,6,6,4,1460,772500,1,16778208,1900000,238380,232588,65700,0,99912,0,2287770808,63
i,1734976474.250865,172.16.3.2,52417,172.16.1.2,5101,101058,102845,38,218880,65728,6,6,4,1460,772500,1,16778208,1900000,238380,232588,65700,0,102808,0,2287770808,63
o,1734976474.250957,172.16.3.2,52417,172.16.1.2,5101,101058,102845,38,216000,65728,6,6,4,1460,743437,1,16778208,1870000,238380,229692,65700,0,99912,0,2287770808,63
i,1734976474.252052,172.16.3.2,52417,172.16.1.2,5101,101058,102845,38,216000,65728,6,6,4,1460,743437,1,16778208,1870000,238380,229692,65700,0,102808,0,2287770808,63
o,1734976474.252129,172.16.3.2,52417,172.16.1.2,5101,101058,102845,38,213120,65728,6,6,4,1460,719375,1,16778208,1800000,238380,226796,65700,0,99912,0,2287770808,63
i,1734976474.252843,172.16.3.2,52417,172.16.1.2,5101,101058,102845,38,213120,65728,6,6,4,1460,719375,1,16778208,1800000,238380,226796,65700,0,102808,0,2287770808,63
o,1734976474.252917,172.16.3.2,52417,172.16.1.2,5101,101058,102845,38,210240,65728,6,6,4,1460,698437,1,16778208,1730000,238380,223900,65700,0,99912,0,2287770808,63
i,1734976474.253530,172.16.3.2,52417,172.16.1.2,5101,101058,102845,38,210240,65728,6,6,4,1460,698437,1,16778208,1730000,238380,223900,65700,0,102808,0,2287770808,63
o,1734976474.253605,172.16.3.2,52417,172.16.1.2,5101,101058,102845,38,220352,65728,6,6,4,1460,680000,1,16778208,1650000,238380,221004,65700,0,99912,0,2287770808,63
o,1734976474.254338,172.16.3.2,52417,172.16.1.2,5101,101058,102845,38,220352,65728,6,6,4,1460,680000,1,16778208,1650000,238380,221004,65700,0,101360,0,2287770808,63
i,1734976474.287673,172.16.3.2,52417,172.16.1.2,5101,101058,102845,38,220352,65728,6,6,4,1460,680000,1,16778208,1650000,238380,238380,65700,0,102808,0,2287770808,63
o,1734976474.287777,172.16.3.2,52417,172.16.1.2,5101,101058,102845,38,220352,65728,6,6,4,1460,666250,1,16778208,1550000,238380,235484,65700,0,99912,0,2287770808,63
i,1734976474.289124,172.16.3.2,52417,172.16.1.2,5101,101058,102845,38,220352,65728,6,6,4,1460,666250,1,16778208,1550000,238380,235484,65700,0,102808,0,2287770808,63
o,1734976474.289210,172.16.3.2,52417,172.16.1.2,5101,101058,102845,38,217472,65728,6,6,4,1460,639375,1,16778208,1570000,238380,232588,65700,0,99912,0,2287770808,63
i,1734976474.290218,172.16.3.2,52417,172.16.1.2,5101,101058,102845,38,217472,65728,6,6,4,1460,639375,1,16778208,1570000,238380,232588,65700,0,102808,0,2287770808,63
o,1734976474.290295,172.16.3.2,52417,172.16.1.2,5101,101058,102845,38,214592,65728,6,6,4,1460,615937,1,16778208,1550000,238380,229692,65700,0,99912,0,2287770808,63
i,1734976474.290885,172.16.3.2,52417,172.16.1.2,5101,101058,102845,38,214592,65728,6,6,4,1460,615937,1,16778208,1550000,238380,229692,65700,0,102808,0,2287770808,63
o,1734976474.290961,172.16.3.2,52417,172.16.1.2,5101,101058,102845,38,211712,65728,6,6,4,1460,595312,1,16778208,1510000,238380,226796,65700,0,99912,0,2287770808,63
i,1734976474.291836,172.16.3.2,52417,172.16.1.2,5101,101058,102845,38,211712,65728,6,6,4,1460,595312,1,16778208,1510000,238380,226796,65700,0,102808,0,2287770808,63
o,1734976474.291918,172.16.3.2,52417,172.16.1.2,5101,101058,102845,38,220352,65728,6,6,4,1460,577187,1,16778208,1460000,238380,223900,65700,0,99912,0,2287770808,63
i,1734976474.331172,172.16.3.2,52417,172.16.1.2,5101,101058,102845,38,220352,65728,6,6,4,1460,577187,1,16778208,1460000,238380,238380,65700,0,102808,0,2287770808,63
o,1734976474.331269,172.16.3.2,52417,172.16.1.2,5101,101058,102845,38,221760,65728,6,6,4,1460,566562,1,16778208,1360000,238380,236932,65700,0,101360,0,2287770808,63
i,1734976474.621272,172.16.3.2,52417,172.16.1.2,5101,101058,102845,38,221760,65728,6,6,4,1460,566562,1,16778208,1360000,238380,236932,65700,0,102808,0,2287770808,63
o,1734976474.621975,172.16.3.2,52417,172.16.1.2,5101,101058,102845,38,218880,65728,6,6,4,1460,574687,1,16778208,1280000,238380,234036,65700,0,99912,0,2287770808,63
i,1734976474.622720,172.16.3.2,52417,172.16.1.2,5101,101058,102845,38,218880,65728,6,6,4,1460,574687,1,16778208,1280000,238380,234036,65700,0,102808,0,2287770808,63
o,1734976474.622815,172.16.3.2,52417,172.16.1.2,5101,101058,102845,38,216000,65728,6,6,4,1460,579375,1,16778208,1200000,238380,231140,65700,0,99912,0,2287770808,63
i,1734976474.631343,172.16.3.2,52417,172.16.1.2,5101,101058,102845,38,216000,65728,6,6,4,1460,579375,1,16778208,1200000,238380,238380,65700,0,102808,0,2287770808,63
o,1734976474.632178,172.16.3.2,52417,172.16.1.2,5101,101058,102845,38,213120,65728,6,6,4,1460,584687,1,16778208,1140000,238380,235484,65700,0,99912,0,2287770808,63
i,1734976474.636579,172.16.3.2,52417,172.16.1.2,5101,101058,102845,38,213120,65728,6,6,4,1460,584687,1,16778208,1140000,238380,238380,65700,0,102808,0,2287770808,63
o,1734976474.636821,172.16.3.2,52417,172.16.1.2,5101,101058,102845,38,220352,65728,6,6,4,1460,588125,1,16778208,1080000,238380,235484,65700,0,99912,0,2287770808,63
i,1734976474.637595,172.16.3.2,52417,172.16.1.2,5101,101058,102845,38,220352,65728,6,6,4,1460,588125,1,16778208,1080000,238380,235484,65700,0,102808,0,2287770808,63
o,1734976474.637669,172.16.3.2,52417,172.16.1.2,5101,101058,102845,38,217472,65728,6,6,4,1460,590937,1,16778208,1030000,238380,232588,65700,0,99912,0,2287770808,63
i,1734976474.672810,172.16.3.2,52417,172.16.1.2,5101,101058,102845,38,217472,65728,6,6,4,1460,590937,1,16778208,1030000,238380,238380,65700,0,102808,0,2287770808,63
o,1734976474.673101,172.16.3.2,52417,172.16.1.2,5101,101058,102845,38,214592,65728,6,6,4,1460,598437,1,16778208,1040000,238380,235484,65700,0,99912,0,2287770808,63
