enable_time_secs=1734976647	enable_time_usecs=924379	siftrver=1.3.0	sysname=FreeBSD	sysver=1401000	ipmode=4
o,1734976647.925820,10.0.2.15,22,192.168.56.1,54748,1073725440,18998,1026,65535,65700,0,0,4,1460,312,0,16777220,230000,33580,172,65700,0,0,0,124037969,63
o,1734976647.929715,10.0.2.15,22,192.168.56.1,54748,1073725440,18998,1026,65535,65700,0,0,4,1460,312,0,16777220,230000,33580,244,65700,0,172,0,124037969,63
i,1734976647.932804,10.0.2.15,22,192.168.56.1,54748,1073725440,18998,1026,65535,65700,0,0,4,1460,312,0,16777220,230000,33580,244,65700,0,244,0,124037969,63
i,1734976647.932884,10.0.2.15,22,192.168.56.1,54748,1073725440,19170,1026,65535,65700,0,0,4,1460,312,0,4,230000,33580,72,65700,0,72,0,124037969,63
i,1734976647.932953,10.0.2.15,22,192.168.56.1,54748,1073725440,19242,1026,65535,65700,0,0,4,1460,312,0,4,230000,33580,0,65700,0,0,0,124037969,63
i,1734976647.933134,10.0.2.15,22,192.168.56.1,54748,1073725440,19242,1026,65535,65700,0,0,4,1460,312,0,4,230000,33580,0,65700,96,0,0,124037969,63
o,1734976647.933210,10.0.2.15,22,192.168.56.1,54748,1073725440,19242,1026,65535,65604,0,0,5,1460,312,0,5,230000,33580,0,65700,96,0,0,124037969,63
o,1734976647.936423,10.0.2.15,22,192.168.56.1,54748,1073725440,19242,1026,65535,65604,0,0,8,1460,312,0,4,230000,33580,0,65700,0,0,0,124037969,63
i,1734976647.940478,10.0.2.15,22,192.168.56.1,54748,1073725440,19242,1026,65535,65604,0,0,8,1460,312,0,67108884,230000,33580,0,65700,0,1,0,124037969,63
i,1734976662.841773,10.0.2.15,22,192.168.56.1,54716,1073725440,19499,1026,65535,65700,0,0,9,1460,312,0,67108884,230000,33580,0,65700,0,0,0,2297258608,63
i,1734976662.846223,10.0.2.15,22,192.168.56.1,54716,1073725440,19499,1026,65535,65700,0,0,9,1460,312,0,67108884,230000,33580,0,65700,0,0,0,2297258608,63
i,1734976668.846331,10.0.2.15,22,192.168.56.1,54716,1073725440,14600,0,65535,65700,0,0,4,1460,312,0,16777216,240000,33580,0,65700,0,0,0,2297258608,63
o,1734976668.882830,10.0.2.15,22,192.168.56.1,54716,1073725440,14600,2,65535,65700,0,0,4,1460,312,0,16777217,240000,33580,0,65700,42,0,0,2297258608,63
o,1734976668.884561,10.0.2.15,22,192.168.56.1,54716,1073725440,14600,1026,65535,65700,0,0,4,1460,312,0,16777216,240000,33580,38,65700,42,0,0,2297258608,63
i,1734976668.888110,10.0.2.15,22,192.168.56.1,54716,1073725440,14600,1026,65535,65700,0,0,4,1460,312,0,16777216,240000,33580,38,65700,0,38,0,2297258608,63
o,1734976668.889850,10.0.2.15,22,192.168.56.1,54716,1073725440,14638,1026,65535,65700,0,0,4,1460,312,0,16777216,230000,33580,1120,65700,0,0,0,2297258608,63
i,1734976668.890701,10.0.2.15,22,192.168.56.1,54716,1073725440,14638,1026,65535,65700,0,0,4,1460,312,0,16777216,230000,33580,1120,65700,0,1120,0,2297258608,63
i,1734976668.890797,10.0.2.15,22,192.168.56.1,54716,1073725440,14638,1026,65535,65700,0,0,4,1460,312,0,16777216,230000,33580,1120,65700,1460,1120,0,2297258608,63
o,1734976668.890885,10.0.2.15,22,192.168.56.1,54716,1073725440,14638,1026,65535,65700,0,0,4,1460,312,0,16777217,230000,33580,1120,65700,1536,1120,0,2297258608,63
i,1734976668.891920,10.0.2.15,22,192.168.56.1,54716,1073725440,14638,1026,65535,65700,0,0,4,1460,312,0,16777216,230000,33580,1120,65700,1536,1120,0,2297258608,63
i,1734976668.926093,10.0.2.15,22,192.168.56.1,54716,1073725440,15758,1026,65535,65700,0,0,4,1460,312,0,0,230000,33580,0,65700,0,0,0,2297258608,63
o,1734976668.954881,10.0.2.15,22,192.168.56.1,54716,1073725440,15758,1030,65535,65700,0,0,4,1460,312,0,16777216,230000,33580,1532,65700,0,0,0,2297258608,63
o,1734976668.957202,10.0.2.15,22,192.168.56.1,54716,1073725440,15758,1026,65535,65700,0,0,4,1460,312,0,16777216,230000,33580,1532,65700,0,1460,0,2297258608,63
i,1734976668.959963,10.0.2.15,22,192.168.56.1,54716,1073725440,15758,1026,65535,65700,0,0,4,1460,312,0,16777216,230000,33580,1532,65700,0,1532,0,2297258608,63
i,1734976668.960043,10.0.2.15,22,192.168.56.1,54716,1073725440,17218,1026,65535,65700,0,0,4,1460,312,0,0,230000,33580,72,65700,0,72,0,2297258608,63
i,1734976668.975248,10.0.2.15,22,192.168.56.1,54716,1073725440,17290,1026,65535,65700,0,0,4,1460,312,0,0,230000,33580,0,65700,0,0,0,2297258608,63
o,1734976668.975626,10.0.2.15,22,192.168.56.1,54716,1073725440,17290,1026,65535,65700,0,0,4,1460,312,0,16777216,230000,33580,44,65700,0,0,0,2297258608,63
i,1734976668.979583,10.0.2.15,22,192.168.56.1,54716,1073725440,17290,1026,65535,65700,0,0,4,1460,312,0,16777216,230000,33580,44,65700,0,44,0,2297258608,63
o,1734976668.984656,10.0.2.15,22,192.168.56.1,54716,1073725440,17334,1026,65535,65700,0,0,4,1460,312,0,16777216,230000,33580,280,65700,0,0,0,2297258608,63
i,1734976668.988236,10.0.2.15,22,192.168.56.1,54716,1073725440,17334,1026,65535,65700,0,0,4,1460,312,0,16777216,230000,33580,280,65700,0,280,0,2297258608,63
i,1734976668.988273,10.0.2.15,22,192.168.56.1,54716,1073725440,17614,1026,65535,65700,0,0,4,1460,312,0,0,230000,33580,0,65700,0,0,0,2297258608,63
o,1734976668.993254,10.0.2.15,22,192.168.56.1,54716,1073725440,17614,1026,65535,65700,0,0,4,1460,312,0,16777216,230000,33580,332,65700,0,0,0,2297258608,63
i,1734976668.998184,10.0.2.15,22,192.168.56.1,54716,1073725440,17614,1026,65535,65700,0,0,4,1460,312,0,16777216,230000,33580,332,65700,0,332,0,2297258608,63
i,1734976668.998264,10.0.2.15,22,192.168.56.1,54716,1073725440,17946,1026,65535,65700,0,0,4,1460,312,0,0,230000,33580,0,65700,0,0,0,2297258608,63
o,1734976669.011354,10.0.2.15,22,192.168.56.1,54716,1073725440,17946,1026,65535,65700,0,0,4,1460,312,0,16777216,230000,33580,28,65700,0,0,0,2297258608,63
i,1734976669.015646,10.0.2.15,22,192.168.56.1,54716,1073725440,17946,1026,65535,65700,0,0,4,1460,312,0,16777216,230000,33580,28,65700,0,28,0,2297258608,63
o,1734976669.016543,10.0.2.15,22,192.168.56.1,54716,1073725440,17974,1026,65535,65700,0,0,4,1460,312,0,16777216,240000,33580,768,65700,112,0,0,2297258608,63
i,1734976669.023889,10.0.2.15,22,192.168.56.1,54716,1073725440,17974,1026,65535,65700,0,0,4,1460,312,0,16777216,240000,33580,952,65700,0,768,0,2297258608,63
o,1734976669.023976,10.0.2.15,22,192.168.56.1,54716,1073725440,18742,1026,65535,65700,0,0,4,1460,312,0,16777216,230000,33580,184,65700,0,0,0,2297258608,63
i,1734976669.027053,10.0.2.15,22,192.168.56.1,54716,1073725440,18742,1026,65535,65700,0,0,4,1460,312,0,16777216,230000,33580,184,65700,0,184,0,2297258608,63
i,1734976669.027131,10.0.2.15,22,192.168.56.1,54716,1073725440,18926,1026,65535,65700,0,0,4,1460,312,0,0,230000,33580,0,65700,0,0,0,2297258608,63
o,1734976669.029175,10.0.2.15,22,192.168.56.1,54716,1073725440,18926,1026,65535,65700,0,0,4,1460,312,0,16777220,230000,33580,72,65700,0,0,0,2297258608,63
i,1734976669.034047,10.0.2.15,22,192.168.56.1,54716,1073725440,18926,1026,65535,65700,0,0,4,1460,312,0,16777220,230000,33580,72,65700,0,72,0,2297258608,63
o,1734976669.089245,10.0.2.15,22,192.168.56.1,54716,1073725440,18998,1026,65535,65700,0,0,4,1460,312,0,16777220,230000,33580,104,65700,0,0,0,2297258608,63
i,1734976669.097392,10.0.2.15,22,192.168.56.1,54716,1073725440,18998,1026,65535,65700,0,0,4,1460,312,0,16777220,230000,33580,104,65700,0,104,0,2297258608,63
o,1734976669.097542,10.0.2.15,22,192.168.56.1,54716,1073725440,19102,1026,65535,65700,0,0,4,1460,312,0,16777220,230000,33580,72,65700,0,0,0,2297258608,63
i,1734976669.099804,10.0.2.15,22,192.168.56.1,54716,1073725440,19102,1026,65535,65700,0,0,4,1460,312,0,16777220,230000,33580,72,65700,0,72,0,2297258608,63
i,1734976669.102206,10.0.2.15,22,192.168.56.1,54716,1073725440,19174,1026,65535,65700,0,0,4,1460,312,0,4,230000,33580,0,65700,0,0,0,2297258608,63
o,1734976669.107436,10.0.2.15,22,192.168.56.1,54716,1073725440,19174,1026,65535,65700,0,0,6,1460,312,0,4,230000,33580,0,65700,0,0,0,2297258608,63
i,1734976669.111298,10.0.2.15,22,192.168.56.1,54716,1073725440,19174,1026,65535,65700,0,0,6,1460,312,0,67108884,230000,33580,0,65700,0,1,0,2297258608,63
i,1734976671.572415,10.0.2.15,22,192.168.56.1,54750,1073725440,14600,0,65535,65700,0,0,4,1460,312,0,16777216,240000,33580,0,65700,0,0,0,1468811453,63
i,1734976671.572536,10.0.2.15,22,192.168.56.1,54740,1073725440,14600,0,65535,65700,0,0,4,1460,312,0,16777216,240000,33580,0,65700,0,0,0,3546190762,63
o,1734976671.602223,10.0.2.15,22,192.168.56.1,54740,1073725440,14600,1026,65535,65700,0,0,4,1460,312,0,16777216,240000,33580,38,65700,42,0,0,3546190762,63
i,1734976671.607244,10.0.2.15,22,192.168.56.1,54740,1073725440,14600,1026,65535,65700,0,0,4,1460,312,0,16777216,240000,33580,38,65700,0,38,0,3546190762,63
i,1734976671.607281,10.0.2.15,22,192.168.56.1,54740,1073725440,14638,1026,65535,65700,0,0,4,1460,312,0,0,230000,33580,0,65700,0,0,0,3546190762,63
i,1734976671.607309,10.0.2.15,22,192.168.56.1,54740,1073725440,14638,1026,65535,65700,0,0,4,1460,312,0,0,230000,33580,0,65700,1460,0,0,3546190762,63
o,1734976671.607460,10.0.2.15,22,192.168.56.1,54740,1073725440,14638,1026,65535,65700,0,0,4,1460,312,0,1,230000,33580,0,65700,1536,0,0,3546190762,63
o,1734976671.609573,10.0.2.15,22,192.168.56.1,54740,1073725440,14638,1026,65535,65700,0,0,4,1460,312,0,16777216,230000,33580,1120,65700,1536,0,0,3546190762,63
o,1734976671.613498,10.0.2.15,22,192.168.56.1,54750,1073725440,14600,2,65535,65700,0,0,4,1460,312,0,16777217,240000,33580,0,65700,42,0,0,1468811453,63
i,1734976671.614399,10.0.2.15,22,192.168.56.1,54740,1073725440,14638,1026,65535,65700,0,0,4,1460,312,0,16777216,230000,33580,1120,65700,0,1120,0,3546190762,63
o,1734976671.614170,10.0.2.15,22,192.168.56.1,54750,1073725440,14600,1026,65535,65700,0,0,4,1460,312,0,16777216,240000,33580,38,65700,42,0,0,1468811453,63
i,1734976671.617473,10.0.2.15,22,192.168.56.1,54750,1073725440,14600,1026,65535,65700,0,0,4,1460,312,0,16777216,240000,33580,38,65700,0,38,0,1468811453,63
i,1734976671.617549,10.0.2.15,22,192.168.56.1,54750,1073725440,14638,1026,65535,65700,0,0,4,1460,312,0,0,230000,33580,0,65700,0,0,0,1468811453,63
i,1734976671.617618,10.0.2.15,22,192.168.56.1,54750,1073725440,14638,1026,65535,65700,0,0,4,1460,312,0,0,230000,33580,0,65700,1460,0,0,1468811453,63
o,1734976671.617730,10.0.2.15,22,192.168.56.1,54750,1073725440,14638,1026,65535,65700,0,0,4,1460,312,0,1,230000,33580,0,65700,1536,0,0,1468811453,63
o,1734976671.618383,10.0.2.15,22,192.168.56.1,54750,1073725440,14638,1026,65535,65700,0,0,4,1460,312,0,16777216,230000,33580,1120,65700,1536,0,0,1468811453,63
i,1734976671.620623,10.0.2.15,22,192.168.56.1,54750,1073725440,14638,1026,65535,65700,0,0,4,1460,312,0,16777216,230000,33580,1120,65700,0,1120,0,1468811453,63
i,1734976671.647210,10.0.2.15,22,192.168.56.1,54740,1073725440,15758,1026,65535,65700,0,0,4,1460,312,0,0,230000,33580,0,65700,0,0,0,3546190762,63
i,1734976671.653668,10.0.2.15,22,192.168.56.1,54750,1073725440,15758,1026,65535,65700,0,0,4,1460,312,0,0,230000,33580,0,65700,0,0,0,1468811453,63
o,1734976671.669655,10.0.2.15,22,192.168.56.1,54740,1073725440,15758,1030,65535,65700,0,0,4,1460,312,0,16777216,230000,33580,1532,65700,0,0,0,3546190762,63
o,1734976671.671386,10.0.2.15,22,192.168.56.1,54740,1073725440,15758,1026,65535,65700,0,0,4,1460,312,0,16777216,230000,33580,1532,65700,0,1460,0,3546190762,63
i,1734976671.677029,10.0.2.15,22,192.168.56.1,54740,1073725440,15758,1026,65535,65700,0,0,4,1460,312,0,16777216,230000,33580,1532,65700,0,1532,0,3546190762,63
i,1734976671.677305,10.0.2.15,22,192.168.56.1,54740,1073725440,17218,1026,65535,65700,0,0,4,1460,312,0,0,230000,33580,72,65700,0,72,0,3546190762,63
o,1734976671.681069,10.0.2.15,22,192.168.56.1,54750,1073725440,15758,1030,65535,65700,0,0,4,1460,312,0,16777216,230000,33580,1532,65700,0,0,0,1468811453,63
o,1734976671.683664,10.0.2.15,22,192.168.56.1,54750,1073725440,15758,1026,65535,65700,0,0,4,1460,312,0,16777216,230000,33580,1532,65700,0,1460,0,1468811453,63
i,1734976671.687285,10.0.2.15,22,192.168.56.1,54750,1073725440,15758,1026,65535,65700,0,0,4,1460,312,0,16777216,230000,33580,1532,65700,0,1532,0,1468811453,63
i,1734976671.687369,10.0.2.15,22,192.168.56.1,54750,1073725440,17218,1026,65535,65700,0,0,4,1460,312,0,0,230000,33580,72,65700,0,72,0,1468811453,63
i,1734976671.703113,10.0.2.15,22,192.168.56.1,54740,1073725440,17290,1026,65535,65700,0,0,4,1460,312,0,0,230000,33580,0,65700,0,0,0,3546190762,63
o,1734976671.703356,10.0.2.15,22,192.168.56.1,54740,1073725440,17290,1026,65535,65700,0,0,4,1460,312,0,16777216,230000,33580,44,65700,0,0,0,3546190762,63
i,1734976671.708357,10.0.2.15,22,192.168.56.1,54740,1073725440,17290,1026,65535,65700,0,0,4,1460,312,0,16777216,230000,33580,44,65700,0,44,0,3546190762,63
i,1734976671.708503,10.0.2.15,22,192.168.56.1,54750,1073725440,17290,1026,65535,65700,0,0,4,1460,312,0,0,230000,33580,0,65700,0,0,0,1468811453,63
o,1734976671.709246,10.0.2.15,22,192.168.56.1,54750,1073725440,17290,1026,65535,65700,0,0,4,1460,312,0,16777216,230000,33580,44,65700,0,0,0,1468811453,63
i,1734976671.711816,10.0.2.15,22,192.168.56.1,54750,1073725440,17290,1026,65535,65700,0,0,4,1460,312,0,16777216,230000,33580,44,65700,0,44,0,1468811453,63
o,1734976671.715756,10.0.2.15,22,192.168.56.1,54740,1073725440,17334,1026,65535,65700,0,0,4,1460,312,0,16777216,230000,33580,280,65700,0,0,0,3546190762,63
o,1734976671.716283,10.0.2.15,22,192.168.56.1,54750,1073725440,17334,1026,65535,65700,0,0,4,1460,312,0,16777216,230000,33580,280,65700,0,0,0,1468811453,63
i,1734976671.719425,10.0.2.15,22,192.168.56.1,54750,1073725440,17334,1026,65535,65700,0,0,4,1460,312,0,16777216,230000,33580,280,65700,0,280,0,1468811453,63
i,1734976671.719494,10.0.2.15,22,192.168.56.1,54740,1073725440,17334,1026,65535,65700,0,0,4,1460,312,0,16777216,230000,33580,280,65700,0,280,0,3546190762,63
i,1734976671.719542,10.0.2.15,22,192.168.56.1,54750,1073725440,17614,1026,65535,65700,0,0,4,1460,312,0,0,230000,33580,0,65700,0,0,0,1468811453,63
i,1734976671.719591,10.0.2.15,22,192.168.56.1,54740,1073725440,17614,1026,65535,65700,0,0,4,1460,312,0,0,230000,33580,0,65700,0,0,0,3546190762,63
o,1734976671.720455,10.0.2.15,22,192.168.56.1,54750,1073725440,17614,1026,65535,65700,0,0,4,1460,312,0,16777216,230000,33580,332,65700,0,0,0,1468811453,63
o,1734976671.720489,10.0.2.15,22,192.168.56.1,54740,1073725440,17614,1026,65535,65700,0,0,4,1460,312,0,16777216,230000,33580,332,65700,0,0,0,3546190762,63
i,1734976671.724870,10.0.2.15,22,192.168.56.1,54750,1073725440,17614,1026,65535,65700,0,0,4,1460,312,0,16777216,230000,33580,332,65700,0,332,0,1468811453,63
i,1734976671.724948,10.0.2.15,22,192.168.56.1,54740,1073725440,17614,1026,65535,65700,0,0,4,1460,312,0,16777216,230000,33580,332,65700,0,332,0,3546190762,63
i,1734976671.725018,10.0.2.15,22,192.168.56.1,54750,1073725440,17946,1026,65535,65700,0,0,4,1460,312,0,0,230000,33580,0,65700,0,0,0,1468811453,63
i,1734976671.725087,10.0.2.15,22,192.168.56.1,54740,1073725440,17946,1026,65535,65700,0,0,4,1460,312,0,0,230000,33580,0,65700,0,0,0,3546190762,63
o,1734976671.741234,10.0.2.15,22,192.168.56.1,54740,1073725440,17946,1026,65535,65700,0,0,4,1460,312,0,16777216,230000,33580,28,65700,0,0,0,3546190762,63
o,1734976671.742196,10.0.2.15,22,192.168.56.1,54750,1073725440,17946,1026,65535,65700,0,0,4,1460,312,0,16777216,230000,33580,28,65700,0,0,0,1468811453,63
i,1734976671.744889,10.0.2.15,22,192.168.56.1,54750,1073725440,17946,1026,65535,65700,0,0,4,1460,312,0,16777216,230000,33580,28,65700,0,28,0,1468811453,63
i,1734976671.744976,10.0.2.15,22,192.168.56.1,54740,1073725440,17946,1026,65535,65700,0,0,4,1460,312,0,16777216,230000,33580,936,65700,0,28,0,3546190762,63
o,1734976671.745556,10.0.2.15,22,192.168.56.1,54750,1073725440,17974,1026,65535,65700,0,0,4,1460,312,0,16777216,230000,33580,768,65700,0,0,0,1468811453,63
o,1734976671.745062,10.0.2.15,22,192.168.56.1,54740,1073725440,17974,1026,65535,65700,0,0,4,1460,312,0,16777216,230000,33580,908,65700,0,0,0,3546190762,63
i,1734976671.747522,10.0.2.15,22,192.168.56.1,54750,1073725440,17974,1026,65535,65700,0,0,4,1460,312,0,16777216,230000,33580,908,65700,0,768,0,1468811453,63
i,1734976671.747609,10.0.2.15,22,192.168.56.1,54740,1073725440,17974,1026,65535,65700,0,0,4,1460,312,0,16777216,230000,33580,908,65700,0,908,0,3546190762,63
i,1734976671.747793,10.0.2.15,22,192.168.56.1,54750,1073725440,17974,1026,65535,65700,0,0,4,1460,312,0,16777216,230000,33580,908,65700,112,768,0,1468811453,63
o,1734976671.747870,10.0.2.15,22,192.168.56.1,54750,1073725440,18742,1026,65535,65700,0,0,4,1460,312,0,16777216,230000,33580,140,65700,112,0,0,1468811453,63
i,1734976671.748529,10.0.2.15,22,192.168.56.1,54740,1073725440,17974,1026,65535,65700,0,0,4,1460,312,0,16777216,230000,33580,908,65700,112,908,0,3546190762,63
o,1734976671.749398,10.0.2.15,22,192.168.56.1,54740,1073725440,18882,1026,65535,65700,0,0,4,1460,312,0,16777216,230000,33580,44,65700,0,0,0,3546190762,63
i,1734976671.752142,10.0.2.15,22,192.168.56.1,54750,1073725440,18742,1026,65535,65700,0,0,4,1460,312,0,16777216,230000,33580,184,65700,0,140,0,1468811453,63
o,1734976671.752221,10.0.2.15,22,192.168.56.1,54750,1073725440,18882,1026,65535,65700,0,0,4,1460,312,0,16777216,230000,33580,44,65700,0,0,0,1468811453,63
i,1734976671.752641,10.0.2.15,22,192.168.56.1,54740,1073725440,18882,1026,65535,65700,0,0,4,1460,312,0,16777216,230000,33580,44,65700,0,44,0,3546190762,63
i,1734976671.752715,10.0.2.15,22,192.168.56.1,54740,1073725440,18926,1026,65535,65700,0,0,4,1460,312,0,0,230000,33580,0,65700,0,0,0,3546190762,63
o,1734976671.754908,10.0.2.15,22,192.168.56.1,54740,1073725440,18926,1026,65535,65700,0,0,4,1460,312,0,16777220,230000,33580,72,65700,0,0,0,3546190762,63
i,1734976671.755481,10.0.2.15,22,192.168.56.1,54750,1073725440,18882,1026,65535,65700,0,0,4,1460,312,0,16777216,230000,33580,44,65700,0,44,0,1468811453,63
i,1734976671.757667,10.0.2.15,22,192.168.56.1,54750,1073725440,18926,1026,65535,65700,0,0,4,1460,312,0,0,230000,33580,0,65700,0,0,0,1468811453,63
i,1734976671.757744,10.0.2.15,22,192.168.56.1,54740,1073725440,18926,1026,65535,65700,0,0,4,1460,312,0,16777220,230000,33580,72,65700,0,72,0,3546190762,63
o,1734976671.759590,10.0.2.15,22,192.168.56.1,54750,1073725440,18926,1026,65535,65700,0,0,4,1460,312,0,16777220,230000,33580,72,65700,0,0,0,1468811453,63
i,1734976671.764902,10.0.2.15,22,192.168.56.1,54750,1073725440,18926,1026,65535,65700,0,0,4,1460,312,0,16777220,230000,33580,72,65700,0,72,0,1468811453,63
o,1734976671.795251,10.0.2.15,22,192.168.56.1,54740,1073725440,18998,1026,65535,65700,0,0,4,1460,312,0,5,230000,33580,0,65700,0,0,0,3546190762,63
o,1734976671.905592,172.16.3.2,14882,172.16.1.2,5101,60889,14480,34,65535,65700,6,6,4,1460,563437,1,16778209,2500000,33580,0,65700,0,0,0,1582818795,63
o,1734976671.906281,172.16.3.2,47831,172.16.1.2,5102,60889,14480,34,65535,65700,6,6,4,1460,563437,1,16778209,2500000,33580,0,65700,0,0,0,2497885584,63
o,1734976671.907075,172.16.3.2,47831,172.16.1.2,5102,60889,14480,34,65535,65700,6,6,4,1460,563437,1,16778212,2500000,33580,37,65700,0,0,0,2497885584,63
o,1734976671.908599,172.16.3.2,14882,172.16.1.2,5101,60889,14480,34,65535,65700,6,6,4,1460,563437,1,16778212,2500000,33580,37,65700,0,0,0,1582818795,63
i,1734976672.069165,172.16.3.2,47831,172.16.1.2,5102,60889,14480,34,65535,65700,6,6,4,1460,563437,1,16778212,2500000,33580,37,65700,0,37,0,2497885584,63
i,1734976672.069382,172.16.3.2,14882,172.16.1.2,5101,60889,14480,34,65535,65700,6,6,4,1460,563437,1,16778212,2500000,33580,37,65700,0,37,0,1582818795,63
o,1734976672.069652,172.16.3.2,47831,172.16.1.2,5102,60889,14517,1058,65728,65728,6,6,4,1460,513125,1,16778212,2420000,33580,4,65700,0,0,0,2497885584,63
o,1734976672.069726,172.16.3.2,14882,172.16.1.2,5101,60889,14517,1058,65728,65728,6,6,4,1460,513125,1,16778212,2420000,33580,4,65700,0,0,0,1582818795,63
o,1734976672.069769,172.16.3.2,14882,172.16.1.2,5101,60889,14517,1058,65728,65728,6,6,4,1460,513125,1,16778212,2420000,33580,151,65700,0,4,0,1582818795,63
o,1734976672.070247,172.16.3.2,47831,172.16.1.2,5102,60889,14517,1058,65728,65728,6,6,4,1460,513125,1,16778212,2420000,33580,130,65700,0,4,0,2497885584,63
i,1734976672.229633,172.16.3.2,14882,172.16.1.2,5101,60889,14517,1058,65728,65728,6,6,4,1460,513125,1,16778212,2420000,33580,151,65700,0,151,0,1582818795,63
i,1734976672.229778,172.16.3.2,14882,172.16.1.2,5101,60889,14668,1058,65600,65728,6,6,4,1460,469062,1,996,2300000,33580,0,65700,0,0,0,1582818795,63
i,1734976672.231977,172.16.3.2,47831,172.16.1.2,5102,60889,14517,1058,65728,65728,6,6,4,1460,513125,1,16778212,2420000,33580,130,65700,0,130,0,2497885584,63
i,1734976672.232108,172.16.3.2,47831,172.16.1.2,5102,60889,14647,1058,65600,65728,6,6,4,1460,470312,1,996,2290000,33580,0,65700,0,0,0,2497885584,63
o,1734976672.340966,172.16.3.2,14882,172.16.1.2,5101,60889,14668,1058,65728,65728,6,6,4,1460,469062,1,997,2300000,33580,0,65700,0,0,0,1582818795,63
o,1734976672.342050,172.16.3.2,47831,172.16.1.2,5102,60889,14647,1058,65728,65728,6,6,4,1460,470312,1,997,2290000,33580,0,65700,0,0,0,2497885584,63
o,1734976672.342172,172.16.3.2,26396,172.16.1.2,5101,60889,14480,34,65535,65700,6,6,4,1460,563437,1,16778209,2500000,33580,0,65700,0,0,0,2762137363,63
o,1734976672.342689,172.16.3.2,26396,172.16.1.2,5101,60889,14480,34,65535,65700,6,6,4,1460,563437,1,16778208,2500000,33580,37,65700,0,0,0,2762137363,63
o,1734976672.348084,172.16.3.2,12260,172.16.1.2,5102,60889,14480,34,65535,65700,6,6,4,1460,562187,1,16778209,2510000,33580,0,65700,0,0,0,3215355492,63
o,1734976672.349360,172.16.3.2,12260,172.16.1.2,5102,60889,14480,34,65535,65700,6,6,4,1460,562187,1,16778208,2510000,33580,37,65700,0,0,0,3215355492,63
i,1734976672.438917,172.16.3.2,14882,172.16.1.2,5101,60889,14668,1058,65728,65728,6,6,4,1460,469062,1,996,2300000,33580,0,65700,0,0,0,1582818795,63
i,1734976672.439244,172.16.3.2,14882,172.16.1.2,5101,60889,14668,1058,65728,65728,6,6,4,1460,469062,1,996,2300000,33580,0,65700,1,0,0,1582818795,63
o,1734976672.439461,172.16.3.2,14882,172.16.1.2,5101,60889,14668,1058,65728,65728,6,6,4,1460,469062,1,997,2300000,33580,0,65700,2,0,0,1582818795,63
i,1734976672.440376,172.16.3.2,26396,172.16.1.2,5101,60889,14480,34,65535,65700,6,6,4,1460,563437,1,16778208,2500000,33580,37,65700,0,37,0,2762137363,63
o,1734976672.442464,172.16.3.2,26396,172.16.1.2,5101,60889,14517,38,65728,65728,6,6,4,1460,504375,1,16778208,2480000,33580,33580,65700,0,0,0,2762137363,63
o,1734976672.443096,172.16.3.2,26396,172.16.1.2,5101,60889,14517,38,65728,65728,6,6,4,1460,504375,1,16778208,2480000,33580,33580,65700,0,1448,0,2762137363,63
i,1734976672.503390,172.16.3.2,47831,172.16.1.2,5102,60889,14647,1058,65728,65728,6,6,4,1460,470312,1,996,2290000,33580,0,65700,0,0,0,2497885584,63
i,1734976672.503457,172.16.3.2,47831,172.16.1.2,5102,60889,14647,1058,65728,65728,6,6,4,1460,470312,1,996,2290000,33580,0,65700,1,0,0,2497885584,63
o,1734976672.503492,172.16.3.2,47831,172.16.1.2,5102,60889,14647,1058,65728,65728,6,6,4,1460,470312,1,997,2290000,33580,0,65700,2,0,0,2497885584,63
i,1734976672.503718,172.16.3.2,12260,172.16.1.2,5102,60889,14480,34,65535,65700,6,6,4,1460,562187,1,16778208,2510000,33580,37,65700,0,37,0,3215355492,63
o,1734976672.504954,172.16.3.2,12260,172.16.1.2,5102,60889,14517,38,65728,65728,6,6,4,1460,512187,1,16778208,2420000,33580,33580,65700,0,0,0,3215355492,63
o,1734976672.505475,172.16.3.2,12260,172.16.1.2,5102,60889,14517,38,65728,65728,6,6,4,1460,512187,1,16778208,2420000,33580,33580,65700,0,1448,0,3215355492,63
i,1734976672.616557,172.16.3.2,26396,172.16.1.2,5101,60889,14517,38,65728,65728,6,6,4,1460,504375,1,16778208,2480000,33580,33580,65700,0,14480,0,2762137363,63
o,1734976672.616826,172.16.3.2,26396,172.16.1.2,5101,60889,17413,38,64256,65728,6,6,4,1460,462812,1,16778208,2330000,33580,30684,65700,0,11584,0,2762137363,63
o,1734976672.617514,172.16.3.2,26396,172.16.1.2,5101,60889,17413,38,64256,65728,6,6,4,1460,462812,1,16778208,2330000,33580,30684,65700,0,13032,0,2762137363,63
i,1734976672.618295,172.16.3.2,26396,172.16.1.2,5101,60889,17413,38,64256,65728,6,6,4,1460,462812,1,16778208,2330000,41772,30684,65700,0,17376,0,2762137363,63
o,1734976672.618409,172.16.3.2,26396,172.16.1.2,5101,60889,20309,38,64256,65728,6,6,4,1460,426250,1,16778208,2170000,41772,27788,65700,0,14480,0,2762137363,63
i,1734976672.619039,172.16.3.2,26396,172.16.1.2,5101,60889,20309,38,64256,65728,6,6,4,1460,426250,1,16778208,2170000,41772,27788,65700,0,20272,0,2762137363,63
o,1734976672.619112,172.16.3.2,26396,172.16.1.2,5101,60889,23205,38,61376,65728,6,6,4,1460,394375,1,16778208,2000000,41772,24892,65700,0,17376,0,2762137363,63
i,1734976672.619619,172.16.3.2,26396,172.16.1.2,5101,60889,23205,38,61376,65728,6,6,4,1460,394375,1,16778208,2000000,41772,24892,65700,0,23168,0,2762137363,63
o,1734976672.619674,172.16.3.2,26396,172.16.1.2,5101,60889,26101,38,58496,65728,6,6,4,1460,366562,1,16778208,1850000,41772,21996,65700,0,20272,0,2762137363,63
i,1734976672.620092,172.16.3.2,26396,172.16.1.2,5101,60889,26101,38,58496,65728,6,6,4,1460,366562,1,16778208,1850000,41772,21996,65700,0,21996,0,2762137363,63
i,1734976672.620230,172.16.3.2,12260,172.16.1.2,5102,60889,14517,38,65728,65728,6,6,4,1460,512187,1,16778208,2420000,33580,33580,65700,0,14480,0,3215355492,63
o,1734976672.620311,172.16.3.2,12260,172.16.1.2,5102,60889,17413,38,62848,65728,6,6,4,1460,462187,1,16778208,2340000,33580,30684,65700,0,11584,0,3215355492,63
o,1734976672.621346,172.16.3.2,12260,172.16.1.2,5102,60889,17413,38,62848,65728,6,6,4,1460,462187,1,16778208,2340000,33580,30684,65700,0,13032,0,3215355492,63
o,1734976672.624049,172.16.3.2,26396,172.16.1.2,5101,60889,28997,38,62848,65728,6,6,4,1460,342187,1,16778208,1700000,49964,41772,65700,0,19100,0,2762137363,63
i,1734976672.629185,172.16.3.2,12260,172.16.1.2,5102,60889,17413,38,62848,65728,6,6,4,1460,462187,1,16778208,2340000,41772,41772,65700,0,17376,0,3215355492,63
o,1734976672.629271,172.16.3.2,12260,172.16.1.2,5102,60889,20309,38,64256,65728,6,6,4,1460,418437,1,16778208,2230000,41772,38876,65700,0,14480,0,3215355492,63
i,1734976672.639647,172.16.3.2,12260,172.16.1.2,5102,60889,20309,38,64256,65728,6,6,4,1460,418437,1,16778208,2230000,49964,49964,65700,0,20272,0,3215355492,63
o,1734976672.639747,172.16.3.2,12260,172.16.1.2,5102,60889,23205,38,61376,65728,6,6,4,1460,382500,1,16778208,2080000,49964,47068,65700,0,17376,0,3215355492,63
i,1734976672.640397,172.16.3.2,12260,172.16.1.2,5102,60889,23205,38,61376,65728,6,6,4,1460,382500,1,16778208,2080000,49964,47068,65700,0,23168,0,3215355492,63
o,1734976672.640430,172.16.3.2,12260,172.16.1.2,5102,60889,26101,38,58496,65728,6,6,4,1460,350937,1,16778208,1930000,58156,44172,65700,0,20272,0,3215355492,63
i,1734976672.649535,172.16.3.2,12260,172.16.1.2,5102,60889,26101,38,58496,65728,6,6,4,1460,350937,1,16778208,1930000,58156,58156,65700,0,26064,0,3215355492,63
o,1734976672.649619,172.16.3.2,12260,172.16.1.2,5102,60889,28997,38,64256,65728,6,6,4,1460,323437,1,16778208,1770000,58156,55260,65700,0,23168,0,3215355492,63
i,1734976672.776236,172.16.3.2,26396,172.16.1.2,5101,60889,28997,38,62848,65728,6,6,4,1460,342187,1,16778208,1700000,58156,58156,65700,0,27788,0,2762137363,63
o,1734976672.776368,172.16.3.2,26396,172.16.1.2,5101,60889,31893,38,62848,65728,6,6,4,1460,319687,1,16778208,1560000,66348,55260,65700,0,24892,0,2762137363,63
o,1734976672.777364,172.16.3.2,26396,172.16.1.2,5101,60889,31893,38,62848,65728,6,6,4,1460,319687,1,16778208,1560000,66348,55260,65700,0,26340,0,2762137363,63
i,1734976672.777931,172.16.3.2,26396,172.16.1.2,5101,60889,31893,38,62848,65728,6,6,4,1460,319687,1,16778208,1560000,66348,55260,65700,0,30684,0,2762137363,63
o,1734976672.778005,172.16.3.2,26396,172.16.1.2,5101,60889,34789,38,62848,65728,6,6,4,1460,300000,1,16778208,1440000,66348,52364,65700,0,27788,0,2762137363,63
i,1734976672.781685,172.16.3.2,26396,172.16.1.2,5101,60889,34789,38,62848,65728,6,6,4,1460,300000,1,16778208,1440000,74540,74540,65700,0,33580,0,2762137363,63
o,1734976672.781777,172.16.3.2,26396,172.16.1.2,5101,60889,37685,38,59968,65728,6,6,4,1460,282500,1,16778208,1330000,74540,71644,65700,0,30684,0,2762137363,63
i,1734976672.782598,172.16.3.2,26396,172.16.1.2,5101,60889,37685,38,59968,65728,6,6,4,1460,282500,1,16778208,1330000,82732,71644,65700,0,36476,0,2762137363,63
o,1734976672.782683,172.16.3.2,26396,172.16.1.2,5101,60889,40581,38,57088,65728,6,6,4,1460,267187,1,16778208,1220000,82732,68748,65700,0,33580,0,2762137363,63
i,1734976672.783845,172.16.3.2,26396,172.16.1.2,5101,60889,40581,38,57088,65728,6,6,4,1460,267187,1,16778208,1220000,82732,68748,65700,0,39372,0,2762137363,63
o,1734976672.783935,172.16.3.2,26396,172.16.1.2,5101,60889,43477,38,54208,65728,6,6,4,1460,254062,1,16778208,1120000,82732,65852,65700,0,36476,0,2762137363,63
i,1734976672.784521,172.16.3.2,26396,172.16.1.2,5101,60889,43477,38,54208,65728,6,6,4,1460,254062,1,16778208,1120000,82732,65852,65700,0,42268,0,2762137363,63
o,1734976672.784597,172.16.3.2,26396,172.16.1.2,5101,60889,46373,38,64256,65728,6,6,4,1460,242500,1,16778208,1040000,82732,62956,65700,0,39372,0,2762137363,63
i,1734976672.785865,172.16.3.2,26396,172.16.1.2,5101,60889,46373,38,64256,65728,6,6,4,1460,242500,1,16778208,1040000,82732,62956,65700,0,45164,0,2762137363,63
o,1734976672.785942,172.16.3.2,26396,172.16.1.2,5101,60889,48097,38,62592,65728,6,6,4,1460,232187,1,16778208,960000,82732,61232,65700,0,43440,0,2762137363,63
i,1734976672.786601,172.16.3.2,12260,172.16.1.2,5102,60889,28997,38,64256,65728,6,6,4,1460,323437,1,16778208,1770000,66348,66348,65700,0,28960,0,3215355492,63
o,1734976672.786699,172.16.3.2,12260,172.16.1.2,5102,60889,31893,38,64256,65728,6,6,4,1460,303125,1,16778208,1600000,66348,63452,65700,0,26064,0,3215355492,63
o,1734976672.787179,172.16.3.2,12260,172.16.1.2,5102,60889,31893,38,64256,65728,6,6,4,1460,303125,1,16778208,1600000,66348,63452,65700,0,27512,0,3215355492,63
i,1734976672.787943,172.16.3.2,12260,172.16.1.2,5102,60889,31893,38,64256,65728,6,6,4,1460,303125,1,16778208,1600000,74540,63452,65700,0,31856,0,3215355492,63
o,1734976672.788029,172.16.3.2,12260,172.16.1.2,5102,60889,34789,38,62848,65728,6,6,4,1460,285312,1,16778208,1450000,74540,60556,65700,0,28960,0,3215355492,63
i,1734976672.788679,172.16.3.2,26396,172.16.1.2,5101,60889,48097,38,62592,65728,6,6,4,1460,232187,1,16778208,960000,82732,61232,65700,0,47784,0,2762137363,63
o,1734976672.788754,172.16.3.2,26396,172.16.1.2,5101,60889,50993,38,62848,65728,6,6,4,1460,223437,1,16778208,890000,82732,58336,65700,0,44888,0,2762137363,63
i,1734976672.799172,172.16.3.2,26396,172.16.1.2,5101,60889,50993,38,62848,65728,6,6,4,1460,223437,1,16778208,890000,82732,82732,65700,0,50680,0,2762137363,63
o,1734976672.799318,172.16.3.2,26396,172.16.1.2,5101,60889,53889,38,62848,65728,6,6,4,1460,216875,1,16778208,820000,82732,79836,65700,0,47784,0,2762137363,63
i,1734976672.809507,172.16.3.2,26396,172.16.1.2,5101,60889,53889,38,62848,65728,6,6,4,1460,216875,1,16778208,820000,82732,82732,65700,0,53576,0,2762137363,63
o,1734976672.809686,172.16.3.2,26396,172.16.1.2,5101,60889,56785,38,59968,65728,6,6,4,1460,212500,1,16778208,750000,82732,79836,65700,0,50680,0,2762137363,63
i,1734976672.810530,172.16.3.2,12260,172.16.1.2,5102,60889,34789,38,62848,65728,6,6,4,1460,285312,1,16778208,1450000,74540,74540,65700,0,34752,0,3215355492,63
o,1734976672.810660,172.16.3.2,12260,172.16.1.2,5102,60889,37685,38,62848,65728,6,6,4,1460,272187,1,16778208,1300000,74540,71644,65700,0,31856,0,3215355492,63
i,1734976672.811440,172.16.3.2,12260,172.16.1.2,5102,60889,37685,38,62848,65728,6,6,4,1460,272187,1,16778208,1300000,82732,71644,65700,0,37648,0,3215355492,63
o,1734976672.811855,172.16.3.2,12260,172.16.1.2,5102,60889,40581,38,59968,65728,6,6,4,1460,262187,1,16778208,1160000,82732,68748,65700,0,34752,0,3215355492,63
i,1734976672.849729,172.16.3.2,12260,172.16.1.2,5102,60889,40581,38,59968,65728,6,6,4,1460,262187,1,16778208,1160000,82732,82732,65700,0,40544,0,3215355492,63
o,1734976672.849928,172.16.3.2,12260,172.16.1.2,5102,60889,43477,38,64256,65728,6,6,4,1460,255937,1,16778208,1030000,82732,79836,65700,0,37648,0,3215355492,63
i,1734976672.850478,172.16.3.2,12260,172.16.1.2,5102,60889,43477,38,64256,65728,6,6,4,1460,255937,1,16778208,1030000,82732,79836,65700,0,43440,0,3215355492,63
o,1734976672.850554,172.16.3.2,12260,172.16.1.2,5102,60889,46373,38,61376,65728,6,6,4,1460,250312,1,16778208,930000,82732,76940,65700,0,40544,0,3215355492,63
i,1734976672.851986,172.16.3.2,12260,172.16.1.2,5102,60889,46373,38,61376,65728,6,6,4,1460,250312,1,16778208,930000,82732,76940,65700,0,46336,0,3215355492,63
o,1734976672.852067,172.16.3.2,12260,172.16.1.2,5102,60889,49269,38,62848,65728,6,6,4,1460,246562,1,16778208,830000,82732,74044,65700,0,43440,0,3215355492,63
i,1734976672.852645,172.16.3.2,12260,172.16.1.2,5102,60889,49269,38,62848,65728,6,6,4,1460,246562,1,16778208,830000,82732,74044,65700,0,49232,0,3215355492,63
o,1734976672.852720,172.16.3.2,12260,172.16.1.2,5102,60889,52165,38,64256,65728,6,6,4,1460,243437,1,16778208,760000,82732,71148,65700,0,46336,0,3215355492,63
i,1734976672.853332,172.16.3.2,12260,172.16.1.2,5102,60889,52165,38,64256,65728,6,6,4,1460,243437,1,16778208,760000,82732,71148,65700,0,52128,0,3215355492,63
o,1734976672.853407,172.16.3.2,12260,172.16.1.2,5102,60889,55061,38,62848,65728,6,6,4,1460,239375,1,16778208,710000,82732,68252,65700,0,49232,0,3215355492,63
i,1734976672.853950,172.16.3.2,12260,172.16.1.2,5102,60889,55061,38,62848,65728,6,6,4,1460,239375,1,16778208,710000,82732,68252,65700,0,55024,0,3215355492,63
o,1734976672.854025,172.16.3.2,12260,172.16.1.2,5102,60889,57957,38,59968,65728,6,6,4,1460,235937,1,16778208,660000,82732,65356,65700,0,52128,0,3215355492,63
i,1734976673.053940,172.16.3.2,26396,172.16.1.2,5101,60889,56785,38,59968,65728,6,6,4,1460,212500,1,16778208,750000,82732,82732,65700,0,56472,0,2762137363,63
o,1734976673.054035,172.16.3.2,26396,172.16.1.2,5101,60889,59681,38,95680,65728,6,6,4,1460,219687,1,16778208,730000,90924,79836,65700,0,53576,0,2762137363,63
o,1734976673.054870,172.16.3.2,26396,172.16.1.2,5101,60889,59681,38,95680,65728,6,6,4,1460,219687,1,16778208,730000,99116,79836,65700,0,55024,0,2762137363,63
i,1734976673.055083,172.16.3.2,26396,172.16.1.2,5101,60889,59681,38,95680,65728,6,6,4,1460,219687,1,16778208,730000,99116,79836,65700,0,59368,0,2762137363,63
o,1734976673.055083,172.16.3.2,26396,172.16.1.2,5101,60889,62577,38,92800,65728,6,6,4,1460,226250,1,16778208,710000,99116,76940,65700,0,56472,0,2762137363,63
i,1734976673.056100,172.16.3.2,26396,172.16.1.2,5101,60889,62577,38,92800,65728,6,6,4,1460,226250,1,16778208,710000,99116,76940,65700,0,62264,0,2762137363,63
o,1734976673.056175,172.16.3.2,26396,172.16.1.2,5101,60889,62577,38,95680,65728,6,6,4,1460,231875,1,16778208,690000,99116,74044,65700,0,59368,0,2762137363,63
i,1734976673.057419,172.16.3.2,26396,172.16.1.2,5101,60889,62577,38,95680,65728,6,6,4,1460,231875,1,16778208,690000,99116,74044,65700,0,62264,0,2762137363,63
o,1734976673.057497,172.16.3.2,26396,172.16.1.2,5101,60889,62577,38,92800,65728,6,6,4,1460,236875,1,16778208,670000,99116,71148,65700,0,59368,0,2762137363,63
i,1734976673.058121,172.16.3.2,26396,172.16.1.2,5101,60889,62577,38,92800,65728,6,6,4,1460,236875,1,16778208,670000,99116,71148,65700,0,62264,0,2762137363,63
o,1734976673.058197,172.16.3.2,26396,172.16.1.2,5101,60889,62577,38,89920,65728,6,6,4,1460,241250,1,16778208,650000,99116,68252,65700,0,59368,0,2762137363,63
i,1734976673.059045,172.16.3.2,26396,172.16.1.2,5101,60889,62577,38,89920,65728,6,6,4,1460,241250,1,16778208,650000,99116,68252,65700,0,62264,0,2762137363,63
o,1734976673.059118,172.16.3.2,26396,172.16.1.2,5101,60889,62577,38,87040,65728,6,6,4,1460,245000,1,16778208,630000,99116,65356,65700,0,59368,0,2762137363,63
i,1734976673.059651,172.16.3.2,26396,172.16.1.2,5101,60889,62577,38,87040,65728,6,6,4,1460,245000,1,16778208,630000,99116,65356,65700,0,62264,0,2762137363,63
o,1734976673.059725,172.16.3.2,26396,172.16.1.2,5101,60889,62577,38,84160,65728,6,6,4,1460,248125,1,16778208,610000,99116,62460,65700,0,59368,0,2762137363,63
i,1734976673.060284,172.16.3.2,26396,172.16.1.2,5101,60889,62577,38,84160,65728,6,6,4,1460,248125,1,16778208,610000,99116,62460,65700,0,62460,0,2762137363,63
i,1734976673.060410,172.16.3.2,26396,172.16.1.2,5101,60889,62577,38,81280,65728,6,6,4,1460,250937,1,16778208,600000,99116,59564,65700,0,59564,0,2762137363,63
i,1734976673.061143,172.16.3.2,26396,172.16.1.2,5101,60889,62577,38,95680,65728,6,6,4,1460,253437,1,16778208,580000,99116,56668,65700,0,56668,0,2762137363,63
i,1734976673.061931,172.16.3.2,26396,172.16.1.2,5101,60889,62577,38,92800,65728,6,6,4,1460,255625,1,16778208,570000,99116,53772,65700,0,53772,0,2762137363,63
i,1734976673.062198,172.16.3.2,26396,172.16.1.2,5101,60889,62577,38,95680,65728,6,6,4,1460,258750,1,16778208,570000,99116,50876,65700,0,50876,0,2762137363,63
o,1734976673.062710,172.16.3.2,26396,172.16.1.2,5101,60889,62577,38,92800,65728,6,6,4,1460,261562,1,16778208,570000,99116,54052,65700,0,47980,0,2762137363,63
i,1734976673.063823,172.16.3.2,26396,172.16.1.2,5101,60889,62577,38,92800,65728,6,6,4,1460,261562,1,16778208,570000,99116,54052,65700,0,54052,0,2762137363,63
i,1734976673.063959,172.16.3.2,12260,172.16.1.2,5102,60889,57957,38,59968,65728,6,6,4,1460,235937,1,16778208,660000,82732,82732,65700,0,57920,0,3215355492,63
o,1734976673.064039,172.16.3.2,12260,172.16.1.2,5102,60889,60853,38,95680,65728,6,6,4,1460,241562,1,16778208,660000,90924,79836,65700,0,55024,0,3215355492,63
o,1734976673.064553,172.16.3.2,12260,172.16.1.2,5102,60889,60853,38,95680,65728,6,6,4,1460,241562,1,16778208,660000,99116,79836,65700,0,56472,0,3215355492,63
o,1734976673.065301,172.16.3.2,26396,172.16.1.2,5101,60889,62577,38,95680,65728,6,6,4,1460,264062,1,16778208,560000,107308,99116,65700,0,51156,0,2762137363,63
i,1734976673.066583,172.16.3.2,12260,172.16.1.2,5102,60889,60853,38,95680,65728,6,6,4,1460,241562,1,16778208,660000,123692,123692,65700,0,60816,0,3215355492,63
o,1734976673.066821,172.16.3.2,12260,172.16.1.2,5102,60889,63749,38,92800,65728,6,6,4,1460,246562,1,16778208,650000,123692,120796,65700,0,57920,0,3215355492,63
i,1734976673.089533,172.16.3.2,12260,172.16.1.2,5102,60889,63749,38,92800,65728,6,6,4,1460,246562,1,16778208,650000,123692,123692,65700,0,63712,0,3215355492,63
o,1734976673.089638,172.16.3.2,12260,172.16.1.2,5102,60889,63749,38,98560,65728,6,6,4,1460,253437,1,16778208,660000,123692,122244,65700,0,62264,0,3215355492,63
i,1734976673.090251,172.16.3.2,26396,172.16.1.2,5101,60889,62577,38,95680,65728,6,6,4,1460,264062,1,16778208,560000,123692,123692,65700,0,61292,0,2762137363,63
o,1734976673.090329,172.16.3.2,26396,172.16.1.2,5101,60889,62577,38,98560,65728,6,6,4,1460,268750,1,16778208,580000,123692,122244,65700,0,59844,0,2762137363,63
i,1734976673.138037,172.16.3.2,12260,172.16.1.2,5102,60889,63749,38,98560,65728,6,6,4,1460,253437,1,16778208,660000,123692,122244,65700,0,63712,0,3215355492,63
o,1734976673.138199,172.16.3.2,12260,172.16.1.2,5102,60889,63749,38,95680,65728,6,6,4,1460,265625,1,16778208,720000,123692,119348,65700,0,60816,0,3215355492,63
i,1734976673.138649,172.16.3.2,26396,172.16.1.2,5101,60889,62577,38,98560,65728,6,6,4,1460,268750,1,16778208,580000,123692,122244,65700,0,61292,0,2762137363,63
o,1734976673.138729,172.16.3.2,26396,172.16.1.2,5101,60889,62577,38,95680,65728,6,6,4,1460,279062,1,16778208,640000,123692,119348,65700,0,58396,0,2762137363,63
i,1734976673.139763,172.16.3.2,26396,172.16.1.2,5101,60889,62577,38,95680,65728,6,6,4,1460,279062,1,16778208,640000,123692,119348,65700,0,61292,0,2762137363,63
o,1734976673.139843,172.16.3.2,26396,172.16.1.2,5101,60889,62577,38,92800,65728,6,6,4,1460,288125,1,16778208,680000,123692,116452,65700,0,58396,0,2762137363,63
i,1734976673.140530,172.16.3.2,26396,172.16.1.2,5101,60889,62577,38,92800,65728,6,6,4,1460,288125,1,16778208,680000,123692,116452,65700,0,61292,0,2762137363,63
o,1734976673.140619,172.16.3.2,26396,172.16.1.2,5101,60889,62577,38,89920,65728,6,6,4,1460,294687,1,16778208,690000,123692,113556,65700,0,58396,0,2762137363,63
i,1734976673.140857,172.16.3.2,26396,172.16.1.2,5101,60889,62577,38,89920,65728,6,6,4,1460,294687,1,16778208,690000,123692,113556,65700,0,61292,0,2762137363,63
o,1734976673.140900,172.16.3.2,26396,172.16.1.2,5101,60889,62577,38,87040,65728,6,6,4,1460,300625,1,16778208,700000,123692,110660,65700,0,58396,0,2762137363,63
i,1734976673.141979,172.16.3.2,26396,172.16.1.2,5101,60889,62577,38,87040,65728,6,6,4,1460,300625,1,16778208,700000,123692,110660,65700,0,61292,0,2762137363,63
o,1734976673.142058,172.16.3.2,26396,172.16.1.2,5101,60889,62577,38,84160,65728,6,6,4,1460,304375,1,16778208,680000,123692,107764,65700,0,58396,0,2762137363,63
i,1734976673.142639,172.16.3.2,26396,172.16.1.2,5101,60889,62577,38,84160,65728,6,6,4,1460,304375,1,16778208,680000,123692,107764,65700,0,61292,0,2762137363,63
o,1734976673.142714,172.16.3.2,26396,172.16.1.2,5101,60889,62577,38,97152,65728,6,6,4,1460,307812,1,16778208,670000,123692,104868,65700,0,58396,0,2762137363,63
i,1734976673.149280,172.16.3.2,12260,172.16.1.2,5102,60889,63749,38,95680,65728,6,6,4,1460,265625,1,16778208,720000,123692,123692,65700,0,63712,0,3215355492,63
o,1734976673.149320,172.16.3.2,12260,172.16.1.2,5102,60889,63749,38,97152,65728,6,6,4,1460,277500,1,16778208,760000,123692,120796,65700,0,60816,0,3215355492,63
i,1734976673.149543,172.16.3.2,12260,172.16.1.2,5102,60889,63749,38,97152,65728,6,6,4,1460,277500,1,16778208,760000,123692,120796,65700,0,63712,0,3215355492,63
o,1734976673.149573,172.16.3.2,12260,172.16.1.2,5102,60889,63749,38,94272,65728,6,6,4,1460,284062,1,16778208,750000,123692,117900,65700,0,60816,0,3215355492,63
i,1734976673.158858,172.16.3.2,12260,172.16.1.2,5102,60889,63749,38,94272,65728,6,6,4,1460,284062,1,16778208,750000,123692,123692,65700,0,63712,0,3215355492,63
o,1734976673.158949,172.16.3.2,12260,172.16.1.2,5102,60889,63749,38,91392,65728,6,6,4,1460,291250,1,16778208,750000,123692,120796,65700,0,60816,0,3215355492,63
i,1734976673.160046,172.16.3.2,12260,172.16.1.2,5102,60889,63749,38,91392,65728,6,6,4,1460,291250,1,16778208,750000,123692,120796,65700,0,63712,0,3215355492,63
o,1734976673.160134,172.16.3.2,12260,172.16.1.2,5102,60889,63749,38,95680,65728,6,6,4,1460,297500,1,16778208,740000,123692,117900,65700,0,60816,0,3215355492,63
i,1734976673.165872,172.16.3.2,12260,172.16.1.2,5102,60889,63749,38,95680,65728,6,6,4,1460,297500,1,16778208,740000,123692,123692,65700,0,63712,0,3215355492,63
o,1734976673.165968,172.16.3.2,12260,172.16.1.2,5102,60889,63749,38,97152,65728,6,6,4,1460,304062,1,16778208,740000,123692,120796,65700,0,60816,0,3215355492,63
i,1734976673.166564,172.16.3.2,12260,172.16.1.2,5102,60889,63749,38,97152,65728,6,6,4,1460,304062,1,16778208,740000,123692,120796,65700,0,63712,0,3215355492,63
o,1734976673.166648,172.16.3.2,12260,172.16.1.2,5102,60889,63749,38,94272,65728,6,6,4,1460,306250,1,16778208,700000,123692,117900,65700,0,60816,0,3215355492,63
i,1734976673.167272,172.16.3.2,12260,172.16.1.2,5102,60889,63749,38,94272,65728,6,6,4,1460,306250,1,16778208,700000,123692,117900,65700,0,63712,0,3215355492,63
o,1734976673.167353,172.16.3.2,12260,172.16.1.2,5102,60889,63749,38,91392,65728,6,6,4,1460,308125,1,16778208,670000,123692,115004,65700,0,60816,0,3215355492,63
i,1734976673.167970,172.16.3.2,12260,172.16.1.2,5102,60889,63749,38,91392,65728,6,6,4,1460,308125,1,16778208,670000,123692,115004,65700,0,63712,0,3215355492,63
o,1734976673.168044,172.16.3.2,12260,172.16.1.2,5102,60889,63749,38,95680,65728,6,6,4,1460,309687,1,16778208,640000,123692,112108,65700,0,60816,0,3215355492,63
i,1734976673.168732,172.16.3.2,12260,172.16.1.2,5102,60889,63749,38,95680,65728,6,6,4,1460,309687,1,16778208,640000,123692,112108,65700,0,63712,0,3215355492,63
o,1734976673.168806,172.16.3.2,12260,172.16.1.2,5102,60889,63749,38,92800,65728,6,6,4,1460,311250,1,16778208,620000,123692,109212,65700,0,60816,0,3215355492,63
i,1734976673.173078,172.16.3.2,12260,172.16.1.2,5102,60889,63749,38,92800,65728,6,6,4,1460,311250,1,16778208,620000,123692,123692,65700,0,63712,0,3215355492,63
o,1734976673.173166,172.16.3.2,12260,172.16.1.2,5102,60889,63749,38,97152,65728,6,6,4,1460,312500,1,16778208,610000,123692,120796,65700,0,60816,0,3215355492,63
i,1734976673.173822,172.16.3.2,12260,172.16.1.2,5102,60889,63749,38,97152,65728,6,6,4,1460,312500,1,16778208,610000,123692,120796,65700,0,63712,0,3215355492,63
o,1734976673.173851,172.16.3.2,12260,172.16.1.2,5102,60889,63749,38,94272,65728,6,6,4,1460,313437,1,16778208,590000,123692,117900,65700,0,60816,0,3215355492,63
i,1734976673.174193,172.16.3.2,12260,172.16.1.2,5102,60889,63749,38,94272,65728,6,6,4,1460,313437,1,16778208,590000,123692,117900,65700,0,63712,0,3215355492,63
o,1734976673.174270,172.16.3.2,12260,172.16.1.2,5102,60889,63749,38,91392,65728,6,6,4,1460,314375,1,16778208,580000,123692,115004,65700,0,60816,0,3215355492,63
i,1734976673.397205,172.16.3.2,12260,172.16.1.2,5102,60889,63749,38,91392,65728,6,6,4,1460,314375,1,16778208,580000,123692,123692,65700,0,63712,0,3215355492,63
o,1734976673.397404,172.16.3.2,12260,172.16.1.2,5102,60889,63749,38,146432,65728,6,6,4,1460,342812,1,16778208,820000,131884,120796,65700,0,60816,0,3215355492,63
i,1734976673.401989,172.16.3.2,12260,172.16.1.2,5102,60889,63749,38,146432,65728,6,6,4,1460,342812,1,16778208,820000,140076,140076,65700,0,63712,0,3215355492,63
o,1734976673.402080,172.16.3.2,12260,172.16.1.2,5102,60889,63749,38,144960,65728,6,6,4,1460,367500,1,16778208,970000,140076,137180,65700,0,60816,0,3215355492,63
i,1734976673.402625,172.16.3.2,12260,172.16.1.2,5102,60889,63749,38,144960,65728,6,6,4,1460,367500,1,16778208,970000,140076,137180,65700,0,63712,0,3215355492,63
o,1734976673.402700,172.16.3.2,12260,172.16.1.2,5102,60889,63749,38,142080,65728,6,6,4,1460,389062,1,16778208,1060000,140076,134284,65700,0,60816,0,3215355492,63
i,1734976673.403758,172.16.3.2,12260,172.16.1.2,5102,60889,63749,38,142080,65728,6,6,4,1460,389062,1,16778208,1060000,140076,134284,65700,0,63712,0,3215355492,63
o,1734976673.403856,172.16.3.2,12260,172.16.1.2,5102,60889,63749,38,139200,65728,6,6,4,1460,408125,1,16778208,1120000,140076,131388,65700,0,60816,0,3215355492,63
i,1734976673.406099,172.16.3.2,12260,172.16.1.2,5102,60889,63749,38,139200,65728,6,6,4,1460,408125,1,16778208,1120000,140076,140076,65700,0,63712,0,3215355492,63
o,1734976673.406362,172.16.3.2,12260,172.16.1.2,5102,60889,63749,38,147840,65728,6,6,4,1460,424687,1,16778208,1140000,140076,138628,65700,0,62264,0,3215355492,63
i,1734976673.499458,172.16.3.2,26396,172.16.1.2,5101,60889,62577,38,97152,65728,6,6,4,1460,307812,1,16778208,670000,123692,123692,65700,0,61292,0,2762137363,63
o,1734976673.499746,172.16.3.2,26396,172.16.1.2,5101,60889,62577,38,147840,65728,6,6,4,1460,324375,1,16778208,770000,131884,122244,65700,0,59844,0,2762137363,63
i,1734976673.522983,172.16.3.2,26396,172.16.1.2,5101,60889,62577,38,147840,65728,6,6,4,1460,324375,1,16778208,770000,140076,140076,65700,0,61292,0,2762137363,63
o,1734976673.523156,172.16.3.2,26396,172.16.1.2,5101,60889,62577,38,144960,65728,6,6,4,1460,342812,1,16778208,880000,140076,137180,65700,0,58396,0,2762137363,63
i,1734976673.523733,172.16.3.2,26396,172.16.1.2,5101,60889,62577,38,144960,65728,6,6,4,1460,342812,1,16778208,880000,140076,137180,65700,0,61292,0,2762137363,63
o,1734976673.523808,172.16.3.2,26396,172.16.1.2,5101,60889,62577,38,144960,65728,6,6,4,1460,358750,1,16778208,940000,140076,134284,65700,0,58396,0,2762137363,63
i,1734976673.524586,172.16.3.2,26396,172.16.1.2,5101,60889,62577,38,144960,65728,6,6,4,1460,358750,1,16778208,940000,140076,134284,65700,0,61292,0,2762137363,63
o,1734976673.524662,172.16.3.2,26396,172.16.1.2,5101,60889,62577,38,142080,65728,6,6,4,1460,372812,1,16778208,970000,140076,131388,65700,0,58396,0,2762137363,63
i,1734976673.525682,172.16.3.2,26396,172.16.1.2,5101,60889,62577,38,142080,65728,6,6,4,1460,372812,1,16778208,970000,140076,131388,65700,0,61292,0,2762137363,63
o,1734976673.525755,172.16.3.2,26396,172.16.1.2,5101,60889,62577,38,146432,65728,6,6,4,1460,385000,1,16778208,980000,140076,128492,65700,0,58396,0,2762137363,63
i,1734976673.526509,172.16.3.2,26396,172.16.1.2,5101,60889,62577,38,146432,65728,6,6,4,1460,385000,1,16778208,980000,140076,128492,65700,0,61292,0,2762137363,63
o,1734976673.526586,172.16.3.2,26396,172.16.1.2,5101,60889,62577,38,143552,65728,6,6,4,1460,395625,1,16778208,980000,140076,125596,65700,0,58396,0,2762137363,63
i,1734976673.531686,172.16.3.2,26396,172.16.1.2,5101,60889,62577,38,143552,65728,6,6,4,1460,395625,1,16778208,980000,140076,140076,65700,0,61292,0,2762137363,63
o,1734976673.531737,172.16.3.2,26396,172.16.1.2,5101,60889,62577,38,144960,65728,6,6,4,1460,406250,1,16778208,980000,140076,137180,65700,0,58396,0,2762137363,63
i,1734976673.532053,172.16.3.2,26396,172.16.1.2,5101,60889,62577,38,144960,65728,6,6,4,1460,406250,1,16778208,980000,140076,137180,65700,0,61292,0,2762137363,63
o,1734976673.532129,172.16.3.2,26396,172.16.1.2,5101,60889,62577,38,142080,65728,6,6,4,1460,415625,1,16778208,970000,140076,134284,65700,0,58396,0,2762137363,63
i,1734976673.533182,172.16.3.2,26396,172.16.1.2,5101,60889,62577,38,142080,65728,6,6,4,1460,415625,1,16778208,970000,140076,134284,65700,0,61292,0,2762137363,63
o,1734976673.533258,172.16.3.2,26396,172.16.1.2,5101,60889,62577,38,144960,65728,6,6,4,1460,423750,1,16778208,950000,140076,131388,65700,0,58396,0,2762137363,63
i,1734976673.533889,172.16.3.2,26396,172.16.1.2,5101,60889,62577,38,144960,65728,6,6,4,1460,423750,1,16778208,950000,140076,131388,65700,0,61292,0,2762137363,63
o,1734976673.533963,172.16.3.2,26396,172.16.1.2,5101,60889,62577,38,146240,65728,6,6,4,1460,430937,1,16778208,940000,140076,129744,65700,0,59648,0,2762137363,63
i,1734976673.534615,172.16.3.2,26396,172.16.1.2,5101,60889,62577,38,146240,65728,6,6,4,1460,430937,1,16778208,940000,140076,129744,65700,0,62544,0,2762137363,63
o,1734976673.534689,172.16.3.2,26396,172.16.1.2,5101,60889,62577,38,147840,65728,6,6,4,1460,435937,1,16778208,900000,140076,128296,65700,0,61096,0,2762137363,63
i,1734976673.535318,172.16.3.2,26396,172.16.1.2,5101,60889,62577,38,147840,65728,6,6,4,1460,435937,1,16778208,900000,140076,128296,65700,0,62544,0,2762137363,63
o,1734976673.535392,172.16.3.2,26396,172.16.1.2,5101,60889,62577,38,144960,65728,6,6,4,1460,440312,1,16778208,880000,140076,125400,65700,0,59648,0,2762137363,63
i,1734976673.536261,172.16.3.2,26396,172.16.1.2,5101,60889,62577,38,144960,65728,6,6,4,1460,440312,1,16778208,880000,140076,125400,65700,0,62544,0,2762137363,63
o,1734976673.536337,172.16.3.2,26396,172.16.1.2,5101,60889,62577,38,147584,65728,6,6,4,1460,444062,1,16778208,850000,140076,123672,65700,0,60816,0,2762137363,63
i,1734976673.537894,172.16.3.2,12260,172.16.1.2,5102,60889,63749,38,147840,65728,6,6,4,1460,424687,1,16778208,1140000,140076,138628,65700,0,63712,0,3215355492,63
o,1734976673.537977,172.16.3.2,12260,172.16.1.2,5102,60889,63749,38,144960,65728,6,6,4,1460,430625,1,16778208,1060000,140076,135732,65700,0,60816,0,3215355492,63
o,1734976673.538462,172.16.3.2,12260,172.16.1.2,5102,60889,63749,38,144960,65728,6,6,4,1460,430625,1,16778208,1060000,140076,135732,65700,0,62264,0,3215355492,63
i,1734976673.549415,172.16.3.2,12260,172.16.1.2,5102,60889,63749,38,144960,65728,6,6,4,1460,430625,1,16778208,1060000,140076,140076,65700,0,63712,0,3215355492,63
o,1734976673.549650,172.16.3.2,12260,172.16.1.2,5102,60889,63749,38,146432,65728,6,6,4,1460,436875,1,16778208,1010000,140076,137180,65700,0,60816,0,3215355492,63
i,1734976673.564710,172.16.3.2,26396,172.16.1.2,5101,60889,62577,38,147584,65728,6,6,4,1460,444062,1,16778208,850000,148268,148268,65700,0,62264,0,2762137363,63
o,1734976673.564947,172.16.3.2,26396,172.16.1.2,5101,60889,62577,38,144960,65728,6,6,4,1460,451250,1,16778208,860000,148268,145372,65700,0,59368,0,2762137363,63
i,1734976673.565572,172.16.3.2,26396,172.16.1.2,5101,60889,62577,38,144960,65728,6,6,4,1460,451250,1,16778208,860000,148268,145372,65700,0,62264,0,2762137363,63
o,1734976673.565695,172.16.3.2,26396,172.16.1.2,5101,60889,62577,38,142080,65728,6,6,4,1460,457500,1,16778208,870000,148268,142476,65700,0,59368,0,2762137363,63
i,1734976673.566398,172.16.3.2,26396,172.16.1.2,5101,60889,62577,38,142080,65728,6,6,4,1460,457500,1,16778208,870000,148268,142476,65700,0,62264,0,2762137363,63
o,1734976673.566471,172.16.3.2,26396,172.16.1.2,5101,60889,62577,38,139200,65728,6,6,4,1460,462812,1,16778208,860000,148268,139580,65700,0,59368,0,2762137363,63
i,1734976673.567093,172.16.3.2,12260,172.16.1.2,5102,60889,63749,38,146432,65728,6,6,4,1460,436875,1,16778208,1010000,140076,140076,65700,0,63712,0,3215355492,63
o,1734976673.567169,172.16.3.2,12260,172.16.1.2,5102,60889,63749,38,144960,65728,6,6,4,1460,445000,1,16778208,990000,140076,137180,65700,0,60816,0,3215355492,63
i,1734976673.596437,172.16.3.2,12260,172.16.1.2,5102,60889,63749,38,144960,65728,6,6,4,1460,445000,1,16778208,990000,140076,140076,65700,0,63712,0,3215355492,63
o,1734976673.596525,172.16.3.2,12260,172.16.1.2,5102,60889,63749,38,146432,65728,6,6,4,1460,455625,1,16778208,1000000,140076,137180,65700,0,60816,0,3215355492,63
i,1734976673.597062,172.16.3.2,26396,172.16.1.2,5101,60889,62577,38,139200,65728,6,6,4,1460,462812,1,16778208,860000,148268,148268,65700,0,62264,0,2762137363,63
o,1734976673.597139,172.16.3.2,26396,172.16.1.2,5101,60889,62577,38,147840,65728,6,6,4,1460,471250,1,16778208,890000,148268,146820,65700,0,60816,0,2762137363,63
i,1734976673.610811,172.16.3.2,12260,172.16.1.2,5102,60889,63749,38,146432,65728,6,6,4,1460,455625,1,16778208,1000000,140076,140076,65700,0,63712,0,3215355492,63
o,1734976673.610894,172.16.3.2,12260,172.16.1.2,5102,60889,65209,38,146432,65728,6,6,4,1460,463750,1,16778208,990000,140076,137180,65700,0,60816,0,3215355492,63
i,1734976673.612053,172.16.3.2,26396,172.16.1.2,5101,60889,62577,38,147840,65728,6,6,4,1460,471250,1,16778208,890000,148268,146820,65700,0,62264,0,2762137363,63
o,1734976673.612131,172.16.3.2,26396,172.16.1.2,5101,60889,62577,38,146432,65728,6,6,4,1460,477500,1,16778208,890000,148268,143924,65700,0,59368,0,2762137363,63
i,1734976673.615979,172.16.3.2,26396,172.16.1.2,5101,60889,62577,38,146432,65728,6,6,4,1460,477500,1,16778208,890000,148268,148268,65700,0,62264,0,2762137363,63
o,1734976673.616062,172.16.3.2,26396,172.16.1.2,5101,60889,62577,38,146432,65728,6,6,4,1460,476562,1,16778208,840000,148268,145372,65700,0,59368,0,2762137363,63
i,1734976673.616604,172.16.3.2,26396,172.16.1.2,5101,60889,62577,38,146432,65728,6,6,4,1460,476562,1,16778208,840000,148268,145372,65700,0,62264,0,2762137363,63
o,1734976673.616679,172.16.3.2,26396,172.16.1.2,5101,60889,62577,38,143552,65728,6,6,4,1460,475937,1,16778208,800000,148268,142476,65700,0,59368,0,2762137363,63
i,1734976673.617310,172.16.3.2,26396,172.16.1.2,5101,60889,62577,38,143552,65728,6,6,4,1460,475937,1,16778208,800000,148268,142476,65700,0,62264,0,2762137363,63
o,1734976673.617741,172.16.3.2,26396,172.16.1.2,5101,60889,62577,38,144960,65728,6,6,4,1460,475312,1,16778208,780000,148268,145372,65700,0,59368,0,2762137363,63
i,1734976673.621120,172.16.3.2,26396,172.16.1.2,5101,60889,62577,38,144960,65728,6,6,4,1460,475312,1,16778208,780000,148268,148268,65700,0,62264,0,2762137363,63
o,1734976673.621349,172.16.3.2,26396,172.16.1.2,5101,60889,62577,38,146432,65728,6,6,4,1460,474687,1,16778208,750000,148268,145372,65700,0,59368,0,2762137363,63
i,1734976673.622529,172.16.3.2,26396,172.16.1.2,5101,60889,62577,38,146432,65728,6,6,4,1460,474687,1,16778208,750000,148268,145372,65700,0,62264,0,2762137363,63
o,1734976673.622603,172.16.3.2,26396,172.16.1.2,5101,60889,62577,38,144960,65728,6,6,4,1460,474375,1,16778208,740000,148268,142476,65700,0,59368,0,2762137363,63
i,1734976673.623357,172.16.3.2,12260,172.16.1.2,5102,60889,65209,38,146432,65728,6,6,4,1460,463750,1,16778208,990000,140076,140076,65700,0,65160,0,3215355492,63
o,1734976673.623376,172.16.3.2,12260,172.16.1.2,5102,60889,65209,38,147840,65728,6,6,4,1460,465937,1,16778208,930000,140076,138628,65700,0,63712,0,3215355492,63
i,1734976673.628198,172.16.3.2,26396,172.16.1.2,5101,60889,62577,38,144960,65728,6,6,4,1460,474375,1,16778208,740000,148268,148268,65700,0,62264,0,2762137363,63
o,1734976673.628285,172.16.3.2,26396,172.16.1.2,5101,60889,62577,38,147840,65728,6,6,4,1460,474062,1,16778208,720000,148268,146820,65700,0,60816,0,2762137363,63
i,1734976673.638516,172.16.3.2,12260,172.16.1.2,5102,60889,65209,38,147840,65728,6,6,4,1460,465937,1,16778208,930000,140076,138628,65700,0,65160,0,3215355492,63
o,1734976673.638599,172.16.3.2,12260,172.16.1.2,5102,60889,65209,38,146432,65728,6,6,4,1460,469062,1,16778208,890000,140076,135732,65700,0,62264,0,3215355492,63
i,1734976673.639135,172.16.3.2,12260,172.16.1.2,5102,60889,65209,38,146432,65728,6,6,4,1460,469062,1,16778208,890000,140076,135732,65700,0,65160,0,3215355492,63
o,1734976673.639209,172.16.3.2,12260,172.16.1.2,5102,60889,65209,38,143552,65728,6,6,4,1460,471875,1,16778208,860000,140076,132836,65700,0,62264,0,3215355492,63
i,1734976673.656589,172.16.3.2,12260,172.16.1.2,5102,60889,65209,38,143552,65728,6,6,4,1460,471875,1,16778208,860000,140076,139064,65700,0,65160,0,3215355492,63
o,1734976673.656589,172.16.3.2,12260,172.16.1.2,5102,60889,65209,38,146432,65728,6,6,4,1460,474375,1,16778208,830000,140076,136168,65700,0,62264,0,3215355492,63
i,1734976673.666865,172.16.3.2,12260,172.16.1.2,5102,60889,65209,38,146432,65728,6,6,4,1460,474375,1,16778208,830000,140076,140076,65700,0,65160,0,3215355492,63
o,1734976673.666947,172.16.3.2,12260,172.16.1.2,5102,60889,65209,38,143552,65728,6,6,4,1460,477812,1,16778208,830000,140076,137180,65700,0,62264,0,3215355492,63
i,1734976673.667512,172.16.3.2,12260,172.16.1.2,5102,60889,65209,38,143552,65728,6,6,4,1460,477812,1,16778208,830000,140076,137180,65700,0,65160,0,3215355492,63
o,1734976673.667587,172.16.3.2,12260,172.16.1.2,5102,60889,65209,38,144960,65728,6,6,4,1460,479375,1,16778208,800000,140076,134284,65700,0,62264,0,3215355492,63
i,1734976673.668174,172.16.3.2,12260,172.16.1.2,5102,60889,65209,38,144960,65728,6,6,4,1460,479375,1,16778208,800000,140076,134284,65700,0,65160,0,3215355492,63
o,1734976673.668247,172.16.3.2,12260,172.16.1.2,5102,60889,65209,38,142080,65728,6,6,4,1460,480937,1,16778208,790000,140076,131388,65700,0,62264,0,3215355492,63
i,1734976673.668935,172.16.3.2,12260,172.16.1.2,5102,60889,65209,38,142080,65728,6,6,4,1460,480937,1,16778208,790000,140076,131388,65700,0,65160,0,3215355492,63
o,1734976673.669009,172.16.3.2,12260,172.16.1.2,5102,60889,65209,38,144960,65728,6,6,4,1460,482187,1,16778208,770000,140076,128492,65700,0,62264,0,3215355492,63
i,1734976673.672680,172.16.3.2,12260,172.16.1.2,5102,60889,65209,38,144960,65728,6,6,4,1460,482187,1,16778208,770000,148268,148268,65700,0,65160,0,3215355492,63
o,1734976673.672764,172.16.3.2,12260,172.16.1.2,5102,60889,65209,38,144960,65728,6,6,4,1460,485937,1,16778208,780000,148268,145372,65700,0,62264,0,3215355492,63
i,1734976673.676642,172.16.3.2,12260,172.16.1.2,5102,60889,65209,38,144960,65728,6,6,4,1460,485937,1,16778208,780000,148268,148268,65700,0,65160,0,3215355492,63
o,1734976673.676723,172.16.3.2,12260,172.16.1.2,5102,60889,65209,38,142080,65728,6,6,4,1460,489062,1,16778208,780000,148268,145372,65700,0,62264,0,3215355492,63
i,1734976673.677401,172.16.3.2,12260,172.16.1.2,5102,60889,65209,38,142080,65728,6,6,4,1460,489062,1,16778208,780000,148268,145372,65700,0,65160,0,3215355492,63
o,1734976673.677476,172.16.3.2,12260,172.16.1.2,5102,60889,65209,38,139200,65728,6,6,4,1460,490625,1,16778208,770000,148268,142476,65700,0,62264,0,3215355492,63
i,1734976673.680928,172.16.3.2,12260,172.16.1.2,5102,60889,65209,38,139200,65728,6,6,4,1460,490625,1,16778208,770000,148268,148268,65700,0,65160,0,3215355492,63
o,1734976673.681162,172.16.3.2,12260,172.16.1.2,5102,60889,65209,38,136320,65728,6,6,4,1460,491875,1,16778208,760000,148268,145372,65700,0,62264,0,3215355492,63
i,1734976673.682108,172.16.3.2,12260,172.16.1.2,5102,60889,65209,38,136320,65728,6,6,4,1460,491875,1,16778208,760000,148268,145372,65700,0,65160,0,3215355492,63
o,1734976673.682189,172.16.3.2,12260,172.16.1.2,5102,60889,65209,38,144960,65728,6,6,4,1460,493125,1,16778208,760000,148268,142476,65700,0,62264,0,3215355492,63
i,1734976673.792755,172.16.3.2,12260,172.16.1.2,5102,60889,65209,38,144960,65728,6,6,4,1460,493125,1,16778208,760000,148268,148268,65700,0,65160,0,3215355492,63
o,1734976673.793026,172.16.3.2,12260,172.16.1.2,5102,60889,65209,38,144960,65728,6,6,4,1460,480312,1,16778208,830000,148268,145372,65700,0,62264,0,3215355492,63
