enable_time_secs=1734976851	enable_time_usecs=401934	siftrver=1.3.0	sysname=FreeBSD	sysver=1401000	ipmode=4
o,1734976851.402858,10.0.2.15,22,192.168.56.1,54678,1073725440,18998,1026,65535,65700,0,0,4,1460,312,0,16777220,230000,33580,104,65700,0,60,0,4180752217,63
o,1734976851.403738,10.0.2.15,22,192.168.56.1,54678,1073725440,18998,1026,65535,65700,0,0,4,1460,312,0,16777220,230000,33580,140,65700,0,104,0,4180752217,63
i,1734976851.404516,10.0.2.15,22,192.168.56.1,54678,1073725440,18998,1026,65535,65700,0,0,4,1460,312,0,16777220,230000,33580,140,65700,0,140,0,4180752217,63
i,1734976851.404592,10.0.2.15,22,192.168.56.1,54678,1073725440,19058,1026,65535,65700,0,0,4,1460,312,0,4,230000,33580,80,65700,0,80,0,4180752217,63
i,1734976851.404662,10.0.2.15,22,192.168.56.1,54678,1073725440,19102,1026,65535,65700,0,0,4,1460,312,0,4,230000,33580,36,65700,0,36,0,4180752217,63
o,1734976851.405609,10.0.2.15,22,192.168.56.1,54678,1073725440,19138,1026,65535,65700,0,0,4,1460,312,0,16777220,230000,33580,36,65700,0,0,0,4180752217,63
o,1734976851.407869,10.0.2.15,22,192.168.56.1,54678,1073725440,19138,1026,65535,65700,0,0,4,1460,312,0,16777220,230000,33580,212,65700,0,36,0,4180752217,63
i,1734976851.408530,10.0.2.15,22,192.168.56.1,54678,1073725440,19138,1026,65535,65700,0,0,4,1460,312,0,16777220,230000,33580,212,65700,0,212,0,4180752217,63
i,1734976851.410247,10.0.2.15,22,192.168.56.1,54678,1073725440,19174,1026,65535,65700,0,0,4,1460,312,0,4,230000,33580,176,65700,0,176,0,4180752217,63
i,1734976851.410329,10.0.2.15,22,192.168.56.1,54678,1073725440,19350,1026,65535,65700,0,0,4,1460,312,0,4,230000,33580,0,65700,0,0,0,4180752217,63
o,1734976851.413679,10.0.2.15,22,192.168.56.1,54678,1073725440,19350,1026,65535,65700,0,0,6,1460,312,0,4,230000,33580,0,65700,0,0,0,4180752217,63
i,1734976851.416146,10.0.2.15,22,192.168.56.1,54678,1073725440,19350,1026,65535,65700,0,0,6,1460,312,0,67108884,230000,33580,0,65700,0,1,0,4180752217,63
i,1734976866.301885,10.0.2.15,22,192.168.56.1,54724,1073725440,19283,1026,65535,65700,0,0,9,1460,312,0,67108884,230000,33580,0,65700,0,0,0,960729047,63
i,1734976866.303654,10.0.2.15,22,192.168.56.1,54724,1073725440,19283,1026,65535,65700,0,0,9,1460,312,0,67108884,230000,33580,0,65700,0,0,0,960729047,63
i,1734976872.317947,10.0.2.15,22,192.168.56.1,54724,1073725440,14600,0,65535,65700,0,0,4,1460,312,0,16777216,260000,33580,0,65700,0,0,0,960729047,63
o,1734976872.353635,10.0.2.15,22,192.168.56.1,54724,1073725440,14600,2,65535,65700,0,0,4,1460,312,0,16777217,260000,33580,0,65700,42,0,0,960729047,63
o,1734976872.357020,10.0.2.15,22,192.168.56.1,54724,1073725440,14600,1026,65535,65700,0,0,4,1460,312,0,16777216,260000,33580,38,65700,42,0,0,960729047,63
i,1734976872.361070,10.0.2.15,22,192.168.56.1,54724,1073725440,14600,1026,65535,65700,0,0,4,1460,312,0,16777216,260000,33580,38,65700,0,38,0,960729047,63
i,1734976872.361153,10.0.2.15,22,192.168.56.1,54724,1073725440,14638,1026,65535,65700,0,0,4,1460,312,0,0,230000,33580,0,65700,0,0,0,960729047,63
i,1734976872.361222,10.0.2.15,22,192.168.56.1,54724,1073725440,14638,1026,65535,65700,0,0,4,1460,312,0,0,230000,33580,0,65700,1460,0,0,960729047,63
o,1734976872.361295,10.0.2.15,22,192.168.56.1,54724,1073725440,14638,1026,65535,65700,0,0,4,1460,312,0,1,230000,33580,0,65700,1536,0,0,960729047,63
o,1734976872.363833,10.0.2.15,22,192.168.56.1,54724,1073725440,14638,1026,65535,65700,0,0,4,1460,312,0,16777216,230000,33580,1120,65700,1536,0,0,960729047,63
i,1734976872.368500,10.0.2.15,22,192.168.56.1,54724,1073725440,14638,1026,65535,65700,0,0,4,1460,312,0,16777216,230000,33580,1120,65700,0,1120,0,960729047,63
i,1734976872.400441,10.0.2.15,22,192.168.56.1,54724,1073725440,15758,1026,65535,65700,0,0,4,1460,312,0,0,230000,33580,0,65700,0,0,0,960729047,63
o,1734976872.429493,10.0.2.15,22,192.168.56.1,54724,1073725440,15758,1030,65535,65700,0,0,4,1460,312,0,16777216,230000,33580,1532,65700,0,0,0,960729047,63
o,1734976872.432999,10.0.2.15,22,192.168.56.1,54724,1073725440,15758,1026,65535,65700,0,0,4,1460,312,0,16777216,230000,33580,1532,65700,0,1460,0,960729047,63
i,1734976872.436663,10.0.2.15,22,192.168.56.1,54724,1073725440,15758,1026,65535,65700,0,0,4,1460,312,0,16777216,230000,33580,1532,65700,0,1532,0,960729047,63
i,1734976872.436748,10.0.2.15,22,192.168.56.1,54724,1073725440,17218,1026,65535,65700,0,0,4,1460,312,0,0,230000,33580,72,65700,0,72,0,960729047,63
i,1734976872.453011,10.0.2.15,22,192.168.56.1,54724,1073725440,17290,1026,65535,65700,0,0,4,1460,312,0,0,230000,33580,0,65700,0,0,0,960729047,63
o,1734976872.453439,10.0.2.15,22,192.168.56.1,54724,1073725440,17290,1026,65535,65700,0,0,4,1460,312,0,16777216,230000,33580,44,65700,0,0,0,960729047,63
i,1734976872.456937,10.0.2.15,22,192.168.56.1,54724,1073725440,17290,1026,65535,65700,0,0,4,1460,312,0,16777216,230000,33580,44,65700,0,44,0,960729047,63
o,1734976872.460955,10.0.2.15,22,192.168.56.1,54724,1073725440,17334,1026,65535,65700,0,0,4,1460,312,0,16777216,240000,33580,280,65700,0,0,0,960729047,63
i,1734976872.465916,10.0.2.15,22,192.168.56.1,54724,1073725440,17334,1026,65535,65700,0,0,4,1460,312,0,16777216,240000,33580,280,65700,0,280,0,960729047,63
i,1734976872.466098,10.0.2.15,22,192.168.56.1,54724,1073725440,17614,1026,65535,65700,0,0,4,1460,312,0,0,230000,33580,0,65700,0,0,0,960729047,63
o,1734976872.470187,10.0.2.15,22,192.168.56.1,54724,1073725440,17614,1026,65535,65700,0,0,4,1460,312,0,16777216,230000,33580,332,65700,0,0,0,960729047,63
i,1734976872.474255,10.0.2.15,22,192.168.56.1,54724,1073725440,17614,1026,65535,65700,0,0,4,1460,312,0,16777216,230000,33580,332,65700,0,332,0,960729047,63
i,1734976872.474335,10.0.2.15,22,192.168.56.1,54724,1073725440,17946,1026,65535,65700,0,0,4,1460,312,0,0,230000,33580,0,65700,0,0,0,960729047,63
o,1734976872.491612,10.0.2.15,22,192.168.56.1,54724,1073725440,17946,1026,65535,65700,0,0,4,1460,312,0,16777216,230000,33580,28,65700,0,0,0,960729047,63
i,1734976872.497123,10.0.2.15,22,192.168.56.1,54724,1073725440,17946,1026,65535,65700,0,0,4,1460,312,0,16777216,230000,33580,936,65700,0,28,0,960729047,63
o,1734976872.497234,10.0.2.15,22,192.168.56.1,54724,1073725440,17974,1026,65535,65700,0,0,4,1460,312,0,16777216,230000,33580,908,65700,0,0,0,960729047,63
i,1734976872.497698,10.0.2.15,22,192.168.56.1,54724,1073725440,17974,1026,65535,65700,0,0,4,1460,312,0,16777216,230000,33580,908,65700,0,908,0,960729047,63
i,1734976872.500845,10.0.2.15,22,192.168.56.1,54724,1073725440,17974,1026,65535,65700,0,0,4,1460,312,0,16777216,230000,33580,908,65700,112,908,0,960729047,63
o,1734976872.501658,10.0.2.15,22,192.168.56.1,54724,1073725440,18882,1026,65535,65700,0,0,4,1460,312,0,16777216,230000,33580,44,65700,0,0,0,960729047,63
i,1734976872.507593,10.0.2.15,22,192.168.56.1,54724,1073725440,18882,1026,65535,65700,0,0,4,1460,312,0,16777216,230000,33580,44,65700,0,44,0,960729047,63
o,1734976872.508698,10.0.2.15,22,192.168.56.1,54724,1073725440,18926,1026,65535,65700,0,0,4,1460,312,0,16777220,230000,33580,72,65700,0,0,0,960729047,63
i,1734976872.514105,10.0.2.15,22,192.168.56.1,54724,1073725440,18926,1026,65535,65700,0,0,4,1460,312,0,16777220,230000,33580,72,65700,0,72,0,960729047,63
o,1734976872.516085,10.0.2.15,22,192.168.56.1,54724,1073725440,18998,1026,65535,65700,0,0,4,1460,312,0,16777220,230000,33580,104,65700,0,0,0,960729047,63
i,1734976872.518435,10.0.2.15,22,192.168.56.1,54724,1073725440,18998,1026,65535,65700,0,0,4,1460,312,0,16777220,230000,33580,104,65700,0,104,0,960729047,63
o,1734976872.540109,10.0.2.15,22,192.168.56.1,54724,1073725440,19102,1026,65535,65700,0,0,4,1460,312,0,16777220,230000,33580,72,65700,0,0,0,960729047,63
i,1734976872.547425,10.0.2.15,22,192.168.56.1,54724,1073725440,19102,1026,65535,65700,0,0,4,1460,312,0,16777220,230000,33580,72,65700,0,72,0,960729047,63
i,1734976872.547506,10.0.2.15,22,192.168.56.1,54724,1073725440,19174,1026,65535,65700,0,0,4,1460,312,0,4,230000,33580,0,65700,0,0,0,960729047,63
o,1734976872.550575,10.0.2.15,22,192.168.56.1,54724,1073725440,19174,1026,65535,65700,0,0,6,1460,312,0,4,230000,33580,0,65700,0,0,0,960729047,63
i,1734976872.553094,10.0.2.15,22,192.168.56.1,54724,1073725440,19174,1026,65535,65700,0,0,6,1460,312,0,67108884,230000,33580,0,65700,0,1,0,960729047,63
i,1734976875.052752,10.0.2.15,22,192.168.56.1,54688,1073725440,19259,1026,65535,65700,0,0,9,1460,312,0,67108884,230000,33580,0,65700,0,0,0,515782400,63
i,1734976875.054455,10.0.2.15,22,192.168.56.1,54688,1073725440,19259,1026,65535,65700,0,0,9,1460,312,0,67108884,230000,33580,0,65700,0,0,0,515782400,63
i,1734976875.056557,10.0.2.15,22,192.168.56.1,54690,1073725440,14600,0,65535,65700,0,0,4,1460,312,0,16777216,260000,33580,0,65700,0,0,0,1314313452,63
o,1734976875.092645,10.0.2.15,22,192.168.56.1,54690,1073725440,14600,2,65535,65700,0,0,4,1460,312,0,16777217,260000,33580,0,65700,42,0,0,1314313452,63
o,1734976875.094672,10.0.2.15,22,192.168.56.1,54690,1073725440,14600,1026,65535,65700,0,0,4,1460,312,0,16777216,260000,33580,38,65700,42,0,0,1314313452,63
i,1734976875.100995,10.0.2.15,22,192.168.56.1,54690,1073725440,14600,1026,65535,65700,0,0,4,1460,312,0,16777216,260000,33580,38,65700,0,38,0,1314313452,63
i,1734976875.101110,10.0.2.15,22,192.168.56.1,54690,1073725440,14638,1026,65535,65700,0,0,4,1460,312,0,0,230000,33580,0,65700,0,0,0,1314313452,63
i,1734976875.101211,10.0.2.15,22,192.168.56.1,54690,1073725440,14638,1026,65535,65700,0,0,4,1460,312,0,0,230000,33580,0,65700,1460,0,0,1314313452,63
o,1734976875.101313,10.0.2.15,22,192.168.56.1,54690,1073725440,14638,1026,65535,65700,0,0,4,1460,312,0,1,230000,33580,0,65700,1536,0,0,1314313452,63
o,1734976875.103163,10.0.2.15,22,192.168.56.1,54690,1073725440,14638,1026,65535,65700,0,0,4,1460,312,0,16777216,230000,33580,1120,65700,1536,0,0,1314313452,63
i,1734976875.106272,10.0.2.15,22,192.168.56.1,54690,1073725440,14638,1026,65535,65700,0,0,4,1460,312,0,16777216,230000,33580,1120,65700,0,1120,0,1314313452,63
i,1734976875.141949,10.0.2.15,22,192.168.56.1,54690,1073725440,15758,1026,65535,65700,0,0,4,1460,312,0,0,230000,33580,0,65700,0,0,0,1314313452,63
o,1734976875.169790,10.0.2.15,22,192.168.56.1,54690,1073725440,15758,1030,65535,65700,0,0,4,1460,312,0,16777216,230000,33580,1532,65700,0,0,0,1314313452,63
o,1734976875.170140,10.0.2.15,22,192.168.56.1,54690,1073725440,15758,1026,65535,65700,0,0,4,1460,312,0,16777216,230000,33580,1532,65700,0,1460,0,1314313452,63
i,1734976875.172291,10.0.2.15,22,192.168.56.1,54690,1073725440,15758,1026,65535,65700,0,0,4,1460,312,0,16777216,230000,33580,1532,65700,0,1532,0,1314313452,63
i,1734976875.188238,10.0.2.15,22,192.168.56.1,54690,1073725440,17290,1026,65535,65700,0,0,4,1460,312,0,0,230000,33580,0,65700,0,0,0,1314313452,63
o,1734976875.188768,10.0.2.15,22,192.168.56.1,54690,1073725440,17290,1026,65535,65700,0,0,4,1460,312,0,16777216,230000,33580,44,65700,0,0,0,1314313452,63
i,1734976875.192643,10.0.2.15,22,192.168.56.1,54690,1073725440,17290,1026,65535,65700,0,0,4,1460,312,0,16777216,230000,33580,44,65700,0,44,0,1314313452,63
i,1734976875.192722,10.0.2.15,22,192.168.56.1,54690,1073725440,17334,1026,65535,65700,0,0,4,1460,312,0,0,230000,33580,0,65700,0,0,0,1314313452,63
o,1734976875.195455,10.0.2.15,22,192.168.56.1,54690,1073725440,17334,1026,65535,65700,0,0,4,1460,312,0,16777216,230000,33580,280,65700,0,0,0,1314313452,63
i,1734976875.199509,10.0.2.15,22,192.168.56.1,54690,1073725440,17334,1026,65535,65700,0,0,4,1460,312,0,16777216,230000,33580,280,65700,0,280,0,1314313452,63
o,1734976875.203168,10.0.2.15,22,192.168.56.1,54690,1073725440,17614,1026,65535,65700,0,0,4,1460,312,0,16777216,230000,33580,332,65700,0,0,0,1314313452,63
i,1734976875.207376,10.0.2.15,22,192.168.56.1,54690,1073725440,17614,1026,65535,65700,0,0,4,1460,312,0,16777216,230000,33580,332,65700,0,332,0,1314313452,63
i,1734976875.207459,10.0.2.15,22,192.168.56.1,54690,1073725440,17946,1026,65535,65700,0,0,4,1460,312,0,0,230000,33580,0,65700,0,0,0,1314313452,63
o,1734976875.223725,10.0.2.15,22,192.168.56.1,54690,1073725440,17946,1026,65535,65700,0,0,4,1460,312,0,16777216,230000,33580,28,65700,0,0,0,1314313452,63
i,1734976875.227047,10.0.2.15,22,192.168.56.1,54690,1073725440,17946,1026,65535,65700,0,0,4,1460,312,0,16777216,230000,33580,28,65700,0,28,0,1314313452,63
o,1734976875.228125,10.0.2.15,22,192.168.56.1,54690,1073725440,17974,1026,65535,65700,0,0,4,1460,312,0,16777216,230000,33580,768,65700,112,0,0,1314313452,63
i,1734976875.234133,10.0.2.15,22,192.168.56.1,54690,1073725440,17974,1026,65535,65700,0,0,4,1460,312,0,16777216,230000,33580,952,65700,0,768,0,1314313452,63
o,1734976875.234217,10.0.2.15,22,192.168.56.1,54690,1073725440,18742,1026,65535,65700,0,0,4,1460,312,0,16777216,230000,33580,184,65700,0,0,0,1314313452,63
i,1734976875.236020,10.0.2.15,22,192.168.56.1,54690,1073725440,18742,1026,65535,65700,0,0,4,1460,312,0,16777216,230000,33580,184,65700,0,184,0,1314313452,63
i,1734976875.237619,10.0.2.15,22,192.168.56.1,54690,1073725440,18926,1026,65535,65700,0,0,4,1460,312,0,0,230000,33580,0,65700,0,0,0,1314313452,63
o,1734976875.239449,10.0.2.15,22,192.168.56.1,54690,1073725440,18926,1026,65535,65700,0,0,4,1460,312,0,16777220,230000,33580,72,65700,0,0,0,1314313452,63
i,1734976875.244965,10.0.2.15,22,192.168.56.1,54690,1073725440,18926,1026,65535,65700,0,0,4,1460,312,0,16777220,230000,33580,72,65700,0,72,0,1314313452,63
o,1734976875.282765,10.0.2.15,22,192.168.56.1,54690,1073725440,18998,1026,65535,65700,0,0,4,1460,312,0,5,230000,33580,0,65700,0,0,0,1314313452,63
o,1734976875.377683,172.16.3.2,23770,172.16.1.2,5101,40722,14480,34,65535,65700,6,6,4,1460,580937,1,16778209,2050000,33580,0,65700,0,0,0,3534315377,63
o,1734976875.379169,172.16.3.2,23770,172.16.1.2,5101,40722,14480,34,65535,65700,6,6,4,1460,580937,1,16778212,2050000,33580,37,65700,0,0,0,3534315377,63
i,1734976875.526605,172.16.3.2,23770,172.16.1.2,5101,40722,14480,34,65535,65700,6,6,4,1460,580937,1,16778212,2050000,33580,37,65700,0,37,0,3534315377,63
o,1734976875.527316,172.16.3.2,23770,172.16.1.2,5101,40722,14517,1058,65728,65728,6,6,4,1460,527187,1,16778212,2110000,33580,4,65700,0,0,0,3534315377,63
o,1734976875.528347,172.16.3.2,23770,172.16.1.2,5101,40722,14517,1058,65728,65728,6,6,4,1460,527187,1,16778212,2110000,33580,151,65700,0,4,0,3534315377,63
i,1734976875.660306,172.16.3.2,23770,172.16.1.2,5101,40722,14517,1058,65728,65728,6,6,4,1460,527187,1,16778212,2110000,33580,151,65700,0,151,0,3534315377,63
i,1734976875.665597,172.16.3.2,23770,172.16.1.2,5101,40722,14668,1058,65600,65728,6,6,4,1460,477812,1,996,2110000,33580,0,65700,0,0,0,3534315377,63
o,1734976875.709776,172.16.3.2,23770,172.16.1.2,5101,40722,14668,1058,65728,65728,6,6,4,1460,477812,1,997,2110000,33580,0,65700,0,0,0,3534315377,63
o,1734976875.818014,172.16.3.2,36702,172.16.1.2,5101,40722,14480,34,65535,65700,6,6,4,1460,583437,1,16778209,2030000,33580,0,65700,0,0,0,1944083738,63
o,1734976875.818582,172.16.3.2,36702,172.16.1.2,5101,40722,14480,34,65535,65700,6,6,4,1460,583437,1,16778208,2030000,33580,37,65700,0,0,0,1944083738,63
i,1734976875.967089,172.16.3.2,23770,172.16.1.2,5101,40722,14668,1058,65728,65728,6,6,4,1460,477812,1,996,2110000,33580,0,65700,0,0,0,3534315377,63
i,1734976875.967412,172.16.3.2,23770,172.16.1.2,5101,40722,14668,1058,65728,65728,6,6,4,1460,477812,1,996,2110000,33580,0,65700,1,0,0,3534315377,63
o,1734976875.967567,172.16.3.2,23770,172.16.1.2,5101,40722,14668,1058,65728,65728,6,6,4,1460,477812,1,997,2110000,33580,0,65700,2,0,0,3534315377,63
i,1734976875.968540,172.16.3.2,36702,172.16.1.2,5101,40722,14480,34,65535,65700,6,6,4,1460,583437,1,16778208,2030000,33580,37,65700,0,37,0,1944083738,63
o,1734976875.969072,172.16.3.2,36702,172.16.1.2,5101,40722,14517,38,65728,65728,6,6,4,1460,529375,1,16778208,2100000,33580,33580,65700,0,0,0,1944083738,63
o,1734976875.969658,172.16.3.2,36702,172.16.1.2,5101,40722,14517,38,65728,65728,6,6,4,1460,529375,1,16778208,2100000,33580,33580,65700,0,1448,0,1944083738,63
i,1734976876.260946,172.16.3.2,36702,172.16.1.2,5101,40722,14517,38,65728,65728,6,6,4,1460,529375,1,16778208,2100000,33580,33580,65700,0,14480,0,1944083738,63
o,1734976876.261090,172.16.3.2,36702,172.16.1.2,5101,40722,17413,38,64256,65728,6,6,4,1460,499687,1,16778208,1960000,33580,30684,65700,0,11584,0,1944083738,63
o,1734976876.262126,172.16.3.2,36702,172.16.1.2,5101,40722,17413,38,64256,65728,6,6,4,1460,499687,1,16778208,1960000,33580,30684,65700,0,13032,0,1944083738,63
i,1734976876.262661,172.16.3.2,36702,172.16.1.2,5101,40722,17413,38,64256,65728,6,6,4,1460,499687,1,16778208,1960000,41772,30684,65700,0,17376,0,1944083738,63
o,1734976876.262734,172.16.3.2,36702,172.16.1.2,5101,40722,20309,38,64256,65728,6,6,4,1460,475000,1,16778208,1820000,41772,27788,65700,0,14480,0,1944083738,63
i,1734976876.279706,172.16.3.2,36702,172.16.1.2,5101,40722,20309,38,64256,65728,6,6,4,1460,475000,1,16778208,1820000,41772,41772,65700,0,20272,0,1944083738,63
o,1734976876.279808,172.16.3.2,36702,172.16.1.2,5101,40722,23205,38,62848,65728,6,6,4,1460,454375,1,16778208,1680000,49964,38876,65700,0,17376,0,1944083738,63
i,1734976876.280377,172.16.3.2,36702,172.16.1.2,5101,40722,23205,38,62848,65728,6,6,4,1460,454375,1,16778208,1680000,49964,38876,65700,0,23168,0,1944083738,63
o,1734976876.280453,172.16.3.2,36702,172.16.1.2,5101,40722,26101,38,64256,65728,6,6,4,1460,436562,1,16778208,1550000,49964,35980,65700,0,20272,0,1944083738,63
i,1734976876.286308,172.16.3.2,36702,172.16.1.2,5101,40722,26101,38,64256,65728,6,6,4,1460,436562,1,16778208,1550000,58156,58156,65700,0,26064,0,1944083738,63
o,1734976876.286562,172.16.3.2,36702,172.16.1.2,5101,40722,27549,38,65728,65728,6,6,4,1460,420937,1,16778208,1430000,58156,56708,65700,0,24616,0,1944083738,63
i,1734976876.402778,172.16.3.2,36702,172.16.1.2,5101,40722,27549,38,65728,65728,6,6,4,1460,420937,1,16778208,1430000,58156,56708,65700,0,27512,0,1944083738,63
o,1734976876.402905,172.16.3.2,36702,172.16.1.2,5101,40722,28997,38,65728,65728,6,6,4,1460,423437,1,16778208,1250000,58156,55260,65700,0,26064,0,1944083738,63
i,1734976876.420409,172.16.3.2,36702,172.16.1.2,5101,40722,28997,38,65728,65728,6,6,4,1460,423437,1,16778208,1250000,66348,66348,65700,0,28960,0,1944083738,63
o,1734976876.420521,172.16.3.2,36702,172.16.1.2,5101,40722,31893,38,62848,65728,6,6,4,1460,389375,1,16778208,1330000,66348,63452,65700,0,26064,0,1944083738,63
o,1734976876.421070,172.16.3.2,36702,172.16.1.2,5101,40722,31893,38,62848,65728,6,6,4,1460,389375,1,16778208,1330000,66348,63452,65700,0,27512,0,1944083738,63
i,1734976876.422345,172.16.3.2,36702,172.16.1.2,5101,40722,31893,38,62848,65728,6,6,4,1460,389375,1,16778208,1330000,74540,74540,65700,0,31856,0,1944083738,63
o,1734976876.422991,172.16.3.2,36702,172.16.1.2,5101,40722,34789,38,59968,65728,6,6,4,1460,360937,1,16778208,1340000,74540,71644,65700,0,28960,0,1944083738,63
i,1734976876.518788,172.16.3.2,36702,172.16.1.2,5101,40722,34789,38,59968,65728,6,6,4,1460,360937,1,16778208,1340000,74540,74540,65700,0,34752,0,1944083738,63
o,1734976876.519046,172.16.3.2,36702,172.16.1.2,5101,40722,37685,38,64256,65728,6,6,4,1460,347187,1,16778208,1240000,74540,71644,65700,0,31856,0,1944083738,63
i,1734976876.523110,172.16.3.2,36702,172.16.1.2,5101,40722,37685,38,64256,65728,6,6,4,1460,347187,1,16778208,1240000,82732,82732,65700,0,37648,0,1944083738,63
o,1734976876.523239,172.16.3.2,36702,172.16.1.2,5101,40722,40581,38,61376,65728,6,6,4,1460,336562,1,16778208,1140000,82732,79836,65700,0,34752,0,1944083738,63
i,1734976876.524237,172.16.3.2,36702,172.16.1.2,5101,40722,40581,38,61376,65728,6,6,4,1460,336562,1,16778208,1140000,82732,79836,65700,0,40544,0,1944083738,63
o,1734976876.524364,172.16.3.2,36702,172.16.1.2,5101,40722,43477,38,64256,65728,6,6,4,1460,324687,1,16778208,1070000,82732,76940,65700,0,37648,0,1944083738,63
i,1734976876.530877,172.16.3.2,36702,172.16.1.2,5101,40722,43477,38,64256,65728,6,6,4,1460,324687,1,16778208,1070000,82732,82732,65700,0,43440,0,1944083738,63
o,1734976876.530920,172.16.3.2,36702,172.16.1.2,5101,40722,43477,38,61376,65728,6,6,4,1460,314375,1,16778208,1010000,82732,79836,65700,0,40544,0,1944083738,63
i,1734976876.531610,172.16.3.2,36702,172.16.1.2,5101,40722,43477,38,61376,65728,6,6,4,1460,314375,1,16778208,1010000,82732,79836,65700,0,43440,0,1944083738,63
o,1734976876.531659,172.16.3.2,36702,172.16.1.2,5101,40722,43477,38,58496,65728,6,6,4,1460,306562,1,16778208,940000,82732,76940,65700,0,40544,0,1944083738,63
i,1734976876.538325,172.16.3.2,36702,172.16.1.2,5101,40722,43477,38,58496,65728,6,6,4,1460,306562,1,16778208,940000,82732,82732,65700,0,43440,0,1944083738,63
o,1734976876.538613,172.16.3.2,36702,172.16.1.2,5101,40722,43477,38,62848,65728,6,6,4,1460,299687,1,16778208,880000,82732,79836,65700,0,40544,0,1944083738,63
i,1734976876.539206,172.16.3.2,36702,172.16.1.2,5101,40722,43477,38,62848,65728,6,6,4,1460,299687,1,16778208,880000,82732,79836,65700,0,43440,0,1944083738,63
o,1734976876.539325,172.16.3.2,36702,172.16.1.2,5101,40722,43477,38,59968,65728,6,6,4,1460,293750,1,16778208,830000,82732,76940,65700,0,40544,0,1944083738,63
i,1734976876.702309,172.16.3.2,36702,172.16.1.2,5101,40722,43477,38,59968,65728,6,6,4,1460,293750,1,16778208,830000,82732,82732,65700,0,43440,0,1944083738,63
o,1734976876.702433,172.16.3.2,36702,172.16.1.2,5101,40722,43477,38,97152,65728,6,6,4,1460,294687,1,16778208,750000,90924,79836,65700,0,40544,0,1944083738,63
i,1734976876.702959,172.16.3.2,36702,172.16.1.2,5101,40722,43477,38,97152,65728,6,6,4,1460,294687,1,16778208,750000,99116,79836,65700,0,43440,0,1944083738,63
o,1734976876.703020,172.16.3.2,36702,172.16.1.2,5101,40722,43477,38,95680,65728,6,6,4,1460,294375,1,16778208,690000,99116,76940,65700,0,40544,0,1944083738,63
o,1734976876.704585,172.16.3.2,36702,172.16.1.2,5101,40722,43477,38,95680,65728,6,6,4,1460,294375,1,16778208,690000,99116,76940,65700,0,41992,0,1944083738,63
i,1734976876.705456,172.16.3.2,36702,172.16.1.2,5101,40722,43477,38,95680,65728,6,6,4,1460,294375,1,16778208,690000,99116,76940,65700,0,43440,0,1944083738,63
o,1734976876.705552,172.16.3.2,36702,172.16.1.2,5101,40722,43477,38,92800,65728,6,6,4,1460,294062,1,16778208,640000,99116,74044,65700,0,40544,0,1944083738,63
i,1734976876.706568,172.16.3.2,36702,172.16.1.2,5101,40722,43477,38,92800,65728,6,6,4,1460,294062,1,16778208,640000,99116,74044,65700,0,43440,0,1944083738,63
o,1734976876.706643,172.16.3.2,36702,172.16.1.2,5101,40722,43477,38,89920,65728,6,6,4,1460,292500,1,16778208,620000,99116,71148,65700,0,40544,0,1944083738,63
i,1734976876.707170,172.16.3.2,36702,172.16.1.2,5101,40722,43477,38,89920,65728,6,6,4,1460,292500,1,16778208,620000,99116,71148,65700,0,43440,0,1944083738,63
o,1734976876.707415,172.16.3.2,36702,172.16.1.2,5101,40722,43477,38,97152,65728,6,6,4,1460,290937,1,16778208,600000,99116,68252,65700,0,40544,0,1944083738,63
i,1734976876.739300,172.16.3.2,36702,172.16.1.2,5101,40722,43477,38,97152,65728,6,6,4,1460,290937,1,16778208,600000,99116,99116,65700,0,43440,0,1944083738,63
o,1734976876.739564,172.16.3.2,36702,172.16.1.2,5101,40722,43477,38,95680,65728,6,6,4,1460,282187,1,16778208,630000,99116,96220,65700,0,40544,0,1944083738,63
i,1734976876.789006,172.16.3.2,36702,172.16.1.2,5101,40722,43477,38,95680,65728,6,6,4,1460,282187,1,16778208,630000,99116,99116,65700,0,43440,0,1944083738,63
o,1734976876.789071,172.16.3.2,36702,172.16.1.2,5101,40722,43477,38,97152,65728,6,6,4,1460,280937,1,16778208,600000,99116,96220,65700,0,40544,0,1944083738,63
i,1734976876.790224,172.16.3.2,36702,172.16.1.2,5101,40722,43477,38,97152,65728,6,6,4,1460,280937,1,16778208,600000,99116,96220,65700,0,43440,0,1944083738,63
o,1734976876.790344,172.16.3.2,36702,172.16.1.2,5101,40722,43477,38,94272,65728,6,6,4,1460,278437,1,16778208,590000,99116,93324,65700,0,40544,0,1944083738,63
i,1734976876.791042,172.16.3.2,36702,172.16.1.2,5101,40722,43477,38,94272,65728,6,6,4,1460,278437,1,16778208,590000,99116,93324,65700,0,43440,0,1944083738,63
o,1734976876.791142,172.16.3.2,36702,172.16.1.2,5101,40722,43477,38,91392,65728,6,6,4,1460,276250,1,16778208,580000,99116,90428,65700,0,40544,0,1944083738,63
i,1734976876.792255,172.16.3.2,36702,172.16.1.2,5101,40722,43477,38,91392,65728,6,6,4,1460,276250,1,16778208,580000,99116,90428,65700,0,43440,0,1944083738,63
o,1734976876.792351,172.16.3.2,36702,172.16.1.2,5101,40722,43477,38,88512,65728,6,6,4,1460,275625,1,16778208,560000,99116,87532,65700,0,40544,0,1944083738,63
i,1734976876.793489,172.16.3.2,36702,172.16.1.2,5101,40722,43477,38,88512,65728,6,6,4,1460,275625,1,16778208,560000,99116,87532,65700,0,43440,0,1944083738,63
o,1734976876.793529,172.16.3.2,36702,172.16.1.2,5101,40722,43477,38,85632,65728,6,6,4,1460,275000,1,16778208,540000,99116,84636,65700,0,40544,0,1944083738,63
i,1734976876.793744,172.16.3.2,36702,172.16.1.2,5101,40722,43477,38,85632,65728,6,6,4,1460,275000,1,16778208,540000,99116,84636,65700,0,43440,0,1944083738,63
o,1734976876.793775,172.16.3.2,36702,172.16.1.2,5101,40722,43477,38,82752,65728,6,6,4,1460,274375,1,16778208,530000,99116,81740,65700,0,40544,0,1944083738,63
i,1734976876.926211,172.16.3.2,36702,172.16.1.2,5101,40722,43477,38,82752,65728,6,6,4,1460,274375,1,16778208,530000,99116,99116,65700,0,43440,0,1944083738,63
o,1734976876.927018,172.16.3.2,36702,172.16.1.2,5101,40722,43477,38,79872,65728,6,6,4,1460,289062,1,16778208,650000,99116,96220,65700,0,40544,0,1944083738,63
i,1734976876.927577,172.16.3.2,36702,172.16.1.2,5101,40722,43477,38,79872,65728,6,6,4,1460,289062,1,16778208,650000,99116,96220,65700,0,43440,0,1944083738,63
o,1734976876.927657,172.16.3.2,36702,172.16.1.2,5101,40722,43477,38,76992,65728,6,6,4,1460,301875,1,16778208,720000,99116,93324,65700,0,40544,0,1944083738,63
i,1734976876.928347,172.16.3.2,36702,172.16.1.2,5101,40722,43477,38,76992,65728,6,6,4,1460,301875,1,16778208,720000,99116,93324,65700,0,43440,0,1944083738,63
o,1734976876.928470,172.16.3.2,36702,172.16.1.2,5101,40722,43477,38,74112,65728,6,6,4,1460,313125,1,16778208,770000,99116,90428,65700,0,40544,0,1944083738,63
i,1734976877.027679,172.16.3.2,36702,172.16.1.2,5101,40722,43477,38,74112,65728,6,6,4,1460,313125,1,16778208,770000,99116,99116,65700,0,43440,0,1944083738,63
o,1734976877.028041,172.16.3.2,36702,172.16.1.2,5101,40722,43477,38,144960,65728,6,6,4,1460,314062,1,16778208,710000,99116,96220,65700,0,40544,0,1944083738,63
i,1734976877.030459,172.16.3.2,36702,172.16.1.2,5101,40722,43477,38,144960,65728,6,6,4,1460,314062,1,16778208,710000,99116,99116,65700,0,43440,0,1944083738,63
o,1734976877.030838,172.16.3.2,36702,172.16.1.2,5101,40722,43477,38,142080,65728,6,6,4,1460,315000,1,16778208,670000,99116,96220,65700,0,40544,0,1944083738,63
o,1734976877.031746,172.16.3.2,36702,172.16.1.2,5101,40722,43477,38,142080,65728,6,6,4,1460,315000,1,16778208,670000,99116,96220,65700,0,41992,0,1944083738,63
i,1734976877.033185,172.16.3.2,36702,172.16.1.2,5101,40722,43477,38,142080,65728,6,6,4,1460,315000,1,16778208,670000,99116,96220,65700,0,43440,0,1944083738,63
o,1734976877.033291,172.16.3.2,36702,172.16.1.2,5101,40722,43477,38,139200,65728,6,6,4,1460,315625,1,16778208,640000,99116,93324,65700,0,40544,0,1944083738,63
i,1734976877.034034,172.16.3.2,36702,172.16.1.2,5101,40722,43477,38,139200,65728,6,6,4,1460,315625,1,16778208,640000,99116,93324,65700,0,43440,0,1944083738,63
o,1734976877.034122,172.16.3.2,36702,172.16.1.2,5101,40722,43477,38,136320,65728,6,6,4,1460,316250,1,16778208,610000,99116,90428,65700,0,40544,0,1944083738,63
i,1734976877.034916,172.16.3.2,36702,172.16.1.2,5101,40722,43477,38,136320,65728,6,6,4,1460,316250,1,16778208,610000,99116,90428,65700,0,43440,0,1944083738,63
o,1734976877.035039,172.16.3.2,36702,172.16.1.2,5101,40722,43477,38,146432,65728,6,6,4,1460,316875,1,16778208,590000,99116,87532,65700,0,40544,0,1944083738,63
i,1734976877.035481,172.16.3.2,36702,172.16.1.2,5101,40722,43477,38,146432,65728,6,6,4,1460,316875,1,16778208,590000,99116,87532,65700,0,43440,0,1944083738,63
o,1734976877.035562,172.16.3.2,36702,172.16.1.2,5101,40722,43477,38,146432,65728,6,6,4,1460,313750,1,16778208,590000,99116,84636,65700,0,40544,0,1944083738,63
i,1734976877.150626,172.16.3.2,36702,172.16.1.2,5101,40722,43477,38,146432,65728,6,6,4,1460,313750,1,16778208,590000,99116,99116,65700,0,43440,0,1944083738,63
o,1734976877.150737,172.16.3.2,36702,172.16.1.2,5101,40722,43477,38,146432,65728,6,6,4,1460,319687,1,16778208,630000,99116,96220,65700,0,40544,0,1944083738,63
i,1734976877.152007,172.16.3.2,36702,172.16.1.2,5101,40722,43477,38,146432,65728,6,6,4,1460,319687,1,16778208,630000,99116,96220,65700,0,43440,0,1944083738,63
o,1734976877.152082,172.16.3.2,36702,172.16.1.2,5101,40722,43477,38,146432,65728,6,6,4,1460,325000,1,16778208,650000,99116,93324,65700,0,40544,0,1944083738,63
i,1734976877.156776,172.16.3.2,36702,172.16.1.2,5101,40722,43477,38,146432,65728,6,6,4,1460,325000,1,16778208,650000,99116,99116,65700,0,43440,0,1944083738,63
o,1734976877.157070,172.16.3.2,36702,172.16.1.2,5101,40722,43477,38,143552,65728,6,6,4,1460,329375,1,16778208,660000,99116,96220,65700,0,40544,0,1944083738,63
i,1734976877.157767,172.16.3.2,36702,172.16.1.2,5101,40722,43477,38,143552,65728,6,6,4,1460,329375,1,16778208,660000,99116,96220,65700,0,43440,0,1944083738,63
o,1734976877.157844,172.16.3.2,36702,172.16.1.2,5101,40722,43477,38,140672,65728,6,6,4,1460,333437,1,16778208,660000,99116,93324,65700,0,40544,0,1944083738,63
i,1734976877.158496,172.16.3.2,36702,172.16.1.2,5101,40722,43477,38,140672,65728,6,6,4,1460,333437,1,16778208,660000,99116,93324,65700,0,43440,0,1944083738,63
o,1734976877.158571,172.16.3.2,36702,172.16.1.2,5101,40722,43477,38,137792,65728,6,6,4,1460,336875,1,16778208,660000,99116,90428,65700,0,40544,0,1944083738,63
i,1734976877.161255,172.16.3.2,36702,172.16.1.2,5101,40722,43477,38,137792,65728,6,6,4,1460,336875,1,16778208,660000,99116,99116,65700,0,43440,0,1944083738,63
o,1734976877.161492,172.16.3.2,36702,172.16.1.2,5101,40722,43477,38,134912,65728,6,6,4,1460,340000,1,16778208,660000,99116,96220,65700,0,40544,0,1944083738,63
i,1734976877.262914,172.16.3.2,36702,172.16.1.2,5101,40722,43477,38,134912,65728,6,6,4,1460,340000,1,16778208,660000,99116,99116,65700,0,43440,0,1944083738,63
o,1734976877.263190,172.16.3.2,36702,172.16.1.2,5101,40722,43477,38,144960,65728,6,6,4,1460,338750,1,16778208,640000,99116,96220,65700,0,40544,0,1944083738,63
i,1734976877.321092,172.16.3.2,36702,172.16.1.2,5101,40722,43477,38,144960,65728,6,6,4,1460,338750,1,16778208,640000,99116,99116,65700,0,43440,0,1944083738,63
o,1734976877.321187,172.16.3.2,36702,172.16.1.2,5101,40722,43477,38,146432,65728,6,6,4,1460,345312,1,16778208,670000,99116,96220,65700,0,40544,0,1944083738,63
i,1734976877.322254,172.16.3.2,36702,172.16.1.2,5101,40722,43477,38,146432,65728,6,6,4,1460,345312,1,16778208,670000,99116,96220,65700,0,43440,0,1944083738,63
o,1734976877.322561,172.16.3.2,36702,172.16.1.2,5101,40722,43477,38,143552,65728,6,6,4,1460,350937,1,16778208,690000,99116,93324,65700,0,40544,0,1944083738,63
i,1734976877.445500,172.16.3.2,36702,172.16.1.2,5101,40722,43477,38,143552,65728,6,6,4,1460,350937,1,16778208,690000,99116,99116,65700,0,43440,0,1944083738,63
o,1734976877.445638,172.16.3.2,36702,172.16.1.2,5101,40722,43477,38,146432,65728,6,6,4,1460,358437,1,16778208,720000,99116,96220,65700,0,40544,0,1944083738,63
i,1734976877.467061,172.16.3.2,36702,172.16.1.2,5101,40722,43477,38,146432,65728,6,6,4,1460,358437,1,16778208,720000,99116,99116,65700,0,43440,0,1944083738,63
o,1734976877.467167,172.16.3.2,36702,172.16.1.2,5101,40722,43477,38,144960,65728,6,6,4,1460,368750,1,16778208,770000,99116,96220,65700,0,40544,0,1944083738,63
o,1734976877.467666,172.16.3.2,36702,172.16.1.2,5101,40722,43477,38,144960,65728,6,6,4,1460,368750,1,16778208,770000,99116,96220,65700,0,41992,0,1944083738,63
i,1734976877.471188,172.16.3.2,36702,172.16.1.2,5101,40722,43477,38,144960,65728,6,6,4,1460,368750,1,16778208,770000,99116,99116,65700,0,43440,0,1944083738,63
o,1734976877.471321,172.16.3.2,36702,172.16.1.2,5101,40722,43477,38,146432,65728,6,6,4,1460,376562,1,16778208,790000,99116,96220,65700,0,40544,0,1944083738,63
i,1734976877.477445,172.16.3.2,36702,172.16.1.2,5101,40722,43477,38,146432,65728,6,6,4,1460,376562,1,16778208,790000,99116,99116,65700,0,43440,0,1944083738,63
o,1734976877.477508,172.16.3.2,36702,172.16.1.2,5101,40722,43477,38,143552,65728,6,6,4,1460,384687,1,16778208,810000,99116,96220,65700,0,40544,0,1944083738,63
i,1734976877.481473,172.16.3.2,36702,172.16.1.2,5101,40722,43477,38,143552,65728,6,6,4,1460,384687,1,16778208,810000,99116,99116,65700,0,43440,0,1944083738,63
o,1734976877.481564,172.16.3.2,36702,172.16.1.2,5101,40722,43477,38,144960,65728,6,6,4,1460,393125,1,16778208,830000,99116,96220,65700,0,40544,0,1944083738,63
i,1734976877.485181,172.16.3.2,36702,172.16.1.2,5101,40722,43477,38,144960,65728,6,6,4,1460,393125,1,16778208,830000,99116,99116,65700,0,43440,0,1944083738,63
o,1734976877.485266,172.16.3.2,36702,172.16.1.2,5101,40722,43477,38,146432,65728,6,6,4,1460,400312,1,16778208,830000,99116,96220,65700,0,40544,0,1944083738,63
i,1734976877.541031,172.16.3.2,36702,172.16.1.2,5101,40722,43477,38,146432,65728,6,6,4,1460,400312,1,16778208,830000,99116,99116,65700,0,43440,0,1944083738,63
o,1734976877.541158,172.16.3.2,36702,172.16.1.2,5101,40722,43477,38,146432,65728,6,6,4,1460,399062,1,16778208,780000,99116,96220,65700,0,40544,0,1944083738,63
i,1734976877.544352,172.16.3.2,36702,172.16.1.2,5101,40722,43477,38,146432,65728,6,6,4,1460,399062,1,16778208,780000,99116,96220,65700,0,43440,0,1944083738,63
o,1734976877.544437,172.16.3.2,36702,172.16.1.2,5101,40722,43477,38,143552,65728,6,6,4,1460,398125,1,16778208,740000,99116,93324,65700,0,40544,0,1944083738,63
i,1734976877.545037,172.16.3.2,36702,172.16.1.2,5101,40722,43477,38,143552,65728,6,6,4,1460,398125,1,16778208,740000,99116,93324,65700,0,43440,0,1944083738,63
o,1734976877.545114,172.16.3.2,36702,172.16.1.2,5101,40722,43477,38,147840,65728,6,6,4,1460,397187,1,16778208,710000,99116,91876,65700,0,41992,0,1944083738,63
i,1734976877.551230,172.16.3.2,36702,172.16.1.2,5101,40722,43477,38,147840,65728,6,6,4,1460,397187,1,16778208,710000,99116,99116,65700,0,43440,0,1944083738,63
o,1734976877.551331,172.16.3.2,36702,172.16.1.2,5101,40722,43477,38,144960,65728,6,6,4,1460,396562,1,16778208,690000,99116,96220,65700,0,40544,0,1944083738,63
i,1734976877.556830,172.16.3.2,36702,172.16.1.2,5101,40722,43477,38,144960,65728,6,6,4,1460,396562,1,16778208,690000,99116,99116,65700,0,43440,0,1944083738,63
o,1734976877.556917,172.16.3.2,36702,172.16.1.2,5101,40722,43477,38,146432,65728,6,6,4,1460,395937,1,16778208,670000,99116,96220,65700,0,40544,0,1944083738,63
i,1734976877.561980,172.16.3.2,36702,172.16.1.2,5101,40722,43477,38,146432,65728,6,6,4,1460,395937,1,16778208,670000,99116,99116,65700,0,43440,0,1944083738,63
o,1734976877.562073,172.16.3.2,36702,172.16.1.2,5101,40722,43477,38,146432,65728,6,6,4,1460,397812,1,16778208,670000,99116,96220,65700,0,40544,0,1944083738,63
i,1734976877.583920,172.16.3.2,36702,172.16.1.2,5101,40722,43477,38,146432,65728,6,6,4,1460,397812,1,16778208,670000,99116,99116,65700,0,43440,0,1944083738,63
o,1734976877.584209,172.16.3.2,36702,172.16.1.2,5101,40722,43477,38,147840,65728,6,6,4,1460,401875,1,16778208,690000,99116,97668,65700,0,41992,0,1944083738,63
i,1734976877.680916,172.16.3.2,36702,172.16.1.2,5101,40722,43477,38,147840,65728,6,6,4,1460,401875,1,16778208,690000,99116,97668,65700,0,43440,0,1944083738,63
o,1734976877.680973,172.16.3.2,36702,172.16.1.2,5101,40722,43477,38,144960,65728,6,6,4,1460,403125,1,16778208,680000,99116,94772,65700,0,40544,0,1944083738,63
i,1734976877.690980,172.16.3.2,36702,172.16.1.2,5101,40722,43477,38,144960,65728,6,6,4,1460,403125,1,16778208,680000,99116,97072,65700,0,43440,0,1944083738,63
o,1734976877.691073,172.16.3.2,36702,172.16.1.2,5101,40722,43477,38,146432,65728,6,6,4,1460,397812,1,16778208,700000,99116,94176,65700,0,40544,0,1944083738,63
i,1734976877.692199,172.16.3.2,36702,172.16.1.2,5101,40722,43477,38,146432,65728,6,6,4,1460,397812,1,16778208,700000,99116,94176,65700,0,43440,0,1944083738,63
o,1734976877.692274,172.16.3.2,36702,172.16.1.2,5101,40722,43477,38,143552,65728,6,6,4,1460,394375,1,16778208,690000,99116,91280,65700,0,40544,0,1944083738,63
i,1734976877.774052,172.16.3.2,36702,172.16.1.2,5101,40722,43477,38,143552,65728,6,6,4,1460,394375,1,16778208,690000,99116,99116,65700,0,43440,0,1944083738,63
o,1734976877.774163,172.16.3.2,36702,172.16.1.2,5101,40722,43477,38,146432,65728,6,6,4,1460,385312,1,16778208,730000,99116,96220,65700,0,40544,0,1944083738,63
i,1734976877.774742,172.16.3.2,36702,172.16.1.2,5101,40722,43477,38,146432,65728,6,6,4,1460,385312,1,16778208,730000,99116,96220,65700,0,43440,0,1944083738,63
o,1734976877.774820,172.16.3.2,36702,172.16.1.2,5101,40722,43477,38,146432,65728,6,6,4,1460,374687,1,16778208,770000,99116,93324,65700,0,40544,0,1944083738,63
o,1734976877.775399,172.16.3.2,36702,172.16.1.2,5101,40722,43477,38,146432,65728,6,6,4,1460,374687,1,16778208,770000,99116,93324,65700,0,41992,0,1944083738,63
i,1734976877.775938,172.16.3.2,36702,172.16.1.2,5101,40722,43477,38,146432,65728,6,6,4,1460,374687,1,16778208,770000,99116,93324,65700,0,43440,0,1944083738,63
o,1734976877.776014,172.16.3.2,36702,172.16.1.2,5101,40722,43477,38,146432,65728,6,6,4,1460,365625,1,16778208,780000,99116,90428,65700,0,40544,0,1944083738,63
i,1734976877.866747,172.16.3.2,36702,172.16.1.2,5101,40722,43477,38,146432,65728,6,6,4,1460,365625,1,16778208,780000,99116,99116,65700,0,43440,0,1944083738,63
o,1734976877.866908,172.16.3.2,36702,172.16.1.2,5101,40722,43477,38,146432,65728,6,6,4,1460,368750,1,16778208,760000,99116,96220,65700,0,40544,0,1944083738,63
i,1734976877.878405,172.16.3.2,36702,172.16.1.2,5101,40722,43477,38,146432,65728,6,6,4,1460,368750,1,16778208,760000,99116,99116,65700,0,43440,0,1944083738,63
o,1734976877.878563,172.16.3.2,36702,172.16.1.2,5101,40722,43477,38,146432,65728,6,6,4,1460,371562,1,16778208,730000,99116,96220,65700,0,40544,0,1944083738,63
i,1734976877.889832,172.16.3.2,36702,172.16.1.2,5101,40722,43477,38,146432,65728,6,6,4,1460,371562,1,16778208,730000,99116,99116,65700,0,43440,0,1944083738,63
o,1734976877.890249,172.16.3.2,36702,172.16.1.2,5101,40722,43477,38,143552,65728,6,6,4,1460,375312,1,16778208,730000,99116,96220,65700,0,40544,0,1944083738,63
i,1734976877.947187,172.16.3.2,36702,172.16.1.2,5101,40722,43477,38,143552,65728,6,6,4,1460,375312,1,16778208,730000,99116,99116,65700,0,43440,0,1944083738,63
o,1734976877.947289,172.16.3.2,36702,172.16.1.2,5101,40722,43477,38,144960,65728,6,6,4,1460,378437,1,16778208,720000,99116,96220,65700,0,40544,0,1944083738,63
i,1734976877.948236,172.16.3.2,36702,172.16.1.2,5101,40722,43477,38,144960,65728,6,6,4,1460,378437,1,16778208,720000,99116,99116,65700,0,43440,0,1944083738,63
o,1734976877.948511,172.16.3.2,36702,172.16.1.2,5101,40722,43477,38,146432,65728,6,6,4,1460,380000,1,16778208,700000,99116,96220,65700,0,40544,0,1944083738,63
i,1734976877.955633,172.16.3.2,36702,172.16.1.2,5101,40722,43477,38,146432,65728,6,6,4,1460,380000,1,16778208,700000,99116,99116,65700,0,43440,0,1944083738,63
o,1734976877.955814,172.16.3.2,36702,172.16.1.2,5101,40722,43477,38,144960,65728,6,6,4,1460,382500,1,16778208,690000,99116,96220,65700,0,40544,0,1944083738,63
i,1734976877.956689,172.16.3.2,36702,172.16.1.2,5101,40722,43477,38,144960,65728,6,6,4,1460,382500,1,16778208,690000,99116,96220,65700,0,43440,0,1944083738,63
o,1734976877.956821,172.16.3.2,36702,172.16.1.2,5101,40722,43477,38,142080,65728,6,6,4,1460,384687,1,16778208,680000,99116,93324,65700,0,40544,0,1944083738,63
i,1734976878.032639,172.16.3.2,36702,172.16.1.2,5101,40722,43477,38,142080,65728,6,6,4,1460,384687,1,16778208,680000,99116,99116,65700,0,43440,0,1944083738,63
o,1734976878.032735,172.16.3.2,36702,172.16.1.2,5101,40722,43477,38,144960,65728,6,6,4,1460,396875,1,16778208,770000,99116,96220,65700,0,40544,0,1944083738,63
i,1734976878.033299,172.16.3.2,36702,172.16.1.2,5101,40722,43477,38,144960,65728,6,6,4,1460,396875,1,16778208,770000,99116,96220,65700,0,43440,0,1944083738,63
o,1734976878.033375,172.16.3.2,36702,172.16.1.2,5101,40722,43477,38,146432,65728,6,6,4,1460,406250,1,16778208,810000,99116,93324,65700,0,40544,0,1944083738,63
i,1734976878.059287,172.16.3.2,36702,172.16.1.2,5101,40722,43477,38,146432,65728,6,6,4,1460,406250,1,16778208,810000,99116,99116,65700,0,43440,0,1944083738,63
o,1734976878.059411,172.16.3.2,36702,172.16.1.2,5101,40722,43477,38,146432,65728,6,6,4,1460,403125,1,16778208,780000,99116,96220,65700,0,40544,0,1944083738,63
i,1734976878.061147,172.16.3.2,36702,172.16.1.2,5101,40722,43477,38,146432,65728,6,6,4,1460,403125,1,16778208,780000,99116,96220,65700,0,43440,0,1944083738,63
o,1734976878.061224,172.16.3.2,36702,172.16.1.2,5101,40722,43477,38,147840,65728,6,6,4,1460,399062,1,16778208,760000,99116,94772,65700,0,41992,0,1944083738,63
i,1734976878.062280,172.16.3.2,36702,172.16.1.2,5101,40722,43477,38,147840,65728,6,6,4,1460,399062,1,16778208,760000,99116,94772,65700,0,43440,0,1944083738,63
o,1734976878.062356,172.16.3.2,36702,172.16.1.2,5101,40722,43477,38,144960,65728,6,6,4,1460,396875,1,16778208,740000,99116,91876,65700,0,40544,0,1944083738,63
i,1734976878.130431,172.16.3.2,36702,172.16.1.2,5101,40722,43477,38,144960,65728,6,6,4,1460,396875,1,16778208,740000,99116,99116,65700,0,43440,0,1944083738,63
o,1734976878.130815,172.16.3.2,36702,172.16.1.2,5101,40722,43477,38,147840,65728,6,6,4,1460,401250,1,16778208,740000,99116,97668,65700,0,41992,0,1944083738,63
i,1734976878.133533,172.16.3.2,36702,172.16.1.2,5101,40722,43477,38,147840,65728,6,6,4,1460,401250,1,16778208,740000,99116,97668,65700,0,43440,0,1944083738,63
o,1734976878.133847,172.16.3.2,36702,172.16.1.2,5101,40722,43477,38,144960,65728,6,6,4,1460,396250,1,16778208,740000,99116,94772,65700,0,40544,0,1944083738,63
i,1734976878.134506,172.16.3.2,36702,172.16.1.2,5101,40722,43477,38,144960,65728,6,6,4,1460,396250,1,16778208,740000,99116,94772,65700,0,43440,0,1944083738,63
o,1734976878.134602,172.16.3.2,36702,172.16.1.2,5101,40722,43477,38,142080,65728,6,6,4,1460,391875,1,16778208,730000,99116,91876,65700,0,40544,0,1944083738,63
o,1734976878.135100,172.16.3.2,36702,172.16.1.2,5101,40722,43477,38,142080,65728,6,6,4,1460,391875,1,16778208,730000,99116,91876,65700,0,41992,0,1944083738,63
i,1734976878.135423,172.16.3.2,36702,172.16.1.2,5101,40722,43477,38,142080,65728,6,6,4,1460,391875,1,16778208,730000,99116,91876,65700,0,43440,0,1944083738,63
o,1734976878.135498,172.16.3.2,36702,172.16.1.2,5101,40722,43477,38,139200,65728,6,6,4,1460,388125,1,16778208,730000,99116,88980,65700,0,40544,0,1944083738,63
i,1734976878.240726,172.16.3.2,36702,172.16.1.2,5101,40722,43477,38,139200,65728,6,6,4,1460,388125,1,16778208,730000,99116,99116,65700,0,43440,0,1944083738,63
o,1734976878.240832,172.16.3.2,36702,172.16.1.2,5101,40722,43477,38,144960,65728,6,6,4,1460,384687,1,16778208,710000,99116,96220,65700,0,40544,0,1944083738,63
i,1734976878.242165,172.16.3.2,36702,172.16.1.2,5101,40722,43477,38,144960,65728,6,6,4,1460,384687,1,16778208,710000,99116,96220,65700,0,43440,0,1944083738,63
o,1734976878.242241,172.16.3.2,36702,172.16.1.2,5101,40722,43477,38,144960,65728,6,6,4,1460,381875,1,16778208,700000,99116,93324,65700,0,40544,0,1944083738,63
i,1734976878.271608,172.16.3.2,36702,172.16.1.2,5101,40722,43477,38,144960,65728,6,6,4,1460,381875,1,16778208,700000,99116,99116,65700,0,43440,0,1944083738,63
o,1734976878.271608,172.16.3.2,36702,172.16.1.2,5101,40722,43477,38,144960,65728,6,6,4,1460,381875,1,16778208,670000,99116,96220,65700,0,40544,0,1944083738,63
i,1734976878.273490,172.16.3.2,36702,172.16.1.2,5101,40722,43477,38,144960,65728,6,6,4,1460,381875,1,16778208,670000,99116,96220,65700,0,43440,0,1944083738,63
o,1734976878.273774,172.16.3.2,36702,172.16.1.2,5101,40722,43477,38,146432,65728,6,6,4,1460,374375,1,16778208,700000,99116,93324,65700,0,40544,0,1944083738,63
i,1734976878.275871,172.16.3.2,36702,172.16.1.2,5101,40722,43477,38,146432,65728,6,6,4,1460,374375,1,16778208,700000,99116,93324,65700,0,43440,0,1944083738,63
o,1734976878.275950,172.16.3.2,36702,172.16.1.2,5101,40722,43477,38,146432,65728,6,6,4,1460,367812,1,16778208,720000,99116,90428,65700,0,40544,0,1944083738,63
i,1734976878.289189,172.16.3.2,36702,172.16.1.2,5101,40722,43477,38,146432,65728,6,6,4,1460,367812,1,16778208,720000,99116,99116,65700,0,43440,0,1944083738,63
o,1734976878.289282,172.16.3.2,36702,172.16.1.2,5101,40722,43477,38,146432,65728,6,6,4,1460,363125,1,16778208,710000,99116,96220,65700,0,40544,0,1944083738,63
i,1734976878.289842,172.16.3.2,36702,172.16.1.2,5101,40722,43477,38,146432,65728,6,6,4,1460,363125,1,16778208,710000,99116,96220,65700,0,43440,0,1944083738,63
o,1734976878.289919,172.16.3.2,36702,172.16.1.2,5101,40722,43477,38,147840,65728,6,6,4,1460,359062,1,16778208,700000,99116,94772,65700,0,41992,0,1944083738,63
i,1734976878.424990,172.16.3.2,36702,172.16.1.2,5101,40722,43477,38,147840,65728,6,6,4,1460,359062,1,16778208,700000,99116,99116,65700,0,43440,0,1944083738,63
o,1734976878.425275,172.16.3.2,36702,172.16.1.2,5101,40722,43477,38,146432,65728,6,6,4,1460,371875,1,16778208,780000,99116,96220,65700,0,40544,0,1944083738,63
i,1734976878.425844,172.16.3.2,36702,172.16.1.2,5101,40722,43477,38,146432,65728,6,6,4,1460,371875,1,16778208,780000,99116,96220,65700,0,43440,0,1944083738,63
o,1734976878.425920,172.16.3.2,36702,172.16.1.2,5101,40722,43477,38,146432,65728,6,6,4,1460,374375,1,16778208,750000,99116,93324,65700,0,40544,0,1944083738,63
i,1734976878.447960,172.16.3.2,36702,172.16.1.2,5101,40722,43477,38,146432,65728,6,6,4,1460,374375,1,16778208,750000,99116,99116,65700,0,43440,0,1944083738,63
o,1734976878.448019,172.16.3.2,36702,172.16.1.2,5101,40722,43477,38,146432,65728,6,6,4,1460,379062,1,16778208,750000,99116,96220,65700,0,40544,0,1944083738,63
i,1734976878.448323,172.16.3.2,36702,172.16.1.2,5101,40722,43477,38,146432,65728,6,6,4,1460,379062,1,16778208,750000,99116,96220,65700,0,43440,0,1944083738,63
o,1734976878.448411,172.16.3.2,36702,172.16.1.2,5101,40722,43477,38,144960,65728,6,6,4,1460,380625,1,16778208,720000,99116,93324,65700,0,40544,0,1944083738,63
i,1734976878.451745,172.16.3.2,36702,172.16.1.2,5101,40722,43477,38,144960,65728,6,6,4,1460,380625,1,16778208,720000,99116,99116,65700,0,43440,0,1944083738,63
o,1734976878.451832,172.16.3.2,36702,172.16.1.2,5101,40722,43477,38,146432,65728,6,6,4,1460,380625,1,16778208,690000,99116,96220,65700,0,40544,0,1944083738,63
i,1734976878.468114,172.16.3.2,36702,172.16.1.2,5101,40722,43477,38,146432,65728,6,6,4,1460,380625,1,16778208,690000,99116,99116,65700,0,43440,0,1944083738,63
o,1734976878.468214,172.16.3.2,36702,172.16.1.2,5101,40722,43477,38,146432,65728,6,6,4,1460,374375,1,16778208,700000,99116,96220,65700,0,40544,0,1944083738,63
i,1734976878.468475,172.16.3.2,36702,172.16.1.2,5101,40722,43477,38,146432,65728,6,6,4,1460,374375,1,16778208,700000,99116,96220,65700,0,43440,0,1944083738,63
o,1734976878.468506,172.16.3.2,36702,172.16.1.2,5101,40722,43477,38,146432,65728,6,6,4,1460,369062,1,16778208,710000,99116,93324,65700,0,40544,0,1944083738,63
o,1734976878.468721,172.16.3.2,36702,172.16.1.2,5101,40722,43477,38,146432,65728,6,6,4,1460,369062,1,16778208,710000,99116,93324,65700,0,41992,0,1944083738,63
i,1734976878.498049,172.16.3.2,36702,172.16.1.2,5101,40722,43477,38,146432,65728,6,6,4,1460,369062,1,16778208,710000,99116,99116,65700,0,43440,0,1944083738,63
o,1734976878.498105,172.16.3.2,36702,172.16.1.2,5101,40722,43477,38,146432,65728,6,6,4,1460,368125,1,16778208,680000,99116,96220,65700,0,40544,0,1944083738,63
i,1734976878.501777,172.16.3.2,36702,172.16.1.2,5101,40722,43477,38,146432,65728,6,6,4,1460,368125,1,16778208,680000,99116,99116,65700,0,43440,0,1944083738,63
o,1734976878.501865,172.16.3.2,36702,172.16.1.2,5101,40722,43477,38,146432,65728,6,6,4,1460,367187,1,16778208,660000,99116,96220,65700,0,40544,0,1944083738,63
i,1734976878.502637,172.16.3.2,36702,172.16.1.2,5101,40722,43477,38,146432,65728,6,6,4,1460,367187,1,16778208,660000,99116,96220,65700,0,43440,0,1944083738,63
o,1734976878.502719,172.16.3.2,36702,172.16.1.2,5101,40722,43477,38,143552,65728,6,6,4,1460,354062,1,16778208,730000,99116,93324,65700,0,40544,0,1944083738,63
i,1734976878.662942,172.16.3.2,36702,172.16.1.2,5101,40722,43477,38,143552,65728,6,6,4,1460,354062,1,16778208,730000,99116,99116,65700,0,43440,0,1944083738,63
o,1734976878.663205,172.16.3.2,36702,172.16.1.2,5101,40722,43477,38,146432,65728,6,6,4,1460,362500,1,16778208,760000,99116,96220,65700,0,40544,0,1944083738,63
i,1734976878.668517,172.16.3.2,36702,172.16.1.2,5101,40722,43477,38,146432,65728,6,6,4,1460,362500,1,16778208,760000,99116,99116,65700,0,43440,0,1944083738,63
o,1734976878.668596,172.16.3.2,36702,172.16.1.2,5101,40722,43477,38,146432,65728,6,6,4,1460,365937,1,16778208,740000,99116,96220,65700,0,40544,0,1944083738,63
i,1734976878.672777,172.16.3.2,36702,172.16.1.2,5101,40722,43477,38,146432,65728,6,6,4,1460,365937,1,16778208,740000,99116,99116,65700,0,43440,0,1944083738,63
o,1734976878.672868,172.16.3.2,36702,172.16.1.2,5101,40722,43477,38,143552,65728,6,6,4,1460,370312,1,16778208,740000,99116,96220,65700,0,40544,0,1944083738,63
i,1734976878.676901,172.16.3.2,36702,172.16.1.2,5101,40722,43477,38,143552,65728,6,6,4,1460,370312,1,16778208,740000,99116,99116,65700,0,43440,0,1944083738,63
o,1734976878.676941,172.16.3.2,36702,172.16.1.2,5101,40722,43477,38,140672,65728,6,6,4,1460,374062,1,16778208,730000,99116,96220,65700,0,40544,0,1944083738,63
i,1734976878.682785,172.16.3.2,36702,172.16.1.2,5101,40722,43477,38,140672,65728,6,6,4,1460,374062,1,16778208,730000,99116,99116,65700,0,43440,0,1944083738,63
o,1734976878.682888,172.16.3.2,36702,172.16.1.2,5101,40722,43477,38,146432,65728,6,6,4,1460,376250,1,16778208,710000,99116,96220,65700,0,40544,0,1944083738,63
i,1734976878.817293,172.16.3.2,36702,172.16.1.2,5101,40722,43477,38,146432,65728,6,6,4,1460,376250,1,16778208,710000,99116,99116,65700,0,43440,0,1944083738,63
o,1734976878.817499,172.16.3.2,36702,172.16.1.2,5101,40722,43477,38,144960,65728,6,6,4,1460,378125,1,16778208,690000,99116,96220,65700,0,40544,0,1944083738,63
i,1734976878.860262,172.16.3.2,36702,172.16.1.2,5101,40722,43477,38,144960,65728,6,6,4,1460,378125,1,16778208,690000,99116,99116,65700,0,43440,0,1944083738,63
o,1734976878.860535,172.16.3.2,36702,172.16.1.2,5101,40722,43477,38,147840,65728,6,6,4,1460,384687,1,16778208,720000,99116,97668,65700,0,41992,0,1944083738,63
i,1734976878.869704,172.16.3.2,36702,172.16.1.2,5101,40722,43477,38,147840,65728,6,6,4,1460,384687,1,16778208,720000,99116,97668,65700,0,43440,0,1944083738,63
o,1734976878.869810,172.16.3.2,36702,172.16.1.2,5101,40722,43477,38,146432,65728,6,6,4,1460,391875,1,16778208,750000,99116,94772,65700,0,40544,0,1944083738,63
i,1734976878.870471,172.16.3.2,36702,172.16.1.2,5101,40722,43477,38,146432,65728,6,6,4,1460,391875,1,16778208,750000,99116,94772,65700,0,43440,0,1944083738,63
o,1734976878.870548,172.16.3.2,36702,172.16.1.2,5101,40722,43477,38,143552,65728,6,6,4,1460,394375,1,16778208,730000,99116,91876,65700,0,40544,0,1944083738,63
i,1734976878.876021,172.16.3.2,36702,172.16.1.2,5101,40722,43477,38,143552,65728,6,6,4,1460,394375,1,16778208,730000,99116,97824,65700,0,43440,0,1944083738,63
o,1734976878.876115,172.16.3.2,36702,172.16.1.2,5101,40722,43477,38,144960,65728,6,6,4,1460,397812,1,16778208,730000,99116,94928,65700,0,40544,0,1944083738,63
i,1734976878.879941,172.16.3.2,36702,172.16.1.2,5101,40722,43477,38,144960,65728,6,6,4,1460,397812,1,16778208,730000,99116,99116,65700,0,43440,0,1944083738,63
o,1734976878.880052,172.16.3.2,36702,172.16.1.2,5101,40722,43477,38,146432,65728,6,6,4,1460,400625,1,16778208,720000,99116,96220,65700,0,40544,0,1944083738,63
i,1734976878.895467,172.16.3.2,36702,172.16.1.2,5101,40722,43477,38,146432,65728,6,6,4,1460,400625,1,16778208,720000,99116,99116,65700,0,43440,0,1944083738,63
o,1734976878.895567,172.16.3.2,36702,172.16.1.2,5101,40722,43477,38,146432,65728,6,6,4,1460,403125,1,16778208,720000,99116,96220,65700,0,40544,0,1944083738,63
o,1734976878.896062,172.16.3.2,36702,172.16.1.2,5101,40722,43477,38,146432,65728,6,6,4,1460,403125,1,16778208,720000,99116,96220,65700,0,41992,0,1944083738,63
i,1734976878.896792,172.16.3.2,36702,172.16.1.2,5101,40722,43477,38,146432,65728,6,6,4,1460,403125,1,16778208,720000,99116,96220,65700,0,43440,0,1944083738,63
o,1734976878.896913,172.16.3.2,36702,172.16.1.2,5101,40722,43477,38,147840,65728,6,6,4,1460,405312,1,16778208,710000,99116,94772,65700,0,41992,0,1944083738,63
i,1734976879.046507,172.16.3.2,36702,172.16.1.2,5101,40722,43477,38,147840,65728,6,6,4,1460,405312,1,16778208,710000,99116,99116,65700,0,43440,0,1944083738,63
o,1734976879.046620,172.16.3.2,36702,172.16.1.2,5101,40722,43477,38,146432,65728,6,6,4,1460,422187,1,16778208,830000,99116,96220,65700,0,40544,0,1944083738,63
i,1734976879.051343,172.16.3.2,36702,172.16.1.2,5101,40722,43477,38,146432,65728,6,6,4,1460,422187,1,16778208,830000,99116,99116,65700,0,43440,0,1944083738,63
o,1734976879.051600,172.16.3.2,36702,172.16.1.2,5101,40722,43477,38,143552,65728,6,6,4,1460,438437,1,16778208,930000,99116,96220,65700,0,40544,0,1944083738,63
i,1734976879.052120,172.16.3.2,36702,172.16.1.2,5101,40722,43477,38,143552,65728,6,6,4,1460,438437,1,16778208,930000,99116,96220,65700,0,43440,0,1944083738,63
o,1734976879.052184,172.16.3.2,36702,172.16.1.2,5101,40722,43477,38,144960,65728,6,6,4,1460,452500,1,16778208,980000,99116,93324,65700,0,40544,0,1944083738,63
i,1734976879.109928,172.16.3.2,36702,172.16.1.2,5101,40722,43477,38,144960,65728,6,6,4,1460,452500,1,16778208,980000,99116,99116,65700,0,43440,0,1944083738,63
o,1734976879.110031,172.16.3.2,36702,172.16.1.2,5101,40722,43477,38,146432,65728,6,6,4,1460,450937,1,16778208,910000,99116,96220,65700,0,40544,0,1944083738,63
i,1734976879.110598,172.16.3.2,36702,172.16.1.2,5101,40722,43477,38,146432,65728,6,6,4,1460,450937,1,16778208,910000,99116,96220,65700,0,43440,0,1944083738,63
o,1734976879.110672,172.16.3.2,36702,172.16.1.2,5101,40722,43477,38,144960,65728,6,6,4,1460,449687,1,16778208,850000,99116,93324,65700,0,40544,0,1944083738,63
i,1734976879.112274,172.16.3.2,36702,172.16.1.2,5101,40722,43477,38,144960,65728,6,6,4,1460,449687,1,16778208,850000,99116,93324,65700,0,43440,0,1944083738,63
o,1734976879.112363,172.16.3.2,36702,172.16.1.2,5101,40722,43477,38,142080,65728,6,6,4,1460,448750,1,16778208,810000,99116,90428,65700,0,40544,0,1944083738,63
i,1734976879.113090,172.16.3.2,36702,172.16.1.2,5101,40722,43477,38,142080,65728,6,6,4,1460,448750,1,16778208,810000,99116,90428,65700,0,43440,0,1944083738,63
o,1734976879.113168,172.16.3.2,36702,172.16.1.2,5101,40722,43477,38,146432,65728,6,6,4,1460,447812,1,16778208,780000,99116,87532,65700,0,40544,0,1944083738,63
i,1734976879.115665,172.16.3.2,36702,172.16.1.2,5101,40722,43477,38,146432,65728,6,6,4,1460,447812,1,16778208,780000,99116,99116,65700,0,43440,0,1944083738,63
o,1734976879.115757,172.16.3.2,36702,172.16.1.2,5101,40722,43477,38,146432,65728,6,6,4,1460,445625,1,16778208,760000,99116,96220,65700,0,40544,0,1944083738,63
i,1734976879.232343,172.16.3.2,36702,172.16.1.2,5101,40722,43477,38,146432,65728,6,6,4,1460,445625,1,16778208,760000,99116,99116,65700,0,43440,0,1944083738,63
o,1734976879.232439,172.16.3.2,36702,172.16.1.2,5101,40722,43477,38,144960,65728,6,6,4,1460,441250,1,16778208,760000,99116,96220,65700,0,40544,0,1944083738,63
i,1734976879.233233,172.16.3.2,36702,172.16.1.2,5101,40722,43477,38,144960,65728,6,6,4,1460,441250,1,16778208,760000,99116,96220,65700,0,43440,0,1944083738,63
o,1734976879.233309,172.16.3.2,36702,172.16.1.2,5101,40722,43477,38,146432,65728,6,6,4,1460,432500,1,16778208,790000,99116,93324,65700,0,40544,0,1944083738,63
i,1734976879.234475,172.16.3.2,36702,172.16.1.2,5101,40722,43477,38,146432,65728,6,6,4,1460,432500,1,16778208,790000,99116,93324,65700,0,43440,0,1944083738,63
o,1734976879.234809,172.16.3.2,36702,172.16.1.2,5101,40722,43477,38,143552,65728,6,6,4,1460,424687,1,16778208,810000,99116,90428,65700,0,40544,0,1944083738,63
i,1734976879.235674,172.16.3.2,36702,172.16.1.2,5101,40722,43477,38,143552,65728,6,6,4,1460,424687,1,16778208,810000,99116,90428,65700,0,43440,0,1944083738,63
o,1734976879.235750,172.16.3.2,36702,172.16.1.2,5101,40722,43477,38,140672,65728,6,6,4,1460,418125,1,16778208,810000,99116,87532,65700,0,40544,0,1944083738,63
i,1734976879.238540,172.16.3.2,36702,172.16.1.2,5101,40722,43477,38,140672,65728,6,6,4,1460,418125,1,16778208,810000,99116,99116,65700,0,43440,0,1944083738,63
o,1734976879.238689,172.16.3.2,36702,172.16.1.2,5101,40722,43477,38,137792,65728,6,6,4,1460,410937,1,16778208,810000,99116,96220,65700,0,40544,0,1944083738,63
i,1734976879.238897,172.16.3.2,36702,172.16.1.2,5101,40722,43477,38,137792,65728,6,6,4,1460,410937,1,16778208,810000,99116,96220,65700,0,43440,0,1944083738,63
o,1734976879.238897,172.16.3.2,36702,172.16.1.2,5101,40722,43477,38,134912,65728,6,6,4,1460,404687,1,16778208,800000,99116,93324,65700,0,40544,0,1944083738,63
o,1734976879.239517,172.16.3.2,36702,172.16.1.2,5101,40722,43477,38,134912,65728,6,6,4,1460,404687,1,16778208,800000,99116,93324,65700,0,41992,0,1944083738,63
i,1734976879.239765,172.16.3.2,36702,172.16.1.2,5101,40722,43477,38,134912,65728,6,6,4,1460,404687,1,16778208,800000,99116,93324,65700,0,43440,0,1944083738,63
o,1734976879.239796,172.16.3.2,36702,172.16.1.2,5101,40722,43477,38,146432,65728,6,6,4,1460,396875,1,16778208,810000,99116,90428,65700,0,40544,0,1944083738,63
i,1734976879.401840,172.16.3.2,36702,172.16.1.2,5101,40722,43477,38,146432,65728,6,6,4,1460,396875,1,16778208,810000,99116,99116,65700,0,43440,0,1944083738,63
o,1734976879.401916,172.16.3.2,36702,172.16.1.2,5101,40722,43477,38,146432,65728,6,6,4,1460,391250,1,16778208,800000,99116,96220,65700,0,40544,0,1944083738,63
i,1734976879.543500,172.16.3.2,36702,172.16.1.2,5101,40722,43477,38,146432,65728,6,6,4,1460,391250,1,16778208,800000,99116,99116,65700,0,43440,0,1944083738,63
o,1734976879.543668,172.16.3.2,36702,172.16.1.2,5101,40722,43477,38,144960,65728,6,6,4,1460,403750,1,16778208,860000,99116,96220,65700,0,40544,0,1944083738,63
i,1734976879.544304,172.16.3.2,36702,172.16.1.2,5101,40722,43477,38,144960,65728,6,6,4,1460,403750,1,16778208,860000,99116,96220,65700,0,43440,0,1944083738,63
o,1734976879.544394,172.16.3.2,36702,172.16.1.2,5101,40722,43477,38,142080,65728,6,6,4,1460,414687,1,16778208,890000,99116,93324,65700,0,40544,0,1944083738,63
i,1734976879.599536,172.16.3.2,36702,172.16.1.2,5101,40722,43477,38,142080,65728,6,6,4,1460,414687,1,16778208,890000,99116,99116,65700,0,43440,0,1944083738,63
o,1734976879.599589,172.16.3.2,36702,172.16.1.2,5101,40722,43477,38,146432,65728,6,6,4,1460,423125,1,16778208,900000,99116,96220,65700,0,40544,0,1944083738,63
i,1734976879.599860,172.16.3.2,36702,172.16.1.2,5101,40722,43477,38,146432,65728,6,6,4,1460,423125,1,16778208,900000,99116,96220,65700,0,43440,0,1944083738,63
o,1734976879.599891,172.16.3.2,36702,172.16.1.2,5101,40722,43477,38,147840,65728,6,6,4,1460,430312,1,16778208,890000,99116,94772,65700,0,41992,0,1944083738,63
i,1734976879.614911,172.16.3.2,36702,172.16.1.2,5101,40722,43477,38,147840,65728,6,6,4,1460,430312,1,16778208,890000,99116,99116,65700,0,43440,0,1944083738,63
o,1734976879.614911,172.16.3.2,36702,172.16.1.2,5101,40722,43477,38,144960,65728,6,6,4,1460,440312,1,16778208,920000,99116,96220,65700,0,40544,0,1944083738,63
i,1734976879.615634,172.16.3.2,36702,172.16.1.2,5101,40722,43477,38,144960,65728,6,6,4,1460,440312,1,16778208,920000,99116,96220,65700,0,43440,0,1944083738,63
o,1734976879.615666,172.16.3.2,36702,172.16.1.2,5101,40722,43477,38,142080,65728,6,6,4,1460,447812,1,16778208,920000,99116,93324,65700,0,40544,0,1944083738,63
i,1734976879.615905,172.16.3.2,36702,172.16.1.2,5101,40722,43477,38,142080,65728,6,6,4,1460,447812,1,16778208,920000,99116,93324,65700,0,43440,0,1944083738,63
o,1734976879.615937,172.16.3.2,36702,172.16.1.2,5101,40722,43477,38,146432,65728,6,6,4,1460,454375,1,16778208,910000,99116,90428,65700,0,40544,0,1944083738,63
i,1734976879.671278,172.16.3.2,36702,172.16.1.2,5101,40722,43477,38,146432,65728,6,6,4,1460,454375,1,16778208,910000,99116,99116,65700,0,43440,0,1944083738,63
o,1734976879.671445,172.16.3.2,36702,172.16.1.2,5101,40722,43477,38,147840,65728,6,6,4,1460,466562,1,16778208,950000,99116,97668,65700,0,41992,0,1944083738,63
