enable_time_secs=1716936378	enable_time_usecs=730386	siftrver=1.2.4	hz=100	tcp_rtt_scale=32	sysname=FreeBSD	sysver=1301000	ipmode=4
o,0x00000000,1716936378.730420,10.0.2.15,22,10.0.2.2,57227,1073725440,17298,0,65535,65700,0,0,4,1460,1,0,4,24,33580,44,65700,0,0,0,0,0
o,0x00000000,1716936378.730565,10.0.2.15,22,10.0.2.2,57227,1073725440,17298,0,65535,65700,0,0,4,1460,1,0,4,24,33580,80,65700,0,44,0,0,0
i,0x00000000,1716936378.731258,10.0.2.15,22,10.0.2.2,57227,1073725440,17298,0,65535,65700,0,0,4,1460,1,0,4,24,33580,80,65700,0,80,0,0,0
i,0x00000000,1716936378.731262,10.0.2.15,22,10.0.2.2,57227,1073725440,17342,0,65535,65700,0,0,4,1460,1,0,4,24,33580,36,65700,0,36,0,0,0
o,0x00000000,1716936378.731374,10.0.2.15,22,10.0.2.2,57227,1073725440,17378,0,65535,65700,0,0,4,1460,1,0,4,24,33580,36,65700,0,0,0,0,0
i,0x00000000,1716936378.732041,10.0.2.15,22,10.0.2.2,57227,1073725440,17378,0,65535,65700,0,0,4,1460,1,0,4,24,33580,36,65700,0,36,0,0,0
o,0x00000000,1716936378.732246,10.0.2.15,22,10.0.2.2,57227,1073725440,17414,0,65535,65700,0,0,4,1460,1,0,4,24,33580,176,65700,0,0,0,0,0
i,0x00000000,1716936378.733231,10.0.2.15,22,10.0.2.2,57227,1073725440,17414,0,65535,65700,0,0,4,1460,1,0,4,24,33580,176,65700,0,176,0,0,0
i,0x00000000,1716936378.733300,10.0.2.15,22,10.0.2.2,57227,1073725440,17590,0,65535,65700,0,0,4,1460,1,0,4,24,33580,0,65700,0,0,0,0,0
i,0x00000000,1716936378.733301,10.0.2.15,22,10.0.2.2,57227,1073725440,17590,0,65535,65700,0,0,4,1460,1,0,4,24,33580,0,65700,36,0,0,0,0
o,0x00000000,1716936378.733303,10.0.2.15,22,10.0.2.2,57227,1073725440,17590,0,65535,65700,0,0,4,1460,1,0,5,24,33580,0,65700,96,0,0,0,0
o,0x00000000,1716936378.733691,10.0.2.15,22,10.0.2.2,57227,1073725440,17590,0,65535,65700,0,0,6,1460,1,0,4,24,33580,0,65700,0,0,0,0,0
i,0x00000000,1716936378.735963,10.0.2.15,22,10.0.2.2,57227,1073725440,17590,0,65535,65700,0,0,6,1460,1,0,20,24,33580,0,65700,0,1,0,0,0
o,0x00000000,1716936378.735968,10.0.2.15,22,10.0.2.2,57227,1073725440,17590,0,65535,65700,0,0,7,1460,1,0,23,24,33580,0,65700,0,1,0,0,0
i,0x00000000,1716936378.736062,10.0.2.15,22,10.0.2.2,57227,1073725440,17590,0,65535,65700,0,0,7,1460,1,0,20,24,33580,0,65700,0,1,0,0,0
i,0x00000000,1716936380.815578,10.0.2.15,22,10.0.2.2,57231,1073725440,14600,0,65535,65700,0,0,4,1460,1,0,0,27,33580,0,65700,0,0,0,0,0
o,0x00000000,1716936380.821646,10.0.2.15,22,10.0.2.2,57231,1073725440,14600,0,65535,65700,0,0,4,1460,1,0,0,27,33580,38,65700,41,0,0,0,0
i,0x00000000,1716936380.822520,10.0.2.15,22,10.0.2.2,57231,1073725440,14600,0,65535,65700,0,0,4,1460,1,0,0,27,33580,38,65700,41,38,0,0,0
i,0x00000000,1716936380.823460,10.0.2.15,22,10.0.2.2,57231,1073725440,14638,0,65535,65700,0,0,4,1460,1,0,0,24,33580,0,65700,0,0,0,0,0
i,0x00000000,1716936380.823464,10.0.2.15,22,10.0.2.2,57231,1073725440,14638,0,65535,65700,0,0,4,1460,1,0,0,24,33580,0,65700,1460,0,0,0,0
o,0x00000000,1716936380.823467,10.0.2.15,22,10.0.2.2,57231,1073725440,14638,0,65535,65700,0,0,4,1460,1,0,1,24,33580,0,65700,1536,0,0,0,0
o,0x00000000,1716936380.823922,10.0.2.15,22,10.0.2.2,57231,1073725440,14638,0,65535,65700,0,0,4,1460,1,0,0,24,33580,1056,65700,1536,0,0,0,0
i,0x00000000,1716936380.824663,10.0.2.15,22,10.0.2.2,57231,1073725440,14638,0,65535,65700,0,0,4,1460,1,0,0,24,33580,1056,65700,1536,1056,0,0,0
i,0x00000000,1716936380.826309,10.0.2.15,22,10.0.2.2,57231,1073725440,15694,0,65535,65700,0,0,4,1460,1,0,0,24,33580,0,65700,0,0,0,0,0
o,0x00000000,1716936380.829061,10.0.2.15,22,10.0.2.2,57231,1073725440,15694,0,65535,65700,0,0,4,1460,1,0,0,24,33580,484,65700,0,0,0,0,0
i,0x00000000,1716936380.829690,10.0.2.15,22,10.0.2.2,57231,1073725440,15694,0,65535,65700,0,0,4,1460,1,0,0,24,33580,484,65700,0,484,0,0,0
i,0x00000000,1716936380.834204,10.0.2.15,22,10.0.2.2,57231,1073725440,16178,0,65535,65700,0,0,4,1460,1,0,0,24,33580,0,65700,0,0,0,0,0
i,0x00000000,1716936380.838411,10.0.2.15,22,10.0.2.2,57231,1073725440,16178,0,65535,65700,0,0,4,1460,1,0,0,24,33580,0,65700,0,0,0,0,0
o,0x00000000,1716936380.838416,10.0.2.15,22,10.0.2.2,57231,1073725440,16178,0,65535,65700,0,0,4,1460,1,0,1,24,33580,0,65700,44,0,0,0,0
o,0x00000000,1716936380.838564,10.0.2.15,22,10.0.2.2,57231,1073725440,16178,0,65535,65700,0,0,4,1460,1,0,0,24,33580,44,65700,0,0,0,0,0
i,0x00000000,1716936380.839452,10.0.2.15,22,10.0.2.2,57231,1073725440,16178,0,65535,65700,0,0,4,1460,1,0,0,24,33580,44,65700,0,44,0,0,0
i,0x00000000,1716936380.839455,10.0.2.15,22,10.0.2.2,57231,1073725440,16222,0,65535,65700,0,0,4,1460,1,0,0,24,33580,0,65700,0,0,0,0,0
o,0x00000000,1716936380.848816,10.0.2.15,22,10.0.2.2,57231,1073725440,16222,0,65535,65700,0,0,4,1460,1,0,0,24,33580,68,65700,0,0,0,0,0
i,0x00000000,1716936380.849432,10.0.2.15,22,10.0.2.2,57231,1073725440,16222,0,65535,65700,0,0,4,1460,1,0,0,24,33580,68,65700,0,68,0,0,0
i,0x00000000,1716936380.851714,10.0.2.15,22,10.0.2.2,57231,1073725440,16290,0,65535,65700,0,0,4,1460,1,0,0,24,33580,0,65700,0,0,0,0,0
o,0x00000000,1716936380.861304,10.0.2.15,22,10.0.2.2,57231,1073725440,16290,0,65535,65700,0,0,4,1460,1,0,0,24,33580,28,65700,0,0,0,0,0
i,0x00000000,1716936380.862278,10.0.2.15,22,10.0.2.2,57231,1073725440,16290,0,65535,65700,0,0,4,1460,1,0,0,24,33580,28,65700,0,28,0,0,0
i,0x00000000,1716936380.862305,10.0.2.15,22,10.0.2.2,57231,1073725440,16318,0,65535,65700,0,0,4,1460,1,0,0,24,33580,0,65700,0,0,0,0,0
o,0x00000000,1716936380.862991,10.0.2.15,22,10.0.2.2,57231,1073725440,16318,0,65535,65700,0,0,4,1460,1,0,0,24,33580,768,65700,112,0,0,0,0
i,0x00000000,1716936380.863639,10.0.2.15,22,10.0.2.2,57231,1073725440,16318,0,65535,65700,0,0,4,1460,1,0,0,24,33580,768,65700,112,768,0,0,0
o,0x00000000,1716936380.863777,10.0.2.15,22,10.0.2.2,57231,1073725440,17086,0,65535,65700,0,0,4,1460,1,0,0,24,33580,44,65700,0,0,0,0,0
i,0x00000000,1716936380.864298,10.0.2.15,22,10.0.2.2,57231,1073725440,17086,0,65535,65700,0,0,4,1460,1,0,0,24,33580,44,65700,0,44,0,0,0
i,0x00000000,1716936380.864941,10.0.2.15,22,10.0.2.2,57231,1073725440,17130,0,65535,65700,0,0,4,1460,1,0,0,24,33580,0,65700,0,0,0,0,0
o,0x00000000,1716936380.865215,10.0.2.15,22,10.0.2.2,57231,1073725440,17130,0,65535,65700,0,0,4,1460,1,0,4,24,33580,72,65700,0,0,0,0,0
i,0x00000000,1716936380.866000,10.0.2.15,22,10.0.2.2,57231,1073725440,17130,0,65535,65700,0,0,4,1460,1,0,4,24,33580,72,65700,0,72,0,0,0
o,0x00000000,1716936380.868497,10.0.2.15,22,10.0.2.2,57231,1073725440,17202,0,65535,65700,0,0,4,1460,1,0,4,24,33580,44,65700,0,0,0,0,0
i,0x00000000,1716936380.869097,10.0.2.15,22,10.0.2.2,57231,1073725440,17202,0,65535,65700,0,0,4,1460,1,0,4,24,33580,44,65700,0,44,0,0,0
o,0x00000000,1716936380.869428,10.0.2.15,22,10.0.2.2,57231,1073725440,17246,0,65535,65700,0,0,4,1460,1,0,4,24,33580,44,65700,0,0,0,0,0
i,0x00000000,1716936380.870120,10.0.2.15,22,10.0.2.2,57231,1073725440,17246,0,65535,65700,0,0,4,1460,1,0,4,24,33580,44,65700,0,44,0,0,0
o,0x00000000,1716936380.873144,10.0.2.15,22,10.0.2.2,57231,1073725440,17290,0,65535,65700,0,0,4,1460,1,0,4,24,33580,176,65700,0,0,0,0,0
i,0x00000000,1716936380.874743,10.0.2.15,22,10.0.2.2,57231,1073725440,17290,0,65535,65700,0,0,4,1460,1,0,4,24,33580,176,65700,0,176,0,0,0
i,0x00000000,1716936380.875009,10.0.2.15,22,10.0.2.2,57231,1073725440,17466,0,65535,65700,0,0,4,1460,1,0,4,24,33580,0,65700,0,0,0,0,0
i,0x00000000,1716936380.875011,10.0.2.15,22,10.0.2.2,57231,1073725440,17466,0,65535,65700,0,0,4,1460,1,0,4,24,33580,0,65700,36,0,0,0,0
o,0x00000000,1716936380.875013,10.0.2.15,22,10.0.2.2,57231,1073725440,17466,0,65535,65700,0,0,4,1460,1,0,5,24,33580,0,65700,96,0,0,0,0
i,0x00000000,1716936380.875107,10.0.2.15,22,10.0.2.2,57231,1073725440,17466,0,65535,65700,0,0,4,1460,1,0,4,24,33580,0,65700,96,0,0,0,0
o,0x00000000,1716936380.875111,10.0.2.15,22,10.0.2.2,57231,1073725440,17466,0,65535,65604,0,0,5,1460,1,0,7,24,33580,0,65700,96,0,0,0,0
o,0x00000000,1716936380.880387,10.0.2.15,22,10.0.2.2,57231,1073725440,17466,0,65535,65604,0,0,8,1460,1,0,4,24,33580,0,65700,0,0,0,0,0
i,0x00000000,1716936380.880982,10.0.2.15,22,10.0.2.2,57231,1073725440,17466,0,65535,65604,0,0,8,1460,1,0,20,24,33580,0,65700,0,1,0,0,0
i,0x00000000,1716936381.122334,172.16.3.2,5101,172.16.1.2,50114,10406,14480,0,65728,65700,6,6,4,1460,505,1,992,61,33580,0,65700,0,0,0,0,0
o,0x00000000,1716936381.122414,172.16.3.2,5101,172.16.1.2,50114,10406,14480,0,65728,65700,6,6,4,1460,505,1,996,61,33580,1,65700,0,0,0,0,0
i,0x00000000,1716936381.242386,172.16.3.2,5101,172.16.1.2,50114,10406,14480,0,65728,65700,6,6,4,1460,505,1,996,61,33580,1,65700,0,1,0,0,0
i,0x00000000,1716936381.242403,172.16.3.2,5101,172.16.1.2,50114,10406,14480,0,65728,65728,6,6,4,1460,490,1,996,58,33580,0,65700,4,0,0,0,0
o,0x00000000,1716936381.242410,172.16.3.2,5101,172.16.1.2,50114,10406,14480,0,65728,65728,6,6,4,1460,490,1,997,58,33580,0,65700,128,0,0,0,0
o,0x00000000,1716936381.242588,172.16.3.2,5101,172.16.1.2,50114,10406,14480,0,65728,65728,6,6,4,1460,490,1,996,58,33580,1,65700,0,0,0,0,0
o,0x00000000,1716936381.243001,10.0.2.15,22,10.0.2.2,62180,1073725440,14600,0,65535,65700,0,0,4,1460,1,0,4,24,33580,84,65700,0,0,0,0,0
i,0x00000000,1716936381.243884,10.0.2.15,22,10.0.2.2,62180,1073725440,14600,0,65535,65700,0,0,4,1460,1,0,4,24,33580,84,65700,0,84,0,0,0
i,0x00000000,1716936381.392700,172.16.3.2,5101,172.16.1.2,50114,10406,14480,0,65728,65728,6,6,4,1460,490,1,996,58,33580,1,65700,0,1,0,0,0
i,0x00000000,1716936381.481924,172.16.3.2,5101,172.16.1.2,21760,10406,14480,0,65728,65700,6,6,4,1460,501,1,992,61,33580,0,65700,0,0,0,0,0
o,0x00000000,1716936381.483744,172.16.3.2,5101,172.16.1.2,50114,10406,14480,0,65728,65728,6,6,4,1460,489,1,996,52,33580,1,65700,0,0,0,0,0
o,0x00000000,1716936381.484113,172.16.3.2,5101,172.16.1.2,50114,10406,14480,0,65728,65728,6,6,4,1460,489,1,996,52,33580,2,65700,0,1,0,0,0
o,0x00000000,1716936381.484291,10.0.2.15,22,10.0.2.2,62180,1073725440,14600,0,65535,65700,0,0,4,1460,1,0,4,24,33580,108,65700,0,0,0,0,0
i,0x00000000,1716936381.484926,10.0.2.15,22,10.0.2.2,62180,1073725440,14600,0,65535,65700,0,0,4,1460,1,0,4,24,33580,108,65700,0,108,0,0,0
o,0x00000000,1716936381.517407,172.16.3.2,5101,172.16.1.2,21760,10406,14480,0,65728,65700,6,6,4,1460,501,1,993,61,33580,0,65700,0,0,0,0,0
i,0x00000000,1716936381.602701,172.16.3.2,5101,172.16.1.2,50114,10406,14480,0,65728,65728,6,6,4,1460,489,1,996,52,33580,2,65700,0,2,0,0,0
i,0x00000000,1716936381.701440,172.16.3.2,5101,172.16.1.2,21760,10406,14480,0,65728,65700,6,6,4,1460,501,1,992,61,33580,0,65700,0,0,0,0,0
i,0x00000000,1716936381.712551,172.16.3.2,5101,172.16.1.2,21760,10406,14480,0,65728,65700,6,6,4,1460,501,1,992,61,33580,0,65700,0,0,0,0,0
o,0x00000000,1716936381.712563,172.16.3.2,5101,172.16.1.2,21760,10406,14480,0,65728,65700,6,6,4,1460,501,1,993,61,33580,0,65700,1448,0,0,0,0
i,0x00000000,1716936381.722846,172.16.3.2,5101,172.16.1.2,21760,10406,14480,0,65728,65700,6,6,4,1460,501,1,992,61,33580,0,65700,0,0,0,0,0
i,0x00000000,1716936381.732428,172.16.3.2,5101,172.16.1.2,21760,10406,14480,0,65728,65700,6,6,4,1460,501,1,992,61,33580,0,65700,0,0,0,0,0
o,0x00000000,1716936381.732434,172.16.3.2,5101,172.16.1.2,21760,10406,14480,0,65728,65700,6,6,4,1460,501,1,993,61,33580,0,65700,1448,0,0,0,0
i,0x00000000,1716936381.752111,172.16.3.2,5101,172.16.1.2,21760,10406,14480,0,65728,65700,6,6,4,1460,501,1,992,61,33580,0,65700,0,0,0,0,0
i,0x00000000,1716936381.761464,172.16.3.2,5101,172.16.1.2,21760,10406,14480,0,65728,65700,6,6,4,1460,501,1,992,61,33580,0,65700,0,0,0,0,0
o,0x00000000,1716936381.761470,172.16.3.2,5101,172.16.1.2,21760,10406,14480,0,65728,65700,6,6,4,1460,501,1,993,61,33580,0,65700,1448,0,0,0,0
i,0x00000000,1716936381.771826,172.16.3.2,5101,172.16.1.2,21760,10406,14480,0,65728,65700,6,6,4,1460,501,1,992,61,33580,0,65700,0,0,0,0,0
i,0x00000000,1716936381.782124,172.16.3.2,5101,172.16.1.2,21760,10406,14480,0,65728,65700,6,6,4,1460,501,1,992,61,33580,0,65700,0,0,0,0,0
o,0x00000000,1716936381.782131,172.16.3.2,5101,172.16.1.2,21760,10406,14480,0,65728,65700,6,6,4,1460,501,1,993,61,33580,0,65700,1448,0,0,0,0
i,0x00000000,1716936381.801848,172.16.3.2,5101,172.16.1.2,21760,10406,14480,0,65728,65700,6,6,4,1460,501,1,992,61,33580,0,65700,0,0,0,0,0
i,0x00000000,1716936381.811846,172.16.3.2,5101,172.16.1.2,21760,10406,14480,0,65728,65700,6,6,4,1460,501,1,992,61,33580,0,65700,0,0,0,0,0
o,0x00000000,1716936381.811854,172.16.3.2,5101,172.16.1.2,21760,10406,14480,0,65728,65700,6,6,4,1460,501,1,993,61,33580,0,65700,1448,0,0,0,0
i,0x00000000,1716936381.871984,172.16.3.2,5101,172.16.1.2,21760,10406,14480,0,65728,65700,6,6,4,1460,501,1,992,61,33580,0,65700,0,0,0,0,0
i,0x00000000,1716936381.882271,172.16.3.2,5101,172.16.1.2,21760,10406,14480,0,65728,65700,6,6,4,1460,501,1,992,61,33580,0,65700,0,0,0,0,0
o,0x00000000,1716936381.882281,172.16.3.2,5101,172.16.1.2,21760,10406,14480,0,65728,65700,6,6,4,1460,501,1,993,61,33580,0,65700,1448,0,0,0,0
i,0x00000000,1716936381.921745,172.16.3.2,5101,172.16.1.2,21760,10406,14480,0,65728,65700,6,6,4,1460,501,1,992,61,33580,0,65700,0,0,0,0,0
o,0x00000000,1716936381.957770,172.16.3.2,5101,172.16.1.2,21760,10406,14480,0,65728,65700,6,6,4,1460,501,1,993,61,33580,0,65700,0,0,0,0,0
i,0x00000000,1716936381.962093,172.16.3.2,5101,172.16.1.2,21760,10406,14480,0,65728,65700,6,6,4,1460,501,1,992,61,33580,0,65700,0,0,0,0,0
o,0x00000000,1716936381.997730,172.16.3.2,5101,172.16.1.2,21760,10406,14480,0,65728,65700,6,6,4,1460,501,1,993,61,33580,0,65700,0,0,0,0,0
i,0x00000000,1716936382.001646,172.16.3.2,5101,172.16.1.2,21760,10406,14480,0,65728,65700,6,6,4,1460,501,1,992,61,33580,0,65700,0,0,0,0,0
i,0x00000000,1716936382.022349,172.16.3.2,5101,172.16.1.2,21760,10406,14480,0,65728,65700,6,6,4,1460,501,1,992,61,33580,0,65700,0,0,0,0,0
o,0x00000000,1716936382.022357,172.16.3.2,5101,172.16.1.2,21760,10406,14480,0,65728,65700,6,6,4,1460,501,1,993,61,33580,0,65700,1448,0,0,0,0
i,0x00000000,1716936382.031715,172.16.3.2,5101,172.16.1.2,21760,10406,14480,0,65728,65700,6,6,4,1460,501,1,992,61,33580,0,65700,0,0,0,0,0
i,0x00000000,1716936382.042046,172.16.3.2,5101,172.16.1.2,21760,10406,14480,0,65728,65700,6,6,4,1460,501,1,992,61,33580,0,65700,0,0,0,0,0
o,0x00000000,1716936382.042053,172.16.3.2,5101,172.16.1.2,21760,10406,14480,0,65728,65700,6,6,4,1460,501,1,993,61,33580,0,65700,1448,0,0,0,0
i,0x00000000,1716936382.081793,172.16.3.2,5101,172.16.1.2,21760,10406,14480,0,65728,65700,6,6,4,1460,501,1,992,61,33580,0,65700,0,0,0,0,0
i,0x00000000,1716936382.092021,172.16.3.2,5101,172.16.1.2,21760,10406,14480,0,65728,65700,6,6,4,1460,501,1,992,61,33580,0,65700,0,0,0,0,0
o,0x00000000,1716936382.092034,172.16.3.2,5101,172.16.1.2,21760,10406,14480,0,65728,65700,6,6,4,1460,501,1,993,61,33580,0,65700,1448,0,0,0,0
i,0x00000000,1716936382.102516,172.16.3.2,5101,172.16.1.2,21760,10406,14480,0,65728,65700,6,6,4,1460,501,1,992,61,33580,0,65700,0,0,0,0,0
i,0x00000000,1716936382.131309,172.16.3.2,5101,172.16.1.2,21760,10406,14480,0,65728,65700,6,6,4,1460,501,1,992,61,33580,0,65700,0,0,0,0,0
o,0x00000000,1716936382.131321,172.16.3.2,5101,172.16.1.2,21760,10406,14480,0,65728,65700,6,6,4,1460,501,1,993,61,33580,0,65700,1448,0,0,0,0
i,0x00000000,1716936382.151706,172.16.3.2,5101,172.16.1.2,21760,10406,14480,0,65728,65700,6,6,4,1460,501,1,992,61,33580,0,65700,0,0,0,0,0
o,0x00000000,1716936382.187862,172.16.3.2,5101,172.16.1.2,21760,10406,14480,0,65728,65700,6,6,4,1460,501,1,993,61,33580,0,65700,0,0,0,0,0
i,0x00000000,1716936382.212073,172.16.3.2,5101,172.16.1.2,21760,10406,14480,0,65728,65700,6,6,4,1460,501,1,992,61,33580,0,65700,0,0,0,0,0
i,0x00000000,1716936382.222333,172.16.3.2,5101,172.16.1.2,21760,10406,14480,0,65728,65700,6,6,4,1460,501,1,992,61,33580,0,65700,0,0,0,0,0
o,0x00000000,1716936382.222341,172.16.3.2,5101,172.16.1.2,21760,10406,14480,0,65728,65700,6,6,4,1460,501,1,993,61,33580,0,65700,1448,0,0,0,0
i,0x00000000,1716936382.242158,172.16.3.2,5101,172.16.1.2,21760,10406,14480,0,65728,65700,6,6,4,1460,501,1,992,61,33580,0,65700,0,0,0,0,0
i,0x00000000,1716936382.272173,172.16.3.2,5101,172.16.1.2,21760,10406,14480,0,65728,65700,6,6,4,1460,501,1,992,61,33580,0,65700,0,0,0,0,0
o,0x00000000,1716936382.272179,172.16.3.2,5101,172.16.1.2,21760,10406,14480,0,65728,65700,6,6,4,1460,501,1,993,61,33580,0,65700,1448,0,0,0,0
i,0x00000000,1716936382.291014,172.16.3.2,5101,172.16.1.2,21760,10406,14480,0,65728,65700,6,6,4,1460,501,1,992,61,33580,0,65700,0,0,0,0,0
o,0x00000000,1716936382.327468,172.16.3.2,5101,172.16.1.2,21760,10406,14480,0,65728,65700,6,6,4,1460,501,1,993,61,33580,0,65700,0,0,0,0,0
i,0x00000000,1716936382.331370,172.16.3.2,5101,172.16.1.2,21760,10406,14480,0,65728,65700,6,6,4,1460,501,1,992,61,33580,0,65700,0,0,0,0,0
i,0x00000000,1716936382.361518,172.16.3.2,5101,172.16.1.2,21760,10406,14480,0,65728,65700,6,6,4,1460,501,1,992,61,33580,0,65700,0,0,0,0,0
o,0x00000000,1716936382.361525,172.16.3.2,5101,172.16.1.2,21760,10406,14480,0,65728,65700,6,6,4,1460,501,1,993,61,33580,0,65700,1448,0,0,0,0
i,0x00000000,1716936382.372097,172.16.3.2,5101,172.16.1.2,21760,10406,14480,0,65728,65700,6,6,4,1460,501,1,992,61,33580,0,65700,0,0,0,0,0
o,0x00000000,1716936382.407326,172.16.3.2,5101,172.16.1.2,21760,10406,14480,0,65728,65700,6,6,4,1460,501,1,993,61,33580,0,65700,0,0,0,0,0
i,0x00000000,1716936382.411880,172.16.3.2,5101,172.16.1.2,21760,10406,14480,0,65728,65700,6,6,4,1460,501,1,992,61,33580,0,65700,0,0,0,0,0
i,0x00000000,1716936382.422135,172.16.3.2,5101,172.16.1.2,21760,10406,14480,0,65728,65700,6,6,4,1460,501,1,992,61,33580,0,65700,0,0,0,0,0
o,0x00000000,1716936382.422140,172.16.3.2,5101,172.16.1.2,21760,10406,14480,0,65728,65700,6,6,4,1460,501,1,993,61,33580,0,65700,1448,0,0,0,0
i,0x00000000,1716936382.432034,172.16.3.2,5101,172.16.1.2,21760,10406,14480,0,65728,65700,6,6,4,1460,501,1,992,61,33580,0,65700,0,0,0,0,0
o,0x00000000,1716936382.467712,172.16.3.2,5101,172.16.1.2,21760,10406,14480,0,65728,65700,6,6,4,1460,501,1,993,61,33580,0,65700,0,0,0,0,0
i,0x00000000,1716936382.472258,172.16.3.2,5101,172.16.1.2,21760,10406,14480,0,65728,65700,6,6,4,1460,501,1,992,61,33580,0,65700,0,0,0,0,0
i,0x00000000,1716936382.481318,172.16.3.2,5101,172.16.1.2,21760,10406,14480,0,65728,65700,6,6,4,1460,501,1,992,61,33580,0,65700,0,0,0,0,0
o,0x00000000,1716936382.481323,172.16.3.2,5101,172.16.1.2,21760,10406,14480,0,65728,65700,6,6,4,1460,501,1,993,61,33580,0,65700,1448,0,0,0,0
o,0x00000000,1716936382.487867,10.0.2.15,22,10.0.2.2,62180,1073725440,14600,0,65535,65700,0,0,4,1460,1,0,4,24,33580,156,65700,0,0,0,0,0
i,0x00000000,1716936382.488647,10.0.2.15,22,10.0.2.2,62180,1073725440,14600,0,65535,65700,0,0,4,1460,1,0,4,24,33580,156,65700,0,156,0,0,0
i,0x00000000,1716936382.511704,172.16.3.2,5101,172.16.1.2,21760,10406,14480,0,65728,65700,6,6,4,1460,501,1,992,61,33580,0,65700,0,0,0,0,0
i,0x00000000,1716936382.541578,172.16.3.2,5101,172.16.1.2,21760,10406,14480,0,65728,65700,6,6,4,1460,501,1,992,61,33580,0,65700,0,0,0,0,0
o,0x00000000,1716936382.541585,172.16.3.2,5101,172.16.1.2,21760,10406,14480,0,65728,65700,6,6,4,1460,501,1,993,61,33580,0,65700,1448,0,0,0,0
i,0x00000000,1716936382.561321,172.16.3.2,5101,172.16.1.2,21760,10406,14480,0,65728,65700,6,6,4,1460,501,1,992,61,33580,0,65700,0,0,0,0,0
i,0x00000000,1716936382.582222,172.16.3.2,5101,172.16.1.2,21760,10406,14480,0,65728,65700,6,6,4,1460,501,1,992,61,33580,0,65700,0,0,0,0,0
o,0x00000000,1716936382.582228,172.16.3.2,5101,172.16.1.2,21760,10406,14480,0,65728,65700,6,6,4,1460,501,1,993,61,33580,0,65700,1448,0,0,0,0
i,0x00000000,1716936382.630997,172.16.3.2,5101,172.16.1.2,21760,10406,14480,0,65728,65700,6,6,4,1460,501,1,992,61,33580,0,65700,0,0,0,0,0
i,0x00000000,1716936382.652671,172.16.3.2,5101,172.16.1.2,21760,10406,14480,0,65728,65700,6,6,4,1460,501,1,992,61,33580,0,65700,0,0,0,0,0
o,0x00000000,1716936382.652683,172.16.3.2,5101,172.16.1.2,21760,10406,14480,0,65728,65700,6,6,4,1460,501,1,993,61,33580,0,65700,1448,0,0,0,0
i,0x00000000,1716936382.691558,172.16.3.2,5101,172.16.1.2,21760,10406,14480,0,65728,65700,6,6,4,1460,501,1,992,61,33580,0,65700,0,0,0,0,0
i,0x00000000,1716936382.700829,172.16.3.2,5101,172.16.1.2,21760,10406,14480,0,65728,65700,6,6,4,1460,501,1,992,61,33580,0,65700,0,0,0,0,0
o,0x00000000,1716936382.700842,172.16.3.2,5101,172.16.1.2,21760,10406,14480,0,65728,65700,6,6,4,1460,501,1,993,61,33580,0,65700,1448,0,0,0,0
i,0x00000000,1716936382.712169,172.16.3.2,5101,172.16.1.2,21760,10406,14480,0,65728,65700,6,6,4,1460,501,1,992,61,33580,0,65700,0,0,0,0,0
o,0x00000000,1716936382.747387,172.16.3.2,5101,172.16.1.2,21760,10406,14480,0,65728,65700,6,6,4,1460,501,1,993,61,33580,0,65700,0,0,0,0,0
i,0x00000000,1716936382.751660,172.16.3.2,5101,172.16.1.2,21760,10406,14480,0,65728,65700,6,6,4,1460,501,1,992,61,33580,0,65700,0,0,0,0,0
i,0x00000000,1716936382.761047,172.16.3.2,5101,172.16.1.2,21760,10406,14480,0,65728,65700,6,6,4,1460,501,1,992,61,33580,0,65700,0,0,0,0,0
o,0x00000000,1716936382.761052,172.16.3.2,5101,172.16.1.2,21760,10406,14480,0,65728,65700,6,6,4,1460,501,1,993,61,33580,0,65700,1448,0,0,0,0
i,0x00000000,1716936382.801721,172.16.3.2,5101,172.16.1.2,21760,10406,14480,0,65728,65700,6,6,4,1460,501,1,992,61,33580,0,65700,0,0,0,0,0
i,0x00000000,1716936382.811991,172.16.3.2,5101,172.16.1.2,21760,10406,14480,0,65728,65700,6,6,4,1460,501,1,992,61,33580,0,65700,0,0,0,0,0
o,0x00000000,1716936382.812011,172.16.3.2,5101,172.16.1.2,21760,10406,14480,0,65728,65700,6,6,4,1460,501,1,993,61,33580,0,65700,1448,0,0,0,0
i,0x00000000,1716936382.851229,172.16.3.2,5101,172.16.1.2,21760,10406,14480,0,65728,65700,6,6,4,1460,501,1,992,61,33580,0,65700,0,0,0,0,0
i,0x00000000,1716936382.861656,172.16.3.2,5101,172.16.1.2,21760,10406,14480,0,65728,65700,6,6,4,1460,501,1,992,61,33580,0,65700,0,0,0,0,0
o,0x00000000,1716936382.861665,172.16.3.2,5101,172.16.1.2,21760,10406,14480,0,65728,65700,6,6,4,1460,501,1,993,61,33580,0,65700,1448,0,0,0,0
i,0x00000000,1716936382.901143,172.16.3.2,5101,172.16.1.2,21760,10406,14480,0,65728,65700,6,6,4,1460,501,1,992,61,33580,0,65700,0,0,0,0,0
i,0x00000000,1716936382.911440,172.16.3.2,5101,172.16.1.2,21760,10406,14480,0,65728,65700,6,6,4,1460,501,1,992,61,33580,0,65700,0,0,0,0,0
o,0x00000000,1716936382.911451,172.16.3.2,5101,172.16.1.2,21760,10406,14480,0,65728,65700,6,6,4,1460,501,1,993,61,33580,0,65700,1448,0,0,0,0
i,0x00000000,1716936382.931288,172.16.3.2,5101,172.16.1.2,21760,10406,14480,0,65728,65700,6,6,4,1460,501,1,992,61,33580,0,65700,0,0,0,0,0
o,0x00000000,1716936382.967724,172.16.3.2,5101,172.16.1.2,21760,10406,14480,0,65728,65700,6,6,4,1460,501,1,993,61,33580,0,65700,0,0,0,0,0
i,0x00000000,1716936382.981475,172.16.3.2,5101,172.16.1.2,21760,10406,14480,0,65728,65700,6,6,4,1460,501,1,992,61,33580,0,65700,0,0,0,0,0
i,0x00000000,1716936383.002212,172.16.3.2,5101,172.16.1.2,21760,10406,14480,0,65728,65700,6,6,4,1460,501,1,992,61,33580,0,65700,0,0,0,0,0
o,0x00000000,1716936383.002221,172.16.3.2,5101,172.16.1.2,21760,10406,14480,0,65728,65700,6,6,4,1460,501,1,993,61,33580,0,65700,1448,0,0,0,0
i,0x00000000,1716936383.031914,172.16.3.2,5101,172.16.1.2,21760,10406,14480,0,65728,65700,6,6,4,1460,501,1,992,61,33580,0,65700,0,0,0,0,0
o,0x00000000,1716936383.067349,172.16.3.2,5101,172.16.1.2,21760,10406,14480,0,65728,65700,6,6,4,1460,501,1,993,61,33580,0,65700,0,0,0,0,0
i,0x00000000,1716936383.071872,172.16.3.2,5101,172.16.1.2,21760,10406,14480,0,65728,65700,6,6,4,1460,501,1,992,61,33580,0,65700,0,0,0,0,0
o,0x00000000,1716936383.071880,172.16.3.2,5101,172.16.1.2,21760,10406,14480,0,65728,65728,6,6,4,1460,501,1,993,61,33580,0,65700,0,0,1,0,0
i,0x00000000,1716936383.081112,172.16.3.2,5101,172.16.1.2,21760,10406,14480,0,65728,65728,6,6,4,1460,501,1,992,61,33580,0,65700,0,0,1,0,0
o,0x00000000,1716936383.081117,172.16.3.2,5101,172.16.1.2,21760,10406,14480,0,65728,65728,6,6,4,1460,501,1,993,61,33580,0,65700,0,0,1,0,0
i,0x00000000,1716936383.091514,172.16.3.2,5101,172.16.1.2,21760,10406,14480,0,65728,65728,6,6,4,1460,501,1,992,61,33580,0,65700,0,0,1,0,0
o,0x00000000,1716936383.091521,172.16.3.2,5101,172.16.1.2,21760,10406,14480,0,65728,65728,6,6,4,1460,501,1,993,61,33580,0,65700,0,0,1,0,0
i,0x00000000,1716936383.111283,172.16.3.2,5101,172.16.1.2,21760,10406,14480,0,65728,65728,6,6,4,1460,501,1,992,61,33580,0,65700,0,0,1,0,0
o,0x00000000,1716936383.111291,172.16.3.2,5101,172.16.1.2,21760,10406,14480,0,65728,65728,6,6,4,1460,501,1,993,61,33580,0,65700,0,0,2,0,0
i,0x00000000,1716936383.121633,172.16.3.2,5101,172.16.1.2,21760,10406,14480,0,65728,65728,6,6,4,1460,501,1,992,61,33580,0,65700,0,0,2,0,0
o,0x00000000,1716936383.121641,172.16.3.2,5101,172.16.1.2,21760,10406,14480,0,65728,65728,6,6,4,1460,501,1,993,61,33580,0,65700,0,0,2,0,0
i,0x00000000,1716936383.132067,172.16.3.2,5101,172.16.1.2,21760,10406,14480,0,65728,65728,6,6,4,1460,501,1,992,61,33580,0,65700,0,0,2,0,0
o,0x00000000,1716936383.132073,172.16.3.2,5101,172.16.1.2,21760,10406,14480,0,65728,65728,6,6,4,1460,501,1,993,61,33580,0,65700,0,0,2,0,0
i,0x00000000,1716936383.221314,172.16.3.2,5101,172.16.1.2,21760,10406,14480,0,65728,65728,6,6,4,1460,501,1,992,61,33580,0,65700,0,0,2,0,0
o,0x00000000,1716936383.221322,172.16.3.2,5101,172.16.1.2,21760,10406,14480,0,65728,65728,6,6,4,1460,501,1,993,61,33580,0,65700,0,0,2,0,0
i,0x00000000,1716936383.231199,172.16.3.2,5101,172.16.1.2,21760,10406,14480,0,65728,65728,6,6,4,1460,501,1,992,61,33580,0,65700,0,0,2,0,0
o,0x00000000,1716936383.231204,172.16.3.2,5101,172.16.1.2,21760,10406,14480,0,65728,65728,6,6,4,1460,501,1,993,61,33580,0,65700,0,0,2,0,0
i,0x00000000,1716936383.241592,172.16.3.2,5101,172.16.1.2,21760,10406,14480,0,65728,65728,6,6,4,1460,501,1,992,61,33580,0,65700,0,0,2,0,0
o,0x00000000,1716936383.241596,172.16.3.2,5101,172.16.1.2,21760,10406,14480,0,65728,65728,6,6,4,1460,501,1,993,61,33580,0,65700,0,0,2,0,0
i,0x00000000,1716936383.271442,172.16.3.2,5101,172.16.1.2,21760,10406,14480,0,65728,65728,6,6,4,1460,501,1,992,61,33580,0,65700,0,0,2,0,0
o,0x00000000,1716936383.271447,172.16.3.2,5101,172.16.1.2,21760,10406,14480,0,65728,65728,6,6,4,1460,501,1,993,61,33580,0,65700,0,0,2,0,0
i,0x00000000,1716936383.291241,172.16.3.2,5101,172.16.1.2,21760,10406,14480,0,65728,65728,6,6,4,1460,501,1,992,61,33580,0,65700,0,0,2,0,0
o,0x00000000,1716936383.291254,172.16.3.2,5101,172.16.1.2,21760,10406,14480,0,65728,65728,6,6,4,1460,501,1,993,61,33580,0,65700,5792,0,1,0,0
i,0x00000000,1716936383.311768,172.16.3.2,5101,172.16.1.2,21760,10406,14480,0,65728,65728,6,6,4,1460,501,1,992,61,33580,0,65700,0,0,1,0,0
o,0x00000000,1716936383.311783,172.16.3.2,5101,172.16.1.2,21760,10406,14480,0,65728,65700,6,6,4,1460,501,1,993,61,33580,0,65700,11584,0,0,0,0
i,0x00000000,1716936383.321356,172.16.3.2,5101,172.16.1.2,21760,10406,14480,0,65728,65700,6,6,4,1460,501,1,992,61,33580,0,65700,0,0,0,0,0
o,0x00000000,1716936383.321410,172.16.3.2,5101,172.16.1.2,21760,10406,14480,0,65728,65700,6,6,4,1460,501,1,993,61,33580,0,65700,0,0,0,0,0
i,0x00000000,1716936383.371941,172.16.3.2,5101,172.16.1.2,21760,10406,14480,0,65728,65700,6,6,4,1460,501,1,992,61,33580,0,65700,0,0,0,0,0
i,0x00000000,1716936383.401947,172.16.3.2,5101,172.16.1.2,21760,10406,14480,0,65728,65700,6,6,4,1460,501,1,992,61,33580,0,65700,0,0,0,0,0
o,0x00000000,1716936383.401953,172.16.3.2,5101,172.16.1.2,21760,10406,14480,0,65728,65700,6,6,4,1460,501,1,993,61,33580,0,65700,1448,0,0,0,0
i,0x00000000,1716936383.421654,172.16.3.2,5101,172.16.1.2,21760,10406,14480,0,65728,65700,6,6,4,1460,501,1,992,61,33580,0,65700,0,0,0,0,0
i,0x00000000,1716936383.430934,172.16.3.2,5101,172.16.1.2,21760,10406,14480,0,65728,65700,6,6,4,1460,501,1,992,61,33580,0,65700,0,0,0,0,0
o,0x00000000,1716936383.430940,172.16.3.2,5101,172.16.1.2,21760,10406,14480,0,65728,65700,6,6,4,1460,501,1,993,61,33580,0,65700,1448,0,0,0,0
i,0x00000000,1716936383.481609,172.16.3.2,5101,172.16.1.2,21760,10406,14480,0,65728,65700,6,6,4,1460,501,1,992,61,33580,0,65700,0,0,0,0,0
i,0x00000000,1716936383.490989,172.16.3.2,5101,172.16.1.2,21760,10406,14480,0,65728,65700,6,6,4,1460,501,1,992,61,33580,0,65700,0,0,0,0,0
o,0x00000000,1716936383.491001,172.16.3.2,5101,172.16.1.2,21760,10406,14480,0,65728,65700,6,6,4,1460,501,1,993,61,33580,0,65700,1448,0,0,0,0
o,0x00000000,1716936383.497487,10.0.2.15,22,10.0.2.2,62180,1073725440,14600,0,65535,65700,0,0,4,1460,1,0,4,24,33580,108,65700,0,0,0,0,0
i,0x00000000,1716936383.498132,10.0.2.15,22,10.0.2.2,62180,1073725440,14600,0,65535,65700,0,0,4,1460,1,0,4,24,33580,108,65700,0,108,0,0,0
i,0x00000000,1716936383.511527,172.16.3.2,5101,172.16.1.2,21760,10406,14480,0,65728,65700,6,6,4,1460,501,1,992,61,33580,0,65700,0,0,0,0,0
i,0x00000000,1716936383.541658,172.16.3.2,5101,172.16.1.2,21760,10406,14480,0,65728,65700,6,6,4,1460,501,1,992,61,33580,0,65700,0,0,0,0,0
o,0x00000000,1716936383.541667,172.16.3.2,5101,172.16.1.2,21760,10406,14480,0,65728,65700,6,6,4,1460,501,1,993,61,33580,0,65700,1448,0,0,0,0
i,0x00000000,1716936383.581298,172.16.3.2,5101,172.16.1.2,21760,10406,14480,0,65728,65700,6,6,4,1460,501,1,992,61,33580,0,65700,0,0,0,0,0
i,0x00000000,1716936383.591787,172.16.3.2,5101,172.16.1.2,21760,10406,14480,0,65728,65700,6,6,4,1460,501,1,992,61,33580,0,65700,0,0,0,0,0
o,0x00000000,1716936383.591795,172.16.3.2,5101,172.16.1.2,21760,10406,14480,0,65728,65700,6,6,4,1460,501,1,993,61,33580,0,65700,1448,0,0,0,0
i,0x00000000,1716936383.600991,172.16.3.2,5101,172.16.1.2,21760,10406,14480,0,65728,65700,6,6,4,1460,501,1,992,61,33580,0,65700,0,0,0,0,0
o,0x00000000,1716936383.638262,172.16.3.2,5101,172.16.1.2,21760,10406,14480,0,65728,65700,6,6,4,1460,501,1,993,61,33580,0,65700,0,0,0,0,0
i,0x00000000,1716936383.641522,172.16.3.2,5101,172.16.1.2,21760,10406,14480,0,65728,65700,6,6,4,1460,501,1,992,61,33580,0,65700,0,0,0,0,0
o,0x00000000,1716936383.677426,172.16.3.2,5101,172.16.1.2,21760,10406,14480,0,65728,65700,6,6,4,1460,501,1,993,61,33580,0,65700,0,0,0,0,0
i,0x00000000,1716936383.691066,172.16.3.2,5101,172.16.1.2,21760,10406,14480,0,65728,65700,6,6,4,1460,501,1,992,61,33580,0,65700,0,0,0,0,0
i,0x00000000,1716936383.701346,172.16.3.2,5101,172.16.1.2,21760,10406,14480,0,65728,65700,6,6,4,1460,501,1,992,61,33580,0,65700,0,0,0,0,0
o,0x00000000,1716936383.701356,172.16.3.2,5101,172.16.1.2,21760,10406,14480,0,65728,65700,6,6,4,1460,501,1,993,61,33580,0,65700,1448,0,0,0,0
i,0x00000000,1716936383.710760,172.16.3.2,5101,172.16.1.2,21760,10406,14480,0,65728,65700,6,6,4,1460,501,1,992,61,33580,0,65700,0,0,0,0,0
o,0x00000000,1716936383.747919,172.16.3.2,5101,172.16.1.2,21760,10406,14480,0,65728,65700,6,6,4,1460,501,1,993,61,33580,0,65700,0,0,0,0,0
i,0x00000000,1716936383.751015,172.16.3.2,5101,172.16.1.2,21760,10406,14480,0,65728,65700,6,6,4,1460,501,1,992,61,33580,0,65700,0,0,0,0,0
i,0x00000000,1716936383.761349,172.16.3.2,5101,172.16.1.2,21760,10406,14480,0,65728,65700,6,6,4,1460,501,1,992,61,33580,0,65700,0,0,0,0,0
o,0x00000000,1716936383.761357,172.16.3.2,5101,172.16.1.2,21760,10406,14480,0,65728,65700,6,6,4,1460,501,1,993,61,33580,0,65700,1448,0,0,0,0
i,0x00000000,1716936383.791427,172.16.3.2,5101,172.16.1.2,21760,10406,14480,0,65728,65700,6,6,4,1460,501,1,992,61,33580,0,65700,0,0,0,0,0
i,0x00000000,1716936383.810574,172.16.3.2,5101,172.16.1.2,21760,10406,14480,0,65728,65700,6,6,4,1460,501,1,992,61,33580,0,65700,0,0,0,0,0
o,0x00000000,1716936383.810584,172.16.3.2,5101,172.16.1.2,21760,10406,14480,0,65728,65700,6,6,4,1460,501,1,993,61,33580,0,65700,1448,0,0,0,0
i,0x00000000,1716936383.850585,172.16.3.2,5101,172.16.1.2,21760,10406,14480,0,65728,65700,6,6,4,1460,501,1,992,61,33580,0,65700,0,0,0,0,0
i,0x00000000,1716936383.862513,172.16.3.2,5101,172.16.1.2,21760,10406,14480,0,65728,65700,6,6,4,1460,501,1,992,61,33580,0,65700,0,0,0,0,0
o,0x00000000,1716936383.862520,172.16.3.2,5101,172.16.1.2,21760,10406,14480,0,65728,65700,6,6,4,1460,501,1,993,61,33580,0,65700,1448,0,0,0,0
i,0x00000000,1716936383.881685,172.16.3.2,5101,172.16.1.2,21760,10406,14480,0,65728,65700,6,6,4,1460,501,1,992,61,33580,0,65700,0,0,0,0,0
o,0x00000000,1716936383.917704,172.16.3.2,5101,172.16.1.2,21760,10406,14480,0,65728,65700,6,6,4,1460,501,1,993,61,33580,0,65700,0,0,0,0,0
i,0x00000000,1716936383.930542,172.16.3.2,5101,172.16.1.2,21760,10406,14480,0,65728,65700,6,6,4,1460,501,1,992,61,33580,0,65700,0,0,0,0,0
i,0x00000000,1716936383.950299,172.16.3.2,5101,172.16.1.2,21760,10406,14480,0,65728,65700,6,6,4,1460,501,1,992,61,33580,0,65700,0,0,0,0,0
o,0x00000000,1716936383.950308,172.16.3.2,5101,172.16.1.2,21760,10406,14480,0,65728,65700,6,6,4,1460,501,1,993,61,33580,0,65700,1448,0,0,0,0
i,0x00000000,1716936383.980376,172.16.3.2,5101,172.16.1.2,21760,10406,14480,0,65728,65700,6,6,4,1460,501,1,992,61,33580,0,65700,0,0,0,0,0
i,0x00000000,1716936383.990650,172.16.3.2,5101,172.16.1.2,21760,10406,14480,0,65728,65700,6,6,4,1460,501,1,992,61,33580,0,65700,0,0,0,0,0
o,0x00000000,1716936383.990659,172.16.3.2,5101,172.16.1.2,21760,10406,14480,0,65728,65700,6,6,4,1460,501,1,993,61,33580,0,65700,1448,0,0,0,0
i,0x00000000,1716936384.010443,172.16.3.2,5101,172.16.1.2,21760,10406,14480,0,65728,65700,6,6,4,1460,501,1,992,61,33580,0,65700,0,0,0,0,0
i,0x00000000,1716936384.041335,172.16.3.2,5101,172.16.1.2,21760,10406,14480,0,65728,65700,6,6,4,1460,501,1,992,61,33580,0,65700,0,0,0,0,0
o,0x00000000,1716936384.041341,172.16.3.2,5101,172.16.1.2,21760,10406,14480,0,65728,65700,6,6,4,1460,501,1,993,61,33580,0,65700,1448,0,0,0,0
i,0x00000000,1716936384.061127,172.16.3.2,5101,172.16.1.2,21760,10406,14480,0,65728,65700,6,6,4,1460,501,1,992,61,33580,0,65700,0,0,0,0,0
o,0x00000000,1716936384.097499,172.16.3.2,5101,172.16.1.2,21760,10406,14480,0,65728,65700,6,6,4,1460,501,1,993,61,33580,0,65700,0,0,0,0,0
i,0x00000000,1716936384.100497,172.16.3.2,5101,172.16.1.2,21760,10406,14480,0,65728,65700,6,6,4,1460,501,1,992,61,33580,0,65700,0,0,0,0,0
i,0x00000000,1716936384.121023,172.16.3.2,5101,172.16.1.2,21760,10406,14480,0,65728,65700,6,6,4,1460,501,1,992,61,33580,0,65700,0,0,0,0,0
o,0x00000000,1716936384.121030,172.16.3.2,5101,172.16.1.2,21760,10406,14480,0,65728,65700,6,6,4,1460,501,1,993,61,33580,0,65700,1448,0,0,0,0
i,0x00000000,1716936384.171168,172.16.3.2,5101,172.16.1.2,21760,10406,14480,0,65728,65700,6,6,4,1460,501,1,992,61,33580,0,65700,0,0,0,0,0
i,0x00000000,1716936384.180690,172.16.3.2,5101,172.16.1.2,21760,10406,14480,0,65728,65700,6,6,4,1460,501,1,992,61,33580,0,65700,0,0,0,0,0
o,0x00000000,1716936384.180700,172.16.3.2,5101,172.16.1.2,21760,10406,14480,0,65728,65700,6,6,4,1460,501,1,993,61,33580,0,65700,1448,0,0,0,0
i,0x00000000,1716936384.190761,172.16.3.2,5101,172.16.1.2,21760,10406,14480,0,65728,65700,6,6,4,1460,501,1,992,61,33580,0,65700,0,0,0,0,0
o,0x00000000,1716936384.227881,172.16.3.2,5101,172.16.1.2,21760,10406,14480,0,65728,65700,6,6,4,1460,501,1,993,61,33580,0,65700,0,0,0,0,0
i,0x00000000,1716936384.230172,172.16.3.2,5101,172.16.1.2,21760,10406,14480,0,65728,65700,6,6,4,1460,501,1,992,61,33580,0,65700,0,0,0,0,0
i,0x00000000,1716936384.241468,172.16.3.2,5101,172.16.1.2,21760,10406,14480,0,65728,65700,6,6,4,1460,501,1,992,61,33580,0,65700,0,0,0,0,0
o,0x00000000,1716936384.241474,172.16.3.2,5101,172.16.1.2,21760,10406,14480,0,65728,65700,6,6,4,1460,501,1,993,61,33580,0,65700,1448,0,0,0,0
i,0x00000000,1716936384.250800,172.16.3.2,5101,172.16.1.2,21760,10406,14480,0,65728,65700,6,6,4,1460,501,1,992,61,33580,0,65700,0,0,0,0,0
o,0x00000000,1716936384.287025,172.16.3.2,5101,172.16.1.2,21760,10406,14480,0,65728,65700,6,6,4,1460,501,1,993,61,33580,0,65700,0,0,0,0,0
i,0x00000000,1716936384.300941,172.16.3.2,5101,172.16.1.2,21760,10406,14480,0,65728,65700,6,6,4,1460,501,1,992,61,33580,0,65700,0,0,0,0,0
i,0x00000000,1716936384.310133,172.16.3.2,5101,172.16.1.2,21760,10406,14480,0,65728,65700,6,6,4,1460,501,1,992,61,33580,0,65700,0,0,0,0,0
o,0x00000000,1716936384.310141,172.16.3.2,5101,172.16.1.2,21760,10406,14480,0,65728,65700,6,6,4,1460,501,1,993,61,33580,0,65700,1448,0,0,0,0
i,0x00000000,1716936384.350579,172.16.3.2,5101,172.16.1.2,21760,10406,14480,0,65728,65700,6,6,4,1460,501,1,992,61,33580,0,65700,0,0,0,0,0
i,0x00000000,1716936384.360941,172.16.3.2,5101,172.16.1.2,21760,10406,14480,0,65728,65700,6,6,4,1460,501,1,992,61,33580,0,65700,0,0,0,0,0
o,0x00000000,1716936384.360949,172.16.3.2,5101,172.16.1.2,21760,10406,14480,0,65728,65700,6,6,4,1460,501,1,993,61,33580,0,65700,1448,0,0,0,0
i,0x00000000,1716936384.390796,172.16.3.2,5101,172.16.1.2,21760,10406,14480,0,65728,65700,6,6,4,1460,501,1,992,61,33580,0,65700,0,0,0,0,0
i,0x00000000,1716936384.421013,172.16.3.2,5101,172.16.1.2,21760,10406,14480,0,65728,65700,6,6,4,1460,501,1,992,61,33580,0,65700,0,0,0,0,0
o,0x00000000,1716936384.421023,172.16.3.2,5101,172.16.1.2,21760,10406,14480,0,65728,65700,6,6,4,1460,501,1,993,61,33580,0,65700,1448,0,0,0,0
i,0x00000000,1716936384.441725,172.16.3.2,5101,172.16.1.2,21760,10406,14480,0,65728,65700,6,6,4,1460,501,1,992,61,33580,0,65700,0,0,0,0,0
i,0x00000000,1716936384.470948,172.16.3.2,5101,172.16.1.2,21760,10406,14480,0,65728,65700,6,6,4,1460,501,1,992,61,33580,0,65700,0,0,0,0,0
o,0x00000000,1716936384.470955,172.16.3.2,5101,172.16.1.2,21760,10406,14480,0,65728,65700,6,6,4,1460,501,1,993,61,33580,0,65700,1448,0,0,0,0
o,0x00000000,1716936384.497739,10.0.2.15,22,10.0.2.2,62180,1073725440,14600,0,65535,65700,0,0,4,1460,1,0,4,24,33580,108,65700,0,0,0,0,0
i,0x00000000,1716936384.498589,10.0.2.15,22,10.0.2.2,62180,1073725440,14600,0,65535,65700,0,0,4,1460,1,0,4,24,33580,108,65700,0,108,0,0,0
i,0x00000000,1716936384.511369,172.16.3.2,5101,172.16.1.2,21760,10406,14480,0,65728,65700,6,6,4,1460,501,1,992,61,33580,0,65700,0,0,0,0,0
i,0x00000000,1716936384.520511,172.16.3.2,5101,172.16.1.2,21760,10406,14480,0,65728,65700,6,6,4,1460,501,1,992,61,33580,0,65700,0,0,0,0,0
o,0x00000000,1716936384.520518,172.16.3.2,5101,172.16.1.2,21760,10406,14480,0,65728,65700,6,6,4,1460,501,1,993,61,33580,0,65700,1448,0,0,0,0
i,0x00000000,1716936384.560863,172.16.3.2,5101,172.16.1.2,21760,10406,14480,0,65728,65700,6,6,4,1460,501,1,992,61,33580,0,65700,0,0,0,0,0
i,0x00000000,1716936384.570199,172.16.3.2,5101,172.16.1.2,21760,10406,14480,0,65728,65700,6,6,4,1460,501,1,992,61,33580,0,65700,0,0,0,0,0
o,0x00000000,1716936384.570205,172.16.3.2,5101,172.16.1.2,21760,10406,14480,0,65728,65700,6,6,4,1460,501,1,993,61,33580,0,65700,1448,0,0,0,0
i,0x00000000,1716936384.580542,172.16.3.2,5101,172.16.1.2,21760,10406,14480,0,65728,65700,6,6,4,1460,501,1,992,61,33580,0,65700,0,0,0,0,0
o,0x00000000,1716936384.617534,172.16.3.2,5101,172.16.1.2,21760,10406,14480,0,65728,65700,6,6,4,1460,501,1,993,61,33580,0,65700,0,0,0,0,0
i,0x00000000,1716936384.620787,172.16.3.2,5101,172.16.1.2,21760,10406,14480,0,65728,65700,6,6,4,1460,501,1,992,61,33580,0,65700,0,0,0,0,0
i,0x00000000,1716936384.630741,172.16.3.2,5101,172.16.1.2,21760,10406,14480,0,65728,65700,6,6,4,1460,501,1,992,61,33580,0,65700,0,0,0,0,0
o,0x00000000,1716936384.630748,172.16.3.2,5101,172.16.1.2,21760,10406,14480,0,65728,65700,6,6,4,1460,501,1,993,61,33580,0,65700,1448,0,0,0,0
i,0x00000000,1716936384.671160,172.16.3.2,5101,172.16.1.2,21760,10406,14480,0,65728,65700,6,6,4,1460,501,1,992,61,33580,0,65700,0,0,0,0,0
i,0x00000000,1716936384.701458,172.16.3.2,5101,172.16.1.2,21760,10406,14480,0,65728,65700,6,6,4,1460,501,1,992,61,33580,0,65700,0,0,0,0,0
o,0x00000000,1716936384.701483,172.16.3.2,5101,172.16.1.2,21760,10406,14480,0,65728,65700,6,6,4,1460,501,1,993,61,33580,0,65700,1448,0,0,0,0
i,0x00000000,1716936384.721143,172.16.3.2,5101,172.16.1.2,21760,10406,14480,0,65728,65700,6,6,4,1460,501,1,992,61,33580,0,65700,0,0,0,0,0
i,0x00000000,1716936384.730606,172.16.3.2,5101,172.16.1.2,21760,10406,14480,0,65728,65700,6,6,4,1460,501,1,992,61,33580,0,65700,0,0,0,0,0
o,0x00000000,1716936384.730621,172.16.3.2,5101,172.16.1.2,21760,10406,14480,0,65728,65700,6,6,4,1460,501,1,993,61,33580,0,65700,1448,0,0,0,0
i,0x00000000,1716936384.780463,172.16.3.2,5101,172.16.1.2,21760,10406,14480,0,65728,65700,6,6,4,1460,501,1,992,61,33580,0,65700,0,0,0,0,0
i,0x00000000,1716936384.801400,172.16.3.2,5101,172.16.1.2,21760,10406,14480,0,65728,65700,6,6,4,1460,501,1,992,61,33580,0,65700,0,0,0,0,0
o,0x00000000,1716936384.801428,172.16.3.2,5101,172.16.1.2,21760,10406,14480,0,65728,65700,6,6,4,1460,501,1,993,61,33580,0,65700,1448,0,0,0,0
i,0x00000000,1716936384.810403,172.16.3.2,5101,172.16.1.2,21760,10406,14480,0,65728,65700,6,6,4,1460,501,1,992,61,33580,0,65700,0,0,0,0,0
o,0x00000000,1716936384.848397,172.16.3.2,5101,172.16.1.2,21760,10406,14480,0,65728,65700,6,6,4,1460,501,1,993,61,33580,0,65700,0,0,0,0,0
i,0x00000000,1716936384.850714,172.16.3.2,5101,172.16.1.2,21760,10406,14480,0,65728,65700,6,6,4,1460,501,1,992,61,33580,0,65700,0,0,0,0,0
i,0x00000000,1716936384.861093,172.16.3.2,5101,172.16.1.2,21760,10406,14480,0,65728,65700,6,6,4,1460,501,1,992,61,33580,0,65700,0,0,0,0,0
o,0x00000000,1716936384.861102,172.16.3.2,5101,172.16.1.2,21760,10406,14480,0,65728,65700,6,6,4,1460,501,1,993,61,33580,0,65700,1448,0,0,0,0
i,0x00000000,1716936384.880794,172.16.3.2,5101,172.16.1.2,21760,10406,14480,0,65728,65700,6,6,4,1460,501,1,992,61,33580,0,65700,0,0,0,0,0
i,0x00000000,1716936384.910719,172.16.3.2,5101,172.16.1.2,21760,10406,14480,0,65728,65700,6,6,4,1460,501,1,992,61,33580,0,65700,0,0,0,0,0
o,0x00000000,1716936384.910738,172.16.3.2,5101,172.16.1.2,21760,10406,14480,0,65728,65700,6,6,4,1460,501,1,993,61,33580,0,65700,1448,0,0,0,0
i,0x00000000,1716936384.950064,172.16.3.2,5101,172.16.1.2,21760,10406,14480,0,65728,65700,6,6,4,1460,501,1,992,61,33580,0,65700,0,0,0,0,0
i,0x00000000,1716936384.960363,172.16.3.2,5101,172.16.1.2,21760,10406,14480,0,65728,65700,6,6,4,1460,501,1,992,61,33580,0,65700,0,0,0,0,0
o,0x00000000,1716936384.960374,172.16.3.2,5101,172.16.1.2,21760,10406,14480,0,65728,65700,6,6,4,1460,501,1,993,61,33580,0,65700,1448,0,0,0,0
i,0x00000000,1716936385.000657,172.16.3.2,5101,172.16.1.2,21760,10406,14480,0,65728,65700,6,6,4,1460,501,1,992,61,33580,0,65700,0,0,0,0,0
i,0x00000000,1716936385.011004,172.16.3.2,5101,172.16.1.2,21760,10406,14480,0,65728,65700,6,6,4,1460,501,1,992,61,33580,0,65700,0,0,0,0,0
o,0x00000000,1716936385.011020,172.16.3.2,5101,172.16.1.2,21760,10406,14480,0,65728,65700,6,6,4,1460,501,1,993,61,33580,0,65700,1448,0,0,0,0
i,0x00000000,1716936385.061069,172.16.3.2,5101,172.16.1.2,21760,10406,14480,0,65728,65700,6,6,4,1460,501,1,992,61,33580,0,65700,0,0,0,0,0
o,0x00000000,1716936385.061084,172.16.3.2,5101,172.16.1.2,21760,10406,14480,0,65728,65700,6,6,4,1460,501,1,993,61,33580,0,65700,0,0,1,0,0
i,0x00000000,1716936385.071170,172.16.3.2,5101,172.16.1.2,21760,10406,14480,0,65728,65700,6,6,4,1460,501,1,992,61,33580,0,65700,0,0,1,0,0
o,0x00000000,1716936385.071179,172.16.3.2,5101,172.16.1.2,21760,10406,14480,0,65728,65728,6,6,4,1460,501,1,993,61,33580,0,65700,0,0,1,0,0
i,0x00000000,1716936385.120130,172.16.3.2,5101,172.16.1.2,21760,10406,14480,0,65728,65728,6,6,4,1460,501,1,992,61,33580,0,65700,0,0,1,0,0
o,0x00000000,1716936385.120140,172.16.3.2,5101,172.16.1.2,21760,10406,14480,0,65728,65728,6,6,4,1460,501,1,993,61,33580,0,65700,0,0,1,0,0
i,0x00000000,1716936385.131030,172.16.3.2,5101,172.16.1.2,21760,10406,14480,0,65728,65728,6,6,4,1460,501,1,992,61,33580,0,65700,0,0,1,0,0
o,0x00000000,1716936385.131037,172.16.3.2,5101,172.16.1.2,21760,10406,14480,0,65728,65728,6,6,4,1460,501,1,993,61,33580,0,65700,0,0,1,0,0
i,0x00000000,1716936385.169896,172.16.3.2,5101,172.16.1.2,21760,10406,14480,0,65728,65728,6,6,4,1460,501,1,992,61,33580,0,65700,0,0,1,0,0
o,0x00000000,1716936385.169908,172.16.3.2,5101,172.16.1.2,21760,10406,14480,0,65728,65728,6,6,4,1460,501,1,993,61,33580,0,65700,0,0,1,0,0
i,0x00000000,1716936385.180152,172.16.3.2,5101,172.16.1.2,21760,10406,14480,0,65728,65728,6,6,4,1460,501,1,992,61,33580,0,65700,0,0,1,0,0
o,0x00000000,1716936385.180158,172.16.3.2,5101,172.16.1.2,21760,10406,14480,0,65728,65728,6,6,4,1460,501,1,993,61,33580,0,65700,0,0,1,0,0
i,0x00000000,1716936385.220492,172.16.3.2,5101,172.16.1.2,21760,10406,14480,0,65728,65728,6,6,4,1460,501,1,992,61,33580,0,65700,0,0,1,0,0
o,0x00000000,1716936385.220498,172.16.3.2,5101,172.16.1.2,21760,10406,14480,0,65728,65728,6,6,4,1460,501,1,993,61,33580,0,65700,0,0,2,0,0
i,0x00000000,1716936385.231116,172.16.3.2,5101,172.16.1.2,21760,10406,14480,0,65728,65728,6,6,4,1460,501,1,992,61,33580,0,65700,0,0,2,0,0
o,0x00000000,1716936385.231121,172.16.3.2,5101,172.16.1.2,21760,10406,14480,0,65728,65728,6,6,4,1460,501,1,993,61,33580,0,65700,0,0,2,0,0
i,0x00000000,1716936385.260068,172.16.3.2,5101,172.16.1.2,21760,10406,14480,0,65728,65728,6,6,4,1460,501,1,992,61,33580,0,65700,0,0,2,0,0
o,0x00000000,1716936385.260072,172.16.3.2,5101,172.16.1.2,21760,10406,14480,0,65728,65728,6,6,4,1460,501,1,993,61,33580,0,65700,0,0,2,0,0
i,0x00000000,1716936385.270336,172.16.3.2,5101,172.16.1.2,21760,10406,14480,0,65728,65728,6,6,4,1460,501,1,992,61,33580,0,65700,0,0,2,0,0
o,0x00000000,1716936385.270341,172.16.3.2,5101,172.16.1.2,21760,10406,14480,0,65728,65728,6,6,4,1460,501,1,993,61,33580,0,65700,0,0,2,0,0
i,0x00000000,1716936385.300588,172.16.3.2,5101,172.16.1.2,21760,10406,14480,0,65728,65728,6,6,4,1460,501,1,992,61,33580,0,65700,0,0,2,0,0
o,0x00000000,1716936385.300618,172.16.3.2,5101,172.16.1.2,21760,10406,14480,0,65728,65728,6,6,4,1460,501,1,993,61,33580,0,65700,0,0,2,0,0
i,0x00000000,1716936385.321108,172.16.3.2,5101,172.16.1.2,21760,10406,14480,0,65728,65728,6,6,4,1460,501,1,992,61,33580,0,65700,0,0,2,0,0
o,0x00000000,1716936385.321127,172.16.3.2,5101,172.16.1.2,21760,10406,14480,0,65728,65728,6,6,4,1460,501,1,993,61,33580,0,65700,0,0,3,0,0
i,0x00000000,1716936385.330547,172.16.3.2,5101,172.16.1.2,21760,10406,14480,0,65728,65728,6,6,4,1460,501,1,992,61,33580,0,65700,0,0,3,0,0
o,0x00000000,1716936385.330567,172.16.3.2,5101,172.16.1.2,21760,10406,14480,0,65728,65728,6,6,4,1460,501,1,993,61,33580,0,65700,10136,0,2,0,0
i,0x00000000,1716936385.360514,172.16.3.2,5101,172.16.1.2,21760,10406,14480,0,65728,65728,6,6,4,1460,501,1,992,61,33580,0,65700,0,0,2,0,0
o,0x00000000,1716936385.360522,172.16.3.2,5101,172.16.1.2,21760,10406,14480,0,65728,65700,6,6,4,1460,501,1,993,61,33580,0,65700,0,0,3,0,0
i,0x00000000,1716936385.380993,172.16.3.2,5101,172.16.1.2,21760,10406,14480,0,65728,65700,6,6,4,1460,501,1,992,61,33580,0,65700,0,0,3,0,0
o,0x00000000,1716936385.381002,172.16.3.2,5101,172.16.1.2,21760,10406,14480,0,65728,65728,6,6,4,1460,501,1,993,61,33580,0,65700,8688,0,2,0,0
i,0x00000000,1716936385.401696,172.16.3.2,5101,172.16.1.2,21760,10406,14480,0,65728,65728,6,6,4,1460,501,1,992,61,33580,0,65700,0,0,2,0,0
o,0x00000000,1716936385.401702,172.16.3.2,5101,172.16.1.2,21760,10406,14480,0,65728,65700,6,6,4,1460,501,1,993,61,33580,0,65700,0,0,2,0,0
i,0x00000000,1716936385.490109,172.16.3.2,5101,172.16.1.2,21760,10406,14480,0,65728,65700,6,6,4,1460,501,1,992,61,33580,0,65700,0,0,2,0,0
o,0x00000000,1716936385.490122,172.16.3.2,5101,172.16.1.2,21760,10406,14480,0,65728,65728,6,6,4,1460,501,1,993,61,33580,0,65700,2896,0,1,0,0
o,0x00000000,1716936385.497173,10.0.2.15,22,10.0.2.2,62180,1073725440,14600,0,65535,65700,0,0,4,1460,1,0,4,24,33580,108,65700,0,0,0,0,0
i,0x00000000,1716936385.497837,10.0.2.15,22,10.0.2.2,62180,1073725440,14600,0,65535,65700,0,0,4,1460,1,0,4,24,33580,108,65700,0,108,0,0,0
i,0x00000000,1716936385.500418,172.16.3.2,5101,172.16.1.2,21760,10406,14480,0,65728,65728,6,6,4,1460,501,1,992,61,33580,0,65700,0,0,1,0,0
o,0x00000000,1716936385.500423,172.16.3.2,5101,172.16.1.2,21760,10406,14480,0,65728,65700,6,6,4,1460,501,1,993,61,33580,0,65700,0,0,1,0,0
i,0x00000000,1716936385.530350,172.16.3.2,5101,172.16.1.2,21760,10406,14480,0,65728,65700,6,6,4,1460,501,1,992,61,33580,0,65700,0,0,1,0,0
o,0x00000000,1716936385.530356,172.16.3.2,5101,172.16.1.2,21760,10406,14480,0,65728,65728,6,6,4,1460,501,1,993,61,33580,0,65700,0,0,1,0,0
i,0x00000000,1716936385.540770,172.16.3.2,5101,172.16.1.2,21760,10406,14480,0,65728,65728,6,6,4,1460,501,1,992,61,33580,0,65700,0,0,1,0,0
o,0x00000000,1716936385.540777,172.16.3.2,5101,172.16.1.2,21760,10406,14480,0,65728,65728,6,6,4,1460,501,1,993,61,33580,0,65700,7240,0,0,0,0
i,0x00000000,1716936385.550102,172.16.3.2,5101,172.16.1.2,21760,10406,14480,0,65728,65728,6,6,4,1460,501,1,992,61,33580,0,65700,0,0,0,0,0
i,0x00000000,1716936385.580070,172.16.3.2,5101,172.16.1.2,21760,10406,14480,0,65728,65728,6,6,4,1460,501,1,992,61,33580,0,65700,0,0,0,0,0
o,0x00000000,1716936385.580078,172.16.3.2,5101,172.16.1.2,21760,10406,14480,0,65728,65728,6,6,4,1460,501,1,993,61,33580,0,65700,1448,0,0,0,0
i,0x00000000,1716936385.590330,172.16.3.2,5101,172.16.1.2,21760,10406,14480,0,65728,65728,6,6,4,1460,501,1,992,61,33580,0,65700,0,0,0,0,0
o,0x00000000,1716936385.628469,172.16.3.2,5101,172.16.1.2,21760,10406,14480,0,65728,65728,6,6,4,1460,501,1,993,61,33580,0,65700,0,0,0,0,0
i,0x00000000,1716936385.640047,172.16.3.2,5101,172.16.1.2,21760,10406,14480,0,65728,65728,6,6,4,1460,501,1,992,61,33580,0,65700,0,0,0,0,0
i,0x00000000,1716936385.660158,172.16.3.2,5101,172.16.1.2,21760,10406,14480,0,65728,65728,6,6,4,1460,501,1,992,61,33580,0,65700,0,0,0,0,0
o,0x00000000,1716936385.660170,172.16.3.2,5101,172.16.1.2,21760,10406,14480,0,65728,65728,6,6,4,1460,501,1,993,61,33580,0,65700,1448,0,0,0,0
i,0x00000000,1716936385.691045,172.16.3.2,5101,172.16.1.2,21760,10406,14480,0,65728,65728,6,6,4,1460,501,1,992,61,33580,0,65700,0,0,0,0,0
i,0x00000000,1716936385.720623,172.16.3.2,5101,172.16.1.2,21760,10406,14480,0,65728,65728,6,6,4,1460,501,1,992,61,33580,0,65700,0,0,0,0,0
o,0x00000000,1716936385.720634,172.16.3.2,5101,172.16.1.2,21760,10406,14480,0,65728,65728,6,6,4,1460,501,1,993,61,33580,0,65700,1448,0,0,0,0
i,0x00000000,1716936385.731014,172.16.3.2,5101,172.16.1.2,21760,10406,14480,0,65728,65728,6,6,4,1460,501,1,992,61,33580,0,65700,0,0,0,0,0
o,0x00000000,1716936385.767709,172.16.3.2,5101,172.16.1.2,21760,10406,14480,0,65728,65728,6,6,4,1460,501,1,993,61,33580,0,65700,0,0,0,0,0
i,0x00000000,1716936385.771025,172.16.3.2,5101,172.16.1.2,21760,10406,14480,0,65728,65728,6,6,4,1460,501,1,992,61,33580,0,65700,0,0,0,0,0
i,0x00000000,1716936385.780510,172.16.3.2,5101,172.16.1.2,21760,10406,14480,0,65728,65728,6,6,4,1460,501,1,992,61,33580,0,65700,0,0,0,0,0
o,0x00000000,1716936385.780515,172.16.3.2,5101,172.16.1.2,21760,10406,14480,0,65728,65728,6,6,4,1460,501,1,993,61,33580,0,65700,1448,0,0,0,0
i,0x00000000,1716936385.820858,172.16.3.2,5101,172.16.1.2,21760,10406,14480,0,65728,65728,6,6,4,1460,501,1,992,61,33580,0,65700,0,0,0,0,0
i,0x00000000,1716936385.831078,172.16.3.2,5101,172.16.1.2,21760,10406,14480,0,65728,65728,6,6,4,1460,501,1,992,61,33580,0,65700,0,0,0,0,0
o,0x00000000,1716936385.831085,172.16.3.2,5101,172.16.1.2,21760,10406,14480,0,65728,65728,6,6,4,1460,501,1,993,61,33580,0,65700,1448,0,0,0,0
i,0x00000000,1716936385.870445,172.16.3.2,5101,172.16.1.2,21760,10406,14480,0,65728,65728,6,6,4,1460,501,1,992,61,33580,0,65700,0,0,0,0,0
i,0x00000000,1716936385.879756,172.16.3.2,5101,172.16.1.2,21760,10406,14480,0,65728,65728,6,6,4,1460,501,1,992,61,33580,0,65700,0,0,0,0,0
o,0x00000000,1716936385.879763,172.16.3.2,5101,172.16.1.2,21760,10406,14480,0,65728,65728,6,6,4,1460,501,1,993,61,33580,0,65700,1448,0,0,0,0
i,0x00000000,1716936385.930459,172.16.3.2,5101,172.16.1.2,21760,10406,14480,0,65728,65728,6,6,4,1460,501,1,992,61,33580,0,65700,0,0,0,0,0
i,0x00000000,1716936385.940848,172.16.3.2,5101,172.16.1.2,21760,10406,14480,0,65728,65728,6,6,4,1460,501,1,992,61,33580,0,65700,0,0,0,0,0
o,0x00000000,1716936385.940862,172.16.3.2,5101,172.16.1.2,21760,10406,14480,0,65728,65728,6,6,4,1460,501,1,993,61,33580,0,65700,1448,0,0,0,0
i,0x00000000,1716936385.990551,172.16.3.2,5101,172.16.1.2,21760,10406,14480,0,65728,65728,6,6,4,1460,501,1,992,61,33580,0,65700,0,0,0,0,0
i,0x00000000,1716936386.000765,172.16.3.2,5101,172.16.1.2,21760,10406,14480,0,65728,65728,6,6,4,1460,501,1,992,61,33580,0,65700,0,0,0,0,0
o,0x00000000,1716936386.000776,172.16.3.2,5101,172.16.1.2,21760,10406,14480,0,65728,65728,6,6,4,1460,501,1,993,61,33580,0,65700,1448,0,0,0,0
i,0x00000000,1716936386.040038,172.16.3.2,5101,172.16.1.2,21760,10406,14480,0,65728,65728,6,6,4,1460,501,1,992,61,33580,0,65700,0,0,0,0,0
i,0x00000000,1716936386.049994,172.16.3.2,5101,172.16.1.2,21760,10406,14480,0,65728,65728,6,6,4,1460,501,1,992,61,33580,0,65700,0,0,0,0,0
o,0x00000000,1716936386.050000,172.16.3.2,5101,172.16.1.2,21760,10406,14480,0,65728,65728,6,6,4,1460,501,1,993,61,33580,0,65700,1448,0,0,0,0
i,0x00000000,1716936386.060336,172.16.3.2,5101,172.16.1.2,21760,10406,14480,0,65728,65728,6,6,4,1460,501,1,992,61,33580,0,65700,0,0,0,0,0
o,0x00000000,1716936386.098135,172.16.3.2,5101,172.16.1.2,21760,10406,14480,0,65728,65728,6,6,4,1460,501,1,993,61,33580,0,65700,0,0,0,0,0
i,0x00000000,1716936386.100507,172.16.3.2,5101,172.16.1.2,21760,10406,14480,0,65728,65728,6,6,4,1460,501,1,992,61,33580,0,65700,0,0,0,0,0
i,0x00000000,1716936386.110086,172.16.3.2,5101,172.16.1.2,21760,10406,14480,0,65728,65728,6,6,4,1460,501,1,992,61,33580,0,65700,0,0,0,0,0
o,0x00000000,1716936386.110093,172.16.3.2,5101,172.16.1.2,21760,10406,14480,0,65728,65728,6,6,4,1460,501,1,993,61,33580,0,65700,1448,0,0,0,0
i,0x00000000,1716936386.150339,172.16.3.2,5101,172.16.1.2,21760,10406,14480,0,65728,65728,6,6,4,1460,501,1,992,61,33580,0,65700,0,0,0,0,0
i,0x00000000,1716936386.160601,172.16.3.2,5101,172.16.1.2,21760,10406,14480,0,65728,65728,6,6,4,1460,501,1,992,61,33580,0,65700,0,0,0,0,0
o,0x00000000,1716936386.160615,172.16.3.2,5101,172.16.1.2,21760,10406,14480,0,65728,65728,6,6,4,1460,501,1,993,61,33580,0,65700,1448,0,0,0,0
i,0x00000000,1716936386.210445,172.16.3.2,5101,172.16.1.2,21760,10406,14480,0,65728,65728,6,6,4,1460,501,1,992,61,33580,0,65700,0,0,0,0,0
i,0x00000000,1716936386.220619,172.16.3.2,5101,172.16.1.2,21760,10406,14480,0,65728,65728,6,6,4,1460,501,1,992,61,33580,0,65700,0,0,0,0,0
o,0x00000000,1716936386.220628,172.16.3.2,5101,172.16.1.2,21760,10406,14480,0,65728,65728,6,6,4,1460,501,1,993,61,33580,0,65700,1448,0,0,0,0
i,0x00000000,1716936386.250658,172.16.3.2,5101,172.16.1.2,21760,10406,14480,0,65728,65728,6,6,4,1460,501,1,992,61,33580,0,65700,0,0,0,0,0
i,0x00000000,1716936386.280506,172.16.3.2,5101,172.16.1.2,21760,10406,14480,0,65728,65728,6,6,4,1460,501,1,992,61,33580,0,65700,0,0,0,0,0
o,0x00000000,1716936386.280513,172.16.3.2,5101,172.16.1.2,21760,10406,14480,0,65728,65728,6,6,4,1460,501,1,993,61,33580,0,65700,1448,0,0,0,0
i,0x00000000,1716936386.300365,172.16.3.2,5101,172.16.1.2,21760,10406,14480,0,65728,65728,6,6,4,1460,501,1,992,61,33580,0,65700,0,0,0,0,0
i,0x00000000,1716936386.329698,172.16.3.2,5101,172.16.1.2,21760,10406,14480,0,65728,65728,6,6,4,1460,501,1,992,61,33580,0,65700,0,0,0,0,0
o,0x00000000,1716936386.329706,172.16.3.2,5101,172.16.1.2,21760,10406,14480,0,65728,65728,6,6,4,1460,501,1,993,61,33580,0,65700,1448,0,0,0,0
i,0x00000000,1716936386.350647,172.16.3.2,5101,172.16.1.2,21760,10406,14480,0,65728,65728,6,6,4,1460,501,1,992,61,33580,0,65700,0,0,0,0,0
i,0x00000000,1716936386.359729,172.16.3.2,5101,172.16.1.2,21760,10406,14480,0,65728,65728,6,6,4,1460,501,1,992,61,33580,0,65700,0,0,0,0,0
o,0x00000000,1716936386.359734,172.16.3.2,5101,172.16.1.2,21760,10406,14480,0,65728,65728,6,6,4,1460,501,1,993,61,33580,0,65700,1448,0,0,0,0
i,0x00000000,1716936386.390919,172.16.3.2,5101,172.16.1.2,21760,10406,14480,0,65728,65728,6,6,4,1460,501,1,992,61,33580,0,65700,0,0,0,0,0
i,0x00000000,1716936386.410463,172.16.3.2,5101,172.16.1.2,21760,10406,14480,0,65728,65728,6,6,4,1460,501,1,992,61,33580,0,65700,0,0,0,0,0
o,0x00000000,1716936386.410470,172.16.3.2,5101,172.16.1.2,21760,10406,14480,0,65728,65728,6,6,4,1460,501,1,993,61,33580,0,65700,1448,0,0,0,0
i,0x00000000,1716936386.440490,172.16.3.2,5101,172.16.1.2,21760,10406,14480,0,65728,65728,6,6,4,1460,501,1,992,61,33580,0,65700,0,0,0,0,0
i,0x00000000,1716936386.460381,172.16.3.2,5101,172.16.1.2,21760,10406,14480,0,65728,65728,6,6,4,1460,501,1,992,61,33580,0,65700,0,0,0,0,0
o,0x00000000,1716936386.460387,172.16.3.2,5101,172.16.1.2,21760,10406,14480,0,65728,65728,6,6,4,1460,501,1,993,61,33580,0,65700,1448,0,0,0,0
o,0x00000000,1716936386.497477,10.0.2.15,22,10.0.2.2,62180,1073725440,14600,0,65535,65700,0,0,4,1460,1,0,4,24,33580,108,65700,0,0,0,0,0
i,0x00000000,1716936386.498354,10.0.2.15,22,10.0.2.2,62180,1073725440,14600,0,65535,65700,0,0,4,1460,1,0,4,24,33580,108,65700,0,108,0,0,0
i,0x00000000,1716936386.500666,172.16.3.2,5101,172.16.1.2,21760,10406,14480,0,65728,65728,6,6,4,1460,501,1,992,61,33580,0,65700,0,0,0,0,0
i,0x00000000,1716936386.519413,172.16.3.2,5101,172.16.1.2,21760,10406,14480,0,65728,65728,6,6,4,1460,501,1,992,61,33580,0,65700,0,0,0,0,0
o,0x00000000,1716936386.519424,172.16.3.2,5101,172.16.1.2,21760,10406,14480,0,65728,65728,6,6,4,1460,501,1,993,61,33580,0,65700,1448,0,0,0,0
i,0x00000000,1716936386.550293,172.16.3.2,5101,172.16.1.2,21760,10406,14480,0,65728,65728,6,6,4,1460,501,1,992,61,33580,0,65700,0,0,0,0,0
o,0x00000000,1716936386.587777,172.16.3.2,5101,172.16.1.2,21760,10406,14480,0,65728,65728,6,6,4,1460,501,1,993,61,33580,0,65700,0,0,0,0,0
i,0x00000000,1716936386.590592,172.16.3.2,5101,172.16.1.2,21760,10406,14480,0,65728,65728,6,6,4,1460,501,1,992,61,33580,0,65700,0,0,0,0,0
i,0x00000000,1716936386.600191,172.16.3.2,5101,172.16.1.2,21760,10406,14480,0,65728,65728,6,6,4,1460,501,1,992,61,33580,0,65700,0,0,0,0,0
o,0x00000000,1716936386.600203,172.16.3.2,5101,172.16.1.2,21760,10406,14480,0,65728,65728,6,6,4,1460,501,1,993,61,33580,0,65700,1448,0,0,0,0
i,0x00000000,1716936386.639761,172.16.3.2,5101,172.16.1.2,21760,10406,14480,0,65728,65728,6,6,4,1460,501,1,992,61,33580,0,65700,0,0,0,0,0
i,0x00000000,1716936386.649490,172.16.3.2,5101,172.16.1.2,21760,10406,14480,0,65728,65728,6,6,4,1460,501,1,992,61,33580,0,65700,0,0,0,0,0
o,0x00000000,1716936386.649497,172.16.3.2,5101,172.16.1.2,21760,10406,14480,0,65728,65728,6,6,4,1460,501,1,993,61,33580,0,65700,1448,0,0,0,0
i,0x00000000,1716936386.660974,172.16.3.2,5101,172.16.1.2,21760,10406,14480,0,65728,65728,6,6,4,1460,501,1,992,61,33580,0,65700,0,0,0,0,0
i,0x00000000,1716936386.680397,172.16.3.2,5101,172.16.1.2,21760,10406,14480,0,65728,65728,6,6,4,1460,501,1,992,61,33580,0,65700,0,0,0,0,0
o,0x00000000,1716936386.680412,172.16.3.2,5101,172.16.1.2,21760,10406,14480,0,65728,65728,6,6,4,1460,501,1,993,61,33580,0,65700,1448,0,0,0,0
i,0x00000000,1716936386.709454,172.16.3.2,5101,172.16.1.2,21760,10406,14480,0,65728,65728,6,6,4,1460,501,1,992,61,33580,0,65700,0,0,0,0,0
i,0x00000000,1716936386.719712,172.16.3.2,5101,172.16.1.2,21760,10406,14480,0,65728,65728,6,6,4,1460,501,1,992,61,33580,0,65700,0,0,0,0,0
o,0x00000000,1716936386.719723,172.16.3.2,5101,172.16.1.2,21760,10406,14480,0,65728,65728,6,6,4,1460,501,1,993,61,33580,0,65700,1448,0,0,0,0
i,0x00000000,1716936386.789572,172.16.3.2,5101,172.16.1.2,21760,10406,14480,0,65728,65728,6,6,4,1460,501,1,992,61,33580,0,65700,0,0,0,0,0
i,0x00000000,1716936386.799898,172.16.3.2,5101,172.16.1.2,21760,10406,14480,0,65728,65728,6,6,4,1460,501,1,992,61,33580,0,65700,0,0,0,0,0
o,0x00000000,1716936386.799906,172.16.3.2,5101,172.16.1.2,21760,10406,14480,0,65728,65728,6,6,4,1460,501,1,993,61,33580,0,65700,1448,0,0,0,0
i,0x00000000,1716936386.829873,172.16.3.2,5101,172.16.1.2,21760,10406,14480,0,65728,65728,6,6,4,1460,501,1,992,61,33580,0,65700,0,0,0,0,0
o,0x00000000,1716936386.867424,172.16.3.2,5101,172.16.1.2,21760,10406,14480,0,65728,65728,6,6,4,1460,501,1,993,61,33580,0,65700,0,0,0,0,0
i,0x00000000,1716936386.869619,172.16.3.2,5101,172.16.1.2,21760,10406,14480,0,65728,65728,6,6,4,1460,501,1,992,61,33580,0,65700,0,0,0,0,0
i,0x00000000,1716936386.880842,172.16.3.2,5101,172.16.1.2,21760,10406,14480,0,65728,65728,6,6,4,1460,501,1,992,61,33580,0,65700,0,0,0,0,0
o,0x00000000,1716936386.880849,172.16.3.2,5101,172.16.1.2,21760,10406,14480,0,65728,65728,6,6,4,1460,501,1,993,61,33580,0,65700,1448,0,0,0,0
i,0x00000000,1716936386.900567,172.16.3.2,5101,172.16.1.2,21760,10406,14480,0,65728,65728,6,6,4,1460,501,1,992,61,33580,0,65700,0,0,0,0,0
i,0x00000000,1716936386.929984,172.16.3.2,5101,172.16.1.2,21760,10406,14480,0,65728,65728,6,6,4,1460,501,1,992,61,33580,0,65700,0,0,0,0,0
o,0x00000000,1716936386.929996,172.16.3.2,5101,172.16.1.2,21760,10406,14480,0,65728,65728,6,6,4,1460,501,1,993,61,33580,0,65700,1448,0,0,0,0
i,0x00000000,1716936386.940265,172.16.3.2,5101,172.16.1.2,21760,10406,14480,0,65728,65728,6,6,4,1460,501,1,992,61,33580,0,65700,0,0,0,0,0
i,0x00000000,1716936386.959153,172.16.3.2,5101,172.16.1.2,21760,10406,14480,0,65728,65728,6,6,4,1460,501,1,992,61,33580,0,65700,0,0,0,0,0
o,0x00000000,1716936386.959162,172.16.3.2,5101,172.16.1.2,21760,10406,14480,0,65728,65728,6,6,4,1460,501,1,993,61,33580,0,65700,1448,0,0,0,0
