enable_time_secs=1716934746	enable_time_usecs=127034	siftrver=1.2.4	hz=100	tcp_rtt_scale=32	sysname=FreeBSD	sysver=1301000	ipmode=4
o,0x00000000,1716934746.127072,10.0.2.15,22,10.0.2.2,55841,1073725440,17298,0,65535,65700,0,0,4,1460,1,0,4,23,33580,44,65700,0,0,0,0,0
o,0x00000000,1716934746.127174,10.0.2.15,22,10.0.2.2,55841,1073725440,17298,0,65535,65700,0,0,4,1460,1,0,4,23,33580,80,65700,0,44,0,0,0
i,0x00000000,1716934746.127960,10.0.2.15,22,10.0.2.2,55841,1073725440,17298,0,65535,65700,0,0,4,1460,1,0,4,23,33580,80,65700,0,80,0,0,0
i,0x00000000,1716934746.127964,10.0.2.15,22,10.0.2.2,55841,1073725440,17342,0,65535,65700,0,0,4,1460,1,0,4,23,33580,36,65700,0,36,0,0,0
o,0x00000000,1716934746.128066,10.0.2.15,22,10.0.2.2,55841,1073725440,17378,0,65535,65700,0,0,4,1460,1,0,4,23,33580,36,65700,0,0,0,0,0
i,0x00000000,1716934746.128575,10.0.2.15,22,10.0.2.2,55841,1073725440,17378,0,65535,65700,0,0,4,1460,1,0,4,23,33580,36,65700,0,36,0,0,0
o,0x00000000,1716934746.128746,10.0.2.15,22,10.0.2.2,55841,1073725440,17414,0,65535,65700,0,0,4,1460,1,0,4,23,33580,176,65700,0,0,0,0,0
i,0x00000000,1716934746.129519,10.0.2.15,22,10.0.2.2,55841,1073725440,17414,0,65535,65700,0,0,4,1460,1,0,4,23,33580,176,65700,0,176,0,0,0
i,0x00000000,1716934746.130693,10.0.2.15,22,10.0.2.2,55841,1073725440,17590,0,65535,65700,0,0,4,1460,1,0,4,23,33580,0,65700,0,0,0,0,0
i,0x00000000,1716934746.130697,10.0.2.15,22,10.0.2.2,55841,1073725440,17590,0,65535,65700,0,0,4,1460,1,0,4,23,33580,0,65700,36,0,0,0,0
o,0x00000000,1716934746.130700,10.0.2.15,22,10.0.2.2,55841,1073725440,17590,0,65535,65700,0,0,4,1460,1,0,5,23,33580,0,65700,96,0,0,0,0
i,0x00000000,1716934746.130788,10.0.2.15,22,10.0.2.2,55841,1073725440,17590,0,65535,65700,0,0,4,1460,1,0,4,23,33580,0,65700,96,0,0,0,0
o,0x00000000,1716934746.130792,10.0.2.15,22,10.0.2.2,55841,1073725440,17590,0,65535,65604,0,0,5,1460,1,0,7,23,33580,0,65700,96,0,0,0,0
o,0x00000000,1716934746.131460,10.0.2.15,22,10.0.2.2,55841,1073725440,17590,0,65535,65604,0,0,8,1460,1,0,4,23,33580,0,65700,0,0,0,0,0
i,0x00000000,1716934746.132014,10.0.2.15,22,10.0.2.2,55841,1073725440,17590,0,65535,65604,0,0,8,1460,1,0,20,23,33580,0,65700,0,1,0,0,0
i,0x00000000,1716934748.227502,10.0.2.15,22,10.0.2.2,55844,1073725440,14600,0,65535,65700,0,0,4,1460,1,0,0,27,33580,0,65700,0,0,0,0,0
o,0x00000000,1716934748.235236,10.0.2.15,22,10.0.2.2,55844,1073725440,14600,0,65535,65700,0,0,4,1460,1,0,0,27,33580,38,65700,41,0,0,0,0
i,0x00000000,1716934748.236271,10.0.2.15,22,10.0.2.2,55844,1073725440,14600,0,65535,65700,0,0,4,1460,1,0,0,27,33580,38,65700,0,38,0,0,0
i,0x00000000,1716934748.237124,10.0.2.15,22,10.0.2.2,55844,1073725440,14638,0,65535,65700,0,0,4,1460,1,0,0,24,33580,0,65700,0,0,0,0,0
i,0x00000000,1716934748.237127,10.0.2.15,22,10.0.2.2,55844,1073725440,14638,0,65535,65700,0,0,4,1460,1,0,0,24,33580,0,65700,1460,0,0,0,0
o,0x00000000,1716934748.237130,10.0.2.15,22,10.0.2.2,55844,1073725440,14638,0,65535,65700,0,0,4,1460,1,0,1,24,33580,0,65700,1536,0,0,0,0
o,0x00000000,1716934748.238020,10.0.2.15,22,10.0.2.2,55844,1073725440,14638,0,65535,65700,0,0,4,1460,1,0,0,24,33580,1056,65700,1536,0,0,0,0
i,0x00000000,1716934748.238684,10.0.2.15,22,10.0.2.2,55844,1073725440,14638,0,65535,65700,0,0,4,1460,1,0,0,24,33580,1056,65700,1536,1056,0,0,0
i,0x00000000,1716934748.240133,10.0.2.15,22,10.0.2.2,55844,1073725440,15694,0,65535,65700,0,0,4,1460,1,0,0,24,33580,0,65700,0,0,0,0,0
o,0x00000000,1716934748.242476,10.0.2.15,22,10.0.2.2,55844,1073725440,15694,0,65535,65700,0,0,4,1460,1,0,0,24,33580,484,65700,0,0,0,0,0
i,0x00000000,1716934748.243136,10.0.2.15,22,10.0.2.2,55844,1073725440,15694,0,65535,65700,0,0,4,1460,1,0,0,24,33580,484,65700,0,484,0,0,0
i,0x00000000,1716934748.247981,10.0.2.15,22,10.0.2.2,55844,1073725440,16178,0,65535,65700,0,0,4,1460,1,0,0,24,33580,0,65700,0,0,0,0,0
i,0x00000000,1716934748.251919,10.0.2.15,22,10.0.2.2,55844,1073725440,16178,0,65535,65700,0,0,4,1460,1,0,0,24,33580,0,65700,0,0,0,0,0
o,0x00000000,1716934748.251925,10.0.2.15,22,10.0.2.2,55844,1073725440,16178,0,65535,65700,0,0,4,1460,1,0,1,24,33580,0,65700,44,0,0,0,0
o,0x00000000,1716934748.252102,10.0.2.15,22,10.0.2.2,55844,1073725440,16178,0,65535,65700,0,0,4,1460,1,0,0,24,33580,44,65700,0,0,0,0,0
i,0x00000000,1716934748.253048,10.0.2.15,22,10.0.2.2,55844,1073725440,16178,0,65535,65700,0,0,4,1460,1,0,0,24,33580,44,65700,0,44,0,0,0
i,0x00000000,1716934748.253075,10.0.2.15,22,10.0.2.2,55844,1073725440,16222,0,65535,65700,0,0,4,1460,1,0,0,24,33580,0,65700,0,0,0,0,0
o,0x00000000,1716934748.262468,10.0.2.15,22,10.0.2.2,55844,1073725440,16222,0,65535,65700,0,0,4,1460,1,0,0,24,33580,68,65700,0,0,0,0,0
i,0x00000000,1716934748.263253,10.0.2.15,22,10.0.2.2,55844,1073725440,16222,0,65535,65700,0,0,4,1460,1,0,0,24,33580,68,65700,0,68,0,0,0
i,0x00000000,1716934748.265409,10.0.2.15,22,10.0.2.2,55844,1073725440,16290,0,65535,65700,0,0,4,1460,1,0,0,24,33580,0,65700,0,0,0,0,0
o,0x00000000,1716934748.275945,10.0.2.15,22,10.0.2.2,55844,1073725440,16290,0,65535,65700,0,0,4,1460,1,0,0,24,33580,28,65700,0,0,0,0,0
i,0x00000000,1716934748.277110,10.0.2.15,22,10.0.2.2,55844,1073725440,16290,0,65535,65700,0,0,4,1460,1,0,0,24,33580,28,65700,0,28,0,0,0
i,0x00000000,1716934748.277137,10.0.2.15,22,10.0.2.2,55844,1073725440,16318,0,65535,65700,0,0,4,1460,1,0,0,24,33580,0,65700,0,0,0,0,0
o,0x00000000,1716934748.277962,10.0.2.15,22,10.0.2.2,55844,1073725440,16318,0,65535,65700,0,0,4,1460,1,0,0,24,33580,768,65700,112,0,0,0,0
i,0x00000000,1716934748.278863,10.0.2.15,22,10.0.2.2,55844,1073725440,16318,0,65535,65700,0,0,4,1460,1,0,0,24,33580,768,65700,112,768,0,0,0
o,0x00000000,1716934748.278968,10.0.2.15,22,10.0.2.2,55844,1073725440,17086,0,65535,65700,0,0,4,1460,1,0,0,24,33580,44,65700,0,0,0,0,0
i,0x00000000,1716934748.279498,10.0.2.15,22,10.0.2.2,55844,1073725440,17086,0,65535,65700,0,0,4,1460,1,0,0,24,33580,44,65700,0,44,0,0,0
i,0x00000000,1716934748.280041,10.0.2.15,22,10.0.2.2,55844,1073725440,17130,0,65535,65700,0,0,4,1460,1,0,0,24,33580,0,65700,0,0,0,0,0
o,0x00000000,1716934748.280448,10.0.2.15,22,10.0.2.2,55844,1073725440,17130,0,65535,65700,0,0,4,1460,1,0,4,24,33580,72,65700,0,0,0,0,0
i,0x00000000,1716934748.281191,10.0.2.15,22,10.0.2.2,55844,1073725440,17130,0,65535,65700,0,0,4,1460,1,0,4,24,33580,72,65700,0,72,0,0,0
o,0x00000000,1716934748.284161,10.0.2.15,22,10.0.2.2,55844,1073725440,17202,0,65535,65700,0,0,4,1460,1,0,4,24,33580,44,65700,0,0,0,0,0
i,0x00000000,1716934748.284921,10.0.2.15,22,10.0.2.2,55844,1073725440,17202,0,65535,65700,0,0,4,1460,1,0,4,24,33580,44,65700,0,44,0,0,0
o,0x00000000,1716934748.285308,10.0.2.15,22,10.0.2.2,55844,1073725440,17246,0,65535,65700,0,0,4,1460,1,0,4,24,33580,44,65700,0,0,0,0,0
i,0x00000000,1716934748.286044,10.0.2.15,22,10.0.2.2,55844,1073725440,17246,0,65535,65700,0,0,4,1460,1,0,4,24,33580,44,65700,0,44,0,0,0
o,0x00000000,1716934748.290311,10.0.2.15,22,10.0.2.2,55844,1073725440,17290,0,65535,65700,0,0,4,1460,1,0,4,24,33580,176,65700,0,0,0,0,0
i,0x00000000,1716934748.291297,10.0.2.15,22,10.0.2.2,55844,1073725440,17290,0,65535,65700,0,0,4,1460,1,0,4,24,33580,176,65700,0,176,0,0,0
i,0x00000000,1716934748.291301,10.0.2.15,22,10.0.2.2,55844,1073725440,17466,0,65535,65700,0,0,4,1460,1,0,4,24,33580,0,65700,0,0,0,0,0
i,0x00000000,1716934748.291302,10.0.2.15,22,10.0.2.2,55844,1073725440,17466,0,65535,65700,0,0,4,1460,1,0,4,24,33580,0,65700,36,0,0,0,0
o,0x00000000,1716934748.291303,10.0.2.15,22,10.0.2.2,55844,1073725440,17466,0,65535,65700,0,0,4,1460,1,0,5,24,33580,0,65700,96,0,0,0,0
i,0x00000000,1716934748.291393,10.0.2.15,22,10.0.2.2,55844,1073725440,17466,0,65535,65700,0,0,4,1460,1,0,4,24,33580,0,65700,96,0,0,0,0
o,0x00000000,1716934748.291397,10.0.2.15,22,10.0.2.2,55844,1073725440,17466,0,65535,65604,0,0,5,1460,1,0,7,24,33580,0,65700,96,0,0,0,0
o,0x00000000,1716934748.298789,10.0.2.15,22,10.0.2.2,55844,1073725440,17466,0,65535,65604,0,0,8,1460,1,0,4,24,33580,0,65700,0,0,0,0,0
i,0x00000000,1716934748.299653,10.0.2.15,22,10.0.2.2,55844,1073725440,17466,0,65535,65604,0,0,8,1460,1,0,20,24,33580,0,65700,0,1,0,0,0
i,0x00000000,1716934748.544143,172.16.3.2,5101,172.16.1.2,24262,10499,14480,0,65728,65700,6,6,4,1460,442,1,992,47,33580,0,65700,0,0,0,0,0
o,0x00000000,1716934748.544226,172.16.3.2,5101,172.16.1.2,24262,10499,14480,0,65728,65700,6,6,4,1460,442,1,996,47,33580,1,65700,0,0,0,0,0
i,0x00000000,1716934748.664531,172.16.3.2,5101,172.16.1.2,24262,10499,14480,0,65728,65700,6,6,4,1460,442,1,996,47,33580,1,65700,0,1,0,0,0
i,0x00000000,1716934748.664547,172.16.3.2,5101,172.16.1.2,24262,10499,14480,0,65728,65728,6,6,4,1460,435,1,996,45,33580,0,65700,4,0,0,0,0
o,0x00000000,1716934748.664555,172.16.3.2,5101,172.16.1.2,24262,10499,14480,0,65728,65728,6,6,4,1460,435,1,997,45,33580,0,65700,128,0,0,0,0
o,0x00000000,1716934748.664947,172.16.3.2,5101,172.16.1.2,24262,10499,14480,0,65728,65728,6,6,4,1460,435,1,996,45,33580,1,65700,0,0,0,0,0
o,0x00000000,1716934748.665224,10.0.2.15,22,10.0.2.2,62180,1073725440,14600,0,65535,65700,0,0,4,1460,1,0,4,24,33580,84,65700,0,0,0,0,0
i,0x00000000,1716934748.666135,10.0.2.15,22,10.0.2.2,62180,1073725440,14600,0,65535,65700,0,0,4,1460,1,0,4,24,33580,84,65700,0,84,0,0,0
i,0x00000000,1716934748.813363,172.16.3.2,5101,172.16.1.2,24262,10499,14480,0,65728,65728,6,6,4,1460,435,1,996,45,33580,1,65700,0,1,0,0,0
i,0x00000000,1716934748.903677,172.16.3.2,5101,172.16.1.2,25456,10499,14480,0,65728,65700,6,6,4,1460,442,1,992,47,33580,0,65700,0,0,0,0,0
o,0x00000000,1716934748.905827,172.16.3.2,5101,172.16.1.2,24262,10499,14480,0,65728,65728,6,6,4,1460,441,1,996,44,33580,1,65700,0,0,0,0,0
o,0x00000000,1716934748.906046,172.16.3.2,5101,172.16.1.2,24262,10499,14480,0,65728,65728,6,6,4,1460,441,1,996,44,33580,2,65700,0,1,0,0,0
o,0x00000000,1716934748.906460,10.0.2.15,22,10.0.2.2,62180,1073725440,14600,0,65535,65700,0,0,4,1460,1,0,4,24,33580,108,65700,0,0,0,0,0
i,0x00000000,1716934748.907181,10.0.2.15,22,10.0.2.2,62180,1073725440,14600,0,65535,65700,0,0,4,1460,1,0,4,24,33580,108,65700,0,108,0,0,0
o,0x00000000,1716934748.938182,172.16.3.2,5101,172.16.1.2,25456,10499,14480,0,65728,65700,6,6,4,1460,442,1,993,47,33580,0,65700,0,0,0,0,0
i,0x00000000,1716934749.094171,172.16.3.2,5101,172.16.1.2,24262,10499,14480,0,65728,65728,6,6,4,1460,441,1,996,44,33580,2,65700,0,2,0,0,0
i,0x00000000,1716934749.123133,172.16.3.2,5101,172.16.1.2,25456,10499,14480,0,65728,65700,6,6,4,1460,442,1,992,47,33580,0,65700,0,0,0,0,0
i,0x00000000,1716934749.134504,172.16.3.2,5101,172.16.1.2,25456,10499,14480,0,65728,65700,6,6,4,1460,442,1,992,47,33580,0,65700,0,0,0,0,0
o,0x00000000,1716934749.134520,172.16.3.2,5101,172.16.1.2,25456,10499,14480,0,65728,65700,6,6,4,1460,442,1,993,47,33580,0,65700,1448,0,0,0,0
i,0x00000000,1716934749.143815,172.16.3.2,5101,172.16.1.2,25456,10499,14480,0,65728,65700,6,6,4,1460,442,1,992,47,33580,0,65700,0,0,0,0,0
i,0x00000000,1716934749.154215,172.16.3.2,5101,172.16.1.2,25456,10499,14480,0,65728,65700,6,6,4,1460,442,1,992,47,33580,0,65700,0,0,0,0,0
o,0x00000000,1716934749.154224,172.16.3.2,5101,172.16.1.2,25456,10499,14480,0,65728,65700,6,6,4,1460,442,1,993,47,33580,0,65700,1448,0,0,0,0
i,0x00000000,1716934749.173693,172.16.3.2,5101,172.16.1.2,25456,10499,14480,0,65728,65700,6,6,4,1460,442,1,992,47,33580,0,65700,0,0,0,0,0
i,0x00000000,1716934749.184051,172.16.3.2,5101,172.16.1.2,25456,10499,14480,0,65728,65700,6,6,4,1460,442,1,992,47,33580,0,65700,0,0,0,0,0
o,0x00000000,1716934749.184060,172.16.3.2,5101,172.16.1.2,25456,10499,14480,0,65728,65700,6,6,4,1460,442,1,993,47,33580,0,65700,1448,0,0,0,0
i,0x00000000,1716934749.193413,172.16.3.2,5101,172.16.1.2,25456,10499,14480,0,65728,65700,6,6,4,1460,442,1,992,47,33580,0,65700,0,0,0,0,0
i,0x00000000,1716934749.203813,172.16.3.2,5101,172.16.1.2,25456,10499,14480,0,65728,65700,6,6,4,1460,442,1,992,47,33580,0,65700,0,0,0,0,0
o,0x00000000,1716934749.203823,172.16.3.2,5101,172.16.1.2,25456,10499,14480,0,65728,65700,6,6,4,1460,442,1,993,47,33580,0,65700,1448,0,0,0,0
i,0x00000000,1716934749.223616,172.16.3.2,5101,172.16.1.2,25456,10499,14480,0,65728,65700,6,6,4,1460,442,1,992,47,33580,0,65700,0,0,0,0,0
i,0x00000000,1716934749.232934,172.16.3.2,5101,172.16.1.2,25456,10499,14480,0,65728,65700,6,6,4,1460,442,1,992,47,33580,0,65700,0,0,0,0,0
o,0x00000000,1716934749.232943,172.16.3.2,5101,172.16.1.2,25456,10499,14480,0,65728,65700,6,6,4,1460,442,1,993,47,33580,0,65700,1448,0,0,0,0
i,0x00000000,1716934749.344014,172.16.3.2,5101,172.16.1.2,25456,10499,14480,0,65728,65700,6,6,4,1460,442,1,992,47,33580,0,65700,0,0,0,0,0
i,0x00000000,1716934749.353899,172.16.3.2,5101,172.16.1.2,25456,10499,14480,0,65728,65700,6,6,4,1460,442,1,992,47,33580,0,65700,0,0,0,0,0
o,0x00000000,1716934749.353912,172.16.3.2,5101,172.16.1.2,25456,10499,14480,0,65728,65700,6,6,4,1460,442,1,993,47,33580,0,65700,1448,0,0,0,0
i,0x00000000,1716934749.413925,172.16.3.2,5101,172.16.1.2,25456,10499,14480,0,65728,65700,6,6,4,1460,442,1,992,47,33580,0,65700,0,0,0,0,0
o,0x00000000,1716934749.446893,172.16.3.2,5101,172.16.1.2,25456,10499,14480,0,65728,65700,6,6,4,1460,442,1,993,47,33580,0,65700,0,0,0,0,0
i,0x00000000,1716934749.453460,172.16.3.2,5101,172.16.1.2,25456,10499,14480,0,65728,65700,6,6,4,1460,442,1,992,47,33580,0,65700,0,0,0,0,0
i,0x00000000,1716934749.463797,172.16.3.2,5101,172.16.1.2,25456,10499,14480,0,65728,65700,6,6,4,1460,442,1,992,47,33580,0,65700,0,0,0,0,0
o,0x00000000,1716934749.463806,172.16.3.2,5101,172.16.1.2,25456,10499,14480,0,65728,65700,6,6,4,1460,442,1,993,47,33580,0,65700,1448,0,0,0,0
i,0x00000000,1716934749.473146,172.16.3.2,5101,172.16.1.2,25456,10499,14480,0,65728,65700,6,6,4,1460,442,1,992,47,33580,0,65700,0,0,0,0,0
o,0x00000000,1716934749.507911,172.16.3.2,5101,172.16.1.2,25456,10499,14480,0,65728,65700,6,6,4,1460,442,1,993,47,33580,0,65700,0,0,0,0,0
i,0x00000000,1716934749.513615,172.16.3.2,5101,172.16.1.2,25456,10499,14480,0,65728,65700,6,6,4,1460,442,1,992,47,33580,0,65700,0,0,0,0,0
i,0x00000000,1716934749.523985,172.16.3.2,5101,172.16.1.2,25456,10499,14480,0,65728,65700,6,6,4,1460,442,1,992,47,33580,0,65700,0,0,0,0,0
o,0x00000000,1716934749.523993,172.16.3.2,5101,172.16.1.2,25456,10499,14480,0,65728,65700,6,6,4,1460,442,1,993,47,33580,0,65700,1448,0,0,0,0
i,0x00000000,1716934749.533443,172.16.3.2,5101,172.16.1.2,25456,10499,14480,0,65728,65700,6,6,4,1460,442,1,992,47,33580,0,65700,0,0,0,0,0
i,0x00000000,1716934749.553073,172.16.3.2,5101,172.16.1.2,25456,10499,14480,0,65728,65700,6,6,4,1460,442,1,992,47,33580,0,65700,0,0,0,0,0
o,0x00000000,1716934749.553079,172.16.3.2,5101,172.16.1.2,25456,10499,14480,0,65728,65700,6,6,4,1460,442,1,993,47,33580,0,65700,1448,0,0,0,0
i,0x00000000,1716934749.563662,172.16.3.2,5101,172.16.1.2,25456,10499,14480,0,65728,65700,6,6,4,1460,442,1,992,47,33580,0,65700,0,0,0,0,0
i,0x00000000,1716934749.573790,172.16.3.2,5101,172.16.1.2,25456,10499,14480,0,65728,65700,6,6,4,1460,442,1,992,47,33580,0,65700,0,0,0,0,0
o,0x00000000,1716934749.573796,172.16.3.2,5101,172.16.1.2,25456,10499,14480,0,65728,65700,6,6,4,1460,442,1,993,47,33580,0,65700,1448,0,0,0,0
i,0x00000000,1716934749.584178,172.16.3.2,5101,172.16.1.2,25456,10499,14480,0,65728,65700,6,6,4,1460,442,1,992,47,33580,0,65700,0,0,0,0,0
o,0x00000000,1716934749.617832,172.16.3.2,5101,172.16.1.2,25456,10499,14480,0,65728,65700,6,6,4,1460,442,1,993,47,33580,0,65700,0,0,0,0,0
i,0x00000000,1716934749.623287,172.16.3.2,5101,172.16.1.2,25456,10499,14480,0,65728,65700,6,6,4,1460,442,1,992,47,33580,0,65700,0,0,0,0,0
i,0x00000000,1716934749.633469,172.16.3.2,5101,172.16.1.2,25456,10499,14480,0,65728,65700,6,6,4,1460,442,1,992,47,33580,0,65700,0,0,0,0,0
o,0x00000000,1716934749.633491,172.16.3.2,5101,172.16.1.2,25456,10499,14480,0,65728,65700,6,6,4,1460,442,1,993,47,33580,0,65700,1448,0,0,0,0
i,0x00000000,1716934749.644066,172.16.3.2,5101,172.16.1.2,25456,10499,14480,0,65728,65700,6,6,4,1460,442,1,992,47,33580,0,65700,0,0,0,0,0
o,0x00000000,1716934749.676942,172.16.3.2,5101,172.16.1.2,25456,10499,14480,0,65728,65700,6,6,4,1460,442,1,993,47,33580,0,65700,0,0,0,0,0
i,0x00000000,1716934749.733947,172.16.3.2,5101,172.16.1.2,25456,10499,14480,0,65728,65700,6,6,4,1460,442,1,992,47,33580,0,65700,0,0,0,0,0
i,0x00000000,1716934749.743331,172.16.3.2,5101,172.16.1.2,25456,10499,14480,0,65728,65700,6,6,4,1460,442,1,992,47,33580,0,65700,0,0,0,0,0
o,0x00000000,1716934749.743347,172.16.3.2,5101,172.16.1.2,25456,10499,14480,0,65728,65700,6,6,4,1460,442,1,993,47,33580,0,65700,1448,0,0,0,0
i,0x00000000,1716934749.803554,172.16.3.2,5101,172.16.1.2,25456,10499,14480,0,65728,65700,6,6,4,1460,442,1,992,47,33580,0,65700,0,0,0,0,0
o,0x00000000,1716934749.837171,172.16.3.2,5101,172.16.1.2,25456,10499,14480,0,65728,65700,6,6,4,1460,442,1,993,47,33580,0,65700,0,0,0,0,0
i,0x00000000,1716934749.843984,172.16.3.2,5101,172.16.1.2,25456,10499,14480,0,65728,65700,6,6,4,1460,442,1,992,47,33580,0,65700,0,0,0,0,0
o,0x00000000,1716934749.843990,172.16.3.2,5101,172.16.1.2,25456,10499,14480,0,65728,65728,6,6,4,1460,442,1,993,47,33580,0,65700,0,0,1,0,0
i,0x00000000,1716934749.853369,172.16.3.2,5101,172.16.1.2,25456,10499,14480,0,65728,65728,6,6,4,1460,442,1,992,47,33580,0,65700,0,0,1,0,0
o,0x00000000,1716934749.853374,172.16.3.2,5101,172.16.1.2,25456,10499,14480,0,65728,65728,6,6,4,1460,442,1,993,47,33580,0,65700,0,0,1,0,0
i,0x00000000,1716934749.893124,172.16.3.2,5101,172.16.1.2,25456,10499,14480,0,65728,65728,6,6,4,1460,442,1,992,47,33580,0,65700,0,0,1,0,0
o,0x00000000,1716934749.893156,172.16.3.2,5101,172.16.1.2,25456,10499,14480,0,65728,65728,6,6,4,1460,442,1,993,47,33580,0,65700,0,0,1,0,0
i,0x00000000,1716934749.902791,172.16.3.2,5101,172.16.1.2,25456,10499,14480,0,65728,65728,6,6,4,1460,442,1,992,47,33580,0,65700,0,0,1,0,0
o,0x00000000,1716934749.902801,172.16.3.2,5101,172.16.1.2,25456,10499,14480,0,65728,65728,6,6,4,1460,442,1,993,47,33580,0,65700,0,0,1,0,0
o,0x00000000,1716934749.908009,10.0.2.15,22,10.0.2.2,62180,1073725440,14600,0,65535,65700,0,0,4,1460,1,0,4,23,33580,156,65700,0,0,0,0,0
i,0x00000000,1716934749.908930,10.0.2.15,22,10.0.2.2,62180,1073725440,14600,0,65535,65700,0,0,4,1460,1,0,4,23,33580,156,65700,0,156,0,0,0
i,0x00000000,1716934749.933230,172.16.3.2,5101,172.16.1.2,25456,10499,14480,0,65728,65728,6,6,4,1460,442,1,992,47,33580,0,65700,0,0,1,0,0
o,0x00000000,1716934749.933251,172.16.3.2,5101,172.16.1.2,25456,10499,14480,0,65728,65728,6,6,4,1460,442,1,993,47,33580,0,65700,0,0,1,0,0
i,0x00000000,1716934749.943176,172.16.3.2,5101,172.16.1.2,25456,10499,14480,0,65728,65728,6,6,4,1460,442,1,992,47,33580,0,65700,0,0,1,0,0
o,0x00000000,1716934749.943185,172.16.3.2,5101,172.16.1.2,25456,10499,14480,0,65728,65728,6,6,4,1460,442,1,993,47,33580,0,65700,0,0,1,0,0
i,0x00000000,1716934749.953746,172.16.3.2,5101,172.16.1.2,25456,10499,14480,0,65728,65728,6,6,4,1460,442,1,992,47,33580,0,65700,0,0,1,0,0
o,0x00000000,1716934749.953751,172.16.3.2,5101,172.16.1.2,25456,10499,14480,0,65728,65728,6,6,4,1460,442,1,993,47,33580,0,65700,0,0,1,0,0
i,0x00000000,1716934749.993166,172.16.3.2,5101,172.16.1.2,25456,10499,14480,0,65728,65728,6,6,4,1460,442,1,992,47,33580,0,65700,0,0,1,0,0
o,0x00000000,1716934749.993174,172.16.3.2,5101,172.16.1.2,25456,10499,14480,0,65728,65728,6,6,4,1460,442,1,993,47,33580,0,65700,0,0,2,0,0
i,0x00000000,1716934750.003324,172.16.3.2,5101,172.16.1.2,25456,10499,14480,0,65728,65728,6,6,4,1460,442,1,992,47,33580,0,65700,0,0,2,0,0
o,0x00000000,1716934750.003330,172.16.3.2,5101,172.16.1.2,25456,10499,14480,0,65728,65728,6,6,4,1460,442,1,993,47,33580,0,65700,0,0,2,0,0
i,0x00000000,1716934750.013795,172.16.3.2,5101,172.16.1.2,25456,10499,14480,0,65728,65728,6,6,4,1460,442,1,992,47,33580,0,65700,0,0,2,0,0
o,0x00000000,1716934750.013799,172.16.3.2,5101,172.16.1.2,25456,10499,14480,0,65728,65728,6,6,4,1460,442,1,993,47,33580,0,65700,0,0,2,0,0
i,0x00000000,1716934750.033438,172.16.3.2,5101,172.16.1.2,25456,10499,14480,0,65728,65728,6,6,4,1460,442,1,992,47,33580,0,65700,0,0,2,0,0
o,0x00000000,1716934750.033444,172.16.3.2,5101,172.16.1.2,25456,10499,14480,0,65728,65728,6,6,4,1460,442,1,993,47,33580,0,65700,0,0,2,0,0
i,0x00000000,1716934750.053303,172.16.3.2,5101,172.16.1.2,25456,10499,14480,0,65728,65728,6,6,4,1460,442,1,992,47,33580,0,65700,0,0,2,0,0
o,0x00000000,1716934750.053316,172.16.3.2,5101,172.16.1.2,25456,10499,14480,0,65728,65728,6,6,4,1460,442,1,993,47,33580,0,65700,0,0,2,0,0
i,0x00000000,1716934750.093536,172.16.3.2,5101,172.16.1.2,25456,10499,14480,0,65728,65728,6,6,4,1460,442,1,992,47,33580,0,65700,0,0,2,0,0
o,0x00000000,1716934750.093543,172.16.3.2,5101,172.16.1.2,25456,10499,14480,0,65728,65728,6,6,4,1460,442,1,993,47,33580,0,65700,0,0,2,0,0
i,0x00000000,1716934750.122680,172.16.3.2,5101,172.16.1.2,25456,10499,14480,0,65728,65728,6,6,4,1460,442,1,992,47,33580,0,65700,0,0,2,0,0
o,0x00000000,1716934750.122689,172.16.3.2,5101,172.16.1.2,25456,10499,14480,0,65728,65728,6,6,4,1460,442,1,993,47,33580,0,65700,0,0,2,0,0
i,0x00000000,1716934750.134065,172.16.3.2,5101,172.16.1.2,25456,10499,14480,0,65728,65728,6,6,4,1460,442,1,992,47,33580,0,65700,0,0,2,0,0
o,0x00000000,1716934750.134074,172.16.3.2,5101,172.16.1.2,25456,10499,14480,0,65728,65728,6,6,4,1460,442,1,993,47,33580,0,65700,0,0,2,0,0
i,0x00000000,1716934750.173463,172.16.3.2,5101,172.16.1.2,25456,10499,14480,0,65728,65728,6,6,4,1460,442,1,992,47,33580,0,65700,0,0,2,0,0
o,0x00000000,1716934750.173476,172.16.3.2,5101,172.16.1.2,25456,10499,14480,0,65728,65728,6,6,4,1460,442,1,993,47,33580,0,65700,0,0,3,0,0
i,0x00000000,1716934750.183943,172.16.3.2,5101,172.16.1.2,25456,10499,14480,0,65728,65728,6,6,4,1460,442,1,992,47,33580,0,65700,0,0,3,0,0
o,0x00000000,1716934750.183956,172.16.3.2,5101,172.16.1.2,25456,10499,14480,0,65728,65728,6,6,4,1460,442,1,993,47,33580,0,65700,11584,0,2,0,0
i,0x00000000,1716934750.203278,172.16.3.2,5101,172.16.1.2,25456,10499,14480,0,65728,65728,6,6,4,1460,442,1,992,47,33580,0,65700,0,0,2,0,0
o,0x00000000,1716934750.203288,172.16.3.2,5101,172.16.1.2,25456,10499,14480,0,65728,65700,6,6,4,1460,442,1,993,47,33580,0,65700,13032,0,1,0,0
i,0x00000000,1716934750.223924,172.16.3.2,5101,172.16.1.2,25456,10499,14480,0,65728,65700,6,6,4,1460,442,1,992,47,33580,0,65700,0,0,1,0,0
o,0x00000000,1716934750.223929,172.16.3.2,5101,172.16.1.2,25456,10499,14480,0,65728,65700,6,6,4,1460,442,1,993,47,33580,0,65700,0,0,2,0,0
i,0x00000000,1716934750.233146,172.16.3.2,5101,172.16.1.2,25456,10499,14480,0,65728,65700,6,6,4,1460,442,1,992,47,33580,0,65700,0,0,2,0,0
o,0x00000000,1716934750.233151,172.16.3.2,5101,172.16.1.2,25456,10499,14480,0,65728,65728,6,6,4,1460,442,1,993,47,33580,0,65700,0,0,2,0,0
i,0x00000000,1716934750.272532,172.16.3.2,5101,172.16.1.2,25456,10499,14480,0,65728,65728,6,6,4,1460,442,1,992,47,33580,0,65700,0,0,2,0,0
o,0x00000000,1716934750.272545,172.16.3.2,5101,172.16.1.2,25456,10499,14480,0,65728,65728,6,6,4,1460,442,1,993,47,33580,0,65700,0,0,2,0,0
i,0x00000000,1716934750.333722,172.16.3.2,5101,172.16.1.2,25456,10499,14480,0,65728,65728,6,6,4,1460,442,1,992,47,33580,0,65700,0,0,2,0,0
o,0x00000000,1716934750.333740,172.16.3.2,5101,172.16.1.2,25456,10499,14480,0,65728,65728,6,6,4,1460,442,1,993,47,33580,0,65700,2896,0,1,0,0
i,0x00000000,1716934750.373237,172.16.3.2,5101,172.16.1.2,25456,10499,14480,0,65728,65728,6,6,4,1460,442,1,992,47,33580,0,65700,0,0,1,0,0
o,0x00000000,1716934750.373248,172.16.3.2,5101,172.16.1.2,25456,10499,14480,0,65728,65700,6,6,4,1460,442,1,993,47,33580,0,65700,0,0,1,0,0
i,0x00000000,1716934750.393959,172.16.3.2,5101,172.16.1.2,25456,10499,14480,0,65728,65700,6,6,4,1460,442,1,992,47,33580,0,65700,0,0,1,0,0
o,0x00000000,1716934750.393965,172.16.3.2,5101,172.16.1.2,25456,10499,14480,0,65728,65728,6,6,4,1460,442,1,993,47,33580,0,65700,0,0,1,0,0
i,0x00000000,1716934750.403289,172.16.3.2,5101,172.16.1.2,25456,10499,14480,0,65728,65728,6,6,4,1460,442,1,992,47,33580,0,65700,0,0,1,0,0
o,0x00000000,1716934750.403296,172.16.3.2,5101,172.16.1.2,25456,10499,14480,0,65728,65728,6,6,4,1460,442,1,993,47,33580,0,65700,0,0,1,0,0
i,0x00000000,1716934750.423008,172.16.3.2,5101,172.16.1.2,25456,10499,14480,0,65728,65728,6,6,4,1460,442,1,992,47,33580,0,65700,0,0,1,0,0
o,0x00000000,1716934750.423015,172.16.3.2,5101,172.16.1.2,25456,10499,14480,0,65728,65728,6,6,4,1460,442,1,993,47,33580,0,65700,0,0,1,0,0
i,0x00000000,1716934750.443886,172.16.3.2,5101,172.16.1.2,25456,10499,14480,0,65728,65728,6,6,4,1460,442,1,992,47,33580,0,65700,0,0,1,0,0
o,0x00000000,1716934750.443899,172.16.3.2,5101,172.16.1.2,25456,10499,14480,0,65728,65728,6,6,4,1460,442,1,993,47,33580,0,65700,0,0,1,0,0
i,0x00000000,1716934750.452981,172.16.3.2,5101,172.16.1.2,25456,10499,14480,0,65728,65728,6,6,4,1460,442,1,992,47,33580,0,65700,0,0,1,0,0
o,0x00000000,1716934750.452989,172.16.3.2,5101,172.16.1.2,25456,10499,14480,0,65728,65728,6,6,4,1460,442,1,993,47,33580,0,65700,0,0,1,0,0
i,0x00000000,1716934750.473749,172.16.3.2,5101,172.16.1.2,25456,10499,14480,0,65728,65728,6,6,4,1460,442,1,992,47,33580,0,65700,0,0,1,0,0
o,0x00000000,1716934750.473761,172.16.3.2,5101,172.16.1.2,25456,10499,14480,0,65728,65728,6,6,4,1460,442,1,993,47,33580,0,65700,0,0,1,0,0
i,0x00000000,1716934750.523288,172.16.3.2,5101,172.16.1.2,25456,10499,14480,0,65728,65728,6,6,4,1460,442,1,992,47,33580,0,65700,0,0,1,0,0
o,0x00000000,1716934750.523350,172.16.3.2,5101,172.16.1.2,25456,10499,14480,0,65728,65728,6,6,4,1460,442,1,993,47,33580,0,65700,15928,0,0,0,0
i,0x00000000,1716934750.553241,172.16.3.2,5101,172.16.1.2,25456,10499,14480,0,65728,65728,6,6,4,1460,442,1,992,47,33580,0,65700,0,0,0,0,0
o,0x00000000,1716934750.553313,172.16.3.2,5101,172.16.1.2,25456,10499,14480,0,65728,65728,6,6,4,1460,442,1,993,47,33580,0,65700,0,0,0,0,0
i,0x00000000,1716934750.573928,172.16.3.2,5101,172.16.1.2,25456,10499,14480,0,65728,65728,6,6,4,1460,442,1,992,47,33580,0,65700,0,0,0,0,0
i,0x00000000,1716934750.603001,172.16.3.2,5101,172.16.1.2,25456,10499,14480,0,65728,65728,6,6,4,1460,442,1,992,47,33580,0,65700,0,0,0,0,0
o,0x00000000,1716934750.603013,172.16.3.2,5101,172.16.1.2,25456,10499,14480,0,65728,65728,6,6,4,1460,442,1,993,47,33580,0,65700,1448,0,0,0,0
i,0x00000000,1716934750.673490,172.16.3.2,5101,172.16.1.2,25456,10499,14480,0,65728,65728,6,6,4,1460,442,1,992,47,33580,0,65700,0,0,0,0,0
i,0x00000000,1716934750.693313,172.16.3.2,5101,172.16.1.2,25456,10499,14480,0,65728,65728,6,6,4,1460,442,1,992,47,33580,0,65700,0,0,0,0,0
o,0x00000000,1716934750.693325,172.16.3.2,5101,172.16.1.2,25456,10499,14480,0,65728,65728,6,6,4,1460,442,1,993,47,33580,0,65700,1448,0,0,0,0
i,0x00000000,1716934750.702646,172.16.3.2,5101,172.16.1.2,25456,10499,14480,0,65728,65728,6,6,4,1460,442,1,992,47,33580,0,65700,0,0,0,0,0
o,0x00000000,1716934750.738349,172.16.3.2,5101,172.16.1.2,25456,10499,14480,0,65728,65728,6,6,4,1460,442,1,993,47,33580,0,65700,0,0,0,0,0
i,0x00000000,1716934750.753401,172.16.3.2,5101,172.16.1.2,25456,10499,14480,0,65728,65728,6,6,4,1460,442,1,992,47,33580,0,65700,0,0,0,0,0
i,0x00000000,1716934750.763778,172.16.3.2,5101,172.16.1.2,25456,10499,14480,0,65728,65728,6,6,4,1460,442,1,992,47,33580,0,65700,0,0,0,0,0
o,0x00000000,1716934750.763784,172.16.3.2,5101,172.16.1.2,25456,10499,14480,0,65728,65728,6,6,4,1460,442,1,993,47,33580,0,65700,1448,0,0,0,0
i,0x00000000,1716934750.772652,172.16.3.2,5101,172.16.1.2,25456,10499,14480,0,65728,65728,6,6,4,1460,442,1,992,47,33580,0,65700,0,0,0,0,0
o,0x00000000,1716934750.807829,172.16.3.2,5101,172.16.1.2,25456,10499,14480,0,65728,65728,6,6,4,1460,442,1,993,47,33580,0,65700,0,0,0,0,0
i,0x00000000,1716934750.832739,172.16.3.2,5101,172.16.1.2,25456,10499,14480,0,65728,65728,6,6,4,1460,442,1,992,47,33580,0,65700,0,0,0,0,0
i,0x00000000,1716934750.853468,172.16.3.2,5101,172.16.1.2,25456,10499,14480,0,65728,65728,6,6,4,1460,442,1,992,47,33580,0,65700,0,0,0,0,0
o,0x00000000,1716934750.853476,172.16.3.2,5101,172.16.1.2,25456,10499,14480,0,65728,65728,6,6,4,1460,442,1,993,47,33580,0,65700,1448,0,0,0,0
i,0x00000000,1716934750.883646,172.16.3.2,5101,172.16.1.2,25456,10499,14480,0,65728,65728,6,6,4,1460,442,1,992,47,33580,0,65700,0,0,0,0,0
i,0x00000000,1716934750.903420,172.16.3.2,5101,172.16.1.2,25456,10499,14480,0,65728,65728,6,6,4,1460,442,1,992,47,33580,0,65700,0,0,0,0,0
o,0x00000000,1716934750.903432,172.16.3.2,5101,172.16.1.2,25456,10499,14480,0,65728,65728,6,6,4,1460,442,1,993,47,33580,0,65700,1448,0,0,0,0
o,0x00000000,1716934750.917760,10.0.2.15,22,10.0.2.2,62180,1073725440,14600,0,65535,65700,0,0,4,1460,1,0,4,23,33580,108,65700,0,0,0,0,0
i,0x00000000,1716934750.918348,10.0.2.15,22,10.0.2.2,62180,1073725440,14600,0,65535,65700,0,0,4,1460,1,0,4,23,33580,108,65700,0,108,0,0,0
i,0x00000000,1716934750.932404,172.16.3.2,5101,172.16.1.2,25456,10499,14480,0,65728,65728,6,6,4,1460,442,1,992,47,33580,0,65700,0,0,0,0,0
i,0x00000000,1716934750.943867,172.16.3.2,5101,172.16.1.2,25456,10499,14480,0,65728,65728,6,6,4,1460,442,1,992,47,33580,0,65700,0,0,0,0,0
o,0x00000000,1716934750.943876,172.16.3.2,5101,172.16.1.2,25456,10499,14480,0,65728,65728,6,6,4,1460,442,1,993,47,33580,0,65700,1448,0,0,0,0
i,0x00000000,1716934750.983353,172.16.3.2,5101,172.16.1.2,25456,10499,14480,0,65728,65728,6,6,4,1460,442,1,992,47,33580,0,65700,0,0,0,0,0
i,0x00000000,1716934750.992722,172.16.3.2,5101,172.16.1.2,25456,10499,14480,0,65728,65728,6,6,4,1460,442,1,992,47,33580,0,65700,0,0,0,0,0
o,0x00000000,1716934750.992729,172.16.3.2,5101,172.16.1.2,25456,10499,14480,0,65728,65728,6,6,4,1460,442,1,993,47,33580,0,65700,1448,0,0,0,0
i,0x00000000,1716934751.033148,172.16.3.2,5101,172.16.1.2,25456,10499,14480,0,65728,65728,6,6,4,1460,442,1,992,47,33580,0,65700,0,0,0,0,0
i,0x00000000,1716934751.043508,172.16.3.2,5101,172.16.1.2,25456,10499,14480,0,65728,65728,6,6,4,1460,442,1,992,47,33580,0,65700,0,0,0,0,0
o,0x00000000,1716934751.043525,172.16.3.2,5101,172.16.1.2,25456,10499,14480,0,65728,65728,6,6,4,1460,442,1,993,47,33580,0,65700,1448,0,0,0,0
i,0x00000000,1716934751.083731,172.16.3.2,5101,172.16.1.2,25456,10499,14480,0,65728,65728,6,6,4,1460,442,1,992,47,33580,0,65700,0,0,0,0,0
i,0x00000000,1716934751.093074,172.16.3.2,5101,172.16.1.2,25456,10499,14480,0,65728,65728,6,6,4,1460,442,1,992,47,33580,0,65700,0,0,0,0,0
o,0x00000000,1716934751.093096,172.16.3.2,5101,172.16.1.2,25456,10499,14480,0,65728,65728,6,6,4,1460,442,1,993,47,33580,0,65700,1448,0,0,0,0
i,0x00000000,1716934751.142841,172.16.3.2,5101,172.16.1.2,25456,10499,14480,0,65728,65728,6,6,4,1460,442,1,992,47,33580,0,65700,0,0,0,0,0
i,0x00000000,1716934751.153080,172.16.3.2,5101,172.16.1.2,25456,10499,14480,0,65728,65728,6,6,4,1460,442,1,992,47,33580,0,65700,0,0,0,0,0
o,0x00000000,1716934751.153095,172.16.3.2,5101,172.16.1.2,25456,10499,14480,0,65728,65728,6,6,4,1460,442,1,993,47,33580,0,65700,1448,0,0,0,0
i,0x00000000,1716934751.193434,172.16.3.2,5101,172.16.1.2,25456,10499,14480,0,65728,65728,6,6,4,1460,442,1,992,47,33580,0,65700,0,0,0,0,0
i,0x00000000,1716934751.202869,172.16.3.2,5101,172.16.1.2,25456,10499,14480,0,65728,65728,6,6,4,1460,442,1,992,47,33580,0,65700,0,0,0,0,0
o,0x00000000,1716934751.202881,172.16.3.2,5101,172.16.1.2,25456,10499,14480,0,65728,65728,6,6,4,1460,442,1,993,47,33580,0,65700,1448,0,0,0,0
i,0x00000000,1716934751.243468,172.16.3.2,5101,172.16.1.2,25456,10499,14480,0,65728,65728,6,6,4,1460,442,1,992,47,33580,0,65700,0,0,0,0,0
i,0x00000000,1716934751.253661,172.16.3.2,5101,172.16.1.2,25456,10499,14480,0,65728,65728,6,6,4,1460,442,1,992,47,33580,0,65700,0,0,0,0,0
o,0x00000000,1716934751.253673,172.16.3.2,5101,172.16.1.2,25456,10499,14480,0,65728,65728,6,6,4,1460,442,1,993,47,33580,0,65700,1448,0,0,0,0
i,0x00000000,1716934751.262983,172.16.3.2,5101,172.16.1.2,25456,10499,14480,0,65728,65728,6,6,4,1460,442,1,992,47,33580,0,65700,0,0,0,0,0
o,0x00000000,1716934751.297610,172.16.3.2,5101,172.16.1.2,25456,10499,14480,0,65728,65728,6,6,4,1460,442,1,993,47,33580,0,65700,0,0,0,0,0
i,0x00000000,1716934751.303487,172.16.3.2,5101,172.16.1.2,25456,10499,14480,0,65728,65728,6,6,4,1460,442,1,992,47,33580,0,65700,0,0,0,0,0
i,0x00000000,1716934751.312822,172.16.3.2,5101,172.16.1.2,25456,10499,14480,0,65728,65728,6,6,4,1460,442,1,992,47,33580,0,65700,0,0,0,0,0
o,0x00000000,1716934751.312828,172.16.3.2,5101,172.16.1.2,25456,10499,14480,0,65728,65728,6,6,4,1460,442,1,993,47,33580,0,65700,1448,0,0,0,0
i,0x00000000,1716934751.363277,172.16.3.2,5101,172.16.1.2,25456,10499,14480,0,65728,65728,6,6,4,1460,442,1,992,47,33580,0,65700,0,0,0,0,0
i,0x00000000,1716934751.373549,172.16.3.2,5101,172.16.1.2,25456,10499,14480,0,65728,65728,6,6,4,1460,442,1,992,47,33580,0,65700,0,0,0,0,0
o,0x00000000,1716934751.373556,172.16.3.2,5101,172.16.1.2,25456,10499,14480,0,65728,65728,6,6,4,1460,442,1,993,47,33580,0,65700,1448,0,0,0,0
i,0x00000000,1716934751.413041,172.16.3.2,5101,172.16.1.2,25456,10499,14480,0,65728,65728,6,6,4,1460,442,1,992,47,33580,0,65700,0,0,0,0,0
i,0x00000000,1716934751.422386,172.16.3.2,5101,172.16.1.2,25456,10499,14480,0,65728,65728,6,6,4,1460,442,1,992,47,33580,0,65700,0,0,0,0,0
o,0x00000000,1716934751.422393,172.16.3.2,5101,172.16.1.2,25456,10499,14480,0,65728,65728,6,6,4,1460,442,1,993,47,33580,0,65700,1448,0,0,0,0
i,0x00000000,1716934751.453481,172.16.3.2,5101,172.16.1.2,25456,10499,14480,0,65728,65728,6,6,4,1460,442,1,992,47,33580,0,65700,0,0,0,0,0
i,0x00000000,1716934751.482748,172.16.3.2,5101,172.16.1.2,25456,10499,14480,0,65728,65728,6,6,4,1460,442,1,992,47,33580,0,65700,0,0,0,0,0
o,0x00000000,1716934751.482761,172.16.3.2,5101,172.16.1.2,25456,10499,14480,0,65728,65728,6,6,4,1460,442,1,993,47,33580,0,65700,1448,0,0,0,0
i,0x00000000,1716934751.492971,172.16.3.2,5101,172.16.1.2,25456,10499,14480,0,65728,65728,6,6,4,1460,442,1,992,47,33580,0,65700,0,0,0,0,0
o,0x00000000,1716934751.527645,172.16.3.2,5101,172.16.1.2,25456,10499,14480,0,65728,65728,6,6,4,1460,442,1,993,47,33580,0,65700,0,0,0,0,0
i,0x00000000,1716934751.533299,172.16.3.2,5101,172.16.1.2,25456,10499,14480,0,65728,65728,6,6,4,1460,442,1,992,47,33580,0,65700,0,0,0,0,0
i,0x00000000,1716934751.542901,172.16.3.2,5101,172.16.1.2,25456,10499,14480,0,65728,65728,6,6,4,1460,442,1,992,47,33580,0,65700,0,0,0,0,0
o,0x00000000,1716934751.542907,172.16.3.2,5101,172.16.1.2,25456,10499,14480,0,65728,65728,6,6,4,1460,442,1,993,47,33580,0,65700,1448,0,0,0,0
i,0x00000000,1716934751.592629,172.16.3.2,5101,172.16.1.2,25456,10499,14480,0,65728,65728,6,6,4,1460,442,1,992,47,33580,0,65700,0,0,0,0,0
i,0x00000000,1716934751.602948,172.16.3.2,5101,172.16.1.2,25456,10499,14480,0,65728,65728,6,6,4,1460,442,1,992,47,33580,0,65700,0,0,0,0,0
o,0x00000000,1716934751.602958,172.16.3.2,5101,172.16.1.2,25456,10499,14480,0,65728,65728,6,6,4,1460,442,1,993,47,33580,0,65700,1448,0,0,0,0
i,0x00000000,1716934751.642881,172.16.3.2,5101,172.16.1.2,25456,10499,14480,0,65728,65728,6,6,4,1460,442,1,992,47,33580,0,65700,0,0,0,0,0
i,0x00000000,1716934751.653323,172.16.3.2,5101,172.16.1.2,25456,10499,14480,0,65728,65728,6,6,4,1460,442,1,992,47,33580,0,65700,0,0,0,0,0
o,0x00000000,1716934751.653329,172.16.3.2,5101,172.16.1.2,25456,10499,14480,0,65728,65728,6,6,4,1460,442,1,993,47,33580,0,65700,1448,0,0,0,0
i,0x00000000,1716934751.663529,172.16.3.2,5101,172.16.1.2,25456,10499,14480,0,65728,65728,6,6,4,1460,442,1,992,47,33580,0,65700,0,0,0,0,0
o,0x00000000,1716934751.696736,172.16.3.2,5101,172.16.1.2,25456,10499,14480,0,65728,65728,6,6,4,1460,442,1,993,47,33580,0,65700,0,0,0,0,0
i,0x00000000,1716934751.713142,172.16.3.2,5101,172.16.1.2,25456,10499,14480,0,65728,65728,6,6,4,1460,442,1,992,47,33580,0,65700,0,0,0,0,0
i,0x00000000,1716934751.732990,172.16.3.2,5101,172.16.1.2,25456,10499,14480,0,65728,65728,6,6,4,1460,442,1,992,47,33580,0,65700,0,0,0,0,0
o,0x00000000,1716934751.732995,172.16.3.2,5101,172.16.1.2,25456,10499,14480,0,65728,65728,6,6,4,1460,442,1,993,47,33580,0,65700,1448,0,0,0,0
i,0x00000000,1716934751.763122,172.16.3.2,5101,172.16.1.2,25456,10499,14480,0,65728,65728,6,6,4,1460,442,1,992,47,33580,0,65700,0,0,0,0,0
i,0x00000000,1716934751.782762,172.16.3.2,5101,172.16.1.2,25456,10499,14480,0,65728,65728,6,6,4,1460,442,1,992,47,33580,0,65700,0,0,0,0,0
o,0x00000000,1716934751.782768,172.16.3.2,5101,172.16.1.2,25456,10499,14480,0,65728,65728,6,6,4,1460,442,1,993,47,33580,0,65700,1448,0,0,0,0
i,0x00000000,1716934751.792338,172.16.3.2,5101,172.16.1.2,25456,10499,14480,0,65728,65728,6,6,4,1460,442,1,992,47,33580,0,65700,0,0,0,0,0
o,0x00000000,1716934751.827713,172.16.3.2,5101,172.16.1.2,25456,10499,14480,0,65728,65728,6,6,4,1460,442,1,993,47,33580,0,65700,0,0,0,0,0
i,0x00000000,1716934751.842998,172.16.3.2,5101,172.16.1.2,25456,10499,14480,0,65728,65728,6,6,4,1460,442,1,992,47,33580,0,65700,0,0,0,0,0
i,0x00000000,1716934751.853320,172.16.3.2,5101,172.16.1.2,25456,10499,14480,0,65728,65728,6,6,4,1460,442,1,992,47,33580,0,65700,0,0,0,0,0
o,0x00000000,1716934751.853325,172.16.3.2,5101,172.16.1.2,25456,10499,14480,0,65728,65728,6,6,4,1460,442,1,993,47,33580,0,65700,1448,0,0,0,0
i,0x00000000,1716934751.902189,172.16.3.2,5101,172.16.1.2,25456,10499,14480,0,65728,65728,6,6,4,1460,442,1,992,47,33580,0,65700,0,0,0,0,0
i,0x00000000,1716934751.913522,172.16.3.2,5101,172.16.1.2,25456,10499,14480,0,65728,65728,6,6,4,1460,442,1,992,47,33580,0,65700,0,0,0,0,0
o,0x00000000,1716934751.913545,172.16.3.2,5101,172.16.1.2,25456,10499,14480,0,65728,65728,6,6,4,1460,442,1,993,47,33580,0,65700,1448,0,0,0,0
o,0x00000000,1716934751.917952,10.0.2.15,22,10.0.2.2,62180,1073725440,14600,0,65535,65700,0,0,4,1460,1,0,4,23,33580,108,65700,0,0,0,0,0
i,0x00000000,1716934751.918710,10.0.2.15,22,10.0.2.2,62180,1073725440,14600,0,65535,65700,0,0,4,1460,1,0,4,23,33580,108,65700,0,108,0,0,0
i,0x00000000,1716934751.922674,172.16.3.2,5101,172.16.1.2,25456,10499,14480,0,65728,65728,6,6,4,1460,442,1,992,47,33580,0,65700,0,0,0,0,0
o,0x00000000,1716934751.958353,172.16.3.2,5101,172.16.1.2,25456,10499,14480,0,65728,65728,6,6,4,1460,442,1,993,47,33580,0,65700,0,0,0,0,0
i,0x00000000,1716934751.962886,172.16.3.2,5101,172.16.1.2,25456,10499,14480,0,65728,65728,6,6,4,1460,442,1,992,47,33580,0,65700,0,0,0,0,0
i,0x00000000,1716934751.973015,172.16.3.2,5101,172.16.1.2,25456,10499,14480,0,65728,65728,6,6,4,1460,442,1,992,47,33580,0,65700,0,0,0,0,0
o,0x00000000,1716934751.973024,172.16.3.2,5101,172.16.1.2,25456,10499,14480,0,65728,65728,6,6,4,1460,442,1,993,47,33580,0,65700,1448,0,0,0,0
i,0x00000000,1716934751.981991,172.16.3.2,5101,172.16.1.2,25456,10499,14480,0,65728,65728,6,6,4,1460,442,1,992,47,33580,0,65700,0,0,0,0,0
o,0x00000000,1716934752.017624,172.16.3.2,5101,172.16.1.2,25456,10499,14480,0,65728,65728,6,6,4,1460,442,1,993,47,33580,0,65700,0,0,0,0,0
i,0x00000000,1716934752.033302,172.16.3.2,5101,172.16.1.2,25456,10499,14480,0,65728,65728,6,6,4,1460,442,1,992,47,33580,0,65700,0,0,0,0,0
i,0x00000000,1716934752.042878,172.16.3.2,5101,172.16.1.2,25456,10499,14480,0,65728,65728,6,6,4,1460,442,1,992,47,33580,0,65700,0,0,0,0,0
o,0x00000000,1716934752.042894,172.16.3.2,5101,172.16.1.2,25456,10499,14480,0,65728,65728,6,6,4,1460,442,1,993,47,33580,0,65700,1448,0,0,0,0
i,0x00000000,1716934752.083278,172.16.3.2,5101,172.16.1.2,25456,10499,14480,0,65728,65728,6,6,4,1460,442,1,992,47,33580,0,65700,0,0,0,0,0
i,0x00000000,1716934752.092555,172.16.3.2,5101,172.16.1.2,25456,10499,14480,0,65728,65728,6,6,4,1460,442,1,992,47,33580,0,65700,0,0,0,0,0
o,0x00000000,1716934752.092569,172.16.3.2,5101,172.16.1.2,25456,10499,14480,0,65728,65728,6,6,4,1460,442,1,993,47,33580,0,65700,1448,0,0,0,0
i,0x00000000,1716934752.132005,172.16.3.2,5101,172.16.1.2,25456,10499,14480,0,65728,65728,6,6,4,1460,442,1,992,47,33580,0,65700,0,0,0,0,0
o,0x00000000,1716934752.167558,172.16.3.2,5101,172.16.1.2,25456,10499,14480,0,65728,65728,6,6,4,1460,442,1,993,47,33580,0,65700,0,0,0,0,0
i,0x00000000,1716934752.172459,172.16.3.2,5101,172.16.1.2,25456,10499,14480,0,65728,65728,6,6,4,1460,442,1,992,47,33580,0,65700,0,0,0,0,0
i,0x00000000,1716934752.182905,172.16.3.2,5101,172.16.1.2,25456,10499,14480,0,65728,65728,6,6,4,1460,442,1,992,47,33580,0,65700,0,0,0,0,0
o,0x00000000,1716934752.182915,172.16.3.2,5101,172.16.1.2,25456,10499,14480,0,65728,65728,6,6,4,1460,442,1,993,47,33580,0,65700,1448,0,0,0,0
i,0x00000000,1716934752.202477,172.16.3.2,5101,172.16.1.2,25456,10499,14480,0,65728,65728,6,6,4,1460,442,1,992,47,33580,0,65700,0,0,0,0,0
o,0x00000000,1716934752.237972,172.16.3.2,5101,172.16.1.2,25456,10499,14480,0,65728,65728,6,6,4,1460,442,1,993,47,33580,0,65700,0,0,0,0,0
i,0x00000000,1716934752.243420,172.16.3.2,5101,172.16.1.2,25456,10499,14480,0,65728,65728,6,6,4,1460,442,1,992,47,33580,0,65700,0,0,0,0,0
i,0x00000000,1716934752.251873,172.16.3.2,5101,172.16.1.2,25456,10499,14480,0,65728,65728,6,6,4,1460,442,1,992,47,33580,0,65700,0,0,0,0,0
o,0x00000000,1716934752.251885,172.16.3.2,5101,172.16.1.2,25456,10499,14480,0,65728,65728,6,6,4,1460,442,1,993,47,33580,0,65700,1448,0,0,0,0
i,0x00000000,1716934752.261994,172.16.3.2,5101,172.16.1.2,25456,10499,14480,0,65728,65728,6,6,4,1460,442,1,992,47,33580,0,65700,0,0,0,0,0
o,0x00000000,1716934752.297477,172.16.3.2,5101,172.16.1.2,25456,10499,14480,0,65728,65728,6,6,4,1460,442,1,993,47,33580,0,65700,0,0,0,0,0
i,0x00000000,1716934752.302719,172.16.3.2,5101,172.16.1.2,25456,10499,14480,0,65728,65728,6,6,4,1460,442,1,992,47,33580,0,65700,0,0,0,0,0
i,0x00000000,1716934752.313148,172.16.3.2,5101,172.16.1.2,25456,10499,14480,0,65728,65728,6,6,4,1460,442,1,992,47,33580,0,65700,0,0,0,0,0
o,0x00000000,1716934752.313157,172.16.3.2,5101,172.16.1.2,25456,10499,14480,0,65728,65728,6,6,4,1460,442,1,993,47,33580,0,65700,1448,0,0,0,0
i,0x00000000,1716934752.342323,172.16.3.2,5101,172.16.1.2,25456,10499,14480,0,65728,65728,6,6,4,1460,442,1,992,47,33580,0,65700,0,0,0,0,0
o,0x00000000,1716934752.378214,172.16.3.2,5101,172.16.1.2,25456,10499,14480,0,65728,65728,6,6,4,1460,442,1,993,47,33580,0,65700,0,0,0,0,0
i,0x00000000,1716934752.382592,172.16.3.2,5101,172.16.1.2,25456,10499,14480,0,65728,65728,6,6,4,1460,442,1,992,47,33580,0,65700,0,0,0,0,0
i,0x00000000,1716934752.392487,172.16.3.2,5101,172.16.1.2,25456,10499,14480,0,65728,65728,6,6,4,1460,442,1,992,47,33580,0,65700,0,0,0,0,0
o,0x00000000,1716934752.392495,172.16.3.2,5101,172.16.1.2,25456,10499,14480,0,65728,65728,6,6,4,1460,442,1,993,47,33580,0,65700,1448,0,0,0,0
i,0x00000000,1716934752.452975,172.16.3.2,5101,172.16.1.2,25456,10499,14480,0,65728,65728,6,6,4,1460,442,1,992,47,33580,0,65700,0,0,0,0,0
i,0x00000000,1716934752.462465,172.16.3.2,5101,172.16.1.2,25456,10499,14480,0,65728,65728,6,6,4,1460,442,1,992,47,33580,0,65700,0,0,0,0,0
o,0x00000000,1716934752.462482,172.16.3.2,5101,172.16.1.2,25456,10499,14480,0,65728,65728,6,6,4,1460,442,1,993,47,33580,0,65700,1448,0,0,0,0
i,0x00000000,1716934752.472240,172.16.3.2,5101,172.16.1.2,25456,10499,14480,0,65728,65728,6,6,4,1460,442,1,992,47,33580,0,65700,0,0,0,0,0
o,0x00000000,1716934752.507294,172.16.3.2,5101,172.16.1.2,25456,10499,14480,0,65728,65728,6,6,4,1460,442,1,993,47,33580,0,65700,0,0,0,0,0
i,0x00000000,1716934752.523730,172.16.3.2,5101,172.16.1.2,25456,10499,14480,0,65728,65728,6,6,4,1460,442,1,992,47,33580,0,65700,0,0,0,0,0
i,0x00000000,1716934752.532326,172.16.3.2,5101,172.16.1.2,25456,10499,14480,0,65728,65728,6,6,4,1460,442,1,992,47,33580,0,65700,0,0,0,0,0
o,0x00000000,1716934752.532340,172.16.3.2,5101,172.16.1.2,25456,10499,14480,0,65728,65728,6,6,4,1460,442,1,993,47,33580,0,65700,1448,0,0,0,0
i,0x00000000,1716934752.553151,172.16.3.2,5101,172.16.1.2,25456,10499,14480,0,65728,65728,6,6,4,1460,442,1,992,47,33580,0,65700,0,0,0,0,0
i,0x00000000,1716934752.571941,172.16.3.2,5101,172.16.1.2,25456,10499,14480,0,65728,65728,6,6,4,1460,442,1,992,47,33580,0,65700,0,0,0,0,0
o,0x00000000,1716934752.571954,172.16.3.2,5101,172.16.1.2,25456,10499,14480,0,65728,65728,6,6,4,1460,442,1,993,47,33580,0,65700,1448,0,0,0,0
i,0x00000000,1716934752.612604,172.16.3.2,5101,172.16.1.2,25456,10499,14480,0,65728,65728,6,6,4,1460,442,1,992,47,33580,0,65700,0,0,0,0,0
i,0x00000000,1716934752.621973,172.16.3.2,5101,172.16.1.2,25456,10499,14480,0,65728,65728,6,6,4,1460,442,1,992,47,33580,0,65700,0,0,0,0,0
o,0x00000000,1716934752.621982,172.16.3.2,5101,172.16.1.2,25456,10499,14480,0,65728,65728,6,6,4,1460,442,1,993,47,33580,0,65700,1448,0,0,0,0
i,0x00000000,1716934752.632410,172.16.3.2,5101,172.16.1.2,25456,10499,14480,0,65728,65728,6,6,4,1460,442,1,992,47,33580,0,65700,0,0,0,0,0
o,0x00000000,1716934752.668088,172.16.3.2,5101,172.16.1.2,25456,10499,14480,0,65728,65728,6,6,4,1460,442,1,993,47,33580,0,65700,0,0,0,0,0
i,0x00000000,1716934752.672972,172.16.3.2,5101,172.16.1.2,25456,10499,14480,0,65728,65728,6,6,4,1460,442,1,992,47,33580,0,65700,0,0,0,0,0
i,0x00000000,1716934752.692761,172.16.3.2,5101,172.16.1.2,25456,10499,14480,0,65728,65728,6,6,4,1460,442,1,992,47,33580,0,65700,0,0,0,0,0
o,0x00000000,1716934752.692771,172.16.3.2,5101,172.16.1.2,25456,10499,14480,0,65728,65728,6,6,4,1460,442,1,993,47,33580,0,65700,1448,0,0,0,0
i,0x00000000,1716934752.711519,172.16.3.2,5101,172.16.1.2,25456,10499,14480,0,65728,65728,6,6,4,1460,442,1,992,47,33580,0,65700,0,0,0,0,0
o,0x00000000,1716934752.747092,172.16.3.2,5101,172.16.1.2,25456,10499,14480,0,65728,65728,6,6,4,1460,442,1,993,47,33580,0,65700,0,0,0,0,0
i,0x00000000,1716934752.773226,172.16.3.2,5101,172.16.1.2,25456,10499,14480,0,65728,65728,6,6,4,1460,442,1,992,47,33580,0,65700,0,0,0,0,0
i,0x00000000,1716934752.782440,172.16.3.2,5101,172.16.1.2,25456,10499,14480,0,65728,65728,6,6,4,1460,442,1,992,47,33580,0,65700,0,0,0,0,0
o,0x00000000,1716934752.782445,172.16.3.2,5101,172.16.1.2,25456,10499,14480,0,65728,65728,6,6,4,1460,442,1,993,47,33580,0,65700,1448,0,0,0,0
i,0x00000000,1716934752.792821,172.16.3.2,5101,172.16.1.2,25456,10499,14480,0,65728,65728,6,6,4,1460,442,1,992,47,33580,0,65700,0,0,0,0,0
o,0x00000000,1716934752.827902,172.16.3.2,5101,172.16.1.2,25456,10499,14480,0,65728,65728,6,6,4,1460,442,1,993,47,33580,0,65700,0,0,0,0,0
i,0x00000000,1716934752.832268,172.16.3.2,5101,172.16.1.2,25456,10499,14480,0,65728,65728,6,6,4,1460,442,1,992,47,33580,0,65700,0,0,0,0,0
i,0x00000000,1716934752.852164,172.16.3.2,5101,172.16.1.2,25456,10499,14480,0,65728,65728,6,6,4,1460,442,1,992,47,33580,0,65700,0,0,0,0,0
o,0x00000000,1716934752.852179,172.16.3.2,5101,172.16.1.2,25456,10499,14480,0,65728,65700,6,6,4,1460,442,1,993,47,33580,0,65700,0,0,1,0,0
i,0x00000000,1716934752.872793,172.16.3.2,5101,172.16.1.2,25456,10499,14480,0,65728,65700,6,6,4,1460,442,1,992,47,33580,0,65700,0,0,1,0,0
o,0x00000000,1716934752.872808,172.16.3.2,5101,172.16.1.2,25456,10499,14480,0,65728,65728,6,6,4,1460,442,1,993,47,33580,0,65700,0,0,1,0,0
i,0x00000000,1716934752.881687,172.16.3.2,5101,172.16.1.2,25456,10499,14480,0,65728,65728,6,6,4,1460,442,1,992,47,33580,0,65700,0,0,1,0,0
o,0x00000000,1716934752.881696,172.16.3.2,5101,172.16.1.2,25456,10499,14480,0,65728,65728,6,6,4,1460,442,1,993,47,33580,0,65700,0,0,1,0,0
i,0x00000000,1716934752.901929,172.16.3.2,5101,172.16.1.2,25456,10499,14480,0,65728,65728,6,6,4,1460,442,1,992,47,33580,0,65700,0,0,1,0,0
o,0x00000000,1716934752.901942,172.16.3.2,5101,172.16.1.2,25456,10499,14480,0,65728,65728,6,6,4,1460,442,1,993,47,33580,0,65700,0,0,1,0,0
o,0x00000000,1716934752.917940,10.0.2.15,22,10.0.2.2,62180,1073725440,14600,0,65535,65700,0,0,4,1460,1,0,4,23,33580,108,65700,0,0,0,0,0
i,0x00000000,1716934752.918745,10.0.2.15,22,10.0.2.2,62180,1073725440,14600,0,65535,65700,0,0,4,1460,1,0,4,23,33580,108,65700,0,108,0,0,0
i,0x00000000,1716934752.932020,172.16.3.2,5101,172.16.1.2,25456,10499,14480,0,65728,65728,6,6,4,1460,442,1,992,47,33580,0,65700,0,0,1,0,0
o,0x00000000,1716934752.932034,172.16.3.2,5101,172.16.1.2,25456,10499,14480,0,65728,65728,6,6,4,1460,442,1,993,47,33580,0,65700,0,0,1,0,0
i,0x00000000,1716934752.942436,172.16.3.2,5101,172.16.1.2,25456,10499,14480,0,65728,65728,6,6,4,1460,442,1,992,47,33580,0,65700,0,0,1,0,0
o,0x00000000,1716934752.942447,172.16.3.2,5101,172.16.1.2,25456,10499,14480,0,65728,65728,6,6,4,1460,442,1,993,47,33580,0,65700,0,0,1,0,0
i,0x00000000,1716934752.992244,172.16.3.2,5101,172.16.1.2,25456,10499,14480,0,65728,65728,6,6,4,1460,442,1,992,47,33580,0,65700,0,0,1,0,0
o,0x00000000,1716934752.992261,172.16.3.2,5101,172.16.1.2,25456,10499,14480,0,65728,65728,6,6,4,1460,442,1,993,47,33580,0,65700,0,0,1,0,0
i,0x00000000,1716934753.002613,172.16.3.2,5101,172.16.1.2,25456,10499,14480,0,65728,65728,6,6,4,1460,442,1,992,47,33580,0,65700,0,0,1,0,0
o,0x00000000,1716934753.002623,172.16.3.2,5101,172.16.1.2,25456,10499,14480,0,65728,65728,6,6,4,1460,442,1,993,47,33580,0,65700,0,0,2,0,0
i,0x00000000,1716934753.032147,172.16.3.2,5101,172.16.1.2,25456,10499,14480,0,65728,65728,6,6,4,1460,442,1,992,47,33580,0,65700,0,0,2,0,0
o,0x00000000,1716934753.032154,172.16.3.2,5101,172.16.1.2,25456,10499,14480,0,65728,65728,6,6,4,1460,442,1,993,47,33580,0,65700,0,0,2,0,0
i,0x00000000,1716934753.072525,172.16.3.2,5101,172.16.1.2,25456,10499,14480,0,65728,65728,6,6,4,1460,442,1,992,47,33580,0,65700,0,0,2,0,0
o,0x00000000,1716934753.072538,172.16.3.2,5101,172.16.1.2,25456,10499,14480,0,65728,65728,6,6,4,1460,442,1,993,47,33580,0,65700,0,0,3,0,0
i,0x00000000,1716934753.092198,172.16.3.2,5101,172.16.1.2,25456,10499,14480,0,65728,65728,6,6,4,1460,442,1,992,47,33580,0,65700,0,0,3,0,0
o,0x00000000,1716934753.092206,172.16.3.2,5101,172.16.1.2,25456,10499,14480,0,65728,65728,6,6,4,1460,442,1,993,47,33580,0,65700,0,0,3,0,0
i,0x00000000,1716934753.102693,172.16.3.2,5101,172.16.1.2,25456,10499,14480,0,65728,65728,6,6,4,1460,442,1,992,47,33580,0,65700,0,0,3,0,0
o,0x00000000,1716934753.102705,172.16.3.2,5101,172.16.1.2,25456,10499,14480,0,65728,65728,6,6,4,1460,442,1,993,47,33580,0,65700,11584,0,2,0,0
i,0x00000000,1716934753.122383,172.16.3.2,5101,172.16.1.2,25456,10499,14480,0,65728,65728,6,6,4,1460,442,1,992,47,33580,0,65700,0,0,2,0,0
o,0x00000000,1716934753.122406,172.16.3.2,5101,172.16.1.2,25456,10499,14480,0,65728,65700,6,6,4,1460,442,1,993,47,33580,0,65700,0,0,2,0,0
i,0x00000000,1716934753.143259,172.16.3.2,5101,172.16.1.2,25456,10499,14480,0,65728,65700,6,6,4,1460,442,1,992,47,33580,0,65700,0,0,2,0,0
o,0x00000000,1716934753.143314,172.16.3.2,5101,172.16.1.2,25456,10499,14480,0,65728,65728,6,6,4,1460,442,1,993,47,33580,0,65700,0,0,2,0,0
i,0x00000000,1716934753.173109,172.16.3.2,5101,172.16.1.2,25456,10499,14480,0,65728,65728,6,6,4,1460,442,1,992,47,33580,0,65700,0,0,2,0,0
o,0x00000000,1716934753.173152,172.16.3.2,5101,172.16.1.2,25456,10499,14480,0,65728,65728,6,6,4,1460,442,1,993,47,33580,0,65700,4344,0,1,0,0
i,0x00000000,1716934753.222880,172.16.3.2,5101,172.16.1.2,25456,10499,14480,0,65728,65728,6,6,4,1460,442,1,992,47,33580,0,65700,0,0,1,0,0
o,0x00000000,1716934753.222903,172.16.3.2,5101,172.16.1.2,25456,10499,14480,0,65728,65700,6,6,4,1460,442,1,993,47,33580,0,65700,7240,0,0,0,0
i,0x00000000,1716934753.252000,172.16.3.2,5101,172.16.1.2,25456,10499,14480,0,65728,65700,6,6,4,1460,442,1,992,47,33580,0,65700,0,0,0,0,0
i,0x00000000,1716934753.272591,172.16.3.2,5101,172.16.1.2,25456,10499,14480,0,65728,65700,6,6,4,1460,442,1,992,47,33580,0,65700,0,0,0,0,0
o,0x00000000,1716934753.272601,172.16.3.2,5101,172.16.1.2,25456,10499,14480,0,65728,65700,6,6,4,1460,442,1,993,47,33580,0,65700,1448,0,0,0,0
i,0x00000000,1716934753.292398,172.16.3.2,5101,172.16.1.2,25456,10499,14480,0,65728,65700,6,6,4,1460,442,1,992,47,33580,0,65700,0,0,0,0,0
i,0x00000000,1716934753.302741,172.16.3.2,5101,172.16.1.2,25456,10499,14480,0,65728,65700,6,6,4,1460,442,1,992,47,33580,0,65700,0,0,0,0,0
o,0x00000000,1716934753.302750,172.16.3.2,5101,172.16.1.2,25456,10499,14480,0,65728,65700,6,6,4,1460,442,1,993,47,33580,0,65700,1448,0,0,0,0
i,0x00000000,1716934753.332461,172.16.3.2,5101,172.16.1.2,25456,10499,14480,0,65728,65700,6,6,4,1460,442,1,992,47,33580,0,65700,0,0,0,0,0
i,0x00000000,1716934753.351975,172.16.3.2,5101,172.16.1.2,25456,10499,14480,0,65728,65700,6,6,4,1460,442,1,992,47,33580,0,65700,0,0,0,0,0
o,0x00000000,1716934753.351983,172.16.3.2,5101,172.16.1.2,25456,10499,14480,0,65728,65700,6,6,4,1460,442,1,993,47,33580,0,65700,1448,0,0,0,0
i,0x00000000,1716934753.392411,172.16.3.2,5101,172.16.1.2,25456,10499,14480,0,65728,65700,6,6,4,1460,442,1,992,47,33580,0,65700,0,0,0,0,0
o,0x00000000,1716934753.427529,172.16.3.2,5101,172.16.1.2,25456,10499,14480,0,65728,65700,6,6,4,1460,442,1,993,47,33580,0,65700,0,0,0,0,0
i,0x00000000,1716934753.442313,172.16.3.2,5101,172.16.1.2,25456,10499,14480,0,65728,65700,6,6,4,1460,442,1,992,47,33580,0,65700,0,0,0,0,0
i,0x00000000,1716934753.452521,172.16.3.2,5101,172.16.1.2,25456,10499,14480,0,65728,65700,6,6,4,1460,442,1,992,47,33580,0,65700,0,0,0,0,0
o,0x00000000,1716934753.452528,172.16.3.2,5101,172.16.1.2,25456,10499,14480,0,65728,65700,6,6,4,1460,442,1,993,47,33580,0,65700,1448,0,0,0,0
i,0x00000000,1716934753.461920,172.16.3.2,5101,172.16.1.2,25456,10499,14480,0,65728,65700,6,6,4,1460,442,1,992,47,33580,0,65700,0,0,0,0,0
i,0x00000000,1716934753.472387,172.16.3.2,5101,172.16.1.2,25456,10499,14480,0,65728,65700,6,6,4,1460,442,1,992,47,33580,0,65700,0,0,0,0,0
o,0x00000000,1716934753.472393,172.16.3.2,5101,172.16.1.2,25456,10499,14480,0,65728,65700,6,6,4,1460,442,1,993,47,33580,0,65700,1448,0,0,0,0
i,0x00000000,1716934753.511931,172.16.3.2,5101,172.16.1.2,25456,10499,14480,0,65728,65700,6,6,4,1460,442,1,992,47,33580,0,65700,0,0,0,0,0
i,0x00000000,1716934753.522173,172.16.3.2,5101,172.16.1.2,25456,10499,14480,0,65728,65700,6,6,4,1460,442,1,992,47,33580,0,65700,0,0,0,0,0
o,0x00000000,1716934753.522184,172.16.3.2,5101,172.16.1.2,25456,10499,14480,0,65728,65700,6,6,4,1460,442,1,993,47,33580,0,65700,1448,0,0,0,0
i,0x00000000,1716934753.552368,172.16.3.2,5101,172.16.1.2,25456,10499,14480,0,65728,65700,6,6,4,1460,442,1,992,47,33580,0,65700,0,0,0,0,0
i,0x00000000,1716934753.582416,172.16.3.2,5101,172.16.1.2,25456,10499,14480,0,65728,65700,6,6,4,1460,442,1,992,47,33580,0,65700,0,0,0,0,0
o,0x00000000,1716934753.582425,172.16.3.2,5101,172.16.1.2,25456,10499,14480,0,65728,65700,6,6,4,1460,442,1,993,47,33580,0,65700,1448,0,0,0,0
i,0x00000000,1716934753.651401,172.16.3.2,5101,172.16.1.2,25456,10499,14480,0,65728,65700,6,6,4,1460,442,1,992,47,33580,0,65700,0,0,0,0,0
o,0x00000000,1716934753.688548,172.16.3.2,5101,172.16.1.2,25456,10499,14480,0,65728,65700,6,6,4,1460,442,1,993,47,33580,0,65700,0,0,0,0,0
i,0x00000000,1716934753.691897,172.16.3.2,5101,172.16.1.2,25456,10499,14480,0,65728,65700,6,6,4,1460,442,1,992,47,33580,0,65700,0,0,0,0,0
i,0x00000000,1716934753.702276,172.16.3.2,5101,172.16.1.2,25456,10499,14480,0,65728,65700,6,6,4,1460,442,1,992,47,33580,0,65700,0,0,0,0,0
o,0x00000000,1716934753.702305,172.16.3.2,5101,172.16.1.2,25456,10499,14480,0,65728,65700,6,6,4,1460,442,1,993,47,33580,0,65700,1448,0,0,0,0
i,0x00000000,1716934753.712503,172.16.3.2,5101,172.16.1.2,25456,10499,14480,0,65728,65700,6,6,4,1460,442,1,992,47,33580,0,65700,0,0,0,0,0
i,0x00000000,1716934753.722014,172.16.3.2,5101,172.16.1.2,25456,10499,14480,0,65728,65700,6,6,4,1460,442,1,992,47,33580,0,65700,0,0,0,0,0
o,0x00000000,1716934753.722029,172.16.3.2,5101,172.16.1.2,25456,10499,14480,0,65728,65700,6,6,4,1460,442,1,993,47,33580,0,65700,1448,0,0,0,0
i,0x00000000,1716934753.761425,172.16.3.2,5101,172.16.1.2,25456,10499,14480,0,65728,65700,6,6,4,1460,442,1,992,47,33580,0,65700,0,0,0,0,0
i,0x00000000,1716934753.771744,172.16.3.2,5101,172.16.1.2,25456,10499,14480,0,65728,65700,6,6,4,1460,442,1,992,47,33580,0,65700,0,0,0,0,0
o,0x00000000,1716934753.771758,172.16.3.2,5101,172.16.1.2,25456,10499,14480,0,65728,65700,6,6,4,1460,442,1,993,47,33580,0,65700,1448,0,0,0,0
i,0x00000000,1716934753.782641,172.16.3.2,5101,172.16.1.2,25456,10499,14480,0,65728,65700,6,6,4,1460,442,1,992,47,33580,0,65700,0,0,0,0,0
i,0x00000000,1716934753.812250,172.16.3.2,5101,172.16.1.2,25456,10499,14480,0,65728,65700,6,6,4,1460,442,1,992,47,33580,0,65700,0,0,0,0,0
o,0x00000000,1716934753.812264,172.16.3.2,5101,172.16.1.2,25456,10499,14480,0,65728,65700,6,6,4,1460,442,1,993,47,33580,0,65700,1448,0,0,0,0
i,0x00000000,1716934753.881195,172.16.3.2,5101,172.16.1.2,25456,10499,14480,0,65728,65700,6,6,4,1460,442,1,992,47,33580,0,65700,0,0,0,0,0
i,0x00000000,1716934753.891866,172.16.3.2,5101,172.16.1.2,25456,10499,14480,0,65728,65700,6,6,4,1460,442,1,992,47,33580,0,65700,0,0,0,0,0
o,0x00000000,1716934753.891878,172.16.3.2,5101,172.16.1.2,25456,10499,14480,0,65728,65700,6,6,4,1460,442,1,993,47,33580,0,65700,1448,0,0,0,0
i,0x00000000,1716934753.912508,172.16.3.2,5101,172.16.1.2,25456,10499,14480,0,65728,65700,6,6,4,1460,442,1,992,47,33580,0,65700,0,0,0,0,0
o,0x00000000,1716934753.917381,10.0.2.15,22,10.0.2.2,62180,1073725440,14600,0,65535,65700,0,0,4,1460,1,0,4,24,33580,108,65700,0,0,0,0,0
i,0x00000000,1716934753.918152,10.0.2.15,22,10.0.2.2,62180,1073725440,14600,0,65535,65700,0,0,4,1460,1,0,4,24,33580,108,65700,0,108,0,0,0
i,0x00000000,1716934753.942334,172.16.3.2,5101,172.16.1.2,25456,10499,14480,0,65728,65700,6,6,4,1460,442,1,992,47,33580,0,65700,0,0,0,0,0
o,0x00000000,1716934753.942343,172.16.3.2,5101,172.16.1.2,25456,10499,14480,0,65728,65700,6,6,4,1460,442,1,993,47,33580,0,65700,1448,0,0,0,0
i,0x00000000,1716934753.951811,172.16.3.2,5101,172.16.1.2,25456,10499,14480,0,65728,65700,6,6,4,1460,442,1,992,47,33580,0,65700,0,0,0,0,0
i,0x00000000,1716934753.972563,172.16.3.2,5101,172.16.1.2,25456,10499,14480,0,65728,65700,6,6,4,1460,442,1,992,47,33580,0,65700,0,0,0,0,0
o,0x00000000,1716934753.972572,172.16.3.2,5101,172.16.1.2,25456,10499,14480,0,65728,65700,6,6,4,1460,442,1,993,47,33580,0,65700,1448,0,0,0,0
i,0x00000000,1716934754.001856,172.16.3.2,5101,172.16.1.2,25456,10499,14480,0,65728,65700,6,6,4,1460,442,1,992,47,33580,0,65700,0,0,0,0,0
i,0x00000000,1716934754.021400,172.16.3.2,5101,172.16.1.2,25456,10499,14480,0,65728,65700,6,6,4,1460,442,1,992,47,33580,0,65700,0,0,0,0,0
o,0x00000000,1716934754.021413,172.16.3.2,5101,172.16.1.2,25456,10499,14480,0,65728,65700,6,6,4,1460,442,1,993,47,33580,0,65700,1448,0,0,0,0
i,0x00000000,1716934754.052414,172.16.3.2,5101,172.16.1.2,25456,10499,14480,0,65728,65700,6,6,4,1460,442,1,992,47,33580,0,65700,0,0,0,0,0
i,0x00000000,1716934754.071974,172.16.3.2,5101,172.16.1.2,25456,10499,14480,0,65728,65700,6,6,4,1460,442,1,992,47,33580,0,65700,0,0,0,0,0
o,0x00000000,1716934754.071988,172.16.3.2,5101,172.16.1.2,25456,10499,14480,0,65728,65700,6,6,4,1460,442,1,993,47,33580,0,65700,1448,0,0,0,0
i,0x00000000,1716934754.102177,172.16.3.2,5101,172.16.1.2,25456,10499,14480,0,65728,65700,6,6,4,1460,442,1,992,47,33580,0,65700,0,0,0,0,0
o,0x00000000,1716934754.137799,172.16.3.2,5101,172.16.1.2,25456,10499,14480,0,65728,65700,6,6,4,1460,442,1,993,47,33580,0,65700,0,0,0,0,0
i,0x00000000,1716934754.152029,172.16.3.2,5101,172.16.1.2,25456,10499,14480,0,65728,65700,6,6,4,1460,442,1,992,47,33580,0,65700,0,0,0,0,0
i,0x00000000,1716934754.161419,172.16.3.2,5101,172.16.1.2,25456,10499,14480,0,65728,65700,6,6,4,1460,442,1,992,47,33580,0,65700,0,0,0,0,0
o,0x00000000,1716934754.161430,172.16.3.2,5101,172.16.1.2,25456,10499,14480,0,65728,65700,6,6,4,1460,442,1,993,47,33580,0,65700,1448,0,0,0,0
i,0x00000000,1716934754.201905,172.16.3.2,5101,172.16.1.2,25456,10499,14480,0,65728,65700,6,6,4,1460,442,1,992,47,33580,0,65700,0,0,0,0,0
i,0x00000000,1716934754.211624,172.16.3.2,5101,172.16.1.2,25456,10499,14480,0,65728,65700,6,6,4,1460,442,1,992,47,33580,0,65700,0,0,0,0,0
o,0x00000000,1716934754.211634,172.16.3.2,5101,172.16.1.2,25456,10499,14480,0,65728,65700,6,6,4,1460,442,1,993,47,33580,0,65700,1448,0,0,0,0
i,0x00000000,1716934754.223314,172.16.3.2,5101,172.16.1.2,25456,10499,14480,0,65728,65700,6,6,4,1460,442,1,992,47,33580,0,65700,0,0,0,0,0
o,0x00000000,1716934754.257026,172.16.3.2,5101,172.16.1.2,25456,10499,14480,0,65728,65700,6,6,4,1460,442,1,993,47,33580,0,65700,0,0,0,0,0
i,0x00000000,1716934754.262336,172.16.3.2,5101,172.16.1.2,25456,10499,14480,0,65728,65700,6,6,4,1460,442,1,992,47,33580,0,65700,0,0,0,0,0
i,0x00000000,1716934754.272685,172.16.3.2,5101,172.16.1.2,25456,10499,14480,0,65728,65700,6,6,4,1460,442,1,992,47,33580,0,65700,0,0,0,0,0
o,0x00000000,1716934754.272695,172.16.3.2,5101,172.16.1.2,25456,10499,14480,0,65728,65700,6,6,4,1460,442,1,993,47,33580,0,65700,1448,0,0,0,0
i,0x00000000,1716934754.291391,172.16.3.2,5101,172.16.1.2,25456,10499,14480,0,65728,65700,6,6,4,1460,442,1,992,47,33580,0,65700,0,0,0,0,0
o,0x00000000,1716934754.328561,172.16.3.2,5101,172.16.1.2,25456,10499,14480,0,65728,65700,6,6,4,1460,442,1,993,47,33580,0,65700,0,0,0,0,0
i,0x00000000,1716934754.331898,172.16.3.2,5101,172.16.1.2,25456,10499,14480,0,65728,65700,6,6,4,1460,442,1,992,47,33580,0,65700,0,0,0,0,0
