enable_time_secs=1716935156	enable_time_usecs=358972	siftrver=1.2.4	hz=100	tcp_rtt_scale=32	sysname=FreeBSD	sysver=1301000	ipmode=4
o,0x00000000,1716935156.359027,10.0.2.15,22,10.0.2.2,56178,1073725440,17298,0,65535,65700,0,0,4,1460,1,0,4,24,33580,44,65700,0,0,0,0,0
o,0x00000000,1716935156.359146,10.0.2.15,22,10.0.2.2,56178,1073725440,17298,0,65535,65700,0,0,4,1460,1,0,4,24,33580,80,65700,0,44,0,0,0
i,0x00000000,1716935156.359620,10.0.2.15,22,10.0.2.2,56178,1073725440,17298,0,65535,65700,0,0,4,1460,1,0,4,24,33580,80,65700,0,80,0,0,0
i,0x00000000,1716935156.359623,10.0.2.15,22,10.0.2.2,56178,1073725440,17342,0,65535,65700,0,0,4,1460,1,0,4,24,33580,36,65700,0,36,0,0,0
o,0x00000000,1716935156.359683,10.0.2.15,22,10.0.2.2,56178,1073725440,17378,0,65535,65700,0,0,4,1460,1,0,4,24,33580,36,65700,0,0,0,0,0
i,0x00000000,1716935156.360234,10.0.2.15,22,10.0.2.2,56178,1073725440,17378,0,65535,65700,0,0,4,1460,1,0,4,24,33580,36,65700,0,36,0,0,0
o,0x00000000,1716935156.360319,10.0.2.15,22,10.0.2.2,56178,1073725440,17414,0,65535,65700,0,0,4,1460,1,0,4,24,33580,36,65700,0,0,0,0,0
i,0x00000000,1716935156.360997,10.0.2.15,22,10.0.2.2,56178,1073725440,17414,0,65535,65700,0,0,4,1460,1,0,4,24,33580,36,65700,0,36,0,0,0
o,0x00000000,1716935156.361138,10.0.2.15,22,10.0.2.2,56178,1073725440,17450,0,65535,65700,0,0,4,1460,1,0,4,24,33580,140,65700,0,0,0,0,0
i,0x00000000,1716935156.361906,10.0.2.15,22,10.0.2.2,56178,1073725440,17450,0,65535,65700,0,0,4,1460,1,0,4,24,33580,140,65700,0,140,0,0,0
i,0x00000000,1716935156.362640,10.0.2.15,22,10.0.2.2,56178,1073725440,17590,0,65535,65700,0,0,4,1460,1,0,4,24,33580,0,65700,0,0,0,0,0
i,0x00000000,1716935156.362643,10.0.2.15,22,10.0.2.2,56178,1073725440,17590,0,65535,65700,0,0,4,1460,1,0,4,24,33580,0,65700,36,0,0,0,0
o,0x00000000,1716935156.362645,10.0.2.15,22,10.0.2.2,56178,1073725440,17590,0,65535,65700,0,0,4,1460,1,0,5,24,33580,0,65700,96,0,0,0,0
i,0x00000000,1716935156.362721,10.0.2.15,22,10.0.2.2,56178,1073725440,17590,0,65535,65700,0,0,4,1460,1,0,4,24,33580,0,65700,96,0,0,0,0
o,0x00000000,1716935156.362724,10.0.2.15,22,10.0.2.2,56178,1073725440,17590,0,65535,65604,0,0,5,1460,1,0,7,24,33580,0,65700,96,0,0,0,0
o,0x00000000,1716935156.363332,10.0.2.15,22,10.0.2.2,56178,1073725440,17590,0,65535,65604,0,0,8,1460,1,0,4,24,33580,0,65700,0,0,0,0,0
i,0x00000000,1716935156.363877,10.0.2.15,22,10.0.2.2,56178,1073725440,17590,0,65535,65604,0,0,8,1460,1,0,20,24,33580,0,65700,0,1,0,0,0
i,0x00000000,1716935158.455382,10.0.2.15,22,10.0.2.2,56182,1073725440,14600,0,65535,65700,0,0,4,1460,1,0,0,27,33580,0,65700,0,0,0,0,0
o,0x00000000,1716935158.461646,10.0.2.15,22,10.0.2.2,56182,1073725440,14600,0,65535,65700,0,0,4,1460,1,0,0,27,33580,38,65700,41,0,0,0,0
i,0x00000000,1716935158.462273,10.0.2.15,22,10.0.2.2,56182,1073725440,14600,0,65535,65700,0,0,4,1460,1,0,0,27,33580,38,65700,0,38,0,0,0
o,0x00000000,1716935158.462738,10.0.2.15,22,10.0.2.2,56182,1073725440,14638,0,65535,65700,0,0,4,1460,1,0,0,24,33580,1056,65700,0,0,0,0,0
i,0x00000000,1716935158.463522,10.0.2.15,22,10.0.2.2,56182,1073725440,14638,0,65535,65700,0,0,4,1460,1,0,0,24,33580,1056,65700,0,1056,0,0,0
i,0x00000000,1716935158.463527,10.0.2.15,22,10.0.2.2,56182,1073725440,14638,0,65535,65700,0,0,4,1460,1,0,0,24,33580,1056,65700,1460,1056,0,0,0
o,0x00000000,1716935158.463547,10.0.2.15,22,10.0.2.2,56182,1073725440,14638,0,65535,65700,0,0,4,1460,1,0,1,24,33580,1056,65700,1536,1056,0,0,0
i,0x00000000,1716935158.463624,10.0.2.15,22,10.0.2.2,56182,1073725440,14638,0,65535,65700,0,0,4,1460,1,0,0,24,33580,1056,65700,1536,1056,0,0,0
i,0x00000000,1716935158.465013,10.0.2.15,22,10.0.2.2,56182,1073725440,15694,0,65535,65700,0,0,4,1460,1,0,0,24,33580,0,65700,0,0,0,0,0
o,0x00000000,1716935158.468171,10.0.2.15,22,10.0.2.2,56182,1073725440,15694,0,65535,65700,0,0,4,1460,1,0,0,24,33580,484,65700,0,0,0,0,0
i,0x00000000,1716935158.469006,10.0.2.15,22,10.0.2.2,56182,1073725440,15694,0,65535,65700,0,0,4,1460,1,0,0,24,33580,484,65700,0,484,0,0,0
i,0x00000000,1716935158.473685,10.0.2.15,22,10.0.2.2,56182,1073725440,16178,0,65535,65700,0,0,4,1460,1,0,0,24,33580,0,65700,0,0,0,0,0
i,0x00000000,1716935158.477990,10.0.2.15,22,10.0.2.2,56182,1073725440,16178,0,65535,65700,0,0,4,1460,1,0,0,24,33580,0,65700,0,0,0,0,0
o,0x00000000,1716935158.477994,10.0.2.15,22,10.0.2.2,56182,1073725440,16178,0,65535,65700,0,0,4,1460,1,0,1,24,33580,0,65700,44,0,0,0,0
o,0x00000000,1716935158.478189,10.0.2.15,22,10.0.2.2,56182,1073725440,16178,0,65535,65700,0,0,4,1460,1,0,0,24,33580,44,65700,0,0,0,0,0
i,0x00000000,1716935158.478863,10.0.2.15,22,10.0.2.2,56182,1073725440,16178,0,65535,65700,0,0,4,1460,1,0,0,24,33580,44,65700,0,44,0,0,0
i,0x00000000,1716935158.479447,10.0.2.15,22,10.0.2.2,56182,1073725440,16222,0,65535,65700,0,0,4,1460,1,0,0,24,33580,0,65700,0,0,0,0,0
o,0x00000000,1716935158.489348,10.0.2.15,22,10.0.2.2,56182,1073725440,16222,0,65535,65700,0,0,4,1460,1,0,0,24,33580,68,65700,0,0,0,0,0
i,0x00000000,1716935158.489863,10.0.2.15,22,10.0.2.2,56182,1073725440,16222,0,65535,65700,0,0,4,1460,1,0,0,24,33580,68,65700,0,68,0,0,0
i,0x00000000,1716935158.492451,10.0.2.15,22,10.0.2.2,56182,1073725440,16290,0,65535,65700,0,0,4,1460,1,0,0,24,33580,0,65700,0,0,0,0,0
o,0x00000000,1716935158.501664,10.0.2.15,22,10.0.2.2,56182,1073725440,16290,0,65535,65700,0,0,4,1460,1,0,0,24,33580,28,65700,0,0,0,0,0
i,0x00000000,1716935158.502301,10.0.2.15,22,10.0.2.2,56182,1073725440,16290,0,65535,65700,0,0,4,1460,1,0,0,24,33580,28,65700,0,28,0,0,0
i,0x00000000,1716935158.503038,10.0.2.15,22,10.0.2.2,56182,1073725440,16318,0,65535,65700,0,0,4,1460,1,0,0,24,33580,0,65700,0,0,0,0,0
o,0x00000000,1716935158.503480,10.0.2.15,22,10.0.2.2,56182,1073725440,16318,0,65535,65700,0,0,4,1460,1,0,0,24,33580,768,65700,112,0,0,0,0
i,0x00000000,1716935158.504263,10.0.2.15,22,10.0.2.2,56182,1073725440,16318,0,65535,65700,0,0,4,1460,1,0,0,24,33580,768,65700,112,768,0,0,0
o,0x00000000,1716935158.504356,10.0.2.15,22,10.0.2.2,56182,1073725440,17086,0,65535,65700,0,0,4,1460,1,0,0,24,33580,44,65700,0,0,0,0,0
i,0x00000000,1716935158.505231,10.0.2.15,22,10.0.2.2,56182,1073725440,17086,0,65535,65700,0,0,4,1460,1,0,0,24,33580,44,65700,0,44,0,0,0
i,0x00000000,1716935158.506072,10.0.2.15,22,10.0.2.2,56182,1073725440,17130,0,65535,65700,0,0,4,1460,1,0,0,24,33580,0,65700,0,0,0,0,0
o,0x00000000,1716935158.506382,10.0.2.15,22,10.0.2.2,56182,1073725440,17130,0,65535,65700,0,0,4,1460,1,0,4,24,33580,72,65700,0,0,0,0,0
i,0x00000000,1716935158.507234,10.0.2.15,22,10.0.2.2,56182,1073725440,17130,0,65535,65700,0,0,4,1460,1,0,4,24,33580,72,65700,0,72,0,0,0
o,0x00000000,1716935158.510746,10.0.2.15,22,10.0.2.2,56182,1073725440,17202,0,65535,65700,0,0,4,1460,1,0,4,24,33580,44,65700,0,0,0,0,0
i,0x00000000,1716935158.511431,10.0.2.15,22,10.0.2.2,56182,1073725440,17202,0,65535,65700,0,0,4,1460,1,0,4,24,33580,44,65700,0,44,0,0,0
o,0x00000000,1716935158.511828,10.0.2.15,22,10.0.2.2,56182,1073725440,17246,0,65535,65700,0,0,4,1460,1,0,4,24,33580,44,65700,0,0,0,0,0
i,0x00000000,1716935158.512518,10.0.2.15,22,10.0.2.2,56182,1073725440,17246,0,65535,65700,0,0,4,1460,1,0,4,24,33580,44,65700,0,44,0,0,0
o,0x00000000,1716935158.515902,10.0.2.15,22,10.0.2.2,56182,1073725440,17290,0,65535,65700,0,0,4,1460,1,0,4,24,33580,176,65700,0,0,0,0,0
i,0x00000000,1716935158.516672,10.0.2.15,22,10.0.2.2,56182,1073725440,17290,0,65535,65700,0,0,4,1460,1,0,4,24,33580,176,65700,0,176,0,0,0
i,0x00000000,1716935158.517298,10.0.2.15,22,10.0.2.2,56182,1073725440,17466,0,65535,65700,0,0,4,1460,1,0,4,24,33580,0,65700,0,0,0,0,0
i,0x00000000,1716935158.517302,10.0.2.15,22,10.0.2.2,56182,1073725440,17466,0,65535,65700,0,0,4,1460,1,0,4,24,33580,0,65700,96,0,0,0,0
o,0x00000000,1716935158.517305,10.0.2.15,22,10.0.2.2,56182,1073725440,17466,0,65535,65604,0,0,5,1460,1,0,5,24,33580,0,65700,96,0,0,0,0
o,0x00000000,1716935158.521767,10.0.2.15,22,10.0.2.2,56182,1073725440,17466,0,65535,65604,0,0,8,1460,1,0,4,24,33580,0,65700,0,0,0,0,0
i,0x00000000,1716935158.522465,10.0.2.15,22,10.0.2.2,56182,1073725440,17466,0,65535,65604,0,0,8,1460,1,0,20,24,33580,0,65700,0,1,0,0,0
i,0x00000000,1716935158.761041,172.16.3.2,5101,172.16.1.2,24972,10476,14480,0,65728,65700,6,6,4,1460,433,1,992,48,33580,0,65700,0,0,0,0,0
o,0x00000000,1716935158.761175,172.16.3.2,5101,172.16.1.2,24972,10476,14480,0,65728,65700,6,6,4,1460,433,1,996,48,33580,1,65700,0,0,0,0,0
i,0x00000000,1716935158.880575,172.16.3.2,5101,172.16.1.2,24972,10476,14480,0,65728,65700,6,6,4,1460,433,1,996,48,33580,1,65700,0,1,0,0,0
i,0x00000000,1716935158.880591,172.16.3.2,5101,172.16.1.2,24972,10476,14480,0,65728,65728,6,6,4,1460,427,1,996,45,33580,0,65700,4,0,0,0,0
o,0x00000000,1716935158.880600,172.16.3.2,5101,172.16.1.2,24972,10476,14480,0,65728,65728,6,6,4,1460,427,1,997,45,33580,0,65700,128,0,0,0,0
o,0x00000000,1716935158.881005,172.16.3.2,5101,172.16.1.2,24972,10476,14480,0,65728,65728,6,6,4,1460,427,1,996,45,33580,1,65700,0,0,0,0,0
o,0x00000000,1716935158.881188,10.0.2.15,22,10.0.2.2,62180,1073725440,14600,0,65535,65700,0,0,4,1460,1,0,4,24,33580,84,65700,0,0,0,0,0
i,0x00000000,1716935158.881850,10.0.2.15,22,10.0.2.2,62180,1073725440,14600,0,65535,65700,0,0,4,1460,1,0,4,24,33580,84,65700,0,84,0,0,0
i,0x00000000,1716935159.029854,172.16.3.2,5101,172.16.1.2,24972,10476,14480,0,65728,65728,6,6,4,1460,427,1,996,45,33580,1,65700,0,1,0,0,0
i,0x00000000,1716935159.120372,172.16.3.2,5101,172.16.1.2,29606,10476,14480,0,65728,65700,6,6,4,1460,437,1,992,47,33580,0,65700,0,0,0,0,0
o,0x00000000,1716935159.122478,172.16.3.2,5101,172.16.1.2,24972,10476,14480,0,65728,65728,6,6,4,1460,434,1,996,44,33580,1,65700,0,0,0,0,0
o,0x00000000,1716935159.122575,172.16.3.2,5101,172.16.1.2,24972,10476,14480,0,65728,65728,6,6,4,1460,434,1,996,44,33580,2,65700,0,1,0,0,0
o,0x00000000,1716935159.122983,10.0.2.15,22,10.0.2.2,62180,1073725440,14600,0,65535,65700,0,0,4,1460,1,0,4,24,33580,108,65700,0,0,0,0,0
i,0x00000000,1716935159.123682,10.0.2.15,22,10.0.2.2,62180,1073725440,14600,0,65535,65700,0,0,4,1460,1,0,4,24,33580,108,65700,0,108,0,0,0
o,0x00000000,1716935159.157660,172.16.3.2,5101,172.16.1.2,29606,10476,14480,0,65728,65700,6,6,4,1460,437,1,993,47,33580,0,65700,0,0,0,0,0
i,0x00000000,1716935159.240611,172.16.3.2,5101,172.16.1.2,24972,10476,14480,0,65728,65728,6,6,4,1460,434,1,996,44,33580,2,65700,0,2,0,0,0
i,0x00000000,1716935159.340683,172.16.3.2,5101,172.16.1.2,29606,10476,14480,0,65728,65700,6,6,4,1460,437,1,992,47,33580,0,65700,0,0,0,0,0
i,0x00000000,1716935159.350667,172.16.3.2,5101,172.16.1.2,29606,10476,14480,0,65728,65700,6,6,4,1460,437,1,992,47,33580,0,65700,0,0,0,0,0
o,0x00000000,1716935159.350684,172.16.3.2,5101,172.16.1.2,29606,10476,14480,0,65728,65700,6,6,4,1460,437,1,993,47,33580,0,65700,1448,0,0,0,0
i,0x00000000,1716935159.360169,172.16.3.2,5101,172.16.1.2,29606,10476,14480,0,65728,65700,6,6,4,1460,437,1,992,47,33580,0,65700,0,0,0,0,0
i,0x00000000,1716935159.370325,172.16.3.2,5101,172.16.1.2,29606,10476,14480,0,65728,65700,6,6,4,1460,437,1,992,47,33580,0,65700,0,0,0,0,0
o,0x00000000,1716935159.370335,172.16.3.2,5101,172.16.1.2,29606,10476,14480,0,65728,65700,6,6,4,1460,437,1,993,47,33580,0,65700,1448,0,0,0,0
i,0x00000000,1716935159.390030,172.16.3.2,5101,172.16.1.2,29606,10476,14480,0,65728,65700,6,6,4,1460,437,1,992,47,33580,0,65700,0,0,0,0,0
i,0x00000000,1716935159.400554,172.16.3.2,5101,172.16.1.2,29606,10476,14480,0,65728,65700,6,6,4,1460,437,1,992,47,33580,0,65700,0,0,0,0,0
o,0x00000000,1716935159.400563,172.16.3.2,5101,172.16.1.2,29606,10476,14480,0,65728,65700,6,6,4,1460,437,1,993,47,33580,0,65700,1448,0,0,0,0
i,0x00000000,1716935159.410809,172.16.3.2,5101,172.16.1.2,29606,10476,14480,0,65728,65700,6,6,4,1460,437,1,992,47,33580,0,65700,0,0,0,0,0
i,0x00000000,1716935159.420197,172.16.3.2,5101,172.16.1.2,29606,10476,14480,0,65728,65700,6,6,4,1460,437,1,992,47,33580,0,65700,0,0,0,0,0
o,0x00000000,1716935159.420205,172.16.3.2,5101,172.16.1.2,29606,10476,14480,0,65728,65700,6,6,4,1460,437,1,993,47,33580,0,65700,1448,0,0,0,0
i,0x00000000,1716935159.440053,172.16.3.2,5101,172.16.1.2,29606,10476,14480,0,65728,65700,6,6,4,1460,437,1,992,47,33580,0,65700,0,0,0,0,0
i,0x00000000,1716935159.450119,172.16.3.2,5101,172.16.1.2,29606,10476,14480,0,65728,65700,6,6,4,1460,437,1,992,47,33580,0,65700,0,0,0,0,0
o,0x00000000,1716935159.450128,172.16.3.2,5101,172.16.1.2,29606,10476,14480,0,65728,65700,6,6,4,1460,437,1,993,47,33580,0,65700,1448,0,0,0,0
i,0x00000000,1716935159.510125,172.16.3.2,5101,172.16.1.2,29606,10476,14480,0,65728,65700,6,6,4,1460,437,1,992,47,33580,0,65700,0,0,0,0,0
i,0x00000000,1716935159.520661,172.16.3.2,5101,172.16.1.2,29606,10476,14480,0,65728,65700,6,6,4,1460,437,1,992,47,33580,0,65700,0,0,0,0,0
o,0x00000000,1716935159.520670,172.16.3.2,5101,172.16.1.2,29606,10476,14480,0,65728,65700,6,6,4,1460,437,1,993,47,33580,0,65700,1448,0,0,0,0
i,0x00000000,1716935159.559999,172.16.3.2,5101,172.16.1.2,29606,10476,14480,0,65728,65700,6,6,4,1460,437,1,992,47,33580,0,65700,0,0,0,0,0
i,0x00000000,1716935159.571113,172.16.3.2,5101,172.16.1.2,29606,10476,14480,0,65728,65700,6,6,4,1460,437,1,992,47,33580,0,65700,0,0,0,0,0
o,0x00000000,1716935159.571120,172.16.3.2,5101,172.16.1.2,29606,10476,14480,0,65728,65700,6,6,4,1460,437,1,993,47,33580,0,65700,1448,0,0,0,0
i,0x00000000,1716935159.579846,172.16.3.2,5101,172.16.1.2,29606,10476,14480,0,65728,65700,6,6,4,1460,437,1,992,47,33580,0,65700,0,0,0,0,0
i,0x00000000,1716935159.599776,172.16.3.2,5101,172.16.1.2,29606,10476,14480,0,65728,65700,6,6,4,1460,437,1,992,47,33580,0,65700,0,0,0,0,0
o,0x00000000,1716935159.599781,172.16.3.2,5101,172.16.1.2,29606,10476,14480,0,65728,65700,6,6,4,1460,437,1,993,47,33580,0,65700,1448,0,0,0,0
i,0x00000000,1716935159.719861,172.16.3.2,5101,172.16.1.2,29606,10476,14480,0,65728,65700,6,6,4,1460,437,1,992,47,33580,0,65700,0,0,0,0,0
o,0x00000000,1716935159.719941,172.16.3.2,5101,172.16.1.2,29606,10476,14480,0,65728,65700,6,6,4,1460,437,1,993,47,33580,0,65700,0,0,0,0,0
i,0x00000000,1716935159.730131,172.16.3.2,5101,172.16.1.2,29606,10476,14480,0,65728,65700,6,6,4,1460,437,1,992,47,33580,0,65700,0,0,0,0,0
i,0x00000000,1716935159.740471,172.16.3.2,5101,172.16.1.2,29606,10476,14480,0,65728,65700,6,6,4,1460,437,1,992,47,33580,0,65700,0,0,0,0,0
o,0x00000000,1716935159.740479,172.16.3.2,5101,172.16.1.2,29606,10476,14480,0,65728,65700,6,6,4,1460,437,1,993,47,33580,0,65700,1448,0,0,0,0
i,0x00000000,1716935159.879809,172.16.3.2,5101,172.16.1.2,29606,10476,14480,0,65728,65700,6,6,4,1460,437,1,992,47,33580,0,65700,0,0,0,0,0
i,0x00000000,1716935159.901131,172.16.3.2,5101,172.16.1.2,29606,10476,14480,0,65728,65700,6,6,4,1460,437,1,992,47,33580,0,65700,0,0,0,0,0
o,0x00000000,1716935159.901144,172.16.3.2,5101,172.16.1.2,29606,10476,14480,0,65728,65700,6,6,4,1460,437,1,993,47,33580,0,65700,1448,0,0,0,0
i,0x00000000,1716935159.909947,172.16.3.2,5101,172.16.1.2,29606,10476,14480,0,65728,65700,6,6,4,1460,437,1,992,47,33580,0,65700,0,0,0,0,0
i,0x00000000,1716935159.919275,172.16.3.2,5101,172.16.1.2,29606,10476,14480,0,65728,65700,6,6,4,1460,437,1,992,47,33580,0,65700,0,0,0,0,0
o,0x00000000,1716935159.919281,172.16.3.2,5101,172.16.1.2,29606,10476,14480,0,65728,65700,6,6,4,1460,437,1,993,47,33580,0,65700,1448,0,0,0,0
i,0x00000000,1716935159.929668,172.16.3.2,5101,172.16.1.2,29606,10476,14480,0,65728,65700,6,6,4,1460,437,1,992,47,33580,0,65700,0,0,0,0,0
o,0x00000000,1716935159.967505,172.16.3.2,5101,172.16.1.2,29606,10476,14480,0,65728,65700,6,6,4,1460,437,1,993,47,33580,0,65700,0,0,0,0,0
i,0x00000000,1716935160.060189,172.16.3.2,5101,172.16.1.2,29606,10476,14480,0,65728,65700,6,6,4,1460,437,1,992,47,33580,0,65700,0,0,0,0,0
i,0x00000000,1716935160.070632,172.16.3.2,5101,172.16.1.2,29606,10476,14480,0,65728,65700,6,6,4,1460,437,1,992,47,33580,0,65700,0,0,0,0,0
o,0x00000000,1716935160.070640,172.16.3.2,5101,172.16.1.2,29606,10476,14480,0,65728,65700,6,6,4,1460,437,1,993,47,33580,0,65700,1448,0,0,0,0
i,0x00000000,1716935160.079764,172.16.3.2,5101,172.16.1.2,29606,10476,14480,0,65728,65700,6,6,4,1460,437,1,992,47,33580,0,65700,0,0,0,0,0
i,0x00000000,1716935160.100531,172.16.3.2,5101,172.16.1.2,29606,10476,14480,0,65728,65700,6,6,4,1460,437,1,992,47,33580,0,65700,0,0,0,0,0
o,0x00000000,1716935160.100544,172.16.3.2,5101,172.16.1.2,29606,10476,14480,0,65728,65700,6,6,4,1460,437,1,993,47,33580,0,65700,1448,0,0,0,0
i,0x00000000,1716935160.110030,172.16.3.2,5101,172.16.1.2,29606,10476,14480,0,65728,65700,6,6,4,1460,437,1,992,47,33580,0,65700,0,0,0,0,0
o,0x00000000,1716935160.128415,10.0.2.15,22,10.0.2.2,62180,1073725440,14600,0,65535,65700,0,0,4,1460,1,0,4,24,33580,156,65700,0,0,0,0,0
i,0x00000000,1716935160.129129,10.0.2.15,22,10.0.2.2,62180,1073725440,14600,0,65535,65700,0,0,4,1460,1,0,4,24,33580,156,65700,0,156,0,0,0
i,0x00000000,1716935160.131690,172.16.3.2,5101,172.16.1.2,29606,10476,14480,0,65728,65700,6,6,4,1460,437,1,992,47,33580,0,65700,0,0,0,0,0
o,0x00000000,1716935160.131699,172.16.3.2,5101,172.16.1.2,29606,10476,14480,0,65728,65700,6,6,4,1460,437,1,993,47,33580,0,65700,1448,0,0,0,0
i,0x00000000,1716935160.159841,172.16.3.2,5101,172.16.1.2,29606,10476,14480,0,65728,65700,6,6,4,1460,437,1,992,47,33580,0,65700,0,0,0,0,0
o,0x00000000,1716935160.197373,172.16.3.2,5101,172.16.1.2,29606,10476,14480,0,65728,65700,6,6,4,1460,437,1,993,47,33580,0,65700,0,0,0,0,0
i,0x00000000,1716935160.210003,172.16.3.2,5101,172.16.1.2,29606,10476,14480,0,65728,65700,6,6,4,1460,437,1,992,47,33580,0,65700,0,0,0,0,0
o,0x00000000,1716935160.247417,172.16.3.2,5101,172.16.1.2,29606,10476,14480,0,65728,65700,6,6,4,1460,437,1,993,47,33580,0,65700,0,0,0,0,0
i,0x00000000,1716935160.260186,172.16.3.2,5101,172.16.1.2,29606,10476,14480,0,65728,65700,6,6,4,1460,437,1,992,47,33580,0,65700,0,0,0,0,0
i,0x00000000,1716935160.270410,172.16.3.2,5101,172.16.1.2,29606,10476,14480,0,65728,65700,6,6,4,1460,437,1,992,47,33580,0,65700,0,0,0,0,0
o,0x00000000,1716935160.270416,172.16.3.2,5101,172.16.1.2,29606,10476,14480,0,65728,65700,6,6,4,1460,437,1,993,47,33580,0,65700,1448,0,0,0,0
i,0x00000000,1716935160.299317,172.16.3.2,5101,172.16.1.2,29606,10476,14480,0,65728,65700,6,6,4,1460,437,1,992,47,33580,0,65700,0,0,0,0,0
i,0x00000000,1716935160.319313,172.16.3.2,5101,172.16.1.2,29606,10476,14480,0,65728,65700,6,6,4,1460,437,1,992,47,33580,0,65700,0,0,0,0,0
o,0x00000000,1716935160.319321,172.16.3.2,5101,172.16.1.2,29606,10476,14480,0,65728,65700,6,6,4,1460,437,1,993,47,33580,0,65700,1448,0,0,0,0
i,0x00000000,1716935160.339898,172.16.3.2,5101,172.16.1.2,29606,10476,14480,0,65728,65700,6,6,4,1460,437,1,992,47,33580,0,65700,0,0,0,0,0
i,0x00000000,1716935160.349246,172.16.3.2,5101,172.16.1.2,29606,10476,14480,0,65728,65700,6,6,4,1460,437,1,992,47,33580,0,65700,0,0,0,0,0
o,0x00000000,1716935160.349258,172.16.3.2,5101,172.16.1.2,29606,10476,14480,0,65728,65700,6,6,4,1460,437,1,993,47,33580,0,65700,1448,0,0,0,0
i,0x00000000,1716935160.380366,172.16.3.2,5101,172.16.1.2,29606,10476,14480,0,65728,65700,6,6,4,1460,437,1,992,47,33580,0,65700,0,0,0,0,0
o,0x00000000,1716935160.418218,172.16.3.2,5101,172.16.1.2,29606,10476,14480,0,65728,65700,6,6,4,1460,437,1,993,47,33580,0,65700,0,0,0,0,0
i,0x00000000,1716935160.419118,172.16.3.2,5101,172.16.1.2,29606,10476,14480,0,65728,65700,6,6,4,1460,437,1,992,47,33580,0,65700,0,0,0,0,0
i,0x00000000,1716935160.450750,172.16.3.2,5101,172.16.1.2,29606,10476,14480,0,65728,65700,6,6,4,1460,437,1,992,47,33580,0,65700,0,0,0,0,0
o,0x00000000,1716935160.450763,172.16.3.2,5101,172.16.1.2,29606,10476,14480,0,65728,65700,6,6,4,1460,437,1,993,47,33580,0,65700,1448,0,0,0,0
i,0x00000000,1716935160.460135,172.16.3.2,5101,172.16.1.2,29606,10476,14480,0,65728,65700,6,6,4,1460,437,1,992,47,33580,0,65700,0,0,0,0,0
o,0x00000000,1716935160.497363,172.16.3.2,5101,172.16.1.2,29606,10476,14480,0,65728,65700,6,6,4,1460,437,1,993,47,33580,0,65700,0,0,0,0,0
i,0x00000000,1716935160.510308,172.16.3.2,5101,172.16.1.2,29606,10476,14480,0,65728,65700,6,6,4,1460,437,1,992,47,33580,0,65700,0,0,0,0,0
i,0x00000000,1716935160.528876,172.16.3.2,5101,172.16.1.2,29606,10476,14480,0,65728,65700,6,6,4,1460,437,1,992,47,33580,0,65700,0,0,0,0,0
o,0x00000000,1716935160.528881,172.16.3.2,5101,172.16.1.2,29606,10476,14480,0,65728,65700,6,6,4,1460,437,1,993,47,33580,0,65700,1448,0,0,0,0
i,0x00000000,1716935160.540170,172.16.3.2,5101,172.16.1.2,29606,10476,14480,0,65728,65700,6,6,4,1460,437,1,992,47,33580,0,65700,0,0,0,0,0
i,0x00000000,1716935160.559899,172.16.3.2,5101,172.16.1.2,29606,10476,14480,0,65728,65700,6,6,4,1460,437,1,992,47,33580,0,65700,0,0,0,0,0
o,0x00000000,1716935160.559907,172.16.3.2,5101,172.16.1.2,29606,10476,14480,0,65728,65700,6,6,4,1460,437,1,993,47,33580,0,65700,1448,0,0,0,0
i,0x00000000,1716935160.569243,172.16.3.2,5101,172.16.1.2,29606,10476,14480,0,65728,65700,6,6,4,1460,437,1,992,47,33580,0,65700,0,0,0,0,0
o,0x00000000,1716935160.609257,172.16.3.2,5101,172.16.1.2,29606,10476,14480,0,65728,65700,6,6,4,1460,437,1,993,47,33580,0,65700,0,0,0,0,0
i,0x00000000,1716935160.609697,172.16.3.2,5101,172.16.1.2,29606,10476,14480,0,65728,65700,6,6,4,1460,437,1,992,47,33580,0,65700,0,0,0,0,0
i,0x00000000,1716935160.638873,172.16.3.2,5101,172.16.1.2,29606,10476,14480,0,65728,65700,6,6,4,1460,437,1,992,47,33580,0,65700,0,0,0,0,0
o,0x00000000,1716935160.638880,172.16.3.2,5101,172.16.1.2,29606,10476,14480,0,65728,65700,6,6,4,1460,437,1,993,47,33580,0,65700,1448,0,0,0,0
i,0x00000000,1716935160.669896,172.16.3.2,5101,172.16.1.2,29606,10476,14480,0,65728,65700,6,6,4,1460,437,1,992,47,33580,0,65700,0,0,0,0,0
i,0x00000000,1716935160.679269,172.16.3.2,5101,172.16.1.2,29606,10476,14480,0,65728,65700,6,6,4,1460,437,1,992,47,33580,0,65700,0,0,0,0,0
o,0x00000000,1716935160.679280,172.16.3.2,5101,172.16.1.2,29606,10476,14480,0,65728,65700,6,6,4,1460,437,1,993,47,33580,0,65700,1448,0,0,0,0
i,0x00000000,1716935160.729981,172.16.3.2,5101,172.16.1.2,29606,10476,14480,0,65728,65700,6,6,4,1460,437,1,992,47,33580,0,65700,0,0,0,0,0
i,0x00000000,1716935160.749830,172.16.3.2,5101,172.16.1.2,29606,10476,14480,0,65728,65700,6,6,4,1460,437,1,992,47,33580,0,65700,0,0,0,0,0
o,0x00000000,1716935160.749843,172.16.3.2,5101,172.16.1.2,29606,10476,14480,0,65728,65700,6,6,4,1460,437,1,993,47,33580,0,65700,1448,0,0,0,0
i,0x00000000,1716935160.768866,172.16.3.2,5101,172.16.1.2,29606,10476,14480,0,65728,65700,6,6,4,1460,437,1,992,47,33580,0,65700,0,0,0,0,0
o,0x00000000,1716935160.807159,172.16.3.2,5101,172.16.1.2,29606,10476,14480,0,65728,65700,6,6,4,1460,437,1,993,47,33580,0,65700,0,0,0,0,0
i,0x00000000,1716935160.809669,172.16.3.2,5101,172.16.1.2,29606,10476,14480,0,65728,65700,6,6,4,1460,437,1,992,47,33580,0,65700,0,0,0,0,0
i,0x00000000,1716935160.819936,172.16.3.2,5101,172.16.1.2,29606,10476,14480,0,65728,65700,6,6,4,1460,437,1,992,47,33580,0,65700,0,0,0,0,0
o,0x00000000,1716935160.819941,172.16.3.2,5101,172.16.1.2,29606,10476,14480,0,65728,65700,6,6,4,1460,437,1,993,47,33580,0,65700,1448,0,0,0,0
i,0x00000000,1716935160.859680,172.16.3.2,5101,172.16.1.2,29606,10476,14480,0,65728,65700,6,6,4,1460,437,1,992,47,33580,0,65700,0,0,0,0,0
i,0x00000000,1716935160.869733,172.16.3.2,5101,172.16.1.2,29606,10476,14480,0,65728,65700,6,6,4,1460,437,1,992,47,33580,0,65700,0,0,0,0,0
o,0x00000000,1716935160.869743,172.16.3.2,5101,172.16.1.2,29606,10476,14480,0,65728,65700,6,6,4,1460,437,1,993,47,33580,0,65700,1448,0,0,0,0
i,0x00000000,1716935160.880589,172.16.3.2,5101,172.16.1.2,29606,10476,14480,0,65728,65700,6,6,4,1460,437,1,992,47,33580,0,65700,0,0,0,0,0
o,0x00000000,1716935160.918240,172.16.3.2,5101,172.16.1.2,29606,10476,14480,0,65728,65700,6,6,4,1460,437,1,993,47,33580,0,65700,0,0,0,0,0
i,0x00000000,1716935160.939390,172.16.3.2,5101,172.16.1.2,29606,10476,14480,0,65728,65700,6,6,4,1460,437,1,992,47,33580,0,65700,0,0,0,0,0
i,0x00000000,1716935160.949752,172.16.3.2,5101,172.16.1.2,29606,10476,14480,0,65728,65700,6,6,4,1460,437,1,992,47,33580,0,65700,0,0,0,0,0
o,0x00000000,1716935160.949758,172.16.3.2,5101,172.16.1.2,29606,10476,14480,0,65728,65700,6,6,4,1460,437,1,993,47,33580,0,65700,1448,0,0,0,0
i,0x00000000,1716935160.979795,172.16.3.2,5101,172.16.1.2,29606,10476,14480,0,65728,65700,6,6,4,1460,437,1,992,47,33580,0,65700,0,0,0,0,0
o,0x00000000,1716935160.979865,172.16.3.2,5101,172.16.1.2,29606,10476,14480,0,65728,65700,6,6,4,1460,437,1,993,47,33580,0,65700,0,0,0,0,0
i,0x00000000,1716935160.990149,172.16.3.2,5101,172.16.1.2,29606,10476,14480,0,65728,65700,6,6,4,1460,437,1,992,47,33580,0,65700,0,0,0,0,0
i,0x00000000,1716935160.999588,172.16.3.2,5101,172.16.1.2,29606,10476,14480,0,65728,65700,6,6,4,1460,437,1,992,47,33580,0,65700,0,0,0,0,0
o,0x00000000,1716935160.999593,172.16.3.2,5101,172.16.1.2,29606,10476,14480,0,65728,65700,6,6,4,1460,437,1,993,47,33580,0,65700,1448,0,0,0,0
i,0x00000000,1716935161.009199,172.16.3.2,5101,172.16.1.2,29606,10476,14480,0,65728,65700,6,6,4,1460,437,1,992,47,33580,0,65700,0,0,0,0,0
i,0x00000000,1716935161.040331,172.16.3.2,5101,172.16.1.2,29606,10476,14480,0,65728,65700,6,6,4,1460,437,1,992,47,33580,0,65700,0,0,0,0,0
o,0x00000000,1716935161.040340,172.16.3.2,5101,172.16.1.2,29606,10476,14480,0,65728,65700,6,6,4,1460,437,1,993,47,33580,0,65700,1448,0,0,0,0
i,0x00000000,1716935161.080165,172.16.3.2,5101,172.16.1.2,29606,10476,14480,0,65728,65700,6,6,4,1460,437,1,992,47,33580,0,65700,0,0,0,0,0
i,0x00000000,1716935161.089446,172.16.3.2,5101,172.16.1.2,29606,10476,14480,0,65728,65700,6,6,4,1460,437,1,992,47,33580,0,65700,0,0,0,0,0
o,0x00000000,1716935161.089455,172.16.3.2,5101,172.16.1.2,29606,10476,14480,0,65728,65700,6,6,4,1460,437,1,993,47,33580,0,65700,1448,0,0,0,0
i,0x00000000,1716935161.110500,172.16.3.2,5101,172.16.1.2,29606,10476,14480,0,65728,65700,6,6,4,1460,437,1,992,47,33580,0,65700,0,0,0,0,0
o,0x00000000,1716935161.137781,10.0.2.15,22,10.0.2.2,62180,1073725440,14600,0,65535,65700,0,0,4,1460,1,0,4,24,33580,108,65700,0,0,0,0,0
i,0x00000000,1716935161.138439,10.0.2.15,22,10.0.2.2,62180,1073725440,14600,0,65535,65700,0,0,4,1460,1,0,4,24,33580,108,65700,0,108,0,0,0
o,0x00000000,1716935161.148047,172.16.3.2,5101,172.16.1.2,29606,10476,14480,0,65728,65700,6,6,4,1460,437,1,993,47,33580,0,65700,0,0,0,0,0
i,0x00000000,1716935161.199203,172.16.3.2,5101,172.16.1.2,29606,10476,14480,0,65728,65700,6,6,4,1460,437,1,992,47,33580,0,65700,0,0,0,0,0
i,0x00000000,1716935161.218878,172.16.3.2,5101,172.16.1.2,29606,10476,14480,0,65728,65700,6,6,4,1460,437,1,992,47,33580,0,65700,0,0,0,0,0
o,0x00000000,1716935161.218888,172.16.3.2,5101,172.16.1.2,29606,10476,14480,0,65728,65700,6,6,4,1460,437,1,993,47,33580,0,65700,1448,0,0,0,0
i,0x00000000,1716935161.239613,172.16.3.2,5101,172.16.1.2,29606,10476,14480,0,65728,65700,6,6,4,1460,437,1,992,47,33580,0,65700,0,0,0,0,0
i,0x00000000,1716935161.249857,172.16.3.2,5101,172.16.1.2,29606,10476,14480,0,65728,65700,6,6,4,1460,437,1,992,47,33580,0,65700,0,0,0,0,0
o,0x00000000,1716935161.249864,172.16.3.2,5101,172.16.1.2,29606,10476,14480,0,65728,65700,6,6,4,1460,437,1,993,47,33580,0,65700,1448,0,0,0,0
i,0x00000000,1716935161.259240,172.16.3.2,5101,172.16.1.2,29606,10476,14480,0,65728,65700,6,6,4,1460,437,1,992,47,33580,0,65700,0,0,0,0,0
i,0x00000000,1716935161.279805,172.16.3.2,5101,172.16.1.2,29606,10476,14480,0,65728,65700,6,6,4,1460,437,1,992,47,33580,0,65700,0,0,0,0,0
o,0x00000000,1716935161.279814,172.16.3.2,5101,172.16.1.2,29606,10476,14480,0,65728,65700,6,6,4,1460,437,1,993,47,33580,0,65700,1448,0,0,0,0
i,0x00000000,1716935161.298755,172.16.3.2,5101,172.16.1.2,29606,10476,14480,0,65728,65700,6,6,4,1460,437,1,992,47,33580,0,65700,0,0,0,0,0
i,0x00000000,1716935161.309861,172.16.3.2,5101,172.16.1.2,29606,10476,14480,0,65728,65700,6,6,4,1460,437,1,992,47,33580,0,65700,0,0,0,0,0
o,0x00000000,1716935161.309870,172.16.3.2,5101,172.16.1.2,29606,10476,14480,0,65728,65700,6,6,4,1460,437,1,993,47,33580,0,65700,1448,0,0,0,0
i,0x00000000,1716935161.330502,172.16.3.2,5101,172.16.1.2,29606,10476,14480,0,65728,65700,6,6,4,1460,437,1,992,47,33580,0,65700,0,0,0,0,0
o,0x00000000,1716935161.366918,172.16.3.2,5101,172.16.1.2,29606,10476,14480,0,65728,65700,6,6,4,1460,437,1,993,47,33580,0,65700,0,0,0,0,0
i,0x00000000,1716935161.409689,172.16.3.2,5101,172.16.1.2,29606,10476,14480,0,65728,65700,6,6,4,1460,437,1,992,47,33580,0,65700,0,0,0,0,0
i,0x00000000,1716935161.419924,172.16.3.2,5101,172.16.1.2,29606,10476,14480,0,65728,65700,6,6,4,1460,437,1,992,47,33580,0,65700,0,0,0,0,0
o,0x00000000,1716935161.419934,172.16.3.2,5101,172.16.1.2,29606,10476,14480,0,65728,65700,6,6,4,1460,437,1,993,47,33580,0,65700,1448,0,0,0,0
i,0x00000000,1716935161.578515,172.16.3.2,5101,172.16.1.2,29606,10476,14480,0,65728,65700,6,6,4,1460,437,1,992,47,33580,0,65700,0,0,0,0,0
i,0x00000000,1716935161.589874,172.16.3.2,5101,172.16.1.2,29606,10476,14480,0,65728,65700,6,6,4,1460,437,1,992,47,33580,0,65700,0,0,0,0,0
o,0x00000000,1716935161.589883,172.16.3.2,5101,172.16.1.2,29606,10476,14480,0,65728,65700,6,6,4,1460,437,1,993,47,33580,0,65700,1448,0,0,0,0
i,0x00000000,1716935161.599220,172.16.3.2,5101,172.16.1.2,29606,10476,14480,0,65728,65700,6,6,4,1460,437,1,992,47,33580,0,65700,0,0,0,0,0
i,0x00000000,1716935161.619010,172.16.3.2,5101,172.16.1.2,29606,10476,14480,0,65728,65700,6,6,4,1460,437,1,992,47,33580,0,65700,0,0,0,0,0
o,0x00000000,1716935161.619017,172.16.3.2,5101,172.16.1.2,29606,10476,14480,0,65728,65700,6,6,4,1460,437,1,993,47,33580,0,65700,1448,0,0,0,0
i,0x00000000,1716935161.639746,172.16.3.2,5101,172.16.1.2,29606,10476,14480,0,65728,65700,6,6,4,1460,437,1,992,47,33580,0,65700,0,0,0,0,0
o,0x00000000,1716935161.639799,172.16.3.2,5101,172.16.1.2,29606,10476,14480,0,65728,65700,6,6,4,1460,437,1,993,47,33580,0,65700,0,0,0,0,0
i,0x00000000,1716935161.669333,172.16.3.2,5101,172.16.1.2,29606,10476,14480,0,65728,65700,6,6,4,1460,437,1,992,47,33580,0,65700,0,0,0,0,0
i,0x00000000,1716935161.689137,172.16.3.2,5101,172.16.1.2,29606,10476,14480,0,65728,65700,6,6,4,1460,437,1,992,47,33580,0,65700,0,0,0,0,0
o,0x00000000,1716935161.689152,172.16.3.2,5101,172.16.1.2,29606,10476,14480,0,65728,65700,6,6,4,1460,437,1,993,47,33580,0,65700,1448,0,0,0,0
i,0x00000000,1716935161.699497,172.16.3.2,5101,172.16.1.2,29606,10476,14480,0,65728,65700,6,6,4,1460,437,1,992,47,33580,0,65700,0,0,0,0,0
i,0x00000000,1716935161.710008,172.16.3.2,5101,172.16.1.2,29606,10476,14480,0,65728,65700,6,6,4,1460,437,1,992,47,33580,0,65700,0,0,0,0,0
o,0x00000000,1716935161.710014,172.16.3.2,5101,172.16.1.2,29606,10476,14480,0,65728,65700,6,6,4,1460,437,1,993,47,33580,0,65700,1448,0,0,0,0
i,0x00000000,1716935161.719259,172.16.3.2,5101,172.16.1.2,29606,10476,14480,0,65728,65700,6,6,4,1460,437,1,992,47,33580,0,65700,0,0,0,0,0
i,0x00000000,1716935161.738945,172.16.3.2,5101,172.16.1.2,29606,10476,14480,0,65728,65700,6,6,4,1460,437,1,992,47,33580,0,65700,0,0,0,0,0
o,0x00000000,1716935161.738950,172.16.3.2,5101,172.16.1.2,29606,10476,14480,0,65728,65700,6,6,4,1460,437,1,993,47,33580,0,65700,1448,0,0,0,0
i,0x00000000,1716935161.749307,172.16.3.2,5101,172.16.1.2,29606,10476,14480,0,65728,65700,6,6,4,1460,437,1,992,47,33580,0,65700,0,0,0,0,0
i,0x00000000,1716935161.758618,172.16.3.2,5101,172.16.1.2,29606,10476,14480,0,65728,65700,6,6,4,1460,437,1,992,47,33580,0,65700,0,0,0,0,0
o,0x00000000,1716935161.758624,172.16.3.2,5101,172.16.1.2,29606,10476,14480,0,65728,65700,6,6,4,1460,437,1,993,47,33580,0,65700,1448,0,0,0,0
i,0x00000000,1716935161.769932,172.16.3.2,5101,172.16.1.2,29606,10476,14480,0,65728,65700,6,6,4,1460,437,1,992,47,33580,0,65700,0,0,0,0,0
i,0x00000000,1716935161.778285,172.16.3.2,5101,172.16.1.2,29606,10476,14480,0,65728,65700,6,6,4,1460,437,1,992,47,33580,0,65700,0,0,0,0,0
o,0x00000000,1716935161.778290,172.16.3.2,5101,172.16.1.2,29606,10476,14480,0,65728,65700,6,6,4,1460,437,1,993,47,33580,0,65700,1448,0,0,0,0
i,0x00000000,1716935161.798939,172.16.3.2,5101,172.16.1.2,29606,10476,14480,0,65728,65700,6,6,4,1460,437,1,992,47,33580,0,65700,0,0,0,0,0
i,0x00000000,1716935161.809334,172.16.3.2,5101,172.16.1.2,29606,10476,14480,0,65728,65700,6,6,4,1460,437,1,992,47,33580,0,65700,0,0,0,0,0
o,0x00000000,1716935161.809339,172.16.3.2,5101,172.16.1.2,29606,10476,14480,0,65728,65700,6,6,4,1460,437,1,993,47,33580,0,65700,1448,0,0,0,0
i,0x00000000,1716935161.818622,172.16.3.2,5101,172.16.1.2,29606,10476,14480,0,65728,65700,6,6,4,1460,437,1,992,47,33580,0,65700,0,0,0,0,0
i,0x00000000,1716935161.849638,172.16.3.2,5101,172.16.1.2,29606,10476,14480,0,65728,65700,6,6,4,1460,437,1,992,47,33580,0,65700,0,0,0,0,0
o,0x00000000,1716935161.849646,172.16.3.2,5101,172.16.1.2,29606,10476,14480,0,65728,65700,6,6,4,1460,437,1,993,47,33580,0,65700,1448,0,0,0,0
o,0x00000000,1716935162.137488,10.0.2.15,22,10.0.2.2,62180,1073725440,14600,0,65535,65700,0,0,4,1460,1,0,4,24,33580,108,65700,0,0,0,0,0
i,0x00000000,1716935162.138229,10.0.2.15,22,10.0.2.2,62180,1073725440,14600,0,65535,65700,0,0,4,1460,1,0,4,24,33580,108,65700,0,108,0,0,0
i,0x00000000,1716935162.279031,172.16.3.2,5101,172.16.1.2,29606,10476,14480,0,65728,65700,6,6,4,1460,437,1,992,47,33580,0,65700,0,0,0,0,0
o,0x00000000,1716935162.317871,172.16.3.2,5101,172.16.1.2,29606,10476,14480,0,65728,65700,6,6,4,1460,437,1,993,47,33580,0,65700,0,0,0,0,0
i,0x00000000,1716935162.328636,172.16.3.2,5101,172.16.1.2,29606,10476,14480,0,65728,65700,6,6,4,1460,437,1,992,47,33580,0,65700,0,0,0,0,0
i,0x00000000,1716935162.339083,172.16.3.2,5101,172.16.1.2,29606,10476,14480,0,65728,65700,6,6,4,1460,437,1,992,47,33580,0,65700,0,0,0,0,0
o,0x00000000,1716935162.339093,172.16.3.2,5101,172.16.1.2,29606,10476,14480,0,65728,65700,6,6,4,1460,437,1,993,47,33580,0,65700,1448,0,0,0,0
i,0x00000000,1716935162.349474,172.16.3.2,5101,172.16.1.2,29606,10476,14480,0,65728,65700,6,6,4,1460,437,1,992,47,33580,0,65700,0,0,0,0,0
o,0x00000000,1716935162.387393,172.16.3.2,5101,172.16.1.2,29606,10476,14480,0,65728,65700,6,6,4,1460,437,1,993,47,33580,0,65700,0,0,0,0,0
i,0x00000000,1716935162.388185,172.16.3.2,5101,172.16.1.2,29606,10476,14480,0,65728,65700,6,6,4,1460,437,1,992,47,33580,0,65700,0,0,0,0,0
i,0x00000000,1716935162.399114,172.16.3.2,5101,172.16.1.2,29606,10476,14480,0,65728,65700,6,6,4,1460,437,1,992,47,33580,0,65700,0,0,0,0,0
o,0x00000000,1716935162.399124,172.16.3.2,5101,172.16.1.2,29606,10476,14480,0,65728,65700,6,6,4,1460,437,1,993,47,33580,0,65700,1448,0,0,0,0
i,0x00000000,1716935162.438431,172.16.3.2,5101,172.16.1.2,29606,10476,14480,0,65728,65700,6,6,4,1460,437,1,992,47,33580,0,65700,0,0,0,0,0
i,0x00000000,1716935162.448722,172.16.3.2,5101,172.16.1.2,29606,10476,14480,0,65728,65700,6,6,4,1460,437,1,992,47,33580,0,65700,0,0,0,0,0
o,0x00000000,1716935162.448731,172.16.3.2,5101,172.16.1.2,29606,10476,14480,0,65728,65700,6,6,4,1460,437,1,993,47,33580,0,65700,1448,0,0,0,0
i,0x00000000,1716935162.459033,172.16.3.2,5101,172.16.1.2,29606,10476,14480,0,65728,65700,6,6,4,1460,437,1,992,47,33580,0,65700,0,0,0,0,0
i,0x00000000,1716935162.478707,172.16.3.2,5101,172.16.1.2,29606,10476,14480,0,65728,65700,6,6,4,1460,437,1,992,47,33580,0,65700,0,0,0,0,0
o,0x00000000,1716935162.478713,172.16.3.2,5101,172.16.1.2,29606,10476,14480,0,65728,65700,6,6,4,1460,437,1,993,47,33580,0,65700,1448,0,0,0,0
i,0x00000000,1716935162.488105,172.16.3.2,5101,172.16.1.2,29606,10476,14480,0,65728,65700,6,6,4,1460,437,1,992,47,33580,0,65700,0,0,0,0,0
i,0x00000000,1716935162.499377,172.16.3.2,5101,172.16.1.2,29606,10476,14480,0,65728,65700,6,6,4,1460,437,1,992,47,33580,0,65700,0,0,0,0,0
o,0x00000000,1716935162.499383,172.16.3.2,5101,172.16.1.2,29606,10476,14480,0,65728,65700,6,6,4,1460,437,1,993,47,33580,0,65700,1448,0,0,0,0
i,0x00000000,1716935162.508797,172.16.3.2,5101,172.16.1.2,29606,10476,14480,0,65728,65700,6,6,4,1460,437,1,992,47,33580,0,65700,0,0,0,0,0
i,0x00000000,1716935162.528653,172.16.3.2,5101,172.16.1.2,29606,10476,14480,0,65728,65700,6,6,4,1460,437,1,992,47,33580,0,65700,0,0,0,0,0
o,0x00000000,1716935162.528659,172.16.3.2,5101,172.16.1.2,29606,10476,14480,0,65728,65700,6,6,4,1460,437,1,993,47,33580,0,65700,1448,0,0,0,0
i,0x00000000,1716935162.539079,172.16.3.2,5101,172.16.1.2,29606,10476,14480,0,65728,65700,6,6,4,1460,437,1,992,47,33580,0,65700,0,0,0,0,0
i,0x00000000,1716935162.549455,172.16.3.2,5101,172.16.1.2,29606,10476,14480,0,65728,65700,6,6,4,1460,437,1,992,47,33580,0,65700,0,0,0,0,0
o,0x00000000,1716935162.549463,172.16.3.2,5101,172.16.1.2,29606,10476,14480,0,65728,65700,6,6,4,1460,437,1,993,47,33580,0,65700,1448,0,0,0,0
i,0x00000000,1716935162.559886,172.16.3.2,5101,172.16.1.2,29606,10476,14480,0,65728,65700,6,6,4,1460,437,1,992,47,33580,0,65700,0,0,0,0,0
i,0x00000000,1716935162.568677,172.16.3.2,5101,172.16.1.2,29606,10476,14480,0,65728,65700,6,6,4,1460,437,1,992,47,33580,0,65700,0,0,0,0,0
o,0x00000000,1716935162.568683,172.16.3.2,5101,172.16.1.2,29606,10476,14480,0,65728,65700,6,6,4,1460,437,1,993,47,33580,0,65700,1448,0,0,0,0
i,0x00000000,1716935162.588873,172.16.3.2,5101,172.16.1.2,29606,10476,14480,0,65728,65700,6,6,4,1460,437,1,992,47,33580,0,65700,0,0,0,0,0
i,0x00000000,1716935162.598713,172.16.3.2,5101,172.16.1.2,29606,10476,14480,0,65728,65700,6,6,4,1460,437,1,992,47,33580,0,65700,0,0,0,0,0
o,0x00000000,1716935162.598717,172.16.3.2,5101,172.16.1.2,29606,10476,14480,0,65728,65700,6,6,4,1460,437,1,993,47,33580,0,65700,1448,0,0,0,0
i,0x00000000,1716935162.609014,172.16.3.2,5101,172.16.1.2,29606,10476,14480,0,65728,65700,6,6,4,1460,437,1,992,47,33580,0,65700,0,0,0,0,0
i,0x00000000,1716935162.618411,172.16.3.2,5101,172.16.1.2,29606,10476,14480,0,65728,65700,6,6,4,1460,437,1,992,47,33580,0,65700,0,0,0,0,0
o,0x00000000,1716935162.618416,172.16.3.2,5101,172.16.1.2,29606,10476,14480,0,65728,65700,6,6,4,1460,437,1,993,47,33580,0,65700,1448,0,0,0,0
i,0x00000000,1716935162.639036,172.16.3.2,5101,172.16.1.2,29606,10476,14480,0,65728,65700,6,6,4,1460,437,1,992,47,33580,0,65700,0,0,0,0,0
i,0x00000000,1716935162.648470,172.16.3.2,5101,172.16.1.2,29606,10476,14480,0,65728,65700,6,6,4,1460,437,1,992,47,33580,0,65700,0,0,0,0,0
o,0x00000000,1716935162.648479,172.16.3.2,5101,172.16.1.2,29606,10476,14480,0,65728,65700,6,6,4,1460,437,1,993,47,33580,0,65700,1448,0,0,0,0
i,0x00000000,1716935162.658869,172.16.3.2,5101,172.16.1.2,29606,10476,14480,0,65728,65700,6,6,4,1460,437,1,992,47,33580,0,65700,0,0,0,0,0
i,0x00000000,1716935162.669213,172.16.3.2,5101,172.16.1.2,29606,10476,14480,0,65728,65700,6,6,4,1460,437,1,992,47,33580,0,65700,0,0,0,0,0
o,0x00000000,1716935162.669225,172.16.3.2,5101,172.16.1.2,29606,10476,14480,0,65728,65700,6,6,4,1460,437,1,993,47,33580,0,65700,1448,0,0,0,0
i,0x00000000,1716935162.688748,172.16.3.2,5101,172.16.1.2,29606,10476,14480,0,65728,65700,6,6,4,1460,437,1,992,47,33580,0,65700,0,0,0,0,0
i,0x00000000,1716935162.699099,172.16.3.2,5101,172.16.1.2,29606,10476,14480,0,65728,65700,6,6,4,1460,437,1,992,47,33580,0,65700,0,0,0,0,0
o,0x00000000,1716935162.699106,172.16.3.2,5101,172.16.1.2,29606,10476,14480,0,65728,65700,6,6,4,1460,437,1,993,47,33580,0,65700,1448,0,0,0,0
i,0x00000000,1716935162.708476,172.16.3.2,5101,172.16.1.2,29606,10476,14480,0,65728,65700,6,6,4,1460,437,1,992,47,33580,0,65700,0,0,0,0,0
i,0x00000000,1716935162.718802,172.16.3.2,5101,172.16.1.2,29606,10476,14480,0,65728,65700,6,6,4,1460,437,1,992,47,33580,0,65700,0,0,0,0,0
o,0x00000000,1716935162.718808,172.16.3.2,5101,172.16.1.2,29606,10476,14480,0,65728,65700,6,6,4,1460,437,1,993,47,33580,0,65700,1448,0,0,0,0
i,0x00000000,1716935162.738435,172.16.3.2,5101,172.16.1.2,29606,10476,14480,0,65728,65700,6,6,4,1460,437,1,992,47,33580,0,65700,0,0,0,0,0
i,0x00000000,1716935162.748755,172.16.3.2,5101,172.16.1.2,29606,10476,14480,0,65728,65700,6,6,4,1460,437,1,992,47,33580,0,65700,0,0,0,0,0
o,0x00000000,1716935162.748762,172.16.3.2,5101,172.16.1.2,29606,10476,14480,0,65728,65700,6,6,4,1460,437,1,993,47,33580,0,65700,1448,0,0,0,0
i,0x00000000,1716935162.758067,172.16.3.2,5101,172.16.1.2,29606,10476,14480,0,65728,65700,6,6,4,1460,437,1,992,47,33580,0,65700,0,0,0,0,0
i,0x00000000,1716935162.769488,172.16.3.2,5101,172.16.1.2,29606,10476,14480,0,65728,65700,6,6,4,1460,437,1,992,47,33580,0,65700,0,0,0,0,0
o,0x00000000,1716935162.769494,172.16.3.2,5101,172.16.1.2,29606,10476,14480,0,65728,65700,6,6,4,1460,437,1,993,47,33580,0,65700,1448,0,0,0,0
i,0x00000000,1716935162.789118,172.16.3.2,5101,172.16.1.2,29606,10476,14480,0,65728,65700,6,6,4,1460,437,1,992,47,33580,0,65700,0,0,0,0,0
i,0x00000000,1716935162.799441,172.16.3.2,5101,172.16.1.2,29606,10476,14480,0,65728,65700,6,6,4,1460,437,1,992,47,33580,0,65700,0,0,0,0,0
o,0x00000000,1716935162.799446,172.16.3.2,5101,172.16.1.2,29606,10476,14480,0,65728,65700,6,6,4,1460,437,1,993,47,33580,0,65700,1448,0,0,0,0
i,0x00000000,1716935162.809841,172.16.3.2,5101,172.16.1.2,29606,10476,14480,0,65728,65700,6,6,4,1460,437,1,992,47,33580,0,65700,0,0,0,0,0
i,0x00000000,1716935162.818486,172.16.3.2,5101,172.16.1.2,29606,10476,14480,0,65728,65700,6,6,4,1460,437,1,992,47,33580,0,65700,0,0,0,0,0
o,0x00000000,1716935162.818492,172.16.3.2,5101,172.16.1.2,29606,10476,14480,0,65728,65700,6,6,4,1460,437,1,993,47,33580,0,65700,1448,0,0,0,0
i,0x00000000,1716935162.839014,172.16.3.2,5101,172.16.1.2,29606,10476,14480,0,65728,65700,6,6,4,1460,437,1,992,47,33580,0,65700,0,0,0,0,0
i,0x00000000,1716935162.849616,172.16.3.2,5101,172.16.1.2,29606,10476,14480,0,65728,65700,6,6,4,1460,437,1,992,47,33580,0,65700,0,0,0,0,0
o,0x00000000,1716935162.849622,172.16.3.2,5101,172.16.1.2,29606,10476,14480,0,65728,65700,6,6,4,1460,437,1,993,47,33580,0,65700,1448,0,0,0,0
i,0x00000000,1716935162.858091,172.16.3.2,5101,172.16.1.2,29606,10476,14480,0,65728,65700,6,6,4,1460,437,1,992,47,33580,0,65700,0,0,0,0,0
o,0x00000000,1716935162.898017,172.16.3.2,5101,172.16.1.2,29606,10476,14480,0,65728,65700,6,6,4,1460,437,1,993,47,33580,0,65700,0,0,0,0,0
i,0x00000000,1716935162.898670,172.16.3.2,5101,172.16.1.2,29606,10476,14480,0,65728,65700,6,6,4,1460,437,1,992,47,33580,0,65700,0,0,0,0,0
i,0x00000000,1716935162.908745,172.16.3.2,5101,172.16.1.2,29606,10476,14480,0,65728,65700,6,6,4,1460,437,1,992,47,33580,0,65700,0,0,0,0,0
o,0x00000000,1716935162.908751,172.16.3.2,5101,172.16.1.2,29606,10476,14480,0,65728,65700,6,6,4,1460,437,1,993,47,33580,0,65700,1448,0,0,0,0
o,0x00000000,1716935163.138724,10.0.2.15,22,10.0.2.2,62180,1073725440,14600,0,65535,65700,0,0,4,1460,1,0,4,24,33580,108,65700,0,0,0,0,0
i,0x00000000,1716935163.139528,10.0.2.15,22,10.0.2.2,62180,1073725440,14600,0,65535,65700,0,0,4,1460,1,0,4,24,33580,108,65700,0,108,0,0,0
i,0x00000000,1716935163.318279,172.16.3.2,5101,172.16.1.2,29606,10476,14480,0,65728,65700,6,6,4,1460,437,1,992,47,33580,0,65700,0,0,0,0,0
o,0x00000000,1716935163.357122,172.16.3.2,5101,172.16.1.2,29606,10476,14480,0,65728,65700,6,6,4,1460,437,1,993,47,33580,0,65700,0,0,0,0,0
i,0x00000000,1716935163.357972,172.16.3.2,5101,172.16.1.2,29606,10476,14480,0,65728,65700,6,6,4,1460,437,1,992,47,33580,0,65700,0,0,0,0,0
i,0x00000000,1716935163.388710,172.16.3.2,5101,172.16.1.2,29606,10476,14480,0,65728,65700,6,6,4,1460,437,1,992,47,33580,0,65700,0,0,0,0,0
o,0x00000000,1716935163.388731,172.16.3.2,5101,172.16.1.2,29606,10476,14480,0,65728,65700,6,6,4,1460,437,1,993,47,33580,0,65700,1448,0,0,0,0
i,0x00000000,1716935163.428065,172.16.3.2,5101,172.16.1.2,29606,10476,14480,0,65728,65700,6,6,4,1460,437,1,992,47,33580,0,65700,0,0,0,0,0
i,0x00000000,1716935163.438199,172.16.3.2,5101,172.16.1.2,29606,10476,14480,0,65728,65700,6,6,4,1460,437,1,992,47,33580,0,65700,0,0,0,0,0
o,0x00000000,1716935163.438208,172.16.3.2,5101,172.16.1.2,29606,10476,14480,0,65728,65700,6,6,4,1460,437,1,993,47,33580,0,65700,1448,0,0,0,0
i,0x00000000,1716935163.448588,172.16.3.2,5101,172.16.1.2,29606,10476,14480,0,65728,65700,6,6,4,1460,437,1,992,47,33580,0,65700,0,0,0,0,0
o,0x00000000,1716935163.487882,172.16.3.2,5101,172.16.1.2,29606,10476,14480,0,65728,65700,6,6,4,1460,437,1,993,47,33580,0,65700,0,0,0,0,0
i,0x00000000,1716935163.488158,172.16.3.2,5101,172.16.1.2,29606,10476,14480,0,65728,65700,6,6,4,1460,437,1,992,47,33580,0,65700,0,0,0,0,0
i,0x00000000,1716935163.498507,172.16.3.2,5101,172.16.1.2,29606,10476,14480,0,65728,65700,6,6,4,1460,437,1,992,47,33580,0,65700,0,0,0,0,0
o,0x00000000,1716935163.498513,172.16.3.2,5101,172.16.1.2,29606,10476,14480,0,65728,65700,6,6,4,1460,437,1,993,47,33580,0,65700,1448,0,0,0,0
i,0x00000000,1716935163.528489,172.16.3.2,5101,172.16.1.2,29606,10476,14480,0,65728,65700,6,6,4,1460,437,1,992,47,33580,0,65700,0,0,0,0,0
i,0x00000000,1716935163.537878,172.16.3.2,5101,172.16.1.2,29606,10476,14480,0,65728,65700,6,6,4,1460,437,1,992,47,33580,0,65700,0,0,0,0,0
o,0x00000000,1716935163.537884,172.16.3.2,5101,172.16.1.2,29606,10476,14480,0,65728,65700,6,6,4,1460,437,1,993,47,33580,0,65700,1448,0,0,0,0
i,0x00000000,1716935163.548133,172.16.3.2,5101,172.16.1.2,29606,10476,14480,0,65728,65700,6,6,4,1460,437,1,992,47,33580,0,65700,0,0,0,0,0
i,0x00000000,1716935163.558590,172.16.3.2,5101,172.16.1.2,29606,10476,14480,0,65728,65700,6,6,4,1460,437,1,992,47,33580,0,65700,0,0,0,0,0
o,0x00000000,1716935163.558598,172.16.3.2,5101,172.16.1.2,29606,10476,14480,0,65728,65700,6,6,4,1460,437,1,993,47,33580,0,65700,1448,0,0,0,0
i,0x00000000,1716935163.579149,172.16.3.2,5101,172.16.1.2,29606,10476,14480,0,65728,65700,6,6,4,1460,437,1,992,47,33580,0,65700,0,0,0,0,0
i,0x00000000,1716935163.588506,172.16.3.2,5101,172.16.1.2,29606,10476,14480,0,65728,65700,6,6,4,1460,437,1,992,47,33580,0,65700,0,0,0,0,0
o,0x00000000,1716935163.588512,172.16.3.2,5101,172.16.1.2,29606,10476,14480,0,65728,65700,6,6,4,1460,437,1,993,47,33580,0,65700,1448,0,0,0,0
i,0x00000000,1716935163.598893,172.16.3.2,5101,172.16.1.2,29606,10476,14480,0,65728,65700,6,6,4,1460,437,1,992,47,33580,0,65700,0,0,0,0,0
i,0x00000000,1716935163.608149,172.16.3.2,5101,172.16.1.2,29606,10476,14480,0,65728,65700,6,6,4,1460,437,1,992,47,33580,0,65700,0,0,0,0,0
o,0x00000000,1716935163.608155,172.16.3.2,5101,172.16.1.2,29606,10476,14480,0,65728,65700,6,6,4,1460,437,1,993,47,33580,0,65700,1448,0,0,0,0
i,0x00000000,1716935163.627802,172.16.3.2,5101,172.16.1.2,29606,10476,14480,0,65728,65700,6,6,4,1460,437,1,992,47,33580,0,65700,0,0,0,0,0
i,0x00000000,1716935163.638259,172.16.3.2,5101,172.16.1.2,29606,10476,14480,0,65728,65700,6,6,4,1460,437,1,992,47,33580,0,65700,0,0,0,0,0
o,0x00000000,1716935163.638265,172.16.3.2,5101,172.16.1.2,29606,10476,14480,0,65728,65700,6,6,4,1460,437,1,993,47,33580,0,65700,1448,0,0,0,0
i,0x00000000,1716935163.648384,172.16.3.2,5101,172.16.1.2,29606,10476,14480,0,65728,65700,6,6,4,1460,437,1,992,47,33580,0,65700,0,0,0,0,0
i,0x00000000,1716935163.658712,172.16.3.2,5101,172.16.1.2,29606,10476,14480,0,65728,65700,6,6,4,1460,437,1,992,47,33580,0,65700,0,0,0,0,0
o,0x00000000,1716935163.658722,172.16.3.2,5101,172.16.1.2,29606,10476,14480,0,65728,65700,6,6,4,1460,437,1,993,47,33580,0,65700,1448,0,0,0,0
i,0x00000000,1716935163.669005,172.16.3.2,5101,172.16.1.2,29606,10476,14480,0,65728,65700,6,6,4,1460,437,1,992,47,33580,0,65700,0,0,0,0,0
i,0x00000000,1716935163.688674,172.16.3.2,5101,172.16.1.2,29606,10476,14480,0,65728,65700,6,6,4,1460,437,1,992,47,33580,0,65700,0,0,0,0,0
o,0x00000000,1716935163.688683,172.16.3.2,5101,172.16.1.2,29606,10476,14480,0,65728,65700,6,6,4,1460,437,1,993,47,33580,0,65700,1448,0,0,0,0
i,0x00000000,1716935163.698026,172.16.3.2,5101,172.16.1.2,29606,10476,14480,0,65728,65700,6,6,4,1460,437,1,992,47,33580,0,65700,0,0,0,0,0
i,0x00000000,1716935163.708376,172.16.3.2,5101,172.16.1.2,29606,10476,14480,0,65728,65700,6,6,4,1460,437,1,992,47,33580,0,65700,0,0,0,0,0
o,0x00000000,1716935163.708383,172.16.3.2,5101,172.16.1.2,29606,10476,14480,0,65728,65700,6,6,4,1460,437,1,993,47,33580,0,65700,1448,0,0,0,0
i,0x00000000,1716935163.717675,172.16.3.2,5101,172.16.1.2,29606,10476,14480,0,65728,65700,6,6,4,1460,437,1,992,47,33580,0,65700,0,0,0,0,0
i,0x00000000,1716935163.738401,172.16.3.2,5101,172.16.1.2,29606,10476,14480,0,65728,65700,6,6,4,1460,437,1,992,47,33580,0,65700,0,0,0,0,0
o,0x00000000,1716935163.738410,172.16.3.2,5101,172.16.1.2,29606,10476,14480,0,65728,65700,6,6,4,1460,437,1,993,47,33580,0,65700,1448,0,0,0,0
i,0x00000000,1716935163.748670,172.16.3.2,5101,172.16.1.2,29606,10476,14480,0,65728,65700,6,6,4,1460,437,1,992,47,33580,0,65700,0,0,0,0,0
i,0x00000000,1716935163.758269,172.16.3.2,5101,172.16.1.2,29606,10476,14480,0,65728,65700,6,6,4,1460,437,1,992,47,33580,0,65700,0,0,0,0,0
o,0x00000000,1716935163.758277,172.16.3.2,5101,172.16.1.2,29606,10476,14480,0,65728,65700,6,6,4,1460,437,1,993,47,33580,0,65700,1448,0,0,0,0
i,0x00000000,1716935163.768531,172.16.3.2,5101,172.16.1.2,29606,10476,14480,0,65728,65700,6,6,4,1460,437,1,992,47,33580,0,65700,0,0,0,0,0
i,0x00000000,1716935163.788002,172.16.3.2,5101,172.16.1.2,29606,10476,14480,0,65728,65700,6,6,4,1460,437,1,992,47,33580,0,65700,0,0,0,0,0
o,0x00000000,1716935163.788007,172.16.3.2,5101,172.16.1.2,29606,10476,14480,0,65728,65700,6,6,4,1460,437,1,993,47,33580,0,65700,1448,0,0,0,0
i,0x00000000,1716935163.799636,172.16.3.2,5101,172.16.1.2,29606,10476,14480,0,65728,65700,6,6,4,1460,437,1,992,47,33580,0,65700,0,0,0,0,0
i,0x00000000,1716935163.808184,172.16.3.2,5101,172.16.1.2,29606,10476,14480,0,65728,65700,6,6,4,1460,437,1,992,47,33580,0,65700,0,0,0,0,0
o,0x00000000,1716935163.808191,172.16.3.2,5101,172.16.1.2,29606,10476,14480,0,65728,65700,6,6,4,1460,437,1,993,47,33580,0,65700,1448,0,0,0,0
i,0x00000000,1716935163.817546,172.16.3.2,5101,172.16.1.2,29606,10476,14480,0,65728,65700,6,6,4,1460,437,1,992,47,33580,0,65700,0,0,0,0,0
i,0x00000000,1716935163.838058,172.16.3.2,5101,172.16.1.2,29606,10476,14480,0,65728,65700,6,6,4,1460,437,1,992,47,33580,0,65700,0,0,0,0,0
o,0x00000000,1716935163.838064,172.16.3.2,5101,172.16.1.2,29606,10476,14480,0,65728,65700,6,6,4,1460,437,1,993,47,33580,0,65700,1448,0,0,0,0
i,0x00000000,1716935163.848450,172.16.3.2,5101,172.16.1.2,29606,10476,14480,0,65728,65700,6,6,4,1460,437,1,992,47,33580,0,65700,0,0,0,0,0
i,0x00000000,1716935163.858672,172.16.3.2,5101,172.16.1.2,29606,10476,14480,0,65728,65700,6,6,4,1460,437,1,992,47,33580,0,65700,0,0,0,0,0
o,0x00000000,1716935163.858680,172.16.3.2,5101,172.16.1.2,29606,10476,14480,0,65728,65700,6,6,4,1460,437,1,993,47,33580,0,65700,1448,0,0,0,0
i,0x00000000,1716935163.868998,172.16.3.2,5101,172.16.1.2,29606,10476,14480,0,65728,65700,6,6,4,1460,437,1,992,47,33580,0,65700,0,0,0,0,0
i,0x00000000,1716935163.888259,172.16.3.2,5101,172.16.1.2,29606,10476,14480,0,65728,65700,6,6,4,1460,437,1,992,47,33580,0,65700,0,0,0,0,0
o,0x00000000,1716935163.888264,172.16.3.2,5101,172.16.1.2,29606,10476,14480,0,65728,65700,6,6,4,1460,437,1,993,47,33580,0,65700,1448,0,0,0,0
i,0x00000000,1716935163.898107,172.16.3.2,5101,172.16.1.2,29606,10476,14480,0,65728,65700,6,6,4,1460,437,1,992,47,33580,0,65700,0,0,0,0,0
i,0x00000000,1716935163.908399,172.16.3.2,5101,172.16.1.2,29606,10476,14480,0,65728,65700,6,6,4,1460,437,1,992,47,33580,0,65700,0,0,0,0,0
o,0x00000000,1716935163.908405,172.16.3.2,5101,172.16.1.2,29606,10476,14480,0,65728,65700,6,6,4,1460,437,1,993,47,33580,0,65700,1448,0,0,0,0
i,0x00000000,1716935163.918797,172.16.3.2,5101,172.16.1.2,29606,10476,14480,0,65728,65700,6,6,4,1460,437,1,992,47,33580,0,65700,0,0,0,0,0
o,0x00000000,1716935163.958589,172.16.3.2,5101,172.16.1.2,29606,10476,14480,0,65728,65700,6,6,4,1460,437,1,993,47,33580,0,65700,0,0,0,0,0
i,0x00000000,1716935163.969247,172.16.3.2,5101,172.16.1.2,29606,10476,14480,0,65728,65700,6,6,4,1460,437,1,992,47,33580,0,65700,0,0,0,0,0
i,0x00000000,1716935163.988665,172.16.3.2,5101,172.16.1.2,29606,10476,14480,0,65728,65700,6,6,4,1460,437,1,992,47,33580,0,65700,0,0,0,0,0
o,0x00000000,1716935163.988670,172.16.3.2,5101,172.16.1.2,29606,10476,14480,0,65728,65700,6,6,4,1460,437,1,993,47,33580,0,65700,1448,0,0,0,0
i,0x00000000,1716935164.018112,172.16.3.2,5101,172.16.1.2,29606,10476,14480,0,65728,65700,6,6,4,1460,437,1,992,47,33580,0,65700,0,0,0,0,0
o,0x00000000,1716935164.057920,172.16.3.2,5101,172.16.1.2,29606,10476,14480,0,65728,65700,6,6,4,1460,437,1,993,47,33580,0,65700,0,0,0,0,0
o,0x00000000,1716935164.137154,10.0.2.15,22,10.0.2.2,62180,1073725440,14600,0,65535,65700,0,0,4,1460,1,0,4,24,33580,108,65700,0,0,0,0,0
i,0x00000000,1716935164.137941,10.0.2.15,22,10.0.2.2,62180,1073725440,14600,0,65535,65700,0,0,4,1460,1,0,4,24,33580,108,65700,0,108,0,0,0
i,0x00000000,1716935164.408501,172.16.3.2,5101,172.16.1.2,29606,10476,14480,0,65728,65700,6,6,4,1460,437,1,992,47,33580,0,65700,0,0,0,0,0
i,0x00000000,1716935164.418864,172.16.3.2,5101,172.16.1.2,29606,10476,14480,0,65728,65700,6,6,4,1460,437,1,992,47,33580,0,65700,0,0,0,0,0
o,0x00000000,1716935164.418875,172.16.3.2,5101,172.16.1.2,29606,10476,14480,0,65728,65700,6,6,4,1460,437,1,993,47,33580,0,65700,1448,0,0,0,0
i,0x00000000,1716935164.459011,172.16.3.2,5101,172.16.1.2,29606,10476,14480,0,65728,65700,6,6,4,1460,437,1,992,47,33580,0,65700,0,0,0,0,0
i,0x00000000,1716935164.487469,172.16.3.2,5101,172.16.1.2,29606,10476,14480,0,65728,65700,6,6,4,1460,437,1,992,47,33580,0,65700,0,0,0,0,0
o,0x00000000,1716935164.487481,172.16.3.2,5101,172.16.1.2,29606,10476,14480,0,65728,65700,6,6,4,1460,437,1,993,47,33580,0,65700,1448,0,0,0,0
i,0x00000000,1716935164.498172,172.16.3.2,5101,172.16.1.2,29606,10476,14480,0,65728,65700,6,6,4,1460,437,1,992,47,33580,0,65700,0,0,0,0,0
o,0x00000000,1716935164.537455,172.16.3.2,5101,172.16.1.2,29606,10476,14480,0,65728,65700,6,6,4,1460,437,1,993,47,33580,0,65700,0,0,0,0,0
i,0x00000000,1716935164.537604,172.16.3.2,5101,172.16.1.2,29606,10476,14480,0,65728,65700,6,6,4,1460,437,1,992,47,33580,0,65700,0,0,0,0,0
i,0x00000000,1716935164.547838,172.16.3.2,5101,172.16.1.2,29606,10476,14480,0,65728,65700,6,6,4,1460,437,1,992,47,33580,0,65700,0,0,0,0,0
o,0x00000000,1716935164.547846,172.16.3.2,5101,172.16.1.2,29606,10476,14480,0,65728,65700,6,6,4,1460,437,1,993,47,33580,0,65700,1448,0,0,0,0
i,0x00000000,1716935164.577798,172.16.3.2,5101,172.16.1.2,29606,10476,14480,0,65728,65700,6,6,4,1460,437,1,992,47,33580,0,65700,0,0,0,0,0
i,0x00000000,1716935164.587791,172.16.3.2,5101,172.16.1.2,29606,10476,14480,0,65728,65700,6,6,4,1460,437,1,992,47,33580,0,65700,0,0,0,0,0
o,0x00000000,1716935164.587796,172.16.3.2,5101,172.16.1.2,29606,10476,14480,0,65728,65700,6,6,4,1460,437,1,993,47,33580,0,65700,1448,0,0,0,0
i,0x00000000,1716935164.598470,172.16.3.2,5101,172.16.1.2,29606,10476,14480,0,65728,65700,6,6,4,1460,437,1,992,47,33580,0,65700,0,0,0,0,0
i,0x00000000,1716935164.607793,172.16.3.2,5101,172.16.1.2,29606,10476,14480,0,65728,65700,6,6,4,1460,437,1,992,47,33580,0,65700,0,0,0,0,0
o,0x00000000,1716935164.607798,172.16.3.2,5101,172.16.1.2,29606,10476,14480,0,65728,65700,6,6,4,1460,437,1,993,47,33580,0,65700,1448,0,0,0,0
i,0x00000000,1716935164.628434,172.16.3.2,5101,172.16.1.2,29606,10476,14480,0,65728,65700,6,6,4,1460,437,1,992,47,33580,0,65700,0,0,0,0,0
i,0x00000000,1716935164.637838,172.16.3.2,5101,172.16.1.2,29606,10476,14480,0,65728,65700,6,6,4,1460,437,1,992,47,33580,0,65700,0,0,0,0,0
o,0x00000000,1716935164.637843,172.16.3.2,5101,172.16.1.2,29606,10476,14480,0,65728,65700,6,6,4,1460,437,1,993,47,33580,0,65700,1448,0,0,0,0
i,0x00000000,1716935164.648265,172.16.3.2,5101,172.16.1.2,29606,10476,14480,0,65728,65700,6,6,4,1460,437,1,992,47,33580,0,65700,0,0,0,0,0
o,0x00000000,1716935164.687495,172.16.3.2,5101,172.16.1.2,29606,10476,14480,0,65728,65700,6,6,4,1460,437,1,993,47,33580,0,65700,0,0,0,0,0
i,0x00000000,1716935164.687777,172.16.3.2,5101,172.16.1.2,29606,10476,14480,0,65728,65700,6,6,4,1460,437,1,992,47,33580,0,65700,0,0,0,0,0
i,0x00000000,1716935164.698085,172.16.3.2,5101,172.16.1.2,29606,10476,14480,0,65728,65700,6,6,4,1460,437,1,992,47,33580,0,65700,0,0,0,0,0
o,0x00000000,1716935164.698091,172.16.3.2,5101,172.16.1.2,29606,10476,14480,0,65728,65700,6,6,4,1460,437,1,993,47,33580,0,65700,1448,0,0,0,0
i,0x00000000,1716935164.708656,172.16.3.2,5101,172.16.1.2,29606,10476,14480,0,65728,65700,6,6,4,1460,437,1,992,47,33580,0,65700,0,0,0,0,0
i,0x00000000,1716935164.727734,172.16.3.2,5101,172.16.1.2,29606,10476,14480,0,65728,65700,6,6,4,1460,437,1,992,47,33580,0,65700,0,0,0,0,0
o,0x00000000,1716935164.727738,172.16.3.2,5101,172.16.1.2,29606,10476,14480,0,65728,65700,6,6,4,1460,437,1,993,47,33580,0,65700,1448,0,0,0,0
i,0x00000000,1716935164.738145,172.16.3.2,5101,172.16.1.2,29606,10476,14480,0,65728,65700,6,6,4,1460,437,1,992,47,33580,0,65700,0,0,0,0,0
i,0x00000000,1716935164.747343,172.16.3.2,5101,172.16.1.2,29606,10476,14480,0,65728,65700,6,6,4,1460,437,1,992,47,33580,0,65700,0,0,0,0,0
o,0x00000000,1716935164.747347,172.16.3.2,5101,172.16.1.2,29606,10476,14480,0,65728,65700,6,6,4,1460,437,1,993,47,33580,0,65700,1448,0,0,0,0
i,0x00000000,1716935164.758710,172.16.3.2,5101,172.16.1.2,29606,10476,14480,0,65728,65700,6,6,4,1460,437,1,992,47,33580,0,65700,0,0,0,0,0
i,0x00000000,1716935164.778506,172.16.3.2,5101,172.16.1.2,29606,10476,14480,0,65728,65700,6,6,4,1460,437,1,992,47,33580,0,65700,0,0,0,0,0
o,0x00000000,1716935164.778516,172.16.3.2,5101,172.16.1.2,29606,10476,14480,0,65728,65700,6,6,4,1460,437,1,993,47,33580,0,65700,1448,0,0,0,0
i,0x00000000,1716935164.789164,172.16.3.2,5101,172.16.1.2,29606,10476,14480,0,65728,65700,6,6,4,1460,437,1,992,47,33580,0,65700,0,0,0,0,0
i,0x00000000,1716935164.797246,172.16.3.2,5101,172.16.1.2,29606,10476,14480,0,65728,65700,6,6,4,1460,437,1,992,47,33580,0,65700,0,0,0,0,0
o,0x00000000,1716935164.797252,172.16.3.2,5101,172.16.1.2,29606,10476,14480,0,65728,65700,6,6,4,1460,437,1,993,47,33580,0,65700,1448,0,0,0,0
i,0x00000000,1716935164.807668,172.16.3.2,5101,172.16.1.2,29606,10476,14480,0,65728,65700,6,6,4,1460,437,1,992,47,33580,0,65700,0,0,0,0,0
i,0x00000000,1716935164.828261,172.16.3.2,5101,172.16.1.2,29606,10476,14480,0,65728,65700,6,6,4,1460,437,1,992,47,33580,0,65700,0,0,0,0,0
o,0x00000000,1716935164.828267,172.16.3.2,5101,172.16.1.2,29606,10476,14480,0,65728,65700,6,6,4,1460,437,1,993,47,33580,0,65700,1448,0,0,0,0
i,0x00000000,1716935164.838630,172.16.3.2,5101,172.16.1.2,29606,10476,14480,0,65728,65700,6,6,4,1460,437,1,992,47,33580,0,65700,0,0,0,0,0
i,0x00000000,1716935164.847913,172.16.3.2,5101,172.16.1.2,29606,10476,14480,0,65728,65700,6,6,4,1460,437,1,992,47,33580,0,65700,0,0,0,0,0
o,0x00000000,1716935164.847919,172.16.3.2,5101,172.16.1.2,29606,10476,14480,0,65728,65700,6,6,4,1460,437,1,993,47,33580,0,65700,1448,0,0,0,0
i,0x00000000,1716935164.858328,172.16.3.2,5101,172.16.1.2,29606,10476,14480,0,65728,65700,6,6,4,1460,437,1,992,47,33580,0,65700,0,0,0,0,0
i,0x00000000,1716935164.878004,172.16.3.2,5101,172.16.1.2,29606,10476,14480,0,65728,65700,6,6,4,1460,437,1,992,47,33580,0,65700,0,0,0,0,0
o,0x00000000,1716935164.878010,172.16.3.2,5101,172.16.1.2,29606,10476,14480,0,65728,65700,6,6,4,1460,437,1,993,47,33580,0,65700,1448,0,0,0,0
i,0x00000000,1716935164.888033,172.16.3.2,5101,172.16.1.2,29606,10476,14480,0,65728,65700,6,6,4,1460,437,1,992,47,33580,0,65700,0,0,0,0,0
i,0x00000000,1716935164.897774,172.16.3.2,5101,172.16.1.2,29606,10476,14480,0,65728,65700,6,6,4,1460,437,1,992,47,33580,0,65700,0,0,0,0,0
o,0x00000000,1716935164.897779,172.16.3.2,5101,172.16.1.2,29606,10476,14480,0,65728,65700,6,6,4,1460,437,1,993,47,33580,0,65700,1448,0,0,0,0
i,0x00000000,1716935164.908127,172.16.3.2,5101,172.16.1.2,29606,10476,14480,0,65728,65700,6,6,4,1460,437,1,992,47,33580,0,65700,0,0,0,0,0
i,0x00000000,1716935164.917822,172.16.3.2,5101,172.16.1.2,29606,10476,14480,0,65728,65700,6,6,4,1460,437,1,992,47,33580,0,65700,0,0,0,0,0
o,0x00000000,1716935164.917849,172.16.3.2,5101,172.16.1.2,29606,10476,14480,0,65728,65700,6,6,4,1460,437,1,993,47,33580,0,65700,1448,0,0,0,0
i,0x00000000,1716935164.938570,172.16.3.2,5101,172.16.1.2,29606,10476,14480,0,65728,65700,6,6,4,1460,437,1,992,47,33580,0,65700,0,0,0,0,0
i,0x00000000,1716935164.947799,172.16.3.2,5101,172.16.1.2,29606,10476,14480,0,65728,65700,6,6,4,1460,437,1,992,47,33580,0,65700,0,0,0,0,0
o,0x00000000,1716935164.947808,172.16.3.2,5101,172.16.1.2,29606,10476,14480,0,65728,65700,6,6,4,1460,437,1,993,47,33580,0,65700,1448,0,0,0,0
i,0x00000000,1716935164.957194,172.16.3.2,5101,172.16.1.2,29606,10476,14480,0,65728,65700,6,6,4,1460,437,1,992,47,33580,0,65700,0,0,0,0,0
i,0x00000000,1716935164.968326,172.16.3.2,5101,172.16.1.2,29606,10476,14480,0,65728,65700,6,6,4,1460,437,1,992,47,33580,0,65700,0,0,0,0,0
o,0x00000000,1716935164.968333,172.16.3.2,5101,172.16.1.2,29606,10476,14480,0,65728,65700,6,6,4,1460,437,1,993,47,33580,0,65700,1448,0,0,0,0
i,0x00000000,1716935164.988247,172.16.3.2,5101,172.16.1.2,29606,10476,14480,0,65728,65700,6,6,4,1460,437,1,992,47,33580,0,65700,0,0,0,0,0
