enable_time_secs=1716936788	enable_time_usecs=428383	siftrver=1.2.4	hz=100	tcp_rtt_scale=32	sysname=FreeBSD	sysver=1301000	ipmode=4
o,0x00000000,1716936788.428415,10.0.2.15,22,10.0.2.2,57580,1073725440,17298,0,65535,65700,0,0,4,1460,1,0,4,24,33580,44,65700,0,0,0,0,0
o,0x00000000,1716936788.428517,10.0.2.15,22,10.0.2.2,57580,1073725440,17298,0,65535,65700,0,0,4,1460,1,0,4,24,33580,80,65700,0,44,0,0,0
i,0x00000000,1716936788.429120,10.0.2.15,22,10.0.2.2,57580,1073725440,17298,0,65535,65700,0,0,4,1460,1,0,4,24,33580,80,65700,0,80,0,0,0
i,0x00000000,1716936788.429190,10.0.2.15,22,10.0.2.2,57580,1073725440,17342,0,65535,65700,0,0,4,1460,1,0,4,24,33580,36,65700,0,36,0,0,0
o,0x00000000,1716936788.429251,10.0.2.15,22,10.0.2.2,57580,1073725440,17378,0,65535,65700,0,0,4,1460,1,0,4,24,33580,36,65700,0,0,0,0,0
i,0x00000000,1716936788.429802,10.0.2.15,22,10.0.2.2,57580,1073725440,17378,0,65535,65700,0,0,4,1460,1,0,4,24,33580,36,65700,0,36,0,0,0
o,0x00000000,1716936788.429878,10.0.2.15,22,10.0.2.2,57580,1073725440,17414,0,65535,65700,0,0,4,1460,1,0,4,24,33580,36,65700,0,0,0,0,0
i,0x00000000,1716936788.430508,10.0.2.15,22,10.0.2.2,57580,1073725440,17414,0,65535,65700,0,0,4,1460,1,0,4,24,33580,36,65700,0,36,0,0,0
o,0x00000000,1716936788.430609,10.0.2.15,22,10.0.2.2,57580,1073725440,17450,0,65535,65700,0,0,4,1460,1,0,4,24,33580,140,65700,0,0,0,0,0
i,0x00000000,1716936788.431573,10.0.2.15,22,10.0.2.2,57580,1073725440,17450,0,65535,65700,0,0,4,1460,1,0,4,24,33580,140,65700,0,140,0,0,0
i,0x00000000,1716936788.431577,10.0.2.15,22,10.0.2.2,57580,1073725440,17590,0,65535,65700,0,0,4,1460,1,0,4,24,33580,0,65700,0,0,0,0,0
i,0x00000000,1716936788.431578,10.0.2.15,22,10.0.2.2,57580,1073725440,17590,0,65535,65700,0,0,4,1460,1,0,4,24,33580,0,65700,96,0,0,0,0
o,0x00000000,1716936788.431582,10.0.2.15,22,10.0.2.2,57580,1073725440,17590,0,65535,65604,0,0,5,1460,1,0,5,24,33580,0,65700,96,0,0,0,0
o,0x00000000,1716936788.432046,10.0.2.15,22,10.0.2.2,57580,1073725440,17590,0,65535,65604,0,0,8,1460,1,0,4,24,33580,0,65700,0,0,0,0,0
i,0x00000000,1716936788.433297,10.0.2.15,22,10.0.2.2,57580,1073725440,17590,0,65535,65604,0,0,8,1460,1,0,20,24,33580,0,65700,0,1,0,0,0
i,0x00000000,1716936790.532829,10.0.2.15,22,10.0.2.2,57582,1073725440,14600,0,65535,65700,0,0,4,1460,1,0,0,27,33580,0,65700,0,0,0,0,0
o,0x00000000,1716936790.539414,10.0.2.15,22,10.0.2.2,57582,1073725440,14600,0,65535,65700,0,0,4,1460,1,0,0,27,33580,38,65700,41,0,0,0,0
i,0x00000000,1716936790.540087,10.0.2.15,22,10.0.2.2,57582,1073725440,14600,0,65535,65700,0,0,4,1460,1,0,0,27,33580,38,65700,41,38,0,0,0
i,0x00000000,1716936790.540617,10.0.2.15,22,10.0.2.2,57582,1073725440,14638,0,65535,65700,0,0,4,1460,1,0,0,24,33580,0,65700,0,0,0,0,0
i,0x00000000,1716936790.540621,10.0.2.15,22,10.0.2.2,57582,1073725440,14638,0,65535,65700,0,0,4,1460,1,0,0,24,33580,0,65700,1460,0,0,0,0
o,0x00000000,1716936790.540625,10.0.2.15,22,10.0.2.2,57582,1073725440,14638,0,65535,65700,0,0,4,1460,1,0,1,24,33580,0,65700,1536,0,0,0,0
o,0x00000000,1716936790.541217,10.0.2.15,22,10.0.2.2,57582,1073725440,14638,0,65535,65700,0,0,4,1460,1,0,0,24,33580,1056,65700,1536,0,0,0,0
i,0x00000000,1716936790.541876,10.0.2.15,22,10.0.2.2,57582,1073725440,14638,0,65535,65700,0,0,4,1460,1,0,0,24,33580,1056,65700,1536,1056,0,0,0
i,0x00000000,1716936790.543503,10.0.2.15,22,10.0.2.2,57582,1073725440,15694,0,65535,65700,0,0,4,1460,1,0,0,24,33580,0,65700,0,0,0,0,0
o,0x00000000,1716936790.545903,10.0.2.15,22,10.0.2.2,57582,1073725440,15694,0,65535,65700,0,0,4,1460,1,0,0,24,33580,484,65700,0,0,0,0,0
i,0x00000000,1716936790.546782,10.0.2.15,22,10.0.2.2,57582,1073725440,15694,0,65535,65700,0,0,4,1460,1,0,0,24,33580,484,65700,0,484,0,0,0
i,0x00000000,1716936790.551025,10.0.2.15,22,10.0.2.2,57582,1073725440,16178,0,65535,65700,0,0,4,1460,1,0,0,24,33580,0,65700,0,0,0,0,0
i,0x00000000,1716936790.554376,10.0.2.15,22,10.0.2.2,57582,1073725440,16178,0,65535,65700,0,0,4,1460,1,0,0,24,33580,0,65700,0,0,0,0,0
o,0x00000000,1716936790.554380,10.0.2.15,22,10.0.2.2,57582,1073725440,16178,0,65535,65700,0,0,4,1460,1,0,1,24,33580,0,65700,44,0,0,0,0
o,0x00000000,1716936790.554517,10.0.2.15,22,10.0.2.2,57582,1073725440,16178,0,65535,65700,0,0,4,1460,1,0,0,24,33580,44,65700,0,0,0,0,0
i,0x00000000,1716936790.555160,10.0.2.15,22,10.0.2.2,57582,1073725440,16178,0,65535,65700,0,0,4,1460,1,0,0,24,33580,44,65700,0,44,0,0,0
i,0x00000000,1716936790.555782,10.0.2.15,22,10.0.2.2,57582,1073725440,16222,0,65535,65700,0,0,4,1460,1,0,0,24,33580,0,65700,0,0,0,0,0
o,0x00000000,1716936790.565339,10.0.2.15,22,10.0.2.2,57582,1073725440,16222,0,65535,65700,0,0,4,1460,1,0,0,24,33580,68,65700,0,0,0,0,0
i,0x00000000,1716936790.565965,10.0.2.15,22,10.0.2.2,57582,1073725440,16222,0,65535,65700,0,0,4,1460,1,0,0,24,33580,68,65700,0,68,0,0,0
i,0x00000000,1716936790.568566,10.0.2.15,22,10.0.2.2,57582,1073725440,16290,0,65535,65700,0,0,4,1460,1,0,0,24,33580,0,65700,0,0,0,0,0
o,0x00000000,1716936790.577772,10.0.2.15,22,10.0.2.2,57582,1073725440,16290,0,65535,65700,0,0,4,1460,1,0,0,24,33580,28,65700,0,0,0,0,0
i,0x00000000,1716936790.578416,10.0.2.15,22,10.0.2.2,57582,1073725440,16290,0,65535,65700,0,0,4,1460,1,0,0,24,33580,28,65700,0,28,0,0,0
i,0x00000000,1716936790.579071,10.0.2.15,22,10.0.2.2,57582,1073725440,16318,0,65535,65700,0,0,4,1460,1,0,0,24,33580,0,65700,0,0,0,0,0
o,0x00000000,1716936790.579604,10.0.2.15,22,10.0.2.2,57582,1073725440,16318,0,65535,65700,0,0,4,1460,1,0,0,24,33580,768,65700,112,0,0,0,0
i,0x00000000,1716936790.580258,10.0.2.15,22,10.0.2.2,57582,1073725440,16318,0,65535,65700,0,0,4,1460,1,0,0,24,33580,768,65700,112,768,0,0,0
o,0x00000000,1716936790.580354,10.0.2.15,22,10.0.2.2,57582,1073725440,17086,0,65535,65700,0,0,4,1460,1,0,0,24,33580,44,65700,0,0,0,0,0
i,0x00000000,1716936790.580882,10.0.2.15,22,10.0.2.2,57582,1073725440,17086,0,65535,65700,0,0,4,1460,1,0,0,24,33580,44,65700,0,44,0,0,0
i,0x00000000,1716936790.581692,10.0.2.15,22,10.0.2.2,57582,1073725440,17130,0,65535,65700,0,0,4,1460,1,0,0,24,33580,0,65700,0,0,0,0,0
o,0x00000000,1716936790.582064,10.0.2.15,22,10.0.2.2,57582,1073725440,17130,0,65535,65700,0,0,4,1460,1,0,4,24,33580,72,65700,0,0,0,0,0
i,0x00000000,1716936790.582915,10.0.2.15,22,10.0.2.2,57582,1073725440,17130,0,65535,65700,0,0,4,1460,1,0,4,24,33580,72,65700,0,72,0,0,0
o,0x00000000,1716936790.585098,10.0.2.15,22,10.0.2.2,57582,1073725440,17202,0,65535,65700,0,0,4,1460,1,0,4,24,33580,44,65700,0,0,0,0,0
i,0x00000000,1716936790.585591,10.0.2.15,22,10.0.2.2,57582,1073725440,17202,0,65535,65700,0,0,4,1460,1,0,4,24,33580,44,65700,0,44,0,0,0
o,0x00000000,1716936790.585901,10.0.2.15,22,10.0.2.2,57582,1073725440,17246,0,65535,65700,0,0,4,1460,1,0,4,24,33580,44,65700,0,0,0,0,0
i,0x00000000,1716936790.586323,10.0.2.15,22,10.0.2.2,57582,1073725440,17246,0,65535,65700,0,0,4,1460,1,0,4,24,33580,44,65700,0,44,0,0,0
o,0x00000000,1716936790.590435,10.0.2.15,22,10.0.2.2,57582,1073725440,17290,0,65535,65700,0,0,4,1460,1,0,4,24,33580,176,65700,0,0,0,0,0
i,0x00000000,1716936790.591249,10.0.2.15,22,10.0.2.2,57582,1073725440,17290,0,65535,65700,0,0,4,1460,1,0,4,24,33580,176,65700,0,176,0,0,0
i,0x00000000,1716936790.591797,10.0.2.15,22,10.0.2.2,57582,1073725440,17466,0,65535,65700,0,0,4,1460,1,0,4,24,33580,0,65700,0,0,0,0,0
i,0x00000000,1716936790.591800,10.0.2.15,22,10.0.2.2,57582,1073725440,17466,0,65535,65700,0,0,4,1460,1,0,4,24,33580,0,65700,36,0,0,0,0
o,0x00000000,1716936790.591803,10.0.2.15,22,10.0.2.2,57582,1073725440,17466,0,65535,65700,0,0,4,1460,1,0,5,24,33580,0,65700,96,0,0,0,0
i,0x00000000,1716936790.591880,10.0.2.15,22,10.0.2.2,57582,1073725440,17466,0,65535,65700,0,0,4,1460,1,0,4,24,33580,0,65700,96,0,0,0,0
o,0x00000000,1716936790.591884,10.0.2.15,22,10.0.2.2,57582,1073725440,17466,0,65535,65604,0,0,5,1460,1,0,7,24,33580,0,65700,96,0,0,0,0
o,0x00000000,1716936790.598722,10.0.2.15,22,10.0.2.2,57582,1073725440,17466,0,65535,65604,0,0,8,1460,1,0,4,24,33580,0,65700,0,0,0,0,0
i,0x00000000,1716936790.599364,10.0.2.15,22,10.0.2.2,57582,1073725440,17466,0,65535,65604,0,0,8,1460,1,0,20,24,33580,0,65700,0,1,0,0,0
i,0x00000000,1716936790.838989,172.16.3.2,5101,172.16.1.2,34673,10499,14480,0,65728,65700,6,6,4,1460,405,1,992,39,33580,0,65700,0,0,0,0,0
o,0x00000000,1716936790.839106,172.16.3.2,5101,172.16.1.2,34673,10499,14480,0,65728,65700,6,6,4,1460,405,1,996,39,33580,1,65700,0,0,0,0,0
i,0x00000000,1716936790.958779,172.16.3.2,5101,172.16.1.2,34673,10499,14480,0,65728,65700,6,6,4,1460,405,1,996,39,33580,1,65700,0,1,0,0,0
i,0x00000000,1716936790.958796,172.16.3.2,5101,172.16.1.2,34673,10499,14480,0,65728,65728,6,6,4,1460,403,1,996,38,33580,0,65700,4,0,0,0,0
o,0x00000000,1716936790.958803,172.16.3.2,5101,172.16.1.2,34673,10499,14480,0,65728,65728,6,6,4,1460,403,1,997,38,33580,0,65700,128,0,0,0,0
o,0x00000000,1716936790.958977,172.16.3.2,5101,172.16.1.2,34673,10499,14480,0,65728,65728,6,6,4,1460,403,1,996,38,33580,1,65700,0,0,0,0,0
o,0x00000000,1716936790.959466,10.0.2.15,22,10.0.2.2,62180,1073725440,14600,0,65535,65700,0,0,4,1460,1,0,4,24,33580,84,65700,0,0,0,0,0
i,0x00000000,1716936790.960382,10.0.2.15,22,10.0.2.2,62180,1073725440,14600,0,65535,65700,0,0,4,1460,1,0,4,24,33580,84,65700,0,84,0,0,0
i,0x00000000,1716936791.107883,172.16.3.2,5101,172.16.1.2,34673,10499,14480,0,65728,65728,6,6,4,1460,403,1,996,38,33580,1,65700,0,1,0,0,0
i,0x00000000,1716936791.199278,172.16.3.2,5101,172.16.1.2,45509,10499,14480,0,65728,65700,6,6,4,1460,405,1,992,39,33580,0,65700,0,0,0,0,0
o,0x00000000,1716936791.201193,172.16.3.2,5101,172.16.1.2,34673,10499,14480,0,65728,65728,6,6,4,1460,409,1,996,38,33580,1,65700,0,0,0,0,0
o,0x00000000,1716936791.201541,172.16.3.2,5101,172.16.1.2,34673,10499,14480,0,65728,65728,6,6,4,1460,409,1,996,38,33580,2,65700,0,1,0,0,0
o,0x00000000,1716936791.201680,10.0.2.15,22,10.0.2.2,62180,1073725440,14600,0,65535,65700,0,0,4,1460,1,0,4,24,33580,108,65700,0,0,0,0,0
i,0x00000000,1716936791.202344,10.0.2.15,22,10.0.2.2,62180,1073725440,14600,0,65535,65700,0,0,4,1460,1,0,4,24,33580,108,65700,0,108,0,0,0
o,0x00000000,1716936791.238295,172.16.3.2,5101,172.16.1.2,45509,10499,14480,0,65728,65700,6,6,4,1460,405,1,993,39,33580,0,65700,0,0,0,0,0
i,0x00000000,1716936791.318410,172.16.3.2,5101,172.16.1.2,34673,10499,14480,0,65728,65728,6,6,4,1460,409,1,996,38,33580,2,65700,0,2,0,0,0
i,0x00000000,1716936791.408772,172.16.3.2,5101,172.16.1.2,45509,10499,14480,0,65728,65700,6,6,4,1460,405,1,992,39,33580,0,65700,0,0,0,0,0
i,0x00000000,1716936791.418945,172.16.3.2,5101,172.16.1.2,45509,10499,14480,0,65728,65700,6,6,4,1460,405,1,992,39,33580,0,65700,0,0,0,0,0
o,0x00000000,1716936791.418954,172.16.3.2,5101,172.16.1.2,45509,10499,14480,0,65728,65700,6,6,4,1460,405,1,993,39,33580,0,65700,1448,0,0,0,0
i,0x00000000,1716936791.429031,172.16.3.2,5101,172.16.1.2,45509,10499,14480,0,65728,65700,6,6,4,1460,405,1,992,39,33580,0,65700,0,0,0,0,0
i,0x00000000,1716936791.437844,172.16.3.2,5101,172.16.1.2,45509,10499,14480,0,65728,65700,6,6,4,1460,405,1,992,39,33580,0,65700,0,0,0,0,0
o,0x00000000,1716936791.437851,172.16.3.2,5101,172.16.1.2,45509,10499,14480,0,65728,65700,6,6,4,1460,405,1,993,39,33580,0,65700,1448,0,0,0,0
i,0x00000000,1716936791.448631,172.16.3.2,5101,172.16.1.2,45509,10499,14480,0,65728,65700,6,6,4,1460,405,1,992,39,33580,0,65700,0,0,0,0,0
i,0x00000000,1716936791.468411,172.16.3.2,5101,172.16.1.2,45509,10499,14480,0,65728,65700,6,6,4,1460,405,1,992,39,33580,0,65700,0,0,0,0,0
o,0x00000000,1716936791.468417,172.16.3.2,5101,172.16.1.2,45509,10499,14480,0,65728,65700,6,6,4,1460,405,1,993,39,33580,0,65700,1448,0,0,0,0
i,0x00000000,1716936791.479083,172.16.3.2,5101,172.16.1.2,45509,10499,14480,0,65728,65700,6,6,4,1460,405,1,992,39,33580,0,65700,0,0,0,0,0
i,0x00000000,1716936791.489091,172.16.3.2,5101,172.16.1.2,45509,10499,14480,0,65728,65700,6,6,4,1460,405,1,992,39,33580,0,65700,0,0,0,0,0
o,0x00000000,1716936791.489096,172.16.3.2,5101,172.16.1.2,45509,10499,14480,0,65728,65700,6,6,4,1460,405,1,993,39,33580,0,65700,1448,0,0,0,0
i,0x00000000,1716936791.497623,172.16.3.2,5101,172.16.1.2,45509,10499,14480,0,65728,65700,6,6,4,1460,405,1,992,39,33580,0,65700,0,0,0,0,0
o,0x00000000,1716936791.537695,172.16.3.2,5101,172.16.1.2,45509,10499,14480,0,65728,65700,6,6,4,1460,405,1,993,39,33580,0,65700,0,0,0,0,0
i,0x00000000,1716936791.608435,172.16.3.2,5101,172.16.1.2,45509,10499,14480,0,65728,65700,6,6,4,1460,405,1,992,39,33580,0,65700,0,0,0,0,0
o,0x00000000,1716936791.608444,172.16.3.2,5101,172.16.1.2,45509,10499,14480,0,65728,65728,6,6,4,1460,405,1,993,39,33580,0,65700,0,0,1,0,0
i,0x00000000,1716936791.628313,172.16.3.2,5101,172.16.1.2,45509,10499,14480,0,65728,65728,6,6,4,1460,405,1,992,39,33580,0,65700,0,0,1,0,0
o,0x00000000,1716936791.628327,172.16.3.2,5101,172.16.1.2,45509,10499,14480,0,65728,65728,6,6,4,1460,405,1,993,39,33580,0,65700,0,0,1,0,0
i,0x00000000,1716936791.648944,172.16.3.2,5101,172.16.1.2,45509,10499,14480,0,65728,65728,6,6,4,1460,405,1,992,39,33580,0,65700,0,0,1,0,0
o,0x00000000,1716936791.648952,172.16.3.2,5101,172.16.1.2,45509,10499,14480,0,65728,65728,6,6,4,1460,405,1,993,39,33580,0,65700,0,0,1,0,0
i,0x00000000,1716936791.658403,172.16.3.2,5101,172.16.1.2,45509,10499,14480,0,65728,65728,6,6,4,1460,405,1,992,39,33580,0,65700,0,0,1,0,0
o,0x00000000,1716936791.658408,172.16.3.2,5101,172.16.1.2,45509,10499,14480,0,65728,65728,6,6,4,1460,405,1,993,39,33580,0,65700,0,0,1,0,0
i,0x00000000,1716936791.679048,172.16.3.2,5101,172.16.1.2,45509,10499,14480,0,65728,65728,6,6,4,1460,405,1,992,39,33580,0,65700,0,0,1,0,0
o,0x00000000,1716936791.679054,172.16.3.2,5101,172.16.1.2,45509,10499,14480,0,65728,65728,6,6,4,1460,405,1,993,39,33580,0,65700,0,0,1,0,0
i,0x00000000,1716936791.709084,172.16.3.2,5101,172.16.1.2,45509,10499,14480,0,65728,65728,6,6,4,1460,405,1,992,39,33580,0,65700,0,0,1,0,0
o,0x00000000,1716936791.709097,172.16.3.2,5101,172.16.1.2,45509,10499,14480,0,65728,65728,6,6,4,1460,405,1,993,39,33580,0,65700,0,0,1,0,0
i,0x00000000,1716936791.728552,172.16.3.2,5101,172.16.1.2,45509,10499,14480,0,65728,65728,6,6,4,1460,405,1,992,39,33580,0,65700,0,0,1,0,0
o,0x00000000,1716936791.728560,172.16.3.2,5101,172.16.1.2,45509,10499,14480,0,65728,65728,6,6,4,1460,405,1,993,39,33580,0,65700,0,0,1,0,0
i,0x00000000,1716936791.748164,172.16.3.2,5101,172.16.1.2,45509,10499,14480,0,65728,65728,6,6,4,1460,405,1,992,39,33580,0,65700,0,0,1,0,0
o,0x00000000,1716936791.748169,172.16.3.2,5101,172.16.1.2,45509,10499,14480,0,65728,65728,6,6,4,1460,405,1,993,39,33580,0,65700,0,0,2,0,0
i,0x00000000,1716936791.778205,172.16.3.2,5101,172.16.1.2,45509,10499,14480,0,65728,65728,6,6,4,1460,405,1,992,39,33580,0,65700,0,0,2,0,0
o,0x00000000,1716936791.778210,172.16.3.2,5101,172.16.1.2,45509,10499,14480,0,65728,65728,6,6,4,1460,405,1,993,39,33580,0,65700,0,0,2,0,0
i,0x00000000,1716936791.798910,172.16.3.2,5101,172.16.1.2,45509,10499,14480,0,65728,65728,6,6,4,1460,405,1,992,39,33580,0,65700,0,0,2,0,0
o,0x00000000,1716936791.798914,172.16.3.2,5101,172.16.1.2,45509,10499,14480,0,65728,65728,6,6,4,1460,405,1,993,39,33580,0,65700,0,0,2,0,0
i,0x00000000,1716936791.838578,172.16.3.2,5101,172.16.1.2,45509,10499,14480,0,65728,65728,6,6,4,1460,405,1,992,39,33580,0,65700,0,0,2,0,0
o,0x00000000,1716936791.838589,172.16.3.2,5101,172.16.1.2,45509,10499,14480,0,65728,65728,6,6,4,1460,405,1,993,39,33580,0,65700,0,0,3,0,0
i,0x00000000,1716936791.849024,172.16.3.2,5101,172.16.1.2,45509,10499,14480,0,65728,65728,6,6,4,1460,405,1,992,39,33580,0,65700,0,0,3,0,0
o,0x00000000,1716936791.849029,172.16.3.2,5101,172.16.1.2,45509,10499,14480,0,65728,65728,6,6,4,1460,405,1,993,39,33580,0,65700,0,0,3,0,0
i,0x00000000,1716936791.898755,172.16.3.2,5101,172.16.1.2,45509,10499,14480,0,65728,65728,6,6,4,1460,405,1,992,39,33580,0,65700,0,0,3,0,0
o,0x00000000,1716936791.898766,172.16.3.2,5101,172.16.1.2,45509,10499,14480,0,65728,65728,6,6,4,1460,405,1,993,39,33580,0,65700,0,0,3,0,0
i,0x00000000,1716936791.908075,172.16.3.2,5101,172.16.1.2,45509,10499,14480,0,65728,65728,6,6,4,1460,405,1,992,39,33580,0,65700,0,0,3,0,0
o,0x00000000,1716936791.908080,172.16.3.2,5101,172.16.1.2,45509,10499,14480,0,65728,65728,6,6,4,1460,405,1,993,39,33580,0,65700,0,0,3,0,0
i,0x00000000,1716936791.927873,172.16.3.2,5101,172.16.1.2,45509,10499,14480,0,65728,65728,6,6,4,1460,405,1,992,39,33580,0,65700,0,0,3,0,0
o,0x00000000,1716936791.927879,172.16.3.2,5101,172.16.1.2,45509,10499,14480,0,65728,65728,6,6,4,1460,405,1,993,39,33580,0,65700,0,0,3,0,0
i,0x00000000,1716936791.938242,172.16.3.2,5101,172.16.1.2,45509,10499,14480,0,65728,65728,6,6,4,1460,405,1,992,39,33580,0,65700,0,0,3,0,0
o,0x00000000,1716936791.938247,172.16.3.2,5101,172.16.1.2,45509,10499,14480,0,65728,65728,6,6,4,1460,405,1,993,39,33580,0,65700,0,0,2,0,0
i,0x00000000,1716936791.978245,172.16.3.2,5101,172.16.1.2,45509,10499,14480,0,65728,65728,6,6,4,1460,405,1,992,39,33580,0,65700,0,0,2,0,0
o,0x00000000,1716936791.978251,172.16.3.2,5101,172.16.1.2,45509,10499,14480,0,65728,65728,6,6,4,1460,405,1,993,39,33580,0,65700,0,0,1,0,0
i,0x00000000,1716936791.988625,172.16.3.2,5101,172.16.1.2,45509,10499,14480,0,65728,65728,6,6,4,1460,405,1,992,39,33580,0,65700,0,0,1,0,0
o,0x00000000,1716936791.988630,172.16.3.2,5101,172.16.1.2,45509,10499,14480,0,65728,65728,6,6,4,1460,405,1,993,39,33580,0,65700,0,0,1,0,0
i,0x00000000,1716936792.047748,172.16.3.2,5101,172.16.1.2,45509,10499,14480,0,65728,65728,6,6,4,1460,405,1,992,39,33580,0,65700,0,0,1,0,0
o,0x00000000,1716936792.047764,172.16.3.2,5101,172.16.1.2,45509,10499,14480,0,65728,65728,6,6,4,1460,405,1,993,39,33580,0,65700,0,0,1,0,0
i,0x00000000,1716936792.068387,172.16.3.2,5101,172.16.1.2,45509,10499,14480,0,65728,65728,6,6,4,1460,405,1,992,39,33580,0,65700,0,0,1,0,0
o,0x00000000,1716936792.068402,172.16.3.2,5101,172.16.1.2,45509,10499,14480,0,65728,65728,6,6,4,1460,405,1,993,39,33580,0,65700,0,0,1,0,0
i,0x00000000,1716936792.077662,172.16.3.2,5101,172.16.1.2,45509,10499,14480,0,65728,65728,6,6,4,1460,405,1,992,39,33580,0,65700,0,0,1,0,0
o,0x00000000,1716936792.077673,172.16.3.2,5101,172.16.1.2,45509,10499,14480,0,65728,65728,6,6,4,1460,405,1,993,39,33580,0,65700,0,0,1,0,0
i,0x00000000,1716936792.088647,172.16.3.2,5101,172.16.1.2,45509,10499,14480,0,65728,65728,6,6,4,1460,405,1,992,39,33580,0,65700,0,0,1,0,0
o,0x00000000,1716936792.088656,172.16.3.2,5101,172.16.1.2,45509,10499,14480,0,65728,65728,6,6,4,1460,405,1,993,39,33580,0,65700,0,0,1,0,0
i,0x00000000,1716936792.127735,172.16.3.2,5101,172.16.1.2,45509,10499,14480,0,65728,65728,6,6,4,1460,405,1,992,39,33580,0,65700,0,0,1,0,0
o,0x00000000,1716936792.127749,172.16.3.2,5101,172.16.1.2,45509,10499,14480,0,65728,65728,6,6,4,1460,405,1,993,39,33580,0,65700,0,0,1,0,0
i,0x00000000,1716936792.158643,172.16.3.2,5101,172.16.1.2,45509,10499,14480,0,65728,65728,6,6,4,1460,405,1,992,39,33580,0,65700,0,0,1,0,0
o,0x00000000,1716936792.158649,172.16.3.2,5101,172.16.1.2,45509,10499,14480,0,65728,65728,6,6,4,1460,405,1,993,39,33580,0,65700,0,0,1,0,0
i,0x00000000,1716936792.207769,172.16.3.2,5101,172.16.1.2,45509,10499,14480,0,65728,65728,6,6,4,1460,405,1,992,39,33580,0,65700,0,0,1,0,0
o,0x00000000,1716936792.207781,172.16.3.2,5101,172.16.1.2,45509,10499,14480,0,65728,65728,6,6,4,1460,405,1,993,39,33580,0,65700,0,0,1,0,0
o,0x00000000,1716936792.217571,10.0.2.15,22,10.0.2.2,62180,1073725440,14600,0,65535,65700,0,0,4,1460,1,0,4,24,33580,156,65700,0,0,0,0,0
i,0x00000000,1716936792.218393,10.0.2.15,22,10.0.2.2,62180,1073725440,14600,0,65535,65700,0,0,4,1460,1,0,4,24,33580,156,65700,0,156,0,0,0
i,0x00000000,1716936792.238953,172.16.3.2,5101,172.16.1.2,45509,10499,14480,0,65728,65728,6,6,4,1460,405,1,992,39,33580,0,65700,0,0,1,0,0
o,0x00000000,1716936792.238999,172.16.3.2,5101,172.16.1.2,45509,10499,14480,0,65728,65728,6,6,4,1460,405,1,993,39,33580,0,65700,0,0,1,0,0
i,0x00000000,1716936792.257883,172.16.3.2,5101,172.16.1.2,45509,10499,14480,0,65728,65728,6,6,4,1460,405,1,992,39,33580,0,65700,0,0,1,0,0
o,0x00000000,1716936792.257892,172.16.3.2,5101,172.16.1.2,45509,10499,14480,0,65728,65728,6,6,4,1460,405,1,993,39,33580,0,65700,0,0,1,0,0
i,0x00000000,1716936792.288102,172.16.3.2,5101,172.16.1.2,45509,10499,14480,0,65728,65728,6,6,4,1460,405,1,992,39,33580,0,65700,0,0,1,0,0
o,0x00000000,1716936792.288108,172.16.3.2,5101,172.16.1.2,45509,10499,14480,0,65728,65728,6,6,4,1460,405,1,993,39,33580,0,65700,0,0,1,0,0
i,0x00000000,1716936792.308561,172.16.3.2,5101,172.16.1.2,45509,10499,14480,0,65728,65728,6,6,4,1460,405,1,992,39,33580,0,65700,0,0,1,0,0
o,0x00000000,1716936792.308566,172.16.3.2,5101,172.16.1.2,45509,10499,14480,0,65728,65728,6,6,4,1460,405,1,993,39,33580,0,65700,0,0,1,0,0
i,0x00000000,1716936792.328571,172.16.3.2,5101,172.16.1.2,45509,10499,14480,0,65728,65728,6,6,4,1460,405,1,992,39,33580,0,65700,0,0,1,0,0
o,0x00000000,1716936792.328576,172.16.3.2,5101,172.16.1.2,45509,10499,14480,0,65728,65728,6,6,4,1460,405,1,993,39,33580,0,65700,0,0,1,0,0
i,0x00000000,1716936792.358529,172.16.3.2,5101,172.16.1.2,45509,10499,14480,0,65728,65728,6,6,4,1460,405,1,992,39,33580,0,65700,0,0,1,0,0
o,0x00000000,1716936792.358535,172.16.3.2,5101,172.16.1.2,45509,10499,14480,0,65728,65728,6,6,4,1460,405,1,993,39,33580,0,65700,0,0,1,0,0
i,0x00000000,1716936792.399004,172.16.3.2,5101,172.16.1.2,45509,10499,14480,0,65728,65728,6,6,4,1460,405,1,992,39,33580,0,65700,0,0,1,0,0
o,0x00000000,1716936792.399010,172.16.3.2,5101,172.16.1.2,45509,10499,14480,0,65728,65728,6,6,4,1460,405,1,993,39,33580,0,65700,0,0,1,0,0
i,0x00000000,1716936792.588409,172.16.3.2,5101,172.16.1.2,45509,10499,14480,0,65728,65728,6,6,4,1460,405,1,992,39,33580,0,65700,0,0,1,0,0
o,0x00000000,1716936792.588439,172.16.3.2,5101,172.16.1.2,45509,10499,14480,0,65728,65728,6,6,4,1460,405,1,993,39,33580,0,65700,47784,0,0,0,0
o,0x00000000,1716936792.589137,172.16.3.2,5101,172.16.1.2,45509,10499,14480,0,65728,65728,6,6,4,1460,405,1,992,39,33580,0,65700,0,0,0,0,0
i,0x00000000,1716936792.708360,172.16.3.2,5101,172.16.1.2,45509,10499,14480,0,65728,65728,6,6,4,1460,405,1,992,39,33580,0,65700,0,0,0,0,0
o,0x00000000,1716936792.708435,172.16.3.2,5101,172.16.1.2,45509,10499,14480,0,65728,65728,6,6,4,1460,405,1,993,39,33580,0,65700,0,0,0,0,0
i,0x00000000,1716936792.717901,172.16.3.2,5101,172.16.1.2,45509,10499,14480,0,65728,65728,6,6,4,1460,405,1,992,39,33580,0,65700,0,0,0,0,0
o,0x00000000,1716936792.757900,172.16.3.2,5101,172.16.1.2,45509,10499,14480,0,65728,65728,6,6,4,1460,405,1,993,39,33580,0,65700,0,0,0,0,0
i,0x00000000,1716936792.828564,172.16.3.2,5101,172.16.1.2,45509,10499,14480,0,65728,65728,6,6,4,1460,405,1,992,39,33580,0,65700,0,0,0,0,0
o,0x00000000,1716936792.867577,172.16.3.2,5101,172.16.1.2,45509,10499,14480,0,65728,65728,6,6,4,1460,405,1,993,39,33580,0,65700,0,0,0,0,0
i,0x00000000,1716936792.897992,172.16.3.2,5101,172.16.1.2,45509,10499,14480,0,65728,65728,6,6,4,1460,405,1,992,39,33580,0,65700,0,0,0,0,0
i,0x00000000,1716936792.908508,172.16.3.2,5101,172.16.1.2,45509,10499,14480,0,65728,65728,6,6,4,1460,405,1,992,39,33580,0,65700,0,0,0,0,0
o,0x00000000,1716936792.908515,172.16.3.2,5101,172.16.1.2,45509,10499,14480,0,65728,65728,6,6,4,1460,405,1,993,39,33580,0,65700,1448,0,0,0,0
i,0x00000000,1716936793.047675,172.16.3.2,5101,172.16.1.2,45509,10499,14480,0,65728,65728,6,6,4,1460,405,1,992,39,33580,0,65700,0,0,0,0,0
i,0x00000000,1716936793.057908,172.16.3.2,5101,172.16.1.2,45509,10499,14480,0,65728,65728,6,6,4,1460,405,1,992,39,33580,0,65700,0,0,0,0,0
o,0x00000000,1716936793.057918,172.16.3.2,5101,172.16.1.2,45509,10499,14480,0,65728,65728,6,6,4,1460,405,1,993,39,33580,0,65700,1448,0,0,0,0
i,0x00000000,1716936793.068388,172.16.3.2,5101,172.16.1.2,45509,10499,14480,0,65728,65728,6,6,4,1460,405,1,992,39,33580,0,65700,0,0,0,0,0
i,0x00000000,1716936793.087581,172.16.3.2,5101,172.16.1.2,45509,10499,14480,0,65728,65728,6,6,4,1460,405,1,992,39,33580,0,65700,0,0,0,0,0
o,0x00000000,1716936793.087586,172.16.3.2,5101,172.16.1.2,45509,10499,14480,0,65728,65728,6,6,4,1460,405,1,993,39,33580,0,65700,1448,0,0,0,0
i,0x00000000,1716936793.098031,172.16.3.2,5101,172.16.1.2,45509,10499,14480,0,65728,65728,6,6,4,1460,405,1,992,39,33580,0,65700,0,0,0,0,0
i,0x00000000,1716936793.108353,172.16.3.2,5101,172.16.1.2,45509,10499,14480,0,65728,65728,6,6,4,1460,405,1,992,39,33580,0,65700,0,0,0,0,0
o,0x00000000,1716936793.108360,172.16.3.2,5101,172.16.1.2,45509,10499,14480,0,65728,65728,6,6,4,1460,405,1,993,39,33580,0,65700,1448,0,0,0,0
o,0x00000000,1716936793.217876,10.0.2.15,22,10.0.2.2,62180,1073725440,14600,0,65535,65700,0,0,4,1460,1,0,4,24,33580,108,65700,0,0,0,0,0
i,0x00000000,1716936793.218693,10.0.2.15,22,10.0.2.2,62180,1073725440,14600,0,65535,65700,0,0,4,1460,1,0,4,24,33580,108,65700,0,108,0,0,0
i,0x00000000,1716936793.237899,172.16.3.2,5101,172.16.1.2,45509,10499,14480,0,65728,65728,6,6,4,1460,405,1,992,39,33580,0,65700,0,0,0,0,0
i,0x00000000,1716936793.257676,172.16.3.2,5101,172.16.1.2,45509,10499,14480,0,65728,65728,6,6,4,1460,405,1,992,39,33580,0,65700,0,0,0,0,0
o,0x00000000,1716936793.257688,172.16.3.2,5101,172.16.1.2,45509,10499,14480,0,65728,65728,6,6,4,1460,405,1,993,39,33580,0,65700,1448,0,0,0,0
i,0x00000000,1716936793.267970,172.16.3.2,5101,172.16.1.2,45509,10499,14480,0,65728,65728,6,6,4,1460,405,1,992,39,33580,0,65700,0,0,0,0,0
o,0x00000000,1716936793.308025,172.16.3.2,5101,172.16.1.2,45509,10499,14480,0,65728,65728,6,6,4,1460,405,1,993,39,33580,0,65700,0,0,0,0,0
i,0x00000000,1716936793.317700,172.16.3.2,5101,172.16.1.2,45509,10499,14480,0,65728,65728,6,6,4,1460,405,1,992,39,33580,0,65700,0,0,0,0,0
i,0x00000000,1716936793.327159,172.16.3.2,5101,172.16.1.2,45509,10499,14480,0,65728,65728,6,6,4,1460,405,1,992,39,33580,0,65700,0,0,0,0,0
o,0x00000000,1716936793.327171,172.16.3.2,5101,172.16.1.2,45509,10499,14480,0,65728,65728,6,6,4,1460,405,1,993,39,33580,0,65700,1448,0,0,0,0
i,0x00000000,1716936793.337601,172.16.3.2,5101,172.16.1.2,45509,10499,14480,0,65728,65728,6,6,4,1460,405,1,992,39,33580,0,65700,0,0,0,0,0
i,0x00000000,1716936793.347938,172.16.3.2,5101,172.16.1.2,45509,10499,14480,0,65728,65728,6,6,4,1460,405,1,992,39,33580,0,65700,0,0,0,0,0
o,0x00000000,1716936793.347944,172.16.3.2,5101,172.16.1.2,45509,10499,14480,0,65728,65728,6,6,4,1460,405,1,993,39,33580,0,65700,1448,0,0,0,0
i,0x00000000,1716936793.367588,172.16.3.2,5101,172.16.1.2,45509,10499,14480,0,65728,65728,6,6,4,1460,405,1,992,39,33580,0,65700,0,0,0,0,0
i,0x00000000,1716936793.377692,172.16.3.2,5101,172.16.1.2,45509,10499,14480,0,65728,65728,6,6,4,1460,405,1,992,39,33580,0,65700,0,0,0,0,0
o,0x00000000,1716936793.377700,172.16.3.2,5101,172.16.1.2,45509,10499,14480,0,65728,65700,6,6,4,1460,405,1,993,39,33580,0,65700,0,0,1,0,0
i,0x00000000,1716936793.387915,172.16.3.2,5101,172.16.1.2,45509,10499,14480,0,65728,65700,6,6,4,1460,405,1,992,39,33580,0,65700,0,0,1,0,0
o,0x00000000,1716936793.387920,172.16.3.2,5101,172.16.1.2,45509,10499,14480,0,65728,65728,6,6,4,1460,405,1,993,39,33580,0,65700,0,0,1,0,0
i,0x00000000,1716936793.438036,172.16.3.2,5101,172.16.1.2,45509,10499,14480,0,65728,65728,6,6,4,1460,405,1,992,39,33580,0,65700,0,0,1,0,0
o,0x00000000,1716936793.438051,172.16.3.2,5101,172.16.1.2,45509,10499,14480,0,65728,65728,6,6,4,1460,405,1,993,39,33580,0,65700,0,0,1,0,0
i,0x00000000,1716936793.477960,172.16.3.2,5101,172.16.1.2,45509,10499,14480,0,65728,65728,6,6,4,1460,405,1,992,39,33580,0,65700,0,0,1,0,0
o,0x00000000,1716936793.477967,172.16.3.2,5101,172.16.1.2,45509,10499,14480,0,65728,65728,6,6,4,1460,405,1,993,39,33580,0,65700,0,0,1,0,0
i,0x00000000,1716936793.508092,172.16.3.2,5101,172.16.1.2,45509,10499,14480,0,65728,65728,6,6,4,1460,405,1,992,39,33580,0,65700,0,0,1,0,0
o,0x00000000,1716936793.508099,172.16.3.2,5101,172.16.1.2,45509,10499,14480,0,65728,65728,6,6,4,1460,405,1,993,39,33580,0,65700,0,0,1,0,0
i,0x00000000,1716936793.527758,172.16.3.2,5101,172.16.1.2,45509,10499,14480,0,65728,65728,6,6,4,1460,405,1,992,39,33580,0,65700,0,0,1,0,0
o,0x00000000,1716936793.527763,172.16.3.2,5101,172.16.1.2,45509,10499,14480,0,65728,65728,6,6,4,1460,405,1,993,39,33580,0,65700,0,0,1,0,0
i,0x00000000,1716936793.556951,172.16.3.2,5101,172.16.1.2,45509,10499,14480,0,65728,65728,6,6,4,1460,405,1,992,39,33580,0,65700,0,0,1,0,0
o,0x00000000,1716936793.556957,172.16.3.2,5101,172.16.1.2,45509,10499,14480,0,65728,65728,6,6,4,1460,405,1,993,39,33580,0,65700,0,0,1,0,0
i,0x00000000,1716936793.576795,172.16.3.2,5101,172.16.1.2,45509,10499,14480,0,65728,65728,6,6,4,1460,405,1,992,39,33580,0,65700,0,0,1,0,0
o,0x00000000,1716936793.576799,172.16.3.2,5101,172.16.1.2,45509,10499,14480,0,65728,65728,6,6,4,1460,405,1,993,39,33580,0,65700,0,0,1,0,0
i,0x00000000,1716936793.588600,172.16.3.2,5101,172.16.1.2,45509,10499,14480,0,65728,65728,6,6,4,1460,405,1,992,39,33580,0,65700,0,0,1,0,0
o,0x00000000,1716936793.588604,172.16.3.2,5101,172.16.1.2,45509,10499,14480,0,65728,65728,6,6,4,1460,405,1,993,39,33580,0,65700,0,0,1,0,0
i,0x00000000,1716936793.607870,172.16.3.2,5101,172.16.1.2,45509,10499,14480,0,65728,65728,6,6,4,1460,405,1,992,39,33580,0,65700,0,0,1,0,0
o,0x00000000,1716936793.607874,172.16.3.2,5101,172.16.1.2,45509,10499,14480,0,65728,65728,6,6,4,1460,405,1,993,39,33580,0,65700,0,0,1,0,0
i,0x00000000,1716936793.627769,172.16.3.2,5101,172.16.1.2,45509,10499,14480,0,65728,65728,6,6,4,1460,405,1,992,39,33580,0,65700,0,0,1,0,0
o,0x00000000,1716936793.627781,172.16.3.2,5101,172.16.1.2,45509,10499,14480,0,65728,65728,6,6,4,1460,405,1,993,39,33580,0,65700,0,0,1,0,0
i,0x00000000,1716936793.637014,172.16.3.2,5101,172.16.1.2,45509,10499,14480,0,65728,65728,6,6,4,1460,405,1,992,39,33580,0,65700,0,0,1,0,0
o,0x00000000,1716936793.637023,172.16.3.2,5101,172.16.1.2,45509,10499,14480,0,65728,65728,6,6,4,1460,405,1,993,39,33580,0,65700,1448,0,1,0,0
i,0x00000000,1716936793.717451,172.16.3.2,5101,172.16.1.2,45509,10499,14480,0,65728,65728,6,6,4,1460,405,1,992,39,33580,0,65700,0,0,1,0,0
o,0x00000000,1716936793.717467,172.16.3.2,5101,172.16.1.2,45509,10499,14480,0,65728,65700,6,6,4,1460,405,1,993,39,33580,0,65700,17376,0,0,0,0
o,0x00000000,1716936793.717603,172.16.3.2,5101,172.16.1.2,45509,10499,14480,0,65728,65700,6,6,4,1460,405,1,992,39,33580,0,65700,0,0,0,0,0
i,0x00000000,1716936793.758090,172.16.3.2,5101,172.16.1.2,45509,10499,14480,0,65728,65700,6,6,4,1460,405,1,992,39,33580,0,65700,0,0,0,0,0
o,0x00000000,1716936793.758103,172.16.3.2,5101,172.16.1.2,45509,10499,14480,0,65728,65728,6,6,4,1460,405,1,993,39,33580,0,65700,0,0,1,0,0
i,0x00000000,1716936793.767458,172.16.3.2,5101,172.16.1.2,45509,10499,14480,0,65728,65728,6,6,4,1460,405,1,992,39,33580,0,65700,0,0,1,0,0
o,0x00000000,1716936793.767464,172.16.3.2,5101,172.16.1.2,45509,10499,14480,0,65728,65728,6,6,4,1460,405,1,993,39,33580,0,65700,0,0,1,0,0
i,0x00000000,1716936793.777532,172.16.3.2,5101,172.16.1.2,45509,10499,14480,0,65728,65728,6,6,4,1460,405,1,992,39,33580,0,65700,0,0,1,0,0
o,0x00000000,1716936793.777537,172.16.3.2,5101,172.16.1.2,45509,10499,14480,0,65728,65728,6,6,4,1460,405,1,993,39,33580,0,65700,0,0,1,0,0
i,0x00000000,1716936793.797567,172.16.3.2,5101,172.16.1.2,45509,10499,14480,0,65728,65728,6,6,4,1460,405,1,992,39,33580,0,65700,0,0,1,0,0
o,0x00000000,1716936793.797571,172.16.3.2,5101,172.16.1.2,45509,10499,14480,0,65728,65728,6,6,4,1460,405,1,993,39,33580,0,65700,0,0,1,0,0
i,0x00000000,1716936793.828358,172.16.3.2,5101,172.16.1.2,45509,10499,14480,0,65728,65728,6,6,4,1460,405,1,992,39,33580,0,65700,0,0,1,0,0
i,0x00000000,1716936793.837211,172.16.3.2,5101,172.16.1.2,45509,10499,14480,0,65728,65728,6,6,4,1460,405,1,992,39,33580,0,65700,0,0,1,0,0
o,0x00000000,1716936793.837216,172.16.3.2,5101,172.16.1.2,45509,10499,14480,0,65728,65728,6,6,4,1460,405,1,993,39,33580,0,65700,0,0,1,0,0
i,0x00000000,1716936793.927402,172.16.3.2,5101,172.16.1.2,45509,10499,14480,0,65728,65728,6,6,4,1460,405,1,992,39,33580,0,65700,0,0,1,0,0
o,0x00000000,1716936793.927423,172.16.3.2,5101,172.16.1.2,45509,10499,14480,0,65728,65728,6,6,4,1460,405,1,993,39,33580,0,65700,8688,0,0,0,0
i,0x00000000,1716936793.937685,172.16.3.2,5101,172.16.1.2,45509,10499,14480,0,65728,65728,6,6,4,1460,405,1,992,39,33580,0,65700,0,0,0,0,0
i,0x00000000,1716936793.948053,172.16.3.2,5101,172.16.1.2,45509,10499,14480,0,65728,65728,6,6,4,1460,405,1,992,39,33580,0,65700,0,0,0,0,0
o,0x00000000,1716936793.948061,172.16.3.2,5101,172.16.1.2,45509,10499,14480,0,65728,65728,6,6,4,1460,405,1,993,39,33580,0,65700,1448,0,0,0,0
i,0x00000000,1716936793.957241,172.16.3.2,5101,172.16.1.2,45509,10499,14480,0,65728,65728,6,6,4,1460,405,1,992,39,33580,0,65700,0,0,0,0,0
i,0x00000000,1716936793.977139,172.16.3.2,5101,172.16.1.2,45509,10499,14480,0,65728,65728,6,6,4,1460,405,1,992,39,33580,0,65700,0,0,0,0,0
o,0x00000000,1716936793.977144,172.16.3.2,5101,172.16.1.2,45509,10499,14480,0,65728,65728,6,6,4,1460,405,1,993,39,33580,0,65700,1448,0,0,0,0
i,0x00000000,1716936794.017817,172.16.3.2,5101,172.16.1.2,45509,10499,14480,0,65728,65728,6,6,4,1460,405,1,992,39,33580,0,65700,0,0,0,0,0
o,0x00000000,1716936794.058143,172.16.3.2,5101,172.16.1.2,45509,10499,14480,0,65728,65728,6,6,4,1460,405,1,993,39,33580,0,65700,0,0,0,0,0
i,0x00000000,1716936794.077552,172.16.3.2,5101,172.16.1.2,45509,10499,14480,0,65728,65728,6,6,4,1460,405,1,992,39,33580,0,65700,0,0,0,0,0
i,0x00000000,1716936794.106804,172.16.3.2,5101,172.16.1.2,45509,10499,14480,0,65728,65728,6,6,4,1460,405,1,992,39,33580,0,65700,0,0,0,0,0
o,0x00000000,1716936794.106811,172.16.3.2,5101,172.16.1.2,45509,10499,14480,0,65728,65728,6,6,4,1460,405,1,993,39,33580,0,65700,1448,0,0,0,0
i,0x00000000,1716936794.127816,172.16.3.2,5101,172.16.1.2,45509,10499,14480,0,65728,65728,6,6,4,1460,405,1,992,39,33580,0,65700,0,0,0,0,0
i,0x00000000,1716936794.137305,172.16.3.2,5101,172.16.1.2,45509,10499,14480,0,65728,65728,6,6,4,1460,405,1,992,39,33580,0,65700,0,0,0,0,0
o,0x00000000,1716936794.137311,172.16.3.2,5101,172.16.1.2,45509,10499,14480,0,65728,65728,6,6,4,1460,405,1,993,39,33580,0,65700,1448,0,0,0,0
i,0x00000000,1716936794.147782,172.16.3.2,5101,172.16.1.2,45509,10499,14480,0,65728,65728,6,6,4,1460,405,1,992,39,33580,0,65700,0,0,0,0,0
i,0x00000000,1716936794.158111,172.16.3.2,5101,172.16.1.2,45509,10499,14480,0,65728,65728,6,6,4,1460,405,1,992,39,33580,0,65700,0,0,0,0,0
o,0x00000000,1716936794.158115,172.16.3.2,5101,172.16.1.2,45509,10499,14480,0,65728,65728,6,6,4,1460,405,1,993,39,33580,0,65700,1448,0,0,0,0
i,0x00000000,1716936794.217142,172.16.3.2,5101,172.16.1.2,45509,10499,14480,0,65728,65728,6,6,4,1460,405,1,992,39,33580,0,65700,0,0,0,0,0
o,0x00000000,1716936794.217272,10.0.2.15,22,10.0.2.2,62180,1073725440,14600,0,65535,65700,0,0,4,1460,1,0,4,24,33580,108,65700,0,0,0,0,0
i,0x00000000,1716936794.218102,10.0.2.15,22,10.0.2.2,62180,1073725440,14600,0,65535,65700,0,0,4,1460,1,0,4,24,33580,108,65700,0,108,0,0,0
o,0x00000000,1716936794.258369,172.16.3.2,5101,172.16.1.2,45509,10499,14480,0,65728,65728,6,6,4,1460,405,1,993,39,33580,0,65700,0,0,0,0,0
i,0x00000000,1716936794.267230,172.16.3.2,5101,172.16.1.2,45509,10499,14480,0,65728,65728,6,6,4,1460,405,1,992,39,33580,0,65700,0,0,0,0,0
o,0x00000000,1716936794.307525,172.16.3.2,5101,172.16.1.2,45509,10499,14480,0,65728,65728,6,6,4,1460,405,1,993,39,33580,0,65700,0,0,0,0,0
i,0x00000000,1716936794.337641,172.16.3.2,5101,172.16.1.2,45509,10499,14480,0,65728,65728,6,6,4,1460,405,1,992,39,33580,0,65700,0,0,0,0,0
i,0x00000000,1716936794.346879,172.16.3.2,5101,172.16.1.2,45509,10499,14480,0,65728,65728,6,6,4,1460,405,1,992,39,33580,0,65700,0,0,0,0,0
o,0x00000000,1716936794.346886,172.16.3.2,5101,172.16.1.2,45509,10499,14480,0,65728,65728,6,6,4,1460,405,1,993,39,33580,0,65700,1448,0,0,0,0
i,0x00000000,1716936794.357400,172.16.3.2,5101,172.16.1.2,45509,10499,14480,0,65728,65728,6,6,4,1460,405,1,992,39,33580,0,65700,0,0,0,0,0
i,0x00000000,1716936794.377278,172.16.3.2,5101,172.16.1.2,45509,10499,14480,0,65728,65728,6,6,4,1460,405,1,992,39,33580,0,65700,0,0,0,0,0
o,0x00000000,1716936794.377285,172.16.3.2,5101,172.16.1.2,45509,10499,14480,0,65728,65728,6,6,4,1460,405,1,993,39,33580,0,65700,1448,0,0,0,0
i,0x00000000,1716936794.397140,172.16.3.2,5101,172.16.1.2,45509,10499,14480,0,65728,65728,6,6,4,1460,405,1,992,39,33580,0,65700,0,0,0,0,0
o,0x00000000,1716936794.397147,172.16.3.2,5101,172.16.1.2,45509,10499,14480,0,65728,65700,6,6,4,1460,405,1,993,39,33580,0,65700,0,0,1,0,0
i,0x00000000,1716936794.427584,172.16.3.2,5101,172.16.1.2,45509,10499,14480,0,65728,65700,6,6,4,1460,405,1,992,39,33580,0,65700,0,0,1,0,0
o,0x00000000,1716936794.427593,172.16.3.2,5101,172.16.1.2,45509,10499,14480,0,65728,65728,6,6,4,1460,405,1,993,39,33580,0,65700,0,0,1,0,0
i,0x00000000,1716936794.456560,172.16.3.2,5101,172.16.1.2,45509,10499,14480,0,65728,65728,6,6,4,1460,405,1,992,39,33580,0,65700,0,0,1,0,0
o,0x00000000,1716936794.456567,172.16.3.2,5101,172.16.1.2,45509,10499,14480,0,65728,65728,6,6,4,1460,405,1,993,39,33580,0,65700,0,0,1,0,0
i,0x00000000,1716936794.477268,172.16.3.2,5101,172.16.1.2,45509,10499,14480,0,65728,65728,6,6,4,1460,405,1,992,39,33580,0,65700,0,0,1,0,0
o,0x00000000,1716936794.477273,172.16.3.2,5101,172.16.1.2,45509,10499,14480,0,65728,65728,6,6,4,1460,405,1,993,39,33580,0,65700,0,0,1,0,0
i,0x00000000,1716936794.527538,172.16.3.2,5101,172.16.1.2,45509,10499,14480,0,65728,65728,6,6,4,1460,405,1,992,39,33580,0,65700,0,0,1,0,0
o,0x00000000,1716936794.527578,172.16.3.2,5101,172.16.1.2,45509,10499,14480,0,65728,65728,6,6,4,1460,405,1,993,39,33580,0,65700,0,0,1,0,0
i,0x00000000,1716936794.537451,172.16.3.2,5101,172.16.1.2,45509,10499,14480,0,65728,65728,6,6,4,1460,405,1,992,39,33580,0,65700,0,0,1,0,0
o,0x00000000,1716936794.537469,172.16.3.2,5101,172.16.1.2,45509,10499,14480,0,65728,65728,6,6,4,1460,405,1,993,39,33580,0,65700,0,0,1,0,0
i,0x00000000,1716936794.567500,172.16.3.2,5101,172.16.1.2,45509,10499,14480,0,65728,65728,6,6,4,1460,405,1,992,39,33580,0,65700,0,0,1,0,0
o,0x00000000,1716936794.567516,172.16.3.2,5101,172.16.1.2,45509,10499,14480,0,65728,65728,6,6,4,1460,405,1,993,39,33580,0,65700,0,0,1,0,0
i,0x00000000,1716936794.587219,172.16.3.2,5101,172.16.1.2,45509,10499,14480,0,65728,65728,6,6,4,1460,405,1,992,39,33580,0,65700,0,0,1,0,0
o,0x00000000,1716936794.587235,172.16.3.2,5101,172.16.1.2,45509,10499,14480,0,65728,65728,6,6,4,1460,405,1,993,39,33580,0,65700,0,0,1,0,0
i,0x00000000,1716936794.606868,172.16.3.2,5101,172.16.1.2,45509,10499,14480,0,65728,65728,6,6,4,1460,405,1,992,39,33580,0,65700,0,0,1,0,0
o,0x00000000,1716936794.606888,172.16.3.2,5101,172.16.1.2,45509,10499,14480,0,65728,65728,6,6,4,1460,405,1,993,39,33580,0,65700,0,0,1,0,0
i,0x00000000,1716936794.617267,172.16.3.2,5101,172.16.1.2,45509,10499,14480,0,65728,65728,6,6,4,1460,405,1,992,39,33580,0,65700,0,0,1,0,0
o,0x00000000,1716936794.617277,172.16.3.2,5101,172.16.1.2,45509,10499,14480,0,65728,65728,6,6,4,1460,405,1,993,39,33580,0,65700,0,0,1,0,0
i,0x00000000,1716936794.636940,172.16.3.2,5101,172.16.1.2,45509,10499,14480,0,65728,65728,6,6,4,1460,405,1,992,39,33580,0,65700,0,0,1,0,0
o,0x00000000,1716936794.636961,172.16.3.2,5101,172.16.1.2,45509,10499,14480,0,65728,65728,6,6,4,1460,405,1,993,39,33580,0,65700,15928,0,0,0,0
i,0x00000000,1716936794.677520,172.16.3.2,5101,172.16.1.2,45509,10499,14480,0,65728,65728,6,6,4,1460,405,1,992,39,33580,0,65700,0,0,0,0,0
o,0x00000000,1716936794.677592,172.16.3.2,5101,172.16.1.2,45509,10499,14480,0,65728,65728,6,6,4,1460,405,1,993,39,33580,0,65700,0,0,0,0,0
i,0x00000000,1716936794.736620,172.16.3.2,5101,172.16.1.2,45509,10499,14480,0,65728,65728,6,6,4,1460,405,1,992,39,33580,0,65700,0,0,0,0,0
i,0x00000000,1716936794.757020,172.16.3.2,5101,172.16.1.2,45509,10499,14480,0,65728,65728,6,6,4,1460,405,1,992,39,33580,0,65700,0,0,0,0,0
o,0x00000000,1716936794.757038,172.16.3.2,5101,172.16.1.2,45509,10499,14480,0,65728,65728,6,6,4,1460,405,1,993,39,33580,0,65700,1448,0,0,0,0
i,0x00000000,1716936794.767155,172.16.3.2,5101,172.16.1.2,45509,10499,14480,0,65728,65728,6,6,4,1460,405,1,992,39,33580,0,65700,0,0,0,0,0
o,0x00000000,1716936794.807325,172.16.3.2,5101,172.16.1.2,45509,10499,14480,0,65728,65728,6,6,4,1460,405,1,993,39,33580,0,65700,0,0,0,0,0
i,0x00000000,1716936794.837219,172.16.3.2,5101,172.16.1.2,45509,10499,14480,0,65728,65728,6,6,4,1460,405,1,992,39,33580,0,65700,0,0,0,0,0
i,0x00000000,1716936794.847230,172.16.3.2,5101,172.16.1.2,45509,10499,14480,0,65728,65728,6,6,4,1460,405,1,992,39,33580,0,65700,0,0,0,0,0
o,0x00000000,1716936794.847243,172.16.3.2,5101,172.16.1.2,45509,10499,14480,0,65728,65728,6,6,4,1460,405,1,993,39,33580,0,65700,1448,0,0,0,0
i,0x00000000,1716936794.897074,172.16.3.2,5101,172.16.1.2,45509,10499,14480,0,65728,65728,6,6,4,1460,405,1,992,39,33580,0,65700,0,0,0,0,0
i,0x00000000,1716936794.907446,172.16.3.2,5101,172.16.1.2,45509,10499,14480,0,65728,65728,6,6,4,1460,405,1,992,39,33580,0,65700,0,0,0,0,0
o,0x00000000,1716936794.907456,172.16.3.2,5101,172.16.1.2,45509,10499,14480,0,65728,65728,6,6,4,1460,405,1,993,39,33580,0,65700,1448,0,0,0,0
i,0x00000000,1716936794.917822,172.16.3.2,5101,172.16.1.2,45509,10499,14480,0,65728,65728,6,6,4,1460,405,1,992,39,33580,0,65700,0,0,0,0,0
o,0x00000000,1716936794.957609,172.16.3.2,5101,172.16.1.2,45509,10499,14480,0,65728,65728,6,6,4,1460,405,1,993,39,33580,0,65700,0,0,0,0,0
i,0x00000000,1716936794.966461,172.16.3.2,5101,172.16.1.2,45509,10499,14480,0,65728,65728,6,6,4,1460,405,1,992,39,33580,0,65700,0,0,0,0,0
o,0x00000000,1716936794.996933,172.16.3.2,5101,172.16.1.2,45509,10499,14480,0,65728,65728,6,6,4,1460,405,1,993,39,33580,0,65700,0,0,0,0,0
i,0x00000000,1716936795.016905,172.16.3.2,5101,172.16.1.2,45509,10499,14480,0,65728,65728,6,6,4,1460,405,1,992,39,33580,0,65700,0,0,0,0,0
i,0x00000000,1716936795.047149,172.16.3.2,5101,172.16.1.2,45509,10499,14480,0,65728,65728,6,6,4,1460,405,1,992,39,33580,0,65700,0,0,0,0,0
o,0x00000000,1716936795.047165,172.16.3.2,5101,172.16.1.2,45509,10499,14480,0,65728,65728,6,6,4,1460,405,1,993,39,33580,0,65700,1448,0,0,0,0
i,0x00000000,1716936795.066877,172.16.3.2,5101,172.16.1.2,45509,10499,14480,0,65728,65728,6,6,4,1460,405,1,992,39,33580,0,65700,0,0,0,0,0
i,0x00000000,1716936795.096733,172.16.3.2,5101,172.16.1.2,45509,10499,14480,0,65728,65728,6,6,4,1460,405,1,992,39,33580,0,65700,0,0,0,0,0
o,0x00000000,1716936795.096752,172.16.3.2,5101,172.16.1.2,45509,10499,14480,0,65728,65728,6,6,4,1460,405,1,993,39,33580,0,65700,1448,0,0,0,0
i,0x00000000,1716936795.107201,172.16.3.2,5101,172.16.1.2,45509,10499,14480,0,65728,65728,6,6,4,1460,405,1,992,39,33580,0,65700,0,0,0,0,0
i,0x00000000,1716936795.137256,172.16.3.2,5101,172.16.1.2,45509,10499,14480,0,65728,65728,6,6,4,1460,405,1,992,39,33580,0,65700,0,0,0,0,0
o,0x00000000,1716936795.137281,172.16.3.2,5101,172.16.1.2,45509,10499,14480,0,65728,65728,6,6,4,1460,405,1,993,39,33580,0,65700,1448,0,0,0,0
i,0x00000000,1716936795.167467,172.16.3.2,5101,172.16.1.2,45509,10499,14480,0,65728,65728,6,6,4,1460,405,1,992,39,33580,0,65700,0,0,0,0,0
o,0x00000000,1716936795.207272,172.16.3.2,5101,172.16.1.2,45509,10499,14480,0,65728,65728,6,6,4,1460,405,1,993,39,33580,0,65700,0,0,0,0,0
i,0x00000000,1716936795.217111,172.16.3.2,5101,172.16.1.2,45509,10499,14480,0,65728,65728,6,6,4,1460,405,1,992,39,33580,0,65700,0,0,0,0,0
o,0x00000000,1716936795.217240,10.0.2.15,22,10.0.2.2,62180,1073725440,14600,0,65535,65700,0,0,4,1460,1,0,4,24,33580,108,65700,0,0,0,0,0
i,0x00000000,1716936795.218047,10.0.2.15,22,10.0.2.2,62180,1073725440,14600,0,65535,65700,0,0,4,1460,1,0,4,24,33580,108,65700,0,108,0,0,0
i,0x00000000,1716936795.247442,172.16.3.2,5101,172.16.1.2,45509,10499,14480,0,65728,65728,6,6,4,1460,405,1,992,39,33580,0,65700,0,0,0,0,0
o,0x00000000,1716936795.247460,172.16.3.2,5101,172.16.1.2,45509,10499,14480,0,65728,65728,6,6,4,1460,405,1,993,39,33580,0,65700,1448,0,0,0,0
i,0x00000000,1716936795.266942,172.16.3.2,5101,172.16.1.2,45509,10499,14480,0,65728,65728,6,6,4,1460,405,1,992,39,33580,0,65700,0,0,0,0,0
i,0x00000000,1716936795.306787,172.16.3.2,5101,172.16.1.2,45509,10499,14480,0,65728,65728,6,6,4,1460,405,1,992,39,33580,0,65700,0,0,0,0,0
o,0x00000000,1716936795.306797,172.16.3.2,5101,172.16.1.2,45509,10499,14480,0,65728,65728,6,6,4,1460,405,1,993,39,33580,0,65700,1448,0,0,0,0
i,0x00000000,1716936795.326363,172.16.3.2,5101,172.16.1.2,45509,10499,14480,0,65728,65728,6,6,4,1460,405,1,992,39,33580,0,65700,0,0,0,0,0
i,0x00000000,1716936795.347391,172.16.3.2,5101,172.16.1.2,45509,10499,14480,0,65728,65728,6,6,4,1460,405,1,992,39,33580,0,65700,0,0,0,0,0
o,0x00000000,1716936795.347398,172.16.3.2,5101,172.16.1.2,45509,10499,14480,0,65728,65728,6,6,4,1460,405,1,993,39,33580,0,65700,1448,0,0,0,0
i,0x00000000,1716936795.356843,172.16.3.2,5101,172.16.1.2,45509,10499,14480,0,65728,65728,6,6,4,1460,405,1,992,39,33580,0,65700,0,0,0,0,0
i,0x00000000,1716936795.396481,172.16.3.2,5101,172.16.1.2,45509,10499,14480,0,65728,65728,6,6,4,1460,405,1,992,39,33580,0,65700,0,0,0,0,0
o,0x00000000,1716936795.396486,172.16.3.2,5101,172.16.1.2,45509,10499,14480,0,65728,65728,6,6,4,1460,405,1,993,39,33580,0,65700,1448,0,0,0,0
i,0x00000000,1716936795.406925,172.16.3.2,5101,172.16.1.2,45509,10499,14480,0,65728,65728,6,6,4,1460,405,1,992,39,33580,0,65700,0,0,0,0,0
i,0x00000000,1716936795.447555,172.16.3.2,5101,172.16.1.2,45509,10499,14480,0,65728,65728,6,6,4,1460,405,1,992,39,33580,0,65700,0,0,0,0,0
o,0x00000000,1716936795.447566,172.16.3.2,5101,172.16.1.2,45509,10499,14480,0,65728,65728,6,6,4,1460,405,1,993,39,33580,0,65700,1448,0,0,0,0
i,0x00000000,1716936795.456719,172.16.3.2,5101,172.16.1.2,45509,10499,14480,0,65728,65728,6,6,4,1460,405,1,992,39,33580,0,65700,0,0,0,0,0
i,0x00000000,1716936795.497112,172.16.3.2,5101,172.16.1.2,45509,10499,14480,0,65728,65728,6,6,4,1460,405,1,992,39,33580,0,65700,0,0,0,0,0
o,0x00000000,1716936795.497119,172.16.3.2,5101,172.16.1.2,45509,10499,14480,0,65728,65728,6,6,4,1460,405,1,993,39,33580,0,65700,1448,0,0,0,0
i,0x00000000,1716936795.506587,172.16.3.2,5101,172.16.1.2,45509,10499,14480,0,65728,65728,6,6,4,1460,405,1,992,39,33580,0,65700,0,0,0,0,0
o,0x00000000,1716936795.538169,172.16.3.2,5101,172.16.1.2,45509,10499,14480,0,65728,65728,6,6,4,1460,405,1,993,39,33580,0,65700,0,0,0,0,0
i,0x00000000,1716936795.557183,172.16.3.2,5101,172.16.1.2,45509,10499,14480,0,65728,65728,6,6,4,1460,405,1,992,39,33580,0,65700,0,0,0,0,0
i,0x00000000,1716936795.567239,172.16.3.2,5101,172.16.1.2,45509,10499,14480,0,65728,65728,6,6,4,1460,405,1,992,39,33580,0,65700,0,0,0,0,0
o,0x00000000,1716936795.567243,172.16.3.2,5101,172.16.1.2,45509,10499,14480,0,65728,65728,6,6,4,1460,405,1,993,39,33580,0,65700,1448,0,0,0,0
i,0x00000000,1716936795.606768,172.16.3.2,5101,172.16.1.2,45509,10499,14480,0,65728,65728,6,6,4,1460,405,1,992,39,33580,0,65700,0,0,0,0,0
i,0x00000000,1716936795.617238,172.16.3.2,5101,172.16.1.2,45509,10499,14480,0,65728,65728,6,6,4,1460,405,1,992,39,33580,0,65700,0,0,0,0,0
o,0x00000000,1716936795.617243,172.16.3.2,5101,172.16.1.2,45509,10499,14480,0,65728,65728,6,6,4,1460,405,1,993,39,33580,0,65700,1448,0,0,0,0
i,0x00000000,1716936795.656617,172.16.3.2,5101,172.16.1.2,45509,10499,14480,0,65728,65728,6,6,4,1460,405,1,992,39,33580,0,65700,0,0,0,0,0
i,0x00000000,1716936795.676297,172.16.3.2,5101,172.16.1.2,45509,10499,14480,0,65728,65728,6,6,4,1460,405,1,992,39,33580,0,65700,0,0,0,0,0
o,0x00000000,1716936795.676309,172.16.3.2,5101,172.16.1.2,45509,10499,14480,0,65728,65700,6,6,4,1460,405,1,993,39,33580,0,65700,0,0,1,0,0
i,0x00000000,1716936795.716895,172.16.3.2,5101,172.16.1.2,45509,10499,14480,0,65728,65700,6,6,4,1460,405,1,992,39,33580,0,65700,0,0,1,0,0
o,0x00000000,1716936795.716900,172.16.3.2,5101,172.16.1.2,45509,10499,14480,0,65728,65728,6,6,4,1460,405,1,993,39,33580,0,65700,0,0,1,0,0
i,0x00000000,1716936795.727142,172.16.3.2,5101,172.16.1.2,45509,10499,14480,0,65728,65728,6,6,4,1460,405,1,992,39,33580,0,65700,0,0,1,0,0
o,0x00000000,1716936795.727146,172.16.3.2,5101,172.16.1.2,45509,10499,14480,0,65728,65728,6,6,4,1460,405,1,993,39,33580,0,65700,0,0,1,0,0
i,0x00000000,1716936795.737187,172.16.3.2,5101,172.16.1.2,45509,10499,14480,0,65728,65728,6,6,4,1460,405,1,992,39,33580,0,65700,0,0,1,0,0
o,0x00000000,1716936795.737192,172.16.3.2,5101,172.16.1.2,45509,10499,14480,0,65728,65728,6,6,4,1460,405,1,993,39,33580,0,65700,0,0,1,0,0
i,0x00000000,1716936795.786401,172.16.3.2,5101,172.16.1.2,45509,10499,14480,0,65728,65728,6,6,4,1460,405,1,992,39,33580,0,65700,0,0,1,0,0
o,0x00000000,1716936795.786415,172.16.3.2,5101,172.16.1.2,45509,10499,14480,0,65728,65728,6,6,4,1460,405,1,993,39,33580,0,65700,0,0,1,0,0
i,0x00000000,1716936795.816093,172.16.3.2,5101,172.16.1.2,45509,10499,14480,0,65728,65728,6,6,4,1460,405,1,992,39,33580,0,65700,0,0,1,0,0
o,0x00000000,1716936795.816099,172.16.3.2,5101,172.16.1.2,45509,10499,14480,0,65728,65728,6,6,4,1460,405,1,993,39,33580,0,65700,0,0,1,0,0
i,0x00000000,1716936795.826760,172.16.3.2,5101,172.16.1.2,45509,10499,14480,0,65728,65728,6,6,4,1460,405,1,992,39,33580,0,65700,0,0,1,0,0
o,0x00000000,1716936795.826764,172.16.3.2,5101,172.16.1.2,45509,10499,14480,0,65728,65728,6,6,4,1460,405,1,993,39,33580,0,65700,0,0,1,0,0
i,0x00000000,1716936795.837142,172.16.3.2,5101,172.16.1.2,45509,10499,14480,0,65728,65728,6,6,4,1460,405,1,992,39,33580,0,65700,0,0,1,0,0
o,0x00000000,1716936795.837149,172.16.3.2,5101,172.16.1.2,45509,10499,14480,0,65728,65728,6,6,4,1460,405,1,993,39,33580,0,65700,0,0,1,0,0
i,0x00000000,1716936795.867050,172.16.3.2,5101,172.16.1.2,45509,10499,14480,0,65728,65728,6,6,4,1460,405,1,992,39,33580,0,65700,0,0,1,0,0
o,0x00000000,1716936795.867056,172.16.3.2,5101,172.16.1.2,45509,10499,14480,0,65728,65728,6,6,4,1460,405,1,993,39,33580,0,65700,0,0,1,0,0
i,0x00000000,1716936795.886942,172.16.3.2,5101,172.16.1.2,45509,10499,14480,0,65728,65728,6,6,4,1460,405,1,992,39,33580,0,65700,0,0,1,0,0
o,0x00000000,1716936795.886956,172.16.3.2,5101,172.16.1.2,45509,10499,14480,0,65728,65728,6,6,4,1460,405,1,993,39,33580,0,65700,14480,0,0,0,0
i,0x00000000,1716936795.915760,172.16.3.2,5101,172.16.1.2,45509,10499,14480,0,65728,65728,6,6,4,1460,405,1,992,39,33580,0,65700,0,0,0,0,0
o,0x00000000,1716936795.915817,172.16.3.2,5101,172.16.1.2,45509,10499,14480,0,65728,65728,6,6,4,1460,405,1,993,39,33580,0,65700,0,0,0,0,0
i,0x00000000,1716936795.967583,172.16.3.2,5101,172.16.1.2,45509,10499,14480,0,65728,65728,6,6,4,1460,405,1,992,39,33580,0,65700,0,0,0,0,0
i,0x00000000,1716936795.986216,172.16.3.2,5101,172.16.1.2,45509,10499,14480,0,65728,65728,6,6,4,1460,405,1,992,39,33580,0,65700,0,0,0,0,0
o,0x00000000,1716936795.986223,172.16.3.2,5101,172.16.1.2,45509,10499,14480,0,65728,65728,6,6,4,1460,405,1,993,39,33580,0,65700,1448,0,0,0,0
i,0x00000000,1716936796.016384,172.16.3.2,5101,172.16.1.2,45509,10499,14480,0,65728,65728,6,6,4,1460,405,1,992,39,33580,0,65700,0,0,0,0,0
o,0x00000000,1716936796.048131,172.16.3.2,5101,172.16.1.2,45509,10499,14480,0,65728,65728,6,6,4,1460,405,1,993,39,33580,0,65700,0,0,0,0,0
i,0x00000000,1716936796.066230,172.16.3.2,5101,172.16.1.2,45509,10499,14480,0,65728,65728,6,6,4,1460,405,1,992,39,33580,0,65700,0,0,0,0,0
i,0x00000000,1716936796.076585,172.16.3.2,5101,172.16.1.2,45509,10499,14480,0,65728,65728,6,6,4,1460,405,1,992,39,33580,0,65700,0,0,0,0,0
o,0x00000000,1716936796.076592,172.16.3.2,5101,172.16.1.2,45509,10499,14480,0,65728,65728,6,6,4,1460,405,1,993,39,33580,0,65700,1448,0,0,0,0
i,0x00000000,1716936796.086960,172.16.3.2,5101,172.16.1.2,45509,10499,14480,0,65728,65728,6,6,4,1460,405,1,992,39,33580,0,65700,0,0,0,0,0
o,0x00000000,1716936796.128012,172.16.3.2,5101,172.16.1.2,45509,10499,14480,0,65728,65728,6,6,4,1460,405,1,993,39,33580,0,65700,0,0,0,0,0
i,0x00000000,1716936796.146762,172.16.3.2,5101,172.16.1.2,45509,10499,14480,0,65728,65728,6,6,4,1460,405,1,992,39,33580,0,65700,0,0,0,0,0
i,0x00000000,1716936796.166317,172.16.3.2,5101,172.16.1.2,45509,10499,14480,0,65728,65728,6,6,4,1460,405,1,992,39,33580,0,65700,0,0,0,0,0
o,0x00000000,1716936796.166324,172.16.3.2,5101,172.16.1.2,45509,10499,14480,0,65728,65728,6,6,4,1460,405,1,993,39,33580,0,65700,1448,0,0,0,0
i,0x00000000,1716936796.196479,172.16.3.2,5101,172.16.1.2,45509,10499,14480,0,65728,65728,6,6,4,1460,405,1,992,39,33580,0,65700,0,0,0,0,0
i,0x00000000,1716936796.216259,172.16.3.2,5101,172.16.1.2,45509,10499,14480,0,65728,65728,6,6,4,1460,405,1,992,39,33580,0,65700,0,0,0,0,0
o,0x00000000,1716936796.216264,172.16.3.2,5101,172.16.1.2,45509,10499,14480,0,65728,65728,6,6,4,1460,405,1,993,39,33580,0,65700,1448,0,0,0,0
o,0x00000000,1716936796.217936,10.0.2.15,22,10.0.2.2,62180,1073725440,14600,0,65535,65700,0,0,4,1460,1,0,4,24,33580,108,65700,0,0,0,0,0
i,0x00000000,1716936796.218858,10.0.2.15,22,10.0.2.2,62180,1073725440,14600,0,65535,65700,0,0,4,1460,1,0,4,24,33580,108,65700,0,108,0,0,0
i,0x00000000,1716936796.226777,172.16.3.2,5101,172.16.1.2,45509,10499,14480,0,65728,65728,6,6,4,1460,405,1,992,39,33580,0,65700,0,0,0,0,0
o,0x00000000,1716936796.267612,172.16.3.2,5101,172.16.1.2,45509,10499,14480,0,65728,65728,6,6,4,1460,405,1,993,39,33580,0,65700,0,0,0,0,0
i,0x00000000,1716936796.306482,172.16.3.2,5101,172.16.1.2,45509,10499,14480,0,65728,65728,6,6,4,1460,405,1,992,39,33580,0,65700,0,0,0,0,0
i,0x00000000,1716936796.315811,172.16.3.2,5101,172.16.1.2,45509,10499,14480,0,65728,65728,6,6,4,1460,405,1,992,39,33580,0,65700,0,0,0,0,0
o,0x00000000,1716936796.315821,172.16.3.2,5101,172.16.1.2,45509,10499,14480,0,65728,65728,6,6,4,1460,405,1,993,39,33580,0,65700,1448,0,0,0,0
i,0x00000000,1716936796.326115,172.16.3.2,5101,172.16.1.2,45509,10499,14480,0,65728,65728,6,6,4,1460,405,1,992,39,33580,0,65700,0,0,0,0,0
o,0x00000000,1716936796.356886,172.16.3.2,5101,172.16.1.2,45509,10499,14480,0,65728,65728,6,6,4,1460,405,1,993,39,33580,0,65700,0,0,0,0,0
i,0x00000000,1716936796.365651,172.16.3.2,5101,172.16.1.2,45509,10499,14480,0,65728,65728,6,6,4,1460,405,1,992,39,33580,0,65700,0,0,0,0,0
i,0x00000000,1716936796.376041,172.16.3.2,5101,172.16.1.2,45509,10499,14480,0,65728,65728,6,6,4,1460,405,1,992,39,33580,0,65700,0,0,0,0,0
o,0x00000000,1716936796.376046,172.16.3.2,5101,172.16.1.2,45509,10499,14480,0,65728,65728,6,6,4,1460,405,1,993,39,33580,0,65700,1448,0,0,0,0
i,0x00000000,1716936796.396307,172.16.3.2,5101,172.16.1.2,45509,10499,14480,0,65728,65728,6,6,4,1460,405,1,992,39,33580,0,65700,0,0,0,0,0
i,0x00000000,1716936796.426467,172.16.3.2,5101,172.16.1.2,45509,10499,14480,0,65728,65728,6,6,4,1460,405,1,992,39,33580,0,65700,0,0,0,0,0
o,0x00000000,1716936796.426472,172.16.3.2,5101,172.16.1.2,45509,10499,14480,0,65728,65728,6,6,4,1460,405,1,993,39,33580,0,65700,1448,0,0,0,0
i,0x00000000,1716936796.476210,172.16.3.2,5101,172.16.1.2,45509,10499,14480,0,65728,65728,6,6,4,1460,405,1,992,39,33580,0,65700,0,0,0,0,0
o,0x00000000,1716936796.507834,172.16.3.2,5101,172.16.1.2,45509,10499,14480,0,65728,65728,6,6,4,1460,405,1,993,39,33580,0,65700,0,0,0,0,0
i,0x00000000,1716936796.516734,172.16.3.2,5101,172.16.1.2,45509,10499,14480,0,65728,65728,6,6,4,1460,405,1,992,39,33580,0,65700,0,0,0,0,0
i,0x00000000,1716936796.536394,172.16.3.2,5101,172.16.1.2,45509,10499,14480,0,65728,65728,6,6,4,1460,405,1,992,39,33580,0,65700,0,0,0,0,0
o,0x00000000,1716936796.536400,172.16.3.2,5101,172.16.1.2,45509,10499,14480,0,65728,65728,6,6,4,1460,405,1,993,39,33580,0,65700,1448,0,0,0,0
i,0x00000000,1716936796.546746,172.16.3.2,5101,172.16.1.2,45509,10499,14480,0,65728,65728,6,6,4,1460,405,1,992,39,33580,0,65700,0,0,0,0,0
i,0x00000000,1716936796.586345,172.16.3.2,5101,172.16.1.2,45509,10499,14480,0,65728,65728,6,6,4,1460,405,1,992,39,33580,0,65700,0,0,0,0,0
o,0x00000000,1716936796.586351,172.16.3.2,5101,172.16.1.2,45509,10499,14480,0,65728,65728,6,6,4,1460,405,1,993,39,33580,0,65700,1448,0,0,0,0
i,0x00000000,1716936796.595724,172.16.3.2,5101,172.16.1.2,45509,10499,14480,0,65728,65728,6,6,4,1460,405,1,992,39,33580,0,65700,0,0,0,0,0
i,0x00000000,1716936796.606144,172.16.3.2,5101,172.16.1.2,45509,10499,14480,0,65728,65728,6,6,4,1460,405,1,992,39,33580,0,65700,0,0,0,0,0
o,0x00000000,1716936796.606149,172.16.3.2,5101,172.16.1.2,45509,10499,14480,0,65728,65728,6,6,4,1460,405,1,993,39,33580,0,65700,1448,0,0,0,0
i,0x00000000,1716936796.616472,172.16.3.2,5101,172.16.1.2,45509,10499,14480,0,65728,65728,6,6,4,1460,405,1,992,39,33580,0,65700,0,0,0,0,0
o,0x00000000,1716936796.648146,172.16.3.2,5101,172.16.1.2,45509,10499,14480,0,65728,65728,6,6,4,1460,405,1,993,39,33580,0,65700,0,0,0,0,0
i,0x00000000,1716936796.676424,172.16.3.2,5101,172.16.1.2,45509,10499,14480,0,65728,65728,6,6,4,1460,405,1,992,39,33580,0,65700,0,0,0,0,0
i,0x00000000,1716936796.697104,172.16.3.2,5101,172.16.1.2,45509,10499,14480,0,65728,65728,6,6,4,1460,405,1,992,39,33580,0,65700,0,0,0,0,0
o,0x00000000,1716936796.697111,172.16.3.2,5101,172.16.1.2,45509,10499,14480,0,65728,65728,6,6,4,1460,405,1,993,39,33580,0,65700,1448,0,0,0,0
i,0x00000000,1716936796.726851,172.16.3.2,5101,172.16.1.2,45509,10499,14480,0,65728,65728,6,6,4,1460,405,1,992,39,33580,0,65700,0,0,0,0,0
i,0x00000000,1716936796.745766,172.16.3.2,5101,172.16.1.2,45509,10499,14480,0,65728,65728,6,6,4,1460,405,1,992,39,33580,0,65700,0,0,0,0,0
o,0x00000000,1716936796.745774,172.16.3.2,5101,172.16.1.2,45509,10499,14480,0,65728,65728,6,6,4,1460,405,1,993,39,33580,0,65700,1448,0,0,0,0
i,0x00000000,1716936796.776998,172.16.3.2,5101,172.16.1.2,45509,10499,14480,0,65728,65728,6,6,4,1460,405,1,992,39,33580,0,65700,0,0,0,0,0
i,0x00000000,1716936796.806058,172.16.3.2,5101,172.16.1.2,45509,10499,14480,0,65728,65728,6,6,4,1460,405,1,992,39,33580,0,65700,0,0,0,0,0
o,0x00000000,1716936796.806073,172.16.3.2,5101,172.16.1.2,45509,10499,14480,0,65728,65728,6,6,4,1460,405,1,993,39,33580,0,65700,1448,0,0,0,0
i,0x00000000,1716936796.816203,172.16.3.2,5101,172.16.1.2,45509,10499,14480,0,65728,65728,6,6,4,1460,405,1,992,39,33580,0,65700,0,0,0,0,0
i,0x00000000,1716936796.846305,172.16.3.2,5101,172.16.1.2,45509,10499,14480,0,65728,65728,6,6,4,1460,405,1,992,39,33580,0,65700,0,0,0,0,0
o,0x00000000,1716936796.846315,172.16.3.2,5101,172.16.1.2,45509,10499,14480,0,65728,65728,6,6,4,1460,405,1,993,39,33580,0,65700,1448,0,0,0,0
i,0x00000000,1716936796.866108,172.16.3.2,5101,172.16.1.2,45509,10499,14480,0,65728,65728,6,6,4,1460,405,1,992,39,33580,0,65700,0,0,0,0,0
i,0x00000000,1716936796.896127,172.16.3.2,5101,172.16.1.2,45509,10499,14480,0,65728,65728,6,6,4,1460,405,1,992,39,33580,0,65700,0,0,0,0,0
o,0x00000000,1716936796.896138,172.16.3.2,5101,172.16.1.2,45509,10499,14480,0,65728,65728,6,6,4,1460,405,1,993,39,33580,0,65700,1448,0,0,0,0
i,0x00000000,1716936796.916897,172.16.3.2,5101,172.16.1.2,45509,10499,14480,0,65728,65728,6,6,4,1460,405,1,992,39,33580,0,65700,0,0,0,0,0
i,0x00000000,1716936796.945635,172.16.3.2,5101,172.16.1.2,45509,10499,14480,0,65728,65728,6,6,4,1460,405,1,992,39,33580,0,65700,0,0,0,0,0
o,0x00000000,1716936796.945642,172.16.3.2,5101,172.16.1.2,45509,10499,14480,0,65728,65728,6,6,4,1460,405,1,993,39,33580,0,65700,1448,0,0,0,0
i,0x00000000,1716936796.956496,172.16.3.2,5101,172.16.1.2,45509,10499,14480,0,65728,65728,6,6,4,1460,405,1,992,39,33580,0,65700,0,0,0,0,0
o,0x00000000,1716936796.987071,172.16.3.2,5101,172.16.1.2,45509,10499,14480,0,65728,65728,6,6,4,1460,405,1,993,39,33580,0,65700,0,0,0,0,0
i,0x00000000,1716936796.996294,172.16.3.2,5101,172.16.1.2,45509,10499,14480,0,65728,65728,6,6,4,1460,405,1,992,39,33580,0,65700,0,0,0,0,0
o,0x00000000,1716936796.996300,172.16.3.2,5101,172.16.1.2,45509,10499,14480,0,65728,65728,6,6,4,1460,405,1,993,39,33580,0,65700,0,0,1,0,0
i,0x00000000,1716936797.007110,172.16.3.2,5101,172.16.1.2,45509,10499,14480,0,65728,65728,6,6,4,1460,405,1,992,39,33580,0,65700,0,0,1,0,0
o,0x00000000,1716936797.007116,172.16.3.2,5101,172.16.1.2,45509,10499,14480,0,65728,65728,6,6,4,1460,405,1,993,39,33580,0,65700,0,0,1,0,0
i,0x00000000,1716936797.046166,172.16.3.2,5101,172.16.1.2,45509,10499,14480,0,65728,65728,6,6,4,1460,405,1,992,39,33580,0,65700,0,0,1,0,0
o,0x00000000,1716936797.046173,172.16.3.2,5101,172.16.1.2,45509,10499,14480,0,65728,65728,6,6,4,1460,405,1,993,39,33580,0,65700,0,0,1,0,0
i,0x00000000,1716936797.085655,172.16.3.2,5101,172.16.1.2,45509,10499,14480,0,65728,65728,6,6,4,1460,405,1,992,39,33580,0,65700,0,0,1,0,0
o,0x00000000,1716936797.085662,172.16.3.2,5101,172.16.1.2,45509,10499,14480,0,65728,65728,6,6,4,1460,405,1,993,39,33580,0,65700,0,0,2,0,0
i,0x00000000,1716936797.095959,172.16.3.2,5101,172.16.1.2,45509,10499,14480,0,65728,65728,6,6,4,1460,405,1,992,39,33580,0,65700,0,0,2,0,0
o,0x00000000,1716936797.095964,172.16.3.2,5101,172.16.1.2,45509,10499,14480,0,65728,65728,6,6,4,1460,405,1,993,39,33580,0,65700,0,0,2,0,0
