enable_time_secs=1716935567	enable_time_usecs=221065	siftrver=1.2.4	hz=100	tcp_rtt_scale=32	sysname=FreeBSD	sysver=1301000	ipmode=4
o,0x00000000,1716935567.221095,10.0.2.15,22,10.0.2.2,56512,1073725440,17298,0,65535,65700,0,0,4,1460,1,0,4,24,33580,44,65700,0,0,0,0,0
o,0x00000000,1716935567.221193,10.0.2.15,22,10.0.2.2,56512,1073725440,17298,0,65535,65700,0,0,4,1460,1,0,4,24,33580,80,65700,0,44,0,0,0
i,0x00000000,1716935567.221596,10.0.2.15,22,10.0.2.2,56512,1073725440,17298,0,65535,65700,0,0,4,1460,1,0,4,24,33580,80,65700,0,80,0,0,0
i,0x00000000,1716935567.221599,10.0.2.15,22,10.0.2.2,56512,1073725440,17342,0,65535,65700,0,0,4,1460,1,0,4,24,33580,36,65700,0,36,0,0,0
o,0x00000000,1716935567.221658,10.0.2.15,22,10.0.2.2,56512,1073725440,17378,0,65535,65700,0,0,4,1460,1,0,4,24,33580,36,65700,0,0,0,0,0
i,0x00000000,1716935567.222369,10.0.2.15,22,10.0.2.2,56512,1073725440,17378,0,65535,65700,0,0,4,1460,1,0,4,24,33580,36,65700,0,36,0,0,0
o,0x00000000,1716935567.222449,10.0.2.15,22,10.0.2.2,56512,1073725440,17414,0,65535,65700,0,0,4,1460,1,0,4,24,33580,36,65700,0,0,0,0,0
i,0x00000000,1716935567.223089,10.0.2.15,22,10.0.2.2,56512,1073725440,17414,0,65535,65700,0,0,4,1460,1,0,4,24,33580,36,65700,0,36,0,0,0
o,0x00000000,1716935567.223177,10.0.2.15,22,10.0.2.2,56512,1073725440,17450,0,65535,65700,0,0,4,1460,1,0,4,24,33580,140,65700,0,0,0,0,0
i,0x00000000,1716935567.224094,10.0.2.15,22,10.0.2.2,56512,1073725440,17450,0,65535,65700,0,0,4,1460,1,0,4,24,33580,140,65700,0,140,0,0,0
i,0x00000000,1716935567.224137,10.0.2.15,22,10.0.2.2,56512,1073725440,17590,0,65535,65700,0,0,4,1460,1,0,4,24,33580,0,65700,0,0,0,0,0
i,0x00000000,1716935567.224140,10.0.2.15,22,10.0.2.2,56512,1073725440,17590,0,65535,65700,0,0,4,1460,1,0,4,24,33580,0,65700,36,0,0,0,0
o,0x00000000,1716935567.224142,10.0.2.15,22,10.0.2.2,56512,1073725440,17590,0,65535,65700,0,0,4,1460,1,0,5,24,33580,0,65700,96,0,0,0,0
i,0x00000000,1716935567.224247,10.0.2.15,22,10.0.2.2,56512,1073725440,17590,0,65535,65700,0,0,4,1460,1,0,4,24,33580,0,65700,96,0,0,0,0
o,0x00000000,1716935567.224251,10.0.2.15,22,10.0.2.2,56512,1073725440,17590,0,65535,65604,0,0,5,1460,1,0,7,24,33580,0,65700,96,0,0,0,0
o,0x00000000,1716935567.224824,10.0.2.15,22,10.0.2.2,56512,1073725440,17590,0,65535,65604,0,0,8,1460,1,0,4,24,33580,0,65700,0,0,0,0,0
i,0x00000000,1716935567.225396,10.0.2.15,22,10.0.2.2,56512,1073725440,17590,0,65535,65604,0,0,8,1460,1,0,20,24,33580,0,65700,0,1,0,0,0
i,0x00000000,1716935569.304502,10.0.2.15,22,10.0.2.2,56515,1073725440,14600,0,65535,65700,0,0,4,1460,1,0,0,27,33580,0,65700,0,0,0,0,0
o,0x00000000,1716935569.310647,10.0.2.15,22,10.0.2.2,56515,1073725440,14600,0,65535,65700,0,0,4,1460,1,0,0,27,33580,38,65700,41,0,0,0,0
i,0x00000000,1716935569.311279,10.0.2.15,22,10.0.2.2,56515,1073725440,14600,0,65535,65700,0,0,4,1460,1,0,0,27,33580,38,65700,0,38,0,0,0
o,0x00000000,1716935569.311789,10.0.2.15,22,10.0.2.2,56515,1073725440,14638,0,65535,65700,0,0,4,1460,1,0,0,24,33580,1056,65700,0,0,0,0,0
i,0x00000000,1716935569.312628,10.0.2.15,22,10.0.2.2,56515,1073725440,14638,0,65535,65700,0,0,4,1460,1,0,0,24,33580,1056,65700,0,1056,0,0,0
i,0x00000000,1716935569.312633,10.0.2.15,22,10.0.2.2,56515,1073725440,15694,0,65535,65700,0,0,4,1460,1,0,0,24,33580,0,65700,0,0,0,0,0
i,0x00000000,1716935569.312634,10.0.2.15,22,10.0.2.2,56515,1073725440,15694,0,65535,65700,0,0,4,1460,1,0,0,24,33580,0,65700,1460,0,0,0,0
o,0x00000000,1716935569.312637,10.0.2.15,22,10.0.2.2,56515,1073725440,15694,0,65535,65700,0,0,4,1460,1,0,1,24,33580,0,65700,1536,0,0,0,0
i,0x00000000,1716935569.313966,10.0.2.15,22,10.0.2.2,56515,1073725440,15694,0,65535,65700,0,0,4,1460,1,0,0,24,33580,0,65700,0,0,0,0,0
o,0x00000000,1716935569.316269,10.0.2.15,22,10.0.2.2,56515,1073725440,15694,0,65535,65700,0,0,4,1460,1,0,0,24,33580,484,65700,0,0,0,0,0
i,0x00000000,1716935569.317179,10.0.2.15,22,10.0.2.2,56515,1073725440,15694,0,65535,65700,0,0,4,1460,1,0,0,24,33580,484,65700,0,484,0,0,0
i,0x00000000,1716935569.321621,10.0.2.15,22,10.0.2.2,56515,1073725440,16178,0,65535,65700,0,0,4,1460,1,0,0,24,33580,0,65700,0,0,0,0,0
i,0x00000000,1716935569.325749,10.0.2.15,22,10.0.2.2,56515,1073725440,16178,0,65535,65700,0,0,4,1460,1,0,0,24,33580,0,65700,0,0,0,0,0
o,0x00000000,1716935569.325753,10.0.2.15,22,10.0.2.2,56515,1073725440,16178,0,65535,65700,0,0,4,1460,1,0,1,24,33580,0,65700,44,0,0,0,0
o,0x00000000,1716935569.325945,10.0.2.15,22,10.0.2.2,56515,1073725440,16178,0,65535,65700,0,0,4,1460,1,0,0,24,33580,44,65700,0,0,0,0,0
i,0x00000000,1716935569.326915,10.0.2.15,22,10.0.2.2,56515,1073725440,16178,0,65535,65700,0,0,4,1460,1,0,0,24,33580,44,65700,0,44,0,0,0
i,0x00000000,1716935569.328207,10.0.2.15,22,10.0.2.2,56515,1073725440,16222,0,65535,65700,0,0,4,1460,1,0,0,24,33580,0,65700,0,0,0,0,0
o,0x00000000,1716935569.338864,10.0.2.15,22,10.0.2.2,56515,1073725440,16222,0,65535,65700,0,0,4,1460,1,0,0,24,33580,68,65700,0,0,0,0,0
i,0x00000000,1716935569.339457,10.0.2.15,22,10.0.2.2,56515,1073725440,16222,0,65535,65700,0,0,4,1460,1,0,0,24,33580,68,65700,0,68,0,0,0
i,0x00000000,1716935569.341696,10.0.2.15,22,10.0.2.2,56515,1073725440,16290,0,65535,65700,0,0,4,1460,1,0,0,24,33580,0,65700,0,0,0,0,0
o,0x00000000,1716935569.351325,10.0.2.15,22,10.0.2.2,56515,1073725440,16290,0,65535,65700,0,0,4,1460,1,0,0,24,33580,28,65700,0,0,0,0,0
i,0x00000000,1716935569.352286,10.0.2.15,22,10.0.2.2,56515,1073725440,16290,0,65535,65700,0,0,4,1460,1,0,0,24,33580,28,65700,0,28,0,0,0
i,0x00000000,1716935569.352313,10.0.2.15,22,10.0.2.2,56515,1073725440,16318,0,65535,65700,0,0,4,1460,1,0,0,24,33580,0,65700,0,0,0,0,0
o,0x00000000,1716935569.353042,10.0.2.15,22,10.0.2.2,56515,1073725440,16318,0,65535,65700,0,0,4,1460,1,0,0,24,33580,768,65700,112,0,0,0,0
i,0x00000000,1716935569.353943,10.0.2.15,22,10.0.2.2,56515,1073725440,16318,0,65535,65700,0,0,4,1460,1,0,0,24,33580,768,65700,112,768,0,0,0
o,0x00000000,1716935569.354046,10.0.2.15,22,10.0.2.2,56515,1073725440,17086,0,65535,65700,0,0,4,1460,1,0,0,24,33580,44,65700,0,0,0,0,0
i,0x00000000,1716935569.354626,10.0.2.15,22,10.0.2.2,56515,1073725440,17086,0,65535,65700,0,0,4,1460,1,0,0,24,33580,44,65700,0,44,0,0,0
i,0x00000000,1716935569.355697,10.0.2.15,22,10.0.2.2,56515,1073725440,17130,0,65535,65700,0,0,4,1460,1,0,0,24,33580,0,65700,0,0,0,0,0
o,0x00000000,1716935569.356048,10.0.2.15,22,10.0.2.2,56515,1073725440,17130,0,65535,65700,0,0,4,1460,1,0,4,24,33580,72,65700,0,0,0,0,0
i,0x00000000,1716935569.356861,10.0.2.15,22,10.0.2.2,56515,1073725440,17130,0,65535,65700,0,0,4,1460,1,0,4,24,33580,72,65700,0,72,0,0,0
o,0x00000000,1716935569.359247,10.0.2.15,22,10.0.2.2,56515,1073725440,17202,0,65535,65700,0,0,4,1460,1,0,4,24,33580,44,65700,0,0,0,0,0
i,0x00000000,1716935569.359743,10.0.2.15,22,10.0.2.2,56515,1073725440,17202,0,65535,65700,0,0,4,1460,1,0,4,24,33580,44,65700,0,44,0,0,0
o,0x00000000,1716935569.360104,10.0.2.15,22,10.0.2.2,56515,1073725440,17246,0,65535,65700,0,0,4,1460,1,0,4,24,33580,44,65700,0,0,0,0,0
i,0x00000000,1716935569.360805,10.0.2.15,22,10.0.2.2,56515,1073725440,17246,0,65535,65700,0,0,4,1460,1,0,4,24,33580,44,65700,0,44,0,0,0
o,0x00000000,1716935569.362455,10.0.2.15,22,10.0.2.2,56515,1073725440,17290,0,65535,65700,0,0,4,1460,1,0,4,24,33580,176,65700,0,0,0,0,0
i,0x00000000,1716935569.363901,10.0.2.15,22,10.0.2.2,56515,1073725440,17290,0,65535,65700,0,0,4,1460,1,0,4,24,33580,176,65700,0,176,0,0,0
i,0x00000000,1716935569.364815,10.0.2.15,22,10.0.2.2,56515,1073725440,17466,0,65535,65700,0,0,4,1460,1,0,4,24,33580,0,65700,0,0,0,0,0
i,0x00000000,1716935569.364818,10.0.2.15,22,10.0.2.2,56515,1073725440,17466,0,65535,65700,0,0,4,1460,1,0,4,24,33580,0,65700,36,0,0,0,0
o,0x00000000,1716935569.364820,10.0.2.15,22,10.0.2.2,56515,1073725440,17466,0,65535,65700,0,0,4,1460,1,0,5,24,33580,0,65700,96,0,0,0,0
i,0x00000000,1716935569.364894,10.0.2.15,22,10.0.2.2,56515,1073725440,17466,0,65535,65700,0,0,4,1460,1,0,4,24,33580,0,65700,96,0,0,0,0
o,0x00000000,1716935569.364897,10.0.2.15,22,10.0.2.2,56515,1073725440,17466,0,65535,65604,0,0,5,1460,1,0,7,24,33580,0,65700,96,0,0,0,0
o,0x00000000,1716935569.371162,10.0.2.15,22,10.0.2.2,56515,1073725440,17466,0,65535,65604,0,0,8,1460,1,0,4,24,33580,0,65700,0,0,0,0,0
i,0x00000000,1716935569.371668,10.0.2.15,22,10.0.2.2,56515,1073725440,17466,0,65535,65604,0,0,8,1460,1,0,20,24,33580,0,65700,0,1,0,0,0
i,0x00000000,1716935569.606307,172.16.3.2,5101,172.16.1.2,62417,10499,14480,0,65728,65700,6,6,4,1460,399,1,992,39,33580,0,65700,0,0,0,0,0
o,0x00000000,1716935569.606385,172.16.3.2,5101,172.16.1.2,62417,10499,14480,0,65728,65700,6,6,4,1460,399,1,996,39,33580,1,65700,0,0,0,0,0
i,0x00000000,1716935569.726132,172.16.3.2,5101,172.16.1.2,62417,10499,14480,0,65728,65700,6,6,4,1460,399,1,996,39,33580,1,65700,0,1,0,0,0
i,0x00000000,1716935569.726143,172.16.3.2,5101,172.16.1.2,62417,10499,14480,0,65728,65728,6,6,4,1460,398,1,996,37,33580,0,65700,4,0,0,0,0
o,0x00000000,1716935569.726148,172.16.3.2,5101,172.16.1.2,62417,10499,14480,0,65728,65728,6,6,4,1460,398,1,997,37,33580,0,65700,128,0,0,0,0
o,0x00000000,1716935569.726516,172.16.3.2,5101,172.16.1.2,62417,10499,14480,0,65728,65728,6,6,4,1460,398,1,996,37,33580,1,65700,0,0,0,0,0
o,0x00000000,1716935569.726661,10.0.2.15,22,10.0.2.2,62180,1073725440,14600,0,65535,65700,0,0,4,1460,1,0,4,24,33580,84,65700,0,0,0,0,0
i,0x00000000,1716935569.727553,10.0.2.15,22,10.0.2.2,62180,1073725440,14600,0,65535,65700,0,0,4,1460,1,0,4,24,33580,84,65700,0,84,0,0,0
i,0x00000000,1716935569.876495,172.16.3.2,5101,172.16.1.2,62417,10499,14480,0,65728,65728,6,6,4,1460,398,1,996,37,33580,1,65700,0,1,0,0,0
i,0x00000000,1716935569.965935,172.16.3.2,5101,172.16.1.2,55823,10499,14480,0,65728,65700,6,6,4,1460,399,1,992,39,33580,0,65700,0,0,0,0,0
o,0x00000000,1716935569.967857,172.16.3.2,5101,172.16.1.2,62417,10499,14480,0,65728,65728,6,6,4,1460,409,1,996,39,33580,1,65700,0,0,0,0,0
o,0x00000000,1716935569.968061,172.16.3.2,5101,172.16.1.2,62417,10499,14480,0,65728,65728,6,6,4,1460,409,1,996,39,33580,2,65700,0,1,0,0,0
o,0x00000000,1716935569.968455,10.0.2.15,22,10.0.2.2,62180,1073725440,14600,0,65535,65700,0,0,4,1460,1,0,4,24,33580,108,65700,0,0,0,0,0
i,0x00000000,1716935569.969227,10.0.2.15,22,10.0.2.2,62180,1073725440,14600,0,65535,65700,0,0,4,1460,1,0,4,24,33580,108,65700,0,108,0,0,0
o,0x00000000,1716935569.997420,172.16.3.2,5101,172.16.1.2,55823,10499,14480,0,65728,65700,6,6,4,1460,399,1,993,39,33580,0,65700,0,0,0,0,0
i,0x00000000,1716935570.085807,172.16.3.2,5101,172.16.1.2,62417,10499,14480,0,65728,65728,6,6,4,1460,409,1,996,39,33580,2,65700,0,2,0,0,0
i,0x00000000,1716935570.186354,172.16.3.2,5101,172.16.1.2,55823,10499,14480,0,65728,65700,6,6,4,1460,399,1,992,39,33580,0,65700,0,0,0,0,0
i,0x00000000,1716935570.196496,172.16.3.2,5101,172.16.1.2,55823,10499,14480,0,65728,65700,6,6,4,1460,399,1,992,39,33580,0,65700,0,0,0,0,0
o,0x00000000,1716935570.196506,172.16.3.2,5101,172.16.1.2,55823,10499,14480,0,65728,65700,6,6,4,1460,399,1,993,39,33580,0,65700,1448,0,0,0,0
i,0x00000000,1716935570.206916,172.16.3.2,5101,172.16.1.2,55823,10499,14480,0,65728,65700,6,6,4,1460,399,1,992,39,33580,0,65700,0,0,0,0,0
i,0x00000000,1716935570.217151,172.16.3.2,5101,172.16.1.2,55823,10499,14480,0,65728,65700,6,6,4,1460,399,1,992,39,33580,0,65700,0,0,0,0,0
o,0x00000000,1716935570.217162,172.16.3.2,5101,172.16.1.2,55823,10499,14480,0,65728,65700,6,6,4,1460,399,1,993,39,33580,0,65700,1448,0,0,0,0
i,0x00000000,1716935570.236186,172.16.3.2,5101,172.16.1.2,55823,10499,14480,0,65728,65700,6,6,4,1460,399,1,992,39,33580,0,65700,0,0,0,0,0
i,0x00000000,1716935570.246102,172.16.3.2,5101,172.16.1.2,55823,10499,14480,0,65728,65700,6,6,4,1460,399,1,992,39,33580,0,65700,0,0,0,0,0
o,0x00000000,1716935570.246111,172.16.3.2,5101,172.16.1.2,55823,10499,14480,0,65728,65700,6,6,4,1460,399,1,993,39,33580,0,65700,1448,0,0,0,0
i,0x00000000,1716935570.255811,172.16.3.2,5101,172.16.1.2,55823,10499,14480,0,65728,65700,6,6,4,1460,399,1,992,39,33580,0,65700,0,0,0,0,0
i,0x00000000,1716935570.266296,172.16.3.2,5101,172.16.1.2,55823,10499,14480,0,65728,65700,6,6,4,1460,399,1,992,39,33580,0,65700,0,0,0,0,0
o,0x00000000,1716935570.266303,172.16.3.2,5101,172.16.1.2,55823,10499,14480,0,65728,65700,6,6,4,1460,399,1,993,39,33580,0,65700,1448,0,0,0,0
i,0x00000000,1716935570.285812,172.16.3.2,5101,172.16.1.2,55823,10499,14480,0,65728,65700,6,6,4,1460,399,1,992,39,33580,0,65700,0,0,0,0,0
i,0x00000000,1716935570.296156,172.16.3.2,5101,172.16.1.2,55823,10499,14480,0,65728,65700,6,6,4,1460,399,1,992,39,33580,0,65700,0,0,0,0,0
o,0x00000000,1716935570.296166,172.16.3.2,5101,172.16.1.2,55823,10499,14480,0,65728,65700,6,6,4,1460,399,1,993,39,33580,0,65700,1448,0,0,0,0
i,0x00000000,1716935570.375741,172.16.3.2,5101,172.16.1.2,55823,10499,14480,0,65728,65700,6,6,4,1460,399,1,992,39,33580,0,65700,0,0,0,0,0
i,0x00000000,1716935570.395415,172.16.3.2,5101,172.16.1.2,55823,10499,14480,0,65728,65700,6,6,4,1460,399,1,992,39,33580,0,65700,0,0,0,0,0
o,0x00000000,1716935570.395430,172.16.3.2,5101,172.16.1.2,55823,10499,14480,0,65728,65700,6,6,4,1460,399,1,993,39,33580,0,65700,1448,0,0,0,0
i,0x00000000,1716935570.425424,172.16.3.2,5101,172.16.1.2,55823,10499,14480,0,65728,65700,6,6,4,1460,399,1,992,39,33580,0,65700,0,0,0,0,0
o,0x00000000,1716935570.457046,172.16.3.2,5101,172.16.1.2,55823,10499,14480,0,65728,65700,6,6,4,1460,399,1,993,39,33580,0,65700,0,0,0,0,0
i,0x00000000,1716935570.466784,172.16.3.2,5101,172.16.1.2,55823,10499,14480,0,65728,65700,6,6,4,1460,399,1,992,39,33580,0,65700,0,0,0,0,0
i,0x00000000,1716935570.475270,172.16.3.2,5101,172.16.1.2,55823,10499,14480,0,65728,65700,6,6,4,1460,399,1,992,39,33580,0,65700,0,0,0,0,0
o,0x00000000,1716935570.475276,172.16.3.2,5101,172.16.1.2,55823,10499,14480,0,65728,65700,6,6,4,1460,399,1,993,39,33580,0,65700,1448,0,0,0,0
i,0x00000000,1716935570.485486,172.16.3.2,5101,172.16.1.2,55823,10499,14480,0,65728,65700,6,6,4,1460,399,1,992,39,33580,0,65700,0,0,0,0,0
o,0x00000000,1716935570.517928,172.16.3.2,5101,172.16.1.2,55823,10499,14480,0,65728,65700,6,6,4,1460,399,1,993,39,33580,0,65700,0,0,0,0,0
i,0x00000000,1716935570.526840,172.16.3.2,5101,172.16.1.2,55823,10499,14480,0,65728,65700,6,6,4,1460,399,1,992,39,33580,0,65700,0,0,0,0,0
i,0x00000000,1716935570.535556,172.16.3.2,5101,172.16.1.2,55823,10499,14480,0,65728,65700,6,6,4,1460,399,1,992,39,33580,0,65700,0,0,0,0,0
o,0x00000000,1716935570.535563,172.16.3.2,5101,172.16.1.2,55823,10499,14480,0,65728,65700,6,6,4,1460,399,1,993,39,33580,0,65700,1448,0,0,0,0
i,0x00000000,1716935570.545820,172.16.3.2,5101,172.16.1.2,55823,10499,14480,0,65728,65700,6,6,4,1460,399,1,992,39,33580,0,65700,0,0,0,0,0
i,0x00000000,1716935570.565448,172.16.3.2,5101,172.16.1.2,55823,10499,14480,0,65728,65700,6,6,4,1460,399,1,992,39,33580,0,65700,0,0,0,0,0
o,0x00000000,1716935570.565453,172.16.3.2,5101,172.16.1.2,55823,10499,14480,0,65728,65700,6,6,4,1460,399,1,993,39,33580,0,65700,1448,0,0,0,0
i,0x00000000,1716935570.596517,172.16.3.2,5101,172.16.1.2,55823,10499,14480,0,65728,65700,6,6,4,1460,399,1,992,39,33580,0,65700,0,0,0,0,0
i,0x00000000,1716935570.615106,172.16.3.2,5101,172.16.1.2,55823,10499,14480,0,65728,65700,6,6,4,1460,399,1,992,39,33580,0,65700,0,0,0,0,0
o,0x00000000,1716935570.615116,172.16.3.2,5101,172.16.1.2,55823,10499,14480,0,65728,65700,6,6,4,1460,399,1,993,39,33580,0,65700,1448,0,0,0,0
i,0x00000000,1716935570.675151,172.16.3.2,5101,172.16.1.2,55823,10499,14480,0,65728,65700,6,6,4,1460,399,1,992,39,33580,0,65700,0,0,0,0,0
i,0x00000000,1716935570.686369,172.16.3.2,5101,172.16.1.2,55823,10499,14480,0,65728,65700,6,6,4,1460,399,1,992,39,33580,0,65700,0,0,0,0,0
o,0x00000000,1716935570.686376,172.16.3.2,5101,172.16.1.2,55823,10499,14480,0,65728,65700,6,6,4,1460,399,1,993,39,33580,0,65700,1448,0,0,0,0
i,0x00000000,1716935570.735223,172.16.3.2,5101,172.16.1.2,55823,10499,14480,0,65728,65700,6,6,4,1460,399,1,992,39,33580,0,65700,0,0,0,0,0
o,0x00000000,1716935570.767884,172.16.3.2,5101,172.16.1.2,55823,10499,14480,0,65728,65700,6,6,4,1460,399,1,993,39,33580,0,65700,0,0,0,0,0
i,0x00000000,1716935570.775671,172.16.3.2,5101,172.16.1.2,55823,10499,14480,0,65728,65700,6,6,4,1460,399,1,992,39,33580,0,65700,0,0,0,0,0
i,0x00000000,1716935570.785178,172.16.3.2,5101,172.16.1.2,55823,10499,14480,0,65728,65700,6,6,4,1460,399,1,992,39,33580,0,65700,0,0,0,0,0
o,0x00000000,1716935570.785185,172.16.3.2,5101,172.16.1.2,55823,10499,14480,0,65728,65700,6,6,4,1460,399,1,993,39,33580,0,65700,1448,0,0,0,0
i,0x00000000,1716935570.797283,172.16.3.2,5101,172.16.1.2,55823,10499,14480,0,65728,65700,6,6,4,1460,399,1,992,39,33580,0,65700,0,0,0,0,0
i,0x00000000,1716935570.836651,172.16.3.2,5101,172.16.1.2,55823,10499,14480,0,65728,65700,6,6,4,1460,399,1,992,39,33580,0,65700,0,0,0,0,0
o,0x00000000,1716935570.836663,172.16.3.2,5101,172.16.1.2,55823,10499,14480,0,65728,65700,6,6,4,1460,399,1,993,39,33580,0,65700,1448,0,0,0,0
i,0x00000000,1716935570.845446,172.16.3.2,5101,172.16.1.2,55823,10499,14480,0,65728,65700,6,6,4,1460,399,1,992,39,33580,0,65700,0,0,0,0,0
i,0x00000000,1716935570.856346,172.16.3.2,5101,172.16.1.2,55823,10499,14480,0,65728,65700,6,6,4,1460,399,1,992,39,33580,0,65700,0,0,0,0,0
o,0x00000000,1716935570.856352,172.16.3.2,5101,172.16.1.2,55823,10499,14480,0,65728,65700,6,6,4,1460,399,1,993,39,33580,0,65700,1448,0,0,0,0
i,0x00000000,1716935570.865098,172.16.3.2,5101,172.16.1.2,55823,10499,14480,0,65728,65700,6,6,4,1460,399,1,992,39,33580,0,65700,0,0,0,0,0
i,0x00000000,1716935570.885738,172.16.3.2,5101,172.16.1.2,55823,10499,14480,0,65728,65700,6,6,4,1460,399,1,992,39,33580,0,65700,0,0,0,0,0
o,0x00000000,1716935570.885743,172.16.3.2,5101,172.16.1.2,55823,10499,14480,0,65728,65700,6,6,4,1460,399,1,993,39,33580,0,65700,1448,0,0,0,0
i,0x00000000,1716935570.915655,172.16.3.2,5101,172.16.1.2,55823,10499,14480,0,65728,65700,6,6,4,1460,399,1,992,39,33580,0,65700,0,0,0,0,0
i,0x00000000,1716935570.925915,172.16.3.2,5101,172.16.1.2,55823,10499,14480,0,65728,65700,6,6,4,1460,399,1,992,39,33580,0,65700,0,0,0,0,0
o,0x00000000,1716935570.925921,172.16.3.2,5101,172.16.1.2,55823,10499,14480,0,65728,65700,6,6,4,1460,399,1,993,39,33580,0,65700,1448,0,0,0,0
i,0x00000000,1716935570.975626,172.16.3.2,5101,172.16.1.2,55823,10499,14480,0,65728,65700,6,6,4,1460,399,1,992,39,33580,0,65700,0,0,0,0,0
o,0x00000000,1716935570.978382,10.0.2.15,22,10.0.2.2,62180,1073725440,14600,0,65535,65700,0,0,4,1460,1,0,4,24,33580,156,65700,0,0,0,0,0
i,0x00000000,1716935570.979154,10.0.2.15,22,10.0.2.2,62180,1073725440,14600,0,65535,65700,0,0,4,1460,1,0,4,24,33580,156,65700,0,156,0,0,0
o,0x00000000,1716935571.008160,172.16.3.2,5101,172.16.1.2,55823,10499,14480,0,65728,65700,6,6,4,1460,399,1,993,39,33580,0,65700,0,0,0,0,0
i,0x00000000,1716935571.025177,172.16.3.2,5101,172.16.1.2,55823,10499,14480,0,65728,65700,6,6,4,1460,399,1,992,39,33580,0,65700,0,0,0,0,0
o,0x00000000,1716935571.057743,172.16.3.2,5101,172.16.1.2,55823,10499,14480,0,65728,65700,6,6,4,1460,399,1,993,39,33580,0,65700,0,0,0,0,0
i,0x00000000,1716935571.065602,172.16.3.2,5101,172.16.1.2,55823,10499,14480,0,65728,65700,6,6,4,1460,399,1,992,39,33580,0,65700,0,0,0,0,0
o,0x00000000,1716935571.097084,172.16.3.2,5101,172.16.1.2,55823,10499,14480,0,65728,65700,6,6,4,1460,399,1,993,39,33580,0,65700,0,0,0,0,0
i,0x00000000,1716935571.105897,172.16.3.2,5101,172.16.1.2,55823,10499,14480,0,65728,65700,6,6,4,1460,399,1,992,39,33580,0,65700,0,0,0,0,0
i,0x00000000,1716935571.115464,172.16.3.2,5101,172.16.1.2,55823,10499,14480,0,65728,65700,6,6,4,1460,399,1,992,39,33580,0,65700,0,0,0,0,0
o,0x00000000,1716935571.115473,172.16.3.2,5101,172.16.1.2,55823,10499,14480,0,65728,65700,6,6,4,1460,399,1,993,39,33580,0,65700,1448,0,0,0,0
i,0x00000000,1716935571.125629,172.16.3.2,5101,172.16.1.2,55823,10499,14480,0,65728,65700,6,6,4,1460,399,1,992,39,33580,0,65700,0,0,0,0,0
o,0x00000000,1716935571.158008,172.16.3.2,5101,172.16.1.2,55823,10499,14480,0,65728,65700,6,6,4,1460,399,1,993,39,33580,0,65700,0,0,0,0,0
i,0x00000000,1716935571.165453,172.16.3.2,5101,172.16.1.2,55823,10499,14480,0,65728,65700,6,6,4,1460,399,1,992,39,33580,0,65700,0,0,0,0,0
i,0x00000000,1716935571.174737,172.16.3.2,5101,172.16.1.2,55823,10499,14480,0,65728,65700,6,6,4,1460,399,1,992,39,33580,0,65700,0,0,0,0,0
o,0x00000000,1716935571.174742,172.16.3.2,5101,172.16.1.2,55823,10499,14480,0,65728,65700,6,6,4,1460,399,1,993,39,33580,0,65700,1448,0,0,0,0
i,0x00000000,1716935571.186010,172.16.3.2,5101,172.16.1.2,55823,10499,14480,0,65728,65700,6,6,4,1460,399,1,992,39,33580,0,65700,0,0,0,0,0
i,0x00000000,1716935571.196263,172.16.3.2,5101,172.16.1.2,55823,10499,14480,0,65728,65700,6,6,4,1460,399,1,992,39,33580,0,65700,0,0,0,0,0
o,0x00000000,1716935571.196273,172.16.3.2,5101,172.16.1.2,55823,10499,14480,0,65728,65700,6,6,4,1460,399,1,993,39,33580,0,65700,1448,0,0,0,0
i,0x00000000,1716935571.225238,172.16.3.2,5101,172.16.1.2,55823,10499,14480,0,65728,65700,6,6,4,1460,399,1,992,39,33580,0,65700,0,0,0,0,0
i,0x00000000,1716935571.236646,172.16.3.2,5101,172.16.1.2,55823,10499,14480,0,65728,65700,6,6,4,1460,399,1,992,39,33580,0,65700,0,0,0,0,0
o,0x00000000,1716935571.236652,172.16.3.2,5101,172.16.1.2,55823,10499,14480,0,65728,65700,6,6,4,1460,399,1,993,39,33580,0,65700,1448,0,0,0,0
i,0x00000000,1716935571.265526,172.16.3.2,5101,172.16.1.2,55823,10499,14480,0,65728,65700,6,6,4,1460,399,1,992,39,33580,0,65700,0,0,0,0,0
i,0x00000000,1716935571.274955,172.16.3.2,5101,172.16.1.2,55823,10499,14480,0,65728,65700,6,6,4,1460,399,1,992,39,33580,0,65700,0,0,0,0,0
o,0x00000000,1716935571.274960,172.16.3.2,5101,172.16.1.2,55823,10499,14480,0,65728,65700,6,6,4,1460,399,1,993,39,33580,0,65700,1448,0,0,0,0
i,0x00000000,1716935571.325429,172.16.3.2,5101,172.16.1.2,55823,10499,14480,0,65728,65700,6,6,4,1460,399,1,992,39,33580,0,65700,0,0,0,0,0
i,0x00000000,1716935571.346091,172.16.3.2,5101,172.16.1.2,55823,10499,14480,0,65728,65700,6,6,4,1460,399,1,992,39,33580,0,65700,0,0,0,0,0
o,0x00000000,1716935571.346106,172.16.3.2,5101,172.16.1.2,55823,10499,14480,0,65728,65700,6,6,4,1460,399,1,993,39,33580,0,65700,1448,0,0,0,0
i,0x00000000,1716935571.415520,172.16.3.2,5101,172.16.1.2,55823,10499,14480,0,65728,65700,6,6,4,1460,399,1,992,39,33580,0,65700,0,0,0,0,0
i,0x00000000,1716935571.436115,172.16.3.2,5101,172.16.1.2,55823,10499,14480,0,65728,65700,6,6,4,1460,399,1,992,39,33580,0,65700,0,0,0,0,0
o,0x00000000,1716935571.436125,172.16.3.2,5101,172.16.1.2,55823,10499,14480,0,65728,65700,6,6,4,1460,399,1,993,39,33580,0,65700,1448,0,0,0,0
i,0x00000000,1716935571.464760,172.16.3.2,5101,172.16.1.2,55823,10499,14480,0,65728,65700,6,6,4,1460,399,1,992,39,33580,0,65700,0,0,0,0,0
i,0x00000000,1716935571.474986,172.16.3.2,5101,172.16.1.2,55823,10499,14480,0,65728,65700,6,6,4,1460,399,1,992,39,33580,0,65700,0,0,0,0,0
o,0x00000000,1716935571.474992,172.16.3.2,5101,172.16.1.2,55823,10499,14480,0,65728,65700,6,6,4,1460,399,1,993,39,33580,0,65700,1448,0,0,0,0
i,0x00000000,1716935571.516326,172.16.3.2,5101,172.16.1.2,55823,10499,14480,0,65728,65700,6,6,4,1460,399,1,992,39,33580,0,65700,0,0,0,0,0
i,0x00000000,1716935571.525428,172.16.3.2,5101,172.16.1.2,55823,10499,14480,0,65728,65700,6,6,4,1460,399,1,992,39,33580,0,65700,0,0,0,0,0
o,0x00000000,1716935571.525436,172.16.3.2,5101,172.16.1.2,55823,10499,14480,0,65728,65700,6,6,4,1460,399,1,993,39,33580,0,65700,1448,0,0,0,0
i,0x00000000,1716935571.546326,172.16.3.2,5101,172.16.1.2,55823,10499,14480,0,65728,65700,6,6,4,1460,399,1,992,39,33580,0,65700,0,0,0,0,0
i,0x00000000,1716935571.555038,172.16.3.2,5101,172.16.1.2,55823,10499,14480,0,65728,65700,6,6,4,1460,399,1,992,39,33580,0,65700,0,0,0,0,0
o,0x00000000,1716935571.555044,172.16.3.2,5101,172.16.1.2,55823,10499,14480,0,65728,65700,6,6,4,1460,399,1,993,39,33580,0,65700,1448,0,0,0,0
i,0x00000000,1716935571.565750,172.16.3.2,5101,172.16.1.2,55823,10499,14480,0,65728,65700,6,6,4,1460,399,1,992,39,33580,0,65700,0,0,0,0,0
o,0x00000000,1716935571.598374,172.16.3.2,5101,172.16.1.2,55823,10499,14480,0,65728,65700,6,6,4,1460,399,1,993,39,33580,0,65700,0,0,0,0,0
i,0x00000000,1716935571.606121,172.16.3.2,5101,172.16.1.2,55823,10499,14480,0,65728,65700,6,6,4,1460,399,1,992,39,33580,0,65700,0,0,0,0,0
i,0x00000000,1716935571.615467,172.16.3.2,5101,172.16.1.2,55823,10499,14480,0,65728,65700,6,6,4,1460,399,1,992,39,33580,0,65700,0,0,0,0,0
o,0x00000000,1716935571.615477,172.16.3.2,5101,172.16.1.2,55823,10499,14480,0,65728,65700,6,6,4,1460,399,1,993,39,33580,0,65700,1448,0,0,0,0
i,0x00000000,1716935571.624879,172.16.3.2,5101,172.16.1.2,55823,10499,14480,0,65728,65700,6,6,4,1460,399,1,992,39,33580,0,65700,0,0,0,0,0
o,0x00000000,1716935571.657551,172.16.3.2,5101,172.16.1.2,55823,10499,14480,0,65728,65700,6,6,4,1460,399,1,993,39,33580,0,65700,0,0,0,0,0
i,0x00000000,1716935571.685112,172.16.3.2,5101,172.16.1.2,55823,10499,14480,0,65728,65700,6,6,4,1460,399,1,992,39,33580,0,65700,0,0,0,0,0
o,0x00000000,1716935571.685120,172.16.3.2,5101,172.16.1.2,55823,10499,14480,0,65728,65728,6,6,4,1460,399,1,993,39,33580,0,65700,0,0,1,0,0
i,0x00000000,1716935571.705667,172.16.3.2,5101,172.16.1.2,55823,10499,14480,0,65728,65728,6,6,4,1460,399,1,992,39,33580,0,65700,0,0,1,0,0
o,0x00000000,1716935571.705672,172.16.3.2,5101,172.16.1.2,55823,10499,14480,0,65728,65728,6,6,4,1460,399,1,993,39,33580,0,65700,0,0,1,0,0
i,0x00000000,1716935571.765813,172.16.3.2,5101,172.16.1.2,55823,10499,14480,0,65728,65728,6,6,4,1460,399,1,992,39,33580,0,65700,0,0,1,0,0
o,0x00000000,1716935571.765820,172.16.3.2,5101,172.16.1.2,55823,10499,14480,0,65728,65728,6,6,4,1460,399,1,993,39,33580,0,65700,0,0,1,0,0
i,0x00000000,1716935571.776206,172.16.3.2,5101,172.16.1.2,55823,10499,14480,0,65728,65728,6,6,4,1460,399,1,992,39,33580,0,65700,0,0,1,0,0
o,0x00000000,1716935571.776211,172.16.3.2,5101,172.16.1.2,55823,10499,14480,0,65728,65728,6,6,4,1460,399,1,993,39,33580,0,65700,0,0,1,0,0
i,0x00000000,1716935571.795223,172.16.3.2,5101,172.16.1.2,55823,10499,14480,0,65728,65728,6,6,4,1460,399,1,992,39,33580,0,65700,0,0,1,0,0
o,0x00000000,1716935571.795233,172.16.3.2,5101,172.16.1.2,55823,10499,14480,0,65728,65728,6,6,4,1460,399,1,993,39,33580,0,65700,0,0,2,0,0
i,0x00000000,1716935571.835496,172.16.3.2,5101,172.16.1.2,55823,10499,14480,0,65728,65728,6,6,4,1460,399,1,992,39,33580,0,65700,0,0,2,0,0
o,0x00000000,1716935571.835501,172.16.3.2,5101,172.16.1.2,55823,10499,14480,0,65728,65728,6,6,4,1460,399,1,993,39,33580,0,65700,0,0,2,0,0
i,0x00000000,1716935571.865641,172.16.3.2,5101,172.16.1.2,55823,10499,14480,0,65728,65728,6,6,4,1460,399,1,992,39,33580,0,65700,0,0,2,0,0
o,0x00000000,1716935571.865647,172.16.3.2,5101,172.16.1.2,55823,10499,14480,0,65728,65728,6,6,4,1460,399,1,993,39,33580,0,65700,0,0,2,0,0
i,0x00000000,1716935571.874893,172.16.3.2,5101,172.16.1.2,55823,10499,14480,0,65728,65728,6,6,4,1460,399,1,992,39,33580,0,65700,0,0,2,0,0
o,0x00000000,1716935571.874898,172.16.3.2,5101,172.16.1.2,55823,10499,14480,0,65728,65728,6,6,4,1460,399,1,993,39,33580,0,65700,0,0,2,0,0
i,0x00000000,1716935571.915216,172.16.3.2,5101,172.16.1.2,55823,10499,14480,0,65728,65728,6,6,4,1460,399,1,992,39,33580,0,65700,0,0,2,0,0
o,0x00000000,1716935571.915223,172.16.3.2,5101,172.16.1.2,55823,10499,14480,0,65728,65728,6,6,4,1460,399,1,993,39,33580,0,65700,0,0,3,0,0
i,0x00000000,1716935571.925620,172.16.3.2,5101,172.16.1.2,55823,10499,14480,0,65728,65728,6,6,4,1460,399,1,992,39,33580,0,65700,0,0,3,0,0
o,0x00000000,1716935571.925625,172.16.3.2,5101,172.16.1.2,55823,10499,14480,0,65728,65728,6,6,4,1460,399,1,993,39,33580,0,65700,0,0,3,0,0
i,0x00000000,1716935571.945251,172.16.3.2,5101,172.16.1.2,55823,10499,14480,0,65728,65728,6,6,4,1460,399,1,992,39,33580,0,65700,0,0,3,0,0
o,0x00000000,1716935571.945256,172.16.3.2,5101,172.16.1.2,55823,10499,14480,0,65728,65728,6,6,4,1460,399,1,993,39,33580,0,65700,0,0,4,0,0
i,0x00000000,1716935571.975307,172.16.3.2,5101,172.16.1.2,55823,10499,14480,0,65728,65728,6,6,4,1460,399,1,992,39,33580,0,65700,0,0,4,0,0
o,0x00000000,1716935571.975313,172.16.3.2,5101,172.16.1.2,55823,10499,14480,0,65728,65728,6,6,4,1460,399,1,993,39,33580,0,65700,0,0,4,0,0
i,0x00000000,1716935571.984644,172.16.3.2,5101,172.16.1.2,55823,10499,14480,0,65728,65728,6,6,4,1460,399,1,992,39,33580,0,65700,0,0,4,0,0
o,0x00000000,1716935571.984650,172.16.3.2,5101,172.16.1.2,55823,10499,14480,0,65728,65728,6,6,4,1460,399,1,993,39,33580,0,65700,0,0,4,0,0
o,0x00000000,1716935571.985170,10.0.2.15,22,10.0.2.2,62180,1073725440,14600,0,65535,65700,0,0,4,1460,1,0,4,24,33580,108,65700,0,0,0,0,0
i,0x00000000,1716935571.985859,10.0.2.15,22,10.0.2.2,62180,1073725440,14600,0,65535,65700,0,0,4,1460,1,0,4,24,33580,108,65700,0,108,0,0,0
i,0x00000000,1716935572.005293,172.16.3.2,5101,172.16.1.2,55823,10499,14480,0,65728,65728,6,6,4,1460,399,1,992,39,33580,0,65700,0,0,4,0,0
o,0x00000000,1716935572.005313,172.16.3.2,5101,172.16.1.2,55823,10499,14480,0,65728,65728,6,6,4,1460,399,1,993,39,33580,0,65700,7240,0,3,0,0
i,0x00000000,1716935572.025863,172.16.3.2,5101,172.16.1.2,55823,10499,14480,0,65728,65728,6,6,4,1460,399,1,992,39,33580,0,65700,0,0,3,0,0
o,0x00000000,1716935572.025874,172.16.3.2,5101,172.16.1.2,55823,10499,14480,0,65728,65700,6,6,4,1460,399,1,993,39,33580,0,65700,7240,0,2,0,0
i,0x00000000,1716935572.065345,172.16.3.2,5101,172.16.1.2,55823,10499,14480,0,65728,65700,6,6,4,1460,399,1,992,39,33580,0,65700,0,0,2,0,0
o,0x00000000,1716935572.065352,172.16.3.2,5101,172.16.1.2,55823,10499,14480,0,65728,65700,6,6,4,1460,399,1,993,39,33580,0,65700,0,0,2,0,0
i,0x00000000,1716935572.075713,172.16.3.2,5101,172.16.1.2,55823,10499,14480,0,65728,65700,6,6,4,1460,399,1,992,39,33580,0,65700,0,0,2,0,0
o,0x00000000,1716935572.075723,172.16.3.2,5101,172.16.1.2,55823,10499,14480,0,65728,65728,6,6,4,1460,399,1,993,39,33580,0,65700,1448,0,2,0,0
i,0x00000000,1716935572.116974,172.16.3.2,5101,172.16.1.2,55823,10499,14480,0,65728,65728,6,6,4,1460,399,1,992,39,33580,0,65700,0,0,2,0,0
o,0x00000000,1716935572.116986,172.16.3.2,5101,172.16.1.2,55823,10499,14480,0,65728,65700,6,6,4,1460,399,1,993,39,33580,0,65700,0,0,1,0,0
i,0x00000000,1716935572.145218,172.16.3.2,5101,172.16.1.2,55823,10499,14480,0,65728,65700,6,6,4,1460,399,1,992,39,33580,0,65700,0,0,1,0,0
o,0x00000000,1716935572.145228,172.16.3.2,5101,172.16.1.2,55823,10499,14480,0,65728,65728,6,6,4,1460,399,1,993,39,33580,0,65700,0,0,1,0,0
i,0x00000000,1716935572.166000,172.16.3.2,5101,172.16.1.2,55823,10499,14480,0,65728,65728,6,6,4,1460,399,1,992,39,33580,0,65700,0,0,1,0,0
o,0x00000000,1716935572.166004,172.16.3.2,5101,172.16.1.2,55823,10499,14480,0,65728,65728,6,6,4,1460,399,1,993,39,33580,0,65700,0,0,1,0,0
i,0x00000000,1716935572.175223,172.16.3.2,5101,172.16.1.2,55823,10499,14480,0,65728,65728,6,6,4,1460,399,1,992,39,33580,0,65700,0,0,1,0,0
o,0x00000000,1716935572.175228,172.16.3.2,5101,172.16.1.2,55823,10499,14480,0,65728,65728,6,6,4,1460,399,1,993,39,33580,0,65700,0,0,1,0,0
i,0x00000000,1716935572.215521,172.16.3.2,5101,172.16.1.2,55823,10499,14480,0,65728,65728,6,6,4,1460,399,1,992,39,33580,0,65700,0,0,1,0,0
o,0x00000000,1716935572.215531,172.16.3.2,5101,172.16.1.2,55823,10499,14480,0,65728,65728,6,6,4,1460,399,1,993,39,33580,0,65700,0,0,1,0,0
i,0x00000000,1716935572.245529,172.16.3.2,5101,172.16.1.2,55823,10499,14480,0,65728,65728,6,6,4,1460,399,1,992,39,33580,0,65700,0,0,1,0,0
o,0x00000000,1716935572.245536,172.16.3.2,5101,172.16.1.2,55823,10499,14480,0,65728,65728,6,6,4,1460,399,1,993,39,33580,0,65700,0,0,1,0,0
i,0x00000000,1716935572.255824,172.16.3.2,5101,172.16.1.2,55823,10499,14480,0,65728,65728,6,6,4,1460,399,1,992,39,33580,0,65700,0,0,1,0,0
o,0x00000000,1716935572.255828,172.16.3.2,5101,172.16.1.2,55823,10499,14480,0,65728,65728,6,6,4,1460,399,1,993,39,33580,0,65700,0,0,1,0,0
i,0x00000000,1716935572.275510,172.16.3.2,5101,172.16.1.2,55823,10499,14480,0,65728,65728,6,6,4,1460,399,1,992,39,33580,0,65700,0,0,1,0,0
o,0x00000000,1716935572.275515,172.16.3.2,5101,172.16.1.2,55823,10499,14480,0,65728,65728,6,6,4,1460,399,1,993,39,33580,0,65700,0,0,1,0,0
i,0x00000000,1716935572.314860,172.16.3.2,5101,172.16.1.2,55823,10499,14480,0,65728,65728,6,6,4,1460,399,1,992,39,33580,0,65700,0,0,1,0,0
o,0x00000000,1716935572.314892,172.16.3.2,5101,172.16.1.2,55823,10499,14480,0,65728,65728,6,6,4,1460,399,1,993,39,33580,0,65700,0,0,1,0,0
i,0x00000000,1716935572.344783,172.16.3.2,5101,172.16.1.2,55823,10499,14480,0,65728,65728,6,6,4,1460,399,1,992,39,33580,0,65700,0,0,1,0,0
o,0x00000000,1716935572.344799,172.16.3.2,5101,172.16.1.2,55823,10499,14480,0,65728,65728,6,6,4,1460,399,1,993,39,33580,0,65700,0,0,1,0,0
i,0x00000000,1716935572.354314,172.16.3.2,5101,172.16.1.2,55823,10499,14480,0,65728,65728,6,6,4,1460,399,1,992,39,33580,0,65700,0,0,1,0,0
o,0x00000000,1716935572.354323,172.16.3.2,5101,172.16.1.2,55823,10499,14480,0,65728,65728,6,6,4,1460,399,1,993,39,33580,0,65700,0,0,1,0,0
i,0x00000000,1716935572.374992,172.16.3.2,5101,172.16.1.2,55823,10499,14480,0,65728,65728,6,6,4,1460,399,1,992,39,33580,0,65700,0,0,1,0,0
o,0x00000000,1716935572.374999,172.16.3.2,5101,172.16.1.2,55823,10499,14480,0,65728,65728,6,6,4,1460,399,1,993,39,33580,0,65700,0,0,1,0,0
i,0x00000000,1716935572.414520,172.16.3.2,5101,172.16.1.2,55823,10499,14480,0,65728,65728,6,6,4,1460,399,1,992,39,33580,0,65700,0,0,1,0,0
o,0x00000000,1716935572.414532,172.16.3.2,5101,172.16.1.2,55823,10499,14480,0,65728,65728,6,6,4,1460,399,1,993,39,33580,0,65700,0,0,1,0,0
i,0x00000000,1716935572.445469,172.16.3.2,5101,172.16.1.2,55823,10499,14480,0,65728,65728,6,6,4,1460,399,1,992,39,33580,0,65700,0,0,1,0,0
o,0x00000000,1716935572.445475,172.16.3.2,5101,172.16.1.2,55823,10499,14480,0,65728,65728,6,6,4,1460,399,1,993,39,33580,0,65700,0,0,1,0,0
i,0x00000000,1716935572.454804,172.16.3.2,5101,172.16.1.2,55823,10499,14480,0,65728,65728,6,6,4,1460,399,1,992,39,33580,0,65700,0,0,1,0,0
o,0x00000000,1716935572.454809,172.16.3.2,5101,172.16.1.2,55823,10499,14480,0,65728,65728,6,6,4,1460,399,1,993,39,33580,0,65700,0,0,1,0,0
i,0x00000000,1716935572.474523,172.16.3.2,5101,172.16.1.2,55823,10499,14480,0,65728,65728,6,6,4,1460,399,1,992,39,33580,0,65700,0,0,1,0,0
o,0x00000000,1716935572.474528,172.16.3.2,5101,172.16.1.2,55823,10499,14480,0,65728,65728,6,6,4,1460,399,1,993,39,33580,0,65700,0,0,1,0,0
i,0x00000000,1716935572.514824,172.16.3.2,5101,172.16.1.2,55823,10499,14480,0,65728,65728,6,6,4,1460,399,1,992,39,33580,0,65700,0,0,1,0,0
o,0x00000000,1716935572.514830,172.16.3.2,5101,172.16.1.2,55823,10499,14480,0,65728,65728,6,6,4,1460,399,1,993,39,33580,0,65700,0,0,1,0,0
i,0x00000000,1716935572.545783,172.16.3.2,5101,172.16.1.2,55823,10499,14480,0,65728,65728,6,6,4,1460,399,1,992,39,33580,0,65700,0,0,1,0,0
o,0x00000000,1716935572.545788,172.16.3.2,5101,172.16.1.2,55823,10499,14480,0,65728,65728,6,6,4,1460,399,1,993,39,33580,0,65700,0,0,1,0,0
i,0x00000000,1716935572.555271,172.16.3.2,5101,172.16.1.2,55823,10499,14480,0,65728,65728,6,6,4,1460,399,1,992,39,33580,0,65700,0,0,1,0,0
o,0x00000000,1716935572.555275,172.16.3.2,5101,172.16.1.2,55823,10499,14480,0,65728,65728,6,6,4,1460,399,1,993,39,33580,0,65700,0,0,1,0,0
i,0x00000000,1716935572.574958,172.16.3.2,5101,172.16.1.2,55823,10499,14480,0,65728,65728,6,6,4,1460,399,1,992,39,33580,0,65700,0,0,1,0,0
o,0x00000000,1716935572.574965,172.16.3.2,5101,172.16.1.2,55823,10499,14480,0,65728,65728,6,6,4,1460,399,1,993,39,33580,0,65700,0,0,1,0,0
i,0x00000000,1716935572.615150,172.16.3.2,5101,172.16.1.2,55823,10499,14480,0,65728,65728,6,6,4,1460,399,1,992,39,33580,0,65700,0,0,1,0,0
o,0x00000000,1716935572.615158,172.16.3.2,5101,172.16.1.2,55823,10499,14480,0,65728,65728,6,6,4,1460,399,1,993,39,33580,0,65700,0,0,1,0,0
i,0x00000000,1716935572.644380,172.16.3.2,5101,172.16.1.2,55823,10499,14480,0,65728,65728,6,6,4,1460,399,1,992,39,33580,0,65700,0,0,1,0,0
o,0x00000000,1716935572.644392,172.16.3.2,5101,172.16.1.2,55823,10499,14480,0,65728,65728,6,6,4,1460,399,1,993,39,33580,0,65700,0,0,1,0,0
i,0x00000000,1716935572.655383,172.16.3.2,5101,172.16.1.2,55823,10499,14480,0,65728,65728,6,6,4,1460,399,1,992,39,33580,0,65700,0,0,1,0,0
o,0x00000000,1716935572.655389,172.16.3.2,5101,172.16.1.2,55823,10499,14480,0,65728,65728,6,6,4,1460,399,1,993,39,33580,0,65700,0,0,1,0,0
i,0x00000000,1716935572.675074,172.16.3.2,5101,172.16.1.2,55823,10499,14480,0,65728,65728,6,6,4,1460,399,1,992,39,33580,0,65700,0,0,1,0,0
o,0x00000000,1716935572.675079,172.16.3.2,5101,172.16.1.2,55823,10499,14480,0,65728,65728,6,6,4,1460,399,1,993,39,33580,0,65700,0,0,1,0,0
i,0x00000000,1716935572.715522,172.16.3.2,5101,172.16.1.2,55823,10499,14480,0,65728,65728,6,6,4,1460,399,1,992,39,33580,0,65700,0,0,1,0,0
o,0x00000000,1716935572.715527,172.16.3.2,5101,172.16.1.2,55823,10499,14480,0,65728,65728,6,6,4,1460,399,1,993,39,33580,0,65700,0,0,1,0,0
i,0x00000000,1716935572.744881,172.16.3.2,5101,172.16.1.2,55823,10499,14480,0,65728,65728,6,6,4,1460,399,1,992,39,33580,0,65700,0,0,1,0,0
o,0x00000000,1716935572.744886,172.16.3.2,5101,172.16.1.2,55823,10499,14480,0,65728,65728,6,6,4,1460,399,1,993,39,33580,0,65700,0,0,1,0,0
i,0x00000000,1716935572.754729,172.16.3.2,5101,172.16.1.2,55823,10499,14480,0,65728,65728,6,6,4,1460,399,1,992,39,33580,0,65700,0,0,1,0,0
o,0x00000000,1716935572.754734,172.16.3.2,5101,172.16.1.2,55823,10499,14480,0,65728,65728,6,6,4,1460,399,1,993,39,33580,0,65700,0,0,1,0,0
i,0x00000000,1716935572.774842,172.16.3.2,5101,172.16.1.2,55823,10499,14480,0,65728,65728,6,6,4,1460,399,1,992,39,33580,0,65700,0,0,1,0,0
o,0x00000000,1716935572.774848,172.16.3.2,5101,172.16.1.2,55823,10499,14480,0,65728,65728,6,6,4,1460,399,1,993,39,33580,0,65700,0,0,1,0,0
i,0x00000000,1716935572.815088,172.16.3.2,5101,172.16.1.2,55823,10499,14480,0,65728,65728,6,6,4,1460,399,1,992,39,33580,0,65700,0,0,1,0,0
o,0x00000000,1716935572.815100,172.16.3.2,5101,172.16.1.2,55823,10499,14480,0,65728,65728,6,6,4,1460,399,1,993,39,33580,0,65700,0,0,1,0,0
i,0x00000000,1716935572.844089,172.16.3.2,5101,172.16.1.2,55823,10499,14480,0,65728,65728,6,6,4,1460,399,1,992,39,33580,0,65700,0,0,1,0,0
o,0x00000000,1716935572.844096,172.16.3.2,5101,172.16.1.2,55823,10499,14480,0,65728,65728,6,6,4,1460,399,1,993,39,33580,0,65700,0,0,1,0,0
i,0x00000000,1716935572.854926,172.16.3.2,5101,172.16.1.2,55823,10499,14480,0,65728,65728,6,6,4,1460,399,1,992,39,33580,0,65700,0,0,1,0,0
o,0x00000000,1716935572.854930,172.16.3.2,5101,172.16.1.2,55823,10499,14480,0,65728,65728,6,6,4,1460,399,1,993,39,33580,0,65700,0,0,1,0,0
i,0x00000000,1716935572.864794,172.16.3.2,5101,172.16.1.2,55823,10499,14480,0,65728,65728,6,6,4,1460,399,1,992,39,33580,0,65700,0,0,1,0,0
o,0x00000000,1716935572.864799,172.16.3.2,5101,172.16.1.2,55823,10499,14480,0,65728,65728,6,6,4,1460,399,1,993,39,33580,0,65700,0,0,1,0,0
o,0x00000000,1716935572.978150,10.0.2.15,22,10.0.2.2,62180,1073725440,14600,0,65535,65700,0,0,4,1460,1,0,4,24,33580,108,65700,0,0,0,0,0
i,0x00000000,1716935572.978967,10.0.2.15,22,10.0.2.2,62180,1073725440,14600,0,65535,65700,0,0,4,1460,1,0,4,24,33580,108,65700,0,108,0,0,0
i,0x00000000,1716935573.084616,172.16.3.2,5101,172.16.1.2,55823,10499,14480,0,65728,65728,6,6,4,1460,399,1,992,39,33580,0,65700,0,0,1,0,0
o,0x00000000,1716935573.084645,172.16.3.2,5101,172.16.1.2,55823,10499,14480,0,65728,65728,6,6,4,1460,399,1,993,39,33580,0,65700,56472,0,0,0,0
o,0x00000000,1716935573.084803,172.16.3.2,5101,172.16.1.2,55823,10499,14480,0,65728,65728,6,6,4,1460,399,1,992,39,33580,0,65700,32552,0,0,0,0
o,0x00000000,1716935573.085143,172.16.3.2,5101,172.16.1.2,55823,10499,14480,0,65728,65728,6,6,4,1460,399,1,992,39,33580,0,65700,0,0,0,0,0
i,0x00000000,1716935573.204443,172.16.3.2,5101,172.16.1.2,55823,10499,14480,0,65728,65728,6,6,4,1460,399,1,992,39,33580,0,65700,0,0,0,0,0
o,0x00000000,1716935573.204530,172.16.3.2,5101,172.16.1.2,55823,10499,14480,0,65728,65728,6,6,4,1460,399,1,993,39,33580,0,65700,0,0,0,0,0
i,0x00000000,1716935573.214712,172.16.3.2,5101,172.16.1.2,55823,10499,14480,0,65728,65728,6,6,4,1460,399,1,992,39,33580,0,65700,0,0,0,0,0
o,0x00000000,1716935573.247494,172.16.3.2,5101,172.16.1.2,55823,10499,14480,0,65728,65728,6,6,4,1460,399,1,993,39,33580,0,65700,0,0,0,0,0
i,0x00000000,1716935573.355659,172.16.3.2,5101,172.16.1.2,55823,10499,14480,0,65728,65728,6,6,4,1460,399,1,992,39,33580,0,65700,0,0,0,0,0
i,0x00000000,1716935573.364290,172.16.3.2,5101,172.16.1.2,55823,10499,14480,0,65728,65728,6,6,4,1460,399,1,992,39,33580,0,65700,0,0,0,0,0
o,0x00000000,1716935573.364302,172.16.3.2,5101,172.16.1.2,55823,10499,14480,0,65728,65728,6,6,4,1460,399,1,993,39,33580,0,65700,1448,0,0,0,0
i,0x00000000,1716935573.374610,172.16.3.2,5101,172.16.1.2,55823,10499,14480,0,65728,65728,6,6,4,1460,399,1,992,39,33580,0,65700,0,0,0,0,0
o,0x00000000,1716935573.407687,172.16.3.2,5101,172.16.1.2,55823,10499,14480,0,65728,65728,6,6,4,1460,399,1,993,39,33580,0,65700,0,0,0,0,0
i,0x00000000,1716935573.534862,172.16.3.2,5101,172.16.1.2,55823,10499,14480,0,65728,65728,6,6,4,1460,399,1,992,39,33580,0,65700,0,0,0,0,0
i,0x00000000,1716935573.545162,172.16.3.2,5101,172.16.1.2,55823,10499,14480,0,65728,65728,6,6,4,1460,399,1,992,39,33580,0,65700,0,0,0,0,0
o,0x00000000,1716935573.545172,172.16.3.2,5101,172.16.1.2,55823,10499,14480,0,65728,65728,6,6,4,1460,399,1,993,39,33580,0,65700,1448,0,0,0,0
i,0x00000000,1716935573.554486,172.16.3.2,5101,172.16.1.2,55823,10499,14480,0,65728,65728,6,6,4,1460,399,1,992,39,33580,0,65700,0,0,0,0,0
i,0x00000000,1716935573.574128,172.16.3.2,5101,172.16.1.2,55823,10499,14480,0,65728,65728,6,6,4,1460,399,1,992,39,33580,0,65700,0,0,0,0,0
o,0x00000000,1716935573.574133,172.16.3.2,5101,172.16.1.2,55823,10499,14480,0,65728,65728,6,6,4,1460,399,1,993,39,33580,0,65700,1448,0,0,0,0
i,0x00000000,1716935573.584616,172.16.3.2,5101,172.16.1.2,55823,10499,14480,0,65728,65728,6,6,4,1460,399,1,992,39,33580,0,65700,0,0,0,0,0
i,0x00000000,1716935573.595767,172.16.3.2,5101,172.16.1.2,55823,10499,14480,0,65728,65728,6,6,4,1460,399,1,992,39,33580,0,65700,0,0,0,0,0
o,0x00000000,1716935573.595775,172.16.3.2,5101,172.16.1.2,55823,10499,14480,0,65728,65728,6,6,4,1460,399,1,993,39,33580,0,65700,1448,0,0,0,0
i,0x00000000,1716935573.724651,172.16.3.2,5101,172.16.1.2,55823,10499,14480,0,65728,65728,6,6,4,1460,399,1,992,39,33580,0,65700,0,0,0,0,0
i,0x00000000,1716935573.744287,172.16.3.2,5101,172.16.1.2,55823,10499,14480,0,65728,65728,6,6,4,1460,399,1,992,39,33580,0,65700,0,0,0,0,0
o,0x00000000,1716935573.744299,172.16.3.2,5101,172.16.1.2,55823,10499,14480,0,65728,65728,6,6,4,1460,399,1,993,39,33580,0,65700,1448,0,0,0,0
i,0x00000000,1716935573.754120,172.16.3.2,5101,172.16.1.2,55823,10499,14480,0,65728,65728,6,6,4,1460,399,1,992,39,33580,0,65700,0,0,0,0,0
o,0x00000000,1716935573.787127,172.16.3.2,5101,172.16.1.2,55823,10499,14480,0,65728,65728,6,6,4,1460,399,1,993,39,33580,0,65700,0,0,0,0,0
i,0x00000000,1716935573.814585,172.16.3.2,5101,172.16.1.2,55823,10499,14480,0,65728,65728,6,6,4,1460,399,1,992,39,33580,0,65700,0,0,0,0,0
i,0x00000000,1716935573.823936,172.16.3.2,5101,172.16.1.2,55823,10499,14480,0,65728,65728,6,6,4,1460,399,1,992,39,33580,0,65700,0,0,0,0,0
o,0x00000000,1716935573.823946,172.16.3.2,5101,172.16.1.2,55823,10499,14480,0,65728,65728,6,6,4,1460,399,1,993,39,33580,0,65700,1448,0,0,0,0
i,0x00000000,1716935573.834291,172.16.3.2,5101,172.16.1.2,55823,10499,14480,0,65728,65728,6,6,4,1460,399,1,992,39,33580,0,65700,0,0,0,0,0
i,0x00000000,1716935573.854455,172.16.3.2,5101,172.16.1.2,55823,10499,14480,0,65728,65728,6,6,4,1460,399,1,992,39,33580,0,65700,0,0,0,0,0
o,0x00000000,1716935573.854461,172.16.3.2,5101,172.16.1.2,55823,10499,14480,0,65728,65728,6,6,4,1460,399,1,993,39,33580,0,65700,1448,0,0,0,0
i,0x00000000,1716935573.864263,172.16.3.2,5101,172.16.1.2,55823,10499,14480,0,65728,65728,6,6,4,1460,399,1,992,39,33580,0,65700,0,0,0,0,0
i,0x00000000,1716935573.874049,172.16.3.2,5101,172.16.1.2,55823,10499,14480,0,65728,65728,6,6,4,1460,399,1,992,39,33580,0,65700,0,0,0,0,0
o,0x00000000,1716935573.874054,172.16.3.2,5101,172.16.1.2,55823,10499,14480,0,65728,65728,6,6,4,1460,399,1,993,39,33580,0,65700,1448,0,0,0,0
i,0x00000000,1716935573.884047,172.16.3.2,5101,172.16.1.2,55823,10499,14480,0,65728,65728,6,6,4,1460,399,1,992,39,33580,0,65700,0,0,0,0,0
i,0x00000000,1716935573.904674,172.16.3.2,5101,172.16.1.2,55823,10499,14480,0,65728,65728,6,6,4,1460,399,1,992,39,33580,0,65700,0,0,0,0,0
o,0x00000000,1716935573.904680,172.16.3.2,5101,172.16.1.2,55823,10499,14480,0,65728,65728,6,6,4,1460,399,1,993,39,33580,0,65700,1448,0,0,0,0
i,0x00000000,1716935573.914023,172.16.3.2,5101,172.16.1.2,55823,10499,14480,0,65728,65728,6,6,4,1460,399,1,992,39,33580,0,65700,0,0,0,0,0
o,0x00000000,1716935573.947489,172.16.3.2,5101,172.16.1.2,55823,10499,14480,0,65728,65728,6,6,4,1460,399,1,993,39,33580,0,65700,0,0,0,0,0
o,0x00000000,1716935573.978522,10.0.2.15,22,10.0.2.2,62180,1073725440,14600,0,65535,65700,0,0,4,1460,1,0,4,24,33580,108,65700,0,0,0,0,0
i,0x00000000,1716935573.979259,10.0.2.15,22,10.0.2.2,62180,1073725440,14600,0,65535,65700,0,0,4,1460,1,0,4,24,33580,108,65700,0,108,0,0,0
i,0x00000000,1716935574.094334,172.16.3.2,5101,172.16.1.2,55823,10499,14480,0,65728,65728,6,6,4,1460,399,1,992,39,33580,0,65700,0,0,0,0,0
i,0x00000000,1716935574.104610,172.16.3.2,5101,172.16.1.2,55823,10499,14480,0,65728,65728,6,6,4,1460,399,1,992,39,33580,0,65700,0,0,0,0,0
o,0x00000000,1716935574.104623,172.16.3.2,5101,172.16.1.2,55823,10499,14480,0,65728,65728,6,6,4,1460,399,1,993,39,33580,0,65700,1448,0,0,0,0
i,0x00000000,1716935574.164645,172.16.3.2,5101,172.16.1.2,55823,10499,14480,0,65728,65728,6,6,4,1460,399,1,992,39,33580,0,65700,0,0,0,0,0
i,0x00000000,1716935574.174942,172.16.3.2,5101,172.16.1.2,55823,10499,14480,0,65728,65728,6,6,4,1460,399,1,992,39,33580,0,65700,0,0,0,0,0
o,0x00000000,1716935574.174957,172.16.3.2,5101,172.16.1.2,55823,10499,14480,0,65728,65728,6,6,4,1460,399,1,993,39,33580,0,65700,1448,0,0,0,0
i,0x00000000,1716935574.214186,172.16.3.2,5101,172.16.1.2,55823,10499,14480,0,65728,65728,6,6,4,1460,399,1,992,39,33580,0,65700,0,0,0,0,0
i,0x00000000,1716935574.224488,172.16.3.2,5101,172.16.1.2,55823,10499,14480,0,65728,65728,6,6,4,1460,399,1,992,39,33580,0,65700,0,0,0,0,0
o,0x00000000,1716935574.224497,172.16.3.2,5101,172.16.1.2,55823,10499,14480,0,65728,65728,6,6,4,1460,399,1,993,39,33580,0,65700,1448,0,0,0,0
i,0x00000000,1716935574.244212,172.16.3.2,5101,172.16.1.2,55823,10499,14480,0,65728,65728,6,6,4,1460,399,1,992,39,33580,0,65700,0,0,0,0,0
i,0x00000000,1716935574.255069,172.16.3.2,5101,172.16.1.2,55823,10499,14480,0,65728,65728,6,6,4,1460,399,1,992,39,33580,0,65700,0,0,0,0,0
o,0x00000000,1716935574.255078,172.16.3.2,5101,172.16.1.2,55823,10499,14480,0,65728,65728,6,6,4,1460,399,1,993,39,33580,0,65700,1448,0,0,0,0
i,0x00000000,1716935574.274454,172.16.3.2,5101,172.16.1.2,55823,10499,14480,0,65728,65728,6,6,4,1460,399,1,992,39,33580,0,65700,0,0,0,0,0
i,0x00000000,1716935574.284644,172.16.3.2,5101,172.16.1.2,55823,10499,14480,0,65728,65728,6,6,4,1460,399,1,992,39,33580,0,65700,0,0,0,0,0
o,0x00000000,1716935574.284657,172.16.3.2,5101,172.16.1.2,55823,10499,14480,0,65728,65728,6,6,4,1460,399,1,993,39,33580,0,65700,1448,0,0,0,0
i,0x00000000,1716935574.305300,172.16.3.2,5101,172.16.1.2,55823,10499,14480,0,65728,65728,6,6,4,1460,399,1,992,39,33580,0,65700,0,0,0,0,0
i,0x00000000,1716935574.313966,172.16.3.2,5101,172.16.1.2,55823,10499,14480,0,65728,65728,6,6,4,1460,399,1,992,39,33580,0,65700,0,0,0,0,0
o,0x00000000,1716935574.313978,172.16.3.2,5101,172.16.1.2,55823,10499,14480,0,65728,65728,6,6,4,1460,399,1,993,39,33580,0,65700,1448,0,0,0,0
i,0x00000000,1716935574.324330,172.16.3.2,5101,172.16.1.2,55823,10499,14480,0,65728,65728,6,6,4,1460,399,1,992,39,33580,0,65700,0,0,0,0,0
i,0x00000000,1716935574.334571,172.16.3.2,5101,172.16.1.2,55823,10499,14480,0,65728,65728,6,6,4,1460,399,1,992,39,33580,0,65700,0,0,0,0,0
o,0x00000000,1716935574.334582,172.16.3.2,5101,172.16.1.2,55823,10499,14480,0,65728,65728,6,6,4,1460,399,1,993,39,33580,0,65700,1448,0,0,0,0
i,0x00000000,1716935574.354182,172.16.3.2,5101,172.16.1.2,55823,10499,14480,0,65728,65728,6,6,4,1460,399,1,992,39,33580,0,65700,0,0,0,0,0
i,0x00000000,1716935574.364538,172.16.3.2,5101,172.16.1.2,55823,10499,14480,0,65728,65728,6,6,4,1460,399,1,992,39,33580,0,65700,0,0,0,0,0
o,0x00000000,1716935574.364545,172.16.3.2,5101,172.16.1.2,55823,10499,14480,0,65728,65700,6,6,4,1460,399,1,993,39,33580,0,65700,0,0,1,0,0
i,0x00000000,1716935574.373841,172.16.3.2,5101,172.16.1.2,55823,10499,14480,0,65728,65700,6,6,4,1460,399,1,992,39,33580,0,65700,0,0,1,0,0
o,0x00000000,1716935574.373847,172.16.3.2,5101,172.16.1.2,55823,10499,14480,0,65728,65728,6,6,4,1460,399,1,993,39,33580,0,65700,0,0,1,0,0
i,0x00000000,1716935574.414147,172.16.3.2,5101,172.16.1.2,55823,10499,14480,0,65728,65728,6,6,4,1460,399,1,992,39,33580,0,65700,0,0,1,0,0
o,0x00000000,1716935574.414159,172.16.3.2,5101,172.16.1.2,55823,10499,14480,0,65728,65728,6,6,4,1460,399,1,993,39,33580,0,65700,0,0,1,0,0
i,0x00000000,1716935574.424500,172.16.3.2,5101,172.16.1.2,55823,10499,14480,0,65728,65728,6,6,4,1460,399,1,992,39,33580,0,65700,0,0,1,0,0
o,0x00000000,1716935574.424504,172.16.3.2,5101,172.16.1.2,55823,10499,14480,0,65728,65728,6,6,4,1460,399,1,993,39,33580,0,65700,0,0,1,0,0
i,0x00000000,1716935574.454530,172.16.3.2,5101,172.16.1.2,55823,10499,14480,0,65728,65728,6,6,4,1460,399,1,992,39,33580,0,65700,0,0,1,0,0
o,0x00000000,1716935574.454535,172.16.3.2,5101,172.16.1.2,55823,10499,14480,0,65728,65728,6,6,4,1460,399,1,993,39,33580,0,65700,0,0,1,0,0
i,0x00000000,1716935574.535156,172.16.3.2,5101,172.16.1.2,55823,10499,14480,0,65728,65728,6,6,4,1460,399,1,992,39,33580,0,65700,0,0,1,0,0
o,0x00000000,1716935574.535163,172.16.3.2,5101,172.16.1.2,55823,10499,14480,0,65728,65728,6,6,4,1460,399,1,993,39,33580,0,65700,0,0,2,0,0
i,0x00000000,1716935574.564146,172.16.3.2,5101,172.16.1.2,55823,10499,14480,0,65728,65728,6,6,4,1460,399,1,992,39,33580,0,65700,0,0,2,0,0
o,0x00000000,1716935574.564154,172.16.3.2,5101,172.16.1.2,55823,10499,14480,0,65728,65728,6,6,4,1460,399,1,993,39,33580,0,65700,0,0,3,0,0
i,0x00000000,1716935574.584838,172.16.3.2,5101,172.16.1.2,55823,10499,14480,0,65728,65728,6,6,4,1460,399,1,992,39,33580,0,65700,0,0,3,0,0
o,0x00000000,1716935574.584851,172.16.3.2,5101,172.16.1.2,55823,10499,14480,0,65728,65728,6,6,4,1460,399,1,993,39,33580,0,65700,0,0,3,0,0
i,0x00000000,1716935574.594174,172.16.3.2,5101,172.16.1.2,55823,10499,14480,0,65728,65728,6,6,4,1460,399,1,992,39,33580,0,65700,0,0,3,0,0
o,0x00000000,1716935574.594184,172.16.3.2,5101,172.16.1.2,55823,10499,14480,0,65728,65728,6,6,4,1460,399,1,993,39,33580,0,65700,0,0,4,0,0
i,0x00000000,1716935574.614920,172.16.3.2,5101,172.16.1.2,55823,10499,14480,0,65728,65728,6,6,4,1460,399,1,992,39,33580,0,65700,0,0,4,0,0
o,0x00000000,1716935574.614939,172.16.3.2,5101,172.16.1.2,55823,10499,14480,0,65728,65728,6,6,4,1460,399,1,993,39,33580,0,65700,0,0,4,0,0
i,0x00000000,1716935574.625298,172.16.3.2,5101,172.16.1.2,55823,10499,14480,0,65728,65728,6,6,4,1460,399,1,992,39,33580,0,65700,0,0,4,0,0
o,0x00000000,1716935574.625311,172.16.3.2,5101,172.16.1.2,55823,10499,14480,0,65728,65728,6,6,4,1460,399,1,993,39,33580,0,65700,0,0,4,0,0
i,0x00000000,1716935574.633819,172.16.3.2,5101,172.16.1.2,55823,10499,14480,0,65728,65728,6,6,4,1460,399,1,992,39,33580,0,65700,0,0,4,0,0
o,0x00000000,1716935574.633831,172.16.3.2,5101,172.16.1.2,55823,10499,14480,0,65728,65728,6,6,4,1460,399,1,993,39,33580,0,65700,0,0,5,0,0
i,0x00000000,1716935574.645958,172.16.3.2,5101,172.16.1.2,55823,10499,14480,0,65728,65728,6,6,4,1460,399,1,992,39,33580,0,65700,0,0,5,0,0
o,0x00000000,1716935574.645967,172.16.3.2,5101,172.16.1.2,55823,10499,14480,0,65728,65728,6,6,4,1460,399,1,993,39,33580,0,65700,0,0,6,0,0
i,0x00000000,1716935574.774724,172.16.3.2,5101,172.16.1.2,55823,10499,14480,0,65728,65728,6,6,4,1460,399,1,992,39,33580,0,65700,0,0,6,0,0
o,0x00000000,1716935574.774740,172.16.3.2,5101,172.16.1.2,55823,10499,14480,0,65728,65728,6,6,4,1460,399,1,993,39,33580,0,65700,0,0,5,0,0
i,0x00000000,1716935574.784100,172.16.3.2,5101,172.16.1.2,55823,10499,14480,0,65728,65728,6,6,4,1460,399,1,992,39,33580,0,65700,0,0,5,0,0
o,0x00000000,1716935574.784109,172.16.3.2,5101,172.16.1.2,55823,10499,14480,0,65728,65728,6,6,4,1460,399,1,993,39,33580,0,65700,0,0,4,0,0
i,0x00000000,1716935574.794380,172.16.3.2,5101,172.16.1.2,55823,10499,14480,0,65728,65728,6,6,4,1460,399,1,992,39,33580,0,65700,0,0,4,0,0
o,0x00000000,1716935574.794385,172.16.3.2,5101,172.16.1.2,55823,10499,14480,0,65728,65728,6,6,4,1460,399,1,993,39,33580,0,65700,0,0,3,0,0
i,0x00000000,1716935574.804732,172.16.3.2,5101,172.16.1.2,55823,10499,14480,0,65728,65728,6,6,4,1460,399,1,992,39,33580,0,65700,0,0,3,0,0
o,0x00000000,1716935574.804740,172.16.3.2,5101,172.16.1.2,55823,10499,14480,0,65728,65728,6,6,4,1460,399,1,993,39,33580,0,65700,0,0,2,0,0
i,0x00000000,1716935574.823298,172.16.3.2,5101,172.16.1.2,55823,10499,14480,0,65728,65728,6,6,4,1460,399,1,992,39,33580,0,65700,0,0,2,0,0
o,0x00000000,1716935574.823302,172.16.3.2,5101,172.16.1.2,55823,10499,14480,0,65728,65728,6,6,4,1460,399,1,993,39,33580,0,65700,0,0,2,0,0
i,0x00000000,1716935574.943859,172.16.3.2,5101,172.16.1.2,55823,10499,14480,0,65728,65728,6,6,4,1460,399,1,992,39,33580,0,65700,0,0,2,0,0
o,0x00000000,1716935574.943866,172.16.3.2,5101,172.16.1.2,55823,10499,14480,0,65728,65728,6,6,4,1460,399,1,993,39,33580,0,65700,0,0,2,0,0
i,0x00000000,1716935574.964056,172.16.3.2,5101,172.16.1.2,55823,10499,14480,0,65728,65728,6,6,4,1460,399,1,992,39,33580,0,65700,0,0,2,0,0
o,0x00000000,1716935574.964061,172.16.3.2,5101,172.16.1.2,55823,10499,14480,0,65728,65728,6,6,4,1460,399,1,993,39,33580,0,65700,0,0,2,0,0
i,0x00000000,1716935574.984155,172.16.3.2,5101,172.16.1.2,55823,10499,14480,0,65728,65728,6,6,4,1460,399,1,992,39,33580,0,65700,0,0,2,0,0
o,0x00000000,1716935574.984160,172.16.3.2,5101,172.16.1.2,55823,10499,14480,0,65728,65728,6,6,4,1460,399,1,993,39,33580,0,65700,0,0,1,0,0
o,0x00000000,1716935574.988502,10.0.2.15,22,10.0.2.2,62180,1073725440,14600,0,65535,65700,0,0,4,1460,1,0,4,24,33580,108,65700,0,0,0,0,0
i,0x00000000,1716935574.989256,10.0.2.15,22,10.0.2.2,62180,1073725440,14600,0,65535,65700,0,0,4,1460,1,0,4,24,33580,108,65700,0,108,0,0,0
i,0x00000000,1716935574.994548,172.16.3.2,5101,172.16.1.2,55823,10499,14480,0,65728,65728,6,6,4,1460,399,1,992,39,33580,0,65700,0,0,1,0,0
o,0x00000000,1716935574.994555,172.16.3.2,5101,172.16.1.2,55823,10499,14480,0,65728,65728,6,6,4,1460,399,1,993,39,33580,0,65700,0,0,2,0,0
i,0x00000000,1716935575.014191,172.16.3.2,5101,172.16.1.2,55823,10499,14480,0,65728,65728,6,6,4,1460,399,1,992,39,33580,0,65700,0,0,2,0,0
o,0x00000000,1716935575.014200,172.16.3.2,5101,172.16.1.2,55823,10499,14480,0,65728,65728,6,6,4,1460,399,1,993,39,33580,0,65700,0,0,2,0,0
i,0x00000000,1716935575.023418,172.16.3.2,5101,172.16.1.2,55823,10499,14480,0,65728,65728,6,6,4,1460,399,1,992,39,33580,0,65700,0,0,2,0,0
o,0x00000000,1716935575.023424,172.16.3.2,5101,172.16.1.2,55823,10499,14480,0,65728,65728,6,6,4,1460,399,1,993,39,33580,0,65700,0,0,2,0,0
i,0x00000000,1716935575.033752,172.16.3.2,5101,172.16.1.2,55823,10499,14480,0,65728,65728,6,6,4,1460,399,1,992,39,33580,0,65700,0,0,2,0,0
o,0x00000000,1716935575.033761,172.16.3.2,5101,172.16.1.2,55823,10499,14480,0,65728,65728,6,6,4,1460,399,1,993,39,33580,0,65700,0,0,2,0,0
i,0x00000000,1716935575.044126,172.16.3.2,5101,172.16.1.2,55823,10499,14480,0,65728,65728,6,6,4,1460,399,1,992,39,33580,0,65700,0,0,2,0,0
o,0x00000000,1716935575.044133,172.16.3.2,5101,172.16.1.2,55823,10499,14480,0,65728,65728,6,6,4,1460,399,1,993,39,33580,0,65700,0,0,2,0,0
i,0x00000000,1716935575.104042,172.16.3.2,5101,172.16.1.2,55823,10499,14480,0,65728,65728,6,6,4,1460,399,1,992,39,33580,0,65700,0,0,2,0,0
o,0x00000000,1716935575.104052,172.16.3.2,5101,172.16.1.2,55823,10499,14480,0,65728,65728,6,6,4,1460,399,1,993,39,33580,0,65700,0,0,2,0,0
i,0x00000000,1716935575.134965,172.16.3.2,5101,172.16.1.2,55823,10499,14480,0,65728,65728,6,6,4,1460,399,1,992,39,33580,0,65700,0,0,2,0,0
o,0x00000000,1716935575.134971,172.16.3.2,5101,172.16.1.2,55823,10499,14480,0,65728,65728,6,6,4,1460,399,1,993,39,33580,0,65700,0,0,2,0,0
i,0x00000000,1716935575.164147,172.16.3.2,5101,172.16.1.2,55823,10499,14480,0,65728,65728,6,6,4,1460,399,1,992,39,33580,0,65700,0,0,2,0,0
o,0x00000000,1716935575.164164,172.16.3.2,5101,172.16.1.2,55823,10499,14480,0,65728,65728,6,6,4,1460,399,1,993,39,33580,0,65700,0,0,2,0,0
i,0x00000000,1716935575.174302,172.16.3.2,5101,172.16.1.2,55823,10499,14480,0,65728,65728,6,6,4,1460,399,1,992,39,33580,0,65700,0,0,2,0,0
o,0x00000000,1716935575.174311,172.16.3.2,5101,172.16.1.2,55823,10499,14480,0,65728,65728,6,6,4,1460,399,1,993,39,33580,0,65700,0,0,1,0,0
i,0x00000000,1716935575.224169,172.16.3.2,5101,172.16.1.2,55823,10499,14480,0,65728,65728,6,6,4,1460,399,1,992,39,33580,0,65700,0,0,1,0,0
o,0x00000000,1716935575.224175,172.16.3.2,5101,172.16.1.2,55823,10499,14480,0,65728,65728,6,6,4,1460,399,1,993,39,33580,0,65700,0,0,1,0,0
i,0x00000000,1716935575.234427,172.16.3.2,5101,172.16.1.2,55823,10499,14480,0,65728,65728,6,6,4,1460,399,1,992,39,33580,0,65700,0,0,1,0,0
o,0x00000000,1716935575.234433,172.16.3.2,5101,172.16.1.2,55823,10499,14480,0,65728,65728,6,6,4,1460,399,1,993,39,33580,0,65700,0,0,1,0,0
i,0x00000000,1716935575.263799,172.16.3.2,5101,172.16.1.2,55823,10499,14480,0,65728,65728,6,6,4,1460,399,1,992,39,33580,0,65700,0,0,1,0,0
o,0x00000000,1716935575.263804,172.16.3.2,5101,172.16.1.2,55823,10499,14480,0,65728,65728,6,6,4,1460,399,1,993,39,33580,0,65700,0,0,1,0,0
i,0x00000000,1716935575.274093,172.16.3.2,5101,172.16.1.2,55823,10499,14480,0,65728,65728,6,6,4,1460,399,1,992,39,33580,0,65700,0,0,1,0,0
o,0x00000000,1716935575.274098,172.16.3.2,5101,172.16.1.2,55823,10499,14480,0,65728,65728,6,6,4,1460,399,1,993,39,33580,0,65700,0,0,1,0,0
i,0x00000000,1716935575.303147,172.16.3.2,5101,172.16.1.2,55823,10499,14480,0,65728,65728,6,6,4,1460,399,1,992,39,33580,0,65700,0,0,1,0,0
o,0x00000000,1716935575.303163,172.16.3.2,5101,172.16.1.2,55823,10499,14480,0,65728,65728,6,6,4,1460,399,1,993,39,33580,0,65700,0,0,1,0,0
i,0x00000000,1716935575.334112,172.16.3.2,5101,172.16.1.2,55823,10499,14480,0,65728,65728,6,6,4,1460,399,1,992,39,33580,0,65700,0,0,1,0,0
o,0x00000000,1716935575.334124,172.16.3.2,5101,172.16.1.2,55823,10499,14480,0,65728,65728,6,6,4,1460,399,1,993,39,33580,0,65700,0,0,1,0,0
i,0x00000000,1716935575.353713,172.16.3.2,5101,172.16.1.2,55823,10499,14480,0,65728,65728,6,6,4,1460,399,1,992,39,33580,0,65700,0,0,1,0,0
o,0x00000000,1716935575.353721,172.16.3.2,5101,172.16.1.2,55823,10499,14480,0,65728,65728,6,6,4,1460,399,1,993,39,33580,0,65700,0,0,1,0,0
i,0x00000000,1716935575.383918,172.16.3.2,5101,172.16.1.2,55823,10499,14480,0,65728,65728,6,6,4,1460,399,1,992,39,33580,0,65700,0,0,1,0,0
o,0x00000000,1716935575.383924,172.16.3.2,5101,172.16.1.2,55823,10499,14480,0,65728,65728,6,6,4,1460,399,1,993,39,33580,0,65700,0,0,1,0,0
i,0x00000000,1716935575.403613,172.16.3.2,5101,172.16.1.2,55823,10499,14480,0,65728,65728,6,6,4,1460,399,1,992,39,33580,0,65700,0,0,1,0,0
o,0x00000000,1716935575.403620,172.16.3.2,5101,172.16.1.2,55823,10499,14480,0,65728,65728,6,6,4,1460,399,1,993,39,33580,0,65700,0,0,1,0,0
i,0x00000000,1716935575.433468,172.16.3.2,5101,172.16.1.2,55823,10499,14480,0,65728,65728,6,6,4,1460,399,1,992,39,33580,0,65700,0,0,1,0,0
o,0x00000000,1716935575.433473,172.16.3.2,5101,172.16.1.2,55823,10499,14480,0,65728,65728,6,6,4,1460,399,1,993,39,33580,0,65700,0,0,1,0,0
i,0x00000000,1716935575.463567,172.16.3.2,5101,172.16.1.2,55823,10499,14480,0,65728,65728,6,6,4,1460,399,1,992,39,33580,0,65700,0,0,1,0,0
o,0x00000000,1716935575.463573,172.16.3.2,5101,172.16.1.2,55823,10499,14480,0,65728,65728,6,6,4,1460,399,1,993,39,33580,0,65700,0,0,1,0,0
i,0x00000000,1716935575.473846,172.16.3.2,5101,172.16.1.2,55823,10499,14480,0,65728,65728,6,6,4,1460,399,1,992,39,33580,0,65700,0,0,1,0,0
o,0x00000000,1716935575.473850,172.16.3.2,5101,172.16.1.2,55823,10499,14480,0,65728,65728,6,6,4,1460,399,1,993,39,33580,0,65700,0,0,1,0,0
i,0x00000000,1716935575.484371,172.16.3.2,5101,172.16.1.2,55823,10499,14480,0,65728,65728,6,6,4,1460,399,1,992,39,33580,0,65700,0,0,1,0,0
o,0x00000000,1716935575.484378,172.16.3.2,5101,172.16.1.2,55823,10499,14480,0,65728,65728,6,6,4,1460,399,1,993,39,33580,0,65700,0,0,1,0,0
i,0x00000000,1716935575.503927,172.16.3.2,5101,172.16.1.2,55823,10499,14480,0,65728,65728,6,6,4,1460,399,1,992,39,33580,0,65700,0,0,1,0,0
