enable_time_secs=1716937199	enable_time_usecs=354031	siftrver=1.2.4	hz=100	tcp_rtt_scale=32	sysname=FreeBSD	sysver=1301000	ipmode=4
o,0x00000000,1716937199.354063,10.0.2.15,22,10.0.2.2,57949,1073725440,17298,0,65535,65700,0,0,4,1460,1,0,4,24,33580,44,65700,0,0,0,0,0
o,0x00000000,1716937199.354168,10.0.2.15,22,10.0.2.2,57949,1073725440,17298,0,65535,65700,0,0,4,1460,1,0,4,24,33580,80,65700,0,44,0,0,0
i,0x00000000,1716937199.354548,10.0.2.15,22,10.0.2.2,57949,1073725440,17298,0,65535,65700,0,0,4,1460,1,0,4,24,33580,80,65700,0,80,0,0,0
i,0x00000000,1716937199.354552,10.0.2.15,22,10.0.2.2,57949,1073725440,17342,0,65535,65700,0,0,4,1460,1,0,4,24,33580,36,65700,0,36,0,0,0
o,0x00000000,1716937199.354635,10.0.2.15,22,10.0.2.2,57949,1073725440,17378,0,65535,65700,0,0,4,1460,1,0,4,24,33580,36,65700,0,0,0,0,0
i,0x00000000,1716937199.355135,10.0.2.15,22,10.0.2.2,57949,1073725440,17378,0,65535,65700,0,0,4,1460,1,0,4,24,33580,36,65700,0,36,0,0,0
o,0x00000000,1716937199.355206,10.0.2.15,22,10.0.2.2,57949,1073725440,17414,0,65535,65700,0,0,4,1460,1,0,4,24,33580,36,65700,0,0,0,0,0
i,0x00000000,1716937199.355896,10.0.2.15,22,10.0.2.2,57949,1073725440,17414,0,65535,65700,0,0,4,1460,1,0,4,24,33580,36,65700,0,36,0,0,0
o,0x00000000,1716937199.356008,10.0.2.15,22,10.0.2.2,57949,1073725440,17450,0,65535,65700,0,0,4,1460,1,0,4,24,33580,140,65700,0,0,0,0,0
i,0x00000000,1716937199.356751,10.0.2.15,22,10.0.2.2,57949,1073725440,17450,0,65535,65700,0,0,4,1460,1,0,4,24,33580,140,65700,0,140,0,0,0
i,0x00000000,1716937199.357083,10.0.2.15,22,10.0.2.2,57949,1073725440,17590,0,65535,65700,0,0,4,1460,1,0,4,24,33580,0,65700,0,0,0,0,0
i,0x00000000,1716937199.357085,10.0.2.15,22,10.0.2.2,57949,1073725440,17590,0,65535,65700,0,0,4,1460,1,0,4,24,33580,0,65700,96,0,0,0,0
o,0x00000000,1716937199.357087,10.0.2.15,22,10.0.2.2,57949,1073725440,17590,0,65535,65604,0,0,5,1460,1,0,5,24,33580,0,65700,96,0,0,0,0
o,0x00000000,1716937199.357410,10.0.2.15,22,10.0.2.2,57949,1073725440,17590,0,65535,65604,0,0,8,1460,1,0,4,24,33580,0,65700,0,0,0,0,0
i,0x00000000,1716937199.358085,10.0.2.15,22,10.0.2.2,57949,1073725440,17590,0,65535,65604,0,0,8,1460,1,0,20,24,33580,0,65700,0,1,0,0,0
i,0x00000000,1716937201.461749,10.0.2.15,22,10.0.2.2,57952,1073725440,14600,0,65535,65700,0,0,4,1460,1,0,0,27,33580,0,65700,0,0,0,0,0
o,0x00000000,1716937201.467760,10.0.2.15,22,10.0.2.2,57952,1073725440,14600,0,65535,65700,0,0,4,1460,1,0,0,27,33580,38,65700,41,0,0,0,0
i,0x00000000,1716937201.468537,10.0.2.15,22,10.0.2.2,57952,1073725440,14600,0,65535,65700,0,0,4,1460,1,0,0,27,33580,38,65700,41,38,0,0,0
i,0x00000000,1716937201.469196,10.0.2.15,22,10.0.2.2,57952,1073725440,14638,0,65535,65700,0,0,4,1460,1,0,0,24,33580,0,65700,0,0,0,0,0
i,0x00000000,1716937201.469200,10.0.2.15,22,10.0.2.2,57952,1073725440,14638,0,65535,65700,0,0,4,1460,1,0,0,24,33580,0,65700,1460,0,0,0,0
o,0x00000000,1716937201.469203,10.0.2.15,22,10.0.2.2,57952,1073725440,14638,0,65535,65700,0,0,4,1460,1,0,1,24,33580,0,65700,1536,0,0,0,0
o,0x00000000,1716937201.469650,10.0.2.15,22,10.0.2.2,57952,1073725440,14638,0,65535,65700,0,0,4,1460,1,0,0,24,33580,1056,65700,1536,0,0,0,0
i,0x00000000,1716937201.470087,10.0.2.15,22,10.0.2.2,57952,1073725440,14638,0,65535,65700,0,0,4,1460,1,0,0,24,33580,1056,65700,1536,1056,0,0,0
i,0x00000000,1716937201.471864,10.0.2.15,22,10.0.2.2,57952,1073725440,15694,0,65535,65700,0,0,4,1460,1,0,0,24,33580,0,65700,0,0,0,0,0
o,0x00000000,1716937201.474569,10.0.2.15,22,10.0.2.2,57952,1073725440,15694,0,65535,65700,0,0,4,1460,1,0,0,24,33580,484,65700,0,0,0,0,0
i,0x00000000,1716937201.475200,10.0.2.15,22,10.0.2.2,57952,1073725440,15694,0,65535,65700,0,0,4,1460,1,0,0,24,33580,484,65700,0,484,0,0,0
i,0x00000000,1716937201.479875,10.0.2.15,22,10.0.2.2,57952,1073725440,16178,0,65535,65700,0,0,4,1460,1,0,0,24,33580,0,65700,0,0,0,0,0
i,0x00000000,1716937201.484400,10.0.2.15,22,10.0.2.2,57952,1073725440,16178,0,65535,65700,0,0,4,1460,1,0,0,24,33580,0,65700,0,0,0,0,0
o,0x00000000,1716937201.484404,10.0.2.15,22,10.0.2.2,57952,1073725440,16178,0,65535,65700,0,0,4,1460,1,0,1,24,33580,0,65700,44,0,0,0,0
o,0x00000000,1716937201.484583,10.0.2.15,22,10.0.2.2,57952,1073725440,16178,0,65535,65700,0,0,4,1460,1,0,0,24,33580,44,65700,0,0,0,0,0
i,0x00000000,1716937201.485000,10.0.2.15,22,10.0.2.2,57952,1073725440,16178,0,65535,65700,0,0,4,1460,1,0,0,24,33580,44,65700,0,44,0,0,0
i,0x00000000,1716937201.485764,10.0.2.15,22,10.0.2.2,57952,1073725440,16222,0,65535,65700,0,0,4,1460,1,0,0,24,33580,0,65700,0,0,0,0,0
o,0x00000000,1716937201.495174,10.0.2.15,22,10.0.2.2,57952,1073725440,16222,0,65535,65700,0,0,4,1460,1,0,0,24,33580,68,65700,0,0,0,0,0
i,0x00000000,1716937201.495819,10.0.2.15,22,10.0.2.2,57952,1073725440,16222,0,65535,65700,0,0,4,1460,1,0,0,24,33580,68,65700,0,68,0,0,0
i,0x00000000,1716937201.498362,10.0.2.15,22,10.0.2.2,57952,1073725440,16290,0,65535,65700,0,0,4,1460,1,0,0,24,33580,0,65700,0,0,0,0,0
o,0x00000000,1716937201.507448,10.0.2.15,22,10.0.2.2,57952,1073725440,16290,0,65535,65700,0,0,4,1460,1,0,0,24,33580,28,65700,0,0,0,0,0
i,0x00000000,1716937201.508083,10.0.2.15,22,10.0.2.2,57952,1073725440,16290,0,65535,65700,0,0,4,1460,1,0,0,24,33580,28,65700,0,28,0,0,0
i,0x00000000,1716937201.508609,10.0.2.15,22,10.0.2.2,57952,1073725440,16318,0,65535,65700,0,0,4,1460,1,0,0,24,33580,0,65700,0,0,0,0,0
o,0x00000000,1716937201.509277,10.0.2.15,22,10.0.2.2,57952,1073725440,16318,0,65535,65700,0,0,4,1460,1,0,0,24,33580,768,65700,112,0,0,0,0
i,0x00000000,1716937201.509921,10.0.2.15,22,10.0.2.2,57952,1073725440,16318,0,65535,65700,0,0,4,1460,1,0,0,24,33580,768,65700,112,768,0,0,0
o,0x00000000,1716937201.510063,10.0.2.15,22,10.0.2.2,57952,1073725440,17086,0,65535,65700,0,0,4,1460,1,0,0,24,33580,44,65700,0,0,0,0,0
i,0x00000000,1716937201.510619,10.0.2.15,22,10.0.2.2,57952,1073725440,17086,0,65535,65700,0,0,4,1460,1,0,0,24,33580,44,65700,0,44,0,0,0
i,0x00000000,1716937201.511398,10.0.2.15,22,10.0.2.2,57952,1073725440,17130,0,65535,65700,0,0,4,1460,1,0,0,24,33580,0,65700,0,0,0,0,0
o,0x00000000,1716937201.511693,10.0.2.15,22,10.0.2.2,57952,1073725440,17130,0,65535,65700,0,0,4,1460,1,0,4,24,33580,72,65700,0,0,0,0,0
i,0x00000000,1716937201.512419,10.0.2.15,22,10.0.2.2,57952,1073725440,17130,0,65535,65700,0,0,4,1460,1,0,4,24,33580,72,65700,0,72,0,0,0
o,0x00000000,1716937201.514755,10.0.2.15,22,10.0.2.2,57952,1073725440,17202,0,65535,65700,0,0,4,1460,1,0,4,24,33580,44,65700,0,0,0,0,0
i,0x00000000,1716937201.515269,10.0.2.15,22,10.0.2.2,57952,1073725440,17202,0,65535,65700,0,0,4,1460,1,0,4,24,33580,44,65700,0,44,0,0,0
o,0x00000000,1716937201.515565,10.0.2.15,22,10.0.2.2,57952,1073725440,17246,0,65535,65700,0,0,4,1460,1,0,4,24,33580,44,65700,0,0,0,0,0
i,0x00000000,1716937201.516244,10.0.2.15,22,10.0.2.2,57952,1073725440,17246,0,65535,65700,0,0,4,1460,1,0,4,24,33580,44,65700,0,44,0,0,0
o,0x00000000,1716937201.517434,10.0.2.15,22,10.0.2.2,57952,1073725440,17290,0,65535,65700,0,0,4,1460,1,0,4,24,33580,176,65700,0,0,0,0,0
i,0x00000000,1716937201.518136,10.0.2.15,22,10.0.2.2,57952,1073725440,17290,0,65535,65700,0,0,4,1460,1,0,4,24,33580,176,65700,0,176,0,0,0
i,0x00000000,1716937201.518458,10.0.2.15,22,10.0.2.2,57952,1073725440,17466,0,65535,65700,0,0,4,1460,1,0,4,24,33580,0,65700,0,0,0,0,0
i,0x00000000,1716937201.518460,10.0.2.15,22,10.0.2.2,57952,1073725440,17466,0,65535,65700,0,0,4,1460,1,0,4,24,33580,0,65700,96,0,0,0,0
o,0x00000000,1716937201.518463,10.0.2.15,22,10.0.2.2,57952,1073725440,17466,0,65535,65604,0,0,5,1460,1,0,5,24,33580,0,65700,96,0,0,0,0
o,0x00000000,1716937201.524009,10.0.2.15,22,10.0.2.2,57952,1073725440,17466,0,65535,65604,0,0,8,1460,1,0,4,24,33580,0,65700,0,0,0,0,0
i,0x00000000,1716937201.524978,10.0.2.15,22,10.0.2.2,57952,1073725440,17466,0,65535,65604,0,0,8,1460,1,0,20,24,33580,0,65700,0,1,0,0,0
i,0x00000000,1716937201.764885,172.16.3.2,5101,172.16.1.2,53419,10499,14480,0,65728,65700,6,6,4,1460,403,1,992,38,33580,0,65700,0,0,0,0,0
o,0x00000000,1716937201.765009,172.16.3.2,5101,172.16.1.2,53419,10499,14480,0,65728,65700,6,6,4,1460,403,1,996,38,33580,1,65700,0,0,0,0,0
i,0x00000000,1716937201.884274,172.16.3.2,5101,172.16.1.2,53419,10499,14480,0,65728,65700,6,6,4,1460,403,1,996,38,33580,1,65700,0,1,0,0,0
i,0x00000000,1716937201.884291,172.16.3.2,5101,172.16.1.2,53419,10499,14480,0,65728,65728,6,6,4,1460,397,1,996,38,33580,0,65700,4,0,0,0,0
o,0x00000000,1716937201.884299,172.16.3.2,5101,172.16.1.2,53419,10499,14480,0,65728,65728,6,6,4,1460,397,1,997,38,33580,0,65700,128,0,0,0,0
o,0x00000000,1716937201.884684,172.16.3.2,5101,172.16.1.2,53419,10499,14480,0,65728,65728,6,6,4,1460,397,1,996,38,33580,1,65700,0,0,0,0,0
o,0x00000000,1716937201.884835,10.0.2.15,22,10.0.2.2,62180,1073725440,14600,0,65535,65700,0,0,4,1460,1,0,4,24,33580,84,65700,0,0,0,0,0
i,0x00000000,1716937201.885518,10.0.2.15,22,10.0.2.2,62180,1073725440,14600,0,65535,65700,0,0,4,1460,1,0,4,24,33580,84,65700,0,84,0,0,0
i,0x00000000,1716937202.035018,172.16.3.2,5101,172.16.1.2,53419,10499,14480,0,65728,65728,6,6,4,1460,397,1,996,38,33580,1,65700,0,1,0,0,0
i,0x00000000,1716937202.124115,172.16.3.2,5101,172.16.1.2,41464,10499,14480,0,65728,65700,6,6,4,1460,403,1,992,38,33580,0,65700,0,0,0,0,0
o,0x00000000,1716937202.126074,172.16.3.2,5101,172.16.1.2,53419,10499,14480,0,65728,65728,6,6,4,1460,408,1,996,40,33580,1,65700,0,0,0,0,0
o,0x00000000,1716937202.126179,172.16.3.2,5101,172.16.1.2,53419,10499,14480,0,65728,65728,6,6,4,1460,408,1,996,40,33580,2,65700,0,1,0,0,0
o,0x00000000,1716937202.126598,10.0.2.15,22,10.0.2.2,62180,1073725440,14600,0,65535,65700,0,0,4,1460,1,0,4,24,33580,108,65700,0,0,0,0,0
i,0x00000000,1716937202.127435,10.0.2.15,22,10.0.2.2,62180,1073725440,14600,0,65535,65700,0,0,4,1460,1,0,4,24,33580,108,65700,0,108,0,0,0
o,0x00000000,1716937202.157747,172.16.3.2,5101,172.16.1.2,41464,10499,14480,0,65728,65700,6,6,4,1460,403,1,993,38,33580,0,65700,0,0,0,0,0
i,0x00000000,1716937202.244773,172.16.3.2,5101,172.16.1.2,53419,10499,14480,0,65728,65728,6,6,4,1460,408,1,996,40,33580,2,65700,0,2,0,0,0
i,0x00000000,1716937202.343969,172.16.3.2,5101,172.16.1.2,41464,10499,14480,0,65728,65700,6,6,4,1460,403,1,992,38,33580,0,65700,0,0,0,0,0
i,0x00000000,1716937202.354289,172.16.3.2,5101,172.16.1.2,41464,10499,14480,0,65728,65700,6,6,4,1460,403,1,992,38,33580,0,65700,0,0,0,0,0
o,0x00000000,1716937202.354299,172.16.3.2,5101,172.16.1.2,41464,10499,14480,0,65728,65700,6,6,4,1460,403,1,993,38,33580,0,65700,1448,0,0,0,0
i,0x00000000,1716937202.363612,172.16.3.2,5101,172.16.1.2,41464,10499,14480,0,65728,65700,6,6,4,1460,403,1,992,38,33580,0,65700,0,0,0,0,0
i,0x00000000,1716937202.374227,172.16.3.2,5101,172.16.1.2,41464,10499,14480,0,65728,65700,6,6,4,1460,403,1,992,38,33580,0,65700,0,0,0,0,0
o,0x00000000,1716937202.374236,172.16.3.2,5101,172.16.1.2,41464,10499,14480,0,65728,65700,6,6,4,1460,403,1,993,38,33580,0,65700,1448,0,0,0,0
i,0x00000000,1716937202.394753,172.16.3.2,5101,172.16.1.2,41464,10499,14480,0,65728,65700,6,6,4,1460,403,1,992,38,33580,0,65700,0,0,0,0,0
i,0x00000000,1716937202.404152,172.16.3.2,5101,172.16.1.2,41464,10499,14480,0,65728,65700,6,6,4,1460,403,1,992,38,33580,0,65700,0,0,0,0,0
o,0x00000000,1716937202.404159,172.16.3.2,5101,172.16.1.2,41464,10499,14480,0,65728,65700,6,6,4,1460,403,1,993,38,33580,0,65700,1448,0,0,0,0
i,0x00000000,1716937202.415440,172.16.3.2,5101,172.16.1.2,41464,10499,14480,0,65728,65700,6,6,4,1460,403,1,992,38,33580,0,65700,0,0,0,0,0
i,0x00000000,1716937202.424833,172.16.3.2,5101,172.16.1.2,41464,10499,14480,0,65728,65700,6,6,4,1460,403,1,992,38,33580,0,65700,0,0,0,0,0
o,0x00000000,1716937202.424839,172.16.3.2,5101,172.16.1.2,41464,10499,14480,0,65728,65700,6,6,4,1460,403,1,993,38,33580,0,65700,1448,0,0,0,0
i,0x00000000,1716937202.443951,172.16.3.2,5101,172.16.1.2,41464,10499,14480,0,65728,65700,6,6,4,1460,403,1,992,38,33580,0,65700,0,0,0,0,0
i,0x00000000,1716937202.454387,172.16.3.2,5101,172.16.1.2,41464,10499,14480,0,65728,65700,6,6,4,1460,403,1,992,38,33580,0,65700,0,0,0,0,0
o,0x00000000,1716937202.454392,172.16.3.2,5101,172.16.1.2,41464,10499,14480,0,65728,65700,6,6,4,1460,403,1,993,38,33580,0,65700,1448,0,0,0,0
i,0x00000000,1716937202.566293,172.16.3.2,5101,172.16.1.2,41464,10499,14480,0,65728,65700,6,6,4,1460,403,1,992,38,33580,0,65700,0,0,0,0,0
i,0x00000000,1716937202.573556,172.16.3.2,5101,172.16.1.2,41464,10499,14480,0,65728,65700,6,6,4,1460,403,1,992,38,33580,0,65700,0,0,0,0,0
o,0x00000000,1716937202.573570,172.16.3.2,5101,172.16.1.2,41464,10499,14480,0,65728,65700,6,6,4,1460,403,1,993,38,33580,0,65700,1448,0,0,0,0
i,0x00000000,1716937202.634618,172.16.3.2,5101,172.16.1.2,41464,10499,14480,0,65728,65700,6,6,4,1460,403,1,992,38,33580,0,65700,0,0,0,0,0
o,0x00000000,1716937202.668124,172.16.3.2,5101,172.16.1.2,41464,10499,14480,0,65728,65700,6,6,4,1460,403,1,993,38,33580,0,65700,0,0,0,0,0
i,0x00000000,1716937202.674319,172.16.3.2,5101,172.16.1.2,41464,10499,14480,0,65728,65700,6,6,4,1460,403,1,992,38,33580,0,65700,0,0,0,0,0
i,0x00000000,1716937202.684369,172.16.3.2,5101,172.16.1.2,41464,10499,14480,0,65728,65700,6,6,4,1460,403,1,992,38,33580,0,65700,0,0,0,0,0
o,0x00000000,1716937202.684378,172.16.3.2,5101,172.16.1.2,41464,10499,14480,0,65728,65700,6,6,4,1460,403,1,993,38,33580,0,65700,1448,0,0,0,0
i,0x00000000,1716937202.694824,172.16.3.2,5101,172.16.1.2,41464,10499,14480,0,65728,65700,6,6,4,1460,403,1,992,38,33580,0,65700,0,0,0,0,0
o,0x00000000,1716937202.728269,172.16.3.2,5101,172.16.1.2,41464,10499,14480,0,65728,65700,6,6,4,1460,403,1,993,38,33580,0,65700,0,0,0,0,0
i,0x00000000,1716937202.733584,172.16.3.2,5101,172.16.1.2,41464,10499,14480,0,65728,65700,6,6,4,1460,403,1,992,38,33580,0,65700,0,0,0,0,0
i,0x00000000,1716937202.745606,172.16.3.2,5101,172.16.1.2,41464,10499,14480,0,65728,65700,6,6,4,1460,403,1,992,38,33580,0,65700,0,0,0,0,0
o,0x00000000,1716937202.745612,172.16.3.2,5101,172.16.1.2,41464,10499,14480,0,65728,65700,6,6,4,1460,403,1,993,38,33580,0,65700,1448,0,0,0,0
i,0x00000000,1716937202.753350,172.16.3.2,5101,172.16.1.2,41464,10499,14480,0,65728,65700,6,6,4,1460,403,1,992,38,33580,0,65700,0,0,0,0,0
i,0x00000000,1716937202.773573,172.16.3.2,5101,172.16.1.2,41464,10499,14480,0,65728,65700,6,6,4,1460,403,1,992,38,33580,0,65700,0,0,0,0,0
o,0x00000000,1716937202.773582,172.16.3.2,5101,172.16.1.2,41464,10499,14480,0,65728,65700,6,6,4,1460,403,1,993,38,33580,0,65700,1448,0,0,0,0
i,0x00000000,1716937202.784470,172.16.3.2,5101,172.16.1.2,41464,10499,14480,0,65728,65700,6,6,4,1460,403,1,992,38,33580,0,65700,0,0,0,0,0
i,0x00000000,1716937202.793792,172.16.3.2,5101,172.16.1.2,41464,10499,14480,0,65728,65700,6,6,4,1460,403,1,992,38,33580,0,65700,0,0,0,0,0
o,0x00000000,1716937202.793801,172.16.3.2,5101,172.16.1.2,41464,10499,14480,0,65728,65700,6,6,4,1460,403,1,993,38,33580,0,65700,1448,0,0,0,0
i,0x00000000,1716937202.804204,172.16.3.2,5101,172.16.1.2,41464,10499,14480,0,65728,65700,6,6,4,1460,403,1,992,38,33580,0,65700,0,0,0,0,0
o,0x00000000,1716937202.838163,172.16.3.2,5101,172.16.1.2,41464,10499,14480,0,65728,65700,6,6,4,1460,403,1,993,38,33580,0,65700,0,0,0,0,0
i,0x00000000,1716937202.844544,172.16.3.2,5101,172.16.1.2,41464,10499,14480,0,65728,65700,6,6,4,1460,403,1,992,38,33580,0,65700,0,0,0,0,0
i,0x00000000,1716937202.854954,172.16.3.2,5101,172.16.1.2,41464,10499,14480,0,65728,65700,6,6,4,1460,403,1,992,38,33580,0,65700,0,0,0,0,0
o,0x00000000,1716937202.854961,172.16.3.2,5101,172.16.1.2,41464,10499,14480,0,65728,65700,6,6,4,1460,403,1,993,38,33580,0,65700,1448,0,0,0,0
i,0x00000000,1716937202.865294,172.16.3.2,5101,172.16.1.2,41464,10499,14480,0,65728,65700,6,6,4,1460,403,1,992,38,33580,0,65700,0,0,0,0,0
o,0x00000000,1716937202.897798,172.16.3.2,5101,172.16.1.2,41464,10499,14480,0,65728,65700,6,6,4,1460,403,1,993,38,33580,0,65700,0,0,0,0,0
i,0x00000000,1716937202.953349,172.16.3.2,5101,172.16.1.2,41464,10499,14480,0,65728,65700,6,6,4,1460,403,1,992,38,33580,0,65700,0,0,0,0,0
i,0x00000000,1716937202.964686,172.16.3.2,5101,172.16.1.2,41464,10499,14480,0,65728,65700,6,6,4,1460,403,1,992,38,33580,0,65700,0,0,0,0,0
o,0x00000000,1716937202.964699,172.16.3.2,5101,172.16.1.2,41464,10499,14480,0,65728,65700,6,6,4,1460,403,1,993,38,33580,0,65700,1448,0,0,0,0
i,0x00000000,1716937203.013301,172.16.3.2,5101,172.16.1.2,41464,10499,14480,0,65728,65700,6,6,4,1460,403,1,992,38,33580,0,65700,0,0,0,0,0
i,0x00000000,1716937203.025499,172.16.3.2,5101,172.16.1.2,41464,10499,14480,0,65728,65700,6,6,4,1460,403,1,992,38,33580,0,65700,0,0,0,0,0
o,0x00000000,1716937203.025511,172.16.3.2,5101,172.16.1.2,41464,10499,14480,0,65728,65700,6,6,4,1460,403,1,993,38,33580,0,65700,1448,0,0,0,0
i,0x00000000,1716937203.064210,172.16.3.2,5101,172.16.1.2,41464,10499,14480,0,65728,65700,6,6,4,1460,403,1,992,38,33580,0,65700,0,0,0,0,0
i,0x00000000,1716937203.074468,172.16.3.2,5101,172.16.1.2,41464,10499,14480,0,65728,65700,6,6,4,1460,403,1,992,38,33580,0,65700,0,0,0,0,0
o,0x00000000,1716937203.074475,172.16.3.2,5101,172.16.1.2,41464,10499,14480,0,65728,65700,6,6,4,1460,403,1,993,38,33580,0,65700,1448,0,0,0,0
i,0x00000000,1716937203.113733,172.16.3.2,5101,172.16.1.2,41464,10499,14480,0,65728,65700,6,6,4,1460,403,1,992,38,33580,0,65700,0,0,0,0,0
i,0x00000000,1716937203.124189,172.16.3.2,5101,172.16.1.2,41464,10499,14480,0,65728,65700,6,6,4,1460,403,1,992,38,33580,0,65700,0,0,0,0,0
o,0x00000000,1716937203.124202,172.16.3.2,5101,172.16.1.2,41464,10499,14480,0,65728,65700,6,6,4,1460,403,1,993,38,33580,0,65700,1448,0,0,0,0
o,0x00000000,1716937203.128341,10.0.2.15,22,10.0.2.2,62180,1073725440,14600,0,65535,65700,0,0,4,1460,1,0,4,24,33580,156,65700,0,0,0,0,0
i,0x00000000,1716937203.129172,10.0.2.15,22,10.0.2.2,62180,1073725440,14600,0,65535,65700,0,0,4,1460,1,0,4,24,33580,156,65700,0,156,0,0,0
i,0x00000000,1716937203.154123,172.16.3.2,5101,172.16.1.2,41464,10499,14480,0,65728,65700,6,6,4,1460,403,1,992,38,33580,0,65700,0,0,0,0,0
i,0x00000000,1716937203.164431,172.16.3.2,5101,172.16.1.2,41464,10499,14480,0,65728,65700,6,6,4,1460,403,1,992,38,33580,0,65700,0,0,0,0,0
o,0x00000000,1716937203.164439,172.16.3.2,5101,172.16.1.2,41464,10499,14480,0,65728,65700,6,6,4,1460,403,1,993,38,33580,0,65700,1448,0,0,0,0
i,0x00000000,1716937203.173971,172.16.3.2,5101,172.16.1.2,41464,10499,14480,0,65728,65700,6,6,4,1460,403,1,992,38,33580,0,65700,0,0,0,0,0
i,0x00000000,1716937203.193517,172.16.3.2,5101,172.16.1.2,41464,10499,14480,0,65728,65700,6,6,4,1460,403,1,992,38,33580,0,65700,0,0,0,0,0
o,0x00000000,1716937203.193528,172.16.3.2,5101,172.16.1.2,41464,10499,14480,0,65728,65700,6,6,4,1460,403,1,993,38,33580,0,65700,0,0,1,0,0
i,0x00000000,1716937203.214128,172.16.3.2,5101,172.16.1.2,41464,10499,14480,0,65728,65700,6,6,4,1460,403,1,992,38,33580,0,65700,0,0,1,0,0
o,0x00000000,1716937203.214135,172.16.3.2,5101,172.16.1.2,41464,10499,14480,0,65728,65728,6,6,4,1460,403,1,993,38,33580,0,65700,0,0,1,0,0
i,0x00000000,1716937203.224475,172.16.3.2,5101,172.16.1.2,41464,10499,14480,0,65728,65728,6,6,4,1460,403,1,992,38,33580,0,65700,0,0,1,0,0
o,0x00000000,1716937203.224481,172.16.3.2,5101,172.16.1.2,41464,10499,14480,0,65728,65728,6,6,4,1460,403,1,993,38,33580,0,65700,0,0,1,0,0
i,0x00000000,1716937203.244176,172.16.3.2,5101,172.16.1.2,41464,10499,14480,0,65728,65728,6,6,4,1460,403,1,992,38,33580,0,65700,0,0,1,0,0
o,0x00000000,1716937203.244180,172.16.3.2,5101,172.16.1.2,41464,10499,14480,0,65728,65728,6,6,4,1460,403,1,993,38,33580,0,65700,0,0,1,0,0
i,0x00000000,1716937203.283596,172.16.3.2,5101,172.16.1.2,41464,10499,14480,0,65728,65728,6,6,4,1460,403,1,992,38,33580,0,65700,0,0,1,0,0
o,0x00000000,1716937203.283604,172.16.3.2,5101,172.16.1.2,41464,10499,14480,0,65728,65728,6,6,4,1460,403,1,993,38,33580,0,65700,0,0,2,0,0
i,0x00000000,1716937203.333660,172.16.3.2,5101,172.16.1.2,41464,10499,14480,0,65728,65728,6,6,4,1460,403,1,992,38,33580,0,65700,0,0,2,0,0
o,0x00000000,1716937203.333668,172.16.3.2,5101,172.16.1.2,41464,10499,14480,0,65728,65728,6,6,4,1460,403,1,993,38,33580,0,65700,0,0,3,0,0
i,0x00000000,1716937203.394195,172.16.3.2,5101,172.16.1.2,41464,10499,14480,0,65728,65728,6,6,4,1460,403,1,992,38,33580,0,65700,0,0,3,0,0
o,0x00000000,1716937203.394211,172.16.3.2,5101,172.16.1.2,41464,10499,14480,0,65728,65728,6,6,4,1460,403,1,993,38,33580,0,65700,0,0,4,0,0
i,0x00000000,1716937203.413312,172.16.3.2,5101,172.16.1.2,41464,10499,14480,0,65728,65728,6,6,4,1460,403,1,992,38,33580,0,65700,0,0,4,0,0
o,0x00000000,1716937203.413320,172.16.3.2,5101,172.16.1.2,41464,10499,14480,0,65728,65728,6,6,4,1460,403,1,993,38,33580,0,65700,0,0,5,0,0
i,0x00000000,1716937203.434126,172.16.3.2,5101,172.16.1.2,41464,10499,14480,0,65728,65728,6,6,4,1460,403,1,992,38,33580,0,65700,0,0,5,0,0
o,0x00000000,1716937203.434132,172.16.3.2,5101,172.16.1.2,41464,10499,14480,0,65728,65728,6,6,4,1460,403,1,993,38,33580,0,65700,0,0,5,0,0
i,0x00000000,1716937203.443489,172.16.3.2,5101,172.16.1.2,41464,10499,14480,0,65728,65728,6,6,4,1460,403,1,992,38,33580,0,65700,0,0,5,0,0
o,0x00000000,1716937203.443500,172.16.3.2,5101,172.16.1.2,41464,10499,14480,0,65728,65728,6,6,4,1460,403,1,993,38,33580,0,65700,7240,0,4,0,0
i,0x00000000,1716937203.453846,172.16.3.2,5101,172.16.1.2,41464,10499,14480,0,65728,65728,6,6,4,1460,403,1,992,38,33580,0,65700,0,0,4,0,0
o,0x00000000,1716937203.453852,172.16.3.2,5101,172.16.1.2,41464,10499,14480,0,65728,65700,6,6,4,1460,403,1,993,38,33580,0,65700,1448,0,4,0,0
i,0x00000000,1716937203.563701,172.16.3.2,5101,172.16.1.2,41464,10499,14480,0,65728,65700,6,6,4,1460,403,1,992,38,33580,0,65700,0,0,4,0,0
o,0x00000000,1716937203.563726,172.16.3.2,5101,172.16.1.2,41464,10499,14480,0,65728,65700,6,6,4,1460,403,1,993,38,33580,0,65700,2896,0,3,0,0
i,0x00000000,1716937203.573999,172.16.3.2,5101,172.16.1.2,41464,10499,14480,0,65728,65700,6,6,4,1460,403,1,992,38,33580,0,65700,0,0,3,0,0
o,0x00000000,1716937203.574012,172.16.3.2,5101,172.16.1.2,41464,10499,14480,0,65728,65700,6,6,4,1460,403,1,993,38,33580,0,65700,1448,0,3,0,0
i,0x00000000,1716937203.593868,172.16.3.2,5101,172.16.1.2,41464,10499,14480,0,65728,65700,6,6,4,1460,403,1,992,38,33580,0,65700,0,0,3,0,0
o,0x00000000,1716937203.593884,172.16.3.2,5101,172.16.1.2,41464,10499,14480,0,65728,65700,6,6,4,1460,403,1,993,38,33580,0,65700,2896,0,2,0,0
i,0x00000000,1716937203.612936,172.16.3.2,5101,172.16.1.2,41464,10499,14480,0,65728,65700,6,6,4,1460,403,1,992,38,33580,0,65700,0,0,2,0,0
o,0x00000000,1716937203.612946,172.16.3.2,5101,172.16.1.2,41464,10499,14480,0,65728,65700,6,6,4,1460,403,1,993,38,33580,0,65700,1448,0,2,0,0
i,0x00000000,1716937203.625210,172.16.3.2,5101,172.16.1.2,41464,10499,14480,0,65728,65700,6,6,4,1460,403,1,992,38,33580,0,65700,0,0,2,0,0
o,0x00000000,1716937203.625225,172.16.3.2,5101,172.16.1.2,41464,10499,14480,0,65728,65700,6,6,4,1460,403,1,993,38,33580,0,65700,1448,0,2,0,0
i,0x00000000,1716937203.643900,172.16.3.2,5101,172.16.1.2,41464,10499,14480,0,65728,65700,6,6,4,1460,403,1,992,38,33580,0,65700,0,0,2,0,0
o,0x00000000,1716937203.643910,172.16.3.2,5101,172.16.1.2,41464,10499,14480,0,65728,65700,6,6,4,1460,403,1,993,38,33580,0,65700,2896,0,1,0,0
i,0x00000000,1716937203.653400,172.16.3.2,5101,172.16.1.2,41464,10499,14480,0,65728,65700,6,6,4,1460,403,1,992,38,33580,0,65700,0,0,1,0,0
o,0x00000000,1716937203.653408,172.16.3.2,5101,172.16.1.2,41464,10499,14480,0,65728,65700,6,6,4,1460,403,1,993,38,33580,0,65700,4344,0,0,0,0
i,0x00000000,1716937203.703644,172.16.3.2,5101,172.16.1.2,41464,10499,14480,0,65728,65700,6,6,4,1460,403,1,992,38,33580,0,65700,0,0,0,0,0
o,0x00000000,1716937203.703652,172.16.3.2,5101,172.16.1.2,41464,10499,14480,0,65728,65700,6,6,4,1460,403,1,993,38,33580,0,65700,0,0,1,0,0
i,0x00000000,1716937203.734869,172.16.3.2,5101,172.16.1.2,41464,10499,14480,0,65728,65700,6,6,4,1460,403,1,992,38,33580,0,65700,0,0,1,0,0
o,0x00000000,1716937203.734874,172.16.3.2,5101,172.16.1.2,41464,10499,14480,0,65728,65728,6,6,4,1460,403,1,993,38,33580,0,65700,0,0,1,0,0
i,0x00000000,1716937203.743983,172.16.3.2,5101,172.16.1.2,41464,10499,14480,0,65728,65728,6,6,4,1460,403,1,992,38,33580,0,65700,0,0,1,0,0
o,0x00000000,1716937203.743987,172.16.3.2,5101,172.16.1.2,41464,10499,14480,0,65728,65728,6,6,4,1460,403,1,993,38,33580,0,65700,0,0,1,0,0
i,0x00000000,1716937203.774023,172.16.3.2,5101,172.16.1.2,41464,10499,14480,0,65728,65728,6,6,4,1460,403,1,992,38,33580,0,65700,0,0,1,0,0
o,0x00000000,1716937203.774035,172.16.3.2,5101,172.16.1.2,41464,10499,14480,0,65728,65728,6,6,4,1460,403,1,993,38,33580,0,65700,0,0,1,0,0
i,0x00000000,1716937203.804090,172.16.3.2,5101,172.16.1.2,41464,10499,14480,0,65728,65728,6,6,4,1460,403,1,992,38,33580,0,65700,0,0,1,0,0
o,0x00000000,1716937203.804105,172.16.3.2,5101,172.16.1.2,41464,10499,14480,0,65728,65728,6,6,4,1460,403,1,993,38,33580,0,65700,0,0,1,0,0
i,0x00000000,1716937203.813483,172.16.3.2,5101,172.16.1.2,41464,10499,14480,0,65728,65728,6,6,4,1460,403,1,992,38,33580,0,65700,0,0,1,0,0
o,0x00000000,1716937203.813489,172.16.3.2,5101,172.16.1.2,41464,10499,14480,0,65728,65728,6,6,4,1460,403,1,993,38,33580,0,65700,0,0,1,0,0
i,0x00000000,1716937203.844448,172.16.3.2,5101,172.16.1.2,41464,10499,14480,0,65728,65728,6,6,4,1460,403,1,992,38,33580,0,65700,0,0,1,0,0
i,0x00000000,1716937203.853787,172.16.3.2,5101,172.16.1.2,41464,10499,14480,0,65728,65728,6,6,4,1460,403,1,992,38,33580,0,65700,0,0,1,0,0
o,0x00000000,1716937203.853795,172.16.3.2,5101,172.16.1.2,41464,10499,14480,0,65728,65728,6,6,4,1460,403,1,993,38,33580,0,65700,0,0,1,0,0
i,0x00000000,1716937203.893397,172.16.3.2,5101,172.16.1.2,41464,10499,14480,0,65728,65728,6,6,4,1460,403,1,992,38,33580,0,65700,0,0,1,0,0
o,0x00000000,1716937203.893420,172.16.3.2,5101,172.16.1.2,41464,10499,14480,0,65728,65728,6,6,4,1460,403,1,993,38,33580,0,65700,11584,0,0,0,0
i,0x00000000,1716937203.913974,172.16.3.2,5101,172.16.1.2,41464,10499,14480,0,65728,65728,6,6,4,1460,403,1,992,38,33580,0,65700,0,0,0,0,0
i,0x00000000,1716937203.934572,172.16.3.2,5101,172.16.1.2,41464,10499,14480,0,65728,65728,6,6,4,1460,403,1,992,38,33580,0,65700,0,0,0,0,0
o,0x00000000,1716937203.934578,172.16.3.2,5101,172.16.1.2,41464,10499,14480,0,65728,65728,6,6,4,1460,403,1,993,38,33580,0,65700,1448,0,0,0,0
i,0x00000000,1716937203.953610,172.16.3.2,5101,172.16.1.2,41464,10499,14480,0,65728,65728,6,6,4,1460,403,1,992,38,33580,0,65700,0,0,0,0,0
i,0x00000000,1716937203.973205,172.16.3.2,5101,172.16.1.2,41464,10499,14480,0,65728,65728,6,6,4,1460,403,1,992,38,33580,0,65700,0,0,0,0,0
o,0x00000000,1716937203.973212,172.16.3.2,5101,172.16.1.2,41464,10499,14480,0,65728,65728,6,6,4,1460,403,1,993,38,33580,0,65700,1448,0,0,0,0
i,0x00000000,1716937204.003219,172.16.3.2,5101,172.16.1.2,41464,10499,14480,0,65728,65728,6,6,4,1460,403,1,992,38,33580,0,65700,0,0,0,0,0
i,0x00000000,1716937204.013446,172.16.3.2,5101,172.16.1.2,41464,10499,14480,0,65728,65728,6,6,4,1460,403,1,992,38,33580,0,65700,0,0,0,0,0
o,0x00000000,1716937204.013454,172.16.3.2,5101,172.16.1.2,41464,10499,14480,0,65728,65728,6,6,4,1460,403,1,993,38,33580,0,65700,1448,0,0,0,0
i,0x00000000,1716937204.043522,172.16.3.2,5101,172.16.1.2,41464,10499,14480,0,65728,65728,6,6,4,1460,403,1,992,38,33580,0,65700,0,0,0,0,0
o,0x00000000,1716937204.077175,172.16.3.2,5101,172.16.1.2,41464,10499,14480,0,65728,65728,6,6,4,1460,403,1,993,38,33580,0,65700,0,0,0,0,0
i,0x00000000,1716937204.084018,172.16.3.2,5101,172.16.1.2,41464,10499,14480,0,65728,65728,6,6,4,1460,403,1,992,38,33580,0,65700,0,0,0,0,0
o,0x00000000,1716937204.117545,172.16.3.2,5101,172.16.1.2,41464,10499,14480,0,65728,65728,6,6,4,1460,403,1,993,38,33580,0,65700,0,0,0,0,0
i,0x00000000,1716937204.123396,172.16.3.2,5101,172.16.1.2,41464,10499,14480,0,65728,65728,6,6,4,1460,403,1,992,38,33580,0,65700,0,0,0,0,0
i,0x00000000,1716937204.132813,172.16.3.2,5101,172.16.1.2,41464,10499,14480,0,65728,65728,6,6,4,1460,403,1,992,38,33580,0,65700,0,0,0,0,0
o,0x00000000,1716937204.132824,172.16.3.2,5101,172.16.1.2,41464,10499,14480,0,65728,65728,6,6,4,1460,403,1,993,38,33580,0,65700,1448,0,0,0,0
o,0x00000000,1716937204.138190,10.0.2.15,22,10.0.2.2,62180,1073725440,14600,0,65535,65700,0,0,4,1460,1,0,4,24,33580,108,65700,0,0,0,0,0
i,0x00000000,1716937204.138899,10.0.2.15,22,10.0.2.2,62180,1073725440,14600,0,65535,65700,0,0,4,1460,1,0,4,24,33580,108,65700,0,108,0,0,0
i,0x00000000,1716937204.153236,172.16.3.2,5101,172.16.1.2,41464,10499,14480,0,65728,65728,6,6,4,1460,403,1,992,38,33580,0,65700,0,0,0,0,0
i,0x00000000,1716937204.183268,172.16.3.2,5101,172.16.1.2,41464,10499,14480,0,65728,65728,6,6,4,1460,403,1,992,38,33580,0,65700,0,0,0,0,0
o,0x00000000,1716937204.183288,172.16.3.2,5101,172.16.1.2,41464,10499,14480,0,65728,65728,6,6,4,1460,403,1,993,38,33580,0,65700,1448,0,0,0,0
i,0x00000000,1716937204.193667,172.16.3.2,5101,172.16.1.2,41464,10499,14480,0,65728,65728,6,6,4,1460,403,1,992,38,33580,0,65700,0,0,0,0,0
i,0x00000000,1716937204.223917,172.16.3.2,5101,172.16.1.2,41464,10499,14480,0,65728,65728,6,6,4,1460,403,1,992,38,33580,0,65700,0,0,0,0,0
o,0x00000000,1716937204.223930,172.16.3.2,5101,172.16.1.2,41464,10499,14480,0,65728,65728,6,6,4,1460,403,1,993,38,33580,0,65700,1448,0,0,0,0
i,0x00000000,1716937204.234091,172.16.3.2,5101,172.16.1.2,41464,10499,14480,0,65728,65728,6,6,4,1460,403,1,992,38,33580,0,65700,0,0,0,0,0
o,0x00000000,1716937204.267484,172.16.3.2,5101,172.16.1.2,41464,10499,14480,0,65728,65728,6,6,4,1460,403,1,993,38,33580,0,65700,0,0,0,0,0
i,0x00000000,1716937204.294110,172.16.3.2,5101,172.16.1.2,41464,10499,14480,0,65728,65728,6,6,4,1460,403,1,992,38,33580,0,65700,0,0,0,0,0
i,0x00000000,1716937204.313044,172.16.3.2,5101,172.16.1.2,41464,10499,14480,0,65728,65728,6,6,4,1460,403,1,992,38,33580,0,65700,0,0,0,0,0
o,0x00000000,1716937204.313056,172.16.3.2,5101,172.16.1.2,41464,10499,14480,0,65728,65728,6,6,4,1460,403,1,993,38,33580,0,65700,1448,0,0,0,0
i,0x00000000,1716937204.343072,172.16.3.2,5101,172.16.1.2,41464,10499,14480,0,65728,65728,6,6,4,1460,403,1,992,38,33580,0,65700,0,0,0,0,0
i,0x00000000,1716937204.353320,172.16.3.2,5101,172.16.1.2,41464,10499,14480,0,65728,65728,6,6,4,1460,403,1,992,38,33580,0,65700,0,0,0,0,0
o,0x00000000,1716937204.353330,172.16.3.2,5101,172.16.1.2,41464,10499,14480,0,65728,65728,6,6,4,1460,403,1,993,38,33580,0,65700,1448,0,0,0,0
i,0x00000000,1716937204.373018,172.16.3.2,5101,172.16.1.2,41464,10499,14480,0,65728,65728,6,6,4,1460,403,1,992,38,33580,0,65700,0,0,0,0,0
i,0x00000000,1716937204.403084,172.16.3.2,5101,172.16.1.2,41464,10499,14480,0,65728,65728,6,6,4,1460,403,1,992,38,33580,0,65700,0,0,0,0,0
o,0x00000000,1716937204.403098,172.16.3.2,5101,172.16.1.2,41464,10499,14480,0,65728,65728,6,6,4,1460,403,1,993,38,33580,0,65700,1448,0,0,0,0
i,0x00000000,1716937204.432969,172.16.3.2,5101,172.16.1.2,41464,10499,14480,0,65728,65728,6,6,4,1460,403,1,992,38,33580,0,65700,0,0,0,0,0
i,0x00000000,1716937204.463088,172.16.3.2,5101,172.16.1.2,41464,10499,14480,0,65728,65728,6,6,4,1460,403,1,992,38,33580,0,65700,0,0,0,0,0
o,0x00000000,1716937204.463100,172.16.3.2,5101,172.16.1.2,41464,10499,14480,0,65728,65728,6,6,4,1460,403,1,993,38,33580,0,65700,1448,0,0,0,0
i,0x00000000,1716937204.483636,172.16.3.2,5101,172.16.1.2,41464,10499,14480,0,65728,65728,6,6,4,1460,403,1,992,38,33580,0,65700,0,0,0,0,0
i,0x00000000,1716937204.492487,172.16.3.2,5101,172.16.1.2,41464,10499,14480,0,65728,65728,6,6,4,1460,403,1,992,38,33580,0,65700,0,0,0,0,0
o,0x00000000,1716937204.492495,172.16.3.2,5101,172.16.1.2,41464,10499,14480,0,65728,65728,6,6,4,1460,403,1,993,38,33580,0,65700,1448,0,0,0,0
i,0x00000000,1716937204.523217,172.16.3.2,5101,172.16.1.2,41464,10499,14480,0,65728,65728,6,6,4,1460,403,1,992,38,33580,0,65700,0,0,0,0,0
i,0x00000000,1716937204.543986,172.16.3.2,5101,172.16.1.2,41464,10499,14480,0,65728,65728,6,6,4,1460,403,1,992,38,33580,0,65700,0,0,0,0,0
o,0x00000000,1716937204.543993,172.16.3.2,5101,172.16.1.2,41464,10499,14480,0,65728,65728,6,6,4,1460,403,1,993,38,33580,0,65700,1448,0,0,0,0
i,0x00000000,1716937204.593660,172.16.3.2,5101,172.16.1.2,41464,10499,14480,0,65728,65728,6,6,4,1460,403,1,992,38,33580,0,65700,0,0,0,0,0
i,0x00000000,1716937204.603500,172.16.3.2,5101,172.16.1.2,41464,10499,14480,0,65728,65728,6,6,4,1460,403,1,992,38,33580,0,65700,0,0,0,0,0
o,0x00000000,1716937204.603514,172.16.3.2,5101,172.16.1.2,41464,10499,14480,0,65728,65728,6,6,4,1460,403,1,993,38,33580,0,65700,1448,0,0,0,0
i,0x00000000,1716937204.633658,172.16.3.2,5101,172.16.1.2,41464,10499,14480,0,65728,65728,6,6,4,1460,403,1,992,38,33580,0,65700,0,0,0,0,0
i,0x00000000,1716937204.653505,172.16.3.2,5101,172.16.1.2,41464,10499,14480,0,65728,65728,6,6,4,1460,403,1,992,38,33580,0,65700,0,0,0,0,0
o,0x00000000,1716937204.653525,172.16.3.2,5101,172.16.1.2,41464,10499,14480,0,65728,65728,6,6,4,1460,403,1,993,38,33580,0,65700,1448,0,0,0,0
i,0x00000000,1716937204.683588,172.16.3.2,5101,172.16.1.2,41464,10499,14480,0,65728,65728,6,6,4,1460,403,1,992,38,33580,0,65700,0,0,0,0,0
o,0x00000000,1716937204.718031,172.16.3.2,5101,172.16.1.2,41464,10499,14480,0,65728,65728,6,6,4,1460,403,1,993,38,33580,0,65700,0,0,0,0,0
i,0x00000000,1716937204.723913,172.16.3.2,5101,172.16.1.2,41464,10499,14480,0,65728,65728,6,6,4,1460,403,1,992,38,33580,0,65700,0,0,0,0,0
i,0x00000000,1716937204.733234,172.16.3.2,5101,172.16.1.2,41464,10499,14480,0,65728,65728,6,6,4,1460,403,1,992,38,33580,0,65700,0,0,0,0,0
o,0x00000000,1716937204.733239,172.16.3.2,5101,172.16.1.2,41464,10499,14480,0,65728,65728,6,6,4,1460,403,1,993,38,33580,0,65700,1448,0,0,0,0
i,0x00000000,1716937204.742813,172.16.3.2,5101,172.16.1.2,41464,10499,14480,0,65728,65728,6,6,4,1460,403,1,992,38,33580,0,65700,0,0,0,0,0
i,0x00000000,1716937204.763529,172.16.3.2,5101,172.16.1.2,41464,10499,14480,0,65728,65728,6,6,4,1460,403,1,992,38,33580,0,65700,0,0,0,0,0
o,0x00000000,1716937204.763547,172.16.3.2,5101,172.16.1.2,41464,10499,14480,0,65728,65728,6,6,4,1460,403,1,993,38,33580,0,65700,1448,0,0,0,0
i,0x00000000,1716937204.792979,172.16.3.2,5101,172.16.1.2,41464,10499,14480,0,65728,65728,6,6,4,1460,403,1,992,38,33580,0,65700,0,0,0,0,0
i,0x00000000,1716937204.813315,172.16.3.2,5101,172.16.1.2,41464,10499,14480,0,65728,65728,6,6,4,1460,403,1,992,38,33580,0,65700,0,0,0,0,0
o,0x00000000,1716937204.813330,172.16.3.2,5101,172.16.1.2,41464,10499,14480,0,65728,65728,6,6,4,1460,403,1,993,38,33580,0,65700,1448,0,0,0,0
i,0x00000000,1716937204.863379,172.16.3.2,5101,172.16.1.2,41464,10499,14480,0,65728,65728,6,6,4,1460,403,1,992,38,33580,0,65700,0,0,0,0,0
i,0x00000000,1716937204.883290,172.16.3.2,5101,172.16.1.2,41464,10499,14480,0,65728,65728,6,6,4,1460,403,1,992,38,33580,0,65700,0,0,0,0,0
o,0x00000000,1716937204.883313,172.16.3.2,5101,172.16.1.2,41464,10499,14480,0,65728,65728,6,6,4,1460,403,1,993,38,33580,0,65700,1448,0,0,0,0
i,0x00000000,1716937204.923643,172.16.3.2,5101,172.16.1.2,41464,10499,14480,0,65728,65728,6,6,4,1460,403,1,992,38,33580,0,65700,0,0,0,0,0
i,0x00000000,1716937204.952503,172.16.3.2,5101,172.16.1.2,41464,10499,14480,0,65728,65728,6,6,4,1460,403,1,992,38,33580,0,65700,0,0,0,0,0
o,0x00000000,1716937204.952520,172.16.3.2,5101,172.16.1.2,41464,10499,14480,0,65728,65728,6,6,4,1460,403,1,993,38,33580,0,65700,1448,0,0,0,0
i,0x00000000,1716937204.962715,172.16.3.2,5101,172.16.1.2,41464,10499,14480,0,65728,65728,6,6,4,1460,403,1,992,38,33580,0,65700,0,0,0,0,0
i,0x00000000,1716937204.983386,172.16.3.2,5101,172.16.1.2,41464,10499,14480,0,65728,65728,6,6,4,1460,403,1,992,38,33580,0,65700,0,0,0,0,0
o,0x00000000,1716937204.983404,172.16.3.2,5101,172.16.1.2,41464,10499,14480,0,65728,65728,6,6,4,1460,403,1,993,38,33580,0,65700,1448,0,0,0,0
i,0x00000000,1716937205.013457,172.16.3.2,5101,172.16.1.2,41464,10499,14480,0,65728,65728,6,6,4,1460,403,1,992,38,33580,0,65700,0,0,0,0,0
i,0x00000000,1716937205.033066,172.16.3.2,5101,172.16.1.2,41464,10499,14480,0,65728,65728,6,6,4,1460,403,1,992,38,33580,0,65700,0,0,0,0,0
o,0x00000000,1716937205.033076,172.16.3.2,5101,172.16.1.2,41464,10499,14480,0,65728,65728,6,6,4,1460,403,1,993,38,33580,0,65700,1448,0,0,0,0
i,0x00000000,1716937205.042421,172.16.3.2,5101,172.16.1.2,41464,10499,14480,0,65728,65728,6,6,4,1460,403,1,992,38,33580,0,65700,0,0,0,0,0
i,0x00000000,1716937205.053711,172.16.3.2,5101,172.16.1.2,41464,10499,14480,0,65728,65728,6,6,4,1460,403,1,992,38,33580,0,65700,0,0,0,0,0
o,0x00000000,1716937205.053720,172.16.3.2,5101,172.16.1.2,41464,10499,14480,0,65728,65728,6,6,4,1460,403,1,993,38,33580,0,65700,1448,0,0,0,0
i,0x00000000,1716937205.093591,172.16.3.2,5101,172.16.1.2,41464,10499,14480,0,65728,65728,6,6,4,1460,403,1,992,38,33580,0,65700,0,0,0,0,0
i,0x00000000,1716937205.102371,172.16.3.2,5101,172.16.1.2,41464,10499,14480,0,65728,65728,6,6,4,1460,403,1,992,38,33580,0,65700,0,0,0,0,0
o,0x00000000,1716937205.102384,172.16.3.2,5101,172.16.1.2,41464,10499,14480,0,65728,65728,6,6,4,1460,403,1,993,38,33580,0,65700,1448,0,0,0,0
o,0x00000000,1716937205.137839,10.0.2.15,22,10.0.2.2,62180,1073725440,14600,0,65535,65700,0,0,4,1460,1,0,4,24,33580,108,65700,0,0,0,0,0
i,0x00000000,1716937205.138744,10.0.2.15,22,10.0.2.2,62180,1073725440,14600,0,65535,65700,0,0,4,1460,1,0,4,24,33580,108,65700,0,108,0,0,0
i,0x00000000,1716937205.173171,172.16.3.2,5101,172.16.1.2,41464,10499,14480,0,65728,65728,6,6,4,1460,403,1,992,38,33580,0,65700,0,0,0,0,0
i,0x00000000,1716937205.183530,172.16.3.2,5101,172.16.1.2,41464,10499,14480,0,65728,65728,6,6,4,1460,403,1,992,38,33580,0,65700,0,0,0,0,0
o,0x00000000,1716937205.183547,172.16.3.2,5101,172.16.1.2,41464,10499,14480,0,65728,65728,6,6,4,1460,403,1,993,38,33580,0,65700,1448,0,0,0,0
i,0x00000000,1716937205.223092,172.16.3.2,5101,172.16.1.2,41464,10499,14480,0,65728,65728,6,6,4,1460,403,1,992,38,33580,0,65700,0,0,0,0,0
i,0x00000000,1716937205.233279,172.16.3.2,5101,172.16.1.2,41464,10499,14480,0,65728,65728,6,6,4,1460,403,1,992,38,33580,0,65700,0,0,0,0,0
o,0x00000000,1716937205.233307,172.16.3.2,5101,172.16.1.2,41464,10499,14480,0,65728,65728,6,6,4,1460,403,1,993,38,33580,0,65700,1448,0,0,0,0
i,0x00000000,1716937205.273416,172.16.3.2,5101,172.16.1.2,41464,10499,14480,0,65728,65728,6,6,4,1460,403,1,992,38,33580,0,65700,0,0,0,0,0
i,0x00000000,1716937205.282845,172.16.3.2,5101,172.16.1.2,41464,10499,14480,0,65728,65728,6,6,4,1460,403,1,992,38,33580,0,65700,0,0,0,0,0
o,0x00000000,1716937205.282872,172.16.3.2,5101,172.16.1.2,41464,10499,14480,0,65728,65728,6,6,4,1460,403,1,993,38,33580,0,65700,1448,0,0,0,0
i,0x00000000,1716937205.293581,172.16.3.2,5101,172.16.1.2,41464,10499,14480,0,65728,65728,6,6,4,1460,403,1,992,38,33580,0,65700,0,0,0,0,0
o,0x00000000,1716937205.326722,172.16.3.2,5101,172.16.1.2,41464,10499,14480,0,65728,65728,6,6,4,1460,403,1,993,38,33580,0,65700,0,0,0,0,0
i,0x00000000,1716937205.333311,172.16.3.2,5101,172.16.1.2,41464,10499,14480,0,65728,65728,6,6,4,1460,403,1,992,38,33580,0,65700,0,0,0,0,0
i,0x00000000,1716937205.342673,172.16.3.2,5101,172.16.1.2,41464,10499,14480,0,65728,65728,6,6,4,1460,403,1,992,38,33580,0,65700,0,0,0,0,0
o,0x00000000,1716937205.342688,172.16.3.2,5101,172.16.1.2,41464,10499,14480,0,65728,65728,6,6,4,1460,403,1,993,38,33580,0,65700,1448,0,0,0,0
i,0x00000000,1716937205.363327,172.16.3.2,5101,172.16.1.2,41464,10499,14480,0,65728,65728,6,6,4,1460,403,1,992,38,33580,0,65700,0,0,0,0,0
i,0x00000000,1716937205.392445,172.16.3.2,5101,172.16.1.2,41464,10499,14480,0,65728,65728,6,6,4,1460,403,1,992,38,33580,0,65700,0,0,0,0,0
o,0x00000000,1716937205.392465,172.16.3.2,5101,172.16.1.2,41464,10499,14480,0,65728,65728,6,6,4,1460,403,1,993,38,33580,0,65700,1448,0,0,0,0
i,0x00000000,1716937205.432824,172.16.3.2,5101,172.16.1.2,41464,10499,14480,0,65728,65728,6,6,4,1460,403,1,992,38,33580,0,65700,0,0,0,0,0
i,0x00000000,1716937205.443241,172.16.3.2,5101,172.16.1.2,41464,10499,14480,0,65728,65728,6,6,4,1460,403,1,992,38,33580,0,65700,0,0,0,0,0
o,0x00000000,1716937205.443255,172.16.3.2,5101,172.16.1.2,41464,10499,14480,0,65728,65728,6,6,4,1460,403,1,993,38,33580,0,65700,1448,0,0,0,0
i,0x00000000,1716937205.493232,172.16.3.2,5101,172.16.1.2,41464,10499,14480,0,65728,65728,6,6,4,1460,403,1,992,38,33580,0,65700,0,0,0,0,0
i,0x00000000,1716937205.502499,172.16.3.2,5101,172.16.1.2,41464,10499,14480,0,65728,65728,6,6,4,1460,403,1,992,38,33580,0,65700,0,0,0,0,0
o,0x00000000,1716937205.502516,172.16.3.2,5101,172.16.1.2,41464,10499,14480,0,65728,65728,6,6,4,1460,403,1,993,38,33580,0,65700,1448,0,0,0,0
i,0x00000000,1716937205.533412,172.16.3.2,5101,172.16.1.2,41464,10499,14480,0,65728,65728,6,6,4,1460,403,1,992,38,33580,0,65700,0,0,0,0,0
i,0x00000000,1716937205.562586,172.16.3.2,5101,172.16.1.2,41464,10499,14480,0,65728,65728,6,6,4,1460,403,1,992,38,33580,0,65700,0,0,0,0,0
o,0x00000000,1716937205.562616,172.16.3.2,5101,172.16.1.2,41464,10499,14480,0,65728,65728,6,6,4,1460,403,1,993,38,33580,0,65700,1448,0,0,0,0
i,0x00000000,1716937205.583124,172.16.3.2,5101,172.16.1.2,41464,10499,14480,0,65728,65728,6,6,4,1460,403,1,992,38,33580,0,65700,0,0,0,0,0
i,0x00000000,1716937205.613054,172.16.3.2,5101,172.16.1.2,41464,10499,14480,0,65728,65728,6,6,4,1460,403,1,992,38,33580,0,65700,0,0,0,0,0
o,0x00000000,1716937205.613070,172.16.3.2,5101,172.16.1.2,41464,10499,14480,0,65728,65728,6,6,4,1460,403,1,993,38,33580,0,65700,1448,0,0,0,0
i,0x00000000,1716937205.622434,172.16.3.2,5101,172.16.1.2,41464,10499,14480,0,65728,65728,6,6,4,1460,403,1,992,38,33580,0,65700,0,0,0,0,0
o,0x00000000,1716937205.657819,172.16.3.2,5101,172.16.1.2,41464,10499,14480,0,65728,65728,6,6,4,1460,403,1,993,38,33580,0,65700,0,0,0,0,0
i,0x00000000,1716937205.662823,172.16.3.2,5101,172.16.1.2,41464,10499,14480,0,65728,65728,6,6,4,1460,403,1,992,38,33580,0,65700,0,0,0,0,0
i,0x00000000,1716937205.673178,172.16.3.2,5101,172.16.1.2,41464,10499,14480,0,65728,65728,6,6,4,1460,403,1,992,38,33580,0,65700,0,0,0,0,0
o,0x00000000,1716937205.673187,172.16.3.2,5101,172.16.1.2,41464,10499,14480,0,65728,65728,6,6,4,1460,403,1,993,38,33580,0,65700,1448,0,0,0,0
i,0x00000000,1716937205.693104,172.16.3.2,5101,172.16.1.2,41464,10499,14480,0,65728,65728,6,6,4,1460,403,1,992,38,33580,0,65700,0,0,0,0,0
i,0x00000000,1716937205.722132,172.16.3.2,5101,172.16.1.2,41464,10499,14480,0,65728,65728,6,6,4,1460,403,1,992,38,33580,0,65700,0,0,0,0,0
o,0x00000000,1716937205.722138,172.16.3.2,5101,172.16.1.2,41464,10499,14480,0,65728,65728,6,6,4,1460,403,1,993,38,33580,0,65700,1448,0,0,0,0
i,0x00000000,1716937205.732824,172.16.3.2,5101,172.16.1.2,41464,10499,14480,0,65728,65728,6,6,4,1460,403,1,992,38,33580,0,65700,0,0,0,0,0
o,0x00000000,1716937205.766859,172.16.3.2,5101,172.16.1.2,41464,10499,14480,0,65728,65728,6,6,4,1460,403,1,993,38,33580,0,65700,0,0,0,0,0
i,0x00000000,1716937205.773941,172.16.3.2,5101,172.16.1.2,41464,10499,14480,0,65728,65728,6,6,4,1460,403,1,992,38,33580,0,65700,0,0,0,0,0
i,0x00000000,1716937205.782706,172.16.3.2,5101,172.16.1.2,41464,10499,14480,0,65728,65728,6,6,4,1460,403,1,992,38,33580,0,65700,0,0,0,0,0
o,0x00000000,1716937205.782717,172.16.3.2,5101,172.16.1.2,41464,10499,14480,0,65728,65728,6,6,4,1460,403,1,993,38,33580,0,65700,1448,0,0,0,0
i,0x00000000,1716937205.822959,172.16.3.2,5101,172.16.1.2,41464,10499,14480,0,65728,65728,6,6,4,1460,403,1,992,38,33580,0,65700,0,0,0,0,0
i,0x00000000,1716937205.833286,172.16.3.2,5101,172.16.1.2,41464,10499,14480,0,65728,65728,6,6,4,1460,403,1,992,38,33580,0,65700,0,0,0,0,0
o,0x00000000,1716937205.833304,172.16.3.2,5101,172.16.1.2,41464,10499,14480,0,65728,65728,6,6,4,1460,403,1,993,38,33580,0,65700,1448,0,0,0,0
i,0x00000000,1716937205.893341,172.16.3.2,5101,172.16.1.2,41464,10499,14480,0,65728,65728,6,6,4,1460,403,1,992,38,33580,0,65700,0,0,0,0,0
i,0x00000000,1716937205.912975,172.16.3.2,5101,172.16.1.2,41464,10499,14480,0,65728,65728,6,6,4,1460,403,1,992,38,33580,0,65700,0,0,0,0,0
o,0x00000000,1716937205.912989,172.16.3.2,5101,172.16.1.2,41464,10499,14480,0,65728,65728,6,6,4,1460,403,1,993,38,33580,0,65700,1448,0,0,0,0
i,0x00000000,1716937205.943006,172.16.3.2,5101,172.16.1.2,41464,10499,14480,0,65728,65728,6,6,4,1460,403,1,992,38,33580,0,65700,0,0,0,0,0
i,0x00000000,1716937205.953416,172.16.3.2,5101,172.16.1.2,41464,10499,14480,0,65728,65728,6,6,4,1460,403,1,992,38,33580,0,65700,0,0,0,0,0
o,0x00000000,1716937205.953423,172.16.3.2,5101,172.16.1.2,41464,10499,14480,0,65728,65728,6,6,4,1460,403,1,993,38,33580,0,65700,1448,0,0,0,0
i,0x00000000,1716937205.973139,172.16.3.2,5101,172.16.1.2,41464,10499,14480,0,65728,65728,6,6,4,1460,403,1,992,38,33580,0,65700,0,0,0,0,0
i,0x00000000,1716937206.002188,172.16.3.2,5101,172.16.1.2,41464,10499,14480,0,65728,65728,6,6,4,1460,403,1,992,38,33580,0,65700,0,0,0,0,0
o,0x00000000,1716937206.002198,172.16.3.2,5101,172.16.1.2,41464,10499,14480,0,65728,65728,6,6,4,1460,403,1,993,38,33580,0,65700,1448,0,0,0,0
i,0x00000000,1716937206.023040,172.16.3.2,5101,172.16.1.2,41464,10499,14480,0,65728,65728,6,6,4,1460,403,1,992,38,33580,0,65700,0,0,0,0,0
i,0x00000000,1716937206.033348,172.16.3.2,5101,172.16.1.2,41464,10499,14480,0,65728,65728,6,6,4,1460,403,1,992,38,33580,0,65700,0,0,0,0,0
o,0x00000000,1716937206.033353,172.16.3.2,5101,172.16.1.2,41464,10499,14480,0,65728,65728,6,6,4,1460,403,1,993,38,33580,0,65700,1448,0,0,0,0
i,0x00000000,1716937206.063461,172.16.3.2,5101,172.16.1.2,41464,10499,14480,0,65728,65728,6,6,4,1460,403,1,992,38,33580,0,65700,0,0,0,0,0
i,0x00000000,1716937206.082429,172.16.3.2,5101,172.16.1.2,41464,10499,14480,0,65728,65728,6,6,4,1460,403,1,992,38,33580,0,65700,0,0,0,0,0
o,0x00000000,1716937206.082436,172.16.3.2,5101,172.16.1.2,41464,10499,14480,0,65728,65728,6,6,4,1460,403,1,993,38,33580,0,65700,1448,0,0,0,0
i,0x00000000,1716937206.112671,172.16.3.2,5101,172.16.1.2,41464,10499,14480,0,65728,65728,6,6,4,1460,403,1,992,38,33580,0,65700,0,0,0,0,0
o,0x00000000,1716937206.112679,172.16.3.2,5101,172.16.1.2,41464,10499,14480,0,65728,65700,6,6,4,1460,403,1,993,38,33580,0,65700,0,0,1,0,0
o,0x00000000,1716937206.137391,10.0.2.15,22,10.0.2.2,62180,1073725440,14600,0,65535,65700,0,0,4,1460,1,0,4,24,33580,108,65700,0,0,0,0,0
i,0x00000000,1716937206.137940,10.0.2.15,22,10.0.2.2,62180,1073725440,14600,0,65535,65700,0,0,4,1460,1,0,4,24,33580,108,65700,0,108,0,0,0
i,0x00000000,1716937206.153042,172.16.3.2,5101,172.16.1.2,41464,10499,14480,0,65728,65700,6,6,4,1460,403,1,992,38,33580,0,65700,0,0,1,0,0
o,0x00000000,1716937206.153050,172.16.3.2,5101,172.16.1.2,41464,10499,14480,0,65728,65728,6,6,4,1460,403,1,993,38,33580,0,65700,0,0,1,0,0
i,0x00000000,1716937206.162266,172.16.3.2,5101,172.16.1.2,41464,10499,14480,0,65728,65728,6,6,4,1460,403,1,992,38,33580,0,65700,0,0,1,0,0
o,0x00000000,1716937206.162275,172.16.3.2,5101,172.16.1.2,41464,10499,14480,0,65728,65728,6,6,4,1460,403,1,993,38,33580,0,65700,0,0,1,0,0
i,0x00000000,1716937206.203567,172.16.3.2,5101,172.16.1.2,41464,10499,14480,0,65728,65728,6,6,4,1460,403,1,992,38,33580,0,65700,0,0,1,0,0
o,0x00000000,1716937206.203578,172.16.3.2,5101,172.16.1.2,41464,10499,14480,0,65728,65728,6,6,4,1460,403,1,993,38,33580,0,65700,0,0,1,0,0
i,0x00000000,1716937206.243205,172.16.3.2,5101,172.16.1.2,41464,10499,14480,0,65728,65728,6,6,4,1460,403,1,992,38,33580,0,65700,0,0,1,0,0
o,0x00000000,1716937206.243214,172.16.3.2,5101,172.16.1.2,41464,10499,14480,0,65728,65728,6,6,4,1460,403,1,993,38,33580,0,65700,0,0,1,0,0
i,0x00000000,1716937206.252361,172.16.3.2,5101,172.16.1.2,41464,10499,14480,0,65728,65728,6,6,4,1460,403,1,992,38,33580,0,65700,0,0,1,0,0
o,0x00000000,1716937206.252367,172.16.3.2,5101,172.16.1.2,41464,10499,14480,0,65728,65728,6,6,4,1460,403,1,993,38,33580,0,65700,0,0,1,0,0
i,0x00000000,1716937206.262937,172.16.3.2,5101,172.16.1.2,41464,10499,14480,0,65728,65728,6,6,4,1460,403,1,992,38,33580,0,65700,0,0,1,0,0
o,0x00000000,1716937206.262942,172.16.3.2,5101,172.16.1.2,41464,10499,14480,0,65728,65728,6,6,4,1460,403,1,993,38,33580,0,65700,0,0,1,0,0
i,0x00000000,1716937206.292843,172.16.3.2,5101,172.16.1.2,41464,10499,14480,0,65728,65728,6,6,4,1460,403,1,992,38,33580,0,65700,0,0,1,0,0
o,0x00000000,1716937206.292849,172.16.3.2,5101,172.16.1.2,41464,10499,14480,0,65728,65728,6,6,4,1460,403,1,993,38,33580,0,65700,0,0,1,0,0
i,0x00000000,1716937206.313584,172.16.3.2,5101,172.16.1.2,41464,10499,14480,0,65728,65728,6,6,4,1460,403,1,992,38,33580,0,65700,0,0,1,0,0
o,0x00000000,1716937206.313588,172.16.3.2,5101,172.16.1.2,41464,10499,14480,0,65728,65728,6,6,4,1460,403,1,993,38,33580,0,65700,0,0,2,0,0
i,0x00000000,1716937206.342705,172.16.3.2,5101,172.16.1.2,41464,10499,14480,0,65728,65728,6,6,4,1460,403,1,992,38,33580,0,65700,0,0,2,0,0
o,0x00000000,1716937206.342710,172.16.3.2,5101,172.16.1.2,41464,10499,14480,0,65728,65728,6,6,4,1460,403,1,993,38,33580,0,65700,0,0,2,0,0
i,0x00000000,1716937206.363389,172.16.3.2,5101,172.16.1.2,41464,10499,14480,0,65728,65728,6,6,4,1460,403,1,992,38,33580,0,65700,0,0,2,0,0
o,0x00000000,1716937206.363394,172.16.3.2,5101,172.16.1.2,41464,10499,14480,0,65728,65728,6,6,4,1460,403,1,993,38,33580,0,65700,0,0,3,0,0
i,0x00000000,1716937206.372117,172.16.3.2,5101,172.16.1.2,41464,10499,14480,0,65728,65728,6,6,4,1460,403,1,992,38,33580,0,65700,0,0,3,0,0
o,0x00000000,1716937206.372121,172.16.3.2,5101,172.16.1.2,41464,10499,14480,0,65728,65728,6,6,4,1460,403,1,993,38,33580,0,65700,0,0,3,0,0
i,0x00000000,1716937206.412606,172.16.3.2,5101,172.16.1.2,41464,10499,14480,0,65728,65728,6,6,4,1460,403,1,992,38,33580,0,65700,0,0,3,0,0
o,0x00000000,1716937206.412623,172.16.3.2,5101,172.16.1.2,41464,10499,14480,0,65728,65728,6,6,4,1460,403,1,993,38,33580,0,65700,1448,0,3,0,0
i,0x00000000,1716937206.452926,172.16.3.2,5101,172.16.1.2,41464,10499,14480,0,65728,65728,6,6,4,1460,403,1,992,38,33580,0,65700,0,0,3,0,0
o,0x00000000,1716937206.452938,172.16.3.2,5101,172.16.1.2,41464,10499,14480,0,65728,65700,6,6,4,1460,403,1,993,38,33580,0,65700,13032,0,2,0,0
i,0x00000000,1716937206.462139,172.16.3.2,5101,172.16.1.2,41464,10499,14480,0,65728,65700,6,6,4,1460,403,1,992,38,33580,0,65700,0,0,2,0,0
o,0x00000000,1716937206.462144,172.16.3.2,5101,172.16.1.2,41464,10499,14480,0,65728,65700,6,6,4,1460,403,1,993,38,33580,0,65700,0,0,3,0,0
i,0x00000000,1716937206.483029,172.16.3.2,5101,172.16.1.2,41464,10499,14480,0,65728,65700,6,6,4,1460,403,1,992,38,33580,0,65700,0,0,3,0,0
o,0x00000000,1716937206.483037,172.16.3.2,5101,172.16.1.2,41464,10499,14480,0,65728,65728,6,6,4,1460,403,1,993,38,33580,0,65700,1448,0,3,0,0
i,0x00000000,1716937206.512820,172.16.3.2,5101,172.16.1.2,41464,10499,14480,0,65728,65728,6,6,4,1460,403,1,992,38,33580,0,65700,0,0,3,0,0
o,0x00000000,1716937206.512834,172.16.3.2,5101,172.16.1.2,41464,10499,14480,0,65728,65700,6,6,4,1460,403,1,993,38,33580,0,65700,4344,0,2,0,0
i,0x00000000,1716937206.541811,172.16.3.2,5101,172.16.1.2,41464,10499,14480,0,65728,65700,6,6,4,1460,403,1,992,38,33580,0,65700,0,0,2,0,0
o,0x00000000,1716937206.541819,172.16.3.2,5101,172.16.1.2,41464,10499,14480,0,65728,65700,6,6,4,1460,403,1,993,38,33580,0,65700,4344,0,1,0,0
i,0x00000000,1716937206.552400,172.16.3.2,5101,172.16.1.2,41464,10499,14480,0,65728,65700,6,6,4,1460,403,1,992,38,33580,0,65700,0,0,1,0,0
o,0x00000000,1716937206.552404,172.16.3.2,5101,172.16.1.2,41464,10499,14480,0,65728,65700,6,6,4,1460,403,1,993,38,33580,0,65700,0,0,1,0,0
i,0x00000000,1716937206.582565,172.16.3.2,5101,172.16.1.2,41464,10499,14480,0,65728,65700,6,6,4,1460,403,1,992,38,33580,0,65700,0,0,1,0,0
o,0x00000000,1716937206.582572,172.16.3.2,5101,172.16.1.2,41464,10499,14480,0,65728,65728,6,6,4,1460,403,1,993,38,33580,0,65700,0,0,1,0,0
i,0x00000000,1716937206.612681,172.16.3.2,5101,172.16.1.2,41464,10499,14480,0,65728,65728,6,6,4,1460,403,1,992,38,33580,0,65700,0,0,1,0,0
o,0x00000000,1716937206.612693,172.16.3.2,5101,172.16.1.2,41464,10499,14480,0,65728,65728,6,6,4,1460,403,1,993,38,33580,0,65700,0,0,1,0,0
i,0x00000000,1716937206.643766,172.16.3.2,5101,172.16.1.2,41464,10499,14480,0,65728,65728,6,6,4,1460,403,1,992,38,33580,0,65700,0,0,1,0,0
o,0x00000000,1716937206.643777,172.16.3.2,5101,172.16.1.2,41464,10499,14480,0,65728,65728,6,6,4,1460,403,1,993,38,33580,0,65700,7240,0,0,0,0
i,0x00000000,1716937206.651692,172.16.3.2,5101,172.16.1.2,41464,10499,14480,0,65728,65728,6,6,4,1460,403,1,992,38,33580,0,65700,0,0,0,0,0
o,0x00000000,1716937206.687601,172.16.3.2,5101,172.16.1.2,41464,10499,14480,0,65728,65728,6,6,4,1460,403,1,993,38,33580,0,65700,0,0,0,0,0
i,0x00000000,1716937206.693173,172.16.3.2,5101,172.16.1.2,41464,10499,14480,0,65728,65728,6,6,4,1460,403,1,992,38,33580,0,65700,0,0,0,0,0
o,0x00000000,1716937206.693180,172.16.3.2,5101,172.16.1.2,41464,10499,14480,0,65728,65728,6,6,4,1460,403,1,993,38,33580,0,65700,0,0,1,0,0
i,0x00000000,1716937206.712866,172.16.3.2,5101,172.16.1.2,41464,10499,14480,0,65728,65728,6,6,4,1460,403,1,992,38,33580,0,65700,0,0,1,0,0
o,0x00000000,1716937206.712872,172.16.3.2,5101,172.16.1.2,41464,10499,14480,0,65728,65728,6,6,4,1460,403,1,993,38,33580,0,65700,0,0,1,0,0
i,0x00000000,1716937206.732590,172.16.3.2,5101,172.16.1.2,41464,10499,14480,0,65728,65728,6,6,4,1460,403,1,992,38,33580,0,65700,0,0,1,0,0
o,0x00000000,1716937206.732596,172.16.3.2,5101,172.16.1.2,41464,10499,14480,0,65728,65728,6,6,4,1460,403,1,993,38,33580,0,65700,0,0,1,0,0
i,0x00000000,1716937206.753226,172.16.3.2,5101,172.16.1.2,41464,10499,14480,0,65728,65728,6,6,4,1460,403,1,992,38,33580,0,65700,0,0,1,0,0
o,0x00000000,1716937206.753230,172.16.3.2,5101,172.16.1.2,41464,10499,14480,0,65728,65728,6,6,4,1460,403,1,993,38,33580,0,65700,0,0,1,0,0
i,0x00000000,1716937206.782294,172.16.3.2,5101,172.16.1.2,41464,10499,14480,0,65728,65728,6,6,4,1460,403,1,992,38,33580,0,65700,0,0,1,0,0
o,0x00000000,1716937206.782302,172.16.3.2,5101,172.16.1.2,41464,10499,14480,0,65728,65728,6,6,4,1460,403,1,993,38,33580,0,65700,0,0,1,0,0
i,0x00000000,1716937206.802151,172.16.3.2,5101,172.16.1.2,41464,10499,14480,0,65728,65728,6,6,4,1460,403,1,992,38,33580,0,65700,0,0,1,0,0
o,0x00000000,1716937206.802159,172.16.3.2,5101,172.16.1.2,41464,10499,14480,0,65728,65728,6,6,4,1460,403,1,993,38,33580,0,65700,0,0,1,0,0
i,0x00000000,1716937206.842539,172.16.3.2,5101,172.16.1.2,41464,10499,14480,0,65728,65728,6,6,4,1460,403,1,992,38,33580,0,65700,0,0,1,0,0
o,0x00000000,1716937206.842549,172.16.3.2,5101,172.16.1.2,41464,10499,14480,0,65728,65728,6,6,4,1460,403,1,993,38,33580,0,65700,0,0,1,0,0
i,0x00000000,1716937206.863225,172.16.3.2,5101,172.16.1.2,41464,10499,14480,0,65728,65728,6,6,4,1460,403,1,992,38,33580,0,65700,0,0,1,0,0
o,0x00000000,1716937206.863232,172.16.3.2,5101,172.16.1.2,41464,10499,14480,0,65728,65728,6,6,4,1460,403,1,993,38,33580,0,65700,0,0,1,0,0
i,0x00000000,1716937206.882989,172.16.3.2,5101,172.16.1.2,41464,10499,14480,0,65728,65728,6,6,4,1460,403,1,992,38,33580,0,65700,0,0,1,0,0
o,0x00000000,1716937206.882997,172.16.3.2,5101,172.16.1.2,41464,10499,14480,0,65728,65728,6,6,4,1460,403,1,993,38,33580,0,65700,0,0,1,0,0
i,0x00000000,1716937206.892364,172.16.3.2,5101,172.16.1.2,41464,10499,14480,0,65728,65728,6,6,4,1460,403,1,992,38,33580,0,65700,0,0,1,0,0
o,0x00000000,1716937206.892378,172.16.3.2,5101,172.16.1.2,41464,10499,14480,0,65728,65728,6,6,4,1460,403,1,993,38,33580,0,65700,14480,0,0,0,0
i,0x00000000,1716937206.932606,172.16.3.2,5101,172.16.1.2,41464,10499,14480,0,65728,65728,6,6,4,1460,403,1,992,38,33580,0,65700,0,0,0,0,0
o,0x00000000,1716937206.932680,172.16.3.2,5101,172.16.1.2,41464,10499,14480,0,65728,65728,6,6,4,1460,403,1,993,38,33580,0,65700,0,0,0,0,0
i,0x00000000,1716937206.992649,172.16.3.2,5101,172.16.1.2,41464,10499,14480,0,65728,65728,6,6,4,1460,403,1,992,38,33580,0,65700,0,0,0,0,0
i,0x00000000,1716937207.012399,172.16.3.2,5101,172.16.1.2,41464,10499,14480,0,65728,65728,6,6,4,1460,403,1,992,38,33580,0,65700,0,0,0,0,0
o,0x00000000,1716937207.012410,172.16.3.2,5101,172.16.1.2,41464,10499,14480,0,65728,65728,6,6,4,1460,403,1,993,38,33580,0,65700,1448,0,0,0,0
i,0x00000000,1716937207.021816,172.16.3.2,5101,172.16.1.2,41464,10499,14480,0,65728,65728,6,6,4,1460,403,1,992,38,33580,0,65700,0,0,0,0,0
o,0x00000000,1716937207.057849,172.16.3.2,5101,172.16.1.2,41464,10499,14480,0,65728,65728,6,6,4,1460,403,1,993,38,33580,0,65700,0,0,0,0,0
i,0x00000000,1716937207.092182,172.16.3.2,5101,172.16.1.2,41464,10499,14480,0,65728,65728,6,6,4,1460,403,1,992,38,33580,0,65700,0,0,0,0,0
i,0x00000000,1716937207.102603,172.16.3.2,5101,172.16.1.2,41464,10499,14480,0,65728,65728,6,6,4,1460,403,1,992,38,33580,0,65700,0,0,0,0,0
o,0x00000000,1716937207.102611,172.16.3.2,5101,172.16.1.2,41464,10499,14480,0,65728,65728,6,6,4,1460,403,1,993,38,33580,0,65700,1448,0,0,0,0
o,0x00000000,1716937207.138177,10.0.2.15,22,10.0.2.2,62180,1073725440,14600,0,65535,65700,0,0,4,1460,1,0,4,24,33580,108,65700,0,0,0,0,0
i,0x00000000,1716937207.138935,10.0.2.15,22,10.0.2.2,62180,1073725440,14600,0,65535,65700,0,0,4,1460,1,0,4,24,33580,108,65700,0,108,0,0,0
i,0x00000000,1716937207.151576,172.16.3.2,5101,172.16.1.2,41464,10499,14480,0,65728,65728,6,6,4,1460,403,1,992,38,33580,0,65700,0,0,0,0,0
i,0x00000000,1716937207.161760,172.16.3.2,5101,172.16.1.2,41464,10499,14480,0,65728,65728,6,6,4,1460,403,1,992,38,33580,0,65700,0,0,0,0,0
o,0x00000000,1716937207.161782,172.16.3.2,5101,172.16.1.2,41464,10499,14480,0,65728,65728,6,6,4,1460,403,1,993,38,33580,0,65700,1448,0,0,0,0
i,0x00000000,1716937207.222414,172.16.3.2,5101,172.16.1.2,41464,10499,14480,0,65728,65728,6,6,4,1460,403,1,992,38,33580,0,65700,0,0,0,0,0
i,0x00000000,1716937207.233090,172.16.3.2,5101,172.16.1.2,41464,10499,14480,0,65728,65728,6,6,4,1460,403,1,992,38,33580,0,65700,0,0,0,0,0
o,0x00000000,1716937207.233101,172.16.3.2,5101,172.16.1.2,41464,10499,14480,0,65728,65728,6,6,4,1460,403,1,993,38,33580,0,65700,1448,0,0,0,0
i,0x00000000,1716937207.243191,172.16.3.2,5101,172.16.1.2,41464,10499,14480,0,65728,65728,6,6,4,1460,403,1,992,38,33580,0,65700,0,0,0,0,0
i,0x00000000,1716937207.262880,172.16.3.2,5101,172.16.1.2,41464,10499,14480,0,65728,65728,6,6,4,1460,403,1,992,38,33580,0,65700,0,0,0,0,0
o,0x00000000,1716937207.262899,172.16.3.2,5101,172.16.1.2,41464,10499,14480,0,65728,65728,6,6,4,1460,403,1,993,38,33580,0,65700,1448,0,0,0,0
i,0x00000000,1716937207.311734,172.16.3.2,5101,172.16.1.2,41464,10499,14480,0,65728,65728,6,6,4,1460,403,1,992,38,33580,0,65700,0,0,0,0,0
i,0x00000000,1716937207.321972,172.16.3.2,5101,172.16.1.2,41464,10499,14480,0,65728,65728,6,6,4,1460,403,1,992,38,33580,0,65700,0,0,0,0,0
o,0x00000000,1716937207.321982,172.16.3.2,5101,172.16.1.2,41464,10499,14480,0,65728,65728,6,6,4,1460,403,1,993,38,33580,0,65700,1448,0,0,0,0
i,0x00000000,1716937207.392627,172.16.3.2,5101,172.16.1.2,41464,10499,14480,0,65728,65728,6,6,4,1460,403,1,992,38,33580,0,65700,0,0,0,0,0
i,0x00000000,1716937207.402043,172.16.3.2,5101,172.16.1.2,41464,10499,14480,0,65728,65728,6,6,4,1460,403,1,992,38,33580,0,65700,0,0,0,0,0
o,0x00000000,1716937207.402053,172.16.3.2,5101,172.16.1.2,41464,10499,14480,0,65728,65728,6,6,4,1460,403,1,993,38,33580,0,65700,1448,0,0,0,0
i,0x00000000,1716937207.421783,172.16.3.2,5101,172.16.1.2,41464,10499,14480,0,65728,65728,6,6,4,1460,403,1,992,38,33580,0,65700,0,0,0,0,0
i,0x00000000,1716937207.432132,172.16.3.2,5101,172.16.1.2,41464,10499,14480,0,65728,65728,6,6,4,1460,403,1,992,38,33580,0,65700,0,0,0,0,0
o,0x00000000,1716937207.432147,172.16.3.2,5101,172.16.1.2,41464,10499,14480,0,65728,65728,6,6,4,1460,403,1,993,38,33580,0,65700,1448,0,0,0,0
i,0x00000000,1716937207.442452,172.16.3.2,5101,172.16.1.2,41464,10499,14480,0,65728,65728,6,6,4,1460,403,1,992,38,33580,0,65700,0,0,0,0,0
o,0x00000000,1716937207.478008,172.16.3.2,5101,172.16.1.2,41464,10499,14480,0,65728,65728,6,6,4,1460,403,1,993,38,33580,0,65700,0,0,0,0,0
i,0x00000000,1716937207.481840,172.16.3.2,5101,172.16.1.2,41464,10499,14480,0,65728,65728,6,6,4,1460,403,1,992,38,33580,0,65700,0,0,0,0,0
i,0x00000000,1716937207.492145,172.16.3.2,5101,172.16.1.2,41464,10499,14480,0,65728,65728,6,6,4,1460,403,1,992,38,33580,0,65700,0,0,0,0,0
o,0x00000000,1716937207.492157,172.16.3.2,5101,172.16.1.2,41464,10499,14480,0,65728,65728,6,6,4,1460,403,1,993,38,33580,0,65700,1448,0,0,0,0
i,0x00000000,1716937207.562282,172.16.3.2,5101,172.16.1.2,41464,10499,14480,0,65728,65728,6,6,4,1460,403,1,992,38,33580,0,65700,0,0,0,0,0
i,0x00000000,1716937207.582962,172.16.3.2,5101,172.16.1.2,41464,10499,14480,0,65728,65728,6,6,4,1460,403,1,992,38,33580,0,65700,0,0,0,0,0
o,0x00000000,1716937207.582980,172.16.3.2,5101,172.16.1.2,41464,10499,14480,0,65728,65728,6,6,4,1460,403,1,993,38,33580,0,65700,1448,0,0,0,0
i,0x00000000,1716937207.592371,172.16.3.2,5101,172.16.1.2,41464,10499,14480,0,65728,65728,6,6,4,1460,403,1,992,38,33580,0,65700,0,0,0,0,0
i,0x00000000,1716937207.602251,172.16.3.2,5101,172.16.1.2,41464,10499,14480,0,65728,65728,6,6,4,1460,403,1,992,38,33580,0,65700,0,0,0,0,0
