enable_time_secs=1716939370	enable_time_usecs=455719	siftrver=1.2.4	hz=100	tcp_rtt_scale=32	sysname=FreeBSD	sysver=1301000	ipmode=4
o,0x00000000,1716939370.455768,10.0.2.15,22,10.0.2.2,59709,1073725440,17298,0,65535,65700,0,0,4,1460,1,0,4,24,33580,44,65700,0,0,0,0,0
o,0x00000000,1716939370.455901,10.0.2.15,22,10.0.2.2,59709,1073725440,17298,0,65535,65700,0,0,4,1460,1,0,4,24,33580,80,65700,0,44,0,0,0
i,0x00000000,1716939370.457137,10.0.2.15,22,10.0.2.2,59709,1073725440,17298,0,65535,65700,0,0,4,1460,1,0,4,24,33580,80,65700,0,80,0,0,0
i,0x00000000,1716939370.457239,10.0.2.15,22,10.0.2.2,59709,1073725440,17342,0,65535,65700,0,0,4,1460,1,0,4,23,33580,36,65700,0,36,0,0,0
o,0x00000000,1716939370.457367,10.0.2.15,22,10.0.2.2,59709,1073725440,17378,0,65535,65700,0,0,4,1460,1,0,4,23,33580,36,65700,0,0,0,0,0
i,0x00000000,1716939370.457958,10.0.2.15,22,10.0.2.2,59709,1073725440,17378,0,65535,65700,0,0,4,1460,1,0,4,23,33580,36,65700,0,36,0,0,0
o,0x00000000,1716939370.458339,10.0.2.15,22,10.0.2.2,59709,1073725440,17414,0,65535,65700,0,0,4,1460,1,0,4,23,33580,176,65700,0,0,0,0,0
i,0x00000000,1716939370.459051,10.0.2.15,22,10.0.2.2,59709,1073725440,17414,0,65535,65700,0,0,4,1460,1,0,4,23,33580,176,65700,0,176,0,0,0
i,0x00000000,1716939370.459671,10.0.2.15,22,10.0.2.2,59709,1073725440,17590,0,65535,65700,0,0,4,1460,1,0,4,23,33580,0,65700,0,0,0,0,0
i,0x00000000,1716939370.459673,10.0.2.15,22,10.0.2.2,59709,1073725440,17590,0,65535,65700,0,0,4,1460,1,0,4,23,33580,0,65700,36,0,0,0,0
o,0x00000000,1716939370.459677,10.0.2.15,22,10.0.2.2,59709,1073725440,17590,0,65535,65700,0,0,4,1460,1,0,5,23,33580,0,65700,96,0,0,0,0
i,0x00000000,1716939370.459755,10.0.2.15,22,10.0.2.2,59709,1073725440,17590,0,65535,65700,0,0,4,1460,1,0,4,23,33580,0,65700,96,0,0,0,0
o,0x00000000,1716939370.459760,10.0.2.15,22,10.0.2.2,59709,1073725440,17590,0,65535,65604,0,0,5,1460,1,0,7,23,33580,0,65700,96,0,0,0,0
o,0x00000000,1716939370.460976,10.0.2.15,22,10.0.2.2,59709,1073725440,17590,0,65535,65604,0,0,8,1460,1,0,4,23,33580,0,65700,0,0,0,0,0
i,0x00000000,1716939370.461537,10.0.2.15,22,10.0.2.2,59709,1073725440,17590,0,65535,65604,0,0,8,1460,1,0,20,23,33580,0,65700,0,1,0,0,0
i,0x00000000,1716939372.546172,10.0.2.15,22,10.0.2.2,59712,1073725440,14600,0,65535,65700,0,0,4,1460,1,0,0,27,33580,0,65700,0,0,0,0,0
o,0x00000000,1716939372.552130,10.0.2.15,22,10.0.2.2,59712,1073725440,14600,0,65535,65700,0,0,4,1460,1,0,0,27,33580,38,65700,41,0,0,0,0
i,0x00000000,1716939372.552784,10.0.2.15,22,10.0.2.2,59712,1073725440,14600,0,65535,65700,0,0,4,1460,1,0,0,27,33580,38,65700,0,38,0,0,0
i,0x00000000,1716939372.553520,10.0.2.15,22,10.0.2.2,59712,1073725440,14638,0,65535,65700,0,0,4,1460,1,0,0,24,33580,0,65700,0,0,0,0,0
i,0x00000000,1716939372.553523,10.0.2.15,22,10.0.2.2,59712,1073725440,14638,0,65535,65700,0,0,4,1460,1,0,0,24,33580,0,65700,1460,0,0,0,0
o,0x00000000,1716939372.553526,10.0.2.15,22,10.0.2.2,59712,1073725440,14638,0,65535,65700,0,0,4,1460,1,0,1,24,33580,0,65700,1536,0,0,0,0
o,0x00000000,1716939372.554282,10.0.2.15,22,10.0.2.2,59712,1073725440,14638,0,65535,65700,0,0,4,1460,1,0,0,24,33580,1056,65700,1536,0,0,0,0
i,0x00000000,1716939372.554886,10.0.2.15,22,10.0.2.2,59712,1073725440,14638,0,65535,65700,0,0,4,1460,1,0,0,24,33580,1056,65700,1536,1056,0,0,0
i,0x00000000,1716939372.556455,10.0.2.15,22,10.0.2.2,59712,1073725440,15694,0,65535,65700,0,0,4,1460,1,0,0,24,33580,0,65700,0,0,0,0,0
o,0x00000000,1716939372.558958,10.0.2.15,22,10.0.2.2,59712,1073725440,15694,0,65535,65700,0,0,4,1460,1,0,0,24,33580,484,65700,0,0,0,0,0
i,0x00000000,1716939372.559730,10.0.2.15,22,10.0.2.2,59712,1073725440,15694,0,65535,65700,0,0,4,1460,1,0,0,24,33580,484,65700,0,484,0,0,0
i,0x00000000,1716939372.564233,10.0.2.15,22,10.0.2.2,59712,1073725440,16178,0,65535,65700,0,0,4,1460,1,0,0,24,33580,0,65700,0,0,0,0,0
i,0x00000000,1716939372.568508,10.0.2.15,22,10.0.2.2,59712,1073725440,16178,0,65535,65700,0,0,4,1460,1,0,0,24,33580,0,65700,0,0,0,0,0
o,0x00000000,1716939372.568513,10.0.2.15,22,10.0.2.2,59712,1073725440,16178,0,65535,65700,0,0,4,1460,1,0,1,24,33580,0,65700,44,0,0,0,0
o,0x00000000,1716939372.568649,10.0.2.15,22,10.0.2.2,59712,1073725440,16178,0,65535,65700,0,0,4,1460,1,0,0,24,33580,44,65700,0,0,0,0,0
i,0x00000000,1716939372.569269,10.0.2.15,22,10.0.2.2,59712,1073725440,16178,0,65535,65700,0,0,4,1460,1,0,0,24,33580,44,65700,0,44,0,0,0
i,0x00000000,1716939372.569686,10.0.2.15,22,10.0.2.2,59712,1073725440,16222,0,65535,65700,0,0,4,1460,1,0,0,24,33580,0,65700,0,0,0,0,0
o,0x00000000,1716939372.579792,10.0.2.15,22,10.0.2.2,59712,1073725440,16222,0,65535,65700,0,0,4,1460,1,0,0,24,33580,68,65700,0,0,0,0,0
i,0x00000000,1716939372.580431,10.0.2.15,22,10.0.2.2,59712,1073725440,16222,0,65535,65700,0,0,4,1460,1,0,0,24,33580,68,65700,0,68,0,0,0
i,0x00000000,1716939372.582801,10.0.2.15,22,10.0.2.2,59712,1073725440,16290,0,65535,65700,0,0,4,1460,1,0,0,24,33580,0,65700,0,0,0,0,0
o,0x00000000,1716939372.592386,10.0.2.15,22,10.0.2.2,59712,1073725440,16290,0,65535,65700,0,0,4,1460,1,0,0,24,33580,28,65700,0,0,0,0,0
i,0x00000000,1716939372.593064,10.0.2.15,22,10.0.2.2,59712,1073725440,16290,0,65535,65700,0,0,4,1460,1,0,0,24,33580,28,65700,0,28,0,0,0
o,0x00000000,1716939372.593735,10.0.2.15,22,10.0.2.2,59712,1073725440,16318,0,65535,65700,0,0,4,1460,1,0,0,24,33580,768,65700,0,0,0,0,0
i,0x00000000,1716939372.595560,10.0.2.15,22,10.0.2.2,59712,1073725440,16318,0,65535,65700,0,0,4,1460,1,0,0,24,33580,768,65700,0,768,0,0,0
i,0x00000000,1716939372.595564,10.0.2.15,22,10.0.2.2,59712,1073725440,16318,0,65535,65700,0,0,4,1460,1,0,0,24,33580,768,65700,112,768,0,0,0
o,0x00000000,1716939372.595661,10.0.2.15,22,10.0.2.2,59712,1073725440,17086,0,65535,65700,0,0,4,1460,1,0,0,24,33580,44,65700,0,0,0,0,0
i,0x00000000,1716939372.596340,10.0.2.15,22,10.0.2.2,59712,1073725440,17086,0,65535,65700,0,0,4,1460,1,0,0,24,33580,44,65700,0,44,0,0,0
i,0x00000000,1716939372.597428,10.0.2.15,22,10.0.2.2,59712,1073725440,17130,0,65535,65700,0,0,4,1460,1,0,0,24,33580,0,65700,0,0,0,0,0
o,0x00000000,1716939372.597837,10.0.2.15,22,10.0.2.2,59712,1073725440,17130,0,65535,65700,0,0,4,1460,1,0,4,24,33580,72,65700,0,0,0,0,0
i,0x00000000,1716939372.598609,10.0.2.15,22,10.0.2.2,59712,1073725440,17130,0,65535,65700,0,0,4,1460,1,0,4,24,33580,72,65700,0,72,0,0,0
o,0x00000000,1716939372.600964,10.0.2.15,22,10.0.2.2,59712,1073725440,17202,0,65535,65700,0,0,4,1460,1,0,4,24,33580,44,65700,0,0,0,0,0
i,0x00000000,1716939372.601546,10.0.2.15,22,10.0.2.2,59712,1073725440,17202,0,65535,65700,0,0,4,1460,1,0,4,24,33580,44,65700,0,44,0,0,0
o,0x00000000,1716939372.601783,10.0.2.15,22,10.0.2.2,59712,1073725440,17246,0,65535,65700,0,0,4,1460,1,0,4,24,33580,44,65700,0,0,0,0,0
i,0x00000000,1716939372.602468,10.0.2.15,22,10.0.2.2,59712,1073725440,17246,0,65535,65700,0,0,4,1460,1,0,4,24,33580,44,65700,0,44,0,0,0
o,0x00000000,1716939372.605331,10.0.2.15,22,10.0.2.2,59712,1073725440,17290,0,65535,65700,0,0,4,1460,1,0,4,24,33580,176,65700,0,0,0,0,0
i,0x00000000,1716939372.605964,10.0.2.15,22,10.0.2.2,59712,1073725440,17290,0,65535,65700,0,0,4,1460,1,0,4,24,33580,176,65700,0,176,0,0,0
i,0x00000000,1716939372.607155,10.0.2.15,22,10.0.2.2,59712,1073725440,17466,0,65535,65700,0,0,4,1460,1,0,4,24,33580,0,65700,0,0,0,0,0
i,0x00000000,1716939372.607158,10.0.2.15,22,10.0.2.2,59712,1073725440,17466,0,65535,65700,0,0,4,1460,1,0,4,24,33580,0,65700,36,0,0,0,0
o,0x00000000,1716939372.607160,10.0.2.15,22,10.0.2.2,59712,1073725440,17466,0,65535,65700,0,0,4,1460,1,0,5,24,33580,0,65700,96,0,0,0,0
i,0x00000000,1716939372.607236,10.0.2.15,22,10.0.2.2,59712,1073725440,17466,0,65535,65700,0,0,4,1460,1,0,4,24,33580,0,65700,96,0,0,0,0
o,0x00000000,1716939372.607239,10.0.2.15,22,10.0.2.2,59712,1073725440,17466,0,65535,65604,0,0,5,1460,1,0,7,24,33580,0,65700,96,0,0,0,0
o,0x00000000,1716939372.612241,10.0.2.15,22,10.0.2.2,59712,1073725440,17466,0,65535,65604,0,0,8,1460,1,0,4,24,33580,0,65700,0,0,0,0,0
i,0x00000000,1716939372.612796,10.0.2.15,22,10.0.2.2,59712,1073725440,17466,0,65535,65604,0,0,8,1460,1,0,20,24,33580,0,65700,0,1,0,0,0
i,0x00000000,1716939372.845887,172.16.3.2,5101,172.16.1.2,42724,10406,14480,0,65728,65700,6,6,4,1460,426,1,992,42,33580,0,65700,0,0,0,0,0
o,0x00000000,1716939372.846009,172.16.3.2,5101,172.16.1.2,42724,10406,14480,0,65728,65700,6,6,4,1460,426,1,996,42,33580,1,65700,0,0,0,0,0
i,0x00000000,1716939372.965466,172.16.3.2,5101,172.16.1.2,42724,10406,14480,0,65728,65700,6,6,4,1460,426,1,996,42,33580,1,65700,0,1,0,0,0
i,0x00000000,1716939372.965484,172.16.3.2,5101,172.16.1.2,42724,10406,14480,0,65728,65728,6,6,4,1460,421,1,996,41,33580,0,65700,4,0,0,0,0
o,0x00000000,1716939372.965492,172.16.3.2,5101,172.16.1.2,42724,10406,14480,0,65728,65728,6,6,4,1460,421,1,997,41,33580,0,65700,128,0,0,0,0
o,0x00000000,1716939372.965927,172.16.3.2,5101,172.16.1.2,42724,10406,14480,0,65728,65728,6,6,4,1460,421,1,996,41,33580,1,65700,0,0,0,0,0
o,0x00000000,1716939372.966137,10.0.2.15,22,10.0.2.2,62180,1073725440,14600,0,65535,65700,0,0,4,1460,1,0,4,24,33580,84,65700,0,0,0,0,0
i,0x00000000,1716939372.967060,10.0.2.15,22,10.0.2.2,62180,1073725440,14600,0,65535,65700,0,0,4,1460,1,0,4,24,33580,84,65700,0,84,0,0,0
i,0x00000000,1716939373.116042,172.16.3.2,5101,172.16.1.2,42724,10406,14480,0,65728,65728,6,6,4,1460,421,1,996,41,33580,1,65700,0,1,0,0,0
i,0x00000000,1716939373.205008,172.16.3.2,5101,172.16.1.2,52162,10406,14480,0,65728,65700,6,6,4,1460,426,1,992,42,33580,0,65700,0,0,0,0,0
o,0x00000000,1716939373.206872,172.16.3.2,5101,172.16.1.2,42724,10406,14480,0,65728,65728,6,6,4,1460,429,1,996,41,33580,1,65700,0,0,0,0,0
o,0x00000000,1716939373.206961,172.16.3.2,5101,172.16.1.2,42724,10406,14480,0,65728,65728,6,6,4,1460,429,1,996,41,33580,2,65700,0,1,0,0,0
o,0x00000000,1716939373.207444,10.0.2.15,22,10.0.2.2,62180,1073725440,14600,0,65535,65700,0,0,4,1460,1,0,4,24,33580,108,65700,0,0,0,0,0
i,0x00000000,1716939373.208165,10.0.2.15,22,10.0.2.2,62180,1073725440,14600,0,65535,65700,0,0,4,1460,1,0,4,24,33580,108,65700,0,108,0,0,0
o,0x00000000,1716939373.237579,172.16.3.2,5101,172.16.1.2,52162,10406,14480,0,65728,65700,6,6,4,1460,426,1,993,42,33580,0,65700,0,0,0,0,0
i,0x00000000,1716939373.324434,172.16.3.2,5101,172.16.1.2,42724,10406,14480,0,65728,65728,6,6,4,1460,429,1,996,41,33580,2,65700,0,2,0,0,0
i,0x00000000,1716939373.424693,172.16.3.2,5101,172.16.1.2,52162,10406,14480,0,65728,65700,6,6,4,1460,426,1,992,42,33580,0,65700,0,0,0,0,0
i,0x00000000,1716939373.434783,172.16.3.2,5101,172.16.1.2,52162,10406,14480,0,65728,65700,6,6,4,1460,426,1,992,42,33580,0,65700,0,0,0,0,0
o,0x00000000,1716939373.434795,172.16.3.2,5101,172.16.1.2,52162,10406,14480,0,65728,65700,6,6,4,1460,426,1,993,42,33580,0,65700,1448,0,0,0,0
i,0x00000000,1716939373.445525,172.16.3.2,5101,172.16.1.2,52162,10406,14480,0,65728,65700,6,6,4,1460,426,1,992,42,33580,0,65700,0,0,0,0,0
i,0x00000000,1716939373.455583,172.16.3.2,5101,172.16.1.2,52162,10406,14480,0,65728,65700,6,6,4,1460,426,1,992,42,33580,0,65700,0,0,0,0,0
o,0x00000000,1716939373.455588,172.16.3.2,5101,172.16.1.2,52162,10406,14480,0,65728,65700,6,6,4,1460,426,1,993,42,33580,0,65700,1448,0,0,0,0
i,0x00000000,1716939373.475219,172.16.3.2,5101,172.16.1.2,52162,10406,14480,0,65728,65700,6,6,4,1460,426,1,992,42,33580,0,65700,0,0,0,0,0
i,0x00000000,1716939373.485272,172.16.3.2,5101,172.16.1.2,52162,10406,14480,0,65728,65700,6,6,4,1460,426,1,992,42,33580,0,65700,0,0,0,0,0
o,0x00000000,1716939373.485279,172.16.3.2,5101,172.16.1.2,52162,10406,14480,0,65728,65700,6,6,4,1460,426,1,993,42,33580,0,65700,1448,0,0,0,0
i,0x00000000,1716939373.494223,172.16.3.2,5101,172.16.1.2,52162,10406,14480,0,65728,65700,6,6,4,1460,426,1,992,42,33580,0,65700,0,0,0,0,0
i,0x00000000,1716939373.504358,172.16.3.2,5101,172.16.1.2,52162,10406,14480,0,65728,65700,6,6,4,1460,426,1,992,42,33580,0,65700,0,0,0,0,0
o,0x00000000,1716939373.504365,172.16.3.2,5101,172.16.1.2,52162,10406,14480,0,65728,65700,6,6,4,1460,426,1,993,42,33580,0,65700,1448,0,0,0,0
i,0x00000000,1716939373.525393,172.16.3.2,5101,172.16.1.2,52162,10406,14480,0,65728,65700,6,6,4,1460,426,1,992,42,33580,0,65700,0,0,0,0,0
i,0x00000000,1716939373.534586,172.16.3.2,5101,172.16.1.2,52162,10406,14480,0,65728,65700,6,6,4,1460,426,1,992,42,33580,0,65700,0,0,0,0,0
o,0x00000000,1716939373.534603,172.16.3.2,5101,172.16.1.2,52162,10406,14480,0,65728,65700,6,6,4,1460,426,1,993,42,33580,0,65700,1448,0,0,0,0
i,0x00000000,1716939373.644803,172.16.3.2,5101,172.16.1.2,52162,10406,14480,0,65728,65700,6,6,4,1460,426,1,992,42,33580,0,65700,0,0,0,0,0
i,0x00000000,1716939373.655131,172.16.3.2,5101,172.16.1.2,52162,10406,14480,0,65728,65700,6,6,4,1460,426,1,992,42,33580,0,65700,0,0,0,0,0
o,0x00000000,1716939373.655143,172.16.3.2,5101,172.16.1.2,52162,10406,14480,0,65728,65700,6,6,4,1460,426,1,993,42,33580,0,65700,1448,0,0,0,0
i,0x00000000,1716939373.715094,172.16.3.2,5101,172.16.1.2,52162,10406,14480,0,65728,65700,6,6,4,1460,426,1,992,42,33580,0,65700,0,0,0,0,0
o,0x00000000,1716939373.747910,172.16.3.2,5101,172.16.1.2,52162,10406,14480,0,65728,65700,6,6,4,1460,426,1,993,42,33580,0,65700,0,0,0,0,0
i,0x00000000,1716939373.755448,172.16.3.2,5101,172.16.1.2,52162,10406,14480,0,65728,65700,6,6,4,1460,426,1,992,42,33580,0,65700,0,0,0,0,0
i,0x00000000,1716939373.764607,172.16.3.2,5101,172.16.1.2,52162,10406,14480,0,65728,65700,6,6,4,1460,426,1,992,42,33580,0,65700,0,0,0,0,0
o,0x00000000,1716939373.764615,172.16.3.2,5101,172.16.1.2,52162,10406,14480,0,65728,65700,6,6,4,1460,426,1,993,42,33580,0,65700,1448,0,0,0,0
i,0x00000000,1716939373.775193,172.16.3.2,5101,172.16.1.2,52162,10406,14480,0,65728,65700,6,6,4,1460,426,1,992,42,33580,0,65700,0,0,0,0,0
o,0x00000000,1716939373.807776,172.16.3.2,5101,172.16.1.2,52162,10406,14480,0,65728,65700,6,6,4,1460,426,1,993,42,33580,0,65700,0,0,0,0,0
i,0x00000000,1716939373.814613,172.16.3.2,5101,172.16.1.2,52162,10406,14480,0,65728,65700,6,6,4,1460,426,1,992,42,33580,0,65700,0,0,0,0,0
i,0x00000000,1716939373.823978,172.16.3.2,5101,172.16.1.2,52162,10406,14480,0,65728,65700,6,6,4,1460,426,1,992,42,33580,0,65700,0,0,0,0,0
o,0x00000000,1716939373.823984,172.16.3.2,5101,172.16.1.2,52162,10406,14480,0,65728,65700,6,6,4,1460,426,1,993,42,33580,0,65700,1448,0,0,0,0
i,0x00000000,1716939373.834287,172.16.3.2,5101,172.16.1.2,52162,10406,14480,0,65728,65700,6,6,4,1460,426,1,992,42,33580,0,65700,0,0,0,0,0
i,0x00000000,1716939373.854015,172.16.3.2,5101,172.16.1.2,52162,10406,14480,0,65728,65700,6,6,4,1460,426,1,992,42,33580,0,65700,0,0,0,0,0
o,0x00000000,1716939373.854020,172.16.3.2,5101,172.16.1.2,52162,10406,14480,0,65728,65700,6,6,4,1460,426,1,993,42,33580,0,65700,1448,0,0,0,0
i,0x00000000,1716939373.864391,172.16.3.2,5101,172.16.1.2,52162,10406,14480,0,65728,65700,6,6,4,1460,426,1,992,42,33580,0,65700,0,0,0,0,0
i,0x00000000,1716939373.874780,172.16.3.2,5101,172.16.1.2,52162,10406,14480,0,65728,65700,6,6,4,1460,426,1,992,42,33580,0,65700,0,0,0,0,0
o,0x00000000,1716939373.874787,172.16.3.2,5101,172.16.1.2,52162,10406,14480,0,65728,65700,6,6,4,1460,426,1,993,42,33580,0,65700,1448,0,0,0,0
i,0x00000000,1716939373.885222,172.16.3.2,5101,172.16.1.2,52162,10406,14480,0,65728,65700,6,6,4,1460,426,1,992,42,33580,0,65700,0,0,0,0,0
o,0x00000000,1716939373.917814,172.16.3.2,5101,172.16.1.2,52162,10406,14480,0,65728,65700,6,6,4,1460,426,1,993,42,33580,0,65700,0,0,0,0,0
i,0x00000000,1716939373.924638,172.16.3.2,5101,172.16.1.2,52162,10406,14480,0,65728,65700,6,6,4,1460,426,1,992,42,33580,0,65700,0,0,0,0,0
i,0x00000000,1716939373.934024,172.16.3.2,5101,172.16.1.2,52162,10406,14480,0,65728,65700,6,6,4,1460,426,1,992,42,33580,0,65700,0,0,0,0,0
o,0x00000000,1716939373.934030,172.16.3.2,5101,172.16.1.2,52162,10406,14480,0,65728,65700,6,6,4,1460,426,1,993,42,33580,0,65700,1448,0,0,0,0
i,0x00000000,1716939373.944464,172.16.3.2,5101,172.16.1.2,52162,10406,14480,0,65728,65700,6,6,4,1460,426,1,992,42,33580,0,65700,0,0,0,0,0
o,0x00000000,1716939373.978012,172.16.3.2,5101,172.16.1.2,52162,10406,14480,0,65728,65700,6,6,4,1460,426,1,993,42,33580,0,65700,0,0,0,0,0
i,0x00000000,1716939374.034392,172.16.3.2,5101,172.16.1.2,52162,10406,14480,0,65728,65700,6,6,4,1460,426,1,992,42,33580,0,65700,0,0,0,0,0
i,0x00000000,1716939374.043935,172.16.3.2,5101,172.16.1.2,52162,10406,14480,0,65728,65700,6,6,4,1460,426,1,992,42,33580,0,65700,0,0,0,0,0
o,0x00000000,1716939374.043942,172.16.3.2,5101,172.16.1.2,52162,10406,14480,0,65728,65700,6,6,4,1460,426,1,993,42,33580,0,65700,1448,0,0,0,0
i,0x00000000,1716939374.094892,172.16.3.2,5101,172.16.1.2,52162,10406,14480,0,65728,65700,6,6,4,1460,426,1,992,42,33580,0,65700,0,0,0,0,0
i,0x00000000,1716939374.104207,172.16.3.2,5101,172.16.1.2,52162,10406,14480,0,65728,65700,6,6,4,1460,426,1,992,42,33580,0,65700,0,0,0,0,0
o,0x00000000,1716939374.104225,172.16.3.2,5101,172.16.1.2,52162,10406,14480,0,65728,65700,6,6,4,1460,426,1,993,42,33580,0,65700,1448,0,0,0,0
i,0x00000000,1716939374.144808,172.16.3.2,5101,172.16.1.2,52162,10406,14480,0,65728,65700,6,6,4,1460,426,1,992,42,33580,0,65700,0,0,0,0,0
i,0x00000000,1716939374.154254,172.16.3.2,5101,172.16.1.2,52162,10406,14480,0,65728,65700,6,6,4,1460,426,1,992,42,33580,0,65700,0,0,0,0,0
o,0x00000000,1716939374.154273,172.16.3.2,5101,172.16.1.2,52162,10406,14480,0,65728,65700,6,6,4,1460,426,1,993,42,33580,0,65700,1448,0,0,0,0
i,0x00000000,1716939374.194631,172.16.3.2,5101,172.16.1.2,52162,10406,14480,0,65728,65700,6,6,4,1460,426,1,992,42,33580,0,65700,0,0,0,0,0
i,0x00000000,1716939374.203843,172.16.3.2,5101,172.16.1.2,52162,10406,14480,0,65728,65700,6,6,4,1460,426,1,992,42,33580,0,65700,0,0,0,0,0
o,0x00000000,1716939374.203850,172.16.3.2,5101,172.16.1.2,52162,10406,14480,0,65728,65700,6,6,4,1460,426,1,993,42,33580,0,65700,1448,0,0,0,0
o,0x00000000,1716939374.217816,10.0.2.15,22,10.0.2.2,62180,1073725440,14600,0,65535,65700,0,0,4,1460,1,0,4,24,33580,156,65700,0,0,0,0,0
i,0x00000000,1716939374.218480,10.0.2.15,22,10.0.2.2,62180,1073725440,14600,0,65535,65700,0,0,4,1460,1,0,4,24,33580,156,65700,0,156,0,0,0
i,0x00000000,1716939374.233722,172.16.3.2,5101,172.16.1.2,52162,10406,14480,0,65728,65700,6,6,4,1460,426,1,992,42,33580,0,65700,0,0,0,0,0
i,0x00000000,1716939374.243817,172.16.3.2,5101,172.16.1.2,52162,10406,14480,0,65728,65700,6,6,4,1460,426,1,992,42,33580,0,65700,0,0,0,0,0
o,0x00000000,1716939374.243834,172.16.3.2,5101,172.16.1.2,52162,10406,14480,0,65728,65700,6,6,4,1460,426,1,993,42,33580,0,65700,0,0,1,0,0
i,0x00000000,1716939374.273841,172.16.3.2,5101,172.16.1.2,52162,10406,14480,0,65728,65700,6,6,4,1460,426,1,992,42,33580,0,65700,0,0,1,0,0
o,0x00000000,1716939374.273851,172.16.3.2,5101,172.16.1.2,52162,10406,14480,0,65728,65728,6,6,4,1460,426,1,993,42,33580,0,65700,0,0,1,0,0
i,0x00000000,1716939374.293483,172.16.3.2,5101,172.16.1.2,52162,10406,14480,0,65728,65728,6,6,4,1460,426,1,992,42,33580,0,65700,0,0,1,0,0
o,0x00000000,1716939374.293491,172.16.3.2,5101,172.16.1.2,52162,10406,14480,0,65728,65728,6,6,4,1460,426,1,993,42,33580,0,65700,0,0,2,0,0
i,0x00000000,1716939374.324584,172.16.3.2,5101,172.16.1.2,52162,10406,14480,0,65728,65728,6,6,4,1460,426,1,992,42,33580,0,65700,0,0,2,0,0
o,0x00000000,1716939374.324593,172.16.3.2,5101,172.16.1.2,52162,10406,14480,0,65728,65728,6,6,4,1460,426,1,993,42,33580,0,65700,0,0,2,0,0
i,0x00000000,1716939374.343355,172.16.3.2,5101,172.16.1.2,52162,10406,14480,0,65728,65728,6,6,4,1460,426,1,992,42,33580,0,65700,0,0,2,0,0
o,0x00000000,1716939374.343360,172.16.3.2,5101,172.16.1.2,52162,10406,14480,0,65728,65728,6,6,4,1460,426,1,993,42,33580,0,65700,0,0,2,0,0
i,0x00000000,1716939374.364056,172.16.3.2,5101,172.16.1.2,52162,10406,14480,0,65728,65728,6,6,4,1460,426,1,992,42,33580,0,65700,0,0,2,0,0
o,0x00000000,1716939374.364061,172.16.3.2,5101,172.16.1.2,52162,10406,14480,0,65728,65728,6,6,4,1460,426,1,993,42,33580,0,65700,0,0,2,0,0
i,0x00000000,1716939374.373451,172.16.3.2,5101,172.16.1.2,52162,10406,14480,0,65728,65728,6,6,4,1460,426,1,992,42,33580,0,65700,0,0,2,0,0
o,0x00000000,1716939374.373456,172.16.3.2,5101,172.16.1.2,52162,10406,14480,0,65728,65728,6,6,4,1460,426,1,993,42,33580,0,65700,0,0,2,0,0
i,0x00000000,1716939374.423400,172.16.3.2,5101,172.16.1.2,52162,10406,14480,0,65728,65728,6,6,4,1460,426,1,992,42,33580,0,65700,0,0,2,0,0
o,0x00000000,1716939374.423414,172.16.3.2,5101,172.16.1.2,52162,10406,14480,0,65728,65728,6,6,4,1460,426,1,993,42,33580,0,65700,0,0,2,0,0
i,0x00000000,1716939374.453470,172.16.3.2,5101,172.16.1.2,52162,10406,14480,0,65728,65728,6,6,4,1460,426,1,992,42,33580,0,65700,0,0,2,0,0
o,0x00000000,1716939374.453482,172.16.3.2,5101,172.16.1.2,52162,10406,14480,0,65728,65728,6,6,4,1460,426,1,993,42,33580,0,65700,1448,0,2,0,0
i,0x00000000,1716939374.474199,172.16.3.2,5101,172.16.1.2,52162,10406,14480,0,65728,65728,6,6,4,1460,426,1,992,42,33580,0,65700,0,0,2,0,0
o,0x00000000,1716939374.474206,172.16.3.2,5101,172.16.1.2,52162,10406,14480,0,65728,65700,6,6,4,1460,426,1,993,42,33580,0,65700,0,0,2,0,0
i,0x00000000,1716939374.503230,172.16.3.2,5101,172.16.1.2,52162,10406,14480,0,65728,65700,6,6,4,1460,426,1,992,42,33580,0,65700,0,0,2,0,0
o,0x00000000,1716939374.503239,172.16.3.2,5101,172.16.1.2,52162,10406,14480,0,65728,65728,6,6,4,1460,426,1,993,42,33580,0,65700,4344,0,1,0,0
i,0x00000000,1716939374.513737,172.16.3.2,5101,172.16.1.2,52162,10406,14480,0,65728,65728,6,6,4,1460,426,1,992,42,33580,0,65700,0,0,1,0,0
o,0x00000000,1716939374.513742,172.16.3.2,5101,172.16.1.2,52162,10406,14480,0,65728,65700,6,6,4,1460,426,1,993,42,33580,0,65700,0,0,1,0,0
i,0x00000000,1716939374.523942,172.16.3.2,5101,172.16.1.2,52162,10406,14480,0,65728,65700,6,6,4,1460,426,1,992,42,33580,0,65700,0,0,1,0,0
o,0x00000000,1716939374.523951,172.16.3.2,5101,172.16.1.2,52162,10406,14480,0,65728,65728,6,6,4,1460,426,1,993,42,33580,0,65700,0,0,1,0,0
i,0x00000000,1716939374.544768,172.16.3.2,5101,172.16.1.2,52162,10406,14480,0,65728,65728,6,6,4,1460,426,1,992,42,33580,0,65700,0,0,1,0,0
o,0x00000000,1716939374.544777,172.16.3.2,5101,172.16.1.2,52162,10406,14480,0,65728,65728,6,6,4,1460,426,1,993,42,33580,0,65700,0,0,1,0,0
i,0x00000000,1716939374.563096,172.16.3.2,5101,172.16.1.2,52162,10406,14480,0,65728,65728,6,6,4,1460,426,1,992,42,33580,0,65700,0,0,1,0,0
o,0x00000000,1716939374.563102,172.16.3.2,5101,172.16.1.2,52162,10406,14480,0,65728,65728,6,6,4,1460,426,1,993,42,33580,0,65700,0,0,1,0,0
i,0x00000000,1716939374.593190,172.16.3.2,5101,172.16.1.2,52162,10406,14480,0,65728,65728,6,6,4,1460,426,1,992,42,33580,0,65700,0,0,1,0,0
o,0x00000000,1716939374.593202,172.16.3.2,5101,172.16.1.2,52162,10406,14480,0,65728,65728,6,6,4,1460,426,1,993,42,33580,0,65700,10136,0,0,0,0
i,0x00000000,1716939374.603936,172.16.3.2,5101,172.16.1.2,52162,10406,14480,0,65728,65728,6,6,4,1460,426,1,992,42,33580,0,65700,0,0,0,0,0
i,0x00000000,1716939374.632965,172.16.3.2,5101,172.16.1.2,52162,10406,14480,0,65728,65700,6,6,4,1460,426,1,992,42,33580,0,65700,0,0,0,0,0
o,0x00000000,1716939374.632970,172.16.3.2,5101,172.16.1.2,52162,10406,14480,0,65728,65700,6,6,4,1460,426,1,993,42,33580,0,65700,0,0,1,0,0
i,0x00000000,1716939374.713132,172.16.3.2,5101,172.16.1.2,52162,10406,14480,0,65728,65700,6,6,4,1460,426,1,992,42,33580,0,65700,0,0,1,0,0
i,0x00000000,1716939374.813638,172.16.3.2,5101,172.16.1.2,52162,10406,14480,0,65728,65728,6,6,4,1460,426,1,992,42,33580,0,65700,0,0,1,0,0
o,0x00000000,1716939374.813660,172.16.3.2,5101,172.16.1.2,52162,10406,14480,0,65728,65728,6,6,4,1460,426,1,993,42,33580,0,65700,1448,0,1,0,0
i,0x00000000,1716939374.832435,172.16.3.2,5101,172.16.1.2,52162,10406,14480,0,65728,65728,6,6,4,1460,426,1,992,42,33580,0,65700,0,0,1,0,0
o,0x00000000,1716939374.832442,172.16.3.2,5101,172.16.1.2,52162,10406,14480,0,65728,65700,6,6,4,1460,426,1,993,42,33580,0,65700,1448,0,1,0,0
i,0x00000000,1716939374.842496,172.16.3.2,5101,172.16.1.2,52162,10406,14480,0,65728,65700,6,6,4,1460,426,1,992,42,33580,0,65700,0,0,1,0,0
o,0x00000000,1716939374.842502,172.16.3.2,5101,172.16.1.2,52162,10406,14480,0,65728,65700,6,6,4,1460,426,1,993,42,33580,0,65700,1448,0,1,0,0
i,0x00000000,1716939374.852829,172.16.3.2,5101,172.16.1.2,52162,10406,14480,0,65728,65700,6,6,4,1460,426,1,992,42,33580,0,65700,0,0,1,0,0
o,0x00000000,1716939374.852835,172.16.3.2,5101,172.16.1.2,52162,10406,14480,0,65728,65700,6,6,4,1460,426,1,993,42,33580,0,65700,1448,0,1,0,0
i,0x00000000,1716939374.863226,172.16.3.2,5101,172.16.1.2,52162,10406,14480,0,65728,65700,6,6,4,1460,426,1,992,42,33580,0,65700,0,0,1,0,0
o,0x00000000,1716939374.863232,172.16.3.2,5101,172.16.1.2,52162,10406,14480,0,65728,65700,6,6,4,1460,426,1,993,42,33580,0,65700,1448,0,1,0,0
i,0x00000000,1716939374.873766,172.16.3.2,5101,172.16.1.2,52162,10406,14480,0,65728,65700,6,6,4,1460,426,1,992,42,33580,0,65700,0,0,1,0,0
o,0x00000000,1716939374.873771,172.16.3.2,5101,172.16.1.2,52162,10406,14480,0,65728,65700,6,6,4,1460,426,1,993,42,33580,0,65700,1448,0,1,0,0
i,0x00000000,1716939374.893419,172.16.3.2,5101,172.16.1.2,52162,10406,14480,0,65728,65700,6,6,4,1460,426,1,992,42,33580,0,65700,0,0,1,0,0
o,0x00000000,1716939374.893427,172.16.3.2,5101,172.16.1.2,52162,10406,14480,0,65728,65700,6,6,4,1460,426,1,993,42,33580,0,65700,1448,0,1,0,0
i,0x00000000,1716939374.903748,172.16.3.2,5101,172.16.1.2,52162,10406,14480,0,65728,65700,6,6,4,1460,426,1,992,42,33580,0,65700,0,0,1,0,0
o,0x00000000,1716939374.903754,172.16.3.2,5101,172.16.1.2,52162,10406,14480,0,65728,65700,6,6,4,1460,426,1,993,42,33580,0,65700,2896,0,0,0,0
i,0x00000000,1716939375.052939,172.16.3.2,5101,172.16.1.2,52162,10406,14480,0,65728,65700,6,6,4,1460,426,1,992,42,33580,0,65700,0,0,0,0,0
i,0x00000000,1716939375.072768,172.16.3.2,5101,172.16.1.2,52162,10406,14480,0,65728,65700,6,6,4,1460,426,1,992,42,33580,0,65700,0,0,0,0,0
o,0x00000000,1716939375.072778,172.16.3.2,5101,172.16.1.2,52162,10406,14480,0,65728,65700,6,6,4,1460,426,1,993,42,33580,0,65700,1448,0,0,0,0
i,0x00000000,1716939375.083311,172.16.3.2,5101,172.16.1.2,52162,10406,14480,0,65728,65700,6,6,4,1460,426,1,992,42,33580,0,65700,0,0,0,0,0
i,0x00000000,1716939375.093011,172.16.3.2,5101,172.16.1.2,52162,10406,14480,0,65728,65700,6,6,4,1460,426,1,992,42,33580,0,65700,0,0,0,0,0
o,0x00000000,1716939375.093020,172.16.3.2,5101,172.16.1.2,52162,10406,14480,0,65728,65700,6,6,4,1460,426,1,993,42,33580,0,65700,1448,0,0,0,0
i,0x00000000,1716939375.102487,172.16.3.2,5101,172.16.1.2,52162,10406,14480,0,65728,65700,6,6,4,1460,426,1,992,42,33580,0,65700,0,0,0,0,0
i,0x00000000,1716939375.113243,172.16.3.2,5101,172.16.1.2,52162,10406,14480,0,65728,65700,6,6,4,1460,426,1,992,42,33580,0,65700,0,0,0,0,0
o,0x00000000,1716939375.113249,172.16.3.2,5101,172.16.1.2,52162,10406,14480,0,65728,65700,6,6,4,1460,426,1,993,42,33580,0,65700,1448,0,0,0,0
i,0x00000000,1716939375.133191,172.16.3.2,5101,172.16.1.2,52162,10406,14480,0,65728,65700,6,6,4,1460,426,1,992,42,33580,0,65700,0,0,0,0,0
i,0x00000000,1716939375.142575,172.16.3.2,5101,172.16.1.2,52162,10406,14480,0,65728,65700,6,6,4,1460,426,1,992,42,33580,0,65700,0,0,0,0,0
o,0x00000000,1716939375.142581,172.16.3.2,5101,172.16.1.2,52162,10406,14480,0,65728,65700,6,6,4,1460,426,1,993,42,33580,0,65700,1448,0,0,0,0
o,0x00000000,1716939375.217773,10.0.2.15,22,10.0.2.2,62180,1073725440,14600,0,65535,65700,0,0,4,1460,1,0,4,24,33580,108,65700,0,0,0,0,0
i,0x00000000,1716939375.218480,10.0.2.15,22,10.0.2.2,62180,1073725440,14600,0,65535,65700,0,0,4,1460,1,0,4,24,33580,108,65700,0,108,0,0,0
i,0x00000000,1716939375.222639,172.16.3.2,5101,172.16.1.2,52162,10406,14480,0,65728,65700,6,6,4,1460,426,1,992,42,33580,0,65700,0,0,0,0,0
i,0x00000000,1716939375.232946,172.16.3.2,5101,172.16.1.2,52162,10406,14480,0,65728,65700,6,6,4,1460,426,1,992,42,33580,0,65700,0,0,0,0,0
o,0x00000000,1716939375.232954,172.16.3.2,5101,172.16.1.2,52162,10406,14480,0,65728,65700,6,6,4,1460,426,1,993,42,33580,0,65700,1448,0,0,0,0
i,0x00000000,1716939375.262055,172.16.3.2,5101,172.16.1.2,52162,10406,14480,0,65728,65700,6,6,4,1460,426,1,992,42,33580,0,65700,0,0,0,0,0
i,0x00000000,1716939375.282999,172.16.3.2,5101,172.16.1.2,52162,10406,14480,0,65728,65700,6,6,4,1460,426,1,992,42,33580,0,65700,0,0,0,0,0
o,0x00000000,1716939375.283023,172.16.3.2,5101,172.16.1.2,52162,10406,14480,0,65728,65700,6,6,4,1460,426,1,993,42,33580,0,65700,1448,0,0,0,0
i,0x00000000,1716939375.332474,172.16.3.2,5101,172.16.1.2,52162,10406,14480,0,65728,65700,6,6,4,1460,426,1,992,42,33580,0,65700,0,0,0,0,0
i,0x00000000,1716939375.342834,172.16.3.2,5101,172.16.1.2,52162,10406,14480,0,65728,65700,6,6,4,1460,426,1,992,42,33580,0,65700,0,0,0,0,0
o,0x00000000,1716939375.342848,172.16.3.2,5101,172.16.1.2,52162,10406,14480,0,65728,65700,6,6,4,1460,426,1,993,42,33580,0,65700,1448,0,0,0,0
i,0x00000000,1716939375.353169,172.16.3.2,5101,172.16.1.2,52162,10406,14480,0,65728,65700,6,6,4,1460,426,1,992,42,33580,0,65700,0,0,0,0,0
i,0x00000000,1716939375.362403,172.16.3.2,5101,172.16.1.2,52162,10406,14480,0,65728,65700,6,6,4,1460,426,1,992,42,33580,0,65700,0,0,0,0,0
o,0x00000000,1716939375.362421,172.16.3.2,5101,172.16.1.2,52162,10406,14480,0,65728,65700,6,6,4,1460,426,1,993,42,33580,0,65700,1448,0,0,0,0
i,0x00000000,1716939375.402954,172.16.3.2,5101,172.16.1.2,52162,10406,14480,0,65728,65700,6,6,4,1460,426,1,992,42,33580,0,65700,0,0,0,0,0
o,0x00000000,1716939375.437110,172.16.3.2,5101,172.16.1.2,52162,10406,14480,0,65728,65700,6,6,4,1460,426,1,993,42,33580,0,65700,0,0,0,0,0
i,0x00000000,1716939375.442337,172.16.3.2,5101,172.16.1.2,52162,10406,14480,0,65728,65700,6,6,4,1460,426,1,992,42,33580,0,65700,0,0,0,0,0
i,0x00000000,1716939375.452826,172.16.3.2,5101,172.16.1.2,52162,10406,14480,0,65728,65700,6,6,4,1460,426,1,992,42,33580,0,65700,0,0,0,0,0
o,0x00000000,1716939375.452833,172.16.3.2,5101,172.16.1.2,52162,10406,14480,0,65728,65700,6,6,4,1460,426,1,993,42,33580,0,65700,1448,0,0,0,0
i,0x00000000,1716939375.482793,172.16.3.2,5101,172.16.1.2,52162,10406,14480,0,65728,65700,6,6,4,1460,426,1,992,42,33580,0,65700,0,0,0,0,0
i,0x00000000,1716939375.502502,172.16.3.2,5101,172.16.1.2,52162,10406,14480,0,65728,65700,6,6,4,1460,426,1,992,42,33580,0,65700,0,0,0,0,0
o,0x00000000,1716939375.502513,172.16.3.2,5101,172.16.1.2,52162,10406,14480,0,65728,65700,6,6,4,1460,426,1,993,42,33580,0,65700,1448,0,0,0,0
i,0x00000000,1716939375.552447,172.16.3.2,5101,172.16.1.2,52162,10406,14480,0,65728,65700,6,6,4,1460,426,1,992,42,33580,0,65700,0,0,0,0,0
i,0x00000000,1716939375.561586,172.16.3.2,5101,172.16.1.2,52162,10406,14480,0,65728,65700,6,6,4,1460,426,1,992,42,33580,0,65700,0,0,0,0,0
o,0x00000000,1716939375.561598,172.16.3.2,5101,172.16.1.2,52162,10406,14480,0,65728,65700,6,6,4,1460,426,1,993,42,33580,0,65700,1448,0,0,0,0
i,0x00000000,1716939375.582182,172.16.3.2,5101,172.16.1.2,52162,10406,14480,0,65728,65700,6,6,4,1460,426,1,992,42,33580,0,65700,0,0,0,0,0
o,0x00000000,1716939375.617326,172.16.3.2,5101,172.16.1.2,52162,10406,14480,0,65728,65700,6,6,4,1460,426,1,993,42,33580,0,65700,0,0,0,0,0
i,0x00000000,1716939375.621572,172.16.3.2,5101,172.16.1.2,52162,10406,14480,0,65728,65700,6,6,4,1460,426,1,992,42,33580,0,65700,0,0,0,0,0
i,0x00000000,1716939375.632010,172.16.3.2,5101,172.16.1.2,52162,10406,14480,0,65728,65700,6,6,4,1460,426,1,992,42,33580,0,65700,0,0,0,0,0
o,0x00000000,1716939375.632016,172.16.3.2,5101,172.16.1.2,52162,10406,14480,0,65728,65700,6,6,4,1460,426,1,993,42,33580,0,65700,1448,0,0,0,0
i,0x00000000,1716939375.671525,172.16.3.2,5101,172.16.1.2,52162,10406,14480,0,65728,65700,6,6,4,1460,426,1,992,42,33580,0,65700,0,0,0,0,0
i,0x00000000,1716939375.682963,172.16.3.2,5101,172.16.1.2,52162,10406,14480,0,65728,65700,6,6,4,1460,426,1,992,42,33580,0,65700,0,0,0,0,0
o,0x00000000,1716939375.682969,172.16.3.2,5101,172.16.1.2,52162,10406,14480,0,65728,65700,6,6,4,1460,426,1,993,42,33580,0,65700,1448,0,0,0,0
i,0x00000000,1716939375.691948,172.16.3.2,5101,172.16.1.2,52162,10406,14480,0,65728,65700,6,6,4,1460,426,1,992,42,33580,0,65700,0,0,0,0,0
o,0x00000000,1716939375.727434,172.16.3.2,5101,172.16.1.2,52162,10406,14480,0,65728,65700,6,6,4,1460,426,1,993,42,33580,0,65700,0,0,0,0,0
i,0x00000000,1716939375.732615,172.16.3.2,5101,172.16.1.2,52162,10406,14480,0,65728,65700,6,6,4,1460,426,1,992,42,33580,0,65700,0,0,0,0,0
i,0x00000000,1716939375.741958,172.16.3.2,5101,172.16.1.2,52162,10406,14480,0,65728,65700,6,6,4,1460,426,1,992,42,33580,0,65700,0,0,0,0,0
o,0x00000000,1716939375.741963,172.16.3.2,5101,172.16.1.2,52162,10406,14480,0,65728,65700,6,6,4,1460,426,1,993,42,33580,0,65700,1448,0,0,0,0
i,0x00000000,1716939375.802026,172.16.3.2,5101,172.16.1.2,52162,10406,14480,0,65728,65700,6,6,4,1460,426,1,992,42,33580,0,65700,0,0,0,0,0
i,0x00000000,1716939375.822662,172.16.3.2,5101,172.16.1.2,52162,10406,14480,0,65728,65700,6,6,4,1460,426,1,992,42,33580,0,65700,0,0,0,0,0
o,0x00000000,1716939375.822673,172.16.3.2,5101,172.16.1.2,52162,10406,14480,0,65728,65700,6,6,4,1460,426,1,993,42,33580,0,65700,1448,0,0,0,0
i,0x00000000,1716939375.831957,172.16.3.2,5101,172.16.1.2,52162,10406,14480,0,65728,65700,6,6,4,1460,426,1,992,42,33580,0,65700,0,0,0,0,0
i,0x00000000,1716939375.861966,172.16.3.2,5101,172.16.1.2,52162,10406,14480,0,65728,65700,6,6,4,1460,426,1,992,42,33580,0,65700,0,0,0,0,0
o,0x00000000,1716939375.861972,172.16.3.2,5101,172.16.1.2,52162,10406,14480,0,65728,65700,6,6,4,1460,426,1,993,42,33580,0,65700,1448,0,0,0,0
i,0x00000000,1716939375.882715,172.16.3.2,5101,172.16.1.2,52162,10406,14480,0,65728,65700,6,6,4,1460,426,1,992,42,33580,0,65700,0,0,0,0,0
i,0x00000000,1716939375.901961,172.16.3.2,5101,172.16.1.2,52162,10406,14480,0,65728,65700,6,6,4,1460,426,1,992,42,33580,0,65700,0,0,0,0,0
o,0x00000000,1716939375.901972,172.16.3.2,5101,172.16.1.2,52162,10406,14480,0,65728,65700,6,6,4,1460,426,1,993,42,33580,0,65700,1448,0,0,0,0
i,0x00000000,1716939375.941260,172.16.3.2,5101,172.16.1.2,52162,10406,14480,0,65728,65700,6,6,4,1460,426,1,992,42,33580,0,65700,0,0,0,0,0
i,0x00000000,1716939375.951651,172.16.3.2,5101,172.16.1.2,52162,10406,14480,0,65728,65700,6,6,4,1460,426,1,992,42,33580,0,65700,0,0,0,0,0
o,0x00000000,1716939375.951670,172.16.3.2,5101,172.16.1.2,52162,10406,14480,0,65728,65700,6,6,4,1460,426,1,993,42,33580,0,65700,1448,0,0,0,0
i,0x00000000,1716939375.991504,172.16.3.2,5101,172.16.1.2,52162,10406,14480,0,65728,65700,6,6,4,1460,426,1,992,42,33580,0,65700,0,0,0,0,0
i,0x00000000,1716939376.001329,172.16.3.2,5101,172.16.1.2,52162,10406,14480,0,65728,65700,6,6,4,1460,426,1,992,42,33580,0,65700,0,0,0,0,0
o,0x00000000,1716939376.001341,172.16.3.2,5101,172.16.1.2,52162,10406,14480,0,65728,65700,6,6,4,1460,426,1,993,42,33580,0,65700,1448,0,0,0,0
i,0x00000000,1716939376.011693,172.16.3.2,5101,172.16.1.2,52162,10406,14480,0,65728,65700,6,6,4,1460,426,1,992,42,33580,0,65700,0,0,0,0,0
o,0x00000000,1716939376.047770,172.16.3.2,5101,172.16.1.2,52162,10406,14480,0,65728,65700,6,6,4,1460,426,1,993,42,33580,0,65700,0,0,0,0,0
i,0x00000000,1716939376.051144,172.16.3.2,5101,172.16.1.2,52162,10406,14480,0,65728,65700,6,6,4,1460,426,1,992,42,33580,0,65700,0,0,0,0,0
o,0x00000000,1716939376.086678,172.16.3.2,5101,172.16.1.2,52162,10406,14480,0,65728,65700,6,6,4,1460,426,1,993,42,33580,0,65700,0,0,0,0,0
i,0x00000000,1716939376.100851,172.16.3.2,5101,172.16.1.2,52162,10406,14480,0,65728,65700,6,6,4,1460,426,1,992,42,33580,0,65700,0,0,0,0,0
i,0x00000000,1716939376.112043,172.16.3.2,5101,172.16.1.2,52162,10406,14480,0,65728,65700,6,6,4,1460,426,1,992,42,33580,0,65700,0,0,0,0,0
o,0x00000000,1716939376.112051,172.16.3.2,5101,172.16.1.2,52162,10406,14480,0,65728,65700,6,6,4,1460,426,1,993,42,33580,0,65700,1448,0,0,0,0
i,0x00000000,1716939376.142298,172.16.3.2,5101,172.16.1.2,52162,10406,14480,0,65728,65700,6,6,4,1460,426,1,992,42,33580,0,65700,0,0,0,0,0
i,0x00000000,1716939376.162406,172.16.3.2,5101,172.16.1.2,52162,10406,14480,0,65728,65700,6,6,4,1460,426,1,992,42,33580,0,65700,0,0,0,0,0
o,0x00000000,1716939376.162430,172.16.3.2,5101,172.16.1.2,52162,10406,14480,0,65728,65700,6,6,4,1460,426,1,993,42,33580,0,65700,1448,0,0,0,0
i,0x00000000,1716939376.172075,172.16.3.2,5101,172.16.1.2,52162,10406,14480,0,65728,65700,6,6,4,1460,426,1,992,42,33580,0,65700,0,0,0,0,0
o,0x00000000,1716939376.207690,172.16.3.2,5101,172.16.1.2,52162,10406,14480,0,65728,65700,6,6,4,1460,426,1,993,42,33580,0,65700,0,0,0,0,0
i,0x00000000,1716939376.211945,172.16.3.2,5101,172.16.1.2,52162,10406,14480,0,65728,65700,6,6,4,1460,426,1,992,42,33580,0,65700,0,0,0,0,0
o,0x00000000,1716939376.217075,10.0.2.15,22,10.0.2.2,62180,1073725440,14600,0,65535,65700,0,0,4,1460,1,0,4,24,33580,108,65700,0,0,0,0,0
i,0x00000000,1716939376.217808,10.0.2.15,22,10.0.2.2,62180,1073725440,14600,0,65535,65700,0,0,4,1460,1,0,4,24,33580,108,65700,0,108,0,0,0
i,0x00000000,1716939376.230647,172.16.3.2,5101,172.16.1.2,52162,10406,14480,0,65728,65700,6,6,4,1460,426,1,992,42,33580,0,65700,0,0,0,0,0
o,0x00000000,1716939376.230664,172.16.3.2,5101,172.16.1.2,52162,10406,14480,0,65728,65700,6,6,4,1460,426,1,993,42,33580,0,65700,1448,0,0,0,0
i,0x00000000,1716939376.241796,172.16.3.2,5101,172.16.1.2,52162,10406,14480,0,65728,65700,6,6,4,1460,426,1,992,42,33580,0,65700,0,0,0,0,0
i,0x00000000,1716939376.270935,172.16.3.2,5101,172.16.1.2,52162,10406,14480,0,65728,65700,6,6,4,1460,426,1,992,42,33580,0,65700,0,0,0,0,0
o,0x00000000,1716939376.270941,172.16.3.2,5101,172.16.1.2,52162,10406,14480,0,65728,65700,6,6,4,1460,426,1,993,42,33580,0,65700,1448,0,0,0,0
i,0x00000000,1716939376.301019,172.16.3.2,5101,172.16.1.2,52162,10406,14480,0,65728,65700,6,6,4,1460,426,1,992,42,33580,0,65700,0,0,0,0,0
i,0x00000000,1716939376.321585,172.16.3.2,5101,172.16.1.2,52162,10406,14480,0,65728,65700,6,6,4,1460,426,1,992,42,33580,0,65700,0,0,0,0,0
o,0x00000000,1716939376.321597,172.16.3.2,5101,172.16.1.2,52162,10406,14480,0,65728,65700,6,6,4,1460,426,1,993,42,33580,0,65700,1448,0,0,0,0
i,0x00000000,1716939376.351510,172.16.3.2,5101,172.16.1.2,52162,10406,14480,0,65728,65700,6,6,4,1460,426,1,992,42,33580,0,65700,0,0,0,0,0
i,0x00000000,1716939376.380544,172.16.3.2,5101,172.16.1.2,52162,10406,14480,0,65728,65700,6,6,4,1460,426,1,992,42,33580,0,65700,0,0,0,0,0
o,0x00000000,1716939376.380551,172.16.3.2,5101,172.16.1.2,52162,10406,14480,0,65728,65700,6,6,4,1460,426,1,993,42,33580,0,65700,1448,0,0,0,0
i,0x00000000,1716939376.391736,172.16.3.2,5101,172.16.1.2,52162,10406,14480,0,65728,65700,6,6,4,1460,426,1,992,42,33580,0,65700,0,0,0,0,0
o,0x00000000,1716939376.427248,172.16.3.2,5101,172.16.1.2,52162,10406,14480,0,65728,65700,6,6,4,1460,426,1,993,42,33580,0,65700,0,0,0,0,0
i,0x00000000,1716939376.440577,172.16.3.2,5101,172.16.1.2,52162,10406,14480,0,65728,65700,6,6,4,1460,426,1,992,42,33580,0,65700,0,0,0,0,0
i,0x00000000,1716939376.451144,172.16.3.2,5101,172.16.1.2,52162,10406,14480,0,65728,65700,6,6,4,1460,426,1,992,42,33580,0,65700,0,0,0,0,0
o,0x00000000,1716939376.451152,172.16.3.2,5101,172.16.1.2,52162,10406,14480,0,65728,65700,6,6,4,1460,426,1,993,42,33580,0,65700,1448,0,0,0,0
i,0x00000000,1716939376.491040,172.16.3.2,5101,172.16.1.2,52162,10406,14480,0,65728,65700,6,6,4,1460,426,1,992,42,33580,0,65700,0,0,0,0,0
i,0x00000000,1716939376.520978,172.16.3.2,5101,172.16.1.2,52162,10406,14480,0,65728,65700,6,6,4,1460,426,1,992,42,33580,0,65700,0,0,0,0,0
o,0x00000000,1716939376.520992,172.16.3.2,5101,172.16.1.2,52162,10406,14480,0,65728,65700,6,6,4,1460,426,1,993,42,33580,0,65700,1448,0,0,0,0
i,0x00000000,1716939376.541689,172.16.3.2,5101,172.16.1.2,52162,10406,14480,0,65728,65700,6,6,4,1460,426,1,992,42,33580,0,65700,0,0,0,0,0
i,0x00000000,1716939376.550776,172.16.3.2,5101,172.16.1.2,52162,10406,14480,0,65728,65700,6,6,4,1460,426,1,992,42,33580,0,65700,0,0,0,0,0
o,0x00000000,1716939376.550788,172.16.3.2,5101,172.16.1.2,52162,10406,14480,0,65728,65700,6,6,4,1460,426,1,993,42,33580,0,65700,1448,0,0,0,0
i,0x00000000,1716939376.590068,172.16.3.2,5101,172.16.1.2,52162,10406,14480,0,65728,65700,6,6,4,1460,426,1,992,42,33580,0,65700,0,0,0,0,0
i,0x00000000,1716939376.600869,172.16.3.2,5101,172.16.1.2,52162,10406,14480,0,65728,65700,6,6,4,1460,426,1,992,42,33580,0,65700,0,0,0,0,0
o,0x00000000,1716939376.600881,172.16.3.2,5101,172.16.1.2,52162,10406,14480,0,65728,65700,6,6,4,1460,426,1,993,42,33580,0,65700,1448,0,0,0,0
i,0x00000000,1716939376.621532,172.16.3.2,5101,172.16.1.2,52162,10406,14480,0,65728,65700,6,6,4,1460,426,1,992,42,33580,0,65700,0,0,0,0,0
i,0x00000000,1716939376.630656,172.16.3.2,5101,172.16.1.2,52162,10406,14480,0,65728,65700,6,6,4,1460,426,1,992,42,33580,0,65700,0,0,0,0,0
o,0x00000000,1716939376.630665,172.16.3.2,5101,172.16.1.2,52162,10406,14480,0,65728,65700,6,6,4,1460,426,1,993,42,33580,0,65700,1448,0,0,0,0
i,0x00000000,1716939376.670995,172.16.3.2,5101,172.16.1.2,52162,10406,14480,0,65728,65700,6,6,4,1460,426,1,992,42,33580,0,65700,0,0,0,0,0
i,0x00000000,1716939376.681402,172.16.3.2,5101,172.16.1.2,52162,10406,14480,0,65728,65700,6,6,4,1460,426,1,992,42,33580,0,65700,0,0,0,0,0
o,0x00000000,1716939376.681410,172.16.3.2,5101,172.16.1.2,52162,10406,14480,0,65728,65700,6,6,4,1460,426,1,993,42,33580,0,65700,1448,0,0,0,0
i,0x00000000,1716939376.710418,172.16.3.2,5101,172.16.1.2,52162,10406,14480,0,65728,65700,6,6,4,1460,426,1,992,42,33580,0,65700,0,0,0,0,0
o,0x00000000,1716939376.746848,172.16.3.2,5101,172.16.1.2,52162,10406,14480,0,65728,65700,6,6,4,1460,426,1,993,42,33580,0,65700,0,0,0,0,0
i,0x00000000,1716939376.761341,172.16.3.2,5101,172.16.1.2,52162,10406,14480,0,65728,65700,6,6,4,1460,426,1,992,42,33580,0,65700,0,0,0,0,0
i,0x00000000,1716939376.771352,172.16.3.2,5101,172.16.1.2,52162,10406,14480,0,65728,65700,6,6,4,1460,426,1,992,42,33580,0,65700,0,0,0,0,0
o,0x00000000,1716939376.771358,172.16.3.2,5101,172.16.1.2,52162,10406,14480,0,65728,65700,6,6,4,1460,426,1,993,42,33580,0,65700,1448,0,0,0,0
i,0x00000000,1716939376.811186,172.16.3.2,5101,172.16.1.2,52162,10406,14480,0,65728,65700,6,6,4,1460,426,1,992,42,33580,0,65700,0,0,0,0,0
i,0x00000000,1716939376.830746,172.16.3.2,5101,172.16.1.2,52162,10406,14480,0,65728,65700,6,6,4,1460,426,1,992,42,33580,0,65700,0,0,0,0,0
o,0x00000000,1716939376.830757,172.16.3.2,5101,172.16.1.2,52162,10406,14480,0,65728,65700,6,6,4,1460,426,1,993,42,33580,0,65700,0,0,1,0,0
i,0x00000000,1716939376.841257,172.16.3.2,5101,172.16.1.2,52162,10406,14480,0,65728,65700,6,6,4,1460,426,1,992,42,33580,0,65700,0,0,1,0,0
o,0x00000000,1716939376.841262,172.16.3.2,5101,172.16.1.2,52162,10406,14480,0,65728,65728,6,6,4,1460,426,1,993,42,33580,0,65700,0,0,1,0,0
i,0x00000000,1716939376.851412,172.16.3.2,5101,172.16.1.2,52162,10406,14480,0,65728,65728,6,6,4,1460,426,1,992,42,33580,0,65700,0,0,1,0,0
o,0x00000000,1716939376.851417,172.16.3.2,5101,172.16.1.2,52162,10406,14480,0,65728,65728,6,6,4,1460,426,1,993,42,33580,0,65700,0,0,1,0,0
i,0x00000000,1716939376.890858,172.16.3.2,5101,172.16.1.2,52162,10406,14480,0,65728,65728,6,6,4,1460,426,1,992,42,33580,0,65700,0,0,1,0,0
o,0x00000000,1716939376.890871,172.16.3.2,5101,172.16.1.2,52162,10406,14480,0,65728,65728,6,6,4,1460,426,1,993,42,33580,0,65700,0,0,1,0,0
i,0x00000000,1716939376.900091,172.16.3.2,5101,172.16.1.2,52162,10406,14480,0,65728,65728,6,6,4,1460,426,1,992,42,33580,0,65700,0,0,1,0,0
o,0x00000000,1716939376.900096,172.16.3.2,5101,172.16.1.2,52162,10406,14480,0,65728,65728,6,6,4,1460,426,1,993,42,33580,0,65700,0,0,1,0,0
i,0x00000000,1716939376.919782,172.16.3.2,5101,172.16.1.2,52162,10406,14480,0,65728,65728,6,6,4,1460,426,1,992,42,33580,0,65700,0,0,1,0,0
o,0x00000000,1716939376.919788,172.16.3.2,5101,172.16.1.2,52162,10406,14480,0,65728,65728,6,6,4,1460,426,1,993,42,33580,0,65700,0,0,2,0,0
i,0x00000000,1716939376.970365,172.16.3.2,5101,172.16.1.2,52162,10406,14480,0,65728,65728,6,6,4,1460,426,1,992,42,33580,0,65700,0,0,2,0,0
o,0x00000000,1716939376.970371,172.16.3.2,5101,172.16.1.2,52162,10406,14480,0,65728,65728,6,6,4,1460,426,1,993,42,33580,0,65700,0,0,2,0,0
i,0x00000000,1716939376.979743,172.16.3.2,5101,172.16.1.2,52162,10406,14480,0,65728,65728,6,6,4,1460,426,1,992,42,33580,0,65700,0,0,2,0,0
o,0x00000000,1716939376.979748,172.16.3.2,5101,172.16.1.2,52162,10406,14480,0,65728,65728,6,6,4,1460,426,1,993,42,33580,0,65700,0,0,2,0,0
i,0x00000000,1716939376.990151,172.16.3.2,5101,172.16.1.2,52162,10406,14480,0,65728,65728,6,6,4,1460,426,1,992,42,33580,0,65700,0,0,2,0,0
o,0x00000000,1716939376.990162,172.16.3.2,5101,172.16.1.2,52162,10406,14480,0,65728,65728,6,6,4,1460,426,1,993,42,33580,0,65700,8688,0,1,0,0
i,0x00000000,1716939377.020177,172.16.3.2,5101,172.16.1.2,52162,10406,14480,0,65728,65728,6,6,4,1460,426,1,992,42,33580,0,65700,0,0,1,0,0
o,0x00000000,1716939377.020182,172.16.3.2,5101,172.16.1.2,52162,10406,14480,0,65728,65700,6,6,4,1460,426,1,993,42,33580,0,65700,0,0,1,0,0
i,0x00000000,1716939377.060434,172.16.3.2,5101,172.16.1.2,52162,10406,14480,0,65728,65700,6,6,4,1460,426,1,992,42,33580,0,65700,0,0,1,0,0
o,0x00000000,1716939377.060440,172.16.3.2,5101,172.16.1.2,52162,10406,14480,0,65728,65728,6,6,4,1460,426,1,993,42,33580,0,65700,0,0,1,0,0
i,0x00000000,1716939377.070884,172.16.3.2,5101,172.16.1.2,52162,10406,14480,0,65728,65728,6,6,4,1460,426,1,992,42,33580,0,65700,0,0,1,0,0
o,0x00000000,1716939377.070891,172.16.3.2,5101,172.16.1.2,52162,10406,14480,0,65728,65728,6,6,4,1460,426,1,993,42,33580,0,65700,5792,0,0,0,0
i,0x00000000,1716939377.080986,172.16.3.2,5101,172.16.1.2,52162,10406,14480,0,65728,65728,6,6,4,1460,426,1,992,42,33580,0,65700,0,0,0,0,0
o,0x00000000,1716939377.080992,172.16.3.2,5101,172.16.1.2,52162,10406,14480,0,65728,65700,6,6,4,1460,426,1,993,42,33580,0,65700,0,0,0,0,0
i,0x00000000,1716939377.120060,172.16.3.2,5101,172.16.1.2,52162,10406,14480,0,65728,65700,6,6,4,1460,426,1,992,42,33580,0,65700,0,0,0,0,0
o,0x00000000,1716939377.120069,172.16.3.2,5101,172.16.1.2,52162,10406,14480,0,65728,65728,6,6,4,1460,426,1,993,42,33580,0,65700,0,0,1,0,0
i,0x00000000,1716939377.120226,172.16.3.2,5101,172.16.1.2,52162,10406,14480,0,65728,65728,6,6,4,1460,426,1,992,42,33580,0,65700,0,0,1,0,0
i,0x00000000,1716939377.169674,172.16.3.2,5101,172.16.1.2,52162,10406,14480,0,65728,65728,6,6,4,1460,426,1,992,42,33580,0,65700,0,0,1,0,0
o,0x00000000,1716939377.217832,10.0.2.15,22,10.0.2.2,62180,1073725440,14600,0,65535,65700,0,0,4,1460,1,0,4,24,33580,108,65700,0,0,0,0,0
i,0x00000000,1716939377.218628,10.0.2.15,22,10.0.2.2,62180,1073725440,14600,0,65535,65700,0,0,4,1460,1,0,4,24,33580,108,65700,0,108,0,0,0
i,0x00000000,1716939377.239852,172.16.3.2,5101,172.16.1.2,52162,10406,14480,0,65728,65728,6,6,4,1460,426,1,992,42,33580,0,65700,0,0,1,0,0
o,0x00000000,1716939377.239864,172.16.3.2,5101,172.16.1.2,52162,10406,14480,0,65728,65728,6,6,4,1460,426,1,993,42,33580,0,65700,0,0,1,0,0
i,0x00000000,1716939377.259483,172.16.3.2,5101,172.16.1.2,52162,10406,14480,0,65728,65728,6,6,4,1460,426,1,992,42,33580,0,65700,0,0,1,0,0
o,0x00000000,1716939377.259490,172.16.3.2,5101,172.16.1.2,52162,10406,14480,0,65728,65728,6,6,4,1460,426,1,993,42,33580,0,65700,0,0,1,0,0
i,0x00000000,1716939377.291010,172.16.3.2,5101,172.16.1.2,52162,10406,14480,0,65728,65728,6,6,4,1460,426,1,992,42,33580,0,65700,0,0,1,0,0
o,0x00000000,1716939377.291018,172.16.3.2,5101,172.16.1.2,52162,10406,14480,0,65728,65728,6,6,4,1460,426,1,993,42,33580,0,65700,0,0,1,0,0
i,0x00000000,1716939377.299979,172.16.3.2,5101,172.16.1.2,52162,10406,14480,0,65728,65728,6,6,4,1460,426,1,992,42,33580,0,65700,0,0,1,0,0
o,0x00000000,1716939377.299998,172.16.3.2,5101,172.16.1.2,52162,10406,14480,0,65728,65728,6,6,4,1460,426,1,993,42,33580,0,65700,1448,0,1,0,0
i,0x00000000,1716939377.309193,172.16.3.2,5101,172.16.1.2,52162,10406,14480,0,65728,65728,6,6,4,1460,426,1,992,42,33580,0,65700,0,0,1,0,0
o,0x00000000,1716939377.309203,172.16.3.2,5101,172.16.1.2,52162,10406,14480,0,65728,65700,6,6,4,1460,426,1,993,42,33580,0,65700,1448,0,1,0,0
i,0x00000000,1716939377.320581,172.16.3.2,5101,172.16.1.2,52162,10406,14480,0,65728,65700,6,6,4,1460,426,1,992,42,33580,0,65700,0,0,1,0,0
o,0x00000000,1716939377.320588,172.16.3.2,5101,172.16.1.2,52162,10406,14480,0,65728,65700,6,6,4,1460,426,1,993,42,33580,0,65700,1448,0,1,0,0
i,0x00000000,1716939377.329856,172.16.3.2,5101,172.16.1.2,52162,10406,14480,0,65728,65700,6,6,4,1460,426,1,992,42,33580,0,65700,0,0,1,0,0
o,0x00000000,1716939377.329862,172.16.3.2,5101,172.16.1.2,52162,10406,14480,0,65728,65700,6,6,4,1460,426,1,993,42,33580,0,65700,1448,0,1,0,0
i,0x00000000,1716939377.440130,172.16.3.2,5101,172.16.1.2,52162,10406,14480,0,65728,65700,6,6,4,1460,426,1,992,42,33580,0,65700,0,0,1,0,0
o,0x00000000,1716939377.440149,172.16.3.2,5101,172.16.1.2,52162,10406,14480,0,65728,65700,6,6,4,1460,426,1,993,42,33580,0,65700,0,0,1,0,0
i,0x00000000,1716939377.450207,172.16.3.2,5101,172.16.1.2,52162,10406,14480,0,65728,65700,6,6,4,1460,426,1,992,42,33580,0,65700,0,0,1,0,0
o,0x00000000,1716939377.450216,172.16.3.2,5101,172.16.1.2,52162,10406,14480,0,65728,65728,6,6,4,1460,426,1,993,42,33580,0,65700,0,0,1,0,0
i,0x00000000,1716939377.469892,172.16.3.2,5101,172.16.1.2,52162,10406,14480,0,65728,65728,6,6,4,1460,426,1,992,42,33580,0,65700,0,0,1,0,0
o,0x00000000,1716939377.469896,172.16.3.2,5101,172.16.1.2,52162,10406,14480,0,65728,65728,6,6,4,1460,426,1,993,42,33580,0,65700,0,0,1,0,0
i,0x00000000,1716939377.479226,172.16.3.2,5101,172.16.1.2,52162,10406,14480,0,65728,65728,6,6,4,1460,426,1,992,42,33580,0,65700,0,0,1,0,0
o,0x00000000,1716939377.479231,172.16.3.2,5101,172.16.1.2,52162,10406,14480,0,65728,65728,6,6,4,1460,426,1,993,42,33580,0,65700,0,0,1,0,0
i,0x00000000,1716939377.489561,172.16.3.2,5101,172.16.1.2,52162,10406,14480,0,65728,65728,6,6,4,1460,426,1,992,42,33580,0,65700,0,0,1,0,0
o,0x00000000,1716939377.489572,172.16.3.2,5101,172.16.1.2,52162,10406,14480,0,65728,65728,6,6,4,1460,426,1,993,42,33580,0,65700,0,0,1,0,0
i,0x00000000,1716939377.499981,172.16.3.2,5101,172.16.1.2,52162,10406,14480,0,65728,65728,6,6,4,1460,426,1,992,42,33580,0,65700,0,0,1,0,0
o,0x00000000,1716939377.499986,172.16.3.2,5101,172.16.1.2,52162,10406,14480,0,65728,65728,6,6,4,1460,426,1,993,42,33580,0,65700,0,0,1,0,0
i,0x00000000,1716939377.570193,172.16.3.2,5101,172.16.1.2,52162,10406,14480,0,65728,65728,6,6,4,1460,426,1,992,42,33580,0,65700,0,0,1,0,0
o,0x00000000,1716939377.570215,172.16.3.2,5101,172.16.1.2,52162,10406,14480,0,65728,65728,6,6,4,1460,426,1,993,42,33580,0,65700,15928,0,0,0,0
i,0x00000000,1716939377.619896,172.16.3.2,5101,172.16.1.2,52162,10406,14480,0,65728,65728,6,6,4,1460,426,1,992,42,33580,0,65700,0,0,0,0,0
o,0x00000000,1716939377.619962,172.16.3.2,5101,172.16.1.2,52162,10406,14480,0,65728,65728,6,6,4,1460,426,1,993,42,33580,0,65700,0,0,0,0,0
i,0x00000000,1716939377.629160,172.16.3.2,5101,172.16.1.2,52162,10406,14480,0,65728,65728,6,6,4,1460,426,1,992,42,33580,0,65700,0,0,0,0,0
o,0x00000000,1716939377.667830,172.16.3.2,5101,172.16.1.2,52162,10406,14480,0,65728,65728,6,6,4,1460,426,1,993,42,33580,0,65700,0,0,0,0,0
i,0x00000000,1716939377.688934,172.16.3.2,5101,172.16.1.2,52162,10406,14480,0,65728,65728,6,6,4,1460,426,1,992,42,33580,0,65700,0,0,0,0,0
o,0x00000000,1716939377.726866,172.16.3.2,5101,172.16.1.2,52162,10406,14480,0,65728,65728,6,6,4,1460,426,1,993,42,33580,0,65700,0,0,0,0,0
i,0x00000000,1716939377.759390,172.16.3.2,5101,172.16.1.2,52162,10406,14480,0,65728,65728,6,6,4,1460,426,1,992,42,33580,0,65700,0,0,0,0,0
i,0x00000000,1716939377.768677,172.16.3.2,5101,172.16.1.2,52162,10406,14480,0,65728,65728,6,6,4,1460,426,1,992,42,33580,0,65700,0,0,0,0,0
o,0x00000000,1716939377.768694,172.16.3.2,5101,172.16.1.2,52162,10406,14480,0,65728,65728,6,6,4,1460,426,1,993,42,33580,0,65700,1448,0,0,0,0
i,0x00000000,1716939377.819276,172.16.3.2,5101,172.16.1.2,52162,10406,14480,0,65728,65728,6,6,4,1460,426,1,992,42,33580,0,65700,0,0,0,0,0
i,0x00000000,1716939377.829485,172.16.3.2,5101,172.16.1.2,52162,10406,14480,0,65728,65728,6,6,4,1460,426,1,992,42,33580,0,65700,0,0,0,0,0
o,0x00000000,1716939377.829496,172.16.3.2,5101,172.16.1.2,52162,10406,14480,0,65728,65728,6,6,4,1460,426,1,993,42,33580,0,65700,1448,0,0,0,0
i,0x00000000,1716939377.899115,172.16.3.2,5101,172.16.1.2,52162,10406,14480,0,65728,65728,6,6,4,1460,426,1,992,42,33580,0,65700,0,0,0,0,0
i,0x00000000,1716939377.919736,172.16.3.2,5101,172.16.1.2,52162,10406,14480,0,65728,65728,6,6,4,1460,426,1,992,42,33580,0,65700,0,0,0,0,0
o,0x00000000,1716939377.919748,172.16.3.2,5101,172.16.1.2,52162,10406,14480,0,65728,65728,6,6,4,1460,426,1,993,42,33580,0,65700,1448,0,0,0,0
i,0x00000000,1716939377.928982,172.16.3.2,5101,172.16.1.2,52162,10406,14480,0,65728,65728,6,6,4,1460,426,1,992,42,33580,0,65700,0,0,0,0,0
i,0x00000000,1716939377.939357,172.16.3.2,5101,172.16.1.2,52162,10406,14480,0,65728,65728,6,6,4,1460,426,1,992,42,33580,0,65700,0,0,0,0,0
o,0x00000000,1716939377.939363,172.16.3.2,5101,172.16.1.2,52162,10406,14480,0,65728,65728,6,6,4,1460,426,1,993,42,33580,0,65700,1448,0,0,0,0
i,0x00000000,1716939377.988613,172.16.3.2,5101,172.16.1.2,52162,10406,14480,0,65728,65728,6,6,4,1460,426,1,992,42,33580,0,65700,0,0,0,0,0
i,0x00000000,1716939377.998197,172.16.3.2,5101,172.16.1.2,52162,10406,14480,0,65728,65728,6,6,4,1460,426,1,992,42,33580,0,65700,0,0,0,0,0
o,0x00000000,1716939377.998204,172.16.3.2,5101,172.16.1.2,52162,10406,14480,0,65728,65728,6,6,4,1460,426,1,993,42,33580,0,65700,1448,0,0,0,0
i,0x00000000,1716939378.099456,172.16.3.2,5101,172.16.1.2,52162,10406,14480,0,65728,65728,6,6,4,1460,426,1,992,42,33580,0,65700,0,0,0,0,0
i,0x00000000,1716939378.108711,172.16.3.2,5101,172.16.1.2,52162,10406,14480,0,65728,65728,6,6,4,1460,426,1,992,42,33580,0,65700,0,0,0,0,0
o,0x00000000,1716939378.108723,172.16.3.2,5101,172.16.1.2,52162,10406,14480,0,65728,65728,6,6,4,1460,426,1,993,42,33580,0,65700,1448,0,0,0,0
i,0x00000000,1716939378.119059,172.16.3.2,5101,172.16.1.2,52162,10406,14480,0,65728,65728,6,6,4,1460,426,1,992,42,33580,0,65700,0,0,0,0,0
o,0x00000000,1716939378.158166,172.16.3.2,5101,172.16.1.2,52162,10406,14480,0,65728,65728,6,6,4,1460,426,1,993,42,33580,0,65700,0,0,0,0,0
i,0x00000000,1716939378.159066,172.16.3.2,5101,172.16.1.2,52162,10406,14480,0,65728,65728,6,6,4,1460,426,1,992,42,33580,0,65700,0,0,0,0,0
i,0x00000000,1716939378.169901,172.16.3.2,5101,172.16.1.2,52162,10406,14480,0,65728,65728,6,6,4,1460,426,1,992,42,33580,0,65700,0,0,0,0,0
o,0x00000000,1716939378.169907,172.16.3.2,5101,172.16.1.2,52162,10406,14480,0,65728,65728,6,6,4,1460,426,1,993,42,33580,0,65700,1448,0,0,0,0
i,0x00000000,1716939378.179247,172.16.3.2,5101,172.16.1.2,52162,10406,14480,0,65728,65728,6,6,4,1460,426,1,992,42,33580,0,65700,0,0,0,0,0
i,0x00000000,1716939378.188938,172.16.3.2,5101,172.16.1.2,52162,10406,14480,0,65728,65728,6,6,4,1460,426,1,992,42,33580,0,65700,0,0,0,0,0
o,0x00000000,1716939378.188944,172.16.3.2,5101,172.16.1.2,52162,10406,14480,0,65728,65728,6,6,4,1460,426,1,993,42,33580,0,65700,1448,0,0,0,0
o,0x00000000,1716939378.217746,10.0.2.15,22,10.0.2.2,62180,1073725440,14600,0,65535,65700,0,0,4,1460,1,0,4,24,33580,108,65700,0,0,0,0,0
i,0x00000000,1716939378.218482,10.0.2.15,22,10.0.2.2,62180,1073725440,14600,0,65535,65700,0,0,4,1460,1,0,4,24,33580,108,65700,0,108,0,0,0
i,0x00000000,1716939378.248895,172.16.3.2,5101,172.16.1.2,52162,10406,14480,0,65728,65728,6,6,4,1460,426,1,992,42,33580,0,65700,0,0,0,0,0
i,0x00000000,1716939378.257880,172.16.3.2,5101,172.16.1.2,52162,10406,14480,0,65728,65728,6,6,4,1460,426,1,992,42,33580,0,65700,0,0,0,0,0
o,0x00000000,1716939378.257890,172.16.3.2,5101,172.16.1.2,52162,10406,14480,0,65728,65728,6,6,4,1460,426,1,993,42,33580,0,65700,1448,0,0,0,0
i,0x00000000,1716939378.338884,172.16.3.2,5101,172.16.1.2,52162,10406,14480,0,65728,65728,6,6,4,1460,426,1,992,42,33580,0,65700,0,0,0,0,0
i,0x00000000,1716939378.358648,172.16.3.2,5101,172.16.1.2,52162,10406,14480,0,65728,65728,6,6,4,1460,426,1,992,42,33580,0,65700,0,0,0,0,0
o,0x00000000,1716939378.358665,172.16.3.2,5101,172.16.1.2,52162,10406,14480,0,65728,65728,6,6,4,1460,426,1,993,42,33580,0,65700,1448,0,0,0,0
i,0x00000000,1716939378.369154,172.16.3.2,5101,172.16.1.2,52162,10406,14480,0,65728,65728,6,6,4,1460,426,1,992,42,33580,0,65700,0,0,0,0,0
i,0x00000000,1716939378.378715,172.16.3.2,5101,172.16.1.2,52162,10406,14480,0,65728,65728,6,6,4,1460,426,1,992,42,33580,0,65700,0,0,0,0,0
o,0x00000000,1716939378.378733,172.16.3.2,5101,172.16.1.2,52162,10406,14480,0,65728,65728,6,6,4,1460,426,1,993,42,33580,0,65700,1448,0,0,0,0
i,0x00000000,1716939378.388994,172.16.3.2,5101,172.16.1.2,52162,10406,14480,0,65728,65728,6,6,4,1460,426,1,992,42,33580,0,65700,0,0,0,0,0
i,0x00000000,1716939378.398411,172.16.3.2,5101,172.16.1.2,52162,10406,14480,0,65728,65728,6,6,4,1460,426,1,992,42,33580,0,65700,0,0,0,0,0
o,0x00000000,1716939378.398426,172.16.3.2,5101,172.16.1.2,52162,10406,14480,0,65728,65728,6,6,4,1460,426,1,993,42,33580,0,65700,1448,0,0,0,0
i,0x00000000,1716939378.457794,172.16.3.2,5101,172.16.1.2,52162,10406,14480,0,65728,65728,6,6,4,1460,426,1,992,42,33580,0,65700,0,0,0,0,0
i,0x00000000,1716939378.488682,172.16.3.2,5101,172.16.1.2,52162,10406,14480,0,65728,65728,6,6,4,1460,426,1,992,42,33580,0,65700,0,0,0,0,0
o,0x00000000,1716939378.488696,172.16.3.2,5101,172.16.1.2,52162,10406,14480,0,65728,65728,6,6,4,1460,426,1,993,42,33580,0,65700,1448,0,0,0,0
i,0x00000000,1716939378.508048,172.16.3.2,5101,172.16.1.2,52162,10406,14480,0,65728,65728,6,6,4,1460,426,1,992,42,33580,0,65700,0,0,0,0,0
o,0x00000000,1716939378.548170,172.16.3.2,5101,172.16.1.2,52162,10406,14480,0,65728,65728,6,6,4,1460,426,1,993,42,33580,0,65700,0,0,0,0,0
i,0x00000000,1716939378.579044,172.16.3.2,5101,172.16.1.2,52162,10406,14480,0,65728,65728,6,6,4,1460,426,1,992,42,33580,0,65700,0,0,0,0,0
i,0x00000000,1716939378.588297,172.16.3.2,5101,172.16.1.2,52162,10406,14480,0,65728,65728,6,6,4,1460,426,1,992,42,33580,0,65700,0,0,0,0,0
o,0x00000000,1716939378.588305,172.16.3.2,5101,172.16.1.2,52162,10406,14480,0,65728,65728,6,6,4,1460,426,1,993,42,33580,0,65700,1448,0,0,0,0
i,0x00000000,1716939378.598036,172.16.3.2,5101,172.16.1.2,52162,10406,14480,0,65728,65728,6,6,4,1460,426,1,992,42,33580,0,65700,0,0,0,0,0
i,0x00000000,1716939378.618652,172.16.3.2,5101,172.16.1.2,52162,10406,14480,0,65728,65728,6,6,4,1460,426,1,992,42,33580,0,65700,0,0,0,0,0
o,0x00000000,1716939378.618660,172.16.3.2,5101,172.16.1.2,52162,10406,14480,0,65728,65728,6,6,4,1460,426,1,993,42,33580,0,65700,1448,0,0,0,0
i,0x00000000,1716939378.627862,172.16.3.2,5101,172.16.1.2,52162,10406,14480,0,65728,65728,6,6,4,1460,426,1,992,42,33580,0,65700,0,0,0,0,0
i,0x00000000,1716939378.657928,172.16.3.2,5101,172.16.1.2,52162,10406,14480,0,65728,65728,6,6,4,1460,426,1,992,42,33580,0,65700,0,0,0,0,0
o,0x00000000,1716939378.657935,172.16.3.2,5101,172.16.1.2,52162,10406,14480,0,65728,65728,6,6,4,1460,426,1,993,42,33580,0,65700,1448,0,0,0,0
i,0x00000000,1716939378.688286,172.16.3.2,5101,172.16.1.2,52162,10406,14480,0,65728,65728,6,6,4,1460,426,1,992,42,33580,0,65700,0,0,0,0,0
i,0x00000000,1716939378.698636,172.16.3.2,5101,172.16.1.2,52162,10406,14480,0,65728,65728,6,6,4,1460,426,1,992,42,33580,0,65700,0,0,0,0,0
o,0x00000000,1716939378.698645,172.16.3.2,5101,172.16.1.2,52162,10406,14480,0,65728,65728,6,6,4,1460,426,1,993,42,33580,0,65700,1448,0,0,0,0
i,0x00000000,1716939378.738023,172.16.3.2,5101,172.16.1.2,52162,10406,14480,0,65728,65728,6,6,4,1460,426,1,992,42,33580,0,65700,0,0,0,0,0
o,0x00000000,1716939378.777702,172.16.3.2,5101,172.16.1.2,52162,10406,14480,0,65728,65728,6,6,4,1460,426,1,993,42,33580,0,65700,0,0,0,0,0
i,0x00000000,1716939378.788552,172.16.3.2,5101,172.16.1.2,52162,10406,14480,0,65728,65728,6,6,4,1460,426,1,992,42,33580,0,65700,0,0,0,0,0
i,0x00000000,1716939378.797667,172.16.3.2,5101,172.16.1.2,52162,10406,14480,0,65728,65728,6,6,4,1460,426,1,992,42,33580,0,65700,0,0,0,0,0
o,0x00000000,1716939378.797674,172.16.3.2,5101,172.16.1.2,52162,10406,14480,0,65728,65728,6,6,4,1460,426,1,993,42,33580,0,65700,1448,0,0,0,0
i,0x00000000,1716939378.838054,172.16.3.2,5101,172.16.1.2,52162,10406,14480,0,65728,65728,6,6,4,1460,426,1,992,42,33580,0,65700,0,0,0,0,0
i,0x00000000,1716939378.848560,172.16.3.2,5101,172.16.1.2,52162,10406,14480,0,65728,65728,6,6,4,1460,426,1,992,42,33580,0,65700,0,0,0,0,0
o,0x00000000,1716939378.848567,172.16.3.2,5101,172.16.1.2,52162,10406,14480,0,65728,65728,6,6,4,1460,426,1,993,42,33580,0,65700,1448,0,0,0,0
i,0x00000000,1716939378.877645,172.16.3.2,5101,172.16.1.2,52162,10406,14480,0,65728,65728,6,6,4,1460,426,1,992,42,33580,0,65700,0,0,0,0,0
i,0x00000000,1716939378.897840,172.16.3.2,5101,172.16.1.2,52162,10406,14480,0,65728,65728,6,6,4,1460,426,1,992,42,33580,0,65700,0,0,0,0,0
o,0x00000000,1716939378.897849,172.16.3.2,5101,172.16.1.2,52162,10406,14480,0,65728,65728,6,6,4,1460,426,1,993,42,33580,0,65700,1448,0,0,0,0
