enable_time_secs=1716938962	enable_time_usecs=286050	siftrver=1.2.4	hz=100	tcp_rtt_scale=32	sysname=FreeBSD	sysver=1301000	ipmode=4
o,0x00000000,1716938962.286136,10.0.2.15,22,10.0.2.2,59373,1073725440,17298,0,65535,65700,0,0,4,1460,1,0,4,24,33580,44,65700,0,0,0,0,0
o,0x00000000,1716938962.286303,10.0.2.15,22,10.0.2.2,59373,1073725440,17298,0,65535,65700,0,0,4,1460,1,0,4,24,33580,80,65700,0,44,0,0,0
i,0x00000000,1716938962.287303,10.0.2.15,22,10.0.2.2,59373,1073725440,17298,0,65535,65700,0,0,4,1460,1,0,4,24,33580,80,65700,0,80,0,0,0
i,0x00000000,1716938962.287665,10.0.2.15,22,10.0.2.2,59373,1073725440,17342,0,65535,65700,0,0,4,1460,1,0,4,23,33580,36,65700,0,36,0,0,0
o,0x00000000,1716938962.287859,10.0.2.15,22,10.0.2.2,59373,1073725440,17378,0,65535,65700,0,0,4,1460,1,0,4,23,33580,36,65700,0,0,0,0,0
i,0x00000000,1716938962.288455,10.0.2.15,22,10.0.2.2,59373,1073725440,17378,0,65535,65700,0,0,4,1460,1,0,4,23,33580,36,65700,0,36,0,0,0
o,0x00000000,1716938962.289146,10.0.2.15,22,10.0.2.2,59373,1073725440,17414,0,65535,65700,0,0,4,1460,1,0,4,23,33580,176,65700,0,0,0,0,0
i,0x00000000,1716938962.289966,10.0.2.15,22,10.0.2.2,59373,1073725440,17414,0,65535,65700,0,0,4,1460,1,0,4,23,33580,176,65700,0,176,0,0,0
i,0x00000000,1716938962.293375,10.0.2.15,22,10.0.2.2,59373,1073725440,17590,0,65535,65700,0,0,4,1460,1,0,4,23,33580,0,65700,0,0,0,0,0
i,0x00000000,1716938962.293380,10.0.2.15,22,10.0.2.2,59373,1073725440,17590,0,65535,65700,0,0,4,1460,1,0,4,23,33580,0,65700,36,0,0,0,0
o,0x00000000,1716938962.293385,10.0.2.15,22,10.0.2.2,59373,1073725440,17590,0,65535,65700,0,0,4,1460,1,0,5,23,33580,0,65700,96,0,0,0,0
i,0x00000000,1716938962.293469,10.0.2.15,22,10.0.2.2,59373,1073725440,17590,0,65535,65700,0,0,4,1460,1,0,4,23,33580,0,65700,96,0,0,0,0
o,0x00000000,1716938962.293473,10.0.2.15,22,10.0.2.2,59373,1073725440,17590,0,65535,65604,0,0,5,1460,1,0,7,23,33580,0,65700,96,0,0,0,0
o,0x00000000,1716938962.294267,10.0.2.15,22,10.0.2.2,59373,1073725440,17590,0,65535,65604,0,0,8,1460,1,0,4,23,33580,0,65700,0,0,0,0,0
i,0x00000000,1716938962.294764,10.0.2.15,22,10.0.2.2,59373,1073725440,17590,0,65535,65604,0,0,8,1460,1,0,20,23,33580,0,65700,0,1,0,0,0
i,0x00000000,1716938964.382697,10.0.2.15,22,10.0.2.2,59376,1073725440,14600,0,65535,65700,0,0,4,1460,1,0,0,27,33580,0,65700,0,0,0,0,0
o,0x00000000,1716938964.388349,10.0.2.15,22,10.0.2.2,59376,1073725440,14600,0,65535,65700,0,0,4,1460,1,0,0,27,33580,38,65700,41,0,0,0,0
i,0x00000000,1716938964.389076,10.0.2.15,22,10.0.2.2,59376,1073725440,14600,0,65535,65700,0,0,4,1460,1,0,0,27,33580,38,65700,0,38,0,0,0
i,0x00000000,1716938964.389582,10.0.2.15,22,10.0.2.2,59376,1073725440,14638,0,65535,65700,0,0,4,1460,1,0,0,23,33580,0,65700,0,0,0,0,0
i,0x00000000,1716938964.389585,10.0.2.15,22,10.0.2.2,59376,1073725440,14638,0,65535,65700,0,0,4,1460,1,0,0,23,33580,0,65700,1460,0,0,0,0
o,0x00000000,1716938964.389587,10.0.2.15,22,10.0.2.2,59376,1073725440,14638,0,65535,65700,0,0,4,1460,1,0,1,23,33580,0,65700,1536,0,0,0,0
o,0x00000000,1716938964.390302,10.0.2.15,22,10.0.2.2,59376,1073725440,14638,0,65535,65700,0,0,4,1460,1,0,0,23,33580,1056,65700,1536,0,0,0,0
i,0x00000000,1716938964.390977,10.0.2.15,22,10.0.2.2,59376,1073725440,14638,0,65535,65700,0,0,4,1460,1,0,0,23,33580,1056,65700,1536,1056,0,0,0
i,0x00000000,1716938964.392681,10.0.2.15,22,10.0.2.2,59376,1073725440,15694,0,65535,65700,0,0,4,1460,1,0,0,24,33580,0,65700,0,0,0,0,0
o,0x00000000,1716938964.395028,10.0.2.15,22,10.0.2.2,59376,1073725440,15694,0,65535,65700,0,0,4,1460,1,0,0,24,33580,484,65700,0,0,0,0,0
i,0x00000000,1716938964.395937,10.0.2.15,22,10.0.2.2,59376,1073725440,15694,0,65535,65700,0,0,4,1460,1,0,0,24,33580,484,65700,0,484,0,0,0
i,0x00000000,1716938964.400417,10.0.2.15,22,10.0.2.2,59376,1073725440,16178,0,65535,65700,0,0,4,1460,1,0,0,24,33580,0,65700,0,0,0,0,0
i,0x00000000,1716938964.404405,10.0.2.15,22,10.0.2.2,59376,1073725440,16178,0,65535,65700,0,0,4,1460,1,0,0,24,33580,0,65700,0,0,0,0,0
o,0x00000000,1716938964.404409,10.0.2.15,22,10.0.2.2,59376,1073725440,16178,0,65535,65700,0,0,4,1460,1,0,1,24,33580,0,65700,44,0,0,0,0
o,0x00000000,1716938964.404559,10.0.2.15,22,10.0.2.2,59376,1073725440,16178,0,65535,65700,0,0,4,1460,1,0,0,24,33580,44,65700,0,0,0,0,0
i,0x00000000,1716938964.405206,10.0.2.15,22,10.0.2.2,59376,1073725440,16178,0,65535,65700,0,0,4,1460,1,0,0,24,33580,44,65700,0,44,0,0,0
i,0x00000000,1716938964.405691,10.0.2.15,22,10.0.2.2,59376,1073725440,16222,0,65535,65700,0,0,4,1460,1,0,0,24,33580,0,65700,0,0,0,0,0
o,0x00000000,1716938964.416026,10.0.2.15,22,10.0.2.2,59376,1073725440,16222,0,65535,65700,0,0,4,1460,1,0,0,24,33580,68,65700,0,0,0,0,0
i,0x00000000,1716938964.416916,10.0.2.15,22,10.0.2.2,59376,1073725440,16222,0,65535,65700,0,0,4,1460,1,0,0,24,33580,68,65700,0,68,0,0,0
i,0x00000000,1716938964.419049,10.0.2.15,22,10.0.2.2,59376,1073725440,16290,0,65535,65700,0,0,4,1460,1,0,0,23,33580,0,65700,0,0,0,0,0
o,0x00000000,1716938964.428494,10.0.2.15,22,10.0.2.2,59376,1073725440,16290,0,65535,65700,0,0,4,1460,1,0,0,23,33580,28,65700,0,0,0,0,0
i,0x00000000,1716938964.429168,10.0.2.15,22,10.0.2.2,59376,1073725440,16290,0,65535,65700,0,0,4,1460,1,0,0,23,33580,28,65700,0,28,0,0,0
i,0x00000000,1716938964.429646,10.0.2.15,22,10.0.2.2,59376,1073725440,16318,0,65535,65700,0,0,4,1460,1,0,0,23,33580,0,65700,0,0,0,0,0
o,0x00000000,1716938964.430230,10.0.2.15,22,10.0.2.2,59376,1073725440,16318,0,65535,65700,0,0,4,1460,1,0,0,23,33580,768,65700,112,0,0,0,0
i,0x00000000,1716938964.430936,10.0.2.15,22,10.0.2.2,59376,1073725440,16318,0,65535,65700,0,0,4,1460,1,0,0,23,33580,768,65700,112,768,0,0,0
o,0x00000000,1716938964.431031,10.0.2.15,22,10.0.2.2,59376,1073725440,17086,0,65535,65700,0,0,4,1460,1,0,0,23,33580,44,65700,0,0,0,0,0
i,0x00000000,1716938964.431606,10.0.2.15,22,10.0.2.2,59376,1073725440,17086,0,65535,65700,0,0,4,1460,1,0,0,23,33580,44,65700,0,44,0,0,0
i,0x00000000,1716938964.432301,10.0.2.15,22,10.0.2.2,59376,1073725440,17130,0,65535,65700,0,0,4,1460,1,0,0,23,33580,0,65700,0,0,0,0,0
o,0x00000000,1716938964.432624,10.0.2.15,22,10.0.2.2,59376,1073725440,17130,0,65535,65700,0,0,4,1460,1,0,4,23,33580,72,65700,0,0,0,0,0
i,0x00000000,1716938964.433448,10.0.2.15,22,10.0.2.2,59376,1073725440,17130,0,65535,65700,0,0,4,1460,1,0,4,23,33580,72,65700,0,72,0,0,0
o,0x00000000,1716938964.436051,10.0.2.15,22,10.0.2.2,59376,1073725440,17202,0,65535,65700,0,0,4,1460,1,0,4,24,33580,44,65700,0,0,0,0,0
i,0x00000000,1716938964.436879,10.0.2.15,22,10.0.2.2,59376,1073725440,17202,0,65535,65700,0,0,4,1460,1,0,4,24,33580,44,65700,0,44,0,0,0
o,0x00000000,1716938964.437280,10.0.2.15,22,10.0.2.2,59376,1073725440,17246,0,65535,65700,0,0,4,1460,1,0,4,23,33580,44,65700,0,0,0,0,0
i,0x00000000,1716938964.438026,10.0.2.15,22,10.0.2.2,59376,1073725440,17246,0,65535,65700,0,0,4,1460,1,0,4,23,33580,44,65700,0,44,0,0,0
o,0x00000000,1716938964.441642,10.0.2.15,22,10.0.2.2,59376,1073725440,17290,0,65535,65700,0,0,4,1460,1,0,4,23,33580,176,65700,0,0,0,0,0
i,0x00000000,1716938964.442370,10.0.2.15,22,10.0.2.2,59376,1073725440,17290,0,65535,65700,0,0,4,1460,1,0,4,23,33580,176,65700,0,176,0,0,0
i,0x00000000,1716938964.443265,10.0.2.15,22,10.0.2.2,59376,1073725440,17466,0,65535,65700,0,0,4,1460,1,0,4,23,33580,0,65700,0,0,0,0,0
i,0x00000000,1716938964.443270,10.0.2.15,22,10.0.2.2,59376,1073725440,17466,0,65535,65700,0,0,4,1460,1,0,4,23,33580,0,65700,36,0,0,0,0
o,0x00000000,1716938964.443274,10.0.2.15,22,10.0.2.2,59376,1073725440,17466,0,65535,65700,0,0,4,1460,1,0,5,23,33580,0,65700,96,0,0,0,0
i,0x00000000,1716938964.443354,10.0.2.15,22,10.0.2.2,59376,1073725440,17466,0,65535,65700,0,0,4,1460,1,0,4,23,33580,0,65700,96,0,0,0,0
o,0x00000000,1716938964.443358,10.0.2.15,22,10.0.2.2,59376,1073725440,17466,0,65535,65604,0,0,5,1460,1,0,7,23,33580,0,65700,96,0,0,0,0
o,0x00000000,1716938964.450824,10.0.2.15,22,10.0.2.2,59376,1073725440,17466,0,65535,65604,0,0,8,1460,1,0,4,23,33580,0,65700,0,0,0,0,0
i,0x00000000,1716938964.451564,10.0.2.15,22,10.0.2.2,59376,1073725440,17466,0,65535,65604,0,0,8,1460,1,0,20,23,33580,0,65700,0,1,0,0,0
i,0x00000000,1716938964.684666,172.16.3.2,5101,172.16.1.2,48692,10499,14480,0,65728,65700,6,6,4,1460,450,1,992,49,33580,0,65700,0,0,0,0,0
o,0x00000000,1716938964.684808,172.16.3.2,5101,172.16.1.2,48692,10499,14480,0,65728,65700,6,6,4,1460,450,1,996,49,33580,1,65700,0,0,0,0,0
i,0x00000000,1716938964.804217,172.16.3.2,5101,172.16.1.2,48692,10499,14480,0,65728,65700,6,6,4,1460,450,1,996,49,33580,1,65700,0,1,0,0,0
i,0x00000000,1716938964.804234,172.16.3.2,5101,172.16.1.2,48692,10499,14480,0,65728,65728,6,6,4,1460,442,1,996,47,33580,0,65700,4,0,0,0,0
o,0x00000000,1716938964.804242,172.16.3.2,5101,172.16.1.2,48692,10499,14480,0,65728,65728,6,6,4,1460,442,1,997,47,33580,0,65700,128,0,0,0,0
o,0x00000000,1716938964.804638,172.16.3.2,5101,172.16.1.2,48692,10499,14480,0,65728,65728,6,6,4,1460,442,1,996,47,33580,1,65700,0,0,0,0,0
o,0x00000000,1716938964.804886,10.0.2.15,22,10.0.2.2,62180,1073725440,14600,0,65535,65700,0,0,4,1460,1,0,4,24,33580,84,65700,0,0,0,0,0
i,0x00000000,1716938964.805671,10.0.2.15,22,10.0.2.2,62180,1073725440,14600,0,65535,65700,0,0,4,1460,1,0,4,24,33580,84,65700,0,84,0,0,0
i,0x00000000,1716938964.953427,172.16.3.2,5101,172.16.1.2,48692,10499,14480,0,65728,65728,6,6,4,1460,442,1,996,47,33580,1,65700,0,1,0,0,0
i,0x00000000,1716938965.043379,172.16.3.2,5101,172.16.1.2,56267,10499,14480,0,65728,65700,6,6,4,1460,450,1,992,49,33580,0,65700,0,0,0,0,0
o,0x00000000,1716938965.045096,172.16.3.2,5101,172.16.1.2,48692,10499,14480,0,65728,65728,6,6,4,1460,447,1,996,45,33580,1,65700,0,0,0,0,0
o,0x00000000,1716938965.045201,172.16.3.2,5101,172.16.1.2,48692,10499,14480,0,65728,65728,6,6,4,1460,447,1,996,45,33580,2,65700,0,1,0,0,0
o,0x00000000,1716938965.045744,10.0.2.15,22,10.0.2.2,62180,1073725440,14600,0,65535,65700,0,0,4,1460,1,0,4,24,33580,108,65700,0,0,0,0,0
i,0x00000000,1716938965.046385,10.0.2.15,22,10.0.2.2,62180,1073725440,14600,0,65535,65700,0,0,4,1460,1,0,4,24,33580,108,65700,0,108,0,0,0
o,0x00000000,1716938965.077824,172.16.3.2,5101,172.16.1.2,56267,10499,14480,0,65728,65700,6,6,4,1460,450,1,993,49,33580,0,65700,0,0,0,0,0
i,0x00000000,1716938965.162429,172.16.3.2,5101,172.16.1.2,48692,10499,14480,0,65728,65728,6,6,4,1460,447,1,996,45,33580,2,65700,0,2,0,0,0
i,0x00000000,1716938965.263472,172.16.3.2,5101,172.16.1.2,56267,10499,14480,0,65728,65700,6,6,4,1460,450,1,992,49,33580,0,65700,0,0,0,0,0
i,0x00000000,1716938965.273806,172.16.3.2,5101,172.16.1.2,56267,10499,14480,0,65728,65700,6,6,4,1460,450,1,992,49,33580,0,65700,0,0,0,0,0
o,0x00000000,1716938965.273816,172.16.3.2,5101,172.16.1.2,56267,10499,14480,0,65728,65700,6,6,4,1460,450,1,993,49,33580,0,65700,1448,0,0,0,0
i,0x00000000,1716938965.282179,172.16.3.2,5101,172.16.1.2,56267,10499,14480,0,65728,65700,6,6,4,1460,450,1,992,49,33580,0,65700,0,0,0,0,0
i,0x00000000,1716938965.293545,172.16.3.2,5101,172.16.1.2,56267,10499,14480,0,65728,65700,6,6,4,1460,450,1,992,49,33580,0,65700,0,0,0,0,0
o,0x00000000,1716938965.293551,172.16.3.2,5101,172.16.1.2,56267,10499,14480,0,65728,65700,6,6,4,1460,450,1,993,49,33580,0,65700,1448,0,0,0,0
i,0x00000000,1716938965.313314,172.16.3.2,5101,172.16.1.2,56267,10499,14480,0,65728,65700,6,6,4,1460,450,1,992,49,33580,0,65700,0,0,0,0,0
i,0x00000000,1716938965.322770,172.16.3.2,5101,172.16.1.2,56267,10499,14480,0,65728,65700,6,6,4,1460,450,1,992,49,33580,0,65700,0,0,0,0,0
o,0x00000000,1716938965.322779,172.16.3.2,5101,172.16.1.2,56267,10499,14480,0,65728,65700,6,6,4,1460,450,1,993,49,33580,0,65700,1448,0,0,0,0
i,0x00000000,1716938965.333202,172.16.3.2,5101,172.16.1.2,56267,10499,14480,0,65728,65700,6,6,4,1460,450,1,992,49,33580,0,65700,0,0,0,0,0
i,0x00000000,1716938965.342890,172.16.3.2,5101,172.16.1.2,56267,10499,14480,0,65728,65700,6,6,4,1460,450,1,992,49,33580,0,65700,0,0,0,0,0
o,0x00000000,1716938965.342896,172.16.3.2,5101,172.16.1.2,56267,10499,14480,0,65728,65700,6,6,4,1460,450,1,993,49,33580,0,65700,1448,0,0,0,0
i,0x00000000,1716938965.363316,172.16.3.2,5101,172.16.1.2,56267,10499,14480,0,65728,65700,6,6,4,1460,450,1,992,49,33580,0,65700,0,0,0,0,0
i,0x00000000,1716938965.372602,172.16.3.2,5101,172.16.1.2,56267,10499,14480,0,65728,65700,6,6,4,1460,450,1,992,49,33580,0,65700,0,0,0,0,0
o,0x00000000,1716938965.372611,172.16.3.2,5101,172.16.1.2,56267,10499,14480,0,65728,65700,6,6,4,1460,450,1,993,49,33580,0,65700,1448,0,0,0,0
i,0x00000000,1716938965.433559,172.16.3.2,5101,172.16.1.2,56267,10499,14480,0,65728,65700,6,6,4,1460,450,1,992,49,33580,0,65700,0,0,0,0,0
i,0x00000000,1716938965.442795,172.16.3.2,5101,172.16.1.2,56267,10499,14480,0,65728,65700,6,6,4,1460,450,1,992,49,33580,0,65700,0,0,0,0,0
o,0x00000000,1716938965.442802,172.16.3.2,5101,172.16.1.2,56267,10499,14480,0,65728,65700,6,6,4,1460,450,1,993,49,33580,0,65700,1448,0,0,0,0
i,0x00000000,1716938965.482494,172.16.3.2,5101,172.16.1.2,56267,10499,14480,0,65728,65700,6,6,4,1460,450,1,992,49,33580,0,65700,0,0,0,0,0
o,0x00000000,1716938965.517753,172.16.3.2,5101,172.16.1.2,56267,10499,14480,0,65728,65700,6,6,4,1460,450,1,993,49,33580,0,65700,0,0,0,0,0
i,0x00000000,1716938965.523043,172.16.3.2,5101,172.16.1.2,56267,10499,14480,0,65728,65700,6,6,4,1460,450,1,992,49,33580,0,65700,0,0,0,0,0
o,0x00000000,1716938965.557828,172.16.3.2,5101,172.16.1.2,56267,10499,14480,0,65728,65700,6,6,4,1460,450,1,993,49,33580,0,65700,0,0,0,0,0
i,0x00000000,1716938965.562661,172.16.3.2,5101,172.16.1.2,56267,10499,14480,0,65728,65700,6,6,4,1460,450,1,992,49,33580,0,65700,0,0,0,0,0
i,0x00000000,1716938965.582369,172.16.3.2,5101,172.16.1.2,56267,10499,14480,0,65728,65700,6,6,4,1460,450,1,992,49,33580,0,65700,0,0,0,0,0
o,0x00000000,1716938965.582378,172.16.3.2,5101,172.16.1.2,56267,10499,14480,0,65728,65700,6,6,4,1460,450,1,993,49,33580,0,65700,1448,0,0,0,0
i,0x00000000,1716938965.592943,172.16.3.2,5101,172.16.1.2,56267,10499,14480,0,65728,65700,6,6,4,1460,450,1,992,49,33580,0,65700,0,0,0,0,0
i,0x00000000,1716938965.603230,172.16.3.2,5101,172.16.1.2,56267,10499,14480,0,65728,65700,6,6,4,1460,450,1,992,49,33580,0,65700,0,0,0,0,0
o,0x00000000,1716938965.603238,172.16.3.2,5101,172.16.1.2,56267,10499,14480,0,65728,65700,6,6,4,1460,450,1,993,49,33580,0,65700,1448,0,0,0,0
i,0x00000000,1716938965.642819,172.16.3.2,5101,172.16.1.2,56267,10499,14480,0,65728,65700,6,6,4,1460,450,1,992,49,33580,0,65700,0,0,0,0,0
i,0x00000000,1716938965.653505,172.16.3.2,5101,172.16.1.2,56267,10499,14480,0,65728,65700,6,6,4,1460,450,1,992,49,33580,0,65700,0,0,0,0,0
o,0x00000000,1716938965.653512,172.16.3.2,5101,172.16.1.2,56267,10499,14480,0,65728,65700,6,6,4,1460,450,1,993,49,33580,0,65700,1448,0,0,0,0
i,0x00000000,1716938965.662230,172.16.3.2,5101,172.16.1.2,56267,10499,14480,0,65728,65700,6,6,4,1460,450,1,992,49,33580,0,65700,0,0,0,0,0
i,0x00000000,1716938965.692446,172.16.3.2,5101,172.16.1.2,56267,10499,14480,0,65728,65700,6,6,4,1460,450,1,992,49,33580,0,65700,0,0,0,0,0
o,0x00000000,1716938965.692455,172.16.3.2,5101,172.16.1.2,56267,10499,14480,0,65728,65700,6,6,4,1460,450,1,993,49,33580,0,65700,1448,0,0,0,0
i,0x00000000,1716938965.712070,172.16.3.2,5101,172.16.1.2,56267,10499,14480,0,65728,65700,6,6,4,1460,450,1,992,49,33580,0,65700,0,0,0,0,0
o,0x00000000,1716938965.747344,172.16.3.2,5101,172.16.1.2,56267,10499,14480,0,65728,65700,6,6,4,1460,450,1,993,49,33580,0,65700,0,0,0,0,0
i,0x00000000,1716938965.772454,172.16.3.2,5101,172.16.1.2,56267,10499,14480,0,65728,65700,6,6,4,1460,450,1,992,49,33580,0,65700,0,0,0,0,0
i,0x00000000,1716938965.781815,172.16.3.2,5101,172.16.1.2,56267,10499,14480,0,65728,65700,6,6,4,1460,450,1,992,49,33580,0,65700,0,0,0,0,0
o,0x00000000,1716938965.781821,172.16.3.2,5101,172.16.1.2,56267,10499,14480,0,65728,65700,6,6,4,1460,450,1,993,49,33580,0,65700,1448,0,0,0,0
i,0x00000000,1716938965.802722,172.16.3.2,5101,172.16.1.2,56267,10499,14480,0,65728,65700,6,6,4,1460,450,1,992,49,33580,0,65700,0,0,0,0,0
i,0x00000000,1716938965.831883,172.16.3.2,5101,172.16.1.2,56267,10499,14480,0,65728,65700,6,6,4,1460,450,1,992,49,33580,0,65700,0,0,0,0,0
o,0x00000000,1716938965.831895,172.16.3.2,5101,172.16.1.2,56267,10499,14480,0,65728,65700,6,6,4,1460,450,1,993,49,33580,0,65700,1448,0,0,0,0
i,0x00000000,1716938965.852692,172.16.3.2,5101,172.16.1.2,56267,10499,14480,0,65728,65700,6,6,4,1460,450,1,992,49,33580,0,65700,0,0,0,0,0
o,0x00000000,1716938965.888274,172.16.3.2,5101,172.16.1.2,56267,10499,14480,0,65728,65700,6,6,4,1460,450,1,993,49,33580,0,65700,0,0,0,0,0
i,0x00000000,1716938965.892258,172.16.3.2,5101,172.16.1.2,56267,10499,14480,0,65728,65700,6,6,4,1460,450,1,992,49,33580,0,65700,0,0,0,0,0
i,0x00000000,1716938965.921890,172.16.3.2,5101,172.16.1.2,56267,10499,14480,0,65728,65700,6,6,4,1460,450,1,992,49,33580,0,65700,0,0,0,0,0
o,0x00000000,1716938965.921907,172.16.3.2,5101,172.16.1.2,56267,10499,14480,0,65728,65700,6,6,4,1460,450,1,993,49,33580,0,65700,1448,0,0,0,0
i,0x00000000,1716938965.932410,172.16.3.2,5101,172.16.1.2,56267,10499,14480,0,65728,65700,6,6,4,1460,450,1,992,49,33580,0,65700,0,0,0,0,0
o,0x00000000,1716938965.967570,172.16.3.2,5101,172.16.1.2,56267,10499,14480,0,65728,65700,6,6,4,1460,450,1,993,49,33580,0,65700,0,0,0,0,0
i,0x00000000,1716938965.972900,172.16.3.2,5101,172.16.1.2,56267,10499,14480,0,65728,65700,6,6,4,1460,450,1,992,49,33580,0,65700,0,0,0,0,0
i,0x00000000,1716938965.982290,172.16.3.2,5101,172.16.1.2,56267,10499,14480,0,65728,65700,6,6,4,1460,450,1,992,49,33580,0,65700,0,0,0,0,0
o,0x00000000,1716938965.982296,172.16.3.2,5101,172.16.1.2,56267,10499,14480,0,65728,65700,6,6,4,1460,450,1,993,49,33580,0,65700,1448,0,0,0,0
i,0x00000000,1716938965.991693,172.16.3.2,5101,172.16.1.2,56267,10499,14480,0,65728,65700,6,6,4,1460,450,1,992,49,33580,0,65700,0,0,0,0,0
o,0x00000000,1716938966.027861,172.16.3.2,5101,172.16.1.2,56267,10499,14480,0,65728,65700,6,6,4,1460,450,1,993,49,33580,0,65700,0,0,0,0,0
i,0x00000000,1716938966.032269,172.16.3.2,5101,172.16.1.2,56267,10499,14480,0,65728,65700,6,6,4,1460,450,1,992,49,33580,0,65700,0,0,0,0,0
i,0x00000000,1716938966.041698,172.16.3.2,5101,172.16.1.2,56267,10499,14480,0,65728,65700,6,6,4,1460,450,1,992,49,33580,0,65700,0,0,0,0,0
o,0x00000000,1716938966.041704,172.16.3.2,5101,172.16.1.2,56267,10499,14480,0,65728,65700,6,6,4,1460,450,1,993,49,33580,0,65700,1448,0,0,0,0
o,0x00000000,1716938966.058272,10.0.2.15,22,10.0.2.2,62180,1073725440,14600,0,65535,65700,0,0,4,1460,1,0,4,24,33580,156,65700,0,0,0,0,0
i,0x00000000,1716938966.059011,10.0.2.15,22,10.0.2.2,62180,1073725440,14600,0,65535,65700,0,0,4,1460,1,0,4,24,33580,156,65700,0,156,0,0,0
i,0x00000000,1716938966.071618,172.16.3.2,5101,172.16.1.2,56267,10499,14480,0,65728,65700,6,6,4,1460,450,1,992,49,33580,0,65700,0,0,0,0,0
i,0x00000000,1716938966.101883,172.16.3.2,5101,172.16.1.2,56267,10499,14480,0,65728,65700,6,6,4,1460,450,1,992,49,33580,0,65700,0,0,0,0,0
o,0x00000000,1716938966.101889,172.16.3.2,5101,172.16.1.2,56267,10499,14480,0,65728,65700,6,6,4,1460,450,1,993,49,33580,0,65700,1448,0,0,0,0
i,0x00000000,1716938966.121577,172.16.3.2,5101,172.16.1.2,56267,10499,14480,0,65728,65700,6,6,4,1460,450,1,992,49,33580,0,65700,0,0,0,0,0
i,0x00000000,1716938966.142462,172.16.3.2,5101,172.16.1.2,56267,10499,14480,0,65728,65700,6,6,4,1460,450,1,992,49,33580,0,65700,0,0,0,0,0
o,0x00000000,1716938966.142471,172.16.3.2,5101,172.16.1.2,56267,10499,14480,0,65728,65700,6,6,4,1460,450,1,993,49,33580,0,65700,1448,0,0,0,0
i,0x00000000,1716938966.191700,172.16.3.2,5101,172.16.1.2,56267,10499,14480,0,65728,65700,6,6,4,1460,450,1,992,49,33580,0,65700,0,0,0,0,0
i,0x00000000,1716938966.211636,172.16.3.2,5101,172.16.1.2,56267,10499,14480,0,65728,65700,6,6,4,1460,450,1,992,49,33580,0,65700,0,0,0,0,0
o,0x00000000,1716938966.211644,172.16.3.2,5101,172.16.1.2,56267,10499,14480,0,65728,65700,6,6,4,1460,450,1,993,49,33580,0,65700,1448,0,0,0,0
i,0x00000000,1716938966.251208,172.16.3.2,5101,172.16.1.2,56267,10499,14480,0,65728,65700,6,6,4,1460,450,1,992,49,33580,0,65700,0,0,0,0,0
i,0x00000000,1716938966.260988,172.16.3.2,5101,172.16.1.2,56267,10499,14480,0,65728,65700,6,6,4,1460,450,1,992,49,33580,0,65700,0,0,0,0,0
o,0x00000000,1716938966.260995,172.16.3.2,5101,172.16.1.2,56267,10499,14480,0,65728,65700,6,6,4,1460,450,1,993,49,33580,0,65700,1448,0,0,0,0
i,0x00000000,1716938966.272246,172.16.3.2,5101,172.16.1.2,56267,10499,14480,0,65728,65700,6,6,4,1460,450,1,992,49,33580,0,65700,0,0,0,0,0
o,0x00000000,1716938966.307810,172.16.3.2,5101,172.16.1.2,56267,10499,14480,0,65728,65700,6,6,4,1460,450,1,993,49,33580,0,65700,0,0,0,0,0
i,0x00000000,1716938966.312019,172.16.3.2,5101,172.16.1.2,56267,10499,14480,0,65728,65700,6,6,4,1460,450,1,992,49,33580,0,65700,0,0,0,0,0
i,0x00000000,1716938966.321358,172.16.3.2,5101,172.16.1.2,56267,10499,14480,0,65728,65700,6,6,4,1460,450,1,992,49,33580,0,65700,0,0,0,0,0
o,0x00000000,1716938966.321364,172.16.3.2,5101,172.16.1.2,56267,10499,14480,0,65728,65700,6,6,4,1460,450,1,993,49,33580,0,65700,1448,0,0,0,0
i,0x00000000,1716938966.362082,172.16.3.2,5101,172.16.1.2,56267,10499,14480,0,65728,65700,6,6,4,1460,450,1,992,49,33580,0,65700,0,0,0,0,0
i,0x00000000,1716938966.371392,172.16.3.2,5101,172.16.1.2,56267,10499,14480,0,65728,65700,6,6,4,1460,450,1,992,49,33580,0,65700,0,0,0,0,0
o,0x00000000,1716938966.371401,172.16.3.2,5101,172.16.1.2,56267,10499,14480,0,65728,65700,6,6,4,1460,450,1,993,49,33580,0,65700,1448,0,0,0,0
i,0x00000000,1716938966.412014,172.16.3.2,5101,172.16.1.2,56267,10499,14480,0,65728,65700,6,6,4,1460,450,1,992,49,33580,0,65700,0,0,0,0,0
i,0x00000000,1716938966.421703,172.16.3.2,5101,172.16.1.2,56267,10499,14480,0,65728,65700,6,6,4,1460,450,1,992,49,33580,0,65700,0,0,0,0,0
o,0x00000000,1716938966.421709,172.16.3.2,5101,172.16.1.2,56267,10499,14480,0,65728,65700,6,6,4,1460,450,1,993,49,33580,0,65700,1448,0,0,0,0
i,0x00000000,1716938966.460677,172.16.3.2,5101,172.16.1.2,56267,10499,14480,0,65728,65700,6,6,4,1460,450,1,992,49,33580,0,65700,0,0,0,0,0
i,0x00000000,1716938966.472010,172.16.3.2,5101,172.16.1.2,56267,10499,14480,0,65728,65700,6,6,4,1460,450,1,992,49,33580,0,65700,0,0,0,0,0
o,0x00000000,1716938966.472018,172.16.3.2,5101,172.16.1.2,56267,10499,14480,0,65728,65700,6,6,4,1460,450,1,993,49,33580,0,65700,1448,0,0,0,0
i,0x00000000,1716938966.491760,172.16.3.2,5101,172.16.1.2,56267,10499,14480,0,65728,65700,6,6,4,1460,450,1,992,49,33580,0,65700,0,0,0,0,0
o,0x00000000,1716938966.528168,172.16.3.2,5101,172.16.1.2,56267,10499,14480,0,65728,65700,6,6,4,1460,450,1,993,49,33580,0,65700,0,0,0,0,0
i,0x00000000,1716938966.540833,172.16.3.2,5101,172.16.1.2,56267,10499,14480,0,65728,65700,6,6,4,1460,450,1,992,49,33580,0,65700,0,0,0,0,0
i,0x00000000,1716938966.561689,172.16.3.2,5101,172.16.1.2,56267,10499,14480,0,65728,65700,6,6,4,1460,450,1,992,49,33580,0,65700,0,0,0,0,0
o,0x00000000,1716938966.561699,172.16.3.2,5101,172.16.1.2,56267,10499,14480,0,65728,65700,6,6,4,1460,450,1,993,49,33580,0,65700,1448,0,0,0,0
i,0x00000000,1716938966.590893,172.16.3.2,5101,172.16.1.2,56267,10499,14480,0,65728,65700,6,6,4,1460,450,1,992,49,33580,0,65700,0,0,0,0,0
i,0x00000000,1716938966.601348,172.16.3.2,5101,172.16.1.2,56267,10499,14480,0,65728,65700,6,6,4,1460,450,1,992,49,33580,0,65700,0,0,0,0,0
o,0x00000000,1716938966.601361,172.16.3.2,5101,172.16.1.2,56267,10499,14480,0,65728,65700,6,6,4,1460,450,1,993,49,33580,0,65700,1448,0,0,0,0
i,0x00000000,1716938966.640973,172.16.3.2,5101,172.16.1.2,56267,10499,14480,0,65728,65700,6,6,4,1460,450,1,992,49,33580,0,65700,0,0,0,0,0
i,0x00000000,1716938966.651716,172.16.3.2,5101,172.16.1.2,56267,10499,14480,0,65728,65700,6,6,4,1460,450,1,992,49,33580,0,65700,0,0,0,0,0
o,0x00000000,1716938966.651725,172.16.3.2,5101,172.16.1.2,56267,10499,14480,0,65728,65700,6,6,4,1460,450,1,993,49,33580,0,65700,1448,0,0,0,0
i,0x00000000,1716938966.670837,172.16.3.2,5101,172.16.1.2,56267,10499,14480,0,65728,65700,6,6,4,1460,450,1,992,49,33580,0,65700,0,0,0,0,0
i,0x00000000,1716938966.701015,172.16.3.2,5101,172.16.1.2,56267,10499,14480,0,65728,65700,6,6,4,1460,450,1,992,49,33580,0,65700,0,0,0,0,0
o,0x00000000,1716938966.701023,172.16.3.2,5101,172.16.1.2,56267,10499,14480,0,65728,65700,6,6,4,1460,450,1,993,49,33580,0,65700,0,0,1,0,0
i,0x00000000,1716938966.730341,172.16.3.2,5101,172.16.1.2,56267,10499,14480,0,65728,65700,6,6,4,1460,450,1,992,49,33580,0,65700,0,0,1,0,0
o,0x00000000,1716938966.730347,172.16.3.2,5101,172.16.1.2,56267,10499,14480,0,65728,65728,6,6,4,1460,450,1,993,49,33580,0,65700,0,0,1,0,0
i,0x00000000,1716938966.761683,172.16.3.2,5101,172.16.1.2,56267,10499,14480,0,65728,65728,6,6,4,1460,450,1,992,49,33580,0,65700,0,0,1,0,0
o,0x00000000,1716938966.761697,172.16.3.2,5101,172.16.1.2,56267,10499,14480,0,65728,65728,6,6,4,1460,450,1,993,49,33580,0,65700,0,0,1,0,0
i,0x00000000,1716938966.800368,172.16.3.2,5101,172.16.1.2,56267,10499,14480,0,65728,65728,6,6,4,1460,450,1,992,49,33580,0,65700,0,0,1,0,0
o,0x00000000,1716938966.800386,172.16.3.2,5101,172.16.1.2,56267,10499,14480,0,65728,65728,6,6,4,1460,450,1,993,49,33580,0,65700,0,0,1,0,0
i,0x00000000,1716938966.810729,172.16.3.2,5101,172.16.1.2,56267,10499,14480,0,65728,65728,6,6,4,1460,450,1,992,49,33580,0,65700,0,0,1,0,0
o,0x00000000,1716938966.810734,172.16.3.2,5101,172.16.1.2,56267,10499,14480,0,65728,65728,6,6,4,1460,450,1,993,49,33580,0,65700,0,0,1,0,0
i,0x00000000,1716938966.831649,172.16.3.2,5101,172.16.1.2,56267,10499,14480,0,65728,65728,6,6,4,1460,450,1,992,49,33580,0,65700,0,0,1,0,0
o,0x00000000,1716938966.831653,172.16.3.2,5101,172.16.1.2,56267,10499,14480,0,65728,65728,6,6,4,1460,450,1,993,49,33580,0,65700,0,0,1,0,0
i,0x00000000,1716938966.860518,172.16.3.2,5101,172.16.1.2,56267,10499,14480,0,65728,65728,6,6,4,1460,450,1,992,49,33580,0,65700,0,0,1,0,0
o,0x00000000,1716938966.860529,172.16.3.2,5101,172.16.1.2,56267,10499,14480,0,65728,65728,6,6,4,1460,450,1,993,49,33580,0,65700,0,0,1,0,0
i,0x00000000,1716938966.891168,172.16.3.2,5101,172.16.1.2,56267,10499,14480,0,65728,65728,6,6,4,1460,450,1,992,49,33580,0,65700,0,0,1,0,0
o,0x00000000,1716938966.891173,172.16.3.2,5101,172.16.1.2,56267,10499,14480,0,65728,65728,6,6,4,1460,450,1,993,49,33580,0,65700,0,0,1,0,0
i,0x00000000,1716938966.910398,172.16.3.2,5101,172.16.1.2,56267,10499,14480,0,65728,65728,6,6,4,1460,450,1,992,49,33580,0,65700,0,0,1,0,0
o,0x00000000,1716938966.910403,172.16.3.2,5101,172.16.1.2,56267,10499,14480,0,65728,65728,6,6,4,1460,450,1,993,49,33580,0,65700,0,0,1,0,0
i,0x00000000,1716938966.930322,172.16.3.2,5101,172.16.1.2,56267,10499,14480,0,65728,65728,6,6,4,1460,450,1,992,49,33580,0,65700,0,0,1,0,0
o,0x00000000,1716938966.930335,172.16.3.2,5101,172.16.1.2,56267,10499,14480,0,65728,65728,6,6,4,1460,450,1,993,49,33580,0,65700,14480,0,0,0,0
i,0x00000000,1716938966.941923,172.16.3.2,5101,172.16.1.2,56267,10499,14480,0,65728,65728,6,6,4,1460,450,1,992,49,33580,0,65700,0,0,0,0,0
o,0x00000000,1716938966.941929,172.16.3.2,5101,172.16.1.2,56267,10499,14480,0,65728,65700,6,6,4,1460,450,1,993,49,33580,0,65700,0,0,0,0,0
i,0x00000000,1716938966.980384,172.16.3.2,5101,172.16.1.2,56267,10499,14480,0,65728,65700,6,6,4,1460,450,1,992,49,33580,0,65700,0,0,0,0,0
o,0x00000000,1716938966.980389,172.16.3.2,5101,172.16.1.2,56267,10499,14480,0,65728,65728,6,6,4,1460,450,1,993,49,33580,0,65700,0,0,0,0,0
i,0x00000000,1716938966.990928,172.16.3.2,5101,172.16.1.2,56267,10499,14480,0,65728,65728,6,6,4,1460,450,1,992,49,33580,0,65700,0,0,0,0,0
o,0x00000000,1716938966.990933,172.16.3.2,5101,172.16.1.2,56267,10499,14480,0,65728,65728,6,6,4,1460,450,1,993,49,33580,0,65700,0,0,0,0,0
i,0x00000000,1716938967.010933,172.16.3.2,5101,172.16.1.2,56267,10499,14480,0,65728,65728,6,6,4,1460,450,1,992,49,33580,0,65700,0,0,0,0,0
o,0x00000000,1716938967.010939,172.16.3.2,5101,172.16.1.2,56267,10499,14480,0,65728,65728,6,6,4,1460,450,1,993,49,33580,0,65700,0,0,0,0,0
i,0x00000000,1716938967.030735,172.16.3.2,5101,172.16.1.2,56267,10499,14480,0,65728,65728,6,6,4,1460,450,1,992,49,33580,0,65700,0,0,0,0,0
o,0x00000000,1716938967.030739,172.16.3.2,5101,172.16.1.2,56267,10499,14480,0,65728,65728,6,6,4,1460,450,1,993,49,33580,0,65700,0,0,0,0,0
i,0x00000000,1716938967.050638,172.16.3.2,5101,172.16.1.2,56267,10499,14480,0,65728,65728,6,6,4,1460,450,1,992,49,33580,0,65700,0,0,0,0,0
o,0x00000000,1716938967.050646,172.16.3.2,5101,172.16.1.2,56267,10499,14480,0,65728,65728,6,6,4,1460,450,1,993,49,33580,0,65700,0,0,1,0,0
o,0x00000000,1716938967.057885,10.0.2.15,22,10.0.2.2,62180,1073725440,14600,0,65535,65700,0,0,4,1460,1,0,4,24,33580,108,65700,0,0,0,0,0
i,0x00000000,1716938967.058700,10.0.2.15,22,10.0.2.2,62180,1073725440,14600,0,65535,65700,0,0,4,1460,1,0,4,24,33580,108,65700,0,108,0,0,0
i,0x00000000,1716938967.061307,172.16.3.2,5101,172.16.1.2,56267,10499,14480,0,65728,65728,6,6,4,1460,450,1,992,49,33580,0,65700,0,0,1,0,0
i,0x00000000,1716938967.080971,172.16.3.2,5101,172.16.1.2,56267,10499,14480,0,65728,65728,6,6,4,1460,450,1,992,49,33580,0,65700,0,0,1,0,0
o,0x00000000,1716938967.080977,172.16.3.2,5101,172.16.1.2,56267,10499,14480,0,65728,65728,6,6,4,1460,450,1,993,49,33580,0,65700,0,0,1,0,0
i,0x00000000,1716938967.090099,172.16.3.2,5101,172.16.1.2,56267,10499,14480,0,65728,65728,6,6,4,1460,450,1,992,49,33580,0,65700,0,0,1,0,0
o,0x00000000,1716938967.090104,172.16.3.2,5101,172.16.1.2,56267,10499,14480,0,65728,65728,6,6,4,1460,450,1,993,49,33580,0,65700,0,0,1,0,0
i,0x00000000,1716938967.170551,172.16.3.2,5101,172.16.1.2,56267,10499,14480,0,65728,65728,6,6,4,1460,450,1,992,49,33580,0,65700,0,0,1,0,0
o,0x00000000,1716938967.170560,172.16.3.2,5101,172.16.1.2,56267,10499,14480,0,65728,65728,6,6,4,1460,450,1,993,49,33580,0,65700,0,0,1,0,0
i,0x00000000,1716938967.180973,172.16.3.2,5101,172.16.1.2,56267,10499,14480,0,65728,65728,6,6,4,1460,450,1,992,49,33580,0,65700,0,0,1,0,0
o,0x00000000,1716938967.180978,172.16.3.2,5101,172.16.1.2,56267,10499,14480,0,65728,65728,6,6,4,1460,450,1,993,49,33580,0,65700,0,0,1,0,0
i,0x00000000,1716938967.251096,172.16.3.2,5101,172.16.1.2,56267,10499,14480,0,65728,65728,6,6,4,1460,450,1,992,49,33580,0,65700,0,0,1,0,0
o,0x00000000,1716938967.251110,172.16.3.2,5101,172.16.1.2,56267,10499,14480,0,65728,65728,6,6,4,1460,450,1,993,49,33580,0,65700,1448,0,1,0,0
i,0x00000000,1716938967.271601,172.16.3.2,5101,172.16.1.2,56267,10499,14480,0,65728,65728,6,6,4,1460,450,1,992,49,33580,0,65700,0,0,1,0,0
o,0x00000000,1716938967.271613,172.16.3.2,5101,172.16.1.2,56267,10499,14480,0,65728,65700,6,6,4,1460,450,1,993,49,33580,0,65700,1448,0,1,0,0
i,0x00000000,1716938967.280093,172.16.3.2,5101,172.16.1.2,56267,10499,14480,0,65728,65700,6,6,4,1460,450,1,992,49,33580,0,65700,0,0,1,0,0
o,0x00000000,1716938967.280102,172.16.3.2,5101,172.16.1.2,56267,10499,14480,0,65728,65700,6,6,4,1460,450,1,993,49,33580,0,65700,1448,0,1,0,0
i,0x00000000,1716938967.290534,172.16.3.2,5101,172.16.1.2,56267,10499,14480,0,65728,65700,6,6,4,1460,450,1,992,49,33580,0,65700,0,0,1,0,0
o,0x00000000,1716938967.290541,172.16.3.2,5101,172.16.1.2,56267,10499,14480,0,65728,65700,6,6,4,1460,450,1,993,49,33580,0,65700,1448,0,1,0,0
i,0x00000000,1716938967.301032,172.16.3.2,5101,172.16.1.2,56267,10499,14480,0,65728,65700,6,6,4,1460,450,1,992,49,33580,0,65700,0,0,1,0,0
o,0x00000000,1716938967.301038,172.16.3.2,5101,172.16.1.2,56267,10499,14480,0,65728,65700,6,6,4,1460,450,1,993,49,33580,0,65700,1448,0,1,0,0
i,0x00000000,1716938967.310448,172.16.3.2,5101,172.16.1.2,56267,10499,14480,0,65728,65700,6,6,4,1460,450,1,992,49,33580,0,65700,0,0,1,0,0
o,0x00000000,1716938967.310454,172.16.3.2,5101,172.16.1.2,56267,10499,14480,0,65728,65700,6,6,4,1460,450,1,993,49,33580,0,65700,1448,0,1,0,0
i,0x00000000,1716938967.329766,172.16.3.2,5101,172.16.1.2,56267,10499,14480,0,65728,65700,6,6,4,1460,450,1,992,49,33580,0,65700,0,0,1,0,0
o,0x00000000,1716938967.329774,172.16.3.2,5101,172.16.1.2,56267,10499,14480,0,65728,65700,6,6,4,1460,450,1,993,49,33580,0,65700,8688,0,0,0,0
i,0x00000000,1716938967.410111,172.16.3.2,5101,172.16.1.2,56267,10499,14480,0,65728,65700,6,6,4,1460,450,1,992,49,33580,0,65700,0,0,0,0,0
i,0x00000000,1716938967.420465,172.16.3.2,5101,172.16.1.2,56267,10499,14480,0,65728,65700,6,6,4,1460,450,1,992,49,33580,0,65700,0,0,0,0,0
o,0x00000000,1716938967.420476,172.16.3.2,5101,172.16.1.2,56267,10499,14480,0,65728,65700,6,6,4,1460,450,1,993,49,33580,0,65700,1448,0,0,0,0
i,0x00000000,1716938967.460154,172.16.3.2,5101,172.16.1.2,56267,10499,14480,0,65728,65700,6,6,4,1460,450,1,992,49,33580,0,65700,0,0,0,0,0
i,0x00000000,1716938967.470474,172.16.3.2,5101,172.16.1.2,56267,10499,14480,0,65728,65700,6,6,4,1460,450,1,992,49,33580,0,65700,0,0,0,0,0
o,0x00000000,1716938967.470484,172.16.3.2,5101,172.16.1.2,56267,10499,14480,0,65728,65700,6,6,4,1460,450,1,993,49,33580,0,65700,1448,0,0,0,0
i,0x00000000,1716938967.490435,172.16.3.2,5101,172.16.1.2,56267,10499,14480,0,65728,65700,6,6,4,1460,450,1,992,49,33580,0,65700,0,0,0,0,0
i,0x00000000,1716938967.499875,172.16.3.2,5101,172.16.1.2,56267,10499,14480,0,65728,65700,6,6,4,1460,450,1,992,49,33580,0,65700,0,0,0,0,0
o,0x00000000,1716938967.499881,172.16.3.2,5101,172.16.1.2,56267,10499,14480,0,65728,65700,6,6,4,1460,450,1,993,49,33580,0,65700,1448,0,0,0,0
i,0x00000000,1716938967.520706,172.16.3.2,5101,172.16.1.2,56267,10499,14480,0,65728,65700,6,6,4,1460,450,1,992,49,33580,0,65700,0,0,0,0,0
o,0x00000000,1716938967.558134,172.16.3.2,5101,172.16.1.2,56267,10499,14480,0,65728,65700,6,6,4,1460,450,1,993,49,33580,0,65700,0,0,0,0,0
i,0x00000000,1716938967.569933,172.16.3.2,5101,172.16.1.2,56267,10499,14480,0,65728,65700,6,6,4,1460,450,1,992,49,33580,0,65700,0,0,0,0,0
i,0x00000000,1716938967.579842,172.16.3.2,5101,172.16.1.2,56267,10499,14480,0,65728,65700,6,6,4,1460,450,1,992,49,33580,0,65700,0,0,0,0,0
o,0x00000000,1716938967.579851,172.16.3.2,5101,172.16.1.2,56267,10499,14480,0,65728,65700,6,6,4,1460,450,1,993,49,33580,0,65700,1448,0,0,0,0
i,0x00000000,1716938967.610691,172.16.3.2,5101,172.16.1.2,56267,10499,14480,0,65728,65700,6,6,4,1460,450,1,992,49,33580,0,65700,0,0,0,0,0
o,0x00000000,1716938967.647420,172.16.3.2,5101,172.16.1.2,56267,10499,14480,0,65728,65700,6,6,4,1460,450,1,993,49,33580,0,65700,0,0,0,0,0
i,0x00000000,1716938967.649803,172.16.3.2,5101,172.16.1.2,56267,10499,14480,0,65728,65700,6,6,4,1460,450,1,992,49,33580,0,65700,0,0,0,0,0
i,0x00000000,1716938967.660037,172.16.3.2,5101,172.16.1.2,56267,10499,14480,0,65728,65700,6,6,4,1460,450,1,992,49,33580,0,65700,0,0,0,0,0
o,0x00000000,1716938967.660053,172.16.3.2,5101,172.16.1.2,56267,10499,14480,0,65728,65700,6,6,4,1460,450,1,993,49,33580,0,65700,1448,0,0,0,0
i,0x00000000,1716938967.690102,172.16.3.2,5101,172.16.1.2,56267,10499,14480,0,65728,65700,6,6,4,1460,450,1,992,49,33580,0,65700,0,0,0,0,0
i,0x00000000,1716938967.700419,172.16.3.2,5101,172.16.1.2,56267,10499,14480,0,65728,65700,6,6,4,1460,450,1,992,49,33580,0,65700,0,0,0,0,0
o,0x00000000,1716938967.700430,172.16.3.2,5101,172.16.1.2,56267,10499,14480,0,65728,65700,6,6,4,1460,450,1,993,49,33580,0,65700,1448,0,0,0,0
i,0x00000000,1716938967.739432,172.16.3.2,5101,172.16.1.2,56267,10499,14480,0,65728,65700,6,6,4,1460,450,1,992,49,33580,0,65700,0,0,0,0,0
i,0x00000000,1716938967.749920,172.16.3.2,5101,172.16.1.2,56267,10499,14480,0,65728,65700,6,6,4,1460,450,1,992,49,33580,0,65700,0,0,0,0,0
o,0x00000000,1716938967.749931,172.16.3.2,5101,172.16.1.2,56267,10499,14480,0,65728,65700,6,6,4,1460,450,1,993,49,33580,0,65700,1448,0,0,0,0
i,0x00000000,1716938967.789649,172.16.3.2,5101,172.16.1.2,56267,10499,14480,0,65728,65700,6,6,4,1460,450,1,992,49,33580,0,65700,0,0,0,0,0
i,0x00000000,1716938967.819797,172.16.3.2,5101,172.16.1.2,56267,10499,14480,0,65728,65700,6,6,4,1460,450,1,992,49,33580,0,65700,0,0,0,0,0
o,0x00000000,1716938967.819810,172.16.3.2,5101,172.16.1.2,56267,10499,14480,0,65728,65700,6,6,4,1460,450,1,993,49,33580,0,65700,1448,0,0,0,0
i,0x00000000,1716938967.860665,172.16.3.2,5101,172.16.1.2,56267,10499,14480,0,65728,65700,6,6,4,1460,450,1,992,49,33580,0,65700,0,0,0,0,0
i,0x00000000,1716938967.869291,172.16.3.2,5101,172.16.1.2,56267,10499,14480,0,65728,65700,6,6,4,1460,450,1,992,49,33580,0,65700,0,0,0,0,0
o,0x00000000,1716938967.869301,172.16.3.2,5101,172.16.1.2,56267,10499,14480,0,65728,65700,6,6,4,1460,450,1,993,49,33580,0,65700,1448,0,0,0,0
i,0x00000000,1716938967.879886,172.16.3.2,5101,172.16.1.2,56267,10499,14480,0,65728,65700,6,6,4,1460,450,1,992,49,33580,0,65700,0,0,0,0,0
o,0x00000000,1716938967.918049,172.16.3.2,5101,172.16.1.2,56267,10499,14480,0,65728,65700,6,6,4,1460,450,1,993,49,33580,0,65700,0,0,0,0,0
i,0x00000000,1716938967.918854,172.16.3.2,5101,172.16.1.2,56267,10499,14480,0,65728,65700,6,6,4,1460,450,1,992,49,33580,0,65700,0,0,0,0,0
i,0x00000000,1716938967.928889,172.16.3.2,5101,172.16.1.2,56267,10499,14480,0,65728,65700,6,6,4,1460,450,1,992,49,33580,0,65700,0,0,0,0,0
o,0x00000000,1716938967.928894,172.16.3.2,5101,172.16.1.2,56267,10499,14480,0,65728,65700,6,6,4,1460,450,1,993,49,33580,0,65700,1448,0,0,0,0
i,0x00000000,1716938967.969530,172.16.3.2,5101,172.16.1.2,56267,10499,14480,0,65728,65700,6,6,4,1460,450,1,992,49,33580,0,65700,0,0,0,0,0
i,0x00000000,1716938967.979991,172.16.3.2,5101,172.16.1.2,56267,10499,14480,0,65728,65700,6,6,4,1460,450,1,992,49,33580,0,65700,0,0,0,0,0
o,0x00000000,1716938967.979998,172.16.3.2,5101,172.16.1.2,56267,10499,14480,0,65728,65700,6,6,4,1460,450,1,993,49,33580,0,65700,1448,0,0,0,0
i,0x00000000,1716938968.029127,172.16.3.2,5101,172.16.1.2,56267,10499,14480,0,65728,65700,6,6,4,1460,450,1,992,49,33580,0,65700,0,0,0,0,0
i,0x00000000,1716938968.039493,172.16.3.2,5101,172.16.1.2,56267,10499,14480,0,65728,65700,6,6,4,1460,450,1,992,49,33580,0,65700,0,0,0,0,0
o,0x00000000,1716938968.039501,172.16.3.2,5101,172.16.1.2,56267,10499,14480,0,65728,65700,6,6,4,1460,450,1,993,49,33580,0,65700,1448,0,0,0,0
o,0x00000000,1716938968.058102,10.0.2.15,22,10.0.2.2,62180,1073725440,14600,0,65535,65700,0,0,4,1460,1,0,4,24,33580,108,65700,0,0,0,0,0
i,0x00000000,1716938968.058863,10.0.2.15,22,10.0.2.2,62180,1073725440,14600,0,65535,65700,0,0,4,1460,1,0,4,24,33580,108,65700,0,108,0,0,0
i,0x00000000,1716938968.069362,172.16.3.2,5101,172.16.1.2,56267,10499,14480,0,65728,65700,6,6,4,1460,450,1,992,49,33580,0,65700,0,0,0,0,0
i,0x00000000,1716938968.100037,172.16.3.2,5101,172.16.1.2,56267,10499,14480,0,65728,65700,6,6,4,1460,450,1,992,49,33580,0,65700,0,0,0,0,0
o,0x00000000,1716938968.100057,172.16.3.2,5101,172.16.1.2,56267,10499,14480,0,65728,65700,6,6,4,1460,450,1,993,49,33580,0,65700,1448,0,0,0,0
i,0x00000000,1716938968.119099,172.16.3.2,5101,172.16.1.2,56267,10499,14480,0,65728,65700,6,6,4,1460,450,1,992,49,33580,0,65700,0,0,0,0,0
i,0x00000000,1716938968.149645,172.16.3.2,5101,172.16.1.2,56267,10499,14480,0,65728,65700,6,6,4,1460,450,1,992,49,33580,0,65700,0,0,0,0,0
o,0x00000000,1716938968.149665,172.16.3.2,5101,172.16.1.2,56267,10499,14480,0,65728,65700,6,6,4,1460,450,1,993,49,33580,0,65700,1448,0,0,0,0
i,0x00000000,1716938968.159777,172.16.3.2,5101,172.16.1.2,56267,10499,14480,0,65728,65700,6,6,4,1460,450,1,992,49,33580,0,65700,0,0,0,0,0
i,0x00000000,1716938968.179646,172.16.3.2,5101,172.16.1.2,56267,10499,14480,0,65728,65700,6,6,4,1460,450,1,992,49,33580,0,65700,0,0,0,0,0
o,0x00000000,1716938968.179666,172.16.3.2,5101,172.16.1.2,56267,10499,14480,0,65728,65700,6,6,4,1460,450,1,993,49,33580,0,65700,1448,0,0,0,0
i,0x00000000,1716938968.208841,172.16.3.2,5101,172.16.1.2,56267,10499,14480,0,65728,65700,6,6,4,1460,450,1,992,49,33580,0,65700,0,0,0,0,0
i,0x00000000,1716938968.228745,172.16.3.2,5101,172.16.1.2,56267,10499,14480,0,65728,65700,6,6,4,1460,450,1,992,49,33580,0,65700,0,0,0,0,0
o,0x00000000,1716938968.228767,172.16.3.2,5101,172.16.1.2,56267,10499,14480,0,65728,65700,6,6,4,1460,450,1,993,49,33580,0,65700,1448,0,0,0,0
i,0x00000000,1716938968.279729,172.16.3.2,5101,172.16.1.2,56267,10499,14480,0,65728,65700,6,6,4,1460,450,1,992,49,33580,0,65700,0,0,0,0,0
i,0x00000000,1716938968.289120,172.16.3.2,5101,172.16.1.2,56267,10499,14480,0,65728,65700,6,6,4,1460,450,1,992,49,33580,0,65700,0,0,0,0,0
o,0x00000000,1716938968.289132,172.16.3.2,5101,172.16.1.2,56267,10499,14480,0,65728,65700,6,6,4,1460,450,1,993,49,33580,0,65700,1448,0,0,0,0
i,0x00000000,1716938968.318455,172.16.3.2,5101,172.16.1.2,56267,10499,14480,0,65728,65700,6,6,4,1460,450,1,992,49,33580,0,65700,0,0,0,0,0
o,0x00000000,1716938968.357014,172.16.3.2,5101,172.16.1.2,56267,10499,14480,0,65728,65700,6,6,4,1460,450,1,993,49,33580,0,65700,0,0,0,0,0
i,0x00000000,1716938968.360043,172.16.3.2,5101,172.16.1.2,56267,10499,14480,0,65728,65700,6,6,4,1460,450,1,992,49,33580,0,65700,0,0,0,0,0
i,0x00000000,1716938968.368922,172.16.3.2,5101,172.16.1.2,56267,10499,14480,0,65728,65700,6,6,4,1460,450,1,992,49,33580,0,65700,0,0,0,0,0
o,0x00000000,1716938968.368934,172.16.3.2,5101,172.16.1.2,56267,10499,14480,0,65728,65700,6,6,4,1460,450,1,993,49,33580,0,65700,1448,0,0,0,0
i,0x00000000,1716938968.408375,172.16.3.2,5101,172.16.1.2,56267,10499,14480,0,65728,65700,6,6,4,1460,450,1,992,49,33580,0,65700,0,0,0,0,0
i,0x00000000,1716938968.418789,172.16.3.2,5101,172.16.1.2,56267,10499,14480,0,65728,65700,6,6,4,1460,450,1,992,49,33580,0,65700,0,0,0,0,0
o,0x00000000,1716938968.418795,172.16.3.2,5101,172.16.1.2,56267,10499,14480,0,65728,65700,6,6,4,1460,450,1,993,49,33580,0,65700,1448,0,0,0,0
i,0x00000000,1716938968.429297,172.16.3.2,5101,172.16.1.2,56267,10499,14480,0,65728,65700,6,6,4,1460,450,1,992,49,33580,0,65700,0,0,0,0,0
i,0x00000000,1716938968.449082,172.16.3.2,5101,172.16.1.2,56267,10499,14480,0,65728,65700,6,6,4,1460,450,1,992,49,33580,0,65700,0,0,0,0,0
o,0x00000000,1716938968.449089,172.16.3.2,5101,172.16.1.2,56267,10499,14480,0,65728,65700,6,6,4,1460,450,1,993,49,33580,0,65700,1448,0,0,0,0
i,0x00000000,1716938968.478278,172.16.3.2,5101,172.16.1.2,56267,10499,14480,0,65728,65700,6,6,4,1460,450,1,992,49,33580,0,65700,0,0,0,0,0
i,0x00000000,1716938968.498067,172.16.3.2,5101,172.16.1.2,56267,10499,14480,0,65728,65700,6,6,4,1460,450,1,992,49,33580,0,65700,0,0,0,0,0
o,0x00000000,1716938968.498074,172.16.3.2,5101,172.16.1.2,56267,10499,14480,0,65728,65700,6,6,4,1460,450,1,993,49,33580,0,65700,1448,0,0,0,0
i,0x00000000,1716938968.558750,172.16.3.2,5101,172.16.1.2,56267,10499,14480,0,65728,65700,6,6,4,1460,450,1,992,49,33580,0,65700,0,0,0,0,0
i,0x00000000,1716938968.568228,172.16.3.2,5101,172.16.1.2,56267,10499,14480,0,65728,65700,6,6,4,1460,450,1,992,49,33580,0,65700,0,0,0,0,0
o,0x00000000,1716938968.568243,172.16.3.2,5101,172.16.1.2,56267,10499,14480,0,65728,65700,6,6,4,1460,450,1,993,49,33580,0,65700,1448,0,0,0,0
i,0x00000000,1716938968.599348,172.16.3.2,5101,172.16.1.2,56267,10499,14480,0,65728,65700,6,6,4,1460,450,1,992,49,33580,0,65700,0,0,0,0,0
o,0x00000000,1716938968.637059,172.16.3.2,5101,172.16.1.2,56267,10499,14480,0,65728,65700,6,6,4,1460,450,1,993,49,33580,0,65700,0,0,0,0,0
i,0x00000000,1716938968.638009,172.16.3.2,5101,172.16.1.2,56267,10499,14480,0,65728,65700,6,6,4,1460,450,1,992,49,33580,0,65700,0,0,0,0,0
i,0x00000000,1716938968.648906,172.16.3.2,5101,172.16.1.2,56267,10499,14480,0,65728,65700,6,6,4,1460,450,1,992,49,33580,0,65700,0,0,0,0,0
o,0x00000000,1716938968.648912,172.16.3.2,5101,172.16.1.2,56267,10499,14480,0,65728,65700,6,6,4,1460,450,1,993,49,33580,0,65700,1448,0,0,0,0
i,0x00000000,1716938968.668867,172.16.3.2,5101,172.16.1.2,56267,10499,14480,0,65728,65700,6,6,4,1460,450,1,992,49,33580,0,65700,0,0,0,0,0
i,0x00000000,1716938968.698919,172.16.3.2,5101,172.16.1.2,56267,10499,14480,0,65728,65700,6,6,4,1460,450,1,992,49,33580,0,65700,0,0,0,0,0
o,0x00000000,1716938968.698926,172.16.3.2,5101,172.16.1.2,56267,10499,14480,0,65728,65700,6,6,4,1460,450,1,993,49,33580,0,65700,1448,0,0,0,0
i,0x00000000,1716938968.708303,172.16.3.2,5101,172.16.1.2,56267,10499,14480,0,65728,65700,6,6,4,1460,450,1,992,49,33580,0,65700,0,0,0,0,0
i,0x00000000,1716938968.728239,172.16.3.2,5101,172.16.1.2,56267,10499,14480,0,65728,65700,6,6,4,1460,450,1,992,49,33580,0,65700,0,0,0,0,0
o,0x00000000,1716938968.728245,172.16.3.2,5101,172.16.1.2,56267,10499,14480,0,65728,65700,6,6,4,1460,450,1,993,49,33580,0,65700,1448,0,0,0,0
i,0x00000000,1716938968.738737,172.16.3.2,5101,172.16.1.2,56267,10499,14480,0,65728,65700,6,6,4,1460,450,1,992,49,33580,0,65700,0,0,0,0,0
o,0x00000000,1716938968.778346,172.16.3.2,5101,172.16.1.2,56267,10499,14480,0,65728,65700,6,6,4,1460,450,1,993,49,33580,0,65700,0,0,0,0,0
i,0x00000000,1716938968.778503,172.16.3.2,5101,172.16.1.2,56267,10499,14480,0,65728,65700,6,6,4,1460,450,1,992,49,33580,0,65700,0,0,0,0,0
i,0x00000000,1716938968.788884,172.16.3.2,5101,172.16.1.2,56267,10499,14480,0,65728,65700,6,6,4,1460,450,1,992,49,33580,0,65700,0,0,0,0,0
o,0x00000000,1716938968.788906,172.16.3.2,5101,172.16.1.2,56267,10499,14480,0,65728,65700,6,6,4,1460,450,1,993,49,33580,0,65700,1448,0,0,0,0
i,0x00000000,1716938968.839132,172.16.3.2,5101,172.16.1.2,56267,10499,14480,0,65728,65700,6,6,4,1460,450,1,992,49,33580,0,65700,0,0,0,0,0
i,0x00000000,1716938968.847678,172.16.3.2,5101,172.16.1.2,56267,10499,14480,0,65728,65700,6,6,4,1460,450,1,992,49,33580,0,65700,0,0,0,0,0
o,0x00000000,1716938968.847685,172.16.3.2,5101,172.16.1.2,56267,10499,14480,0,65728,65700,6,6,4,1460,450,1,993,49,33580,0,65700,1448,0,0,0,0
i,0x00000000,1716938968.918616,172.16.3.2,5101,172.16.1.2,56267,10499,14480,0,65728,65700,6,6,4,1460,450,1,992,49,33580,0,65700,0,0,0,0,0
i,0x00000000,1716938968.937732,172.16.3.2,5101,172.16.1.2,56267,10499,14480,0,65728,65700,6,6,4,1460,450,1,992,49,33580,0,65700,0,0,0,0,0
o,0x00000000,1716938968.937749,172.16.3.2,5101,172.16.1.2,56267,10499,14480,0,65728,65700,6,6,4,1460,450,1,993,49,33580,0,65700,1448,0,0,0,0
i,0x00000000,1716938968.948838,172.16.3.2,5101,172.16.1.2,56267,10499,14480,0,65728,65700,6,6,4,1460,450,1,992,49,33580,0,65700,0,0,0,0,0
i,0x00000000,1716938968.968618,172.16.3.2,5101,172.16.1.2,56267,10499,14480,0,65728,65700,6,6,4,1460,450,1,992,49,33580,0,65700,0,0,0,0,0
o,0x00000000,1716938968.968641,172.16.3.2,5101,172.16.1.2,56267,10499,14480,0,65728,65700,6,6,4,1460,450,1,993,49,33580,0,65700,1448,0,0,0,0
i,0x00000000,1716938969.007411,172.16.3.2,5101,172.16.1.2,56267,10499,14480,0,65728,65700,6,6,4,1460,450,1,992,49,33580,0,65700,0,0,0,0,0
i,0x00000000,1716938969.018854,172.16.3.2,5101,172.16.1.2,56267,10499,14480,0,65728,65700,6,6,4,1460,450,1,992,49,33580,0,65700,0,0,0,0,0
o,0x00000000,1716938969.018870,172.16.3.2,5101,172.16.1.2,56267,10499,14480,0,65728,65700,6,6,4,1460,450,1,993,49,33580,0,65700,1448,0,0,0,0
i,0x00000000,1716938969.028235,172.16.3.2,5101,172.16.1.2,56267,10499,14480,0,65728,65700,6,6,4,1460,450,1,992,49,33580,0,65700,0,0,0,0,0
i,0x00000000,1716938969.038540,172.16.3.2,5101,172.16.1.2,56267,10499,14480,0,65728,65700,6,6,4,1460,450,1,992,49,33580,0,65700,0,0,0,0,0
o,0x00000000,1716938969.038550,172.16.3.2,5101,172.16.1.2,56267,10499,14480,0,65728,65700,6,6,4,1460,450,1,993,49,33580,0,65700,1448,0,0,0,0
o,0x00000000,1716938969.057032,10.0.2.15,22,10.0.2.2,62180,1073725440,14600,0,65535,65700,0,0,4,1460,1,0,4,24,33580,108,65700,0,0,0,0,0
i,0x00000000,1716938969.057669,10.0.2.15,22,10.0.2.2,62180,1073725440,14600,0,65535,65700,0,0,4,1460,1,0,4,24,33580,108,65700,0,108,0,0,0
i,0x00000000,1716938969.078327,172.16.3.2,5101,172.16.1.2,56267,10499,14480,0,65728,65700,6,6,4,1460,450,1,992,49,33580,0,65700,0,0,0,0,0
i,0x00000000,1716938969.088798,172.16.3.2,5101,172.16.1.2,56267,10499,14480,0,65728,65700,6,6,4,1460,450,1,992,49,33580,0,65700,0,0,0,0,0
o,0x00000000,1716938969.088808,172.16.3.2,5101,172.16.1.2,56267,10499,14480,0,65728,65700,6,6,4,1460,450,1,993,49,33580,0,65700,1448,0,0,0,0
i,0x00000000,1716938969.107971,172.16.3.2,5101,172.16.1.2,56267,10499,14480,0,65728,65700,6,6,4,1460,450,1,992,49,33580,0,65700,0,0,0,0,0
o,0x00000000,1716938969.147231,172.16.3.2,5101,172.16.1.2,56267,10499,14480,0,65728,65700,6,6,4,1460,450,1,993,49,33580,0,65700,0,0,0,0,0
i,0x00000000,1716938969.168314,172.16.3.2,5101,172.16.1.2,56267,10499,14480,0,65728,65700,6,6,4,1460,450,1,992,49,33580,0,65700,0,0,0,0,0
i,0x00000000,1716938969.177820,172.16.3.2,5101,172.16.1.2,56267,10499,14480,0,65728,65700,6,6,4,1460,450,1,992,49,33580,0,65700,0,0,0,0,0
o,0x00000000,1716938969.177830,172.16.3.2,5101,172.16.1.2,56267,10499,14480,0,65728,65700,6,6,4,1460,450,1,993,49,33580,0,65700,1448,0,0,0,0
i,0x00000000,1716938969.248032,172.16.3.2,5101,172.16.1.2,56267,10499,14480,0,65728,65700,6,6,4,1460,450,1,992,49,33580,0,65700,0,0,0,0,0
i,0x00000000,1716938969.267755,172.16.3.2,5101,172.16.1.2,56267,10499,14480,0,65728,65700,6,6,4,1460,450,1,992,49,33580,0,65700,0,0,0,0,0
o,0x00000000,1716938969.267789,172.16.3.2,5101,172.16.1.2,56267,10499,14480,0,65728,65700,6,6,4,1460,450,1,993,49,33580,0,65700,1448,0,0,0,0
i,0x00000000,1716938969.277943,172.16.3.2,5101,172.16.1.2,56267,10499,14480,0,65728,65700,6,6,4,1460,450,1,992,49,33580,0,65700,0,0,0,0,0
i,0x00000000,1716938969.288330,172.16.3.2,5101,172.16.1.2,56267,10499,14480,0,65728,65700,6,6,4,1460,450,1,992,49,33580,0,65700,0,0,0,0,0
o,0x00000000,1716938969.288336,172.16.3.2,5101,172.16.1.2,56267,10499,14480,0,65728,65700,6,6,4,1460,450,1,993,49,33580,0,65700,1448,0,0,0,0
i,0x00000000,1716938969.328285,172.16.3.2,5101,172.16.1.2,56267,10499,14480,0,65728,65700,6,6,4,1460,450,1,992,49,33580,0,65700,0,0,0,0,0
i,0x00000000,1716938969.338746,172.16.3.2,5101,172.16.1.2,56267,10499,14480,0,65728,65700,6,6,4,1460,450,1,992,49,33580,0,65700,0,0,0,0,0
o,0x00000000,1716938969.338753,172.16.3.2,5101,172.16.1.2,56267,10499,14480,0,65728,65700,6,6,4,1460,450,1,993,49,33580,0,65700,1448,0,0,0,0
i,0x00000000,1716938969.347308,172.16.3.2,5101,172.16.1.2,56267,10499,14480,0,65728,65700,6,6,4,1460,450,1,992,49,33580,0,65700,0,0,0,0,0
i,0x00000000,1716938969.368145,172.16.3.2,5101,172.16.1.2,56267,10499,14480,0,65728,65700,6,6,4,1460,450,1,992,49,33580,0,65700,0,0,0,0,0
o,0x00000000,1716938969.368155,172.16.3.2,5101,172.16.1.2,56267,10499,14480,0,65728,65700,6,6,4,1460,450,1,993,49,33580,0,65700,1448,0,0,0,0
i,0x00000000,1716938969.387152,172.16.3.2,5101,172.16.1.2,56267,10499,14480,0,65728,65700,6,6,4,1460,450,1,992,49,33580,0,65700,0,0,0,0,0
i,0x00000000,1716938969.407772,172.16.3.2,5101,172.16.1.2,56267,10499,14480,0,65728,65700,6,6,4,1460,450,1,992,49,33580,0,65700,0,0,0,0,0
o,0x00000000,1716938969.407782,172.16.3.2,5101,172.16.1.2,56267,10499,14480,0,65728,65700,6,6,4,1460,450,1,993,49,33580,0,65700,1448,0,0,0,0
i,0x00000000,1716938969.418225,172.16.3.2,5101,172.16.1.2,56267,10499,14480,0,65728,65700,6,6,4,1460,450,1,992,49,33580,0,65700,0,0,0,0,0
i,0x00000000,1716938969.447691,172.16.3.2,5101,172.16.1.2,56267,10499,14480,0,65728,65700,6,6,4,1460,450,1,992,49,33580,0,65700,0,0,0,0,0
o,0x00000000,1716938969.447698,172.16.3.2,5101,172.16.1.2,56267,10499,14480,0,65728,65700,6,6,4,1460,450,1,993,49,33580,0,65700,1448,0,0,0,0
i,0x00000000,1716938969.487220,172.16.3.2,5101,172.16.1.2,56267,10499,14480,0,65728,65700,6,6,4,1460,450,1,992,49,33580,0,65700,0,0,0,0,0
o,0x00000000,1716938969.487230,172.16.3.2,5101,172.16.1.2,56267,10499,14480,0,65728,65700,6,6,4,1460,450,1,993,49,33580,0,65700,0,0,1,0,0
i,0x00000000,1716938969.577851,172.16.3.2,5101,172.16.1.2,56267,10499,14480,0,65728,65700,6,6,4,1460,450,1,992,49,33580,0,65700,0,0,1,0,0
o,0x00000000,1716938969.577886,172.16.3.2,5101,172.16.1.2,56267,10499,14480,0,65728,65728,6,6,4,1460,450,1,993,49,33580,0,65700,0,0,2,0,0
i,0x00000000,1716938969.597222,172.16.3.2,5101,172.16.1.2,56267,10499,14480,0,65728,65728,6,6,4,1460,450,1,992,49,33580,0,65700,0,0,2,0,0
o,0x00000000,1716938969.597239,172.16.3.2,5101,172.16.1.2,56267,10499,14480,0,65728,65728,6,6,4,1460,450,1,993,49,33580,0,65700,0,0,2,0,0
i,0x00000000,1716938969.616956,172.16.3.2,5101,172.16.1.2,56267,10499,14480,0,65728,65728,6,6,4,1460,450,1,992,49,33580,0,65700,0,0,2,0,0
o,0x00000000,1716938969.616972,172.16.3.2,5101,172.16.1.2,56267,10499,14480,0,65728,65728,6,6,4,1460,450,1,993,49,33580,0,65700,0,0,2,0,0
i,0x00000000,1716938969.626938,172.16.3.2,5101,172.16.1.2,56267,10499,14480,0,65728,65728,6,6,4,1460,450,1,992,49,33580,0,65700,0,0,2,0,0
o,0x00000000,1716938969.626945,172.16.3.2,5101,172.16.1.2,56267,10499,14480,0,65728,65728,6,6,4,1460,450,1,993,49,33580,0,65700,0,0,2,0,0
i,0x00000000,1716938969.636871,172.16.3.2,5101,172.16.1.2,56267,10499,14480,0,65728,65728,6,6,4,1460,450,1,992,49,33580,0,65700,0,0,2,0,0
o,0x00000000,1716938969.636876,172.16.3.2,5101,172.16.1.2,56267,10499,14480,0,65728,65728,6,6,4,1460,450,1,993,49,33580,0,65700,0,0,3,0,0
i,0x00000000,1716938969.656799,172.16.3.2,5101,172.16.1.2,56267,10499,14480,0,65728,65728,6,6,4,1460,450,1,992,49,33580,0,65700,0,0,3,0,0
o,0x00000000,1716938969.656805,172.16.3.2,5101,172.16.1.2,56267,10499,14480,0,65728,65728,6,6,4,1460,450,1,993,49,33580,0,65700,0,0,3,0,0
i,0x00000000,1716938969.676574,172.16.3.2,5101,172.16.1.2,56267,10499,14480,0,65728,65728,6,6,4,1460,450,1,992,49,33580,0,65700,0,0,3,0,0
o,0x00000000,1716938969.676580,172.16.3.2,5101,172.16.1.2,56267,10499,14480,0,65728,65728,6,6,4,1460,450,1,993,49,33580,0,65700,0,0,3,0,0
i,0x00000000,1716938969.697561,172.16.3.2,5101,172.16.1.2,56267,10499,14480,0,65728,65728,6,6,4,1460,450,1,992,49,33580,0,65700,0,0,3,0,0
o,0x00000000,1716938969.697566,172.16.3.2,5101,172.16.1.2,56267,10499,14480,0,65728,65728,6,6,4,1460,450,1,993,49,33580,0,65700,0,0,3,0,0
i,0x00000000,1716938969.726748,172.16.3.2,5101,172.16.1.2,56267,10499,14480,0,65728,65728,6,6,4,1460,450,1,992,49,33580,0,65700,0,0,3,0,0
o,0x00000000,1716938969.726789,172.16.3.2,5101,172.16.1.2,56267,10499,14480,0,65728,65728,6,6,4,1460,450,1,993,49,33580,0,65700,0,0,4,0,0
i,0x00000000,1716938969.748039,172.16.3.2,5101,172.16.1.2,56267,10499,14480,0,65728,65728,6,6,4,1460,450,1,992,49,33580,0,65700,0,0,4,0,0
o,0x00000000,1716938969.748062,172.16.3.2,5101,172.16.1.2,56267,10499,14480,0,65728,65728,6,6,4,1460,450,1,993,49,33580,0,65700,2896,0,3,0,0
i,0x00000000,1716938969.756990,172.16.3.2,5101,172.16.1.2,56267,10499,14480,0,65728,65728,6,6,4,1460,450,1,992,49,33580,0,65700,0,0,3,0,0
o,0x00000000,1716938969.756995,172.16.3.2,5101,172.16.1.2,56267,10499,14480,0,65728,65700,6,6,4,1460,450,1,993,49,33580,0,65700,0,0,3,0,0
i,0x00000000,1716938969.798694,172.16.3.2,5101,172.16.1.2,56267,10499,14480,0,65728,65700,6,6,4,1460,450,1,992,49,33580,0,65700,0,0,3,0,0
o,0x00000000,1716938969.798713,172.16.3.2,5101,172.16.1.2,56267,10499,14480,0,65728,65728,6,6,4,1460,450,1,993,49,33580,0,65700,1448,0,3,0,0
i,0x00000000,1716938969.807216,172.16.3.2,5101,172.16.1.2,56267,10499,14480,0,65728,65728,6,6,4,1460,450,1,992,49,33580,0,65700,0,0,3,0,0
o,0x00000000,1716938969.807225,172.16.3.2,5101,172.16.1.2,56267,10499,14480,0,65728,65700,6,6,4,1460,450,1,993,49,33580,0,65700,7240,0,2,0,0
i,0x00000000,1716938969.867163,172.16.3.2,5101,172.16.1.2,56267,10499,14480,0,65728,65700,6,6,4,1460,450,1,992,49,33580,0,65700,0,0,2,0,0
o,0x00000000,1716938969.867184,172.16.3.2,5101,172.16.1.2,56267,10499,14480,0,65728,65700,6,6,4,1460,450,1,993,49,33580,0,65700,1448,0,2,0,0
i,0x00000000,1716938969.887078,172.16.3.2,5101,172.16.1.2,56267,10499,14480,0,65728,65700,6,6,4,1460,450,1,992,49,33580,0,65700,0,0,2,0,0
o,0x00000000,1716938969.887096,172.16.3.2,5101,172.16.1.2,56267,10499,14480,0,65728,65700,6,6,4,1460,450,1,993,49,33580,0,65700,0,0,3,0,0
i,0x00000000,1716938969.897495,172.16.3.2,5101,172.16.1.2,56267,10499,14480,0,65728,65700,6,6,4,1460,450,1,992,49,33580,0,65700,0,0,3,0,0
o,0x00000000,1716938969.897505,172.16.3.2,5101,172.16.1.2,56267,10499,14480,0,65728,65728,6,6,4,1460,450,1,993,49,33580,0,65700,7240,0,2,0,0
i,0x00000000,1716938969.937418,172.16.3.2,5101,172.16.1.2,56267,10499,14480,0,65728,65728,6,6,4,1460,450,1,992,49,33580,0,65700,0,0,2,0,0
o,0x00000000,1716938969.937430,172.16.3.2,5101,172.16.1.2,56267,10499,14480,0,65728,65700,6,6,4,1460,450,1,993,49,33580,0,65700,2896,0,1,0,0
i,0x00000000,1716938969.946760,172.16.3.2,5101,172.16.1.2,56267,10499,14480,0,65728,65700,6,6,4,1460,450,1,992,49,33580,0,65700,0,0,1,0,0
o,0x00000000,1716938969.946764,172.16.3.2,5101,172.16.1.2,56267,10499,14480,0,65728,65700,6,6,4,1460,450,1,993,49,33580,0,65700,0,0,1,0,0
i,0x00000000,1716938969.957144,172.16.3.2,5101,172.16.1.2,56267,10499,14480,0,65728,65700,6,6,4,1460,450,1,992,49,33580,0,65700,0,0,1,0,0
o,0x00000000,1716938969.957151,172.16.3.2,5101,172.16.1.2,56267,10499,14480,0,65728,65728,6,6,4,1460,450,1,993,49,33580,0,65700,0,0,1,0,0
i,0x00000000,1716938970.026582,172.16.3.2,5101,172.16.1.2,56267,10499,14480,0,65728,65728,6,6,4,1460,450,1,992,49,33580,0,65700,0,0,1,0,0
o,0x00000000,1716938970.026595,172.16.3.2,5101,172.16.1.2,56267,10499,14480,0,65728,65728,6,6,4,1460,450,1,993,49,33580,0,65700,0,0,1,0,0
i,0x00000000,1716938970.036556,172.16.3.2,5101,172.16.1.2,56267,10499,14480,0,65728,65728,6,6,4,1460,450,1,992,49,33580,0,65700,0,0,1,0,0
o,0x00000000,1716938970.036566,172.16.3.2,5101,172.16.1.2,56267,10499,14480,0,65728,65728,6,6,4,1460,450,1,993,49,33580,0,65700,7240,0,0,0,0
i,0x00000000,1716938970.057274,172.16.3.2,5101,172.16.1.2,56267,10499,14480,0,65728,65728,6,6,4,1460,450,1,992,49,33580,0,65700,0,0,0,0,0
o,0x00000000,1716938970.057428,10.0.2.15,22,10.0.2.2,62180,1073725440,14600,0,65535,65700,0,0,4,1460,1,0,4,24,33580,108,65700,0,0,0,0,0
i,0x00000000,1716938970.058159,10.0.2.15,22,10.0.2.2,62180,1073725440,14600,0,65535,65700,0,0,4,1460,1,0,4,24,33580,108,65700,0,108,0,0,0
i,0x00000000,1716938970.067982,172.16.3.2,5101,172.16.1.2,56267,10499,14480,0,65728,65728,6,6,4,1460,450,1,992,49,33580,0,65700,0,0,0,0,0
o,0x00000000,1716938970.068014,172.16.3.2,5101,172.16.1.2,56267,10499,14480,0,65728,65728,6,6,4,1460,450,1,993,49,33580,0,65700,1448,0,0,0,0
i,0x00000000,1716938970.106699,172.16.3.2,5101,172.16.1.2,56267,10499,14480,0,65728,65728,6,6,4,1460,450,1,992,49,33580,0,65700,0,0,0,0,0
i,0x00000000,1716938970.116983,172.16.3.2,5101,172.16.1.2,56267,10499,14480,0,65728,65728,6,6,4,1460,450,1,992,49,33580,0,65700,0,0,0,0,0
o,0x00000000,1716938970.116992,172.16.3.2,5101,172.16.1.2,56267,10499,14480,0,65728,65728,6,6,4,1460,450,1,993,49,33580,0,65700,1448,0,0,0,0
i,0x00000000,1716938970.146467,172.16.3.2,5101,172.16.1.2,56267,10499,14480,0,65728,65728,6,6,4,1460,450,1,992,49,33580,0,65700,0,0,0,0,0
i,0x00000000,1716938970.166268,172.16.3.2,5101,172.16.1.2,56267,10499,14480,0,65728,65728,6,6,4,1460,450,1,992,49,33580,0,65700,0,0,0,0,0
o,0x00000000,1716938970.166282,172.16.3.2,5101,172.16.1.2,56267,10499,14480,0,65728,65728,6,6,4,1460,450,1,993,49,33580,0,65700,1448,0,0,0,0
i,0x00000000,1716938970.207015,172.16.3.2,5101,172.16.1.2,56267,10499,14480,0,65728,65728,6,6,4,1460,450,1,992,49,33580,0,65700,0,0,0,0,0
i,0x00000000,1716938970.216438,172.16.3.2,5101,172.16.1.2,56267,10499,14480,0,65728,65728,6,6,4,1460,450,1,992,49,33580,0,65700,0,0,0,0,0
o,0x00000000,1716938970.216448,172.16.3.2,5101,172.16.1.2,56267,10499,14480,0,65728,65728,6,6,4,1460,450,1,993,49,33580,0,65700,1448,0,0,0,0
i,0x00000000,1716938970.266007,172.16.3.2,5101,172.16.1.2,56267,10499,14480,0,65728,65728,6,6,4,1460,450,1,992,49,33580,0,65700,0,0,0,0,0
i,0x00000000,1716938970.276666,172.16.3.2,5101,172.16.1.2,56267,10499,14480,0,65728,65728,6,6,4,1460,450,1,992,49,33580,0,65700,0,0,0,0,0
o,0x00000000,1716938970.276678,172.16.3.2,5101,172.16.1.2,56267,10499,14480,0,65728,65728,6,6,4,1460,450,1,993,49,33580,0,65700,1448,0,0,0,0
i,0x00000000,1716938970.315946,172.16.3.2,5101,172.16.1.2,56267,10499,14480,0,65728,65728,6,6,4,1460,450,1,992,49,33580,0,65700,0,0,0,0,0
i,0x00000000,1716938970.326985,172.16.3.2,5101,172.16.1.2,56267,10499,14480,0,65728,65728,6,6,4,1460,450,1,992,49,33580,0,65700,0,0,0,0,0
o,0x00000000,1716938970.326994,172.16.3.2,5101,172.16.1.2,56267,10499,14480,0,65728,65728,6,6,4,1460,450,1,993,49,33580,0,65700,1448,0,0,0,0
i,0x00000000,1716938970.366326,172.16.3.2,5101,172.16.1.2,56267,10499,14480,0,65728,65728,6,6,4,1460,450,1,992,49,33580,0,65700,0,0,0,0,0
i,0x00000000,1716938970.376705,172.16.3.2,5101,172.16.1.2,56267,10499,14480,0,65728,65728,6,6,4,1460,450,1,992,49,33580,0,65700,0,0,0,0,0
o,0x00000000,1716938970.376718,172.16.3.2,5101,172.16.1.2,56267,10499,14480,0,65728,65728,6,6,4,1460,450,1,993,49,33580,0,65700,1448,0,0,0,0
i,0x00000000,1716938970.385917,172.16.3.2,5101,172.16.1.2,56267,10499,14480,0,65728,65728,6,6,4,1460,450,1,992,49,33580,0,65700,0,0,0,0,0
o,0x00000000,1716938970.417791,172.16.3.2,5101,172.16.1.2,56267,10499,14480,0,65728,65728,6,6,4,1460,450,1,993,49,33580,0,65700,0,0,0,0,0
i,0x00000000,1716938970.427142,172.16.3.2,5101,172.16.1.2,56267,10499,14480,0,65728,65728,6,6,4,1460,450,1,992,49,33580,0,65700,0,0,0,0,0
