enable_time_secs=1716937605	enable_time_usecs=547039	siftrver=1.2.4	hz=100	tcp_rtt_scale=32	sysname=FreeBSD	sysver=1301000	ipmode=4
o,0x00000000,1716937605.547071,10.0.2.15,22,10.0.2.2,58278,1073725440,17298,0,65535,65700,0,0,4,1460,1,0,4,23,33580,44,65700,0,0,0,0,0
o,0x00000000,1716937605.547167,10.0.2.15,22,10.0.2.2,58278,1073725440,17298,0,65535,65700,0,0,4,1460,1,0,4,23,33580,80,65700,0,44,0,0,0
i,0x00000000,1716937605.547566,10.0.2.15,22,10.0.2.2,58278,1073725440,17298,0,65535,65700,0,0,4,1460,1,0,4,23,33580,80,65700,0,80,0,0,0
i,0x00000000,1716937605.547569,10.0.2.15,22,10.0.2.2,58278,1073725440,17342,0,65535,65700,0,0,4,1460,1,0,4,23,33580,36,65700,0,36,0,0,0
o,0x00000000,1716937605.547628,10.0.2.15,22,10.0.2.2,58278,1073725440,17378,0,65535,65700,0,0,4,1460,1,0,4,23,33580,36,65700,0,0,0,0,0
i,0x00000000,1716937605.548301,10.0.2.15,22,10.0.2.2,58278,1073725440,17378,0,65535,65700,0,0,4,1460,1,0,4,23,33580,36,65700,0,36,0,0,0
o,0x00000000,1716937605.548412,10.0.2.15,22,10.0.2.2,58278,1073725440,17414,0,65535,65700,0,0,4,1460,1,0,4,23,33580,176,65700,0,0,0,0,0
i,0x00000000,1716937605.549285,10.0.2.15,22,10.0.2.2,58278,1073725440,17414,0,65535,65700,0,0,4,1460,1,0,4,23,33580,176,65700,0,176,0,0,0
i,0x00000000,1716937605.551776,10.0.2.15,22,10.0.2.2,58278,1073725440,17590,0,65535,65700,0,0,4,1460,1,0,4,23,33580,0,65700,0,0,0,0,0
i,0x00000000,1716937605.551779,10.0.2.15,22,10.0.2.2,58278,1073725440,17590,0,65535,65700,0,0,4,1460,1,0,4,23,33580,0,65700,96,0,0,0,0
o,0x00000000,1716937605.551782,10.0.2.15,22,10.0.2.2,58278,1073725440,17590,0,65535,65604,0,0,5,1460,1,0,5,23,33580,0,65700,96,0,0,0,0
o,0x00000000,1716937605.552134,10.0.2.15,22,10.0.2.2,58278,1073725440,17590,0,65535,65604,0,0,8,1460,1,0,4,23,33580,0,65700,0,0,0,0,0
i,0x00000000,1716937605.552845,10.0.2.15,22,10.0.2.2,58278,1073725440,17590,0,65535,65604,0,0,8,1460,1,0,20,23,33580,0,65700,0,1,0,0,0
i,0x00000000,1716937607.641697,10.0.2.15,22,10.0.2.2,58281,1073725440,14600,0,65535,65700,0,0,4,1460,1,0,0,27,33580,0,65700,0,0,0,0,0
o,0x00000000,1716937607.647656,10.0.2.15,22,10.0.2.2,58281,1073725440,14600,0,65535,65700,0,0,4,1460,1,0,0,27,33580,38,65700,41,0,0,0,0
i,0x00000000,1716937607.648560,10.0.2.15,22,10.0.2.2,58281,1073725440,14600,0,65535,65700,0,0,4,1460,1,0,0,27,33580,38,65700,41,38,0,0,0
i,0x00000000,1716937607.649247,10.0.2.15,22,10.0.2.2,58281,1073725440,14638,0,65535,65700,0,0,4,1460,1,0,0,24,33580,0,65700,0,0,0,0,0
i,0x00000000,1716937607.649250,10.0.2.15,22,10.0.2.2,58281,1073725440,14638,0,65535,65700,0,0,4,1460,1,0,0,24,33580,0,65700,1460,0,0,0,0
o,0x00000000,1716937607.649253,10.0.2.15,22,10.0.2.2,58281,1073725440,14638,0,65535,65700,0,0,4,1460,1,0,1,24,33580,0,65700,1536,0,0,0,0
o,0x00000000,1716937607.649634,10.0.2.15,22,10.0.2.2,58281,1073725440,14638,0,65535,65700,0,0,4,1460,1,0,0,24,33580,1056,65700,1536,0,0,0,0
i,0x00000000,1716937607.650303,10.0.2.15,22,10.0.2.2,58281,1073725440,14638,0,65535,65700,0,0,4,1460,1,0,0,24,33580,1056,65700,1536,1056,0,0,0
i,0x00000000,1716937607.651938,10.0.2.15,22,10.0.2.2,58281,1073725440,15694,0,65535,65700,0,0,4,1460,1,0,0,24,33580,0,65700,0,0,0,0,0
o,0x00000000,1716937607.654540,10.0.2.15,22,10.0.2.2,58281,1073725440,15694,0,65535,65700,0,0,4,1460,1,0,0,24,33580,484,65700,0,0,0,0,0
i,0x00000000,1716937607.655167,10.0.2.15,22,10.0.2.2,58281,1073725440,15694,0,65535,65700,0,0,4,1460,1,0,0,24,33580,484,65700,0,484,0,0,0
i,0x00000000,1716937607.659569,10.0.2.15,22,10.0.2.2,58281,1073725440,16178,0,65535,65700,0,0,4,1460,1,0,0,24,33580,0,65700,0,0,0,0,0
i,0x00000000,1716937607.663725,10.0.2.15,22,10.0.2.2,58281,1073725440,16178,0,65535,65700,0,0,4,1460,1,0,0,24,33580,0,65700,0,0,0,0,0
o,0x00000000,1716937607.663730,10.0.2.15,22,10.0.2.2,58281,1073725440,16178,0,65535,65700,0,0,4,1460,1,0,1,24,33580,0,65700,44,0,0,0,0
o,0x00000000,1716937607.663865,10.0.2.15,22,10.0.2.2,58281,1073725440,16178,0,65535,65700,0,0,4,1460,1,0,0,24,33580,44,65700,0,0,0,0,0
i,0x00000000,1716937607.664454,10.0.2.15,22,10.0.2.2,58281,1073725440,16178,0,65535,65700,0,0,4,1460,1,0,0,24,33580,44,65700,0,44,0,0,0
i,0x00000000,1716937607.665077,10.0.2.15,22,10.0.2.2,58281,1073725440,16222,0,65535,65700,0,0,4,1460,1,0,0,24,33580,0,65700,0,0,0,0,0
o,0x00000000,1716937607.674155,10.0.2.15,22,10.0.2.2,58281,1073725440,16222,0,65535,65700,0,0,4,1460,1,0,0,24,33580,68,65700,0,0,0,0,0
i,0x00000000,1716937607.674654,10.0.2.15,22,10.0.2.2,58281,1073725440,16222,0,65535,65700,0,0,4,1460,1,0,0,24,33580,68,65700,0,68,0,0,0
i,0x00000000,1716937607.677001,10.0.2.15,22,10.0.2.2,58281,1073725440,16290,0,65535,65700,0,0,4,1460,1,0,0,24,33580,0,65700,0,0,0,0,0
o,0x00000000,1716937607.686698,10.0.2.15,22,10.0.2.2,58281,1073725440,16290,0,65535,65700,0,0,4,1460,1,0,0,24,33580,28,65700,0,0,0,0,0
i,0x00000000,1716937607.687500,10.0.2.15,22,10.0.2.2,58281,1073725440,16290,0,65535,65700,0,0,4,1460,1,0,0,24,33580,28,65700,0,28,0,0,0
i,0x00000000,1716937607.688073,10.0.2.15,22,10.0.2.2,58281,1073725440,16318,0,65535,65700,0,0,4,1460,1,0,0,24,33580,0,65700,0,0,0,0,0
o,0x00000000,1716937607.688676,10.0.2.15,22,10.0.2.2,58281,1073725440,16318,0,65535,65700,0,0,4,1460,1,0,0,24,33580,768,65700,112,0,0,0,0
i,0x00000000,1716937607.689339,10.0.2.15,22,10.0.2.2,58281,1073725440,16318,0,65535,65700,0,0,4,1460,1,0,0,24,33580,768,65700,112,768,0,0,0
o,0x00000000,1716937607.689435,10.0.2.15,22,10.0.2.2,58281,1073725440,17086,0,65535,65700,0,0,4,1460,1,0,0,24,33580,44,65700,0,0,0,0,0
i,0x00000000,1716937607.689911,10.0.2.15,22,10.0.2.2,58281,1073725440,17086,0,65535,65700,0,0,4,1460,1,0,0,24,33580,44,65700,0,44,0,0,0
i,0x00000000,1716937607.690498,10.0.2.15,22,10.0.2.2,58281,1073725440,17130,0,65535,65700,0,0,4,1460,1,0,0,24,33580,0,65700,0,0,0,0,0
o,0x00000000,1716937607.690756,10.0.2.15,22,10.0.2.2,58281,1073725440,17130,0,65535,65700,0,0,4,1460,1,0,4,24,33580,72,65700,0,0,0,0,0
i,0x00000000,1716937607.691397,10.0.2.15,22,10.0.2.2,58281,1073725440,17130,0,65535,65700,0,0,4,1460,1,0,4,24,33580,72,65700,0,72,0,0,0
o,0x00000000,1716937607.693745,10.0.2.15,22,10.0.2.2,58281,1073725440,17202,0,65535,65700,0,0,4,1460,1,0,4,24,33580,44,65700,0,0,0,0,0
i,0x00000000,1716937607.694276,10.0.2.15,22,10.0.2.2,58281,1073725440,17202,0,65535,65700,0,0,4,1460,1,0,4,24,33580,44,65700,0,44,0,0,0
o,0x00000000,1716937607.694580,10.0.2.15,22,10.0.2.2,58281,1073725440,17246,0,65535,65700,0,0,4,1460,1,0,4,24,33580,44,65700,0,0,0,0,0
i,0x00000000,1716937607.695294,10.0.2.15,22,10.0.2.2,58281,1073725440,17246,0,65535,65700,0,0,4,1460,1,0,4,24,33580,44,65700,0,44,0,0,0
o,0x00000000,1716937607.698539,10.0.2.15,22,10.0.2.2,58281,1073725440,17290,0,65535,65700,0,0,4,1460,1,0,4,24,33580,176,65700,0,0,0,0,0
i,0x00000000,1716937607.699553,10.0.2.15,22,10.0.2.2,58281,1073725440,17290,0,65535,65700,0,0,4,1460,1,0,4,24,33580,176,65700,0,176,0,0,0
i,0x00000000,1716937607.699888,10.0.2.15,22,10.0.2.2,58281,1073725440,17466,0,65535,65700,0,0,4,1460,1,0,4,24,33580,0,65700,0,0,0,0,0
i,0x00000000,1716937607.699891,10.0.2.15,22,10.0.2.2,58281,1073725440,17466,0,65535,65700,0,0,4,1460,1,0,4,24,33580,0,65700,36,0,0,0,0
o,0x00000000,1716937607.699892,10.0.2.15,22,10.0.2.2,58281,1073725440,17466,0,65535,65700,0,0,4,1460,1,0,5,24,33580,0,65700,96,0,0,0,0
i,0x00000000,1716937607.699964,10.0.2.15,22,10.0.2.2,58281,1073725440,17466,0,65535,65700,0,0,4,1460,1,0,4,24,33580,0,65700,96,0,0,0,0
o,0x00000000,1716937607.699967,10.0.2.15,22,10.0.2.2,58281,1073725440,17466,0,65535,65604,0,0,5,1460,1,0,7,24,33580,0,65700,96,0,0,0,0
o,0x00000000,1716937607.706050,10.0.2.15,22,10.0.2.2,58281,1073725440,17466,0,65535,65604,0,0,8,1460,1,0,4,24,33580,0,65700,0,0,0,0,0
i,0x00000000,1716937607.706892,10.0.2.15,22,10.0.2.2,58281,1073725440,17466,0,65535,65604,0,0,8,1460,1,0,20,24,33580,0,65700,0,1,0,0,0
i,0x00000000,1716937607.942032,172.16.3.2,5101,172.16.1.2,45955,9749,14480,0,65728,65700,6,6,4,1460,527,1,992,66,33580,0,65700,0,0,0,0,0
o,0x00000000,1716937607.942150,172.16.3.2,5101,172.16.1.2,45955,9749,14480,0,65728,65700,6,6,4,1460,527,1,996,66,33580,1,65700,0,0,0,0,0
i,0x00000000,1716937608.062518,172.16.3.2,5101,172.16.1.2,45955,9749,14480,0,65728,65700,6,6,4,1460,527,1,996,66,33580,1,65700,0,1,0,0,0
i,0x00000000,1716937608.062532,172.16.3.2,5101,172.16.1.2,45955,9749,14480,0,65728,65728,6,6,4,1460,510,1,996,62,33580,0,65700,4,0,0,0,0
o,0x00000000,1716937608.062539,172.16.3.2,5101,172.16.1.2,45955,9749,14480,0,65728,65728,6,6,4,1460,510,1,997,62,33580,0,65700,128,0,0,0,0
o,0x00000000,1716937608.062927,172.16.3.2,5101,172.16.1.2,45955,9749,14480,0,65728,65728,6,6,4,1460,510,1,996,62,33580,1,65700,0,0,0,0,0
o,0x00000000,1716937608.063078,10.0.2.15,22,10.0.2.2,62180,1073725440,14600,0,65535,65700,0,0,4,1460,1,0,4,24,33580,84,65700,0,0,0,0,0
i,0x00000000,1716937608.063842,10.0.2.15,22,10.0.2.2,62180,1073725440,14600,0,65535,65700,0,0,4,1460,1,0,4,24,33580,84,65700,0,84,0,0,0
i,0x00000000,1716937608.212254,172.16.3.2,5101,172.16.1.2,45955,9749,14480,0,65728,65728,6,6,4,1460,510,1,996,62,33580,1,65700,0,1,0,0,0
i,0x00000000,1716937608.302465,172.16.3.2,5101,172.16.1.2,62290,9749,14480,0,65728,65700,6,6,4,1460,527,1,992,66,33580,0,65700,0,0,0,0,0
o,0x00000000,1716937608.304237,172.16.3.2,5101,172.16.1.2,45955,9749,14480,0,65728,65728,6,6,4,1460,503,1,996,57,33580,1,65700,0,0,0,0,0
o,0x00000000,1716937608.304334,172.16.3.2,5101,172.16.1.2,45955,9749,14480,0,65728,65728,6,6,4,1460,503,1,996,57,33580,2,65700,0,1,0,0,0
o,0x00000000,1716937608.304791,10.0.2.15,22,10.0.2.2,62180,1073725440,14600,0,65535,65700,0,0,4,1460,1,0,4,24,33580,108,65700,0,0,0,0,0
i,0x00000000,1716937608.305548,10.0.2.15,22,10.0.2.2,62180,1073725440,14600,0,65535,65700,0,0,4,1460,1,0,4,24,33580,108,65700,0,108,0,0,0
o,0x00000000,1716937608.338365,172.16.3.2,5101,172.16.1.2,62290,9749,14480,0,65728,65700,6,6,4,1460,527,1,993,66,33580,0,65700,0,0,0,0,0
i,0x00000000,1716937608.421601,172.16.3.2,5101,172.16.1.2,45955,9749,14480,0,65728,65728,6,6,4,1460,503,1,996,57,33580,2,65700,0,2,0,0,0
i,0x00000000,1716937608.522112,172.16.3.2,5101,172.16.1.2,62290,9749,14480,0,65728,65700,6,6,4,1460,527,1,992,66,33580,0,65700,0,0,0,0,0
i,0x00000000,1716937608.532295,172.16.3.2,5101,172.16.1.2,62290,9749,14480,0,65728,65700,6,6,4,1460,527,1,992,66,33580,0,65700,0,0,0,0,0
o,0x00000000,1716937608.532308,172.16.3.2,5101,172.16.1.2,62290,9749,14480,0,65728,65700,6,6,4,1460,527,1,993,66,33580,0,65700,1448,0,0,0,0
i,0x00000000,1716937608.541650,172.16.3.2,5101,172.16.1.2,62290,9749,14480,0,65728,65700,6,6,4,1460,527,1,992,66,33580,0,65700,0,0,0,0,0
i,0x00000000,1716937608.551985,172.16.3.2,5101,172.16.1.2,62290,9749,14480,0,65728,65700,6,6,4,1460,527,1,992,66,33580,0,65700,0,0,0,0,0
o,0x00000000,1716937608.551992,172.16.3.2,5101,172.16.1.2,62290,9749,14480,0,65728,65700,6,6,4,1460,527,1,993,66,33580,0,65700,1448,0,0,0,0
i,0x00000000,1716937608.571699,172.16.3.2,5101,172.16.1.2,62290,9749,14480,0,65728,65700,6,6,4,1460,527,1,992,66,33580,0,65700,0,0,0,0,0
i,0x00000000,1716937608.582042,172.16.3.2,5101,172.16.1.2,62290,9749,14480,0,65728,65700,6,6,4,1460,527,1,992,66,33580,0,65700,0,0,0,0,0
o,0x00000000,1716937608.582048,172.16.3.2,5101,172.16.1.2,62290,9749,14480,0,65728,65700,6,6,4,1460,527,1,993,66,33580,0,65700,1448,0,0,0,0
i,0x00000000,1716937608.591405,172.16.3.2,5101,172.16.1.2,62290,9749,14480,0,65728,65700,6,6,4,1460,527,1,992,66,33580,0,65700,0,0,0,0,0
i,0x00000000,1716937608.601736,172.16.3.2,5101,172.16.1.2,62290,9749,14480,0,65728,65700,6,6,4,1460,527,1,992,66,33580,0,65700,0,0,0,0,0
o,0x00000000,1716937608.601750,172.16.3.2,5101,172.16.1.2,62290,9749,14480,0,65728,65700,6,6,4,1460,527,1,993,66,33580,0,65700,1448,0,0,0,0
i,0x00000000,1716937608.621625,172.16.3.2,5101,172.16.1.2,62290,9749,14480,0,65728,65700,6,6,4,1460,527,1,992,66,33580,0,65700,0,0,0,0,0
i,0x00000000,1716937608.631914,172.16.3.2,5101,172.16.1.2,62290,9749,14480,0,65728,65700,6,6,4,1460,527,1,992,66,33580,0,65700,0,0,0,0,0
o,0x00000000,1716937608.631923,172.16.3.2,5101,172.16.1.2,62290,9749,14480,0,65728,65700,6,6,4,1460,527,1,993,66,33580,0,65700,1448,0,0,0,0
i,0x00000000,1716937608.741732,172.16.3.2,5101,172.16.1.2,62290,9749,14480,0,65728,65700,6,6,4,1460,527,1,992,66,33580,0,65700,0,0,0,0,0
i,0x00000000,1716937608.751806,172.16.3.2,5101,172.16.1.2,62290,9749,14480,0,65728,65700,6,6,4,1460,527,1,992,66,33580,0,65700,0,0,0,0,0
o,0x00000000,1716937608.751817,172.16.3.2,5101,172.16.1.2,62290,9749,14480,0,65728,65700,6,6,4,1460,527,1,993,66,33580,0,65700,1448,0,0,0,0
i,0x00000000,1716937608.811961,172.16.3.2,5101,172.16.1.2,62290,9749,14480,0,65728,65700,6,6,4,1460,527,1,992,66,33580,0,65700,0,0,0,0,0
o,0x00000000,1716937608.847092,172.16.3.2,5101,172.16.1.2,62290,9749,14480,0,65728,65700,6,6,4,1460,527,1,993,66,33580,0,65700,0,0,0,0,0
i,0x00000000,1716937608.852420,172.16.3.2,5101,172.16.1.2,62290,9749,14480,0,65728,65700,6,6,4,1460,527,1,992,66,33580,0,65700,0,0,0,0,0
i,0x00000000,1716937608.861971,172.16.3.2,5101,172.16.1.2,62290,9749,14480,0,65728,65700,6,6,4,1460,527,1,992,66,33580,0,65700,0,0,0,0,0
o,0x00000000,1716937608.861977,172.16.3.2,5101,172.16.1.2,62290,9749,14480,0,65728,65700,6,6,4,1460,527,1,993,66,33580,0,65700,1448,0,0,0,0
i,0x00000000,1716937608.871831,172.16.3.2,5101,172.16.1.2,62290,9749,14480,0,65728,65700,6,6,4,1460,527,1,992,66,33580,0,65700,0,0,0,0,0
o,0x00000000,1716937608.907524,172.16.3.2,5101,172.16.1.2,62290,9749,14480,0,65728,65700,6,6,4,1460,527,1,993,66,33580,0,65700,0,0,0,0,0
i,0x00000000,1716937608.911883,172.16.3.2,5101,172.16.1.2,62290,9749,14480,0,65728,65700,6,6,4,1460,527,1,992,66,33580,0,65700,0,0,0,0,0
i,0x00000000,1716937608.923116,172.16.3.2,5101,172.16.1.2,62290,9749,14480,0,65728,65700,6,6,4,1460,527,1,992,66,33580,0,65700,0,0,0,0,0
o,0x00000000,1716937608.923122,172.16.3.2,5101,172.16.1.2,62290,9749,14480,0,65728,65700,6,6,4,1460,527,1,993,66,33580,0,65700,1448,0,0,0,0
i,0x00000000,1716937608.931456,172.16.3.2,5101,172.16.1.2,62290,9749,14480,0,65728,65700,6,6,4,1460,527,1,992,66,33580,0,65700,0,0,0,0,0
i,0x00000000,1716937608.952061,172.16.3.2,5101,172.16.1.2,62290,9749,14480,0,65728,65700,6,6,4,1460,527,1,992,66,33580,0,65700,0,0,0,0,0
o,0x00000000,1716937608.952068,172.16.3.2,5101,172.16.1.2,62290,9749,14480,0,65728,65700,6,6,4,1460,527,1,993,66,33580,0,65700,1448,0,0,0,0
i,0x00000000,1716937608.961503,172.16.3.2,5101,172.16.1.2,62290,9749,14480,0,65728,65700,6,6,4,1460,527,1,992,66,33580,0,65700,0,0,0,0,0
i,0x00000000,1716937608.971701,172.16.3.2,5101,172.16.1.2,62290,9749,14480,0,65728,65700,6,6,4,1460,527,1,992,66,33580,0,65700,0,0,0,0,0
o,0x00000000,1716937608.971707,172.16.3.2,5101,172.16.1.2,62290,9749,14480,0,65728,65700,6,6,4,1460,527,1,993,66,33580,0,65700,1448,0,0,0,0
i,0x00000000,1716937608.982157,172.16.3.2,5101,172.16.1.2,62290,9749,14480,0,65728,65700,6,6,4,1460,527,1,992,66,33580,0,65700,0,0,0,0,0
o,0x00000000,1716937609.017727,172.16.3.2,5101,172.16.1.2,62290,9749,14480,0,65728,65700,6,6,4,1460,527,1,993,66,33580,0,65700,0,0,0,0,0
i,0x00000000,1716937609.022588,172.16.3.2,5101,172.16.1.2,62290,9749,14480,0,65728,65700,6,6,4,1460,527,1,992,66,33580,0,65700,0,0,0,0,0
i,0x00000000,1716937609.031696,172.16.3.2,5101,172.16.1.2,62290,9749,14480,0,65728,65700,6,6,4,1460,527,1,992,66,33580,0,65700,0,0,0,0,0
o,0x00000000,1716937609.031703,172.16.3.2,5101,172.16.1.2,62290,9749,14480,0,65728,65700,6,6,4,1460,527,1,993,66,33580,0,65700,1448,0,0,0,0
i,0x00000000,1716937609.041910,172.16.3.2,5101,172.16.1.2,62290,9749,14480,0,65728,65700,6,6,4,1460,527,1,992,66,33580,0,65700,0,0,0,0,0
o,0x00000000,1716937609.078024,172.16.3.2,5101,172.16.1.2,62290,9749,14480,0,65728,65700,6,6,4,1460,527,1,993,66,33580,0,65700,0,0,0,0,0
i,0x00000000,1716937609.132445,172.16.3.2,5101,172.16.1.2,62290,9749,14480,0,65728,65700,6,6,4,1460,527,1,992,66,33580,0,65700,0,0,0,0,0
i,0x00000000,1716937609.142639,172.16.3.2,5101,172.16.1.2,62290,9749,14480,0,65728,65700,6,6,4,1460,527,1,992,66,33580,0,65700,0,0,0,0,0
o,0x00000000,1716937609.142650,172.16.3.2,5101,172.16.1.2,62290,9749,14480,0,65728,65700,6,6,4,1460,527,1,993,66,33580,0,65700,1448,0,0,0,0
i,0x00000000,1716937609.201819,172.16.3.2,5101,172.16.1.2,62290,9749,14480,0,65728,65700,6,6,4,1460,527,1,992,66,33580,0,65700,0,0,0,0,0
i,0x00000000,1716937609.221629,172.16.3.2,5101,172.16.1.2,62290,9749,14480,0,65728,65700,6,6,4,1460,527,1,992,66,33580,0,65700,0,0,0,0,0
o,0x00000000,1716937609.221638,172.16.3.2,5101,172.16.1.2,62290,9749,14480,0,65728,65700,6,6,4,1460,527,1,993,66,33580,0,65700,1448,0,0,0,0
i,0x00000000,1716937609.251602,172.16.3.2,5101,172.16.1.2,62290,9749,14480,0,65728,65700,6,6,4,1460,527,1,992,66,33580,0,65700,0,0,0,0,0
i,0x00000000,1716937609.261995,172.16.3.2,5101,172.16.1.2,62290,9749,14480,0,65728,65700,6,6,4,1460,527,1,992,66,33580,0,65700,0,0,0,0,0
o,0x00000000,1716937609.262003,172.16.3.2,5101,172.16.1.2,62290,9749,14480,0,65728,65700,6,6,4,1460,527,1,993,66,33580,0,65700,1448,0,0,0,0
i,0x00000000,1716937609.301249,172.16.3.2,5101,172.16.1.2,62290,9749,14480,0,65728,65700,6,6,4,1460,527,1,992,66,33580,0,65700,0,0,0,0,0
o,0x00000000,1716937609.308139,10.0.2.15,22,10.0.2.2,62180,1073725440,14600,0,65535,65700,0,0,4,1460,1,0,4,24,33580,156,65700,0,0,0,0,0
i,0x00000000,1716937609.308927,10.0.2.15,22,10.0.2.2,62180,1073725440,14600,0,65535,65700,0,0,4,1460,1,0,4,24,33580,156,65700,0,156,0,0,0
i,0x00000000,1716937609.311366,172.16.3.2,5101,172.16.1.2,62290,9749,14480,0,65728,65700,6,6,4,1460,527,1,992,66,33580,0,65700,0,0,0,0,0
o,0x00000000,1716937609.311374,172.16.3.2,5101,172.16.1.2,62290,9749,14480,0,65728,65700,6,6,4,1460,527,1,993,66,33580,0,65700,1448,0,0,0,0
i,0x00000000,1716937609.341789,172.16.3.2,5101,172.16.1.2,62290,9749,14480,0,65728,65700,6,6,4,1460,527,1,992,66,33580,0,65700,0,0,0,0,0
i,0x00000000,1716937609.350946,172.16.3.2,5101,172.16.1.2,62290,9749,14480,0,65728,65700,6,6,4,1460,527,1,992,66,33580,0,65700,0,0,0,0,0
o,0x00000000,1716937609.350956,172.16.3.2,5101,172.16.1.2,62290,9749,14480,0,65728,65700,6,6,4,1460,527,1,993,66,33580,0,65700,0,0,1,0,0
i,0x00000000,1716937609.362500,172.16.3.2,5101,172.16.1.2,62290,9749,14480,0,65728,65700,6,6,4,1460,527,1,992,66,33580,0,65700,0,0,1,0,0
o,0x00000000,1716937609.362504,172.16.3.2,5101,172.16.1.2,62290,9749,14480,0,65728,65728,6,6,4,1460,527,1,993,66,33580,0,65700,0,0,1,0,0
i,0x00000000,1716937609.401770,172.16.3.2,5101,172.16.1.2,62290,9749,14480,0,65728,65728,6,6,4,1460,527,1,992,66,33580,0,65700,0,0,1,0,0
o,0x00000000,1716937609.401775,172.16.3.2,5101,172.16.1.2,62290,9749,14480,0,65728,65728,6,6,4,1460,527,1,993,66,33580,0,65700,0,0,1,0,0
i,0x00000000,1716937609.411690,172.16.3.2,5101,172.16.1.2,62290,9749,14480,0,65728,65728,6,6,4,1460,527,1,992,66,33580,0,65700,0,0,1,0,0
o,0x00000000,1716937609.411695,172.16.3.2,5101,172.16.1.2,62290,9749,14480,0,65728,65728,6,6,4,1460,527,1,993,66,33580,0,65700,0,0,2,0,0
i,0x00000000,1716937609.450936,172.16.3.2,5101,172.16.1.2,62290,9749,14480,0,65728,65728,6,6,4,1460,527,1,992,66,33580,0,65700,0,0,2,0,0
o,0x00000000,1716937609.450943,172.16.3.2,5101,172.16.1.2,62290,9749,14480,0,65728,65728,6,6,4,1460,527,1,993,66,33580,0,65700,0,0,2,0,0
i,0x00000000,1716937609.462120,172.16.3.2,5101,172.16.1.2,62290,9749,14480,0,65728,65728,6,6,4,1460,527,1,992,66,33580,0,65700,0,0,2,0,0
o,0x00000000,1716937609.462125,172.16.3.2,5101,172.16.1.2,62290,9749,14480,0,65728,65728,6,6,4,1460,527,1,993,66,33580,0,65700,0,0,2,0,0
i,0x00000000,1716937609.521484,172.16.3.2,5101,172.16.1.2,62290,9749,14480,0,65728,65728,6,6,4,1460,527,1,992,66,33580,0,65700,0,0,2,0,0
o,0x00000000,1716937609.521496,172.16.3.2,5101,172.16.1.2,62290,9749,14480,0,65728,65728,6,6,4,1460,527,1,993,66,33580,0,65700,0,0,3,0,0
i,0x00000000,1716937609.560920,172.16.3.2,5101,172.16.1.2,62290,9749,14480,0,65728,65728,6,6,4,1460,527,1,992,66,33580,0,65700,0,0,3,0,0
o,0x00000000,1716937609.560935,172.16.3.2,5101,172.16.1.2,62290,9749,14480,0,65728,65728,6,6,4,1460,527,1,993,66,33580,0,65700,0,0,3,0,0
i,0x00000000,1716937609.591681,172.16.3.2,5101,172.16.1.2,62290,9749,14480,0,65728,65728,6,6,4,1460,527,1,992,66,33580,0,65700,0,0,3,0,0
o,0x00000000,1716937609.591691,172.16.3.2,5101,172.16.1.2,62290,9749,14480,0,65728,65728,6,6,4,1460,527,1,993,66,33580,0,65700,0,0,4,0,0
i,0x00000000,1716937609.601761,172.16.3.2,5101,172.16.1.2,62290,9749,14480,0,65728,65728,6,6,4,1460,527,1,992,66,33580,0,65700,0,0,4,0,0
o,0x00000000,1716937609.601767,172.16.3.2,5101,172.16.1.2,62290,9749,14480,0,65728,65728,6,6,4,1460,527,1,993,66,33580,0,65700,0,0,4,0,0
i,0x00000000,1716937609.621661,172.16.3.2,5101,172.16.1.2,62290,9749,14480,0,65728,65728,6,6,4,1460,527,1,992,66,33580,0,65700,0,0,4,0,0
o,0x00000000,1716937609.621668,172.16.3.2,5101,172.16.1.2,62290,9749,14480,0,65728,65728,6,6,4,1460,527,1,993,66,33580,0,65700,0,0,5,0,0
i,0x00000000,1716937609.641378,172.16.3.2,5101,172.16.1.2,62290,9749,14480,0,65728,65728,6,6,4,1460,527,1,992,66,33580,0,65700,0,0,5,0,0
o,0x00000000,1716937609.641385,172.16.3.2,5101,172.16.1.2,62290,9749,14480,0,65728,65728,6,6,4,1460,527,1,993,66,33580,0,65700,0,0,6,0,0
i,0x00000000,1716937609.651740,172.16.3.2,5101,172.16.1.2,62290,9749,14480,0,65728,65728,6,6,4,1460,527,1,992,66,33580,0,65700,0,0,6,0,0
o,0x00000000,1716937609.651746,172.16.3.2,5101,172.16.1.2,62290,9749,14480,0,65728,65728,6,6,4,1460,527,1,993,66,33580,0,65700,0,0,5,0,0
i,0x00000000,1716937609.691315,172.16.3.2,5101,172.16.1.2,62290,9749,14480,0,65728,65728,6,6,4,1460,527,1,992,66,33580,0,65700,0,0,5,0,0
o,0x00000000,1716937609.691333,172.16.3.2,5101,172.16.1.2,62290,9749,14480,0,65728,65728,6,6,4,1460,527,1,993,66,33580,0,65700,0,0,5,0,0
i,0x00000000,1716937609.741433,172.16.3.2,5101,172.16.1.2,62290,9749,14480,0,65728,65728,6,6,4,1460,527,1,992,66,33580,0,65700,0,0,5,0,0
o,0x00000000,1716937609.741456,172.16.3.2,5101,172.16.1.2,62290,9749,14480,0,65728,65728,6,6,4,1460,527,1,993,66,33580,0,65700,0,0,4,0,0
i,0x00000000,1716937609.791178,172.16.3.2,5101,172.16.1.2,62290,9749,14480,0,65728,65728,6,6,4,1460,527,1,992,66,33580,0,65700,0,0,4,0,0
o,0x00000000,1716937609.791196,172.16.3.2,5101,172.16.1.2,62290,9749,14480,0,65728,65728,6,6,4,1460,527,1,993,66,33580,0,65700,0,0,3,0,0
i,0x00000000,1716937609.801536,172.16.3.2,5101,172.16.1.2,62290,9749,14480,0,65728,65728,6,6,4,1460,527,1,992,66,33580,0,65700,0,0,3,0,0
o,0x00000000,1716937609.801544,172.16.3.2,5101,172.16.1.2,62290,9749,14480,0,65728,65728,6,6,4,1460,527,1,993,66,33580,0,65700,0,0,2,0,0
i,0x00000000,1716937609.810995,172.16.3.2,5101,172.16.1.2,62290,9749,14480,0,65728,65728,6,6,4,1460,527,1,992,66,33580,0,65700,0,0,2,0,0
o,0x00000000,1716937609.811002,172.16.3.2,5101,172.16.1.2,62290,9749,14480,0,65728,65728,6,6,4,1460,527,1,993,66,33580,0,65700,0,0,1,0,0
i,0x00000000,1716937609.821301,172.16.3.2,5101,172.16.1.2,62290,9749,14480,0,65728,65728,6,6,4,1460,527,1,992,66,33580,0,65700,0,0,1,0,0
o,0x00000000,1716937609.821306,172.16.3.2,5101,172.16.1.2,62290,9749,14480,0,65728,65728,6,6,4,1460,527,1,993,66,33580,0,65700,0,0,1,0,0
i,0x00000000,1716937609.851441,172.16.3.2,5101,172.16.1.2,62290,9749,14480,0,65728,65728,6,6,4,1460,527,1,992,66,33580,0,65700,0,0,1,0,0
o,0x00000000,1716937609.851446,172.16.3.2,5101,172.16.1.2,62290,9749,14480,0,65728,65728,6,6,4,1460,527,1,993,66,33580,0,65700,0,0,1,0,0
i,0x00000000,1716937609.871545,172.16.3.2,5101,172.16.1.2,62290,9749,14480,0,65728,65728,6,6,4,1460,527,1,992,66,33580,0,65700,0,0,1,0,0
o,0x00000000,1716937609.871549,172.16.3.2,5101,172.16.1.2,62290,9749,14480,0,65728,65728,6,6,4,1460,527,1,993,66,33580,0,65700,0,0,1,0,0
i,0x00000000,1716937609.901821,172.16.3.2,5101,172.16.1.2,62290,9749,14480,0,65728,65728,6,6,4,1460,527,1,992,66,33580,0,65700,0,0,1,0,0
o,0x00000000,1716937609.901828,172.16.3.2,5101,172.16.1.2,62290,9749,14480,0,65728,65728,6,6,4,1460,527,1,993,66,33580,0,65700,0,0,1,0,0
i,0x00000000,1716937609.951482,172.16.3.2,5101,172.16.1.2,62290,9749,14480,0,65728,65728,6,6,4,1460,527,1,992,66,33580,0,65700,0,0,1,0,0
o,0x00000000,1716937609.951494,172.16.3.2,5101,172.16.1.2,62290,9749,14480,0,65728,65728,6,6,4,1460,527,1,993,66,33580,0,65700,0,0,1,0,0
i,0x00000000,1716937609.981643,172.16.3.2,5101,172.16.1.2,62290,9749,14480,0,65728,65728,6,6,4,1460,527,1,992,66,33580,0,65700,0,0,1,0,0
o,0x00000000,1716937609.981648,172.16.3.2,5101,172.16.1.2,62290,9749,14480,0,65728,65728,6,6,4,1460,527,1,993,66,33580,0,65700,0,0,1,0,0
i,0x00000000,1716937609.991913,172.16.3.2,5101,172.16.1.2,62290,9749,14480,0,65728,65728,6,6,4,1460,527,1,992,66,33580,0,65700,0,0,1,0,0
o,0x00000000,1716937609.991918,172.16.3.2,5101,172.16.1.2,62290,9749,14480,0,65728,65728,6,6,4,1460,527,1,993,66,33580,0,65700,0,0,1,0,0
i,0x00000000,1716937610.011729,172.16.3.2,5101,172.16.1.2,62290,9749,14480,0,65728,65728,6,6,4,1460,527,1,992,66,33580,0,65700,0,0,1,0,0
o,0x00000000,1716937610.011734,172.16.3.2,5101,172.16.1.2,62290,9749,14480,0,65728,65728,6,6,4,1460,527,1,993,66,33580,0,65700,0,0,1,0,0
i,0x00000000,1716937610.031249,172.16.3.2,5101,172.16.1.2,62290,9749,14480,0,65728,65728,6,6,4,1460,527,1,992,66,33580,0,65700,0,0,1,0,0
o,0x00000000,1716937610.031254,172.16.3.2,5101,172.16.1.2,62290,9749,14480,0,65728,65728,6,6,4,1460,527,1,993,66,33580,0,65700,0,0,1,0,0
i,0x00000000,1716937610.051074,172.16.3.2,5101,172.16.1.2,62290,9749,14480,0,65728,65728,6,6,4,1460,527,1,992,66,33580,0,65700,0,0,1,0,0
o,0x00000000,1716937610.051078,172.16.3.2,5101,172.16.1.2,62290,9749,14480,0,65728,65728,6,6,4,1460,527,1,993,66,33580,0,65700,0,0,1,0,0
i,0x00000000,1716937610.081250,172.16.3.2,5101,172.16.1.2,62290,9749,14480,0,65728,65728,6,6,4,1460,527,1,992,66,33580,0,65700,0,0,1,0,0
o,0x00000000,1716937610.081254,172.16.3.2,5101,172.16.1.2,62290,9749,14480,0,65728,65728,6,6,4,1460,527,1,993,66,33580,0,65700,0,0,1,0,0
i,0x00000000,1716937610.101954,172.16.3.2,5101,172.16.1.2,62290,9749,14480,0,65728,65728,6,6,4,1460,527,1,992,66,33580,0,65700,0,0,1,0,0
o,0x00000000,1716937610.101958,172.16.3.2,5101,172.16.1.2,62290,9749,14480,0,65728,65728,6,6,4,1460,527,1,993,66,33580,0,65700,0,0,1,0,0
i,0x00000000,1716937610.132003,172.16.3.2,5101,172.16.1.2,62290,9749,14480,0,65728,65728,6,6,4,1460,527,1,992,66,33580,0,65700,0,0,1,0,0
o,0x00000000,1716937610.132014,172.16.3.2,5101,172.16.1.2,62290,9749,14480,0,65728,65728,6,6,4,1460,527,1,993,66,33580,0,65700,0,0,1,0,0
i,0x00000000,1716937610.161589,172.16.3.2,5101,172.16.1.2,62290,9749,14480,0,65728,65728,6,6,4,1460,527,1,992,66,33580,0,65700,0,0,1,0,0
o,0x00000000,1716937610.161593,172.16.3.2,5101,172.16.1.2,62290,9749,14480,0,65728,65728,6,6,4,1460,527,1,993,66,33580,0,65700,0,0,1,0,0
i,0x00000000,1716937610.182342,172.16.3.2,5101,172.16.1.2,62290,9749,14480,0,65728,65728,6,6,4,1460,527,1,992,66,33580,0,65700,0,0,1,0,0
o,0x00000000,1716937610.182346,172.16.3.2,5101,172.16.1.2,62290,9749,14480,0,65728,65728,6,6,4,1460,527,1,993,66,33580,0,65700,0,0,1,0,0
i,0x00000000,1716937610.211727,172.16.3.2,5101,172.16.1.2,62290,9749,14480,0,65728,65728,6,6,4,1460,527,1,992,66,33580,0,65700,0,0,1,0,0
o,0x00000000,1716937610.211731,172.16.3.2,5101,172.16.1.2,62290,9749,14480,0,65728,65728,6,6,4,1460,527,1,993,66,33580,0,65700,0,0,1,0,0
i,0x00000000,1716937610.230958,172.16.3.2,5101,172.16.1.2,62290,9749,14480,0,65728,65728,6,6,4,1460,527,1,992,66,33580,0,65700,0,0,1,0,0
o,0x00000000,1716937610.230962,172.16.3.2,5101,172.16.1.2,62290,9749,14480,0,65728,65728,6,6,4,1460,527,1,993,66,33580,0,65700,0,0,1,0,0
i,0x00000000,1716937610.261198,172.16.3.2,5101,172.16.1.2,62290,9749,14480,0,65728,65728,6,6,4,1460,527,1,992,66,33580,0,65700,0,0,1,0,0
o,0x00000000,1716937610.261208,172.16.3.2,5101,172.16.1.2,62290,9749,14480,0,65728,65728,6,6,4,1460,527,1,993,66,33580,0,65700,0,0,1,0,0
i,0x00000000,1716937610.281826,172.16.3.2,5101,172.16.1.2,62290,9749,14480,0,65728,65728,6,6,4,1460,527,1,992,66,33580,0,65700,0,0,1,0,0
o,0x00000000,1716937610.281831,172.16.3.2,5101,172.16.1.2,62290,9749,14480,0,65728,65728,6,6,4,1460,527,1,993,66,33580,0,65700,0,0,1,0,0
i,0x00000000,1716937610.291328,172.16.3.2,5101,172.16.1.2,62290,9749,14480,0,65728,65728,6,6,4,1460,527,1,992,66,33580,0,65700,0,0,1,0,0
o,0x00000000,1716937610.291334,172.16.3.2,5101,172.16.1.2,62290,9749,14480,0,65728,65728,6,6,4,1460,527,1,993,66,33580,0,65700,0,0,1,0,0
o,0x00000000,1716937610.316794,10.0.2.15,22,10.0.2.2,62180,1073725440,14600,0,65535,65700,0,0,4,1460,1,0,4,24,33580,108,65700,0,0,0,0,0
i,0x00000000,1716937610.317481,10.0.2.15,22,10.0.2.2,62180,1073725440,14600,0,65535,65700,0,0,4,1460,1,0,4,24,33580,108,65700,0,108,0,0,0
i,0x00000000,1716937610.381417,172.16.3.2,5101,172.16.1.2,62290,9749,14480,0,65728,65728,6,6,4,1460,527,1,992,66,33580,0,65700,0,0,1,0,0
o,0x00000000,1716937610.381460,172.16.3.2,5101,172.16.1.2,62290,9749,14480,0,65728,65728,6,6,4,1460,527,1,993,66,33580,0,65700,56472,0,0,0,0
o,0x00000000,1716937610.381718,172.16.3.2,5101,172.16.1.2,62290,9749,14480,0,65728,65728,6,6,4,1460,527,1,992,66,33580,0,65700,0,0,0,0,0
i,0x00000000,1716937610.391843,172.16.3.2,5101,172.16.1.2,62290,9749,14480,0,65728,65728,6,6,4,1460,527,1,992,66,33580,0,65700,0,0,0,0,0
o,0x00000000,1716937610.391851,172.16.3.2,5101,172.16.1.2,62290,9749,14480,0,65728,65728,6,6,4,1460,527,1,993,66,33580,0,65700,0,0,0,0,0
i,0x00000000,1716937610.402107,172.16.3.2,5101,172.16.1.2,62290,9749,14480,0,65728,65728,6,6,4,1460,527,1,992,66,33580,0,65700,0,0,0,0,0
o,0x00000000,1716937610.402113,172.16.3.2,5101,172.16.1.2,62290,9749,14480,0,65728,65728,6,6,4,1460,527,1,993,66,33580,0,65700,0,0,0,0,0
i,0x00000000,1716937610.411491,172.16.3.2,5101,172.16.1.2,62290,9749,14480,0,65728,65728,6,6,4,1460,527,1,992,66,33580,0,65700,0,0,0,0,0
o,0x00000000,1716937610.411496,172.16.3.2,5101,172.16.1.2,62290,9749,14480,0,65728,65728,6,6,4,1460,527,1,993,66,33580,0,65700,0,0,0,0,0
i,0x00000000,1716937610.430899,172.16.3.2,5101,172.16.1.2,62290,9749,14480,0,65728,65728,6,6,4,1460,527,1,992,66,33580,0,65700,0,0,0,0,0
o,0x00000000,1716937610.430905,172.16.3.2,5101,172.16.1.2,62290,9749,14480,0,65728,65728,6,6,4,1460,527,1,993,66,33580,0,65700,0,0,0,0,0
i,0x00000000,1716937610.492063,172.16.3.2,5101,172.16.1.2,62290,9749,14480,0,65728,65728,6,6,4,1460,527,1,992,66,33580,0,65700,0,0,0,0,0
o,0x00000000,1716937610.492145,172.16.3.2,5101,172.16.1.2,62290,9749,14480,0,65728,65728,6,6,4,1460,527,1,993,66,33580,0,65700,0,0,0,0,0
i,0x00000000,1716937610.501212,172.16.3.2,5101,172.16.1.2,62290,9749,14480,0,65728,65728,6,6,4,1460,527,1,992,66,33580,0,65700,0,0,0,0,0
o,0x00000000,1716937610.537400,172.16.3.2,5101,172.16.1.2,62290,9749,14480,0,65728,65728,6,6,4,1460,527,1,993,66,33580,0,65700,0,0,0,0,0
i,0x00000000,1716937610.641416,172.16.3.2,5101,172.16.1.2,62290,9749,14480,0,65728,65728,6,6,4,1460,527,1,992,66,33580,0,65700,0,0,0,0,0
i,0x00000000,1716937610.650726,172.16.3.2,5101,172.16.1.2,62290,9749,14480,0,65728,65728,6,6,4,1460,527,1,992,66,33580,0,65700,0,0,0,0,0
o,0x00000000,1716937610.650738,172.16.3.2,5101,172.16.1.2,62290,9749,14480,0,65728,65728,6,6,4,1460,527,1,993,66,33580,0,65700,1448,0,0,0,0
i,0x00000000,1716937610.661097,172.16.3.2,5101,172.16.1.2,62290,9749,14480,0,65728,65728,6,6,4,1460,527,1,992,66,33580,0,65700,0,0,0,0,0
o,0x00000000,1716937610.697633,172.16.3.2,5101,172.16.1.2,62290,9749,14480,0,65728,65728,6,6,4,1460,527,1,993,66,33580,0,65700,0,0,0,0,0
i,0x00000000,1716937610.820495,172.16.3.2,5101,172.16.1.2,62290,9749,14480,0,65728,65728,6,6,4,1460,527,1,992,66,33580,0,65700,0,0,0,0,0
i,0x00000000,1716937610.830689,172.16.3.2,5101,172.16.1.2,62290,9749,14480,0,65728,65728,6,6,4,1460,527,1,992,66,33580,0,65700,0,0,0,0,0
o,0x00000000,1716937610.830705,172.16.3.2,5101,172.16.1.2,62290,9749,14480,0,65728,65728,6,6,4,1460,527,1,993,66,33580,0,65700,1448,0,0,0,0
i,0x00000000,1716937610.841099,172.16.3.2,5101,172.16.1.2,62290,9749,14480,0,65728,65728,6,6,4,1460,527,1,992,66,33580,0,65700,0,0,0,0,0
i,0x00000000,1716937610.860782,172.16.3.2,5101,172.16.1.2,62290,9749,14480,0,65728,65728,6,6,4,1460,527,1,992,66,33580,0,65700,0,0,0,0,0
o,0x00000000,1716937610.860789,172.16.3.2,5101,172.16.1.2,62290,9749,14480,0,65728,65728,6,6,4,1460,527,1,993,66,33580,0,65700,1448,0,0,0,0
i,0x00000000,1716937610.871171,172.16.3.2,5101,172.16.1.2,62290,9749,14480,0,65728,65728,6,6,4,1460,527,1,992,66,33580,0,65700,0,0,0,0,0
i,0x00000000,1716937610.881467,172.16.3.2,5101,172.16.1.2,62290,9749,14480,0,65728,65728,6,6,4,1460,527,1,992,66,33580,0,65700,0,0,0,0,0
o,0x00000000,1716937610.881472,172.16.3.2,5101,172.16.1.2,62290,9749,14480,0,65728,65728,6,6,4,1460,527,1,993,66,33580,0,65700,1448,0,0,0,0
i,0x00000000,1716937611.041146,172.16.3.2,5101,172.16.1.2,62290,9749,14480,0,65728,65728,6,6,4,1460,527,1,992,66,33580,0,65700,0,0,0,0,0
i,0x00000000,1716937611.060738,172.16.3.2,5101,172.16.1.2,62290,9749,14480,0,65728,65728,6,6,4,1460,527,1,992,66,33580,0,65700,0,0,0,0,0
o,0x00000000,1716937611.060750,172.16.3.2,5101,172.16.1.2,62290,9749,14480,0,65728,65728,6,6,4,1460,527,1,993,66,33580,0,65700,1448,0,0,0,0
i,0x00000000,1716937611.071035,172.16.3.2,5101,172.16.1.2,62290,9749,14480,0,65728,65728,6,6,4,1460,527,1,992,66,33580,0,65700,0,0,0,0,0
i,0x00000000,1716937611.081406,172.16.3.2,5101,172.16.1.2,62290,9749,14480,0,65728,65728,6,6,4,1460,527,1,992,66,33580,0,65700,0,0,0,0,0
o,0x00000000,1716937611.081413,172.16.3.2,5101,172.16.1.2,62290,9749,14480,0,65728,65728,6,6,4,1460,527,1,993,66,33580,0,65700,1448,0,0,0,0
i,0x00000000,1716937611.090755,172.16.3.2,5101,172.16.1.2,62290,9749,14480,0,65728,65728,6,6,4,1460,527,1,992,66,33580,0,65700,0,0,0,0,0
i,0x00000000,1716937611.101208,172.16.3.2,5101,172.16.1.2,62290,9749,14480,0,65728,65728,6,6,4,1460,527,1,992,66,33580,0,65700,0,0,0,0,0
o,0x00000000,1716937611.101213,172.16.3.2,5101,172.16.1.2,62290,9749,14480,0,65728,65728,6,6,4,1460,527,1,993,66,33580,0,65700,1448,0,0,0,0
i,0x00000000,1716937611.122051,172.16.3.2,5101,172.16.1.2,62290,9749,14480,0,65728,65728,6,6,4,1460,527,1,992,66,33580,0,65700,0,0,0,0,0
i,0x00000000,1716937611.130345,172.16.3.2,5101,172.16.1.2,62290,9749,14480,0,65728,65728,6,6,4,1460,527,1,992,66,33580,0,65700,0,0,0,0,0
o,0x00000000,1716937611.130353,172.16.3.2,5101,172.16.1.2,62290,9749,14480,0,65728,65728,6,6,4,1460,527,1,993,66,33580,0,65700,1448,0,0,0,0
i,0x00000000,1716937611.311649,172.16.3.2,5101,172.16.1.2,62290,9749,14480,0,65728,65728,6,6,4,1460,527,1,992,66,33580,0,65700,0,0,0,0,0
o,0x00000000,1716937611.317508,10.0.2.15,22,10.0.2.2,62180,1073725440,14600,0,65535,65700,0,0,4,1460,1,0,4,24,33580,108,65700,0,0,0,0,0
i,0x00000000,1716937611.318251,10.0.2.15,22,10.0.2.2,62180,1073725440,14600,0,65535,65700,0,0,4,1460,1,0,4,24,33580,108,65700,0,108,0,0,0
i,0x00000000,1716937611.320803,172.16.3.2,5101,172.16.1.2,62290,9749,14480,0,65728,65728,6,6,4,1460,527,1,992,66,33580,0,65700,0,0,0,0,0
o,0x00000000,1716937611.320823,172.16.3.2,5101,172.16.1.2,62290,9749,14480,0,65728,65728,6,6,4,1460,527,1,993,66,33580,0,65700,1448,0,0,0,0
i,0x00000000,1716937611.331187,172.16.3.2,5101,172.16.1.2,62290,9749,14480,0,65728,65728,6,6,4,1460,527,1,992,66,33580,0,65700,0,0,0,0,0
i,0x00000000,1716937611.340548,172.16.3.2,5101,172.16.1.2,62290,9749,14480,0,65728,65728,6,6,4,1460,527,1,992,66,33580,0,65700,0,0,0,0,0
o,0x00000000,1716937611.340558,172.16.3.2,5101,172.16.1.2,62290,9749,14480,0,65728,65728,6,6,4,1460,527,1,993,66,33580,0,65700,1448,0,0,0,0
i,0x00000000,1716937611.350978,172.16.3.2,5101,172.16.1.2,62290,9749,14480,0,65728,65728,6,6,4,1460,527,1,992,66,33580,0,65700,0,0,0,0,0
i,0x00000000,1716937611.370543,172.16.3.2,5101,172.16.1.2,62290,9749,14480,0,65728,65728,6,6,4,1460,527,1,992,66,33580,0,65700,0,0,0,0,0
o,0x00000000,1716937611.370548,172.16.3.2,5101,172.16.1.2,62290,9749,14480,0,65728,65728,6,6,4,1460,527,1,993,66,33580,0,65700,1448,0,0,0,0
i,0x00000000,1716937611.380968,172.16.3.2,5101,172.16.1.2,62290,9749,14480,0,65728,65728,6,6,4,1460,527,1,992,66,33580,0,65700,0,0,0,0,0
i,0x00000000,1716937611.392368,172.16.3.2,5101,172.16.1.2,62290,9749,14480,0,65728,65728,6,6,4,1460,527,1,992,66,33580,0,65700,0,0,0,0,0
o,0x00000000,1716937611.392386,172.16.3.2,5101,172.16.1.2,62290,9749,14480,0,65728,65728,6,6,4,1460,527,1,993,66,33580,0,65700,1448,0,0,0,0
i,0x00000000,1716937611.400554,172.16.3.2,5101,172.16.1.2,62290,9749,14480,0,65728,65728,6,6,4,1460,527,1,992,66,33580,0,65700,0,0,0,0,0
o,0x00000000,1716937611.437696,172.16.3.2,5101,172.16.1.2,62290,9749,14480,0,65728,65728,6,6,4,1460,527,1,993,66,33580,0,65700,0,0,0,0,0
i,0x00000000,1716937611.570981,172.16.3.2,5101,172.16.1.2,62290,9749,14480,0,65728,65728,6,6,4,1460,527,1,992,66,33580,0,65700,0,0,0,0,0
i,0x00000000,1716937611.580681,172.16.3.2,5101,172.16.1.2,62290,9749,14480,0,65728,65728,6,6,4,1460,527,1,992,66,33580,0,65700,0,0,0,0,0
o,0x00000000,1716937611.580698,172.16.3.2,5101,172.16.1.2,62290,9749,14480,0,65728,65728,6,6,4,1460,527,1,993,66,33580,0,65700,1448,0,0,0,0
i,0x00000000,1716937611.591212,172.16.3.2,5101,172.16.1.2,62290,9749,14480,0,65728,65728,6,6,4,1460,527,1,992,66,33580,0,65700,0,0,0,0,0
i,0x00000000,1716937611.601386,172.16.3.2,5101,172.16.1.2,62290,9749,14480,0,65728,65728,6,6,4,1460,527,1,992,66,33580,0,65700,0,0,0,0,0
o,0x00000000,1716937611.601400,172.16.3.2,5101,172.16.1.2,62290,9749,14480,0,65728,65728,6,6,4,1460,527,1,993,66,33580,0,65700,1448,0,0,0,0
i,0x00000000,1716937611.610679,172.16.3.2,5101,172.16.1.2,62290,9749,14480,0,65728,65728,6,6,4,1460,527,1,992,66,33580,0,65700,0,0,0,0,0
i,0x00000000,1716937611.630392,172.16.3.2,5101,172.16.1.2,62290,9749,14480,0,65728,65728,6,6,4,1460,527,1,992,66,33580,0,65700,0,0,0,0,0
o,0x00000000,1716937611.630401,172.16.3.2,5101,172.16.1.2,62290,9749,14480,0,65728,65728,6,6,4,1460,527,1,993,66,33580,0,65700,1448,0,0,0,0
i,0x00000000,1716937611.640827,172.16.3.2,5101,172.16.1.2,62290,9749,14480,0,65728,65728,6,6,4,1460,527,1,992,66,33580,0,65700,0,0,0,0,0
i,0x00000000,1716937611.651075,172.16.3.2,5101,172.16.1.2,62290,9749,14480,0,65728,65728,6,6,4,1460,527,1,992,66,33580,0,65700,0,0,0,0,0
o,0x00000000,1716937611.651082,172.16.3.2,5101,172.16.1.2,62290,9749,14480,0,65728,65728,6,6,4,1460,527,1,993,66,33580,0,65700,1448,0,0,0,0
i,0x00000000,1716937611.660418,172.16.3.2,5101,172.16.1.2,62290,9749,14480,0,65728,65728,6,6,4,1460,527,1,992,66,33580,0,65700,0,0,0,0,0
o,0x00000000,1716937611.697658,172.16.3.2,5101,172.16.1.2,62290,9749,14480,0,65728,65728,6,6,4,1460,527,1,993,66,33580,0,65700,0,0,0,0,0
i,0x00000000,1716937611.721696,172.16.3.2,5101,172.16.1.2,62290,9749,14480,0,65728,65728,6,6,4,1460,527,1,992,66,33580,0,65700,0,0,0,0,0
o,0x00000000,1716937611.757798,172.16.3.2,5101,172.16.1.2,62290,9749,14480,0,65728,65728,6,6,4,1460,527,1,993,66,33580,0,65700,0,0,0,0,0
i,0x00000000,1716937611.840206,172.16.3.2,5101,172.16.1.2,62290,9749,14480,0,65728,65728,6,6,4,1460,527,1,992,66,33580,0,65700,0,0,0,0,0
i,0x00000000,1716937611.850436,172.16.3.2,5101,172.16.1.2,62290,9749,14480,0,65728,65728,6,6,4,1460,527,1,992,66,33580,0,65700,0,0,0,0,0
o,0x00000000,1716937611.850448,172.16.3.2,5101,172.16.1.2,62290,9749,14480,0,65728,65728,6,6,4,1460,527,1,993,66,33580,0,65700,1448,0,0,0,0
i,0x00000000,1716937611.860901,172.16.3.2,5101,172.16.1.2,62290,9749,14480,0,65728,65728,6,6,4,1460,527,1,992,66,33580,0,65700,0,0,0,0,0
i,0x00000000,1716937611.870762,172.16.3.2,5101,172.16.1.2,62290,9749,14480,0,65728,65728,6,6,4,1460,527,1,992,66,33580,0,65700,0,0,0,0,0
o,0x00000000,1716937611.870768,172.16.3.2,5101,172.16.1.2,62290,9749,14480,0,65728,65728,6,6,4,1460,527,1,993,66,33580,0,65700,1448,0,0,0,0
i,0x00000000,1716937611.890307,172.16.3.2,5101,172.16.1.2,62290,9749,14480,0,65728,65728,6,6,4,1460,527,1,992,66,33580,0,65700,0,0,0,0,0
i,0x00000000,1716937611.900616,172.16.3.2,5101,172.16.1.2,62290,9749,14480,0,65728,65728,6,6,4,1460,527,1,992,66,33580,0,65700,0,0,0,0,0
o,0x00000000,1716937611.900621,172.16.3.2,5101,172.16.1.2,62290,9749,14480,0,65728,65728,6,6,4,1460,527,1,993,66,33580,0,65700,1448,0,0,0,0
i,0x00000000,1716937611.911030,172.16.3.2,5101,172.16.1.2,62290,9749,14480,0,65728,65728,6,6,4,1460,527,1,992,66,33580,0,65700,0,0,0,0,0
i,0x00000000,1716937611.920334,172.16.3.2,5101,172.16.1.2,62290,9749,14480,0,65728,65728,6,6,4,1460,527,1,992,66,33580,0,65700,0,0,0,0,0
o,0x00000000,1716937611.920343,172.16.3.2,5101,172.16.1.2,62290,9749,14480,0,65728,65728,6,6,4,1460,527,1,993,66,33580,0,65700,1448,0,0,0,0
i,0x00000000,1716937611.930214,172.16.3.2,5101,172.16.1.2,62290,9749,14480,0,65728,65728,6,6,4,1460,527,1,992,66,33580,0,65700,0,0,0,0,0
o,0x00000000,1716937611.967818,172.16.3.2,5101,172.16.1.2,62290,9749,14480,0,65728,65728,6,6,4,1460,527,1,993,66,33580,0,65700,0,0,0,0,0
i,0x00000000,1716937611.990950,172.16.3.2,5101,172.16.1.2,62290,9749,14480,0,65728,65728,6,6,4,1460,527,1,992,66,33580,0,65700,0,0,0,0,0
o,0x00000000,1716937612.028101,172.16.3.2,5101,172.16.1.2,62290,9749,14480,0,65728,65728,6,6,4,1460,527,1,993,66,33580,0,65700,0,0,0,0,0
i,0x00000000,1716937612.080374,172.16.3.2,5101,172.16.1.2,62290,9749,14480,0,65728,65728,6,6,4,1460,527,1,992,66,33580,0,65700,0,0,0,0,0
o,0x00000000,1716937612.117681,172.16.3.2,5101,172.16.1.2,62290,9749,14480,0,65728,65728,6,6,4,1460,527,1,993,66,33580,0,65700,0,0,0,0,0
i,0x00000000,1716937612.120694,172.16.3.2,5101,172.16.1.2,62290,9749,14480,0,65728,65728,6,6,4,1460,527,1,992,66,33580,0,65700,0,0,0,0,0
i,0x00000000,1716937612.140326,172.16.3.2,5101,172.16.1.2,62290,9749,14480,0,65728,65728,6,6,4,1460,527,1,992,66,33580,0,65700,0,0,0,0,0
o,0x00000000,1716937612.140333,172.16.3.2,5101,172.16.1.2,62290,9749,14480,0,65728,65728,6,6,4,1460,527,1,993,66,33580,0,65700,1448,0,0,0,0
i,0x00000000,1716937612.150800,172.16.3.2,5101,172.16.1.2,62290,9749,14480,0,65728,65728,6,6,4,1460,527,1,992,66,33580,0,65700,0,0,0,0,0
i,0x00000000,1716937612.160948,172.16.3.2,5101,172.16.1.2,62290,9749,14480,0,65728,65728,6,6,4,1460,527,1,992,66,33580,0,65700,0,0,0,0,0
o,0x00000000,1716937612.160953,172.16.3.2,5101,172.16.1.2,62290,9749,14480,0,65728,65728,6,6,4,1460,527,1,993,66,33580,0,65700,1448,0,0,0,0
i,0x00000000,1716937612.171448,172.16.3.2,5101,172.16.1.2,62290,9749,14480,0,65728,65728,6,6,4,1460,527,1,992,66,33580,0,65700,0,0,0,0,0
i,0x00000000,1716937612.180096,172.16.3.2,5101,172.16.1.2,62290,9749,14480,0,65728,65728,6,6,4,1460,527,1,992,66,33580,0,65700,0,0,0,0,0
o,0x00000000,1716937612.180101,172.16.3.2,5101,172.16.1.2,62290,9749,14480,0,65728,65728,6,6,4,1460,527,1,993,66,33580,0,65700,1448,0,0,0,0
i,0x00000000,1716937612.211059,172.16.3.2,5101,172.16.1.2,62290,9749,14480,0,65728,65728,6,6,4,1460,527,1,992,66,33580,0,65700,0,0,0,0,0
i,0x00000000,1716937612.220445,172.16.3.2,5101,172.16.1.2,62290,9749,14480,0,65728,65728,6,6,4,1460,527,1,992,66,33580,0,65700,0,0,0,0,0
o,0x00000000,1716937612.220449,172.16.3.2,5101,172.16.1.2,62290,9749,14480,0,65728,65728,6,6,4,1460,527,1,993,66,33580,0,65700,1448,0,0,0,0
i,0x00000000,1716937612.230764,172.16.3.2,5101,172.16.1.2,62290,9749,14480,0,65728,65728,6,6,4,1460,527,1,992,66,33580,0,65700,0,0,0,0,0
i,0x00000000,1716937612.250745,172.16.3.2,5101,172.16.1.2,62290,9749,14480,0,65728,65728,6,6,4,1460,527,1,992,66,33580,0,65700,0,0,0,0,0
o,0x00000000,1716937612.250751,172.16.3.2,5101,172.16.1.2,62290,9749,14480,0,65728,65728,6,6,4,1460,527,1,993,66,33580,0,65700,1448,0,0,0,0
o,0x00000000,1716937612.317711,10.0.2.15,22,10.0.2.2,62180,1073725440,14600,0,65535,65700,0,0,4,1460,1,0,4,24,33580,108,65700,0,0,0,0,0
i,0x00000000,1716937612.318272,10.0.2.15,22,10.0.2.2,62180,1073725440,14600,0,65535,65700,0,0,4,1460,1,0,4,24,33580,108,65700,0,108,0,0,0
i,0x00000000,1716937612.370666,172.16.3.2,5101,172.16.1.2,62290,9749,14480,0,65728,65728,6,6,4,1460,527,1,992,66,33580,0,65700,0,0,0,0,0
o,0x00000000,1716937612.407010,172.16.3.2,5101,172.16.1.2,62290,9749,14480,0,65728,65728,6,6,4,1460,527,1,993,66,33580,0,65700,0,0,0,0,0
i,0x00000000,1716937612.410975,172.16.3.2,5101,172.16.1.2,62290,9749,14480,0,65728,65728,6,6,4,1460,527,1,992,66,33580,0,65700,0,0,0,0,0
i,0x00000000,1716937612.420309,172.16.3.2,5101,172.16.1.2,62290,9749,14480,0,65728,65728,6,6,4,1460,527,1,992,66,33580,0,65700,0,0,0,0,0
o,0x00000000,1716937612.420318,172.16.3.2,5101,172.16.1.2,62290,9749,14480,0,65728,65728,6,6,4,1460,527,1,993,66,33580,0,65700,1448,0,0,0,0
i,0x00000000,1716937612.430645,172.16.3.2,5101,172.16.1.2,62290,9749,14480,0,65728,65728,6,6,4,1460,527,1,992,66,33580,0,65700,0,0,0,0,0
i,0x00000000,1716937612.440110,172.16.3.2,5101,172.16.1.2,62290,9749,14480,0,65728,65728,6,6,4,1460,527,1,992,66,33580,0,65700,0,0,0,0,0
o,0x00000000,1716937612.440116,172.16.3.2,5101,172.16.1.2,62290,9749,14480,0,65728,65728,6,6,4,1460,527,1,993,66,33580,0,65700,1448,0,0,0,0
i,0x00000000,1716937612.460763,172.16.3.2,5101,172.16.1.2,62290,9749,14480,0,65728,65728,6,6,4,1460,527,1,992,66,33580,0,65700,0,0,0,0,0
i,0x00000000,1716937612.471028,172.16.3.2,5101,172.16.1.2,62290,9749,14480,0,65728,65728,6,6,4,1460,527,1,992,66,33580,0,65700,0,0,0,0,0
o,0x00000000,1716937612.471034,172.16.3.2,5101,172.16.1.2,62290,9749,14480,0,65728,65728,6,6,4,1460,527,1,993,66,33580,0,65700,1448,0,0,0,0
i,0x00000000,1716937612.481433,172.16.3.2,5101,172.16.1.2,62290,9749,14480,0,65728,65728,6,6,4,1460,527,1,992,66,33580,0,65700,0,0,0,0,0
o,0x00000000,1716937612.518215,172.16.3.2,5101,172.16.1.2,62290,9749,14480,0,65728,65728,6,6,4,1460,527,1,993,66,33580,0,65700,0,0,0,0,0
i,0x00000000,1716937612.530459,172.16.3.2,5101,172.16.1.2,62290,9749,14480,0,65728,65728,6,6,4,1460,527,1,992,66,33580,0,65700,0,0,0,0,0
i,0x00000000,1716937612.540721,172.16.3.2,5101,172.16.1.2,62290,9749,14480,0,65728,65728,6,6,4,1460,527,1,992,66,33580,0,65700,0,0,0,0,0
o,0x00000000,1716937612.540732,172.16.3.2,5101,172.16.1.2,62290,9749,14480,0,65728,65728,6,6,4,1460,527,1,993,66,33580,0,65700,1448,0,0,0,0
i,0x00000000,1716937612.551078,172.16.3.2,5101,172.16.1.2,62290,9749,14480,0,65728,65728,6,6,4,1460,527,1,992,66,33580,0,65700,0,0,0,0,0
i,0x00000000,1716937612.570003,172.16.3.2,5101,172.16.1.2,62290,9749,14480,0,65728,65728,6,6,4,1460,527,1,992,66,33580,0,65700,0,0,0,0,0
o,0x00000000,1716937612.570008,172.16.3.2,5101,172.16.1.2,62290,9749,14480,0,65728,65728,6,6,4,1460,527,1,993,66,33580,0,65700,1448,0,0,0,0
i,0x00000000,1716937612.580483,172.16.3.2,5101,172.16.1.2,62290,9749,14480,0,65728,65728,6,6,4,1460,527,1,992,66,33580,0,65700,0,0,0,0,0
o,0x00000000,1716937612.617284,172.16.3.2,5101,172.16.1.2,62290,9749,14480,0,65728,65728,6,6,4,1460,527,1,993,66,33580,0,65700,0,0,0,0,0
i,0x00000000,1716937612.729693,172.16.3.2,5101,172.16.1.2,62290,9749,14480,0,65728,65728,6,6,4,1460,527,1,992,66,33580,0,65700,0,0,0,0,0
i,0x00000000,1716937612.739730,172.16.3.2,5101,172.16.1.2,62290,9749,14480,0,65728,65728,6,6,4,1460,527,1,992,66,33580,0,65700,0,0,0,0,0
o,0x00000000,1716937612.739741,172.16.3.2,5101,172.16.1.2,62290,9749,14480,0,65728,65728,6,6,4,1460,527,1,993,66,33580,0,65700,1448,0,0,0,0
i,0x00000000,1716937612.750222,172.16.3.2,5101,172.16.1.2,62290,9749,14480,0,65728,65728,6,6,4,1460,527,1,992,66,33580,0,65700,0,0,0,0,0
i,0x00000000,1716937612.770889,172.16.3.2,5101,172.16.1.2,62290,9749,14480,0,65728,65728,6,6,4,1460,527,1,992,66,33580,0,65700,0,0,0,0,0
o,0x00000000,1716937612.770901,172.16.3.2,5101,172.16.1.2,62290,9749,14480,0,65728,65728,6,6,4,1460,527,1,993,66,33580,0,65700,1448,0,0,0,0
i,0x00000000,1716937612.779756,172.16.3.2,5101,172.16.1.2,62290,9749,14480,0,65728,65728,6,6,4,1460,527,1,992,66,33580,0,65700,0,0,0,0,0
i,0x00000000,1716937612.789807,172.16.3.2,5101,172.16.1.2,62290,9749,14480,0,65728,65728,6,6,4,1460,527,1,992,66,33580,0,65700,0,0,0,0,0
o,0x00000000,1716937612.789817,172.16.3.2,5101,172.16.1.2,62290,9749,14480,0,65728,65728,6,6,4,1460,527,1,993,66,33580,0,65700,1448,0,0,0,0
i,0x00000000,1716937612.800381,172.16.3.2,5101,172.16.1.2,62290,9749,14480,0,65728,65728,6,6,4,1460,527,1,992,66,33580,0,65700,0,0,0,0,0
o,0x00000000,1716937612.837507,172.16.3.2,5101,172.16.1.2,62290,9749,14480,0,65728,65728,6,6,4,1460,527,1,993,66,33580,0,65700,0,0,0,0,0
i,0x00000000,1716937612.840626,172.16.3.2,5101,172.16.1.2,62290,9749,14480,0,65728,65728,6,6,4,1460,527,1,992,66,33580,0,65700,0,0,0,0,0
i,0x00000000,1716937612.849969,172.16.3.2,5101,172.16.1.2,62290,9749,14480,0,65728,65728,6,6,4,1460,527,1,992,66,33580,0,65700,0,0,0,0,0
o,0x00000000,1716937612.849975,172.16.3.2,5101,172.16.1.2,62290,9749,14480,0,65728,65728,6,6,4,1460,527,1,993,66,33580,0,65700,1448,0,0,0,0
i,0x00000000,1716937612.860353,172.16.3.2,5101,172.16.1.2,62290,9749,14480,0,65728,65728,6,6,4,1460,527,1,992,66,33580,0,65700,0,0,0,0,0
i,0x00000000,1716937612.869633,172.16.3.2,5101,172.16.1.2,62290,9749,14480,0,65728,65728,6,6,4,1460,527,1,992,66,33580,0,65700,0,0,0,0,0
o,0x00000000,1716937612.869638,172.16.3.2,5101,172.16.1.2,62290,9749,14480,0,65728,65728,6,6,4,1460,527,1,993,66,33580,0,65700,1448,0,0,0,0
i,0x00000000,1716937612.890273,172.16.3.2,5101,172.16.1.2,62290,9749,14480,0,65728,65728,6,6,4,1460,527,1,992,66,33580,0,65700,0,0,0,0,0
o,0x00000000,1716937612.927492,172.16.3.2,5101,172.16.1.2,62290,9749,14480,0,65728,65728,6,6,4,1460,527,1,993,66,33580,0,65700,0,0,0,0,0
i,0x00000000,1716937613.000106,172.16.3.2,5101,172.16.1.2,62290,9749,14480,0,65728,65728,6,6,4,1460,527,1,992,66,33580,0,65700,0,0,0,0,0
i,0x00000000,1716937613.010402,172.16.3.2,5101,172.16.1.2,62290,9749,14480,0,65728,65728,6,6,4,1460,527,1,992,66,33580,0,65700,0,0,0,0,0
o,0x00000000,1716937613.010411,172.16.3.2,5101,172.16.1.2,62290,9749,14480,0,65728,65728,6,6,4,1460,527,1,993,66,33580,0,65700,1448,0,0,0,0
i,0x00000000,1716937613.060390,172.16.3.2,5101,172.16.1.2,62290,9749,14480,0,65728,65728,6,6,4,1460,527,1,992,66,33580,0,65700,0,0,0,0,0
i,0x00000000,1716937613.070445,172.16.3.2,5101,172.16.1.2,62290,9749,14480,0,65728,65728,6,6,4,1460,527,1,992,66,33580,0,65700,0,0,0,0,0
o,0x00000000,1716937613.070454,172.16.3.2,5101,172.16.1.2,62290,9749,14480,0,65728,65728,6,6,4,1460,527,1,993,66,33580,0,65700,1448,0,0,0,0
i,0x00000000,1716937613.080891,172.16.3.2,5101,172.16.1.2,62290,9749,14480,0,65728,65728,6,6,4,1460,527,1,992,66,33580,0,65700,0,0,0,0,0
i,0x00000000,1716937613.091111,172.16.3.2,5101,172.16.1.2,62290,9749,14480,0,65728,65728,6,6,4,1460,527,1,992,66,33580,0,65700,0,0,0,0,0
o,0x00000000,1716937613.091117,172.16.3.2,5101,172.16.1.2,62290,9749,14480,0,65728,65728,6,6,4,1460,527,1,993,66,33580,0,65700,1448,0,0,0,0
i,0x00000000,1716937613.110125,172.16.3.2,5101,172.16.1.2,62290,9749,14480,0,65728,65728,6,6,4,1460,527,1,992,66,33580,0,65700,0,0,0,0,0
i,0x00000000,1716937613.119660,172.16.3.2,5101,172.16.1.2,62290,9749,14480,0,65728,65728,6,6,4,1460,527,1,992,66,33580,0,65700,0,0,0,0,0
o,0x00000000,1716937613.119670,172.16.3.2,5101,172.16.1.2,62290,9749,14480,0,65728,65728,6,6,4,1460,527,1,993,66,33580,0,65700,1448,0,0,0,0
i,0x00000000,1716937613.159967,172.16.3.2,5101,172.16.1.2,62290,9749,14480,0,65728,65728,6,6,4,1460,527,1,992,66,33580,0,65700,0,0,0,0,0
i,0x00000000,1716937613.170235,172.16.3.2,5101,172.16.1.2,62290,9749,14480,0,65728,65728,6,6,4,1460,527,1,992,66,33580,0,65700,0,0,0,0,0
o,0x00000000,1716937613.170241,172.16.3.2,5101,172.16.1.2,62290,9749,14480,0,65728,65728,6,6,4,1460,527,1,993,66,33580,0,65700,1448,0,0,0,0
i,0x00000000,1716937613.179647,172.16.3.2,5101,172.16.1.2,62290,9749,14480,0,65728,65728,6,6,4,1460,527,1,992,66,33580,0,65700,0,0,0,0,0
i,0x00000000,1716937613.190842,172.16.3.2,5101,172.16.1.2,62290,9749,14480,0,65728,65728,6,6,4,1460,527,1,992,66,33580,0,65700,0,0,0,0,0
o,0x00000000,1716937613.190847,172.16.3.2,5101,172.16.1.2,62290,9749,14480,0,65728,65728,6,6,4,1460,527,1,993,66,33580,0,65700,1448,0,0,0,0
i,0x00000000,1716937613.210571,172.16.3.2,5101,172.16.1.2,62290,9749,14480,0,65728,65728,6,6,4,1460,527,1,992,66,33580,0,65700,0,0,0,0,0
o,0x00000000,1716937613.247587,172.16.3.2,5101,172.16.1.2,62290,9749,14480,0,65728,65728,6,6,4,1460,527,1,993,66,33580,0,65700,0,0,0,0,0
o,0x00000000,1716937613.317243,10.0.2.15,22,10.0.2.2,62180,1073725440,14600,0,65535,65700,0,0,4,1460,1,0,4,24,33580,108,65700,0,0,0,0,0
i,0x00000000,1716937613.318253,10.0.2.15,22,10.0.2.2,62180,1073725440,14600,0,65535,65700,0,0,4,1460,1,0,4,24,33580,108,65700,0,108,0,0,0
i,0x00000000,1716937613.340029,172.16.3.2,5101,172.16.1.2,62290,9749,14480,0,65728,65728,6,6,4,1460,527,1,992,66,33580,0,65700,0,0,0,0,0
i,0x00000000,1716937613.350324,172.16.3.2,5101,172.16.1.2,62290,9749,14480,0,65728,65728,6,6,4,1460,527,1,992,66,33580,0,65700,0,0,0,0,0
o,0x00000000,1716937613.350334,172.16.3.2,5101,172.16.1.2,62290,9749,14480,0,65728,65728,6,6,4,1460,527,1,993,66,33580,0,65700,1448,0,0,0,0
i,0x00000000,1716937613.359647,172.16.3.2,5101,172.16.1.2,62290,9749,14480,0,65728,65728,6,6,4,1460,527,1,992,66,33580,0,65700,0,0,0,0,0
i,0x00000000,1716937613.380337,172.16.3.2,5101,172.16.1.2,62290,9749,14480,0,65728,65728,6,6,4,1460,527,1,992,66,33580,0,65700,0,0,0,0,0
o,0x00000000,1716937613.380343,172.16.3.2,5101,172.16.1.2,62290,9749,14480,0,65728,65728,6,6,4,1460,527,1,993,66,33580,0,65700,1448,0,0,0,0
i,0x00000000,1716937613.409788,172.16.3.2,5101,172.16.1.2,62290,9749,14480,0,65728,65728,6,6,4,1460,527,1,992,66,33580,0,65700,0,0,0,0,0
i,0x00000000,1716937613.419596,172.16.3.2,5101,172.16.1.2,62290,9749,14480,0,65728,65728,6,6,4,1460,527,1,992,66,33580,0,65700,0,0,0,0,0
o,0x00000000,1716937613.419602,172.16.3.2,5101,172.16.1.2,62290,9749,14480,0,65728,65728,6,6,4,1460,527,1,993,66,33580,0,65700,1448,0,0,0,0
i,0x00000000,1716937613.439807,172.16.3.2,5101,172.16.1.2,62290,9749,14480,0,65728,65728,6,6,4,1460,527,1,992,66,33580,0,65700,0,0,0,0,0
i,0x00000000,1716937613.450106,172.16.3.2,5101,172.16.1.2,62290,9749,14480,0,65728,65728,6,6,4,1460,527,1,992,66,33580,0,65700,0,0,0,0,0
o,0x00000000,1716937613.450112,172.16.3.2,5101,172.16.1.2,62290,9749,14480,0,65728,65728,6,6,4,1460,527,1,993,66,33580,0,65700,1448,0,0,0,0
i,0x00000000,1716937613.460381,172.16.3.2,5101,172.16.1.2,62290,9749,14480,0,65728,65728,6,6,4,1460,527,1,992,66,33580,0,65700,0,0,0,0,0
i,0x00000000,1716937613.469836,172.16.3.2,5101,172.16.1.2,62290,9749,14480,0,65728,65728,6,6,4,1460,527,1,992,66,33580,0,65700,0,0,0,0,0
o,0x00000000,1716937613.469843,172.16.3.2,5101,172.16.1.2,62290,9749,14480,0,65728,65728,6,6,4,1460,527,1,993,66,33580,0,65700,1448,0,0,0,0
i,0x00000000,1716937613.510067,172.16.3.2,5101,172.16.1.2,62290,9749,14480,0,65728,65728,6,6,4,1460,527,1,992,66,33580,0,65700,0,0,0,0,0
i,0x00000000,1716937613.519534,172.16.3.2,5101,172.16.1.2,62290,9749,14480,0,65728,65728,6,6,4,1460,527,1,992,66,33580,0,65700,0,0,0,0,0
o,0x00000000,1716937613.519545,172.16.3.2,5101,172.16.1.2,62290,9749,14480,0,65728,65728,6,6,4,1460,527,1,993,66,33580,0,65700,1448,0,0,0,0
i,0x00000000,1716937613.550496,172.16.3.2,5101,172.16.1.2,62290,9749,14480,0,65728,65728,6,6,4,1460,527,1,992,66,33580,0,65700,0,0,0,0,0
i,0x00000000,1716937613.559863,172.16.3.2,5101,172.16.1.2,62290,9749,14480,0,65728,65728,6,6,4,1460,527,1,992,66,33580,0,65700,0,0,0,0,0
o,0x00000000,1716937613.559876,172.16.3.2,5101,172.16.1.2,62290,9749,14480,0,65728,65728,6,6,4,1460,527,1,993,66,33580,0,65700,1448,0,0,0,0
i,0x00000000,1716937613.630163,172.16.3.2,5101,172.16.1.2,62290,9749,14480,0,65728,65728,6,6,4,1460,527,1,992,66,33580,0,65700,0,0,0,0,0
o,0x00000000,1716937613.667502,172.16.3.2,5101,172.16.1.2,62290,9749,14480,0,65728,65728,6,6,4,1460,527,1,993,66,33580,0,65700,0,0,0,0,0
i,0x00000000,1716937613.720306,172.16.3.2,5101,172.16.1.2,62290,9749,14480,0,65728,65728,6,6,4,1460,527,1,992,66,33580,0,65700,0,0,0,0,0
i,0x00000000,1716937613.729903,172.16.3.2,5101,172.16.1.2,62290,9749,14480,0,65728,65728,6,6,4,1460,527,1,992,66,33580,0,65700,0,0,0,0,0
o,0x00000000,1716937613.729914,172.16.3.2,5101,172.16.1.2,62290,9749,14480,0,65728,65728,6,6,4,1460,527,1,993,66,33580,0,65700,1448,0,0,0,0
i,0x00000000,1716937613.740369,172.16.3.2,5101,172.16.1.2,62290,9749,14480,0,65728,65728,6,6,4,1460,527,1,992,66,33580,0,65700,0,0,0,0,0
i,0x00000000,1716937613.749527,172.16.3.2,5101,172.16.1.2,62290,9749,14480,0,65728,65728,6,6,4,1460,527,1,992,66,33580,0,65700,0,0,0,0,0
o,0x00000000,1716937613.749536,172.16.3.2,5101,172.16.1.2,62290,9749,14480,0,65728,65728,6,6,4,1460,527,1,993,66,33580,0,65700,1448,0,0,0,0
i,0x00000000,1716937613.789873,172.16.3.2,5101,172.16.1.2,62290,9749,14480,0,65728,65728,6,6,4,1460,527,1,992,66,33580,0,65700,0,0,0,0,0
o,0x00000000,1716937613.789885,172.16.3.2,5101,172.16.1.2,62290,9749,14480,0,65728,65700,6,6,4,1460,527,1,993,66,33580,0,65700,0,0,1,0,0
i,0x00000000,1716937613.799215,172.16.3.2,5101,172.16.1.2,62290,9749,14480,0,65728,65700,6,6,4,1460,527,1,992,66,33580,0,65700,0,0,1,0,0
o,0x00000000,1716937613.799222,172.16.3.2,5101,172.16.1.2,62290,9749,14480,0,65728,65728,6,6,4,1460,527,1,993,66,33580,0,65700,0,0,1,0,0
i,0x00000000,1716937613.819452,172.16.3.2,5101,172.16.1.2,62290,9749,14480,0,65728,65728,6,6,4,1460,527,1,992,66,33580,0,65700,0,0,1,0,0
o,0x00000000,1716937613.819459,172.16.3.2,5101,172.16.1.2,62290,9749,14480,0,65728,65728,6,6,4,1460,527,1,993,66,33580,0,65700,0,0,1,0,0
i,0x00000000,1716937613.829231,172.16.3.2,5101,172.16.1.2,62290,9749,14480,0,65728,65728,6,6,4,1460,527,1,992,66,33580,0,65700,0,0,1,0,0
o,0x00000000,1716937613.829237,172.16.3.2,5101,172.16.1.2,62290,9749,14480,0,65728,65728,6,6,4,1460,527,1,993,66,33580,0,65700,0,0,1,0,0
i,0x00000000,1716937613.839568,172.16.3.2,5101,172.16.1.2,62290,9749,14480,0,65728,65728,6,6,4,1460,527,1,992,66,33580,0,65700,0,0,1,0,0
o,0x00000000,1716937613.839572,172.16.3.2,5101,172.16.1.2,62290,9749,14480,0,65728,65728,6,6,4,1460,527,1,993,66,33580,0,65700,0,0,1,0,0
i,0x00000000,1716937613.849789,172.16.3.2,5101,172.16.1.2,62290,9749,14480,0,65728,65728,6,6,4,1460,527,1,992,66,33580,0,65700,0,0,1,0,0
o,0x00000000,1716937613.849793,172.16.3.2,5101,172.16.1.2,62290,9749,14480,0,65728,65728,6,6,4,1460,527,1,993,66,33580,0,65700,0,0,1,0,0
i,0x00000000,1716937613.890141,172.16.3.2,5101,172.16.1.2,62290,9749,14480,0,65728,65728,6,6,4,1460,527,1,992,66,33580,0,65700,0,0,1,0,0
o,0x00000000,1716937613.890146,172.16.3.2,5101,172.16.1.2,62290,9749,14480,0,65728,65728,6,6,4,1460,527,1,993,66,33580,0,65700,0,0,1,0,0
i,0x00000000,1716937613.899502,172.16.3.2,5101,172.16.1.2,62290,9749,14480,0,65728,65728,6,6,4,1460,527,1,992,66,33580,0,65700,0,0,1,0,0
o,0x00000000,1716937613.899508,172.16.3.2,5101,172.16.1.2,62290,9749,14480,0,65728,65728,6,6,4,1460,527,1,993,66,33580,0,65700,0,0,2,0,0
i,0x00000000,1716937613.920873,172.16.3.2,5101,172.16.1.2,62290,9749,14480,0,65728,65728,6,6,4,1460,527,1,992,66,33580,0,65700,0,0,2,0,0
o,0x00000000,1716937613.920898,172.16.3.2,5101,172.16.1.2,62290,9749,14480,0,65728,65728,6,6,4,1460,527,1,993,66,33580,0,65700,0,0,2,0,0
i,0x00000000,1716937614.039037,172.16.3.2,5101,172.16.1.2,62290,9749,14480,0,65728,65728,6,6,4,1460,527,1,992,66,33580,0,65700,0,0,2,0,0
o,0x00000000,1716937614.039051,172.16.3.2,5101,172.16.1.2,62290,9749,14480,0,65728,65728,6,6,4,1460,527,1,993,66,33580,0,65700,0,0,2,0,0
i,0x00000000,1716937614.049251,172.16.3.2,5101,172.16.1.2,62290,9749,14480,0,65728,65728,6,6,4,1460,527,1,992,66,33580,0,65700,0,0,2,0,0
o,0x00000000,1716937614.049258,172.16.3.2,5101,172.16.1.2,62290,9749,14480,0,65728,65728,6,6,4,1460,527,1,993,66,33580,0,65700,0,0,2,0,0
i,0x00000000,1716937614.069981,172.16.3.2,5101,172.16.1.2,62290,9749,14480,0,65728,65728,6,6,4,1460,527,1,992,66,33580,0,65700,0,0,2,0,0
o,0x00000000,1716937614.069985,172.16.3.2,5101,172.16.1.2,62290,9749,14480,0,65728,65728,6,6,4,1460,527,1,993,66,33580,0,65700,0,0,2,0,0
i,0x00000000,1716937614.080403,172.16.3.2,5101,172.16.1.2,62290,9749,14480,0,65728,65728,6,6,4,1460,527,1,992,66,33580,0,65700,0,0,2,0,0
o,0x00000000,1716937614.080407,172.16.3.2,5101,172.16.1.2,62290,9749,14480,0,65728,65728,6,6,4,1460,527,1,993,66,33580,0,65700,0,0,2,0,0
i,0x00000000,1716937614.089534,172.16.3.2,5101,172.16.1.2,62290,9749,14480,0,65728,65728,6,6,4,1460,527,1,992,66,33580,0,65700,0,0,2,0,0
o,0x00000000,1716937614.089540,172.16.3.2,5101,172.16.1.2,62290,9749,14480,0,65728,65728,6,6,4,1460,527,1,993,66,33580,0,65700,0,0,2,0,0
i,0x00000000,1716937614.109404,172.16.3.2,5101,172.16.1.2,62290,9749,14480,0,65728,65728,6,6,4,1460,527,1,992,66,33580,0,65700,0,0,2,0,0
o,0x00000000,1716937614.109410,172.16.3.2,5101,172.16.1.2,62290,9749,14480,0,65728,65728,6,6,4,1460,527,1,993,66,33580,0,65700,0,0,2,0,0
i,0x00000000,1716937614.130245,172.16.3.2,5101,172.16.1.2,62290,9749,14480,0,65728,65728,6,6,4,1460,527,1,992,66,33580,0,65700,0,0,2,0,0
