enable_time_secs=1716935971	enable_time_usecs=933034	siftrver=1.2.4	hz=100	tcp_rtt_scale=32	sysname=FreeBSD	sysver=1301000	ipmode=4
o,0x00000000,1716935971.933067,10.0.2.15,22,10.0.2.2,56837,1073725440,17298,0,65535,65700,0,0,4,1460,1,0,4,24,33580,44,65700,0,0,0,0,0
o,0x00000000,1716935971.933196,10.0.2.15,22,10.0.2.2,56837,1073725440,17298,0,65535,65700,0,0,4,1460,1,0,4,24,33580,80,65700,0,44,0,0,0
i,0x00000000,1716935971.933840,10.0.2.15,22,10.0.2.2,56837,1073725440,17298,0,65535,65700,0,0,4,1460,1,0,4,24,33580,80,65700,0,80,0,0,0
i,0x00000000,1716935971.934146,10.0.2.15,22,10.0.2.2,56837,1073725440,17342,0,65535,65700,0,0,4,1460,1,0,4,24,33580,36,65700,0,36,0,0,0
o,0x00000000,1716935971.934252,10.0.2.15,22,10.0.2.2,56837,1073725440,17378,0,65535,65700,0,0,4,1460,1,0,4,24,33580,36,65700,0,0,0,0,0
i,0x00000000,1716935971.934664,10.0.2.15,22,10.0.2.2,56837,1073725440,17378,0,65535,65700,0,0,4,1460,1,0,4,24,33580,36,65700,0,36,0,0,0
o,0x00000000,1716935971.934874,10.0.2.15,22,10.0.2.2,56837,1073725440,17414,0,65535,65700,0,0,4,1460,1,0,4,24,33580,176,65700,0,0,0,0,0
i,0x00000000,1716935971.935332,10.0.2.15,22,10.0.2.2,56837,1073725440,17414,0,65535,65700,0,0,4,1460,1,0,4,24,33580,176,65700,0,176,0,0,0
i,0x00000000,1716935971.935833,10.0.2.15,22,10.0.2.2,56837,1073725440,17590,0,65535,65700,0,0,4,1460,1,0,4,24,33580,0,65700,0,0,0,0,0
i,0x00000000,1716935971.935836,10.0.2.15,22,10.0.2.2,56837,1073725440,17590,0,65535,65700,0,0,4,1460,1,0,4,24,33580,0,65700,96,0,0,0,0
o,0x00000000,1716935971.935839,10.0.2.15,22,10.0.2.2,56837,1073725440,17590,0,65535,65604,0,0,5,1460,1,0,5,24,33580,0,65700,96,0,0,0,0
o,0x00000000,1716935971.936187,10.0.2.15,22,10.0.2.2,56837,1073725440,17590,0,65535,65604,0,0,8,1460,1,0,4,24,33580,0,65700,0,0,0,0,0
i,0x00000000,1716935971.937170,10.0.2.15,22,10.0.2.2,56837,1073725440,17590,0,65535,65604,0,0,8,1460,1,0,20,24,33580,0,65700,0,1,0,0,0
i,0x00000000,1716935974.018173,10.0.2.15,22,10.0.2.2,56840,1073725440,14600,0,65535,65700,0,0,4,1460,1,0,0,27,33580,0,65700,0,0,0,0,0
o,0x00000000,1716935974.023839,10.0.2.15,22,10.0.2.2,56840,1073725440,14600,0,65535,65700,0,0,4,1460,1,0,0,27,33580,38,65700,41,0,0,0,0
i,0x00000000,1716935974.024416,10.0.2.15,22,10.0.2.2,56840,1073725440,14600,0,65535,65700,0,0,4,1460,1,0,0,27,33580,38,65700,41,38,0,0,0
i,0x00000000,1716935974.025147,10.0.2.15,22,10.0.2.2,56840,1073725440,14638,0,65535,65700,0,0,4,1460,1,0,0,24,33580,0,65700,0,0,0,0,0
i,0x00000000,1716935974.025149,10.0.2.15,22,10.0.2.2,56840,1073725440,14638,0,65535,65700,0,0,4,1460,1,0,0,24,33580,0,65700,1460,0,0,0,0
o,0x00000000,1716935974.025153,10.0.2.15,22,10.0.2.2,56840,1073725440,14638,0,65535,65700,0,0,4,1460,1,0,1,24,33580,0,65700,1536,0,0,0,0
o,0x00000000,1716935974.025592,10.0.2.15,22,10.0.2.2,56840,1073725440,14638,0,65535,65700,0,0,4,1460,1,0,0,24,33580,1056,65700,1536,0,0,0,0
i,0x00000000,1716935974.026226,10.0.2.15,22,10.0.2.2,56840,1073725440,14638,0,65535,65700,0,0,4,1460,1,0,0,24,33580,1056,65700,1536,1056,0,0,0
i,0x00000000,1716935974.027777,10.0.2.15,22,10.0.2.2,56840,1073725440,15694,0,65535,65700,0,0,4,1460,1,0,0,24,33580,0,65700,0,0,0,0,0
o,0x00000000,1716935974.030170,10.0.2.15,22,10.0.2.2,56840,1073725440,15694,0,65535,65700,0,0,4,1460,1,0,0,24,33580,484,65700,0,0,0,0,0
i,0x00000000,1716935974.030854,10.0.2.15,22,10.0.2.2,56840,1073725440,15694,0,65535,65700,0,0,4,1460,1,0,0,24,33580,484,65700,0,484,0,0,0
i,0x00000000,1716935974.035558,10.0.2.15,22,10.0.2.2,56840,1073725440,16178,0,65535,65700,0,0,4,1460,1,0,0,24,33580,0,65700,0,0,0,0,0
i,0x00000000,1716935974.040316,10.0.2.15,22,10.0.2.2,56840,1073725440,16178,0,65535,65700,0,0,4,1460,1,0,0,24,33580,0,65700,0,0,0,0,0
o,0x00000000,1716935974.040320,10.0.2.15,22,10.0.2.2,56840,1073725440,16178,0,65535,65700,0,0,4,1460,1,0,1,24,33580,0,65700,44,0,0,0,0
o,0x00000000,1716935974.040457,10.0.2.15,22,10.0.2.2,56840,1073725440,16178,0,65535,65700,0,0,4,1460,1,0,0,24,33580,44,65700,0,0,0,0,0
i,0x00000000,1716935974.041134,10.0.2.15,22,10.0.2.2,56840,1073725440,16178,0,65535,65700,0,0,4,1460,1,0,0,24,33580,44,65700,0,44,0,0,0
i,0x00000000,1716935974.041692,10.0.2.15,22,10.0.2.2,56840,1073725440,16222,0,65535,65700,0,0,4,1460,1,0,0,24,33580,0,65700,0,0,0,0,0
o,0x00000000,1716935974.051255,10.0.2.15,22,10.0.2.2,56840,1073725440,16222,0,65535,65700,0,0,4,1460,1,0,0,24,33580,68,65700,0,0,0,0,0
i,0x00000000,1716935974.051741,10.0.2.15,22,10.0.2.2,56840,1073725440,16222,0,65535,65700,0,0,4,1460,1,0,0,24,33580,68,65700,0,68,0,0,0
i,0x00000000,1716935974.054689,10.0.2.15,22,10.0.2.2,56840,1073725440,16290,0,65535,65700,0,0,4,1460,1,0,0,24,33580,0,65700,0,0,0,0,0
o,0x00000000,1716935974.064558,10.0.2.15,22,10.0.2.2,56840,1073725440,16290,0,65535,65700,0,0,4,1460,1,0,0,24,33580,28,65700,0,0,0,0,0
i,0x00000000,1716935974.065228,10.0.2.15,22,10.0.2.2,56840,1073725440,16290,0,65535,65700,0,0,4,1460,1,0,0,24,33580,28,65700,0,28,0,0,0
i,0x00000000,1716935974.065689,10.0.2.15,22,10.0.2.2,56840,1073725440,16318,0,65535,65700,0,0,4,1460,1,0,0,24,33580,0,65700,0,0,0,0,0
o,0x00000000,1716935974.066402,10.0.2.15,22,10.0.2.2,56840,1073725440,16318,0,65535,65700,0,0,4,1460,1,0,0,24,33580,768,65700,112,0,0,0,0
i,0x00000000,1716935974.067216,10.0.2.15,22,10.0.2.2,56840,1073725440,16318,0,65535,65700,0,0,4,1460,1,0,0,24,33580,768,65700,112,768,0,0,0
o,0x00000000,1716935974.067328,10.0.2.15,22,10.0.2.2,56840,1073725440,17086,0,65535,65700,0,0,4,1460,1,0,0,24,33580,44,65700,0,0,0,0,0
i,0x00000000,1716935974.067800,10.0.2.15,22,10.0.2.2,56840,1073725440,17086,0,65535,65700,0,0,4,1460,1,0,0,24,33580,44,65700,0,44,0,0,0
i,0x00000000,1716935974.068405,10.0.2.15,22,10.0.2.2,56840,1073725440,17130,0,65535,65700,0,0,4,1460,1,0,0,24,33580,0,65700,0,0,0,0,0
o,0x00000000,1716935974.068678,10.0.2.15,22,10.0.2.2,56840,1073725440,17130,0,65535,65700,0,0,4,1460,1,0,4,24,33580,72,65700,0,0,0,0,0
i,0x00000000,1716935974.069357,10.0.2.15,22,10.0.2.2,56840,1073725440,17130,0,65535,65700,0,0,4,1460,1,0,4,24,33580,72,65700,0,72,0,0,0
o,0x00000000,1716935974.071872,10.0.2.15,22,10.0.2.2,56840,1073725440,17202,0,65535,65700,0,0,4,1460,1,0,4,24,33580,44,65700,0,0,0,0,0
i,0x00000000,1716935974.072427,10.0.2.15,22,10.0.2.2,56840,1073725440,17202,0,65535,65700,0,0,4,1460,1,0,4,24,33580,44,65700,0,44,0,0,0
o,0x00000000,1716935974.072687,10.0.2.15,22,10.0.2.2,56840,1073725440,17246,0,65535,65700,0,0,4,1460,1,0,4,24,33580,44,65700,0,0,0,0,0
i,0x00000000,1716935974.073360,10.0.2.15,22,10.0.2.2,56840,1073725440,17246,0,65535,65700,0,0,4,1460,1,0,4,24,33580,44,65700,0,44,0,0,0
o,0x00000000,1716935974.076473,10.0.2.15,22,10.0.2.2,56840,1073725440,17290,0,65535,65700,0,0,4,1460,1,0,4,24,33580,176,65700,0,0,0,0,0
i,0x00000000,1716935974.077579,10.0.2.15,22,10.0.2.2,56840,1073725440,17290,0,65535,65700,0,0,4,1460,1,0,4,24,33580,176,65700,0,176,0,0,0
i,0x00000000,1716935974.077615,10.0.2.15,22,10.0.2.2,56840,1073725440,17466,0,65535,65700,0,0,4,1460,1,0,4,24,33580,0,65700,0,0,0,0,0
i,0x00000000,1716935974.077617,10.0.2.15,22,10.0.2.2,56840,1073725440,17466,0,65535,65700,0,0,4,1460,1,0,4,24,33580,0,65700,36,0,0,0,0
o,0x00000000,1716935974.077618,10.0.2.15,22,10.0.2.2,56840,1073725440,17466,0,65535,65700,0,0,4,1460,1,0,5,24,33580,0,65700,96,0,0,0,0
i,0x00000000,1716935974.077700,10.0.2.15,22,10.0.2.2,56840,1073725440,17466,0,65535,65700,0,0,4,1460,1,0,4,24,33580,0,65700,96,0,0,0,0
o,0x00000000,1716935974.077703,10.0.2.15,22,10.0.2.2,56840,1073725440,17466,0,65535,65604,0,0,5,1460,1,0,7,24,33580,0,65700,96,0,0,0,0
o,0x00000000,1716935974.083193,10.0.2.15,22,10.0.2.2,56840,1073725440,17466,0,65535,65604,0,0,8,1460,1,0,4,24,33580,0,65700,0,0,0,0,0
i,0x00000000,1716935974.083755,10.0.2.15,22,10.0.2.2,56840,1073725440,17466,0,65535,65604,0,0,8,1460,1,0,20,24,33580,0,65700,0,1,0,0,0
i,0x00000000,1716935974.314589,172.16.3.2,5101,172.16.1.2,37118,10499,14480,0,65728,65700,6,6,4,1460,462,1,992,49,33580,0,65700,0,0,0,0,0
o,0x00000000,1716935974.314668,172.16.3.2,5101,172.16.1.2,37118,10499,14480,0,65728,65700,6,6,4,1460,462,1,996,49,33580,1,65700,0,0,0,0,0
i,0x00000000,1716935974.434849,172.16.3.2,5101,172.16.1.2,37118,10499,14480,0,65728,65700,6,6,4,1460,462,1,996,49,33580,1,65700,0,1,0,0,0
i,0x00000000,1716935974.434864,172.16.3.2,5101,172.16.1.2,37118,10499,14480,0,65728,65728,6,6,4,1460,453,1,996,48,33580,0,65700,4,0,0,0,0
o,0x00000000,1716935974.434871,172.16.3.2,5101,172.16.1.2,37118,10499,14480,0,65728,65728,6,6,4,1460,453,1,997,48,33580,0,65700,128,0,0,0,0
o,0x00000000,1716935974.435058,172.16.3.2,5101,172.16.1.2,37118,10499,14480,0,65728,65728,6,6,4,1460,453,1,996,48,33580,1,65700,0,0,0,0,0
o,0x00000000,1716935974.435449,10.0.2.15,22,10.0.2.2,62180,1073725440,14600,0,65535,65700,0,0,4,1460,1,0,4,24,33580,84,65700,0,0,0,0,0
i,0x00000000,1716935974.436112,10.0.2.15,22,10.0.2.2,62180,1073725440,14600,0,65535,65700,0,0,4,1460,1,0,4,24,33580,84,65700,0,84,0,0,0
i,0x00000000,1716935974.584353,172.16.3.2,5101,172.16.1.2,37118,10499,14480,0,65728,65728,6,6,4,1460,453,1,996,48,33580,1,65700,0,1,0,0,0
i,0x00000000,1716935974.674281,172.16.3.2,5101,172.16.1.2,40514,10499,14480,0,65728,65700,6,6,4,1460,462,1,992,49,33580,0,65700,0,0,0,0,0
o,0x00000000,1716935974.676409,172.16.3.2,5101,172.16.1.2,37118,10499,14480,0,65728,65728,6,6,4,1460,453,1,996,44,33580,1,65700,0,0,0,0,0
o,0x00000000,1716935974.676969,172.16.3.2,5101,172.16.1.2,37118,10499,14480,0,65728,65728,6,6,4,1460,453,1,996,44,33580,2,65700,0,1,0,0,0
o,0x00000000,1716935974.677172,10.0.2.15,22,10.0.2.2,62180,1073725440,14600,0,65535,65700,0,0,4,1460,1,0,4,24,33580,108,65700,0,0,0,0,0
i,0x00000000,1716935974.677798,10.0.2.15,22,10.0.2.2,62180,1073725440,14600,0,65535,65700,0,0,4,1460,1,0,4,24,33580,108,65700,0,108,0,0,0
o,0x00000000,1716935974.707724,172.16.3.2,5101,172.16.1.2,40514,10499,14480,0,65728,65700,6,6,4,1460,462,1,993,49,33580,0,65700,0,0,0,0,0
i,0x00000000,1716935974.804808,172.16.3.2,5101,172.16.1.2,37118,10499,14480,0,65728,65728,6,6,4,1460,453,1,996,44,33580,2,65700,0,2,0,0,0
i,0x00000000,1716935974.894673,172.16.3.2,5101,172.16.1.2,40514,10499,14480,0,65728,65700,6,6,4,1460,462,1,992,49,33580,0,65700,0,0,0,0,0
i,0x00000000,1716935974.904040,172.16.3.2,5101,172.16.1.2,40514,10499,14480,0,65728,65700,6,6,4,1460,462,1,992,49,33580,0,65700,0,0,0,0,0
o,0x00000000,1716935974.904052,172.16.3.2,5101,172.16.1.2,40514,10499,14480,0,65728,65700,6,6,4,1460,462,1,993,49,33580,0,65700,1448,0,0,0,0
i,0x00000000,1716935974.914235,172.16.3.2,5101,172.16.1.2,40514,10499,14480,0,65728,65700,6,6,4,1460,462,1,992,49,33580,0,65700,0,0,0,0,0
i,0x00000000,1716935974.924822,172.16.3.2,5101,172.16.1.2,40514,10499,14480,0,65728,65700,6,6,4,1460,462,1,992,49,33580,0,65700,0,0,0,0,0
o,0x00000000,1716935974.924830,172.16.3.2,5101,172.16.1.2,40514,10499,14480,0,65728,65700,6,6,4,1460,462,1,993,49,33580,0,65700,1448,0,0,0,0
i,0x00000000,1716935974.944468,172.16.3.2,5101,172.16.1.2,40514,10499,14480,0,65728,65700,6,6,4,1460,462,1,992,49,33580,0,65700,0,0,0,0,0
i,0x00000000,1716935974.954721,172.16.3.2,5101,172.16.1.2,40514,10499,14480,0,65728,65700,6,6,4,1460,462,1,992,49,33580,0,65700,0,0,0,0,0
o,0x00000000,1716935974.954733,172.16.3.2,5101,172.16.1.2,40514,10499,14480,0,65728,65700,6,6,4,1460,462,1,993,49,33580,0,65700,1448,0,0,0,0
i,0x00000000,1716935974.964231,172.16.3.2,5101,172.16.1.2,40514,10499,14480,0,65728,65700,6,6,4,1460,462,1,992,49,33580,0,65700,0,0,0,0,0
i,0x00000000,1716935974.974483,172.16.3.2,5101,172.16.1.2,40514,10499,14480,0,65728,65700,6,6,4,1460,462,1,992,49,33580,0,65700,0,0,0,0,0
o,0x00000000,1716935974.974492,172.16.3.2,5101,172.16.1.2,40514,10499,14480,0,65728,65700,6,6,4,1460,462,1,993,49,33580,0,65700,1448,0,0,0,0
i,0x00000000,1716935974.983938,172.16.3.2,5101,172.16.1.2,40514,10499,14480,0,65728,65700,6,6,4,1460,462,1,992,49,33580,0,65700,0,0,0,0,0
i,0x00000000,1716935975.003678,172.16.3.2,5101,172.16.1.2,40514,10499,14480,0,65728,65700,6,6,4,1460,462,1,992,49,33580,0,65700,0,0,0,0,0
o,0x00000000,1716935975.003694,172.16.3.2,5101,172.16.1.2,40514,10499,14480,0,65728,65700,6,6,4,1460,462,1,993,49,33580,0,65700,1448,0,0,0,0
i,0x00000000,1716935975.203539,172.16.3.2,5101,172.16.1.2,40514,10499,14480,0,65728,65700,6,6,4,1460,462,1,992,49,33580,0,65700,0,0,0,0,0
i,0x00000000,1716935975.214770,172.16.3.2,5101,172.16.1.2,40514,10499,14480,0,65728,65700,6,6,4,1460,462,1,992,49,33580,0,65700,0,0,0,0,0
o,0x00000000,1716935975.214780,172.16.3.2,5101,172.16.1.2,40514,10499,14480,0,65728,65700,6,6,4,1460,462,1,993,49,33580,0,65700,1448,0,0,0,0
i,0x00000000,1716935975.224000,172.16.3.2,5101,172.16.1.2,40514,10499,14480,0,65728,65700,6,6,4,1460,462,1,992,49,33580,0,65700,0,0,0,0,0
i,0x00000000,1716935975.244732,172.16.3.2,5101,172.16.1.2,40514,10499,14480,0,65728,65700,6,6,4,1460,462,1,992,49,33580,0,65700,0,0,0,0,0
o,0x00000000,1716935975.244747,172.16.3.2,5101,172.16.1.2,40514,10499,14480,0,65728,65700,6,6,4,1460,462,1,993,49,33580,0,65700,1448,0,0,0,0
i,0x00000000,1716935975.254301,172.16.3.2,5101,172.16.1.2,40514,10499,14480,0,65728,65700,6,6,4,1460,462,1,992,49,33580,0,65700,0,0,0,0,0
i,0x00000000,1716935975.264547,172.16.3.2,5101,172.16.1.2,40514,10499,14480,0,65728,65700,6,6,4,1460,462,1,992,49,33580,0,65700,0,0,0,0,0
o,0x00000000,1716935975.264554,172.16.3.2,5101,172.16.1.2,40514,10499,14480,0,65728,65700,6,6,4,1460,462,1,993,49,33580,0,65700,1448,0,0,0,0
i,0x00000000,1716935975.275154,172.16.3.2,5101,172.16.1.2,40514,10499,14480,0,65728,65700,6,6,4,1460,462,1,992,49,33580,0,65700,0,0,0,0,0
i,0x00000000,1716935975.283322,172.16.3.2,5101,172.16.1.2,40514,10499,14480,0,65728,65700,6,6,4,1460,462,1,992,49,33580,0,65700,0,0,0,0,0
o,0x00000000,1716935975.283327,172.16.3.2,5101,172.16.1.2,40514,10499,14480,0,65728,65700,6,6,4,1460,462,1,993,49,33580,0,65700,1448,0,0,0,0
i,0x00000000,1716935975.304001,172.16.3.2,5101,172.16.1.2,40514,10499,14480,0,65728,65700,6,6,4,1460,462,1,992,49,33580,0,65700,0,0,0,0,0
i,0x00000000,1716935975.314487,172.16.3.2,5101,172.16.1.2,40514,10499,14480,0,65728,65700,6,6,4,1460,462,1,992,49,33580,0,65700,0,0,0,0,0
o,0x00000000,1716935975.314492,172.16.3.2,5101,172.16.1.2,40514,10499,14480,0,65728,65700,6,6,4,1460,462,1,993,49,33580,0,65700,1448,0,0,0,0
i,0x00000000,1716935975.324801,172.16.3.2,5101,172.16.1.2,40514,10499,14480,0,65728,65700,6,6,4,1460,462,1,992,49,33580,0,65700,0,0,0,0,0
o,0x00000000,1716935975.357362,172.16.3.2,5101,172.16.1.2,40514,10499,14480,0,65728,65700,6,6,4,1460,462,1,993,49,33580,0,65700,0,0,0,0,0
i,0x00000000,1716935975.504973,172.16.3.2,5101,172.16.1.2,40514,10499,14480,0,65728,65700,6,6,4,1460,462,1,992,49,33580,0,65700,0,0,0,0,0
i,0x00000000,1716935975.513314,172.16.3.2,5101,172.16.1.2,40514,10499,14480,0,65728,65700,6,6,4,1460,462,1,992,49,33580,0,65700,0,0,0,0,0
o,0x00000000,1716935975.513321,172.16.3.2,5101,172.16.1.2,40514,10499,14480,0,65728,65700,6,6,4,1460,462,1,993,49,33580,0,65700,1448,0,0,0,0
i,0x00000000,1716935975.523654,172.16.3.2,5101,172.16.1.2,40514,10499,14480,0,65728,65700,6,6,4,1460,462,1,992,49,33580,0,65700,0,0,0,0,0
i,0x00000000,1716935975.533986,172.16.3.2,5101,172.16.1.2,40514,10499,14480,0,65728,65700,6,6,4,1460,462,1,992,49,33580,0,65700,0,0,0,0,0
o,0x00000000,1716935975.533993,172.16.3.2,5101,172.16.1.2,40514,10499,14480,0,65728,65700,6,6,4,1460,462,1,993,49,33580,0,65700,1448,0,0,0,0
i,0x00000000,1716935975.554677,172.16.3.2,5101,172.16.1.2,40514,10499,14480,0,65728,65700,6,6,4,1460,462,1,992,49,33580,0,65700,0,0,0,0,0
i,0x00000000,1716935975.564051,172.16.3.2,5101,172.16.1.2,40514,10499,14480,0,65728,65700,6,6,4,1460,462,1,992,49,33580,0,65700,0,0,0,0,0
o,0x00000000,1716935975.564058,172.16.3.2,5101,172.16.1.2,40514,10499,14480,0,65728,65700,6,6,4,1460,462,1,993,49,33580,0,65700,1448,0,0,0,0
i,0x00000000,1716935975.574352,172.16.3.2,5101,172.16.1.2,40514,10499,14480,0,65728,65700,6,6,4,1460,462,1,992,49,33580,0,65700,0,0,0,0,0
i,0x00000000,1716935975.583818,172.16.3.2,5101,172.16.1.2,40514,10499,14480,0,65728,65700,6,6,4,1460,462,1,992,49,33580,0,65700,0,0,0,0,0
o,0x00000000,1716935975.583824,172.16.3.2,5101,172.16.1.2,40514,10499,14480,0,65728,65700,6,6,4,1460,462,1,993,49,33580,0,65700,1448,0,0,0,0
i,0x00000000,1716935975.594093,172.16.3.2,5101,172.16.1.2,40514,10499,14480,0,65728,65700,6,6,4,1460,462,1,992,49,33580,0,65700,0,0,0,0,0
i,0x00000000,1716935975.614813,172.16.3.2,5101,172.16.1.2,40514,10499,14480,0,65728,65700,6,6,4,1460,462,1,992,49,33580,0,65700,0,0,0,0,0
o,0x00000000,1716935975.614818,172.16.3.2,5101,172.16.1.2,40514,10499,14480,0,65728,65700,6,6,4,1460,462,1,993,49,33580,0,65700,1448,0,0,0,0
i,0x00000000,1716935975.664605,172.16.3.2,5101,172.16.1.2,40514,10499,14480,0,65728,65700,6,6,4,1460,462,1,992,49,33580,0,65700,0,0,0,0,0
i,0x00000000,1716935975.673978,172.16.3.2,5101,172.16.1.2,40514,10499,14480,0,65728,65700,6,6,4,1460,462,1,992,49,33580,0,65700,0,0,0,0,0
o,0x00000000,1716935975.673984,172.16.3.2,5101,172.16.1.2,40514,10499,14480,0,65728,65700,6,6,4,1460,462,1,993,49,33580,0,65700,1448,0,0,0,0
o,0x00000000,1716935975.687945,10.0.2.15,22,10.0.2.2,62180,1073725440,14600,0,65535,65700,0,0,4,1460,1,0,4,24,33580,156,65700,0,0,0,0,0
i,0x00000000,1716935975.688699,10.0.2.15,22,10.0.2.2,62180,1073725440,14600,0,65535,65700,0,0,4,1460,1,0,4,24,33580,156,65700,0,156,0,0,0
i,0x00000000,1716935975.803358,172.16.3.2,5101,172.16.1.2,40514,10499,14480,0,65728,65700,6,6,4,1460,462,1,992,49,33580,0,65700,0,0,0,0,0
i,0x00000000,1716935975.813721,172.16.3.2,5101,172.16.1.2,40514,10499,14480,0,65728,65700,6,6,4,1460,462,1,992,49,33580,0,65700,0,0,0,0,0
o,0x00000000,1716935975.813733,172.16.3.2,5101,172.16.1.2,40514,10499,14480,0,65728,65700,6,6,4,1460,462,1,993,49,33580,0,65700,1448,0,0,0,0
i,0x00000000,1716935975.833462,172.16.3.2,5101,172.16.1.2,40514,10499,14480,0,65728,65700,6,6,4,1460,462,1,992,49,33580,0,65700,0,0,0,0,0
i,0x00000000,1716935975.843899,172.16.3.2,5101,172.16.1.2,40514,10499,14480,0,65728,65700,6,6,4,1460,462,1,992,49,33580,0,65700,0,0,0,0,0
o,0x00000000,1716935975.843908,172.16.3.2,5101,172.16.1.2,40514,10499,14480,0,65728,65700,6,6,4,1460,462,1,993,49,33580,0,65700,1448,0,0,0,0
i,0x00000000,1716935975.854198,172.16.3.2,5101,172.16.1.2,40514,10499,14480,0,65728,65700,6,6,4,1460,462,1,992,49,33580,0,65700,0,0,0,0,0
i,0x00000000,1716935975.863600,172.16.3.2,5101,172.16.1.2,40514,10499,14480,0,65728,65700,6,6,4,1460,462,1,992,49,33580,0,65700,0,0,0,0,0
o,0x00000000,1716935975.863606,172.16.3.2,5101,172.16.1.2,40514,10499,14480,0,65728,65700,6,6,4,1460,462,1,993,49,33580,0,65700,1448,0,0,0,0
i,0x00000000,1716935975.874831,172.16.3.2,5101,172.16.1.2,40514,10499,14480,0,65728,65700,6,6,4,1460,462,1,992,49,33580,0,65700,0,0,0,0,0
i,0x00000000,1716935975.893544,172.16.3.2,5101,172.16.1.2,40514,10499,14480,0,65728,65700,6,6,4,1460,462,1,992,49,33580,0,65700,0,0,0,0,0
o,0x00000000,1716935975.893549,172.16.3.2,5101,172.16.1.2,40514,10499,14480,0,65728,65700,6,6,4,1460,462,1,993,49,33580,0,65700,1448,0,0,0,0
i,0x00000000,1716935975.903868,172.16.3.2,5101,172.16.1.2,40514,10499,14480,0,65728,65700,6,6,4,1460,462,1,992,49,33580,0,65700,0,0,0,0,0
i,0x00000000,1716935975.914191,172.16.3.2,5101,172.16.1.2,40514,10499,14480,0,65728,65700,6,6,4,1460,462,1,992,49,33580,0,65700,0,0,0,0,0
o,0x00000000,1716935975.914195,172.16.3.2,5101,172.16.1.2,40514,10499,14480,0,65728,65700,6,6,4,1460,462,1,993,49,33580,0,65700,1448,0,0,0,0
i,0x00000000,1716935975.963977,172.16.3.2,5101,172.16.1.2,40514,10499,14480,0,65728,65700,6,6,4,1460,462,1,992,49,33580,0,65700,0,0,0,0,0
i,0x00000000,1716935975.974302,172.16.3.2,5101,172.16.1.2,40514,10499,14480,0,65728,65700,6,6,4,1460,462,1,992,49,33580,0,65700,0,0,0,0,0
o,0x00000000,1716935975.974316,172.16.3.2,5101,172.16.1.2,40514,10499,14480,0,65728,65700,6,6,4,1460,462,1,993,49,33580,0,65700,1448,0,0,0,0
i,0x00000000,1716935975.994177,172.16.3.2,5101,172.16.1.2,40514,10499,14480,0,65728,65700,6,6,4,1460,462,1,992,49,33580,0,65700,0,0,0,0,0
o,0x00000000,1716935976.027665,172.16.3.2,5101,172.16.1.2,40514,10499,14480,0,65728,65700,6,6,4,1460,462,1,993,49,33580,0,65700,0,0,0,0,0
i,0x00000000,1716935976.124585,172.16.3.2,5101,172.16.1.2,40514,10499,14480,0,65728,65700,6,6,4,1460,462,1,992,49,33580,0,65700,0,0,0,0,0
i,0x00000000,1716935976.133786,172.16.3.2,5101,172.16.1.2,40514,10499,14480,0,65728,65700,6,6,4,1460,462,1,992,49,33580,0,65700,0,0,0,0,0
o,0x00000000,1716935976.133799,172.16.3.2,5101,172.16.1.2,40514,10499,14480,0,65728,65700,6,6,4,1460,462,1,993,49,33580,0,65700,1448,0,0,0,0
i,0x00000000,1716935976.144339,172.16.3.2,5101,172.16.1.2,40514,10499,14480,0,65728,65700,6,6,4,1460,462,1,992,49,33580,0,65700,0,0,0,0,0
i,0x00000000,1716935976.164016,172.16.3.2,5101,172.16.1.2,40514,10499,14480,0,65728,65700,6,6,4,1460,462,1,992,49,33580,0,65700,0,0,0,0,0
o,0x00000000,1716935976.164024,172.16.3.2,5101,172.16.1.2,40514,10499,14480,0,65728,65700,6,6,4,1460,462,1,993,49,33580,0,65700,1448,0,0,0,0
i,0x00000000,1716935976.173245,172.16.3.2,5101,172.16.1.2,40514,10499,14480,0,65728,65700,6,6,4,1460,462,1,992,49,33580,0,65700,0,0,0,0,0
i,0x00000000,1716935976.183709,172.16.3.2,5101,172.16.1.2,40514,10499,14480,0,65728,65700,6,6,4,1460,462,1,992,49,33580,0,65700,0,0,0,0,0
o,0x00000000,1716935976.183715,172.16.3.2,5101,172.16.1.2,40514,10499,14480,0,65728,65700,6,6,4,1460,462,1,993,49,33580,0,65700,1448,0,0,0,0
i,0x00000000,1716935976.193909,172.16.3.2,5101,172.16.1.2,40514,10499,14480,0,65728,65700,6,6,4,1460,462,1,992,49,33580,0,65700,0,0,0,0,0
i,0x00000000,1716935976.204461,172.16.3.2,5101,172.16.1.2,40514,10499,14480,0,65728,65700,6,6,4,1460,462,1,992,49,33580,0,65700,0,0,0,0,0
o,0x00000000,1716935976.204467,172.16.3.2,5101,172.16.1.2,40514,10499,14480,0,65728,65700,6,6,4,1460,462,1,993,49,33580,0,65700,1448,0,0,0,0
i,0x00000000,1716935976.224129,172.16.3.2,5101,172.16.1.2,40514,10499,14480,0,65728,65700,6,6,4,1460,462,1,992,49,33580,0,65700,0,0,0,0,0
i,0x00000000,1716935976.234431,172.16.3.2,5101,172.16.1.2,40514,10499,14480,0,65728,65700,6,6,4,1460,462,1,992,49,33580,0,65700,0,0,0,0,0
o,0x00000000,1716935976.234442,172.16.3.2,5101,172.16.1.2,40514,10499,14480,0,65728,65700,6,6,4,1460,462,1,993,49,33580,0,65700,1448,0,0,0,0
i,0x00000000,1716935976.283497,172.16.3.2,5101,172.16.1.2,40514,10499,14480,0,65728,65700,6,6,4,1460,462,1,992,49,33580,0,65700,0,0,0,0,0
i,0x00000000,1716935976.293413,172.16.3.2,5101,172.16.1.2,40514,10499,14480,0,65728,65700,6,6,4,1460,462,1,992,49,33580,0,65700,0,0,0,0,0
o,0x00000000,1716935976.293422,172.16.3.2,5101,172.16.1.2,40514,10499,14480,0,65728,65700,6,6,4,1460,462,1,993,49,33580,0,65700,1448,0,0,0,0
i,0x00000000,1716935976.413551,172.16.3.2,5101,172.16.1.2,40514,10499,14480,0,65728,65700,6,6,4,1460,462,1,992,49,33580,0,65700,0,0,0,0,0
i,0x00000000,1716935976.423909,172.16.3.2,5101,172.16.1.2,40514,10499,14480,0,65728,65700,6,6,4,1460,462,1,992,49,33580,0,65700,0,0,0,0,0
o,0x00000000,1716935976.423917,172.16.3.2,5101,172.16.1.2,40514,10499,14480,0,65728,65700,6,6,4,1460,462,1,993,49,33580,0,65700,1448,0,0,0,0
i,0x00000000,1716935976.443682,172.16.3.2,5101,172.16.1.2,40514,10499,14480,0,65728,65700,6,6,4,1460,462,1,992,49,33580,0,65700,0,0,0,0,0
i,0x00000000,1716935976.453995,172.16.3.2,5101,172.16.1.2,40514,10499,14480,0,65728,65700,6,6,4,1460,462,1,992,49,33580,0,65700,0,0,0,0,0
o,0x00000000,1716935976.454002,172.16.3.2,5101,172.16.1.2,40514,10499,14480,0,65728,65700,6,6,4,1460,462,1,993,49,33580,0,65700,1448,0,0,0,0
i,0x00000000,1716935976.464355,172.16.3.2,5101,172.16.1.2,40514,10499,14480,0,65728,65700,6,6,4,1460,462,1,992,49,33580,0,65700,0,0,0,0,0
i,0x00000000,1716935976.473749,172.16.3.2,5101,172.16.1.2,40514,10499,14480,0,65728,65700,6,6,4,1460,462,1,992,49,33580,0,65700,0,0,0,0,0
o,0x00000000,1716935976.473754,172.16.3.2,5101,172.16.1.2,40514,10499,14480,0,65728,65700,6,6,4,1460,462,1,993,49,33580,0,65700,1448,0,0,0,0
i,0x00000000,1716935976.483127,172.16.3.2,5101,172.16.1.2,40514,10499,14480,0,65728,65700,6,6,4,1460,462,1,992,49,33580,0,65700,0,0,0,0,0
i,0x00000000,1716935976.503830,172.16.3.2,5101,172.16.1.2,40514,10499,14480,0,65728,65700,6,6,4,1460,462,1,992,49,33580,0,65700,0,0,0,0,0
o,0x00000000,1716935976.503834,172.16.3.2,5101,172.16.1.2,40514,10499,14480,0,65728,65700,6,6,4,1460,462,1,993,49,33580,0,65700,1448,0,0,0,0
i,0x00000000,1716935976.534008,172.16.3.2,5101,172.16.1.2,40514,10499,14480,0,65728,65700,6,6,4,1460,462,1,992,49,33580,0,65700,0,0,0,0,0
i,0x00000000,1716935976.543427,172.16.3.2,5101,172.16.1.2,40514,10499,14480,0,65728,65700,6,6,4,1460,462,1,992,49,33580,0,65700,0,0,0,0,0
o,0x00000000,1716935976.543433,172.16.3.2,5101,172.16.1.2,40514,10499,14480,0,65728,65700,6,6,4,1460,462,1,993,49,33580,0,65700,1448,0,0,0,0
i,0x00000000,1716935976.563312,172.16.3.2,5101,172.16.1.2,40514,10499,14480,0,65728,65700,6,6,4,1460,462,1,992,49,33580,0,65700,0,0,0,0,0
i,0x00000000,1716935976.573565,172.16.3.2,5101,172.16.1.2,40514,10499,14480,0,65728,65700,6,6,4,1460,462,1,992,49,33580,0,65700,0,0,0,0,0
o,0x00000000,1716935976.573572,172.16.3.2,5101,172.16.1.2,40514,10499,14480,0,65728,65700,6,6,4,1460,462,1,993,49,33580,0,65700,1448,0,0,0,0
o,0x00000000,1716935976.687216,10.0.2.15,22,10.0.2.2,62180,1073725440,14600,0,65535,65700,0,0,4,1460,1,0,4,24,33580,108,65700,0,0,0,0,0
i,0x00000000,1716935976.688124,10.0.2.15,22,10.0.2.2,62180,1073725440,14600,0,65535,65700,0,0,4,1460,1,0,4,24,33580,108,65700,0,108,0,0,0
i,0x00000000,1716935976.723538,172.16.3.2,5101,172.16.1.2,40514,10499,14480,0,65728,65700,6,6,4,1460,462,1,992,49,33580,0,65700,0,0,0,0,0
i,0x00000000,1716935976.732875,172.16.3.2,5101,172.16.1.2,40514,10499,14480,0,65728,65700,6,6,4,1460,462,1,992,49,33580,0,65700,0,0,0,0,0
o,0x00000000,1716935976.732886,172.16.3.2,5101,172.16.1.2,40514,10499,14480,0,65728,65700,6,6,4,1460,462,1,993,49,33580,0,65700,1448,0,0,0,0
i,0x00000000,1716935976.773494,172.16.3.2,5101,172.16.1.2,40514,10499,14480,0,65728,65700,6,6,4,1460,462,1,992,49,33580,0,65700,0,0,0,0,0
i,0x00000000,1716935976.782768,172.16.3.2,5101,172.16.1.2,40514,10499,14480,0,65728,65700,6,6,4,1460,462,1,992,49,33580,0,65700,0,0,0,0,0
o,0x00000000,1716935976.782778,172.16.3.2,5101,172.16.1.2,40514,10499,14480,0,65728,65700,6,6,4,1460,462,1,993,49,33580,0,65700,1448,0,0,0,0
i,0x00000000,1716935976.794113,172.16.3.2,5101,172.16.1.2,40514,10499,14480,0,65728,65700,6,6,4,1460,462,1,992,49,33580,0,65700,0,0,0,0,0
i,0x00000000,1716935976.803491,172.16.3.2,5101,172.16.1.2,40514,10499,14480,0,65728,65700,6,6,4,1460,462,1,992,49,33580,0,65700,0,0,0,0,0
o,0x00000000,1716935976.803497,172.16.3.2,5101,172.16.1.2,40514,10499,14480,0,65728,65700,6,6,4,1460,462,1,993,49,33580,0,65700,1448,0,0,0,0
i,0x00000000,1716935976.813937,172.16.3.2,5101,172.16.1.2,40514,10499,14480,0,65728,65700,6,6,4,1460,462,1,992,49,33580,0,65700,0,0,0,0,0
i,0x00000000,1716935976.833659,172.16.3.2,5101,172.16.1.2,40514,10499,14480,0,65728,65700,6,6,4,1460,462,1,992,49,33580,0,65700,0,0,0,0,0
o,0x00000000,1716935976.833667,172.16.3.2,5101,172.16.1.2,40514,10499,14480,0,65728,65700,6,6,4,1460,462,1,993,49,33580,0,65700,1448,0,0,0,0
i,0x00000000,1716935976.843972,172.16.3.2,5101,172.16.1.2,40514,10499,14480,0,65728,65700,6,6,4,1460,462,1,992,49,33580,0,65700,0,0,0,0,0
i,0x00000000,1716935976.853443,172.16.3.2,5101,172.16.1.2,40514,10499,14480,0,65728,65700,6,6,4,1460,462,1,992,49,33580,0,65700,0,0,0,0,0
o,0x00000000,1716935976.853448,172.16.3.2,5101,172.16.1.2,40514,10499,14480,0,65728,65700,6,6,4,1460,462,1,993,49,33580,0,65700,1448,0,0,0,0
i,0x00000000,1716935976.863661,172.16.3.2,5101,172.16.1.2,40514,10499,14480,0,65728,65700,6,6,4,1460,462,1,992,49,33580,0,65700,0,0,0,0,0
o,0x00000000,1716935976.897287,172.16.3.2,5101,172.16.1.2,40514,10499,14480,0,65728,65700,6,6,4,1460,462,1,993,49,33580,0,65700,0,0,0,0,0
i,0x00000000,1716935976.903630,172.16.3.2,5101,172.16.1.2,40514,10499,14480,0,65728,65700,6,6,4,1460,462,1,992,49,33580,0,65700,0,0,0,0,0
i,0x00000000,1716935976.914299,172.16.3.2,5101,172.16.1.2,40514,10499,14480,0,65728,65700,6,6,4,1460,462,1,992,49,33580,0,65700,0,0,0,0,0
o,0x00000000,1716935976.914304,172.16.3.2,5101,172.16.1.2,40514,10499,14480,0,65728,65700,6,6,4,1460,462,1,993,49,33580,0,65700,1448,0,0,0,0
i,0x00000000,1716935976.923348,172.16.3.2,5101,172.16.1.2,40514,10499,14480,0,65728,65700,6,6,4,1460,462,1,992,49,33580,0,65700,0,0,0,0,0
i,0x00000000,1716935976.944050,172.16.3.2,5101,172.16.1.2,40514,10499,14480,0,65728,65700,6,6,4,1460,462,1,992,49,33580,0,65700,0,0,0,0,0
o,0x00000000,1716935976.944061,172.16.3.2,5101,172.16.1.2,40514,10499,14480,0,65728,65700,6,6,4,1460,462,1,993,49,33580,0,65700,1448,0,0,0,0
i,0x00000000,1716935977.083366,172.16.3.2,5101,172.16.1.2,40514,10499,14480,0,65728,65700,6,6,4,1460,462,1,992,49,33580,0,65700,0,0,0,0,0
i,0x00000000,1716935977.102971,172.16.3.2,5101,172.16.1.2,40514,10499,14480,0,65728,65700,6,6,4,1460,462,1,992,49,33580,0,65700,0,0,0,0,0
o,0x00000000,1716935977.102984,172.16.3.2,5101,172.16.1.2,40514,10499,14480,0,65728,65700,6,6,4,1460,462,1,993,49,33580,0,65700,1448,0,0,0,0
i,0x00000000,1716935977.143507,172.16.3.2,5101,172.16.1.2,40514,10499,14480,0,65728,65700,6,6,4,1460,462,1,992,49,33580,0,65700,0,0,0,0,0
i,0x00000000,1716935977.163667,172.16.3.2,5101,172.16.1.2,40514,10499,14480,0,65728,65700,6,6,4,1460,462,1,992,49,33580,0,65700,0,0,0,0,0
o,0x00000000,1716935977.163677,172.16.3.2,5101,172.16.1.2,40514,10499,14480,0,65728,65700,6,6,4,1460,462,1,993,49,33580,0,65700,1448,0,0,0,0
i,0x00000000,1716935977.172838,172.16.3.2,5101,172.16.1.2,40514,10499,14480,0,65728,65700,6,6,4,1460,462,1,992,49,33580,0,65700,0,0,0,0,0
i,0x00000000,1716935977.184373,172.16.3.2,5101,172.16.1.2,40514,10499,14480,0,65728,65700,6,6,4,1460,462,1,992,49,33580,0,65700,0,0,0,0,0
o,0x00000000,1716935977.184379,172.16.3.2,5101,172.16.1.2,40514,10499,14480,0,65728,65700,6,6,4,1460,462,1,993,49,33580,0,65700,1448,0,0,0,0
i,0x00000000,1716935977.193628,172.16.3.2,5101,172.16.1.2,40514,10499,14480,0,65728,65700,6,6,4,1460,462,1,992,49,33580,0,65700,0,0,0,0,0
i,0x00000000,1716935977.203124,172.16.3.2,5101,172.16.1.2,40514,10499,14480,0,65728,65700,6,6,4,1460,462,1,992,49,33580,0,65700,0,0,0,0,0
o,0x00000000,1716935977.203129,172.16.3.2,5101,172.16.1.2,40514,10499,14480,0,65728,65700,6,6,4,1460,462,1,993,49,33580,0,65700,1448,0,0,0,0
i,0x00000000,1716935977.223886,172.16.3.2,5101,172.16.1.2,40514,10499,14480,0,65728,65700,6,6,4,1460,462,1,992,49,33580,0,65700,0,0,0,0,0
i,0x00000000,1716935977.234086,172.16.3.2,5101,172.16.1.2,40514,10499,14480,0,65728,65700,6,6,4,1460,462,1,992,49,33580,0,65700,0,0,0,0,0
o,0x00000000,1716935977.234092,172.16.3.2,5101,172.16.1.2,40514,10499,14480,0,65728,65700,6,6,4,1460,462,1,993,49,33580,0,65700,1448,0,0,0,0
i,0x00000000,1716935977.243379,172.16.3.2,5101,172.16.1.2,40514,10499,14480,0,65728,65700,6,6,4,1460,462,1,992,49,33580,0,65700,0,0,0,0,0
o,0x00000000,1716935977.277532,172.16.3.2,5101,172.16.1.2,40514,10499,14480,0,65728,65700,6,6,4,1460,462,1,993,49,33580,0,65700,0,0,0,0,0
i,0x00000000,1716935977.283941,172.16.3.2,5101,172.16.1.2,40514,10499,14480,0,65728,65700,6,6,4,1460,462,1,992,49,33580,0,65700,0,0,0,0,0
i,0x00000000,1716935977.293291,172.16.3.2,5101,172.16.1.2,40514,10499,14480,0,65728,65700,6,6,4,1460,462,1,992,49,33580,0,65700,0,0,0,0,0
o,0x00000000,1716935977.293298,172.16.3.2,5101,172.16.1.2,40514,10499,14480,0,65728,65700,6,6,4,1460,462,1,993,49,33580,0,65700,1448,0,0,0,0
i,0x00000000,1716935977.303582,172.16.3.2,5101,172.16.1.2,40514,10499,14480,0,65728,65700,6,6,4,1460,462,1,992,49,33580,0,65700,0,0,0,0,0
i,0x00000000,1716935977.323379,172.16.3.2,5101,172.16.1.2,40514,10499,14480,0,65728,65700,6,6,4,1460,462,1,992,49,33580,0,65700,0,0,0,0,0
o,0x00000000,1716935977.323385,172.16.3.2,5101,172.16.1.2,40514,10499,14480,0,65728,65700,6,6,4,1460,462,1,993,49,33580,0,65700,1448,0,0,0,0
i,0x00000000,1716935977.332661,172.16.3.2,5101,172.16.1.2,40514,10499,14480,0,65728,65700,6,6,4,1460,462,1,992,49,33580,0,65700,0,0,0,0,0
o,0x00000000,1716935977.367153,172.16.3.2,5101,172.16.1.2,40514,10499,14480,0,65728,65700,6,6,4,1460,462,1,993,49,33580,0,65700,0,0,0,0,0
i,0x00000000,1716935977.473475,172.16.3.2,5101,172.16.1.2,40514,10499,14480,0,65728,65700,6,6,4,1460,462,1,992,49,33580,0,65700,0,0,0,0,0
i,0x00000000,1716935977.494113,172.16.3.2,5101,172.16.1.2,40514,10499,14480,0,65728,65700,6,6,4,1460,462,1,992,49,33580,0,65700,0,0,0,0,0
o,0x00000000,1716935977.494121,172.16.3.2,5101,172.16.1.2,40514,10499,14480,0,65728,65700,6,6,4,1460,462,1,993,49,33580,0,65700,1448,0,0,0,0
i,0x00000000,1716935977.542803,172.16.3.2,5101,172.16.1.2,40514,10499,14480,0,65728,65700,6,6,4,1460,462,1,992,49,33580,0,65700,0,0,0,0,0
i,0x00000000,1716935977.553163,172.16.3.2,5101,172.16.1.2,40514,10499,14480,0,65728,65700,6,6,4,1460,462,1,992,49,33580,0,65700,0,0,0,0,0
o,0x00000000,1716935977.553171,172.16.3.2,5101,172.16.1.2,40514,10499,14480,0,65728,65700,6,6,4,1460,462,1,993,49,33580,0,65700,1448,0,0,0,0
i,0x00000000,1716935977.563488,172.16.3.2,5101,172.16.1.2,40514,10499,14480,0,65728,65700,6,6,4,1460,462,1,992,49,33580,0,65700,0,0,0,0,0
i,0x00000000,1716935977.573897,172.16.3.2,5101,172.16.1.2,40514,10499,14480,0,65728,65700,6,6,4,1460,462,1,992,49,33580,0,65700,0,0,0,0,0
o,0x00000000,1716935977.573902,172.16.3.2,5101,172.16.1.2,40514,10499,14480,0,65728,65700,6,6,4,1460,462,1,993,49,33580,0,65700,1448,0,0,0,0
i,0x00000000,1716935977.583296,172.16.3.2,5101,172.16.1.2,40514,10499,14480,0,65728,65700,6,6,4,1460,462,1,992,49,33580,0,65700,0,0,0,0,0
i,0x00000000,1716935977.603025,172.16.3.2,5101,172.16.1.2,40514,10499,14480,0,65728,65700,6,6,4,1460,462,1,992,49,33580,0,65700,0,0,0,0,0
o,0x00000000,1716935977.603030,172.16.3.2,5101,172.16.1.2,40514,10499,14480,0,65728,65700,6,6,4,1460,462,1,993,49,33580,0,65700,1448,0,0,0,0
i,0x00000000,1716935977.613347,172.16.3.2,5101,172.16.1.2,40514,10499,14480,0,65728,65700,6,6,4,1460,462,1,992,49,33580,0,65700,0,0,0,0,0
i,0x00000000,1716935977.623710,172.16.3.2,5101,172.16.1.2,40514,10499,14480,0,65728,65700,6,6,4,1460,462,1,992,49,33580,0,65700,0,0,0,0,0
o,0x00000000,1716935977.623715,172.16.3.2,5101,172.16.1.2,40514,10499,14480,0,65728,65700,6,6,4,1460,462,1,993,49,33580,0,65700,1448,0,0,0,0
i,0x00000000,1716935977.633149,172.16.3.2,5101,172.16.1.2,40514,10499,14480,0,65728,65700,6,6,4,1460,462,1,992,49,33580,0,65700,0,0,0,0,0
o,0x00000000,1716935977.667692,172.16.3.2,5101,172.16.1.2,40514,10499,14480,0,65728,65700,6,6,4,1460,462,1,993,49,33580,0,65700,0,0,0,0,0
i,0x00000000,1716935977.673565,172.16.3.2,5101,172.16.1.2,40514,10499,14480,0,65728,65700,6,6,4,1460,462,1,992,49,33580,0,65700,0,0,0,0,0
i,0x00000000,1716935977.682970,172.16.3.2,5101,172.16.1.2,40514,10499,14480,0,65728,65700,6,6,4,1460,462,1,992,49,33580,0,65700,0,0,0,0,0
o,0x00000000,1716935977.682975,172.16.3.2,5101,172.16.1.2,40514,10499,14480,0,65728,65700,6,6,4,1460,462,1,993,49,33580,0,65700,1448,0,0,0,0
o,0x00000000,1716935977.688774,10.0.2.15,22,10.0.2.2,62180,1073725440,14600,0,65535,65700,0,0,4,1460,1,0,4,24,33580,108,65700,0,0,0,0,0
i,0x00000000,1716935977.689518,10.0.2.15,22,10.0.2.2,62180,1073725440,14600,0,65535,65700,0,0,4,1460,1,0,4,24,33580,108,65700,0,108,0,0,0
i,0x00000000,1716935977.692447,172.16.3.2,5101,172.16.1.2,40514,10499,14480,0,65728,65700,6,6,4,1460,462,1,992,49,33580,0,65700,0,0,0,0,0
i,0x00000000,1716935977.713987,172.16.3.2,5101,172.16.1.2,40514,10499,14480,0,65728,65700,6,6,4,1460,462,1,992,49,33580,0,65700,0,0,0,0,0
o,0x00000000,1716935977.713993,172.16.3.2,5101,172.16.1.2,40514,10499,14480,0,65728,65700,6,6,4,1460,462,1,993,49,33580,0,65700,1448,0,0,0,0
i,0x00000000,1716935977.722973,172.16.3.2,5101,172.16.1.2,40514,10499,14480,0,65728,65700,6,6,4,1460,462,1,992,49,33580,0,65700,0,0,0,0,0
o,0x00000000,1716935977.757928,172.16.3.2,5101,172.16.1.2,40514,10499,14480,0,65728,65700,6,6,4,1460,462,1,993,49,33580,0,65700,0,0,0,0,0
i,0x00000000,1716935977.883760,172.16.3.2,5101,172.16.1.2,40514,10499,14480,0,65728,65700,6,6,4,1460,462,1,992,49,33580,0,65700,0,0,0,0,0
i,0x00000000,1716935977.893114,172.16.3.2,5101,172.16.1.2,40514,10499,14480,0,65728,65700,6,6,4,1460,462,1,992,49,33580,0,65700,0,0,0,0,0
o,0x00000000,1716935977.893126,172.16.3.2,5101,172.16.1.2,40514,10499,14480,0,65728,65700,6,6,4,1460,462,1,993,49,33580,0,65700,1448,0,0,0,0
i,0x00000000,1716935977.903519,172.16.3.2,5101,172.16.1.2,40514,10499,14480,0,65728,65700,6,6,4,1460,462,1,992,49,33580,0,65700,0,0,0,0,0
o,0x00000000,1716935977.937964,172.16.3.2,5101,172.16.1.2,40514,10499,14480,0,65728,65700,6,6,4,1460,462,1,993,49,33580,0,65700,0,0,0,0,0
i,0x00000000,1716935977.953224,172.16.3.2,5101,172.16.1.2,40514,10499,14480,0,65728,65700,6,6,4,1460,462,1,992,49,33580,0,65700,0,0,0,0,0
i,0x00000000,1716935977.963560,172.16.3.2,5101,172.16.1.2,40514,10499,14480,0,65728,65700,6,6,4,1460,462,1,992,49,33580,0,65700,0,0,0,0,0
o,0x00000000,1716935977.963572,172.16.3.2,5101,172.16.1.2,40514,10499,14480,0,65728,65700,6,6,4,1460,462,1,993,49,33580,0,65700,1448,0,0,0,0
i,0x00000000,1716935977.983273,172.16.3.2,5101,172.16.1.2,40514,10499,14480,0,65728,65700,6,6,4,1460,462,1,992,49,33580,0,65700,0,0,0,0,0
i,0x00000000,1716935977.992661,172.16.3.2,5101,172.16.1.2,40514,10499,14480,0,65728,65700,6,6,4,1460,462,1,992,49,33580,0,65700,0,0,0,0,0
o,0x00000000,1716935977.992670,172.16.3.2,5101,172.16.1.2,40514,10499,14480,0,65728,65700,6,6,4,1460,462,1,993,49,33580,0,65700,1448,0,0,0,0
i,0x00000000,1716935978.002533,172.16.3.2,5101,172.16.1.2,40514,10499,14480,0,65728,65700,6,6,4,1460,462,1,992,49,33580,0,65700,0,0,0,0,0
i,0x00000000,1716935978.014440,172.16.3.2,5101,172.16.1.2,40514,10499,14480,0,65728,65700,6,6,4,1460,462,1,992,49,33580,0,65700,0,0,0,0,0
o,0x00000000,1716935978.014449,172.16.3.2,5101,172.16.1.2,40514,10499,14480,0,65728,65700,6,6,4,1460,462,1,993,49,33580,0,65700,1448,0,0,0,0
i,0x00000000,1716935978.024685,172.16.3.2,5101,172.16.1.2,40514,10499,14480,0,65728,65700,6,6,4,1460,462,1,992,49,33580,0,65700,0,0,0,0,0
i,0x00000000,1716935978.042862,172.16.3.2,5101,172.16.1.2,40514,10499,14480,0,65728,65700,6,6,4,1460,462,1,992,49,33580,0,65700,0,0,0,0,0
o,0x00000000,1716935978.042870,172.16.3.2,5101,172.16.1.2,40514,10499,14480,0,65728,65700,6,6,4,1460,462,1,993,49,33580,0,65700,1448,0,0,0,0
i,0x00000000,1716935978.053326,172.16.3.2,5101,172.16.1.2,40514,10499,14480,0,65728,65700,6,6,4,1460,462,1,992,49,33580,0,65700,0,0,0,0,0
i,0x00000000,1716935978.082939,172.16.3.2,5101,172.16.1.2,40514,10499,14480,0,65728,65700,6,6,4,1460,462,1,992,49,33580,0,65700,0,0,0,0,0
o,0x00000000,1716935978.082946,172.16.3.2,5101,172.16.1.2,40514,10499,14480,0,65728,65700,6,6,4,1460,462,1,993,49,33580,0,65700,0,0,1,0,0
i,0x00000000,1716935978.103122,172.16.3.2,5101,172.16.1.2,40514,10499,14480,0,65728,65700,6,6,4,1460,462,1,992,49,33580,0,65700,0,0,1,0,0
o,0x00000000,1716935978.103127,172.16.3.2,5101,172.16.1.2,40514,10499,14480,0,65728,65728,6,6,4,1460,462,1,993,49,33580,0,65700,0,0,1,0,0
i,0x00000000,1716935978.123911,172.16.3.2,5101,172.16.1.2,40514,10499,14480,0,65728,65728,6,6,4,1460,462,1,992,49,33580,0,65700,0,0,1,0,0
o,0x00000000,1716935978.123916,172.16.3.2,5101,172.16.1.2,40514,10499,14480,0,65728,65728,6,6,4,1460,462,1,993,49,33580,0,65700,0,0,1,0,0
i,0x00000000,1716935978.132392,172.16.3.2,5101,172.16.1.2,40514,10499,14480,0,65728,65728,6,6,4,1460,462,1,992,49,33580,0,65700,0,0,1,0,0
o,0x00000000,1716935978.132401,172.16.3.2,5101,172.16.1.2,40514,10499,14480,0,65728,65728,6,6,4,1460,462,1,993,49,33580,0,65700,0,0,1,0,0
i,0x00000000,1716935978.172766,172.16.3.2,5101,172.16.1.2,40514,10499,14480,0,65728,65728,6,6,4,1460,462,1,992,49,33580,0,65700,0,0,1,0,0
o,0x00000000,1716935978.172772,172.16.3.2,5101,172.16.1.2,40514,10499,14480,0,65728,65728,6,6,4,1460,462,1,993,49,33580,0,65700,0,0,1,0,0
i,0x00000000,1716935978.263227,172.16.3.2,5101,172.16.1.2,40514,10499,14480,0,65728,65728,6,6,4,1460,462,1,992,49,33580,0,65700,0,0,1,0,0
o,0x00000000,1716935978.263239,172.16.3.2,5101,172.16.1.2,40514,10499,14480,0,65728,65728,6,6,4,1460,462,1,993,49,33580,0,65700,0,0,1,0,0
i,0x00000000,1716935978.273566,172.16.3.2,5101,172.16.1.2,40514,10499,14480,0,65728,65728,6,6,4,1460,462,1,992,49,33580,0,65700,0,0,1,0,0
o,0x00000000,1716935978.273578,172.16.3.2,5101,172.16.1.2,40514,10499,14480,0,65728,65728,6,6,4,1460,462,1,993,49,33580,0,65700,0,0,1,0,0
i,0x00000000,1716935978.282592,172.16.3.2,5101,172.16.1.2,40514,10499,14480,0,65728,65728,6,6,4,1460,462,1,992,49,33580,0,65700,0,0,1,0,0
o,0x00000000,1716935978.282599,172.16.3.2,5101,172.16.1.2,40514,10499,14480,0,65728,65728,6,6,4,1460,462,1,993,49,33580,0,65700,0,0,1,0,0
i,0x00000000,1716935978.333183,172.16.3.2,5101,172.16.1.2,40514,10499,14480,0,65728,65728,6,6,4,1460,462,1,992,49,33580,0,65700,0,0,1,0,0
o,0x00000000,1716935978.333189,172.16.3.2,5101,172.16.1.2,40514,10499,14480,0,65728,65728,6,6,4,1460,462,1,993,49,33580,0,65700,0,0,1,0,0
i,0x00000000,1716935978.343604,172.16.3.2,5101,172.16.1.2,40514,10499,14480,0,65728,65728,6,6,4,1460,462,1,992,49,33580,0,65700,0,0,1,0,0
o,0x00000000,1716935978.343610,172.16.3.2,5101,172.16.1.2,40514,10499,14480,0,65728,65728,6,6,4,1460,462,1,993,49,33580,0,65700,0,0,1,0,0
i,0x00000000,1716935978.363324,172.16.3.2,5101,172.16.1.2,40514,10499,14480,0,65728,65728,6,6,4,1460,462,1,992,49,33580,0,65700,0,0,1,0,0
o,0x00000000,1716935978.363329,172.16.3.2,5101,172.16.1.2,40514,10499,14480,0,65728,65728,6,6,4,1460,462,1,993,49,33580,0,65700,0,0,1,0,0
i,0x00000000,1716935978.373522,172.16.3.2,5101,172.16.1.2,40514,10499,14480,0,65728,65728,6,6,4,1460,462,1,992,49,33580,0,65700,0,0,1,0,0
o,0x00000000,1716935978.373527,172.16.3.2,5101,172.16.1.2,40514,10499,14480,0,65728,65728,6,6,4,1460,462,1,993,49,33580,0,65700,0,0,1,0,0
i,0x00000000,1716935978.382585,172.16.3.2,5101,172.16.1.2,40514,10499,14480,0,65728,65728,6,6,4,1460,462,1,992,49,33580,0,65700,0,0,1,0,0
o,0x00000000,1716935978.382590,172.16.3.2,5101,172.16.1.2,40514,10499,14480,0,65728,65728,6,6,4,1460,462,1,993,49,33580,0,65700,0,0,1,0,0
i,0x00000000,1716935978.432762,172.16.3.2,5101,172.16.1.2,40514,10499,14480,0,65728,65728,6,6,4,1460,462,1,992,49,33580,0,65700,0,0,1,0,0
o,0x00000000,1716935978.432769,172.16.3.2,5101,172.16.1.2,40514,10499,14480,0,65728,65728,6,6,4,1460,462,1,993,49,33580,0,65700,0,0,2,0,0
i,0x00000000,1716935978.443209,172.16.3.2,5101,172.16.1.2,40514,10499,14480,0,65728,65728,6,6,4,1460,462,1,992,49,33580,0,65700,0,0,2,0,0
o,0x00000000,1716935978.443215,172.16.3.2,5101,172.16.1.2,40514,10499,14480,0,65728,65728,6,6,4,1460,462,1,993,49,33580,0,65700,0,0,2,0,0
i,0x00000000,1716935978.453490,172.16.3.2,5101,172.16.1.2,40514,10499,14480,0,65728,65728,6,6,4,1460,462,1,992,49,33580,0,65700,0,0,2,0,0
o,0x00000000,1716935978.453496,172.16.3.2,5101,172.16.1.2,40514,10499,14480,0,65728,65728,6,6,4,1460,462,1,993,49,33580,0,65700,0,0,2,0,0
i,0x00000000,1716935978.482664,172.16.3.2,5101,172.16.1.2,40514,10499,14480,0,65728,65728,6,6,4,1460,462,1,992,49,33580,0,65700,0,0,2,0,0
o,0x00000000,1716935978.482669,172.16.3.2,5101,172.16.1.2,40514,10499,14480,0,65728,65728,6,6,4,1460,462,1,993,49,33580,0,65700,0,0,3,0,0
i,0x00000000,1716935978.492945,172.16.3.2,5101,172.16.1.2,40514,10499,14480,0,65728,65728,6,6,4,1460,462,1,992,49,33580,0,65700,0,0,3,0,0
o,0x00000000,1716935978.492955,172.16.3.2,5101,172.16.1.2,40514,10499,14480,0,65728,65728,6,6,4,1460,462,1,993,49,33580,0,65700,20272,0,2,0,0
o,0x00000000,1716935978.493396,172.16.3.2,5101,172.16.1.2,40514,10499,14480,0,65728,65728,6,6,4,1460,462,1,992,49,33580,0,65700,0,0,2,0,0
i,0x00000000,1716935978.512823,172.16.3.2,5101,172.16.1.2,40514,10499,14480,0,65728,65728,6,6,4,1460,462,1,992,49,33580,0,65700,0,0,2,0,0
o,0x00000000,1716935978.512828,172.16.3.2,5101,172.16.1.2,40514,10499,14480,0,65728,65728,6,6,4,1460,462,1,993,49,33580,0,65700,0,0,2,0,0
i,0x00000000,1716935978.572485,172.16.3.2,5101,172.16.1.2,40514,10499,14480,0,65728,65728,6,6,4,1460,462,1,992,49,33580,0,65700,0,0,2,0,0
o,0x00000000,1716935978.572494,172.16.3.2,5101,172.16.1.2,40514,10499,14480,0,65728,65728,6,6,4,1460,462,1,993,49,33580,0,65700,0,0,2,0,0
i,0x00000000,1716935978.592262,172.16.3.2,5101,172.16.1.2,40514,10499,14480,0,65728,65728,6,6,4,1460,462,1,992,49,33580,0,65700,0,0,2,0,0
o,0x00000000,1716935978.592267,172.16.3.2,5101,172.16.1.2,40514,10499,14480,0,65728,65728,6,6,4,1460,462,1,993,49,33580,0,65700,0,0,2,0,0
i,0x00000000,1716935978.603383,172.16.3.2,5101,172.16.1.2,40514,10499,14480,0,65728,65728,6,6,4,1460,462,1,992,49,33580,0,65700,0,0,2,0,0
o,0x00000000,1716935978.603395,172.16.3.2,5101,172.16.1.2,40514,10499,14480,0,65728,65728,6,6,4,1460,462,1,993,49,33580,0,65700,0,0,2,0,0
i,0x00000000,1716935978.662492,172.16.3.2,5101,172.16.1.2,40514,10499,14480,0,65728,65728,6,6,4,1460,462,1,992,49,33580,0,65700,0,0,2,0,0
o,0x00000000,1716935978.662502,172.16.3.2,5101,172.16.1.2,40514,10499,14480,0,65728,65728,6,6,4,1460,462,1,993,49,33580,0,65700,5792,0,1,0,0
i,0x00000000,1716935978.682819,172.16.3.2,5101,172.16.1.2,40514,10499,14480,0,65728,65728,6,6,4,1460,462,1,992,49,33580,0,65700,0,0,1,0,0
o,0x00000000,1716935978.682825,172.16.3.2,5101,172.16.1.2,40514,10499,14480,0,65728,65700,6,6,4,1460,462,1,993,49,33580,0,65700,1448,0,1,0,0
o,0x00000000,1716935978.687760,10.0.2.15,22,10.0.2.2,62180,1073725440,14600,0,65535,65700,0,0,4,1460,1,0,4,24,33580,108,65700,0,0,0,0,0
i,0x00000000,1716935978.688531,10.0.2.15,22,10.0.2.2,62180,1073725440,14600,0,65535,65700,0,0,4,1460,1,0,4,24,33580,108,65700,0,108,0,0,0
i,0x00000000,1716935978.702910,172.16.3.2,5101,172.16.1.2,40514,10499,14480,0,65728,65700,6,6,4,1460,462,1,992,49,33580,0,65700,0,0,1,0,0
o,0x00000000,1716935978.702917,172.16.3.2,5101,172.16.1.2,40514,10499,14480,0,65728,65700,6,6,4,1460,462,1,993,49,33580,0,65700,8688,0,0,0,0
i,0x00000000,1716935978.713250,172.16.3.2,5101,172.16.1.2,40514,10499,14480,0,65728,65700,6,6,4,1460,462,1,992,49,33580,0,65700,0,0,0,0,0
i,0x00000000,1716935978.722649,172.16.3.2,5101,172.16.1.2,40514,10499,14480,0,65728,65700,6,6,4,1460,462,1,992,49,33580,0,65700,0,0,0,0,0
o,0x00000000,1716935978.722656,172.16.3.2,5101,172.16.1.2,40514,10499,14480,0,65728,65700,6,6,4,1460,462,1,993,49,33580,0,65700,1448,0,0,0,0
i,0x00000000,1716935978.731998,172.16.3.2,5101,172.16.1.2,40514,10499,14480,0,65728,65700,6,6,4,1460,462,1,992,49,33580,0,65700,0,0,0,0,0
o,0x00000000,1716935978.767529,172.16.3.2,5101,172.16.1.2,40514,10499,14480,0,65728,65700,6,6,4,1460,462,1,993,49,33580,0,65700,0,0,0,0,0
i,0x00000000,1716935978.812941,172.16.3.2,5101,172.16.1.2,40514,10499,14480,0,65728,65700,6,6,4,1460,462,1,992,49,33580,0,65700,0,0,0,0,0
i,0x00000000,1716935978.822449,172.16.3.2,5101,172.16.1.2,40514,10499,14480,0,65728,65700,6,6,4,1460,462,1,992,49,33580,0,65700,0,0,0,0,0
o,0x00000000,1716935978.822457,172.16.3.2,5101,172.16.1.2,40514,10499,14480,0,65728,65700,6,6,4,1460,462,1,993,49,33580,0,65700,1448,0,0,0,0
i,0x00000000,1716935978.832614,172.16.3.2,5101,172.16.1.2,40514,10499,14480,0,65728,65700,6,6,4,1460,462,1,992,49,33580,0,65700,0,0,0,0,0
o,0x00000000,1716935978.868147,172.16.3.2,5101,172.16.1.2,40514,10499,14480,0,65728,65700,6,6,4,1460,462,1,993,49,33580,0,65700,0,0,0,0,0
i,0x00000000,1716935978.893336,172.16.3.2,5101,172.16.1.2,40514,10499,14480,0,65728,65700,6,6,4,1460,462,1,992,49,33580,0,65700,0,0,0,0,0
i,0x00000000,1716935978.902758,172.16.3.2,5101,172.16.1.2,40514,10499,14480,0,65728,65700,6,6,4,1460,462,1,992,49,33580,0,65700,0,0,0,0,0
o,0x00000000,1716935978.902764,172.16.3.2,5101,172.16.1.2,40514,10499,14480,0,65728,65700,6,6,4,1460,462,1,993,49,33580,0,65700,1448,0,0,0,0
i,0x00000000,1716935978.923454,172.16.3.2,5101,172.16.1.2,40514,10499,14480,0,65728,65700,6,6,4,1460,462,1,992,49,33580,0,65700,0,0,0,0,0
i,0x00000000,1716935978.932500,172.16.3.2,5101,172.16.1.2,40514,10499,14480,0,65728,65700,6,6,4,1460,462,1,992,49,33580,0,65700,0,0,0,0,0
o,0x00000000,1716935978.932506,172.16.3.2,5101,172.16.1.2,40514,10499,14480,0,65728,65700,6,6,4,1460,462,1,993,49,33580,0,65700,1448,0,0,0,0
i,0x00000000,1716935978.943041,172.16.3.2,5101,172.16.1.2,40514,10499,14480,0,65728,65700,6,6,4,1460,462,1,992,49,33580,0,65700,0,0,0,0,0
o,0x00000000,1716935978.977000,172.16.3.2,5101,172.16.1.2,40514,10499,14480,0,65728,65700,6,6,4,1460,462,1,993,49,33580,0,65700,0,0,0,0,0
i,0x00000000,1716935979.013513,172.16.3.2,5101,172.16.1.2,40514,10499,14480,0,65728,65700,6,6,4,1460,462,1,992,49,33580,0,65700,0,0,0,0,0
i,0x00000000,1716935979.042444,172.16.3.2,5101,172.16.1.2,40514,10499,14480,0,65728,65700,6,6,4,1460,462,1,992,49,33580,0,65700,0,0,0,0,0
o,0x00000000,1716935979.042456,172.16.3.2,5101,172.16.1.2,40514,10499,14480,0,65728,65700,6,6,4,1460,462,1,993,49,33580,0,65700,1448,0,0,0,0
i,0x00000000,1716935979.052810,172.16.3.2,5101,172.16.1.2,40514,10499,14480,0,65728,65700,6,6,4,1460,462,1,992,49,33580,0,65700,0,0,0,0,0
i,0x00000000,1716935979.062206,172.16.3.2,5101,172.16.1.2,40514,10499,14480,0,65728,65700,6,6,4,1460,462,1,992,49,33580,0,65700,0,0,0,0,0
o,0x00000000,1716935979.062212,172.16.3.2,5101,172.16.1.2,40514,10499,14480,0,65728,65700,6,6,4,1460,462,1,993,49,33580,0,65700,1448,0,0,0,0
i,0x00000000,1716935979.122461,172.16.3.2,5101,172.16.1.2,40514,10499,14480,0,65728,65700,6,6,4,1460,462,1,992,49,33580,0,65700,0,0,0,0,0
i,0x00000000,1716935979.143191,172.16.3.2,5101,172.16.1.2,40514,10499,14480,0,65728,65700,6,6,4,1460,462,1,992,49,33580,0,65700,0,0,0,0,0
o,0x00000000,1716935979.143203,172.16.3.2,5101,172.16.1.2,40514,10499,14480,0,65728,65700,6,6,4,1460,462,1,993,49,33580,0,65700,1448,0,0,0,0
i,0x00000000,1716935979.152185,172.16.3.2,5101,172.16.1.2,40514,10499,14480,0,65728,65700,6,6,4,1460,462,1,992,49,33580,0,65700,0,0,0,0,0
i,0x00000000,1716935979.162355,172.16.3.2,5101,172.16.1.2,40514,10499,14480,0,65728,65700,6,6,4,1460,462,1,992,49,33580,0,65700,0,0,0,0,0
o,0x00000000,1716935979.162361,172.16.3.2,5101,172.16.1.2,40514,10499,14480,0,65728,65700,6,6,4,1460,462,1,993,49,33580,0,65700,1448,0,0,0,0
i,0x00000000,1716935979.172020,172.16.3.2,5101,172.16.1.2,40514,10499,14480,0,65728,65700,6,6,4,1460,462,1,992,49,33580,0,65700,0,0,0,0,0
o,0x00000000,1716935979.207767,172.16.3.2,5101,172.16.1.2,40514,10499,14480,0,65728,65700,6,6,4,1460,462,1,993,49,33580,0,65700,0,0,0,0,0
i,0x00000000,1716935979.262924,172.16.3.2,5101,172.16.1.2,40514,10499,14480,0,65728,65700,6,6,4,1460,462,1,992,49,33580,0,65700,0,0,0,0,0
i,0x00000000,1716935979.272289,172.16.3.2,5101,172.16.1.2,40514,10499,14480,0,65728,65700,6,6,4,1460,462,1,992,49,33580,0,65700,0,0,0,0,0
o,0x00000000,1716935979.272298,172.16.3.2,5101,172.16.1.2,40514,10499,14480,0,65728,65700,6,6,4,1460,462,1,993,49,33580,0,65700,1448,0,0,0,0
i,0x00000000,1716935979.283396,172.16.3.2,5101,172.16.1.2,40514,10499,14480,0,65728,65700,6,6,4,1460,462,1,992,49,33580,0,65700,0,0,0,0,0
i,0x00000000,1716935979.291801,172.16.3.2,5101,172.16.1.2,40514,10499,14480,0,65728,65700,6,6,4,1460,462,1,992,49,33580,0,65700,0,0,0,0,0
o,0x00000000,1716935979.291811,172.16.3.2,5101,172.16.1.2,40514,10499,14480,0,65728,65700,6,6,4,1460,462,1,993,49,33580,0,65700,1448,0,0,0,0
i,0x00000000,1716935979.312704,172.16.3.2,5101,172.16.1.2,40514,10499,14480,0,65728,65700,6,6,4,1460,462,1,992,49,33580,0,65700,0,0,0,0,0
i,0x00000000,1716935979.322917,172.16.3.2,5101,172.16.1.2,40514,10499,14480,0,65728,65700,6,6,4,1460,462,1,992,49,33580,0,65700,0,0,0,0,0
o,0x00000000,1716935979.322923,172.16.3.2,5101,172.16.1.2,40514,10499,14480,0,65728,65700,6,6,4,1460,462,1,993,49,33580,0,65700,1448,0,0,0,0
i,0x00000000,1716935979.381986,172.16.3.2,5101,172.16.1.2,40514,10499,14480,0,65728,65700,6,6,4,1460,462,1,992,49,33580,0,65700,0,0,0,0,0
i,0x00000000,1716935979.393316,172.16.3.2,5101,172.16.1.2,40514,10499,14480,0,65728,65700,6,6,4,1460,462,1,992,49,33580,0,65700,0,0,0,0,0
o,0x00000000,1716935979.393322,172.16.3.2,5101,172.16.1.2,40514,10499,14480,0,65728,65700,6,6,4,1460,462,1,993,49,33580,0,65700,1448,0,0,0,0
i,0x00000000,1716935979.402660,172.16.3.2,5101,172.16.1.2,40514,10499,14480,0,65728,65700,6,6,4,1460,462,1,992,49,33580,0,65700,0,0,0,0,0
i,0x00000000,1716935979.422380,172.16.3.2,5101,172.16.1.2,40514,10499,14480,0,65728,65700,6,6,4,1460,462,1,992,49,33580,0,65700,0,0,0,0,0
o,0x00000000,1716935979.422386,172.16.3.2,5101,172.16.1.2,40514,10499,14480,0,65728,65700,6,6,4,1460,462,1,993,49,33580,0,65700,1448,0,0,0,0
i,0x00000000,1716935979.542794,172.16.3.2,5101,172.16.1.2,40514,10499,14480,0,65728,65700,6,6,4,1460,462,1,992,49,33580,0,65700,0,0,0,0,0
i,0x00000000,1716935979.552089,172.16.3.2,5101,172.16.1.2,40514,10499,14480,0,65728,65700,6,6,4,1460,462,1,992,49,33580,0,65700,0,0,0,0,0
o,0x00000000,1716935979.552100,172.16.3.2,5101,172.16.1.2,40514,10499,14480,0,65728,65700,6,6,4,1460,462,1,993,49,33580,0,65700,1448,0,0,0,0
i,0x00000000,1716935979.572728,172.16.3.2,5101,172.16.1.2,40514,10499,14480,0,65728,65700,6,6,4,1460,462,1,992,49,33580,0,65700,0,0,0,0,0
i,0x00000000,1716935979.582029,172.16.3.2,5101,172.16.1.2,40514,10499,14480,0,65728,65700,6,6,4,1460,462,1,992,49,33580,0,65700,0,0,0,0,0
o,0x00000000,1716935979.582034,172.16.3.2,5101,172.16.1.2,40514,10499,14480,0,65728,65700,6,6,4,1460,462,1,993,49,33580,0,65700,1448,0,0,0,0
i,0x00000000,1716935979.592409,172.16.3.2,5101,172.16.1.2,40514,10499,14480,0,65728,65700,6,6,4,1460,462,1,992,49,33580,0,65700,0,0,0,0,0
i,0x00000000,1716935979.602732,172.16.3.2,5101,172.16.1.2,40514,10499,14480,0,65728,65700,6,6,4,1460,462,1,992,49,33580,0,65700,0,0,0,0,0
o,0x00000000,1716935979.602738,172.16.3.2,5101,172.16.1.2,40514,10499,14480,0,65728,65700,6,6,4,1460,462,1,993,49,33580,0,65700,1448,0,0,0,0
i,0x00000000,1716935979.612074,172.16.3.2,5101,172.16.1.2,40514,10499,14480,0,65728,65700,6,6,4,1460,462,1,992,49,33580,0,65700,0,0,0,0,0
i,0x00000000,1716935979.632750,172.16.3.2,5101,172.16.1.2,40514,10499,14480,0,65728,65700,6,6,4,1460,462,1,992,49,33580,0,65700,0,0,0,0,0
o,0x00000000,1716935979.632755,172.16.3.2,5101,172.16.1.2,40514,10499,14480,0,65728,65700,6,6,4,1460,462,1,993,49,33580,0,65700,1448,0,0,0,0
o,0x00000000,1716935979.688067,10.0.2.15,22,10.0.2.2,62180,1073725440,14600,0,65535,65700,0,0,4,1460,1,0,4,24,33580,108,65700,0,0,0,0,0
i,0x00000000,1716935979.688801,10.0.2.15,22,10.0.2.2,62180,1073725440,14600,0,65535,65700,0,0,4,1460,1,0,4,24,33580,108,65700,0,108,0,0,0
i,0x00000000,1716935979.692731,172.16.3.2,5101,172.16.1.2,40514,10499,14480,0,65728,65700,6,6,4,1460,462,1,992,49,33580,0,65700,0,0,0,0,0
i,0x00000000,1716935979.702986,172.16.3.2,5101,172.16.1.2,40514,10499,14480,0,65728,65700,6,6,4,1460,462,1,992,49,33580,0,65700,0,0,0,0,0
o,0x00000000,1716935979.702992,172.16.3.2,5101,172.16.1.2,40514,10499,14480,0,65728,65700,6,6,4,1460,462,1,993,49,33580,0,65700,1448,0,0,0,0
i,0x00000000,1716935979.712312,172.16.3.2,5101,172.16.1.2,40514,10499,14480,0,65728,65700,6,6,4,1460,462,1,992,49,33580,0,65700,0,0,0,0,0
i,0x00000000,1716935979.723668,172.16.3.2,5101,172.16.1.2,40514,10499,14480,0,65728,65700,6,6,4,1460,462,1,992,49,33580,0,65700,0,0,0,0,0
o,0x00000000,1716935979.723679,172.16.3.2,5101,172.16.1.2,40514,10499,14480,0,65728,65700,6,6,4,1460,462,1,993,49,33580,0,65700,1448,0,0,0,0
i,0x00000000,1716935979.872121,172.16.3.2,5101,172.16.1.2,40514,10499,14480,0,65728,65700,6,6,4,1460,462,1,992,49,33580,0,65700,0,0,0,0,0
i,0x00000000,1716935979.882374,172.16.3.2,5101,172.16.1.2,40514,10499,14480,0,65728,65700,6,6,4,1460,462,1,992,49,33580,0,65700,0,0,0,0,0
o,0x00000000,1716935979.882384,172.16.3.2,5101,172.16.1.2,40514,10499,14480,0,65728,65700,6,6,4,1460,462,1,993,49,33580,0,65700,1448,0,0,0,0
i,0x00000000,1716935979.891833,172.16.3.2,5101,172.16.1.2,40514,10499,14480,0,65728,65700,6,6,4,1460,462,1,992,49,33580,0,65700,0,0,0,0,0
i,0x00000000,1716935979.902115,172.16.3.2,5101,172.16.1.2,40514,10499,14480,0,65728,65700,6,6,4,1460,462,1,992,49,33580,0,65700,0,0,0,0,0
o,0x00000000,1716935979.902122,172.16.3.2,5101,172.16.1.2,40514,10499,14480,0,65728,65700,6,6,4,1460,462,1,993,49,33580,0,65700,1448,0,0,0,0
i,0x00000000,1716935979.942465,172.16.3.2,5101,172.16.1.2,40514,10499,14480,0,65728,65700,6,6,4,1460,462,1,992,49,33580,0,65700,0,0,0,0,0
i,0x00000000,1716935979.952696,172.16.3.2,5101,172.16.1.2,40514,10499,14480,0,65728,65700,6,6,4,1460,462,1,992,49,33580,0,65700,0,0,0,0,0
o,0x00000000,1716935979.952709,172.16.3.2,5101,172.16.1.2,40514,10499,14480,0,65728,65700,6,6,4,1460,462,1,993,49,33580,0,65700,1448,0,0,0,0
i,0x00000000,1716935979.962009,172.16.3.2,5101,172.16.1.2,40514,10499,14480,0,65728,65700,6,6,4,1460,462,1,992,49,33580,0,65700,0,0,0,0,0
i,0x00000000,1716935979.972372,172.16.3.2,5101,172.16.1.2,40514,10499,14480,0,65728,65700,6,6,4,1460,462,1,992,49,33580,0,65700,0,0,0,0,0
o,0x00000000,1716935979.972379,172.16.3.2,5101,172.16.1.2,40514,10499,14480,0,65728,65700,6,6,4,1460,462,1,993,49,33580,0,65700,1448,0,0,0,0
i,0x00000000,1716935979.991993,172.16.3.2,5101,172.16.1.2,40514,10499,14480,0,65728,65700,6,6,4,1460,462,1,992,49,33580,0,65700,0,0,0,0,0
i,0x00000000,1716935980.022964,172.16.3.2,5101,172.16.1.2,40514,10499,14480,0,65728,65700,6,6,4,1460,462,1,992,49,33580,0,65700,0,0,0,0,0
o,0x00000000,1716935980.022977,172.16.3.2,5101,172.16.1.2,40514,10499,14480,0,65728,65700,6,6,4,1460,462,1,993,49,33580,0,65700,1448,0,0,0,0
i,0x00000000,1716935980.041701,172.16.3.2,5101,172.16.1.2,40514,10499,14480,0,65728,65700,6,6,4,1460,462,1,992,49,33580,0,65700,0,0,0,0,0
i,0x00000000,1716935980.051936,172.16.3.2,5101,172.16.1.2,40514,10499,14480,0,65728,65700,6,6,4,1460,462,1,992,49,33580,0,65700,0,0,0,0,0
o,0x00000000,1716935980.051944,172.16.3.2,5101,172.16.1.2,40514,10499,14480,0,65728,65700,6,6,4,1460,462,1,993,49,33580,0,65700,1448,0,0,0,0
i,0x00000000,1716935980.062208,172.16.3.2,5101,172.16.1.2,40514,10499,14480,0,65728,65700,6,6,4,1460,462,1,992,49,33580,0,65700,0,0,0,0,0
o,0x00000000,1716935980.097711,172.16.3.2,5101,172.16.1.2,40514,10499,14480,0,65728,65700,6,6,4,1460,462,1,993,49,33580,0,65700,0,0,0,0,0
i,0x00000000,1716935980.222029,172.16.3.2,5101,172.16.1.2,40514,10499,14480,0,65728,65700,6,6,4,1460,462,1,992,49,33580,0,65700,0,0,0,0,0
i,0x00000000,1716935980.232453,172.16.3.2,5101,172.16.1.2,40514,10499,14480,0,65728,65700,6,6,4,1460,462,1,992,49,33580,0,65700,0,0,0,0,0
o,0x00000000,1716935980.232465,172.16.3.2,5101,172.16.1.2,40514,10499,14480,0,65728,65700,6,6,4,1460,462,1,993,49,33580,0,65700,1448,0,0,0,0
i,0x00000000,1716935980.241698,172.16.3.2,5101,172.16.1.2,40514,10499,14480,0,65728,65700,6,6,4,1460,462,1,992,49,33580,0,65700,0,0,0,0,0
i,0x00000000,1716935980.262048,172.16.3.2,5101,172.16.1.2,40514,10499,14480,0,65728,65700,6,6,4,1460,462,1,992,49,33580,0,65700,0,0,0,0,0
o,0x00000000,1716935980.262058,172.16.3.2,5101,172.16.1.2,40514,10499,14480,0,65728,65700,6,6,4,1460,462,1,993,49,33580,0,65700,1448,0,0,0,0
i,0x00000000,1716935980.272405,172.16.3.2,5101,172.16.1.2,40514,10499,14480,0,65728,65700,6,6,4,1460,462,1,992,49,33580,0,65700,0,0,0,0,0
i,0x00000000,1716935980.281814,172.16.3.2,5101,172.16.1.2,40514,10499,14480,0,65728,65700,6,6,4,1460,462,1,992,49,33580,0,65700,0,0,0,0,0
o,0x00000000,1716935980.281819,172.16.3.2,5101,172.16.1.2,40514,10499,14480,0,65728,65700,6,6,4,1460,462,1,993,49,33580,0,65700,1448,0,0,0,0
i,0x00000000,1716935980.292232,172.16.3.2,5101,172.16.1.2,40514,10499,14480,0,65728,65700,6,6,4,1460,462,1,992,49,33580,0,65700,0,0,0,0,0
i,0x00000000,1716935980.301645,172.16.3.2,5101,172.16.1.2,40514,10499,14480,0,65728,65700,6,6,4,1460,462,1,992,49,33580,0,65700,0,0,0,0,0
o,0x00000000,1716935980.301652,172.16.3.2,5101,172.16.1.2,40514,10499,14480,0,65728,65700,6,6,4,1460,462,1,993,49,33580,0,65700,1448,0,0,0,0
i,0x00000000,1716935980.322441,172.16.3.2,5101,172.16.1.2,40514,10499,14480,0,65728,65700,6,6,4,1460,462,1,992,49,33580,0,65700,0,0,0,0,0
i,0x00000000,1716935980.352493,172.16.3.2,5101,172.16.1.2,40514,10499,14480,0,65728,65700,6,6,4,1460,462,1,992,49,33580,0,65700,0,0,0,0,0
o,0x00000000,1716935980.352509,172.16.3.2,5101,172.16.1.2,40514,10499,14480,0,65728,65700,6,6,4,1460,462,1,993,49,33580,0,65700,1448,0,0,0,0
i,0x00000000,1716935980.362870,172.16.3.2,5101,172.16.1.2,40514,10499,14480,0,65728,65700,6,6,4,1460,462,1,992,49,33580,0,65700,0,0,0,0,0
i,0x00000000,1716935980.382218,172.16.3.2,5101,172.16.1.2,40514,10499,14480,0,65728,65700,6,6,4,1460,462,1,992,49,33580,0,65700,0,0,0,0,0
