enable_time_secs=1716791428	enable_time_usecs=213188	siftrver=1.2.4	hz=100	tcp_rtt_scale=32	sysname=FreeBSD	sysver=1301000	ipmode=4
o,0x00000000,1716791428.213222,10.0.2.15,22,10.0.2.2,55028,1073725440,17298,0,65535,65700,0,0,4,1460,1,0,4,24,33580,44,65700,0,0,0,0,0
o,0x00000000,1716791428.213633,10.0.2.15,22,10.0.2.2,55028,1073725440,17298,0,65535,65700,0,0,4,1460,1,0,4,24,33580,80,65700,0,44,0,0,0
i,0x00000000,1716791428.213937,10.0.2.15,22,10.0.2.2,55028,1073725440,17298,0,65535,65700,0,0,4,1460,1,0,4,24,33580,80,65700,0,80,0,0,0
i,0x00000000,1716791428.214011,10.0.2.15,22,10.0.2.2,55028,1073725440,17342,0,65535,65700,0,0,4,1460,1,0,4,24,33580,36,65700,0,36,0,0,0
o,0x00000000,1716791428.214075,10.0.2.15,22,10.0.2.2,55028,1073725440,17378,0,65535,65700,0,0,4,1460,1,0,4,24,33580,36,65700,0,0,0,0,0
i,0x00000000,1716791428.214461,10.0.2.15,22,10.0.2.2,55028,1073725440,17378,0,65535,65700,0,0,4,1460,1,0,4,24,33580,36,65700,0,36,0,0,0
o,0x00000000,1716791428.214704,10.0.2.15,22,10.0.2.2,55028,1073725440,17414,0,65535,65700,0,0,4,1460,1,0,4,24,33580,176,65700,0,0,0,0,0
i,0x00000000,1716791428.215386,10.0.2.15,22,10.0.2.2,55028,1073725440,17414,0,65535,65700,0,0,4,1460,1,0,4,24,33580,176,65700,0,176,0,0,0
i,0x00000000,1716791428.215810,10.0.2.15,22,10.0.2.2,55028,1073725440,17590,0,65535,65700,0,0,4,1460,1,0,4,24,33580,0,65700,0,0,0,0,0
i,0x00000000,1716791428.215812,10.0.2.15,22,10.0.2.2,55028,1073725440,17590,0,65535,65700,0,0,4,1460,1,0,4,24,33580,0,65700,36,0,0,0,0
o,0x00000000,1716791428.215814,10.0.2.15,22,10.0.2.2,55028,1073725440,17590,0,65535,65700,0,0,4,1460,1,0,5,24,33580,0,65700,96,0,0,0,0
i,0x00000000,1716791428.215919,10.0.2.15,22,10.0.2.2,55028,1073725440,17590,0,65535,65700,0,0,4,1460,1,0,4,24,33580,0,65700,96,0,0,0,0
o,0x00000000,1716791428.215922,10.0.2.15,22,10.0.2.2,55028,1073725440,17590,0,65535,65604,0,0,5,1460,1,0,7,24,33580,0,65700,96,0,0,0,0
o,0x00000000,1716791428.216565,10.0.2.15,22,10.0.2.2,55028,1073725440,17590,0,65535,65604,0,0,8,1460,1,0,4,24,33580,0,65700,0,0,0,0,0
i,0x00000000,1716791428.216971,10.0.2.15,22,10.0.2.2,55028,1073725440,17590,0,65535,65604,0,0,8,1460,1,0,20,24,33580,0,65700,0,1,0,0,0
i,0x00000000,1716791430.309666,10.0.2.15,22,10.0.2.2,55031,1073725440,14600,0,65535,65700,0,0,4,1460,1,0,0,27,33580,0,65700,0,0,0,0,0
o,0x00000000,1716791430.319897,10.0.2.15,22,10.0.2.2,55031,1073725440,14600,0,65535,65700,0,0,4,1460,1,0,0,27,33580,38,65700,41,0,0,0,0
i,0x00000000,1716791430.320573,10.0.2.15,22,10.0.2.2,55031,1073725440,14600,0,65535,65700,0,0,4,1460,1,0,0,27,33580,38,65700,0,38,0,0,0
i,0x00000000,1716791430.321646,10.0.2.15,22,10.0.2.2,55031,1073725440,14638,0,65535,65700,0,0,4,1460,1,0,0,23,33580,0,65700,0,0,0,0,0
i,0x00000000,1716791430.321650,10.0.2.15,22,10.0.2.2,55031,1073725440,14638,0,65535,65700,0,0,4,1460,1,0,0,23,33580,0,65700,1460,0,0,0,0
o,0x00000000,1716791430.321654,10.0.2.15,22,10.0.2.2,55031,1073725440,14638,0,65535,65700,0,0,4,1460,1,0,1,23,33580,0,65700,1536,0,0,0,0
o,0x00000000,1716791430.322208,10.0.2.15,22,10.0.2.2,55031,1073725440,14638,0,65535,65700,0,0,4,1460,1,0,0,23,33580,1056,65700,1536,0,0,0,0
i,0x00000000,1716791430.322897,10.0.2.15,22,10.0.2.2,55031,1073725440,14638,0,65535,65700,0,0,4,1460,1,0,0,23,33580,1056,65700,1536,1056,0,0,0
i,0x00000000,1716791430.324298,10.0.2.15,22,10.0.2.2,55031,1073725440,15694,0,65535,65700,0,0,4,1460,1,0,0,24,33580,0,65700,0,0,0,0,0
o,0x00000000,1716791430.326814,10.0.2.15,22,10.0.2.2,55031,1073725440,15694,0,65535,65700,0,0,4,1460,1,0,0,24,33580,484,65700,0,0,0,0,0
i,0x00000000,1716791430.327565,10.0.2.15,22,10.0.2.2,55031,1073725440,15694,0,65535,65700,0,0,4,1460,1,0,0,24,33580,484,65700,0,484,0,0,0
i,0x00000000,1716791430.332257,10.0.2.15,22,10.0.2.2,55031,1073725440,16178,0,65535,65700,0,0,4,1460,1,0,0,24,33580,0,65700,0,0,0,0,0
i,0x00000000,1716791430.336846,10.0.2.15,22,10.0.2.2,55031,1073725440,16178,0,65535,65700,0,0,4,1460,1,0,0,24,33580,0,65700,0,0,0,0,0
o,0x00000000,1716791430.336852,10.0.2.15,22,10.0.2.2,55031,1073725440,16178,0,65535,65700,0,0,4,1460,1,0,1,24,33580,0,65700,44,0,0,0,0
o,0x00000000,1716791430.337009,10.0.2.15,22,10.0.2.2,55031,1073725440,16178,0,65535,65700,0,0,4,1460,1,0,0,24,33580,44,65700,0,0,0,0,0
i,0x00000000,1716791430.337578,10.0.2.15,22,10.0.2.2,55031,1073725440,16178,0,65535,65700,0,0,4,1460,1,0,0,24,33580,44,65700,0,44,0,0,0
i,0x00000000,1716791430.337948,10.0.2.15,22,10.0.2.2,55031,1073725440,16222,0,65535,65700,0,0,4,1460,1,0,0,24,33580,0,65700,0,0,0,0,0
o,0x00000000,1716791430.347264,10.0.2.15,22,10.0.2.2,55031,1073725440,16222,0,65535,65700,0,0,4,1460,1,0,0,24,33580,68,65700,0,0,0,0,0
i,0x00000000,1716791430.347773,10.0.2.15,22,10.0.2.2,55031,1073725440,16222,0,65535,65700,0,0,4,1460,1,0,0,24,33580,68,65700,0,68,0,0,0
i,0x00000000,1716791430.350355,10.0.2.15,22,10.0.2.2,55031,1073725440,16290,0,65535,65700,0,0,4,1460,1,0,0,24,33580,0,65700,0,0,0,0,0
o,0x00000000,1716791430.360372,10.0.2.15,22,10.0.2.2,55031,1073725440,16290,0,65535,65700,0,0,4,1460,1,0,0,24,33580,28,65700,0,0,0,0,0
i,0x00000000,1716791430.361300,10.0.2.15,22,10.0.2.2,55031,1073725440,16290,0,65535,65700,0,0,4,1460,1,0,0,24,33580,28,65700,0,28,0,0,0
i,0x00000000,1716791430.361304,10.0.2.15,22,10.0.2.2,55031,1073725440,16318,0,65535,65700,0,0,4,1460,1,0,0,24,33580,0,65700,0,0,0,0,0
o,0x00000000,1716791430.362611,10.0.2.15,22,10.0.2.2,55031,1073725440,16318,0,65535,65700,0,0,4,1460,1,0,0,24,33580,768,65700,112,0,0,0,0
i,0x00000000,1716791430.363271,10.0.2.15,22,10.0.2.2,55031,1073725440,16318,0,65535,65700,0,0,4,1460,1,0,0,24,33580,768,65700,112,768,0,0,0
o,0x00000000,1716791430.363430,10.0.2.15,22,10.0.2.2,55031,1073725440,17086,0,65535,65700,0,0,4,1460,1,0,0,24,33580,44,65700,0,0,0,0,0
i,0x00000000,1716791430.363927,10.0.2.15,22,10.0.2.2,55031,1073725440,17086,0,65535,65700,0,0,4,1460,1,0,0,24,33580,44,65700,0,44,0,0,0
i,0x00000000,1716791430.364665,10.0.2.15,22,10.0.2.2,55031,1073725440,17130,0,65535,65700,0,0,4,1460,1,0,0,24,33580,0,65700,0,0,0,0,0
o,0x00000000,1716791430.365049,10.0.2.15,22,10.0.2.2,55031,1073725440,17130,0,65535,65700,0,0,4,1460,1,0,4,24,33580,72,65700,0,0,0,0,0
i,0x00000000,1716791430.365478,10.0.2.15,22,10.0.2.2,55031,1073725440,17130,0,65535,65700,0,0,4,1460,1,0,4,24,33580,72,65700,0,72,0,0,0
o,0x00000000,1716791430.370022,10.0.2.15,22,10.0.2.2,55031,1073725440,17202,0,65535,65700,0,0,4,1460,1,0,4,24,33580,44,65700,0,0,0,0,0
i,0x00000000,1716791430.370638,10.0.2.15,22,10.0.2.2,55031,1073725440,17202,0,65535,65700,0,0,4,1460,1,0,4,24,33580,44,65700,0,44,0,0,0
o,0x00000000,1716791430.371122,10.0.2.15,22,10.0.2.2,55031,1073725440,17246,0,65535,65700,0,0,4,1460,1,0,4,24,33580,104,65700,0,0,0,0,0
i,0x00000000,1716791430.371544,10.0.2.15,22,10.0.2.2,55031,1073725440,17246,0,65535,65700,0,0,4,1460,1,0,4,24,33580,104,65700,0,104,0,0,0
o,0x00000000,1716791430.371604,10.0.2.15,22,10.0.2.2,55031,1073725440,17350,0,65535,65700,0,0,4,1460,1,0,4,24,33580,44,65700,0,0,0,0,0
i,0x00000000,1716791430.372014,10.0.2.15,22,10.0.2.2,55031,1073725440,17350,0,65535,65700,0,0,4,1460,1,0,4,24,33580,44,65700,0,44,0,0,0
o,0x00000000,1716791430.375701,10.0.2.15,22,10.0.2.2,55031,1073725440,17394,0,65535,65700,0,0,4,1460,1,0,4,24,33580,72,65700,0,0,0,0,0
i,0x00000000,1716791430.376708,10.0.2.15,22,10.0.2.2,55031,1073725440,17394,0,65535,65700,0,0,4,1460,1,0,4,24,33580,72,65700,0,72,0,0,0
i,0x00000000,1716791430.376713,10.0.2.15,22,10.0.2.2,55031,1073725440,17466,0,65535,65700,0,0,4,1460,1,0,4,24,33580,0,65700,0,0,0,0,0
i,0x00000000,1716791430.376714,10.0.2.15,22,10.0.2.2,55031,1073725440,17466,0,65535,65700,0,0,4,1460,1,0,4,24,33580,0,65700,36,0,0,0,0
o,0x00000000,1716791430.376717,10.0.2.15,22,10.0.2.2,55031,1073725440,17466,0,65535,65700,0,0,4,1460,1,0,5,24,33580,0,65700,96,0,0,0,0
i,0x00000000,1716791430.376794,10.0.2.15,22,10.0.2.2,55031,1073725440,17466,0,65535,65700,0,0,4,1460,1,0,4,24,33580,0,65700,96,0,0,0,0
o,0x00000000,1716791430.376798,10.0.2.15,22,10.0.2.2,55031,1073725440,17466,0,65535,65604,0,0,5,1460,1,0,7,24,33580,0,65700,96,0,0,0,0
o,0x00000000,1716791430.384805,10.0.2.15,22,10.0.2.2,55031,1073725440,17466,0,65535,65604,0,0,8,1460,1,0,4,24,33580,0,65700,0,0,0,0,0
i,0x00000000,1716791430.385345,10.0.2.15,22,10.0.2.2,55031,1073725440,17466,0,65535,65604,0,0,8,1460,1,0,20,24,33580,0,65700,0,1,0,0,0
i,0x00000000,1716791430.619384,172.16.3.2,5101,172.16.1.2,49415,1073725440,14480,0,65728,65700,6,6,4,1460,491,1,992,52,33580,0,65700,0,0,0,0,0
o,0x00000000,1716791430.619561,172.16.3.2,5101,172.16.1.2,49415,1073725440,14480,0,65728,65700,6,6,4,1460,491,1,996,52,33580,1,65700,0,0,0,0,0
i,0x00000000,1716791430.739020,172.16.3.2,5101,172.16.1.2,49415,1073725440,14480,0,65728,65700,6,6,4,1460,491,1,996,52,33580,1,65700,0,1,0,0,0
i,0x00000000,1716791430.739038,172.16.3.2,5101,172.16.1.2,49415,1073725440,14481,0,65728,65728,6,6,4,1460,478,1,996,50,33580,0,65700,4,0,0,0,0
o,0x00000000,1716791430.739047,172.16.3.2,5101,172.16.1.2,49415,1073725440,14481,0,65728,65728,6,6,4,1460,478,1,997,50,33580,0,65700,128,0,0,0,0
o,0x00000000,1716791430.739484,172.16.3.2,5101,172.16.1.2,49415,1073725440,14481,0,65728,65728,6,6,4,1460,478,1,996,50,33580,1,65700,0,0,0,0,0
o,0x00000000,1716791430.739694,10.0.2.15,22,10.0.2.2,60131,1073725440,14600,0,65535,65700,0,0,4,1460,1,0,4,24,33580,84,65700,0,0,0,0,0
i,0x00000000,1716791430.740449,10.0.2.15,22,10.0.2.2,60131,1073725440,14600,0,65535,65700,0,0,4,1460,1,0,4,24,33580,84,65700,0,84,0,0,0
i,0x00000000,1716791430.889294,172.16.3.2,5101,172.16.1.2,49415,1073725440,14481,0,65728,65728,6,6,4,1460,478,1,996,50,33580,1,65700,0,1,0,0,0
i,0x00000000,1716791430.979440,172.16.3.2,5101,172.16.1.2,35081,1073725440,14480,0,65728,65700,6,6,4,1460,491,1,992,52,33580,0,65700,0,0,0,0,0
o,0x00000000,1716791430.981503,172.16.3.2,5101,172.16.1.2,49415,1073725440,14482,0,65728,65728,6,6,4,1460,479,1,996,47,33580,1,65700,0,0,0,0,0
o,0x00000000,1716791430.981616,172.16.3.2,5101,172.16.1.2,49415,1073725440,14482,0,65728,65728,6,6,4,1460,479,1,996,47,33580,2,65700,0,1,0,0,0
o,0x00000000,1716791430.982318,10.0.2.15,22,10.0.2.2,60131,1073725440,14600,0,65535,65700,0,0,4,1460,1,0,4,24,33580,108,65700,0,0,0,0,0
i,0x00000000,1716791430.983188,10.0.2.15,22,10.0.2.2,60131,1073725440,14600,0,65535,65700,0,0,4,1460,1,0,4,24,33580,108,65700,0,108,0,0,0
o,0x00000000,1716791431.019388,172.16.3.2,5101,172.16.1.2,35081,1073725440,14480,0,65728,65700,6,6,4,1460,491,1,993,52,33580,0,65700,0,0,0,0,0
i,0x00000000,1716791431.171011,172.16.3.2,5101,172.16.1.2,49415,1073725440,14482,0,65728,65728,6,6,4,1460,479,1,996,47,33580,2,65700,0,2,0,0,0
i,0x00000000,1716791431.199401,172.16.3.2,5101,172.16.1.2,35081,1073725440,14480,0,65728,65700,6,6,4,1460,491,1,992,52,33580,0,65700,0,0,0,0,0
i,0x00000000,1716791431.209655,172.16.3.2,5101,172.16.1.2,35081,1073725440,14480,0,65728,65700,6,6,4,1460,491,1,992,52,33580,0,65700,0,0,0,0,0
o,0x00000000,1716791431.209668,172.16.3.2,5101,172.16.1.2,35081,1073725440,14480,0,65728,65700,6,6,4,1460,491,1,993,52,33580,0,65700,1448,0,0,0,0
i,0x00000000,1716791431.219022,172.16.3.2,5101,172.16.1.2,35081,1073725440,14480,0,65728,65700,6,6,4,1460,491,1,992,52,33580,0,65700,0,0,0,0,0
i,0x00000000,1716791431.229260,172.16.3.2,5101,172.16.1.2,35081,1073725440,14480,0,65728,65700,6,6,4,1460,491,1,992,52,33580,0,65700,0,0,0,0,0
o,0x00000000,1716791431.229270,172.16.3.2,5101,172.16.1.2,35081,1073725440,14480,0,65728,65700,6,6,4,1460,491,1,993,52,33580,0,65700,1448,0,0,0,0
i,0x00000000,1716791431.249031,172.16.3.2,5101,172.16.1.2,35081,1073725440,14480,0,65728,65700,6,6,4,1460,491,1,992,52,33580,0,65700,0,0,0,0,0
i,0x00000000,1716791431.259252,172.16.3.2,5101,172.16.1.2,35081,1073725440,14480,0,65728,65700,6,6,4,1460,491,1,992,52,33580,0,65700,0,0,0,0,0
o,0x00000000,1716791431.259262,172.16.3.2,5101,172.16.1.2,35081,1073725440,14480,0,65728,65700,6,6,4,1460,491,1,993,52,33580,0,65700,1448,0,0,0,0
i,0x00000000,1716791431.269710,172.16.3.2,5101,172.16.1.2,35081,1073725440,14480,0,65728,65700,6,6,4,1460,491,1,992,52,33580,0,65700,0,0,0,0,0
i,0x00000000,1716791431.280077,172.16.3.2,5101,172.16.1.2,35081,1073725440,14480,0,65728,65700,6,6,4,1460,491,1,992,52,33580,0,65700,0,0,0,0,0
o,0x00000000,1716791431.280087,172.16.3.2,5101,172.16.1.2,35081,1073725440,14480,0,65728,65700,6,6,4,1460,491,1,993,52,33580,0,65700,1448,0,0,0,0
i,0x00000000,1716791431.288984,172.16.3.2,5101,172.16.1.2,35081,1073725440,14480,0,65728,65700,6,6,4,1460,491,1,992,52,33580,0,65700,0,0,0,0,0
i,0x00000000,1716791431.309576,172.16.3.2,5101,172.16.1.2,35081,1073725440,14480,0,65728,65700,6,6,4,1460,491,1,992,52,33580,0,65700,0,0,0,0,0
o,0x00000000,1716791431.309592,172.16.3.2,5101,172.16.1.2,35081,1073725440,14480,0,65728,65700,6,6,4,1460,491,1,993,52,33580,0,65700,1448,0,0,0,0
i,0x00000000,1716791431.510165,172.16.3.2,5101,172.16.1.2,35081,1073725440,14480,0,65728,65700,6,6,4,1460,491,1,992,52,33580,0,65700,0,0,0,0,0
i,0x00000000,1716791431.520515,172.16.3.2,5101,172.16.1.2,35081,1073725440,14480,0,65728,65700,6,6,4,1460,491,1,992,52,33580,0,65700,0,0,0,0,0
o,0x00000000,1716791431.520532,172.16.3.2,5101,172.16.1.2,35081,1073725440,14480,0,65728,65700,6,6,4,1460,491,1,993,52,33580,0,65700,1448,0,0,0,0
i,0x00000000,1716791431.529144,172.16.3.2,5101,172.16.1.2,35081,1073725440,14480,0,65728,65700,6,6,4,1460,491,1,992,52,33580,0,65700,0,0,0,0,0
i,0x00000000,1716791431.549121,172.16.3.2,5101,172.16.1.2,35081,1073725440,14480,0,65728,65700,6,6,4,1460,491,1,992,52,33580,0,65700,0,0,0,0,0
o,0x00000000,1716791431.549140,172.16.3.2,5101,172.16.1.2,35081,1073725440,14480,0,65728,65700,6,6,4,1460,491,1,993,52,33580,0,65700,1448,0,0,0,0
i,0x00000000,1716791431.559219,172.16.3.2,5101,172.16.1.2,35081,1073725440,14480,0,65728,65700,6,6,4,1460,491,1,992,52,33580,0,65700,0,0,0,0,0
i,0x00000000,1716791431.569395,172.16.3.2,5101,172.16.1.2,35081,1073725440,14480,0,65728,65700,6,6,4,1460,491,1,992,52,33580,0,65700,0,0,0,0,0
o,0x00000000,1716791431.569405,172.16.3.2,5101,172.16.1.2,35081,1073725440,14480,0,65728,65700,6,6,4,1460,491,1,993,52,33580,0,65700,1448,0,0,0,0
i,0x00000000,1716791431.578987,172.16.3.2,5101,172.16.1.2,35081,1073725440,14480,0,65728,65700,6,6,4,1460,491,1,992,52,33580,0,65700,0,0,0,0,0
i,0x00000000,1716791431.589383,172.16.3.2,5101,172.16.1.2,35081,1073725440,14480,0,65728,65700,6,6,4,1460,491,1,992,52,33580,0,65700,0,0,0,0,0
o,0x00000000,1716791431.589391,172.16.3.2,5101,172.16.1.2,35081,1073725440,14480,0,65728,65700,6,6,4,1460,491,1,993,52,33580,0,65700,1448,0,0,0,0
i,0x00000000,1716791431.609427,172.16.3.2,5101,172.16.1.2,35081,1073725440,14480,0,65728,65700,6,6,4,1460,491,1,992,52,33580,0,65700,0,0,0,0,0
i,0x00000000,1716791431.619923,172.16.3.2,5101,172.16.1.2,35081,1073725440,14480,0,65728,65700,6,6,4,1460,491,1,992,52,33580,0,65700,0,0,0,0,0
o,0x00000000,1716791431.619931,172.16.3.2,5101,172.16.1.2,35081,1073725440,14480,0,65728,65700,6,6,4,1460,491,1,993,52,33580,0,65700,1448,0,0,0,0
i,0x00000000,1716791431.629476,172.16.3.2,5101,172.16.1.2,35081,1073725440,14480,0,65728,65700,6,6,4,1460,491,1,992,52,33580,0,65700,0,0,0,0,0
o,0x00000000,1716791431.669086,172.16.3.2,5101,172.16.1.2,35081,1073725440,14480,0,65728,65700,6,6,4,1460,491,1,993,52,33580,0,65700,0,0,0,0,0
i,0x00000000,1716791431.810213,172.16.3.2,5101,172.16.1.2,35081,1073725440,14480,0,65728,65700,6,6,4,1460,491,1,992,52,33580,0,65700,0,0,0,0,0
i,0x00000000,1716791431.819812,172.16.3.2,5101,172.16.1.2,35081,1073725440,14480,0,65728,65700,6,6,4,1460,491,1,992,52,33580,0,65700,0,0,0,0,0
o,0x00000000,1716791431.819827,172.16.3.2,5101,172.16.1.2,35081,1073725440,14480,0,65728,65700,6,6,4,1460,491,1,993,52,33580,0,65700,1448,0,0,0,0
i,0x00000000,1716791431.830236,172.16.3.2,5101,172.16.1.2,35081,1073725440,14480,0,65728,65700,6,6,4,1460,491,1,992,52,33580,0,65700,0,0,0,0,0
i,0x00000000,1716791431.839661,172.16.3.2,5101,172.16.1.2,35081,1073725440,14480,0,65728,65700,6,6,4,1460,491,1,992,52,33580,0,65700,0,0,0,0,0
o,0x00000000,1716791431.839668,172.16.3.2,5101,172.16.1.2,35081,1073725440,14480,0,65728,65700,6,6,4,1460,491,1,993,52,33580,0,65700,1448,0,0,0,0
i,0x00000000,1716791431.859817,172.16.3.2,5101,172.16.1.2,35081,1073725440,14480,0,65728,65700,6,6,4,1460,491,1,992,52,33580,0,65700,0,0,0,0,0
i,0x00000000,1716791431.870260,172.16.3.2,5101,172.16.1.2,35081,1073725440,14480,0,65728,65700,6,6,4,1460,491,1,992,52,33580,0,65700,0,0,0,0,0
o,0x00000000,1716791431.870266,172.16.3.2,5101,172.16.1.2,35081,1073725440,14480,0,65728,65700,6,6,4,1460,491,1,993,52,33580,0,65700,1448,0,0,0,0
i,0x00000000,1716791431.879577,172.16.3.2,5101,172.16.1.2,35081,1073725440,14480,0,65728,65700,6,6,4,1460,491,1,992,52,33580,0,65700,0,0,0,0,0
i,0x00000000,1716791431.890150,172.16.3.2,5101,172.16.1.2,35081,1073725440,14480,0,65728,65700,6,6,4,1460,491,1,992,52,33580,0,65700,0,0,0,0,0
o,0x00000000,1716791431.890178,172.16.3.2,5101,172.16.1.2,35081,1073725440,14480,0,65728,65700,6,6,4,1460,491,1,993,52,33580,0,65700,1448,0,0,0,0
i,0x00000000,1716791431.899534,172.16.3.2,5101,172.16.1.2,35081,1073725440,14480,0,65728,65700,6,6,4,1460,491,1,992,52,33580,0,65700,0,0,0,0,0
i,0x00000000,1716791431.920622,172.16.3.2,5101,172.16.1.2,35081,1073725440,14480,0,65728,65700,6,6,4,1460,491,1,992,52,33580,0,65700,0,0,0,0,0
o,0x00000000,1716791431.920675,172.16.3.2,5101,172.16.1.2,35081,1073725440,14480,0,65728,65700,6,6,4,1460,491,1,993,52,33580,0,65700,1448,0,0,0,0
i,0x00000000,1716791431.969776,172.16.3.2,5101,172.16.1.2,35081,1073725440,14480,0,65728,65700,6,6,4,1460,491,1,992,52,33580,0,65700,0,0,0,0,0
i,0x00000000,1716791431.980299,172.16.3.2,5101,172.16.1.2,35081,1073725440,14480,0,65728,65700,6,6,4,1460,491,1,992,52,33580,0,65700,0,0,0,0,0
o,0x00000000,1716791431.980310,172.16.3.2,5101,172.16.1.2,35081,1073725440,14480,0,65728,65700,6,6,4,1460,491,1,993,52,33580,0,65700,1448,0,0,0,0
o,0x00000000,1716791431.988870,10.0.2.15,22,10.0.2.2,60131,1073725440,14600,0,65535,65700,0,0,4,1460,1,0,4,24,33580,156,65700,0,0,0,0,0
i,0x00000000,1716791431.989622,10.0.2.15,22,10.0.2.2,60131,1073725440,14600,0,65535,65700,0,0,4,1460,1,0,4,24,33580,156,65700,0,156,0,0,0
i,0x00000000,1716791432.110186,172.16.3.2,5101,172.16.1.2,35081,1073725440,14480,0,65728,65700,6,6,4,1460,491,1,992,52,33580,0,65700,0,0,0,0,0
i,0x00000000,1716791432.120828,172.16.3.2,5101,172.16.1.2,35081,1073725440,14480,0,65728,65700,6,6,4,1460,491,1,992,52,33580,0,65700,0,0,0,0,0
o,0x00000000,1716791432.120840,172.16.3.2,5101,172.16.1.2,35081,1073725440,14480,0,65728,65700,6,6,4,1460,491,1,993,52,33580,0,65700,1448,0,0,0,0
i,0x00000000,1716791432.140571,172.16.3.2,5101,172.16.1.2,35081,1073725440,14480,0,65728,65700,6,6,4,1460,491,1,992,52,33580,0,65700,0,0,0,0,0
i,0x00000000,1716791432.149395,172.16.3.2,5101,172.16.1.2,35081,1073725440,14480,0,65728,65700,6,6,4,1460,491,1,992,52,33580,0,65700,0,0,0,0,0
o,0x00000000,1716791432.149410,172.16.3.2,5101,172.16.1.2,35081,1073725440,14480,0,65728,65700,6,6,4,1460,491,1,993,52,33580,0,65700,1448,0,0,0,0
i,0x00000000,1716791432.160751,172.16.3.2,5101,172.16.1.2,35081,1073725440,14480,0,65728,65700,6,6,4,1460,491,1,992,52,33580,0,65700,0,0,0,0,0
i,0x00000000,1716791432.169430,172.16.3.2,5101,172.16.1.2,35081,1073725440,14480,0,65728,65700,6,6,4,1460,491,1,992,52,33580,0,65700,0,0,0,0,0
o,0x00000000,1716791432.169437,172.16.3.2,5101,172.16.1.2,35081,1073725440,14480,0,65728,65700,6,6,4,1460,491,1,993,52,33580,0,65700,1448,0,0,0,0
i,0x00000000,1716791432.179850,172.16.3.2,5101,172.16.1.2,35081,1073725440,14480,0,65728,65700,6,6,4,1460,491,1,992,52,33580,0,65700,0,0,0,0,0
i,0x00000000,1716791432.200475,172.16.3.2,5101,172.16.1.2,35081,1073725440,14480,0,65728,65700,6,6,4,1460,491,1,992,52,33580,0,65700,0,0,0,0,0
o,0x00000000,1716791432.200483,172.16.3.2,5101,172.16.1.2,35081,1073725440,14480,0,65728,65700,6,6,4,1460,491,1,993,52,33580,0,65700,1448,0,0,0,0
i,0x00000000,1716791432.211159,172.16.3.2,5101,172.16.1.2,35081,1073725440,14480,0,65728,65700,6,6,4,1460,491,1,992,52,33580,0,65700,0,0,0,0,0
i,0x00000000,1716791432.219776,172.16.3.2,5101,172.16.1.2,35081,1073725440,14480,0,65728,65700,6,6,4,1460,491,1,992,52,33580,0,65700,0,0,0,0,0
o,0x00000000,1716791432.219783,172.16.3.2,5101,172.16.1.2,35081,1073725440,14480,0,65728,65700,6,6,4,1460,491,1,993,52,33580,0,65700,1448,0,0,0,0
i,0x00000000,1716791432.270260,172.16.3.2,5101,172.16.1.2,35081,1073725440,14480,0,65728,65700,6,6,4,1460,491,1,992,52,33580,0,65700,0,0,0,0,0
i,0x00000000,1716791432.279901,172.16.3.2,5101,172.16.1.2,35081,1073725440,14480,0,65728,65700,6,6,4,1460,491,1,992,52,33580,0,65700,0,0,0,0,0
o,0x00000000,1716791432.279913,172.16.3.2,5101,172.16.1.2,35081,1073725440,14480,0,65728,65700,6,6,4,1460,491,1,993,52,33580,0,65700,1448,0,0,0,0
i,0x00000000,1716791432.300578,172.16.3.2,5101,172.16.1.2,35081,1073725440,14480,0,65728,65700,6,6,4,1460,491,1,992,52,33580,0,65700,0,0,0,0,0
o,0x00000000,1716791432.338896,172.16.3.2,5101,172.16.1.2,35081,1073725440,14480,0,65728,65700,6,6,4,1460,491,1,993,52,33580,0,65700,0,0,0,0,0
i,0x00000000,1716791432.429639,172.16.3.2,5101,172.16.1.2,35081,1073725440,14480,0,65728,65700,6,6,4,1460,491,1,992,52,33580,0,65700,0,0,0,0,0
i,0x00000000,1716791432.440636,172.16.3.2,5101,172.16.1.2,35081,1073725440,14480,0,65728,65700,6,6,4,1460,491,1,992,52,33580,0,65700,0,0,0,0,0
o,0x00000000,1716791432.440649,172.16.3.2,5101,172.16.1.2,35081,1073725440,14480,0,65728,65700,6,6,4,1460,491,1,993,52,33580,0,65700,1448,0,0,0,0
i,0x00000000,1716791432.450267,172.16.3.2,5101,172.16.1.2,35081,1073725440,14480,0,65728,65700,6,6,4,1460,491,1,992,52,33580,0,65700,0,0,0,0,0
i,0x00000000,1716791432.460538,172.16.3.2,5101,172.16.1.2,35081,1073725440,14480,0,65728,65700,6,6,4,1460,491,1,992,52,33580,0,65700,0,0,0,0,0
o,0x00000000,1716791432.460546,172.16.3.2,5101,172.16.1.2,35081,1073725440,14480,0,65728,65700,6,6,4,1460,491,1,993,52,33580,0,65700,1448,0,0,0,0
i,0x00000000,1716791432.480069,172.16.3.2,5101,172.16.1.2,35081,1073725440,14480,0,65728,65700,6,6,4,1460,491,1,992,52,33580,0,65700,0,0,0,0,0
i,0x00000000,1716791432.490682,172.16.3.2,5101,172.16.1.2,35081,1073725440,14480,0,65728,65700,6,6,4,1460,491,1,992,52,33580,0,65700,0,0,0,0,0
o,0x00000000,1716791432.490695,172.16.3.2,5101,172.16.1.2,35081,1073725440,14480,0,65728,65700,6,6,4,1460,491,1,993,52,33580,0,65700,1448,0,0,0,0
i,0x00000000,1716791432.500766,172.16.3.2,5101,172.16.1.2,35081,1073725440,14480,0,65728,65700,6,6,4,1460,491,1,992,52,33580,0,65700,0,0,0,0,0
i,0x00000000,1716791432.509706,172.16.3.2,5101,172.16.1.2,35081,1073725440,14480,0,65728,65700,6,6,4,1460,491,1,992,52,33580,0,65700,0,0,0,0,0
o,0x00000000,1716791432.509717,172.16.3.2,5101,172.16.1.2,35081,1073725440,14480,0,65728,65700,6,6,4,1460,491,1,993,52,33580,0,65700,1448,0,0,0,0
i,0x00000000,1716791432.530314,172.16.3.2,5101,172.16.1.2,35081,1073725440,14480,0,65728,65700,6,6,4,1460,491,1,992,52,33580,0,65700,0,0,0,0,0
i,0x00000000,1716791432.541050,172.16.3.2,5101,172.16.1.2,35081,1073725440,14480,0,65728,65700,6,6,4,1460,491,1,992,52,33580,0,65700,0,0,0,0,0
o,0x00000000,1716791432.541059,172.16.3.2,5101,172.16.1.2,35081,1073725440,14480,0,65728,65700,6,6,4,1460,491,1,993,52,33580,0,65700,1448,0,0,0,0
i,0x00000000,1716791432.590454,172.16.3.2,5101,172.16.1.2,35081,1073725440,14480,0,65728,65700,6,6,4,1460,491,1,992,52,33580,0,65700,0,0,0,0,0
i,0x00000000,1716791432.601061,172.16.3.2,5101,172.16.1.2,35081,1073725440,14480,0,65728,65700,6,6,4,1460,491,1,992,52,33580,0,65700,0,0,0,0,0
o,0x00000000,1716791432.601074,172.16.3.2,5101,172.16.1.2,35081,1073725440,14480,0,65728,65700,6,6,4,1460,491,1,993,52,33580,0,65700,1448,0,0,0,0
i,0x00000000,1716791432.720235,172.16.3.2,5101,172.16.1.2,35081,1073725440,14480,0,65728,65700,6,6,4,1460,491,1,992,52,33580,0,65700,0,0,0,0,0
i,0x00000000,1716791432.730526,172.16.3.2,5101,172.16.1.2,35081,1073725440,14480,0,65728,65700,6,6,4,1460,491,1,992,52,33580,0,65700,0,0,0,0,0
o,0x00000000,1716791432.730537,172.16.3.2,5101,172.16.1.2,35081,1073725440,14480,0,65728,65700,6,6,4,1460,491,1,993,52,33580,0,65700,1448,0,0,0,0
i,0x00000000,1716791432.750378,172.16.3.2,5101,172.16.1.2,35081,1073725440,14480,0,65728,65700,6,6,4,1460,491,1,992,52,33580,0,65700,0,0,0,0,0
i,0x00000000,1716791432.760847,172.16.3.2,5101,172.16.1.2,35081,1073725440,14480,0,65728,65700,6,6,4,1460,491,1,992,52,33580,0,65700,0,0,0,0,0
o,0x00000000,1716791432.760858,172.16.3.2,5101,172.16.1.2,35081,1073725440,14480,0,65728,65700,6,6,4,1460,491,1,993,52,33580,0,65700,1448,0,0,0,0
i,0x00000000,1716791432.770344,172.16.3.2,5101,172.16.1.2,35081,1073725440,14480,0,65728,65700,6,6,4,1460,491,1,992,52,33580,0,65700,0,0,0,0,0
i,0x00000000,1716791432.780869,172.16.3.2,5101,172.16.1.2,35081,1073725440,14480,0,65728,65700,6,6,4,1460,491,1,992,52,33580,0,65700,0,0,0,0,0
o,0x00000000,1716791432.780875,172.16.3.2,5101,172.16.1.2,35081,1073725440,14480,0,65728,65700,6,6,4,1460,491,1,993,52,33580,0,65700,1448,0,0,0,0
i,0x00000000,1716791432.790474,172.16.3.2,5101,172.16.1.2,35081,1073725440,14480,0,65728,65700,6,6,4,1460,491,1,992,52,33580,0,65700,0,0,0,0,0
i,0x00000000,1716791432.810431,172.16.3.2,5101,172.16.1.2,35081,1073725440,14480,0,65728,65700,6,6,4,1460,491,1,992,52,33580,0,65700,0,0,0,0,0
o,0x00000000,1716791432.810438,172.16.3.2,5101,172.16.1.2,35081,1073725440,14480,0,65728,65700,6,6,4,1460,491,1,993,52,33580,0,65700,1448,0,0,0,0
i,0x00000000,1716791432.840935,172.16.3.2,5101,172.16.1.2,35081,1073725440,14480,0,65728,65700,6,6,4,1460,491,1,992,52,33580,0,65700,0,0,0,0,0
i,0x00000000,1716791432.850404,172.16.3.2,5101,172.16.1.2,35081,1073725440,14480,0,65728,65700,6,6,4,1460,491,1,992,52,33580,0,65700,0,0,0,0,0
o,0x00000000,1716791432.850411,172.16.3.2,5101,172.16.1.2,35081,1073725440,14480,0,65728,65700,6,6,4,1460,491,1,993,52,33580,0,65700,1448,0,0,0,0
i,0x00000000,1716791432.871456,172.16.3.2,5101,172.16.1.2,35081,1073725440,14480,0,65728,65700,6,6,4,1460,491,1,992,52,33580,0,65700,0,0,0,0,0
i,0x00000000,1716791432.879641,172.16.3.2,5101,172.16.1.2,35081,1073725440,14480,0,65728,65700,6,6,4,1460,491,1,992,52,33580,0,65700,0,0,0,0,0
o,0x00000000,1716791432.879647,172.16.3.2,5101,172.16.1.2,35081,1073725440,14480,0,65728,65700,6,6,4,1460,491,1,993,52,33580,0,65700,1448,0,0,0,0
o,0x00000000,1716791432.999090,10.0.2.15,22,10.0.2.2,60131,1073725440,14600,0,65535,65700,0,0,4,1460,1,0,4,24,33580,108,65700,0,0,0,0,0
i,0x00000000,1716791432.999822,10.0.2.15,22,10.0.2.2,60131,1073725440,14600,0,65535,65700,0,0,4,1460,1,0,4,24,33580,108,65700,0,108,0,0,0
i,0x00000000,1716791433.031240,172.16.3.2,5101,172.16.1.2,35081,1073725440,14480,0,65728,65700,6,6,4,1460,491,1,992,52,33580,0,65700,0,0,0,0,0
i,0x00000000,1716791433.041633,172.16.3.2,5101,172.16.1.2,35081,1073725440,14480,0,65728,65700,6,6,4,1460,491,1,992,52,33580,0,65700,0,0,0,0,0
o,0x00000000,1716791433.041645,172.16.3.2,5101,172.16.1.2,35081,1073725440,14480,0,65728,65700,6,6,4,1460,491,1,993,52,33580,0,65700,1448,0,0,0,0
i,0x00000000,1716791433.080639,172.16.3.2,5101,172.16.1.2,35081,1073725440,14480,0,65728,65700,6,6,4,1460,491,1,992,52,33580,0,65700,0,0,0,0,0
i,0x00000000,1716791433.090937,172.16.3.2,5101,172.16.1.2,35081,1073725440,14480,0,65728,65700,6,6,4,1460,491,1,992,52,33580,0,65700,0,0,0,0,0
o,0x00000000,1716791433.090953,172.16.3.2,5101,172.16.1.2,35081,1073725440,14480,0,65728,65700,6,6,4,1460,491,1,993,52,33580,0,65700,1448,0,0,0,0
i,0x00000000,1716791433.101618,172.16.3.2,5101,172.16.1.2,35081,1073725440,14480,0,65728,65700,6,6,4,1460,491,1,992,52,33580,0,65700,0,0,0,0,0
i,0x00000000,1716791433.111856,172.16.3.2,5101,172.16.1.2,35081,1073725440,14480,0,65728,65700,6,6,4,1460,491,1,992,52,33580,0,65700,0,0,0,0,0
o,0x00000000,1716791433.111884,172.16.3.2,5101,172.16.1.2,35081,1073725440,14480,0,65728,65700,6,6,4,1460,491,1,993,52,33580,0,65700,1448,0,0,0,0
i,0x00000000,1716791433.120757,172.16.3.2,5101,172.16.1.2,35081,1073725440,14480,0,65728,65700,6,6,4,1460,491,1,992,52,33580,0,65700,0,0,0,0,0
i,0x00000000,1716791433.140720,172.16.3.2,5101,172.16.1.2,35081,1073725440,14480,0,65728,65700,6,6,4,1460,491,1,992,52,33580,0,65700,0,0,0,0,0
o,0x00000000,1716791433.140729,172.16.3.2,5101,172.16.1.2,35081,1073725440,14480,0,65728,65700,6,6,4,1460,491,1,993,52,33580,0,65700,1448,0,0,0,0
i,0x00000000,1716791433.151207,172.16.3.2,5101,172.16.1.2,35081,1073725440,14480,0,65728,65700,6,6,4,1460,491,1,992,52,33580,0,65700,0,0,0,0,0
i,0x00000000,1716791433.161574,172.16.3.2,5101,172.16.1.2,35081,1073725440,14480,0,65728,65700,6,6,4,1460,491,1,992,52,33580,0,65700,0,0,0,0,0
o,0x00000000,1716791433.161579,172.16.3.2,5101,172.16.1.2,35081,1073725440,14480,0,65728,65700,6,6,4,1460,491,1,993,52,33580,0,65700,1448,0,0,0,0
i,0x00000000,1716791433.170661,172.16.3.2,5101,172.16.1.2,35081,1073725440,14480,0,65728,65700,6,6,4,1460,491,1,992,52,33580,0,65700,0,0,0,0,0
o,0x00000000,1716791433.209433,172.16.3.2,5101,172.16.1.2,35081,1073725440,14480,0,65728,65700,6,6,4,1460,491,1,993,52,33580,0,65700,0,0,0,0,0
i,0x00000000,1716791433.210268,172.16.3.2,5101,172.16.1.2,35081,1073725440,14480,0,65728,65700,6,6,4,1460,491,1,992,52,33580,0,65700,0,0,0,0,0
i,0x00000000,1716791433.220340,172.16.3.2,5101,172.16.1.2,35081,1073725440,14480,0,65728,65700,6,6,4,1460,491,1,992,52,33580,0,65700,0,0,0,0,0
o,0x00000000,1716791433.220347,172.16.3.2,5101,172.16.1.2,35081,1073725440,14480,0,65728,65700,6,6,4,1460,491,1,993,52,33580,0,65700,1448,0,0,0,0
i,0x00000000,1716791433.230734,172.16.3.2,5101,172.16.1.2,35081,1073725440,14480,0,65728,65700,6,6,4,1460,491,1,992,52,33580,0,65700,0,0,0,0,0
i,0x00000000,1716791433.250717,172.16.3.2,5101,172.16.1.2,35081,1073725440,14480,0,65728,65700,6,6,4,1460,491,1,992,52,33580,0,65700,0,0,0,0,0
o,0x00000000,1716791433.250726,172.16.3.2,5101,172.16.1.2,35081,1073725440,14480,0,65728,65700,6,6,4,1460,491,1,993,52,33580,0,65700,1448,0,0,0,0
i,0x00000000,1716791433.391698,172.16.3.2,5101,172.16.1.2,35081,1073725440,14480,0,65728,65700,6,6,4,1460,491,1,992,52,33580,0,65700,0,0,0,0,0
i,0x00000000,1716791433.410919,172.16.3.2,5101,172.16.1.2,35081,1073725440,14480,0,65728,65700,6,6,4,1460,491,1,992,52,33580,0,65700,0,0,0,0,0
o,0x00000000,1716791433.410934,172.16.3.2,5101,172.16.1.2,35081,1073725440,14480,0,65728,65700,6,6,4,1460,491,1,993,52,33580,0,65700,1448,0,0,0,0
i,0x00000000,1716791433.451630,172.16.3.2,5101,172.16.1.2,35081,1073725440,14480,0,65728,65700,6,6,4,1460,491,1,992,52,33580,0,65700,0,0,0,0,0
i,0x00000000,1716791433.470526,172.16.3.2,5101,172.16.1.2,35081,1073725440,14480,0,65728,65700,6,6,4,1460,491,1,992,52,33580,0,65700,0,0,0,0,0
o,0x00000000,1716791433.470538,172.16.3.2,5101,172.16.1.2,35081,1073725440,14480,0,65728,65700,6,6,4,1460,491,1,993,52,33580,0,65700,1448,0,0,0,0
i,0x00000000,1716791433.481862,172.16.3.2,5101,172.16.1.2,35081,1073725440,14480,0,65728,65700,6,6,4,1460,491,1,992,52,33580,0,65700,0,0,0,0,0
i,0x00000000,1716791433.490716,172.16.3.2,5101,172.16.1.2,35081,1073725440,14480,0,65728,65700,6,6,4,1460,491,1,992,52,33580,0,65700,0,0,0,0,0
o,0x00000000,1716791433.490725,172.16.3.2,5101,172.16.1.2,35081,1073725440,14480,0,65728,65700,6,6,4,1460,491,1,993,52,33580,0,65700,1448,0,0,0,0
i,0x00000000,1716791433.500392,172.16.3.2,5101,172.16.1.2,35081,1073725440,14480,0,65728,65700,6,6,4,1460,491,1,992,52,33580,0,65700,0,0,0,0,0
i,0x00000000,1716791433.510806,172.16.3.2,5101,172.16.1.2,35081,1073725440,14480,0,65728,65700,6,6,4,1460,491,1,992,52,33580,0,65700,0,0,0,0,0
o,0x00000000,1716791433.510813,172.16.3.2,5101,172.16.1.2,35081,1073725440,14480,0,65728,65700,6,6,4,1460,491,1,993,52,33580,0,65700,1448,0,0,0,0
i,0x00000000,1716791433.530740,172.16.3.2,5101,172.16.1.2,35081,1073725440,14480,0,65728,65700,6,6,4,1460,491,1,992,52,33580,0,65700,0,0,0,0,0
i,0x00000000,1716791433.541213,172.16.3.2,5101,172.16.1.2,35081,1073725440,14480,0,65728,65700,6,6,4,1460,491,1,992,52,33580,0,65700,0,0,0,0,0
o,0x00000000,1716791433.541221,172.16.3.2,5101,172.16.1.2,35081,1073725440,14480,0,65728,65700,6,6,4,1460,491,1,993,52,33580,0,65700,1448,0,0,0,0
i,0x00000000,1716791433.551655,172.16.3.2,5101,172.16.1.2,35081,1073725440,14480,0,65728,65700,6,6,4,1460,491,1,992,52,33580,0,65700,0,0,0,0,0
o,0x00000000,1716791433.589673,172.16.3.2,5101,172.16.1.2,35081,1073725440,14480,0,65728,65700,6,6,4,1460,491,1,993,52,33580,0,65700,0,0,0,0,0
i,0x00000000,1716791433.590493,172.16.3.2,5101,172.16.1.2,35081,1073725440,14480,0,65728,65700,6,6,4,1460,491,1,992,52,33580,0,65700,0,0,0,0,0
i,0x00000000,1716791433.601238,172.16.3.2,5101,172.16.1.2,35081,1073725440,14480,0,65728,65700,6,6,4,1460,491,1,992,52,33580,0,65700,0,0,0,0,0
o,0x00000000,1716791433.601253,172.16.3.2,5101,172.16.1.2,35081,1073725440,14480,0,65728,65700,6,6,4,1460,491,1,993,52,33580,0,65700,1448,0,0,0,0
i,0x00000000,1716791433.611571,172.16.3.2,5101,172.16.1.2,35081,1073725440,14480,0,65728,65700,6,6,4,1460,491,1,992,52,33580,0,65700,0,0,0,0,0
i,0x00000000,1716791433.631783,172.16.3.2,5101,172.16.1.2,35081,1073725440,14480,0,65728,65700,6,6,4,1460,491,1,992,52,33580,0,65700,0,0,0,0,0
o,0x00000000,1716791433.631819,172.16.3.2,5101,172.16.1.2,35081,1073725440,14480,0,65728,65700,6,6,4,1460,491,1,993,52,33580,0,65700,1448,0,0,0,0
i,0x00000000,1716791433.640819,172.16.3.2,5101,172.16.1.2,35081,1073725440,14480,0,65728,65700,6,6,4,1460,491,1,992,52,33580,0,65700,0,0,0,0,0
o,0x00000000,1716791433.679330,172.16.3.2,5101,172.16.1.2,35081,1073725440,14480,0,65728,65700,6,6,4,1460,491,1,993,52,33580,0,65700,0,0,0,0,0
i,0x00000000,1716791433.781299,172.16.3.2,5101,172.16.1.2,35081,1073725440,14480,0,65728,65700,6,6,4,1460,491,1,992,52,33580,0,65700,0,0,0,0,0
i,0x00000000,1716791433.801396,172.16.3.2,5101,172.16.1.2,35081,1073725440,14480,0,65728,65700,6,6,4,1460,491,1,992,52,33580,0,65700,0,0,0,0,0
o,0x00000000,1716791433.801408,172.16.3.2,5101,172.16.1.2,35081,1073725440,14480,0,65728,65700,6,6,4,1460,491,1,993,52,33580,0,65700,1448,0,0,0,0
i,0x00000000,1716791433.851896,172.16.3.2,5101,172.16.1.2,35081,1073725440,14480,0,65728,65700,6,6,4,1460,491,1,992,52,33580,0,65700,0,0,0,0,0
i,0x00000000,1716791433.861538,172.16.3.2,5101,172.16.1.2,35081,1073725440,14480,0,65728,65700,6,6,4,1460,491,1,992,52,33580,0,65700,0,0,0,0,0
o,0x00000000,1716791433.861548,172.16.3.2,5101,172.16.1.2,35081,1073725440,14480,0,65728,65700,6,6,4,1460,491,1,993,52,33580,0,65700,1448,0,0,0,0
i,0x00000000,1716791433.871978,172.16.3.2,5101,172.16.1.2,35081,1073725440,14480,0,65728,65700,6,6,4,1460,491,1,992,52,33580,0,65700,0,0,0,0,0
i,0x00000000,1716791433.881191,172.16.3.2,5101,172.16.1.2,35081,1073725440,14480,0,65728,65700,6,6,4,1460,491,1,992,52,33580,0,65700,0,0,0,0,0
o,0x00000000,1716791433.881197,172.16.3.2,5101,172.16.1.2,35081,1073725440,14480,0,65728,65700,6,6,4,1460,491,1,993,52,33580,0,65700,1448,0,0,0,0
i,0x00000000,1716791433.891696,172.16.3.2,5101,172.16.1.2,35081,1073725440,14480,0,65728,65700,6,6,4,1460,491,1,992,52,33580,0,65700,0,0,0,0,0
i,0x00000000,1716791433.911480,172.16.3.2,5101,172.16.1.2,35081,1073725440,14480,0,65728,65700,6,6,4,1460,491,1,992,52,33580,0,65700,0,0,0,0,0
o,0x00000000,1716791433.911504,172.16.3.2,5101,172.16.1.2,35081,1073725440,14480,0,65728,65700,6,6,4,1460,491,1,993,52,33580,0,65700,1448,0,0,0,0
i,0x00000000,1716791433.921104,172.16.3.2,5101,172.16.1.2,35081,1073725440,14480,0,65728,65700,6,6,4,1460,491,1,992,52,33580,0,65700,0,0,0,0,0
i,0x00000000,1716791433.931330,172.16.3.2,5101,172.16.1.2,35081,1073725440,14480,0,65728,65700,6,6,4,1460,491,1,992,52,33580,0,65700,0,0,0,0,0
o,0x00000000,1716791433.931353,172.16.3.2,5101,172.16.1.2,35081,1073725440,14480,0,65728,65700,6,6,4,1460,491,1,993,52,33580,0,65700,1448,0,0,0,0
i,0x00000000,1716791433.941966,172.16.3.2,5101,172.16.1.2,35081,1073725440,14480,0,65728,65700,6,6,4,1460,491,1,992,52,33580,0,65700,0,0,0,0,0
o,0x00000000,1716791433.979249,172.16.3.2,5101,172.16.1.2,35081,1073725440,14480,0,65728,65700,6,6,4,1460,491,1,993,52,33580,0,65700,0,0,0,0,0
i,0x00000000,1716791433.981659,172.16.3.2,5101,172.16.1.2,35081,1073725440,14480,0,65728,65700,6,6,4,1460,491,1,992,52,33580,0,65700,0,0,0,0,0
i,0x00000000,1716791433.992022,172.16.3.2,5101,172.16.1.2,35081,1073725440,14480,0,65728,65700,6,6,4,1460,491,1,992,52,33580,0,65700,0,0,0,0,0
o,0x00000000,1716791433.992029,172.16.3.2,5101,172.16.1.2,35081,1073725440,14480,0,65728,65700,6,6,4,1460,491,1,993,52,33580,0,65700,1448,0,0,0,0
o,0x00000000,1716791433.999214,10.0.2.15,22,10.0.2.2,60131,1073725440,14600,0,65535,65700,0,0,4,1460,1,0,4,24,33580,108,65700,0,0,0,0,0
i,0x00000000,1716791434.000061,10.0.2.15,22,10.0.2.2,60131,1073725440,14600,0,65535,65700,0,0,4,1460,1,0,4,24,33580,108,65700,0,108,0,0,0
i,0x00000000,1716791434.002172,172.16.3.2,5101,172.16.1.2,35081,1073725440,14480,0,65728,65700,6,6,4,1460,491,1,992,52,33580,0,65700,0,0,0,0,0
i,0x00000000,1716791434.021407,172.16.3.2,5101,172.16.1.2,35081,1073725440,14480,0,65728,65700,6,6,4,1460,491,1,992,52,33580,0,65700,0,0,0,0,0
o,0x00000000,1716791434.021418,172.16.3.2,5101,172.16.1.2,35081,1073725440,14480,0,65728,65700,6,6,4,1460,491,1,993,52,33580,0,65700,1448,0,0,0,0
i,0x00000000,1716791434.031888,172.16.3.2,5101,172.16.1.2,35081,1073725440,14480,0,65728,65700,6,6,4,1460,491,1,992,52,33580,0,65700,0,0,0,0,0
o,0x00000000,1716791434.068635,172.16.3.2,5101,172.16.1.2,35081,1073725440,14480,0,65728,65700,6,6,4,1460,491,1,993,52,33580,0,65700,0,0,0,0,0
i,0x00000000,1716791434.191227,172.16.3.2,5101,172.16.1.2,35081,1073725440,14480,0,65728,65700,6,6,4,1460,491,1,992,52,33580,0,65700,0,0,0,0,0
i,0x00000000,1716791434.201793,172.16.3.2,5101,172.16.1.2,35081,1073725440,14480,0,65728,65700,6,6,4,1460,491,1,992,52,33580,0,65700,0,0,0,0,0
o,0x00000000,1716791434.201814,172.16.3.2,5101,172.16.1.2,35081,1073725440,14480,0,65728,65700,6,6,4,1460,491,1,993,52,33580,0,65700,1448,0,0,0,0
i,0x00000000,1716791434.212031,172.16.3.2,5101,172.16.1.2,35081,1073725440,14480,0,65728,65700,6,6,4,1460,491,1,992,52,33580,0,65700,0,0,0,0,0
o,0x00000000,1716791434.249344,172.16.3.2,5101,172.16.1.2,35081,1073725440,14480,0,65728,65700,6,6,4,1460,491,1,993,52,33580,0,65700,0,0,0,0,0
i,0x00000000,1716791434.262216,172.16.3.2,5101,172.16.1.2,35081,1073725440,14480,0,65728,65700,6,6,4,1460,491,1,992,52,33580,0,65700,0,0,0,0,0
i,0x00000000,1716791434.271657,172.16.3.2,5101,172.16.1.2,35081,1073725440,14480,0,65728,65700,6,6,4,1460,491,1,992,52,33580,0,65700,0,0,0,0,0
o,0x00000000,1716791434.271665,172.16.3.2,5101,172.16.1.2,35081,1073725440,14480,0,65728,65700,6,6,4,1460,491,1,993,52,33580,0,65700,1448,0,0,0,0
i,0x00000000,1716791434.291521,172.16.3.2,5101,172.16.1.2,35081,1073725440,14480,0,65728,65700,6,6,4,1460,491,1,992,52,33580,0,65700,0,0,0,0,0
i,0x00000000,1716791434.302095,172.16.3.2,5101,172.16.1.2,35081,1073725440,14480,0,65728,65700,6,6,4,1460,491,1,992,52,33580,0,65700,0,0,0,0,0
o,0x00000000,1716791434.302105,172.16.3.2,5101,172.16.1.2,35081,1073725440,14480,0,65728,65700,6,6,4,1460,491,1,993,52,33580,0,65700,1448,0,0,0,0
i,0x00000000,1716791434.312407,172.16.3.2,5101,172.16.1.2,35081,1073725440,14480,0,65728,65700,6,6,4,1460,491,1,992,52,33580,0,65700,0,0,0,0,0
i,0x00000000,1716791434.321754,172.16.3.2,5101,172.16.1.2,35081,1073725440,14480,0,65728,65700,6,6,4,1460,491,1,992,52,33580,0,65700,0,0,0,0,0
o,0x00000000,1716791434.321764,172.16.3.2,5101,172.16.1.2,35081,1073725440,14480,0,65728,65700,6,6,4,1460,491,1,993,52,33580,0,65700,1448,0,0,0,0
i,0x00000000,1716791434.331997,172.16.3.2,5101,172.16.1.2,35081,1073725440,14480,0,65728,65700,6,6,4,1460,491,1,992,52,33580,0,65700,0,0,0,0,0
i,0x00000000,1716791434.351870,172.16.3.2,5101,172.16.1.2,35081,1073725440,14480,0,65728,65700,6,6,4,1460,491,1,992,52,33580,0,65700,0,0,0,0,0
o,0x00000000,1716791434.351885,172.16.3.2,5101,172.16.1.2,35081,1073725440,14480,0,65728,65700,6,6,4,1460,491,1,993,52,33580,0,65700,1448,0,0,0,0
i,0x00000000,1716791434.362421,172.16.3.2,5101,172.16.1.2,35081,1073725440,14480,0,65728,65700,6,6,4,1460,491,1,992,52,33580,0,65700,0,0,0,0,0
i,0x00000000,1716791434.392178,172.16.3.2,5101,172.16.1.2,35081,1073725440,14480,0,65728,65700,6,6,4,1460,491,1,992,52,33580,0,65700,0,0,0,0,0
o,0x00000000,1716791434.392197,172.16.3.2,5101,172.16.1.2,35081,1073725440,14480,0,65728,65700,6,6,4,1460,491,1,993,52,33580,0,65700,1448,0,0,0,0
i,0x00000000,1716791434.412777,172.16.3.2,5101,172.16.1.2,35081,1073725440,14480,0,65728,65700,6,6,4,1460,491,1,992,52,33580,0,65700,0,0,0,0,0
i,0x00000000,1716791434.421136,172.16.3.2,5101,172.16.1.2,35081,1073725440,14480,0,65728,65700,6,6,4,1460,491,1,992,52,33580,0,65700,0,0,0,0,0
o,0x00000000,1716791434.421169,172.16.3.2,5101,172.16.1.2,35081,1073725440,14480,0,65728,65700,6,6,4,1460,491,1,993,52,33580,0,65700,1448,0,0,0,0
i,0x00000000,1716791434.442081,172.16.3.2,5101,172.16.1.2,35081,1073725440,14480,0,65728,65700,6,6,4,1460,491,1,992,52,33580,0,65700,0,0,0,0,0
i,0x00000000,1716791434.462136,172.16.3.2,5101,172.16.1.2,35081,1073725440,14480,0,65728,65700,6,6,4,1460,491,1,992,52,33580,0,65700,0,0,0,0,0
o,0x00000000,1716791434.462157,172.16.3.2,5101,172.16.1.2,35081,1073725440,14480,0,65728,65700,6,6,4,1460,491,1,993,52,33580,0,65700,1448,0,0,0,0
i,0x00000000,1716791434.501833,172.16.3.2,5101,172.16.1.2,35081,1073725440,14480,0,65728,65700,6,6,4,1460,491,1,992,52,33580,0,65700,0,0,0,0,0
o,0x00000000,1716791434.539835,172.16.3.2,5101,172.16.1.2,35081,1073725440,14480,0,65728,65700,6,6,4,1460,491,1,993,52,33580,0,65700,0,0,0,0,0
i,0x00000000,1716791434.632331,172.16.3.2,5101,172.16.1.2,35081,1073725440,14480,0,65728,65700,6,6,4,1460,491,1,992,52,33580,0,65700,0,0,0,0,0
i,0x00000000,1716791434.641823,172.16.3.2,5101,172.16.1.2,35081,1073725440,14480,0,65728,65700,6,6,4,1460,491,1,992,52,33580,0,65700,0,0,0,0,0
o,0x00000000,1716791434.641847,172.16.3.2,5101,172.16.1.2,35081,1073725440,14480,0,65728,65700,6,6,4,1460,491,1,993,52,33580,0,65700,1448,0,0,0,0
i,0x00000000,1716791434.702293,172.16.3.2,5101,172.16.1.2,35081,1073725440,14480,0,65728,65700,6,6,4,1460,491,1,992,52,33580,0,65700,0,0,0,0,0
i,0x00000000,1716791434.712778,172.16.3.2,5101,172.16.1.2,35081,1073725440,14480,0,65728,65700,6,6,4,1460,491,1,992,52,33580,0,65700,0,0,0,0,0
o,0x00000000,1716791434.712796,172.16.3.2,5101,172.16.1.2,35081,1073725440,14480,0,65728,65700,6,6,4,1460,491,1,993,52,33580,0,65700,1448,0,0,0,0
i,0x00000000,1716791434.732383,172.16.3.2,5101,172.16.1.2,35081,1073725440,14480,0,65728,65700,6,6,4,1460,491,1,992,52,33580,0,65700,0,0,0,0,0
i,0x00000000,1716791434.741752,172.16.3.2,5101,172.16.1.2,35081,1073725440,14480,0,65728,65700,6,6,4,1460,491,1,992,52,33580,0,65700,0,0,0,0,0
o,0x00000000,1716791434.741765,172.16.3.2,5101,172.16.1.2,35081,1073725440,14480,0,65728,65700,6,6,4,1460,491,1,993,52,33580,0,65700,1448,0,0,0,0
i,0x00000000,1716791434.752095,172.16.3.2,5101,172.16.1.2,35081,1073725440,14480,0,65728,65700,6,6,4,1460,491,1,992,52,33580,0,65700,0,0,0,0,0
i,0x00000000,1716791434.762599,172.16.3.2,5101,172.16.1.2,35081,1073725440,14480,0,65728,65700,6,6,4,1460,491,1,992,52,33580,0,65700,0,0,0,0,0
o,0x00000000,1716791434.762607,172.16.3.2,5101,172.16.1.2,35081,1073725440,14480,0,65728,65700,6,6,4,1460,491,1,993,52,33580,0,65700,1448,0,0,0,0
i,0x00000000,1716791434.772045,172.16.3.2,5101,172.16.1.2,35081,1073725440,14480,0,65728,65700,6,6,4,1460,491,1,992,52,33580,0,65700,0,0,0,0,0
i,0x00000000,1716791434.793290,172.16.3.2,5101,172.16.1.2,35081,1073725440,14480,0,65728,65700,6,6,4,1460,491,1,992,52,33580,0,65700,0,0,0,0,0
o,0x00000000,1716791434.793297,172.16.3.2,5101,172.16.1.2,35081,1073725440,14480,0,65728,65700,6,6,4,1460,491,1,993,52,33580,0,65700,1448,0,0,0,0
i,0x00000000,1716791434.801563,172.16.3.2,5101,172.16.1.2,35081,1073725440,14480,0,65728,65700,6,6,4,1460,491,1,992,52,33580,0,65700,0,0,0,0,0
i,0x00000000,1716791434.811993,172.16.3.2,5101,172.16.1.2,35081,1073725440,14480,0,65728,65700,6,6,4,1460,491,1,992,52,33580,0,65700,0,0,0,0,0
o,0x00000000,1716791434.811998,172.16.3.2,5101,172.16.1.2,35081,1073725440,14480,0,65728,65700,6,6,4,1460,491,1,993,52,33580,0,65700,1448,0,0,0,0
i,0x00000000,1716791434.852962,172.16.3.2,5101,172.16.1.2,35081,1073725440,14480,0,65728,65700,6,6,4,1460,491,1,992,52,33580,0,65700,0,0,0,0,0
i,0x00000000,1716791434.861830,172.16.3.2,5101,172.16.1.2,35081,1073725440,14480,0,65728,65700,6,6,4,1460,491,1,992,52,33580,0,65700,0,0,0,0,0
o,0x00000000,1716791434.861837,172.16.3.2,5101,172.16.1.2,35081,1073725440,14480,0,65728,65700,6,6,4,1460,491,1,993,52,33580,0,65700,1448,0,0,0,0
i,0x00000000,1716791434.873921,172.16.3.2,5101,172.16.1.2,35081,1073725440,14480,0,65728,65700,6,6,4,1460,491,1,992,52,33580,0,65700,0,0,0,0,0
i,0x00000000,1716791434.881867,172.16.3.2,5101,172.16.1.2,35081,1073725440,14480,0,65728,65700,6,6,4,1460,491,1,992,52,33580,0,65700,0,0,0,0,0
o,0x00000000,1716791434.881874,172.16.3.2,5101,172.16.1.2,35081,1073725440,14480,0,65728,65700,6,6,4,1460,491,1,993,52,33580,0,65700,1448,0,0,0,0
i,0x00000000,1716791434.902579,172.16.3.2,5101,172.16.1.2,35081,1073725440,14480,0,65728,65700,6,6,4,1460,491,1,992,52,33580,0,65700,0,0,0,0,0
i,0x00000000,1716791434.912115,172.16.3.2,5101,172.16.1.2,35081,1073725440,14480,0,65728,65700,6,6,4,1460,491,1,992,52,33580,0,65700,0,0,0,0,0
o,0x00000000,1716791434.912134,172.16.3.2,5101,172.16.1.2,35081,1073725440,14480,0,65728,65700,6,6,4,1460,491,1,993,52,33580,0,65700,1448,0,0,0,0
o,0x00000000,1716791434.998798,10.0.2.15,22,10.0.2.2,60131,1073725440,14600,0,65535,65700,0,0,4,1460,1,0,4,24,33580,108,65700,0,0,0,0,0
i,0x00000000,1716791434.999555,10.0.2.15,22,10.0.2.2,60131,1073725440,14600,0,65535,65700,0,0,4,1460,1,0,4,24,33580,108,65700,0,108,0,0,0
i,0x00000000,1716791435.102646,172.16.3.2,5101,172.16.1.2,35081,1073725440,14480,0,65728,65700,6,6,4,1460,491,1,992,52,33580,0,65700,0,0,0,0,0
o,0x00000000,1716791435.138638,172.16.3.2,5101,172.16.1.2,35081,1073725440,14480,0,65728,65700,6,6,4,1460,491,1,993,52,33580,0,65700,0,0,0,0,0
i,0x00000000,1716791435.162905,172.16.3.2,5101,172.16.1.2,35081,1073725440,14480,0,65728,65700,6,6,4,1460,491,1,992,52,33580,0,65700,0,0,0,0,0
i,0x00000000,1716791435.182835,172.16.3.2,5101,172.16.1.2,35081,1073725440,14480,0,65728,65700,6,6,4,1460,491,1,992,52,33580,0,65700,0,0,0,0,0
o,0x00000000,1716791435.182849,172.16.3.2,5101,172.16.1.2,35081,1073725440,14480,0,65728,65700,6,6,4,1460,491,1,993,52,33580,0,65700,1448,0,0,0,0
i,0x00000000,1716791435.193201,172.16.3.2,5101,172.16.1.2,35081,1073725440,14480,0,65728,65700,6,6,4,1460,491,1,992,52,33580,0,65700,0,0,0,0,0
i,0x00000000,1716791435.202933,172.16.3.2,5101,172.16.1.2,35081,1073725440,14480,0,65728,65700,6,6,4,1460,491,1,992,52,33580,0,65700,0,0,0,0,0
o,0x00000000,1716791435.202941,172.16.3.2,5101,172.16.1.2,35081,1073725440,14480,0,65728,65700,6,6,4,1460,491,1,993,52,33580,0,65700,1448,0,0,0,0
i,0x00000000,1716791435.213305,172.16.3.2,5101,172.16.1.2,35081,1073725440,14480,0,65728,65700,6,6,4,1460,491,1,992,52,33580,0,65700,0,0,0,0,0
i,0x00000000,1716791435.222724,172.16.3.2,5101,172.16.1.2,35081,1073725440,14480,0,65728,65700,6,6,4,1460,491,1,992,52,33580,0,65700,0,0,0,0,0
o,0x00000000,1716791435.222730,172.16.3.2,5101,172.16.1.2,35081,1073725440,14480,0,65728,65700,6,6,4,1460,491,1,993,52,33580,0,65700,1448,0,0,0,0
i,0x00000000,1716791435.242035,172.16.3.2,5101,172.16.1.2,35081,1073725440,14480,0,65728,65700,6,6,4,1460,491,1,992,52,33580,0,65700,0,0,0,0,0
i,0x00000000,1716791435.252504,172.16.3.2,5101,172.16.1.2,35081,1073725440,14480,0,65728,65700,6,6,4,1460,491,1,992,52,33580,0,65700,0,0,0,0,0
o,0x00000000,1716791435.252510,172.16.3.2,5101,172.16.1.2,35081,1073725440,14480,0,65728,65700,6,6,4,1460,491,1,993,52,33580,0,65700,1448,0,0,0,0
i,0x00000000,1716791435.262924,172.16.3.2,5101,172.16.1.2,35081,1073725440,14480,0,65728,65700,6,6,4,1460,491,1,992,52,33580,0,65700,0,0,0,0,0
i,0x00000000,1716791435.272340,172.16.3.2,5101,172.16.1.2,35081,1073725440,14480,0,65728,65700,6,6,4,1460,491,1,992,52,33580,0,65700,0,0,0,0,0
o,0x00000000,1716791435.272347,172.16.3.2,5101,172.16.1.2,35081,1073725440,14480,0,65728,65700,6,6,4,1460,491,1,993,52,33580,0,65700,1448,0,0,0,0
i,0x00000000,1716791435.282845,172.16.3.2,5101,172.16.1.2,35081,1073725440,14480,0,65728,65700,6,6,4,1460,491,1,992,52,33580,0,65700,0,0,0,0,0
i,0x00000000,1716791435.302415,172.16.3.2,5101,172.16.1.2,35081,1073725440,14480,0,65728,65700,6,6,4,1460,491,1,992,52,33580,0,65700,0,0,0,0,0
o,0x00000000,1716791435.302427,172.16.3.2,5101,172.16.1.2,35081,1073725440,14480,0,65728,65700,6,6,4,1460,491,1,993,52,33580,0,65700,1448,0,0,0,0
i,0x00000000,1716791435.312904,172.16.3.2,5101,172.16.1.2,35081,1073725440,14480,0,65728,65700,6,6,4,1460,491,1,992,52,33580,0,65700,0,0,0,0,0
i,0x00000000,1716791435.344273,172.16.3.2,5101,172.16.1.2,35081,1073725440,14480,0,65728,65700,6,6,4,1460,491,1,992,52,33580,0,65700,0,0,0,0,0
o,0x00000000,1716791435.344284,172.16.3.2,5101,172.16.1.2,35081,1073725440,14480,0,65728,65700,6,6,4,1460,491,1,993,52,33580,0,65700,1448,0,0,0,0
i,0x00000000,1716791435.362555,172.16.3.2,5101,172.16.1.2,35081,1073725440,14480,0,65728,65700,6,6,4,1460,491,1,992,52,33580,0,65700,0,0,0,0,0
i,0x00000000,1716791435.372912,172.16.3.2,5101,172.16.1.2,35081,1073725440,14480,0,65728,65700,6,6,4,1460,491,1,992,52,33580,0,65700,0,0,0,0,0
o,0x00000000,1716791435.372923,172.16.3.2,5101,172.16.1.2,35081,1073725440,14480,0,65728,65700,6,6,4,1460,491,1,993,52,33580,0,65700,1448,0,0,0,0
i,0x00000000,1716791435.382442,172.16.3.2,5101,172.16.1.2,35081,1073725440,14480,0,65728,65700,6,6,4,1460,491,1,992,52,33580,0,65700,0,0,0,0,0
i,0x00000000,1716791435.403131,172.16.3.2,5101,172.16.1.2,35081,1073725440,14480,0,65728,65700,6,6,4,1460,491,1,992,52,33580,0,65700,0,0,0,0,0
o,0x00000000,1716791435.403149,172.16.3.2,5101,172.16.1.2,35081,1073725440,14480,0,65728,65700,6,6,4,1460,491,1,993,52,33580,0,65700,1448,0,0,0,0
i,0x00000000,1716791435.412415,172.16.3.2,5101,172.16.1.2,35081,1073725440,14480,0,65728,65700,6,6,4,1460,491,1,992,52,33580,0,65700,0,0,0,0,0
o,0x00000000,1716791435.449330,172.16.3.2,5101,172.16.1.2,35081,1073725440,14480,0,65728,65700,6,6,4,1460,491,1,993,52,33580,0,65700,0,0,0,0,0
i,0x00000000,1716791435.653141,172.16.3.2,5101,172.16.1.2,35081,1073725440,14480,0,65728,65700,6,6,4,1460,491,1,992,52,33580,0,65700,0,0,0,0,0
i,0x00000000,1716791435.673057,172.16.3.2,5101,172.16.1.2,35081,1073725440,14480,0,65728,65700,6,6,4,1460,491,1,992,52,33580,0,65700,0,0,0,0,0
o,0x00000000,1716791435.673070,172.16.3.2,5101,172.16.1.2,35081,1073725440,14480,0,65728,65700,6,6,4,1460,491,1,993,52,33580,0,65700,1448,0,0,0,0
i,0x00000000,1716791435.682548,172.16.3.2,5101,172.16.1.2,35081,1073725440,14480,0,65728,65700,6,6,4,1460,491,1,992,52,33580,0,65700,0,0,0,0,0
i,0x00000000,1716791435.693050,172.16.3.2,5101,172.16.1.2,35081,1073725440,14480,0,65728,65700,6,6,4,1460,491,1,992,52,33580,0,65700,0,0,0,0,0
o,0x00000000,1716791435.693060,172.16.3.2,5101,172.16.1.2,35081,1073725440,14480,0,65728,65700,6,6,4,1460,491,1,993,52,33580,0,65700,1448,0,0,0,0
i,0x00000000,1716791435.703435,172.16.3.2,5101,172.16.1.2,35081,1073725440,14480,0,65728,65700,6,6,4,1460,491,1,992,52,33580,0,65700,0,0,0,0,0
i,0x00000000,1716791435.722979,172.16.3.2,5101,172.16.1.2,35081,1073725440,14480,0,65728,65700,6,6,4,1460,491,1,992,52,33580,0,65700,0,0,0,0,0
o,0x00000000,1716791435.722994,172.16.3.2,5101,172.16.1.2,35081,1073725440,14480,0,65728,65700,6,6,4,1460,491,1,993,52,33580,0,65700,1448,0,0,0,0
i,0x00000000,1716791435.733374,172.16.3.2,5101,172.16.1.2,35081,1073725440,14480,0,65728,65700,6,6,4,1460,491,1,992,52,33580,0,65700,0,0,0,0,0
i,0x00000000,1716791435.742995,172.16.3.2,5101,172.16.1.2,35081,1073725440,14480,0,65728,65700,6,6,4,1460,491,1,992,52,33580,0,65700,0,0,0,0,0
o,0x00000000,1716791435.743011,172.16.3.2,5101,172.16.1.2,35081,1073725440,14480,0,65728,65700,6,6,4,1460,491,1,993,52,33580,0,65700,1448,0,0,0,0
i,0x00000000,1716791435.753251,172.16.3.2,5101,172.16.1.2,35081,1073725440,14480,0,65728,65700,6,6,4,1460,491,1,992,52,33580,0,65700,0,0,0,0,0
i,0x00000000,1716791435.762794,172.16.3.2,5101,172.16.1.2,35081,1073725440,14480,0,65728,65700,6,6,4,1460,491,1,992,52,33580,0,65700,0,0,0,0,0
o,0x00000000,1716791435.762800,172.16.3.2,5101,172.16.1.2,35081,1073725440,14480,0,65728,65700,6,6,4,1460,491,1,993,52,33580,0,65700,1448,0,0,0,0
i,0x00000000,1716791435.783415,172.16.3.2,5101,172.16.1.2,35081,1073725440,14480,0,65728,65700,6,6,4,1460,491,1,992,52,33580,0,65700,0,0,0,0,0
i,0x00000000,1716791435.792258,172.16.3.2,5101,172.16.1.2,35081,1073725440,14480,0,65728,65700,6,6,4,1460,491,1,992,52,33580,0,65700,0,0,0,0,0
o,0x00000000,1716791435.792264,172.16.3.2,5101,172.16.1.2,35081,1073725440,14480,0,65728,65700,6,6,4,1460,491,1,993,52,33580,0,65700,1448,0,0,0,0
i,0x00000000,1716791435.803914,172.16.3.2,5101,172.16.1.2,35081,1073725440,14480,0,65728,65700,6,6,4,1460,491,1,992,52,33580,0,65700,0,0,0,0,0
i,0x00000000,1716791435.813294,172.16.3.2,5101,172.16.1.2,35081,1073725440,14480,0,65728,65700,6,6,4,1460,491,1,992,52,33580,0,65700,0,0,0,0,0
o,0x00000000,1716791435.813300,172.16.3.2,5101,172.16.1.2,35081,1073725440,14480,0,65728,65700,6,6,4,1460,491,1,993,52,33580,0,65700,1448,0,0,0,0
i,0x00000000,1716791435.853027,172.16.3.2,5101,172.16.1.2,35081,1073725440,14480,0,65728,65700,6,6,4,1460,491,1,992,52,33580,0,65700,0,0,0,0,0
i,0x00000000,1716791435.862444,172.16.3.2,5101,172.16.1.2,35081,1073725440,14480,0,65728,65700,6,6,4,1460,491,1,992,52,33580,0,65700,0,0,0,0,0
o,0x00000000,1716791435.862450,172.16.3.2,5101,172.16.1.2,35081,1073725440,14480,0,65728,65700,6,6,4,1460,491,1,993,52,33580,0,65700,1448,0,0,0,0
i,0x00000000,1716791435.874006,172.16.3.2,5101,172.16.1.2,35081,1073725440,14480,0,65728,65700,6,6,4,1460,491,1,992,52,33580,0,65700,0,0,0,0,0
i,0x00000000,1716791435.882355,172.16.3.2,5101,172.16.1.2,35081,1073725440,14480,0,65728,65700,6,6,4,1460,491,1,992,52,33580,0,65700,0,0,0,0,0
o,0x00000000,1716791435.882361,172.16.3.2,5101,172.16.1.2,35081,1073725440,14480,0,65728,65700,6,6,4,1460,491,1,993,52,33580,0,65700,1448,0,0,0,0
i,0x00000000,1716791435.903833,172.16.3.2,5101,172.16.1.2,35081,1073725440,14480,0,65728,65700,6,6,4,1460,491,1,992,52,33580,0,65700,0,0,0,0,0
i,0x00000000,1716791435.912847,172.16.3.2,5101,172.16.1.2,35081,1073725440,14480,0,65728,65700,6,6,4,1460,491,1,992,52,33580,0,65700,0,0,0,0,0
o,0x00000000,1716791435.912865,172.16.3.2,5101,172.16.1.2,35081,1073725440,14480,0,65728,65700,6,6,4,1460,491,1,993,52,33580,0,65700,1448,0,0,0,0
o,0x00000000,1716791435.999048,10.0.2.15,22,10.0.2.2,60131,1073725440,14600,0,65535,65700,0,0,4,1460,1,0,4,24,33580,108,65700,0,0,0,0,0
i,0x00000000,1716791435.999816,10.0.2.15,22,10.0.2.2,60131,1073725440,14600,0,65535,65700,0,0,4,1460,1,0,4,24,33580,108,65700,0,108,0,0,0
i,0x00000000,1716791436.013890,172.16.3.2,5101,172.16.1.2,35081,1073725440,14480,0,65728,65700,6,6,4,1460,491,1,992,52,33580,0,65700,0,0,0,0,0
o,0x00000000,1716791436.049385,172.16.3.2,5101,172.16.1.2,35081,1073725440,14480,0,65728,65700,6,6,4,1460,491,1,993,52,33580,0,65700,0,0,0,0,0
i,0x00000000,1716791436.183276,172.16.3.2,5101,172.16.1.2,35081,1073725440,14480,0,65728,65700,6,6,4,1460,491,1,992,52,33580,0,65700,0,0,0,0,0
i,0x00000000,1716791436.193667,172.16.3.2,5101,172.16.1.2,35081,1073725440,14480,0,65728,65700,6,6,4,1460,491,1,992,52,33580,0,65700,0,0,0,0,0
o,0x00000000,1716791436.193679,172.16.3.2,5101,172.16.1.2,35081,1073725440,14480,0,65728,65700,6,6,4,1460,491,1,993,52,33580,0,65700,1448,0,0,0,0
i,0x00000000,1716791436.204252,172.16.3.2,5101,172.16.1.2,35081,1073725440,14480,0,65728,65700,6,6,4,1460,491,1,992,52,33580,0,65700,0,0,0,0,0
i,0x00000000,1716791436.225201,172.16.3.2,5101,172.16.1.2,35081,1073725440,14480,0,65728,65700,6,6,4,1460,491,1,992,52,33580,0,65700,0,0,0,0,0
o,0x00000000,1716791436.225209,172.16.3.2,5101,172.16.1.2,35081,1073725440,14480,0,65728,65700,6,6,4,1460,491,1,993,52,33580,0,65700,1448,0,0,0,0
i,0x00000000,1716791436.233532,172.16.3.2,5101,172.16.1.2,35081,1073725440,14480,0,65728,65700,6,6,4,1460,491,1,992,52,33580,0,65700,0,0,0,0,0
i,0x00000000,1716791436.243877,172.16.3.2,5101,172.16.1.2,35081,1073725440,14480,0,65728,65700,6,6,4,1460,491,1,992,52,33580,0,65700,0,0,0,0,0
o,0x00000000,1716791436.243884,172.16.3.2,5101,172.16.1.2,35081,1073725440,14480,0,65728,65700,6,6,4,1460,491,1,993,52,33580,0,65700,1448,0,0,0,0
i,0x00000000,1716791436.253251,172.16.3.2,5101,172.16.1.2,35081,1073725440,14480,0,65728,65700,6,6,4,1460,491,1,992,52,33580,0,65700,0,0,0,0,0
i,0x00000000,1716791436.263737,172.16.3.2,5101,172.16.1.2,35081,1073725440,14480,0,65728,65700,6,6,4,1460,491,1,992,52,33580,0,65700,0,0,0,0,0
o,0x00000000,1716791436.263743,172.16.3.2,5101,172.16.1.2,35081,1073725440,14480,0,65728,65700,6,6,4,1460,491,1,993,52,33580,0,65700,1448,0,0,0,0
i,0x00000000,1716791436.304268,172.16.3.2,5101,172.16.1.2,35081,1073725440,14480,0,65728,65700,6,6,4,1460,491,1,992,52,33580,0,65700,0,0,0,0,0
i,0x00000000,1716791436.313148,172.16.3.2,5101,172.16.1.2,35081,1073725440,14480,0,65728,65700,6,6,4,1460,491,1,992,52,33580,0,65700,0,0,0,0,0
o,0x00000000,1716791436.313161,172.16.3.2,5101,172.16.1.2,35081,1073725440,14480,0,65728,65700,6,6,4,1460,491,1,993,52,33580,0,65700,1448,0,0,0,0
i,0x00000000,1716791436.323708,172.16.3.2,5101,172.16.1.2,35081,1073725440,14480,0,65728,65700,6,6,4,1460,491,1,992,52,33580,0,65700,0,0,0,0,0
i,0x00000000,1716791436.343539,172.16.3.2,5101,172.16.1.2,35081,1073725440,14480,0,65728,65700,6,6,4,1460,491,1,992,52,33580,0,65700,0,0,0,0,0
o,0x00000000,1716791436.343547,172.16.3.2,5101,172.16.1.2,35081,1073725440,14480,0,65728,65700,6,6,4,1460,491,1,993,52,33580,0,65700,1448,0,0,0,0
i,0x00000000,1716791436.353119,172.16.3.2,5101,172.16.1.2,35081,1073725440,14480,0,65728,65700,6,6,4,1460,491,1,992,52,33580,0,65700,0,0,0,0,0
i,0x00000000,1716791436.363487,172.16.3.2,5101,172.16.1.2,35081,1073725440,14480,0,65728,65700,6,6,4,1460,491,1,992,52,33580,0,65700,0,0,0,0,0
o,0x00000000,1716791436.363495,172.16.3.2,5101,172.16.1.2,35081,1073725440,14480,0,65728,65700,6,6,4,1460,491,1,993,52,33580,0,65700,1448,0,0,0,0
i,0x00000000,1716791436.372848,172.16.3.2,5101,172.16.1.2,35081,1073725440,14480,0,65728,65700,6,6,4,1460,491,1,992,52,33580,0,65700,0,0,0,0,0
i,0x00000000,1716791436.383473,172.16.3.2,5101,172.16.1.2,35081,1073725440,14480,0,65728,65700,6,6,4,1460,491,1,992,52,33580,0,65700,0,0,0,0,0
o,0x00000000,1716791436.383482,172.16.3.2,5101,172.16.1.2,35081,1073725440,14480,0,65728,65700,6,6,4,1460,491,1,993,52,33580,0,65700,1448,0,0,0,0
i,0x00000000,1716791436.403374,172.16.3.2,5101,172.16.1.2,35081,1073725440,14480,0,65728,65700,6,6,4,1460,491,1,992,52,33580,0,65700,0,0,0,0,0
i,0x00000000,1716791436.413794,172.16.3.2,5101,172.16.1.2,35081,1073725440,14480,0,65728,65700,6,6,4,1460,491,1,992,52,33580,0,65700,0,0,0,0,0
o,0x00000000,1716791436.413808,172.16.3.2,5101,172.16.1.2,35081,1073725440,14480,0,65728,65700,6,6,4,1460,491,1,993,52,33580,0,65700,1448,0,0,0,0
i,0x00000000,1716791436.423844,172.16.3.2,5101,172.16.1.2,35081,1073725440,14480,0,65728,65700,6,6,4,1460,491,1,992,52,33580,0,65700,0,0,0,0,0
i,0x00000000,1716791436.434259,172.16.3.2,5101,172.16.1.2,35081,1073725440,14480,0,65728,65700,6,6,4,1460,491,1,992,52,33580,0,65700,0,0,0,0,0
o,0x00000000,1716791436.434265,172.16.3.2,5101,172.16.1.2,35081,1073725440,14480,0,65728,65700,6,6,4,1460,491,1,993,52,33580,0,65700,1448,0,0,0,0
i,0x00000000,1716791436.453210,172.16.3.2,5101,172.16.1.2,35081,1073725440,14480,0,65728,65700,6,6,4,1460,491,1,992,52,33580,0,65700,0,0,0,0,0
o,0x00000000,1716791436.488478,172.16.3.2,5101,172.16.1.2,35081,1073725440,14480,0,65728,65700,6,6,4,1460,491,1,993,52,33580,0,65700,0,0,0,0,0
i,0x00000000,1716791436.753698,172.16.3.2,5101,172.16.1.2,35081,1073725440,14480,0,65728,65700,6,6,4,1460,491,1,992,52,33580,0,65700,0,0,0,0,0
i,0x00000000,1716791436.774473,172.16.3.2,5101,172.16.1.2,35081,1073725440,14480,0,65728,65700,6,6,4,1460,491,1,992,52,33580,0,65700,0,0,0,0,0
o,0x00000000,1716791436.774491,172.16.3.2,5101,172.16.1.2,35081,1073725440,14480,0,65728,65700,6,6,4,1460,491,1,993,52,33580,0,65700,1448,0,0,0,0
i,0x00000000,1716791436.783895,172.16.3.2,5101,172.16.1.2,35081,1073725440,14480,0,65728,65700,6,6,4,1460,491,1,992,52,33580,0,65700,0,0,0,0,0
i,0x00000000,1716791436.794492,172.16.3.2,5101,172.16.1.2,35081,1073725440,14480,0,65728,65700,6,6,4,1460,491,1,992,52,33580,0,65700,0,0,0,0,0
