enable_time_secs=1716792262	enable_time_usecs=870796	siftrver=1.2.4	hz=100	tcp_rtt_scale=32	sysname=FreeBSD	sysver=1301000	ipmode=4
o,0x00000000,1716792262.870831,10.0.2.15,22,10.0.2.2,55986,1073725440,17298,0,65535,65700,0,0,4,1460,1,0,4,24,33580,44,65700,0,0,0,0,0
o,0x00000000,1716792262.870947,10.0.2.15,22,10.0.2.2,55986,1073725440,17298,0,65535,65700,0,0,4,1460,1,0,4,24,33580,80,65700,0,44,0,0,0
i,0x00000000,1716792262.871636,10.0.2.15,22,10.0.2.2,55986,1073725440,17298,0,65535,65700,0,0,4,1460,1,0,4,24,33580,80,65700,0,80,0,0,0
i,0x00000000,1716792262.871640,10.0.2.15,22,10.0.2.2,55986,1073725440,17342,0,65535,65700,0,0,4,1460,1,0,4,24,33580,36,65700,0,36,0,0,0
o,0x00000000,1716792262.871771,10.0.2.15,22,10.0.2.2,55986,1073725440,17378,0,65535,65700,0,0,4,1460,1,0,4,24,33580,36,65700,0,0,0,0,0
i,0x00000000,1716792262.872348,10.0.2.15,22,10.0.2.2,55986,1073725440,17378,0,65535,65700,0,0,4,1460,1,0,4,24,33580,36,65700,0,36,0,0,0
o,0x00000000,1716792262.872434,10.0.2.15,22,10.0.2.2,55986,1073725440,17414,0,65535,65700,0,0,4,1460,1,0,4,24,33580,36,65700,0,0,0,0,0
i,0x00000000,1716792262.873416,10.0.2.15,22,10.0.2.2,55986,1073725440,17414,0,65535,65700,0,0,4,1460,1,0,4,24,33580,36,65700,0,36,0,0,0
o,0x00000000,1716792262.873593,10.0.2.15,22,10.0.2.2,55986,1073725440,17450,0,65535,65700,0,0,4,1460,1,0,4,24,33580,140,65700,0,0,0,0,0
i,0x00000000,1716792262.874294,10.0.2.15,22,10.0.2.2,55986,1073725440,17450,0,65535,65700,0,0,4,1460,1,0,4,24,33580,140,65700,0,140,0,0,0
i,0x00000000,1716792262.874297,10.0.2.15,22,10.0.2.2,55986,1073725440,17590,0,65535,65700,0,0,4,1460,1,0,4,24,33580,0,65700,0,0,0,0,0
i,0x00000000,1716792262.874687,10.0.2.15,22,10.0.2.2,55986,1073725440,17590,0,65535,65700,0,0,4,1460,1,0,4,24,33580,0,65700,96,0,0,0,0
o,0x00000000,1716792262.874691,10.0.2.15,22,10.0.2.2,55986,1073725440,17590,0,65535,65604,0,0,5,1460,1,0,5,24,33580,0,65700,96,0,0,0,0
o,0x00000000,1716792262.875082,10.0.2.15,22,10.0.2.2,55986,1073725440,17590,0,65535,65604,0,0,8,1460,1,0,4,24,33580,0,65700,0,0,0,0,0
i,0x00000000,1716792262.875791,10.0.2.15,22,10.0.2.2,55986,1073725440,17590,0,65535,65604,0,0,8,1460,1,0,20,24,33580,0,65700,0,1,0,0,0
i,0x00000000,1716792264.967208,10.0.2.15,22,10.0.2.2,55990,1073725440,14600,0,65535,65700,0,0,4,1460,1,0,0,27,33580,0,65700,0,0,0,0,0
o,0x00000000,1716792264.993983,10.0.2.15,22,10.0.2.2,55990,1073725440,14600,0,65535,65700,0,0,4,1460,1,0,0,27,33580,38,65700,41,0,0,0,0
i,0x00000000,1716792264.995194,10.0.2.15,22,10.0.2.2,55990,1073725440,14600,0,65535,65700,0,0,4,1460,1,0,0,27,33580,38,65700,41,38,0,0,0
i,0x00000000,1716792264.996332,10.0.2.15,22,10.0.2.2,55990,1073725440,14638,0,65535,65700,0,0,4,1460,1,0,0,23,33580,0,65700,0,0,0,0,0
i,0x00000000,1716792264.996337,10.0.2.15,22,10.0.2.2,55990,1073725440,14638,0,65535,65700,0,0,4,1460,1,0,0,23,33580,0,65700,1460,0,0,0,0
o,0x00000000,1716792264.996341,10.0.2.15,22,10.0.2.2,55990,1073725440,14638,0,65535,65700,0,0,4,1460,1,0,1,23,33580,0,65700,1536,0,0,0,0
o,0x00000000,1716792265.001457,10.0.2.15,22,10.0.2.2,55990,1073725440,14638,0,65535,65700,0,0,4,1460,1,0,0,23,33580,1056,65700,1536,0,0,0,0
i,0x00000000,1716792265.003358,10.0.2.15,22,10.0.2.2,55990,1073725440,14638,0,65535,65700,0,0,4,1460,1,0,0,23,33580,1056,65700,1536,1056,0,0,0
i,0x00000000,1716792265.007042,10.0.2.15,22,10.0.2.2,55990,1073725440,15694,0,65535,65700,0,0,4,1460,1,0,0,24,33580,0,65700,0,0,0,0,0
o,0x00000000,1716792265.013401,10.0.2.15,22,10.0.2.2,55990,1073725440,15694,0,65535,65700,0,0,4,1460,1,0,0,24,33580,484,65700,0,0,0,0,0
i,0x00000000,1716792265.015535,10.0.2.15,22,10.0.2.2,55990,1073725440,15694,0,65535,65700,0,0,4,1460,1,0,0,24,33580,484,65700,0,484,0,0,0
i,0x00000000,1716792265.023593,10.0.2.15,22,10.0.2.2,55990,1073725440,16178,0,65535,65700,0,0,4,1460,1,0,0,24,33580,0,65700,0,0,0,0,0
i,0x00000000,1716792265.030398,10.0.2.15,22,10.0.2.2,55990,1073725440,16178,0,65535,65700,0,0,4,1460,1,0,0,24,33580,0,65700,0,0,0,0,0
o,0x00000000,1716792265.030409,10.0.2.15,22,10.0.2.2,55990,1073725440,16178,0,65535,65700,0,0,4,1460,1,0,1,24,33580,0,65700,44,0,0,0,0
o,0x00000000,1716792265.030693,10.0.2.15,22,10.0.2.2,55990,1073725440,16178,0,65535,65700,0,0,4,1460,1,0,0,24,33580,44,65700,0,0,0,0,0
i,0x00000000,1716792265.031609,10.0.2.15,22,10.0.2.2,55990,1073725440,16178,0,65535,65700,0,0,4,1460,1,0,0,24,33580,44,65700,0,44,0,0,0
i,0x00000000,1716792265.032140,10.0.2.15,22,10.0.2.2,55990,1073725440,16222,0,65535,65700,0,0,4,1460,1,0,0,24,33580,0,65700,0,0,0,0,0
o,0x00000000,1716792265.041883,10.0.2.15,22,10.0.2.2,55990,1073725440,16222,0,65535,65700,0,0,4,1460,1,0,0,24,33580,68,65700,0,0,0,0,0
i,0x00000000,1716792265.043956,10.0.2.15,22,10.0.2.2,55990,1073725440,16222,0,65535,65700,0,0,4,1460,1,0,0,24,33580,68,65700,0,68,0,0,0
i,0x00000000,1716792265.050128,10.0.2.15,22,10.0.2.2,55990,1073725440,16290,0,65535,65700,0,0,4,1460,1,0,0,24,33580,0,65700,0,0,0,0,0
o,0x00000000,1716792265.060195,10.0.2.15,22,10.0.2.2,55990,1073725440,16290,0,65535,65700,0,0,4,1460,1,0,0,24,33580,28,65700,0,0,0,0,0
i,0x00000000,1716792265.061252,10.0.2.15,22,10.0.2.2,55990,1073725440,16290,0,65535,65700,0,0,4,1460,1,0,0,24,33580,28,65700,0,28,0,0,0
i,0x00000000,1716792265.062128,10.0.2.15,22,10.0.2.2,55990,1073725440,16318,0,65535,65700,0,0,4,1460,1,0,0,24,33580,0,65700,0,0,0,0,0
o,0x00000000,1716792265.063220,10.0.2.15,22,10.0.2.2,55990,1073725440,16318,0,65535,65700,0,0,4,1460,1,0,0,24,33580,768,65700,112,0,0,0,0
i,0x00000000,1716792265.064552,10.0.2.15,22,10.0.2.2,55990,1073725440,16318,0,65535,65700,0,0,4,1460,1,0,0,24,33580,768,65700,112,768,0,0,0
o,0x00000000,1716792265.064809,10.0.2.15,22,10.0.2.2,55990,1073725440,17086,0,65535,65700,0,0,4,1460,1,0,0,24,33580,44,65700,0,0,0,0,0
i,0x00000000,1716792265.065628,10.0.2.15,22,10.0.2.2,55990,1073725440,17086,0,65535,65700,0,0,4,1460,1,0,0,24,33580,44,65700,0,44,0,0,0
i,0x00000000,1716792265.066580,10.0.2.15,22,10.0.2.2,55990,1073725440,17130,0,65535,65700,0,0,4,1460,1,0,0,24,33580,0,65700,0,0,0,0,0
o,0x00000000,1716792265.067650,10.0.2.15,22,10.0.2.2,55990,1073725440,17130,0,65535,65700,0,0,4,1460,1,0,4,24,33580,72,65700,0,0,0,0,0
i,0x00000000,1716792265.069012,10.0.2.15,22,10.0.2.2,55990,1073725440,17130,0,65535,65700,0,0,4,1460,1,0,4,24,33580,72,65700,0,72,0,0,0
o,0x00000000,1716792265.079598,10.0.2.15,22,10.0.2.2,55990,1073725440,17202,0,65535,65700,0,0,4,1460,1,0,4,24,33580,44,65700,0,0,0,0,0
i,0x00000000,1716792265.080916,10.0.2.15,22,10.0.2.2,55990,1073725440,17202,0,65535,65700,0,0,4,1460,1,0,4,24,33580,44,65700,0,44,0,0,0
o,0x00000000,1716792265.081523,10.0.2.15,22,10.0.2.2,55990,1073725440,17246,0,65535,65700,0,0,4,1460,1,0,4,24,33580,44,65700,0,0,0,0,0
i,0x00000000,1716792265.082453,10.0.2.15,22,10.0.2.2,55990,1073725440,17246,0,65535,65700,0,0,4,1460,1,0,4,24,33580,44,65700,0,44,0,0,0
o,0x00000000,1716792265.087878,10.0.2.15,22,10.0.2.2,55990,1073725440,17290,0,65535,65700,0,0,4,1460,1,0,4,24,33580,176,65700,0,0,0,0,0
i,0x00000000,1716792265.090761,10.0.2.15,22,10.0.2.2,55990,1073725440,17290,0,65535,65700,0,0,4,1460,1,0,4,24,33580,176,65700,0,176,0,0,0
i,0x00000000,1716792265.094918,10.0.2.15,22,10.0.2.2,55990,1073725440,17466,0,65535,65700,0,0,4,1460,1,0,4,24,33580,0,65700,0,0,0,0,0
i,0x00000000,1716792265.094954,10.0.2.15,22,10.0.2.2,55990,1073725440,17466,0,65535,65700,0,0,4,1460,1,0,4,24,33580,0,65700,96,0,0,0,0
o,0x00000000,1716792265.094981,10.0.2.15,22,10.0.2.2,55990,1073725440,17466,0,65535,65604,0,0,5,1460,1,0,5,24,33580,0,65700,96,0,0,0,0
o,0x00000000,1716792265.122956,10.0.2.15,22,10.0.2.2,55990,1073725440,17466,0,65535,65604,0,0,8,1460,1,0,4,24,33580,0,65700,0,0,0,0,0
i,0x00000000,1716792265.124862,10.0.2.15,22,10.0.2.2,55990,1073725440,17466,0,65535,65604,0,0,8,1460,1,0,20,24,33580,0,65700,0,1,0,0,0
i,0x00000000,1716792265.417851,172.16.3.2,5101,172.16.1.2,51001,10405,14480,0,65728,65700,6,6,4,1460,845,1,992,132,33580,0,65700,0,0,0,0,0
o,0x00000000,1716792265.418156,172.16.3.2,5101,172.16.1.2,51001,10405,14480,0,65728,65700,6,6,4,1460,845,1,996,132,33580,1,65700,0,0,0,0,0
i,0x00000000,1716792265.537011,172.16.3.2,5101,172.16.1.2,51001,10405,14480,0,65728,65700,6,6,4,1460,845,1,996,132,33580,1,65700,0,1,0,0,0
i,0x00000000,1716792265.537035,172.16.3.2,5101,172.16.1.2,51001,10405,14480,0,65728,65728,6,6,4,1460,784,1,996,124,33580,0,65700,4,0,0,0,0
o,0x00000000,1716792265.537046,172.16.3.2,5101,172.16.1.2,51001,10405,14480,0,65728,65728,6,6,4,1460,784,1,997,124,33580,0,65700,128,0,0,0,0
o,0x00000000,1716792265.537651,172.16.3.2,5101,172.16.1.2,51001,10405,14480,0,65728,65728,6,6,4,1460,784,1,996,124,33580,1,65700,0,0,0,0,0
o,0x00000000,1716792265.537895,10.0.2.15,22,10.0.2.2,60131,1073725440,14600,0,65535,65700,0,0,4,1460,1,0,4,24,33580,84,65700,0,0,0,0,0
i,0x00000000,1716792265.538727,10.0.2.15,22,10.0.2.2,60131,1073725440,14600,0,65535,65700,0,0,4,1460,1,0,4,24,33580,84,65700,0,84,0,0,0
i,0x00000000,1716792265.687196,172.16.3.2,5101,172.16.1.2,51001,10405,14480,0,65728,65728,6,6,4,1460,784,1,996,124,33580,1,65700,0,1,0,0,0
i,0x00000000,1716792265.778963,172.16.3.2,5101,172.16.1.2,31422,10405,14480,0,65728,65700,6,6,4,1460,849,1,992,131,33580,0,65700,0,0,0,0,0
o,0x00000000,1716792265.783121,172.16.3.2,5101,172.16.1.2,51001,10405,14480,0,65728,65728,6,6,4,1460,746,1,996,112,33580,1,65700,0,0,0,0,0
o,0x00000000,1716792265.783462,172.16.3.2,5101,172.16.1.2,51001,10405,14480,0,65728,65728,6,6,4,1460,746,1,996,112,33580,2,65700,0,1,0,0,0
o,0x00000000,1716792265.784706,10.0.2.15,22,10.0.2.2,60131,1073725440,14600,0,65535,65700,0,0,4,1460,1,0,4,23,33580,108,65700,0,0,0,0,0
i,0x00000000,1716792265.786635,10.0.2.15,22,10.0.2.2,60131,1073725440,14600,0,65535,65700,0,0,4,1460,1,0,4,23,33580,108,65700,0,108,0,0,0
o,0x00000000,1716792265.820679,172.16.3.2,5101,172.16.1.2,31422,10405,14480,0,65728,65700,6,6,4,1460,849,1,993,131,33580,0,65700,0,0,0,0,0
i,0x00000000,1716792265.967394,172.16.3.2,5101,172.16.1.2,51001,10405,14480,0,65728,65728,6,6,4,1460,746,1,996,112,33580,2,65700,0,2,0,0,0
i,0x00000000,1716792265.998139,172.16.3.2,5101,172.16.1.2,31422,10405,14480,0,65728,65700,6,6,4,1460,849,1,992,131,33580,0,65700,0,0,0,0,0
i,0x00000000,1716792266.008379,172.16.3.2,5101,172.16.1.2,31422,10405,14480,0,65728,65700,6,6,4,1460,849,1,992,131,33580,0,65700,0,0,0,0,0
o,0x00000000,1716792266.008446,172.16.3.2,5101,172.16.1.2,31422,10405,14480,0,65728,65700,6,6,4,1460,849,1,993,131,33580,0,65700,1448,0,0,0,0
i,0x00000000,1716792266.018218,172.16.3.2,5101,172.16.1.2,31422,10405,14480,0,65728,65700,6,6,4,1460,849,1,992,131,33580,0,65700,0,0,0,0,0
i,0x00000000,1716792266.028097,172.16.3.2,5101,172.16.1.2,31422,10405,14480,0,65728,65700,6,6,4,1460,849,1,992,131,33580,0,65700,0,0,0,0,0
o,0x00000000,1716792266.028227,172.16.3.2,5101,172.16.1.2,31422,10405,14480,0,65728,65700,6,6,4,1460,849,1,993,131,33580,0,65700,1448,0,0,0,0
i,0x00000000,1716792266.048536,172.16.3.2,5101,172.16.1.2,31422,10405,14480,0,65728,65700,6,6,4,1460,849,1,992,131,33580,0,65700,0,0,0,0,0
i,0x00000000,1716792266.058235,172.16.3.2,5101,172.16.1.2,31422,10405,14480,0,65728,65700,6,6,4,1460,849,1,992,131,33580,0,65700,0,0,0,0,0
o,0x00000000,1716792266.058455,172.16.3.2,5101,172.16.1.2,31422,10405,14480,0,65728,65700,6,6,4,1460,849,1,993,131,33580,0,65700,1448,0,0,0,0
i,0x00000000,1716792266.068765,172.16.3.2,5101,172.16.1.2,31422,10405,14480,0,65728,65700,6,6,4,1460,849,1,992,131,33580,0,65700,0,0,0,0,0
i,0x00000000,1716792266.078176,172.16.3.2,5101,172.16.1.2,31422,10405,14480,0,65728,65700,6,6,4,1460,849,1,992,131,33580,0,65700,0,0,0,0,0
o,0x00000000,1716792266.078218,172.16.3.2,5101,172.16.1.2,31422,10405,14480,0,65728,65700,6,6,4,1460,849,1,993,131,33580,0,65700,1448,0,0,0,0
i,0x00000000,1716792266.089517,172.16.3.2,5101,172.16.1.2,31422,10405,14480,0,65728,65700,6,6,4,1460,849,1,992,131,33580,0,65700,0,0,0,0,0
i,0x00000000,1716792266.107460,172.16.3.2,5101,172.16.1.2,31422,10405,14480,0,65728,65700,6,6,4,1460,849,1,992,131,33580,0,65700,0,0,0,0,0
o,0x00000000,1716792266.107529,172.16.3.2,5101,172.16.1.2,31422,10405,14480,0,65728,65700,6,6,4,1460,849,1,993,131,33580,0,65700,1448,0,0,0,0
i,0x00000000,1716792266.388090,172.16.3.2,5101,172.16.1.2,31422,10405,14480,0,65728,65700,6,6,4,1460,849,1,992,131,33580,0,65700,0,0,0,0,0
i,0x00000000,1716792266.408234,172.16.3.2,5101,172.16.1.2,31422,10405,14480,0,65728,65700,6,6,4,1460,849,1,992,131,33580,0,65700,0,0,0,0,0
o,0x00000000,1716792266.408258,172.16.3.2,5101,172.16.1.2,31422,10405,14480,0,65728,65700,6,6,4,1460,849,1,993,131,33580,0,65700,1448,0,0,0,0
i,0x00000000,1716792266.416958,172.16.3.2,5101,172.16.1.2,31422,10405,14480,0,65728,65700,6,6,4,1460,849,1,992,131,33580,0,65700,0,0,0,0,0
i,0x00000000,1716792266.427252,172.16.3.2,5101,172.16.1.2,31422,10405,14480,0,65728,65700,6,6,4,1460,849,1,992,131,33580,0,65700,0,0,0,0,0
o,0x00000000,1716792266.427266,172.16.3.2,5101,172.16.1.2,31422,10405,14480,0,65728,65700,6,6,4,1460,849,1,993,131,33580,0,65700,1448,0,0,0,0
i,0x00000000,1716792266.439001,172.16.3.2,5101,172.16.1.2,31422,10405,14480,0,65728,65700,6,6,4,1460,849,1,992,131,33580,0,65700,0,0,0,0,0
i,0x00000000,1716792266.448444,172.16.3.2,5101,172.16.1.2,31422,10405,14480,0,65728,65700,6,6,4,1460,849,1,992,131,33580,0,65700,0,0,0,0,0
o,0x00000000,1716792266.448486,172.16.3.2,5101,172.16.1.2,31422,10405,14480,0,65728,65700,6,6,4,1460,849,1,993,131,33580,0,65700,1448,0,0,0,0
i,0x00000000,1716792266.467054,172.16.3.2,5101,172.16.1.2,31422,10405,14480,0,65728,65700,6,6,4,1460,849,1,992,131,33580,0,65700,0,0,0,0,0
i,0x00000000,1716792266.477415,172.16.3.2,5101,172.16.1.2,31422,10405,14480,0,65728,65700,6,6,4,1460,849,1,992,131,33580,0,65700,0,0,0,0,0
o,0x00000000,1716792266.477434,172.16.3.2,5101,172.16.1.2,31422,10405,14480,0,65728,65700,6,6,4,1460,849,1,993,131,33580,0,65700,1448,0,0,0,0
i,0x00000000,1716792266.488234,172.16.3.2,5101,172.16.1.2,31422,10405,14480,0,65728,65700,6,6,4,1460,849,1,992,131,33580,0,65700,0,0,0,0,0
i,0x00000000,1716792266.497566,172.16.3.2,5101,172.16.1.2,31422,10405,14480,0,65728,65700,6,6,4,1460,849,1,992,131,33580,0,65700,0,0,0,0,0
o,0x00000000,1716792266.497586,172.16.3.2,5101,172.16.1.2,31422,10405,14480,0,65728,65700,6,6,4,1460,849,1,993,131,33580,0,65700,1448,0,0,0,0
i,0x00000000,1716792266.507489,172.16.3.2,5101,172.16.1.2,31422,10405,14480,0,65728,65700,6,6,4,1460,849,1,992,131,33580,0,65700,0,0,0,0,0
i,0x00000000,1716792266.527826,172.16.3.2,5101,172.16.1.2,31422,10405,14480,0,65728,65700,6,6,4,1460,849,1,992,131,33580,0,65700,0,0,0,0,0
o,0x00000000,1716792266.527923,172.16.3.2,5101,172.16.1.2,31422,10405,14480,0,65728,65700,6,6,4,1460,849,1,993,131,33580,0,65700,1448,0,0,0,0
i,0x00000000,1716792266.537779,172.16.3.2,5101,172.16.1.2,31422,10405,14480,0,65728,65700,6,6,4,1460,849,1,992,131,33580,0,65700,0,0,0,0,0
i,0x00000000,1716792266.548173,172.16.3.2,5101,172.16.1.2,31422,10405,14480,0,65728,65700,6,6,4,1460,849,1,992,131,33580,0,65700,0,0,0,0,0
o,0x00000000,1716792266.548193,172.16.3.2,5101,172.16.1.2,31422,10405,14480,0,65728,65700,6,6,4,1460,849,1,993,131,33580,0,65700,1448,0,0,0,0
i,0x00000000,1716792266.557970,172.16.3.2,5101,172.16.1.2,31422,10405,14480,0,65728,65700,6,6,4,1460,849,1,992,131,33580,0,65700,0,0,0,0,0
i,0x00000000,1716792266.567255,172.16.3.2,5101,172.16.1.2,31422,10405,14480,0,65728,65700,6,6,4,1460,849,1,992,131,33580,0,65700,0,0,0,0,0
o,0x00000000,1716792266.567275,172.16.3.2,5101,172.16.1.2,31422,10405,14480,0,65728,65700,6,6,4,1460,849,1,993,131,33580,0,65700,1448,0,0,0,0
i,0x00000000,1716792266.588450,172.16.3.2,5101,172.16.1.2,31422,10405,14480,0,65728,65700,6,6,4,1460,849,1,992,131,33580,0,65700,0,0,0,0,0
i,0x00000000,1716792266.597943,172.16.3.2,5101,172.16.1.2,31422,10405,14480,0,65728,65700,6,6,4,1460,849,1,992,131,33580,0,65700,0,0,0,0,0
o,0x00000000,1716792266.597971,172.16.3.2,5101,172.16.1.2,31422,10405,14480,0,65728,65700,6,6,4,1460,849,1,993,131,33580,0,65700,1448,0,0,0,0
o,0x00000000,1716792266.788827,10.0.2.15,22,10.0.2.2,60131,1073725440,14600,0,65535,65700,0,0,4,1460,1,0,4,23,33580,156,65700,0,0,0,0,0
i,0x00000000,1716792266.789687,10.0.2.15,22,10.0.2.2,60131,1073725440,14600,0,65535,65700,0,0,4,1460,1,0,4,23,33580,156,65700,0,156,0,0,0
i,0x00000000,1716792266.897186,172.16.3.2,5101,172.16.1.2,31422,10405,14480,0,65728,65700,6,6,4,1460,849,1,992,131,33580,0,65700,0,0,0,0,0
i,0x00000000,1716792266.908937,172.16.3.2,5101,172.16.1.2,31422,10405,14480,0,65728,65700,6,6,4,1460,849,1,992,131,33580,0,65700,0,0,0,0,0
o,0x00000000,1716792266.909068,172.16.3.2,5101,172.16.1.2,31422,10405,14480,0,65728,65700,6,6,4,1460,849,1,993,131,33580,0,65700,1448,0,0,0,0
i,0x00000000,1716792266.918368,172.16.3.2,5101,172.16.1.2,31422,10405,14480,0,65728,65700,6,6,4,1460,849,1,992,131,33580,0,65700,0,0,0,0,0
i,0x00000000,1716792266.928797,172.16.3.2,5101,172.16.1.2,31422,10405,14480,0,65728,65700,6,6,4,1460,849,1,992,131,33580,0,65700,0,0,0,0,0
o,0x00000000,1716792266.928813,172.16.3.2,5101,172.16.1.2,31422,10405,14480,0,65728,65700,6,6,4,1460,849,1,993,131,33580,0,65700,1448,0,0,0,0
i,0x00000000,1716792266.938107,172.16.3.2,5101,172.16.1.2,31422,10405,14480,0,65728,65700,6,6,4,1460,849,1,992,131,33580,0,65700,0,0,0,0,0
i,0x00000000,1716792266.958667,172.16.3.2,5101,172.16.1.2,31422,10405,14480,0,65728,65700,6,6,4,1460,849,1,992,131,33580,0,65700,0,0,0,0,0
o,0x00000000,1716792266.958693,172.16.3.2,5101,172.16.1.2,31422,10405,14480,0,65728,65700,6,6,4,1460,849,1,993,131,33580,0,65700,1448,0,0,0,0
i,0x00000000,1716792266.968050,172.16.3.2,5101,172.16.1.2,31422,10405,14480,0,65728,65700,6,6,4,1460,849,1,992,131,33580,0,65700,0,0,0,0,0
i,0x00000000,1716792266.979558,172.16.3.2,5101,172.16.1.2,31422,10405,14480,0,65728,65700,6,6,4,1460,849,1,992,131,33580,0,65700,0,0,0,0,0
o,0x00000000,1716792266.979579,172.16.3.2,5101,172.16.1.2,31422,10405,14480,0,65728,65700,6,6,4,1460,849,1,993,131,33580,0,65700,1448,0,0,0,0
i,0x00000000,1716792266.987745,172.16.3.2,5101,172.16.1.2,31422,10405,14480,0,65728,65700,6,6,4,1460,849,1,992,131,33580,0,65700,0,0,0,0,0
i,0x00000000,1716792266.998132,172.16.3.2,5101,172.16.1.2,31422,10405,14480,0,65728,65700,6,6,4,1460,849,1,992,131,33580,0,65700,0,0,0,0,0
o,0x00000000,1716792266.998144,172.16.3.2,5101,172.16.1.2,31422,10405,14480,0,65728,65700,6,6,4,1460,849,1,993,131,33580,0,65700,1448,0,0,0,0
i,0x00000000,1716792267.018415,172.16.3.2,5101,172.16.1.2,31422,10405,14480,0,65728,65700,6,6,4,1460,849,1,992,131,33580,0,65700,0,0,0,0,0
i,0x00000000,1716792267.028648,172.16.3.2,5101,172.16.1.2,31422,10405,14480,0,65728,65700,6,6,4,1460,849,1,992,131,33580,0,65700,0,0,0,0,0
o,0x00000000,1716792267.028668,172.16.3.2,5101,172.16.1.2,31422,10405,14480,0,65728,65700,6,6,4,1460,849,1,993,131,33580,0,65700,1448,0,0,0,0
i,0x00000000,1716792267.040315,172.16.3.2,5101,172.16.1.2,31422,10405,14480,0,65728,65700,6,6,4,1460,849,1,992,131,33580,0,65700,0,0,0,0,0
i,0x00000000,1716792267.047587,172.16.3.2,5101,172.16.1.2,31422,10405,14480,0,65728,65700,6,6,4,1460,849,1,992,131,33580,0,65700,0,0,0,0,0
o,0x00000000,1716792267.047607,172.16.3.2,5101,172.16.1.2,31422,10405,14480,0,65728,65700,6,6,4,1460,849,1,993,131,33580,0,65700,1448,0,0,0,0
i,0x00000000,1716792267.058094,172.16.3.2,5101,172.16.1.2,31422,10405,14480,0,65728,65700,6,6,4,1460,849,1,992,131,33580,0,65700,0,0,0,0,0
i,0x00000000,1716792267.078582,172.16.3.2,5101,172.16.1.2,31422,10405,14480,0,65728,65700,6,6,4,1460,849,1,992,131,33580,0,65700,0,0,0,0,0
o,0x00000000,1716792267.078603,172.16.3.2,5101,172.16.1.2,31422,10405,14480,0,65728,65700,6,6,4,1460,849,1,993,131,33580,0,65700,1448,0,0,0,0
i,0x00000000,1716792267.088187,172.16.3.2,5101,172.16.1.2,31422,10405,14480,0,65728,65700,6,6,4,1460,849,1,992,131,33580,0,65700,0,0,0,0,0
i,0x00000000,1716792267.097776,172.16.3.2,5101,172.16.1.2,31422,10405,14480,0,65728,65700,6,6,4,1460,849,1,992,131,33580,0,65700,0,0,0,0,0
o,0x00000000,1716792267.097790,172.16.3.2,5101,172.16.1.2,31422,10405,14480,0,65728,65700,6,6,4,1460,849,1,993,131,33580,0,65700,1448,0,0,0,0
i,0x00000000,1716792267.109502,172.16.3.2,5101,172.16.1.2,31422,10405,14480,0,65728,65700,6,6,4,1460,849,1,992,131,33580,0,65700,0,0,0,0,0
o,0x00000000,1716792267.149993,172.16.3.2,5101,172.16.1.2,31422,10405,14480,0,65728,65700,6,6,4,1460,849,1,993,131,33580,0,65700,0,0,0,0,0
i,0x00000000,1716792267.399339,172.16.3.2,5101,172.16.1.2,31422,10405,14480,0,65728,65700,6,6,4,1460,849,1,992,131,33580,0,65700,0,0,0,0,0
i,0x00000000,1716792267.408393,172.16.3.2,5101,172.16.1.2,31422,10405,14480,0,65728,65700,6,6,4,1460,849,1,992,131,33580,0,65700,0,0,0,0,0
o,0x00000000,1716792267.408409,172.16.3.2,5101,172.16.1.2,31422,10405,14480,0,65728,65700,6,6,4,1460,849,1,993,131,33580,0,65700,1448,0,0,0,0
i,0x00000000,1716792267.418411,172.16.3.2,5101,172.16.1.2,31422,10405,14480,0,65728,65700,6,6,4,1460,849,1,992,131,33580,0,65700,0,0,0,0,0
i,0x00000000,1716792267.428776,172.16.3.2,5101,172.16.1.2,31422,10405,14480,0,65728,65700,6,6,4,1460,849,1,992,131,33580,0,65700,0,0,0,0,0
o,0x00000000,1716792267.428797,172.16.3.2,5101,172.16.1.2,31422,10405,14480,0,65728,65700,6,6,4,1460,849,1,993,131,33580,0,65700,1448,0,0,0,0
i,0x00000000,1716792267.438467,172.16.3.2,5101,172.16.1.2,31422,10405,14480,0,65728,65700,6,6,4,1460,849,1,992,131,33580,0,65700,0,0,0,0,0
i,0x00000000,1716792267.458166,172.16.3.2,5101,172.16.1.2,31422,10405,14480,0,65728,65700,6,6,4,1460,849,1,992,131,33580,0,65700,0,0,0,0,0
o,0x00000000,1716792267.458186,172.16.3.2,5101,172.16.1.2,31422,10405,14480,0,65728,65700,6,6,4,1460,849,1,993,131,33580,0,65700,1448,0,0,0,0
i,0x00000000,1716792267.469234,172.16.3.2,5101,172.16.1.2,31422,10405,14480,0,65728,65700,6,6,4,1460,849,1,992,131,33580,0,65700,0,0,0,0,0
i,0x00000000,1716792267.478481,172.16.3.2,5101,172.16.1.2,31422,10405,14480,0,65728,65700,6,6,4,1460,849,1,992,131,33580,0,65700,0,0,0,0,0
o,0x00000000,1716792267.478570,172.16.3.2,5101,172.16.1.2,31422,10405,14480,0,65728,65700,6,6,4,1460,849,1,993,131,33580,0,65700,1448,0,0,0,0
i,0x00000000,1716792267.488548,172.16.3.2,5101,172.16.1.2,31422,10405,14480,0,65728,65700,6,6,4,1460,849,1,992,131,33580,0,65700,0,0,0,0,0
i,0x00000000,1716792267.498158,172.16.3.2,5101,172.16.1.2,31422,10405,14480,0,65728,65700,6,6,4,1460,849,1,992,131,33580,0,65700,0,0,0,0,0
o,0x00000000,1716792267.498172,172.16.3.2,5101,172.16.1.2,31422,10405,14480,0,65728,65700,6,6,4,1460,849,1,993,131,33580,0,65700,1448,0,0,0,0
i,0x00000000,1716792267.518036,172.16.3.2,5101,172.16.1.2,31422,10405,14480,0,65728,65700,6,6,4,1460,849,1,992,131,33580,0,65700,0,0,0,0,0
i,0x00000000,1716792267.528369,172.16.3.2,5101,172.16.1.2,31422,10405,14480,0,65728,65700,6,6,4,1460,849,1,992,131,33580,0,65700,0,0,0,0,0
o,0x00000000,1716792267.528383,172.16.3.2,5101,172.16.1.2,31422,10405,14480,0,65728,65700,6,6,4,1460,849,1,993,131,33580,0,65700,1448,0,0,0,0
i,0x00000000,1716792267.537692,172.16.3.2,5101,172.16.1.2,31422,10405,14480,0,65728,65700,6,6,4,1460,849,1,992,131,33580,0,65700,0,0,0,0,0
i,0x00000000,1716792267.548084,172.16.3.2,5101,172.16.1.2,31422,10405,14480,0,65728,65700,6,6,4,1460,849,1,992,131,33580,0,65700,0,0,0,0,0
o,0x00000000,1716792267.548098,172.16.3.2,5101,172.16.1.2,31422,10405,14480,0,65728,65700,6,6,4,1460,849,1,993,131,33580,0,65700,1448,0,0,0,0
i,0x00000000,1716792267.559160,172.16.3.2,5101,172.16.1.2,31422,10405,14480,0,65728,65700,6,6,4,1460,849,1,992,131,33580,0,65700,0,0,0,0,0
i,0x00000000,1716792267.578614,172.16.3.2,5101,172.16.1.2,31422,10405,14480,0,65728,65700,6,6,4,1460,849,1,992,131,33580,0,65700,0,0,0,0,0
o,0x00000000,1716792267.578636,172.16.3.2,5101,172.16.1.2,31422,10405,14480,0,65728,65700,6,6,4,1460,849,1,993,131,33580,0,65700,1448,0,0,0,0
i,0x00000000,1716792267.588821,172.16.3.2,5101,172.16.1.2,31422,10405,14480,0,65728,65700,6,6,4,1460,849,1,992,131,33580,0,65700,0,0,0,0,0
i,0x00000000,1716792267.598830,172.16.3.2,5101,172.16.1.2,31422,10405,14480,0,65728,65700,6,6,4,1460,849,1,992,131,33580,0,65700,0,0,0,0,0
o,0x00000000,1716792267.598872,172.16.3.2,5101,172.16.1.2,31422,10405,14480,0,65728,65700,6,6,4,1460,849,1,993,131,33580,0,65700,1448,0,0,0,0
i,0x00000000,1716792267.609228,172.16.3.2,5101,172.16.1.2,31422,10405,14480,0,65728,65700,6,6,4,1460,849,1,992,131,33580,0,65700,0,0,0,0,0
o,0x00000000,1716792267.649466,172.16.3.2,5101,172.16.1.2,31422,10405,14480,0,65728,65700,6,6,4,1460,849,1,993,131,33580,0,65700,0,0,0,0,0
i,0x00000000,1716792267.659063,172.16.3.2,5101,172.16.1.2,31422,10405,14480,0,65728,65700,6,6,4,1460,849,1,992,131,33580,0,65700,0,0,0,0,0
o,0x00000000,1716792267.699180,172.16.3.2,5101,172.16.1.2,31422,10405,14480,0,65728,65700,6,6,4,1460,849,1,993,131,33580,0,65700,0,0,0,0,0
o,0x00000000,1716792267.799937,10.0.2.15,22,10.0.2.2,60131,1073725440,14600,0,65535,65700,0,0,4,1460,1,0,4,23,33580,108,65700,0,0,0,0,0
i,0x00000000,1716792267.801157,10.0.2.15,22,10.0.2.2,60131,1073725440,14600,0,65535,65700,0,0,4,1460,1,0,4,23,33580,108,65700,0,108,0,0,0
i,0x00000000,1716792267.889274,172.16.3.2,5101,172.16.1.2,31422,10405,14480,0,65728,65700,6,6,4,1460,849,1,992,131,33580,0,65700,0,0,0,0,0
i,0x00000000,1716792267.898662,172.16.3.2,5101,172.16.1.2,31422,10405,14480,0,65728,65700,6,6,4,1460,849,1,992,131,33580,0,65700,0,0,0,0,0
o,0x00000000,1716792267.898685,172.16.3.2,5101,172.16.1.2,31422,10405,14480,0,65728,65700,6,6,4,1460,849,1,993,131,33580,0,65700,1448,0,0,0,0
i,0x00000000,1716792267.909347,172.16.3.2,5101,172.16.1.2,31422,10405,14480,0,65728,65700,6,6,4,1460,849,1,992,131,33580,0,65700,0,0,0,0,0
i,0x00000000,1716792267.919860,172.16.3.2,5101,172.16.1.2,31422,10405,14480,0,65728,65700,6,6,4,1460,849,1,992,131,33580,0,65700,0,0,0,0,0
o,0x00000000,1716792267.919873,172.16.3.2,5101,172.16.1.2,31422,10405,14480,0,65728,65700,6,6,4,1460,849,1,993,131,33580,0,65700,1448,0,0,0,0
i,0x00000000,1716792267.939198,172.16.3.2,5101,172.16.1.2,31422,10405,14480,0,65728,65700,6,6,4,1460,849,1,992,131,33580,0,65700,0,0,0,0,0
i,0x00000000,1716792267.949287,172.16.3.2,5101,172.16.1.2,31422,10405,14480,0,65728,65700,6,6,4,1460,849,1,992,131,33580,0,65700,0,0,0,0,0
o,0x00000000,1716792267.949302,172.16.3.2,5101,172.16.1.2,31422,10405,14480,0,65728,65700,6,6,4,1460,849,1,993,131,33580,0,65700,1448,0,0,0,0
i,0x00000000,1716792267.958684,172.16.3.2,5101,172.16.1.2,31422,10405,14480,0,65728,65700,6,6,4,1460,849,1,992,131,33580,0,65700,0,0,0,0,0
i,0x00000000,1716792267.969110,172.16.3.2,5101,172.16.1.2,31422,10405,14480,0,65728,65700,6,6,4,1460,849,1,992,131,33580,0,65700,0,0,0,0,0
o,0x00000000,1716792267.969125,172.16.3.2,5101,172.16.1.2,31422,10405,14480,0,65728,65700,6,6,4,1460,849,1,993,131,33580,0,65700,1448,0,0,0,0
i,0x00000000,1716792267.978471,172.16.3.2,5101,172.16.1.2,31422,10405,14480,0,65728,65700,6,6,4,1460,849,1,992,131,33580,0,65700,0,0,0,0,0
i,0x00000000,1716792267.999354,172.16.3.2,5101,172.16.1.2,31422,10405,14480,0,65728,65700,6,6,4,1460,849,1,992,131,33580,0,65700,0,0,0,0,0
o,0x00000000,1716792267.999361,172.16.3.2,5101,172.16.1.2,31422,10405,14480,0,65728,65700,6,6,4,1460,849,1,993,131,33580,0,65700,1448,0,0,0,0
i,0x00000000,1716792268.009335,172.16.3.2,5101,172.16.1.2,31422,10405,14480,0,65728,65700,6,6,4,1460,849,1,992,131,33580,0,65700,0,0,0,0,0
i,0x00000000,1716792268.018351,172.16.3.2,5101,172.16.1.2,31422,10405,14480,0,65728,65700,6,6,4,1460,849,1,992,131,33580,0,65700,0,0,0,0,0
o,0x00000000,1716792268.018363,172.16.3.2,5101,172.16.1.2,31422,10405,14480,0,65728,65700,6,6,4,1460,849,1,993,131,33580,0,65700,1448,0,0,0,0
i,0x00000000,1716792268.028757,172.16.3.2,5101,172.16.1.2,31422,10405,14480,0,65728,65700,6,6,4,1460,849,1,992,131,33580,0,65700,0,0,0,0,0
i,0x00000000,1716792268.039506,172.16.3.2,5101,172.16.1.2,31422,10405,14480,0,65728,65700,6,6,4,1460,849,1,992,131,33580,0,65700,0,0,0,0,0
o,0x00000000,1716792268.039517,172.16.3.2,5101,172.16.1.2,31422,10405,14480,0,65728,65700,6,6,4,1460,849,1,993,131,33580,0,65700,1448,0,0,0,0
i,0x00000000,1716792268.059141,172.16.3.2,5101,172.16.1.2,31422,10405,14480,0,65728,65700,6,6,4,1460,849,1,992,131,33580,0,65700,0,0,0,0,0
i,0x00000000,1716792268.069455,172.16.3.2,5101,172.16.1.2,31422,10405,14480,0,65728,65700,6,6,4,1460,849,1,992,131,33580,0,65700,0,0,0,0,0
o,0x00000000,1716792268.069469,172.16.3.2,5101,172.16.1.2,31422,10405,14480,0,65728,65700,6,6,4,1460,849,1,993,131,33580,0,65700,1448,0,0,0,0
i,0x00000000,1716792268.078896,172.16.3.2,5101,172.16.1.2,31422,10405,14480,0,65728,65700,6,6,4,1460,849,1,992,131,33580,0,65700,0,0,0,0,0
i,0x00000000,1716792268.089395,172.16.3.2,5101,172.16.1.2,31422,10405,14480,0,65728,65700,6,6,4,1460,849,1,992,131,33580,0,65700,0,0,0,0,0
o,0x00000000,1716792268.089404,172.16.3.2,5101,172.16.1.2,31422,10405,14480,0,65728,65700,6,6,4,1460,849,1,993,131,33580,0,65700,1448,0,0,0,0
i,0x00000000,1716792268.148372,172.16.3.2,5101,172.16.1.2,31422,10405,14480,0,65728,65700,6,6,4,1460,849,1,992,131,33580,0,65700,0,0,0,0,0
i,0x00000000,1716792268.158693,172.16.3.2,5101,172.16.1.2,31422,10405,14480,0,65728,65700,6,6,4,1460,849,1,992,131,33580,0,65700,0,0,0,0,0
o,0x00000000,1716792268.158714,172.16.3.2,5101,172.16.1.2,31422,10405,14480,0,65728,65700,6,6,4,1460,849,1,993,131,33580,0,65700,1448,0,0,0,0
i,0x00000000,1716792268.339195,172.16.3.2,5101,172.16.1.2,31422,10405,14480,0,65728,65700,6,6,4,1460,849,1,992,131,33580,0,65700,0,0,0,0,0
o,0x00000000,1716792268.379071,172.16.3.2,5101,172.16.1.2,31422,10405,14480,0,65728,65700,6,6,4,1460,849,1,993,131,33580,0,65700,0,0,0,0,0
i,0x00000000,1716792268.399596,172.16.3.2,5101,172.16.1.2,31422,10405,14480,0,65728,65700,6,6,4,1460,849,1,992,131,33580,0,65700,0,0,0,0,0
i,0x00000000,1716792268.409935,172.16.3.2,5101,172.16.1.2,31422,10405,14480,0,65728,65700,6,6,4,1460,849,1,992,131,33580,0,65700,0,0,0,0,0
o,0x00000000,1716792268.409944,172.16.3.2,5101,172.16.1.2,31422,10405,14480,0,65728,65700,6,6,4,1460,849,1,993,131,33580,0,65700,1448,0,0,0,0
i,0x00000000,1716792268.418339,172.16.3.2,5101,172.16.1.2,31422,10405,14480,0,65728,65700,6,6,4,1460,849,1,992,131,33580,0,65700,0,0,0,0,0
i,0x00000000,1716792268.438178,172.16.3.2,5101,172.16.1.2,31422,10405,14480,0,65728,65700,6,6,4,1460,849,1,992,131,33580,0,65700,0,0,0,0,0
o,0x00000000,1716792268.438186,172.16.3.2,5101,172.16.1.2,31422,10405,14480,0,65728,65700,6,6,4,1460,849,1,993,131,33580,0,65700,1448,0,0,0,0
i,0x00000000,1716792268.449665,172.16.3.2,5101,172.16.1.2,31422,10405,14480,0,65728,65700,6,6,4,1460,849,1,992,131,33580,0,65700,0,0,0,0,0
i,0x00000000,1716792268.459200,172.16.3.2,5101,172.16.1.2,31422,10405,14480,0,65728,65700,6,6,4,1460,849,1,992,131,33580,0,65700,0,0,0,0,0
o,0x00000000,1716792268.459206,172.16.3.2,5101,172.16.1.2,31422,10405,14480,0,65728,65700,6,6,4,1460,849,1,993,131,33580,0,65700,1448,0,0,0,0
i,0x00000000,1716792268.469398,172.16.3.2,5101,172.16.1.2,31422,10405,14480,0,65728,65700,6,6,4,1460,849,1,992,131,33580,0,65700,0,0,0,0,0
i,0x00000000,1716792268.478980,172.16.3.2,5101,172.16.1.2,31422,10405,14480,0,65728,65700,6,6,4,1460,849,1,992,131,33580,0,65700,0,0,0,0,0
o,0x00000000,1716792268.478987,172.16.3.2,5101,172.16.1.2,31422,10405,14480,0,65728,65700,6,6,4,1460,849,1,993,131,33580,0,65700,1448,0,0,0,0
i,0x00000000,1716792268.498971,172.16.3.2,5101,172.16.1.2,31422,10405,14480,0,65728,65700,6,6,4,1460,849,1,992,131,33580,0,65700,0,0,0,0,0
i,0x00000000,1716792268.509047,172.16.3.2,5101,172.16.1.2,31422,10405,14480,0,65728,65700,6,6,4,1460,849,1,992,131,33580,0,65700,0,0,0,0,0
o,0x00000000,1716792268.509055,172.16.3.2,5101,172.16.1.2,31422,10405,14480,0,65728,65700,6,6,4,1460,849,1,993,131,33580,0,65700,1448,0,0,0,0
i,0x00000000,1716792268.520052,172.16.3.2,5101,172.16.1.2,31422,10405,14480,0,65728,65700,6,6,4,1460,849,1,992,131,33580,0,65700,0,0,0,0,0
i,0x00000000,1716792268.528542,172.16.3.2,5101,172.16.1.2,31422,10405,14480,0,65728,65700,6,6,4,1460,849,1,992,131,33580,0,65700,0,0,0,0,0
o,0x00000000,1716792268.528550,172.16.3.2,5101,172.16.1.2,31422,10405,14480,0,65728,65700,6,6,4,1460,849,1,993,131,33580,0,65700,1448,0,0,0,0
i,0x00000000,1716792268.538973,172.16.3.2,5101,172.16.1.2,31422,10405,14480,0,65728,65700,6,6,4,1460,849,1,992,131,33580,0,65700,0,0,0,0,0
i,0x00000000,1716792268.559136,172.16.3.2,5101,172.16.1.2,31422,10405,14480,0,65728,65700,6,6,4,1460,849,1,992,131,33580,0,65700,0,0,0,0,0
o,0x00000000,1716792268.559148,172.16.3.2,5101,172.16.1.2,31422,10405,14480,0,65728,65700,6,6,4,1460,849,1,993,131,33580,0,65700,1448,0,0,0,0
i,0x00000000,1716792268.569641,172.16.3.2,5101,172.16.1.2,31422,10405,14480,0,65728,65700,6,6,4,1460,849,1,992,131,33580,0,65700,0,0,0,0,0
i,0x00000000,1716792268.579884,172.16.3.2,5101,172.16.1.2,31422,10405,14480,0,65728,65700,6,6,4,1460,849,1,992,131,33580,0,65700,0,0,0,0,0
o,0x00000000,1716792268.579891,172.16.3.2,5101,172.16.1.2,31422,10405,14480,0,65728,65700,6,6,4,1460,849,1,993,131,33580,0,65700,1448,0,0,0,0
i,0x00000000,1716792268.589028,172.16.3.2,5101,172.16.1.2,31422,10405,14480,0,65728,65700,6,6,4,1460,849,1,992,131,33580,0,65700,0,0,0,0,0
i,0x00000000,1716792268.599252,172.16.3.2,5101,172.16.1.2,31422,10405,14480,0,65728,65700,6,6,4,1460,849,1,992,131,33580,0,65700,0,0,0,0,0
o,0x00000000,1716792268.599257,172.16.3.2,5101,172.16.1.2,31422,10405,14480,0,65728,65700,6,6,4,1460,849,1,993,131,33580,0,65700,1448,0,0,0,0
i,0x00000000,1716792268.659041,172.16.3.2,5101,172.16.1.2,31422,10405,14480,0,65728,65700,6,6,4,1460,849,1,992,131,33580,0,65700,0,0,0,0,0
i,0x00000000,1716792268.669548,172.16.3.2,5101,172.16.1.2,31422,10405,14480,0,65728,65700,6,6,4,1460,849,1,992,131,33580,0,65700,0,0,0,0,0
o,0x00000000,1716792268.669563,172.16.3.2,5101,172.16.1.2,31422,10405,14480,0,65728,65700,6,6,4,1460,849,1,993,131,33580,0,65700,1448,0,0,0,0
i,0x00000000,1716792268.678955,172.16.3.2,5101,172.16.1.2,31422,10405,14480,0,65728,65700,6,6,4,1460,849,1,992,131,33580,0,65700,0,0,0,0,0
o,0x00000000,1716792268.718462,172.16.3.2,5101,172.16.1.2,31422,10405,14480,0,65728,65700,6,6,4,1460,849,1,993,131,33580,0,65700,0,0,0,0,0
o,0x00000000,1716792268.799148,10.0.2.15,22,10.0.2.2,60131,1073725440,14600,0,65535,65700,0,0,4,1460,1,0,4,23,33580,108,65700,0,0,0,0,0
i,0x00000000,1716792268.800308,10.0.2.15,22,10.0.2.2,60131,1073725440,14600,0,65535,65700,0,0,4,1460,1,0,4,23,33580,108,65700,0,108,0,0,0
i,0x00000000,1716792268.919185,172.16.3.2,5101,172.16.1.2,31422,10405,14480,0,65728,65700,6,6,4,1460,849,1,992,131,33580,0,65700,0,0,0,0,0
i,0x00000000,1716792268.940234,172.16.3.2,5101,172.16.1.2,31422,10405,14480,0,65728,65700,6,6,4,1460,849,1,992,131,33580,0,65700,0,0,0,0,0
o,0x00000000,1716792268.940251,172.16.3.2,5101,172.16.1.2,31422,10405,14480,0,65728,65700,6,6,4,1460,849,1,993,131,33580,0,65700,1448,0,0,0,0
i,0x00000000,1716792268.949522,172.16.3.2,5101,172.16.1.2,31422,10405,14480,0,65728,65700,6,6,4,1460,849,1,992,131,33580,0,65700,0,0,0,0,0
i,0x00000000,1716792268.960241,172.16.3.2,5101,172.16.1.2,31422,10405,14480,0,65728,65700,6,6,4,1460,849,1,992,131,33580,0,65700,0,0,0,0,0
o,0x00000000,1716792268.960251,172.16.3.2,5101,172.16.1.2,31422,10405,14480,0,65728,65700,6,6,4,1460,849,1,993,131,33580,0,65700,1448,0,0,0,0
i,0x00000000,1716792268.969522,172.16.3.2,5101,172.16.1.2,31422,10405,14480,0,65728,65700,6,6,4,1460,849,1,992,131,33580,0,65700,0,0,0,0,0
i,0x00000000,1716792268.989454,172.16.3.2,5101,172.16.1.2,31422,10405,14480,0,65728,65700,6,6,4,1460,849,1,992,131,33580,0,65700,0,0,0,0,0
o,0x00000000,1716792268.989468,172.16.3.2,5101,172.16.1.2,31422,10405,14480,0,65728,65700,6,6,4,1460,849,1,993,131,33580,0,65700,1448,0,0,0,0
i,0x00000000,1716792268.999715,172.16.3.2,5101,172.16.1.2,31422,10405,14480,0,65728,65700,6,6,4,1460,849,1,992,131,33580,0,65700,0,0,0,0,0
i,0x00000000,1716792269.009595,172.16.3.2,5101,172.16.1.2,31422,10405,14480,0,65728,65700,6,6,4,1460,849,1,992,131,33580,0,65700,0,0,0,0,0
o,0x00000000,1716792269.009604,172.16.3.2,5101,172.16.1.2,31422,10405,14480,0,65728,65700,6,6,4,1460,849,1,993,131,33580,0,65700,1448,0,0,0,0
i,0x00000000,1716792269.019152,172.16.3.2,5101,172.16.1.2,31422,10405,14480,0,65728,65700,6,6,4,1460,849,1,992,131,33580,0,65700,0,0,0,0,0
i,0x00000000,1716792269.029609,172.16.3.2,5101,172.16.1.2,31422,10405,14480,0,65728,65700,6,6,4,1460,849,1,992,131,33580,0,65700,0,0,0,0,0
o,0x00000000,1716792269.029620,172.16.3.2,5101,172.16.1.2,31422,10405,14480,0,65728,65700,6,6,4,1460,849,1,993,131,33580,0,65700,1448,0,0,0,0
i,0x00000000,1716792269.048660,172.16.3.2,5101,172.16.1.2,31422,10405,14480,0,65728,65700,6,6,4,1460,849,1,992,131,33580,0,65700,0,0,0,0,0
i,0x00000000,1716792269.058964,172.16.3.2,5101,172.16.1.2,31422,10405,14480,0,65728,65700,6,6,4,1460,849,1,992,131,33580,0,65700,0,0,0,0,0
o,0x00000000,1716792269.058972,172.16.3.2,5101,172.16.1.2,31422,10405,14480,0,65728,65700,6,6,4,1460,849,1,993,131,33580,0,65700,1448,0,0,0,0
i,0x00000000,1716792269.070041,172.16.3.2,5101,172.16.1.2,31422,10405,14480,0,65728,65700,6,6,4,1460,849,1,992,131,33580,0,65700,0,0,0,0,0
i,0x00000000,1716792269.079496,172.16.3.2,5101,172.16.1.2,31422,10405,14480,0,65728,65700,6,6,4,1460,849,1,992,131,33580,0,65700,0,0,0,0,0
o,0x00000000,1716792269.079502,172.16.3.2,5101,172.16.1.2,31422,10405,14480,0,65728,65700,6,6,4,1460,849,1,993,131,33580,0,65700,1448,0,0,0,0
i,0x00000000,1716792269.090085,172.16.3.2,5101,172.16.1.2,31422,10405,14480,0,65728,65700,6,6,4,1460,849,1,992,131,33580,0,65700,0,0,0,0,0
i,0x00000000,1716792269.108990,172.16.3.2,5101,172.16.1.2,31422,10405,14480,0,65728,65700,6,6,4,1460,849,1,992,131,33580,0,65700,0,0,0,0,0
o,0x00000000,1716792269.109004,172.16.3.2,5101,172.16.1.2,31422,10405,14480,0,65728,65700,6,6,4,1460,849,1,993,131,33580,0,65700,1448,0,0,0,0
i,0x00000000,1716792269.119771,172.16.3.2,5101,172.16.1.2,31422,10405,14480,0,65728,65700,6,6,4,1460,849,1,992,131,33580,0,65700,0,0,0,0,0
i,0x00000000,1716792269.129705,172.16.3.2,5101,172.16.1.2,31422,10405,14480,0,65728,65700,6,6,4,1460,849,1,992,131,33580,0,65700,0,0,0,0,0
o,0x00000000,1716792269.129713,172.16.3.2,5101,172.16.1.2,31422,10405,14480,0,65728,65700,6,6,4,1460,849,1,993,131,33580,0,65700,1448,0,0,0,0
i,0x00000000,1716792269.139927,172.16.3.2,5101,172.16.1.2,31422,10405,14480,0,65728,65700,6,6,4,1460,849,1,992,131,33580,0,65700,0,0,0,0,0
o,0x00000000,1716792269.179229,172.16.3.2,5101,172.16.1.2,31422,10405,14480,0,65728,65700,6,6,4,1460,849,1,993,131,33580,0,65700,0,0,0,0,0
i,0x00000000,1716792269.209882,172.16.3.2,5101,172.16.1.2,31422,10405,14480,0,65728,65700,6,6,4,1460,849,1,992,131,33580,0,65700,0,0,0,0,0
i,0x00000000,1716792269.219741,172.16.3.2,5101,172.16.1.2,31422,10405,14480,0,65728,65700,6,6,4,1460,849,1,992,131,33580,0,65700,0,0,0,0,0
o,0x00000000,1716792269.219754,172.16.3.2,5101,172.16.1.2,31422,10405,14480,0,65728,65700,6,6,4,1460,849,1,993,131,33580,0,65700,1448,0,0,0,0
i,0x00000000,1716792269.379241,172.16.3.2,5101,172.16.1.2,31422,10405,14480,0,65728,65700,6,6,4,1460,849,1,992,131,33580,0,65700,0,0,0,0,0
i,0x00000000,1716792269.389571,172.16.3.2,5101,172.16.1.2,31422,10405,14480,0,65728,65700,6,6,4,1460,849,1,992,131,33580,0,65700,0,0,0,0,0
o,0x00000000,1716792269.389584,172.16.3.2,5101,172.16.1.2,31422,10405,14480,0,65728,65700,6,6,4,1460,849,1,993,131,33580,0,65700,1448,0,0,0,0
i,0x00000000,1716792269.469305,172.16.3.2,5101,172.16.1.2,31422,10405,14480,0,65728,65700,6,6,4,1460,849,1,992,131,33580,0,65700,0,0,0,0,0
i,0x00000000,1716792269.490144,172.16.3.2,5101,172.16.1.2,31422,10405,14480,0,65728,65700,6,6,4,1460,849,1,992,131,33580,0,65700,0,0,0,0,0
o,0x00000000,1716792269.490159,172.16.3.2,5101,172.16.1.2,31422,10405,14480,0,65728,65700,6,6,4,1460,849,1,993,131,33580,0,65700,1448,0,0,0,0
i,0x00000000,1716792269.499633,172.16.3.2,5101,172.16.1.2,31422,10405,14480,0,65728,65700,6,6,4,1460,849,1,992,131,33580,0,65700,0,0,0,0,0
i,0x00000000,1716792269.510081,172.16.3.2,5101,172.16.1.2,31422,10405,14480,0,65728,65700,6,6,4,1460,849,1,992,131,33580,0,65700,0,0,0,0,0
o,0x00000000,1716792269.510088,172.16.3.2,5101,172.16.1.2,31422,10405,14480,0,65728,65700,6,6,4,1460,849,1,993,131,33580,0,65700,1448,0,0,0,0
i,0x00000000,1716792269.520654,172.16.3.2,5101,172.16.1.2,31422,10405,14480,0,65728,65700,6,6,4,1460,849,1,992,131,33580,0,65700,0,0,0,0,0
i,0x00000000,1716792269.529919,172.16.3.2,5101,172.16.1.2,31422,10405,14480,0,65728,65700,6,6,4,1460,849,1,992,131,33580,0,65700,0,0,0,0,0
o,0x00000000,1716792269.529927,172.16.3.2,5101,172.16.1.2,31422,10405,14480,0,65728,65700,6,6,4,1460,849,1,993,131,33580,0,65700,1448,0,0,0,0
i,0x00000000,1716792269.549623,172.16.3.2,5101,172.16.1.2,31422,10405,14480,0,65728,65700,6,6,4,1460,849,1,992,131,33580,0,65700,0,0,0,0,0
i,0x00000000,1716792269.559885,172.16.3.2,5101,172.16.1.2,31422,10405,14480,0,65728,65700,6,6,4,1460,849,1,992,131,33580,0,65700,0,0,0,0,0
o,0x00000000,1716792269.559894,172.16.3.2,5101,172.16.1.2,31422,10405,14480,0,65728,65700,6,6,4,1460,849,1,993,131,33580,0,65700,1448,0,0,0,0
i,0x00000000,1716792269.570660,172.16.3.2,5101,172.16.1.2,31422,10405,14480,0,65728,65700,6,6,4,1460,849,1,992,131,33580,0,65700,0,0,0,0,0
i,0x00000000,1716792269.580254,172.16.3.2,5101,172.16.1.2,31422,10405,14480,0,65728,65700,6,6,4,1460,849,1,992,131,33580,0,65700,0,0,0,0,0
o,0x00000000,1716792269.580261,172.16.3.2,5101,172.16.1.2,31422,10405,14480,0,65728,65700,6,6,4,1460,849,1,993,131,33580,0,65700,1448,0,0,0,0
i,0x00000000,1716792269.590847,172.16.3.2,5101,172.16.1.2,31422,10405,14480,0,65728,65700,6,6,4,1460,849,1,992,131,33580,0,65700,0,0,0,0,0
i,0x00000000,1716792269.609955,172.16.3.2,5101,172.16.1.2,31422,10405,14480,0,65728,65700,6,6,4,1460,849,1,992,131,33580,0,65700,0,0,0,0,0
o,0x00000000,1716792269.609964,172.16.3.2,5101,172.16.1.2,31422,10405,14480,0,65728,65700,6,6,4,1460,849,1,993,131,33580,0,65700,1448,0,0,0,0
i,0x00000000,1716792269.619570,172.16.3.2,5101,172.16.1.2,31422,10405,14480,0,65728,65700,6,6,4,1460,849,1,992,131,33580,0,65700,0,0,0,0,0
i,0x00000000,1716792269.629771,172.16.3.2,5101,172.16.1.2,31422,10405,14480,0,65728,65700,6,6,4,1460,849,1,992,131,33580,0,65700,0,0,0,0,0
o,0x00000000,1716792269.629777,172.16.3.2,5101,172.16.1.2,31422,10405,14480,0,65728,65700,6,6,4,1460,849,1,993,131,33580,0,65700,1448,0,0,0,0
i,0x00000000,1716792269.640278,172.16.3.2,5101,172.16.1.2,31422,10405,14480,0,65728,65700,6,6,4,1460,849,1,992,131,33580,0,65700,0,0,0,0,0
i,0x00000000,1716792269.659169,172.16.3.2,5101,172.16.1.2,31422,10405,14480,0,65728,65700,6,6,4,1460,849,1,992,131,33580,0,65700,0,0,0,0,0
o,0x00000000,1716792269.659179,172.16.3.2,5101,172.16.1.2,31422,10405,14480,0,65728,65700,6,6,4,1460,849,1,993,131,33580,0,65700,1448,0,0,0,0
i,0x00000000,1716792269.669583,172.16.3.2,5101,172.16.1.2,31422,10405,14480,0,65728,65700,6,6,4,1460,849,1,992,131,33580,0,65700,0,0,0,0,0
i,0x00000000,1716792269.680342,172.16.3.2,5101,172.16.1.2,31422,10405,14480,0,65728,65700,6,6,4,1460,849,1,992,131,33580,0,65700,0,0,0,0,0
o,0x00000000,1716792269.680351,172.16.3.2,5101,172.16.1.2,31422,10405,14480,0,65728,65700,6,6,4,1460,849,1,993,131,33580,0,65700,1448,0,0,0,0
i,0x00000000,1716792269.770680,172.16.3.2,5101,172.16.1.2,31422,10405,14480,0,65728,65700,6,6,4,1460,849,1,992,131,33580,0,65700,0,0,0,0,0
i,0x00000000,1716792269.780028,172.16.3.2,5101,172.16.1.2,31422,10405,14480,0,65728,65700,6,6,4,1460,849,1,992,131,33580,0,65700,0,0,0,0,0
o,0x00000000,1716792269.780042,172.16.3.2,5101,172.16.1.2,31422,10405,14480,0,65728,65700,6,6,4,1460,849,1,993,131,33580,0,65700,1448,0,0,0,0
i,0x00000000,1716792269.789789,172.16.3.2,5101,172.16.1.2,31422,10405,14480,0,65728,65700,6,6,4,1460,849,1,992,131,33580,0,65700,0,0,0,0,0
o,0x00000000,1716792269.799658,10.0.2.15,22,10.0.2.2,60131,1073725440,14600,0,65535,65700,0,0,4,1460,1,0,4,24,33580,108,65700,0,0,0,0,0
i,0x00000000,1716792269.800524,10.0.2.15,22,10.0.2.2,60131,1073725440,14600,0,65535,65700,0,0,4,1460,1,0,4,24,33580,108,65700,0,108,0,0,0
o,0x00000000,1716792269.829024,172.16.3.2,5101,172.16.1.2,31422,10405,14480,0,65728,65700,6,6,4,1460,849,1,993,131,33580,0,65700,0,0,0,0,0
i,0x00000000,1716792269.951572,172.16.3.2,5101,172.16.1.2,31422,10405,14480,0,65728,65700,6,6,4,1460,849,1,992,131,33580,0,65700,0,0,0,0,0
i,0x00000000,1716792269.960479,172.16.3.2,5101,172.16.1.2,31422,10405,14480,0,65728,65700,6,6,4,1460,849,1,992,131,33580,0,65700,0,0,0,0,0
o,0x00000000,1716792269.960505,172.16.3.2,5101,172.16.1.2,31422,10405,14480,0,65728,65700,6,6,4,1460,849,1,993,131,33580,0,65700,1448,0,0,0,0
i,0x00000000,1716792269.981134,172.16.3.2,5101,172.16.1.2,31422,10405,14480,0,65728,65700,6,6,4,1460,849,1,992,131,33580,0,65700,0,0,0,0,0
o,0x00000000,1716792270.019446,172.16.3.2,5101,172.16.1.2,31422,10405,14480,0,65728,65700,6,6,4,1460,849,1,993,131,33580,0,65700,0,0,0,0,0
i,0x00000000,1716792270.062647,172.16.3.2,5101,172.16.1.2,31422,10405,14480,0,65728,65700,6,6,4,1460,849,1,992,131,33580,0,65700,0,0,0,0,0
i,0x00000000,1716792270.070840,172.16.3.2,5101,172.16.1.2,31422,10405,14480,0,65728,65700,6,6,4,1460,849,1,992,131,33580,0,65700,0,0,0,0,0
o,0x00000000,1716792270.070869,172.16.3.2,5101,172.16.1.2,31422,10405,14480,0,65728,65700,6,6,4,1460,849,1,993,131,33580,0,65700,1448,0,0,0,0
i,0x00000000,1716792270.081004,172.16.3.2,5101,172.16.1.2,31422,10405,14480,0,65728,65700,6,6,4,1460,849,1,992,131,33580,0,65700,0,0,0,0,0
i,0x00000000,1716792270.100491,172.16.3.2,5101,172.16.1.2,31422,10405,14480,0,65728,65700,6,6,4,1460,849,1,992,131,33580,0,65700,0,0,0,0,0
o,0x00000000,1716792270.100591,172.16.3.2,5101,172.16.1.2,31422,10405,14480,0,65728,65700,6,6,4,1460,849,1,993,131,33580,0,65700,1448,0,0,0,0
i,0x00000000,1716792270.110123,172.16.3.2,5101,172.16.1.2,31422,10405,14480,0,65728,65700,6,6,4,1460,849,1,992,131,33580,0,65700,0,0,0,0,0
i,0x00000000,1716792270.121505,172.16.3.2,5101,172.16.1.2,31422,10405,14480,0,65728,65700,6,6,4,1460,849,1,992,131,33580,0,65700,0,0,0,0,0
o,0x00000000,1716792270.121613,172.16.3.2,5101,172.16.1.2,31422,10405,14480,0,65728,65700,6,6,4,1460,849,1,993,131,33580,0,65700,1448,0,0,0,0
i,0x00000000,1716792270.130564,172.16.3.2,5101,172.16.1.2,31422,10405,14480,0,65728,65700,6,6,4,1460,849,1,992,131,33580,0,65700,0,0,0,0,0
i,0x00000000,1716792270.142191,172.16.3.2,5101,172.16.1.2,31422,10405,14480,0,65728,65700,6,6,4,1460,849,1,992,131,33580,0,65700,0,0,0,0,0
o,0x00000000,1716792270.142322,172.16.3.2,5101,172.16.1.2,31422,10405,14480,0,65728,65700,6,6,4,1460,849,1,993,131,33580,0,65700,1448,0,0,0,0
i,0x00000000,1716792270.160591,172.16.3.2,5101,172.16.1.2,31422,10405,14480,0,65728,65700,6,6,4,1460,849,1,992,131,33580,0,65700,0,0,0,0,0
i,0x00000000,1716792270.172239,172.16.3.2,5101,172.16.1.2,31422,10405,14480,0,65728,65700,6,6,4,1460,849,1,992,131,33580,0,65700,0,0,0,0,0
o,0x00000000,1716792270.172364,172.16.3.2,5101,172.16.1.2,31422,10405,14480,0,65728,65700,6,6,4,1460,849,1,993,131,33580,0,65700,1448,0,0,0,0
i,0x00000000,1716792270.180646,172.16.3.2,5101,172.16.1.2,31422,10405,14480,0,65728,65700,6,6,4,1460,849,1,992,131,33580,0,65700,0,0,0,0,0
i,0x00000000,1716792270.192459,172.16.3.2,5101,172.16.1.2,31422,10405,14480,0,65728,65700,6,6,4,1460,849,1,992,131,33580,0,65700,0,0,0,0,0
o,0x00000000,1716792270.192617,172.16.3.2,5101,172.16.1.2,31422,10405,14480,0,65728,65700,6,6,4,1460,849,1,993,131,33580,0,65700,1448,0,0,0,0
i,0x00000000,1716792270.200948,172.16.3.2,5101,172.16.1.2,31422,10405,14480,0,65728,65700,6,6,4,1460,849,1,992,131,33580,0,65700,0,0,0,0,0
i,0x00000000,1716792270.222466,172.16.3.2,5101,172.16.1.2,31422,10405,14480,0,65728,65700,6,6,4,1460,849,1,992,131,33580,0,65700,0,0,0,0,0
o,0x00000000,1716792270.222613,172.16.3.2,5101,172.16.1.2,31422,10405,14480,0,65728,65700,6,6,4,1460,849,1,993,131,33580,0,65700,1448,0,0,0,0
i,0x00000000,1716792270.231321,172.16.3.2,5101,172.16.1.2,31422,10405,14480,0,65728,65700,6,6,4,1460,849,1,992,131,33580,0,65700,0,0,0,0,0
i,0x00000000,1716792270.241441,172.16.3.2,5101,172.16.1.2,31422,10405,14480,0,65728,65700,6,6,4,1460,849,1,992,131,33580,0,65700,0,0,0,0,0
o,0x00000000,1716792270.241598,172.16.3.2,5101,172.16.1.2,31422,10405,14480,0,65728,65700,6,6,4,1460,849,1,993,131,33580,0,65700,1448,0,0,0,0
i,0x00000000,1716792270.250300,172.16.3.2,5101,172.16.1.2,31422,10405,14480,0,65728,65700,6,6,4,1460,849,1,992,131,33580,0,65700,0,0,0,0,0
i,0x00000000,1716792270.272028,172.16.3.2,5101,172.16.1.2,31422,10405,14480,0,65728,65700,6,6,4,1460,849,1,992,131,33580,0,65700,0,0,0,0,0
o,0x00000000,1716792270.272197,172.16.3.2,5101,172.16.1.2,31422,10405,14480,0,65728,65700,6,6,4,1460,849,1,993,131,33580,0,65700,1448,0,0,0,0
i,0x00000000,1716792270.350976,172.16.3.2,5101,172.16.1.2,31422,10405,14480,0,65728,65700,6,6,4,1460,849,1,992,131,33580,0,65700,0,0,0,0,0
i,0x00000000,1716792270.361782,172.16.3.2,5101,172.16.1.2,31422,10405,14480,0,65728,65700,6,6,4,1460,849,1,992,131,33580,0,65700,0,0,0,0,0
o,0x00000000,1716792270.361922,172.16.3.2,5101,172.16.1.2,31422,10405,14480,0,65728,65700,6,6,4,1460,849,1,993,131,33580,0,65700,1448,0,0,0,0
i,0x00000000,1716792270.562845,172.16.3.2,5101,172.16.1.2,31422,10405,14480,0,65728,65700,6,6,4,1460,849,1,992,131,33580,0,65700,0,0,0,0,0
i,0x00000000,1716792270.572535,172.16.3.2,5101,172.16.1.2,31422,10405,14480,0,65728,65700,6,6,4,1460,849,1,992,131,33580,0,65700,0,0,0,0,0
o,0x00000000,1716792270.572620,172.16.3.2,5101,172.16.1.2,31422,10405,14480,0,65728,65700,6,6,4,1460,849,1,993,131,33580,0,65700,1448,0,0,0,0
i,0x00000000,1716792270.590805,172.16.3.2,5101,172.16.1.2,31422,10405,14480,0,65728,65700,6,6,4,1460,849,1,992,131,33580,0,65700,0,0,0,0,0
i,0x00000000,1716792270.621943,172.16.3.2,5101,172.16.1.2,31422,10405,14480,0,65728,65700,6,6,4,1460,849,1,992,131,33580,0,65700,0,0,0,0,0
o,0x00000000,1716792270.622125,172.16.3.2,5101,172.16.1.2,31422,10405,14480,0,65728,65700,6,6,4,1460,849,1,993,131,33580,0,65700,1448,0,0,0,0
i,0x00000000,1716792270.632562,172.16.3.2,5101,172.16.1.2,31422,10405,14480,0,65728,65700,6,6,4,1460,849,1,992,131,33580,0,65700,0,0,0,0,0
i,0x00000000,1716792270.652351,172.16.3.2,5101,172.16.1.2,31422,10405,14480,0,65728,65700,6,6,4,1460,849,1,992,131,33580,0,65700,0,0,0,0,0
o,0x00000000,1716792270.652470,172.16.3.2,5101,172.16.1.2,31422,10405,14480,0,65728,65700,6,6,4,1460,849,1,993,131,33580,0,65700,1448,0,0,0,0
i,0x00000000,1716792270.662074,172.16.3.2,5101,172.16.1.2,31422,10405,14480,0,65728,65700,6,6,4,1460,849,1,992,131,33580,0,65700,0,0,0,0,0
i,0x00000000,1716792270.691119,172.16.3.2,5101,172.16.1.2,31422,10405,14480,0,65728,65700,6,6,4,1460,849,1,992,131,33580,0,65700,0,0,0,0,0
o,0x00000000,1716792270.691229,172.16.3.2,5101,172.16.1.2,31422,10405,14480,0,65728,65700,6,6,4,1460,849,1,993,131,33580,0,65700,1448,0,0,0,0
i,0x00000000,1716792270.713338,172.16.3.2,5101,172.16.1.2,31422,10405,14480,0,65728,65700,6,6,4,1460,849,1,992,131,33580,0,65700,0,0,0,0,0
i,0x00000000,1716792270.721062,172.16.3.2,5101,172.16.1.2,31422,10405,14480,0,65728,65700,6,6,4,1460,849,1,992,131,33580,0,65700,0,0,0,0,0
o,0x00000000,1716792270.721092,172.16.3.2,5101,172.16.1.2,31422,10405,14480,0,65728,65700,6,6,4,1460,849,1,993,131,33580,0,65700,1448,0,0,0,0
i,0x00000000,1716792270.731538,172.16.3.2,5101,172.16.1.2,31422,10405,14480,0,65728,65700,6,6,4,1460,849,1,992,131,33580,0,65700,0,0,0,0,0
i,0x00000000,1716792270.743643,172.16.3.2,5101,172.16.1.2,31422,10405,14480,0,65728,65700,6,6,4,1460,849,1,992,131,33580,0,65700,0,0,0,0,0
o,0x00000000,1716792270.743813,172.16.3.2,5101,172.16.1.2,31422,10405,14480,0,65728,65700,6,6,4,1460,849,1,993,131,33580,0,65700,1448,0,0,0,0
i,0x00000000,1716792270.751831,172.16.3.2,5101,172.16.1.2,31422,10405,14480,0,65728,65700,6,6,4,1460,849,1,992,131,33580,0,65700,0,0,0,0,0
i,0x00000000,1716792270.771984,172.16.3.2,5101,172.16.1.2,31422,10405,14480,0,65728,65700,6,6,4,1460,849,1,992,131,33580,0,65700,0,0,0,0,0
o,0x00000000,1716792270.772078,172.16.3.2,5101,172.16.1.2,31422,10405,14480,0,65728,65700,6,6,4,1460,849,1,993,131,33580,0,65700,1448,0,0,0,0
i,0x00000000,1716792270.781323,172.16.3.2,5101,172.16.1.2,31422,10405,14480,0,65728,65700,6,6,4,1460,849,1,992,131,33580,0,65700,0,0,0,0,0
i,0x00000000,1716792270.791837,172.16.3.2,5101,172.16.1.2,31422,10405,14480,0,65728,65700,6,6,4,1460,849,1,992,131,33580,0,65700,0,0,0,0,0
o,0x00000000,1716792270.791921,172.16.3.2,5101,172.16.1.2,31422,10405,14480,0,65728,65700,6,6,4,1460,849,1,993,131,33580,0,65700,1448,0,0,0,0
o,0x00000000,1716792270.800666,10.0.2.15,22,10.0.2.2,60131,1073725440,14600,0,65535,65700,0,0,4,1460,1,0,4,24,33580,108,65700,0,0,0,0,0
i,0x00000000,1716792270.802706,10.0.2.15,22,10.0.2.2,60131,1073725440,14600,0,65535,65700,0,0,4,1460,1,0,4,24,33580,108,65700,0,108,0,0,0
i,0x00000000,1716792270.802929,172.16.3.2,5101,172.16.1.2,31422,10405,14480,0,65728,65700,6,6,4,1460,849,1,992,131,33580,0,65700,0,0,0,0,0
i,0x00000000,1716792270.812574,172.16.3.2,5101,172.16.1.2,31422,10405,14480,0,65728,65700,6,6,4,1460,849,1,992,131,33580,0,65700,0,0,0,0,0
o,0x00000000,1716792270.812666,172.16.3.2,5101,172.16.1.2,31422,10405,14480,0,65728,65700,6,6,4,1460,849,1,993,131,33580,0,65700,1448,0,0,0,0
i,0x00000000,1716792270.832269,172.16.3.2,5101,172.16.1.2,31422,10405,14480,0,65728,65700,6,6,4,1460,849,1,992,131,33580,0,65700,0,0,0,0,0
i,0x00000000,1716792270.841690,172.16.3.2,5101,172.16.1.2,31422,10405,14480,0,65728,65700,6,6,4,1460,849,1,992,131,33580,0,65700,0,0,0,0,0
o,0x00000000,1716792270.841797,172.16.3.2,5101,172.16.1.2,31422,10405,14480,0,65728,65700,6,6,4,1460,849,1,993,131,33580,0,65700,1448,0,0,0,0
i,0x00000000,1716792270.851479,172.16.3.2,5101,172.16.1.2,31422,10405,14480,0,65728,65700,6,6,4,1460,849,1,992,131,33580,0,65700,0,0,0,0,0
i,0x00000000,1716792270.862174,172.16.3.2,5101,172.16.1.2,31422,10405,14480,0,65728,65700,6,6,4,1460,849,1,992,131,33580,0,65700,0,0,0,0,0
o,0x00000000,1716792270.862217,172.16.3.2,5101,172.16.1.2,31422,10405,14480,0,65728,65700,6,6,4,1460,849,1,993,131,33580,0,65700,1448,0,0,0,0
i,0x00000000,1716792270.881836,172.16.3.2,5101,172.16.1.2,31422,10405,14480,0,65728,65700,6,6,4,1460,849,1,992,131,33580,0,65700,0,0,0,0,0
o,0x00000000,1716792270.918989,172.16.3.2,5101,172.16.1.2,31422,10405,14480,0,65728,65700,6,6,4,1460,849,1,993,131,33580,0,65700,0,0,0,0,0
i,0x00000000,1716792270.943371,172.16.3.2,5101,172.16.1.2,31422,10405,14480,0,65728,65700,6,6,4,1460,849,1,992,131,33580,0,65700,0,0,0,0,0
i,0x00000000,1716792270.962753,172.16.3.2,5101,172.16.1.2,31422,10405,14480,0,65728,65700,6,6,4,1460,849,1,992,131,33580,0,65700,0,0,0,0,0
o,0x00000000,1716792270.962915,172.16.3.2,5101,172.16.1.2,31422,10405,14480,0,65728,65700,6,6,4,1460,849,1,993,131,33580,0,65700,1448,0,0,0,0
i,0x00000000,1716792271.172277,172.16.3.2,5101,172.16.1.2,31422,10405,14480,0,65728,65700,6,6,4,1460,849,1,992,131,33580,0,65700,0,0,0,0,0
i,0x00000000,1716792271.181766,172.16.3.2,5101,172.16.1.2,31422,10405,14480,0,65728,65700,6,6,4,1460,849,1,992,131,33580,0,65700,0,0,0,0,0
o,0x00000000,1716792271.181848,172.16.3.2,5101,172.16.1.2,31422,10405,14480,0,65728,65700,6,6,4,1460,849,1,993,131,33580,0,65700,1448,0,0,0,0
i,0x00000000,1716792271.221568,172.16.3.2,5101,172.16.1.2,31422,10405,14480,0,65728,65700,6,6,4,1460,849,1,992,131,33580,0,65700,0,0,0,0,0
i,0x00000000,1716792271.232652,172.16.3.2,5101,172.16.1.2,31422,10405,14480,0,65728,65700,6,6,4,1460,849,1,992,131,33580,0,65700,0,0,0,0,0
o,0x00000000,1716792271.232730,172.16.3.2,5101,172.16.1.2,31422,10405,14480,0,65728,65700,6,6,4,1460,849,1,993,131,33580,0,65700,1448,0,0,0,0
i,0x00000000,1716792271.251163,172.16.3.2,5101,172.16.1.2,31422,10405,14480,0,65728,65700,6,6,4,1460,849,1,992,131,33580,0,65700,0,0,0,0,0
i,0x00000000,1716792271.262917,172.16.3.2,5101,172.16.1.2,31422,10405,14480,0,65728,65700,6,6,4,1460,849,1,992,131,33580,0,65700,0,0,0,0,0
o,0x00000000,1716792271.262954,172.16.3.2,5101,172.16.1.2,31422,10405,14480,0,65728,65700,6,6,4,1460,849,1,993,131,33580,0,65700,1448,0,0,0,0
i,0x00000000,1716792271.273628,172.16.3.2,5101,172.16.1.2,31422,10405,14480,0,65728,65700,6,6,4,1460,849,1,992,131,33580,0,65700,0,0,0,0,0
o,0x00000000,1716792271.309244,172.16.3.2,5101,172.16.1.2,31422,10405,14480,0,65728,65700,6,6,4,1460,849,1,993,131,33580,0,65700,0,0,0,0,0
i,0x00000000,1716792271.311226,172.16.3.2,5101,172.16.1.2,31422,10405,14480,0,65728,65700,6,6,4,1460,849,1,992,131,33580,0,65700,0,0,0,0,0
i,0x00000000,1716792271.321871,172.16.3.2,5101,172.16.1.2,31422,10405,14480,0,65728,65700,6,6,4,1460,849,1,992,131,33580,0,65700,0,0,0,0,0
o,0x00000000,1716792271.321943,172.16.3.2,5101,172.16.1.2,31422,10405,14480,0,65728,65700,6,6,4,1460,849,1,993,131,33580,0,65700,1448,0,0,0,0
i,0x00000000,1716792271.333310,172.16.3.2,5101,172.16.1.2,31422,10405,14480,0,65728,65700,6,6,4,1460,849,1,992,131,33580,0,65700,0,0,0,0,0
i,0x00000000,1716792271.342674,172.16.3.2,5101,172.16.1.2,31422,10405,14480,0,65728,65700,6,6,4,1460,849,1,992,131,33580,0,65700,0,0,0,0,0
o,0x00000000,1716792271.342796,172.16.3.2,5101,172.16.1.2,31422,10405,14480,0,65728,65700,6,6,4,1460,849,1,993,131,33580,0,65700,1448,0,0,0,0
i,0x00000000,1716792271.353412,172.16.3.2,5101,172.16.1.2,31422,10405,14480,0,65728,65700,6,6,4,1460,849,1,992,131,33580,0,65700,0,0,0,0,0
i,0x00000000,1716792271.373190,172.16.3.2,5101,172.16.1.2,31422,10405,14480,0,65728,65700,6,6,4,1460,849,1,992,131,33580,0,65700,0,0,0,0,0
o,0x00000000,1716792271.373234,172.16.3.2,5101,172.16.1.2,31422,10405,14480,0,65728,65700,6,6,4,1460,849,1,993,131,33580,0,65700,1448,0,0,0,0
i,0x00000000,1716792271.381490,172.16.3.2,5101,172.16.1.2,31422,10405,14480,0,65728,65700,6,6,4,1460,849,1,992,131,33580,0,65700,0,0,0,0,0
i,0x00000000,1716792271.393270,172.16.3.2,5101,172.16.1.2,31422,10405,14480,0,65728,65700,6,6,4,1460,849,1,992,131,33580,0,65700,0,0,0,0,0
o,0x00000000,1716792271.393383,172.16.3.2,5101,172.16.1.2,31422,10405,14480,0,65728,65700,6,6,4,1460,849,1,993,131,33580,0,65700,1448,0,0,0,0
i,0x00000000,1716792271.402794,172.16.3.2,5101,172.16.1.2,31422,10405,14480,0,65728,65700,6,6,4,1460,849,1,992,131,33580,0,65700,0,0,0,0,0
i,0x00000000,1716792271.411388,172.16.3.2,5101,172.16.1.2,31422,10405,14480,0,65728,65700,6,6,4,1460,849,1,992,131,33580,0,65700,0,0,0,0,0
o,0x00000000,1716792271.411429,172.16.3.2,5101,172.16.1.2,31422,10405,14480,0,65728,65700,6,6,4,1460,849,1,993,131,33580,0,65700,1448,0,0,0,0
i,0x00000000,1716792271.431907,172.16.3.2,5101,172.16.1.2,31422,10405,14480,0,65728,65700,6,6,4,1460,849,1,992,131,33580,0,65700,0,0,0,0,0
i,0x00000000,1716792271.442246,172.16.3.2,5101,172.16.1.2,31422,10405,14480,0,65728,65700,6,6,4,1460,849,1,992,131,33580,0,65700,0,0,0,0,0
o,0x00000000,1716792271.442268,172.16.3.2,5101,172.16.1.2,31422,10405,14480,0,65728,65700,6,6,4,1460,849,1,993,131,33580,0,65700,1448,0,0,0,0
i,0x00000000,1716792271.451603,172.16.3.2,5101,172.16.1.2,31422,10405,14480,0,65728,65700,6,6,4,1460,849,1,992,131,33580,0,65700,0,0,0,0,0
i,0x00000000,1716792271.462914,172.16.3.2,5101,172.16.1.2,31422,10405,14480,0,65728,65700,6,6,4,1460,849,1,992,131,33580,0,65700,0,0,0,0,0
o,0x00000000,1716792271.463012,172.16.3.2,5101,172.16.1.2,31422,10405,14480,0,65728,65700,6,6,4,1460,849,1,993,131,33580,0,65700,1448,0,0,0,0
i,0x00000000,1716792271.482056,172.16.3.2,5101,172.16.1.2,31422,10405,14480,0,65728,65700,6,6,4,1460,849,1,992,131,33580,0,65700,0,0,0,0,0
i,0x00000000,1716792271.491698,172.16.3.2,5101,172.16.1.2,31422,10405,14480,0,65728,65700,6,6,4,1460,849,1,992,131,33580,0,65700,0,0,0,0,0
o,0x00000000,1716792271.491720,172.16.3.2,5101,172.16.1.2,31422,10405,14480,0,65728,65700,6,6,4,1460,849,1,993,131,33580,0,65700,1448,0,0,0,0
i,0x00000000,1716792271.571810,172.16.3.2,5101,172.16.1.2,31422,10405,14480,0,65728,65700,6,6,4,1460,849,1,992,131,33580,0,65700,0,0,0,0,0
o,0x00000000,1716792271.609219,172.16.3.2,5101,172.16.1.2,31422,10405,14480,0,65728,65700,6,6,4,1460,849,1,993,131,33580,0,65700,0,0,0,0,0
i,0x00000000,1716792271.642237,172.16.3.2,5101,172.16.1.2,31422,10405,14480,0,65728,65700,6,6,4,1460,849,1,992,131,33580,0,65700,0,0,0,0,0
i,0x00000000,1716792271.651738,172.16.3.2,5101,172.16.1.2,31422,10405,14480,0,65728,65700,6,6,4,1460,849,1,992,131,33580,0,65700,0,0,0,0,0
o,0x00000000,1716792271.651753,172.16.3.2,5101,172.16.1.2,31422,10405,14480,0,65728,65700,6,6,4,1460,849,1,993,131,33580,0,65700,1448,0,0,0,0
o,0x00000000,1716792271.799511,10.0.2.15,22,10.0.2.2,60131,1073725440,14600,0,65535,65700,0,0,4,1460,1,0,4,24,33580,108,65700,0,0,0,0,0
