enable_time_secs=1716940775	enable_time_usecs=334908	siftrver=1.2.4	hz=100	tcp_rtt_scale=32	sysname=FreeBSD	sysver=1301000	ipmode=4
o,0x00000000,1716940775.334962,10.0.2.15,22,10.0.2.2,61159,1073725440,17298,0,65535,65700,0,0,4,1460,1,0,4,24,33580,44,65700,0,0,0,0,0
o,0x00000000,1716940775.335069,10.0.2.15,22,10.0.2.2,61159,1073725440,17298,0,65535,65700,0,0,4,1460,1,0,4,24,33580,80,65700,0,44,0,0,0
o,0x00000000,1716940775.335528,10.0.2.15,22,10.0.2.2,61159,1073725440,17298,0,65535,65700,0,0,4,1460,1,0,4,24,33580,116,65700,0,80,0,0,0
o,0x00000000,1716940775.335802,10.0.2.15,22,10.0.2.2,61159,1073725440,17298,0,65535,65700,0,0,4,1460,1,0,4,24,33580,292,65700,0,116,0,0,0
i,0x00000000,1716940775.336731,10.0.2.15,22,10.0.2.2,61159,1073725440,17298,0,65535,65700,0,0,4,1460,1,0,4,24,33580,292,65700,0,292,0,0,0
i,0x00000000,1716940775.336735,10.0.2.15,22,10.0.2.2,61159,1073725440,17342,0,65535,65700,0,0,4,1460,1,0,4,23,33580,248,65700,0,248,0,0,0
i,0x00000000,1716940775.336735,10.0.2.15,22,10.0.2.2,61159,1073725440,17378,0,65535,65700,0,0,4,1460,1,0,4,23,33580,212,65700,0,212,0,0,0
i,0x00000000,1716940775.336736,10.0.2.15,22,10.0.2.2,61159,1073725440,17414,0,65535,65700,0,0,4,1460,1,0,4,23,33580,176,65700,0,176,0,0,0
i,0x00000000,1716940775.337619,10.0.2.15,22,10.0.2.2,61159,1073725440,17590,0,65535,65700,0,0,4,1460,1,0,4,23,33580,0,65700,0,0,0,0,0
i,0x00000000,1716940775.338431,10.0.2.15,22,10.0.2.2,61159,1073725440,17590,0,65535,65700,0,0,4,1460,1,0,4,23,33580,0,65700,0,0,0,0,0
o,0x00000000,1716940775.338435,10.0.2.15,22,10.0.2.2,61159,1073725440,17590,0,65535,65700,0,0,4,1460,1,0,5,23,33580,0,65700,60,0,0,0,0
i,0x00000000,1716940775.338513,10.0.2.15,22,10.0.2.2,61159,1073725440,17590,0,65535,65700,0,0,4,1460,1,0,4,23,33580,0,65700,60,0,0,0,0
o,0x00000000,1716940775.338517,10.0.2.15,22,10.0.2.2,61159,1073725440,17590,0,65535,65640,0,0,5,1460,1,0,7,23,33580,0,65700,60,0,0,0,0
o,0x00000000,1716940775.339215,10.0.2.15,22,10.0.2.2,61159,1073725440,17590,0,65535,65640,0,0,8,1460,1,0,4,23,33580,0,65700,0,0,0,0,0
i,0x00000000,1716940775.339802,10.0.2.15,22,10.0.2.2,61159,1073725440,17590,0,65535,65640,0,0,8,1460,1,0,20,23,33580,0,65700,0,1,0,0,0
i,0x00000000,1716940777.423366,10.0.2.15,22,10.0.2.2,61163,1073725440,14600,0,65535,65700,0,0,4,1460,1,0,0,27,33580,0,65700,0,0,0,0,0
o,0x00000000,1716940777.429250,10.0.2.15,22,10.0.2.2,61163,1073725440,14600,0,65535,65700,0,0,4,1460,1,0,0,27,33580,38,65700,41,0,0,0,0
i,0x00000000,1716940777.430033,10.0.2.15,22,10.0.2.2,61163,1073725440,14600,0,65535,65700,0,0,4,1460,1,0,0,27,33580,38,65700,0,38,0,0,0
o,0x00000000,1716940777.430556,10.0.2.15,22,10.0.2.2,61163,1073725440,14638,0,65535,65700,0,0,4,1460,1,0,0,23,33580,1056,65700,0,0,0,0,0
i,0x00000000,1716940777.431295,10.0.2.15,22,10.0.2.2,61163,1073725440,14638,0,65535,65700,0,0,4,1460,1,0,0,23,33580,1056,65700,0,1056,0,0,0
i,0x00000000,1716940777.431298,10.0.2.15,22,10.0.2.2,61163,1073725440,14638,0,65535,65700,0,0,4,1460,1,0,0,23,33580,1056,65700,1460,1056,0,0,0
o,0x00000000,1716940777.431301,10.0.2.15,22,10.0.2.2,61163,1073725440,14638,0,65535,65700,0,0,4,1460,1,0,1,23,33580,1056,65700,1536,1056,0,0,0
i,0x00000000,1716940777.431372,10.0.2.15,22,10.0.2.2,61163,1073725440,14638,0,65535,65700,0,0,4,1460,1,0,0,23,33580,1056,65700,1536,1056,0,0,0
i,0x00000000,1716940777.433920,10.0.2.15,22,10.0.2.2,61163,1073725440,15694,0,65535,65700,0,0,4,1460,1,0,0,24,33580,0,65700,0,0,0,0,0
o,0x00000000,1716940777.436685,10.0.2.15,22,10.0.2.2,61163,1073725440,15694,0,65535,65700,0,0,4,1460,1,0,0,24,33580,484,65700,0,0,0,0,0
i,0x00000000,1716940777.437366,10.0.2.15,22,10.0.2.2,61163,1073725440,15694,0,65535,65700,0,0,4,1460,1,0,0,24,33580,484,65700,0,484,0,0,0
i,0x00000000,1716940777.442085,10.0.2.15,22,10.0.2.2,61163,1073725440,16178,0,65535,65700,0,0,4,1460,1,0,0,24,33580,0,65700,0,0,0,0,0
i,0x00000000,1716940777.446291,10.0.2.15,22,10.0.2.2,61163,1073725440,16178,0,65535,65700,0,0,4,1460,1,0,0,24,33580,0,65700,0,0,0,0,0
o,0x00000000,1716940777.446296,10.0.2.15,22,10.0.2.2,61163,1073725440,16178,0,65535,65700,0,0,4,1460,1,0,1,24,33580,0,65700,44,0,0,0,0
o,0x00000000,1716940777.446435,10.0.2.15,22,10.0.2.2,61163,1073725440,16178,0,65535,65700,0,0,4,1460,1,0,0,24,33580,44,65700,0,0,0,0,0
i,0x00000000,1716940777.447221,10.0.2.15,22,10.0.2.2,61163,1073725440,16178,0,65535,65700,0,0,4,1460,1,0,0,24,33580,44,65700,0,44,0,0,0
i,0x00000000,1716940777.447604,10.0.2.15,22,10.0.2.2,61163,1073725440,16222,0,65535,65700,0,0,4,1460,1,0,0,24,33580,0,65700,0,0,0,0,0
o,0x00000000,1716940777.456839,10.0.2.15,22,10.0.2.2,61163,1073725440,16222,0,65535,65700,0,0,4,1460,1,0,0,24,33580,68,65700,0,0,0,0,0
i,0x00000000,1716940777.457364,10.0.2.15,22,10.0.2.2,61163,1073725440,16222,0,65535,65700,0,0,4,1460,1,0,0,24,33580,68,65700,0,68,0,0,0
i,0x00000000,1716940777.459754,10.0.2.15,22,10.0.2.2,61163,1073725440,16290,0,65535,65700,0,0,4,1460,1,0,0,24,33580,0,65700,0,0,0,0,0
o,0x00000000,1716940777.469758,10.0.2.15,22,10.0.2.2,61163,1073725440,16290,0,65535,65700,0,0,4,1460,1,0,0,24,33580,28,65700,0,0,0,0,0
i,0x00000000,1716940777.470411,10.0.2.15,22,10.0.2.2,61163,1073725440,16290,0,65535,65700,0,0,4,1460,1,0,0,24,33580,28,65700,0,28,0,0,0
i,0x00000000,1716940777.470949,10.0.2.15,22,10.0.2.2,61163,1073725440,16318,0,65535,65700,0,0,4,1460,1,0,0,24,33580,0,65700,0,0,0,0,0
o,0x00000000,1716940777.471579,10.0.2.15,22,10.0.2.2,61163,1073725440,16318,0,65535,65700,0,0,4,1460,1,0,0,24,33580,768,65700,112,0,0,0,0
i,0x00000000,1716940777.472360,10.0.2.15,22,10.0.2.2,61163,1073725440,16318,0,65535,65700,0,0,4,1460,1,0,0,24,33580,768,65700,112,768,0,0,0
o,0x00000000,1716940777.472455,10.0.2.15,22,10.0.2.2,61163,1073725440,17086,0,65535,65700,0,0,4,1460,1,0,0,24,33580,44,65700,0,0,0,0,0
i,0x00000000,1716940777.473112,10.0.2.15,22,10.0.2.2,61163,1073725440,17086,0,65535,65700,0,0,4,1460,1,0,0,24,33580,44,65700,0,44,0,0,0
i,0x00000000,1716940777.473749,10.0.2.15,22,10.0.2.2,61163,1073725440,17130,0,65535,65700,0,0,4,1460,1,0,0,24,33580,0,65700,0,0,0,0,0
o,0x00000000,1716940777.474033,10.0.2.15,22,10.0.2.2,61163,1073725440,17130,0,65535,65700,0,0,4,1460,1,0,4,24,33580,72,65700,0,0,0,0,0
i,0x00000000,1716940777.474701,10.0.2.15,22,10.0.2.2,61163,1073725440,17130,0,65535,65700,0,0,4,1460,1,0,4,24,33580,72,65700,0,72,0,0,0
o,0x00000000,1716940777.477035,10.0.2.15,22,10.0.2.2,61163,1073725440,17202,0,65535,65700,0,0,4,1460,1,0,4,24,33580,44,65700,0,0,0,0,0
i,0x00000000,1716940777.477696,10.0.2.15,22,10.0.2.2,61163,1073725440,17202,0,65535,65700,0,0,4,1460,1,0,4,24,33580,44,65700,0,44,0,0,0
o,0x00000000,1716940777.478176,10.0.2.15,22,10.0.2.2,61163,1073725440,17246,0,65535,65700,0,0,4,1460,1,0,4,24,33580,104,65700,0,0,0,0,0
i,0x00000000,1716940777.478826,10.0.2.15,22,10.0.2.2,61163,1073725440,17246,0,65535,65700,0,0,4,1460,1,0,4,24,33580,104,65700,0,104,0,0,0
o,0x00000000,1716940777.478883,10.0.2.15,22,10.0.2.2,61163,1073725440,17350,0,65535,65700,0,0,4,1460,1,0,4,24,33580,44,65700,0,0,0,0,0
i,0x00000000,1716940777.479345,10.0.2.15,22,10.0.2.2,61163,1073725440,17350,0,65535,65700,0,0,4,1460,1,0,4,24,33580,44,65700,0,44,0,0,0
o,0x00000000,1716940777.482199,10.0.2.15,22,10.0.2.2,61163,1073725440,17394,0,65535,65700,0,0,4,1460,1,0,4,24,33580,72,65700,0,0,0,0,0
i,0x00000000,1716940777.482881,10.0.2.15,22,10.0.2.2,61163,1073725440,17394,0,65535,65700,0,0,4,1460,1,0,4,24,33580,72,65700,0,72,0,0,0
i,0x00000000,1716940777.485186,10.0.2.15,22,10.0.2.2,61163,1073725440,17466,0,65535,65700,0,0,4,1460,1,0,4,24,33580,0,65700,0,0,0,0,0
i,0x00000000,1716940777.485189,10.0.2.15,22,10.0.2.2,61163,1073725440,17466,0,65535,65700,0,0,4,1460,1,0,4,24,33580,0,65700,96,0,0,0,0
o,0x00000000,1716940777.485193,10.0.2.15,22,10.0.2.2,61163,1073725440,17466,0,65535,65604,0,0,5,1460,1,0,5,24,33580,0,65700,96,0,0,0,0
o,0x00000000,1716940777.488607,10.0.2.15,22,10.0.2.2,61163,1073725440,17466,0,65535,65604,0,0,8,1460,1,0,4,24,33580,0,65700,0,0,0,0,0
i,0x00000000,1716940777.489296,10.0.2.15,22,10.0.2.2,61163,1073725440,17466,0,65535,65604,0,0,8,1460,1,0,20,24,33580,0,65700,0,1,0,0,0
i,0x00000000,1716940777.727981,172.16.3.2,5101,172.16.1.2,29264,9749,14480,0,65728,65700,6,6,4,1460,418,1,992,42,33580,0,65700,0,0,0,0,0
o,0x00000000,1716940777.728059,172.16.3.2,5101,172.16.1.2,29264,9749,14480,0,65728,65700,6,6,4,1460,418,1,996,42,33580,1,65700,0,0,0,0,0
i,0x00000000,1716940777.848565,172.16.3.2,5101,172.16.1.2,29264,9749,14480,0,65728,65700,6,6,4,1460,418,1,996,42,33580,1,65700,0,1,0,0,0
i,0x00000000,1716940777.848582,172.16.3.2,5101,172.16.1.2,29264,9749,14480,0,65728,65728,6,6,4,1460,414,1,996,40,33580,0,65700,4,0,0,0,0
o,0x00000000,1716940777.848590,172.16.3.2,5101,172.16.1.2,29264,9749,14480,0,65728,65728,6,6,4,1460,414,1,997,40,33580,0,65700,128,0,0,0,0
o,0x00000000,1716940777.848758,172.16.3.2,5101,172.16.1.2,29264,9749,14480,0,65728,65728,6,6,4,1460,414,1,996,40,33580,1,65700,0,0,0,0,0
o,0x00000000,1716940777.849246,10.0.2.15,22,10.0.2.2,62180,1073725440,14600,0,65535,65700,0,0,4,1460,1,0,4,24,33580,84,65700,0,0,0,0,0
i,0x00000000,1716940777.849985,10.0.2.15,22,10.0.2.2,62180,1073725440,14600,0,65535,65700,0,0,4,1460,1,0,4,24,33580,84,65700,0,84,0,0,0
i,0x00000000,1716940777.998325,172.16.3.2,5101,172.16.1.2,29264,9749,14480,0,65728,65728,6,6,4,1460,414,1,996,40,33580,1,65700,0,1,0,0,0
i,0x00000000,1716940778.088067,172.16.3.2,5101,172.16.1.2,62853,9749,14480,0,65728,65700,6,6,4,1460,418,1,992,42,33580,0,65700,0,0,0,0,0
o,0x00000000,1716940778.089721,172.16.3.2,5101,172.16.1.2,29264,9749,14480,0,65728,65728,6,6,4,1460,423,1,996,41,33580,1,65700,0,0,0,0,0
o,0x00000000,1716940778.090065,172.16.3.2,5101,172.16.1.2,29264,9749,14480,0,65728,65728,6,6,4,1460,423,1,996,41,33580,2,65700,0,1,0,0,0
o,0x00000000,1716940778.090250,10.0.2.15,22,10.0.2.2,62180,1073725440,14600,0,65535,65700,0,0,4,1460,1,0,4,24,33580,108,65700,0,0,0,0,0
i,0x00000000,1716940778.090959,10.0.2.15,22,10.0.2.2,62180,1073725440,14600,0,65535,65700,0,0,4,1460,1,0,4,24,33580,108,65700,0,108,0,0,0
o,0x00000000,1716940778.127312,172.16.3.2,5101,172.16.1.2,62853,9749,14480,0,65728,65700,6,6,4,1460,418,1,993,42,33580,0,65700,0,0,0,0,0
i,0x00000000,1716940778.208109,172.16.3.2,5101,172.16.1.2,29264,9749,14480,0,65728,65728,6,6,4,1460,423,1,996,41,33580,2,65700,0,2,0,0,0
i,0x00000000,1716940778.307573,172.16.3.2,5101,172.16.1.2,62853,9749,14480,0,65728,65700,6,6,4,1460,418,1,992,42,33580,0,65700,0,0,0,0,0
i,0x00000000,1716940778.317980,172.16.3.2,5101,172.16.1.2,62853,9749,14480,0,65728,65700,6,6,4,1460,418,1,992,42,33580,0,65700,0,0,0,0,0
o,0x00000000,1716940778.317997,172.16.3.2,5101,172.16.1.2,62853,9749,14480,0,65728,65700,6,6,4,1460,418,1,993,42,33580,0,65700,1448,0,0,0,0
i,0x00000000,1716940778.327483,172.16.3.2,5101,172.16.1.2,62853,9749,14480,0,65728,65700,6,6,4,1460,418,1,992,42,33580,0,65700,0,0,0,0,0
i,0x00000000,1716940778.337671,172.16.3.2,5101,172.16.1.2,62853,9749,14480,0,65728,65700,6,6,4,1460,418,1,992,42,33580,0,65700,0,0,0,0,0
o,0x00000000,1716940778.337678,172.16.3.2,5101,172.16.1.2,62853,9749,14480,0,65728,65700,6,6,4,1460,418,1,993,42,33580,0,65700,1448,0,0,0,0
i,0x00000000,1716940778.357652,172.16.3.2,5101,172.16.1.2,62853,9749,14480,0,65728,65700,6,6,4,1460,418,1,992,42,33580,0,65700,0,0,0,0,0
i,0x00000000,1716940778.367873,172.16.3.2,5101,172.16.1.2,62853,9749,14480,0,65728,65700,6,6,4,1460,418,1,992,42,33580,0,65700,0,0,0,0,0
o,0x00000000,1716940778.367884,172.16.3.2,5101,172.16.1.2,62853,9749,14480,0,65728,65700,6,6,4,1460,418,1,993,42,33580,0,65700,1448,0,0,0,0
i,0x00000000,1716940778.377306,172.16.3.2,5101,172.16.1.2,62853,9749,14480,0,65728,65700,6,6,4,1460,418,1,992,42,33580,0,65700,0,0,0,0,0
i,0x00000000,1716940778.388723,172.16.3.2,5101,172.16.1.2,62853,9749,14480,0,65728,65700,6,6,4,1460,418,1,992,42,33580,0,65700,0,0,0,0,0
o,0x00000000,1716940778.388743,172.16.3.2,5101,172.16.1.2,62853,9749,14480,0,65728,65700,6,6,4,1460,418,1,993,42,33580,0,65700,1448,0,0,0,0
i,0x00000000,1716940778.407542,172.16.3.2,5101,172.16.1.2,62853,9749,14480,0,65728,65700,6,6,4,1460,418,1,992,42,33580,0,65700,0,0,0,0,0
i,0x00000000,1716940778.418059,172.16.3.2,5101,172.16.1.2,62853,9749,14480,0,65728,65700,6,6,4,1460,418,1,992,42,33580,0,65700,0,0,0,0,0
o,0x00000000,1716940778.418079,172.16.3.2,5101,172.16.1.2,62853,9749,14480,0,65728,65700,6,6,4,1460,418,1,993,42,33580,0,65700,1448,0,0,0,0
i,0x00000000,1716940778.527095,172.16.3.2,5101,172.16.1.2,62853,9749,14480,0,65728,65700,6,6,4,1460,418,1,992,42,33580,0,65700,0,0,0,0,0
i,0x00000000,1716940778.537920,172.16.3.2,5101,172.16.1.2,62853,9749,14480,0,65728,65700,6,6,4,1460,418,1,992,42,33580,0,65700,0,0,0,0,0
o,0x00000000,1716940778.537930,172.16.3.2,5101,172.16.1.2,62853,9749,14480,0,65728,65700,6,6,4,1460,418,1,993,42,33580,0,65700,1448,0,0,0,0
i,0x00000000,1716940778.596988,172.16.3.2,5101,172.16.1.2,62853,9749,14480,0,65728,65700,6,6,4,1460,418,1,992,42,33580,0,65700,0,0,0,0,0
o,0x00000000,1716940778.637137,172.16.3.2,5101,172.16.1.2,62853,9749,14480,0,65728,65700,6,6,4,1460,418,1,993,42,33580,0,65700,0,0,0,0,0
i,0x00000000,1716940778.657425,172.16.3.2,5101,172.16.1.2,62853,9749,14480,0,65728,65700,6,6,4,1460,418,1,992,42,33580,0,65700,0,0,0,0,0
i,0x00000000,1716940778.666949,172.16.3.2,5101,172.16.1.2,62853,9749,14480,0,65728,65700,6,6,4,1460,418,1,992,42,33580,0,65700,0,0,0,0,0
o,0x00000000,1716940778.666961,172.16.3.2,5101,172.16.1.2,62853,9749,14480,0,65728,65700,6,6,4,1460,418,1,993,42,33580,0,65700,1448,0,0,0,0
i,0x00000000,1716940778.687755,172.16.3.2,5101,172.16.1.2,62853,9749,14480,0,65728,65700,6,6,4,1460,418,1,992,42,33580,0,65700,0,0,0,0,0
o,0x00000000,1716940778.727119,172.16.3.2,5101,172.16.1.2,62853,9749,14480,0,65728,65700,6,6,4,1460,418,1,993,42,33580,0,65700,0,0,0,0,0
i,0x00000000,1716940778.748106,172.16.3.2,5101,172.16.1.2,62853,9749,14480,0,65728,65700,6,6,4,1460,418,1,992,42,33580,0,65700,0,0,0,0,0
i,0x00000000,1716940778.756428,172.16.3.2,5101,172.16.1.2,62853,9749,14480,0,65728,65700,6,6,4,1460,418,1,992,42,33580,0,65700,0,0,0,0,0
o,0x00000000,1716940778.756439,172.16.3.2,5101,172.16.1.2,62853,9749,14480,0,65728,65700,6,6,4,1460,418,1,993,42,33580,0,65700,1448,0,0,0,0
i,0x00000000,1716940778.767810,172.16.3.2,5101,172.16.1.2,62853,9749,14480,0,65728,65700,6,6,4,1460,418,1,992,42,33580,0,65700,0,0,0,0,0
i,0x00000000,1716940778.776944,172.16.3.2,5101,172.16.1.2,62853,9749,14480,0,65728,65700,6,6,4,1460,418,1,992,42,33580,0,65700,0,0,0,0,0
o,0x00000000,1716940778.776958,172.16.3.2,5101,172.16.1.2,62853,9749,14480,0,65728,65700,6,6,4,1460,418,1,993,42,33580,0,65700,1448,0,0,0,0
i,0x00000000,1716940778.797776,172.16.3.2,5101,172.16.1.2,62853,9749,14480,0,65728,65700,6,6,4,1460,418,1,992,42,33580,0,65700,0,0,0,0,0
i,0x00000000,1716940778.807213,172.16.3.2,5101,172.16.1.2,62853,9749,14480,0,65728,65700,6,6,4,1460,418,1,992,42,33580,0,65700,0,0,0,0,0
o,0x00000000,1716940778.807234,172.16.3.2,5101,172.16.1.2,62853,9749,14480,0,65728,65700,6,6,4,1460,418,1,993,42,33580,0,65700,1448,0,0,0,0
i,0x00000000,1716940778.817508,172.16.3.2,5101,172.16.1.2,62853,9749,14480,0,65728,65700,6,6,4,1460,418,1,992,42,33580,0,65700,0,0,0,0,0
o,0x00000000,1716940778.857167,172.16.3.2,5101,172.16.1.2,62853,9749,14480,0,65728,65700,6,6,4,1460,418,1,993,42,33580,0,65700,0,0,0,0,0
i,0x00000000,1716940778.857328,172.16.3.2,5101,172.16.1.2,62853,9749,14480,0,65728,65700,6,6,4,1460,418,1,992,42,33580,0,65700,0,0,0,0,0
i,0x00000000,1716940778.867491,172.16.3.2,5101,172.16.1.2,62853,9749,14480,0,65728,65700,6,6,4,1460,418,1,992,42,33580,0,65700,0,0,0,0,0
o,0x00000000,1716940778.867498,172.16.3.2,5101,172.16.1.2,62853,9749,14480,0,65728,65700,6,6,4,1460,418,1,993,42,33580,0,65700,1448,0,0,0,0
i,0x00000000,1716940778.877186,172.16.3.2,5101,172.16.1.2,62853,9749,14480,0,65728,65700,6,6,4,1460,418,1,992,42,33580,0,65700,0,0,0,0,0
i,0x00000000,1716940778.887508,172.16.3.2,5101,172.16.1.2,62853,9749,14480,0,65728,65700,6,6,4,1460,418,1,992,42,33580,0,65700,0,0,0,0,0
o,0x00000000,1716940778.887514,172.16.3.2,5101,172.16.1.2,62853,9749,14480,0,65728,65700,6,6,4,1460,418,1,993,42,33580,0,65700,1448,0,0,0,0
i,0x00000000,1716940778.916780,172.16.3.2,5101,172.16.1.2,62853,9749,14480,0,65728,65700,6,6,4,1460,418,1,992,42,33580,0,65700,0,0,0,0,0
i,0x00000000,1716940778.927336,172.16.3.2,5101,172.16.1.2,62853,9749,14480,0,65728,65700,6,6,4,1460,418,1,992,42,33580,0,65700,0,0,0,0,0
o,0x00000000,1716940778.927344,172.16.3.2,5101,172.16.1.2,62853,9749,14480,0,65728,65700,6,6,4,1460,418,1,993,42,33580,0,65700,1448,0,0,0,0
i,0x00000000,1716940778.936701,172.16.3.2,5101,172.16.1.2,62853,9749,14480,0,65728,65700,6,6,4,1460,418,1,992,42,33580,0,65700,0,0,0,0,0
o,0x00000000,1716940778.977852,172.16.3.2,5101,172.16.1.2,62853,9749,14480,0,65728,65700,6,6,4,1460,418,1,993,42,33580,0,65700,0,0,0,0,0
i,0x00000000,1716940778.987476,172.16.3.2,5101,172.16.1.2,62853,9749,14480,0,65728,65700,6,6,4,1460,418,1,992,42,33580,0,65700,0,0,0,0,0
i,0x00000000,1716940779.025880,172.16.3.2,5101,172.16.1.2,62853,9749,14480,0,65728,65700,6,6,4,1460,418,1,992,42,33580,0,65700,0,0,0,0,0
o,0x00000000,1716940779.025900,172.16.3.2,5101,172.16.1.2,62853,9749,14480,0,65728,65700,6,6,4,1460,418,1,993,42,33580,0,65700,1448,0,0,0,0
o,0x00000000,1716940779.098264,10.0.2.15,22,10.0.2.2,62180,1073725440,14600,0,65535,65700,0,0,4,1460,1,0,4,24,33580,156,65700,0,0,0,0,0
i,0x00000000,1716940779.099119,10.0.2.15,22,10.0.2.2,62180,1073725440,14600,0,65535,65700,0,0,4,1460,1,0,4,24,33580,156,65700,0,156,0,0,0
i,0x00000000,1716940779.116509,172.16.3.2,5101,172.16.1.2,62853,9749,14480,0,65728,65700,6,6,4,1460,418,1,992,42,33580,0,65700,0,0,0,0,0
o,0x00000000,1716940779.116524,172.16.3.2,5101,172.16.1.2,62853,9749,14480,0,65728,65700,6,6,4,1460,418,1,993,42,33580,0,65700,0,0,1,0,0
i,0x00000000,1716940779.137186,172.16.3.2,5101,172.16.1.2,62853,9749,14480,0,65728,65700,6,6,4,1460,418,1,992,42,33580,0,65700,0,0,1,0,0
o,0x00000000,1716940779.137193,172.16.3.2,5101,172.16.1.2,62853,9749,14480,0,65728,65728,6,6,4,1460,418,1,993,42,33580,0,65700,0,0,1,0,0
i,0x00000000,1716940779.145741,172.16.3.2,5101,172.16.1.2,62853,9749,14480,0,65728,65728,6,6,4,1460,418,1,992,42,33580,0,65700,0,0,1,0,0
o,0x00000000,1716940779.145745,172.16.3.2,5101,172.16.1.2,62853,9749,14480,0,65728,65728,6,6,4,1460,418,1,993,42,33580,0,65700,0,0,1,0,0
i,0x00000000,1716940779.176783,172.16.3.2,5101,172.16.1.2,62853,9749,14480,0,65728,65728,6,6,4,1460,418,1,992,42,33580,0,65700,0,0,1,0,0
o,0x00000000,1716940779.176793,172.16.3.2,5101,172.16.1.2,62853,9749,14480,0,65728,65728,6,6,4,1460,418,1,993,42,33580,0,65700,0,0,1,0,0
i,0x00000000,1716940779.187183,172.16.3.2,5101,172.16.1.2,62853,9749,14480,0,65728,65728,6,6,4,1460,418,1,992,42,33580,0,65700,0,0,1,0,0
o,0x00000000,1716940779.187189,172.16.3.2,5101,172.16.1.2,62853,9749,14480,0,65728,65728,6,6,4,1460,418,1,993,42,33580,0,65700,0,0,1,0,0
i,0x00000000,1716940779.207011,172.16.3.2,5101,172.16.1.2,62853,9749,14480,0,65728,65728,6,6,4,1460,418,1,992,42,33580,0,65700,0,0,1,0,0
o,0x00000000,1716940779.207018,172.16.3.2,5101,172.16.1.2,62853,9749,14480,0,65728,65728,6,6,4,1460,418,1,993,42,33580,0,65700,0,0,2,0,0
i,0x00000000,1716940779.226456,172.16.3.2,5101,172.16.1.2,62853,9749,14480,0,65728,65728,6,6,4,1460,418,1,992,42,33580,0,65700,0,0,2,0,0
o,0x00000000,1716940779.226463,172.16.3.2,5101,172.16.1.2,62853,9749,14480,0,65728,65728,6,6,4,1460,418,1,993,42,33580,0,65700,0,0,2,0,0
i,0x00000000,1716940779.236673,172.16.3.2,5101,172.16.1.2,62853,9749,14480,0,65728,65728,6,6,4,1460,418,1,992,42,33580,0,65700,0,0,2,0,0
o,0x00000000,1716940779.236677,172.16.3.2,5101,172.16.1.2,62853,9749,14480,0,65728,65728,6,6,4,1460,418,1,993,42,33580,0,65700,0,0,2,0,0
i,0x00000000,1716940779.255672,172.16.3.2,5101,172.16.1.2,62853,9749,14480,0,65728,65728,6,6,4,1460,418,1,992,42,33580,0,65700,0,0,2,0,0
o,0x00000000,1716940779.255677,172.16.3.2,5101,172.16.1.2,62853,9749,14480,0,65728,65728,6,6,4,1460,418,1,993,42,33580,0,65700,0,0,2,0,0
i,0x00000000,1716940779.276411,172.16.3.2,5101,172.16.1.2,62853,9749,14480,0,65728,65728,6,6,4,1460,418,1,992,42,33580,0,65700,0,0,2,0,0
o,0x00000000,1716940779.276415,172.16.3.2,5101,172.16.1.2,62853,9749,14480,0,65728,65728,6,6,4,1460,418,1,993,42,33580,0,65700,0,0,2,0,0
i,0x00000000,1716940779.286818,172.16.3.2,5101,172.16.1.2,62853,9749,14480,0,65728,65728,6,6,4,1460,418,1,992,42,33580,0,65700,0,0,2,0,0
o,0x00000000,1716940779.286828,172.16.3.2,5101,172.16.1.2,62853,9749,14480,0,65728,65728,6,6,4,1460,418,1,993,42,33580,0,65700,8688,0,1,0,0
i,0x00000000,1716940779.346061,172.16.3.2,5101,172.16.1.2,62853,9749,14480,0,65728,65728,6,6,4,1460,418,1,992,42,33580,0,65700,0,0,1,0,0
o,0x00000000,1716940779.346079,172.16.3.2,5101,172.16.1.2,62853,9749,14480,0,65728,65700,6,6,4,1460,418,1,993,42,33580,0,65700,0,0,1,0,0
i,0x00000000,1716940779.366445,172.16.3.2,5101,172.16.1.2,62853,9749,14480,0,65728,65700,6,6,4,1460,418,1,992,42,33580,0,65700,0,0,1,0,0
o,0x00000000,1716940779.366467,172.16.3.2,5101,172.16.1.2,62853,9749,14480,0,65728,65728,6,6,4,1460,418,1,993,42,33580,0,65700,1448,0,1,0,0
i,0x00000000,1716940779.375997,172.16.3.2,5101,172.16.1.2,62853,9749,14480,0,65728,65728,6,6,4,1460,418,1,992,42,33580,0,65700,0,0,1,0,0
o,0x00000000,1716940779.376014,172.16.3.2,5101,172.16.1.2,62853,9749,14480,0,65728,65700,6,6,4,1460,418,1,993,42,33580,0,65700,8688,0,0,0,0
i,0x00000000,1716940779.385386,172.16.3.2,5101,172.16.1.2,62853,9749,14480,0,65728,65700,6,6,4,1460,418,1,992,42,33580,0,65700,0,0,0,0,0
o,0x00000000,1716940779.385390,172.16.3.2,5101,172.16.1.2,62853,9749,14480,0,65728,65700,6,6,4,1460,418,1,993,42,33580,0,65700,0,0,0,0,0
i,0x00000000,1716940779.425954,172.16.3.2,5101,172.16.1.2,62853,9749,14480,0,65728,65700,6,6,4,1460,418,1,992,42,33580,0,65700,0,0,0,0,0
i,0x00000000,1716940779.435482,172.16.3.2,5101,172.16.1.2,62853,9749,14480,0,65728,65728,6,6,4,1460,418,1,992,42,33580,0,65700,0,0,0,0,0
o,0x00000000,1716940779.435488,172.16.3.2,5101,172.16.1.2,62853,9749,14480,0,65728,65728,6,6,4,1460,418,1,993,42,33580,0,65700,0,0,0,0,0
i,0x00000000,1716940779.446523,172.16.3.2,5101,172.16.1.2,62853,9749,14480,0,65728,65728,6,6,4,1460,418,1,992,42,33580,0,65700,0,0,0,0,0
o,0x00000000,1716940779.446527,172.16.3.2,5101,172.16.1.2,62853,9749,14480,0,65728,65728,6,6,4,1460,418,1,993,42,33580,0,65700,0,0,0,0,0
i,0x00000000,1716940779.466467,172.16.3.2,5101,172.16.1.2,62853,9749,14480,0,65728,65728,6,6,4,1460,418,1,992,42,33580,0,65700,0,0,0,0,0
o,0x00000000,1716940779.466471,172.16.3.2,5101,172.16.1.2,62853,9749,14480,0,65728,65728,6,6,4,1460,418,1,993,42,33580,0,65700,0,0,0,0,0
i,0x00000000,1716940779.475488,172.16.3.2,5101,172.16.1.2,62853,9749,14480,0,65728,65728,6,6,4,1460,418,1,992,42,33580,0,65700,0,0,0,0,0
o,0x00000000,1716940779.475492,172.16.3.2,5101,172.16.1.2,62853,9749,14480,0,65728,65728,6,6,4,1460,418,1,993,42,33580,0,65700,0,0,0,0,0
i,0x00000000,1716940779.496530,172.16.3.2,5101,172.16.1.2,62853,9749,14480,0,65728,65728,6,6,4,1460,418,1,992,42,33580,0,65700,0,0,0,0,0
i,0x00000000,1716940779.585871,172.16.3.2,5101,172.16.1.2,62853,9749,14480,0,65728,65728,6,6,4,1460,418,1,992,42,33580,0,65700,0,0,0,0,0
o,0x00000000,1716940779.585895,172.16.3.2,5101,172.16.1.2,62853,9749,14480,0,65728,65728,6,6,4,1460,418,1,993,42,33580,0,65700,0,0,1,0,0
i,0x00000000,1716940779.596142,172.16.3.2,5101,172.16.1.2,62853,9749,14480,0,65728,65728,6,6,4,1460,418,1,992,42,33580,0,65700,0,0,1,0,0
o,0x00000000,1716940779.596149,172.16.3.2,5101,172.16.1.2,62853,9749,14480,0,65728,65728,6,6,4,1460,418,1,993,42,33580,0,65700,0,0,1,0,0
i,0x00000000,1716940779.606828,172.16.3.2,5101,172.16.1.2,62853,9749,14480,0,65728,65728,6,6,4,1460,418,1,992,42,33580,0,65700,0,0,1,0,0
o,0x00000000,1716940779.606845,172.16.3.2,5101,172.16.1.2,62853,9749,14480,0,65728,65728,6,6,4,1460,418,1,993,42,33580,0,65700,0,0,1,0,0
i,0x00000000,1716940779.795426,172.16.3.2,5101,172.16.1.2,62853,9749,14480,0,65728,65728,6,6,4,1460,418,1,992,42,33580,0,65700,0,0,1,0,0
o,0x00000000,1716940779.795449,172.16.3.2,5101,172.16.1.2,62853,9749,14480,0,65728,65728,6,6,4,1460,418,1,993,42,33580,0,65700,1448,0,1,0,0
i,0x00000000,1716940779.805917,172.16.3.2,5101,172.16.1.2,62853,9749,14480,0,65728,65728,6,6,4,1460,418,1,992,42,33580,0,65700,0,0,1,0,0
o,0x00000000,1716940779.805929,172.16.3.2,5101,172.16.1.2,62853,9749,14480,0,65728,65700,6,6,4,1460,418,1,993,42,33580,0,65700,1448,0,1,0,0
i,0x00000000,1716940779.816213,172.16.3.2,5101,172.16.1.2,62853,9749,14480,0,65728,65700,6,6,4,1460,418,1,992,42,33580,0,65700,0,0,1,0,0
o,0x00000000,1716940779.816220,172.16.3.2,5101,172.16.1.2,62853,9749,14480,0,65728,65700,6,6,4,1460,418,1,993,42,33580,0,65700,1448,0,1,0,0
i,0x00000000,1716940779.825659,172.16.3.2,5101,172.16.1.2,62853,9749,14480,0,65728,65700,6,6,4,1460,418,1,992,42,33580,0,65700,0,0,1,0,0
o,0x00000000,1716940779.825665,172.16.3.2,5101,172.16.1.2,62853,9749,14480,0,65728,65700,6,6,4,1460,418,1,993,42,33580,0,65700,1448,0,1,0,0
i,0x00000000,1716940779.845574,172.16.3.2,5101,172.16.1.2,62853,9749,14480,0,65728,65700,6,6,4,1460,418,1,992,42,33580,0,65700,0,0,1,0,0
o,0x00000000,1716940779.845580,172.16.3.2,5101,172.16.1.2,62853,9749,14480,0,65728,65700,6,6,4,1460,418,1,993,42,33580,0,65700,1448,0,1,0,0
i,0x00000000,1716940779.855939,172.16.3.2,5101,172.16.1.2,62853,9749,14480,0,65728,65700,6,6,4,1460,418,1,992,42,33580,0,65700,0,0,1,0,0
o,0x00000000,1716940779.855945,172.16.3.2,5101,172.16.1.2,62853,9749,14480,0,65728,65700,6,6,4,1460,418,1,993,42,33580,0,65700,1448,0,1,0,0
i,0x00000000,1716940779.865367,172.16.3.2,5101,172.16.1.2,62853,9749,14480,0,65728,65700,6,6,4,1460,418,1,992,42,33580,0,65700,0,0,1,0,0
o,0x00000000,1716940779.865373,172.16.3.2,5101,172.16.1.2,62853,9749,14480,0,65728,65700,6,6,4,1460,418,1,993,42,33580,0,65700,1448,0,1,0,0
i,0x00000000,1716940779.874929,172.16.3.2,5101,172.16.1.2,62853,9749,14480,0,65728,65700,6,6,4,1460,418,1,992,42,33580,0,65700,0,0,1,0,0
o,0x00000000,1716940779.874935,172.16.3.2,5101,172.16.1.2,62853,9749,14480,0,65728,65700,6,6,4,1460,418,1,993,42,33580,0,65700,1448,0,1,0,0
i,0x00000000,1716940779.886319,172.16.3.2,5101,172.16.1.2,62853,9749,14480,0,65728,65700,6,6,4,1460,418,1,992,42,33580,0,65700,0,0,1,0,0
o,0x00000000,1716940779.886324,172.16.3.2,5101,172.16.1.2,62853,9749,14480,0,65728,65700,6,6,4,1460,418,1,993,42,33580,0,65700,1448,0,1,0,0
i,0x00000000,1716940779.906185,172.16.3.2,5101,172.16.1.2,62853,9749,14480,0,65728,65700,6,6,4,1460,418,1,992,42,33580,0,65700,0,0,1,0,0
o,0x00000000,1716940779.906194,172.16.3.2,5101,172.16.1.2,62853,9749,14480,0,65728,65700,6,6,4,1460,418,1,993,42,33580,0,65700,1448,0,1,0,0
i,0x00000000,1716940780.085852,172.16.3.2,5101,172.16.1.2,62853,9749,14480,0,65728,65700,6,6,4,1460,418,1,992,42,33580,0,65700,0,0,1,0,0
o,0x00000000,1716940780.085868,172.16.3.2,5101,172.16.1.2,62853,9749,14480,0,65728,65700,6,6,4,1460,418,1,993,42,33580,0,65700,0,0,1,0,0
i,0x00000000,1716940780.095262,172.16.3.2,5101,172.16.1.2,62853,9749,14480,0,65728,65700,6,6,4,1460,418,1,992,42,33580,0,65700,0,0,1,0,0
o,0x00000000,1716940780.095272,172.16.3.2,5101,172.16.1.2,62853,9749,14480,0,65728,65728,6,6,4,1460,418,1,993,42,33580,0,65700,0,0,1,0,0
i,0x00000000,1716940780.104684,172.16.3.2,5101,172.16.1.2,62853,9749,14480,0,65728,65728,6,6,4,1460,418,1,992,42,33580,0,65700,0,0,1,0,0
o,0x00000000,1716940780.104709,172.16.3.2,5101,172.16.1.2,62853,9749,14480,0,65728,65728,6,6,4,1460,418,1,993,42,33580,0,65700,0,0,1,0,0
o,0x00000000,1716940780.108263,10.0.2.15,22,10.0.2.2,62180,1073725440,14600,0,65535,65700,0,0,4,1460,1,0,4,24,33580,108,65700,0,0,0,0,0
i,0x00000000,1716940780.108908,10.0.2.15,22,10.0.2.2,62180,1073725440,14600,0,65535,65700,0,0,4,1460,1,0,4,24,33580,108,65700,0,108,0,0,0
i,0x00000000,1716940780.115027,172.16.3.2,5101,172.16.1.2,62853,9749,14480,0,65728,65728,6,6,4,1460,418,1,992,42,33580,0,65700,0,0,1,0,0
o,0x00000000,1716940780.115032,172.16.3.2,5101,172.16.1.2,62853,9749,14480,0,65728,65728,6,6,4,1460,418,1,993,42,33580,0,65700,0,0,1,0,0
i,0x00000000,1716940780.125564,172.16.3.2,5101,172.16.1.2,62853,9749,14480,0,65728,65728,6,6,4,1460,418,1,992,42,33580,0,65700,0,0,1,0,0
o,0x00000000,1716940780.125578,172.16.3.2,5101,172.16.1.2,62853,9749,14480,0,65728,65728,6,6,4,1460,418,1,993,42,33580,0,65700,0,0,1,0,0
i,0x00000000,1716940780.145354,172.16.3.2,5101,172.16.1.2,62853,9749,14480,0,65728,65728,6,6,4,1460,418,1,992,42,33580,0,65700,0,0,1,0,0
o,0x00000000,1716940780.145361,172.16.3.2,5101,172.16.1.2,62853,9749,14480,0,65728,65728,6,6,4,1460,418,1,993,42,33580,0,65700,0,0,1,0,0
i,0x00000000,1716940780.154804,172.16.3.2,5101,172.16.1.2,62853,9749,14480,0,65728,65728,6,6,4,1460,418,1,992,42,33580,0,65700,0,0,1,0,0
o,0x00000000,1716940780.154811,172.16.3.2,5101,172.16.1.2,62853,9749,14480,0,65728,65728,6,6,4,1460,418,1,993,42,33580,0,65700,0,0,1,0,0
i,0x00000000,1716940780.165203,172.16.3.2,5101,172.16.1.2,62853,9749,14480,0,65728,65728,6,6,4,1460,418,1,992,42,33580,0,65700,0,0,1,0,0
o,0x00000000,1716940780.165216,172.16.3.2,5101,172.16.1.2,62853,9749,14480,0,65728,65728,6,6,4,1460,418,1,993,42,33580,0,65700,0,0,1,0,0
i,0x00000000,1716940780.185497,172.16.3.2,5101,172.16.1.2,62853,9749,14480,0,65728,65728,6,6,4,1460,418,1,992,42,33580,0,65700,0,0,1,0,0
o,0x00000000,1716940780.185519,172.16.3.2,5101,172.16.1.2,62853,9749,14480,0,65728,65728,6,6,4,1460,418,1,993,42,33580,0,65700,0,0,1,0,0
i,0x00000000,1716940780.235829,172.16.3.2,5101,172.16.1.2,62853,9749,14480,0,65728,65728,6,6,4,1460,418,1,992,42,33580,0,65700,0,0,1,0,0
o,0x00000000,1716940780.235848,172.16.3.2,5101,172.16.1.2,62853,9749,14480,0,65728,65728,6,6,4,1460,418,1,993,42,33580,0,65700,1448,0,1,0,0
i,0x00000000,1716940780.264586,172.16.3.2,5101,172.16.1.2,62853,9749,14480,0,65728,65728,6,6,4,1460,418,1,992,42,33580,0,65700,0,0,1,0,0
o,0x00000000,1716940780.264597,172.16.3.2,5101,172.16.1.2,62853,9749,14480,0,65728,65700,6,6,4,1460,418,1,993,42,33580,0,65700,18824,0,0,0,0
o,0x00000000,1716940780.264732,172.16.3.2,5101,172.16.1.2,62853,9749,14480,0,65728,65700,6,6,4,1460,418,1,992,42,33580,0,65700,0,0,0,0,0
i,0x00000000,1716940780.295069,172.16.3.2,5101,172.16.1.2,62853,9749,14480,0,65728,65700,6,6,4,1460,418,1,992,42,33580,0,65700,0,0,0,0,0
o,0x00000000,1716940780.295125,172.16.3.2,5101,172.16.1.2,62853,9749,14480,0,65728,65700,6,6,4,1460,418,1,993,42,33580,0,65700,0,0,0,0,0
i,0x00000000,1716940780.314837,172.16.3.2,5101,172.16.1.2,62853,9749,14480,0,65728,65700,6,6,4,1460,418,1,992,42,33580,0,65700,0,0,0,0,0
i,0x00000000,1716940780.325195,172.16.3.2,5101,172.16.1.2,62853,9749,14480,0,65728,65700,6,6,4,1460,418,1,992,42,33580,0,65700,0,0,0,0,0
o,0x00000000,1716940780.325201,172.16.3.2,5101,172.16.1.2,62853,9749,14480,0,65728,65700,6,6,4,1460,418,1,993,42,33580,0,65700,1448,0,0,0,0
i,0x00000000,1716940780.385005,172.16.3.2,5101,172.16.1.2,62853,9749,14480,0,65728,65700,6,6,4,1460,418,1,992,42,33580,0,65700,0,0,0,0,0
i,0x00000000,1716940780.415313,172.16.3.2,5101,172.16.1.2,62853,9749,14480,0,65728,65700,6,6,4,1460,418,1,992,42,33580,0,65700,0,0,0,0,0
o,0x00000000,1716940780.415326,172.16.3.2,5101,172.16.1.2,62853,9749,14480,0,65728,65700,6,6,4,1460,418,1,993,42,33580,0,65700,1448,0,0,0,0
i,0x00000000,1716940780.424650,172.16.3.2,5101,172.16.1.2,62853,9749,14480,0,65728,65700,6,6,4,1460,418,1,992,42,33580,0,65700,0,0,0,0,0
i,0x00000000,1716940780.454637,172.16.3.2,5101,172.16.1.2,62853,9749,14480,0,65728,65700,6,6,4,1460,418,1,992,42,33580,0,65700,0,0,0,0,0
o,0x00000000,1716940780.454646,172.16.3.2,5101,172.16.1.2,62853,9749,14480,0,65728,65700,6,6,4,1460,418,1,993,42,33580,0,65700,1448,0,0,0,0
i,0x00000000,1716940780.475352,172.16.3.2,5101,172.16.1.2,62853,9749,14480,0,65728,65700,6,6,4,1460,418,1,992,42,33580,0,65700,0,0,0,0,0
i,0x00000000,1716940780.484566,172.16.3.2,5101,172.16.1.2,62853,9749,14480,0,65728,65700,6,6,4,1460,418,1,992,42,33580,0,65700,0,0,0,0,0
o,0x00000000,1716940780.484571,172.16.3.2,5101,172.16.1.2,62853,9749,14480,0,65728,65700,6,6,4,1460,418,1,993,42,33580,0,65700,1448,0,0,0,0
i,0x00000000,1716940780.584773,172.16.3.2,5101,172.16.1.2,62853,9749,14480,0,65728,65700,6,6,4,1460,418,1,992,42,33580,0,65700,0,0,0,0,0
i,0x00000000,1716940780.594937,172.16.3.2,5101,172.16.1.2,62853,9749,14480,0,65728,65700,6,6,4,1460,418,1,992,42,33580,0,65700,0,0,0,0,0
o,0x00000000,1716940780.594947,172.16.3.2,5101,172.16.1.2,62853,9749,14480,0,65728,65700,6,6,4,1460,418,1,993,42,33580,0,65700,1448,0,0,0,0
i,0x00000000,1716940780.605298,172.16.3.2,5101,172.16.1.2,62853,9749,14480,0,65728,65700,6,6,4,1460,418,1,992,42,33580,0,65700,0,0,0,0,0
o,0x00000000,1716940780.637946,172.16.3.2,5101,172.16.1.2,62853,9749,14480,0,65728,65700,6,6,4,1460,418,1,993,42,33580,0,65700,0,0,0,0,0
i,0x00000000,1716940780.644648,172.16.3.2,5101,172.16.1.2,62853,9749,14480,0,65728,65700,6,6,4,1460,418,1,992,42,33580,0,65700,0,0,0,0,0
i,0x00000000,1716940780.654105,172.16.3.2,5101,172.16.1.2,62853,9749,14480,0,65728,65700,6,6,4,1460,418,1,992,42,33580,0,65700,0,0,0,0,0
o,0x00000000,1716940780.654111,172.16.3.2,5101,172.16.1.2,62853,9749,14480,0,65728,65700,6,6,4,1460,418,1,993,42,33580,0,65700,1448,0,0,0,0
i,0x00000000,1716940780.664355,172.16.3.2,5101,172.16.1.2,62853,9749,14480,0,65728,65700,6,6,4,1460,418,1,992,42,33580,0,65700,0,0,0,0,0
i,0x00000000,1716940780.684137,172.16.3.2,5101,172.16.1.2,62853,9749,14480,0,65728,65700,6,6,4,1460,418,1,992,42,33580,0,65700,0,0,0,0,0
o,0x00000000,1716940780.684143,172.16.3.2,5101,172.16.1.2,62853,9749,14480,0,65728,65700,6,6,4,1460,418,1,993,42,33580,0,65700,1448,0,0,0,0
i,0x00000000,1716940780.744408,172.16.3.2,5101,172.16.1.2,62853,9749,14480,0,65728,65700,6,6,4,1460,418,1,992,42,33580,0,65700,0,0,0,0,0
i,0x00000000,1716940780.753991,172.16.3.2,5101,172.16.1.2,62853,9749,14480,0,65728,65700,6,6,4,1460,418,1,992,42,33580,0,65700,0,0,0,0,0
o,0x00000000,1716940780.754007,172.16.3.2,5101,172.16.1.2,62853,9749,14480,0,65728,65700,6,6,4,1460,418,1,993,42,33580,0,65700,1448,0,0,0,0
i,0x00000000,1716940780.764358,172.16.3.2,5101,172.16.1.2,62853,9749,14480,0,65728,65700,6,6,4,1460,418,1,992,42,33580,0,65700,0,0,0,0,0
o,0x00000000,1716940780.796933,172.16.3.2,5101,172.16.1.2,62853,9749,14480,0,65728,65700,6,6,4,1460,418,1,993,42,33580,0,65700,0,0,0,0,0
i,0x00000000,1716940780.804936,172.16.3.2,5101,172.16.1.2,62853,9749,14480,0,65728,65700,6,6,4,1460,418,1,992,42,33580,0,65700,0,0,0,0,0
i,0x00000000,1716940780.833936,172.16.3.2,5101,172.16.1.2,62853,9749,14480,0,65728,65700,6,6,4,1460,418,1,992,42,33580,0,65700,0,0,0,0,0
o,0x00000000,1716940780.833950,172.16.3.2,5101,172.16.1.2,62853,9749,14480,0,65728,65700,6,6,4,1460,418,1,993,42,33580,0,65700,1448,0,0,0,0
i,0x00000000,1716940780.854806,172.16.3.2,5101,172.16.1.2,62853,9749,14480,0,65728,65700,6,6,4,1460,418,1,992,42,33580,0,65700,0,0,0,0,0
i,0x00000000,1716940780.863956,172.16.3.2,5101,172.16.1.2,62853,9749,14480,0,65728,65700,6,6,4,1460,418,1,992,42,33580,0,65700,0,0,0,0,0
o,0x00000000,1716940780.863963,172.16.3.2,5101,172.16.1.2,62853,9749,14480,0,65728,65700,6,6,4,1460,418,1,993,42,33580,0,65700,1448,0,0,0,0
i,0x00000000,1716940780.874525,172.16.3.2,5101,172.16.1.2,62853,9749,14480,0,65728,65700,6,6,4,1460,418,1,992,42,33580,0,65700,0,0,0,0,0
o,0x00000000,1716940780.907083,172.16.3.2,5101,172.16.1.2,62853,9749,14480,0,65728,65700,6,6,4,1460,418,1,993,42,33580,0,65700,0,0,0,0,0
i,0x00000000,1716940780.934694,172.16.3.2,5101,172.16.1.2,62853,9749,14480,0,65728,65700,6,6,4,1460,418,1,992,42,33580,0,65700,0,0,0,0,0
i,0x00000000,1716940780.954144,172.16.3.2,5101,172.16.1.2,62853,9749,14480,0,65728,65700,6,6,4,1460,418,1,992,42,33580,0,65700,0,0,0,0,0
o,0x00000000,1716940780.954153,172.16.3.2,5101,172.16.1.2,62853,9749,14480,0,65728,65700,6,6,4,1460,418,1,993,42,33580,0,65700,1448,0,0,0,0
i,0x00000000,1716940780.984992,172.16.3.2,5101,172.16.1.2,62853,9749,14480,0,65728,65700,6,6,4,1460,418,1,992,42,33580,0,65700,0,0,0,0,0
i,0x00000000,1716940780.994478,172.16.3.2,5101,172.16.1.2,62853,9749,14480,0,65728,65700,6,6,4,1460,418,1,992,42,33580,0,65700,0,0,0,0,0
o,0x00000000,1716940780.994484,172.16.3.2,5101,172.16.1.2,62853,9749,14480,0,65728,65700,6,6,4,1460,418,1,993,42,33580,0,65700,1448,0,0,0,0
i,0x00000000,1716940781.033956,172.16.3.2,5101,172.16.1.2,62853,9749,14480,0,65728,65700,6,6,4,1460,418,1,992,42,33580,0,65700,0,0,0,0,0
i,0x00000000,1716940781.055002,172.16.3.2,5101,172.16.1.2,62853,9749,14480,0,65728,65700,6,6,4,1460,418,1,992,42,33580,0,65700,0,0,0,0,0
o,0x00000000,1716940781.055011,172.16.3.2,5101,172.16.1.2,62853,9749,14480,0,65728,65700,6,6,4,1460,418,1,993,42,33580,0,65700,1448,0,0,0,0
i,0x00000000,1716940781.074705,172.16.3.2,5101,172.16.1.2,62853,9749,14480,0,65728,65700,6,6,4,1460,418,1,992,42,33580,0,65700,0,0,0,0,0
i,0x00000000,1716940781.103708,172.16.3.2,5101,172.16.1.2,62853,9749,14480,0,65728,65700,6,6,4,1460,418,1,992,42,33580,0,65700,0,0,0,0,0
o,0x00000000,1716940781.103720,172.16.3.2,5101,172.16.1.2,62853,9749,14480,0,65728,65700,6,6,4,1460,418,1,993,42,33580,0,65700,1448,0,0,0,0
o,0x00000000,1716940781.107241,10.0.2.15,22,10.0.2.2,62180,1073725440,14600,0,65535,65700,0,0,4,1460,1,0,4,24,33580,108,65700,0,0,0,0,0
i,0x00000000,1716940781.107919,10.0.2.15,22,10.0.2.2,62180,1073725440,14600,0,65535,65700,0,0,4,1460,1,0,4,24,33580,108,65700,0,108,0,0,0
i,0x00000000,1716940781.124419,172.16.3.2,5101,172.16.1.2,62853,9749,14480,0,65728,65700,6,6,4,1460,418,1,992,42,33580,0,65700,0,0,0,0,0
o,0x00000000,1716940781.157018,172.16.3.2,5101,172.16.1.2,62853,9749,14480,0,65728,65700,6,6,4,1460,418,1,993,42,33580,0,65700,0,0,0,0,0
i,0x00000000,1716940781.163886,172.16.3.2,5101,172.16.1.2,62853,9749,14480,0,65728,65700,6,6,4,1460,418,1,992,42,33580,0,65700,0,0,0,0,0
i,0x00000000,1716940781.184645,172.16.3.2,5101,172.16.1.2,62853,9749,14480,0,65728,65700,6,6,4,1460,418,1,992,42,33580,0,65700,0,0,0,0,0
o,0x00000000,1716940781.184667,172.16.3.2,5101,172.16.1.2,62853,9749,14480,0,65728,65700,6,6,4,1460,418,1,993,42,33580,0,65700,1448,0,0,0,0
i,0x00000000,1716940781.213286,172.16.3.2,5101,172.16.1.2,62853,9749,14480,0,65728,65700,6,6,4,1460,418,1,992,42,33580,0,65700,0,0,0,0,0
i,0x00000000,1716940781.234126,172.16.3.2,5101,172.16.1.2,62853,9749,14480,0,65728,65700,6,6,4,1460,418,1,992,42,33580,0,65700,0,0,0,0,0
o,0x00000000,1716940781.234149,172.16.3.2,5101,172.16.1.2,62853,9749,14480,0,65728,65700,6,6,4,1460,418,1,993,42,33580,0,65700,1448,0,0,0,0
i,0x00000000,1716940781.244506,172.16.3.2,5101,172.16.1.2,62853,9749,14480,0,65728,65700,6,6,4,1460,418,1,992,42,33580,0,65700,0,0,0,0,0
o,0x00000000,1716940781.276695,172.16.3.2,5101,172.16.1.2,62853,9749,14480,0,65728,65700,6,6,4,1460,418,1,993,42,33580,0,65700,0,0,0,0,0
i,0x00000000,1716940781.282990,172.16.3.2,5101,172.16.1.2,62853,9749,14480,0,65728,65700,6,6,4,1460,418,1,992,42,33580,0,65700,0,0,0,0,0
i,0x00000000,1716940781.293393,172.16.3.2,5101,172.16.1.2,62853,9749,14480,0,65728,65700,6,6,4,1460,418,1,992,42,33580,0,65700,0,0,0,0,0
o,0x00000000,1716940781.293400,172.16.3.2,5101,172.16.1.2,62853,9749,14480,0,65728,65700,6,6,4,1460,418,1,993,42,33580,0,65700,1448,0,0,0,0
i,0x00000000,1716940781.344412,172.16.3.2,5101,172.16.1.2,62853,9749,14480,0,65728,65700,6,6,4,1460,418,1,992,42,33580,0,65700,0,0,0,0,0
i,0x00000000,1716940781.353931,172.16.3.2,5101,172.16.1.2,62853,9749,14480,0,65728,65700,6,6,4,1460,418,1,992,42,33580,0,65700,0,0,0,0,0
o,0x00000000,1716940781.353947,172.16.3.2,5101,172.16.1.2,62853,9749,14480,0,65728,65700,6,6,4,1460,418,1,993,42,33580,0,65700,1448,0,0,0,0
i,0x00000000,1716940781.394453,172.16.3.2,5101,172.16.1.2,62853,9749,14480,0,65728,65700,6,6,4,1460,418,1,992,42,33580,0,65700,0,0,0,0,0
i,0x00000000,1716940781.403026,172.16.3.2,5101,172.16.1.2,62853,9749,14480,0,65728,65700,6,6,4,1460,418,1,992,42,33580,0,65700,0,0,0,0,0
o,0x00000000,1716940781.403052,172.16.3.2,5101,172.16.1.2,62853,9749,14480,0,65728,65700,6,6,4,1460,418,1,993,42,33580,0,65700,1448,0,0,0,0
i,0x00000000,1716940781.414305,172.16.3.2,5101,172.16.1.2,62853,9749,14480,0,65728,65700,6,6,4,1460,418,1,992,42,33580,0,65700,0,0,0,0,0
o,0x00000000,1716940781.448309,172.16.3.2,5101,172.16.1.2,62853,9749,14480,0,65728,65700,6,6,4,1460,418,1,993,42,33580,0,65700,0,0,0,0,0
i,0x00000000,1716940781.473280,172.16.3.2,5101,172.16.1.2,62853,9749,14480,0,65728,65700,6,6,4,1460,418,1,992,42,33580,0,65700,0,0,0,0,0
i,0x00000000,1716940781.483546,172.16.3.2,5101,172.16.1.2,62853,9749,14480,0,65728,65700,6,6,4,1460,418,1,992,42,33580,0,65700,0,0,0,0,0
o,0x00000000,1716940781.483557,172.16.3.2,5101,172.16.1.2,62853,9749,14480,0,65728,65700,6,6,4,1460,418,1,993,42,33580,0,65700,1448,0,0,0,0
i,0x00000000,1716940781.503284,172.16.3.2,5101,172.16.1.2,62853,9749,14480,0,65728,65700,6,6,4,1460,418,1,992,42,33580,0,65700,0,0,0,0,0
i,0x00000000,1716940781.533389,172.16.3.2,5101,172.16.1.2,62853,9749,14480,0,65728,65700,6,6,4,1460,418,1,992,42,33580,0,65700,0,0,0,0,0
o,0x00000000,1716940781.533399,172.16.3.2,5101,172.16.1.2,62853,9749,14480,0,65728,65700,6,6,4,1460,418,1,993,42,33580,0,65700,1448,0,0,0,0
i,0x00000000,1716940781.543133,172.16.3.2,5101,172.16.1.2,62853,9749,14480,0,65728,65700,6,6,4,1460,418,1,992,42,33580,0,65700,0,0,0,0,0
i,0x00000000,1716940781.563837,172.16.3.2,5101,172.16.1.2,62853,9749,14480,0,65728,65700,6,6,4,1460,418,1,992,42,33580,0,65700,0,0,0,0,0
o,0x00000000,1716940781.563858,172.16.3.2,5101,172.16.1.2,62853,9749,14480,0,65728,65700,6,6,4,1460,418,1,993,42,33580,0,65700,1448,0,0,0,0
i,0x00000000,1716940781.613514,172.16.3.2,5101,172.16.1.2,62853,9749,14480,0,65728,65700,6,6,4,1460,418,1,992,42,33580,0,65700,0,0,0,0,0
i,0x00000000,1716940781.623815,172.16.3.2,5101,172.16.1.2,62853,9749,14480,0,65728,65700,6,6,4,1460,418,1,992,42,33580,0,65700,0,0,0,0,0
o,0x00000000,1716940781.623829,172.16.3.2,5101,172.16.1.2,62853,9749,14480,0,65728,65700,6,6,4,1460,418,1,993,42,33580,0,65700,1448,0,0,0,0
i,0x00000000,1716940781.653103,172.16.3.2,5101,172.16.1.2,62853,9749,14480,0,65728,65700,6,6,4,1460,418,1,992,42,33580,0,65700,0,0,0,0,0
i,0x00000000,1716940781.673008,172.16.3.2,5101,172.16.1.2,62853,9749,14480,0,65728,65700,6,6,4,1460,418,1,992,42,33580,0,65700,0,0,0,0,0
o,0x00000000,1716940781.673027,172.16.3.2,5101,172.16.1.2,62853,9749,14480,0,65728,65700,6,6,4,1460,418,1,993,42,33580,0,65700,1448,0,0,0,0
i,0x00000000,1716940781.683313,172.16.3.2,5101,172.16.1.2,62853,9749,14480,0,65728,65700,6,6,4,1460,418,1,992,42,33580,0,65700,0,0,0,0,0
o,0x00000000,1716940781.716970,172.16.3.2,5101,172.16.1.2,62853,9749,14480,0,65728,65700,6,6,4,1460,418,1,993,42,33580,0,65700,0,0,0,0,0
i,0x00000000,1716940781.753762,172.16.3.2,5101,172.16.1.2,62853,9749,14480,0,65728,65700,6,6,4,1460,418,1,992,42,33580,0,65700,0,0,0,0,0
i,0x00000000,1716940781.763173,172.16.3.2,5101,172.16.1.2,62853,9749,14480,0,65728,65700,6,6,4,1460,418,1,992,42,33580,0,65700,0,0,0,0,0
o,0x00000000,1716940781.763188,172.16.3.2,5101,172.16.1.2,62853,9749,14480,0,65728,65700,6,6,4,1460,418,1,993,42,33580,0,65700,1448,0,0,0,0
i,0x00000000,1716940781.803442,172.16.3.2,5101,172.16.1.2,62853,9749,14480,0,65728,65700,6,6,4,1460,418,1,992,42,33580,0,65700,0,0,0,0,0
i,0x00000000,1716940781.813840,172.16.3.2,5101,172.16.1.2,62853,9749,14480,0,65728,65700,6,6,4,1460,418,1,992,42,33580,0,65700,0,0,0,0,0
o,0x00000000,1716940781.813851,172.16.3.2,5101,172.16.1.2,62853,9749,14480,0,65728,65700,6,6,4,1460,418,1,993,42,33580,0,65700,1448,0,0,0,0
i,0x00000000,1716940781.833634,172.16.3.2,5101,172.16.1.2,62853,9749,14480,0,65728,65700,6,6,4,1460,418,1,992,42,33580,0,65700,0,0,0,0,0
i,0x00000000,1716940781.843069,172.16.3.2,5101,172.16.1.2,62853,9749,14480,0,65728,65700,6,6,4,1460,418,1,992,42,33580,0,65700,0,0,0,0,0
o,0x00000000,1716940781.843076,172.16.3.2,5101,172.16.1.2,62853,9749,14480,0,65728,65700,6,6,4,1460,418,1,993,42,33580,0,65700,1448,0,0,0,0
i,0x00000000,1716940781.873338,172.16.3.2,5101,172.16.1.2,62853,9749,14480,0,65728,65700,6,6,4,1460,418,1,992,42,33580,0,65700,0,0,0,0,0
i,0x00000000,1716940781.892984,172.16.3.2,5101,172.16.1.2,62853,9749,14480,0,65728,65700,6,6,4,1460,418,1,992,42,33580,0,65700,0,0,0,0,0
o,0x00000000,1716940781.892991,172.16.3.2,5101,172.16.1.2,62853,9749,14480,0,65728,65700,6,6,4,1460,418,1,993,42,33580,0,65700,1448,0,0,0,0
i,0x00000000,1716940781.912899,172.16.3.2,5101,172.16.1.2,62853,9749,14480,0,65728,65700,6,6,4,1460,418,1,992,42,33580,0,65700,0,0,0,0,0
o,0x00000000,1716940781.947725,172.16.3.2,5101,172.16.1.2,62853,9749,14480,0,65728,65700,6,6,4,1460,418,1,993,42,33580,0,65700,0,0,0,0,0
i,0x00000000,1716940781.952700,172.16.3.2,5101,172.16.1.2,62853,9749,14480,0,65728,65700,6,6,4,1460,418,1,992,42,33580,0,65700,0,0,0,0,0
i,0x00000000,1716940781.963051,172.16.3.2,5101,172.16.1.2,62853,9749,14480,0,65728,65700,6,6,4,1460,418,1,992,42,33580,0,65700,0,0,0,0,0
o,0x00000000,1716940781.963057,172.16.3.2,5101,172.16.1.2,62853,9749,14480,0,65728,65700,6,6,4,1460,418,1,993,42,33580,0,65700,1448,0,0,0,0
i,0x00000000,1716940782.002194,172.16.3.2,5101,172.16.1.2,62853,9749,14480,0,65728,65700,6,6,4,1460,418,1,992,42,33580,0,65700,0,0,0,0,0
o,0x00000000,1716940782.037232,172.16.3.2,5101,172.16.1.2,62853,9749,14480,0,65728,65700,6,6,4,1460,418,1,993,42,33580,0,65700,0,0,0,0,0
i,0x00000000,1716940782.052966,172.16.3.2,5101,172.16.1.2,62853,9749,14480,0,65728,65700,6,6,4,1460,418,1,992,42,33580,0,65700,0,0,0,0,0
i,0x00000000,1716940782.062466,172.16.3.2,5101,172.16.1.2,62853,9749,14480,0,65728,65700,6,6,4,1460,418,1,992,42,33580,0,65700,0,0,0,0,0
o,0x00000000,1716940782.062473,172.16.3.2,5101,172.16.1.2,62853,9749,14480,0,65728,65700,6,6,4,1460,418,1,993,42,33580,0,65700,1448,0,0,0,0
i,0x00000000,1716940782.092669,172.16.3.2,5101,172.16.1.2,62853,9749,14480,0,65728,65700,6,6,4,1460,418,1,992,42,33580,0,65700,0,0,0,0,0
o,0x00000000,1716940782.108235,10.0.2.15,22,10.0.2.2,62180,1073725440,14600,0,65535,65700,0,0,4,1460,1,0,4,24,33580,108,65700,0,0,0,0,0
i,0x00000000,1716940782.109027,10.0.2.15,22,10.0.2.2,62180,1073725440,14600,0,65535,65700,0,0,4,1460,1,0,4,24,33580,108,65700,0,108,0,0,0
i,0x00000000,1716940782.113058,172.16.3.2,5101,172.16.1.2,62853,9749,14480,0,65728,65700,6,6,4,1460,418,1,992,42,33580,0,65700,0,0,0,0,0
o,0x00000000,1716940782.113073,172.16.3.2,5101,172.16.1.2,62853,9749,14480,0,65728,65700,6,6,4,1460,418,1,993,42,33580,0,65700,1448,0,0,0,0
i,0x00000000,1716940782.132935,172.16.3.2,5101,172.16.1.2,62853,9749,14480,0,65728,65700,6,6,4,1460,418,1,992,42,33580,0,65700,0,0,0,0,0
i,0x00000000,1716940782.142491,172.16.3.2,5101,172.16.1.2,62853,9749,14480,0,65728,65700,6,6,4,1460,418,1,992,42,33580,0,65700,0,0,0,0,0
o,0x00000000,1716940782.142498,172.16.3.2,5101,172.16.1.2,62853,9749,14480,0,65728,65700,6,6,4,1460,418,1,993,42,33580,0,65700,1448,0,0,0,0
i,0x00000000,1716940782.162311,172.16.3.2,5101,172.16.1.2,62853,9749,14480,0,65728,65700,6,6,4,1460,418,1,992,42,33580,0,65700,0,0,0,0,0
i,0x00000000,1716940782.192577,172.16.3.2,5101,172.16.1.2,62853,9749,14480,0,65728,65700,6,6,4,1460,418,1,992,42,33580,0,65700,0,0,0,0,0
o,0x00000000,1716940782.192582,172.16.3.2,5101,172.16.1.2,62853,9749,14480,0,65728,65700,6,6,4,1460,418,1,993,42,33580,0,65700,1448,0,0,0,0
i,0x00000000,1716940782.203023,172.16.3.2,5101,172.16.1.2,62853,9749,14480,0,65728,65700,6,6,4,1460,418,1,992,42,33580,0,65700,0,0,0,0,0
i,0x00000000,1716940782.233584,172.16.3.2,5101,172.16.1.2,62853,9749,14480,0,65728,65700,6,6,4,1460,418,1,992,42,33580,0,65700,0,0,0,0,0
o,0x00000000,1716940782.233646,172.16.3.2,5101,172.16.1.2,62853,9749,14480,0,65728,65700,6,6,4,1460,418,1,993,42,33580,0,65700,1448,0,0,0,0
i,0x00000000,1716940782.272203,172.16.3.2,5101,172.16.1.2,62853,9749,14480,0,65728,65700,6,6,4,1460,418,1,992,42,33580,0,65700,0,0,0,0,0
i,0x00000000,1716940782.301806,172.16.3.2,5101,172.16.1.2,62853,9749,14480,0,65728,65700,6,6,4,1460,418,1,992,42,33580,0,65700,0,0,0,0,0
o,0x00000000,1716940782.301830,172.16.3.2,5101,172.16.1.2,62853,9749,14480,0,65728,65700,6,6,4,1460,418,1,993,42,33580,0,65700,1448,0,0,0,0
i,0x00000000,1716940782.351734,172.16.3.2,5101,172.16.1.2,62853,9749,14480,0,65728,65700,6,6,4,1460,418,1,992,42,33580,0,65700,0,0,0,0,0
i,0x00000000,1716940782.362012,172.16.3.2,5101,172.16.1.2,62853,9749,14480,0,65728,65700,6,6,4,1460,418,1,992,42,33580,0,65700,0,0,0,0,0
o,0x00000000,1716940782.362024,172.16.3.2,5101,172.16.1.2,62853,9749,14480,0,65728,65700,6,6,4,1460,418,1,993,42,33580,0,65700,1448,0,0,0,0
i,0x00000000,1716940782.382705,172.16.3.2,5101,172.16.1.2,62853,9749,14480,0,65728,65700,6,6,4,1460,418,1,992,42,33580,0,65700,0,0,0,0,0
i,0x00000000,1716940782.411886,172.16.3.2,5101,172.16.1.2,62853,9749,14480,0,65728,65700,6,6,4,1460,418,1,992,42,33580,0,65700,0,0,0,0,0
o,0x00000000,1716940782.411896,172.16.3.2,5101,172.16.1.2,62853,9749,14480,0,65728,65700,6,6,4,1460,418,1,993,42,33580,0,65700,1448,0,0,0,0
i,0x00000000,1716940782.422344,172.16.3.2,5101,172.16.1.2,62853,9749,14480,0,65728,65700,6,6,4,1460,418,1,992,42,33580,0,65700,0,0,0,0,0
o,0x00000000,1716940782.457366,172.16.3.2,5101,172.16.1.2,62853,9749,14480,0,65728,65700,6,6,4,1460,418,1,993,42,33580,0,65700,0,0,0,0,0
i,0x00000000,1716940782.462304,172.16.3.2,5101,172.16.1.2,62853,9749,14480,0,65728,65700,6,6,4,1460,418,1,992,42,33580,0,65700,0,0,0,0,0
i,0x00000000,1716940782.472575,172.16.3.2,5101,172.16.1.2,62853,9749,14480,0,65728,65700,6,6,4,1460,418,1,992,42,33580,0,65700,0,0,0,0,0
o,0x00000000,1716940782.472580,172.16.3.2,5101,172.16.1.2,62853,9749,14480,0,65728,65700,6,6,4,1460,418,1,993,42,33580,0,65700,1448,0,0,0,0
i,0x00000000,1716940782.493336,172.16.3.2,5101,172.16.1.2,62853,9749,14480,0,65728,65700,6,6,4,1460,418,1,992,42,33580,0,65700,0,0,0,0,0
i,0x00000000,1716940782.522026,172.16.3.2,5101,172.16.1.2,62853,9749,14480,0,65728,65700,6,6,4,1460,418,1,992,42,33580,0,65700,0,0,0,0,0
o,0x00000000,1716940782.522035,172.16.3.2,5101,172.16.1.2,62853,9749,14480,0,65728,65700,6,6,4,1460,418,1,993,42,33580,0,65700,1448,0,0,0,0
i,0x00000000,1716940782.532612,172.16.3.2,5101,172.16.1.2,62853,9749,14480,0,65728,65700,6,6,4,1460,418,1,992,42,33580,0,65700,0,0,0,0,0
o,0x00000000,1716940782.567709,172.16.3.2,5101,172.16.1.2,62853,9749,14480,0,65728,65700,6,6,4,1460,418,1,993,42,33580,0,65700,0,0,0,0,0
i,0x00000000,1716940782.572004,172.16.3.2,5101,172.16.1.2,62853,9749,14480,0,65728,65700,6,6,4,1460,418,1,992,42,33580,0,65700,0,0,0,0,0
i,0x00000000,1716940782.582467,172.16.3.2,5101,172.16.1.2,62853,9749,14480,0,65728,65700,6,6,4,1460,418,1,992,42,33580,0,65700,0,0,0,0,0
o,0x00000000,1716940782.582483,172.16.3.2,5101,172.16.1.2,62853,9749,14480,0,65728,65700,6,6,4,1460,418,1,993,42,33580,0,65700,1448,0,0,0,0
i,0x00000000,1716940782.622160,172.16.3.2,5101,172.16.1.2,62853,9749,14480,0,65728,65700,6,6,4,1460,418,1,992,42,33580,0,65700,0,0,0,0,0
i,0x00000000,1716940782.632370,172.16.3.2,5101,172.16.1.2,62853,9749,14480,0,65728,65700,6,6,4,1460,418,1,992,42,33580,0,65700,0,0,0,0,0
o,0x00000000,1716940782.632383,172.16.3.2,5101,172.16.1.2,62853,9749,14480,0,65728,65700,6,6,4,1460,418,1,993,42,33580,0,65700,1448,0,0,0,0
i,0x00000000,1716940782.682343,172.16.3.2,5101,172.16.1.2,62853,9749,14480,0,65728,65700,6,6,4,1460,418,1,992,42,33580,0,65700,0,0,0,0,0
i,0x00000000,1716940782.691746,172.16.3.2,5101,172.16.1.2,62853,9749,14480,0,65728,65700,6,6,4,1460,418,1,992,42,33580,0,65700,0,0,0,0,0
o,0x00000000,1716940782.691753,172.16.3.2,5101,172.16.1.2,62853,9749,14480,0,65728,65700,6,6,4,1460,418,1,993,42,33580,0,65700,1448,0,0,0,0
i,0x00000000,1716940782.741334,172.16.3.2,5101,172.16.1.2,62853,9749,14480,0,65728,65700,6,6,4,1460,418,1,992,42,33580,0,65700,0,0,0,0,0
i,0x00000000,1716940782.751540,172.16.3.2,5101,172.16.1.2,62853,9749,14480,0,65728,65700,6,6,4,1460,418,1,992,42,33580,0,65700,0,0,0,0,0
o,0x00000000,1716940782.751554,172.16.3.2,5101,172.16.1.2,62853,9749,14480,0,65728,65700,6,6,4,1460,418,1,993,42,33580,0,65700,1448,0,0,0,0
i,0x00000000,1716940782.781898,172.16.3.2,5101,172.16.1.2,62853,9749,14480,0,65728,65700,6,6,4,1460,418,1,992,42,33580,0,65700,0,0,0,0,0
o,0x00000000,1716940782.816928,172.16.3.2,5101,172.16.1.2,62853,9749,14480,0,65728,65700,6,6,4,1460,418,1,993,42,33580,0,65700,0,0,0,0,0
i,0x00000000,1716940782.822019,172.16.3.2,5101,172.16.1.2,62853,9749,14480,0,65728,65700,6,6,4,1460,418,1,992,42,33580,0,65700,0,0,0,0,0
i,0x00000000,1716940782.832310,172.16.3.2,5101,172.16.1.2,62853,9749,14480,0,65728,65700,6,6,4,1460,418,1,992,42,33580,0,65700,0,0,0,0,0
o,0x00000000,1716940782.832316,172.16.3.2,5101,172.16.1.2,62853,9749,14480,0,65728,65700,6,6,4,1460,418,1,993,42,33580,0,65700,1448,0,0,0,0
i,0x00000000,1716940782.861679,172.16.3.2,5101,172.16.1.2,62853,9749,14480,0,65728,65700,6,6,4,1460,418,1,992,42,33580,0,65700,0,0,0,0,0
i,0x00000000,1716940782.881508,172.16.3.2,5101,172.16.1.2,62853,9749,14480,0,65728,65700,6,6,4,1460,418,1,992,42,33580,0,65700,0,0,0,0,0
o,0x00000000,1716940782.881514,172.16.3.2,5101,172.16.1.2,62853,9749,14480,0,65728,65700,6,6,4,1460,418,1,993,42,33580,0,65700,1448,0,0,0,0
i,0x00000000,1716940782.891795,172.16.3.2,5101,172.16.1.2,62853,9749,14480,0,65728,65700,6,6,4,1460,418,1,992,42,33580,0,65700,0,0,0,0,0
i,0x00000000,1716940782.911612,172.16.3.2,5101,172.16.1.2,62853,9749,14480,0,65728,65700,6,6,4,1460,418,1,992,42,33580,0,65700,0,0,0,0,0
o,0x00000000,1716940782.911622,172.16.3.2,5101,172.16.1.2,62853,9749,14480,0,65728,65700,6,6,4,1460,418,1,993,42,33580,0,65700,1448,0,0,0,0
i,0x00000000,1716940782.931488,172.16.3.2,5101,172.16.1.2,62853,9749,14480,0,65728,65700,6,6,4,1460,418,1,992,42,33580,0,65700,0,0,0,0,0
i,0x00000000,1716940782.941939,172.16.3.2,5101,172.16.1.2,62853,9749,14480,0,65728,65700,6,6,4,1460,418,1,992,42,33580,0,65700,0,0,0,0,0
o,0x00000000,1716940782.941956,172.16.3.2,5101,172.16.1.2,62853,9749,14480,0,65728,65700,6,6,4,1460,418,1,993,42,33580,0,65700,1448,0,0,0,0
i,0x00000000,1716940782.971227,172.16.3.2,5101,172.16.1.2,62853,9749,14480,0,65728,65700,6,6,4,1460,418,1,992,42,33580,0,65700,0,0,0,0,0
i,0x00000000,1716940782.991841,172.16.3.2,5101,172.16.1.2,62853,9749,14480,0,65728,65700,6,6,4,1460,418,1,992,42,33580,0,65700,0,0,0,0,0
o,0x00000000,1716940782.991863,172.16.3.2,5101,172.16.1.2,62853,9749,14480,0,65728,65700,6,6,4,1460,418,1,993,42,33580,0,65700,1448,0,0,0,0
i,0x00000000,1716940783.041059,172.16.3.2,5101,172.16.1.2,62853,9749,14480,0,65728,65700,6,6,4,1460,418,1,992,42,33580,0,65700,0,0,0,0,0
o,0x00000000,1716940783.078377,172.16.3.2,5101,172.16.1.2,62853,9749,14480,0,65728,65700,6,6,4,1460,418,1,993,42,33580,0,65700,0,0,0,0,0
i,0x00000000,1716940783.081689,172.16.3.2,5101,172.16.1.2,62853,9749,14480,0,65728,65700,6,6,4,1460,418,1,992,42,33580,0,65700,0,0,0,0,0
o,0x00000000,1716940783.081700,172.16.3.2,5101,172.16.1.2,62853,9749,14480,0,65728,65728,6,6,4,1460,418,1,993,42,33580,0,65700,0,0,1,0,0
o,0x00000000,1716940783.107704,10.0.2.15,22,10.0.2.2,62180,1073725440,14600,0,65535,65700,0,0,4,1460,1,0,4,24,33580,108,65700,0,0,0,0,0
i,0x00000000,1716940783.108399,10.0.2.15,22,10.0.2.2,62180,1073725440,14600,0,65535,65700,0,0,4,1460,1,0,4,24,33580,108,65700,0,108,0,0,0
i,0x00000000,1716940783.121587,172.16.3.2,5101,172.16.1.2,62853,9749,14480,0,65728,65728,6,6,4,1460,418,1,992,42,33580,0,65700,0,0,1,0,0
o,0x00000000,1716940783.121608,172.16.3.2,5101,172.16.1.2,62853,9749,14480,0,65728,65728,6,6,4,1460,418,1,993,42,33580,0,65700,0,0,1,0,0
i,0x00000000,1716940783.161210,172.16.3.2,5101,172.16.1.2,62853,9749,14480,0,65728,65728,6,6,4,1460,418,1,992,42,33580,0,65700,0,0,1,0,0
o,0x00000000,1716940783.161229,172.16.3.2,5101,172.16.1.2,62853,9749,14480,0,65728,65728,6,6,4,1460,418,1,993,42,33580,0,65700,0,0,2,0,0
i,0x00000000,1716940783.202060,172.16.3.2,5101,172.16.1.2,62853,9749,14480,0,65728,65728,6,6,4,1460,418,1,992,42,33580,0,65700,0,0,2,0,0
o,0x00000000,1716940783.202085,172.16.3.2,5101,172.16.1.2,62853,9749,14480,0,65728,65728,6,6,4,1460,418,1,993,42,33580,0,65700,0,0,3,0,0
i,0x00000000,1716940783.211117,172.16.3.2,5101,172.16.1.2,62853,9749,14480,0,65728,65728,6,6,4,1460,418,1,992,42,33580,0,65700,0,0,3,0,0
o,0x00000000,1716940783.211124,172.16.3.2,5101,172.16.1.2,62853,9749,14480,0,65728,65728,6,6,4,1460,418,1,993,42,33580,0,65700,0,0,4,0,0
i,0x00000000,1716940783.221594,172.16.3.2,5101,172.16.1.2,62853,9749,14480,0,65728,65728,6,6,4,1460,418,1,992,42,33580,0,65700,0,0,4,0,0
o,0x00000000,1716940783.221599,172.16.3.2,5101,172.16.1.2,62853,9749,14480,0,65728,65728,6,6,4,1460,418,1,993,42,33580,0,65700,0,0,4,0,0
i,0x00000000,1716940783.230987,172.16.3.2,5101,172.16.1.2,62853,9749,14480,0,65728,65728,6,6,4,1460,418,1,992,42,33580,0,65700,0,0,4,0,0
o,0x00000000,1716940783.230992,172.16.3.2,5101,172.16.1.2,62853,9749,14480,0,65728,65728,6,6,4,1460,418,1,993,42,33580,0,65700,0,0,4,0,0
i,0x00000000,1716940783.261342,172.16.3.2,5101,172.16.1.2,62853,9749,14480,0,65728,65728,6,6,4,1460,418,1,992,42,33580,0,65700,0,0,4,0,0
o,0x00000000,1716940783.261351,172.16.3.2,5101,172.16.1.2,62853,9749,14480,0,65728,65728,6,6,4,1460,418,1,993,42,33580,0,65700,0,0,4,0,0
i,0x00000000,1716940783.301270,172.16.3.2,5101,172.16.1.2,62853,9749,14480,0,65728,65728,6,6,4,1460,418,1,992,42,33580,0,65700,0,0,4,0,0
o,0x00000000,1716940783.301278,172.16.3.2,5101,172.16.1.2,62853,9749,14480,0,65728,65728,6,6,4,1460,418,1,993,42,33580,0,65700,0,0,4,0,0
i,0x00000000,1716940783.310455,172.16.3.2,5101,172.16.1.2,62853,9749,14480,0,65728,65728,6,6,4,1460,418,1,992,42,33580,0,65700,0,0,4,0,0
o,0x00000000,1716940783.310464,172.16.3.2,5101,172.16.1.2,62853,9749,14480,0,65728,65728,6,6,4,1460,418,1,993,42,33580,0,65700,1448,0,4,0,0
i,0x00000000,1716940783.340751,172.16.3.2,5101,172.16.1.2,62853,9749,14480,0,65728,65728,6,6,4,1460,418,1,992,42,33580,0,65700,0,0,4,0,0
o,0x00000000,1716940783.340756,172.16.3.2,5101,172.16.1.2,62853,9749,14480,0,65728,65700,6,6,4,1460,418,1,993,42,33580,0,65700,0,0,4,0,0
i,0x00000000,1716940783.370971,172.16.3.2,5101,172.16.1.2,62853,9749,14480,0,65728,65700,6,6,4,1460,418,1,992,42,33580,0,65700,0,0,4,0,0
o,0x00000000,1716940783.370991,172.16.3.2,5101,172.16.1.2,62853,9749,14480,0,65728,65728,6,6,4,1460,418,1,993,42,33580,0,65700,4344,0,3,0,0
i,0x00000000,1716940783.381388,172.16.3.2,5101,172.16.1.2,62853,9749,14480,0,65728,65728,6,6,4,1460,418,1,992,42,33580,0,65700,0,0,3,0,0
o,0x00000000,1716940783.381394,172.16.3.2,5101,172.16.1.2,62853,9749,14480,0,65728,65700,6,6,4,1460,418,1,993,42,33580,0,65700,0,0,3,0,0
i,0x00000000,1716940783.400251,172.16.3.2,5101,172.16.1.2,62853,9749,14480,0,65728,65700,6,6,4,1460,418,1,992,42,33580,0,65700,0,0,3,0,0
o,0x00000000,1716940783.400258,172.16.3.2,5101,172.16.1.2,62853,9749,14480,0,65728,65728,6,6,4,1460,418,1,993,42,33580,0,65700,2896,0,2,0,0
i,0x00000000,1716940783.410524,172.16.3.2,5101,172.16.1.2,62853,9749,14480,0,65728,65728,6,6,4,1460,418,1,992,42,33580,0,65700,0,0,2,0,0
o,0x00000000,1716940783.410531,172.16.3.2,5101,172.16.1.2,62853,9749,14480,0,65728,65700,6,6,4,1460,418,1,993,42,33580,0,65700,0,0,2,0,0
i,0x00000000,1716940783.481371,172.16.3.2,5101,172.16.1.2,62853,9749,14480,0,65728,65700,6,6,4,1460,418,1,992,42,33580,0,65700,0,0,2,0,0
o,0x00000000,1716940783.481388,172.16.3.2,5101,172.16.1.2,62853,9749,14480,0,65728,65728,6,6,4,1460,418,1,993,42,33580,0,65700,2896,0,1,0,0
i,0x00000000,1716940783.490656,172.16.3.2,5101,172.16.1.2,62853,9749,14480,0,65728,65728,6,6,4,1460,418,1,992,42,33580,0,65700,0,0,1,0,0
o,0x00000000,1716940783.490669,172.16.3.2,5101,172.16.1.2,62853,9749,14480,0,65728,65700,6,6,4,1460,418,1,993,42,33580,0,65700,8688,0,0,0,0
i,0x00000000,1716940783.510431,172.16.3.2,5101,172.16.1.2,62853,9749,14480,0,65728,65700,6,6,4,1460,418,1,992,42,33580,0,65700,0,0,0,0,0
o,0x00000000,1716940783.510439,172.16.3.2,5101,172.16.1.2,62853,9749,14480,0,65728,65700,6,6,4,1460,418,1,993,42,33580,0,65700,0,0,1,0,0
i,0x00000000,1716940783.541530,172.16.3.2,5101,172.16.1.2,62853,9749,14480,0,65728,65700,6,6,4,1460,418,1,992,42,33580,0,65700,0,0,1,0,0
o,0x00000000,1716940783.541535,172.16.3.2,5101,172.16.1.2,62853,9749,14480,0,65728,65728,6,6,4,1460,418,1,993,42,33580,0,65700,0,0,1,0,0
i,0x00000000,1716940783.600572,172.16.3.2,5101,172.16.1.2,62853,9749,14480,0,65728,65728,6,6,4,1460,418,1,992,42,33580,0,65700,0,0,1,0,0
i,0x00000000,1716940783.659920,172.16.3.2,5101,172.16.1.2,62853,9749,14480,0,65728,65728,6,6,4,1460,418,1,992,42,33580,0,65700,0,0,1,0,0
