enable_time_secs=1716941182	enable_time_usecs=551926	siftrver=1.2.4	hz=100	tcp_rtt_scale=32	sysname=FreeBSD	sysver=1301000	ipmode=4
o,0x00000000,1716941182.551984,10.0.2.15,22,10.0.2.2,61624,1073725440,17298,0,65535,65700,0,0,4,1460,1,0,4,24,33580,44,65700,0,0,0,0,0
o,0x00000000,1716941182.552092,10.0.2.15,22,10.0.2.2,61624,1073725440,17298,0,65535,65700,0,0,4,1460,1,0,4,24,33580,80,65700,0,44,0,0,0
i,0x00000000,1716941182.552529,10.0.2.15,22,10.0.2.2,61624,1073725440,17298,0,65535,65700,0,0,4,1460,1,0,4,24,33580,80,65700,0,80,0,0,0
i,0x00000000,1716941182.552532,10.0.2.15,22,10.0.2.2,61624,1073725440,17342,0,65535,65700,0,0,4,1460,1,0,4,24,33580,36,65700,0,36,0,0,0
o,0x00000000,1716941182.552592,10.0.2.15,22,10.0.2.2,61624,1073725440,17378,0,65535,65700,0,0,4,1460,1,0,4,24,33580,36,65700,0,0,0,0,0
i,0x00000000,1716941182.553146,10.0.2.15,22,10.0.2.2,61624,1073725440,17378,0,65535,65700,0,0,4,1460,1,0,4,24,33580,36,65700,0,36,0,0,0
o,0x00000000,1716941182.553436,10.0.2.15,22,10.0.2.2,61624,1073725440,17414,0,65535,65700,0,0,4,1460,1,0,4,24,33580,176,65700,0,0,0,0,0
i,0x00000000,1716941182.554133,10.0.2.15,22,10.0.2.2,61624,1073725440,17414,0,65535,65700,0,0,4,1460,1,0,4,24,33580,176,65700,0,176,0,0,0
i,0x00000000,1716941182.554809,10.0.2.15,22,10.0.2.2,61624,1073725440,17590,0,65535,65700,0,0,4,1460,1,0,4,24,33580,0,65700,0,0,0,0,0
i,0x00000000,1716941182.554815,10.0.2.15,22,10.0.2.2,61624,1073725440,17590,0,65535,65700,0,0,4,1460,1,0,4,24,33580,0,65700,96,0,0,0,0
o,0x00000000,1716941182.554821,10.0.2.15,22,10.0.2.2,61624,1073725440,17590,0,65535,65604,0,0,5,1460,1,0,5,24,33580,0,65700,96,0,0,0,0
o,0x00000000,1716941182.555313,10.0.2.15,22,10.0.2.2,61624,1073725440,17590,0,65535,65604,0,0,8,1460,1,0,4,24,33580,0,65700,0,0,0,0,0
i,0x00000000,1716941182.556183,10.0.2.15,22,10.0.2.2,61624,1073725440,17590,0,65535,65604,0,0,8,1460,1,0,20,24,33580,0,65700,0,1,0,0,0
i,0x00000000,1716941184.650855,10.0.2.15,22,10.0.2.2,61631,1073725440,14600,0,65535,65700,0,0,4,1460,1,0,0,27,33580,0,65700,0,0,0,0,0
o,0x00000000,1716941184.665231,10.0.2.15,22,10.0.2.2,61631,1073725440,14600,0,65535,65700,0,0,4,1460,1,0,0,27,33580,38,65700,41,0,0,0,0
i,0x00000000,1716941184.666746,10.0.2.15,22,10.0.2.2,61631,1073725440,14600,0,65535,65700,0,0,4,1460,1,0,0,27,33580,38,65700,41,38,0,0,0
i,0x00000000,1716941184.667087,10.0.2.15,22,10.0.2.2,61631,1073725440,14638,0,65535,65700,0,0,4,1460,1,0,0,24,33580,0,65700,41,0,0,0,0
i,0x00000000,1716941184.667089,10.0.2.15,22,10.0.2.2,61631,1073725440,14638,0,65535,65700,0,0,4,1460,1,0,0,24,33580,0,65700,1501,0,0,0,0
o,0x00000000,1716941184.667092,10.0.2.15,22,10.0.2.2,61631,1073725440,14638,0,65535,65700,0,0,4,1460,1,0,1,24,33580,0,65700,1577,0,0,0,0
o,0x00000000,1716941184.667839,10.0.2.15,22,10.0.2.2,61631,1073725440,14638,0,65535,65700,0,0,4,1460,1,0,0,24,33580,1056,65700,1536,0,0,0,0
i,0x00000000,1716941184.668928,10.0.2.15,22,10.0.2.2,61631,1073725440,14638,0,65535,65700,0,0,4,1460,1,0,0,24,33580,1056,65700,1536,1056,0,0,0
i,0x00000000,1716941184.670347,10.0.2.15,22,10.0.2.2,61631,1073725440,15694,0,65535,65700,0,0,4,1460,1,0,0,24,33580,0,65700,0,0,0,0,0
o,0x00000000,1716941184.672778,10.0.2.15,22,10.0.2.2,61631,1073725440,15694,0,65535,65700,0,0,4,1460,1,0,0,24,33580,484,65700,0,0,0,0,0
i,0x00000000,1716941184.673451,10.0.2.15,22,10.0.2.2,61631,1073725440,15694,0,65535,65700,0,0,4,1460,1,0,0,24,33580,484,65700,0,484,0,0,0
i,0x00000000,1716941184.677957,10.0.2.15,22,10.0.2.2,61631,1073725440,16178,0,65535,65700,0,0,4,1460,1,0,0,24,33580,0,65700,0,0,0,0,0
i,0x00000000,1716941184.682132,10.0.2.15,22,10.0.2.2,61631,1073725440,16178,0,65535,65700,0,0,4,1460,1,0,0,24,33580,0,65700,0,0,0,0,0
o,0x00000000,1716941184.682136,10.0.2.15,22,10.0.2.2,61631,1073725440,16178,0,65535,65700,0,0,4,1460,1,0,1,24,33580,0,65700,44,0,0,0,0
o,0x00000000,1716941184.682272,10.0.2.15,22,10.0.2.2,61631,1073725440,16178,0,65535,65700,0,0,4,1460,1,0,0,24,33580,44,65700,0,0,0,0,0
i,0x00000000,1716941184.683039,10.0.2.15,22,10.0.2.2,61631,1073725440,16178,0,65535,65700,0,0,4,1460,1,0,0,24,33580,44,65700,0,44,0,0,0
i,0x00000000,1716941184.685800,10.0.2.15,22,10.0.2.2,61631,1073725440,16222,0,65535,65700,0,0,4,1460,1,0,0,24,33580,0,65700,0,0,0,0,0
o,0x00000000,1716941184.695365,10.0.2.15,22,10.0.2.2,61631,1073725440,16222,0,65535,65700,0,0,4,1460,1,0,0,24,33580,68,65700,0,0,0,0,0
i,0x00000000,1716941184.695963,10.0.2.15,22,10.0.2.2,61631,1073725440,16222,0,65535,65700,0,0,4,1460,1,0,0,24,33580,68,65700,0,68,0,0,0
i,0x00000000,1716941184.698280,10.0.2.15,22,10.0.2.2,61631,1073725440,16290,0,65535,65700,0,0,4,1460,1,0,0,24,33580,0,65700,0,0,0,0,0
o,0x00000000,1716941184.707200,10.0.2.15,22,10.0.2.2,61631,1073725440,16290,0,65535,65700,0,0,4,1460,1,0,0,24,33580,28,65700,0,0,0,0,0
i,0x00000000,1716941184.707847,10.0.2.15,22,10.0.2.2,61631,1073725440,16290,0,65535,65700,0,0,4,1460,1,0,0,24,33580,28,65700,0,28,0,0,0
i,0x00000000,1716941184.708590,10.0.2.15,22,10.0.2.2,61631,1073725440,16318,0,65535,65700,0,0,4,1460,1,0,0,24,33580,0,65700,0,0,0,0,0
o,0x00000000,1716941184.709080,10.0.2.15,22,10.0.2.2,61631,1073725440,16318,0,65535,65700,0,0,4,1460,1,0,0,24,33580,768,65700,112,0,0,0,0
i,0x00000000,1716941184.709737,10.0.2.15,22,10.0.2.2,61631,1073725440,16318,0,65535,65700,0,0,4,1460,1,0,0,24,33580,768,65700,112,768,0,0,0
o,0x00000000,1716941184.709863,10.0.2.15,22,10.0.2.2,61631,1073725440,17086,0,65535,65700,0,0,4,1460,1,0,0,24,33580,44,65700,0,0,0,0,0
i,0x00000000,1716941184.710406,10.0.2.15,22,10.0.2.2,61631,1073725440,17086,0,65535,65700,0,0,4,1460,1,0,0,24,33580,44,65700,0,44,0,0,0
i,0x00000000,1716941184.710938,10.0.2.15,22,10.0.2.2,61631,1073725440,17130,0,65535,65700,0,0,4,1460,1,0,0,24,33580,0,65700,0,0,0,0,0
o,0x00000000,1716941184.711208,10.0.2.15,22,10.0.2.2,61631,1073725440,17130,0,65535,65700,0,0,4,1460,1,0,4,24,33580,72,65700,0,0,0,0,0
i,0x00000000,1716941184.712029,10.0.2.15,22,10.0.2.2,61631,1073725440,17130,0,65535,65700,0,0,4,1460,1,0,4,24,33580,72,65700,0,72,0,0,0
o,0x00000000,1716941184.714321,10.0.2.15,22,10.0.2.2,61631,1073725440,17202,0,65535,65700,0,0,4,1460,1,0,4,24,33580,44,65700,0,0,0,0,0
i,0x00000000,1716941184.714893,10.0.2.15,22,10.0.2.2,61631,1073725440,17202,0,65535,65700,0,0,4,1460,1,0,4,24,33580,44,65700,0,44,0,0,0
o,0x00000000,1716941184.715432,10.0.2.15,22,10.0.2.2,61631,1073725440,17246,0,65535,65700,0,0,4,1460,1,0,4,24,33580,44,65700,0,0,0,0,0
i,0x00000000,1716941184.716358,10.0.2.15,22,10.0.2.2,61631,1073725440,17246,0,65535,65700,0,0,4,1460,1,0,4,24,33580,44,65700,0,44,0,0,0
o,0x00000000,1716941184.718802,10.0.2.15,22,10.0.2.2,61631,1073725440,17290,0,65535,65700,0,0,4,1460,1,0,4,24,33580,176,65700,0,0,0,0,0
i,0x00000000,1716941184.719522,10.0.2.15,22,10.0.2.2,61631,1073725440,17290,0,65535,65700,0,0,4,1460,1,0,4,24,33580,176,65700,0,176,0,0,0
i,0x00000000,1716941184.720081,10.0.2.15,22,10.0.2.2,61631,1073725440,17466,0,65535,65700,0,0,4,1460,1,0,4,24,33580,0,65700,0,0,0,0,0
i,0x00000000,1716941184.720084,10.0.2.15,22,10.0.2.2,61631,1073725440,17466,0,65535,65700,0,0,4,1460,1,0,4,24,33580,0,65700,96,0,0,0,0
o,0x00000000,1716941184.720088,10.0.2.15,22,10.0.2.2,61631,1073725440,17466,0,65535,65604,0,0,5,1460,1,0,5,24,33580,0,65700,96,0,0,0,0
o,0x00000000,1716941184.729874,10.0.2.15,22,10.0.2.2,61631,1073725440,17466,0,65535,65604,0,0,8,1460,1,0,4,24,33580,0,65700,0,0,0,0,0
i,0x00000000,1716941184.730603,10.0.2.15,22,10.0.2.2,61631,1073725440,17466,0,65535,65604,0,0,8,1460,1,0,20,24,33580,0,65700,0,1,0,0,0
i,0x00000000,1716941184.971730,172.16.3.2,5101,172.16.1.2,22468,10497,14480,0,65728,65700,6,6,4,1460,444,1,992,47,33580,0,65700,0,0,0,0,0
o,0x00000000,1716941184.971806,172.16.3.2,5101,172.16.1.2,22468,10497,14480,0,65728,65700,6,6,4,1460,444,1,996,47,33580,1,65700,0,0,0,0,0
i,0x00000000,1716941185.092923,172.16.3.2,5101,172.16.1.2,22468,10497,14480,0,65728,65700,6,6,4,1460,444,1,996,47,33580,1,65700,0,1,0,0,0
i,0x00000000,1716941185.092939,172.16.3.2,5101,172.16.1.2,22468,10497,14480,0,65728,65728,6,6,4,1460,433,1,996,46,33580,0,65700,4,0,0,0,0
o,0x00000000,1716941185.092946,172.16.3.2,5101,172.16.1.2,22468,10497,14480,0,65728,65728,6,6,4,1460,433,1,997,46,33580,0,65700,128,0,0,0,0
o,0x00000000,1716941185.093127,172.16.3.2,5101,172.16.1.2,22468,10497,14480,0,65728,65728,6,6,4,1460,433,1,996,46,33580,1,65700,0,0,0,0,0
o,0x00000000,1716941185.093534,10.0.2.15,22,10.0.2.2,62180,1073725440,14600,0,65535,65700,0,0,4,1460,1,0,4,24,33580,84,65700,0,0,0,0,0
i,0x00000000,1716941185.094314,10.0.2.15,22,10.0.2.2,62180,1073725440,14600,0,65535,65700,0,0,4,1460,1,0,4,24,33580,84,65700,0,84,0,0,0
i,0x00000000,1716941185.240532,172.16.3.2,5101,172.16.1.2,22468,10497,14480,0,65728,65728,6,6,4,1460,433,1,996,46,33580,1,65700,0,1,0,0,0
i,0x00000000,1716941185.331344,172.16.3.2,5101,172.16.1.2,20445,10497,14480,0,65728,65700,6,6,4,1460,444,1,992,47,33580,0,65700,0,0,0,0,0
o,0x00000000,1716941185.333119,172.16.3.2,5101,172.16.1.2,22468,10497,14480,0,65728,65728,6,6,4,1460,439,1,996,45,33580,1,65700,0,0,0,0,0
o,0x00000000,1716941185.333473,172.16.3.2,5101,172.16.1.2,22468,10497,14480,0,65728,65728,6,6,4,1460,439,1,996,45,33580,2,65700,0,1,0,0,0
o,0x00000000,1716941185.333634,10.0.2.15,22,10.0.2.2,62180,1073725440,14600,0,65535,65700,0,0,4,1460,1,0,4,24,33580,108,65700,0,0,0,0,0
i,0x00000000,1716941185.334426,10.0.2.15,22,10.0.2.2,62180,1073725440,14600,0,65535,65700,0,0,4,1460,1,0,4,24,33580,108,65700,0,108,0,0,0
o,0x00000000,1716941185.367151,172.16.3.2,5101,172.16.1.2,20445,10497,14480,0,65728,65700,6,6,4,1460,444,1,993,47,33580,0,65700,0,0,0,0,0
i,0x00000000,1716941185.450280,172.16.3.2,5101,172.16.1.2,22468,10497,14480,0,65728,65728,6,6,4,1460,439,1,996,45,33580,2,65700,0,2,0,0,0
i,0x00000000,1716941185.550731,172.16.3.2,5101,172.16.1.2,20445,10497,14480,0,65728,65700,6,6,4,1460,444,1,992,47,33580,0,65700,0,0,0,0,0
i,0x00000000,1716941185.560924,172.16.3.2,5101,172.16.1.2,20445,10497,14480,0,65728,65700,6,6,4,1460,444,1,992,47,33580,0,65700,0,0,0,0,0
o,0x00000000,1716941185.560938,172.16.3.2,5101,172.16.1.2,20445,10497,14480,0,65728,65700,6,6,4,1460,444,1,993,47,33580,0,65700,1448,0,0,0,0
i,0x00000000,1716941185.571245,172.16.3.2,5101,172.16.1.2,20445,10497,14480,0,65728,65700,6,6,4,1460,444,1,992,47,33580,0,65700,0,0,0,0,0
i,0x00000000,1716941185.580776,172.16.3.2,5101,172.16.1.2,20445,10497,14480,0,65728,65700,6,6,4,1460,444,1,992,47,33580,0,65700,0,0,0,0,0
o,0x00000000,1716941185.580791,172.16.3.2,5101,172.16.1.2,20445,10497,14480,0,65728,65700,6,6,4,1460,444,1,993,47,33580,0,65700,1448,0,0,0,0
i,0x00000000,1716941185.601503,172.16.3.2,5101,172.16.1.2,20445,10497,14480,0,65728,65700,6,6,4,1460,444,1,992,47,33580,0,65700,0,0,0,0,0
i,0x00000000,1716941185.610303,172.16.3.2,5101,172.16.1.2,20445,10497,14480,0,65728,65700,6,6,4,1460,444,1,992,47,33580,0,65700,0,0,0,0,0
o,0x00000000,1716941185.610321,172.16.3.2,5101,172.16.1.2,20445,10497,14480,0,65728,65700,6,6,4,1460,444,1,993,47,33580,0,65700,1448,0,0,0,0
i,0x00000000,1716941185.620382,172.16.3.2,5101,172.16.1.2,20445,10497,14480,0,65728,65700,6,6,4,1460,444,1,992,47,33580,0,65700,0,0,0,0,0
i,0x00000000,1716941185.630723,172.16.3.2,5101,172.16.1.2,20445,10497,14480,0,65728,65700,6,6,4,1460,444,1,992,47,33580,0,65700,0,0,0,0,0
o,0x00000000,1716941185.630733,172.16.3.2,5101,172.16.1.2,20445,10497,14480,0,65728,65700,6,6,4,1460,444,1,993,47,33580,0,65700,1448,0,0,0,0
i,0x00000000,1716941185.650376,172.16.3.2,5101,172.16.1.2,20445,10497,14480,0,65728,65700,6,6,4,1460,444,1,992,47,33580,0,65700,0,0,0,0,0
i,0x00000000,1716941185.660675,172.16.3.2,5101,172.16.1.2,20445,10497,14480,0,65728,65700,6,6,4,1460,444,1,992,47,33580,0,65700,0,0,0,0,0
o,0x00000000,1716941185.660686,172.16.3.2,5101,172.16.1.2,20445,10497,14480,0,65728,65700,6,6,4,1460,444,1,993,47,33580,0,65700,1448,0,0,0,0
i,0x00000000,1716941185.770658,172.16.3.2,5101,172.16.1.2,20445,10497,14480,0,65728,65700,6,6,4,1460,444,1,992,47,33580,0,65700,0,0,0,0,0
i,0x00000000,1716941185.780058,172.16.3.2,5101,172.16.1.2,20445,10497,14480,0,65728,65700,6,6,4,1460,444,1,992,47,33580,0,65700,0,0,0,0,0
o,0x00000000,1716941185.780069,172.16.3.2,5101,172.16.1.2,20445,10497,14480,0,65728,65700,6,6,4,1460,444,1,993,47,33580,0,65700,1448,0,0,0,0
i,0x00000000,1716941185.840342,172.16.3.2,5101,172.16.1.2,20445,10497,14480,0,65728,65700,6,6,4,1460,444,1,992,47,33580,0,65700,0,0,0,0,0
o,0x00000000,1716941185.877863,172.16.3.2,5101,172.16.1.2,20445,10497,14480,0,65728,65700,6,6,4,1460,444,1,993,47,33580,0,65700,0,0,0,0,0
i,0x00000000,1716941185.880674,172.16.3.2,5101,172.16.1.2,20445,10497,14480,0,65728,65700,6,6,4,1460,444,1,992,47,33580,0,65700,0,0,0,0,0
i,0x00000000,1716941185.891267,172.16.3.2,5101,172.16.1.2,20445,10497,14480,0,65728,65700,6,6,4,1460,444,1,992,47,33580,0,65700,0,0,0,0,0
o,0x00000000,1716941185.891279,172.16.3.2,5101,172.16.1.2,20445,10497,14480,0,65728,65700,6,6,4,1460,444,1,993,47,33580,0,65700,1448,0,0,0,0
i,0x00000000,1716941185.900202,172.16.3.2,5101,172.16.1.2,20445,10497,14480,0,65728,65700,6,6,4,1460,444,1,992,47,33580,0,65700,0,0,0,0,0
o,0x00000000,1716941185.937706,172.16.3.2,5101,172.16.1.2,20445,10497,14480,0,65728,65700,6,6,4,1460,444,1,993,47,33580,0,65700,0,0,0,0,0
i,0x00000000,1716941185.940030,172.16.3.2,5101,172.16.1.2,20445,10497,14480,0,65728,65700,6,6,4,1460,444,1,992,47,33580,0,65700,0,0,0,0,0
i,0x00000000,1716941185.950321,172.16.3.2,5101,172.16.1.2,20445,10497,14480,0,65728,65700,6,6,4,1460,444,1,992,47,33580,0,65700,0,0,0,0,0
o,0x00000000,1716941185.950326,172.16.3.2,5101,172.16.1.2,20445,10497,14480,0,65728,65700,6,6,4,1460,444,1,993,47,33580,0,65700,1448,0,0,0,0
i,0x00000000,1716941185.959681,172.16.3.2,5101,172.16.1.2,20445,10497,14480,0,65728,65700,6,6,4,1460,444,1,992,47,33580,0,65700,0,0,0,0,0
i,0x00000000,1716941185.980419,172.16.3.2,5101,172.16.1.2,20445,10497,14480,0,65728,65700,6,6,4,1460,444,1,992,47,33580,0,65700,0,0,0,0,0
o,0x00000000,1716941185.980425,172.16.3.2,5101,172.16.1.2,20445,10497,14480,0,65728,65700,6,6,4,1460,444,1,993,47,33580,0,65700,1448,0,0,0,0
i,0x00000000,1716941185.989670,172.16.3.2,5101,172.16.1.2,20445,10497,14480,0,65728,65700,6,6,4,1460,444,1,992,47,33580,0,65700,0,0,0,0,0
i,0x00000000,1716941186.000232,172.16.3.2,5101,172.16.1.2,20445,10497,14480,0,65728,65700,6,6,4,1460,444,1,992,47,33580,0,65700,0,0,0,0,0
o,0x00000000,1716941186.000243,172.16.3.2,5101,172.16.1.2,20445,10497,14480,0,65728,65700,6,6,4,1460,444,1,993,47,33580,0,65700,1448,0,0,0,0
i,0x00000000,1716941186.010295,172.16.3.2,5101,172.16.1.2,20445,10497,14480,0,65728,65700,6,6,4,1460,444,1,992,47,33580,0,65700,0,0,0,0,0
o,0x00000000,1716941186.047300,172.16.3.2,5101,172.16.1.2,20445,10497,14480,0,65728,65700,6,6,4,1460,444,1,993,47,33580,0,65700,0,0,0,0,0
i,0x00000000,1716941186.050602,172.16.3.2,5101,172.16.1.2,20445,10497,14480,0,65728,65700,6,6,4,1460,444,1,992,47,33580,0,65700,0,0,0,0,0
i,0x00000000,1716941186.059886,172.16.3.2,5101,172.16.1.2,20445,10497,14480,0,65728,65700,6,6,4,1460,444,1,992,47,33580,0,65700,0,0,0,0,0
o,0x00000000,1716941186.059894,172.16.3.2,5101,172.16.1.2,20445,10497,14480,0,65728,65700,6,6,4,1460,444,1,993,47,33580,0,65700,1448,0,0,0,0
i,0x00000000,1716941186.070218,172.16.3.2,5101,172.16.1.2,20445,10497,14480,0,65728,65700,6,6,4,1460,444,1,992,47,33580,0,65700,0,0,0,0,0
o,0x00000000,1716941186.107288,172.16.3.2,5101,172.16.1.2,20445,10497,14480,0,65728,65700,6,6,4,1460,444,1,993,47,33580,0,65700,0,0,0,0,0
i,0x00000000,1716941186.149864,172.16.3.2,5101,172.16.1.2,20445,10497,14480,0,65728,65700,6,6,4,1460,444,1,992,47,33580,0,65700,0,0,0,0,0
i,0x00000000,1716941186.159750,172.16.3.2,5101,172.16.1.2,20445,10497,14480,0,65728,65700,6,6,4,1460,444,1,992,47,33580,0,65700,0,0,0,0,0
o,0x00000000,1716941186.159757,172.16.3.2,5101,172.16.1.2,20445,10497,14480,0,65728,65700,6,6,4,1460,444,1,993,47,33580,0,65700,1448,0,0,0,0
i,0x00000000,1716941186.219743,172.16.3.2,5101,172.16.1.2,20445,10497,14480,0,65728,65700,6,6,4,1460,444,1,992,47,33580,0,65700,0,0,0,0,0
o,0x00000000,1716941186.257611,172.16.3.2,5101,172.16.1.2,20445,10497,14480,0,65728,65700,6,6,4,1460,444,1,993,47,33580,0,65700,0,0,0,0,0
i,0x00000000,1716941186.259988,172.16.3.2,5101,172.16.1.2,20445,10497,14480,0,65728,65700,6,6,4,1460,444,1,992,47,33580,0,65700,0,0,0,0,0
o,0x00000000,1716941186.259995,172.16.3.2,5101,172.16.1.2,20445,10497,14480,0,65728,65728,6,6,4,1460,444,1,993,47,33580,0,65700,0,0,1,0,0
i,0x00000000,1716941186.270253,172.16.3.2,5101,172.16.1.2,20445,10497,14480,0,65728,65728,6,6,4,1460,444,1,992,47,33580,0,65700,0,0,1,0,0
o,0x00000000,1716941186.270260,172.16.3.2,5101,172.16.1.2,20445,10497,14480,0,65728,65728,6,6,4,1460,444,1,993,47,33580,0,65700,0,0,1,0,0
i,0x00000000,1716941186.309645,172.16.3.2,5101,172.16.1.2,20445,10497,14480,0,65728,65728,6,6,4,1460,444,1,992,47,33580,0,65700,0,0,1,0,0
o,0x00000000,1716941186.309656,172.16.3.2,5101,172.16.1.2,20445,10497,14480,0,65728,65728,6,6,4,1460,444,1,993,47,33580,0,65700,0,0,1,0,0
i,0x00000000,1716941186.319097,172.16.3.2,5101,172.16.1.2,20445,10497,14480,0,65728,65728,6,6,4,1460,444,1,992,47,33580,0,65700,0,0,1,0,0
o,0x00000000,1716941186.319105,172.16.3.2,5101,172.16.1.2,20445,10497,14480,0,65728,65728,6,6,4,1460,444,1,993,47,33580,0,65700,0,0,2,0,0
o,0x00000000,1716941186.338342,10.0.2.15,22,10.0.2.2,62180,1073725440,14600,0,65535,65700,0,0,4,1460,1,0,4,24,33580,156,65700,0,0,0,0,0
i,0x00000000,1716941186.339058,10.0.2.15,22,10.0.2.2,62180,1073725440,14600,0,65535,65700,0,0,4,1460,1,0,4,24,33580,156,65700,0,156,0,0,0
i,0x00000000,1716941186.339801,172.16.3.2,5101,172.16.1.2,20445,10497,14480,0,65728,65728,6,6,4,1460,444,1,992,47,33580,0,65700,0,0,2,0,0
o,0x00000000,1716941186.339809,172.16.3.2,5101,172.16.1.2,20445,10497,14480,0,65728,65728,6,6,4,1460,444,1,993,47,33580,0,65700,0,0,2,0,0
i,0x00000000,1716941186.359323,172.16.3.2,5101,172.16.1.2,20445,10497,14480,0,65728,65728,6,6,4,1460,444,1,992,47,33580,0,65700,0,0,2,0,0
o,0x00000000,1716941186.359337,172.16.3.2,5101,172.16.1.2,20445,10497,14480,0,65728,65728,6,6,4,1460,444,1,993,47,33580,0,65700,0,0,2,0,0
i,0x00000000,1716941186.369675,172.16.3.2,5101,172.16.1.2,20445,10497,14480,0,65728,65728,6,6,4,1460,444,1,992,47,33580,0,65700,0,0,2,0,0
o,0x00000000,1716941186.369682,172.16.3.2,5101,172.16.1.2,20445,10497,14480,0,65728,65728,6,6,4,1460,444,1,993,47,33580,0,65700,0,0,2,0,0
i,0x00000000,1716941186.379935,172.16.3.2,5101,172.16.1.2,20445,10497,14480,0,65728,65728,6,6,4,1460,444,1,992,47,33580,0,65700,0,0,2,0,0
o,0x00000000,1716941186.379941,172.16.3.2,5101,172.16.1.2,20445,10497,14480,0,65728,65728,6,6,4,1460,444,1,993,47,33580,0,65700,0,0,2,0,0
i,0x00000000,1716941186.429552,172.16.3.2,5101,172.16.1.2,20445,10497,14480,0,65728,65728,6,6,4,1460,444,1,992,47,33580,0,65700,0,0,2,0,0
o,0x00000000,1716941186.429566,172.16.3.2,5101,172.16.1.2,20445,10497,14480,0,65728,65728,6,6,4,1460,444,1,993,47,33580,0,65700,0,0,2,0,0
i,0x00000000,1716941186.459572,172.16.3.2,5101,172.16.1.2,20445,10497,14480,0,65728,65728,6,6,4,1460,444,1,992,47,33580,0,65700,0,0,2,0,0
o,0x00000000,1716941186.459597,172.16.3.2,5101,172.16.1.2,20445,10497,14480,0,65728,65728,6,6,4,1460,444,1,993,47,33580,0,65700,5792,0,1,0,0
i,0x00000000,1716941186.469829,172.16.3.2,5101,172.16.1.2,20445,10497,14480,0,65728,65728,6,6,4,1460,444,1,992,47,33580,0,65700,0,0,1,0,0
o,0x00000000,1716941186.469837,172.16.3.2,5101,172.16.1.2,20445,10497,14480,0,65728,65700,6,6,4,1460,444,1,993,47,33580,0,65700,0,0,1,0,0
i,0x00000000,1716941186.479256,172.16.3.2,5101,172.16.1.2,20445,10497,14480,0,65728,65700,6,6,4,1460,444,1,992,47,33580,0,65700,0,0,1,0,0
o,0x00000000,1716941186.479261,172.16.3.2,5101,172.16.1.2,20445,10497,14480,0,65728,65728,6,6,4,1460,444,1,993,47,33580,0,65700,0,0,1,0,0
i,0x00000000,1716941186.498825,172.16.3.2,5101,172.16.1.2,20445,10497,14480,0,65728,65728,6,6,4,1460,444,1,992,47,33580,0,65700,0,0,1,0,0
o,0x00000000,1716941186.498835,172.16.3.2,5101,172.16.1.2,20445,10497,14480,0,65728,65728,6,6,4,1460,444,1,993,47,33580,0,65700,10136,0,0,0,0
i,0x00000000,1716941186.529378,172.16.3.2,5101,172.16.1.2,20445,10497,14480,0,65728,65728,6,6,4,1460,444,1,992,47,33580,0,65700,0,0,0,0,0
o,0x00000000,1716941186.529385,172.16.3.2,5101,172.16.1.2,20445,10497,14480,0,65728,65700,6,6,4,1460,444,1,993,47,33580,0,65700,0,0,0,0,0
i,0x00000000,1716941186.559264,172.16.3.2,5101,172.16.1.2,20445,10497,14480,0,65728,65700,6,6,4,1460,444,1,992,47,33580,0,65700,0,0,0,0,0
o,0x00000000,1716941186.559273,172.16.3.2,5101,172.16.1.2,20445,10497,14480,0,65728,65728,6,6,4,1460,444,1,993,47,33580,0,65700,0,0,0,0,0
i,0x00000000,1716941186.579816,172.16.3.2,5101,172.16.1.2,20445,10497,14480,0,65728,65728,6,6,4,1460,444,1,992,47,33580,0,65700,0,0,0,0,0
o,0x00000000,1716941186.579824,172.16.3.2,5101,172.16.1.2,20445,10497,14480,0,65728,65728,6,6,4,1460,444,1,993,47,33580,0,65700,0,0,0,0,0
i,0x00000000,1716941186.600301,172.16.3.2,5101,172.16.1.2,20445,10497,14480,0,65728,65728,6,6,4,1460,444,1,992,47,33580,0,65700,0,0,0,0,0
o,0x00000000,1716941186.600309,172.16.3.2,5101,172.16.1.2,20445,10497,14480,0,65728,65728,6,6,4,1460,444,1,993,47,33580,0,65700,0,0,0,0,0
i,0x00000000,1716941186.610028,172.16.3.2,5101,172.16.1.2,20445,10497,14480,0,65728,65728,6,6,4,1460,444,1,992,47,33580,0,65700,0,0,0,0,0
o,0x00000000,1716941186.610033,172.16.3.2,5101,172.16.1.2,20445,10497,14480,0,65728,65728,6,6,4,1460,444,1,993,47,33580,0,65700,0,0,0,0,0
i,0x00000000,1716941186.619309,172.16.3.2,5101,172.16.1.2,20445,10497,14480,0,65728,65728,6,6,4,1460,444,1,992,47,33580,0,65700,0,0,0,0,0
o,0x00000000,1716941186.619315,172.16.3.2,5101,172.16.1.2,20445,10497,14480,0,65728,65728,6,6,4,1460,444,1,993,47,33580,0,65700,0,0,1,0,0
i,0x00000000,1716941186.619850,172.16.3.2,5101,172.16.1.2,20445,10497,14480,0,65728,65728,6,6,4,1460,444,1,992,47,33580,0,65700,0,0,1,0,0
i,0x00000000,1716941186.739142,172.16.3.2,5101,172.16.1.2,20445,10497,14480,0,65728,65728,6,6,4,1460,444,1,992,47,33580,0,65700,0,0,1,0,0
o,0x00000000,1716941186.739159,172.16.3.2,5101,172.16.1.2,20445,10497,14480,0,65728,65728,6,6,4,1460,444,1,993,47,33580,0,65700,0,0,2,0,0
i,0x00000000,1716941186.760092,172.16.3.2,5101,172.16.1.2,20445,10497,14480,0,65728,65728,6,6,4,1460,444,1,992,47,33580,0,65700,0,0,2,0,0
o,0x00000000,1716941186.760109,172.16.3.2,5101,172.16.1.2,20445,10497,14480,0,65728,65728,6,6,4,1460,444,1,993,47,33580,0,65700,0,0,2,0,0
i,0x00000000,1716941186.789750,172.16.3.2,5101,172.16.1.2,20445,10497,14480,0,65728,65728,6,6,4,1460,444,1,992,47,33580,0,65700,0,0,2,0,0
o,0x00000000,1716941186.789767,172.16.3.2,5101,172.16.1.2,20445,10497,14480,0,65728,65728,6,6,4,1460,444,1,993,47,33580,0,65700,0,0,2,0,0
i,0x00000000,1716941186.849366,172.16.3.2,5101,172.16.1.2,20445,10497,14480,0,65728,65728,6,6,4,1460,444,1,992,47,33580,0,65700,0,0,2,0,0
o,0x00000000,1716941186.849391,172.16.3.2,5101,172.16.1.2,20445,10497,14480,0,65728,65728,6,6,4,1460,444,1,993,47,33580,0,65700,1448,0,2,0,0
i,0x00000000,1716941186.858556,172.16.3.2,5101,172.16.1.2,20445,10497,14480,0,65728,65728,6,6,4,1460,444,1,992,47,33580,0,65700,0,0,2,0,0
o,0x00000000,1716941186.858567,172.16.3.2,5101,172.16.1.2,20445,10497,14480,0,65728,65700,6,6,4,1460,444,1,993,47,33580,0,65700,1448,0,2,0,0
i,0x00000000,1716941186.868811,172.16.3.2,5101,172.16.1.2,20445,10497,14480,0,65728,65700,6,6,4,1460,444,1,992,47,33580,0,65700,0,0,2,0,0
o,0x00000000,1716941186.868818,172.16.3.2,5101,172.16.1.2,20445,10497,14480,0,65728,65700,6,6,4,1460,444,1,993,47,33580,0,65700,1448,0,2,0,0
i,0x00000000,1716941186.889494,172.16.3.2,5101,172.16.1.2,20445,10497,14480,0,65728,65700,6,6,4,1460,444,1,992,47,33580,0,65700,0,0,2,0,0
o,0x00000000,1716941186.889509,172.16.3.2,5101,172.16.1.2,20445,10497,14480,0,65728,65700,6,6,4,1460,444,1,993,47,33580,0,65700,1448,0,2,0,0
i,0x00000000,1716941186.899185,172.16.3.2,5101,172.16.1.2,20445,10497,14480,0,65728,65700,6,6,4,1460,444,1,992,47,33580,0,65700,0,0,2,0,0
o,0x00000000,1716941186.899241,172.16.3.2,5101,172.16.1.2,20445,10497,14480,0,65728,65700,6,6,4,1460,444,1,993,47,33580,0,65700,1448,0,2,0,0
i,0x00000000,1716941186.909354,172.16.3.2,5101,172.16.1.2,20445,10497,14480,0,65728,65700,6,6,4,1460,444,1,992,47,33580,0,65700,0,0,2,0,0
o,0x00000000,1716941186.909395,172.16.3.2,5101,172.16.1.2,20445,10497,14480,0,65728,65700,6,6,4,1460,444,1,993,47,33580,0,65700,1448,0,2,0,0
i,0x00000000,1716941186.919035,172.16.3.2,5101,172.16.1.2,20445,10497,14480,0,65728,65700,6,6,4,1460,444,1,992,47,33580,0,65700,0,0,2,0,0
o,0x00000000,1716941186.919066,172.16.3.2,5101,172.16.1.2,20445,10497,14480,0,65728,65700,6,6,4,1460,444,1,993,47,33580,0,65700,1448,0,2,0,0
i,0x00000000,1716941186.939441,172.16.3.2,5101,172.16.1.2,20445,10497,14480,0,65728,65700,6,6,4,1460,444,1,992,47,33580,0,65700,0,0,2,0,0
o,0x00000000,1716941186.939469,172.16.3.2,5101,172.16.1.2,20445,10497,14480,0,65728,65700,6,6,4,1460,444,1,993,47,33580,0,65700,2896,0,1,0,0
i,0x00000000,1716941187.000025,172.16.3.2,5101,172.16.1.2,20445,10497,14480,0,65728,65700,6,6,4,1460,444,1,992,47,33580,0,65700,0,0,1,0,0
o,0x00000000,1716941187.000047,172.16.3.2,5101,172.16.1.2,20445,10497,14480,0,65728,65700,6,6,4,1460,444,1,993,47,33580,0,65700,0,0,1,0,0
i,0x00000000,1716941187.009557,172.16.3.2,5101,172.16.1.2,20445,10497,14480,0,65728,65700,6,6,4,1460,444,1,992,47,33580,0,65700,0,0,1,0,0
o,0x00000000,1716941187.009571,172.16.3.2,5101,172.16.1.2,20445,10497,14480,0,65728,65728,6,6,4,1460,444,1,993,47,33580,0,65700,0,0,1,0,0
i,0x00000000,1716941187.048821,172.16.3.2,5101,172.16.1.2,20445,10497,14480,0,65728,65728,6,6,4,1460,444,1,992,47,33580,0,65700,0,0,1,0,0
o,0x00000000,1716941187.048837,172.16.3.2,5101,172.16.1.2,20445,10497,14480,0,65728,65728,6,6,4,1460,444,1,993,47,33580,0,65700,0,0,1,0,0
i,0x00000000,1716941187.059271,172.16.3.2,5101,172.16.1.2,20445,10497,14480,0,65728,65728,6,6,4,1460,444,1,992,47,33580,0,65700,0,0,1,0,0
o,0x00000000,1716941187.059293,172.16.3.2,5101,172.16.1.2,20445,10497,14480,0,65728,65728,6,6,4,1460,444,1,993,47,33580,0,65700,0,0,1,0,0
i,0x00000000,1716941187.088260,172.16.3.2,5101,172.16.1.2,20445,10497,14480,0,65728,65728,6,6,4,1460,444,1,992,47,33580,0,65700,0,0,1,0,0
o,0x00000000,1716941187.088266,172.16.3.2,5101,172.16.1.2,20445,10497,14480,0,65728,65728,6,6,4,1460,444,1,993,47,33580,0,65700,0,0,1,0,0
i,0x00000000,1716941187.098492,172.16.3.2,5101,172.16.1.2,20445,10497,14480,0,65728,65728,6,6,4,1460,444,1,992,47,33580,0,65700,0,0,1,0,0
o,0x00000000,1716941187.098498,172.16.3.2,5101,172.16.1.2,20445,10497,14480,0,65728,65728,6,6,4,1460,444,1,993,47,33580,0,65700,0,0,1,0,0
i,0x00000000,1716941187.109192,172.16.3.2,5101,172.16.1.2,20445,10497,14480,0,65728,65728,6,6,4,1460,444,1,992,47,33580,0,65700,0,0,1,0,0
o,0x00000000,1716941187.109200,172.16.3.2,5101,172.16.1.2,20445,10497,14480,0,65728,65728,6,6,4,1460,444,1,993,47,33580,0,65700,0,0,1,0,0
i,0x00000000,1716941187.168537,172.16.3.2,5101,172.16.1.2,20445,10497,14480,0,65728,65728,6,6,4,1460,444,1,992,47,33580,0,65700,0,0,1,0,0
o,0x00000000,1716941187.168556,172.16.3.2,5101,172.16.1.2,20445,10497,14480,0,65728,65728,6,6,4,1460,444,1,993,47,33580,0,65700,15928,0,0,0,0
i,0x00000000,1716941187.178770,172.16.3.2,5101,172.16.1.2,20445,10497,14480,0,65728,65728,6,6,4,1460,444,1,992,47,33580,0,65700,0,0,0,0,0
o,0x00000000,1716941187.178826,172.16.3.2,5101,172.16.1.2,20445,10497,14480,0,65728,65728,6,6,4,1460,444,1,993,47,33580,0,65700,0,0,0,0,0
i,0x00000000,1716941187.248940,172.16.3.2,5101,172.16.1.2,20445,10497,14480,0,65728,65728,6,6,4,1460,444,1,992,47,33580,0,65700,0,0,0,0,0
i,0x00000000,1716941187.258331,172.16.3.2,5101,172.16.1.2,20445,10497,14480,0,65728,65728,6,6,4,1460,444,1,992,47,33580,0,65700,0,0,0,0,0
o,0x00000000,1716941187.258346,172.16.3.2,5101,172.16.1.2,20445,10497,14480,0,65728,65728,6,6,4,1460,444,1,993,47,33580,0,65700,1448,0,0,0,0
i,0x00000000,1716941187.318238,172.16.3.2,5101,172.16.1.2,20445,10497,14480,0,65728,65728,6,6,4,1460,444,1,992,47,33580,0,65700,0,0,0,0,0
i,0x00000000,1716941187.328534,172.16.3.2,5101,172.16.1.2,20445,10497,14480,0,65728,65728,6,6,4,1460,444,1,992,47,33580,0,65700,0,0,0,0,0
o,0x00000000,1716941187.328547,172.16.3.2,5101,172.16.1.2,20445,10497,14480,0,65728,65728,6,6,4,1460,444,1,993,47,33580,0,65700,1448,0,0,0,0
o,0x00000000,1716941187.348059,10.0.2.15,22,10.0.2.2,62180,1073725440,14600,0,65535,65700,0,0,4,1460,1,0,4,24,33580,108,65700,0,0,0,0,0
i,0x00000000,1716941187.348717,172.16.3.2,5101,172.16.1.2,20445,10497,14480,0,65728,65728,6,6,4,1460,444,1,992,47,33580,0,65700,0,0,0,0,0
i,0x00000000,1716941187.348882,10.0.2.15,22,10.0.2.2,62180,1073725440,14600,0,65535,65700,0,0,4,1460,1,0,4,24,33580,108,65700,0,108,0,0,0
o,0x00000000,1716941187.387399,172.16.3.2,5101,172.16.1.2,20445,10497,14480,0,65728,65728,6,6,4,1460,444,1,993,47,33580,0,65700,0,0,0,0,0
i,0x00000000,1716941187.388538,172.16.3.2,5101,172.16.1.2,20445,10497,14480,0,65728,65728,6,6,4,1460,444,1,992,47,33580,0,65700,0,0,0,0,0
i,0x00000000,1716941187.408483,172.16.3.2,5101,172.16.1.2,20445,10497,14480,0,65728,65728,6,6,4,1460,444,1,992,47,33580,0,65700,0,0,0,0,0
o,0x00000000,1716941187.408502,172.16.3.2,5101,172.16.1.2,20445,10497,14480,0,65728,65728,6,6,4,1460,444,1,993,47,33580,0,65700,1448,0,0,0,0
i,0x00000000,1716941187.418758,172.16.3.2,5101,172.16.1.2,20445,10497,14480,0,65728,65728,6,6,4,1460,444,1,992,47,33580,0,65700,0,0,0,0,0
o,0x00000000,1716941187.458125,172.16.3.2,5101,172.16.1.2,20445,10497,14480,0,65728,65728,6,6,4,1460,444,1,993,47,33580,0,65700,0,0,0,0,0
i,0x00000000,1716941187.467796,172.16.3.2,5101,172.16.1.2,20445,10497,14480,0,65728,65728,6,6,4,1460,444,1,992,47,33580,0,65700,0,0,0,0,0
i,0x00000000,1716941187.478250,172.16.3.2,5101,172.16.1.2,20445,10497,14480,0,65728,65728,6,6,4,1460,444,1,992,47,33580,0,65700,0,0,0,0,0
o,0x00000000,1716941187.478258,172.16.3.2,5101,172.16.1.2,20445,10497,14480,0,65728,65728,6,6,4,1460,444,1,993,47,33580,0,65700,1448,0,0,0,0
i,0x00000000,1716941187.537995,172.16.3.2,5101,172.16.1.2,20445,10497,14480,0,65728,65728,6,6,4,1460,444,1,992,47,33580,0,65700,0,0,0,0,0
i,0x00000000,1716941187.548365,172.16.3.2,5101,172.16.1.2,20445,10497,14480,0,65728,65728,6,6,4,1460,444,1,992,47,33580,0,65700,0,0,0,0,0
o,0x00000000,1716941187.548373,172.16.3.2,5101,172.16.1.2,20445,10497,14480,0,65728,65728,6,6,4,1460,444,1,993,47,33580,0,65700,1448,0,0,0,0
i,0x00000000,1716941187.568119,172.16.3.2,5101,172.16.1.2,20445,10497,14480,0,65728,65728,6,6,4,1460,444,1,992,47,33580,0,65700,0,0,0,0,0
o,0x00000000,1716941187.607952,172.16.3.2,5101,172.16.1.2,20445,10497,14480,0,65728,65728,6,6,4,1460,444,1,993,47,33580,0,65700,0,0,0,0,0
i,0x00000000,1716941187.628060,172.16.3.2,5101,172.16.1.2,20445,10497,14480,0,65728,65728,6,6,4,1460,444,1,992,47,33580,0,65700,0,0,0,0,0
i,0x00000000,1716941187.637572,172.16.3.2,5101,172.16.1.2,20445,10497,14480,0,65728,65728,6,6,4,1460,444,1,992,47,33580,0,65700,0,0,0,0,0
o,0x00000000,1716941187.637586,172.16.3.2,5101,172.16.1.2,20445,10497,14480,0,65728,65728,6,6,4,1460,444,1,993,47,33580,0,65700,1448,0,0,0,0
i,0x00000000,1716941187.648243,172.16.3.2,5101,172.16.1.2,20445,10497,14480,0,65728,65728,6,6,4,1460,444,1,992,47,33580,0,65700,0,0,0,0,0
i,0x00000000,1716941187.657990,172.16.3.2,5101,172.16.1.2,20445,10497,14480,0,65728,65728,6,6,4,1460,444,1,992,47,33580,0,65700,0,0,0,0,0
o,0x00000000,1716941187.658001,172.16.3.2,5101,172.16.1.2,20445,10497,14480,0,65728,65728,6,6,4,1460,444,1,993,47,33580,0,65700,1448,0,0,0,0
i,0x00000000,1716941187.718061,172.16.3.2,5101,172.16.1.2,20445,10497,14480,0,65728,65728,6,6,4,1460,444,1,992,47,33580,0,65700,0,0,0,0,0
i,0x00000000,1716941187.738563,172.16.3.2,5101,172.16.1.2,20445,10497,14480,0,65728,65728,6,6,4,1460,444,1,992,47,33580,0,65700,0,0,0,0,0
o,0x00000000,1716941187.738573,172.16.3.2,5101,172.16.1.2,20445,10497,14480,0,65728,65728,6,6,4,1460,444,1,993,47,33580,0,65700,1448,0,0,0,0
i,0x00000000,1716941187.767213,172.16.3.2,5101,172.16.1.2,20445,10497,14480,0,65728,65728,6,6,4,1460,444,1,992,47,33580,0,65700,0,0,0,0,0
o,0x00000000,1716941187.807969,172.16.3.2,5101,172.16.1.2,20445,10497,14480,0,65728,65728,6,6,4,1460,444,1,993,47,33580,0,65700,0,0,0,0,0
i,0x00000000,1716941187.838365,172.16.3.2,5101,172.16.1.2,20445,10497,14480,0,65728,65728,6,6,4,1460,444,1,992,47,33580,0,65700,0,0,0,0,0
i,0x00000000,1716941187.847799,172.16.3.2,5101,172.16.1.2,20445,10497,14480,0,65728,65728,6,6,4,1460,444,1,992,47,33580,0,65700,0,0,0,0,0
o,0x00000000,1716941187.847811,172.16.3.2,5101,172.16.1.2,20445,10497,14480,0,65728,65728,6,6,4,1460,444,1,993,47,33580,0,65700,1448,0,0,0,0
i,0x00000000,1716941187.858006,172.16.3.2,5101,172.16.1.2,20445,10497,14480,0,65728,65728,6,6,4,1460,444,1,992,47,33580,0,65700,0,0,0,0,0
i,0x00000000,1716941187.878240,172.16.3.2,5101,172.16.1.2,20445,10497,14480,0,65728,65728,6,6,4,1460,444,1,992,47,33580,0,65700,0,0,0,0,0
o,0x00000000,1716941187.878248,172.16.3.2,5101,172.16.1.2,20445,10497,14480,0,65728,65728,6,6,4,1460,444,1,993,47,33580,0,65700,1448,0,0,0,0
i,0x00000000,1716941187.907209,172.16.3.2,5101,172.16.1.2,20445,10497,14480,0,65728,65728,6,6,4,1460,444,1,992,47,33580,0,65700,0,0,0,0,0
i,0x00000000,1716941187.937706,172.16.3.2,5101,172.16.1.2,20445,10497,14480,0,65728,65728,6,6,4,1460,444,1,992,47,33580,0,65700,0,0,0,0,0
o,0x00000000,1716941187.937719,172.16.3.2,5101,172.16.1.2,20445,10497,14480,0,65728,65728,6,6,4,1460,444,1,993,47,33580,0,65700,1448,0,0,0,0
i,0x00000000,1716941187.947099,172.16.3.2,5101,172.16.1.2,20445,10497,14480,0,65728,65728,6,6,4,1460,444,1,992,47,33580,0,65700,0,0,0,0,0
o,0x00000000,1716941187.988008,172.16.3.2,5101,172.16.1.2,20445,10497,14480,0,65728,65728,6,6,4,1460,444,1,993,47,33580,0,65700,0,0,0,0,0
i,0x00000000,1716941187.988338,172.16.3.2,5101,172.16.1.2,20445,10497,14480,0,65728,65728,6,6,4,1460,444,1,992,47,33580,0,65700,0,0,0,0,0
o,0x00000000,1716941188.027483,172.16.3.2,5101,172.16.1.2,20445,10497,14480,0,65728,65728,6,6,4,1460,444,1,993,47,33580,0,65700,0,0,0,0,0
i,0x00000000,1716941188.038184,172.16.3.2,5101,172.16.1.2,20445,10497,14480,0,65728,65728,6,6,4,1460,444,1,992,47,33580,0,65700,0,0,0,0,0
i,0x00000000,1716941188.046886,172.16.3.2,5101,172.16.1.2,20445,10497,14480,0,65728,65728,6,6,4,1460,444,1,992,47,33580,0,65700,0,0,0,0,0
o,0x00000000,1716941188.046896,172.16.3.2,5101,172.16.1.2,20445,10497,14480,0,65728,65728,6,6,4,1460,444,1,993,47,33580,0,65700,1448,0,0,0,0
i,0x00000000,1716941188.058800,172.16.3.2,5101,172.16.1.2,20445,10497,14480,0,65728,65728,6,6,4,1460,444,1,992,47,33580,0,65700,0,0,0,0,0
o,0x00000000,1716941188.097556,172.16.3.2,5101,172.16.1.2,20445,10497,14480,0,65728,65728,6,6,4,1460,444,1,993,47,33580,0,65700,0,0,0,0,0
i,0x00000000,1716941188.098248,172.16.3.2,5101,172.16.1.2,20445,10497,14480,0,65728,65728,6,6,4,1460,444,1,992,47,33580,0,65700,0,0,0,0,0
i,0x00000000,1716941188.106950,172.16.3.2,5101,172.16.1.2,20445,10497,14480,0,65728,65728,6,6,4,1460,444,1,992,47,33580,0,65700,0,0,0,0,0
o,0x00000000,1716941188.106957,172.16.3.2,5101,172.16.1.2,20445,10497,14480,0,65728,65728,6,6,4,1460,444,1,993,47,33580,0,65700,1448,0,0,0,0
i,0x00000000,1716941188.127495,172.16.3.2,5101,172.16.1.2,20445,10497,14480,0,65728,65728,6,6,4,1460,444,1,992,47,33580,0,65700,0,0,0,0,0
i,0x00000000,1716941188.147996,172.16.3.2,5101,172.16.1.2,20445,10497,14480,0,65728,65728,6,6,4,1460,444,1,992,47,33580,0,65700,0,0,0,0,0
o,0x00000000,1716941188.148004,172.16.3.2,5101,172.16.1.2,20445,10497,14480,0,65728,65728,6,6,4,1460,444,1,993,47,33580,0,65700,1448,0,0,0,0
i,0x00000000,1716941188.198254,172.16.3.2,5101,172.16.1.2,20445,10497,14480,0,65728,65728,6,6,4,1460,444,1,992,47,33580,0,65700,0,0,0,0,0
i,0x00000000,1716941188.207177,172.16.3.2,5101,172.16.1.2,20445,10497,14480,0,65728,65728,6,6,4,1460,444,1,992,47,33580,0,65700,0,0,0,0,0
o,0x00000000,1716941188.207185,172.16.3.2,5101,172.16.1.2,20445,10497,14480,0,65728,65728,6,6,4,1460,444,1,993,47,33580,0,65700,1448,0,0,0,0
i,0x00000000,1716941188.227899,172.16.3.2,5101,172.16.1.2,20445,10497,14480,0,65728,65728,6,6,4,1460,444,1,992,47,33580,0,65700,0,0,0,0,0
i,0x00000000,1716941188.237065,172.16.3.2,5101,172.16.1.2,20445,10497,14480,0,65728,65728,6,6,4,1460,444,1,992,47,33580,0,65700,0,0,0,0,0
o,0x00000000,1716941188.237073,172.16.3.2,5101,172.16.1.2,20445,10497,14480,0,65728,65728,6,6,4,1460,444,1,993,47,33580,0,65700,1448,0,0,0,0
i,0x00000000,1716941188.317801,172.16.3.2,5101,172.16.1.2,20445,10497,14480,0,65728,65728,6,6,4,1460,444,1,992,47,33580,0,65700,0,0,0,0,0
i,0x00000000,1716941188.327149,172.16.3.2,5101,172.16.1.2,20445,10497,14480,0,65728,65728,6,6,4,1460,444,1,992,47,33580,0,65700,0,0,0,0,0
o,0x00000000,1716941188.327159,172.16.3.2,5101,172.16.1.2,20445,10497,14480,0,65728,65728,6,6,4,1460,444,1,993,47,33580,0,65700,1448,0,0,0,0
i,0x00000000,1716941188.337449,172.16.3.2,5101,172.16.1.2,20445,10497,14480,0,65728,65728,6,6,4,1460,444,1,992,47,33580,0,65700,0,0,0,0,0
o,0x00000000,1716941188.347554,10.0.2.15,22,10.0.2.2,62180,1073725440,14600,0,65535,65700,0,0,4,1460,1,0,4,24,33580,108,65700,0,0,0,0,0
i,0x00000000,1716941188.348267,10.0.2.15,22,10.0.2.2,62180,1073725440,14600,0,65535,65700,0,0,4,1460,1,0,4,24,33580,108,65700,0,108,0,0,0
o,0x00000000,1716941188.376716,172.16.3.2,5101,172.16.1.2,20445,10497,14480,0,65728,65728,6,6,4,1460,444,1,993,47,33580,0,65700,0,0,0,0,0
i,0x00000000,1716941188.376993,172.16.3.2,5101,172.16.1.2,20445,10497,14480,0,65728,65728,6,6,4,1460,444,1,992,47,33580,0,65700,0,0,0,0,0
i,0x00000000,1716941188.386456,172.16.3.2,5101,172.16.1.2,20445,10497,14480,0,65728,65728,6,6,4,1460,444,1,992,47,33580,0,65700,0,0,0,0,0
o,0x00000000,1716941188.386463,172.16.3.2,5101,172.16.1.2,20445,10497,14480,0,65728,65728,6,6,4,1460,444,1,993,47,33580,0,65700,1448,0,0,0,0
i,0x00000000,1716941188.397189,172.16.3.2,5101,172.16.1.2,20445,10497,14480,0,65728,65728,6,6,4,1460,444,1,992,47,33580,0,65700,0,0,0,0,0
o,0x00000000,1716941188.437181,172.16.3.2,5101,172.16.1.2,20445,10497,14480,0,65728,65728,6,6,4,1460,444,1,993,47,33580,0,65700,0,0,0,0,0
i,0x00000000,1716941188.437392,172.16.3.2,5101,172.16.1.2,20445,10497,14480,0,65728,65728,6,6,4,1460,444,1,992,47,33580,0,65700,0,0,0,0,0
i,0x00000000,1716941188.446406,172.16.3.2,5101,172.16.1.2,20445,10497,14480,0,65728,65728,6,6,4,1460,444,1,992,47,33580,0,65700,0,0,0,0,0
o,0x00000000,1716941188.446432,172.16.3.2,5101,172.16.1.2,20445,10497,14480,0,65728,65728,6,6,4,1460,444,1,993,47,33580,0,65700,1448,0,0,0,0
i,0x00000000,1716941188.486622,172.16.3.2,5101,172.16.1.2,20445,10497,14480,0,65728,65728,6,6,4,1460,444,1,992,47,33580,0,65700,0,0,0,0,0
i,0x00000000,1716941188.496349,172.16.3.2,5101,172.16.1.2,20445,10497,14480,0,65728,65728,6,6,4,1460,444,1,992,47,33580,0,65700,0,0,0,0,0
o,0x00000000,1716941188.496379,172.16.3.2,5101,172.16.1.2,20445,10497,14480,0,65728,65728,6,6,4,1460,444,1,993,47,33580,0,65700,1448,0,0,0,0
i,0x00000000,1716941188.556956,172.16.3.2,5101,172.16.1.2,20445,10497,14480,0,65728,65728,6,6,4,1460,444,1,992,47,33580,0,65700,0,0,0,0,0
i,0x00000000,1716941188.567182,172.16.3.2,5101,172.16.1.2,20445,10497,14480,0,65728,65728,6,6,4,1460,444,1,992,47,33580,0,65700,0,0,0,0,0
o,0x00000000,1716941188.567195,172.16.3.2,5101,172.16.1.2,20445,10497,14480,0,65728,65728,6,6,4,1460,444,1,993,47,33580,0,65700,1448,0,0,0,0
i,0x00000000,1716941188.586029,172.16.3.2,5101,172.16.1.2,20445,10497,14480,0,65728,65728,6,6,4,1460,444,1,992,47,33580,0,65700,0,0,0,0,0
o,0x00000000,1716941188.617450,172.16.3.2,5101,172.16.1.2,20445,10497,14480,0,65728,65728,6,6,4,1460,444,1,993,47,33580,0,65700,0,0,0,0,0
i,0x00000000,1716941188.636741,172.16.3.2,5101,172.16.1.2,20445,10497,14480,0,65728,65728,6,6,4,1460,444,1,992,47,33580,0,65700,0,0,0,0,0
i,0x00000000,1716941188.646991,172.16.3.2,5101,172.16.1.2,20445,10497,14480,0,65728,65728,6,6,4,1460,444,1,992,47,33580,0,65700,0,0,0,0,0
o,0x00000000,1716941188.647003,172.16.3.2,5101,172.16.1.2,20445,10497,14480,0,65728,65728,6,6,4,1460,444,1,993,47,33580,0,65700,1448,0,0,0,0
i,0x00000000,1716941188.657417,172.16.3.2,5101,172.16.1.2,20445,10497,14480,0,65728,65728,6,6,4,1460,444,1,992,47,33580,0,65700,0,0,0,0,0
i,0x00000000,1716941188.696885,172.16.3.2,5101,172.16.1.2,20445,10497,14480,0,65728,65728,6,6,4,1460,444,1,992,47,33580,0,65700,0,0,0,0,0
o,0x00000000,1716941188.696897,172.16.3.2,5101,172.16.1.2,20445,10497,14480,0,65728,65728,6,6,4,1460,444,1,993,47,33580,0,65700,1448,0,0,0,0
i,0x00000000,1716941188.706363,172.16.3.2,5101,172.16.1.2,20445,10497,14480,0,65728,65728,6,6,4,1460,444,1,992,47,33580,0,65700,0,0,0,0,0
i,0x00000000,1716941188.716902,172.16.3.2,5101,172.16.1.2,20445,10497,14480,0,65728,65728,6,6,4,1460,444,1,992,47,33580,0,65700,0,0,0,0,0
o,0x00000000,1716941188.716923,172.16.3.2,5101,172.16.1.2,20445,10497,14480,0,65728,65728,6,6,4,1460,444,1,993,47,33580,0,65700,1448,0,0,0,0
i,0x00000000,1716941188.755937,172.16.3.2,5101,172.16.1.2,20445,10497,14480,0,65728,65728,6,6,4,1460,444,1,992,47,33580,0,65700,0,0,0,0,0
i,0x00000000,1716941188.766266,172.16.3.2,5101,172.16.1.2,20445,10497,14480,0,65728,65728,6,6,4,1460,444,1,992,47,33580,0,65700,0,0,0,0,0
o,0x00000000,1716941188.766278,172.16.3.2,5101,172.16.1.2,20445,10497,14480,0,65728,65728,6,6,4,1460,444,1,993,47,33580,0,65700,1448,0,0,0,0
i,0x00000000,1716941188.826480,172.16.3.2,5101,172.16.1.2,20445,10497,14480,0,65728,65728,6,6,4,1460,444,1,992,47,33580,0,65700,0,0,0,0,0
i,0x00000000,1716941188.835840,172.16.3.2,5101,172.16.1.2,20445,10497,14480,0,65728,65728,6,6,4,1460,444,1,992,47,33580,0,65700,0,0,0,0,0
o,0x00000000,1716941188.835855,172.16.3.2,5101,172.16.1.2,20445,10497,14480,0,65728,65728,6,6,4,1460,444,1,993,47,33580,0,65700,1448,0,0,0,0
i,0x00000000,1716941188.877104,172.16.3.2,5101,172.16.1.2,20445,10497,14480,0,65728,65728,6,6,4,1460,444,1,992,47,33580,0,65700,0,0,0,0,0
i,0x00000000,1716941188.916927,172.16.3.2,5101,172.16.1.2,20445,10497,14480,0,65728,65728,6,6,4,1460,444,1,992,47,33580,0,65700,0,0,0,0,0
o,0x00000000,1716941188.916989,172.16.3.2,5101,172.16.1.2,20445,10497,14480,0,65728,65728,6,6,4,1460,444,1,993,47,33580,0,65700,1448,0,0,0,0
i,0x00000000,1716941188.927220,172.16.3.2,5101,172.16.1.2,20445,10497,14480,0,65728,65728,6,6,4,1460,444,1,992,47,33580,0,65700,0,0,0,0,0
i,0x00000000,1716941188.937327,172.16.3.2,5101,172.16.1.2,20445,10497,14480,0,65728,65728,6,6,4,1460,444,1,992,47,33580,0,65700,0,0,0,0,0
o,0x00000000,1716941188.937356,172.16.3.2,5101,172.16.1.2,20445,10497,14480,0,65728,65728,6,6,4,1460,444,1,993,47,33580,0,65700,1448,0,0,0,0
i,0x00000000,1716941188.975955,172.16.3.2,5101,172.16.1.2,20445,10497,14480,0,65728,65728,6,6,4,1460,444,1,992,47,33580,0,65700,0,0,0,0,0
i,0x00000000,1716941188.988087,172.16.3.2,5101,172.16.1.2,20445,10497,14480,0,65728,65728,6,6,4,1460,444,1,992,47,33580,0,65700,0,0,0,0,0
o,0x00000000,1716941188.988136,172.16.3.2,5101,172.16.1.2,20445,10497,14480,0,65728,65728,6,6,4,1460,444,1,993,47,33580,0,65700,1448,0,0,0,0
i,0x00000000,1716941188.996845,172.16.3.2,5101,172.16.1.2,20445,10497,14480,0,65728,65728,6,6,4,1460,444,1,992,47,33580,0,65700,0,0,0,0,0
i,0x00000000,1716941189.006898,172.16.3.2,5101,172.16.1.2,20445,10497,14480,0,65728,65728,6,6,4,1460,444,1,992,47,33580,0,65700,0,0,0,0,0
o,0x00000000,1716941189.006918,172.16.3.2,5101,172.16.1.2,20445,10497,14480,0,65728,65728,6,6,4,1460,444,1,993,47,33580,0,65700,1448,0,0,0,0
i,0x00000000,1716941189.047112,172.16.3.2,5101,172.16.1.2,20445,10497,14480,0,65728,65728,6,6,4,1460,444,1,992,47,33580,0,65700,0,0,0,0,0
i,0x00000000,1716941189.056408,172.16.3.2,5101,172.16.1.2,20445,10497,14480,0,65728,65728,6,6,4,1460,444,1,992,47,33580,0,65700,0,0,0,0,0
o,0x00000000,1716941189.056427,172.16.3.2,5101,172.16.1.2,20445,10497,14480,0,65728,65728,6,6,4,1460,444,1,993,47,33580,0,65700,1448,0,0,0,0
i,0x00000000,1716941189.136103,172.16.3.2,5101,172.16.1.2,20445,10497,14480,0,65728,65728,6,6,4,1460,444,1,992,47,33580,0,65700,0,0,0,0,0
i,0x00000000,1716941189.146416,172.16.3.2,5101,172.16.1.2,20445,10497,14480,0,65728,65728,6,6,4,1460,444,1,992,47,33580,0,65700,0,0,0,0,0
o,0x00000000,1716941189.146429,172.16.3.2,5101,172.16.1.2,20445,10497,14480,0,65728,65728,6,6,4,1460,444,1,993,47,33580,0,65700,1448,0,0,0,0
i,0x00000000,1716941189.175684,172.16.3.2,5101,172.16.1.2,20445,10497,14480,0,65728,65728,6,6,4,1460,444,1,992,47,33580,0,65700,0,0,0,0,0
o,0x00000000,1716941189.207215,172.16.3.2,5101,172.16.1.2,20445,10497,14480,0,65728,65728,6,6,4,1460,444,1,993,47,33580,0,65700,0,0,0,0,0
i,0x00000000,1716941189.215377,172.16.3.2,5101,172.16.1.2,20445,10497,14480,0,65728,65728,6,6,4,1460,444,1,992,47,33580,0,65700,0,0,0,0,0
i,0x00000000,1716941189.225401,172.16.3.2,5101,172.16.1.2,20445,10497,14480,0,65728,65728,6,6,4,1460,444,1,992,47,33580,0,65700,0,0,0,0,0
o,0x00000000,1716941189.225417,172.16.3.2,5101,172.16.1.2,20445,10497,14480,0,65728,65728,6,6,4,1460,444,1,993,47,33580,0,65700,1448,0,0,0,0
i,0x00000000,1716941189.246257,172.16.3.2,5101,172.16.1.2,20445,10497,14480,0,65728,65728,6,6,4,1460,444,1,992,47,33580,0,65700,0,0,0,0,0
i,0x00000000,1716941189.256485,172.16.3.2,5101,172.16.1.2,20445,10497,14480,0,65728,65728,6,6,4,1460,444,1,992,47,33580,0,65700,0,0,0,0,0
o,0x00000000,1716941189.256505,172.16.3.2,5101,172.16.1.2,20445,10497,14480,0,65728,65728,6,6,4,1460,444,1,993,47,33580,0,65700,1448,0,0,0,0
i,0x00000000,1716941189.285841,172.16.3.2,5101,172.16.1.2,20445,10497,14480,0,65728,65728,6,6,4,1460,444,1,992,47,33580,0,65700,0,0,0,0,0
i,0x00000000,1716941189.305508,172.16.3.2,5101,172.16.1.2,20445,10497,14480,0,65728,65728,6,6,4,1460,444,1,992,47,33580,0,65700,0,0,0,0,0
o,0x00000000,1716941189.305525,172.16.3.2,5101,172.16.1.2,20445,10497,14480,0,65728,65728,6,6,4,1460,444,1,993,47,33580,0,65700,1448,0,0,0,0
i,0x00000000,1716941189.315928,172.16.3.2,5101,172.16.1.2,20445,10497,14480,0,65728,65728,6,6,4,1460,444,1,992,47,33580,0,65700,0,0,0,0,0
i,0x00000000,1716941189.326098,172.16.3.2,5101,172.16.1.2,20445,10497,14480,0,65728,65728,6,6,4,1460,444,1,992,47,33580,0,65700,0,0,0,0,0
o,0x00000000,1716941189.326106,172.16.3.2,5101,172.16.1.2,20445,10497,14480,0,65728,65728,6,6,4,1460,444,1,993,47,33580,0,65700,1448,0,0,0,0
o,0x00000000,1716941189.347410,10.0.2.15,22,10.0.2.2,62180,1073725440,14600,0,65535,65700,0,0,4,1460,1,0,4,24,33580,108,65700,0,0,0,0,0
i,0x00000000,1716941189.348122,10.0.2.15,22,10.0.2.2,62180,1073725440,14600,0,65535,65700,0,0,4,1460,1,0,4,24,33580,108,65700,0,108,0,0,0
i,0x00000000,1716941189.365425,172.16.3.2,5101,172.16.1.2,20445,10497,14480,0,65728,65728,6,6,4,1460,444,1,992,47,33580,0,65700,0,0,0,0,0
i,0x00000000,1716941189.375823,172.16.3.2,5101,172.16.1.2,20445,10497,14480,0,65728,65728,6,6,4,1460,444,1,992,47,33580,0,65700,0,0,0,0,0
o,0x00000000,1716941189.375834,172.16.3.2,5101,172.16.1.2,20445,10497,14480,0,65728,65728,6,6,4,1460,444,1,993,47,33580,0,65700,1448,0,0,0,0
i,0x00000000,1716941189.465760,172.16.3.2,5101,172.16.1.2,20445,10497,14480,0,65728,65728,6,6,4,1460,444,1,992,47,33580,0,65700,0,0,0,0,0
i,0x00000000,1716941189.475084,172.16.3.2,5101,172.16.1.2,20445,10497,14480,0,65728,65728,6,6,4,1460,444,1,992,47,33580,0,65700,0,0,0,0,0
o,0x00000000,1716941189.475100,172.16.3.2,5101,172.16.1.2,20445,10497,14480,0,65728,65728,6,6,4,1460,444,1,993,47,33580,0,65700,1448,0,0,0,0
i,0x00000000,1716941189.506002,172.16.3.2,5101,172.16.1.2,20445,10497,14480,0,65728,65728,6,6,4,1460,444,1,992,47,33580,0,65700,0,0,0,0,0
o,0x00000000,1716941189.537497,172.16.3.2,5101,172.16.1.2,20445,10497,14480,0,65728,65728,6,6,4,1460,444,1,993,47,33580,0,65700,0,0,0,0,0
i,0x00000000,1716941189.545449,172.16.3.2,5101,172.16.1.2,20445,10497,14480,0,65728,65728,6,6,4,1460,444,1,992,47,33580,0,65700,0,0,0,0,0
i,0x00000000,1716941189.555658,172.16.3.2,5101,172.16.1.2,20445,10497,14480,0,65728,65728,6,6,4,1460,444,1,992,47,33580,0,65700,0,0,0,0,0
o,0x00000000,1716941189.555669,172.16.3.2,5101,172.16.1.2,20445,10497,14480,0,65728,65728,6,6,4,1460,444,1,993,47,33580,0,65700,1448,0,0,0,0
i,0x00000000,1716941189.574715,172.16.3.2,5101,172.16.1.2,20445,10497,14480,0,65728,65728,6,6,4,1460,444,1,992,47,33580,0,65700,0,0,0,0,0
i,0x00000000,1716941189.584992,172.16.3.2,5101,172.16.1.2,20445,10497,14480,0,65728,65728,6,6,4,1460,444,1,992,47,33580,0,65700,0,0,0,0,0
o,0x00000000,1716941189.585000,172.16.3.2,5101,172.16.1.2,20445,10497,14480,0,65728,65728,6,6,4,1460,444,1,993,47,33580,0,65700,1448,0,0,0,0
i,0x00000000,1716941189.615026,172.16.3.2,5101,172.16.1.2,20445,10497,14480,0,65728,65728,6,6,4,1460,444,1,992,47,33580,0,65700,0,0,0,0,0
i,0x00000000,1716941189.635709,172.16.3.2,5101,172.16.1.2,20445,10497,14480,0,65728,65728,6,6,4,1460,444,1,992,47,33580,0,65700,0,0,0,0,0
o,0x00000000,1716941189.635722,172.16.3.2,5101,172.16.1.2,20445,10497,14480,0,65728,65728,6,6,4,1460,444,1,993,47,33580,0,65700,1448,0,0,0,0
i,0x00000000,1716941189.646150,172.16.3.2,5101,172.16.1.2,20445,10497,14480,0,65728,65728,6,6,4,1460,444,1,992,47,33580,0,65700,0,0,0,0,0
i,0x00000000,1716941189.655347,172.16.3.2,5101,172.16.1.2,20445,10497,14480,0,65728,65728,6,6,4,1460,444,1,992,47,33580,0,65700,0,0,0,0,0
o,0x00000000,1716941189.655364,172.16.3.2,5101,172.16.1.2,20445,10497,14480,0,65728,65728,6,6,4,1460,444,1,993,47,33580,0,65700,1448,0,0,0,0
i,0x00000000,1716941189.664650,172.16.3.2,5101,172.16.1.2,20445,10497,14480,0,65728,65728,6,6,4,1460,444,1,992,47,33580,0,65700,0,0,0,0,0
o,0x00000000,1716941189.698117,172.16.3.2,5101,172.16.1.2,20445,10497,14480,0,65728,65728,6,6,4,1460,444,1,993,47,33580,0,65700,0,0,0,0,0
i,0x00000000,1716941189.705401,172.16.3.2,5101,172.16.1.2,20445,10497,14480,0,65728,65728,6,6,4,1460,444,1,992,47,33580,0,65700,0,0,0,0,0
i,0x00000000,1716941189.715365,172.16.3.2,5101,172.16.1.2,20445,10497,14480,0,65728,65728,6,6,4,1460,444,1,992,47,33580,0,65700,0,0,0,0,0
o,0x00000000,1716941189.715373,172.16.3.2,5101,172.16.1.2,20445,10497,14480,0,65728,65728,6,6,4,1460,444,1,993,47,33580,0,65700,1448,0,0,0,0
i,0x00000000,1716941189.794840,172.16.3.2,5101,172.16.1.2,20445,10497,14480,0,65728,65728,6,6,4,1460,444,1,992,47,33580,0,65700,0,0,0,0,0
i,0x00000000,1716941189.805230,172.16.3.2,5101,172.16.1.2,20445,10497,14480,0,65728,65728,6,6,4,1460,444,1,992,47,33580,0,65700,0,0,0,0,0
o,0x00000000,1716941189.805246,172.16.3.2,5101,172.16.1.2,20445,10497,14480,0,65728,65728,6,6,4,1460,444,1,993,47,33580,0,65700,1448,0,0,0,0
i,0x00000000,1716941189.865649,172.16.3.2,5101,172.16.1.2,20445,10497,14480,0,65728,65728,6,6,4,1460,444,1,992,47,33580,0,65700,0,0,0,0,0
i,0x00000000,1716941189.876060,172.16.3.2,5101,172.16.1.2,20445,10497,14480,0,65728,65728,6,6,4,1460,444,1,992,47,33580,0,65700,0,0,0,0,0
o,0x00000000,1716941189.876105,172.16.3.2,5101,172.16.1.2,20445,10497,14480,0,65728,65728,6,6,4,1460,444,1,993,47,33580,0,65700,1448,0,0,0,0
i,0x00000000,1716941189.884732,172.16.3.2,5101,172.16.1.2,20445,10497,14480,0,65728,65728,6,6,4,1460,444,1,992,47,33580,0,65700,0,0,0,0,0
i,0x00000000,1716941189.904803,172.16.3.2,5101,172.16.1.2,20445,10497,14480,0,65728,65728,6,6,4,1460,444,1,992,47,33580,0,65700,0,0,0,0,0
o,0x00000000,1716941189.904825,172.16.3.2,5101,172.16.1.2,20445,10497,14480,0,65728,65700,6,6,4,1460,444,1,993,47,33580,0,65700,0,0,1,0,0
i,0x00000000,1716941189.954942,172.16.3.2,5101,172.16.1.2,20445,10497,14480,0,65728,65700,6,6,4,1460,444,1,992,47,33580,0,65700,0,0,1,0,0
o,0x00000000,1716941189.954958,172.16.3.2,5101,172.16.1.2,20445,10497,14480,0,65728,65728,6,6,4,1460,444,1,993,47,33580,0,65700,0,0,2,0,0
i,0x00000000,1716941189.965224,172.16.3.2,5101,172.16.1.2,20445,10497,14480,0,65728,65728,6,6,4,1460,444,1,992,47,33580,0,65700,0,0,2,0,0
o,0x00000000,1716941189.965238,172.16.3.2,5101,172.16.1.2,20445,10497,14480,0,65728,65728,6,6,4,1460,444,1,993,47,33580,0,65700,0,0,2,0,0
i,0x00000000,1716941189.975522,172.16.3.2,5101,172.16.1.2,20445,10497,14480,0,65728,65728,6,6,4,1460,444,1,992,47,33580,0,65700,0,0,2,0,0
o,0x00000000,1716941189.975530,172.16.3.2,5101,172.16.1.2,20445,10497,14480,0,65728,65728,6,6,4,1460,444,1,993,47,33580,0,65700,0,0,2,0,0
i,0x00000000,1716941189.984873,172.16.3.2,5101,172.16.1.2,20445,10497,14480,0,65728,65728,6,6,4,1460,444,1,992,47,33580,0,65700,0,0,2,0,0
o,0x00000000,1716941189.984883,172.16.3.2,5101,172.16.1.2,20445,10497,14480,0,65728,65728,6,6,4,1460,444,1,993,47,33580,0,65700,0,0,2,0,0
i,0x00000000,1716941190.025208,172.16.3.2,5101,172.16.1.2,20445,10497,14480,0,65728,65728,6,6,4,1460,444,1,992,47,33580,0,65700,0,0,2,0,0
o,0x00000000,1716941190.025216,172.16.3.2,5101,172.16.1.2,20445,10497,14480,0,65728,65728,6,6,4,1460,444,1,993,47,33580,0,65700,0,0,2,0,0
i,0x00000000,1716941190.034648,172.16.3.2,5101,172.16.1.2,20445,10497,14480,0,65728,65728,6,6,4,1460,444,1,992,47,33580,0,65700,0,0,2,0,0
o,0x00000000,1716941190.034657,172.16.3.2,5101,172.16.1.2,20445,10497,14480,0,65728,65728,6,6,4,1460,444,1,993,47,33580,0,65700,0,0,2,0,0
i,0x00000000,1716941190.055289,172.16.3.2,5101,172.16.1.2,20445,10497,14480,0,65728,65728,6,6,4,1460,444,1,992,47,33580,0,65700,0,0,2,0,0
o,0x00000000,1716941190.055299,172.16.3.2,5101,172.16.1.2,20445,10497,14480,0,65728,65728,6,6,4,1460,444,1,993,47,33580,0,65700,0,0,2,0,0
i,0x00000000,1716941190.115393,172.16.3.2,5101,172.16.1.2,20445,10497,14480,0,65728,65728,6,6,4,1460,444,1,992,47,33580,0,65700,0,0,2,0,0
o,0x00000000,1716941190.115408,172.16.3.2,5101,172.16.1.2,20445,10497,14480,0,65728,65728,6,6,4,1460,444,1,993,47,33580,0,65700,2896,0,1,0,0
i,0x00000000,1716941190.135185,172.16.3.2,5101,172.16.1.2,20445,10497,14480,0,65728,65728,6,6,4,1460,444,1,992,47,33580,0,65700,0,0,1,0,0
o,0x00000000,1716941190.135191,172.16.3.2,5101,172.16.1.2,20445,10497,14480,0,65728,65700,6,6,4,1460,444,1,993,47,33580,0,65700,0,0,1,0,0
i,0x00000000,1716941190.154902,172.16.3.2,5101,172.16.1.2,20445,10497,14480,0,65728,65700,6,6,4,1460,444,1,992,47,33580,0,65700,0,0,1,0,0
o,0x00000000,1716941190.154914,172.16.3.2,5101,172.16.1.2,20445,10497,14480,0,65728,65728,6,6,4,1460,444,1,993,47,33580,0,65700,11584,0,0,0,0
i,0x00000000,1716941190.165294,172.16.3.2,5101,172.16.1.2,20445,10497,14480,0,65728,65728,6,6,4,1460,444,1,992,47,33580,0,65700,0,0,0,0,0
o,0x00000000,1716941190.165299,172.16.3.2,5101,172.16.1.2,20445,10497,14480,0,65728,65700,6,6,4,1460,444,1,993,47,33580,0,65700,0,0,0,0,0
i,0x00000000,1716941190.175582,172.16.3.2,5101,172.16.1.2,20445,10497,14480,0,65728,65700,6,6,4,1460,444,1,992,47,33580,0,65700,0,0,0,0,0
o,0x00000000,1716941190.175587,172.16.3.2,5101,172.16.1.2,20445,10497,14480,0,65728,65728,6,6,4,1460,444,1,993,47,33580,0,65700,0,0,0,0,0
i,0x00000000,1716941190.205141,172.16.3.2,5101,172.16.1.2,20445,10497,14480,0,65728,65728,6,6,4,1460,444,1,992,47,33580,0,65700,0,0,0,0,0
o,0x00000000,1716941190.205147,172.16.3.2,5101,172.16.1.2,20445,10497,14480,0,65728,65728,6,6,4,1460,444,1,993,47,33580,0,65700,0,0,0,0,0
i,0x00000000,1716941190.214705,172.16.3.2,5101,172.16.1.2,20445,10497,14480,0,65728,65728,6,6,4,1460,444,1,992,47,33580,0,65700,0,0,0,0,0
o,0x00000000,1716941190.214710,172.16.3.2,5101,172.16.1.2,20445,10497,14480,0,65728,65728,6,6,4,1460,444,1,993,47,33580,0,65700,0,0,1,0,0
i,0x00000000,1716941190.255001,172.16.3.2,5101,172.16.1.2,20445,10497,14480,0,65728,65728,6,6,4,1460,444,1,992,47,33580,0,65700,0,0,1,0,0
o,0x00000000,1716941190.255009,172.16.3.2,5101,172.16.1.2,20445,10497,14480,0,65728,65728,6,6,4,1460,444,1,993,47,33580,0,65700,0,0,1,0,0
i,0x00000000,1716941190.305020,172.16.3.2,5101,172.16.1.2,20445,10497,14480,0,65728,65728,6,6,4,1460,444,1,992,47,33580,0,65700,0,0,1,0,0
o,0x00000000,1716941190.305039,172.16.3.2,5101,172.16.1.2,20445,10497,14480,0,65728,65728,6,6,4,1460,444,1,993,47,33580,0,65700,0,0,1,0,0
i,0x00000000,1716941190.315273,172.16.3.2,5101,172.16.1.2,20445,10497,14480,0,65728,65728,6,6,4,1460,444,1,992,47,33580,0,65700,0,0,1,0,0
i,0x00000000,1716941190.334863,172.16.3.2,5101,172.16.1.2,20445,10497,14480,0,65728,65728,6,6,4,1460,444,1,992,47,33580,0,65700,0,0,1,0,0
o,0x00000000,1716941190.334873,172.16.3.2,5101,172.16.1.2,20445,10497,14480,0,65728,65728,6,6,4,1460,444,1,993,47,33580,0,65700,0,0,1,0,0
o,0x00000000,1716941190.347761,10.0.2.15,22,10.0.2.2,62180,1073725440,14600,0,65535,65700,0,0,4,1460,1,0,4,24,33580,108,65700,0,0,0,0,0
i,0x00000000,1716941190.348492,10.0.2.15,22,10.0.2.2,62180,1073725440,14600,0,65535,65700,0,0,4,1460,1,0,4,24,33580,108,65700,0,108,0,0,0
i,0x00000000,1716941190.365009,172.16.3.2,5101,172.16.1.2,20445,10497,14480,0,65728,65728,6,6,4,1460,444,1,992,47,33580,0,65700,0,0,1,0,0
o,0x00000000,1716941190.365018,172.16.3.2,5101,172.16.1.2,20445,10497,14480,0,65728,65728,6,6,4,1460,444,1,993,47,33580,0,65700,0,0,1,0,0
i,0x00000000,1716941190.414680,172.16.3.2,5101,172.16.1.2,20445,10497,14480,0,65728,65728,6,6,4,1460,444,1,992,47,33580,0,65700,0,0,1,0,0
o,0x00000000,1716941190.414692,172.16.3.2,5101,172.16.1.2,20445,10497,14480,0,65728,65728,6,6,4,1460,444,1,993,47,33580,0,65700,1448,0,1,0,0
i,0x00000000,1716941190.425134,172.16.3.2,5101,172.16.1.2,20445,10497,14480,0,65728,65728,6,6,4,1460,444,1,992,47,33580,0,65700,0,0,1,0,0
o,0x00000000,1716941190.425145,172.16.3.2,5101,172.16.1.2,20445,10497,14480,0,65728,65700,6,6,4,1460,444,1,993,47,33580,0,65700,1448,0,1,0,0
i,0x00000000,1716941190.434640,172.16.3.2,5101,172.16.1.2,20445,10497,14480,0,65728,65700,6,6,4,1460,444,1,992,47,33580,0,65700,0,0,1,0,0
o,0x00000000,1716941190.434647,172.16.3.2,5101,172.16.1.2,20445,10497,14480,0,65728,65700,6,6,4,1460,444,1,993,47,33580,0,65700,1448,0,1,0,0
i,0x00000000,1716941190.464091,172.16.3.2,5101,172.16.1.2,20445,10497,14480,0,65728,65700,6,6,4,1460,444,1,992,47,33580,0,65700,0,0,1,0,0
o,0x00000000,1716941190.464107,172.16.3.2,5101,172.16.1.2,20445,10497,14480,0,65728,65700,6,6,4,1460,444,1,993,47,33580,0,65700,1448,0,1,0,0
i,0x00000000,1716941190.483636,172.16.3.2,5101,172.16.1.2,20445,10497,14480,0,65728,65700,6,6,4,1460,444,1,992,47,33580,0,65700,0,0,1,0,0
o,0x00000000,1716941190.483643,172.16.3.2,5101,172.16.1.2,20445,10497,14480,0,65728,65700,6,6,4,1460,444,1,993,47,33580,0,65700,0,0,1,0,0
i,0x00000000,1716941190.503953,172.16.3.2,5101,172.16.1.2,20445,10497,14480,0,65728,65700,6,6,4,1460,444,1,992,47,33580,0,65700,0,0,1,0,0
o,0x00000000,1716941190.503967,172.16.3.2,5101,172.16.1.2,20445,10497,14480,0,65728,65728,6,6,4,1460,444,1,993,47,33580,0,65700,10136,0,0,0,0
i,0x00000000,1716941190.514849,172.16.3.2,5101,172.16.1.2,20445,10497,14480,0,65728,65728,6,6,4,1460,444,1,992,47,33580,0,65700,0,0,0,0,0
o,0x00000000,1716941190.548016,172.16.3.2,5101,172.16.1.2,20445,10497,14480,0,65728,65728,6,6,4,1460,444,1,993,47,33580,0,65700,0,0,0,0,0
i,0x00000000,1716941190.564562,172.16.3.2,5101,172.16.1.2,20445,10497,14480,0,65728,65728,6,6,4,1460,444,1,992,47,33580,0,65700,0,0,0,0,0
i,0x00000000,1716941190.575221,172.16.3.2,5101,172.16.1.2,20445,10497,14480,0,65728,65728,6,6,4,1460,444,1,992,47,33580,0,65700,0,0,0,0,0
o,0x00000000,1716941190.575231,172.16.3.2,5101,172.16.1.2,20445,10497,14480,0,65728,65728,6,6,4,1460,444,1,993,47,33580,0,65700,1448,0,0,0,0
i,0x00000000,1716941190.603934,172.16.3.2,5101,172.16.1.2,20445,10497,14480,0,65728,65728,6,6,4,1460,444,1,992,47,33580,0,65700,0,0,0,0,0
i,0x00000000,1716941190.633940,172.16.3.2,5101,172.16.1.2,20445,10497,14480,0,65728,65728,6,6,4,1460,444,1,992,47,33580,0,65700,0,0,0,0,0
o,0x00000000,1716941190.633955,172.16.3.2,5101,172.16.1.2,20445,10497,14480,0,65728,65728,6,6,4,1460,444,1,993,47,33580,0,65700,1448,0,0,0,0
i,0x00000000,1716941190.673635,172.16.3.2,5101,172.16.1.2,20445,10497,14480,0,65728,65728,6,6,4,1460,444,1,992,47,33580,0,65700,0,0,0,0,0
i,0x00000000,1716941190.684719,172.16.3.2,5101,172.16.1.2,20445,10497,14480,0,65728,65728,6,6,4,1460,444,1,992,47,33580,0,65700,0,0,0,0,0
o,0x00000000,1716941190.684729,172.16.3.2,5101,172.16.1.2,20445,10497,14480,0,65728,65728,6,6,4,1460,444,1,993,47,33580,0,65700,1448,0,0,0,0
i,0x00000000,1716941190.724188,172.16.3.2,5101,172.16.1.2,20445,10497,14480,0,65728,65728,6,6,4,1460,444,1,992,47,33580,0,65700,0,0,0,0,0
i,0x00000000,1716941190.734821,172.16.3.2,5101,172.16.1.2,20445,10497,14480,0,65728,65728,6,6,4,1460,444,1,992,47,33580,0,65700,0,0,0,0,0
o,0x00000000,1716941190.734827,172.16.3.2,5101,172.16.1.2,20445,10497,14480,0,65728,65728,6,6,4,1460,444,1,993,47,33580,0,65700,1448,0,0,0,0
i,0x00000000,1716941190.743915,172.16.3.2,5101,172.16.1.2,20445,10497,14480,0,65728,65728,6,6,4,1460,444,1,992,47,33580,0,65700,0,0,0,0,0
