enable_time_secs=1717625995	enable_time_usecs=794606	siftrver=1.2.4	hz=100	tcp_rtt_scale=32	sysname=FreeBSD	sysver=1301000	ipmode=4
o,0x00000000,1717625995.794646,10.0.2.15,22,10.0.2.2,65012,1073725440,17298,0,65535,65700,0,0,4,1460,1,0,4,24,33580,44,65700,0,0,0,0,0
o,0x00000000,1717625995.794767,10.0.2.15,22,10.0.2.2,65012,1073725440,17298,0,65535,65700,0,0,4,1460,1,0,4,24,33580,80,65700,0,44,0,0,0
i,0x00000000,1717625995.795184,10.0.2.15,22,10.0.2.2,65012,1073725440,17298,0,65535,65700,0,0,4,1460,1,0,4,24,33580,80,65700,0,80,0,0,0
i,0x00000000,1717625995.795187,10.0.2.15,22,10.0.2.2,65012,1073725440,17342,0,65535,65700,0,0,4,1460,1,0,4,24,33580,36,65700,0,36,0,0,0
o,0x00000000,1717625995.795250,10.0.2.15,22,10.0.2.2,65012,1073725440,17378,0,65535,65700,0,0,4,1460,1,0,4,24,33580,36,65700,0,0,0,0,0
i,0x00000000,1717625995.795769,10.0.2.15,22,10.0.2.2,65012,1073725440,17378,0,65535,65700,0,0,4,1460,1,0,4,24,33580,36,65700,0,36,0,0,0
o,0x00000000,1717625995.795849,10.0.2.15,22,10.0.2.2,65012,1073725440,17414,0,65535,65700,0,0,4,1460,1,0,4,24,33580,36,65700,0,0,0,0,0
i,0x00000000,1717625995.796270,10.0.2.15,22,10.0.2.2,65012,1073725440,17414,0,65535,65700,0,0,4,1460,1,0,4,24,33580,36,65700,0,36,0,0,0
o,0x00000000,1717625995.796400,10.0.2.15,22,10.0.2.2,65012,1073725440,17450,0,65535,65700,0,0,4,1460,1,0,4,24,33580,140,65700,0,0,0,0,0
i,0x00000000,1717625995.797081,10.0.2.15,22,10.0.2.2,65012,1073725440,17450,0,65535,65700,0,0,4,1460,1,0,4,24,33580,140,65700,0,140,0,0,0
i,0x00000000,1717625995.797806,10.0.2.15,22,10.0.2.2,65012,1073725440,17590,0,65535,65700,0,0,4,1460,1,0,4,24,33580,0,65700,0,0,0,0,0
i,0x00000000,1717625995.797808,10.0.2.15,22,10.0.2.2,65012,1073725440,17590,0,65535,65700,0,0,4,1460,1,0,4,24,33580,0,65700,36,0,0,0,0
o,0x00000000,1717625995.797810,10.0.2.15,22,10.0.2.2,65012,1073725440,17590,0,65535,65700,0,0,4,1460,1,0,5,24,33580,0,65700,96,0,0,0,0
i,0x00000000,1717625995.797889,10.0.2.15,22,10.0.2.2,65012,1073725440,17590,0,65535,65700,0,0,4,1460,1,0,4,24,33580,0,65700,96,0,0,0,0
o,0x00000000,1717625995.797892,10.0.2.15,22,10.0.2.2,65012,1073725440,17590,0,65535,65604,0,0,5,1460,1,0,7,24,33580,0,65700,96,0,0,0,0
o,0x00000000,1717625995.798698,10.0.2.15,22,10.0.2.2,65012,1073725440,17590,0,65535,65604,0,0,8,1460,1,0,4,24,33580,0,65700,0,0,0,0,0
i,0x00000000,1717625995.799242,10.0.2.15,22,10.0.2.2,65012,1073725440,17590,0,65535,65604,0,0,8,1460,1,0,20,24,33580,0,65700,0,1,0,0,0
i,0x00000000,1717625997.953914,10.0.2.15,22,10.0.2.2,65016,1073725440,14600,0,65535,65700,0,0,4,1460,1,0,0,27,33580,0,65700,0,0,0,0,0
o,0x00000000,1717625997.961348,10.0.2.15,22,10.0.2.2,65016,1073725440,14600,0,65535,65700,0,0,4,1460,1,0,0,27,33580,38,65700,41,0,0,0,0
i,0x00000000,1717625997.961956,10.0.2.15,22,10.0.2.2,65016,1073725440,14600,0,65535,65700,0,0,4,1460,1,0,0,27,33580,38,65700,0,38,0,0,0
i,0x00000000,1717625997.963131,10.0.2.15,22,10.0.2.2,65016,1073725440,14638,0,65535,65700,0,0,4,1460,1,0,0,24,33580,0,65700,0,0,0,0,0
i,0x00000000,1717625997.963134,10.0.2.15,22,10.0.2.2,65016,1073725440,14638,0,65535,65700,0,0,4,1460,1,0,0,24,33580,0,65700,1460,0,0,0,0
o,0x00000000,1717625997.963137,10.0.2.15,22,10.0.2.2,65016,1073725440,14638,0,65535,65700,0,0,4,1460,1,0,1,24,33580,0,65700,1536,0,0,0,0
o,0x00000000,1717625997.963926,10.0.2.15,22,10.0.2.2,65016,1073725440,14638,0,65535,65700,0,0,4,1460,1,0,0,24,33580,1056,65700,1536,0,0,0,0
i,0x00000000,1717625997.964833,10.0.2.15,22,10.0.2.2,65016,1073725440,14638,0,65535,65700,0,0,4,1460,1,0,0,24,33580,1056,65700,1536,1056,0,0,0
i,0x00000000,1717625997.966590,10.0.2.15,22,10.0.2.2,65016,1073725440,15694,0,65535,65700,0,0,4,1460,1,0,0,24,33580,0,65700,0,0,0,0,0
o,0x00000000,1717625997.969491,10.0.2.15,22,10.0.2.2,65016,1073725440,15694,0,65535,65700,0,0,4,1460,1,0,0,24,33580,484,65700,0,0,0,0,0
i,0x00000000,1717625997.970255,10.0.2.15,22,10.0.2.2,65016,1073725440,15694,0,65535,65700,0,0,4,1460,1,0,0,24,33580,484,65700,0,484,0,0,0
i,0x00000000,1717625997.976286,10.0.2.15,22,10.0.2.2,65016,1073725440,16178,0,65535,65700,0,0,4,1460,1,0,0,24,33580,0,65700,0,0,0,0,0
i,0x00000000,1717625997.981070,10.0.2.15,22,10.0.2.2,65016,1073725440,16178,0,65535,65700,0,0,4,1460,1,0,0,24,33580,0,65700,0,0,0,0,0
o,0x00000000,1717625997.981076,10.0.2.15,22,10.0.2.2,65016,1073725440,16178,0,65535,65700,0,0,4,1460,1,0,1,24,33580,0,65700,44,0,0,0,0
o,0x00000000,1717625997.981271,10.0.2.15,22,10.0.2.2,65016,1073725440,16178,0,65535,65700,0,0,4,1460,1,0,0,24,33580,44,65700,0,0,0,0,0
i,0x00000000,1717625997.982065,10.0.2.15,22,10.0.2.2,65016,1073725440,16178,0,65535,65700,0,0,4,1460,1,0,0,24,33580,44,65700,0,44,0,0,0
i,0x00000000,1717625997.982596,10.0.2.15,22,10.0.2.2,65016,1073725440,16222,0,65535,65700,0,0,4,1460,1,0,0,24,33580,0,65700,0,0,0,0,0
o,0x00000000,1717625997.992843,10.0.2.15,22,10.0.2.2,65016,1073725440,16222,0,65535,65700,0,0,4,1460,1,0,0,24,33580,68,65700,0,0,0,0,0
i,0x00000000,1717625997.993425,10.0.2.15,22,10.0.2.2,65016,1073725440,16222,0,65535,65700,0,0,4,1460,1,0,0,24,33580,68,65700,0,68,0,0,0
i,0x00000000,1717625997.996285,10.0.2.15,22,10.0.2.2,65016,1073725440,16290,0,65535,65700,0,0,4,1460,1,0,0,24,33580,0,65700,0,0,0,0,0
o,0x00000000,1717625998.006058,10.0.2.15,22,10.0.2.2,65016,1073725440,16290,0,65535,65700,0,0,4,1460,1,0,0,24,33580,28,65700,0,0,0,0,0
i,0x00000000,1717625998.006843,10.0.2.15,22,10.0.2.2,65016,1073725440,16290,0,65535,65700,0,0,4,1460,1,0,0,24,33580,28,65700,0,28,0,0,0
i,0x00000000,1717625998.007250,10.0.2.15,22,10.0.2.2,65016,1073725440,16318,0,65535,65700,0,0,4,1460,1,0,0,24,33580,0,65700,0,0,0,0,0
o,0x00000000,1717625998.008077,10.0.2.15,22,10.0.2.2,65016,1073725440,16318,0,65535,65700,0,0,4,1460,1,0,0,24,33580,768,65700,112,0,0,0,0
i,0x00000000,1717625998.008575,10.0.2.15,22,10.0.2.2,65016,1073725440,16318,0,65535,65700,0,0,4,1460,1,0,0,24,33580,768,65700,112,768,0,0,0
o,0x00000000,1717625998.008689,10.0.2.15,22,10.0.2.2,65016,1073725440,17086,0,65535,65700,0,0,4,1460,1,0,0,24,33580,44,65700,0,0,0,0,0
i,0x00000000,1717625998.009485,10.0.2.15,22,10.0.2.2,65016,1073725440,17086,0,65535,65700,0,0,4,1460,1,0,0,24,33580,44,65700,0,44,0,0,0
i,0x00000000,1717625998.010171,10.0.2.15,22,10.0.2.2,65016,1073725440,17130,0,65535,65700,0,0,4,1460,1,0,0,24,33580,0,65700,0,0,0,0,0
o,0x00000000,1717625998.010511,10.0.2.15,22,10.0.2.2,65016,1073725440,17130,0,65535,65700,0,0,4,1460,1,0,4,24,33580,72,65700,0,0,0,0,0
i,0x00000000,1717625998.011149,10.0.2.15,22,10.0.2.2,65016,1073725440,17130,0,65535,65700,0,0,4,1460,1,0,4,24,33580,72,65700,0,72,0,0,0
o,0x00000000,1717625998.014501,10.0.2.15,22,10.0.2.2,65016,1073725440,17202,0,65535,65700,0,0,4,1460,1,0,4,24,33580,44,65700,0,0,0,0,0
i,0x00000000,1717625998.015050,10.0.2.15,22,10.0.2.2,65016,1073725440,17202,0,65535,65700,0,0,4,1460,1,0,4,24,33580,44,65700,0,44,0,0,0
o,0x00000000,1717625998.015433,10.0.2.15,22,10.0.2.2,65016,1073725440,17246,0,65535,65700,0,0,4,1460,1,0,4,24,33580,44,65700,0,0,0,0,0
i,0x00000000,1717625998.015974,10.0.2.15,22,10.0.2.2,65016,1073725440,17246,0,65535,65700,0,0,4,1460,1,0,4,24,33580,44,65700,0,44,0,0,0
o,0x00000000,1717625998.020466,10.0.2.15,22,10.0.2.2,65016,1073725440,17290,0,65535,65700,0,0,4,1460,1,0,4,24,33580,176,65700,0,0,0,0,0
i,0x00000000,1717625998.021563,10.0.2.15,22,10.0.2.2,65016,1073725440,17290,0,65535,65700,0,0,4,1460,1,0,4,24,33580,176,65700,0,176,0,0,0
i,0x00000000,1717625998.021965,10.0.2.15,22,10.0.2.2,65016,1073725440,17466,0,65535,65700,0,0,4,1460,1,0,4,24,33580,0,65700,0,0,0,0,0
i,0x00000000,1717625998.021968,10.0.2.15,22,10.0.2.2,65016,1073725440,17466,0,65535,65700,0,0,4,1460,1,0,4,24,33580,0,65700,36,0,0,0,0
o,0x00000000,1717625998.021970,10.0.2.15,22,10.0.2.2,65016,1073725440,17466,0,65535,65700,0,0,4,1460,1,0,5,24,33580,0,65700,96,0,0,0,0
i,0x00000000,1717625998.022058,10.0.2.15,22,10.0.2.2,65016,1073725440,17466,0,65535,65700,0,0,4,1460,1,0,4,24,33580,0,65700,96,0,0,0,0
o,0x00000000,1717625998.022061,10.0.2.15,22,10.0.2.2,65016,1073725440,17466,0,65535,65604,0,0,5,1460,1,0,7,24,33580,0,65700,96,0,0,0,0
o,0x00000000,1717625998.030691,10.0.2.15,22,10.0.2.2,65016,1073725440,17466,0,65535,65604,0,0,8,1460,1,0,4,24,33580,0,65700,0,0,0,0,0
i,0x00000000,1717625998.031451,10.0.2.15,22,10.0.2.2,65016,1073725440,17466,0,65535,65604,0,0,8,1460,1,0,20,24,33580,0,65700,0,1,0,0,0
i,0x00000000,1717625999.101707,10.0.2.15,22,10.0.2.2,65019,1073725440,14600,0,65535,65700,0,0,4,1460,1,0,0,27,33580,0,65700,0,0,0,0,0
o,0x00000000,1717625999.108369,10.0.2.15,22,10.0.2.2,65019,1073725440,14600,0,65535,65700,0,0,4,1460,1,0,0,27,33580,38,65700,41,0,0,0,0
i,0x00000000,1717625999.109000,10.0.2.15,22,10.0.2.2,65019,1073725440,14600,0,65535,65700,0,0,4,1460,1,0,0,27,33580,38,65700,0,38,0,0,0
i,0x00000000,1717625999.109815,10.0.2.15,22,10.0.2.2,65019,1073725440,14638,0,65535,65700,0,0,4,1460,1,0,0,24,33580,0,65700,0,0,0,0,0
i,0x00000000,1717625999.109819,10.0.2.15,22,10.0.2.2,65019,1073725440,14638,0,65535,65700,0,0,4,1460,1,0,0,24,33580,0,65700,1460,0,0,0,0
o,0x00000000,1717625999.109822,10.0.2.15,22,10.0.2.2,65019,1073725440,14638,0,65535,65700,0,0,4,1460,1,0,1,24,33580,0,65700,1536,0,0,0,0
o,0x00000000,1717625999.110707,10.0.2.15,22,10.0.2.2,65019,1073725440,14638,0,65535,65700,0,0,4,1460,1,0,0,24,33580,1056,65700,1536,0,0,0,0
i,0x00000000,1717625999.111782,10.0.2.15,22,10.0.2.2,65019,1073725440,14638,0,65535,65700,0,0,4,1460,1,0,0,24,33580,1056,65700,1536,1056,0,0,0
i,0x00000000,1717625999.113417,10.0.2.15,22,10.0.2.2,65019,1073725440,15694,0,65535,65700,0,0,4,1460,1,0,0,24,33580,0,65700,0,0,0,0,0
o,0x00000000,1717625999.116473,10.0.2.15,22,10.0.2.2,65019,1073725440,15694,0,65535,65700,0,0,4,1460,1,0,0,24,33580,484,65700,0,0,0,0,0
i,0x00000000,1717625999.117291,10.0.2.15,22,10.0.2.2,65019,1073725440,15694,0,65535,65700,0,0,4,1460,1,0,0,24,33580,484,65700,0,484,0,0,0
i,0x00000000,1717625999.122225,10.0.2.15,22,10.0.2.2,65019,1073725440,16178,0,65535,65700,0,0,4,1460,1,0,0,24,33580,0,65700,0,0,0,0,0
i,0x00000000,1717625999.126832,10.0.2.15,22,10.0.2.2,65019,1073725440,16178,0,65535,65700,0,0,4,1460,1,0,0,24,33580,0,65700,0,0,0,0,0
o,0x00000000,1717625999.126837,10.0.2.15,22,10.0.2.2,65019,1073725440,16178,0,65535,65700,0,0,4,1460,1,0,1,24,33580,0,65700,44,0,0,0,0
o,0x00000000,1717625999.126994,10.0.2.15,22,10.0.2.2,65019,1073725440,16178,0,65535,65700,0,0,4,1460,1,0,0,24,33580,44,65700,0,0,0,0,0
i,0x00000000,1717625999.127791,10.0.2.15,22,10.0.2.2,65019,1073725440,16178,0,65535,65700,0,0,4,1460,1,0,0,24,33580,44,65700,0,44,0,0,0
i,0x00000000,1717625999.127795,10.0.2.15,22,10.0.2.2,65019,1073725440,16222,0,65535,65700,0,0,4,1460,1,0,0,24,33580,0,65700,0,0,0,0,0
o,0x00000000,1717625999.137796,10.0.2.15,22,10.0.2.2,65019,1073725440,16222,0,65535,65700,0,0,4,1460,1,0,0,24,33580,68,65700,0,0,0,0,0
i,0x00000000,1717625999.138643,10.0.2.15,22,10.0.2.2,65019,1073725440,16222,0,65535,65700,0,0,4,1460,1,0,0,24,33580,68,65700,0,68,0,0,0
i,0x00000000,1717625999.141908,10.0.2.15,22,10.0.2.2,65019,1073725440,16290,0,65535,65700,0,0,4,1460,1,0,0,24,33580,0,65700,0,0,0,0,0
o,0x00000000,1717625999.151281,10.0.2.15,22,10.0.2.2,65019,1073725440,16290,0,65535,65700,0,0,4,1460,1,0,0,24,33580,28,65700,0,0,0,0,0
i,0x00000000,1717625999.152217,10.0.2.15,22,10.0.2.2,65019,1073725440,16290,0,65535,65700,0,0,4,1460,1,0,0,24,33580,28,65700,0,28,0,0,0
i,0x00000000,1717625999.152922,10.0.2.15,22,10.0.2.2,65019,1073725440,16318,0,65535,65700,0,0,4,1460,1,0,0,24,33580,0,65700,0,0,0,0,0
o,0x00000000,1717625999.153705,10.0.2.15,22,10.0.2.2,65019,1073725440,16318,0,65535,65700,0,0,4,1460,1,0,0,24,33580,768,65700,112,0,0,0,0
i,0x00000000,1717625999.154506,10.0.2.15,22,10.0.2.2,65019,1073725440,16318,0,65535,65700,0,0,4,1460,1,0,0,24,33580,768,65700,112,768,0,0,0
o,0x00000000,1717625999.154641,10.0.2.15,22,10.0.2.2,65019,1073725440,17086,0,65535,65700,0,0,4,1460,1,0,0,24,33580,44,65700,0,0,0,0,0
i,0x00000000,1717625999.155544,10.0.2.15,22,10.0.2.2,65019,1073725440,17086,0,65535,65700,0,0,4,1460,1,0,0,24,33580,44,65700,0,44,0,0,0
i,0x00000000,1717625999.156361,10.0.2.15,22,10.0.2.2,65019,1073725440,17130,0,65535,65700,0,0,4,1460,1,0,0,24,33580,0,65700,0,0,0,0,0
o,0x00000000,1717625999.156940,10.0.2.15,22,10.0.2.2,65019,1073725440,17130,0,65535,65700,0,0,4,1460,1,0,4,24,33580,72,65700,0,0,0,0,0
i,0x00000000,1717625999.157895,10.0.2.15,22,10.0.2.2,65019,1073725440,17130,0,65535,65700,0,0,4,1460,1,0,4,24,33580,72,65700,0,72,0,0,0
i,0x00000000,1717625999.158447,10.0.2.15,22,10.0.2.2,65019,1073725440,17202,0,65535,65700,0,0,4,1460,1,0,4,24,33580,0,65700,0,0,0,0,0
o,0x00000000,1717625999.165378,172.16.1.2,35383,172.16.3.2,5101,1073725440,1073725440,0,0,0,0,0,2,536,0,1,672,100,32768,0,65536,0,0,0,0,0
o,0x00000000,1717625999.191494,10.0.2.15,22,10.0.2.2,65019,1073725440,17202,0,65535,65700,0,0,4,1460,1,0,5,24,33580,0,65700,0,0,0,0,0
i,0x00000000,1717625999.281136,172.16.1.2,35383,172.16.3.2,5101,1073725440,1073725440,0,0,0,0,0,2,536,0,1,672,100,32768,0,65536,0,1,0,0,0
o,0x00000000,1717625999.281160,172.16.1.2,35383,172.16.3.2,5101,9308,14480,0,65535,65700,6,6,4,1460,2366,1,993,236,33580,0,65700,0,0,0,0,0
o,0x00000000,1717625999.281724,172.16.1.2,35383,172.16.3.2,5101,9308,14480,0,65535,65700,6,6,4,1460,2366,1,996,236,33580,37,65700,0,0,0,0,0
i,0x00000000,1717625999.400205,172.16.1.2,35383,172.16.3.2,5101,9308,14480,0,65535,65700,6,6,4,1460,2366,1,996,236,33580,37,65700,0,37,0,0,0
o,0x00000000,1717625999.400354,172.16.1.2,35383,172.16.3.2,5101,9308,14480,0,65728,65728,6,6,4,1460,2115,1,996,255,33580,4,65700,0,0,0,0,0
o,0x00000000,1717625999.400902,172.16.1.2,35383,172.16.3.2,5101,9308,14480,0,65728,65728,6,6,4,1460,2115,1,996,255,33580,128,65700,0,4,0,0,0
i,0x00000000,1717625999.520438,172.16.1.2,35383,172.16.3.2,5101,9308,14480,0,65728,65728,6,6,4,1460,2115,1,996,255,33580,128,65700,0,128,0,0,0
i,0x00000000,1717625999.520452,172.16.1.2,35383,172.16.3.2,5101,9308,14480,0,65600,65728,6,6,4,1460,1899,1,996,260,33580,0,65700,0,0,0,0,0
o,0x00000000,1717625999.520656,172.16.1.2,14403,172.16.3.2,5101,1073725440,1073725440,0,0,0,0,0,2,536,0,1,672,100,32768,0,65536,0,0,0,0,0
o,0x00000000,1717625999.552017,172.16.1.2,35383,172.16.3.2,5101,9308,14480,0,65728,65728,6,6,4,1460,1899,1,997,260,33580,0,65700,0,0,0,0,0
i,0x00000000,1717625999.640596,172.16.1.2,14403,172.16.3.2,5101,1073725440,1073725440,0,0,0,0,0,2,536,0,1,672,100,32768,0,65536,0,1,0,0,0
o,0x00000000,1717625999.640616,172.16.1.2,14403,172.16.3.2,5101,9308,14480,0,65535,65700,6,6,4,1460,2370,1,993,235,33580,0,65700,0,0,0,0,0
o,0x00000000,1717625999.640837,172.16.1.2,14403,172.16.3.2,5101,9308,14480,0,65535,65700,6,6,4,1460,2370,1,992,235,33580,37,65700,0,0,0,0,0
i,0x00000000,1717625999.760618,172.16.1.2,35383,172.16.3.2,5101,9308,14480,0,65728,65728,6,6,4,1460,1899,1,996,260,33580,0,65700,0,0,0,0,0
i,0x00000000,1717625999.760632,172.16.1.2,35383,172.16.3.2,5101,9308,14480,0,65728,65728,6,6,4,1460,1899,1,996,260,33580,0,65700,1,0,0,0,0
o,0x00000000,1717625999.760640,172.16.1.2,35383,172.16.3.2,5101,9308,14480,0,65728,65728,6,6,4,1460,1899,1,997,260,33580,0,65700,2,0,0,0,0
o,0x00000000,1717625999.760986,172.16.1.2,14403,172.16.3.2,5101,9308,14480,0,65535,65700,6,6,4,1460,2370,1,992,235,33580,33580,65700,0,37,0,0,0
o,0x00000000,1717625999.761534,172.16.1.2,14403,172.16.3.2,5101,9308,14480,0,65535,65700,6,6,4,1460,2370,1,992,235,33580,33580,65700,0,1485,0,0,0
o,0x00000000,1717625999.761907,172.16.1.2,14403,172.16.3.2,5101,9308,14480,0,65535,65700,6,6,4,1460,2370,1,992,235,33580,33580,65700,0,2933,0,0,0
o,0x00000000,1717625999.762273,172.16.1.2,14403,172.16.3.2,5101,9308,14480,0,65535,65700,6,6,4,1460,2370,1,992,235,33580,33580,65700,0,4381,0,0,0
o,0x00000000,1717625999.762631,172.16.1.2,14403,172.16.3.2,5101,9308,14480,0,65535,65700,6,6,4,1460,2370,1,992,235,33580,33580,65700,0,5829,0,0,0
o,0x00000000,1717625999.763006,172.16.1.2,14403,172.16.3.2,5101,9308,14480,0,65535,65700,6,6,4,1460,2370,1,992,235,33580,33580,65700,0,7277,0,0,0
o,0x00000000,1717625999.763362,172.16.1.2,14403,172.16.3.2,5101,9308,14480,0,65535,65700,6,6,4,1460,2370,1,992,235,33580,33580,65700,0,8725,0,0,0
o,0x00000000,1717625999.763725,172.16.1.2,14403,172.16.3.2,5101,9308,14480,0,65535,65700,6,6,4,1460,2370,1,992,235,33580,33580,65700,0,10173,0,0,0
o,0x00000000,1717625999.764106,172.16.1.2,14403,172.16.3.2,5101,9308,14480,0,65535,65700,6,6,4,1460,2370,1,992,235,33580,33580,65700,0,11621,0,0,0
i,0x00000000,1717625999.790602,172.16.1.2,14403,172.16.3.2,5101,9308,14480,0,65535,65700,6,6,4,1460,2370,1,992,235,33580,33580,65700,0,13069,0,0,0
o,0x00000000,1717625999.790621,172.16.1.2,14403,172.16.3.2,5101,9308,14480,0,65728,65728,6,6,4,1460,2130,1,992,252,33580,33543,65700,0,13032,0,0,0
i,0x00000000,1717626000.060279,172.16.1.2,14403,172.16.3.2,5101,9308,14480,0,65728,65728,6,6,4,1460,2130,1,992,252,33580,33543,65700,0,14480,0,0,0
o,0x00000000,1717626000.060296,172.16.1.2,14403,172.16.3.2,5101,9308,14480,0,64256,65728,6,6,4,1460,1984,1,992,243,33580,30647,65700,0,11584,0,0,0
o,0x00000000,1717626000.060385,172.16.1.2,14403,172.16.3.2,5101,9308,14480,0,64256,65728,6,6,4,1460,1984,1,992,243,33580,30647,65700,0,13032,0,0,0
i,0x00000000,1717626000.060462,172.16.1.2,14403,172.16.3.2,5101,9308,14480,0,64256,65728,6,6,4,1460,1984,1,992,243,33580,30647,65700,0,14480,0,0,0
o,0x00000000,1717626000.060466,172.16.1.2,14403,172.16.3.2,5101,9308,14480,0,64256,65728,6,6,4,1460,1852,1,992,231,33580,27751,65700,0,11584,0,0,0
o,0x00000000,1717626000.060541,172.16.1.2,14403,172.16.3.2,5101,9308,14480,0,64256,65728,6,6,4,1460,1852,1,992,231,33580,27751,65700,0,13032,0,0,0
i,0x00000000,1717626000.060619,172.16.1.2,14403,172.16.3.2,5101,9308,14480,0,64256,65728,6,6,4,1460,1852,1,992,231,33580,27751,65700,0,14480,0,0,0
o,0x00000000,1717626000.060623,172.16.1.2,14403,172.16.3.2,5101,9308,14480,0,64256,65728,6,6,4,1460,1737,1,992,218,33580,24855,65700,0,11584,0,0,0
o,0x00000000,1717626000.060699,172.16.1.2,14403,172.16.3.2,5101,9308,14480,0,64256,65728,6,6,4,1460,1737,1,992,218,33580,24855,65700,0,13032,0,0,0
i,0x00000000,1717626000.061108,172.16.1.2,14403,172.16.3.2,5101,9308,14480,0,64256,65728,6,6,4,1460,1737,1,992,218,33580,24855,65700,0,14480,0,0,0
o,0x00000000,1717626000.061111,172.16.1.2,14403,172.16.3.2,5101,9308,14480,0,64256,65728,6,6,4,1460,1640,1,992,203,33580,21959,65700,0,11584,0,0,0
o,0x00000000,1717626000.061190,172.16.1.2,14403,172.16.3.2,5101,9308,14480,0,64256,65728,6,6,4,1460,1640,1,992,203,33580,21959,65700,0,13032,0,0,0
i,0x00000000,1717626000.090174,172.16.1.2,14403,172.16.3.2,5101,9308,14480,0,64256,65728,6,6,4,1460,1640,1,992,203,33580,33580,65700,0,14480,0,0,0
o,0x00000000,1717626000.090184,172.16.1.2,14403,172.16.3.2,5101,9308,15940,0,64256,65728,6,6,4,1460,1563,1,992,187,33580,30684,65700,0,11584,0,0,0
o,0x00000000,1717626000.090617,172.16.1.2,14403,172.16.3.2,5101,9308,15940,0,64256,65728,6,6,4,1460,1563,1,992,187,33580,30684,65700,0,13032,0,0,0
o,0x00000000,1717626000.090929,172.16.1.2,14403,172.16.3.2,5101,9308,15940,0,64256,65728,6,6,4,1460,1563,1,992,187,33580,30684,65700,0,14480,0,0,0
i,0x00000000,1717626000.369471,172.16.1.2,14403,172.16.3.2,5101,9308,15940,0,64256,65728,6,6,4,1460,1563,1,992,187,41772,41772,65700,0,15928,0,0,0
o,0x00000000,1717626000.369493,172.16.1.2,14403,172.16.3.2,5101,9308,15940,0,64256,65728,6,6,4,1460,1488,1,992,174,41772,38876,65700,0,13032,0,0,0
o,0x00000000,1717626000.369581,172.16.1.2,14403,172.16.3.2,5101,9308,15940,0,64256,65728,6,6,4,1460,1488,1,992,174,41772,38876,65700,0,14480,0,0,0
i,0x00000000,1717626000.369654,172.16.1.2,14403,172.16.3.2,5101,9308,15940,0,64256,65728,6,6,4,1460,1488,1,992,174,41772,38876,65700,0,15928,0,0,0
o,0x00000000,1717626000.369657,172.16.1.2,14403,172.16.3.2,5101,9308,15940,0,64256,65728,6,6,4,1460,1422,1,992,161,41772,35980,65700,0,13032,0,0,0
o,0x00000000,1717626000.369734,172.16.1.2,14403,172.16.3.2,5101,9308,15940,0,64256,65728,6,6,4,1460,1422,1,992,161,41772,35980,65700,0,14480,0,0,0
i,0x00000000,1717626000.369833,172.16.1.2,14403,172.16.3.2,5101,9308,15940,0,64256,65728,6,6,4,1460,1422,1,992,161,41772,35980,65700,0,15928,0,0,0
o,0x00000000,1717626000.369835,172.16.1.2,14403,172.16.3.2,5101,9308,15940,0,64256,65728,6,6,4,1460,1365,1,992,150,41772,33084,65700,0,13032,0,0,0
o,0x00000000,1717626000.369923,172.16.1.2,14403,172.16.3.2,5101,9308,15940,0,64256,65728,6,6,4,1460,1365,1,992,150,41772,33084,65700,0,14480,0,0,0
i,0x00000000,1717626000.370012,172.16.1.2,14403,172.16.3.2,5101,9308,15940,0,64256,65728,6,6,4,1460,1365,1,992,150,41772,33084,65700,0,15928,0,0,0
o,0x00000000,1717626000.370034,172.16.1.2,14403,172.16.3.2,5101,9308,15940,0,64256,65728,6,6,4,1460,1315,1,992,139,41772,30188,65700,0,13032,0,0,0
o,0x00000000,1717626000.370124,172.16.1.2,14403,172.16.3.2,5101,9308,15940,0,64256,65728,6,6,4,1460,1315,1,992,139,41772,30188,65700,0,14480,0,0,0
i,0x00000000,1717626000.400105,172.16.1.2,14403,172.16.3.2,5101,9308,15940,0,64256,65728,6,6,4,1460,1315,1,992,139,41772,41772,65700,0,15928,0,0,0
o,0x00000000,1717626000.400119,172.16.1.2,14403,172.16.3.2,5101,9308,15940,0,64256,65728,6,6,4,1460,1271,1,992,129,41772,38876,65700,0,13032,0,0,0
o,0x00000000,1717626000.400384,172.16.1.2,14403,172.16.3.2,5101,9308,15940,0,64256,65728,6,6,4,1460,1271,1,992,129,41772,38876,65700,0,14480,0,0,0
i,0x00000000,1717626000.610125,172.16.1.2,14403,172.16.3.2,5101,9308,15940,0,64256,65728,6,6,4,1460,1271,1,992,129,41772,41772,65700,0,15928,0,0,0
o,0x00000000,1717626000.610144,172.16.1.2,14403,172.16.3.2,5101,9308,17400,0,65728,65728,6,6,4,1460,1321,1,992,126,41772,40324,65700,0,14480,0,0,0
o,0x00000000,1717626000.610444,172.16.1.2,14403,172.16.3.2,5101,9308,17400,0,65728,65728,6,6,4,1460,1321,1,992,126,41772,40324,65700,0,15928,0,0,0
i,0x00000000,1717626000.659995,172.16.1.2,14403,172.16.3.2,5101,9308,17400,0,65728,65728,6,6,4,1460,1321,1,992,126,41772,40324,65700,0,17376,0,0,0
o,0x00000000,1717626000.660007,172.16.1.2,14403,172.16.3.2,5101,9308,17400,0,64256,65728,6,6,4,1460,1272,1,992,120,41772,37428,65700,0,14480,0,0,0
o,0x00000000,1717626000.660093,172.16.1.2,14403,172.16.3.2,5101,9308,17400,0,64256,65728,6,6,4,1460,1272,1,992,120,41772,37428,65700,0,15928,0,0,0
i,0x00000000,1717626000.660178,172.16.1.2,14403,172.16.3.2,5101,9308,17400,0,64256,65728,6,6,4,1460,1272,1,992,120,41772,37428,65700,0,17376,0,0,0
o,0x00000000,1717626000.660182,172.16.1.2,14403,172.16.3.2,5101,9308,17400,0,64256,65728,6,6,4,1460,1229,1,992,114,41772,34532,65700,0,14480,0,0,0
o,0x00000000,1717626000.660274,172.16.1.2,14403,172.16.3.2,5101,9308,17400,0,64256,65728,6,6,4,1460,1229,1,992,114,41772,34532,65700,0,15928,0,0,0
i,0x00000000,1717626000.660355,172.16.1.2,14403,172.16.3.2,5101,9308,17400,0,64256,65728,6,6,4,1460,1229,1,992,114,41772,34532,65700,0,17376,0,0,0
o,0x00000000,1717626000.660358,172.16.1.2,14403,172.16.3.2,5101,9308,17400,0,64256,65728,6,6,4,1460,1192,1,992,109,41772,31636,65700,0,14480,0,0,0
o,0x00000000,1717626000.660434,172.16.1.2,14403,172.16.3.2,5101,9308,17400,0,64256,65728,6,6,4,1460,1192,1,992,109,41772,31636,65700,0,15928,0,0,0
i,0x00000000,1717626000.660523,172.16.1.2,14403,172.16.3.2,5101,9308,17400,0,64256,65728,6,6,4,1460,1192,1,992,109,41772,31636,65700,0,17376,0,0,0
o,0x00000000,1717626000.660526,172.16.1.2,14403,172.16.3.2,5101,9308,17400,0,64256,65728,6,6,4,1460,1159,1,992,103,41772,28740,65700,0,14480,0,0,0
o,0x00000000,1717626000.660600,172.16.1.2,14403,172.16.3.2,5101,9308,17400,0,64256,65728,6,6,4,1460,1159,1,992,103,41772,28740,65700,0,15928,0,0,0
i,0x00000000,1717626000.700123,172.16.1.2,14403,172.16.3.2,5101,9308,17400,0,64256,65728,6,6,4,1460,1159,1,992,103,41772,41772,65700,0,17376,0,0,0
o,0x00000000,1717626000.700139,172.16.1.2,14403,172.16.3.2,5101,9308,17400,0,64256,65728,6,6,4,1460,1135,1,992,96,41772,38876,65700,0,14480,0,0,0
o,0x00000000,1717626000.700426,172.16.1.2,14403,172.16.3.2,5101,9308,17400,0,64256,65728,6,6,4,1460,1135,1,992,96,41772,38876,65700,0,15928,0,0,0
i,0x00000000,1717626000.920282,172.16.1.2,14403,172.16.3.2,5101,9308,17400,0,64256,65728,6,6,4,1460,1135,1,992,96,41772,41772,65700,0,17376,0,0,0
o,0x00000000,1717626000.920302,172.16.1.2,14403,172.16.3.2,5101,9308,18860,0,64256,65728,6,6,4,1460,1114,1,992,91,41772,38876,65700,0,14480,0,0,0
o,0x00000000,1717626000.920609,172.16.1.2,14403,172.16.3.2,5101,9308,18860,0,64256,65728,6,6,4,1460,1114,1,992,91,41772,38876,65700,0,15928,0,0,0
o,0x00000000,1717626000.920847,172.16.1.2,14403,172.16.3.2,5101,9308,18860,0,64256,65728,6,6,4,1460,1114,1,992,91,41772,38876,65700,0,17376,0,0,0
i,0x00000000,1717626000.979488,172.16.1.2,14403,172.16.3.2,5101,9308,18860,0,64256,65728,6,6,4,1460,1114,1,992,91,41772,41772,65700,0,18824,0,0,0
o,0x00000000,1717626000.979657,172.16.1.2,14403,172.16.3.2,5101,9308,18860,0,64256,65728,6,6,4,1460,1099,1,992,85,41772,38876,65700,0,15928,0,0,0
o,0x00000000,1717626000.979743,172.16.1.2,14403,172.16.3.2,5101,9308,18860,0,64256,65728,6,6,4,1460,1099,1,992,85,41772,38876,65700,0,17376,0,0,0
i,0x00000000,1717626000.979821,172.16.1.2,14403,172.16.3.2,5101,9308,18860,0,64256,65728,6,6,4,1460,1099,1,992,85,41772,38876,65700,0,18824,0,0,0
o,0x00000000,1717626000.979824,172.16.1.2,14403,172.16.3.2,5101,9308,18860,0,64256,65728,6,6,4,1460,1086,1,992,80,41772,35980,65700,0,15928,0,0,0
o,0x00000000,1717626000.979899,172.16.1.2,14403,172.16.3.2,5101,9308,18860,0,64256,65728,6,6,4,1460,1086,1,992,80,41772,35980,65700,0,17376,0,0,0
i,0x00000000,1717626000.980331,172.16.1.2,14403,172.16.3.2,5101,9308,18860,0,64256,65728,6,6,4,1460,1086,1,992,80,41772,35980,65700,0,18824,0,0,0
o,0x00000000,1717626000.980334,172.16.1.2,14403,172.16.3.2,5101,9308,18860,0,64256,65728,6,6,4,1460,1075,1,992,76,41772,33084,65700,0,15928,0,0,0
o,0x00000000,1717626000.980440,172.16.1.2,14403,172.16.3.2,5101,9308,18860,0,64256,65728,6,6,4,1460,1075,1,992,76,41772,33084,65700,0,17376,0,0,0
i,0x00000000,1717626000.980537,172.16.1.2,14403,172.16.3.2,5101,9308,18860,0,64256,65728,6,6,4,1460,1075,1,992,76,41772,33084,65700,0,18824,0,0,0
o,0x00000000,1717626000.980540,172.16.1.2,14403,172.16.3.2,5101,9308,18860,0,64256,65728,6,6,4,1460,1065,1,992,73,41772,30188,65700,0,15928,0,0,0
o,0x00000000,1717626000.980647,172.16.1.2,14403,172.16.3.2,5101,9308,18860,0,64256,65728,6,6,4,1460,1065,1,992,73,41772,30188,65700,0,17376,0,0,0
i,0x00000000,1717626001.020016,172.16.1.2,14403,172.16.3.2,5101,9308,18860,0,64256,65728,6,6,4,1460,1065,1,992,73,41772,41772,65700,0,18824,0,0,0
o,0x00000000,1717626001.020027,172.16.1.2,14403,172.16.3.2,5101,9308,18860,0,64256,65728,6,6,4,1460,1056,1,992,70,41772,38876,65700,0,15928,0,0,0
o,0x00000000,1717626001.020288,172.16.1.2,14403,172.16.3.2,5101,9308,18860,0,64256,65728,6,6,4,1460,1056,1,992,70,41772,38876,65700,0,17376,0,0,0
i,0x00000000,1717626001.230385,172.16.1.2,14403,172.16.3.2,5101,9308,18860,0,64256,65728,6,6,4,1460,1056,1,992,70,41772,41772,65700,0,18824,0,0,0
o,0x00000000,1717626001.230404,172.16.1.2,14403,172.16.3.2,5101,9308,18860,0,64256,65728,6,6,4,1460,1048,1,992,67,41772,38876,65700,0,15928,0,0,0
o,0x00000000,1717626001.230686,172.16.1.2,14403,172.16.3.2,5101,9308,18860,0,64256,65728,6,6,4,1460,1048,1,992,67,41772,38876,65700,0,17376,0,0,0
i,0x00000000,1717626001.259818,172.16.1.2,14403,172.16.3.2,5101,9308,18860,0,64256,65728,6,6,4,1460,1048,1,992,67,41772,41772,65700,0,18824,0,0,0
o,0x00000000,1717626001.259830,172.16.1.2,14403,172.16.3.2,5101,9308,18860,0,65728,65728,6,6,4,1460,1053,1,992,65,41772,40324,65700,0,17376,0,0,0
i,0x00000000,1717626001.280354,172.16.1.2,14403,172.16.3.2,5101,9308,18860,0,65728,65728,6,6,4,1460,1053,1,992,65,41772,40324,65700,0,18824,0,0,0
o,0x00000000,1717626001.280361,172.16.1.2,14403,172.16.3.2,5101,9308,20320,0,64256,65728,6,6,4,1460,1042,1,992,64,41772,37428,65700,0,15928,0,0,0
o,0x00000000,1717626001.280445,172.16.1.2,14403,172.16.3.2,5101,9308,20320,0,64256,65728,6,6,4,1460,1042,1,992,64,49964,37428,65700,0,17376,0,0,0
o,0x00000000,1717626001.280517,172.16.1.2,14403,172.16.3.2,5101,9308,20320,0,64256,65728,6,6,4,1460,1042,1,992,64,49964,37428,65700,0,18824,0,0,0
i,0x00000000,1717626001.280618,172.16.1.2,14403,172.16.3.2,5101,9308,20320,0,64256,65728,6,6,4,1460,1042,1,992,64,49964,37428,65700,0,20272,0,0,0
o,0x00000000,1717626001.280622,172.16.1.2,14403,172.16.3.2,5101,9308,20320,0,64256,65728,6,6,4,1460,1032,1,992,64,49964,34532,65700,0,17376,0,0,0
o,0x00000000,1717626001.280719,172.16.1.2,14403,172.16.3.2,5101,9308,20320,0,64256,65728,6,6,4,1460,1032,1,992,64,49964,34532,65700,0,18824,0,0,0
i,0x00000000,1717626001.280814,172.16.1.2,14403,172.16.3.2,5101,9308,20320,0,64256,65728,6,6,4,1460,1032,1,992,64,49964,34532,65700,0,20272,0,0,0
o,0x00000000,1717626001.280817,172.16.1.2,14403,172.16.3.2,5101,9308,20320,0,64256,65728,6,6,4,1460,1023,1,992,63,49964,31636,65700,0,17376,0,0,0
o,0x00000000,1717626001.280890,172.16.1.2,14403,172.16.3.2,5101,9308,20320,0,64256,65728,6,6,4,1460,1023,1,992,63,49964,31636,65700,0,18824,0,0,0
i,0x00000000,1717626001.290895,172.16.1.2,14403,172.16.3.2,5101,9308,20320,0,64256,65728,6,6,4,1460,1023,1,992,63,49964,49964,65700,0,20272,0,0,0
o,0x00000000,1717626001.290903,172.16.1.2,14403,172.16.3.2,5101,9308,20320,0,64256,65728,6,6,4,1460,1016,1,992,62,49964,47068,65700,0,17376,0,0,0
o,0x00000000,1717626001.291369,172.16.1.2,14403,172.16.3.2,5101,9308,20320,0,64256,65728,6,6,4,1460,1016,1,992,62,49964,47068,65700,0,18824,0,0,0
i,0x00000000,1717626001.409165,172.16.1.2,14403,172.16.3.2,5101,9308,20320,0,64256,65728,6,6,4,1460,1016,1,992,62,49964,49964,65700,0,20272,0,0,0
o,0x00000000,1717626001.409184,172.16.1.2,14403,172.16.3.2,5101,9308,20320,0,64256,65728,6,6,4,1460,1045,1,992,67,49964,47068,65700,0,17376,0,0,0
o,0x00000000,1717626001.409425,172.16.1.2,14403,172.16.3.2,5101,9308,20320,0,64256,65728,6,6,4,1460,1045,1,992,67,49964,47068,65700,0,18824,0,0,0
i,0x00000000,1717626001.579714,172.16.1.2,14403,172.16.3.2,5101,9308,20320,0,64256,65728,6,6,4,1460,1045,1,992,67,49964,49964,65700,0,20272,0,0,0
o,0x00000000,1717626001.579735,172.16.1.2,14403,172.16.3.2,5101,9308,20320,0,64256,65728,6,6,4,1460,1055,1,992,66,49964,47068,65700,0,17376,0,0,0
o,0x00000000,1717626001.580049,172.16.1.2,14403,172.16.3.2,5101,9308,20320,0,64256,65728,6,6,4,1460,1055,1,992,66,49964,47068,65700,0,18824,0,0,0
i,0x00000000,1717626001.601175,172.16.1.2,14403,172.16.3.2,5101,9308,20320,0,64256,65728,6,6,4,1460,1055,1,992,66,49964,49964,65700,0,20272,0,0,0
o,0x00000000,1717626001.601191,172.16.1.2,14403,172.16.3.2,5101,9308,20320,0,64256,65728,6,6,4,1460,1060,1,992,64,49964,47068,65700,0,17376,0,0,0
o,0x00000000,1717626001.601300,172.16.1.2,14403,172.16.3.2,5101,9308,20320,0,64256,65728,6,6,4,1460,1060,1,992,64,49964,47068,65700,0,18824,0,0,0
i,0x00000000,1717626001.601389,172.16.1.2,14403,172.16.3.2,5101,9308,20320,0,64256,65728,6,6,4,1460,1060,1,992,64,49964,47068,65700,0,20272,0,0,0
o,0x00000000,1717626001.601392,172.16.1.2,14403,172.16.3.2,5101,9308,21780,0,64256,65728,6,6,4,1460,1056,1,992,63,49964,44172,65700,0,17376,0,0,0
o,0x00000000,1717626001.601481,172.16.1.2,14403,172.16.3.2,5101,9308,21780,0,64256,65728,6,6,4,1460,1056,1,992,63,49964,44172,65700,0,18824,0,0,0
o,0x00000000,1717626001.601573,172.16.1.2,14403,172.16.3.2,5101,9308,21780,0,64256,65728,6,6,4,1460,1056,1,992,63,49964,44172,65700,0,20272,0,0,0
i,0x00000000,1717626001.601662,172.16.1.2,14403,172.16.3.2,5101,9308,21780,0,64256,65728,6,6,4,1460,1056,1,992,63,49964,44172,65700,0,21720,0,0,0
o,0x00000000,1717626001.601665,172.16.1.2,14403,172.16.3.2,5101,9308,21780,0,64256,65728,6,6,4,1460,1052,1,992,61,49964,41276,65700,0,18824,0,0,0
o,0x00000000,1717626001.601766,172.16.1.2,14403,172.16.3.2,5101,9308,21780,0,64256,65728,6,6,4,1460,1052,1,992,61,49964,41276,65700,0,20272,0,0,0
i,0x00000000,1717626001.601873,172.16.1.2,14403,172.16.3.2,5101,9308,21780,0,64256,65728,6,6,4,1460,1052,1,992,61,49964,41276,65700,0,21720,0,0,0
o,0x00000000,1717626001.601876,172.16.1.2,14403,172.16.3.2,5101,9308,21780,0,64256,65728,6,6,4,1460,1049,1,992,60,49964,38380,65700,0,18824,0,0,0
o,0x00000000,1717626001.601961,172.16.1.2,14403,172.16.3.2,5101,9308,21780,0,64256,65728,6,6,4,1460,1049,1,992,60,49964,38380,65700,0,20272,0,0,0
i,0x00000000,1717626001.629519,172.16.1.2,14403,172.16.3.2,5101,9308,21780,0,64256,65728,6,6,4,1460,1049,1,992,60,49964,49964,65700,0,21720,0,0,0
o,0x00000000,1717626001.629529,172.16.1.2,14403,172.16.3.2,5101,9308,21780,0,64256,65728,6,6,4,1460,1054,1,992,59,49964,47068,65700,0,18824,0,0,0
o,0x00000000,1717626001.629818,172.16.1.2,14403,172.16.3.2,5101,9308,21780,0,64256,65728,6,6,4,1460,1054,1,992,59,49964,47068,65700,0,20272,0,0,0
i,0x00000000,1717626001.760677,172.16.1.2,14403,172.16.3.2,5101,9308,21780,0,64256,65728,6,6,4,1460,1054,1,992,59,49964,49964,65700,0,21720,0,0,0
o,0x00000000,1717626001.760697,172.16.1.2,14403,172.16.3.2,5101,9308,21780,0,64256,65728,6,6,4,1460,1063,1,992,60,49964,47068,65700,0,18824,0,0,0
o,0x00000000,1717626001.761142,172.16.1.2,14403,172.16.3.2,5101,9308,21780,0,64256,65728,6,6,4,1460,1063,1,992,60,49964,47068,65700,0,20272,0,0,0
i,0x00000000,1717626001.940083,172.16.1.2,14403,172.16.3.2,5101,9308,21780,0,64256,65728,6,6,4,1460,1063,1,992,60,49964,49964,65700,0,21720,0,0,0
o,0x00000000,1717626001.940103,172.16.1.2,14403,172.16.3.2,5101,9308,21780,0,64256,65728,6,6,4,1460,1071,1,992,61,49964,47068,65700,0,18824,0,0,0
o,0x00000000,1717626001.940356,172.16.1.2,14403,172.16.3.2,5101,9308,21780,0,64256,65728,6,6,4,1460,1071,1,992,61,49964,47068,65700,0,20272,0,0,0
i,0x00000000,1717626001.970377,172.16.1.2,14403,172.16.3.2,5101,9308,21780,0,64256,65728,6,6,4,1460,1071,1,992,61,49964,49964,65700,0,21720,0,0,0
o,0x00000000,1717626001.970397,172.16.1.2,14403,172.16.3.2,5101,9308,21780,0,64256,65728,6,6,4,1460,1082,1,992,62,49964,47068,65700,0,18824,0,0,0
o,0x00000000,1717626001.970502,172.16.1.2,14403,172.16.3.2,5101,9308,21780,0,64256,65728,6,6,4,1460,1082,1,992,62,49964,47068,65700,0,20272,0,0,0
i,0x00000000,1717626001.970589,172.16.1.2,14403,172.16.3.2,5101,9308,21780,0,64256,65728,6,6,4,1460,1082,1,992,62,49964,47068,65700,0,21720,0,0,0
o,0x00000000,1717626001.970592,172.16.1.2,14403,172.16.3.2,5101,9308,23240,0,64256,65728,6,6,4,1460,1091,1,992,63,49964,44172,65700,0,18824,0,0,0
o,0x00000000,1717626001.970669,172.16.1.2,14403,172.16.3.2,5101,9308,23240,0,64256,65728,6,6,4,1460,1091,1,992,63,49964,44172,65700,0,20272,0,0,0
o,0x00000000,1717626001.970745,172.16.1.2,14403,172.16.3.2,5101,9308,23240,0,64256,65728,6,6,4,1460,1091,1,992,63,58156,44172,65700,0,21720,0,0,0
i,0x00000000,1717626001.970818,172.16.1.2,14403,172.16.3.2,5101,9308,23240,0,64256,65728,6,6,4,1460,1091,1,992,63,58156,44172,65700,0,23168,0,0,0
o,0x00000000,1717626001.970821,172.16.1.2,14403,172.16.3.2,5101,9308,23240,0,64256,65728,6,6,4,1460,1099,1,992,63,58156,41276,65700,0,20272,0,0,0
o,0x00000000,1717626001.970905,172.16.1.2,14403,172.16.3.2,5101,9308,23240,0,64256,65728,6,6,4,1460,1099,1,992,63,58156,41276,65700,0,21720,0,0,0
i,0x00000000,1717626001.971098,172.16.1.2,14403,172.16.3.2,5101,9308,23240,0,64256,65728,6,6,4,1460,1099,1,992,63,58156,41276,65700,0,23168,0,0,0
o,0x00000000,1717626001.971101,172.16.1.2,14403,172.16.3.2,5101,9308,23240,0,64256,65728,6,6,4,1460,1110,1,992,64,58156,38380,65700,0,20272,0,0,0
o,0x00000000,1717626001.971176,172.16.1.2,14403,172.16.3.2,5101,9308,23240,0,64256,65728,6,6,4,1460,1110,1,992,64,58156,38380,65700,0,21720,0,0,0
i,0x00000000,1717626001.989768,172.16.1.2,14403,172.16.3.2,5101,9308,23240,0,64256,65728,6,6,4,1460,1110,1,992,64,58156,58156,65700,0,23168,0,0,0
o,0x00000000,1717626001.989778,172.16.1.2,14403,172.16.3.2,5101,9308,23240,0,65728,65728,6,6,4,1460,1124,1,992,65,58156,56708,65700,0,21720,0,0,0
i,0x00000000,1717626001.990041,172.16.1.2,14403,172.16.3.2,5101,9308,23240,0,65728,65728,6,6,4,1460,1124,1,992,65,58156,56708,65700,0,23168,0,0,0
o,0x00000000,1717626001.990044,172.16.1.2,14403,172.16.3.2,5101,9308,23240,0,64256,65728,6,6,4,1460,1124,1,992,63,58156,53812,65700,0,20272,0,0,0
o,0x00000000,1717626001.990290,172.16.1.2,14403,172.16.3.2,5101,9308,23240,0,64256,65728,6,6,4,1460,1124,1,992,63,58156,53812,65700,0,21720,0,0,0
i,0x00000000,1717626002.130441,172.16.1.2,14403,172.16.3.2,5101,9308,23240,0,64256,65728,6,6,4,1460,1124,1,992,63,58156,58156,65700,0,23168,0,0,0
o,0x00000000,1717626002.130460,172.16.1.2,14403,172.16.3.2,5101,9308,23240,0,64256,65728,6,6,4,1460,1132,1,992,63,58156,55260,65700,0,20272,0,0,0
o,0x00000000,1717626002.130755,172.16.1.2,14403,172.16.3.2,5101,9308,23240,0,64256,65728,6,6,4,1460,1132,1,992,63,58156,55260,65700,0,21720,0,0,0
i,0x00000000,1717626002.329634,172.16.1.2,14403,172.16.3.2,5101,9308,23240,0,64256,65728,6,6,4,1460,1132,1,992,63,58156,58156,65700,0,23168,0,0,0
o,0x00000000,1717626002.329657,172.16.1.2,14403,172.16.3.2,5101,9308,23240,0,64256,65728,6,6,4,1460,1147,1,992,65,58156,55260,65700,0,20272,0,0,0
o,0x00000000,1717626002.329950,172.16.1.2,14403,172.16.3.2,5101,9308,23240,0,64256,65728,6,6,4,1460,1147,1,992,65,58156,55260,65700,0,21720,0,0,0
i,0x00000000,1717626002.360629,172.16.1.2,14403,172.16.3.2,5101,9308,23240,0,64256,65728,6,6,4,1460,1147,1,992,65,58156,58156,65700,0,23168,0,0,0
o,0x00000000,1717626002.360792,172.16.1.2,14403,172.16.3.2,5101,9308,23240,0,64256,65728,6,6,4,1460,1160,1,992,67,58156,55260,65700,0,20272,0,0,0
o,0x00000000,1717626002.360909,172.16.1.2,14403,172.16.3.2,5101,9308,23240,0,64256,65728,6,6,4,1460,1160,1,992,67,58156,55260,65700,0,21720,0,0,0
i,0x00000000,1717626002.360989,172.16.1.2,14403,172.16.3.2,5101,9308,23240,0,64256,65728,6,6,4,1460,1160,1,992,67,58156,55260,65700,0,23168,0,0,0
o,0x00000000,1717626002.360992,172.16.1.2,14403,172.16.3.2,5101,9308,23240,0,64256,65728,6,6,4,1460,1171,1,992,67,58156,52364,65700,0,20272,0,0,0
o,0x00000000,1717626002.361212,172.16.1.2,14403,172.16.3.2,5101,9308,23240,0,64256,65728,6,6,4,1460,1171,1,992,67,58156,52364,65700,0,21720,0,0,0
i,0x00000000,1717626002.361526,172.16.1.2,14403,172.16.3.2,5101,9308,23240,0,64256,65728,6,6,4,1460,1171,1,992,67,58156,52364,65700,0,23168,0,0,0
o,0x00000000,1717626002.361530,172.16.1.2,14403,172.16.3.2,5101,9308,24700,0,64256,65728,6,6,4,1460,1181,1,992,67,58156,49468,65700,0,20272,0,0,0
o,0x00000000,1717626002.361620,172.16.1.2,14403,172.16.3.2,5101,9308,24700,0,64256,65728,6,6,4,1460,1181,1,992,67,58156,49468,65700,0,21720,0,0,0
o,0x00000000,1717626002.361694,172.16.1.2,14403,172.16.3.2,5101,9308,24700,0,64256,65728,6,6,4,1460,1181,1,992,67,58156,49468,65700,0,23168,0,0,0
i,0x00000000,1717626002.361788,172.16.1.2,14403,172.16.3.2,5101,9308,24700,0,64256,65728,6,6,4,1460,1181,1,992,67,58156,49468,65700,0,24616,0,0,0
o,0x00000000,1717626002.361790,172.16.1.2,14403,172.16.3.2,5101,9308,24700,0,64256,65728,6,6,4,1460,1190,1,992,67,58156,46572,65700,0,21720,0,0,0
o,0x00000000,1717626002.361872,172.16.1.2,14403,172.16.3.2,5101,9308,24700,0,64256,65728,6,6,4,1460,1190,1,992,67,58156,46572,65700,0,23168,0,0,0
i,0x00000000,1717626002.378740,172.16.1.2,14403,172.16.3.2,5101,9308,24700,0,64256,65728,6,6,4,1460,1190,1,992,67,58156,58156,65700,0,24616,0,0,0
o,0x00000000,1717626002.378764,172.16.1.2,14403,172.16.3.2,5101,9308,24700,0,65728,65728,6,6,4,1460,1202,1,992,68,58156,56708,65700,0,23168,0,0,0
i,0x00000000,1717626002.379008,172.16.1.2,14403,172.16.3.2,5101,9308,24700,0,65728,65728,6,6,4,1460,1202,1,992,68,58156,56708,65700,0,24616,0,0,0
o,0x00000000,1717626002.379012,172.16.1.2,14403,172.16.3.2,5101,9308,24700,0,64256,65728,6,6,4,1460,1208,1,992,67,58156,53812,65700,0,21720,0,0,0
o,0x00000000,1717626002.379243,172.16.1.2,14403,172.16.3.2,5101,9308,24700,0,64256,65728,6,6,4,1460,1208,1,992,67,58156,53812,65700,0,23168,0,0,0
i,0x00000000,1717626002.519752,172.16.1.2,14403,172.16.3.2,5101,9308,24700,0,64256,65728,6,6,4,1460,1208,1,992,67,58156,58156,65700,0,24616,0,0,0
o,0x00000000,1717626002.519771,172.16.1.2,14403,172.16.3.2,5101,9308,24700,0,64256,65728,6,6,4,1460,1269,1,992,82,58156,55260,65700,0,21720,0,0,0
o,0x00000000,1717626002.520018,172.16.1.2,14403,172.16.3.2,5101,9308,24700,0,64256,65728,6,6,4,1460,1269,1,992,82,58156,55260,65700,0,23168,0,0,0
i,0x00000000,1717626002.720462,172.16.1.2,14403,172.16.3.2,5101,9308,24700,0,64256,65728,6,6,4,1460,1269,1,992,82,58156,58156,65700,0,24616,0,0,0
o,0x00000000,1717626002.720491,172.16.1.2,14403,172.16.3.2,5101,9308,24700,0,65728,65728,6,6,4,1460,1347,1,992,98,58156,56708,65700,0,23168,0,0,0
i,0x00000000,1717626002.720601,172.16.1.2,14403,172.16.3.2,5101,9308,24700,0,65728,65728,6,6,4,1460,1347,1,992,98,58156,56708,65700,0,24616,0,0,0
o,0x00000000,1717626002.720604,172.16.1.2,14403,172.16.3.2,5101,9308,24700,0,64256,65728,6,6,4,1460,1335,1,992,92,58156,53812,65700,0,21720,0,0,0
o,0x00000000,1717626002.720703,172.16.1.2,14403,172.16.3.2,5101,9308,24700,0,64256,65728,6,6,4,1460,1335,1,992,92,58156,53812,65700,0,23168,0,0,0
i,0x00000000,1717626002.750145,172.16.1.2,14403,172.16.3.2,5101,9308,24700,0,64256,65728,6,6,4,1460,1335,1,992,92,58156,58156,65700,0,24616,0,0,0
o,0x00000000,1717626002.750154,172.16.1.2,14403,172.16.3.2,5101,9308,24700,0,64256,65728,6,6,4,1460,1325,1,992,87,58156,55260,65700,0,21720,0,0,0
o,0x00000000,1717626002.750256,172.16.1.2,14403,172.16.3.2,5101,9308,24700,0,64256,65728,6,6,4,1460,1325,1,992,87,58156,55260,65700,0,23168,0,0,0
i,0x00000000,1717626002.750347,172.16.1.2,14403,172.16.3.2,5101,9308,24700,0,64256,65728,6,6,4,1460,1325,1,992,87,58156,55260,65700,0,24616,0,0,0
o,0x00000000,1717626002.750351,172.16.1.2,14403,172.16.3.2,5101,9308,24700,0,64256,65728,6,6,4,1460,1316,1,992,82,58156,52364,65700,0,21720,0,0,0
o,0x00000000,1717626002.750427,172.16.1.2,14403,172.16.3.2,5101,9308,24700,0,64256,65728,6,6,4,1460,1316,1,992,82,58156,52364,65700,0,23168,0,0,0
i,0x00000000,1717626002.750504,172.16.1.2,14403,172.16.3.2,5101,9308,24700,0,64256,65728,6,6,4,1460,1316,1,992,82,58156,52364,65700,0,24616,0,0,0
o,0x00000000,1717626002.750506,172.16.1.2,14403,172.16.3.2,5101,9308,26160,0,64256,65728,6,6,4,1460,1304,1,992,80,58156,49468,65700,0,21720,0,0,0
o,0x00000000,1717626002.750582,172.16.1.2,14403,172.16.3.2,5101,9308,26160,0,64256,65728,6,6,4,1460,1304,1,992,80,58156,49468,65700,0,23168,0,0,0
o,0x00000000,1717626002.750676,172.16.1.2,14403,172.16.3.2,5101,9308,26160,0,64256,65728,6,6,4,1460,1304,1,992,80,58156,49468,65700,0,24616,0,0,0
i,0x00000000,1717626002.750983,172.16.1.2,14403,172.16.3.2,5101,9308,26160,0,64256,65728,6,6,4,1460,1304,1,992,80,58156,49468,65700,0,26064,0,0,0
o,0x00000000,1717626002.750986,172.16.1.2,14403,172.16.3.2,5101,9308,26160,0,64256,65728,6,6,4,1460,1293,1,992,77,58156,46572,65700,0,23168,0,0,0
o,0x00000000,1717626002.751193,172.16.1.2,14403,172.16.3.2,5101,9308,26160,0,64256,65728,6,6,4,1460,1293,1,992,77,58156,46572,65700,0,24616,0,0,0
i,0x00000000,1717626002.789791,172.16.1.2,14403,172.16.3.2,5101,9308,26160,0,64256,65728,6,6,4,1460,1293,1,992,77,58156,58156,65700,0,26064,0,0,0
o,0x00000000,1717626002.790346,172.16.1.2,14403,172.16.3.2,5101,9308,26160,0,65728,65728,6,6,4,1460,1300,1,992,75,58156,56708,65700,0,24616,0,0,0
i,0x00000000,1717626002.790464,172.16.1.2,14403,172.16.3.2,5101,9308,26160,0,65728,65728,6,6,4,1460,1300,1,992,75,58156,56708,65700,0,26064,0,0,0
o,0x00000000,1717626002.790468,172.16.1.2,14403,172.16.3.2,5101,9308,26160,0,64256,65728,6,6,4,1460,1302,1,992,72,58156,53812,65700,0,23168,0,0,0
o,0x00000000,1717626002.790553,172.16.1.2,14403,172.16.3.2,5101,9308,26160,0,64256,65728,6,6,4,1460,1302,1,992,72,58156,53812,65700,0,24616,0,0,0
i,0x00000000,1717626002.929946,172.16.1.2,14403,172.16.3.2,5101,9308,26160,0,64256,65728,6,6,4,1460,1302,1,992,72,58156,58156,65700,0,26064,0,0,0
o,0x00000000,1717626002.929986,172.16.1.2,14403,172.16.3.2,5101,9308,26160,0,64256,65728,6,6,4,1460,1356,1,992,84,58156,55260,65700,0,23168,0,0,0
o,0x00000000,1717626002.930338,172.16.1.2,14403,172.16.3.2,5101,9308,26160,0,64256,65728,6,6,4,1460,1356,1,992,84,58156,55260,65700,0,24616,0,0,0
i,0x00000000,1717626003.079509,172.16.1.2,14403,172.16.3.2,5101,9308,26160,0,64256,65728,6,6,4,1460,1356,1,992,84,58156,58156,65700,0,26064,0,0,0
o,0x00000000,1717626003.079531,172.16.1.2,14403,172.16.3.2,5101,9308,26160,0,65728,65728,6,6,4,1460,1411,1,992,94,58156,56708,65700,0,24616,0,0,0
i,0x00000000,1717626003.140013,172.16.1.2,14403,172.16.3.2,5101,9308,26160,0,65728,65728,6,6,4,1460,1411,1,992,94,58156,56708,65700,0,26064,0,0,0
o,0x00000000,1717626003.140033,172.16.1.2,14403,172.16.3.2,5101,9308,26160,0,64256,65728,6,6,4,1460,1403,1,992,89,58156,53812,65700,0,23168,0,0,0
o,0x00000000,1717626003.140344,172.16.1.2,14403,172.16.3.2,5101,9308,26160,0,64256,65728,6,6,4,1460,1403,1,992,89,58156,53812,65700,0,24616,0,0,0
i,0x00000000,1717626003.180402,172.16.1.2,14403,172.16.3.2,5101,9308,26160,0,64256,65728,6,6,4,1460,1403,1,992,89,58156,58156,65700,0,26064,0,0,0
o,0x00000000,1717626003.180413,172.16.1.2,14403,172.16.3.2,5101,9308,26160,0,65728,65728,6,6,4,1460,1412,1,992,85,58156,56708,65700,0,24616,0,0,0
i,0x00000000,1717626003.180668,172.16.1.2,14403,172.16.3.2,5101,9308,26160,0,65728,65728,6,6,4,1460,1412,1,992,85,58156,56708,65700,0,26064,0,0,0
o,0x00000000,1717626003.180672,172.16.1.2,14403,172.16.3.2,5101,9308,26160,0,64256,65728,6,6,4,1460,1404,1,992,81,58156,53812,65700,0,23168,0,0,0
o,0x00000000,1717626003.180768,172.16.1.2,14403,172.16.3.2,5101,9308,26160,0,64256,65728,6,6,4,1460,1404,1,992,81,58156,53812,65700,0,24616,0,0,0
i,0x00000000,1717626003.181279,172.16.1.2,14403,172.16.3.2,5101,9308,26160,0,64256,65728,6,6,4,1460,1404,1,992,81,58156,53812,65700,0,26064,0,0,0
o,0x00000000,1717626003.181283,172.16.1.2,14403,172.16.3.2,5101,9308,26160,0,64256,65728,6,6,4,1460,1401,1,992,78,58156,50916,65700,0,23168,0,0,0
o,0x00000000,1717626003.181394,172.16.1.2,14403,172.16.3.2,5101,9308,26160,0,64256,65728,6,6,4,1460,1401,1,992,78,58156,50916,65700,0,24616,0,0,0
i,0x00000000,1717626003.181758,172.16.1.2,14403,172.16.3.2,5101,9308,26160,0,64256,65728,6,6,4,1460,1401,1,992,78,66348,50916,65700,0,26064,0,0,0
o,0x00000000,1717626003.181761,172.16.1.2,14403,172.16.3.2,5101,9308,26160,0,64256,65728,6,6,4,1460,1398,1,992,75,66348,48020,65700,0,23168,0,0,0
o,0x00000000,1717626003.181854,172.16.1.2,14403,172.16.3.2,5101,9308,26160,0,64256,65728,6,6,4,1460,1398,1,992,75,66348,48020,65700,0,24616,0,0,0
i,0x00000000,1717626003.181949,172.16.1.2,14403,172.16.3.2,5101,9308,26160,0,64256,65728,6,6,4,1460,1398,1,992,75,66348,48020,65700,0,26064,0,0,0
o,0x00000000,1717626003.181952,172.16.1.2,14403,172.16.3.2,5101,9308,27620,0,64256,65728,6,6,4,1460,1396,1,992,72,66348,45124,65700,0,23168,0,0,0
o,0x00000000,1717626003.182042,172.16.1.2,14403,172.16.3.2,5101,9308,27620,0,64256,65728,6,6,4,1460,1396,1,992,72,66348,45124,65700,0,24616,0,0,0
o,0x00000000,1717626003.182132,172.16.1.2,14403,172.16.3.2,5101,9308,27620,0,64256,65728,6,6,4,1460,1396,1,992,72,66348,45124,65700,0,26064,0,0,0
i,0x00000000,1717626003.220773,172.16.1.2,14403,172.16.3.2,5101,9308,27620,0,64256,65728,6,6,4,1460,1396,1,992,72,66348,66348,65700,0,27512,0,0,0
o,0x00000000,1717626003.220787,172.16.1.2,14403,172.16.3.2,5101,9308,27620,0,64256,65728,6,6,4,1460,1406,1,992,73,66348,63452,65700,0,24616,0,0,0
o,0x00000000,1717626003.220894,172.16.1.2,14403,172.16.3.2,5101,9308,27620,0,64256,65728,6,6,4,1460,1406,1,992,73,66348,63452,65700,0,26064,0,0,0
i,0x00000000,1717626003.220989,172.16.1.2,14403,172.16.3.2,5101,9308,27620,0,64256,65728,6,6,4,1460,1406,1,992,73,66348,63452,65700,0,27512,0,0,0
o,0x00000000,1717626003.220993,172.16.1.2,14403,172.16.3.2,5101,9308,27620,0,64256,65728,6,6,4,1460,1403,1,992,71,66348,60556,65700,0,24616,0,0,0
o,0x00000000,1717626003.221214,172.16.1.2,14403,172.16.3.2,5101,9308,27620,0,64256,65728,6,6,4,1460,1403,1,992,71,66348,60556,65700,0,26064,0,0,0
i,0x00000000,1717626003.361434,172.16.1.2,14403,172.16.3.2,5101,9308,27620,0,64256,65728,6,6,4,1460,1403,1,992,71,66348,66348,65700,0,27512,0,0,0
o,0x00000000,1717626003.361464,172.16.1.2,14403,172.16.3.2,5101,9308,27620,0,64256,65728,6,6,4,1460,1400,1,992,70,66348,63452,65700,0,24616,0,0,0
o,0x00000000,1717626003.361774,172.16.1.2,14403,172.16.3.2,5101,9308,27620,0,64256,65728,6,6,4,1460,1400,1,992,70,66348,63452,65700,0,26064,0,0,0
i,0x00000000,1717626003.598918,172.16.1.2,14403,172.16.3.2,5101,9308,27620,0,64256,65728,6,6,4,1460,1400,1,992,70,66348,66348,65700,0,27512,0,0,0
o,0x00000000,1717626003.598941,172.16.1.2,14403,172.16.3.2,5101,9308,27620,0,65728,65728,6,6,4,1460,1433,1,992,78,66348,64900,65700,0,26064,0,0,0
i,0x00000000,1717626003.599280,172.16.1.2,14403,172.16.3.2,5101,9308,27620,0,65728,65728,6,6,4,1460,1433,1,992,78,66348,64900,65700,0,27512,0,0,0
o,0x00000000,1717626003.599284,172.16.1.2,14403,172.16.3.2,5101,9308,27620,0,64256,65728,6,6,4,1460,1438,1,992,76,66348,62004,65700,0,24616,0,0,0
o,0x00000000,1717626003.599562,172.16.1.2,14403,172.16.3.2,5101,9308,27620,0,64256,65728,6,6,4,1460,1438,1,992,76,66348,62004,65700,0,26064,0,0,0
i,0x00000000,1717626003.629309,172.16.1.2,14403,172.16.3.2,5101,9308,27620,0,64256,65728,6,6,4,1460,1438,1,992,76,66348,66348,65700,0,27512,0,0,0
o,0x00000000,1717626003.629328,172.16.1.2,14403,172.16.3.2,5101,9308,27620,0,64256,65728,6,6,4,1460,1439,1,992,73,66348,63452,65700,0,24616,0,0,0
o,0x00000000,1717626003.629455,172.16.1.2,14403,172.16.3.2,5101,9308,27620,0,64256,65728,6,6,4,1460,1439,1,992,73,66348,63452,65700,0,26064,0,0,0
i,0x00000000,1717626003.629565,172.16.1.2,14403,172.16.3.2,5101,9308,27620,0,64256,65728,6,6,4,1460,1439,1,992,73,66348,63452,65700,0,27512,0,0,0
o,0x00000000,1717626003.629568,172.16.1.2,14403,172.16.3.2,5101,9308,27620,0,64256,65728,6,6,4,1460,1440,1,992,72,66348,60556,65700,0,24616,0,0,0
o,0x00000000,1717626003.629652,172.16.1.2,14403,172.16.3.2,5101,9308,27620,0,64256,65728,6,6,4,1460,1440,1,992,72,66348,60556,65700,0,26064,0,0,0
i,0x00000000,1717626003.629749,172.16.1.2,14403,172.16.3.2,5101,9308,27620,0,64256,65728,6,6,4,1460,1440,1,992,72,66348,60556,65700,0,27512,0,0,0
o,0x00000000,1717626003.629752,172.16.1.2,14403,172.16.3.2,5101,9308,27620,0,64256,65728,6,6,4,1460,1436,1,992,71,66348,57660,65700,0,24616,0,0,0
o,0x00000000,1717626003.629844,172.16.1.2,14403,172.16.3.2,5101,9308,27620,0,64256,65728,6,6,4,1460,1436,1,992,71,66348,57660,65700,0,26064,0,0,0
i,0x00000000,1717626003.630210,172.16.1.2,14403,172.16.3.2,5101,9308,27620,0,64256,65728,6,6,4,1460,1436,1,992,71,66348,57660,65700,0,27512,0,0,0
o,0x00000000,1717626003.630213,172.16.1.2,14403,172.16.3.2,5101,9308,27620,0,64256,65728,6,6,4,1460,1433,1,992,70,66348,54764,65700,0,24616,0,0,0
o,0x00000000,1717626003.630312,172.16.1.2,14403,172.16.3.2,5101,9308,27620,0,64256,65728,6,6,4,1460,1433,1,992,70,66348,54764,65700,0,26064,0,0,0
i,0x00000000,1717626003.630417,172.16.1.2,14403,172.16.3.2,5101,9308,27620,0,64256,65728,6,6,4,1460,1433,1,992,70,66348,54764,65700,0,27512,0,0,0
o,0x00000000,1717626003.630420,172.16.1.2,14403,172.16.3.2,5101,9308,29080,0,64256,65728,6,6,4,1460,1430,1,992,69,66348,51868,65700,0,24616,0,0,0
o,0x00000000,1717626003.630504,172.16.1.2,14403,172.16.3.2,5101,9308,29080,0,64256,65728,6,6,4,1460,1430,1,992,69,66348,51868,65700,0,26064,0,0,0
o,0x00000000,1717626003.630591,172.16.1.2,14403,172.16.3.2,5101,9308,29080,0,64256,65728,6,6,4,1460,1430,1,992,69,66348,51868,65700,0,27512,0,0,0
i,0x00000000,1717626003.669554,172.16.1.2,14403,172.16.3.2,5101,9308,29080,0,64256,65728,6,6,4,1460,1430,1,992,69,66348,66348,65700,0,28960,0,0,0
o,0x00000000,1717626003.669566,172.16.1.2,14403,172.16.3.2,5101,9308,29080,0,64256,65728,6,6,4,1460,1432,1,992,69,66348,63452,65700,0,26064,0,0,0
o,0x00000000,1717626003.669700,172.16.1.2,14403,172.16.3.2,5101,9308,29080,0,64256,65728,6,6,4,1460,1432,1,992,69,66348,63452,65700,0,27512,0,0,0
i,0x00000000,1717626003.669798,172.16.1.2,14403,172.16.3.2,5101,9308,29080,0,64256,65728,6,6,4,1460,1432,1,992,69,66348,63452,65700,0,28960,0,0,0
o,0x00000000,1717626003.669802,172.16.1.2,14403,172.16.3.2,5101,9308,29080,0,64256,65728,6,6,4,1460,1433,1,992,68,66348,60556,65700,0,26064,0,0,0
o,0x00000000,1717626003.669897,172.16.1.2,14403,172.16.3.2,5101,9308,29080,0,64256,65728,6,6,4,1460,1433,1,992,68,66348,60556,65700,0,27512,0,0,0
i,0x00000000,1717626003.839532,172.16.1.2,14403,172.16.3.2,5101,9308,29080,0,64256,65728,6,6,4,1460,1433,1,992,68,66348,66348,65700,0,28960,0,0,0
o,0x00000000,1717626003.839553,172.16.1.2,14403,172.16.3.2,5101,9308,29080,0,64256,65728,6,6,4,1460,1442,1,992,70,66348,63452,65700,0,26064,0,0,0
o,0x00000000,1717626003.839865,172.16.1.2,14403,172.16.3.2,5101,9308,29080,0,64256,65728,6,6,4,1460,1442,1,992,70,66348,63452,65700,0,27512,0,0,0
i,0x00000000,1717626004.089549,172.16.1.2,14403,172.16.3.2,5101,9308,29080,0,64256,65728,6,6,4,1460,1442,1,992,70,66348,66348,65700,0,28960,0,0,0
o,0x00000000,1717626004.089592,172.16.1.2,14403,172.16.3.2,5101,9308,29080,0,64256,65728,6,6,4,1460,1458,1,992,73,66348,63452,65700,0,26064,0,0,0
o,0x00000000,1717626004.089988,172.16.1.2,14403,172.16.3.2,5101,9308,29080,0,64256,65728,6,6,4,1460,1458,1,992,73,66348,63452,65700,0,27512,0,0,0
i,0x00000000,1717626004.119297,172.16.1.2,14403,172.16.3.2,5101,9308,29080,0,64256,65728,6,6,4,1460,1458,1,992,73,66348,66348,65700,0,28960,0,0,0
o,0x00000000,1717626004.119313,172.16.1.2,14403,172.16.3.2,5101,9308,29080,0,65728,65728,6,6,4,1460,1484,1,992,78,66348,64900,65700,0,27512,0,0,0
i,0x00000000,1717626004.119422,172.16.1.2,14403,172.16.3.2,5101,9308,29080,0,65728,65728,6,6,4,1460,1484,1,992,78,66348,64900,65700,0,28960,0,0,0
o,0x00000000,1717626004.119426,172.16.1.2,14403,172.16.3.2,5101,9308,29080,0,64256,65728,6,6,4,1460,1491,1,992,77,66348,62004,65700,0,26064,0,0,0
o,0x00000000,1717626004.119517,172.16.1.2,14403,172.16.3.2,5101,9308,29080,0,64256,65728,6,6,4,1460,1491,1,992,77,66348,62004,65700,0,27512,0,0,0
i,0x00000000,1717626004.119611,172.16.1.2,14403,172.16.3.2,5101,9308,29080,0,64256,65728,6,6,4,1460,1491,1,992,77,66348,62004,65700,0,28960,0,0,0
o,0x00000000,1717626004.119615,172.16.1.2,14403,172.16.3.2,5101,9308,29080,0,64256,65728,6,6,4,1460,1497,1,992,76,66348,59108,65700,0,26064,0,0,0
o,0x00000000,1717626004.119715,172.16.1.2,14403,172.16.3.2,5101,9308,29080,0,64256,65728,6,6,4,1460,1497,1,992,76,66348,59108,65700,0,27512,0,0,0
i,0x00000000,1717626004.120076,172.16.1.2,14403,172.16.3.2,5101,9308,29080,0,64256,65728,6,6,4,1460,1497,1,992,76,66348,59108,65700,0,28960,0,0,0
o,0x00000000,1717626004.120080,172.16.1.2,14403,172.16.3.2,5101,9308,29080,0,64256,65728,6,6,4,1460,1502,1,992,75,66348,56212,65700,0,26064,0,0,0
o,0x00000000,1717626004.120170,172.16.1.2,14403,172.16.3.2,5101,9308,29080,0,64256,65728,6,6,4,1460,1502,1,992,75,66348,56212,65700,0,27512,0,0,0
i,0x00000000,1717626004.120261,172.16.1.2,14403,172.16.3.2,5101,9308,29080,0,64256,65728,6,6,4,1460,1502,1,992,75,66348,56212,65700,0,28960,0,0,0
o,0x00000000,1717626004.120264,172.16.1.2,14403,172.16.3.2,5101,9308,29080,0,64256,65728,6,6,4,1460,1507,1,992,75,66348,53316,65700,0,26064,0,0,0
o,0x00000000,1717626004.120353,172.16.1.2,14403,172.16.3.2,5101,9308,29080,0,64256,65728,6,6,4,1460,1507,1,992,75,66348,53316,65700,0,27512,0,0,0
i,0x00000000,1717626004.120438,172.16.1.2,14403,172.16.3.2,5101,9308,29080,0,64256,65728,6,6,4,1460,1507,1,992,75,66348,53316,65700,0,28960,0,0,0
o,0x00000000,1717626004.120441,172.16.1.2,14403,172.16.3.2,5101,9308,30540,0,64256,65728,6,6,4,1460,1511,1,992,74,66348,50420,65700,0,26064,0,0,0
o,0x00000000,1717626004.120538,172.16.1.2,14403,172.16.3.2,5101,9308,30540,0,64256,65728,6,6,4,1460,1511,1,992,74,66348,50420,65700,0,27512,0,0,0
o,0x00000000,1717626004.120623,172.16.1.2,14403,172.16.3.2,5101,9308,30540,0,64256,65728,6,6,4,1460,1511,1,992,74,66348,50420,65700,0,28960,0,0,0
i,0x00000000,1717626004.139695,172.16.1.2,14403,172.16.3.2,5101,9308,30540,0,64256,65728,6,6,4,1460,1511,1,992,74,66348,66348,65700,0,30408,0,0,0
o,0x00000000,1717626004.139702,172.16.1.2,14403,172.16.3.2,5101,9308,30540,0,64256,65728,6,6,4,1460,1527,1,992,76,66348,63452,65700,0,27512,0,0,0
o,0x00000000,1717626004.139977,172.16.1.2,14403,172.16.3.2,5101,9308,30540,0,64256,65728,6,6,4,1460,1527,1,992,76,66348,63452,65700,0,28960,0,0,0
i,0x00000000,1717626004.149113,172.16.1.2,14403,172.16.3.2,5101,9308,30540,0,64256,65728,6,6,4,1460,1527,1,992,76,66348,66348,65700,0,30408,0,0,0
o,0x00000000,1717626004.149118,172.16.1.2,14403,172.16.3.2,5101,9308,30540,0,64256,65728,6,6,4,1460,1529,1,992,75,66348,63452,65700,0,27512,0,0,0
o,0x00000000,1717626004.149408,172.16.1.2,14403,172.16.3.2,5101,9308,30540,0,64256,65728,6,6,4,1460,1529,1,992,75,66348,63452,65700,0,28960,0,0,0
i,0x00000000,1717626004.308858,172.16.1.2,14403,172.16.3.2,5101,9308,30540,0,64256,65728,6,6,4,1460,1529,1,992,75,66348,66348,65700,0,30408,0,0,0
o,0x00000000,1717626004.308879,172.16.1.2,14403,172.16.3.2,5101,9308,30540,0,64256,65728,6,6,4,1460,1590,1,992,90,66348,63452,65700,0,27512,0,0,0
o,0x00000000,1717626004.309177,172.16.1.2,14403,172.16.3.2,5101,9308,30540,0,64256,65728,6,6,4,1460,1590,1,992,90,66348,63452,65700,0,28960,0,0,0
i,0x00000000,1717626004.578747,172.16.1.2,14403,172.16.3.2,5101,9308,30540,0,64256,65728,6,6,4,1460,1590,1,992,90,66348,66348,65700,0,30408,0,0,0
o,0x00000000,1717626004.578768,172.16.1.2,14403,172.16.3.2,5101,9308,30540,0,65728,65728,6,6,4,1460,1688,1,992,113,66348,64900,65700,0,28960,0,0,0
i,0x00000000,1717626004.579091,172.16.1.2,14403,172.16.3.2,5101,9308,30540,0,65728,65728,6,6,4,1460,1688,1,992,113,66348,64900,65700,0,30408,0,0,0
o,0x00000000,1717626004.579097,172.16.1.2,14403,172.16.3.2,5101,9308,30540,0,98560,65728,6,6,4,1460,1673,1,992,106,66348,63452,65700,0,28960,0,0,0
i,0x00000000,1717626004.608907,172.16.1.2,14403,172.16.3.2,5101,9308,30540,0,98560,65728,6,6,4,1460,1673,1,992,106,66348,66348,65700,0,30408,0,0,0
o,0x00000000,1717626004.608923,172.16.1.2,14403,172.16.3.2,5101,9308,30540,0,98560,65728,6,6,4,1460,1672,1,992,98,66348,64900,65700,0,28960,0,0,0
i,0x00000000,1717626004.609015,172.16.1.2,14403,172.16.3.2,5101,9308,30540,0,98560,65728,6,6,4,1460,1672,1,992,98,66348,64900,65700,0,30408,0,0,0
o,0x00000000,1717626004.609019,172.16.1.2,14403,172.16.3.2,5101,9308,30540,0,97152,65728,6,6,4,1460,1659,1,992,94,66348,62004,65700,0,27512,0,0,0
o,0x00000000,1717626004.609107,172.16.1.2,14403,172.16.3.2,5101,9308,30540,0,97152,65728,6,6,4,1460,1659,1,992,94,66348,62004,65700,0,28960,0,0,0
i,0x00000000,1717626004.609186,172.16.1.2,14403,172.16.3.2,5101,9308,30540,0,97152,65728,6,6,4,1460,1659,1,992,94,66348,62004,65700,0,30408,0,0,0
o,0x00000000,1717626004.609189,172.16.1.2,14403,172.16.3.2,5101,9308,30540,0,97152,65728,6,6,4,1460,1648,1,992,91,66348,59108,65700,0,27512,0,0,0
o,0x00000000,1717626004.609270,172.16.1.2,14403,172.16.3.2,5101,9308,30540,0,97152,65728,6,6,4,1460,1648,1,992,91,74540,59108,65700,0,28960,0,0,0
i,0x00000000,1717626004.609604,172.16.1.2,14403,172.16.3.2,5101,9308,30540,0,97152,65728,6,6,4,1460,1648,1,992,91,74540,59108,65700,0,30408,0,0,0
o,0x00000000,1717626004.609608,172.16.1.2,14403,172.16.3.2,5101,9308,30540,0,97152,65728,6,6,4,1460,1638,1,992,88,74540,56212,65700,0,27512,0,0,0
o,0x00000000,1717626004.609690,172.16.1.2,14403,172.16.3.2,5101,9308,30540,0,97152,65728,6,6,4,1460,1638,1,992,88,74540,56212,65700,0,28960,0,0,0
i,0x00000000,1717626004.609766,172.16.1.2,14403,172.16.3.2,5101,9308,30540,0,97152,65728,6,6,4,1460,1638,1,992,88,74540,56212,65700,0,30408,0,0,0
o,0x00000000,1717626004.609770,172.16.1.2,14403,172.16.3.2,5101,9308,30540,0,97152,65728,6,6,4,1460,1630,1,992,86,74540,53316,65700,0,27512,0,0,0
o,0x00000000,1717626004.609856,172.16.1.2,14403,172.16.3.2,5101,9308,30540,0,97152,65728,6,6,4,1460,1630,1,992,86,74540,53316,65700,0,28960,0,0,0
i,0x00000000,1717626004.609937,172.16.1.2,14403,172.16.3.2,5101,9308,30540,0,97152,65728,6,6,4,1460,1630,1,992,86,74540,53316,65700,0,30408,0,0,0
o,0x00000000,1717626004.609940,172.16.1.2,14403,172.16.3.2,5101,9308,30540,0,97152,65728,6,6,4,1460,1623,1,992,83,74540,50420,65700,0,27512,0,0,0
o,0x00000000,1717626004.610141,172.16.1.2,14403,172.16.3.2,5101,9308,30540,0,97152,65728,6,6,4,1460,1623,1,992,83,74540,50420,65700,0,28960,0,0,0
i,0x00000000,1717626004.610219,172.16.1.2,14403,172.16.3.2,5101,9308,30540,0,97152,65728,6,6,4,1460,1623,1,992,83,74540,50420,65700,0,30408,0,0,0
