enable_time_secs=1727696182	enable_time_usecs=255450	siftrver=1.3.0	sysname=FreeBSD	sysver=1401000	ipmode=4
o,1727696182.256044,10.0.2.15,22,10.0.2.2,49954,1073725440,17746,1026,65535,65700,0,0,4,1460,312,0,16777220,240000,33580,172,65700,0,0,0,4161096834,63
o,1727696182.256378,10.0.2.15,22,10.0.2.2,49954,1073725440,17746,1026,65535,65700,0,0,4,1460,312,0,16777220,240000,33580,244,65700,0,172,0,4161096834,63
i,1727696182.256771,10.0.2.15,22,10.0.2.2,49954,1073725440,17746,1026,65535,65700,0,0,4,1460,312,0,16777220,240000,33580,244,65700,0,244,0,4161096834,63
i,1727696182.256802,10.0.2.15,22,10.0.2.2,49954,1073725440,17918,1026,65535,65700,0,0,4,1460,312,0,4,240000,33580,72,65700,0,72,0,4161096834,63
i,1727696182.257604,10.0.2.15,22,10.0.2.2,49954,1073725440,17990,1026,65535,65700,0,0,4,1460,312,0,4,240000,33580,0,65700,0,0,0,4161096834,63
i,1727696182.257639,10.0.2.15,22,10.0.2.2,49954,1073725440,17990,1026,65535,65700,0,0,4,1460,312,0,4,240000,33580,0,65700,96,0,0,4161096834,63
o,1727696182.257666,10.0.2.15,22,10.0.2.2,49954,1073725440,17990,1026,65535,65604,0,0,5,1460,312,0,5,240000,33580,0,65700,96,0,0,4161096834,63
o,1727696182.259478,10.0.2.15,22,10.0.2.2,49954,1073725440,17990,1026,65535,65604,0,0,8,1460,312,0,4,240000,33580,0,65700,0,0,0,4161096834,63
i,1727696182.260862,10.0.2.15,22,10.0.2.2,49954,1073725440,17990,1026,65535,65604,0,0,8,1460,312,0,67108884,240000,33580,0,65700,0,1,0,4161096834,63
o,1727696183.017884,10.0.2.15,22,10.0.2.2,57953,1073725440,14600,1026,65535,65700,0,0,4,1460,312,0,16777220,230000,33580,340,65700,0,0,0,2045767904,63
i,1727696183.019105,10.0.2.15,22,10.0.2.2,57953,1073725440,14600,1026,65535,65700,0,0,4,1460,312,0,16777220,230000,33580,340,65700,0,340,0,2045767904,63
o,1727696185.033142,10.0.2.15,22,10.0.2.2,57953,1073725440,14600,1026,65535,65700,0,0,4,1460,312,0,16777220,230000,33580,676,65700,0,0,0,2045767904,63
o,1727696185.261946,10.0.2.15,22,10.0.2.2,57953,10208,1460,1026,65535,65700,0,0,4,1460,312,0,16785413,260000,33580,676,65700,0,676,0,2045767904,63
o,1727696185.523408,10.0.2.15,22,10.0.2.2,57953,1020,1460,1026,65535,65700,0,0,4,1460,312,0,16777221,320000,33580,676,65700,0,676,0,2045767904,63
o,1727696185.843106,10.0.2.15,22,10.0.2.2,57953,1020,1460,1026,65535,65700,0,0,4,1460,312,0,16777221,440000,33580,676,65700,0,676,0,2045767904,63
o,1727696186.281598,10.0.2.15,22,10.0.2.2,57953,1020,1460,1026,65535,65700,0,0,4,1460,312,0,16777221,680000,33580,676,65700,0,676,0,2045767904,63
o,1727696186.960640,10.0.2.15,22,10.0.2.2,57953,1020,1460,1026,65535,65700,0,0,4,1460,312,0,16777221,1160000,33580,676,65700,0,676,0,2045767904,63
o,1727696187.048787,10.0.2.15,22,10.0.2.2,57953,1020,1460,1026,65535,65700,0,0,4,1460,312,0,16777221,1160000,33580,1376,65700,0,676,0,2045767904,63
o,1727696188.147878,10.0.2.15,22,10.0.2.2,57953,1020,1460,1026,65535,65700,0,0,4,1460,312,0,16777221,2120000,33580,1376,65700,0,1376,0,2045767904,63
o,1727696189.063262,10.0.2.15,22,10.0.2.2,57953,1020,1460,1030,65535,65700,0,0,4,1460,312,0,16777221,2120000,33580,2316,65700,0,1376,0,2045767904,63
o,1727696190.261606,10.0.2.15,22,10.0.2.2,57953,1020,1460,1030,65535,65700,0,0,4,1460,312,0,16777221,4040000,33580,2316,65700,0,1460,0,2045767904,63
i,1727696190.263188,10.0.2.15,22,10.0.2.2,57953,1020,1460,1030,65535,65700,0,0,4,1460,312,0,16777220,4040000,33580,2316,65700,0,1460,0,2045767904,63
o,1727696190.263229,10.0.2.15,22,10.0.2.2,57953,1020,1460,1026,65535,65700,0,0,4,1460,312,0,16777220,4040000,33580,856,65700,0,0,0,2045767904,63
i,1727696190.263763,10.0.2.15,22,10.0.2.2,57953,1020,1460,1026,65535,65700,0,0,4,1460,312,0,16777220,4040000,33580,856,65700,0,856,0,2045767904,63
o,1727696191.073252,10.0.2.15,22,10.0.2.2,57953,1095,1460,1026,65535,65700,0,0,4,1460,0,0,16777220,230000,33580,948,65700,0,0,0,2045767904,63
i,1727696191.073850,10.0.2.15,22,10.0.2.2,57953,1095,1460,1026,65535,65700,0,0,4,1460,0,0,16777220,230000,33580,948,65700,0,948,0,2045767904,63
o,1727696193.143444,10.0.2.15,22,10.0.2.2,57953,1095,1460,1026,65535,65700,0,0,4,1460,0,0,16777220,230000,33580,876,65700,0,0,0,2045767904,63
i,1727696193.144515,10.0.2.15,22,10.0.2.2,57953,1095,1460,1026,65535,65700,0,0,4,1460,0,0,16777220,230000,33580,876,65700,0,876,0,2045767904,63
o,1727696195.163517,10.0.2.15,22,10.0.2.2,57953,1095,1460,1026,65535,65700,0,0,4,1460,0,0,16777220,230000,33580,876,65700,0,0,0,2045767904,63
o,1727696195.395246,10.0.2.15,22,10.0.2.2,57953,1020,1460,1026,65535,65700,0,0,4,1460,0,0,16785413,260000,33580,876,65700,0,876,0,2045767904,63
o,1727696195.651584,10.0.2.15,22,10.0.2.2,57953,1020,1460,1026,65535,65700,0,0,4,1460,0,0,16777221,320000,33580,876,65700,0,876,0,2045767904,63
o,1727696195.990617,10.0.2.15,22,10.0.2.2,57953,1020,1460,1026,65535,65700,0,0,4,1460,0,0,16777221,440000,33580,876,65700,0,876,0,2045767904,63
o,1727696196.448263,10.0.2.15,22,10.0.2.2,57953,1020,1460,1026,65535,65700,0,0,4,1460,0,0,16777221,680000,33580,876,65700,0,876,0,2045767904,63
o,1727696197.147817,10.0.2.15,22,10.0.2.2,57953,1020,1460,1026,65535,65700,0,0,4,1460,0,0,16777221,1160000,33580,876,65700,0,876,0,2045767904,63
o,1727696197.245989,10.0.2.15,22,10.0.2.2,57953,1020,1460,1030,65535,65700,0,0,4,1460,0,0,16777221,1160000,33580,1728,65700,0,876,0,2045767904,63
o,1727696198.342589,10.0.2.15,22,10.0.2.2,57953,1020,1460,1030,65535,65700,0,0,4,1460,0,0,16777221,2120000,33580,1728,65700,0,1460,0,2045767904,63
o,1727696199.262144,10.0.2.15,22,10.0.2.2,57953,1020,1460,1030,65535,65700,0,0,4,1460,0,0,16777221,2120000,33580,2604,65700,0,1460,0,2045767904,63
i,1727696199.263193,10.0.2.15,22,10.0.2.2,57953,1020,1460,1030,65535,65700,0,0,4,1460,0,0,16777220,2120000,33580,2604,65700,0,1460,0,2045767904,63
o,1727696199.263245,10.0.2.15,22,10.0.2.2,57953,1020,10189393,1026,65535,65700,0,0,4,1460,0,0,16777220,2120000,33580,1144,65700,0,0,0,2045767904,63
i,1727696199.263444,10.0.2.15,22,10.0.2.2,57953,1020,10189393,1026,65535,65700,0,0,4,1460,0,0,16777220,2120000,33580,1144,65700,0,1144,0,2045767904,63
o,1727696201.341899,10.0.2.15,22,10.0.2.2,57953,7642045,14600,1026,65535,65700,0,0,4,1460,0,0,16777220,230000,33580,860,65700,0,0,0,2045767904,63
i,1727696201.342471,10.0.2.15,22,10.0.2.2,57953,7642045,14600,1026,65535,65700,0,0,4,1460,0,0,16777220,230000,33580,860,65700,0,860,0,2045767904,63
i,1727696201.843751,10.0.2.15,22,10.0.2.2,49908,1073725440,14600,0,65535,65700,0,0,4,1460,312,0,16777216,260000,33580,0,65700,0,0,0,870447026,63
o,1727696201.854421,10.0.2.15,22,10.0.2.2,49908,1073725440,14600,1026,65535,65700,0,0,4,1460,312,0,16777216,260000,33580,38,65700,42,0,0,870447026,63
i,1727696201.855304,10.0.2.15,22,10.0.2.2,49908,1073725440,14600,1026,65535,65700,0,0,4,1460,312,0,16777216,260000,33580,38,65700,0,38,0,870447026,63
i,1727696201.855812,10.0.2.15,22,10.0.2.2,49908,1073725440,14638,1026,65535,65700,0,0,4,1460,312,0,0,230000,33580,0,65700,0,0,0,870447026,63
i,1727696201.855834,10.0.2.15,22,10.0.2.2,49908,1073725440,14638,1026,65535,65700,0,0,4,1460,312,0,0,230000,33580,0,65700,1460,0,0,870447026,63
o,1727696201.855855,10.0.2.15,22,10.0.2.2,49908,1073725440,14638,1026,65535,65700,0,0,4,1460,312,0,1,230000,33580,0,65700,1536,0,0,870447026,63
o,1727696201.856224,10.0.2.15,22,10.0.2.2,49908,1073725440,14638,1026,65535,65700,0,0,4,1460,312,0,16777216,230000,33580,1120,65700,1536,0,0,870447026,63
i,1727696201.857511,10.0.2.15,22,10.0.2.2,49908,1073725440,14638,1026,65535,65700,0,0,4,1460,312,0,16777216,230000,33580,1120,65700,0,1120,0,870447026,63
i,1727696201.858184,10.0.2.15,22,10.0.2.2,49908,1073725440,15758,1026,65535,65700,0,0,4,1460,312,0,0,230000,33580,0,65700,0,0,0,870447026,63
o,1727696201.863443,10.0.2.15,22,10.0.2.2,49908,1073725440,15758,1026,65535,65700,0,0,4,1460,312,0,16777216,230000,33580,492,65700,0,0,0,870447026,63
i,1727696201.864411,10.0.2.15,22,10.0.2.2,49908,1073725440,15758,1026,65535,65700,0,0,4,1460,312,0,16777216,230000,33580,492,65700,0,492,0,870447026,63
i,1727696201.868967,10.0.2.15,22,10.0.2.2,49908,1073725440,16250,1026,65535,65700,0,0,4,1460,312,0,0,240000,33580,0,65700,0,0,0,870447026,63
i,1727696201.868991,10.0.2.15,22,10.0.2.2,49908,1073725440,16250,1026,65535,65700,0,0,4,1460,312,0,0,240000,33580,0,65700,16,0,0,870447026,63
o,1727696201.869012,10.0.2.15,22,10.0.2.2,49908,1073725440,16250,1026,65535,65700,0,0,4,1460,312,0,1,240000,33580,0,65700,60,0,0,870447026,63
o,1727696201.869301,10.0.2.15,22,10.0.2.2,49908,1073725440,16250,1026,65535,65700,0,0,4,1460,312,0,16777216,240000,33580,44,65700,0,0,0,870447026,63
i,1727696201.869858,10.0.2.15,22,10.0.2.2,49908,1073725440,16250,1026,65535,65700,0,0,4,1460,312,0,16777216,240000,33580,44,65700,0,44,0,870447026,63
i,1727696201.869914,10.0.2.15,22,10.0.2.2,49908,1073725440,16294,1026,65535,65700,0,0,4,1460,312,0,0,240000,33580,0,65700,0,0,0,870447026,63
o,1727696201.871299,10.0.2.15,22,10.0.2.2,49908,1073725440,16294,1026,65535,65700,0,0,4,1460,312,0,16777216,240000,33580,68,65700,0,0,0,870447026,63
i,1727696201.871773,10.0.2.15,22,10.0.2.2,49908,1073725440,16294,1026,65535,65700,0,0,4,1460,312,0,16777216,240000,33580,68,65700,0,68,0,870447026,63
i,1727696201.871794,10.0.2.15,22,10.0.2.2,49908,1073725440,16362,1026,65535,65700,0,0,4,1460,312,0,0,240000,33580,0,65700,0,0,0,870447026,63
o,1727696201.873285,10.0.2.15,22,10.0.2.2,49908,1073725440,16362,1026,65535,65700,0,0,4,1460,312,0,16777216,240000,33580,332,65700,0,0,0,870447026,63
i,1727696201.874160,10.0.2.15,22,10.0.2.2,49908,1073725440,16362,1026,65535,65700,0,0,4,1460,312,0,16777216,240000,33580,332,65700,0,332,0,870447026,63
i,1727696201.875588,10.0.2.15,22,10.0.2.2,49908,1073725440,16694,1026,65535,65700,0,0,4,1460,312,0,0,240000,33580,0,65700,0,0,0,870447026,63
o,1727696201.896396,10.0.2.15,22,10.0.2.2,49908,1073725440,16694,1026,65535,65700,0,0,4,1460,312,0,16777216,240000,33580,28,65700,0,0,0,870447026,63
i,1727696201.897885,10.0.2.15,22,10.0.2.2,49908,1073725440,16694,1026,65535,65700,0,0,4,1460,312,0,16777216,240000,33580,28,65700,0,28,0,870447026,63
i,1727696201.898668,10.0.2.15,22,10.0.2.2,49908,1073725440,16722,1026,65535,65700,0,0,4,1460,312,0,0,240000,33580,0,65700,0,0,0,870447026,63
o,1727696201.900718,10.0.2.15,22,10.0.2.2,49908,1073725440,16722,1026,65535,65700,0,0,4,1460,312,0,16777216,240000,33580,768,65700,112,0,0,870447026,63
i,1727696201.901125,10.0.2.15,22,10.0.2.2,49908,1073725440,16722,1026,65535,65700,0,0,4,1460,312,0,16777216,240000,33580,908,65700,112,768,0,870447026,63
o,1727696201.901147,10.0.2.15,22,10.0.2.2,49908,1073725440,17490,1026,65535,65700,0,0,4,1460,312,0,16777216,240000,33580,140,65700,112,0,0,870447026,63
i,1727696201.901611,10.0.2.15,22,10.0.2.2,49908,1073725440,17490,1026,65535,65700,0,0,4,1460,312,0,16777216,240000,33580,140,65700,0,140,0,870447026,63
o,1727696201.901753,10.0.2.15,22,10.0.2.2,49908,1073725440,17630,1026,65535,65700,0,0,4,1460,312,0,16777216,240000,33580,44,65700,0,0,0,870447026,63
i,1727696201.902322,10.0.2.15,22,10.0.2.2,49908,1073725440,17630,1026,65535,65700,0,0,4,1460,312,0,16777216,240000,33580,44,65700,0,44,0,870447026,63
i,1727696201.902349,10.0.2.15,22,10.0.2.2,49908,1073725440,17674,1026,65535,65700,0,0,4,1460,312,0,0,240000,33580,0,65700,0,0,0,870447026,63
o,1727696201.903047,10.0.2.15,22,10.0.2.2,49908,1073725440,17674,1026,65535,65700,0,0,4,1460,312,0,16777220,240000,33580,72,65700,0,0,0,870447026,63
i,1727696201.903554,10.0.2.15,22,10.0.2.2,49908,1073725440,17674,1026,65535,65700,0,0,4,1460,312,0,16777220,240000,33580,72,65700,0,72,0,870447026,63
o,1727696201.905966,10.0.2.15,22,10.0.2.2,49908,1073725440,17746,1026,65535,65700,0,0,4,1460,312,0,16777220,240000,33580,104,65700,0,0,0,870447026,63
i,1727696201.906496,10.0.2.15,22,10.0.2.2,49908,1073725440,17746,1026,65535,65700,0,0,4,1460,312,0,16777220,240000,33580,104,65700,0,104,0,870447026,63
o,1727696201.921147,10.0.2.15,22,10.0.2.2,49908,1073725440,17850,1026,65535,65700,0,0,4,1460,312,0,16777220,240000,33580,72,65700,0,0,0,870447026,63
i,1727696201.922345,10.0.2.15,22,10.0.2.2,49908,1073725440,17850,1026,65535,65700,0,0,4,1460,312,0,16777220,240000,33580,72,65700,0,72,0,870447026,63
i,1727696201.922367,10.0.2.15,22,10.0.2.2,49908,1073725440,17922,1026,65535,65700,0,0,4,1460,312,0,4,240000,33580,0,65700,0,0,0,870447026,63
i,1727696201.922384,10.0.2.15,22,10.0.2.2,49908,1073725440,17922,1026,65535,65700,0,0,4,1460,312,0,4,240000,33580,0,65700,96,0,0,870447026,63
o,1727696201.922402,10.0.2.15,22,10.0.2.2,49908,1073725440,17922,1026,65535,65604,0,0,5,1460,312,0,5,240000,33580,0,65700,96,0,0,870447026,63
o,1727696201.933293,10.0.2.15,22,10.0.2.2,49908,1073725440,17922,1026,65535,65604,0,0,8,1460,312,0,4,240000,33580,0,65700,0,0,0,870447026,63
i,1727696201.933757,10.0.2.15,22,10.0.2.2,49908,1073725440,17922,1026,65535,65604,0,0,8,1460,312,0,67108884,240000,33580,0,65700,0,1,0,870447026,63
i,1727696203.014792,10.0.2.15,22,10.0.2.2,49911,1073725440,14600,0,65535,65700,0,0,4,1460,312,0,16777216,270000,33580,0,65700,0,0,0,3268989830,63
o,1727696203.028136,10.0.2.15,22,10.0.2.2,49911,1073725440,14600,1026,65535,65700,0,0,4,1460,312,0,16777216,270000,33580,38,65700,42,0,0,3268989830,63
i,1727696203.028975,10.0.2.15,22,10.0.2.2,49911,1073725440,14600,1026,65535,65700,0,0,4,1460,312,0,16777216,270000,33580,38,65700,0,38,0,3268989830,63
i,1727696203.029571,10.0.2.15,22,10.0.2.2,49911,1073725440,14638,1026,65535,65700,0,0,4,1460,312,0,0,230000,33580,0,65700,0,0,0,3268989830,63
i,1727696203.029606,10.0.2.15,22,10.0.2.2,49911,1073725440,14638,1026,65535,65700,0,0,4,1460,312,0,0,230000,33580,0,65700,1460,0,0,3268989830,63
o,1727696203.029643,10.0.2.15,22,10.0.2.2,49911,1073725440,14638,1026,65535,65700,0,0,4,1460,312,0,1,230000,33580,0,65700,1536,0,0,3268989830,63
o,1727696203.031172,10.0.2.15,22,10.0.2.2,49911,1073725440,14638,1026,65535,65700,0,0,4,1460,312,0,16777216,230000,33580,1120,65700,1536,0,0,3268989830,63
i,1727696203.032506,10.0.2.15,22,10.0.2.2,49911,1073725440,14638,1026,65535,65700,0,0,4,1460,312,0,16777216,230000,33580,1120,65700,1536,1120,0,3268989830,63
i,1727696203.033515,10.0.2.15,22,10.0.2.2,49911,1073725440,15758,1026,65535,65700,0,0,4,1460,312,0,0,240000,33580,0,65700,0,0,0,3268989830,63
o,1727696203.038433,10.0.2.15,22,10.0.2.2,49911,1073725440,15758,1026,65535,65700,0,0,4,1460,312,0,16777216,240000,33580,492,65700,0,0,0,3268989830,63
i,1727696203.039436,10.0.2.15,22,10.0.2.2,49911,1073725440,15758,1026,65535,65700,0,0,4,1460,312,0,16777216,240000,33580,492,65700,0,492,0,3268989830,63
i,1727696203.046451,10.0.2.15,22,10.0.2.2,49911,1073725440,16250,1026,65535,65700,0,0,4,1460,312,0,0,240000,33580,0,65700,0,0,0,3268989830,63
i,1727696203.048905,10.0.2.15,22,10.0.2.2,49911,1073725440,16250,1026,65535,65700,0,0,4,1460,312,0,0,240000,33580,0,65700,0,0,0,3268989830,63
o,1727696203.048905,10.0.2.15,22,10.0.2.2,49911,1073725440,16250,1026,65535,65700,0,0,4,1460,312,0,1,240000,33580,0,65700,44,0,0,3268989830,63
o,1727696203.049210,10.0.2.15,22,10.0.2.2,49911,1073725440,16250,1026,65535,65700,0,0,4,1460,312,0,16777216,240000,33580,44,65700,0,0,0,3268989830,63
i,1727696203.051778,10.0.2.15,22,10.0.2.2,49911,1073725440,16250,1026,65535,65700,0,0,4,1460,312,0,16777216,240000,33580,44,65700,0,44,0,3268989830,63
i,1727696203.051839,10.0.2.15,22,10.0.2.2,49911,1073725440,16294,1026,65535,65700,0,0,4,1460,312,0,0,240000,33580,0,65700,0,0,0,3268989830,63
o,1727696203.054371,10.0.2.15,22,10.0.2.2,49911,1073725440,16294,1026,65535,65700,0,0,4,1460,312,0,16777216,240000,33580,68,65700,0,0,0,3268989830,63
i,1727696203.055182,10.0.2.15,22,10.0.2.2,49911,1073725440,16294,1026,65535,65700,0,0,4,1460,312,0,16777216,240000,33580,68,65700,0,68,0,3268989830,63
i,1727696203.055217,10.0.2.15,22,10.0.2.2,49911,1073725440,16362,1026,65535,65700,0,0,4,1460,312,0,0,240000,33580,0,65700,0,0,0,3268989830,63
o,1727696203.056934,10.0.2.15,22,10.0.2.2,49911,1073725440,16362,1026,65535,65700,0,0,4,1460,312,0,16777216,240000,33580,332,65700,0,0,0,3268989830,63
i,1727696203.058179,10.0.2.15,22,10.0.2.2,49911,1073725440,16362,1026,65535,65700,0,0,4,1460,312,0,16777216,240000,33580,332,65700,0,332,0,3268989830,63
i,1727696203.059744,10.0.2.15,22,10.0.2.2,49911,1073725440,16694,1026,65535,65700,0,0,4,1460,312,0,0,240000,33580,0,65700,0,0,0,3268989830,63
o,1727696203.077851,10.0.2.15,22,10.0.2.2,49911,1073725440,16694,1026,65535,65700,0,0,4,1460,312,0,16777216,240000,33580,28,65700,0,0,0,3268989830,63
i,1727696203.078758,10.0.2.15,22,10.0.2.2,49911,1073725440,16694,1026,65535,65700,0,0,4,1460,312,0,16777216,240000,33580,28,65700,0,28,0,3268989830,63
i,1727696203.078810,10.0.2.15,22,10.0.2.2,49911,1073725440,16722,1026,65535,65700,0,0,4,1460,312,0,0,240000,33580,0,65700,0,0,0,3268989830,63
o,1727696203.081240,10.0.2.15,22,10.0.2.2,49911,1073725440,16722,1026,65535,65700,0,0,4,1460,312,0,16777216,240000,33580,768,65700,112,0,0,3268989830,63
i,1727696203.082431,10.0.2.15,22,10.0.2.2,49911,1073725440,16722,1026,65535,65700,0,0,4,1460,312,0,16777216,240000,33580,908,65700,112,768,0,3268989830,63
o,1727696203.082463,10.0.2.15,22,10.0.2.2,49911,1073725440,17490,1026,65535,65700,0,0,4,1460,312,0,16777216,240000,33580,140,65700,112,0,0,3268989830,63
i,1727696203.082666,10.0.2.15,22,10.0.2.2,49911,1073725440,17490,1026,65535,65700,0,0,4,1460,312,0,16777216,240000,33580,140,65700,112,140,0,3268989830,63
o,1727696203.083125,10.0.2.15,22,10.0.2.2,49911,1073725440,17630,1026,65535,65700,0,0,4,1460,312,0,16777216,240000,33580,44,65700,0,0,0,3268989830,63
i,1727696203.083707,10.0.2.15,22,10.0.2.2,49911,1073725440,17630,1026,65535,65700,0,0,4,1460,312,0,16777216,240000,33580,44,65700,0,44,0,3268989830,63
i,1727696203.083735,10.0.2.15,22,10.0.2.2,49911,1073725440,17674,1026,65535,65700,0,0,4,1460,312,0,0,240000,33580,0,65700,0,0,0,3268989830,63
o,1727696203.084692,10.0.2.15,22,10.0.2.2,49911,1073725440,17674,1026,65535,65700,0,0,4,1460,312,0,16777220,240000,33580,72,65700,0,0,0,3268989830,63
i,1727696203.085178,10.0.2.15,22,10.0.2.2,49911,1073725440,17674,1026,65535,65700,0,0,4,1460,312,0,16777220,240000,33580,72,65700,0,72,0,3268989830,63
o,1727696203.198966,172.16.5.2,49389,172.16.1.2,5103,51694,14480,2082,65535,65700,6,6,4,1460,355937,1,16778209,1290000,33580,0,65700,0,0,0,2240806858,63
o,1727696203.199213,172.16.5.2,49389,172.16.1.2,5103,51694,14480,2082,65535,65700,6,6,4,1460,355937,1,16778212,1290000,33580,37,65700,0,0,0,2240806858,63
i,1727696203.302613,172.16.5.2,49389,172.16.1.2,5103,51694,14480,2082,65535,65700,6,6,4,1460,355937,1,16778212,1290000,33580,37,65700,0,37,0,2240806858,63
o,1727696203.303073,172.16.5.2,49389,172.16.1.2,5103,51694,14517,3106,65728,65728,6,6,4,1460,325312,1,16778212,1320000,33580,4,65700,0,0,0,2240806858,63
o,1727696203.303223,172.16.5.2,49389,172.16.1.2,5103,51694,14517,3106,65728,65728,6,6,4,1460,325312,1,16778212,1320000,33580,130,65700,0,4,0,2240806858,63
o,1727696203.353492,10.0.2.15,22,10.0.2.2,57953,7642045,14600,1030,65535,65700,0,0,4,1460,0,0,16777220,230000,33580,1700,65700,0,0,0,2045767904,63
o,1727696203.354159,10.0.2.15,22,10.0.2.2,57953,7642045,14600,1026,65535,65700,0,0,4,1460,0,0,16777220,230000,33580,1700,65700,0,1460,0,2045767904,63
i,1727696203.355275,10.0.2.15,22,10.0.2.2,57953,7642045,14600,1026,65535,65700,0,0,4,1460,0,0,16777220,230000,33580,1700,65700,0,1700,0,2045767904,63
i,1727696203.355308,10.0.2.15,22,10.0.2.2,57953,7642045,16060,1026,65535,65700,0,0,4,1460,0,0,4,230000,33580,240,65700,0,240,0,2045767904,63
i,1727696203.406507,172.16.5.2,49389,172.16.1.2,5103,51694,14517,3106,65728,65728,6,6,4,1460,325312,1,16778212,1320000,33580,130,65700,0,130,0,2240806858,63
i,1727696203.406554,172.16.5.2,49389,172.16.1.2,5103,51694,14647,3106,65600,65728,6,6,4,1460,297187,1,996,1320000,33580,0,65700,0,0,0,2240806858,63
o,1727696203.441260,172.16.5.2,49389,172.16.1.2,5103,51694,14647,3106,65728,65728,6,6,4,1460,297187,1,997,1320000,33580,0,65700,0,0,0,2240806858,63
o,1727696203.499981,172.16.5.2,24234,172.16.1.2,5103,51694,14480,2082,65535,65700,6,6,4,1460,353437,1,16778209,1310000,33580,0,65700,0,0,0,3719457787,63
o,1727696203.500145,172.16.5.2,24234,172.16.1.2,5103,51694,14480,2082,65535,65700,6,6,4,1460,353437,1,16778208,1310000,33580,37,65700,0,0,0,3719457787,63
i,1727696203.598142,172.16.5.2,49389,172.16.1.2,5103,51694,14647,3106,65728,65728,6,6,4,1460,297187,1,996,1320000,33580,0,65700,0,0,0,2240806858,63
i,1727696203.598209,172.16.5.2,49389,172.16.1.2,5103,51694,14647,3106,65728,65728,6,6,4,1460,297187,1,996,1320000,33580,0,65700,1,0,0,2240806858,63
o,1727696203.598239,172.16.5.2,49389,172.16.1.2,5103,51694,14647,3106,65728,65728,6,6,4,1460,297187,1,997,1320000,33580,0,65700,2,0,0,2240806858,63
o,1727696203.599245,172.16.5.2,24234,172.16.1.2,5103,51694,14480,2086,65535,65700,6,6,4,1460,353437,1,16778208,1310000,33580,33580,65700,0,37,0,3719457787,63
i,1727696203.634726,172.16.5.2,24234,172.16.1.2,5103,51694,14480,2086,65535,65700,6,6,4,1460,353437,1,16778208,1310000,33580,33580,65700,0,13069,0,3719457787,63
o,1727696203.634783,172.16.5.2,24234,172.16.1.2,5103,51694,14517,2086,65728,65728,6,6,4,1460,326875,1,16778208,1300000,33580,33543,65700,0,13032,0,3719457787,63
i,1727696203.697122,172.16.5.2,24234,172.16.1.2,5103,51694,14517,2086,65728,65728,6,6,4,1460,326875,1,16778208,1300000,33580,33543,65700,0,14480,0,3719457787,63
o,1727696203.697161,172.16.5.2,24234,172.16.1.2,5103,51694,17413,2086,62848,65728,6,6,4,1460,298750,1,16778208,1310000,33580,30647,65700,0,11584,0,3719457787,63
i,1727696203.697313,172.16.5.2,24234,172.16.1.2,5103,51694,17413,2086,62848,65728,6,6,4,1460,298750,1,16778208,1310000,41772,30647,65700,0,17376,0,3719457787,63
o,1727696203.697332,172.16.5.2,24234,172.16.1.2,5103,51694,20309,2086,59968,65728,6,6,4,1460,274062,1,16778208,1280000,41772,27751,65700,0,14480,0,3719457787,63
i,1727696203.697476,172.16.5.2,24234,172.16.1.2,5103,51694,20309,2086,59968,65728,6,6,4,1460,274062,1,16778208,1280000,41772,27751,65700,0,20272,0,3719457787,63
o,1727696203.697495,172.16.5.2,24234,172.16.1.2,5103,51694,23205,2086,57088,65728,6,6,4,1460,252500,1,16778208,1230000,41772,24855,65700,0,17376,0,3719457787,63
i,1727696203.699161,172.16.5.2,24234,172.16.1.2,5103,51694,23205,2086,57088,65728,6,6,4,1460,252500,1,16778208,1230000,49964,49964,65700,0,23168,0,3719457787,63
o,1727696203.699186,172.16.5.2,24234,172.16.1.2,5103,51694,26101,2086,62848,65728,6,6,4,1460,233437,1,16778208,1170000,49964,47068,65700,0,20272,0,3719457787,63
i,1727696203.727816,172.16.5.2,24234,172.16.1.2,5103,51694,26101,2086,62848,65728,6,6,4,1460,233437,1,16778208,1170000,58156,58156,65700,0,26064,0,3719457787,63
o,1727696203.727936,172.16.5.2,24234,172.16.1.2,5103,51694,28997,2086,64256,65728,6,6,4,1460,220625,1,16778208,1070000,58156,55260,65700,0,23168,0,3719457787,63
o,1727696203.728110,172.16.5.2,24234,172.16.1.2,5103,51694,28997,2086,64256,65728,6,6,4,1460,220625,1,16778208,1070000,58156,55260,65700,0,24616,0,3719457787,63
i,1727696203.921646,172.16.5.2,24234,172.16.1.2,5103,51694,28997,2086,64256,65728,6,6,4,1460,220625,1,16778208,1070000,66348,66348,65700,0,28960,0,3719457787,63
o,1727696203.921687,172.16.5.2,24234,172.16.1.2,5103,51694,31893,2086,64256,65728,6,6,4,1460,221875,1,16778208,920000,66348,63452,65700,0,26064,0,3719457787,63
i,1727696203.921967,172.16.5.2,24234,172.16.1.2,5103,51694,31893,2086,64256,65728,6,6,4,1460,221875,1,16778208,920000,74540,63452,65700,0,31856,0,3719457787,63
o,1727696203.921989,172.16.5.2,24234,172.16.1.2,5103,51694,34789,2086,61376,65728,6,6,4,1460,223125,1,16778208,810000,74540,60556,65700,0,28960,0,3719457787,63
i,1727696203.922189,172.16.5.2,24234,172.16.1.2,5103,51694,34789,2086,61376,65728,6,6,4,1460,223125,1,16778208,810000,74540,60556,65700,0,34752,0,3719457787,63
o,1727696203.922208,172.16.5.2,24234,172.16.1.2,5103,51694,37685,2086,62848,65728,6,6,4,1460,224062,1,16778208,720000,74540,57660,65700,0,31856,0,3719457787,63
i,1727696203.923165,172.16.5.2,24234,172.16.1.2,5103,51694,37685,2086,62848,65728,6,6,4,1460,224062,1,16778208,720000,82732,82732,65700,0,37648,0,3719457787,63
o,1727696203.923194,172.16.5.2,24234,172.16.1.2,5103,51694,40581,2086,64256,65728,6,6,4,1460,225000,1,16778208,650000,82732,79836,65700,0,34752,0,3719457787,63
i,1727696203.923407,172.16.5.2,24234,172.16.1.2,5103,51694,40581,2086,64256,65728,6,6,4,1460,225000,1,16778208,650000,82732,79836,65700,0,40544,0,3719457787,63
o,1727696203.923431,172.16.5.2,24234,172.16.1.2,5103,51694,43477,2086,61376,65728,6,6,4,1460,225625,1,16778208,600000,82732,76940,65700,0,37648,0,3719457787,63
i,1727696203.923633,172.16.5.2,24234,172.16.1.2,5103,51694,43477,2086,61376,65728,6,6,4,1460,225625,1,16778208,600000,82732,76940,65700,0,43440,0,3719457787,63
o,1727696203.923655,172.16.5.2,24234,172.16.1.2,5103,51694,46373,2086,58496,65728,6,6,4,1460,226250,1,16778208,560000,82732,74044,65700,0,40544,0,3719457787,63
i,1727696203.972031,172.16.5.2,24234,172.16.1.2,5103,51694,46373,2086,58496,65728,6,6,4,1460,226250,1,16778208,560000,82732,82732,65700,0,46336,0,3719457787,63
o,1727696203.972069,172.16.5.2,24234,172.16.1.2,5103,51694,49269,2086,64256,65728,6,6,4,1460,233125,1,16778208,590000,82732,79836,65700,0,43440,0,3719457787,63
i,1727696203.972206,172.16.5.2,24234,172.16.1.2,5103,51694,49269,2086,64256,65728,6,6,4,1460,233125,1,16778208,590000,82732,79836,65700,0,49232,0,3719457787,63
o,1727696203.972206,172.16.5.2,24234,172.16.1.2,5103,51694,52165,2086,61376,65728,6,6,4,1460,239062,1,16778208,600000,82732,76940,65700,0,46336,0,3719457787,63
i,1727696203.974197,172.16.5.2,24234,172.16.1.2,5103,51694,52165,2086,61376,65728,6,6,4,1460,239062,1,16778208,600000,82732,82732,65700,0,52128,0,3719457787,63
o,1727696203.974320,172.16.5.2,24234,172.16.1.2,5103,51694,52165,2086,62848,65728,6,6,4,1460,240625,1,16778208,580000,82732,79836,65700,0,49232,0,3719457787,63
o,1727696203.974504,172.16.5.2,24234,172.16.1.2,5103,51694,52165,2086,62848,65728,6,6,4,1460,240625,1,16778208,580000,82732,79836,65700,0,50680,0,3719457787,63
i,1727696203.974710,172.16.5.2,24234,172.16.1.2,5103,51694,52165,2086,62848,65728,6,6,4,1460,240625,1,16778208,580000,82732,79836,65700,0,52128,0,3719457787,63
o,1727696203.974734,172.16.5.2,24234,172.16.1.2,5103,51694,52165,2086,64256,65728,6,6,4,1460,241875,1,16778208,550000,82732,76940,65700,0,49232,0,3719457787,63
i,1727696204.284461,172.16.5.2,24234,172.16.1.2,5103,51694,52165,2086,64256,65728,6,6,4,1460,241875,1,16778208,550000,82732,82732,65700,0,52128,0,3719457787,63
o,1727696204.284721,172.16.5.2,24234,172.16.1.2,5103,51694,52165,2086,98560,65728,6,6,4,1460,256875,1,16778208,660000,90924,81284,65700,0,50680,0,3719457787,63
i,1727696204.285401,172.16.5.2,24234,172.16.1.2,5103,51694,52165,2086,98560,65728,6,6,4,1460,256875,1,16778208,660000,99116,81284,65700,0,52128,0,3719457787,63
o,1727696204.285538,172.16.5.2,24234,172.16.1.2,5103,51694,52165,2086,97152,65728,6,6,4,1460,270000,1,16778208,730000,99116,78388,65700,0,49232,0,3719457787,63
i,1727696204.285992,172.16.5.2,24234,172.16.1.2,5103,51694,52165,2086,97152,65728,6,6,4,1460,270000,1,16778208,730000,99116,78388,65700,0,52128,0,3719457787,63
o,1727696204.286097,172.16.5.2,24234,172.16.1.2,5103,51694,52165,2086,94272,65728,6,6,4,1460,281250,1,16778208,760000,99116,75492,65700,0,49232,0,3719457787,63
i,1727696204.286570,172.16.5.2,24234,172.16.1.2,5103,51694,52165,2086,94272,65728,6,6,4,1460,281250,1,16778208,760000,99116,75492,65700,0,52128,0,3719457787,63
o,1727696204.286637,172.16.5.2,24234,172.16.1.2,5103,51694,52165,2086,91392,65728,6,6,4,1460,291250,1,16778208,780000,99116,72596,65700,0,49232,0,3719457787,63
i,1727696204.288003,172.16.5.2,24234,172.16.1.2,5103,51694,52165,2086,91392,65728,6,6,4,1460,291250,1,16778208,780000,107308,107308,65700,0,52128,0,3719457787,63
o,1727696204.288040,172.16.5.2,24234,172.16.1.2,5103,51694,52165,2086,95680,65728,6,6,4,1460,300000,1,16778208,790000,107308,104412,65700,0,49232,0,3719457787,63
i,1727696204.288316,172.16.5.2,24234,172.16.1.2,5103,51694,52165,2086,95680,65728,6,6,4,1460,300000,1,16778208,790000,107308,104412,65700,0,52128,0,3719457787,63
o,1727696204.288344,172.16.5.2,24234,172.16.1.2,5103,51694,52165,2086,92800,65728,6,6,4,1460,307500,1,16778208,790000,107308,101516,65700,0,49232,0,3719457787,63
i,1727696204.288557,172.16.5.2,24234,172.16.1.2,5103,51694,52165,2086,92800,65728,6,6,4,1460,307500,1,16778208,790000,115500,101516,65700,0,52128,0,3719457787,63
o,1727696204.288578,172.16.5.2,24234,172.16.1.2,5103,51694,52165,2086,95680,65728,6,6,4,1460,314062,1,16778208,770000,115500,98620,65700,0,49232,0,3719457787,63
i,1727696204.288825,172.16.5.2,24234,172.16.1.2,5103,51694,52165,2086,95680,65728,6,6,4,1460,314062,1,16778208,770000,115500,98620,65700,0,52128,0,3719457787,63
o,1727696204.288849,172.16.5.2,24234,172.16.1.2,5103,51694,52165,2086,95680,65728,6,6,4,1460,320000,1,16778208,760000,115500,95724,65700,0,49232,0,3719457787,63
i,1727696204.289860,172.16.5.2,24234,172.16.1.2,5103,51694,52165,2086,95680,65728,6,6,4,1460,320000,1,16778208,760000,115500,115500,65700,0,52128,0,3719457787,63
o,1727696204.289898,172.16.5.2,24234,172.16.1.2,5103,51694,52165,2086,95680,65728,6,6,4,1460,325000,1,16778208,750000,115500,112604,65700,0,49232,0,3719457787,63
i,1727696204.290411,172.16.5.2,24234,172.16.1.2,5103,51694,52165,2086,95680,65728,6,6,4,1460,325000,1,16778208,750000,115500,112604,65700,0,52128,0,3719457787,63
o,1727696204.290434,172.16.5.2,24234,172.16.1.2,5103,51694,52165,2086,95680,65728,6,6,4,1460,329375,1,16778208,730000,115500,109708,65700,0,49232,0,3719457787,63
i,1727696204.290653,172.16.5.2,24234,172.16.1.2,5103,51694,52165,2086,95680,65728,6,6,4,1460,329375,1,16778208,730000,115500,109708,65700,0,52128,0,3719457787,63
o,1727696204.290675,172.16.5.2,24234,172.16.1.2,5103,51694,52165,2086,95680,65728,6,6,4,1460,333437,1,16778208,720000,115500,106812,65700,0,49232,0,3719457787,63
i,1727696204.290936,172.16.5.2,24234,172.16.1.2,5103,51694,52165,2086,95680,65728,6,6,4,1460,333437,1,16778208,720000,115500,106812,65700,0,52128,0,3719457787,63
o,1727696204.290959,172.16.5.2,24234,172.16.1.2,5103,51694,52165,2086,92800,65728,6,6,4,1460,336875,1,16778208,700000,115500,103916,65700,0,49232,0,3719457787,63
i,1727696204.292142,172.16.5.2,24234,172.16.1.2,5103,51694,52165,2086,92800,65728,6,6,4,1460,336875,1,16778208,700000,123692,123692,65700,0,52128,0,3719457787,63
o,1727696204.292173,172.16.5.2,24234,172.16.1.2,5103,51694,52165,2086,97152,65728,6,6,4,1460,340000,1,16778208,690000,123692,120796,65700,0,49232,0,3719457787,63
i,1727696204.292397,172.16.5.2,24234,172.16.1.2,5103,51694,52165,2086,97152,65728,6,6,4,1460,340000,1,16778208,690000,123692,120796,65700,0,52128,0,3719457787,63
o,1727696204.292422,172.16.5.2,24234,172.16.1.2,5103,51694,52165,2086,95680,65728,6,6,4,1460,336250,1,16778208,680000,123692,117900,65700,0,49232,0,3719457787,63
i,1727696204.292596,172.16.5.2,24234,172.16.1.2,5103,51694,52165,2086,95680,65728,6,6,4,1460,336250,1,16778208,680000,123692,117900,65700,0,52128,0,3719457787,63
o,1727696204.292618,172.16.5.2,24234,172.16.1.2,5103,51694,52165,2086,95680,65728,6,6,4,1460,333125,1,16778208,660000,123692,115004,65700,0,49232,0,3719457787,63
i,1727696204.292904,172.16.5.2,24234,172.16.1.2,5103,51694,52165,2086,95680,65728,6,6,4,1460,333125,1,16778208,660000,123692,115004,65700,0,52128,0,3719457787,63
o,1727696204.292946,172.16.5.2,24234,172.16.1.2,5103,51694,52165,2086,92800,65728,6,6,4,1460,330312,1,16778208,650000,123692,112108,65700,0,49232,0,3719457787,63
i,1727696204.294049,172.16.5.2,24234,172.16.1.2,5103,51694,52165,2086,92800,65728,6,6,4,1460,330312,1,16778208,650000,123692,123692,65700,0,52128,0,3719457787,63
o,1727696204.294076,172.16.5.2,24234,172.16.1.2,5103,51694,53625,2086,97152,65728,6,6,4,1460,327812,1,16778208,640000,123692,120796,65700,0,49232,0,3719457787,63
o,1727696204.294212,172.16.5.2,24234,172.16.1.2,5103,51694,53625,2086,97152,65728,6,6,4,1460,327812,1,16778208,640000,123692,120796,65700,0,50680,0,3719457787,63
i,1727696204.294420,172.16.5.2,24234,172.16.1.2,5103,51694,53625,2086,97152,65728,6,6,4,1460,327812,1,16778208,640000,123692,120796,65700,0,53576,0,3719457787,63
o,1727696204.294440,172.16.5.2,24234,172.16.1.2,5103,51694,53625,2086,95680,65728,6,6,4,1460,325625,1,16778208,630000,123692,117900,65700,0,50680,0,3719457787,63
i,1727696204.298246,172.16.5.2,24234,172.16.1.2,5103,51694,53625,2086,95680,65728,6,6,4,1460,325625,1,16778208,630000,123692,123692,65700,0,53576,0,3719457787,63
o,1727696204.298357,172.16.5.2,24234,172.16.1.2,5103,51694,53625,2086,98560,65728,6,6,4,1460,323750,1,16778208,610000,123692,122244,65700,0,52128,0,3719457787,63
i,1727696204.578761,172.16.5.2,24234,172.16.1.2,5103,51694,53625,2086,98560,65728,6,6,4,1460,323750,1,16778208,610000,123692,122244,65700,0,53576,0,3719457787,63
o,1727696204.578827,172.16.5.2,24234,172.16.1.2,5103,51694,53625,2086,95680,65728,6,6,4,1460,319687,1,16778208,620000,123692,119348,65700,0,50680,0,3719457787,63
i,1727696204.578996,172.16.5.2,24234,172.16.1.2,5103,51694,53625,2086,95680,65728,6,6,4,1460,319687,1,16778208,620000,123692,119348,65700,0,53576,0,3719457787,63
o,1727696204.579015,172.16.5.2,24234,172.16.1.2,5103,51694,53625,2086,92800,65728,6,6,4,1460,316250,1,16778208,620000,123692,116452,65700,0,50680,0,3719457787,63
i,1727696204.579765,172.16.5.2,24234,172.16.1.2,5103,51694,53625,2086,92800,65728,6,6,4,1460,316250,1,16778208,620000,123692,123692,65700,0,53576,0,3719457787,63
o,1727696204.579848,172.16.5.2,24234,172.16.1.2,5103,51694,53625,2086,95680,65728,6,6,4,1460,313125,1,16778208,620000,123692,120796,65700,0,50680,0,3719457787,63
i,1727696204.585930,172.16.5.2,24234,172.16.1.2,5103,51694,53625,2086,95680,65728,6,6,4,1460,313125,1,16778208,620000,123692,123692,65700,0,53576,0,3719457787,63
o,1727696204.585958,172.16.5.2,24234,172.16.1.2,5103,51694,53625,2086,97152,65728,6,6,4,1460,310312,1,16778208,610000,123692,120796,65700,0,50680,0,3719457787,63
i,1727696204.588054,172.16.5.2,24234,172.16.1.2,5103,51694,53625,2086,97152,65728,6,6,4,1460,310312,1,16778208,610000,123692,123692,65700,0,53576,0,3719457787,63
o,1727696204.588076,172.16.5.2,24234,172.16.1.2,5103,51694,53625,2086,97152,65728,6,6,4,1460,307812,1,16778208,600000,123692,120796,65700,0,50680,0,3719457787,63
i,1727696204.588233,172.16.5.2,24234,172.16.1.2,5103,51694,53625,2086,97152,65728,6,6,4,1460,307812,1,16778208,600000,123692,120796,65700,0,53576,0,3719457787,63
o,1727696204.588251,172.16.5.2,24234,172.16.1.2,5103,51694,53625,2086,94272,65728,6,6,4,1460,305625,1,16778208,590000,123692,117900,65700,0,50680,0,3719457787,63
i,1727696204.588425,172.16.5.2,24234,172.16.1.2,5103,51694,53625,2086,94272,65728,6,6,4,1460,305625,1,16778208,590000,123692,117900,65700,0,53576,0,3719457787,63
o,1727696204.588443,172.16.5.2,24234,172.16.1.2,5103,51694,53625,2086,95680,65728,6,6,4,1460,303750,1,16778208,580000,123692,115004,65700,0,50680,0,3719457787,63
i,1727696204.588578,172.16.5.2,24234,172.16.1.2,5103,51694,53625,2086,95680,65728,6,6,4,1460,303750,1,16778208,580000,123692,115004,65700,0,53576,0,3719457787,63
o,1727696204.588597,172.16.5.2,24234,172.16.1.2,5103,51694,53625,2086,95680,65728,6,6,4,1460,302187,1,16778208,570000,123692,112108,65700,0,50680,0,3719457787,63
i,1727696204.588784,172.16.5.2,24234,172.16.1.2,5103,51694,53625,2086,95680,65728,6,6,4,1460,302187,1,16778208,570000,123692,112108,65700,0,53576,0,3719457787,63
o,1727696204.588802,172.16.5.2,24234,172.16.1.2,5103,51694,53625,2086,92800,65728,6,6,4,1460,300937,1,16778208,570000,123692,109212,65700,0,50680,0,3719457787,63
i,1727696204.589945,172.16.5.2,24234,172.16.1.2,5103,51694,53625,2086,92800,65728,6,6,4,1460,300937,1,16778208,570000,123692,123692,65700,0,53576,0,3719457787,63
o,1727696204.589973,172.16.5.2,24234,172.16.1.2,5103,51694,53625,2086,97152,65728,6,6,4,1460,299687,1,16778208,560000,123692,120796,65700,0,50680,0,3719457787,63
i,1727696204.590195,172.16.5.2,24234,172.16.1.2,5103,51694,53625,2086,97152,65728,6,6,4,1460,299687,1,16778208,560000,123692,120796,65700,0,53576,0,3719457787,63
o,1727696204.590234,172.16.5.2,24234,172.16.1.2,5103,51694,53625,2086,97152,65728,6,6,4,1460,298750,1,16778208,550000,123692,117900,65700,0,50680,0,3719457787,63
i,1727696204.590558,172.16.5.2,24234,172.16.1.2,5103,51694,53625,2086,97152,65728,6,6,4,1460,298750,1,16778208,550000,123692,117900,65700,0,53576,0,3719457787,63
o,1727696204.590578,172.16.5.2,24234,172.16.1.2,5103,51694,53625,2086,97152,65728,6,6,4,1460,299062,1,16778208,540000,123692,115004,65700,0,50680,0,3719457787,63
i,1727696204.590781,172.16.5.2,24234,172.16.1.2,5103,51694,53625,2086,97152,65728,6,6,4,1460,299062,1,16778208,540000,123692,115004,65700,0,53576,0,3719457787,63
o,1727696204.590804,172.16.5.2,24234,172.16.1.2,5103,51694,53625,2086,95680,65728,6,6,4,1460,299375,1,16778208,530000,123692,112108,65700,0,50680,0,3719457787,63
i,1727696204.591821,172.16.5.2,24234,172.16.1.2,5103,51694,53625,2086,95680,65728,6,6,4,1460,299375,1,16778208,530000,123692,123692,65700,0,53576,0,3719457787,63
o,1727696204.591845,172.16.5.2,24234,172.16.1.2,5103,51694,53625,2086,95680,65728,6,6,4,1460,299687,1,16778208,530000,123692,120796,65700,0,50680,0,3719457787,63
i,1727696204.591990,172.16.5.2,24234,172.16.1.2,5103,51694,53625,2086,95680,65728,6,6,4,1460,299687,1,16778208,530000,123692,120796,65700,0,53576,0,3719457787,63
o,1727696204.592008,172.16.5.2,24234,172.16.1.2,5103,51694,53625,2086,92800,65728,6,6,4,1460,300000,1,16778208,520000,123692,117900,65700,0,50680,0,3719457787,63
i,1727696204.592151,172.16.5.2,24234,172.16.1.2,5103,51694,53625,2086,92800,65728,6,6,4,1460,300000,1,16778208,520000,123692,117900,65700,0,53576,0,3719457787,63
o,1727696204.592170,172.16.5.2,24234,172.16.1.2,5103,51694,53625,2086,97152,65728,6,6,4,1460,300000,1,16778208,520000,123692,115004,65700,0,50680,0,3719457787,63
o,1727696204.592295,172.16.5.2,24234,172.16.1.2,5103,51694,53625,2086,97152,65728,6,6,4,1460,300000,1,16778208,520000,123692,115004,65700,0,52128,0,3719457787,63
i,1727696204.592457,172.16.5.2,24234,172.16.1.2,5103,51694,53625,2086,97152,65728,6,6,4,1460,300000,1,16778208,520000,123692,115004,65700,0,53576,0,3719457787,63
o,1727696204.592475,172.16.5.2,24234,172.16.1.2,5103,51694,55085,2086,94272,65728,6,6,4,1460,300000,1,16778208,510000,123692,112108,65700,0,50680,0,3719457787,63
i,1727696204.592673,172.16.5.2,24234,172.16.1.2,5103,51694,55085,2086,94272,65728,6,6,4,1460,300000,1,16778208,510000,123692,112108,65700,0,55024,0,3719457787,63
o,1727696204.592696,172.16.5.2,24234,172.16.1.2,5103,51694,55085,2086,91392,65728,6,6,4,1460,300000,1,16778208,510000,123692,109212,65700,0,52128,0,3719457787,63
i,1727696204.597625,172.16.5.2,24234,172.16.1.2,5103,51694,55085,2086,91392,65728,6,6,4,1460,300000,1,16778208,510000,123692,123692,65700,0,55024,0,3719457787,63
o,1727696204.597647,172.16.5.2,24234,172.16.1.2,5103,51694,55085,2086,98560,65728,6,6,4,1460,300000,1,16778208,510000,123692,122244,65700,0,53576,0,3719457787,63
i,1727696204.928509,172.16.5.2,24234,172.16.1.2,5103,51694,55085,2086,98560,65728,6,6,4,1460,300000,1,16778208,510000,123692,122244,65700,0,55024,0,3719457787,63
o,1727696204.928546,172.16.5.2,24234,172.16.1.2,5103,51694,55085,2086,144960,65728,6,6,4,1460,305000,1,16778208,550000,123692,119348,65700,0,52128,0,3719457787,63
i,1727696204.928876,172.16.5.2,24234,172.16.1.2,5103,51694,55085,2086,144960,65728,6,6,4,1460,305000,1,16778208,550000,123692,119348,65700,0,55024,0,3719457787,63
o,1727696204.928898,172.16.5.2,24234,172.16.1.2,5103,51694,55085,2086,146432,65728,6,6,4,1460,309375,1,16778208,580000,123692,116452,65700,0,52128,0,3719457787,63
i,1727696204.930373,172.16.5.2,24234,172.16.1.2,5103,51694,55085,2086,146432,65728,6,6,4,1460,309375,1,16778208,580000,123692,123692,65700,0,55024,0,3719457787,63
o,1727696204.930396,172.16.5.2,24234,172.16.1.2,5103,51694,55085,2086,146432,65728,6,6,4,1460,314687,1,16778208,610000,123692,120796,65700,0,52128,0,3719457787,63
i,1727696204.930599,172.16.5.2,24234,172.16.1.2,5103,51694,55085,2086,146432,65728,6,6,4,1460,314687,1,16778208,610000,123692,120796,65700,0,55024,0,3719457787,63
o,1727696204.930619,172.16.5.2,24234,172.16.1.2,5103,51694,55085,2086,143552,65728,6,6,4,1460,319375,1,16778208,630000,123692,117900,65700,0,52128,0,3719457787,63
i,1727696204.931857,172.16.5.2,24234,172.16.1.2,5103,51694,55085,2086,143552,65728,6,6,4,1460,319375,1,16778208,630000,123692,123692,65700,0,55024,0,3719457787,63
o,1727696204.931896,172.16.5.2,24234,172.16.1.2,5103,51694,55085,2086,144960,65728,6,6,4,1460,323437,1,16778208,640000,123692,120796,65700,0,52128,0,3719457787,63
i,1727696204.932042,172.16.5.2,24234,172.16.1.2,5103,51694,55085,2086,144960,65728,6,6,4,1460,323437,1,16778208,640000,123692,120796,65700,0,55024,0,3719457787,63
o,1727696204.932062,172.16.5.2,24234,172.16.1.2,5103,51694,55085,2086,144960,65728,6,6,4,1460,326875,1,16778208,640000,123692,117900,65700,0,52128,0,3719457787,63
i,1727696204.932225,172.16.5.2,24234,172.16.1.2,5103,51694,55085,2086,144960,65728,6,6,4,1460,326875,1,16778208,640000,123692,117900,65700,0,55024,0,3719457787,63
o,1727696204.932253,172.16.5.2,24234,172.16.1.2,5103,51694,55085,2086,144960,65728,6,6,4,1460,330000,1,16778208,640000,123692,115004,65700,0,52128,0,3719457787,63
i,1727696204.933210,172.16.5.2,24234,172.16.1.2,5103,51694,55085,2086,144960,65728,6,6,4,1460,330000,1,16778208,640000,123692,123692,65700,0,55024,0,3719457787,63
o,1727696204.933233,172.16.5.2,24234,172.16.1.2,5103,51694,55085,2086,142080,65728,6,6,4,1460,332500,1,16778208,640000,123692,120796,65700,0,52128,0,3719457787,63
i,1727696204.933382,172.16.5.2,24234,172.16.1.2,5103,51694,55085,2086,142080,65728,6,6,4,1460,332500,1,16778208,640000,123692,120796,65700,0,55024,0,3719457787,63
o,1727696204.933402,172.16.5.2,24234,172.16.1.2,5103,51694,55085,2086,139200,65728,6,6,4,1460,334687,1,16778208,630000,123692,117900,65700,0,52128,0,3719457787,63
i,1727696204.934349,172.16.5.2,24234,172.16.1.2,5103,51694,55085,2086,139200,65728,6,6,4,1460,334687,1,16778208,630000,123692,123692,65700,0,55024,0,3719457787,63
o,1727696204.934372,172.16.5.2,24234,172.16.1.2,5103,51694,55085,2086,136320,65728,6,6,4,1460,336875,1,16778208,620000,123692,120796,65700,0,52128,0,3719457787,63
i,1727696204.934518,172.16.5.2,24234,172.16.1.2,5103,51694,55085,2086,136320,65728,6,6,4,1460,336875,1,16778208,620000,123692,120796,65700,0,55024,0,3719457787,63
o,1727696204.934537,172.16.5.2,24234,172.16.1.2,5103,51694,55085,2086,144960,65728,6,6,4,1460,338750,1,16778208,620000,123692,117900,65700,0,52128,0,3719457787,63
i,1727696204.934691,172.16.5.2,24234,172.16.1.2,5103,51694,55085,2086,144960,65728,6,6,4,1460,338750,1,16778208,620000,123692,117900,65700,0,55024,0,3719457787,63
o,1727696204.934709,172.16.5.2,24234,172.16.1.2,5103,51694,55085,2086,144960,65728,6,6,4,1460,339062,1,16778208,600000,123692,115004,65700,0,52128,0,3719457787,63
i,1727696204.934846,172.16.5.2,24234,172.16.1.2,5103,51694,55085,2086,144960,65728,6,6,4,1460,339062,1,16778208,600000,123692,115004,65700,0,55024,0,3719457787,63
o,1727696204.934864,172.16.5.2,24234,172.16.1.2,5103,51694,55085,2086,144960,65728,6,6,4,1460,339375,1,16778208,590000,123692,112108,65700,0,52128,0,3719457787,63
i,1727696204.935679,172.16.5.2,24234,172.16.1.2,5103,51694,55085,2086,144960,65728,6,6,4,1460,339375,1,16778208,590000,123692,123692,65700,0,55024,0,3719457787,63
o,1727696204.935706,172.16.5.2,24234,172.16.1.2,5103,51694,55085,2086,142080,65728,6,6,4,1460,339687,1,16778208,580000,123692,120796,65700,0,52128,0,3719457787,63
i,1727696204.936033,172.16.5.2,24234,172.16.1.2,5103,51694,55085,2086,142080,65728,6,6,4,1460,339687,1,16778208,580000,123692,120796,65700,0,55024,0,3719457787,63
o,1727696204.936056,172.16.5.2,24234,172.16.1.2,5103,51694,55085,2086,144960,65728,6,6,4,1460,340000,1,16778208,570000,123692,117900,65700,0,52128,0,3719457787,63
i,1727696204.936295,172.16.5.2,24234,172.16.1.2,5103,51694,55085,2086,144960,65728,6,6,4,1460,340000,1,16778208,570000,123692,117900,65700,0,55024,0,3719457787,63
o,1727696204.936319,172.16.5.2,24234,172.16.1.2,5103,51694,55085,2086,144960,65728,6,6,4,1460,340000,1,16778208,570000,123692,115004,65700,0,52128,0,3719457787,63
o,1727696204.936567,172.16.5.2,24234,172.16.1.2,5103,51694,55085,2086,144960,65728,6,6,4,1460,340000,1,16778208,570000,123692,115004,65700,0,53576,0,3719457787,63
i,1727696204.936737,172.16.5.2,24234,172.16.1.2,5103,51694,55085,2086,144960,65728,6,6,4,1460,340000,1,16778208,570000,123692,115004,65700,0,55024,0,3719457787,63
o,1727696204.936759,172.16.5.2,24234,172.16.1.2,5103,51694,55085,2086,146432,65728,6,6,4,1460,340000,1,16778208,560000,123692,112108,65700,0,52128,0,3719457787,63
i,1727696204.936954,172.16.5.2,24234,172.16.1.2,5103,51694,55085,2086,146432,65728,6,6,4,1460,340000,1,16778208,560000,123692,112108,65700,0,55024,0,3719457787,63
o,1727696204.936977,172.16.5.2,24234,172.16.1.2,5103,51694,56545,2086,143552,65728,6,6,4,1460,340000,1,16778208,550000,123692,109212,65700,0,52128,0,3719457787,63
i,1727696204.937171,172.16.5.2,24234,172.16.1.2,5103,51694,56545,2086,143552,65728,6,6,4,1460,340000,1,16778208,550000,131884,109212,65700,0,56472,0,3719457787,63
o,1727696204.937193,172.16.5.2,24234,172.16.1.2,5103,51694,56545,2086,144960,65728,6,6,4,1460,340000,1,16778208,550000,131884,106316,65700,0,53576,0,3719457787,63
i,1727696205.302754,172.16.5.2,24234,172.16.1.2,5103,51694,56545,2086,144960,65728,6,6,4,1460,340000,1,16778208,550000,131884,131884,65700,0,56472,0,3719457787,63
o,1727696205.302923,172.16.5.2,24234,172.16.1.2,5103,51694,56545,2086,146432,65728,6,6,4,1460,345000,1,16778208,590000,131884,128988,65700,0,53576,0,3719457787,63
i,1727696205.303242,172.16.5.2,24234,172.16.1.2,5103,51694,56545,2086,146432,65728,6,6,4,1460,345000,1,16778208,590000,131884,128988,65700,0,56472,0,3719457787,63
o,1727696205.303281,172.16.5.2,24234,172.16.1.2,5103,51694,56545,2086,143552,65728,6,6,4,1460,349375,1,16778208,620000,131884,126092,65700,0,53576,0,3719457787,63
i,1727696205.304669,172.16.5.2,24234,172.16.1.2,5103,51694,56545,2086,143552,65728,6,6,4,1460,349375,1,16778208,620000,131884,131884,65700,0,56472,0,3719457787,63
o,1727696205.304762,172.16.5.2,24234,172.16.1.2,5103,51694,56545,2086,144960,65728,6,6,4,1460,352187,1,16778208,630000,131884,128988,65700,0,53576,0,3719457787,63
i,1727696205.305121,172.16.5.2,24234,172.16.1.2,5103,51694,56545,2086,144960,65728,6,6,4,1460,352187,1,16778208,630000,131884,128988,65700,0,56472,0,3719457787,63
o,1727696205.305154,172.16.5.2,24234,172.16.1.2,5103,51694,56545,2086,146432,65728,6,6,4,1460,354687,1,16778208,630000,131884,126092,65700,0,53576,0,3719457787,63
i,1727696205.305360,172.16.5.2,24234,172.16.1.2,5103,51694,56545,2086,146432,65728,6,6,4,1460,354687,1,16778208,630000,131884,126092,65700,0,56472,0,3719457787,63
o,1727696205.305395,172.16.5.2,24234,172.16.1.2,5103,51694,56545,2086,146432,65728,6,6,4,1460,356875,1,16778208,630000,131884,123196,65700,0,53576,0,3719457787,63
i,1727696205.305691,172.16.5.2,24234,172.16.1.2,5103,51694,56545,2086,146432,65728,6,6,4,1460,356875,1,16778208,630000,131884,123196,65700,0,56472,0,3719457787,63
o,1727696205.305726,172.16.5.2,24234,172.16.1.2,5103,51694,56545,2086,143552,65728,6,6,4,1460,358750,1,16778208,630000,131884,120300,65700,0,53576,0,3719457787,63
i,1727696205.306147,172.16.5.2,24234,172.16.1.2,5103,51694,56545,2086,143552,65728,6,6,4,1460,358750,1,16778208,630000,131884,120300,65700,0,56472,0,3719457787,63
o,1727696205.306171,172.16.5.2,24234,172.16.1.2,5103,51694,56545,2086,140672,65728,6,6,4,1460,360312,1,16778208,630000,131884,117404,65700,0,53576,0,3719457787,63
i,1727696205.307718,172.16.5.2,24234,172.16.1.2,5103,51694,56545,2086,140672,65728,6,6,4,1460,360312,1,16778208,630000,131884,131884,65700,0,56472,0,3719457787,63
o,1727696205.307743,172.16.5.2,24234,172.16.1.2,5103,51694,56545,2086,144960,65728,6,6,4,1460,361562,1,16778208,620000,131884,128988,65700,0,53576,0,3719457787,63
i,1727696205.307899,172.16.5.2,24234,172.16.1.2,5103,51694,56545,2086,144960,65728,6,6,4,1460,361562,1,16778208,620000,131884,128988,65700,0,56472,0,3719457787,63
o,1727696205.307917,172.16.5.2,24234,172.16.1.2,5103,51694,56545,2086,146432,65728,6,6,4,1460,362812,1,16778208,620000,131884,126092,65700,0,53576,0,3719457787,63
i,1727696205.308110,172.16.5.2,24234,172.16.1.2,5103,51694,56545,2086,146432,65728,6,6,4,1460,362812,1,16778208,620000,131884,126092,65700,0,56472,0,3719457787,63
o,1727696205.308129,172.16.5.2,24234,172.16.1.2,5103,51694,56545,2086,144960,65728,6,6,4,1460,363750,1,16778208,610000,131884,123196,65700,0,53576,0,3719457787,63
i,1727696205.308320,172.16.5.2,24234,172.16.1.2,5103,51694,56545,2086,144960,65728,6,6,4,1460,363750,1,16778208,610000,131884,123196,65700,0,56472,0,3719457787,63
o,1727696205.308339,172.16.5.2,24234,172.16.1.2,5103,51694,56545,2086,144960,65728,6,6,4,1460,364687,1,16778208,610000,131884,120300,65700,0,53576,0,3719457787,63
i,1727696205.309590,172.16.5.2,24234,172.16.1.2,5103,51694,56545,2086,144960,65728,6,6,4,1460,364687,1,16778208,610000,131884,131884,65700,0,56472,0,3719457787,63
o,1727696205.309622,172.16.5.2,24234,172.16.1.2,5103,51694,56545,2086,144960,65728,6,6,4,1460,365625,1,16778208,610000,131884,128988,65700,0,53576,0,3719457787,63
i,1727696205.309869,172.16.5.2,24234,172.16.1.2,5103,51694,56545,2086,144960,65728,6,6,4,1460,365625,1,16778208,610000,131884,128988,65700,0,56472,0,3719457787,63
o,1727696205.309896,172.16.5.2,24234,172.16.1.2,5103,51694,56545,2086,142080,65728,6,6,4,1460,366250,1,16778208,600000,131884,126092,65700,0,53576,0,3719457787,63
i,1727696205.310140,172.16.5.2,24234,172.16.1.2,5103,51694,56545,2086,142080,65728,6,6,4,1460,366250,1,16778208,600000,131884,126092,65700,0,56472,0,3719457787,63
o,1727696205.310175,172.16.5.2,24234,172.16.1.2,5103,51694,56545,2086,146432,65728,6,6,4,1460,366875,1,16778208,600000,131884,123196,65700,0,53576,0,3719457787,63
i,1727696205.310711,172.16.5.2,24234,172.16.1.2,5103,51694,56545,2086,146432,65728,6,6,4,1460,366875,1,16778208,600000,131884,123196,65700,0,56472,0,3719457787,63
o,1727696205.310736,172.16.5.2,24234,172.16.1.2,5103,51694,56545,2086,143552,65728,6,6,4,1460,368750,1,16778208,610000,131884,120300,65700,0,53576,0,3719457787,63
i,1727696205.310946,172.16.5.2,24234,172.16.1.2,5103,51694,56545,2086,143552,65728,6,6,4,1460,368750,1,16778208,610000,131884,120300,65700,0,56472,0,3719457787,63
o,1727696205.310970,172.16.5.2,24234,172.16.1.2,5103,51694,56545,2086,144960,65728,6,6,4,1460,370312,1,16778208,610000,131884,117404,65700,0,53576,0,3719457787,63
o,1727696205.311160,172.16.5.2,24234,172.16.1.2,5103,51694,56545,2086,144960,65728,6,6,4,1460,370312,1,16778208,610000,131884,117404,65700,0,55024,0,3719457787,63
i,1727696205.311341,172.16.5.2,24234,172.16.1.2,5103,51694,56545,2086,144960,65728,6,6,4,1460,370312,1,16778208,610000,131884,117404,65700,0,56472,0,3719457787,63
o,1727696205.311367,172.16.5.2,24234,172.16.1.2,5103,51694,56545,2086,142080,65728,6,6,4,1460,371562,1,16778208,610000,131884,114508,65700,0,53576,0,3719457787,63
i,1727696205.311874,172.16.5.2,24234,172.16.1.2,5103,51694,56545,2086,142080,65728,6,6,4,1460,371562,1,16778208,610000,131884,114508,65700,0,56472,0,3719457787,63
o,1727696205.311902,172.16.5.2,24234,172.16.1.2,5103,51694,58005,2086,144960,65728,6,6,4,1460,372812,1,16778208,610000,131884,111612,65700,0,53576,0,3719457787,63
i,1727696205.312506,172.16.5.2,24234,172.16.1.2,5103,51694,58005,2086,144960,65728,6,6,4,1460,372812,1,16778208,610000,131884,131884,65700,0,57920,0,3719457787,63
o,1727696205.312534,172.16.5.2,24234,172.16.1.2,5103,51694,58005,2086,144960,65728,6,6,4,1460,373750,1,16778208,610000,131884,128988,65700,0,55024,0,3719457787,63
i,1727696205.324681,172.16.5.2,24234,172.16.1.2,5103,51694,58005,2086,144960,65728,6,6,4,1460,373750,1,16778208,610000,131884,131884,65700,0,57920,0,3719457787,63
o,1727696205.324774,172.16.5.2,24234,172.16.1.2,5103,51694,58005,2086,147840,65728,6,6,4,1460,375937,1,16778208,620000,131884,130436,65700,0,56472,0,3719457787,63
o,1727696205.373272,10.0.2.15,22,10.0.2.2,57953,7642045,14600,1026,65535,65700,0,0,4,1460,0,0,16777220,230000,33580,1340,65700,0,0,0,2045767904,63
i,1727696205.374457,10.0.2.15,22,10.0.2.2,57953,7642045,14600,1026,65535,65700,0,0,4,1460,0,0,16777220,230000,33580,1340,65700,0,1340,0,2045767904,63
i,1727696205.628965,172.16.5.2,24234,172.16.1.2,5103,51694,58005,2086,147840,65728,6,6,4,1460,375937,1,16778208,620000,131884,130436,65700,0,57920,0,3719457787,63
o,1727696205.629082,172.16.5.2,24234,172.16.1.2,5103,51694,58005,2086,144960,65728,6,6,4,1460,369062,1,16778208,660000,131884,127540,65700,0,55024,0,3719457787,63
i,1727696205.629271,172.16.5.2,24234,172.16.1.2,5103,51694,58005,2086,144960,65728,6,6,4,1460,369062,1,16778208,660000,131884,127540,65700,0,57920,0,3719457787,63
o,1727696205.629312,172.16.5.2,24234,172.16.1.2,5103,51694,58005,2086,146432,65728,6,6,4,1460,363125,1,16778208,680000,131884,124644,65700,0,55024,0,3719457787,63
i,1727696205.630582,172.16.5.2,24234,172.16.1.2,5103,51694,58005,2086,146432,65728,6,6,4,1460,363125,1,16778208,680000,131884,131884,65700,0,57920,0,3719457787,63
o,1727696205.630612,172.16.5.2,24234,172.16.1.2,5103,51694,58005,2086,143552,65728,6,6,4,1460,357812,1,16778208,690000,131884,128988,65700,0,55024,0,3719457787,63
i,1727696205.638268,172.16.5.2,24234,172.16.1.2,5103,51694,58005,2086,143552,65728,6,6,4,1460,357812,1,16778208,690000,131884,131884,65700,0,57920,0,3719457787,63
o,1727696205.638329,172.16.5.2,24234,172.16.1.2,5103,51694,58005,2086,140672,65728,6,6,4,1460,353125,1,16778208,690000,131884,128988,65700,0,55024,0,3719457787,63
i,1727696205.638645,172.16.5.2,24234,172.16.1.2,5103,51694,58005,2086,140672,65728,6,6,4,1460,353125,1,16778208,690000,131884,128988,65700,0,57920,0,3719457787,63
o,1727696205.638674,172.16.5.2,24234,172.16.1.2,5103,51694,58005,2086,146432,65728,6,6,4,1460,349062,1,16778208,680000,131884,126092,65700,0,55024,0,3719457787,63
i,1727696205.638816,172.16.5.2,24234,172.16.1.2,5103,51694,58005,2086,146432,65728,6,6,4,1460,349062,1,16778208,680000,131884,126092,65700,0,57920,0,3719457787,63
o,1727696205.638835,172.16.5.2,24234,172.16.1.2,5103,51694,58005,2086,143552,65728,6,6,4,1460,345625,1,16778208,670000,131884,123196,65700,0,55024,0,3719457787,63
i,1727696205.639587,172.16.5.2,24234,172.16.1.2,5103,51694,58005,2086,143552,65728,6,6,4,1460,345625,1,16778208,670000,131884,131884,65700,0,57920,0,3719457787,63
o,1727696205.639620,172.16.5.2,24234,172.16.1.2,5103,51694,58005,2086,144960,65728,6,6,4,1460,342500,1,16778208,660000,131884,128988,65700,0,55024,0,3719457787,63
i,1727696205.639782,172.16.5.2,24234,172.16.1.2,5103,51694,58005,2086,144960,65728,6,6,4,1460,342500,1,16778208,660000,131884,128988,65700,0,57920,0,3719457787,63
o,1727696205.639813,172.16.5.2,24234,172.16.1.2,5103,51694,58005,2086,146432,65728,6,6,4,1460,339687,1,16778208,650000,131884,126092,65700,0,55024,0,3719457787,63
i,1727696205.640028,172.16.5.2,24234,172.16.1.2,5103,51694,58005,2086,146432,65728,6,6,4,1460,339687,1,16778208,650000,131884,126092,65700,0,57920,0,3719457787,63
o,1727696205.640054,172.16.5.2,24234,172.16.1.2,5103,51694,58005,2086,146432,65728,6,6,4,1460,337500,1,16778208,640000,131884,123196,65700,0,55024,0,3719457787,63
i,1727696205.640562,172.16.5.2,24234,172.16.1.2,5103,51694,58005,2086,146432,65728,6,6,4,1460,337500,1,16778208,640000,131884,123196,65700,0,57920,0,3719457787,63
o,1727696205.640582,172.16.5.2,24234,172.16.1.2,5103,51694,58005,2086,144960,65728,6,6,4,1460,336562,1,16778208,620000,131884,120300,65700,0,55024,0,3719457787,63
i,1727696205.640791,172.16.5.2,24234,172.16.1.2,5103,51694,58005,2086,144960,65728,6,6,4,1460,336562,1,16778208,620000,131884,120300,65700,0,57920,0,3719457787,63
o,1727696205.640822,172.16.5.2,24234,172.16.1.2,5103,51694,58005,2086,144960,65728,6,6,4,1460,335937,1,16778208,600000,131884,117404,65700,0,55024,0,3719457787,63
i,1727696205.640978,172.16.5.2,24234,172.16.1.2,5103,51694,58005,2086,144960,65728,6,6,4,1460,335937,1,16778208,600000,131884,117404,65700,0,57920,0,3719457787,63
o,1727696205.641003,172.16.5.2,24234,172.16.1.2,5103,51694,58005,2086,146432,65728,6,6,4,1460,335312,1,16778208,590000,131884,114508,65700,0,55024,0,3719457787,63
i,1727696205.641180,172.16.5.2,24234,172.16.1.2,5103,51694,58005,2086,146432,65728,6,6,4,1460,335312,1,16778208,590000,131884,114508,65700,0,57920,0,3719457787,63
o,1727696205.641204,172.16.5.2,24234,172.16.1.2,5103,51694,58005,2086,146432,65728,6,6,4,1460,334687,1,16778208,580000,131884,111612,65700,0,55024,0,3719457787,63
i,1727696205.643177,172.16.5.2,24234,172.16.1.2,5103,51694,58005,2086,146432,65728,6,6,4,1460,334687,1,16778208,580000,131884,131884,65700,0,57920,0,3719457787,63
o,1727696205.643212,172.16.5.2,24234,172.16.1.2,5103,51694,58005,2086,147840,65728,6,6,4,1460,334375,1,16778208,570000,131884,130436,65700,0,56472,0,3719457787,63
i,1727696205.643469,172.16.5.2,24234,172.16.1.2,5103,51694,58005,2086,147840,65728,6,6,4,1460,334375,1,16778208,570000,131884,130436,65700,0,57920,0,3719457787,63
o,1727696205.643489,172.16.5.2,24234,172.16.1.2,5103,51694,58005,2086,144960,65728,6,6,4,1460,334062,1,16778208,560000,131884,127540,65700,0,55024,0,3719457787,63
i,1727696205.643666,172.16.5.2,24234,172.16.1.2,5103,51694,58005,2086,144960,65728,6,6,4,1460,334062,1,16778208,560000,131884,127540,65700,0,57920,0,3719457787,63
o,1727696205.643699,172.16.5.2,24234,172.16.1.2,5103,51694,58005,2086,144960,65728,6,6,4,1460,333750,1,16778208,560000,131884,124644,65700,0,55024,0,3719457787,63
o,1727696205.643826,172.16.5.2,24234,172.16.1.2,5103,51694,58005,2086,144960,65728,6,6,4,1460,333750,1,16778208,560000,131884,124644,65700,0,56472,0,3719457787,63
i,1727696205.644021,172.16.5.2,24234,172.16.1.2,5103,51694,58005,2086,144960,65728,6,6,4,1460,333750,1,16778208,560000,131884,124644,65700,0,57920,0,3719457787,63
o,1727696205.644044,172.16.5.2,24234,172.16.1.2,5103,51694,58005,2086,144960,65728,6,6,4,1460,333437,1,16778208,550000,131884,121748,65700,0,55024,0,3719457787,63
i,1727696205.645217,172.16.5.2,24234,172.16.1.2,5103,51694,58005,2086,144960,65728,6,6,4,1460,333437,1,16778208,550000,131884,131884,65700,0,57920,0,3719457787,63
o,1727696205.645241,172.16.5.2,24234,172.16.1.2,5103,51694,58005,2086,144960,65728,6,6,4,1460,333125,1,16778208,550000,131884,128988,65700,0,55024,0,3719457787,63
i,1727696205.645426,172.16.5.2,24234,172.16.1.2,5103,51694,58005,2086,144960,65728,6,6,4,1460,333125,1,16778208,550000,131884,128988,65700,0,57920,0,3719457787,63
o,1727696205.645466,172.16.5.2,24234,172.16.1.2,5103,51694,59465,2086,146432,65728,6,6,4,1460,332812,1,16778208,550000,131884,126092,65700,0,55024,0,3719457787,63
i,1727696205.645666,172.16.5.2,24234,172.16.1.2,5103,51694,59465,2086,146432,65728,6,6,4,1460,332812,1,16778208,550000,131884,126092,65700,0,59368,0,3719457787,63
o,1727696205.645691,172.16.5.2,24234,172.16.1.2,5103,51694,59465,2086,143552,65728,6,6,4,1460,332500,1,16778208,550000,131884,123196,65700,0,56472,0,3719457787,63
i,1727696205.648555,172.16.5.2,24234,172.16.1.2,5103,51694,59465,2086,143552,65728,6,6,4,1460,332500,1,16778208,550000,131884,131884,65700,0,59368,0,3719457787,63
o,1727696205.649120,172.16.5.2,24234,172.16.1.2,5103,51694,59465,2086,147840,65728,6,6,4,1460,329687,1,16778208,560000,131884,130436,65700,0,57920,0,3719457787,63
i,1727696205.978091,172.16.5.2,24234,172.16.1.2,5103,51694,59465,2086,147840,65728,6,6,4,1460,329687,1,16778208,560000,131884,130436,65700,0,59368,0,3719457787,63
o,1727696205.978237,172.16.5.2,24234,172.16.1.2,5103,51694,59465,2086,144960,65728,6,6,4,1460,332500,1,16778208,580000,131884,127540,65700,0,56472,0,3719457787,63
i,1727696205.978656,172.16.5.2,24234,172.16.1.2,5103,51694,59465,2086,144960,65728,6,6,4,1460,332500,1,16778208,580000,131884,127540,65700,0,59368,0,3719457787,63
o,1727696205.978744,172.16.5.2,24234,172.16.1.2,5103,51694,59465,2086,144960,65728,6,6,4,1460,334687,1,16778208,590000,131884,124644,65700,0,56472,0,3719457787,63
i,1727696205.979122,172.16.5.2,24234,172.16.1.2,5103,51694,59465,2086,144960,65728,6,6,4,1460,334687,1,16778208,590000,131884,124644,65700,0,59368,0,3719457787,63
