enable_time_secs=1727695332	enable_time_usecs=896163	siftrver=1.3.0	sysname=FreeBSD	sysver=1401000	ipmode=4
o,1727695332.897002,10.0.2.15,22,10.0.2.2,49946,1073725440,17746,1026,65535,65700,0,0,4,1460,312,0,16777220,230000,33580,172,65700,0,0,0,858580538,63
o,1727695332.898321,10.0.2.15,22,10.0.2.2,49946,1073725440,17746,1026,65535,65700,0,0,4,1460,312,0,16777220,230000,33580,244,65700,0,172,0,858580538,63
i,1727695332.898462,10.0.2.15,22,10.0.2.2,49946,1073725440,17746,1026,65535,65700,0,0,4,1460,312,0,16777220,230000,33580,244,65700,0,244,0,858580538,63
i,1727695332.899185,10.0.2.15,22,10.0.2.2,49946,1073725440,17918,1026,65535,65700,0,0,4,1460,312,0,4,230000,33580,72,65700,0,72,0,858580538,63
i,1727695332.899209,10.0.2.15,22,10.0.2.2,49946,1073725440,17990,1026,65535,65700,0,0,4,1460,312,0,4,230000,33580,0,65700,0,0,0,858580538,63
i,1727695332.899229,10.0.2.15,22,10.0.2.2,49946,1073725440,17990,1026,65535,65700,0,0,4,1460,312,0,4,230000,33580,0,65700,96,0,0,858580538,63
o,1727695332.899250,10.0.2.15,22,10.0.2.2,49946,1073725440,17990,1026,65535,65604,0,0,5,1460,312,0,5,230000,33580,0,65700,96,0,0,858580538,63
o,1727695332.899912,10.0.2.15,22,10.0.2.2,49946,1073725440,17990,1026,65535,65604,0,0,8,1460,312,0,4,230000,33580,0,65700,0,0,0,858580538,63
i,1727695332.900531,10.0.2.15,22,10.0.2.2,49946,1073725440,17990,1026,65535,65604,0,0,8,1460,312,0,67108884,230000,33580,0,65700,0,1,0,858580538,63
i,1727695336.123818,10.0.2.15,22,10.0.2.2,49952,1073725440,14600,0,65535,65700,0,0,4,1460,312,0,16777216,260000,33580,0,65700,0,0,0,2834149230,63
o,1727695336.133833,10.0.2.15,22,10.0.2.2,49952,1073725440,14600,1026,65535,65700,0,0,4,1460,312,0,16777216,260000,33580,38,65700,42,0,0,2834149230,63
i,1727695336.134511,10.0.2.15,22,10.0.2.2,49952,1073725440,14600,1026,65535,65700,0,0,4,1460,312,0,16777216,260000,33580,38,65700,0,38,0,2834149230,63
i,1727695336.134999,10.0.2.15,22,10.0.2.2,49952,1073725440,14638,1026,65535,65700,0,0,4,1460,312,0,0,230000,33580,0,65700,0,0,0,2834149230,63
i,1727695336.135017,10.0.2.15,22,10.0.2.2,49952,1073725440,14638,1026,65535,65700,0,0,4,1460,312,0,0,230000,33580,0,65700,1460,0,0,2834149230,63
o,1727695336.135035,10.0.2.15,22,10.0.2.2,49952,1073725440,14638,1026,65535,65700,0,0,4,1460,312,0,1,230000,33580,0,65700,1536,0,0,2834149230,63
o,1727695336.136310,10.0.2.15,22,10.0.2.2,49952,1073725440,14638,1026,65535,65700,0,0,4,1460,312,0,16777216,230000,33580,1120,65700,1536,0,0,2834149230,63
i,1727695336.137237,10.0.2.15,22,10.0.2.2,49952,1073725440,14638,1026,65535,65700,0,0,4,1460,312,0,16777216,230000,33580,1120,65700,0,1120,0,2834149230,63
i,1727695336.138338,10.0.2.15,22,10.0.2.2,49952,1073725440,15758,1026,65535,65700,0,0,4,1460,312,0,0,230000,33580,0,65700,0,0,0,2834149230,63
o,1727695336.141445,10.0.2.15,22,10.0.2.2,49952,1073725440,15758,1026,65535,65700,0,0,4,1460,312,0,16777216,230000,33580,492,65700,0,0,0,2834149230,63
i,1727695336.141905,10.0.2.15,22,10.0.2.2,49952,1073725440,15758,1026,65535,65700,0,0,4,1460,312,0,16777216,230000,33580,492,65700,0,492,0,2834149230,63
i,1727695336.146692,10.0.2.15,22,10.0.2.2,49952,1073725440,16250,1026,65535,65700,0,0,4,1460,312,0,0,240000,33580,0,65700,0,0,0,2834149230,63
i,1727695336.146709,10.0.2.15,22,10.0.2.2,49952,1073725440,16250,1026,65535,65700,0,0,4,1460,312,0,0,240000,33580,0,65700,16,0,0,2834149230,63
o,1727695336.146724,10.0.2.15,22,10.0.2.2,49952,1073725440,16250,1026,65535,65700,0,0,4,1460,312,0,1,240000,33580,0,65700,60,0,0,2834149230,63
o,1727695336.146983,10.0.2.15,22,10.0.2.2,49952,1073725440,16250,1026,65535,65700,0,0,4,1460,312,0,16777216,240000,33580,44,65700,0,0,0,2834149230,63
i,1727695336.147708,10.0.2.15,22,10.0.2.2,49952,1073725440,16250,1026,65535,65700,0,0,4,1460,312,0,16777216,240000,33580,44,65700,0,44,0,2834149230,63
i,1727695336.147728,10.0.2.15,22,10.0.2.2,49952,1073725440,16294,1026,65535,65700,0,0,4,1460,312,0,0,240000,33580,0,65700,0,0,0,2834149230,63
o,1727695336.148970,10.0.2.15,22,10.0.2.2,49952,1073725440,16294,1026,65535,65700,0,0,4,1460,312,0,16777216,240000,33580,68,65700,0,0,0,2834149230,63
i,1727695336.149586,10.0.2.15,22,10.0.2.2,49952,1073725440,16294,1026,65535,65700,0,0,4,1460,312,0,16777216,240000,33580,68,65700,0,68,0,2834149230,63
i,1727695336.149606,10.0.2.15,22,10.0.2.2,49952,1073725440,16362,1026,65535,65700,0,0,4,1460,312,0,0,240000,33580,0,65700,0,0,0,2834149230,63
o,1727695336.151445,10.0.2.15,22,10.0.2.2,49952,1073725440,16362,1026,65535,65700,0,0,4,1460,312,0,16777216,240000,33580,332,65700,0,0,0,2834149230,63
i,1727695336.152385,10.0.2.15,22,10.0.2.2,49952,1073725440,16362,1026,65535,65700,0,0,4,1460,312,0,16777216,240000,33580,332,65700,0,332,0,2834149230,63
i,1727695336.154309,10.0.2.15,22,10.0.2.2,49952,1073725440,16694,1026,65535,65700,0,0,4,1460,312,0,0,240000,33580,0,65700,0,0,0,2834149230,63
o,1727695336.171030,10.0.2.15,22,10.0.2.2,49952,1073725440,16694,1026,65535,65700,0,0,4,1460,312,0,16777216,240000,33580,28,65700,0,0,0,2834149230,63
i,1727695336.171816,10.0.2.15,22,10.0.2.2,49952,1073725440,16694,1026,65535,65700,0,0,4,1460,312,0,16777216,240000,33580,28,65700,0,28,0,2834149230,63
i,1727695336.171851,10.0.2.15,22,10.0.2.2,49952,1073725440,16722,1026,65535,65700,0,0,4,1460,312,0,0,240000,33580,0,65700,0,0,0,2834149230,63
o,1727695336.173376,10.0.2.15,22,10.0.2.2,49952,1073725440,16722,1026,65535,65700,0,0,4,1460,312,0,16777216,240000,33580,768,65700,112,0,0,2834149230,63
i,1727695336.174267,10.0.2.15,22,10.0.2.2,49952,1073725440,16722,1026,65535,65700,0,0,4,1460,312,0,16777216,240000,33580,908,65700,112,768,0,2834149230,63
o,1727695336.174289,10.0.2.15,22,10.0.2.2,49952,1073725440,17490,1026,65535,65700,0,0,4,1460,312,0,16777216,240000,33580,140,65700,112,0,0,2834149230,63
i,1727695336.174711,10.0.2.15,22,10.0.2.2,49952,1073725440,17490,1026,65535,65700,0,0,4,1460,312,0,16777216,240000,33580,140,65700,112,140,0,2834149230,63
o,1727695336.175718,10.0.2.15,22,10.0.2.2,49952,1073725440,17630,1026,65535,65700,0,0,4,1460,312,0,16777216,240000,33580,44,65700,0,0,0,2834149230,63
i,1727695336.176315,10.0.2.15,22,10.0.2.2,49952,1073725440,17630,1026,65535,65700,0,0,4,1460,312,0,16777216,240000,33580,44,65700,0,44,0,2834149230,63
i,1727695336.176335,10.0.2.15,22,10.0.2.2,49952,1073725440,17674,1026,65535,65700,0,0,4,1460,312,0,0,240000,33580,0,65700,0,0,0,2834149230,63
o,1727695336.176966,10.0.2.15,22,10.0.2.2,49952,1073725440,17674,1026,65535,65700,0,0,4,1460,312,0,16777220,240000,33580,72,65700,0,0,0,2834149230,63
i,1727695336.177441,10.0.2.15,22,10.0.2.2,49952,1073725440,17674,1026,65535,65700,0,0,4,1460,312,0,16777220,240000,33580,72,65700,0,72,0,2834149230,63
o,1727695336.180006,10.0.2.15,22,10.0.2.2,49952,1073725440,17746,1026,65535,65700,0,0,4,1460,312,0,16777220,240000,33580,104,65700,0,0,0,2834149230,63
i,1727695336.180818,10.0.2.15,22,10.0.2.2,49952,1073725440,17746,1026,65535,65700,0,0,4,1460,312,0,16777220,240000,33580,104,65700,0,104,0,2834149230,63
o,1727695336.181401,10.0.2.15,22,10.0.2.2,49952,1073725440,17850,1026,65535,65700,0,0,4,1460,312,0,16777220,230000,33580,72,65700,0,0,0,2834149230,63
i,1727695336.182483,10.0.2.15,22,10.0.2.2,49952,1073725440,17850,1026,65535,65700,0,0,4,1460,312,0,16777220,230000,33580,72,65700,0,72,0,2834149230,63
i,1727695336.182540,10.0.2.15,22,10.0.2.2,49952,1073725440,17922,1026,65535,65700,0,0,4,1460,312,0,4,230000,33580,0,65700,0,0,0,2834149230,63
i,1727695336.182623,10.0.2.15,22,10.0.2.2,49952,1073725440,17922,1026,65535,65700,0,0,4,1460,312,0,4,230000,33580,0,65700,96,0,0,2834149230,63
o,1727695336.182644,10.0.2.15,22,10.0.2.2,49952,1073725440,17922,1026,65535,65604,0,0,5,1460,312,0,5,230000,33580,0,65700,96,0,0,2834149230,63
o,1727695336.193529,10.0.2.15,22,10.0.2.2,49952,1073725440,17922,1026,65535,65604,0,0,8,1460,312,0,4,230000,33580,0,65700,0,0,0,2834149230,63
i,1727695336.194808,10.0.2.15,22,10.0.2.2,49952,1073725440,17922,1026,65535,65604,0,0,8,1460,312,0,67108884,230000,33580,0,65700,0,1,0,2834149230,63
i,1727695337.275921,10.0.2.15,22,10.0.2.2,49970,1073725440,14600,0,65535,65700,0,0,4,1460,312,0,16777216,260000,33580,0,65700,0,0,0,303583487,63
o,1727695337.291745,10.0.2.15,22,10.0.2.2,49970,1073725440,14600,1026,65535,65700,0,0,4,1460,312,0,16777216,260000,33580,38,65700,42,0,0,303583487,63
i,1727695337.292238,10.0.2.15,22,10.0.2.2,49970,1073725440,14600,1026,65535,65700,0,0,4,1460,312,0,16777216,260000,33580,38,65700,0,38,0,303583487,63
i,1727695337.292850,10.0.2.15,22,10.0.2.2,49970,1073725440,14638,1026,65535,65700,0,0,4,1460,312,0,0,230000,33580,0,65700,0,0,0,303583487,63
i,1727695337.292870,10.0.2.15,22,10.0.2.2,49970,1073725440,14638,1026,65535,65700,0,0,4,1460,312,0,0,230000,33580,0,65700,1460,0,0,303583487,63
o,1727695337.292889,10.0.2.15,22,10.0.2.2,49970,1073725440,14638,1026,65535,65700,0,0,4,1460,312,0,1,230000,33580,0,65700,1536,0,0,303583487,63
o,1727695337.294117,10.0.2.15,22,10.0.2.2,49970,1073725440,14638,1026,65535,65700,0,0,4,1460,312,0,16777216,230000,33580,1120,65700,1536,0,0,303583487,63
i,1727695337.294370,10.0.2.15,22,10.0.2.2,49970,1073725440,14638,1026,65535,65700,0,0,4,1460,312,0,16777216,230000,33580,1120,65700,1536,1120,0,303583487,63
i,1727695337.296086,10.0.2.15,22,10.0.2.2,49970,1073725440,15758,1026,65535,65700,0,0,4,1460,312,0,0,230000,33580,0,65700,0,0,0,303583487,63
o,1727695337.300973,10.0.2.15,22,10.0.2.2,49970,1073725440,15758,1026,65535,65700,0,0,4,1460,312,0,16777216,230000,33580,492,65700,0,0,0,303583487,63
i,1727695337.302069,10.0.2.15,22,10.0.2.2,49970,1073725440,15758,1026,65535,65700,0,0,4,1460,312,0,16777216,230000,33580,492,65700,0,492,0,303583487,63
i,1727695337.307000,10.0.2.15,22,10.0.2.2,49970,1073725440,16250,1026,65535,65700,0,0,4,1460,312,0,0,240000,33580,0,65700,0,0,0,303583487,63
i,1727695337.307024,10.0.2.15,22,10.0.2.2,49970,1073725440,16250,1026,65535,65700,0,0,4,1460,312,0,0,240000,33580,0,65700,16,0,0,303583487,63
o,1727695337.307045,10.0.2.15,22,10.0.2.2,49970,1073725440,16250,1026,65535,65700,0,0,4,1460,312,0,1,240000,33580,0,65700,60,0,0,303583487,63
o,1727695337.307333,10.0.2.15,22,10.0.2.2,49970,1073725440,16250,1026,65535,65700,0,0,4,1460,312,0,16777216,240000,33580,44,65700,0,0,0,303583487,63
i,1727695337.307866,10.0.2.15,22,10.0.2.2,49970,1073725440,16250,1026,65535,65700,0,0,4,1460,312,0,16777216,240000,33580,44,65700,0,44,0,303583487,63
i,1727695337.307888,10.0.2.15,22,10.0.2.2,49970,1073725440,16294,1026,65535,65700,0,0,4,1460,312,0,0,240000,33580,0,65700,0,0,0,303583487,63
o,1727695337.309356,10.0.2.15,22,10.0.2.2,49970,1073725440,16294,1026,65535,65700,0,0,4,1460,312,0,16777216,240000,33580,68,65700,0,0,0,303583487,63
i,1727695337.309922,10.0.2.15,22,10.0.2.2,49970,1073725440,16294,1026,65535,65700,0,0,4,1460,312,0,16777216,240000,33580,68,65700,0,68,0,303583487,63
i,1727695337.309944,10.0.2.15,22,10.0.2.2,49970,1073725440,16362,1026,65535,65700,0,0,4,1460,312,0,0,240000,33580,0,65700,0,0,0,303583487,63
o,1727695337.311828,10.0.2.15,22,10.0.2.2,49970,1073725440,16362,1026,65535,65700,0,0,4,1460,312,0,16777216,240000,33580,332,65700,0,0,0,303583487,63
i,1727695337.312792,10.0.2.15,22,10.0.2.2,49970,1073725440,16362,1026,65535,65700,0,0,4,1460,312,0,16777216,240000,33580,332,65700,0,332,0,303583487,63
i,1727695337.314346,10.0.2.15,22,10.0.2.2,49970,1073725440,16694,1026,65535,65700,0,0,4,1460,312,0,0,240000,33580,0,65700,0,0,0,303583487,63
o,1727695337.331924,10.0.2.15,22,10.0.2.2,49970,1073725440,16694,1026,65535,65700,0,0,4,1460,312,0,16777216,240000,33580,28,65700,0,0,0,303583487,63
i,1727695337.332547,10.0.2.15,22,10.0.2.2,49970,1073725440,16694,1026,65535,65700,0,0,4,1460,312,0,16777216,240000,33580,28,65700,0,28,0,303583487,63
i,1727695337.332588,10.0.2.15,22,10.0.2.2,49970,1073725440,16722,1026,65535,65700,0,0,4,1460,312,0,0,240000,33580,0,65700,0,0,0,303583487,63
o,1727695337.335112,10.0.2.15,22,10.0.2.2,49970,1073725440,16722,1026,65535,65700,0,0,4,1460,312,0,16777216,240000,33580,768,65700,112,0,0,303583487,63
i,1727695337.336314,10.0.2.15,22,10.0.2.2,49970,1073725440,16722,1026,65535,65700,0,0,4,1460,312,0,16777216,240000,33580,908,65700,112,768,0,303583487,63
o,1727695337.336344,10.0.2.15,22,10.0.2.2,49970,1073725440,17490,1026,65535,65700,0,0,4,1460,312,0,16777216,240000,33580,140,65700,112,0,0,303583487,63
i,1727695337.336550,10.0.2.15,22,10.0.2.2,49970,1073725440,17490,1026,65535,65700,0,0,4,1460,312,0,16777216,240000,33580,140,65700,112,140,0,303583487,63
o,1727695337.337603,10.0.2.15,22,10.0.2.2,49970,1073725440,17630,1026,65535,65700,0,0,4,1460,312,0,16777216,240000,33580,44,65700,0,0,0,303583487,63
i,1727695337.338370,10.0.2.15,22,10.0.2.2,49970,1073725440,17630,1026,65535,65700,0,0,4,1460,312,0,16777216,240000,33580,44,65700,0,44,0,303583487,63
i,1727695337.338393,10.0.2.15,22,10.0.2.2,49970,1073725440,17674,1026,65535,65700,0,0,4,1460,312,0,0,240000,33580,0,65700,0,0,0,303583487,63
o,1727695337.339279,10.0.2.15,22,10.0.2.2,49970,1073725440,17674,1026,65535,65700,0,0,4,1460,312,0,16777220,240000,33580,72,65700,0,0,0,303583487,63
i,1727695337.339848,10.0.2.15,22,10.0.2.2,49970,1073725440,17674,1026,65535,65700,0,0,4,1460,312,0,16777220,240000,33580,72,65700,0,72,0,303583487,63
o,1727695337.445307,172.16.5.2,10721,172.16.1.2,5103,62250,14480,2082,65535,65700,6,6,4,1460,230000,1,16778209,770000,33580,0,65700,0,0,0,1890497859,63
o,1727695337.445457,172.16.5.2,10721,172.16.1.2,5103,62250,14480,2082,65535,65700,6,6,4,1460,230000,1,16778212,770000,33580,37,65700,0,0,0,1890497859,63
i,1727695337.550078,172.16.5.2,10721,172.16.1.2,5103,62250,14480,2082,65535,65700,6,6,4,1460,230000,1,16778212,770000,33580,37,65700,0,37,0,1890497859,63
o,1727695337.550450,172.16.5.2,10721,172.16.1.2,5103,62250,14517,3106,65728,65728,6,6,4,1460,213750,1,16778212,800000,33580,4,65700,0,0,0,1890497859,63
o,1727695337.550595,172.16.5.2,10721,172.16.1.2,5103,62250,14517,3106,65728,65728,6,6,4,1460,213750,1,16778212,800000,33580,130,65700,0,4,0,1890497859,63
i,1727695337.649583,172.16.5.2,10721,172.16.1.2,5103,62250,14517,3106,65728,65728,6,6,4,1460,213750,1,16778212,800000,33580,130,65700,0,130,0,1890497859,63
i,1727695337.649625,172.16.5.2,10721,172.16.1.2,5103,62250,14647,3106,65600,65728,6,6,4,1460,198437,1,996,810000,33580,0,65700,0,0,0,1890497859,63
o,1727695337.697653,172.16.5.2,10721,172.16.1.2,5103,62250,14647,3106,65728,65728,6,6,4,1460,198437,1,997,810000,33580,0,65700,0,0,0,1890497859,63
o,1727695337.746481,172.16.5.2,60487,172.16.1.2,5103,62250,14480,2082,65535,65700,6,6,4,1460,230000,1,16778209,770000,33580,0,65700,0,0,0,4196979676,63
o,1727695337.746703,172.16.5.2,60487,172.16.1.2,5103,62250,14480,2082,65535,65700,6,6,4,1460,230000,1,16778208,770000,33580,37,65700,0,0,0,4196979676,63
i,1727695337.829794,172.16.5.2,10721,172.16.1.2,5103,62250,14647,3106,65728,65728,6,6,4,1460,198437,1,996,810000,33580,0,65700,0,0,0,1890497859,63
i,1727695337.830574,172.16.5.2,10721,172.16.1.2,5103,62250,14647,3106,65728,65728,6,6,4,1460,198437,1,996,810000,33580,0,65700,0,0,0,1890497859,63
o,1727695337.830597,172.16.5.2,10721,172.16.1.2,5103,62250,14647,3106,65728,65728,6,6,4,1460,198437,1,997,810000,33580,0,65700,1,0,0,1890497859,63
o,1727695337.831224,172.16.5.2,60487,172.16.1.2,5103,62250,14480,2086,65535,65700,6,6,4,1460,230000,1,16778208,770000,33580,33580,65700,0,37,0,4196979676,63
i,1727695337.849091,172.16.5.2,60487,172.16.1.2,5103,62250,14480,2086,65535,65700,6,6,4,1460,230000,1,16778208,770000,33580,33580,65700,0,13069,0,4196979676,63
o,1727695337.849342,172.16.5.2,60487,172.16.1.2,5103,62250,14517,2086,65728,65728,6,6,4,1460,213750,1,16778208,800000,33580,33543,65700,0,13032,0,4196979676,63
i,1727695337.898140,172.16.5.2,60487,172.16.1.2,5103,62250,14517,2086,65728,65728,6,6,4,1460,213750,1,16778208,800000,33580,33543,65700,0,14480,0,4196979676,63
o,1727695337.898490,172.16.5.2,60487,172.16.1.2,5103,62250,17413,2086,62848,65728,6,6,4,1460,194687,1,16778208,840000,33580,30647,65700,0,11584,0,4196979676,63
i,1727695337.917808,172.16.5.2,60487,172.16.1.2,5103,62250,17413,2086,62848,65728,6,6,4,1460,194687,1,16778208,840000,41772,41772,65700,0,17376,0,4196979676,63
o,1727695337.917847,172.16.5.2,60487,172.16.1.2,5103,62250,20309,2086,64256,65728,6,6,4,1460,180625,1,16778208,830000,41772,38876,65700,0,14480,0,4196979676,63
i,1727695337.920155,172.16.5.2,60487,172.16.1.2,5103,62250,20309,2086,64256,65728,6,6,4,1460,180625,1,16778208,830000,49964,49964,65700,0,20272,0,4196979676,63
o,1727695337.920184,172.16.5.2,60487,172.16.1.2,5103,62250,23205,2086,61376,65728,6,6,4,1460,168125,1,16778208,800000,49964,47068,65700,0,17376,0,4196979676,63
i,1727695337.920564,172.16.5.2,60487,172.16.1.2,5103,62250,23205,2086,61376,65728,6,6,4,1460,168125,1,16778208,800000,49964,47068,65700,0,23168,0,4196979676,63
o,1727695337.920586,172.16.5.2,60487,172.16.1.2,5103,62250,26101,2086,62848,65728,6,6,4,1460,158437,1,16778208,760000,58156,44172,65700,0,20272,0,4196979676,63
i,1727695337.920773,172.16.5.2,60487,172.16.1.2,5103,62250,26101,2086,62848,65728,6,6,4,1460,158437,1,16778208,760000,58156,44172,65700,0,26064,0,4196979676,63
o,1727695337.920793,172.16.5.2,60487,172.16.1.2,5103,62250,28997,2086,64256,65728,6,6,4,1460,150000,1,16778208,720000,58156,41276,65700,0,23168,0,4196979676,63
o,1727695337.920967,172.16.5.2,60487,172.16.1.2,5103,62250,28997,2086,64256,65728,6,6,4,1460,150000,1,16778208,720000,58156,41276,65700,0,24616,0,4196979676,63
i,1727695338.048199,172.16.5.2,60487,172.16.1.2,5103,62250,28997,2086,64256,65728,6,6,4,1460,150000,1,16778208,720000,58156,58156,65700,0,28960,0,4196979676,63
o,1727695338.048262,172.16.5.2,60487,172.16.1.2,5103,62250,31893,2086,64256,65728,6,6,4,1460,148750,1,16778208,640000,66348,55260,65700,0,26064,0,4196979676,63
i,1727695338.048527,172.16.5.2,60487,172.16.1.2,5103,62250,31893,2086,64256,65728,6,6,4,1460,148750,1,16778208,640000,66348,55260,65700,0,31856,0,4196979676,63
o,1727695338.048557,172.16.5.2,60487,172.16.1.2,5103,62250,34789,2086,64256,65728,6,6,4,1460,147812,1,16778208,570000,66348,52364,65700,0,28960,0,4196979676,63
i,1727695338.050240,172.16.5.2,60487,172.16.1.2,5103,62250,34789,2086,64256,65728,6,6,4,1460,147812,1,16778208,570000,74540,74540,65700,0,34752,0,4196979676,63
o,1727695338.050265,172.16.5.2,60487,172.16.1.2,5103,62250,37685,2086,64256,65728,6,6,4,1460,145625,1,16778208,530000,74540,71644,65700,0,31856,0,4196979676,63
i,1727695338.095865,172.16.5.2,60487,172.16.1.2,5103,62250,37685,2086,64256,65728,6,6,4,1460,145625,1,16778208,530000,82732,82732,65700,0,37648,0,4196979676,63
o,1727695338.095929,172.16.5.2,60487,172.16.1.2,5103,62250,40581,2086,64256,65728,6,6,4,1460,150000,1,16778208,520000,82732,79836,65700,0,34752,0,4196979676,63
i,1727695338.098673,172.16.5.2,60487,172.16.1.2,5103,62250,40581,2086,64256,65728,6,6,4,1460,150000,1,16778208,520000,82732,82732,65700,0,40544,0,4196979676,63
o,1727695338.098717,172.16.5.2,60487,172.16.1.2,5103,62250,43477,2086,64256,65728,6,6,4,1460,153750,1,16778208,510000,82732,79836,65700,0,37648,0,4196979676,63
i,1727695338.098890,172.16.5.2,60487,172.16.1.2,5103,62250,43477,2086,64256,65728,6,6,4,1460,153750,1,16778208,510000,82732,79836,65700,0,43440,0,4196979676,63
o,1727695338.098909,172.16.5.2,60487,172.16.1.2,5103,62250,46373,2086,62848,65728,6,6,4,1460,157187,1,16778208,500000,82732,76940,65700,0,40544,0,4196979676,63
i,1727695338.099090,172.16.5.2,60487,172.16.1.2,5103,62250,46373,2086,62848,65728,6,6,4,1460,157187,1,16778208,500000,82732,76940,65700,0,46336,0,4196979676,63
o,1727695338.099112,172.16.5.2,60487,172.16.1.2,5103,62250,49269,2086,62848,65728,6,6,4,1460,159062,1,16778208,480000,82732,74044,65700,0,43440,0,4196979676,63
i,1727695338.099283,172.16.5.2,60487,172.16.1.2,5103,62250,49269,2086,62848,65728,6,6,4,1460,159062,1,16778208,480000,82732,74044,65700,0,49232,0,4196979676,63
o,1727695338.099303,172.16.5.2,60487,172.16.1.2,5103,62250,52165,2086,62848,65728,6,6,4,1460,160625,1,16778208,470000,82732,71148,65700,0,46336,0,4196979676,63
i,1727695338.102303,172.16.5.2,60487,172.16.1.2,5103,62250,52165,2086,62848,65728,6,6,4,1460,160625,1,16778208,470000,82732,82732,65700,0,52128,0,4196979676,63
o,1727695338.102420,172.16.5.2,60487,172.16.1.2,5103,62250,55061,2086,62848,65728,6,6,4,1460,163125,1,16778208,460000,82732,79836,65700,0,49232,0,4196979676,63
o,1727695338.102606,172.16.5.2,60487,172.16.1.2,5103,62250,55061,2086,62848,65728,6,6,4,1460,163125,1,16778208,460000,82732,79836,65700,0,50680,0,4196979676,63
i,1727695338.102781,172.16.5.2,60487,172.16.1.2,5103,62250,55061,2086,62848,65728,6,6,4,1460,163125,1,16778208,460000,82732,79836,65700,0,55024,0,4196979676,63
o,1727695338.102803,172.16.5.2,60487,172.16.1.2,5103,62250,57957,2086,62848,65728,6,6,4,1460,165312,1,16778208,460000,82732,76940,65700,0,52128,0,4196979676,63
i,1727695338.342652,172.16.5.2,60487,172.16.1.2,5103,62250,57957,2086,62848,65728,6,6,4,1460,165312,1,16778208,460000,82732,82732,65700,0,57920,0,4196979676,63
o,1727695338.342952,172.16.5.2,60487,172.16.1.2,5103,62250,60853,2086,62848,65728,6,6,4,1460,182187,1,16778208,580000,82732,79836,65700,0,55024,0,4196979676,63
i,1727695338.349069,172.16.5.2,60487,172.16.1.2,5103,62250,60853,2086,62848,65728,6,6,4,1460,182187,1,16778208,580000,82732,82732,65700,0,60816,0,4196979676,63
o,1727695338.349150,172.16.5.2,60487,172.16.1.2,5103,62250,63749,2086,62848,65728,6,6,4,1460,197187,1,16778208,670000,82732,79836,65700,0,57920,0,4196979676,63
i,1727695338.349307,172.16.5.2,60487,172.16.1.2,5103,62250,63749,2086,62848,65728,6,6,4,1460,197187,1,16778208,670000,82732,79836,65700,0,62264,0,4196979676,63
o,1727695338.349326,172.16.5.2,60487,172.16.1.2,5103,62250,63749,2086,64256,65728,6,6,4,1460,210312,1,16778208,720000,82732,76940,65700,0,59368,0,4196979676,63
i,1727695338.351499,172.16.5.2,60487,172.16.1.2,5103,62250,63749,2086,64256,65728,6,6,4,1460,210312,1,16778208,720000,82732,82732,65700,0,63712,0,4196979676,63
o,1727695338.351615,172.16.5.2,60487,172.16.1.2,5103,62250,63749,2086,62848,65728,6,6,4,1460,222812,1,16778208,760000,82732,79836,65700,0,60816,0,4196979676,63
i,1727695338.351818,172.16.5.2,60487,172.16.1.2,5103,62250,63749,2086,62848,65728,6,6,4,1460,222812,1,16778208,760000,82732,79836,65700,0,62264,0,4196979676,63
o,1727695338.351843,172.16.5.2,60487,172.16.1.2,5103,62250,63749,2086,64256,65728,6,6,4,1460,233750,1,16778208,770000,82732,76940,65700,0,59368,0,4196979676,63
i,1727695338.354444,172.16.5.2,60487,172.16.1.2,5103,62250,63749,2086,64256,65728,6,6,4,1460,233750,1,16778208,770000,82732,82732,65700,0,63712,0,4196979676,63
o,1727695338.354466,172.16.5.2,60487,172.16.1.2,5103,62250,63749,2086,65728,65728,6,6,4,1460,243437,1,16778208,770000,82732,81284,65700,0,62264,0,4196979676,63
i,1727695338.357813,172.16.5.2,60487,172.16.1.2,5103,62250,63749,2086,65728,65728,6,6,4,1460,243437,1,16778208,770000,82732,81284,65700,0,63712,0,4196979676,63
o,1727695338.357838,172.16.5.2,60487,172.16.1.2,5103,62250,63749,2086,64256,65728,6,6,4,1460,251875,1,16778208,770000,82732,78388,65700,0,60816,0,4196979676,63
i,1727695338.358741,172.16.5.2,60487,172.16.1.2,5103,62250,63749,2086,64256,65728,6,6,4,1460,251875,1,16778208,770000,82732,82732,65700,0,63712,0,4196979676,63
o,1727695338.358767,172.16.5.2,60487,172.16.1.2,5103,62250,63749,2086,62848,65728,6,6,4,1460,253125,1,16778208,700000,82732,79836,65700,0,60816,0,4196979676,63
i,1727695338.359020,172.16.5.2,60487,172.16.1.2,5103,62250,63749,2086,62848,65728,6,6,4,1460,253125,1,16778208,700000,82732,79836,65700,0,62264,0,4196979676,63
o,1727695338.359042,172.16.5.2,60487,172.16.1.2,5103,62250,63749,2086,62848,65728,6,6,4,1460,254062,1,16778208,640000,82732,76940,65700,0,59368,0,4196979676,63
i,1727695338.359253,172.16.5.2,60487,172.16.1.2,5103,62250,63749,2086,62848,65728,6,6,4,1460,254062,1,16778208,640000,82732,76940,65700,0,62264,0,4196979676,63
o,1727695338.359275,172.16.5.2,60487,172.16.1.2,5103,62250,63749,2086,62848,65728,6,6,4,1460,255000,1,16778208,610000,82732,74044,65700,0,59368,0,4196979676,63
i,1727695338.361147,172.16.5.2,60487,172.16.1.2,5103,62250,63749,2086,62848,65728,6,6,4,1460,255000,1,16778208,610000,82732,82732,65700,0,62264,0,4196979676,63
o,1727695338.361173,172.16.5.2,60487,172.16.1.2,5103,62250,63749,2086,62848,65728,6,6,4,1460,256875,1,16778208,580000,82732,79836,65700,0,59368,0,4196979676,63
i,1727695338.361351,172.16.5.2,60487,172.16.1.2,5103,62250,63749,2086,62848,65728,6,6,4,1460,256875,1,16778208,580000,82732,79836,65700,0,62264,0,4196979676,63
i,1727695338.361428,172.16.5.2,60487,172.16.1.2,5103,62250,63749,2086,59968,65728,6,6,4,1460,258750,1,16778208,570000,82732,76940,65700,0,59368,0,4196979676,63
o,1727695338.361450,172.16.5.2,60487,172.16.1.2,5103,62250,63749,2086,64256,65728,6,6,4,1460,260312,1,16778208,560000,82732,74044,65700,0,56472,0,4196979676,63
i,1727695338.362878,172.16.5.2,60487,172.16.1.2,5103,62250,63749,2086,64256,65728,6,6,4,1460,260312,1,16778208,560000,82732,82732,65700,0,63712,0,4196979676,63
i,1727695338.362982,172.16.5.2,60487,172.16.1.2,5103,62250,63749,2086,61376,65728,6,6,4,1460,261562,1,16778208,540000,82732,79836,65700,0,60816,0,4196979676,63
o,1727695338.363002,172.16.5.2,60487,172.16.1.2,5103,62250,63749,2086,62848,65728,6,6,4,1460,262812,1,16778208,530000,82732,76940,65700,0,57920,0,4196979676,63
i,1727695338.363158,172.16.5.2,60487,172.16.1.2,5103,62250,63749,2086,62848,65728,6,6,4,1460,262812,1,16778208,530000,82732,76940,65700,0,62264,0,4196979676,63
o,1727695338.363189,172.16.5.2,60487,172.16.1.2,5103,62250,63749,2086,64256,65728,6,6,4,1460,263750,1,16778208,520000,82732,74044,65700,0,59368,0,4196979676,63
i,1727695338.363372,172.16.5.2,60487,172.16.1.2,5103,62250,63749,2086,64256,65728,6,6,4,1460,263750,1,16778208,520000,82732,74044,65700,0,63712,0,4196979676,63
o,1727695338.363390,172.16.5.2,60487,172.16.1.2,5103,62250,63749,2086,62848,65728,6,6,4,1460,264687,1,16778208,520000,82732,71148,65700,0,60816,0,4196979676,63
i,1727695338.363976,172.16.5.2,60487,172.16.1.2,5103,62250,63749,2086,62848,65728,6,6,4,1460,264687,1,16778208,520000,82732,82732,65700,0,62264,0,4196979676,63
o,1727695338.363998,172.16.5.2,60487,172.16.1.2,5103,62250,63749,2086,62848,65728,6,6,4,1460,263125,1,16778208,520000,82732,79836,65700,0,59368,0,4196979676,63
i,1727695338.364214,172.16.5.2,60487,172.16.1.2,5103,62250,63749,2086,62848,65728,6,6,4,1460,263125,1,16778208,520000,82732,79836,65700,0,62264,0,4196979676,63
i,1727695338.364291,172.16.5.2,60487,172.16.1.2,5103,62250,63749,2086,59968,65728,6,6,4,1460,261562,1,16778208,510000,82732,76940,65700,0,59368,0,4196979676,63
o,1727695338.364315,172.16.5.2,60487,172.16.1.2,5103,62250,63749,2086,62848,65728,6,6,4,1460,260312,1,16778208,510000,82732,79836,65700,0,56472,0,4196979676,63
i,1727695338.365741,172.16.5.2,60487,172.16.1.2,5103,62250,63749,2086,62848,65728,6,6,4,1460,260312,1,16778208,510000,82732,82732,65700,0,62264,0,4196979676,63
o,1727695338.365768,172.16.5.2,60487,172.16.1.2,5103,62250,63749,2086,65728,65728,6,6,4,1460,259062,1,16778208,510000,82732,81284,65700,0,60816,0,4196979676,63
i,1727695338.637687,172.16.5.2,60487,172.16.1.2,5103,62250,63749,2086,65728,65728,6,6,4,1460,259062,1,16778208,510000,82732,81284,65700,0,63712,0,4196979676,63
o,1727695338.638105,172.16.5.2,60487,172.16.1.2,5103,62250,63749,2086,95680,65728,6,6,4,1460,263125,1,16778208,530000,90924,78388,65700,0,60816,0,4196979676,63
i,1727695338.639510,172.16.5.2,60487,172.16.1.2,5103,62250,63749,2086,95680,65728,6,6,4,1460,263125,1,16778208,530000,90924,78388,65700,0,63712,0,4196979676,63
o,1727695338.639607,172.16.5.2,60487,172.16.1.2,5103,62250,63749,2086,92800,65728,6,6,4,1460,266562,1,16778208,540000,90924,75492,65700,0,60816,0,4196979676,63
i,1727695338.691212,172.16.5.2,60487,172.16.1.2,5103,62250,63749,2086,92800,65728,6,6,4,1460,266562,1,16778208,540000,123692,123692,65700,0,63712,0,4196979676,63
o,1727695338.692406,172.16.5.2,60487,172.16.1.2,5103,62250,63749,2086,97152,65728,6,6,4,1460,277187,1,16778208,620000,123692,120796,65700,0,60816,0,4196979676,63
i,1727695338.693600,172.16.5.2,60487,172.16.1.2,5103,62250,63749,2086,97152,65728,6,6,4,1460,277187,1,16778208,620000,123692,120796,65700,0,63712,0,4196979676,63
o,1727695338.693764,172.16.5.2,60487,172.16.1.2,5103,62250,63749,2086,97152,65728,6,6,4,1460,286562,1,16778208,670000,123692,117900,65700,0,60816,0,4196979676,63
i,1727695338.697143,172.16.5.2,60487,172.16.1.2,5103,62250,63749,2086,97152,65728,6,6,4,1460,286562,1,16778208,670000,123692,123692,65700,0,63712,0,4196979676,63
o,1727695338.697196,172.16.5.2,60487,172.16.1.2,5103,62250,65209,2086,95680,65728,6,6,4,1460,294687,1,16778208,700000,123692,120796,65700,0,60816,0,4196979676,63
i,1727695338.697447,172.16.5.2,60487,172.16.1.2,5103,62250,65209,2086,95680,65728,6,6,4,1460,294687,1,16778208,700000,123692,120796,65700,0,65160,0,4196979676,63
o,1727695338.697486,172.16.5.2,60487,172.16.1.2,5103,62250,65209,2086,95680,65728,6,6,4,1460,300625,1,16778208,700000,123692,117900,65700,0,62264,0,4196979676,63
i,1727695338.698830,172.16.5.2,60487,172.16.1.2,5103,62250,65209,2086,95680,65728,6,6,4,1460,300625,1,16778208,700000,123692,123692,65700,0,65160,0,4196979676,63
o,1727695338.698853,172.16.5.2,60487,172.16.1.2,5103,62250,65209,2086,97152,65728,6,6,4,1460,305625,1,16778208,700000,123692,120796,65700,0,62264,0,4196979676,63
i,1727695338.698992,172.16.5.2,60487,172.16.1.2,5103,62250,65209,2086,97152,65728,6,6,4,1460,305625,1,16778208,700000,123692,120796,65700,0,65160,0,4196979676,63
o,1727695338.699024,172.16.5.2,60487,172.16.1.2,5103,62250,65209,2086,94272,65728,6,6,4,1460,310000,1,16778208,690000,123692,117900,65700,0,62264,0,4196979676,63
i,1727695338.700625,172.16.5.2,60487,172.16.1.2,5103,62250,65209,2086,94272,65728,6,6,4,1460,310000,1,16778208,690000,123692,123692,65700,0,65160,0,4196979676,63
o,1727695338.700653,172.16.5.2,60487,172.16.1.2,5103,62250,65209,2086,91392,65728,6,6,4,1460,313750,1,16778208,680000,123692,120796,65700,0,62264,0,4196979676,63
i,1727695338.700841,172.16.5.2,60487,172.16.1.2,5103,62250,65209,2086,91392,65728,6,6,4,1460,313750,1,16778208,680000,123692,120796,65700,0,65160,0,4196979676,63
o,1727695338.700864,172.16.5.2,60487,172.16.1.2,5103,62250,65209,2086,97152,65728,6,6,4,1460,317187,1,16778208,670000,123692,117900,65700,0,62264,0,4196979676,63
i,1727695338.701083,172.16.5.2,60487,172.16.1.2,5103,62250,65209,2086,97152,65728,6,6,4,1460,317187,1,16778208,670000,123692,117900,65700,0,65160,0,4196979676,63
o,1727695338.701107,172.16.5.2,60487,172.16.1.2,5103,62250,65209,2086,97152,65728,6,6,4,1460,320312,1,16778208,660000,123692,115004,65700,0,62264,0,4196979676,63
i,1727695338.702309,172.16.5.2,60487,172.16.1.2,5103,62250,65209,2086,97152,65728,6,6,4,1460,320312,1,16778208,660000,123692,123692,65700,0,65160,0,4196979676,63
o,1727695338.702341,172.16.5.2,60487,172.16.1.2,5103,62250,65209,2086,94272,65728,6,6,4,1460,321562,1,16778208,630000,123692,120796,65700,0,62264,0,4196979676,63
i,1727695338.702558,172.16.5.2,60487,172.16.1.2,5103,62250,65209,2086,94272,65728,6,6,4,1460,321562,1,16778208,630000,123692,120796,65700,0,65160,0,4196979676,63
o,1727695338.702588,172.16.5.2,60487,172.16.1.2,5103,62250,65209,2086,91392,65728,6,6,4,1460,322812,1,16778208,620000,123692,117900,65700,0,62264,0,4196979676,63
i,1727695338.719716,172.16.5.2,60487,172.16.1.2,5103,62250,65209,2086,91392,65728,6,6,4,1460,322812,1,16778208,620000,123692,123136,65700,0,65160,0,4196979676,63
o,1727695338.719753,172.16.5.2,60487,172.16.1.2,5103,62250,65209,2086,95680,65728,6,6,4,1460,326250,1,16778208,620000,123692,120240,65700,0,62264,0,4196979676,63
i,1727695338.720094,172.16.5.2,60487,172.16.1.2,5103,62250,65209,2086,95680,65728,6,6,4,1460,326250,1,16778208,620000,123692,120240,65700,0,65160,0,4196979676,63
o,1727695338.720120,172.16.5.2,60487,172.16.1.2,5103,62250,65209,2086,97152,65728,6,6,4,1460,329375,1,16778208,630000,123692,117344,65700,0,62264,0,4196979676,63
i,1727695338.722602,172.16.5.2,60487,172.16.1.2,5103,62250,65209,2086,97152,65728,6,6,4,1460,329375,1,16778208,630000,123692,123692,65700,0,65160,0,4196979676,63
o,1727695338.722602,172.16.5.2,60487,172.16.1.2,5103,62250,65209,2086,144960,65728,6,6,4,1460,332187,1,16778208,630000,131884,120796,65700,0,62264,0,4196979676,63
i,1727695338.724692,172.16.5.2,60487,172.16.1.2,5103,62250,65209,2086,144960,65728,6,6,4,1460,332187,1,16778208,630000,140076,140076,65700,0,65160,0,4196979676,63
o,1727695338.724712,172.16.5.2,60487,172.16.1.2,5103,62250,65209,2086,146432,65728,6,6,4,1460,334687,1,16778208,620000,140076,137180,65700,0,62264,0,4196979676,63
i,1727695338.724862,172.16.5.2,60487,172.16.1.2,5103,62250,65209,2086,146432,65728,6,6,4,1460,334687,1,16778208,620000,140076,137180,65700,0,65160,0,4196979676,63
o,1727695338.724879,172.16.5.2,60487,172.16.1.2,5103,62250,65209,2086,146432,65728,6,6,4,1460,336875,1,16778208,620000,140076,134284,65700,0,62264,0,4196979676,63
o,1727695338.725022,172.16.5.2,60487,172.16.1.2,5103,62250,65209,2086,146432,65728,6,6,4,1460,336875,1,16778208,620000,140076,134284,65700,0,63712,0,4196979676,63
i,1727695338.725193,172.16.5.2,60487,172.16.1.2,5103,62250,65209,2086,146432,65728,6,6,4,1460,336875,1,16778208,620000,140076,134284,65700,0,65160,0,4196979676,63
o,1727695338.725209,172.16.5.2,60487,172.16.1.2,5103,62250,65209,2086,146432,65728,6,6,4,1460,338750,1,16778208,620000,140076,131388,65700,0,62264,0,4196979676,63
i,1727695338.727203,172.16.5.2,60487,172.16.1.2,5103,62250,65209,2086,146432,65728,6,6,4,1460,338750,1,16778208,620000,140076,140076,65700,0,65160,0,4196979676,63
o,1727695338.727223,172.16.5.2,60487,172.16.1.2,5103,62250,65209,2086,146432,65728,6,6,4,1460,340312,1,16778208,610000,140076,137180,65700,0,62264,0,4196979676,63
i,1727695338.728317,172.16.5.2,60487,172.16.1.2,5103,62250,65209,2086,146432,65728,6,6,4,1460,340312,1,16778208,610000,140076,140076,65700,0,65160,0,4196979676,63
o,1727695338.728341,172.16.5.2,60487,172.16.1.2,5103,62250,65209,2086,146432,65728,6,6,4,1460,341562,1,16778208,600000,140076,137180,65700,0,62264,0,4196979676,63
i,1727695338.728499,172.16.5.2,60487,172.16.1.2,5103,62250,65209,2086,146432,65728,6,6,4,1460,341562,1,16778208,600000,140076,137180,65700,0,65160,0,4196979676,63
o,1727695338.728520,172.16.5.2,60487,172.16.1.2,5103,62250,65209,2086,146432,65728,6,6,4,1460,342812,1,16778208,600000,140076,134284,65700,0,62264,0,4196979676,63
i,1727695338.878372,172.16.5.2,60487,172.16.1.2,5103,62250,65209,2086,146432,65728,6,6,4,1460,342812,1,16778208,600000,140076,140076,65700,0,65160,0,4196979676,63
o,1727695338.878714,172.16.5.2,60487,172.16.1.2,5103,62250,65209,2086,144960,65728,6,6,4,1460,330000,1,16778208,680000,140076,137180,65700,0,62264,0,4196979676,63
i,1727695338.879226,172.16.5.2,60487,172.16.1.2,5103,62250,65209,2086,144960,65728,6,6,4,1460,330000,1,16778208,680000,140076,137180,65700,0,65160,0,4196979676,63
o,1727695338.879305,172.16.5.2,60487,172.16.1.2,5103,62250,65209,2086,142080,65728,6,6,4,1460,318750,1,16778208,720000,140076,134284,65700,0,62264,0,4196979676,63
i,1727695339.009535,172.16.5.2,60487,172.16.1.2,5103,62250,65209,2086,142080,65728,6,6,4,1460,318750,1,16778208,720000,140076,140076,65700,0,65160,0,4196979676,63
o,1727695339.009583,172.16.5.2,60487,172.16.1.2,5103,62250,65209,2086,144960,65728,6,6,4,1460,316562,1,16778208,680000,140076,137180,65700,0,62264,0,4196979676,63
i,1727695339.009783,172.16.5.2,60487,172.16.1.2,5103,62250,65209,2086,144960,65728,6,6,4,1460,316562,1,16778208,680000,140076,137180,65700,0,65160,0,4196979676,63
o,1727695339.009821,172.16.5.2,60487,172.16.1.2,5103,62250,65209,2086,142080,65728,6,6,4,1460,314687,1,16778208,650000,140076,134284,65700,0,62264,0,4196979676,63
i,1727695339.010002,172.16.5.2,60487,172.16.1.2,5103,62250,65209,2086,142080,65728,6,6,4,1460,314687,1,16778208,650000,140076,134284,65700,0,65160,0,4196979676,63
o,1727695339.010037,172.16.5.2,60487,172.16.1.2,5103,62250,66669,2086,146432,65728,6,6,4,1460,313125,1,16778208,630000,140076,131388,65700,0,62264,0,4196979676,63
i,1727695339.026149,172.16.5.2,60487,172.16.1.2,5103,62250,66669,2086,146432,65728,6,6,4,1460,313125,1,16778208,630000,148268,148268,65700,0,66608,0,4196979676,63
o,1727695339.026198,172.16.5.2,60487,172.16.1.2,5103,62250,66669,2086,144960,65728,6,6,4,1460,314062,1,16778208,610000,148268,145372,65700,0,63712,0,4196979676,63
i,1727695339.026365,172.16.5.2,60487,172.16.1.2,5103,62250,66669,2086,144960,65728,6,6,4,1460,314062,1,16778208,610000,148268,145372,65700,0,66608,0,4196979676,63
o,1727695339.026384,172.16.5.2,60487,172.16.1.2,5103,62250,66669,2086,144960,65728,6,6,4,1460,315000,1,16778208,590000,148268,142476,65700,0,63712,0,4196979676,63
i,1727695339.026582,172.16.5.2,60487,172.16.1.2,5103,62250,66669,2086,144960,65728,6,6,4,1460,315000,1,16778208,590000,148268,142476,65700,0,66608,0,4196979676,63
o,1727695339.026599,172.16.5.2,60487,172.16.1.2,5103,62250,66669,2086,144960,65728,6,6,4,1460,315625,1,16778208,580000,148268,139580,65700,0,63712,0,4196979676,63
i,1727695339.027873,172.16.5.2,60487,172.16.1.2,5103,62250,66669,2086,144960,65728,6,6,4,1460,315625,1,16778208,580000,148268,148268,65700,0,66608,0,4196979676,63
o,1727695339.027898,172.16.5.2,60487,172.16.1.2,5103,62250,66669,2086,144960,65728,6,6,4,1460,316250,1,16778208,570000,148268,145372,65700,0,63712,0,4196979676,63
i,1727695339.030645,172.16.5.2,60487,172.16.1.2,5103,62250,66669,2086,144960,65728,6,6,4,1460,316250,1,16778208,570000,148268,148268,65700,0,66608,0,4196979676,63
o,1727695339.030670,172.16.5.2,60487,172.16.1.2,5103,62250,66669,2086,144960,65728,6,6,4,1460,318125,1,16778208,570000,148268,145372,65700,0,63712,0,4196979676,63
i,1727695339.032752,172.16.5.2,60487,172.16.1.2,5103,62250,66669,2086,144960,65728,6,6,4,1460,318125,1,16778208,570000,148268,148268,65700,0,66608,0,4196979676,63
o,1727695339.032774,172.16.5.2,60487,172.16.1.2,5103,62250,66669,2086,144960,65728,6,6,4,1460,319687,1,16778208,570000,148268,145372,65700,0,63712,0,4196979676,63
i,1727695339.034497,172.16.5.2,60487,172.16.1.2,5103,62250,66669,2086,144960,65728,6,6,4,1460,319687,1,16778208,570000,148268,148268,65700,0,66608,0,4196979676,63
o,1727695339.034497,172.16.5.2,60487,172.16.1.2,5103,62250,66669,2086,146432,65728,6,6,4,1460,321250,1,16778208,570000,148268,145372,65700,0,63712,0,4196979676,63
i,1727695339.034497,172.16.5.2,60487,172.16.1.2,5103,62250,66669,2086,146432,65728,6,6,4,1460,321250,1,16778208,570000,148268,145372,65700,0,66608,0,4196979676,63
o,1727695339.034497,172.16.5.2,60487,172.16.1.2,5103,62250,66669,2086,144960,65728,6,6,4,1460,322500,1,16778208,570000,148268,142476,65700,0,63712,0,4196979676,63
i,1727695339.035501,172.16.5.2,60487,172.16.1.2,5103,62250,66669,2086,144960,65728,6,6,4,1460,322500,1,16778208,570000,148268,148268,65700,0,66608,0,4196979676,63
o,1727695339.035585,172.16.5.2,60487,172.16.1.2,5103,62250,66669,2086,142080,65728,6,6,4,1460,323437,1,16778208,570000,148268,145372,65700,0,63712,0,4196979676,63
i,1727695339.035810,172.16.5.2,60487,172.16.1.2,5103,62250,66669,2086,142080,65728,6,6,4,1460,323437,1,16778208,570000,148268,145372,65700,0,66608,0,4196979676,63
o,1727695339.035834,172.16.5.2,60487,172.16.1.2,5103,62250,66669,2086,144960,65728,6,6,4,1460,321875,1,16778208,570000,148268,142476,65700,0,63712,0,4196979676,63
i,1727695339.036120,172.16.5.2,60487,172.16.1.2,5103,62250,66669,2086,144960,65728,6,6,4,1460,321875,1,16778208,570000,148268,142476,65700,0,66608,0,4196979676,63
o,1727695339.036146,172.16.5.2,60487,172.16.1.2,5103,62250,66669,2086,144960,65728,6,6,4,1460,320625,1,16778208,560000,148268,139580,65700,0,63712,0,4196979676,63
i,1727695339.036677,172.16.5.2,60487,172.16.1.2,5103,62250,66669,2086,144960,65728,6,6,4,1460,320625,1,16778208,560000,148268,139580,65700,0,66608,0,4196979676,63
o,1727695339.036702,172.16.5.2,60487,172.16.1.2,5103,62250,66669,2086,142080,65728,6,6,4,1460,319375,1,16778208,560000,148268,136684,65700,0,63712,0,4196979676,63
i,1727695339.037672,172.16.5.2,60487,172.16.1.2,5103,62250,66669,2086,142080,65728,6,6,4,1460,319375,1,16778208,560000,148268,148268,65700,0,66608,0,4196979676,63
o,1727695339.037781,172.16.5.2,60487,172.16.1.2,5103,62250,66669,2086,146432,65728,6,6,4,1460,318437,1,16778208,560000,148268,145372,65700,0,63712,0,4196979676,63
o,1727695339.037972,172.16.5.2,60487,172.16.1.2,5103,62250,66669,2086,146432,65728,6,6,4,1460,318437,1,16778208,560000,148268,145372,65700,0,65160,0,4196979676,63
i,1727695339.038479,172.16.5.2,60487,172.16.1.2,5103,62250,66669,2086,146432,65728,6,6,4,1460,318437,1,16778208,560000,148268,145372,65700,0,66608,0,4196979676,63
o,1727695339.038505,172.16.5.2,60487,172.16.1.2,5103,62250,66669,2086,143552,65728,6,6,4,1460,317500,1,16778208,560000,148268,142476,65700,0,63712,0,4196979676,63
i,1727695339.041555,172.16.5.2,60487,172.16.1.2,5103,62250,66669,2086,143552,65728,6,6,4,1460,317500,1,16778208,560000,148268,148268,65700,0,66608,0,4196979676,63
o,1727695339.041591,172.16.5.2,60487,172.16.1.2,5103,62250,66669,2086,140672,65728,6,6,4,1460,317812,1,16778208,550000,148268,145372,65700,0,63712,0,4196979676,63
i,1727695339.041743,172.16.5.2,60487,172.16.1.2,5103,62250,66669,2086,140672,65728,6,6,4,1460,317812,1,16778208,550000,148268,145372,65700,0,66608,0,4196979676,63
o,1727695339.041760,172.16.5.2,60487,172.16.1.2,5103,62250,66669,2086,144960,65728,6,6,4,1460,318125,1,16778208,540000,148268,142476,65700,0,63712,0,4196979676,63
i,1727695339.041960,172.16.5.2,60487,172.16.1.2,5103,62250,66669,2086,144960,65728,6,6,4,1460,318125,1,16778208,540000,148268,142476,65700,0,66608,0,4196979676,63
o,1727695339.041994,172.16.5.2,60487,172.16.1.2,5103,62250,66669,2086,142080,65728,6,6,4,1460,318437,1,16778208,540000,148268,139580,65700,0,63712,0,4196979676,63
i,1727695339.108273,172.16.5.2,60487,172.16.1.2,5103,62250,66669,2086,142080,65728,6,6,4,1460,318437,1,16778208,540000,148268,148268,65700,0,66608,0,4196979676,63
o,1727695339.108308,172.16.5.2,60487,172.16.1.2,5103,62250,66669,2086,147840,65728,6,6,4,1460,326250,1,16778208,600000,148268,146820,65700,0,65160,0,4196979676,63
i,1727695339.108446,172.16.5.2,60487,172.16.1.2,5103,62250,66669,2086,147840,65728,6,6,4,1460,326250,1,16778208,600000,148268,146820,65700,0,66608,0,4196979676,63
o,1727695339.108462,172.16.5.2,60487,172.16.1.2,5103,62250,66669,2086,144960,65728,6,6,4,1460,313125,1,16778208,680000,148268,143924,65700,0,63712,0,4196979676,63
i,1727695339.108601,172.16.5.2,60487,172.16.1.2,5103,62250,66669,2086,144960,65728,6,6,4,1460,313125,1,16778208,680000,148268,143924,65700,0,66608,0,4196979676,63
o,1727695339.108617,172.16.5.2,60487,172.16.1.2,5103,62250,66669,2086,146432,65728,6,6,4,1460,301562,1,16778208,720000,148268,141028,65700,0,63712,0,4196979676,63
i,1727695339.297160,172.16.5.2,60487,172.16.1.2,5103,62250,66669,2086,146432,65728,6,6,4,1460,301562,1,16778208,720000,148268,148268,65700,0,66608,0,4196979676,63
o,1727695339.297306,172.16.5.2,60487,172.16.1.2,5103,62250,66669,2086,144960,65728,6,6,4,1460,300312,1,16778208,670000,148268,145372,65700,0,63712,0,4196979676,63
i,1727695339.297598,172.16.5.2,60487,172.16.1.2,5103,62250,66669,2086,144960,65728,6,6,4,1460,300312,1,16778208,670000,148268,145372,65700,0,66608,0,4196979676,63
o,1727695339.297651,172.16.5.2,60487,172.16.1.2,5103,62250,66669,2086,142080,65728,6,6,4,1460,299062,1,16778208,640000,148268,142476,65700,0,63712,0,4196979676,63
i,1727695339.297980,172.16.5.2,60487,172.16.1.2,5103,62250,66669,2086,142080,65728,6,6,4,1460,299062,1,16778208,640000,148268,142476,65700,0,66608,0,4196979676,63
o,1727695339.298024,172.16.5.2,60487,172.16.1.2,5103,62250,66669,2086,146432,65728,6,6,4,1460,298125,1,16778208,610000,148268,139580,65700,0,63712,0,4196979676,63
i,1727695339.338129,172.16.5.2,60487,172.16.1.2,5103,62250,66669,2086,146432,65728,6,6,4,1460,298125,1,16778208,610000,148268,148268,65700,0,66608,0,4196979676,63
o,1727695339.338178,172.16.5.2,60487,172.16.1.2,5103,62250,68129,2086,146432,65728,6,6,4,1460,302187,1,16778208,620000,148268,145372,65700,0,63712,0,4196979676,63
i,1727695339.338372,172.16.5.2,60487,172.16.1.2,5103,62250,68129,2086,146432,65728,6,6,4,1460,302187,1,16778208,620000,148268,145372,65700,0,68056,0,4196979676,63
o,1727695339.338396,172.16.5.2,60487,172.16.1.2,5103,62250,68129,2086,146432,65728,6,6,4,1460,303437,1,16778208,600000,148268,142476,65700,0,65160,0,4196979676,63
i,1727695339.338601,172.16.5.2,60487,172.16.1.2,5103,62250,68129,2086,146432,65728,6,6,4,1460,303437,1,16778208,600000,148268,142476,65700,0,68056,0,4196979676,63
o,1727695339.338625,172.16.5.2,60487,172.16.1.2,5103,62250,68129,2086,143552,65728,6,6,4,1460,304375,1,16778208,580000,148268,139580,65700,0,65160,0,4196979676,63
i,1727695339.379262,172.16.5.2,60487,172.16.1.2,5103,62250,68129,2086,143552,65728,6,6,4,1460,304375,1,16778208,580000,148268,148268,65700,0,68056,0,4196979676,63
o,1727695339.379438,172.16.5.2,60487,172.16.1.2,5103,62250,68129,2086,146432,65728,6,6,4,1460,310312,1,16778208,620000,148268,145372,65700,0,65160,0,4196979676,63
i,1727695339.380691,172.16.5.2,60487,172.16.1.2,5103,62250,68129,2086,146432,65728,6,6,4,1460,310312,1,16778208,620000,148268,148268,65700,0,68056,0,4196979676,63
o,1727695339.380724,172.16.5.2,60487,172.16.1.2,5103,62250,68129,2086,146432,65728,6,6,4,1460,315312,1,16778208,630000,148268,145372,65700,0,65160,0,4196979676,63
i,1727695339.388423,172.16.5.2,60487,172.16.1.2,5103,62250,68129,2086,146432,65728,6,6,4,1460,315312,1,16778208,630000,148268,148268,65700,0,68056,0,4196979676,63
o,1727695339.388451,172.16.5.2,60487,172.16.1.2,5103,62250,68129,2086,146432,65728,6,6,4,1460,319687,1,16778208,640000,148268,145372,65700,0,65160,0,4196979676,63
i,1727695339.388711,172.16.5.2,60487,172.16.1.2,5103,62250,68129,2086,146432,65728,6,6,4,1460,319687,1,16778208,640000,148268,145372,65700,0,68056,0,4196979676,63
o,1727695339.388733,172.16.5.2,60487,172.16.1.2,5103,62250,68129,2086,146432,65728,6,6,4,1460,323750,1,16778208,650000,148268,142476,65700,0,65160,0,4196979676,63
i,1727695339.390005,172.16.5.2,60487,172.16.1.2,5103,62250,68129,2086,146432,65728,6,6,4,1460,323750,1,16778208,650000,148268,148268,65700,0,68056,0,4196979676,63
o,1727695339.390027,172.16.5.2,60487,172.16.1.2,5103,62250,68129,2086,146432,65728,6,6,4,1460,327187,1,16778208,650000,148268,145372,65700,0,65160,0,4196979676,63
i,1727695339.390184,172.16.5.2,60487,172.16.1.2,5103,62250,68129,2086,146432,65728,6,6,4,1460,327187,1,16778208,650000,148268,145372,65700,0,68056,0,4196979676,63
o,1727695339.390206,172.16.5.2,60487,172.16.1.2,5103,62250,68129,2086,146432,65728,6,6,4,1460,330312,1,16778208,650000,148268,142476,65700,0,65160,0,4196979676,63
i,1727695339.391535,172.16.5.2,60487,172.16.1.2,5103,62250,68129,2086,146432,65728,6,6,4,1460,330312,1,16778208,650000,148268,148268,65700,0,68056,0,4196979676,63
o,1727695339.391560,172.16.5.2,60487,172.16.1.2,5103,62250,68129,2086,144960,65728,6,6,4,1460,334062,1,16778208,650000,148268,145372,65700,0,65160,0,4196979676,63
i,1727695339.392872,172.16.5.2,60487,172.16.1.2,5103,62250,68129,2086,144960,65728,6,6,4,1460,334062,1,16778208,650000,148268,148268,65700,0,68056,0,4196979676,63
o,1727695339.392897,172.16.5.2,60487,172.16.1.2,5103,62250,68129,2086,146432,65728,6,6,4,1460,337500,1,16778208,650000,148268,145372,65700,0,65160,0,4196979676,63
i,1727695339.393068,172.16.5.2,60487,172.16.1.2,5103,62250,68129,2086,146432,65728,6,6,4,1460,337500,1,16778208,650000,148268,145372,65700,0,68056,0,4196979676,63
o,1727695339.393092,172.16.5.2,60487,172.16.1.2,5103,62250,68129,2086,146432,65728,6,6,4,1460,340312,1,16778208,650000,148268,142476,65700,0,65160,0,4196979676,63
i,1727695339.393516,172.16.5.2,60487,172.16.1.2,5103,62250,68129,2086,146432,65728,6,6,4,1460,340312,1,16778208,650000,148268,142476,65700,0,68056,0,4196979676,63
o,1727695339.393538,172.16.5.2,60487,172.16.1.2,5103,62250,68129,2086,143552,65728,6,6,4,1460,342812,1,16778208,640000,148268,139580,65700,0,65160,0,4196979676,63
o,1727695339.393706,172.16.5.2,60487,172.16.1.2,5103,62250,68129,2086,143552,65728,6,6,4,1460,342812,1,16778208,640000,148268,139580,65700,0,66608,0,4196979676,63
i,1727695339.393908,172.16.5.2,60487,172.16.1.2,5103,62250,68129,2086,143552,65728,6,6,4,1460,342812,1,16778208,640000,148268,139580,65700,0,68056,0,4196979676,63
o,1727695339.393930,172.16.5.2,60487,172.16.1.2,5103,62250,68129,2086,146432,65728,6,6,4,1460,345000,1,16778208,640000,148268,136684,65700,0,65160,0,4196979676,63
i,1727695339.394106,172.16.5.2,60487,172.16.1.2,5103,62250,68129,2086,146432,65728,6,6,4,1460,345000,1,16778208,640000,148268,136684,65700,0,68056,0,4196979676,63
o,1727695339.394133,172.16.5.2,60487,172.16.1.2,5103,62250,68129,2086,143552,65728,6,6,4,1460,346875,1,16778208,630000,148268,133788,65700,0,65160,0,4196979676,63
i,1727695339.395388,172.16.5.2,60487,172.16.1.2,5103,62250,68129,2086,143552,65728,6,6,4,1460,346875,1,16778208,630000,156460,156460,65700,0,68056,0,4196979676,63
o,1727695339.395413,172.16.5.2,60487,172.16.1.2,5103,62250,68129,2086,146432,65728,6,6,4,1460,346250,1,16778208,610000,156460,153564,65700,0,65160,0,4196979676,63
i,1727695339.395583,172.16.5.2,60487,172.16.1.2,5103,62250,68129,2086,146432,65728,6,6,4,1460,346250,1,16778208,610000,156460,153564,65700,0,68056,0,4196979676,63
o,1727695339.395605,172.16.5.2,60487,172.16.1.2,5103,62250,68129,2086,143552,65728,6,6,4,1460,345625,1,16778208,600000,156460,150668,65700,0,65160,0,4196979676,63
i,1727695339.397645,172.16.5.2,60487,172.16.1.2,5103,62250,68129,2086,143552,65728,6,6,4,1460,345625,1,16778208,600000,156460,156460,65700,0,68056,0,4196979676,63
o,1727695339.397732,172.16.5.2,60487,172.16.1.2,5103,62250,68129,2086,146432,65728,6,6,4,1460,345000,1,16778208,590000,156460,153564,65700,0,65160,0,4196979676,63
i,1727695339.397898,172.16.5.2,60487,172.16.1.2,5103,62250,68129,2086,146432,65728,6,6,4,1460,345000,1,16778208,590000,156460,153564,65700,0,68056,0,4196979676,63
o,1727695339.397916,172.16.5.2,60487,172.16.1.2,5103,62250,68129,2086,144960,65728,6,6,4,1460,336875,1,16778208,630000,156460,150668,65700,0,65160,0,4196979676,63
i,1727695339.398043,172.16.5.2,60487,172.16.1.2,5103,62250,68129,2086,144960,65728,6,6,4,1460,336875,1,16778208,630000,156460,150668,65700,0,68056,0,4196979676,63
o,1727695339.398059,172.16.5.2,60487,172.16.1.2,5103,62250,68129,2086,146432,65728,6,6,4,1460,330000,1,16778208,660000,156460,147772,65700,0,65160,0,4196979676,63
i,1727695339.469962,172.16.5.2,60487,172.16.1.2,5103,62250,68129,2086,146432,65728,6,6,4,1460,330000,1,16778208,660000,156460,156460,65700,0,68056,0,4196979676,63
o,1727695339.470000,172.16.5.2,60487,172.16.1.2,5103,62250,68129,2086,144960,65728,6,6,4,1460,310000,1,16778208,770000,156460,153564,65700,0,65160,0,4196979676,63
i,1727695339.470143,172.16.5.2,60487,172.16.1.2,5103,62250,68129,2086,144960,65728,6,6,4,1460,310000,1,16778208,770000,156460,153564,65700,0,68056,0,4196979676,63
o,1727695339.470161,172.16.5.2,60487,172.16.1.2,5103,62250,68129,2086,142080,65728,6,6,4,1460,292500,1,16778208,820000,156460,150668,65700,0,65160,0,4196979676,63
i,1727695339.470287,172.16.5.2,60487,172.16.1.2,5103,62250,68129,2086,142080,65728,6,6,4,1460,292500,1,16778208,820000,156460,150668,65700,0,68056,0,4196979676,63
o,1727695339.470468,172.16.5.2,60487,172.16.1.2,5103,62250,68129,2086,146432,65728,6,6,4,1460,277187,1,16778208,850000,156460,147772,65700,0,65160,0,4196979676,63
i,1727695339.513256,172.16.5.2,60487,172.16.1.2,5103,62250,68129,2086,146432,65728,6,6,4,1460,277187,1,16778208,850000,156460,156460,65700,0,68056,0,4196979676,63
o,1727695339.513388,172.16.5.2,60487,172.16.1.2,5103,62250,69589,2086,144960,65728,6,6,4,1460,265312,1,16778208,840000,156460,153564,65700,0,65160,0,4196979676,63
i,1727695339.638848,172.16.5.2,60487,172.16.1.2,5103,62250,69589,2086,144960,65728,6,6,4,1460,265312,1,16778208,840000,156460,156460,65700,0,69504,0,4196979676,63
o,1727695339.638945,172.16.5.2,60487,172.16.1.2,5103,62250,69589,2086,146432,65728,6,6,4,1460,269687,1,16778208,780000,156460,153564,65700,0,66608,0,4196979676,63
i,1727695339.639093,172.16.5.2,60487,172.16.1.2,5103,62250,69589,2086,146432,65728,6,6,4,1460,269687,1,16778208,780000,156460,153564,65700,0,69504,0,4196979676,63
o,1727695339.639114,172.16.5.2,60487,172.16.1.2,5103,62250,69589,2086,144960,65728,6,6,4,1460,273750,1,16778208,740000,156460,150668,65700,0,66608,0,4196979676,63
i,1727695339.648230,172.16.5.2,60487,172.16.1.2,5103,62250,69589,2086,144960,65728,6,6,4,1460,273750,1,16778208,740000,156460,156460,65700,0,69504,0,4196979676,63
o,1727695339.648257,172.16.5.2,60487,172.16.1.2,5103,62250,69589,2086,147840,65728,6,6,4,1460,278437,1,16778208,720000,156460,155012,65700,0,68056,0,4196979676,63
i,1727695339.730961,172.16.5.2,60487,172.16.1.2,5103,62250,69589,2086,147840,65728,6,6,4,1460,278437,1,16778208,720000,156460,155012,65700,0,69504,0,4196979676,63
o,1727695339.731026,172.16.5.2,60487,172.16.1.2,5103,62250,69589,2086,146432,65728,6,6,4,1460,287500,1,16778208,740000,156460,152116,65700,0,66608,0,4196979676,63
i,1727695339.731507,172.16.5.2,60487,172.16.1.2,5103,62250,69589,2086,146432,65728,6,6,4,1460,287500,1,16778208,740000,156460,152116,65700,0,69504,0,4196979676,63
o,1727695339.731535,172.16.5.2,60487,172.16.1.2,5103,62250,69589,2086,143552,65728,6,6,4,1460,295312,1,16778208,750000,156460,149220,65700,0,66608,0,4196979676,63
i,1727695339.731757,172.16.5.2,60487,172.16.1.2,5103,62250,69589,2086,143552,65728,6,6,4,1460,295312,1,16778208,750000,156460,149220,65700,0,69504,0,4196979676,63
o,1727695339.731777,172.16.5.2,60487,172.16.1.2,5103,62250,69589,2086,144960,65728,6,6,4,1460,302187,1,16778208,740000,156460,146324,65700,0,66608,0,4196979676,63
i,1727695339.753718,172.16.5.2,60487,172.16.1.2,5103,62250,69589,2086,144960,65728,6,6,4,1460,302187,1,16778208,740000,156460,156460,65700,0,69504,0,4196979676,63
o,1727695339.753751,172.16.5.2,60487,172.16.1.2,5103,62250,69589,2086,146432,65728,6,6,4,1460,310937,1,16778208,760000,156460,153564,65700,0,66608,0,4196979676,63
i,1727695339.753943,172.16.5.2,60487,172.16.1.2,5103,62250,69589,2086,146432,65728,6,6,4,1460,310937,1,16778208,760000,156460,153564,65700,0,69504,0,4196979676,63
o,1727695339.753962,172.16.5.2,60487,172.16.1.2,5103,62250,69589,2086,143552,65728,6,6,4,1460,318437,1,16778208,770000,156460,150668,65700,0,66608,0,4196979676,63
i,1727695339.755323,172.16.5.2,60487,172.16.1.2,5103,62250,69589,2086,143552,65728,6,6,4,1460,318437,1,16778208,770000,156460,156460,65700,0,69504,0,4196979676,63
o,1727695339.755343,172.16.5.2,60487,172.16.1.2,5103,62250,69589,2086,146432,65728,6,6,4,1460,325000,1,16778208,770000,156460,153564,65700,0,66608,0,4196979676,63
i,1727695339.755524,172.16.5.2,60487,172.16.1.2,5103,62250,69589,2086,146432,65728,6,6,4,1460,325000,1,16778208,770000,156460,153564,65700,0,69504,0,4196979676,63
o,1727695339.755542,172.16.5.2,60487,172.16.1.2,5103,62250,69589,2086,146432,65728,6,6,4,1460,329375,1,16778208,740000,156460,150668,65700,0,66608,0,4196979676,63
i,1727695339.757053,172.16.5.2,60487,172.16.1.2,5103,62250,69589,2086,146432,65728,6,6,4,1460,329375,1,16778208,740000,156460,156460,65700,0,69504,0,4196979676,63
o,1727695339.757077,172.16.5.2,60487,172.16.1.2,5103,62250,69589,2086,146432,65728,6,6,4,1460,333437,1,16778208,730000,156460,153564,65700,0,66608,0,4196979676,63
i,1727695339.757295,172.16.5.2,60487,172.16.1.2,5103,62250,69589,2086,146432,65728,6,6,4,1460,333437,1,16778208,730000,156460,153564,65700,0,69504,0,4196979676,63
o,1727695339.757317,172.16.5.2,60487,172.16.1.2,5103,62250,69589,2086,146432,65728,6,6,4,1460,336875,1,16778208,710000,156460,150668,65700,0,66608,0,4196979676,63
i,1727695339.759604,172.16.5.2,60487,172.16.1.2,5103,62250,69589,2086,146432,65728,6,6,4,1460,336875,1,16778208,710000,156460,156460,65700,0,69504,0,4196979676,63
o,1727695339.759634,172.16.5.2,60487,172.16.1.2,5103,62250,69589,2086,146432,65728,6,6,4,1460,340000,1,16778208,700000,156460,153564,65700,0,66608,0,4196979676,63
o,1727695339.759861,172.16.5.2,60487,172.16.1.2,5103,62250,69589,2086,146432,65728,6,6,4,1460,340000,1,16778208,700000,156460,153564,65700,0,68056,0,4196979676,63
i,1727695339.760027,172.16.5.2,60487,172.16.1.2,5103,62250,69589,2086,146432,65728,6,6,4,1460,340000,1,16778208,700000,156460,153564,65700,0,69504,0,4196979676,63
o,1727695339.760055,172.16.5.2,60487,172.16.1.2,5103,62250,69589,2086,146432,65728,6,6,4,1460,342500,1,16778208,680000,156460,150668,65700,0,66608,0,4196979676,63
i,1727695339.760284,172.16.5.2,60487,172.16.1.2,5103,62250,69589,2086,146432,65728,6,6,4,1460,342500,1,16778208,680000,156460,150668,65700,0,69504,0,4196979676,63
o,1727695339.760293,172.16.5.2,60487,172.16.1.2,5103,62250,69589,2086,146432,65728,6,6,4,1460,344687,1,16778208,660000,156460,147772,65700,0,66608,0,4196979676,63
i,1727695339.762061,172.16.5.2,60487,172.16.1.2,5103,62250,69589,2086,146432,65728,6,6,4,1460,344687,1,16778208,660000,156460,156460,65700,0,69504,0,4196979676,63
o,1727695339.762087,172.16.5.2,60487,172.16.1.2,5103,62250,69589,2086,146432,65728,6,6,4,1460,348125,1,16778208,660000,156460,153564,65700,0,66608,0,4196979676,63
i,1727695339.762272,172.16.5.2,60487,172.16.1.2,5103,62250,69589,2086,146432,65728,6,6,4,1460,348125,1,16778208,660000,156460,153564,65700,0,69504,0,4196979676,63
o,1727695339.762293,172.16.5.2,60487,172.16.1.2,5103,62250,69589,2086,146432,65728,6,6,4,1460,350937,1,16778208,660000,156460,150668,65700,0,66608,0,4196979676,63
i,1727695339.762694,172.16.5.2,60487,172.16.1.2,5103,62250,69589,2086,146432,65728,6,6,4,1460,350937,1,16778208,660000,156460,150668,65700,0,69504,0,4196979676,63
o,1727695339.762716,172.16.5.2,60487,172.16.1.2,5103,62250,69589,2086,144960,65728,6,6,4,1460,353437,1,16778208,650000,156460,147772,65700,0,66608,0,4196979676,63
i,1727695339.762898,172.16.5.2,60487,172.16.1.2,5103,62250,69589,2086,144960,65728,6,6,4,1460,353437,1,16778208,650000,156460,147772,65700,0,69504,0,4196979676,63
o,1727695339.762915,172.16.5.2,60487,172.16.1.2,5103,62250,69589,2086,142080,65728,6,6,4,1460,355625,1,16778208,650000,156460,144876,65700,0,66608,0,4196979676,63
i,1727695339.764205,172.16.5.2,60487,172.16.1.2,5103,62250,69589,2086,142080,65728,6,6,4,1460,355625,1,16778208,650000,156460,156460,65700,0,69504,0,4196979676,63
o,1727695339.764227,172.16.5.2,60487,172.16.1.2,5103,62250,69589,2086,146432,65728,6,6,4,1460,357500,1,16778208,640000,156460,153564,65700,0,66608,0,4196979676,63
i,1727695339.769849,172.16.5.2,60487,172.16.1.2,5103,62250,69589,2086,146432,65728,6,6,4,1460,357500,1,16778208,640000,156460,156460,65700,0,69504,0,4196979676,63
o,1727695339.769876,172.16.5.2,60487,172.16.1.2,5103,62250,69589,2086,144960,65728,6,6,4,1460,349062,1,16778208,680000,156460,153564,65700,0,66608,0,4196979676,63
i,1727695339.770065,172.16.5.2,60487,172.16.1.2,5103,62250,69589,2086,144960,65728,6,6,4,1460,349062,1,16778208,680000,156460,153564,65700,0,69504,0,4196979676,63
o,1727695339.770086,172.16.5.2,60487,172.16.1.2,5103,62250,69589,2086,144960,65728,6,6,4,1460,341875,1,16778208,700000,156460,150668,65700,0,66608,0,4196979676,63
i,1727695339.770508,172.16.5.2,60487,172.16.1.2,5103,62250,69589,2086,144960,65728,6,6,4,1460,341875,1,16778208,700000,156460,150668,65700,0,69504,0,4196979676,63
o,1727695339.770531,172.16.5.2,60487,172.16.1.2,5103,62250,69589,2086,146432,65728,6,6,4,1460,336875,1,16778208,690000,156460,147772,65700,0,66608,0,4196979676,63
i,1727695339.772059,172.16.5.2,60487,172.16.1.2,5103,62250,69589,2086,146432,65728,6,6,4,1460,336875,1,16778208,690000,156460,156460,65700,0,69504,0,4196979676,63
o,1727695339.772092,172.16.5.2,60487,172.16.1.2,5103,62250,69589,2086,143552,65728,6,6,4,1460,326250,1,16778208,730000,156460,153564,65700,0,66608,0,4196979676,63
i,1727695339.830886,172.16.5.2,60487,172.16.1.2,5103,62250,69589,2086,143552,65728,6,6,4,1460,326250,1,16778208,730000,156460,156460,65700,0,69504,0,4196979676,63
o,1727695339.830938,172.16.5.2,60487,172.16.1.2,5103,62250,71049,2086,147840,65728,6,6,4,1460,324375,1,16778208,690000,156460,155012,65700,0,68056,0,4196979676,63
i,1727695339.832633,172.16.5.2,60487,172.16.1.2,5103,62250,71049,2086,147840,65728,6,6,4,1460,324375,1,16778208,690000,156460,155012,65700,0,70952,0,4196979676,63
