enable_time_secs=1727695438	enable_time_usecs=136032	siftrver=1.3.0	sysname=FreeBSD	sysver=1401000	ipmode=4
o,1727695438.136690,10.0.2.15,22,10.0.2.2,49942,1073725440,17746,1026,65535,65700,0,0,4,1460,312,0,16777220,240000,33580,172,65700,0,0,0,1331867447,63
o,1727695438.136946,10.0.2.15,22,10.0.2.2,49942,1073725440,17746,1026,65535,65700,0,0,4,1460,312,0,16777220,240000,33580,244,65700,0,172,0,1331867447,63
i,1727695438.137362,10.0.2.15,22,10.0.2.2,49942,1073725440,17746,1026,65535,65700,0,0,4,1460,312,0,16777220,240000,33580,244,65700,0,244,0,1331867447,63
i,1727695438.137387,10.0.2.15,22,10.0.2.2,49942,1073725440,17918,1026,65535,65700,0,0,4,1460,312,0,4,240000,33580,72,65700,0,72,0,1331867447,63
i,1727695438.137408,10.0.2.15,22,10.0.2.2,49942,1073725440,17990,1026,65535,65700,0,0,4,1460,312,0,4,240000,33580,0,65700,0,0,0,1331867447,63
i,1727695438.137432,10.0.2.15,22,10.0.2.2,49942,1073725440,17990,1026,65535,65700,0,0,4,1460,312,0,4,240000,33580,0,65700,96,0,0,1331867447,63
o,1727695438.137470,10.0.2.15,22,10.0.2.2,49942,1073725440,17990,1026,65535,65604,0,0,5,1460,312,0,5,240000,33580,0,65700,96,0,0,1331867447,63
o,1727695438.138218,10.0.2.15,22,10.0.2.2,49942,1073725440,17990,1026,65535,65604,0,0,8,1460,312,0,4,240000,33580,0,65700,0,0,0,1331867447,63
i,1727695438.138814,10.0.2.15,22,10.0.2.2,49942,1073725440,17990,1026,65535,65604,0,0,8,1460,312,0,67108884,240000,33580,0,65700,0,1,0,1331867447,63
o,1727695439.306198,10.0.2.15,22,10.0.2.2,57953,1073725440,14600,1026,65535,65700,0,0,4,1460,312,0,16777220,240000,33580,388,65700,0,0,0,2045767904,63
i,1727695439.307285,10.0.2.15,22,10.0.2.2,57953,1073725440,14600,1026,65535,65700,0,0,4,1460,312,0,16777220,240000,33580,388,65700,0,388,0,2045767904,63
i,1727695441.350235,10.0.2.15,22,10.0.2.2,49950,1073725440,14600,0,65535,65700,0,0,4,1460,312,0,16777216,270000,33580,0,65700,0,0,0,2606274508,63
o,1727695441.351440,10.0.2.15,22,10.0.2.2,57953,1073725440,14600,1026,65535,65700,0,0,4,1460,312,0,16777220,240000,33580,580,65700,0,0,0,2045767904,63
i,1727695441.352644,10.0.2.15,22,10.0.2.2,57953,1073725440,14600,1026,65535,65700,0,0,4,1460,312,0,16777220,240000,33580,580,65700,0,580,0,2045767904,63
o,1727695441.367235,10.0.2.15,22,10.0.2.2,49950,1073725440,14600,1026,65535,65700,0,0,4,1460,312,0,16777216,270000,33580,38,65700,42,0,0,2606274508,63
i,1727695441.368090,10.0.2.15,22,10.0.2.2,49950,1073725440,14600,1026,65535,65700,0,0,4,1460,312,0,16777216,270000,33580,38,65700,0,38,0,2606274508,63
i,1727695441.368515,10.0.2.15,22,10.0.2.2,49950,1073725440,14638,1026,65535,65700,0,0,4,1460,312,0,0,240000,33580,0,65700,0,0,0,2606274508,63
i,1727695441.368532,10.0.2.15,22,10.0.2.2,49950,1073725440,14638,1026,65535,65700,0,0,4,1460,312,0,0,240000,33580,0,65700,1460,0,0,2606274508,63
o,1727695441.368550,10.0.2.15,22,10.0.2.2,49950,1073725440,14638,1026,65535,65700,0,0,4,1460,312,0,1,240000,33580,0,65700,1536,0,0,2606274508,63
o,1727695441.369141,10.0.2.15,22,10.0.2.2,49950,1073725440,14638,1026,65535,65700,0,0,4,1460,312,0,16777216,240000,33580,1120,65700,1536,0,0,2606274508,63
i,1727695441.371445,10.0.2.15,22,10.0.2.2,49950,1073725440,14638,1026,65535,65700,0,0,4,1460,312,0,16777216,240000,33580,1120,65700,0,1120,0,2606274508,63
i,1727695441.372655,10.0.2.15,22,10.0.2.2,49950,1073725440,15758,1026,65535,65700,0,0,4,1460,312,0,0,230000,33580,0,65700,0,0,0,2606274508,63
o,1727695441.376212,10.0.2.15,22,10.0.2.2,49950,1073725440,15758,1026,65535,65700,0,0,4,1460,312,0,16777216,230000,33580,492,65700,0,0,0,2606274508,63
i,1727695441.376698,10.0.2.15,22,10.0.2.2,49950,1073725440,15758,1026,65535,65700,0,0,4,1460,312,0,16777216,230000,33580,492,65700,0,492,0,2606274508,63
i,1727695441.381422,10.0.2.15,22,10.0.2.2,49950,1073725440,16250,1026,65535,65700,0,0,4,1460,312,0,0,230000,33580,0,65700,0,0,0,2606274508,63
i,1727695441.381458,10.0.2.15,22,10.0.2.2,49950,1073725440,16250,1026,65535,65700,0,0,4,1460,312,0,0,230000,33580,0,65700,16,0,0,2606274508,63
o,1727695441.381486,10.0.2.15,22,10.0.2.2,49950,1073725440,16250,1026,65535,65700,0,0,4,1460,312,0,1,230000,33580,0,65700,60,0,0,2606274508,63
o,1727695441.381858,10.0.2.15,22,10.0.2.2,49950,1073725440,16250,1026,65535,65700,0,0,4,1460,312,0,16777216,230000,33580,44,65700,0,0,0,2606274508,63
i,1727695441.382352,10.0.2.15,22,10.0.2.2,49950,1073725440,16250,1026,65535,65700,0,0,4,1460,312,0,16777216,230000,33580,44,65700,0,44,0,2606274508,63
i,1727695441.382373,10.0.2.15,22,10.0.2.2,49950,1073725440,16294,1026,65535,65700,0,0,4,1460,312,0,0,230000,33580,0,65700,0,0,0,2606274508,63
o,1727695441.383972,10.0.2.15,22,10.0.2.2,49950,1073725440,16294,1026,65535,65700,0,0,4,1460,312,0,16777216,230000,33580,68,65700,0,0,0,2606274508,63
i,1727695441.384700,10.0.2.15,22,10.0.2.2,49950,1073725440,16294,1026,65535,65700,0,0,4,1460,312,0,16777216,230000,33580,68,65700,0,68,0,2606274508,63
i,1727695441.384717,10.0.2.15,22,10.0.2.2,49950,1073725440,16362,1026,65535,65700,0,0,4,1460,312,0,0,230000,33580,0,65700,0,0,0,2606274508,63
o,1727695441.386223,10.0.2.15,22,10.0.2.2,49950,1073725440,16362,1026,65535,65700,0,0,4,1460,312,0,16777216,230000,33580,332,65700,0,0,0,2606274508,63
i,1727695441.387341,10.0.2.15,22,10.0.2.2,49950,1073725440,16362,1026,65535,65700,0,0,4,1460,312,0,16777216,230000,33580,332,65700,0,332,0,2606274508,63
i,1727695441.389429,10.0.2.15,22,10.0.2.2,49950,1073725440,16694,1026,65535,65700,0,0,4,1460,312,0,0,240000,33580,0,65700,0,0,0,2606274508,63
o,1727695441.406694,10.0.2.15,22,10.0.2.2,49950,1073725440,16694,1026,65535,65700,0,0,4,1460,312,0,16777216,240000,33580,28,65700,0,0,0,2606274508,63
i,1727695441.407432,10.0.2.15,22,10.0.2.2,49950,1073725440,16694,1026,65535,65700,0,0,4,1460,312,0,16777216,240000,33580,28,65700,0,28,0,2606274508,63
i,1727695441.408093,10.0.2.15,22,10.0.2.2,49950,1073725440,16722,1026,65535,65700,0,0,4,1460,312,0,0,240000,33580,0,65700,0,0,0,2606274508,63
o,1727695441.408941,10.0.2.15,22,10.0.2.2,49950,1073725440,16722,1026,65535,65700,0,0,4,1460,312,0,16777216,240000,33580,768,65700,112,0,0,2606274508,63
i,1727695441.410075,10.0.2.15,22,10.0.2.2,49950,1073725440,16722,1026,65535,65700,0,0,4,1460,312,0,16777216,240000,33580,908,65700,112,768,0,2606274508,63
o,1727695441.410098,10.0.2.15,22,10.0.2.2,49950,1073725440,17490,1026,65535,65700,0,0,4,1460,312,0,16777216,240000,33580,140,65700,112,0,0,2606274508,63
i,1727695441.410567,10.0.2.15,22,10.0.2.2,49950,1073725440,17490,1026,65535,65700,0,0,4,1460,312,0,16777216,240000,33580,140,65700,112,140,0,2606274508,63
o,1727695441.411002,10.0.2.15,22,10.0.2.2,49950,1073725440,17630,1026,65535,65700,0,0,4,1460,312,0,16777216,230000,33580,44,65700,0,0,0,2606274508,63
i,1727695441.411831,10.0.2.15,22,10.0.2.2,49950,1073725440,17630,1026,65535,65700,0,0,4,1460,312,0,16777216,230000,33580,44,65700,0,44,0,2606274508,63
i,1727695441.411848,10.0.2.15,22,10.0.2.2,49950,1073725440,17674,1026,65535,65700,0,0,4,1460,312,0,0,230000,33580,0,65700,0,0,0,2606274508,63
o,1727695441.412345,10.0.2.15,22,10.0.2.2,49950,1073725440,17674,1026,65535,65700,0,0,4,1460,312,0,16777220,230000,33580,72,65700,0,0,0,2606274508,63
i,1727695441.412830,10.0.2.15,22,10.0.2.2,49950,1073725440,17674,1026,65535,65700,0,0,4,1460,312,0,16777220,230000,33580,72,65700,0,72,0,2606274508,63
o,1727695441.416013,10.0.2.15,22,10.0.2.2,49950,1073725440,17746,1026,65535,65700,0,0,4,1460,312,0,16777220,230000,33580,104,65700,0,0,0,2606274508,63
i,1727695441.416855,10.0.2.15,22,10.0.2.2,49950,1073725440,17746,1026,65535,65700,0,0,4,1460,312,0,16777220,230000,33580,104,65700,0,104,0,2606274508,63
o,1727695441.442491,10.0.2.15,22,10.0.2.2,49950,1073725440,17850,1026,65535,65700,0,0,4,1460,312,0,16777220,230000,33580,72,65700,0,0,0,2606274508,63
i,1727695441.445240,10.0.2.15,22,10.0.2.2,49950,1073725440,17850,1026,65535,65700,0,0,4,1460,312,0,16777220,230000,33580,72,65700,0,72,0,2606274508,63
i,1727695441.445272,10.0.2.15,22,10.0.2.2,49950,1073725440,17922,1026,65535,65700,0,0,4,1460,312,0,4,240000,33580,0,65700,0,0,0,2606274508,63
i,1727695441.445344,10.0.2.15,22,10.0.2.2,49950,1073725440,17922,1026,65535,65700,0,0,4,1460,312,0,4,240000,33580,0,65700,96,0,0,2606274508,63
o,1727695441.445368,10.0.2.15,22,10.0.2.2,49950,1073725440,17922,1026,65535,65604,0,0,5,1460,312,0,5,240000,33580,0,65700,96,0,0,2606274508,63
o,1727695441.447311,10.0.2.15,22,10.0.2.2,49950,1073725440,17922,1026,65535,65604,0,0,8,1460,312,0,4,240000,33580,0,65700,0,0,0,2606274508,63
i,1727695441.448319,10.0.2.15,22,10.0.2.2,49950,1073725440,17922,1026,65535,65604,0,0,8,1460,312,0,20,240000,33580,0,65700,0,1,0,2606274508,63
i,1727695442.552579,10.0.2.15,22,10.0.2.2,49901,1073725440,14600,0,65535,65700,0,0,4,1460,312,0,16777216,270000,33580,0,65700,0,0,0,2887193836,63
o,1727695442.567188,10.0.2.15,22,10.0.2.2,49901,1073725440,14600,1026,65535,65700,0,0,4,1460,312,0,16777216,270000,33580,38,65700,42,0,0,2887193836,63
i,1727695442.568262,10.0.2.15,22,10.0.2.2,49901,1073725440,14600,1026,65535,65700,0,0,4,1460,312,0,16777216,270000,33580,38,65700,0,38,0,2887193836,63
i,1727695442.568288,10.0.2.15,22,10.0.2.2,49901,1073725440,14638,1026,65535,65700,0,0,4,1460,312,0,0,240000,33580,0,65700,0,0,0,2887193836,63
i,1727695442.568303,10.0.2.15,22,10.0.2.2,49901,1073725440,14638,1026,65535,65700,0,0,4,1460,312,0,0,240000,33580,0,65700,1460,0,0,2887193836,63
o,1727695442.568321,10.0.2.15,22,10.0.2.2,49901,1073725440,14638,1026,65535,65700,0,0,4,1460,312,0,1,240000,33580,0,65700,1536,0,0,2887193836,63
o,1727695442.569591,10.0.2.15,22,10.0.2.2,49901,1073725440,14638,1026,65535,65700,0,0,4,1460,312,0,16777216,240000,33580,1120,65700,1536,0,0,2887193836,63
i,1727695442.570122,10.0.2.15,22,10.0.2.2,49901,1073725440,14638,1026,65535,65700,0,0,4,1460,312,0,16777216,240000,33580,1120,65700,0,1120,0,2887193836,63
i,1727695442.572680,10.0.2.15,22,10.0.2.2,49901,1073725440,15758,1026,65535,65700,0,0,4,1460,312,0,0,240000,33580,0,65700,0,0,0,2887193836,63
o,1727695442.577713,10.0.2.15,22,10.0.2.2,49901,1073725440,15758,1026,65535,65700,0,0,4,1460,312,0,16777216,240000,33580,492,65700,0,0,0,2887193836,63
i,1727695442.578634,10.0.2.15,22,10.0.2.2,49901,1073725440,15758,1026,65535,65700,0,0,4,1460,312,0,16777216,240000,33580,492,65700,0,492,0,2887193836,63
i,1727695442.583508,10.0.2.15,22,10.0.2.2,49901,1073725440,16250,1026,65535,65700,0,0,4,1460,312,0,0,240000,33580,0,65700,0,0,0,2887193836,63
i,1727695442.583530,10.0.2.15,22,10.0.2.2,49901,1073725440,16250,1026,65535,65700,0,0,4,1460,312,0,0,240000,33580,0,65700,16,0,0,2887193836,63
o,1727695442.583553,10.0.2.15,22,10.0.2.2,49901,1073725440,16250,1026,65535,65700,0,0,4,1460,312,0,1,240000,33580,0,65700,60,0,0,2887193836,63
o,1727695442.583869,10.0.2.15,22,10.0.2.2,49901,1073725440,16250,1026,65535,65700,0,0,4,1460,312,0,16777216,240000,33580,44,65700,0,0,0,2887193836,63
i,1727695442.584417,10.0.2.15,22,10.0.2.2,49901,1073725440,16250,1026,65535,65700,0,0,4,1460,312,0,16777216,240000,33580,44,65700,0,44,0,2887193836,63
i,1727695442.585279,10.0.2.15,22,10.0.2.2,49901,1073725440,16294,1026,65535,65700,0,0,4,1460,312,0,0,240000,33580,0,65700,0,0,0,2887193836,63
o,1727695442.587522,10.0.2.15,22,10.0.2.2,49901,1073725440,16294,1026,65535,65700,0,0,4,1460,312,0,16777216,240000,33580,68,65700,0,0,0,2887193836,63
i,1727695442.588253,10.0.2.15,22,10.0.2.2,49901,1073725440,16294,1026,65535,65700,0,0,4,1460,312,0,16777216,240000,33580,68,65700,0,68,0,2887193836,63
i,1727695442.588280,10.0.2.15,22,10.0.2.2,49901,1073725440,16362,1026,65535,65700,0,0,4,1460,312,0,0,240000,33580,0,65700,0,0,0,2887193836,63
o,1727695442.590666,10.0.2.15,22,10.0.2.2,49901,1073725440,16362,1026,65535,65700,0,0,4,1460,312,0,16777216,240000,33580,332,65700,0,0,0,2887193836,63
i,1727695442.591165,10.0.2.15,22,10.0.2.2,49901,1073725440,16362,1026,65535,65700,0,0,4,1460,312,0,16777216,240000,33580,332,65700,0,332,0,2887193836,63
i,1727695442.593396,10.0.2.15,22,10.0.2.2,49901,1073725440,16694,1026,65535,65700,0,0,4,1460,312,0,0,240000,33580,0,65700,0,0,0,2887193836,63
o,1727695442.610523,10.0.2.15,22,10.0.2.2,49901,1073725440,16694,1026,65535,65700,0,0,4,1460,312,0,16777216,240000,33580,28,65700,0,0,0,2887193836,63
i,1727695442.611205,10.0.2.15,22,10.0.2.2,49901,1073725440,16694,1026,65535,65700,0,0,4,1460,312,0,16777216,240000,33580,28,65700,0,28,0,2887193836,63
i,1727695442.611232,10.0.2.15,22,10.0.2.2,49901,1073725440,16722,1026,65535,65700,0,0,4,1460,312,0,0,240000,33580,0,65700,0,0,0,2887193836,63
o,1727695442.614129,10.0.2.15,22,10.0.2.2,49901,1073725440,16722,1026,65535,65700,0,0,4,1460,312,0,16777216,240000,33580,768,65700,112,0,0,2887193836,63
i,1727695442.615199,10.0.2.15,22,10.0.2.2,49901,1073725440,16722,1026,65535,65700,0,0,4,1460,312,0,16777216,240000,33580,908,65700,112,768,0,2887193836,63
o,1727695442.615224,10.0.2.15,22,10.0.2.2,49901,1073725440,17490,1026,65535,65700,0,0,4,1460,312,0,16777216,240000,33580,140,65700,112,0,0,2887193836,63
i,1727695442.615689,10.0.2.15,22,10.0.2.2,49901,1073725440,17490,1026,65535,65700,0,0,4,1460,312,0,16777216,240000,33580,140,65700,112,140,0,2887193836,63
o,1727695442.616842,10.0.2.15,22,10.0.2.2,49901,1073725440,17630,1026,65535,65700,0,0,4,1460,312,0,16777216,240000,33580,44,65700,0,0,0,2887193836,63
i,1727695442.617749,10.0.2.15,22,10.0.2.2,49901,1073725440,17630,1026,65535,65700,0,0,4,1460,312,0,16777216,240000,33580,44,65700,0,44,0,2887193836,63
i,1727695442.617768,10.0.2.15,22,10.0.2.2,49901,1073725440,17674,1026,65535,65700,0,0,4,1460,312,0,0,240000,33580,0,65700,0,0,0,2887193836,63
o,1727695442.618357,10.0.2.15,22,10.0.2.2,49901,1073725440,17674,1026,65535,65700,0,0,4,1460,312,0,16777220,240000,33580,72,65700,0,0,0,2887193836,63
i,1727695442.618911,10.0.2.15,22,10.0.2.2,49901,1073725440,17674,1026,65535,65700,0,0,4,1460,312,0,16777220,240000,33580,72,65700,0,72,0,2887193836,63
o,1727695442.711216,172.16.5.2,60341,172.16.1.2,5103,46875,14480,2082,65535,65700,6,6,4,1460,271875,1,16778209,820000,33580,0,65700,0,0,0,4178226618,63
o,1727695442.711358,172.16.5.2,60341,172.16.1.2,5103,46875,14480,2082,65535,65700,6,6,4,1460,271875,1,16778212,820000,33580,37,65700,0,0,0,4178226618,63
i,1727695442.777883,172.16.5.2,60341,172.16.1.2,5103,46875,14480,2082,65535,65700,6,6,4,1460,271875,1,16778212,820000,33580,37,65700,0,37,0,4178226618,63
o,1727695442.778548,172.16.5.2,60341,172.16.1.2,5103,46875,14517,3106,65728,65728,6,6,4,1460,245625,1,16778212,910000,33580,4,65700,0,0,0,4178226618,63
o,1727695442.779020,172.16.5.2,60341,172.16.1.2,5103,46875,14517,3106,65728,65728,6,6,4,1460,245625,1,16778212,910000,33580,130,65700,0,4,0,4178226618,63
i,1727695442.852719,172.16.5.2,60341,172.16.1.2,5103,46875,14517,3106,65728,65728,6,6,4,1460,245625,1,16778212,910000,33580,130,65700,0,130,0,4178226618,63
i,1727695442.852995,172.16.5.2,60341,172.16.1.2,5103,46875,14647,3106,65600,65728,6,6,4,1460,225000,1,996,940000,33580,0,65700,0,0,0,4178226618,63
o,1727695442.892543,172.16.5.2,60341,172.16.1.2,5103,46875,14647,3106,65728,65728,6,6,4,1460,225000,1,997,940000,33580,0,65700,0,0,0,4178226618,63
o,1727695442.938538,172.16.5.2,23129,172.16.1.2,5103,46875,14480,2082,65535,65700,6,6,4,1460,269375,1,16778209,830000,33580,0,65700,0,0,0,2790614461,63
o,1727695442.938756,172.16.5.2,23129,172.16.1.2,5103,46875,14480,2082,65535,65700,6,6,4,1460,269375,1,16778208,830000,33580,37,65700,0,0,0,2790614461,63
i,1727695443.038877,172.16.5.2,60341,172.16.1.2,5103,46875,14647,3106,65728,65728,6,6,4,1460,225000,1,996,940000,33580,0,65700,0,0,0,4178226618,63
i,1727695443.039033,172.16.5.2,60341,172.16.1.2,5103,46875,14647,3106,65728,65728,6,6,4,1460,225000,1,996,940000,33580,0,65700,1,0,0,4178226618,63
o,1727695443.039057,172.16.5.2,60341,172.16.1.2,5103,46875,14647,3106,65728,65728,6,6,4,1460,225000,1,997,940000,33580,0,65700,2,0,0,4178226618,63
o,1727695443.039811,172.16.5.2,23129,172.16.1.2,5103,46875,14480,2086,65535,65700,6,6,4,1460,269375,1,16778208,830000,33580,33580,65700,0,37,0,2790614461,63
i,1727695443.072669,172.16.5.2,23129,172.16.1.2,5103,46875,14480,2086,65535,65700,6,6,4,1460,269375,1,16778208,830000,33580,33580,65700,0,13069,0,2790614461,63
o,1727695443.072728,172.16.5.2,23129,172.16.1.2,5103,46875,14517,2086,65728,65728,6,6,4,1460,253437,1,16778208,850000,33580,33543,65700,0,13032,0,2790614461,63
i,1727695443.098502,172.16.5.2,23129,172.16.1.2,5103,46875,14517,2086,65728,65728,6,6,4,1460,253437,1,16778208,850000,33580,33543,65700,0,14480,0,2790614461,63
o,1727695443.098533,172.16.5.2,23129,172.16.1.2,5103,46875,17413,2086,62848,65728,6,6,4,1460,229375,1,16778208,920000,33580,30647,65700,0,11584,0,2790614461,63
i,1727695443.098560,172.16.5.2,23129,172.16.1.2,5103,46875,17413,2086,62848,65728,6,6,4,1460,229375,1,16778208,920000,41772,30647,65700,0,17376,0,2790614461,63
o,1727695443.098567,172.16.5.2,23129,172.16.1.2,5103,46875,20309,2086,62848,65728,6,6,4,1460,208437,1,16778208,950000,41772,27751,65700,0,14480,0,2790614461,63
i,1727695443.124406,172.16.5.2,23129,172.16.1.2,5103,46875,20309,2086,62848,65728,6,6,4,1460,208437,1,16778208,950000,41772,41772,65700,0,20272,0,2790614461,63
o,1727695443.124451,172.16.5.2,23129,172.16.1.2,5103,46875,23205,2086,62848,65728,6,6,4,1460,193750,1,16778208,910000,49964,38876,65700,0,17376,0,2790614461,63
i,1727695443.124894,172.16.5.2,23129,172.16.1.2,5103,46875,23205,2086,62848,65728,6,6,4,1460,193750,1,16778208,910000,49964,38876,65700,0,23168,0,2790614461,63
o,1727695443.124922,172.16.5.2,23129,172.16.1.2,5103,46875,26101,2086,59968,65728,6,6,4,1460,180937,1,16778208,870000,49964,35980,65700,0,20272,0,2790614461,63
i,1727695443.138238,172.16.5.2,23129,172.16.1.2,5103,46875,26101,2086,59968,65728,6,6,4,1460,180937,1,16778208,870000,58156,58156,65700,0,26064,0,2790614461,63
o,1727695443.138370,172.16.5.2,23129,172.16.1.2,5103,46875,28997,2086,64256,65728,6,6,4,1460,170937,1,16778208,820000,58156,55260,65700,0,23168,0,2790614461,63
o,1727695443.138561,172.16.5.2,23129,172.16.1.2,5103,46875,28997,2086,64256,65728,6,6,4,1460,170937,1,16778208,820000,58156,55260,65700,0,24616,0,2790614461,63
i,1727695443.249558,172.16.5.2,23129,172.16.1.2,5103,46875,28997,2086,64256,65728,6,6,4,1460,170937,1,16778208,820000,66348,66348,65700,0,28960,0,2790614461,63
o,1727695443.249600,172.16.5.2,23129,172.16.1.2,5103,46875,31893,2086,64256,65728,6,6,4,1460,168437,1,16778208,730000,66348,63452,65700,0,26064,0,2790614461,63
i,1727695443.249734,172.16.5.2,23129,172.16.1.2,5103,46875,31893,2086,64256,65728,6,6,4,1460,168437,1,16778208,730000,74540,63452,65700,0,31856,0,2790614461,63
o,1727695443.249751,172.16.5.2,23129,172.16.1.2,5103,46875,34789,2086,61376,65728,6,6,4,1460,166250,1,16778208,650000,74540,60556,65700,0,28960,0,2790614461,63
i,1727695443.249920,172.16.5.2,23129,172.16.1.2,5103,46875,34789,2086,61376,65728,6,6,4,1460,166250,1,16778208,650000,74540,60556,65700,0,34752,0,2790614461,63
o,1727695443.249937,172.16.5.2,23129,172.16.1.2,5103,46875,37685,2086,64256,65728,6,6,4,1460,164375,1,16778208,590000,74540,57660,65700,0,31856,0,2790614461,63
i,1727695443.250061,172.16.5.2,23129,172.16.1.2,5103,46875,37685,2086,64256,65728,6,6,4,1460,164375,1,16778208,590000,74540,57660,65700,0,37648,0,2790614461,63
o,1727695443.250078,172.16.5.2,23129,172.16.1.2,5103,46875,40581,2086,61376,65728,6,6,4,1460,162812,1,16778208,550000,74540,54764,65700,0,34752,0,2790614461,63
i,1727695443.252716,172.16.5.2,23129,172.16.1.2,5103,46875,40581,2086,61376,65728,6,6,4,1460,162812,1,16778208,550000,82732,82732,65700,0,40544,0,2790614461,63
o,1727695443.252782,172.16.5.2,23129,172.16.1.2,5103,46875,43477,2086,64256,65728,6,6,4,1460,157500,1,16778208,540000,82732,79836,65700,0,37648,0,2790614461,63
i,1727695443.252927,172.16.5.2,23129,172.16.1.2,5103,46875,43477,2086,64256,65728,6,6,4,1460,157500,1,16778208,540000,82732,79836,65700,0,43440,0,2790614461,63
o,1727695443.252944,172.16.5.2,23129,172.16.1.2,5103,46875,46373,2086,61376,65728,6,6,4,1460,152812,1,16778208,530000,82732,76940,65700,0,40544,0,2790614461,63
i,1727695443.253141,172.16.5.2,23129,172.16.1.2,5103,46875,46373,2086,61376,65728,6,6,4,1460,152812,1,16778208,530000,82732,76940,65700,0,46336,0,2790614461,63
o,1727695443.253159,172.16.5.2,23129,172.16.1.2,5103,46875,49269,2086,62848,65728,6,6,4,1460,148750,1,16778208,510000,82732,74044,65700,0,43440,0,2790614461,63
i,1727695443.254360,172.16.5.2,23129,172.16.1.2,5103,46875,49269,2086,62848,65728,6,6,4,1460,148750,1,16778208,510000,82732,82732,65700,0,49232,0,2790614461,63
o,1727695443.254431,172.16.5.2,23129,172.16.1.2,5103,46875,49269,2086,62848,65728,6,6,4,1460,145312,1,16778208,500000,82732,79836,65700,0,46336,0,2790614461,63
i,1727695443.254593,172.16.5.2,23129,172.16.1.2,5103,46875,49269,2086,62848,65728,6,6,4,1460,145312,1,16778208,500000,82732,79836,65700,0,49232,0,2790614461,63
o,1727695443.254614,172.16.5.2,23129,172.16.1.2,5103,46875,49269,2086,59968,65728,6,6,4,1460,140937,1,16778208,490000,82732,76940,65700,0,46336,0,2790614461,63
o,1727695443.254770,172.16.5.2,23129,172.16.1.2,5103,46875,49269,2086,59968,65728,6,6,4,1460,140937,1,16778208,490000,82732,76940,65700,0,47784,0,2790614461,63
i,1727695443.268418,172.16.5.2,23129,172.16.1.2,5103,46875,49269,2086,59968,65728,6,6,4,1460,140937,1,16778208,490000,82732,82732,65700,0,49232,0,2790614461,63
o,1727695443.268548,172.16.5.2,23129,172.16.1.2,5103,46875,49269,2086,64256,65728,6,6,4,1460,139687,1,16778208,460000,82732,79836,65700,0,46336,0,2790614461,63
o,1727695443.402036,10.0.2.15,22,10.0.2.2,57953,1073725440,14600,1030,65535,65700,0,0,4,1460,312,0,16777220,240000,33580,1652,65700,0,0,0,2045767904,63
o,1727695443.402627,10.0.2.15,22,10.0.2.2,57953,1073725440,14600,1026,65535,65700,0,0,4,1460,312,0,16777220,240000,33580,1652,65700,0,1460,0,2045767904,63
i,1727695443.403412,10.0.2.15,22,10.0.2.2,57953,1073725440,14600,1026,65535,65700,0,0,4,1460,312,0,16777220,240000,33580,1652,65700,0,1652,0,2045767904,63
i,1727695443.403443,10.0.2.15,22,10.0.2.2,57953,1073725440,16060,1026,65535,65700,0,0,4,1460,312,0,4,240000,33580,192,65700,0,192,0,2045767904,63
i,1727695443.497566,172.16.5.2,23129,172.16.1.2,5103,46875,49269,2086,64256,65728,6,6,4,1460,139687,1,16778208,460000,82732,82732,65700,0,49232,0,2790614461,63
o,1727695443.497666,172.16.5.2,23129,172.16.1.2,5103,46875,49269,2086,64256,65728,6,6,4,1460,152500,1,16778208,550000,82732,79836,65700,0,46336,0,2790614461,63
i,1727695443.497979,172.16.5.2,23129,172.16.1.2,5103,46875,49269,2086,64256,65728,6,6,4,1460,152500,1,16778208,550000,82732,79836,65700,0,49232,0,2790614461,63
o,1727695443.498028,172.16.5.2,23129,172.16.1.2,5103,46875,49269,2086,64256,65728,6,6,4,1460,163437,1,16778208,600000,82732,76940,65700,0,46336,0,2790614461,63
i,1727695443.498290,172.16.5.2,23129,172.16.1.2,5103,46875,49269,2086,64256,65728,6,6,4,1460,163437,1,16778208,600000,82732,76940,65700,0,49232,0,2790614461,63
o,1727695443.498365,172.16.5.2,23129,172.16.1.2,5103,46875,49269,2086,61376,65728,6,6,4,1460,173125,1,16778208,630000,82732,74044,65700,0,46336,0,2790614461,63
i,1727695443.498558,172.16.5.2,23129,172.16.1.2,5103,46875,49269,2086,61376,65728,6,6,4,1460,173125,1,16778208,630000,82732,74044,65700,0,49232,0,2790614461,63
o,1727695443.498586,172.16.5.2,23129,172.16.1.2,5103,46875,49269,2086,64256,65728,6,6,4,1460,181562,1,16778208,640000,82732,71148,65700,0,46336,0,2790614461,63
i,1727695443.498840,172.16.5.2,23129,172.16.1.2,5103,46875,49269,2086,64256,65728,6,6,4,1460,181562,1,16778208,640000,82732,71148,65700,0,49232,0,2790614461,63
o,1727695443.498864,172.16.5.2,23129,172.16.1.2,5103,46875,49269,2086,64256,65728,6,6,4,1460,189062,1,16778208,640000,82732,68252,65700,0,46336,0,2790614461,63
i,1727695443.499631,172.16.5.2,23129,172.16.1.2,5103,46875,49269,2086,64256,65728,6,6,4,1460,189062,1,16778208,640000,82732,82732,65700,0,49232,0,2790614461,63
o,1727695443.499655,172.16.5.2,23129,172.16.1.2,5103,46875,49269,2086,61376,65728,6,6,4,1460,195625,1,16778208,640000,82732,79836,65700,0,46336,0,2790614461,63
i,1727695443.499815,172.16.5.2,23129,172.16.1.2,5103,46875,49269,2086,61376,65728,6,6,4,1460,195625,1,16778208,640000,82732,79836,65700,0,49232,0,2790614461,63
o,1727695443.499834,172.16.5.2,23129,172.16.1.2,5103,46875,49269,2086,64256,65728,6,6,4,1460,201250,1,16778208,630000,82732,76940,65700,0,46336,0,2790614461,63
i,1727695443.500091,172.16.5.2,23129,172.16.1.2,5103,46875,49269,2086,64256,65728,6,6,4,1460,201250,1,16778208,630000,82732,76940,65700,0,49232,0,2790614461,63
o,1727695443.500127,172.16.5.2,23129,172.16.1.2,5103,46875,49269,2086,61376,65728,6,6,4,1460,206250,1,16778208,620000,82732,74044,65700,0,46336,0,2790614461,63
i,1727695443.500479,172.16.5.2,23129,172.16.1.2,5103,46875,49269,2086,61376,65728,6,6,4,1460,206250,1,16778208,620000,82732,74044,65700,0,49232,0,2790614461,63
o,1727695443.500498,172.16.5.2,23129,172.16.1.2,5103,46875,49269,2086,64256,65728,6,6,4,1460,211875,1,16778208,610000,82732,71148,65700,0,46336,0,2790614461,63
i,1727695443.500679,172.16.5.2,23129,172.16.1.2,5103,46875,49269,2086,64256,65728,6,6,4,1460,211875,1,16778208,610000,82732,71148,65700,0,49232,0,2790614461,63
o,1727695443.500698,172.16.5.2,23129,172.16.1.2,5103,46875,49269,2086,61376,65728,6,6,4,1460,216875,1,16778208,610000,82732,68252,65700,0,46336,0,2790614461,63
i,1727695443.500851,172.16.5.2,23129,172.16.1.2,5103,46875,49269,2086,61376,65728,6,6,4,1460,216875,1,16778208,610000,82732,68252,65700,0,49232,0,2790614461,63
o,1727695443.500869,172.16.5.2,23129,172.16.1.2,5103,46875,49269,2086,64256,65728,6,6,4,1460,221250,1,16778208,600000,82732,65356,65700,0,46336,0,2790614461,63
i,1727695443.501062,172.16.5.2,23129,172.16.1.2,5103,46875,49269,2086,64256,65728,6,6,4,1460,221250,1,16778208,600000,82732,65356,65700,0,49232,0,2790614461,63
o,1727695443.501080,172.16.5.2,23129,172.16.1.2,5103,46875,49269,2086,61376,65728,6,6,4,1460,225000,1,16778208,590000,82732,62460,65700,0,46336,0,2790614461,63
i,1727695443.503137,172.16.5.2,23129,172.16.1.2,5103,46875,49269,2086,61376,65728,6,6,4,1460,225000,1,16778208,590000,82732,82732,65700,0,49232,0,2790614461,63
o,1727695443.503162,172.16.5.2,23129,172.16.1.2,5103,46875,49269,2086,97152,65728,6,6,4,1460,228125,1,16778208,580000,90924,79836,65700,0,46336,0,2790614461,63
i,1727695443.503476,172.16.5.2,23129,172.16.1.2,5103,46875,49269,2086,97152,65728,6,6,4,1460,228125,1,16778208,580000,99116,79836,65700,0,49232,0,2790614461,63
o,1727695443.503497,172.16.5.2,23129,172.16.1.2,5103,46875,49269,2086,97152,65728,6,6,4,1460,230937,1,16778208,560000,99116,76940,65700,0,46336,0,2790614461,63
i,1727695443.503653,172.16.5.2,23129,172.16.1.2,5103,46875,49269,2086,97152,65728,6,6,4,1460,230937,1,16778208,560000,99116,76940,65700,0,49232,0,2790614461,63
o,1727695443.503672,172.16.5.2,23129,172.16.1.2,5103,46875,50729,2086,94272,65728,6,6,4,1460,233437,1,16778208,550000,99116,74044,65700,0,46336,0,2790614461,63
i,1727695443.503928,172.16.5.2,23129,172.16.1.2,5103,46875,50729,2086,94272,65728,6,6,4,1460,233437,1,16778208,550000,99116,74044,65700,0,50680,0,2790614461,63
o,1727695443.503946,172.16.5.2,23129,172.16.1.2,5103,46875,50729,2086,95680,65728,6,6,4,1460,235625,1,16778208,540000,99116,71148,65700,0,47784,0,2790614461,63
o,1727695443.504086,172.16.5.2,23129,172.16.1.2,5103,46875,50729,2086,95680,65728,6,6,4,1460,235625,1,16778208,540000,99116,71148,65700,0,49232,0,2790614461,63
i,1727695443.504242,172.16.5.2,23129,172.16.1.2,5103,46875,50729,2086,95680,65728,6,6,4,1460,235625,1,16778208,540000,99116,71148,65700,0,50680,0,2790614461,63
o,1727695443.504261,172.16.5.2,23129,172.16.1.2,5103,46875,50729,2086,97152,65728,6,6,4,1460,235000,1,16778208,520000,99116,68252,65700,0,47784,0,2790614461,63
i,1727695443.739816,172.16.5.2,23129,172.16.1.2,5103,46875,50729,2086,97152,65728,6,6,4,1460,235000,1,16778208,520000,107308,107308,65700,0,50680,0,2790614461,63
o,1727695443.739879,172.16.5.2,23129,172.16.1.2,5103,46875,50729,2086,95680,65728,6,6,4,1460,235625,1,16778208,500000,107308,104412,65700,0,47784,0,2790614461,63
i,1727695443.740133,172.16.5.2,23129,172.16.1.2,5103,46875,50729,2086,95680,65728,6,6,4,1460,235625,1,16778208,500000,107308,104412,65700,0,50680,0,2790614461,63
o,1727695443.740170,172.16.5.2,23129,172.16.1.2,5103,46875,50729,2086,95680,65728,6,6,4,1460,236250,1,16778208,490000,107308,101516,65700,0,47784,0,2790614461,63
i,1727695443.740517,172.16.5.2,23129,172.16.1.2,5103,46875,50729,2086,95680,65728,6,6,4,1460,236250,1,16778208,490000,107308,101516,65700,0,50680,0,2790614461,63
o,1727695443.740533,172.16.5.2,23129,172.16.1.2,5103,46875,50729,2086,97152,65728,6,6,4,1460,236875,1,16778208,480000,107308,98620,65700,0,47784,0,2790614461,63
i,1727695443.740681,172.16.5.2,23129,172.16.1.2,5103,46875,50729,2086,97152,65728,6,6,4,1460,236875,1,16778208,480000,115500,98620,65700,0,50680,0,2790614461,63
o,1727695443.740717,172.16.5.2,23129,172.16.1.2,5103,46875,50729,2086,94272,65728,6,6,4,1460,237500,1,16778208,480000,115500,95724,65700,0,47784,0,2790614461,63
i,1727695443.740839,172.16.5.2,23129,172.16.1.2,5103,46875,50729,2086,94272,65728,6,6,4,1460,237500,1,16778208,480000,115500,95724,65700,0,50680,0,2790614461,63
o,1727695443.740871,172.16.5.2,23129,172.16.1.2,5103,46875,50729,2086,91392,65728,6,6,4,1460,237812,1,16778208,470000,115500,92828,65700,0,47784,0,2790614461,63
i,1727695443.740994,172.16.5.2,23129,172.16.1.2,5103,46875,50729,2086,91392,65728,6,6,4,1460,237812,1,16778208,470000,115500,92828,65700,0,50680,0,2790614461,63
o,1727695443.741010,172.16.5.2,23129,172.16.1.2,5103,46875,50729,2086,95680,65728,6,6,4,1460,238125,1,16778208,460000,115500,89932,65700,0,47784,0,2790614461,63
i,1727695443.741661,172.16.5.2,23129,172.16.1.2,5103,46875,50729,2086,95680,65728,6,6,4,1460,238125,1,16778208,460000,115500,115500,65700,0,50680,0,2790614461,63
o,1727695443.741697,172.16.5.2,23129,172.16.1.2,5103,46875,50729,2086,92800,65728,6,6,4,1460,238437,1,16778208,460000,115500,112604,65700,0,47784,0,2790614461,63
i,1727695443.741926,172.16.5.2,23129,172.16.1.2,5103,46875,50729,2086,92800,65728,6,6,4,1460,238437,1,16778208,460000,115500,112604,65700,0,50680,0,2790614461,63
o,1727695443.741946,172.16.5.2,23129,172.16.1.2,5103,46875,50729,2086,89920,65728,6,6,4,1460,238750,1,16778208,460000,115500,109708,65700,0,47784,0,2790614461,63
i,1727695443.742136,172.16.5.2,23129,172.16.1.2,5103,46875,50729,2086,89920,65728,6,6,4,1460,238750,1,16778208,460000,115500,109708,65700,0,50680,0,2790614461,63
o,1727695443.742157,172.16.5.2,23129,172.16.1.2,5103,46875,50729,2086,87040,65728,6,6,4,1460,239062,1,16778208,450000,115500,106812,65700,0,47784,0,2790614461,63
i,1727695443.742343,172.16.5.2,23129,172.16.1.2,5103,46875,50729,2086,87040,65728,6,6,4,1460,239062,1,16778208,450000,115500,106812,65700,0,50680,0,2790614461,63
o,1727695443.742364,172.16.5.2,23129,172.16.1.2,5103,46875,50729,2086,95680,65728,6,6,4,1460,239375,1,16778208,450000,115500,103916,65700,0,47784,0,2790614461,63
i,1727695443.742535,172.16.5.2,23129,172.16.1.2,5103,46875,50729,2086,95680,65728,6,6,4,1460,239375,1,16778208,450000,115500,103916,65700,0,50680,0,2790614461,63
o,1727695443.742555,172.16.5.2,23129,172.16.1.2,5103,46875,50729,2086,92800,65728,6,6,4,1460,239687,1,16778208,450000,115500,101020,65700,0,47784,0,2790614461,63
i,1727695443.742694,172.16.5.2,23129,172.16.1.2,5103,46875,50729,2086,92800,65728,6,6,4,1460,239687,1,16778208,450000,115500,115500,65700,0,50680,0,2790614461,63
o,1727695443.742694,172.16.5.2,23129,172.16.1.2,5103,46875,50729,2086,95680,65728,6,6,4,1460,240000,1,16778208,450000,115500,112604,65700,0,47784,0,2790614461,63
i,1727695443.743373,172.16.5.2,23129,172.16.1.2,5103,46875,50729,2086,95680,65728,6,6,4,1460,240000,1,16778208,450000,115500,112604,65700,0,50680,0,2790614461,63
o,1727695443.743393,172.16.5.2,23129,172.16.1.2,5103,46875,50729,2086,95680,65728,6,6,4,1460,240000,1,16778208,450000,115500,109708,65700,0,47784,0,2790614461,63
i,1727695443.762456,172.16.5.2,23129,172.16.1.2,5103,46875,50729,2086,95680,65728,6,6,4,1460,240000,1,16778208,450000,115500,115500,65700,0,50680,0,2790614461,63
o,1727695443.762476,172.16.5.2,23129,172.16.1.2,5103,46875,50729,2086,95680,65728,6,6,4,1460,242500,1,16778208,470000,115500,112604,65700,0,47784,0,2790614461,63
i,1727695443.762815,172.16.5.2,23129,172.16.1.2,5103,46875,50729,2086,95680,65728,6,6,4,1460,242500,1,16778208,470000,115500,112604,65700,0,50680,0,2790614461,63
o,1727695443.762836,172.16.5.2,23129,172.16.1.2,5103,46875,52189,2086,92800,65728,6,6,4,1460,244687,1,16778208,480000,115500,109708,65700,0,47784,0,2790614461,63
i,1727695443.763000,172.16.5.2,23129,172.16.1.2,5103,46875,52189,2086,92800,65728,6,6,4,1460,244687,1,16778208,480000,115500,109708,65700,0,52128,0,2790614461,63
o,1727695443.763017,172.16.5.2,23129,172.16.1.2,5103,46875,52189,2086,95680,65728,6,6,4,1460,246875,1,16778208,490000,115500,106812,65700,0,49232,0,2790614461,63
o,1727695443.763133,172.16.5.2,23129,172.16.1.2,5103,46875,52189,2086,95680,65728,6,6,4,1460,246875,1,16778208,490000,115500,106812,65700,0,50680,0,2790614461,63
i,1727695443.763337,172.16.5.2,23129,172.16.1.2,5103,46875,52189,2086,95680,65728,6,6,4,1460,246875,1,16778208,490000,115500,106812,65700,0,52128,0,2790614461,63
o,1727695443.763365,172.16.5.2,23129,172.16.1.2,5103,46875,52189,2086,95680,65728,6,6,4,1460,248750,1,16778208,500000,115500,103916,65700,0,49232,0,2790614461,63
i,1727695443.814311,172.16.5.2,23129,172.16.1.2,5103,46875,52189,2086,95680,65728,6,6,4,1460,248750,1,16778208,500000,123692,123692,65700,0,52128,0,2790614461,63
o,1727695443.814425,172.16.5.2,23129,172.16.1.2,5103,46875,52189,2086,98560,65728,6,6,4,1460,256562,1,16778208,550000,123692,122244,65700,0,50680,0,2790614461,63
i,1727695443.995305,172.16.5.2,23129,172.16.1.2,5103,46875,52189,2086,98560,65728,6,6,4,1460,256562,1,16778208,550000,123692,122244,65700,0,52128,0,2790614461,63
o,1727695443.995344,172.16.5.2,23129,172.16.1.2,5103,46875,52189,2086,144960,65728,6,6,4,1460,257187,1,16778208,530000,123692,119348,65700,0,49232,0,2790614461,63
i,1727695443.995537,172.16.5.2,23129,172.16.1.2,5103,46875,52189,2086,144960,65728,6,6,4,1460,257187,1,16778208,530000,123692,119348,65700,0,52128,0,2790614461,63
o,1727695443.995556,172.16.5.2,23129,172.16.1.2,5103,46875,52189,2086,146432,65728,6,6,4,1460,257812,1,16778208,520000,123692,116452,65700,0,49232,0,2790614461,63
i,1727695443.995691,172.16.5.2,23129,172.16.1.2,5103,46875,52189,2086,146432,65728,6,6,4,1460,257812,1,16778208,520000,123692,116452,65700,0,52128,0,2790614461,63
o,1727695443.995708,172.16.5.2,23129,172.16.1.2,5103,46875,52189,2086,143552,65728,6,6,4,1460,256875,1,16778208,510000,123692,113556,65700,0,49232,0,2790614461,63
i,1727695443.995888,172.16.5.2,23129,172.16.1.2,5103,46875,52189,2086,143552,65728,6,6,4,1460,256875,1,16778208,510000,123692,113556,65700,0,52128,0,2790614461,63
o,1727695443.995906,172.16.5.2,23129,172.16.1.2,5103,46875,52189,2086,140672,65728,6,6,4,1460,256250,1,16778208,500000,123692,110660,65700,0,49232,0,2790614461,63
i,1727695443.996075,172.16.5.2,23129,172.16.1.2,5103,46875,52189,2086,140672,65728,6,6,4,1460,256250,1,16778208,500000,123692,110660,65700,0,52128,0,2790614461,63
o,1727695443.996109,172.16.5.2,23129,172.16.1.2,5103,46875,52189,2086,137792,65728,6,6,4,1460,255625,1,16778208,490000,123692,107764,65700,0,49232,0,2790614461,63
i,1727695443.996296,172.16.5.2,23129,172.16.1.2,5103,46875,52189,2086,137792,65728,6,6,4,1460,255625,1,16778208,490000,123692,107764,65700,0,52128,0,2790614461,63
o,1727695443.996318,172.16.5.2,23129,172.16.1.2,5103,46875,52189,2086,146432,65728,6,6,4,1460,255000,1,16778208,490000,123692,104868,65700,0,49232,0,2790614461,63
i,1727695444.006697,172.16.5.2,23129,172.16.1.2,5103,46875,52189,2086,146432,65728,6,6,4,1460,255000,1,16778208,490000,123692,123692,65700,0,52128,0,2790614461,63
o,1727695444.006751,172.16.5.2,23129,172.16.1.2,5103,46875,52189,2086,144960,65728,6,6,4,1460,255625,1,16778208,490000,123692,120796,65700,0,49232,0,2790614461,63
i,1727695444.006953,172.16.5.2,23129,172.16.1.2,5103,46875,52189,2086,144960,65728,6,6,4,1460,255625,1,16778208,490000,123692,120796,65700,0,52128,0,2790614461,63
o,1727695444.006976,172.16.5.2,23129,172.16.1.2,5103,46875,52189,2086,146432,65728,6,6,4,1460,256250,1,16778208,480000,123692,117900,65700,0,49232,0,2790614461,63
i,1727695444.007219,172.16.5.2,23129,172.16.1.2,5103,46875,52189,2086,146432,65728,6,6,4,1460,256250,1,16778208,480000,123692,117900,65700,0,52128,0,2790614461,63
o,1727695444.007241,172.16.5.2,23129,172.16.1.2,5103,46875,52189,2086,146432,65728,6,6,4,1460,256875,1,16778208,480000,123692,115004,65700,0,49232,0,2790614461,63
i,1727695444.007456,172.16.5.2,23129,172.16.1.2,5103,46875,52189,2086,146432,65728,6,6,4,1460,256875,1,16778208,480000,123692,115004,65700,0,52128,0,2790614461,63
o,1727695444.007475,172.16.5.2,23129,172.16.1.2,5103,46875,52189,2086,143552,65728,6,6,4,1460,257500,1,16778208,480000,123692,112108,65700,0,49232,0,2790614461,63
i,1727695444.028796,172.16.5.2,23129,172.16.1.2,5103,46875,52189,2086,143552,65728,6,6,4,1460,257500,1,16778208,480000,123692,123692,65700,0,52128,0,2790614461,63
o,1727695444.028903,172.16.5.2,23129,172.16.1.2,5103,46875,52189,2086,146432,65728,6,6,4,1460,260312,1,16778208,500000,123692,120796,65700,0,49232,0,2790614461,63
i,1727695444.029036,172.16.5.2,23129,172.16.1.2,5103,46875,52189,2086,146432,65728,6,6,4,1460,260312,1,16778208,500000,123692,120796,65700,0,52128,0,2790614461,63
o,1727695444.029061,172.16.5.2,23129,172.16.1.2,5103,46875,52189,2086,144960,65728,6,6,4,1460,262812,1,16778208,510000,123692,117900,65700,0,49232,0,2790614461,63
i,1727695444.029313,172.16.5.2,23129,172.16.1.2,5103,46875,52189,2086,144960,65728,6,6,4,1460,262812,1,16778208,510000,123692,117900,65700,0,52128,0,2790614461,63
o,1727695444.029329,172.16.5.2,23129,172.16.1.2,5103,46875,52189,2086,146432,65728,6,6,4,1460,265000,1,16778208,520000,123692,115004,65700,0,49232,0,2790614461,63
i,1727695444.030719,172.16.5.2,23129,172.16.1.2,5103,46875,52189,2086,146432,65728,6,6,4,1460,265000,1,16778208,520000,123692,123692,65700,0,52128,0,2790614461,63
o,1727695444.030738,172.16.5.2,23129,172.16.1.2,5103,46875,52189,2086,144960,65728,6,6,4,1460,264375,1,16778208,510000,123692,120796,65700,0,49232,0,2790614461,63
i,1727695444.030868,172.16.5.2,23129,172.16.1.2,5103,46875,52189,2086,144960,65728,6,6,4,1460,264375,1,16778208,510000,123692,120796,65700,0,52128,0,2790614461,63
o,1727695444.030885,172.16.5.2,23129,172.16.1.2,5103,46875,52189,2086,142080,65728,6,6,4,1460,264062,1,16778208,500000,123692,117900,65700,0,49232,0,2790614461,63
i,1727695444.031032,172.16.5.2,23129,172.16.1.2,5103,46875,52189,2086,142080,65728,6,6,4,1460,264062,1,16778208,500000,123692,117900,65700,0,52128,0,2790614461,63
o,1727695444.031073,172.16.5.2,23129,172.16.1.2,5103,46875,53649,2086,139200,65728,6,6,4,1460,263750,1,16778208,490000,123692,115004,65700,0,49232,0,2790614461,63
o,1727695444.031183,172.16.5.2,23129,172.16.1.2,5103,46875,53649,2086,139200,65728,6,6,4,1460,263750,1,16778208,490000,123692,115004,65700,0,50680,0,2790614461,63
i,1727695444.032083,172.16.5.2,23129,172.16.1.2,5103,46875,53649,2086,139200,65728,6,6,4,1460,263750,1,16778208,490000,123692,123692,65700,0,53576,0,2790614461,63
o,1727695444.032104,172.16.5.2,23129,172.16.1.2,5103,46875,53649,2086,136320,65728,6,6,4,1460,263437,1,16778208,490000,123692,120796,65700,0,50680,0,2790614461,63
i,1727695444.032230,172.16.5.2,23129,172.16.1.2,5103,46875,53649,2086,136320,65728,6,6,4,1460,263437,1,16778208,490000,123692,120796,65700,0,53576,0,2790614461,63
o,1727695444.032246,172.16.5.2,23129,172.16.1.2,5103,46875,53649,2086,144960,65728,6,6,4,1460,263125,1,16778208,480000,123692,117900,65700,0,50680,0,2790614461,63
i,1727695444.231168,172.16.5.2,23129,172.16.1.2,5103,46875,53649,2086,144960,65728,6,6,4,1460,263125,1,16778208,480000,123692,123692,65700,0,53576,0,2790614461,63
o,1727695444.231252,172.16.5.2,23129,172.16.1.2,5103,46875,53649,2086,144960,65728,6,6,4,1460,260312,1,16778208,500000,123692,120796,65700,0,50680,0,2790614461,63
i,1727695444.239006,172.16.5.2,23129,172.16.1.2,5103,46875,53649,2086,144960,65728,6,6,4,1460,260312,1,16778208,500000,123692,123692,65700,0,53576,0,2790614461,63
o,1727695444.239040,172.16.5.2,23129,172.16.1.2,5103,46875,53649,2086,146432,65728,6,6,4,1460,257812,1,16778208,510000,123692,120796,65700,0,50680,0,2790614461,63
i,1727695444.239190,172.16.5.2,23129,172.16.1.2,5103,46875,53649,2086,146432,65728,6,6,4,1460,257812,1,16778208,510000,123692,120796,65700,0,53576,0,2790614461,63
o,1727695444.239208,172.16.5.2,23129,172.16.1.2,5103,46875,53649,2086,144960,65728,6,6,4,1460,255625,1,16778208,510000,123692,117900,65700,0,50680,0,2790614461,63
i,1727695444.240389,172.16.5.2,23129,172.16.1.2,5103,46875,53649,2086,144960,65728,6,6,4,1460,255625,1,16778208,510000,123692,123692,65700,0,53576,0,2790614461,63
o,1727695444.240423,172.16.5.2,23129,172.16.1.2,5103,46875,53649,2086,144960,65728,6,6,4,1460,253750,1,16778208,510000,123692,120796,65700,0,50680,0,2790614461,63
i,1727695444.240618,172.16.5.2,23129,172.16.1.2,5103,46875,53649,2086,144960,65728,6,6,4,1460,253750,1,16778208,510000,123692,120796,65700,0,53576,0,2790614461,63
o,1727695444.240643,172.16.5.2,23129,172.16.1.2,5103,46875,53649,2086,142080,65728,6,6,4,1460,252187,1,16778208,500000,123692,117900,65700,0,50680,0,2790614461,63
i,1727695444.240869,172.16.5.2,23129,172.16.1.2,5103,46875,53649,2086,142080,65728,6,6,4,1460,252187,1,16778208,500000,123692,117900,65700,0,53576,0,2790614461,63
o,1727695444.240893,172.16.5.2,23129,172.16.1.2,5103,46875,53649,2086,146432,65728,6,6,4,1460,250937,1,16778208,500000,123692,115004,65700,0,50680,0,2790614461,63
i,1727695444.241060,172.16.5.2,23129,172.16.1.2,5103,46875,53649,2086,146432,65728,6,6,4,1460,250937,1,16778208,500000,123692,115004,65700,0,53576,0,2790614461,63
o,1727695444.241094,172.16.5.2,23129,172.16.1.2,5103,46875,53649,2086,143552,65728,6,6,4,1460,248437,1,16778208,510000,123692,112108,65700,0,50680,0,2790614461,63
i,1727695444.241272,172.16.5.2,23129,172.16.1.2,5103,46875,53649,2086,143552,65728,6,6,4,1460,248437,1,16778208,510000,123692,112108,65700,0,53576,0,2790614461,63
o,1727695444.241295,172.16.5.2,23129,172.16.1.2,5103,46875,53649,2086,144960,65728,6,6,4,1460,246250,1,16778208,510000,123692,109212,65700,0,50680,0,2790614461,63
i,1727695444.241533,172.16.5.2,23129,172.16.1.2,5103,46875,53649,2086,144960,65728,6,6,4,1460,246250,1,16778208,510000,123692,109212,65700,0,53576,0,2790614461,63
o,1727695444.241557,172.16.5.2,23129,172.16.1.2,5103,46875,53649,2086,144960,65728,6,6,4,1460,244375,1,16778208,500000,123692,106316,65700,0,50680,0,2790614461,63
i,1727695444.241745,172.16.5.2,23129,172.16.1.2,5103,46875,53649,2086,144960,65728,6,6,4,1460,244375,1,16778208,500000,123692,106316,65700,0,53576,0,2790614461,63
o,1727695444.241768,172.16.5.2,23129,172.16.1.2,5103,46875,53649,2086,146432,65728,6,6,4,1460,242812,1,16778208,500000,123692,103420,65700,0,50680,0,2790614461,63
i,1727695444.242890,172.16.5.2,23129,172.16.1.2,5103,46875,53649,2086,146432,65728,6,6,4,1460,242812,1,16778208,500000,123692,123692,65700,0,53576,0,2790614461,63
o,1727695444.242914,172.16.5.2,23129,172.16.1.2,5103,46875,53649,2086,144960,65728,6,6,4,1460,238750,1,16778208,510000,123692,120796,65700,0,50680,0,2790614461,63
i,1727695444.243053,172.16.5.2,23129,172.16.1.2,5103,46875,53649,2086,144960,65728,6,6,4,1460,238750,1,16778208,510000,123692,120796,65700,0,53576,0,2790614461,63
o,1727695444.243075,172.16.5.2,23129,172.16.1.2,5103,46875,53649,2086,144960,65728,6,6,4,1460,235312,1,16778208,520000,123692,117900,65700,0,50680,0,2790614461,63
i,1727695444.243293,172.16.5.2,23129,172.16.1.2,5103,46875,53649,2086,144960,65728,6,6,4,1460,235312,1,16778208,520000,123692,117900,65700,0,53576,0,2790614461,63
o,1727695444.243310,172.16.5.2,23129,172.16.1.2,5103,46875,53649,2086,146432,65728,6,6,4,1460,232187,1,16778208,520000,123692,115004,65700,0,50680,0,2790614461,63
i,1727695444.243486,172.16.5.2,23129,172.16.1.2,5103,46875,53649,2086,146432,65728,6,6,4,1460,232187,1,16778208,520000,123692,115004,65700,0,53576,0,2790614461,63
o,1727695444.243505,172.16.5.2,23129,172.16.1.2,5103,46875,53649,2086,143552,65728,6,6,4,1460,228437,1,16778208,520000,123692,112108,65700,0,50680,0,2790614461,63
i,1727695444.243667,172.16.5.2,23129,172.16.1.2,5103,46875,53649,2086,143552,65728,6,6,4,1460,228437,1,16778208,520000,123692,112108,65700,0,53576,0,2790614461,63
o,1727695444.243685,172.16.5.2,23129,172.16.1.2,5103,46875,53649,2086,140672,65728,6,6,4,1460,225000,1,16778208,520000,123692,109212,65700,0,50680,0,2790614461,63
i,1727695444.244941,172.16.5.2,23129,172.16.1.2,5103,46875,53649,2086,140672,65728,6,6,4,1460,225000,1,16778208,520000,123692,123692,65700,0,53576,0,2790614461,63
o,1727695444.244979,172.16.5.2,23129,172.16.1.2,5103,46875,55109,2086,144960,65728,6,6,4,1460,221875,1,16778208,520000,123692,120796,65700,0,50680,0,2790614461,63
o,1727695444.245156,172.16.5.2,23129,172.16.1.2,5103,46875,55109,2086,144960,65728,6,6,4,1460,221875,1,16778208,520000,123692,120796,65700,0,52128,0,2790614461,63
i,1727695444.245358,172.16.5.2,23129,172.16.1.2,5103,46875,55109,2086,144960,65728,6,6,4,1460,221875,1,16778208,520000,123692,120796,65700,0,55024,0,2790614461,63
o,1727695444.245382,172.16.5.2,23129,172.16.1.2,5103,46875,55109,2086,144960,65728,6,6,4,1460,219375,1,16778208,510000,123692,117900,65700,0,52128,0,2790614461,63
i,1727695444.245593,172.16.5.2,23129,172.16.1.2,5103,46875,55109,2086,144960,65728,6,6,4,1460,219375,1,16778208,510000,123692,117900,65700,0,55024,0,2790614461,63
o,1727695444.245616,172.16.5.2,23129,172.16.1.2,5103,46875,55109,2086,144960,65728,6,6,4,1460,217187,1,16778208,500000,123692,115004,65700,0,52128,0,2790614461,63
i,1727695444.301009,172.16.5.2,23129,172.16.1.2,5103,46875,55109,2086,144960,65728,6,6,4,1460,217187,1,16778208,500000,123692,123692,65700,0,55024,0,2790614461,63
o,1727695444.301045,172.16.5.2,23129,172.16.1.2,5103,46875,55109,2086,147840,65728,6,6,4,1460,224062,1,16778208,540000,123692,122244,65700,0,53576,0,2790614461,63
i,1727695444.500541,172.16.5.2,23129,172.16.1.2,5103,46875,55109,2086,147840,65728,6,6,4,1460,224062,1,16778208,540000,123692,122244,65700,0,55024,0,2790614461,63
o,1727695444.500590,172.16.5.2,23129,172.16.1.2,5103,46875,55109,2086,144960,65728,6,6,4,1460,228750,1,16778208,560000,123692,119348,65700,0,52128,0,2790614461,63
i,1727695444.500766,172.16.5.2,23129,172.16.1.2,5103,46875,55109,2086,144960,65728,6,6,4,1460,228750,1,16778208,560000,123692,119348,65700,0,55024,0,2790614461,63
o,1727695444.500786,172.16.5.2,23129,172.16.1.2,5103,46875,55109,2086,142080,65728,6,6,4,1460,232812,1,16778208,560000,123692,116452,65700,0,52128,0,2790614461,63
i,1727695444.538634,172.16.5.2,23129,172.16.1.2,5103,46875,55109,2086,142080,65728,6,6,4,1460,232812,1,16778208,560000,123692,123692,65700,0,55024,0,2790614461,63
o,1727695444.538682,172.16.5.2,23129,172.16.1.2,5103,46875,55109,2086,144960,65728,6,6,4,1460,241250,1,16778208,600000,123692,120796,65700,0,52128,0,2790614461,63
i,1727695444.538858,172.16.5.2,23129,172.16.1.2,5103,46875,55109,2086,144960,65728,6,6,4,1460,241250,1,16778208,600000,123692,120796,65700,0,55024,0,2790614461,63
o,1727695444.538879,172.16.5.2,23129,172.16.1.2,5103,46875,55109,2086,144960,65728,6,6,4,1460,247500,1,16778208,620000,123692,117900,65700,0,52128,0,2790614461,63
i,1727695444.539086,172.16.5.2,23129,172.16.1.2,5103,46875,55109,2086,144960,65728,6,6,4,1460,247500,1,16778208,620000,123692,117900,65700,0,55024,0,2790614461,63
o,1727695444.539105,172.16.5.2,23129,172.16.1.2,5103,46875,55109,2086,144960,65728,6,6,4,1460,252812,1,16778208,630000,123692,115004,65700,0,52128,0,2790614461,63
i,1727695444.539232,172.16.5.2,23129,172.16.1.2,5103,46875,55109,2086,144960,65728,6,6,4,1460,252812,1,16778208,630000,123692,115004,65700,0,55024,0,2790614461,63
o,1727695444.539251,172.16.5.2,23129,172.16.1.2,5103,46875,55109,2086,146432,65728,6,6,4,1460,257500,1,16778208,630000,123692,112108,65700,0,52128,0,2790614461,63
i,1727695444.539445,172.16.5.2,23129,172.16.1.2,5103,46875,55109,2086,146432,65728,6,6,4,1460,257500,1,16778208,630000,123692,112108,65700,0,55024,0,2790614461,63
o,1727695444.539463,172.16.5.2,23129,172.16.1.2,5103,46875,55109,2086,143552,65728,6,6,4,1460,261562,1,16778208,620000,123692,109212,65700,0,52128,0,2790614461,63
i,1727695444.539605,172.16.5.2,23129,172.16.1.2,5103,46875,55109,2086,143552,65728,6,6,4,1460,261562,1,16778208,620000,131884,109212,65700,0,55024,0,2790614461,63
o,1727695444.539622,172.16.5.2,23129,172.16.1.2,5103,46875,55109,2086,146432,65728,6,6,4,1460,265312,1,16778208,610000,131884,106316,65700,0,52128,0,2790614461,63
i,1727695444.539792,172.16.5.2,23129,172.16.1.2,5103,46875,55109,2086,146432,65728,6,6,4,1460,265312,1,16778208,610000,131884,106316,65700,0,55024,0,2790614461,63
o,1727695444.539808,172.16.5.2,23129,172.16.1.2,5103,46875,55109,2086,146432,65728,6,6,4,1460,268437,1,16778208,600000,131884,103420,65700,0,52128,0,2790614461,63
i,1727695444.539996,172.16.5.2,23129,172.16.1.2,5103,46875,55109,2086,146432,65728,6,6,4,1460,268437,1,16778208,600000,131884,103420,65700,0,55024,0,2790614461,63
o,1727695444.540024,172.16.5.2,23129,172.16.1.2,5103,46875,55109,2086,143552,65728,6,6,4,1460,271250,1,16778208,590000,131884,100524,65700,0,52128,0,2790614461,63
i,1727695444.541158,172.16.5.2,23129,172.16.1.2,5103,46875,55109,2086,143552,65728,6,6,4,1460,271250,1,16778208,590000,131884,131884,65700,0,55024,0,2790614461,63
o,1727695444.541190,172.16.5.2,23129,172.16.1.2,5103,46875,55109,2086,140672,65728,6,6,4,1460,275000,1,16778208,600000,131884,128988,65700,0,52128,0,2790614461,63
i,1727695444.541348,172.16.5.2,23129,172.16.1.2,5103,46875,55109,2086,140672,65728,6,6,4,1460,275000,1,16778208,600000,131884,128988,65700,0,55024,0,2790614461,63
o,1727695444.541365,172.16.5.2,23129,172.16.1.2,5103,46875,55109,2086,144960,65728,6,6,4,1460,278125,1,16778208,600000,131884,126092,65700,0,52128,0,2790614461,63
i,1727695444.541503,172.16.5.2,23129,172.16.1.2,5103,46875,55109,2086,144960,65728,6,6,4,1460,278125,1,16778208,600000,131884,126092,65700,0,55024,0,2790614461,63
o,1727695444.541519,172.16.5.2,23129,172.16.1.2,5103,46875,55109,2086,146432,65728,6,6,4,1460,280937,1,16778208,590000,131884,123196,65700,0,52128,0,2790614461,63
i,1727695444.542476,172.16.5.2,23129,172.16.1.2,5103,46875,55109,2086,146432,65728,6,6,4,1460,280937,1,16778208,590000,131884,131884,65700,0,55024,0,2790614461,63
o,1727695444.542501,172.16.5.2,23129,172.16.1.2,5103,46875,55109,2086,146432,65728,6,6,4,1460,283437,1,16778208,590000,131884,128988,65700,0,52128,0,2790614461,63
i,1727695444.542666,172.16.5.2,23129,172.16.1.2,5103,46875,55109,2086,146432,65728,6,6,4,1460,283437,1,16778208,590000,131884,128988,65700,0,55024,0,2790614461,63
o,1727695444.542685,172.16.5.2,23129,172.16.1.2,5103,46875,55109,2086,143552,65728,6,6,4,1460,285625,1,16778208,580000,131884,126092,65700,0,52128,0,2790614461,63
i,1727695444.542888,172.16.5.2,23129,172.16.1.2,5103,46875,55109,2086,143552,65728,6,6,4,1460,285625,1,16778208,580000,131884,126092,65700,0,55024,0,2790614461,63
o,1727695444.542908,172.16.5.2,23129,172.16.1.2,5103,46875,55109,2086,146432,65728,6,6,4,1460,287500,1,16778208,570000,131884,123196,65700,0,52128,0,2790614461,63
o,1727695444.543043,172.16.5.2,23129,172.16.1.2,5103,46875,55109,2086,146432,65728,6,6,4,1460,287500,1,16778208,570000,131884,123196,65700,0,53576,0,2790614461,63
i,1727695444.543317,172.16.5.2,23129,172.16.1.2,5103,46875,55109,2086,146432,65728,6,6,4,1460,287500,1,16778208,570000,131884,123196,65700,0,55024,0,2790614461,63
o,1727695444.543336,172.16.5.2,23129,172.16.1.2,5103,46875,56569,2086,146432,65728,6,6,4,1460,289062,1,16778208,560000,131884,120300,65700,0,52128,0,2790614461,63
i,1727695444.543491,172.16.5.2,23129,172.16.1.2,5103,46875,56569,2086,146432,65728,6,6,4,1460,289062,1,16778208,560000,131884,120300,65700,0,56472,0,2790614461,63
o,1727695444.543509,172.16.5.2,23129,172.16.1.2,5103,46875,56569,2086,147840,65728,6,6,4,1460,290625,1,16778208,560000,131884,118852,65700,0,55024,0,2790614461,63
i,1727695444.543732,172.16.5.2,23129,172.16.1.2,5103,46875,56569,2086,147840,65728,6,6,4,1460,290625,1,16778208,560000,131884,118852,65700,0,56472,0,2790614461,63
o,1727695444.543753,172.16.5.2,23129,172.16.1.2,5103,46875,56569,2086,144960,65728,6,6,4,1460,291875,1,16778208,550000,131884,115956,65700,0,53576,0,2790614461,63
i,1727695444.626299,172.16.5.2,23129,172.16.1.2,5103,46875,56569,2086,144960,65728,6,6,4,1460,291875,1,16778208,550000,131884,131884,65700,0,56472,0,2790614461,63
o,1727695444.626345,172.16.5.2,23129,172.16.1.2,5103,46875,56569,2086,147840,65728,6,6,4,1460,295625,1,16778208,570000,131884,130436,65700,0,55024,0,2790614461,63
i,1727695444.770072,172.16.5.2,23129,172.16.1.2,5103,46875,56569,2086,147840,65728,6,6,4,1460,295625,1,16778208,570000,131884,130436,65700,0,56472,0,2790614461,63
o,1727695444.770307,172.16.5.2,23129,172.16.1.2,5103,46875,56569,2086,144960,65728,6,6,4,1460,291250,1,16778208,580000,131884,127540,65700,0,53576,0,2790614461,63
i,1727695444.770760,172.16.5.2,23129,172.16.1.2,5103,46875,56569,2086,144960,65728,6,6,4,1460,291250,1,16778208,580000,131884,127540,65700,0,56472,0,2790614461,63
o,1727695444.770783,172.16.5.2,23129,172.16.1.2,5103,46875,56569,2086,146432,65728,6,6,4,1460,288750,1,16778208,580000,131884,124644,65700,0,53576,0,2790614461,63
i,1727695444.771011,172.16.5.2,23129,172.16.1.2,5103,46875,56569,2086,146432,65728,6,6,4,1460,288750,1,16778208,580000,131884,124644,65700,0,56472,0,2790614461,63
o,1727695444.771032,172.16.5.2,23129,172.16.1.2,5103,46875,56569,2086,144960,65728,6,6,4,1460,281562,1,16778208,600000,131884,121748,65700,0,53576,0,2790614461,63
i,1727695444.777546,172.16.5.2,23129,172.16.1.2,5103,46875,56569,2086,144960,65728,6,6,4,1460,281562,1,16778208,600000,131884,131884,65700,0,56472,0,2790614461,63
o,1727695444.777680,172.16.5.2,23129,172.16.1.2,5103,46875,56569,2086,146432,65728,6,6,4,1460,275312,1,16778208,620000,131884,128988,65700,0,53576,0,2790614461,63
i,1727695444.777853,172.16.5.2,23129,172.16.1.2,5103,46875,56569,2086,146432,65728,6,6,4,1460,275312,1,16778208,620000,131884,128988,65700,0,56472,0,2790614461,63
o,1727695444.777874,172.16.5.2,23129,172.16.1.2,5103,46875,56569,2086,143552,65728,6,6,4,1460,269687,1,16778208,620000,131884,126092,65700,0,53576,0,2790614461,63
i,1727695444.778036,172.16.5.2,23129,172.16.1.2,5103,46875,56569,2086,143552,65728,6,6,4,1460,269687,1,16778208,620000,131884,126092,65700,0,56472,0,2790614461,63
o,1727695444.778092,172.16.5.2,23129,172.16.1.2,5103,46875,56569,2086,146432,65728,6,6,4,1460,265000,1,16778208,620000,131884,123196,65700,0,53576,0,2790614461,63
i,1727695444.778506,172.16.5.2,23129,172.16.1.2,5103,46875,56569,2086,146432,65728,6,6,4,1460,265000,1,16778208,620000,131884,123196,65700,0,56472,0,2790614461,63
o,1727695444.778527,172.16.5.2,23129,172.16.1.2,5103,46875,56569,2086,146432,65728,6,6,4,1460,260625,1,16778208,610000,131884,120300,65700,0,53576,0,2790614461,63
i,1727695444.778712,172.16.5.2,23129,172.16.1.2,5103,46875,56569,2086,146432,65728,6,6,4,1460,260625,1,16778208,610000,131884,120300,65700,0,56472,0,2790614461,63
o,1727695444.778732,172.16.5.2,23129,172.16.1.2,5103,46875,56569,2086,146432,65728,6,6,4,1460,256875,1,16778208,600000,131884,117404,65700,0,53576,0,2790614461,63
i,1727695444.778918,172.16.5.2,23129,172.16.1.2,5103,46875,56569,2086,146432,65728,6,6,4,1460,256875,1,16778208,600000,131884,117404,65700,0,56472,0,2790614461,63
o,1727695444.778939,172.16.5.2,23129,172.16.1.2,5103,46875,56569,2086,143552,65728,6,6,4,1460,253750,1,16778208,590000,131884,114508,65700,0,53576,0,2790614461,63
i,1727695444.779156,172.16.5.2,23129,172.16.1.2,5103,46875,56569,2086,143552,65728,6,6,4,1460,253750,1,16778208,590000,131884,114508,65700,0,56472,0,2790614461,63
o,1727695444.779179,172.16.5.2,23129,172.16.1.2,5103,46875,56569,2086,146432,65728,6,6,4,1460,250937,1,16778208,570000,131884,111612,65700,0,53576,0,2790614461,63
i,1727695444.779382,172.16.5.2,23129,172.16.1.2,5103,46875,56569,2086,146432,65728,6,6,4,1460,250937,1,16778208,570000,131884,111612,65700,0,56472,0,2790614461,63
o,1727695444.779403,172.16.5.2,23129,172.16.1.2,5103,46875,56569,2086,144960,65728,6,6,4,1460,248437,1,16778208,560000,131884,108716,65700,0,53576,0,2790614461,63
i,1727695444.780471,172.16.5.2,23129,172.16.1.2,5103,46875,56569,2086,144960,65728,6,6,4,1460,248437,1,16778208,560000,131884,131884,65700,0,56472,0,2790614461,63
o,1727695444.780504,172.16.5.2,23129,172.16.1.2,5103,46875,56569,2086,146432,65728,6,6,4,1460,247500,1,16778208,540000,131884,128988,65700,0,53576,0,2790614461,63
i,1727695444.780715,172.16.5.2,23129,172.16.1.2,5103,46875,56569,2086,146432,65728,6,6,4,1460,247500,1,16778208,540000,131884,128988,65700,0,56472,0,2790614461,63
o,1727695444.780736,172.16.5.2,23129,172.16.1.2,5103,46875,56569,2086,143552,65728,6,6,4,1460,246562,1,16778208,520000,131884,126092,65700,0,53576,0,2790614461,63
i,1727695444.780944,172.16.5.2,23129,172.16.1.2,5103,46875,56569,2086,143552,65728,6,6,4,1460,246562,1,16778208,520000,131884,126092,65700,0,56472,0,2790614461,63
o,1727695444.780964,172.16.5.2,23129,172.16.1.2,5103,46875,56569,2086,140672,65728,6,6,4,1460,245937,1,16778208,510000,131884,123196,65700,0,53576,0,2790614461,63
i,1727695444.782110,172.16.5.2,23129,172.16.1.2,5103,46875,56569,2086,140672,65728,6,6,4,1460,245937,1,16778208,510000,131884,131884,65700,0,56472,0,2790614461,63
o,1727695444.782135,172.16.5.2,23129,172.16.1.2,5103,46875,56569,2086,147840,65728,6,6,4,1460,245312,1,16778208,500000,131884,130436,65700,0,55024,0,2790614461,63
i,1727695444.782320,172.16.5.2,23129,172.16.1.2,5103,46875,56569,2086,147840,65728,6,6,4,1460,245312,1,16778208,500000,131884,130436,65700,0,56472,0,2790614461,63
o,1727695444.782340,172.16.5.2,23129,172.16.1.2,5103,46875,56569,2086,146432,65728,6,6,4,1460,244687,1,16778208,490000,131884,127540,65700,0,53576,0,2790614461,63
o,1727695444.782516,172.16.5.2,23129,172.16.1.2,5103,46875,56569,2086,146432,65728,6,6,4,1460,244687,1,16778208,490000,131884,127540,65700,0,55024,0,2790614461,63
i,1727695444.782683,172.16.5.2,23129,172.16.1.2,5103,46875,56569,2086,146432,65728,6,6,4,1460,244687,1,16778208,490000,131884,127540,65700,0,56472,0,2790614461,63
o,1727695444.782704,172.16.5.2,23129,172.16.1.2,5103,46875,56569,2086,143552,65728,6,6,4,1460,244375,1,16778208,480000,131884,124644,65700,0,53576,0,2790614461,63
i,1727695444.782878,172.16.5.2,23129,172.16.1.2,5103,46875,56569,2086,143552,65728,6,6,4,1460,244375,1,16778208,480000,131884,124644,65700,0,56472,0,2790614461,63
o,1727695444.782899,172.16.5.2,23129,172.16.1.2,5103,46875,58029,2086,146432,65728,6,6,4,1460,244062,1,16778208,470000,131884,121748,65700,0,53576,0,2790614461,63
i,1727695444.783123,172.16.5.2,23129,172.16.1.2,5103,46875,58029,2086,146432,65728,6,6,4,1460,244062,1,16778208,470000,131884,121748,65700,0,57920,0,2790614461,63
o,1727695444.783165,172.16.5.2,23129,172.16.1.2,5103,46875,58029,2086,143552,65728,6,6,4,1460,243750,1,16778208,470000,131884,118852,65700,0,55024,0,2790614461,63
i,1727695444.783371,172.16.5.2,23129,172.16.1.2,5103,46875,58029,2086,143552,65728,6,6,4,1460,243750,1,16778208,470000,131884,118852,65700,0,57920,0,2790614461,63
o,1727695444.783407,172.16.5.2,23129,172.16.1.2,5103,46875,58029,2086,146432,65728,6,6,4,1460,243437,1,16778208,460000,131884,115956,65700,0,55024,0,2790614461,63
i,1727695445.043804,172.16.5.2,23129,172.16.1.2,5103,46875,58029,2086,146432,65728,6,6,4,1460,243437,1,16778208,460000,131884,131884,65700,0,57920,0,2790614461,63
o,1727695445.043902,172.16.5.2,23129,172.16.1.2,5103,46875,58029,2086,144960,65728,6,6,4,1460,246875,1,16778208,490000,131884,128988,65700,0,55024,0,2790614461,63
i,1727695445.044085,172.16.5.2,23129,172.16.1.2,5103,46875,58029,2086,144960,65728,6,6,4,1460,246875,1,16778208,490000,131884,128988,65700,0,57920,0,2790614461,63
o,1727695445.044102,172.16.5.2,23129,172.16.1.2,5103,46875,58029,2086,142080,65728,6,6,4,1460,250000,1,16778208,510000,131884,126092,65700,0,55024,0,2790614461,63
