enable_time_secs=1727695543	enable_time_usecs=284077	siftrver=1.3.0	sysname=FreeBSD	sysver=1401000	ipmode=4
o,1727695543.284552,10.0.2.15,22,10.0.2.2,49924,1073725440,17746,1026,65535,65700,0,0,4,1460,312,0,16777220,240000,33580,172,65700,0,0,0,4120334502,63
o,1727695543.284750,10.0.2.15,22,10.0.2.2,49924,1073725440,17746,1026,65535,65700,0,0,4,1460,312,0,16777220,240000,33580,244,65700,0,172,0,4120334502,63
i,1727695543.285081,10.0.2.15,22,10.0.2.2,49924,1073725440,17746,1026,65535,65700,0,0,4,1460,312,0,16777220,240000,33580,244,65700,0,244,0,4120334502,63
i,1727695543.285111,10.0.2.15,22,10.0.2.2,49924,1073725440,17918,1026,65535,65700,0,0,4,1460,312,0,4,240000,33580,72,65700,0,72,0,4120334502,63
i,1727695543.285458,10.0.2.15,22,10.0.2.2,49924,1073725440,17990,1026,65535,65700,0,0,4,1460,312,0,4,240000,33580,0,65700,0,0,0,4120334502,63
i,1727695543.285477,10.0.2.15,22,10.0.2.2,49924,1073725440,17990,1026,65535,65700,0,0,4,1460,312,0,4,240000,33580,0,65700,96,0,0,4120334502,63
o,1727695543.285497,10.0.2.15,22,10.0.2.2,49924,1073725440,17990,1026,65535,65604,0,0,5,1460,312,0,5,240000,33580,0,65700,96,0,0,4120334502,63
o,1727695543.286402,10.0.2.15,22,10.0.2.2,49924,1073725440,17990,1026,65535,65604,0,0,8,1460,312,0,4,240000,33580,0,65700,0,0,0,4120334502,63
i,1727695543.286947,10.0.2.15,22,10.0.2.2,49924,1073725440,17990,1026,65535,65604,0,0,8,1460,312,0,67108884,240000,33580,0,65700,0,1,0,4120334502,63
o,1727695545.099501,10.0.2.15,22,10.0.2.2,57953,1073725440,14600,1026,65535,65700,0,0,4,1460,312,0,16777220,240000,33580,380,65700,0,0,0,2045767904,63
i,1727695545.100873,10.0.2.15,22,10.0.2.2,57953,1073725440,14600,1026,65535,65700,0,0,4,1460,312,0,16777220,240000,33580,380,65700,0,380,0,2045767904,63
i,1727695546.513306,10.0.2.15,22,10.0.2.2,49938,1073725440,14600,0,65535,65700,0,0,4,1460,312,0,16777216,270000,33580,0,65700,0,0,0,3877035713,63
o,1727695546.528044,10.0.2.15,22,10.0.2.2,49938,1073725440,14600,1026,65535,65700,0,0,4,1460,312,0,16777216,270000,33580,38,65700,42,0,0,3877035713,63
i,1727695546.529369,10.0.2.15,22,10.0.2.2,49938,1073725440,14600,1026,65535,65700,0,0,4,1460,312,0,16777216,270000,33580,38,65700,0,38,0,3877035713,63
i,1727695546.530150,10.0.2.15,22,10.0.2.2,49938,1073725440,14638,1026,65535,65700,0,0,4,1460,312,0,0,240000,33580,0,65700,0,0,0,3877035713,63
i,1727695546.530176,10.0.2.15,22,10.0.2.2,49938,1073725440,14638,1026,65535,65700,0,0,4,1460,312,0,0,240000,33580,0,65700,1460,0,0,3877035713,63
o,1727695546.530205,10.0.2.15,22,10.0.2.2,49938,1073725440,14638,1026,65535,65700,0,0,4,1460,312,0,1,240000,33580,0,65700,1536,0,0,3877035713,63
o,1727695546.531493,10.0.2.15,22,10.0.2.2,49938,1073725440,14638,1026,65535,65700,0,0,4,1460,312,0,16777216,240000,33580,1120,65700,1536,0,0,3877035713,63
i,1727695546.531989,10.0.2.15,22,10.0.2.2,49938,1073725440,14638,1026,65535,65700,0,0,4,1460,312,0,16777216,240000,33580,1120,65700,0,1120,0,3877035713,63
i,1727695546.533598,10.0.2.15,22,10.0.2.2,49938,1073725440,15758,1026,65535,65700,0,0,4,1460,312,0,0,240000,33580,0,65700,0,0,0,3877035713,63
o,1727695546.537023,10.0.2.15,22,10.0.2.2,49938,1073725440,15758,1026,65535,65700,0,0,4,1460,312,0,16777216,240000,33580,492,65700,0,0,0,3877035713,63
i,1727695546.538290,10.0.2.15,22,10.0.2.2,49938,1073725440,15758,1026,65535,65700,0,0,4,1460,312,0,16777216,240000,33580,492,65700,0,492,0,3877035713,63
i,1727695546.543100,10.0.2.15,22,10.0.2.2,49938,1073725440,16250,1026,65535,65700,0,0,4,1460,312,0,0,240000,33580,0,65700,0,0,0,3877035713,63
i,1727695546.543156,10.0.2.15,22,10.0.2.2,49938,1073725440,16250,1026,65535,65700,0,0,4,1460,312,0,0,240000,33580,0,65700,16,0,0,3877035713,63
o,1727695546.543192,10.0.2.15,22,10.0.2.2,49938,1073725440,16250,1026,65535,65700,0,0,4,1460,312,0,1,240000,33580,0,65700,60,0,0,3877035713,63
o,1727695546.543438,10.0.2.15,22,10.0.2.2,49938,1073725440,16250,1026,65535,65700,0,0,4,1460,312,0,16777216,240000,33580,44,65700,0,0,0,3877035713,63
i,1727695546.544732,10.0.2.15,22,10.0.2.2,49938,1073725440,16250,1026,65535,65700,0,0,4,1460,312,0,16777216,240000,33580,44,65700,0,44,0,3877035713,63
i,1727695546.544779,10.0.2.15,22,10.0.2.2,49938,1073725440,16294,1026,65535,65700,0,0,4,1460,312,0,0,240000,33580,0,65700,0,0,0,3877035713,63
o,1727695546.546500,10.0.2.15,22,10.0.2.2,49938,1073725440,16294,1026,65535,65700,0,0,4,1460,312,0,16777216,240000,33580,68,65700,0,0,0,3877035713,63
i,1727695546.547121,10.0.2.15,22,10.0.2.2,49938,1073725440,16294,1026,65535,65700,0,0,4,1460,312,0,16777216,240000,33580,68,65700,0,68,0,3877035713,63
i,1727695546.547158,10.0.2.15,22,10.0.2.2,49938,1073725440,16362,1026,65535,65700,0,0,4,1460,312,0,0,240000,33580,0,65700,0,0,0,3877035713,63
o,1727695546.548078,10.0.2.15,22,10.0.2.2,49938,1073725440,16362,1026,65535,65700,0,0,4,1460,312,0,16777216,240000,33580,332,65700,0,0,0,3877035713,63
i,1727695546.549140,10.0.2.15,22,10.0.2.2,49938,1073725440,16362,1026,65535,65700,0,0,4,1460,312,0,16777216,240000,33580,332,65700,0,332,0,3877035713,63
i,1727695546.550082,10.0.2.15,22,10.0.2.2,49938,1073725440,16694,1026,65535,65700,0,0,4,1460,312,0,0,240000,33580,0,65700,0,0,0,3877035713,63
o,1727695546.569427,10.0.2.15,22,10.0.2.2,49938,1073725440,16694,1026,65535,65700,0,0,4,1460,312,0,16777216,240000,33580,28,65700,0,0,0,3877035713,63
i,1727695546.570179,10.0.2.15,22,10.0.2.2,49938,1073725440,16694,1026,65535,65700,0,0,4,1460,312,0,16777216,240000,33580,28,65700,0,28,0,3877035713,63
i,1727695546.570600,10.0.2.15,22,10.0.2.2,49938,1073725440,16722,1026,65535,65700,0,0,4,1460,312,0,0,240000,33580,0,65700,0,0,0,3877035713,63
o,1727695546.571989,10.0.2.15,22,10.0.2.2,49938,1073725440,16722,1026,65535,65700,0,0,4,1460,312,0,16777216,240000,33580,768,65700,112,0,0,3877035713,63
i,1727695546.573334,10.0.2.15,22,10.0.2.2,49938,1073725440,16722,1026,65535,65700,0,0,4,1460,312,0,16777216,240000,33580,908,65700,112,768,0,3877035713,63
o,1727695546.573356,10.0.2.15,22,10.0.2.2,49938,1073725440,17490,1026,65535,65700,0,0,4,1460,312,0,16777216,240000,33580,140,65700,112,0,0,3877035713,63
i,1727695546.573749,10.0.2.15,22,10.0.2.2,49938,1073725440,17490,1026,65535,65700,0,0,4,1460,312,0,16777216,240000,33580,140,65700,112,140,0,3877035713,63
o,1727695546.573923,10.0.2.15,22,10.0.2.2,49938,1073725440,17630,1026,65535,65700,0,0,4,1460,312,0,16777216,240000,33580,44,65700,0,0,0,3877035713,63
i,1727695546.574636,10.0.2.15,22,10.0.2.2,49938,1073725440,17630,1026,65535,65700,0,0,4,1460,312,0,16777216,240000,33580,44,65700,0,44,0,3877035713,63
i,1727695546.574658,10.0.2.15,22,10.0.2.2,49938,1073725440,17674,1026,65535,65700,0,0,4,1460,312,0,0,240000,33580,0,65700,0,0,0,3877035713,63
o,1727695546.575128,10.0.2.15,22,10.0.2.2,49938,1073725440,17674,1026,65535,65700,0,0,4,1460,312,0,16777220,240000,33580,72,65700,0,0,0,3877035713,63
i,1727695546.575635,10.0.2.15,22,10.0.2.2,49938,1073725440,17674,1026,65535,65700,0,0,4,1460,312,0,16777220,240000,33580,72,65700,0,72,0,3877035713,63
o,1727695546.577966,10.0.2.15,22,10.0.2.2,49938,1073725440,17746,1026,65535,65700,0,0,4,1460,312,0,16777220,240000,33580,104,65700,0,0,0,3877035713,63
i,1727695546.578464,10.0.2.15,22,10.0.2.2,49938,1073725440,17746,1026,65535,65700,0,0,4,1460,312,0,16777220,240000,33580,104,65700,0,104,0,3877035713,63
o,1727695546.603002,10.0.2.15,22,10.0.2.2,49938,1073725440,17850,1026,65535,65700,0,0,4,1460,312,0,16777220,240000,33580,72,65700,0,0,0,3877035713,63
i,1727695546.603716,10.0.2.15,22,10.0.2.2,49938,1073725440,17850,1026,65535,65700,0,0,4,1460,312,0,16777220,240000,33580,72,65700,0,72,0,3877035713,63
i,1727695546.604401,10.0.2.15,22,10.0.2.2,49938,1073725440,17922,1026,65535,65700,0,0,4,1460,312,0,4,240000,33580,0,65700,0,0,0,3877035713,63
i,1727695546.604419,10.0.2.15,22,10.0.2.2,49938,1073725440,17922,1026,65535,65700,0,0,4,1460,312,0,4,240000,33580,0,65700,96,0,0,3877035713,63
o,1727695546.604436,10.0.2.15,22,10.0.2.2,49938,1073725440,17922,1026,65535,65604,0,0,5,1460,312,0,5,240000,33580,0,65700,96,0,0,3877035713,63
o,1727695546.614202,10.0.2.15,22,10.0.2.2,49938,1073725440,17922,1026,65535,65604,0,0,8,1460,312,0,4,240000,33580,0,65700,0,0,0,3877035713,63
i,1727695546.615099,10.0.2.15,22,10.0.2.2,49938,1073725440,17922,1026,65535,65604,0,0,8,1460,312,0,67108884,240000,33580,0,65700,0,1,0,3877035713,63
o,1727695547.112245,10.0.2.15,22,10.0.2.2,57953,1073725440,14600,1030,65535,65700,0,0,4,1460,312,0,16777220,230000,33580,1484,65700,0,0,0,2045767904,63
o,1727695547.112694,10.0.2.15,22,10.0.2.2,57953,1073725440,14600,1026,65535,65700,0,0,4,1460,312,0,16777220,230000,33580,1484,65700,0,1460,0,2045767904,63
i,1727695547.113327,10.0.2.15,22,10.0.2.2,57953,1073725440,14600,1026,65535,65700,0,0,4,1460,312,0,16777220,230000,33580,1484,65700,0,1484,0,2045767904,63
i,1727695547.113382,10.0.2.15,22,10.0.2.2,57953,1073725440,16060,1026,65535,65700,0,0,4,1460,312,0,4,230000,33580,24,65700,0,24,0,2045767904,63
i,1727695547.746596,10.0.2.15,22,10.0.2.2,49872,1073725440,14600,0,65535,65700,0,0,4,1460,312,0,16777216,270000,33580,0,65700,0,0,0,1855654010,63
o,1727695547.762948,10.0.2.15,22,10.0.2.2,49872,1073725440,14600,1026,65535,65700,0,0,4,1460,312,0,16777216,270000,33580,38,65700,42,0,0,1855654010,63
i,1727695547.763511,10.0.2.15,22,10.0.2.2,49872,1073725440,14600,1026,65535,65700,0,0,4,1460,312,0,16777216,270000,33580,38,65700,0,38,0,1855654010,63
i,1727695547.763511,10.0.2.15,22,10.0.2.2,49872,1073725440,14638,1026,65535,65700,0,0,4,1460,312,0,0,240000,33580,0,65700,0,0,0,1855654010,63
i,1727695547.763511,10.0.2.15,22,10.0.2.2,49872,1073725440,14638,1026,65535,65700,0,0,4,1460,312,0,0,240000,33580,0,65700,1460,0,0,1855654010,63
o,1727695547.763511,10.0.2.15,22,10.0.2.2,49872,1073725440,14638,1026,65535,65700,0,0,4,1460,312,0,1,240000,33580,0,65700,1536,0,0,1855654010,63
o,1727695547.765567,10.0.2.15,22,10.0.2.2,49872,1073725440,14638,1026,65535,65700,0,0,4,1460,312,0,16777216,240000,33580,1120,65700,1536,0,0,1855654010,63
i,1727695547.766562,10.0.2.15,22,10.0.2.2,49872,1073725440,14638,1026,65535,65700,0,0,4,1460,312,0,16777216,240000,33580,1120,65700,0,1120,0,1855654010,63
i,1727695547.767577,10.0.2.15,22,10.0.2.2,49872,1073725440,15758,1026,65535,65700,0,0,4,1460,312,0,0,240000,33580,0,65700,0,0,0,1855654010,63
o,1727695547.770550,10.0.2.15,22,10.0.2.2,49872,1073725440,15758,1026,65535,65700,0,0,4,1460,312,0,16777216,240000,33580,492,65700,0,0,0,1855654010,63
i,1727695547.771348,10.0.2.15,22,10.0.2.2,49872,1073725440,15758,1026,65535,65700,0,0,4,1460,312,0,16777216,240000,33580,492,65700,0,492,0,1855654010,63
i,1727695547.776144,10.0.2.15,22,10.0.2.2,49872,1073725440,16250,1026,65535,65700,0,0,4,1460,312,0,0,240000,33580,0,65700,0,0,0,1855654010,63
o,1727695547.776273,10.0.2.15,22,10.0.2.2,49872,1073725440,16250,1026,65535,65700,0,0,4,1460,312,0,16777216,240000,33580,44,65700,0,0,0,1855654010,63
i,1727695547.776926,10.0.2.15,22,10.0.2.2,49872,1073725440,16250,1026,65535,65700,0,0,4,1460,312,0,16777216,240000,33580,44,65700,0,44,0,1855654010,63
i,1727695547.776943,10.0.2.15,22,10.0.2.2,49872,1073725440,16294,1026,65535,65700,0,0,4,1460,312,0,0,240000,33580,0,65700,0,0,0,1855654010,63
o,1727695547.778621,10.0.2.15,22,10.0.2.2,49872,1073725440,16294,1026,65535,65700,0,0,4,1460,312,0,16777216,240000,33580,68,65700,0,0,0,1855654010,63
i,1727695547.779410,10.0.2.15,22,10.0.2.2,49872,1073725440,16294,1026,65535,65700,0,0,4,1460,312,0,16777216,240000,33580,68,65700,0,68,0,1855654010,63
i,1727695547.779472,10.0.2.15,22,10.0.2.2,49872,1073725440,16362,1026,65535,65700,0,0,4,1460,312,0,0,240000,33580,0,65700,0,0,0,1855654010,63
o,1727695547.781821,10.0.2.15,22,10.0.2.2,49872,1073725440,16362,1026,65535,65700,0,0,4,1460,312,0,16777216,240000,33580,332,65700,0,0,0,1855654010,63
i,1727695547.782766,10.0.2.15,22,10.0.2.2,49872,1073725440,16362,1026,65535,65700,0,0,4,1460,312,0,16777216,240000,33580,332,65700,0,332,0,1855654010,63
i,1727695547.784319,10.0.2.15,22,10.0.2.2,49872,1073725440,16694,1026,65535,65700,0,0,4,1460,312,0,0,240000,33580,0,65700,0,0,0,1855654010,63
o,1727695547.800520,10.0.2.15,22,10.0.2.2,49872,1073725440,16694,1026,65535,65700,0,0,4,1460,312,0,16777216,240000,33580,28,65700,0,0,0,1855654010,63
i,1727695547.801189,10.0.2.15,22,10.0.2.2,49872,1073725440,16694,1026,65535,65700,0,0,4,1460,312,0,16777216,240000,33580,28,65700,0,28,0,1855654010,63
i,1727695547.801217,10.0.2.15,22,10.0.2.2,49872,1073725440,16722,1026,65535,65700,0,0,4,1460,312,0,0,240000,33580,0,65700,0,0,0,1855654010,63
o,1727695547.803988,10.0.2.15,22,10.0.2.2,49872,1073725440,16722,1026,65535,65700,0,0,4,1460,312,0,16777216,240000,33580,768,65700,112,0,0,1855654010,63
i,1727695547.805067,10.0.2.15,22,10.0.2.2,49872,1073725440,16722,1026,65535,65700,0,0,4,1460,312,0,16777216,240000,33580,908,65700,112,768,0,1855654010,63
o,1727695547.805093,10.0.2.15,22,10.0.2.2,49872,1073725440,17490,1026,65535,65700,0,0,4,1460,312,0,16777216,240000,33580,140,65700,112,0,0,1855654010,63
i,1727695547.805515,10.0.2.15,22,10.0.2.2,49872,1073725440,17490,1026,65535,65700,0,0,4,1460,312,0,16777216,240000,33580,140,65700,112,140,0,1855654010,63
o,1727695547.806633,10.0.2.15,22,10.0.2.2,49872,1073725440,17630,1026,65535,65700,0,0,4,1460,312,0,16777216,240000,33580,44,65700,0,0,0,1855654010,63
i,1727695547.806983,10.0.2.15,22,10.0.2.2,49872,1073725440,17630,1026,65535,65700,0,0,4,1460,312,0,16777216,240000,33580,44,65700,0,44,0,1855654010,63
i,1727695547.806983,10.0.2.15,22,10.0.2.2,49872,1073725440,17674,1026,65535,65700,0,0,4,1460,312,0,0,240000,33580,0,65700,0,0,0,1855654010,63
o,1727695547.808173,10.0.2.15,22,10.0.2.2,49872,1073725440,17674,1026,65535,65700,0,0,4,1460,312,0,16777220,240000,33580,72,65700,0,0,0,1855654010,63
i,1727695547.809191,10.0.2.15,22,10.0.2.2,49872,1073725440,17674,1026,65535,65700,0,0,4,1460,312,0,16777220,240000,33580,72,65700,0,72,0,1855654010,63
o,1727695547.888210,172.16.5.2,48976,172.16.1.2,5103,39937,14480,2082,65535,65700,6,6,4,1460,275937,1,16778209,880000,33580,0,65700,0,0,0,534500077,63
o,1727695547.889013,172.16.5.2,48976,172.16.1.2,5103,39937,14480,2082,65535,65700,6,6,4,1460,275937,1,16778212,880000,33580,37,65700,0,0,0,534500077,63
i,1727695547.986454,172.16.5.2,48976,172.16.1.2,5103,39937,14480,2082,65535,65700,6,6,4,1460,275937,1,16778212,880000,33580,37,65700,0,37,0,534500077,63
o,1727695547.987581,172.16.5.2,48976,172.16.1.2,5103,39937,14517,3106,65728,65728,6,6,4,1460,252812,1,16778212,940000,33580,4,65700,0,0,0,534500077,63
o,1727695547.988209,172.16.5.2,48976,172.16.1.2,5103,39937,14517,3106,65728,65728,6,6,4,1460,252812,1,16778212,940000,33580,130,65700,0,4,0,534500077,63
i,1727695548.082038,172.16.5.2,48976,172.16.1.2,5103,39937,14517,3106,65728,65728,6,6,4,1460,252812,1,16778212,940000,33580,130,65700,0,130,0,534500077,63
i,1727695548.082081,172.16.5.2,48976,172.16.1.2,5103,39937,14647,3106,65600,65728,6,6,4,1460,233750,1,996,950000,33580,0,65700,0,0,0,534500077,63
o,1727695548.121283,172.16.5.2,48976,172.16.1.2,5103,39937,14647,3106,65728,65728,6,6,4,1460,233750,1,997,950000,33580,0,65700,0,0,0,534500077,63
o,1727695548.184173,172.16.5.2,64047,172.16.1.2,5103,39937,14480,2082,65535,65700,6,6,4,1460,278437,1,16778209,860000,33580,0,65700,0,0,0,2763082109,63
o,1727695548.184483,172.16.5.2,64047,172.16.1.2,5103,39937,14480,2082,65535,65700,6,6,4,1460,278437,1,16778208,860000,33580,37,65700,0,0,0,2763082109,63
i,1727695548.275711,172.16.5.2,48976,172.16.1.2,5103,39937,14647,3106,65728,65728,6,6,4,1460,233750,1,996,950000,33580,0,65700,0,0,0,534500077,63
i,1727695548.276249,172.16.5.2,48976,172.16.1.2,5103,39937,14647,3106,65728,65728,6,6,4,1460,233750,1,996,950000,33580,0,65700,1,0,0,534500077,63
o,1727695548.276445,172.16.5.2,48976,172.16.1.2,5103,39937,14647,3106,65728,65728,6,6,4,1460,233750,1,997,950000,33580,0,65700,2,0,0,534500077,63
o,1727695548.278187,172.16.5.2,64047,172.16.1.2,5103,39937,14480,2086,65535,65700,6,6,4,1460,278437,1,16778208,860000,33580,33580,65700,0,37,0,2763082109,63
i,1727695548.298584,172.16.5.2,64047,172.16.1.2,5103,39937,14480,2086,65535,65700,6,6,4,1460,278437,1,16778208,860000,33580,33580,65700,0,13069,0,2763082109,63
o,1727695548.298849,172.16.5.2,64047,172.16.1.2,5103,39937,14517,2086,65728,65728,6,6,4,1460,257500,1,16778208,910000,33580,33543,65700,0,13032,0,2763082109,63
i,1727695548.380533,172.16.5.2,64047,172.16.1.2,5103,39937,14517,2086,65728,65728,6,6,4,1460,257500,1,16778208,910000,33580,33543,65700,0,14480,0,2763082109,63
o,1727695548.380587,172.16.5.2,64047,172.16.1.2,5103,39937,17413,2086,62848,65728,6,6,4,1460,237812,1,16778208,940000,33580,30647,65700,0,11584,0,2763082109,63
i,1727695548.380773,172.16.5.2,64047,172.16.1.2,5103,39937,17413,2086,62848,65728,6,6,4,1460,237812,1,16778208,940000,41772,30647,65700,0,17376,0,2763082109,63
o,1727695548.380811,172.16.5.2,64047,172.16.1.2,5103,39937,20309,2086,59968,65728,6,6,4,1460,220625,1,16778208,930000,41772,27751,65700,0,14480,0,2763082109,63
i,1727695548.380997,172.16.5.2,64047,172.16.1.2,5103,39937,20309,2086,59968,65728,6,6,4,1460,220625,1,16778208,930000,41772,27751,65700,0,20272,0,2763082109,63
o,1727695548.381052,172.16.5.2,64047,172.16.1.2,5103,39937,23205,2086,62848,65728,6,6,4,1460,205625,1,16778208,910000,41772,24855,65700,0,17376,0,2763082109,63
i,1727695548.384801,172.16.5.2,64047,172.16.1.2,5103,39937,23205,2086,62848,65728,6,6,4,1460,205625,1,16778208,910000,49964,49964,65700,0,23168,0,2763082109,63
o,1727695548.384837,172.16.5.2,64047,172.16.1.2,5103,39937,26101,2086,64256,65728,6,6,4,1460,192500,1,16778208,880000,49964,47068,65700,0,20272,0,2763082109,63
i,1727695548.384980,172.16.5.2,64047,172.16.1.2,5103,39937,26101,2086,64256,65728,6,6,4,1460,192500,1,16778208,880000,58156,47068,65700,0,26064,0,2763082109,63
o,1727695548.384996,172.16.5.2,64047,172.16.1.2,5103,39937,28997,2086,61376,65728,6,6,4,1460,180937,1,16778208,840000,58156,44172,65700,0,23168,0,2763082109,63
o,1727695548.385117,172.16.5.2,64047,172.16.1.2,5103,39937,28997,2086,61376,65728,6,6,4,1460,180937,1,16778208,840000,58156,44172,65700,0,24616,0,2763082109,63
i,1727695548.552189,172.16.5.2,64047,172.16.1.2,5103,39937,28997,2086,61376,65728,6,6,4,1460,180937,1,16778208,840000,58156,58156,65700,0,28960,0,2763082109,63
o,1727695548.552479,172.16.5.2,64047,172.16.1.2,5103,39937,31893,2086,64256,65728,6,6,4,1460,179687,1,16778208,730000,66348,55260,65700,0,26064,0,2763082109,63
i,1727695548.552951,172.16.5.2,64047,172.16.1.2,5103,39937,31893,2086,64256,65728,6,6,4,1460,179687,1,16778208,730000,66348,55260,65700,0,31856,0,2763082109,63
o,1727695548.553036,172.16.5.2,64047,172.16.1.2,5103,39937,34789,2086,61376,65728,6,6,4,1460,178750,1,16778208,650000,66348,52364,65700,0,28960,0,2763082109,63
i,1727695548.553354,172.16.5.2,64047,172.16.1.2,5103,39937,34789,2086,61376,65728,6,6,4,1460,178750,1,16778208,650000,66348,52364,65700,0,34752,0,2763082109,63
o,1727695548.553416,172.16.5.2,64047,172.16.1.2,5103,39937,37685,2086,64256,65728,6,6,4,1460,177812,1,16778208,590000,66348,49468,65700,0,31856,0,2763082109,63
i,1727695548.553731,172.16.5.2,64047,172.16.1.2,5103,39937,37685,2086,64256,65728,6,6,4,1460,177812,1,16778208,590000,66348,49468,65700,0,37648,0,2763082109,63
o,1727695548.553777,172.16.5.2,64047,172.16.1.2,5103,39937,40581,2086,62848,65728,6,6,4,1460,176875,1,16778208,540000,66348,46572,65700,0,34752,0,2763082109,63
i,1727695548.554014,172.16.5.2,64047,172.16.1.2,5103,39937,40581,2086,62848,65728,6,6,4,1460,176875,1,16778208,540000,66348,46572,65700,0,40544,0,2763082109,63
o,1727695548.554049,172.16.5.2,64047,172.16.1.2,5103,39937,40581,2086,59968,65728,6,6,4,1460,176250,1,16778208,500000,66348,43676,65700,0,37648,0,2763082109,63
i,1727695548.572596,172.16.5.2,64047,172.16.1.2,5103,39937,40581,2086,59968,65728,6,6,4,1460,176250,1,16778208,500000,82732,82732,65700,0,40544,0,2763082109,63
o,1727695548.572631,172.16.5.2,64047,172.16.1.2,5103,39937,40581,2086,64256,65728,6,6,4,1460,178125,1,16778208,490000,82732,79836,65700,0,37648,0,2763082109,63
i,1727695548.572765,172.16.5.2,64047,172.16.1.2,5103,39937,40581,2086,64256,65728,6,6,4,1460,178125,1,16778208,490000,82732,79836,65700,0,40544,0,2763082109,63
o,1727695548.572781,172.16.5.2,64047,172.16.1.2,5103,39937,40581,2086,64256,65728,6,6,4,1460,179687,1,16778208,470000,82732,76940,65700,0,37648,0,2763082109,63
i,1727695548.598817,172.16.5.2,64047,172.16.1.2,5103,39937,40581,2086,64256,65728,6,6,4,1460,179687,1,16778208,470000,82732,82732,65700,0,40544,0,2763082109,63
o,1727695548.598850,172.16.5.2,64047,172.16.1.2,5103,39937,40581,2086,64256,65728,6,6,4,1460,183750,1,16778208,490000,82732,79836,65700,0,37648,0,2763082109,63
i,1727695548.598991,172.16.5.2,64047,172.16.1.2,5103,39937,40581,2086,64256,65728,6,6,4,1460,183750,1,16778208,490000,82732,79836,65700,0,40544,0,2763082109,63
o,1727695548.599007,172.16.5.2,64047,172.16.1.2,5103,39937,40581,2086,61376,65728,6,6,4,1460,187187,1,16778208,490000,82732,76940,65700,0,37648,0,2763082109,63
o,1727695548.599108,172.16.5.2,64047,172.16.1.2,5103,39937,40581,2086,61376,65728,6,6,4,1460,187187,1,16778208,490000,82732,76940,65700,0,39096,0,2763082109,63
i,1727695548.599273,172.16.5.2,64047,172.16.1.2,5103,39937,40581,2086,61376,65728,6,6,4,1460,187187,1,16778208,490000,82732,76940,65700,0,40544,0,2763082109,63
o,1727695548.599289,172.16.5.2,64047,172.16.1.2,5103,39937,40581,2086,64256,65728,6,6,4,1460,190312,1,16778208,490000,82732,74044,65700,0,37648,0,2763082109,63
i,1727695548.798447,172.16.5.2,64047,172.16.1.2,5103,39937,40581,2086,64256,65728,6,6,4,1460,190312,1,16778208,490000,82732,82732,65700,0,40544,0,2763082109,63
o,1727695548.798485,172.16.5.2,64047,172.16.1.2,5103,39937,40581,2086,98560,65728,6,6,4,1460,196562,1,16778208,520000,82732,81284,65700,0,39096,0,2763082109,63
i,1727695548.798637,172.16.5.2,64047,172.16.1.2,5103,39937,40581,2086,98560,65728,6,6,4,1460,196562,1,16778208,520000,82732,81284,65700,0,40544,0,2763082109,63
o,1727695548.798655,172.16.5.2,64047,172.16.1.2,5103,39937,40581,2086,95680,65728,6,6,4,1460,202187,1,16778208,540000,82732,78388,65700,0,37648,0,2763082109,63
i,1727695548.798877,172.16.5.2,64047,172.16.1.2,5103,39937,40581,2086,95680,65728,6,6,4,1460,202187,1,16778208,540000,90924,78388,65700,0,40544,0,2763082109,63
o,1727695548.798915,172.16.5.2,64047,172.16.1.2,5103,39937,40581,2086,92800,65728,6,6,4,1460,207187,1,16778208,550000,90924,75492,65700,0,37648,0,2763082109,63
i,1727695548.801128,172.16.5.2,64047,172.16.1.2,5103,39937,40581,2086,92800,65728,6,6,4,1460,207187,1,16778208,550000,99116,99116,65700,0,40544,0,2763082109,63
o,1727695548.801146,172.16.5.2,64047,172.16.1.2,5103,39937,40581,2086,97152,65728,6,6,4,1460,212812,1,16778208,570000,99116,96220,65700,0,37648,0,2763082109,63
i,1727695548.801271,172.16.5.2,64047,172.16.1.2,5103,39937,40581,2086,97152,65728,6,6,4,1460,212812,1,16778208,570000,99116,96220,65700,0,40544,0,2763082109,63
o,1727695548.801287,172.16.5.2,64047,172.16.1.2,5103,39937,40581,2086,94272,65728,6,6,4,1460,217500,1,16778208,570000,99116,93324,65700,0,37648,0,2763082109,63
i,1727695548.801406,172.16.5.2,64047,172.16.1.2,5103,39937,40581,2086,94272,65728,6,6,4,1460,217500,1,16778208,570000,99116,93324,65700,0,40544,0,2763082109,63
o,1727695548.801437,172.16.5.2,64047,172.16.1.2,5103,39937,40581,2086,95680,65728,6,6,4,1460,221562,1,16778208,570000,99116,90428,65700,0,37648,0,2763082109,63
i,1727695548.801555,172.16.5.2,64047,172.16.1.2,5103,39937,40581,2086,95680,65728,6,6,4,1460,221562,1,16778208,570000,99116,90428,65700,0,40544,0,2763082109,63
o,1727695548.801570,172.16.5.2,64047,172.16.1.2,5103,39937,40581,2086,95680,65728,6,6,4,1460,225312,1,16778208,570000,99116,87532,65700,0,37648,0,2763082109,63
i,1727695548.801716,172.16.5.2,64047,172.16.1.2,5103,39937,40581,2086,95680,65728,6,6,4,1460,225312,1,16778208,570000,99116,87532,65700,0,40544,0,2763082109,63
o,1727695548.801732,172.16.5.2,64047,172.16.1.2,5103,39937,40581,2086,97152,65728,6,6,4,1460,228437,1,16778208,560000,99116,84636,65700,0,37648,0,2763082109,63
i,1727695548.802033,172.16.5.2,64047,172.16.1.2,5103,39937,40581,2086,97152,65728,6,6,4,1460,228437,1,16778208,560000,99116,84636,65700,0,40544,0,2763082109,63
o,1727695548.802049,172.16.5.2,64047,172.16.1.2,5103,39937,42041,2086,97152,65728,6,6,4,1460,231250,1,16778208,550000,99116,81740,65700,0,37648,0,2763082109,63
i,1727695548.811125,172.16.5.2,64047,172.16.1.2,5103,39937,42041,2086,97152,65728,6,6,4,1460,231250,1,16778208,550000,99116,99116,65700,0,41992,0,2763082109,63
o,1727695548.811145,172.16.5.2,64047,172.16.1.2,5103,39937,42041,2086,95680,65728,6,6,4,1460,235000,1,16778208,560000,99116,96220,65700,0,39096,0,2763082109,63
i,1727695548.811279,172.16.5.2,64047,172.16.1.2,5103,39937,42041,2086,95680,65728,6,6,4,1460,235000,1,16778208,560000,99116,96220,65700,0,41992,0,2763082109,63
o,1727695548.811295,172.16.5.2,64047,172.16.1.2,5103,39937,42041,2086,95680,65728,6,6,4,1460,235625,1,16778208,530000,99116,93324,65700,0,39096,0,2763082109,63
i,1727695548.811437,172.16.5.2,64047,172.16.1.2,5103,39937,42041,2086,95680,65728,6,6,4,1460,235625,1,16778208,530000,99116,93324,65700,0,41992,0,2763082109,63
o,1727695548.811453,172.16.5.2,64047,172.16.1.2,5103,39937,42041,2086,95680,65728,6,6,4,1460,236250,1,16778208,510000,99116,90428,65700,0,39096,0,2763082109,63
i,1727695548.811606,172.16.5.2,64047,172.16.1.2,5103,39937,42041,2086,95680,65728,6,6,4,1460,236250,1,16778208,510000,99116,90428,65700,0,41992,0,2763082109,63
o,1727695548.811622,172.16.5.2,64047,172.16.1.2,5103,39937,42041,2086,92800,65728,6,6,4,1460,233125,1,16778208,510000,99116,87532,65700,0,39096,0,2763082109,63
o,1727695548.811749,172.16.5.2,64047,172.16.1.2,5103,39937,42041,2086,92800,65728,6,6,4,1460,233125,1,16778208,510000,99116,87532,65700,0,40544,0,2763082109,63
i,1727695548.811892,172.16.5.2,64047,172.16.1.2,5103,39937,42041,2086,92800,65728,6,6,4,1460,233125,1,16778208,510000,99116,87532,65700,0,41992,0,2763082109,63
o,1727695548.811913,172.16.5.2,64047,172.16.1.2,5103,39937,42041,2086,97152,65728,6,6,4,1460,230312,1,16778208,510000,99116,84636,65700,0,39096,0,2763082109,63
i,1727695548.818436,172.16.5.2,64047,172.16.1.2,5103,39937,42041,2086,97152,65728,6,6,4,1460,230312,1,16778208,510000,99116,99116,65700,0,41992,0,2763082109,63
o,1727695548.818530,172.16.5.2,64047,172.16.1.2,5103,39937,42041,2086,98560,65728,6,6,4,1460,227812,1,16778208,510000,99116,97668,65700,0,40544,0,2763082109,63
i,1727695549.078412,172.16.5.2,64047,172.16.1.2,5103,39937,42041,2086,98560,65728,6,6,4,1460,227812,1,16778208,510000,99116,97668,65700,0,41992,0,2763082109,63
o,1727695549.078490,172.16.5.2,64047,172.16.1.2,5103,39937,42041,2086,144960,65728,6,6,4,1460,233125,1,16778208,540000,99116,94772,65700,0,39096,0,2763082109,63
i,1727695549.078719,172.16.5.2,64047,172.16.1.2,5103,39937,42041,2086,144960,65728,6,6,4,1460,233125,1,16778208,540000,99116,94772,65700,0,41992,0,2763082109,63
o,1727695549.078740,172.16.5.2,64047,172.16.1.2,5103,39937,42041,2086,142080,65728,6,6,4,1460,237812,1,16778208,550000,99116,91876,65700,0,39096,0,2763082109,63
i,1727695549.078988,172.16.5.2,64047,172.16.1.2,5103,39937,42041,2086,142080,65728,6,6,4,1460,237812,1,16778208,550000,99116,91876,65700,0,41992,0,2763082109,63
o,1727695549.079010,172.16.5.2,64047,172.16.1.2,5103,39937,42041,2086,144960,65728,6,6,4,1460,241875,1,16778208,560000,99116,88980,65700,0,39096,0,2763082109,63
i,1727695549.097074,172.16.5.2,64047,172.16.1.2,5103,39937,42041,2086,144960,65728,6,6,4,1460,241875,1,16778208,560000,99116,99116,65700,0,41992,0,2763082109,63
o,1727695549.097108,172.16.5.2,64047,172.16.1.2,5103,39937,42041,2086,144960,65728,6,6,4,1460,248125,1,16778208,590000,99116,96220,65700,0,39096,0,2763082109,63
i,1727695549.097301,172.16.5.2,64047,172.16.1.2,5103,39937,42041,2086,144960,65728,6,6,4,1460,248125,1,16778208,590000,99116,96220,65700,0,41992,0,2763082109,63
o,1727695549.097322,172.16.5.2,64047,172.16.1.2,5103,39937,42041,2086,142080,65728,6,6,4,1460,253437,1,16778208,600000,99116,93324,65700,0,39096,0,2763082109,63
i,1727695549.097512,172.16.5.2,64047,172.16.1.2,5103,39937,42041,2086,142080,65728,6,6,4,1460,253437,1,16778208,600000,99116,93324,65700,0,41992,0,2763082109,63
o,1727695549.097538,172.16.5.2,64047,172.16.1.2,5103,39937,42041,2086,139200,65728,6,6,4,1460,258125,1,16778208,600000,99116,90428,65700,0,39096,0,2763082109,63
i,1727695549.097766,172.16.5.2,64047,172.16.1.2,5103,39937,42041,2086,139200,65728,6,6,4,1460,258125,1,16778208,600000,99116,90428,65700,0,41992,0,2763082109,63
o,1727695549.097790,172.16.5.2,64047,172.16.1.2,5103,39937,42041,2086,146432,65728,6,6,4,1460,262187,1,16778208,600000,99116,87532,65700,0,39096,0,2763082109,63
i,1727695549.097994,172.16.5.2,64047,172.16.1.2,5103,39937,42041,2086,146432,65728,6,6,4,1460,262187,1,16778208,600000,99116,87532,65700,0,41992,0,2763082109,63
o,1727695549.098013,172.16.5.2,64047,172.16.1.2,5103,39937,42041,2086,143552,65728,6,6,4,1460,265937,1,16778208,600000,99116,84636,65700,0,39096,0,2763082109,63
i,1727695549.098637,172.16.5.2,64047,172.16.1.2,5103,39937,42041,2086,143552,65728,6,6,4,1460,265937,1,16778208,600000,99116,99116,65700,0,41992,0,2763082109,63
o,1727695549.098661,172.16.5.2,64047,172.16.1.2,5103,39937,43501,2086,146432,65728,6,6,4,1460,269062,1,16778208,590000,99116,96220,65700,0,39096,0,2763082109,63
i,1727695549.098838,172.16.5.2,64047,172.16.1.2,5103,39937,43501,2086,146432,65728,6,6,4,1460,269062,1,16778208,590000,99116,96220,65700,0,43440,0,2763082109,63
o,1727695549.098857,172.16.5.2,64047,172.16.1.2,5103,39937,43501,2086,143552,65728,6,6,4,1460,270625,1,16778208,580000,99116,93324,65700,0,40544,0,2763082109,63
i,1727695549.099807,172.16.5.2,64047,172.16.1.2,5103,39937,43501,2086,143552,65728,6,6,4,1460,270625,1,16778208,580000,99116,99116,65700,0,43440,0,2763082109,63
o,1727695549.099831,172.16.5.2,64047,172.16.1.2,5103,39937,43501,2086,146432,65728,6,6,4,1460,271875,1,16778208,560000,99116,96220,65700,0,40544,0,2763082109,63
i,1727695549.099987,172.16.5.2,64047,172.16.1.2,5103,39937,43501,2086,146432,65728,6,6,4,1460,271875,1,16778208,560000,99116,96220,65700,0,43440,0,2763082109,63
o,1727695549.100039,172.16.5.2,64047,172.16.1.2,5103,39937,43501,2086,144960,65728,6,6,4,1460,273125,1,16778208,550000,99116,93324,65700,0,40544,0,2763082109,63
i,1727695549.100505,172.16.5.2,64047,172.16.1.2,5103,39937,43501,2086,144960,65728,6,6,4,1460,273125,1,16778208,550000,99116,93324,65700,0,43440,0,2763082109,63
o,1727695549.100526,172.16.5.2,64047,172.16.1.2,5103,39937,43501,2086,146432,65728,6,6,4,1460,274062,1,16778208,540000,99116,90428,65700,0,40544,0,2763082109,63
o,1727695549.100667,172.16.5.2,64047,172.16.1.2,5103,39937,43501,2086,146432,65728,6,6,4,1460,274062,1,16778208,540000,99116,90428,65700,0,41992,0,2763082109,63
i,1727695549.101749,172.16.5.2,64047,172.16.1.2,5103,39937,43501,2086,146432,65728,6,6,4,1460,274062,1,16778208,540000,99116,99116,65700,0,43440,0,2763082109,63
o,1727695549.101832,172.16.5.2,64047,172.16.1.2,5103,39937,43501,2086,144960,65728,6,6,4,1460,275000,1,16778208,530000,99116,96220,65700,0,40544,0,2763082109,63
o,1727695549.122067,10.0.2.15,22,10.0.2.2,57953,1073725440,14600,1026,65535,65700,0,0,4,1460,312,0,16777220,230000,33580,1316,65700,0,0,0,2045767904,63
i,1727695549.123159,10.0.2.15,22,10.0.2.2,57953,1073725440,14600,1026,65535,65700,0,0,4,1460,312,0,16777220,230000,33580,1316,65700,0,1316,0,2045767904,63
i,1727695549.234733,172.16.5.2,64047,172.16.1.2,5103,39937,43501,2086,144960,65728,6,6,4,1460,275000,1,16778208,530000,99116,99116,65700,0,43440,0,2763082109,63
o,1727695549.234766,172.16.5.2,64047,172.16.1.2,5103,39937,43501,2086,147840,65728,6,6,4,1460,293125,1,16778208,680000,99116,97668,65700,0,41992,0,2763082109,63
i,1727695549.303745,172.16.5.2,64047,172.16.1.2,5103,39937,43501,2086,147840,65728,6,6,4,1460,293125,1,16778208,680000,99116,97668,65700,0,43440,0,2763082109,63
o,1727695549.303782,172.16.5.2,64047,172.16.1.2,5103,39937,43501,2086,144960,65728,6,6,4,1460,285312,1,16778208,690000,99116,94772,65700,0,40544,0,2763082109,63
i,1727695549.304293,172.16.5.2,64047,172.16.1.2,5103,39937,43501,2086,144960,65728,6,6,4,1460,285312,1,16778208,690000,99116,99116,65700,0,43440,0,2763082109,63
o,1727695549.304311,172.16.5.2,64047,172.16.1.2,5103,39937,43501,2086,142080,65728,6,6,4,1460,278437,1,16778208,680000,99116,96220,65700,0,40544,0,2763082109,63
i,1727695549.305391,172.16.5.2,64047,172.16.1.2,5103,39937,43501,2086,142080,65728,6,6,4,1460,278437,1,16778208,680000,99116,99116,65700,0,43440,0,2763082109,63
o,1727695549.305421,172.16.5.2,64047,172.16.1.2,5103,39937,43501,2086,146432,65728,6,6,4,1460,272500,1,16778208,670000,99116,96220,65700,0,40544,0,2763082109,63
i,1727695549.305642,172.16.5.2,64047,172.16.1.2,5103,39937,43501,2086,146432,65728,6,6,4,1460,272500,1,16778208,670000,99116,96220,65700,0,43440,0,2763082109,63
o,1727695549.305670,172.16.5.2,64047,172.16.1.2,5103,39937,43501,2086,146432,65728,6,6,4,1460,264687,1,16778208,680000,99116,93324,65700,0,40544,0,2763082109,63
i,1727695549.306974,172.16.5.2,64047,172.16.1.2,5103,39937,43501,2086,146432,65728,6,6,4,1460,264687,1,16778208,680000,99116,99116,65700,0,43440,0,2763082109,63
o,1727695549.306998,172.16.5.2,64047,172.16.1.2,5103,39937,43501,2086,144960,65728,6,6,4,1460,258125,1,16778208,670000,99116,96220,65700,0,40544,0,2763082109,63
i,1727695549.307183,172.16.5.2,64047,172.16.1.2,5103,39937,43501,2086,144960,65728,6,6,4,1460,258125,1,16778208,670000,99116,96220,65700,0,43440,0,2763082109,63
o,1727695549.307204,172.16.5.2,64047,172.16.1.2,5103,39937,43501,2086,142080,65728,6,6,4,1460,252187,1,16778208,660000,99116,93324,65700,0,40544,0,2763082109,63
i,1727695549.308342,172.16.5.2,64047,172.16.1.2,5103,39937,43501,2086,142080,65728,6,6,4,1460,252187,1,16778208,660000,99116,99116,65700,0,43440,0,2763082109,63
o,1727695549.308390,172.16.5.2,64047,172.16.1.2,5103,39937,43501,2086,146432,65728,6,6,4,1460,247187,1,16778208,640000,99116,96220,65700,0,40544,0,2763082109,63
i,1727695549.308555,172.16.5.2,64047,172.16.1.2,5103,39937,43501,2086,146432,65728,6,6,4,1460,247187,1,16778208,640000,99116,96220,65700,0,43440,0,2763082109,63
o,1727695549.308572,172.16.5.2,64047,172.16.1.2,5103,39937,43501,2086,146432,65728,6,6,4,1460,242812,1,16778208,620000,99116,93324,65700,0,40544,0,2763082109,63
i,1727695549.308775,172.16.5.2,64047,172.16.1.2,5103,39937,43501,2086,146432,65728,6,6,4,1460,242812,1,16778208,620000,99116,93324,65700,0,43440,0,2763082109,63
o,1727695549.308791,172.16.5.2,64047,172.16.1.2,5103,39937,43501,2086,144960,65728,6,6,4,1460,238750,1,16778208,610000,99116,90428,65700,0,40544,0,2763082109,63
i,1727695549.308938,172.16.5.2,64047,172.16.1.2,5103,39937,43501,2086,144960,65728,6,6,4,1460,238750,1,16778208,610000,99116,90428,65700,0,43440,0,2763082109,63
o,1727695549.308973,172.16.5.2,64047,172.16.1.2,5103,39937,44961,2086,144960,65728,6,6,4,1460,235312,1,16778208,590000,99116,87532,65700,0,40544,0,2763082109,63
i,1727695549.309089,172.16.5.2,64047,172.16.1.2,5103,39937,44961,2086,144960,65728,6,6,4,1460,235312,1,16778208,590000,107308,87532,65700,0,44888,0,2763082109,63
o,1727695549.309104,172.16.5.2,64047,172.16.1.2,5103,39937,44961,2086,144960,65728,6,6,4,1460,232187,1,16778208,570000,107308,84636,65700,0,41992,0,2763082109,63
i,1727695549.318998,172.16.5.2,64047,172.16.1.2,5103,39937,44961,2086,144960,65728,6,6,4,1460,232187,1,16778208,570000,107308,107308,65700,0,44888,0,2763082109,63
o,1727695549.319032,172.16.5.2,64047,172.16.1.2,5103,39937,44961,2086,144960,65728,6,6,4,1460,230937,1,16778208,550000,107308,104412,65700,0,41992,0,2763082109,63
i,1727695549.319196,172.16.5.2,64047,172.16.1.2,5103,39937,44961,2086,144960,65728,6,6,4,1460,230937,1,16778208,550000,107308,104412,65700,0,44888,0,2763082109,63
o,1727695549.319217,172.16.5.2,64047,172.16.1.2,5103,39937,44961,2086,146432,65728,6,6,4,1460,229687,1,16778208,520000,107308,101516,65700,0,41992,0,2763082109,63
o,1727695549.319367,172.16.5.2,64047,172.16.1.2,5103,39937,44961,2086,146432,65728,6,6,4,1460,229687,1,16778208,520000,107308,101516,65700,0,43440,0,2763082109,63
i,1727695549.320568,172.16.5.2,64047,172.16.1.2,5103,39937,44961,2086,146432,65728,6,6,4,1460,229687,1,16778208,520000,107308,107308,65700,0,44888,0,2763082109,63
o,1727695549.320589,172.16.5.2,64047,172.16.1.2,5103,39937,44961,2086,144960,65728,6,6,4,1460,228750,1,16778208,510000,107308,104412,65700,0,41992,0,2763082109,63
i,1727695549.531333,172.16.5.2,64047,172.16.1.2,5103,39937,44961,2086,144960,65728,6,6,4,1460,228750,1,16778208,510000,107308,107308,65700,0,44888,0,2763082109,63
o,1727695549.531427,172.16.5.2,64047,172.16.1.2,5103,39937,44961,2086,147840,65728,6,6,4,1460,254062,1,16778208,710000,107308,105860,65700,0,43440,0,2763082109,63
i,1727695549.575928,172.16.5.2,64047,172.16.1.2,5103,39937,44961,2086,147840,65728,6,6,4,1460,254062,1,16778208,710000,107308,105860,65700,0,44888,0,2763082109,63
o,1727695549.576042,172.16.5.2,64047,172.16.1.2,5103,39937,44961,2086,147840,65728,6,6,4,1460,263750,1,16778208,740000,107308,104412,65700,0,43440,0,2763082109,63
i,1727695549.588117,172.16.5.2,64047,172.16.1.2,5103,39937,44961,2086,147840,65728,6,6,4,1460,263750,1,16778208,740000,107308,107308,65700,0,44888,0,2763082109,63
o,1727695549.588151,172.16.5.2,64047,172.16.1.2,5103,39937,44961,2086,144960,65728,6,6,4,1460,265937,1,16778208,690000,107308,104412,65700,0,41992,0,2763082109,63
i,1727695549.589145,172.16.5.2,64047,172.16.1.2,5103,39937,44961,2086,144960,65728,6,6,4,1460,265937,1,16778208,690000,107308,107308,65700,0,44888,0,2763082109,63
o,1727695549.589145,172.16.5.2,64047,172.16.1.2,5103,39937,44961,2086,142080,65728,6,6,4,1460,267812,1,16778208,650000,107308,104412,65700,0,41992,0,2763082109,63
i,1727695549.590594,172.16.5.2,64047,172.16.1.2,5103,39937,44961,2086,142080,65728,6,6,4,1460,267812,1,16778208,650000,107308,104412,65700,0,44888,0,2763082109,63
o,1727695549.590610,172.16.5.2,64047,172.16.1.2,5103,39937,44961,2086,139200,65728,6,6,4,1460,269375,1,16778208,620000,107308,101516,65700,0,41992,0,2763082109,63
i,1727695549.591285,172.16.5.2,64047,172.16.1.2,5103,39937,44961,2086,139200,65728,6,6,4,1460,269375,1,16778208,620000,107308,107308,65700,0,44888,0,2763082109,63
o,1727695549.591303,172.16.5.2,64047,172.16.1.2,5103,39937,44961,2086,136320,65728,6,6,4,1460,270937,1,16778208,600000,107308,104412,65700,0,41992,0,2763082109,63
i,1727695549.591440,172.16.5.2,64047,172.16.1.2,5103,39937,44961,2086,136320,65728,6,6,4,1460,270937,1,16778208,600000,107308,104412,65700,0,44888,0,2763082109,63
o,1727695549.591457,172.16.5.2,64047,172.16.1.2,5103,39937,44961,2086,133440,65728,6,6,4,1460,272187,1,16778208,570000,107308,101516,65700,0,41992,0,2763082109,63
i,1727695549.592260,172.16.5.2,64047,172.16.1.2,5103,39937,44961,2086,133440,65728,6,6,4,1460,272187,1,16778208,570000,107308,107308,65700,0,44888,0,2763082109,63
o,1727695549.592294,172.16.5.2,64047,172.16.1.2,5103,39937,44961,2086,130560,65728,6,6,4,1460,273437,1,16778208,560000,107308,104412,65700,0,41992,0,2763082109,63
i,1727695549.592455,172.16.5.2,64047,172.16.1.2,5103,39937,44961,2086,130560,65728,6,6,4,1460,273437,1,16778208,560000,107308,104412,65700,0,44888,0,2763082109,63
o,1727695549.592472,172.16.5.2,64047,172.16.1.2,5103,39937,44961,2086,127680,65728,6,6,4,1460,274375,1,16778208,550000,107308,101516,65700,0,41992,0,2763082109,63
i,1727695549.593304,172.16.5.2,64047,172.16.1.2,5103,39937,44961,2086,127680,65728,6,6,4,1460,274375,1,16778208,550000,107308,107308,65700,0,44888,0,2763082109,63
o,1727695549.593327,172.16.5.2,64047,172.16.1.2,5103,39937,44961,2086,124800,65728,6,6,4,1460,275312,1,16778208,540000,107308,104412,65700,0,41992,0,2763082109,63
i,1727695549.593455,172.16.5.2,64047,172.16.1.2,5103,39937,44961,2086,124800,65728,6,6,4,1460,275312,1,16778208,540000,107308,104412,65700,0,44888,0,2763082109,63
o,1727695549.593471,172.16.5.2,64047,172.16.1.2,5103,39937,44961,2086,121920,65728,6,6,4,1460,275937,1,16778208,530000,107308,101516,65700,0,41992,0,2763082109,63
i,1727695549.594363,172.16.5.2,64047,172.16.1.2,5103,39937,44961,2086,121920,65728,6,6,4,1460,275937,1,16778208,530000,107308,107308,65700,0,44888,0,2763082109,63
o,1727695549.594403,172.16.5.2,64047,172.16.1.2,5103,39937,46421,2086,119040,65728,6,6,4,1460,276562,1,16778208,520000,107308,104412,65700,0,41992,0,2763082109,63
i,1727695549.594646,172.16.5.2,64047,172.16.1.2,5103,39937,46421,2086,119040,65728,6,6,4,1460,276562,1,16778208,520000,107308,104412,65700,0,46336,0,2763082109,63
o,1727695549.594667,172.16.5.2,64047,172.16.1.2,5103,39937,46421,2086,116160,65728,6,6,4,1460,277187,1,16778208,510000,107308,101516,65700,0,43440,0,2763082109,63
i,1727695549.595745,172.16.5.2,64047,172.16.1.2,5103,39937,46421,2086,116160,65728,6,6,4,1460,277187,1,16778208,510000,107308,107308,65700,0,46336,0,2763082109,63
o,1727695549.595768,172.16.5.2,64047,172.16.1.2,5103,39937,46421,2086,146432,65728,6,6,4,1460,277812,1,16778208,510000,107308,104412,65700,0,43440,0,2763082109,63
i,1727695549.595941,172.16.5.2,64047,172.16.1.2,5103,39937,46421,2086,146432,65728,6,6,4,1460,277812,1,16778208,510000,107308,104412,65700,0,46336,0,2763082109,63
o,1727695549.595961,172.16.5.2,64047,172.16.1.2,5103,39937,46421,2086,143552,65728,6,6,4,1460,276875,1,16778208,510000,107308,101516,65700,0,43440,0,2763082109,63
o,1727695549.596097,172.16.5.2,64047,172.16.1.2,5103,39937,46421,2086,143552,65728,6,6,4,1460,276875,1,16778208,510000,107308,101516,65700,0,44888,0,2763082109,63
i,1727695549.597080,172.16.5.2,64047,172.16.1.2,5103,39937,46421,2086,143552,65728,6,6,4,1460,276875,1,16778208,510000,107308,107308,65700,0,46336,0,2763082109,63
o,1727695549.597102,172.16.5.2,64047,172.16.1.2,5103,39937,46421,2086,146432,65728,6,6,4,1460,276250,1,16778208,510000,107308,104412,65700,0,43440,0,2763082109,63
i,1727695549.598560,172.16.5.2,64047,172.16.1.2,5103,39937,46421,2086,146432,65728,6,6,4,1460,276250,1,16778208,510000,107308,107308,65700,0,46336,0,2763082109,63
o,1727695549.598585,172.16.5.2,64047,172.16.1.2,5103,39937,46421,2086,147840,65728,6,6,4,1460,275625,1,16778208,500000,107308,105860,65700,0,44888,0,2763082109,63
i,1727695549.853616,172.16.5.2,64047,172.16.1.2,5103,39937,46421,2086,147840,65728,6,6,4,1460,275625,1,16778208,500000,107308,105860,65700,0,46336,0,2763082109,63
o,1727695549.853657,172.16.5.2,64047,172.16.1.2,5103,39937,46421,2086,147840,65728,6,6,4,1460,281250,1,16778208,550000,107308,104412,65700,0,44888,0,2763082109,63
i,1727695549.853816,172.16.5.2,64047,172.16.1.2,5103,39937,46421,2086,147840,65728,6,6,4,1460,281250,1,16778208,550000,107308,104412,65700,0,46336,0,2763082109,63
o,1727695549.853834,172.16.5.2,64047,172.16.1.2,5103,39937,46421,2086,146432,65728,6,6,4,1460,281250,1,16778208,530000,107308,101516,65700,0,43440,0,2763082109,63
i,1727695549.877476,172.16.5.2,64047,172.16.1.2,5103,39937,46421,2086,146432,65728,6,6,4,1460,281250,1,16778208,530000,107308,107308,65700,0,46336,0,2763082109,63
o,1727695549.877588,172.16.5.2,64047,172.16.1.2,5103,39937,46421,2086,146432,65728,6,6,4,1460,282500,1,16778208,530000,107308,104412,65700,0,43440,0,2763082109,63
i,1727695549.877832,172.16.5.2,64047,172.16.1.2,5103,39937,46421,2086,146432,65728,6,6,4,1460,282500,1,16778208,530000,107308,104412,65700,0,46336,0,2763082109,63
o,1727695549.877865,172.16.5.2,64047,172.16.1.2,5103,39937,46421,2086,143552,65728,6,6,4,1460,283437,1,16778208,520000,107308,101516,65700,0,43440,0,2763082109,63
i,1727695549.878916,172.16.5.2,64047,172.16.1.2,5103,39937,46421,2086,143552,65728,6,6,4,1460,283437,1,16778208,520000,107308,107308,65700,0,46336,0,2763082109,63
o,1727695549.879031,172.16.5.2,64047,172.16.1.2,5103,39937,46421,2086,144960,65728,6,6,4,1460,283125,1,16778208,520000,107308,104412,65700,0,43440,0,2763082109,63
i,1727695549.879276,172.16.5.2,64047,172.16.1.2,5103,39937,46421,2086,144960,65728,6,6,4,1460,283125,1,16778208,520000,107308,104412,65700,0,46336,0,2763082109,63
o,1727695549.879305,172.16.5.2,64047,172.16.1.2,5103,39937,46421,2086,142080,65728,6,6,4,1460,282812,1,16778208,510000,107308,101516,65700,0,43440,0,2763082109,63
i,1727695549.928488,172.16.5.2,64047,172.16.1.2,5103,39937,46421,2086,142080,65728,6,6,4,1460,282812,1,16778208,510000,107308,107308,65700,0,46336,0,2763082109,63
o,1727695549.928602,172.16.5.2,64047,172.16.1.2,5103,39937,46421,2086,146432,65728,6,6,4,1460,288750,1,16778208,560000,107308,104412,65700,0,43440,0,2763082109,63
i,1727695549.928861,172.16.5.2,64047,172.16.1.2,5103,39937,46421,2086,146432,65728,6,6,4,1460,288750,1,16778208,560000,107308,104412,65700,0,46336,0,2763082109,63
o,1727695549.928891,172.16.5.2,64047,172.16.1.2,5103,39937,46421,2086,146432,65728,6,6,4,1460,294062,1,16778208,590000,107308,101516,65700,0,43440,0,2763082109,63
i,1727695549.929959,172.16.5.2,64047,172.16.1.2,5103,39937,46421,2086,146432,65728,6,6,4,1460,294062,1,16778208,590000,107308,107308,65700,0,46336,0,2763082109,63
o,1727695549.930033,172.16.5.2,64047,172.16.1.2,5103,39937,46421,2086,146432,65728,6,6,4,1460,298750,1,16778208,610000,107308,104412,65700,0,43440,0,2763082109,63
i,1727695549.930170,172.16.5.2,64047,172.16.1.2,5103,39937,46421,2086,146432,65728,6,6,4,1460,298750,1,16778208,610000,107308,104412,65700,0,46336,0,2763082109,63
o,1727695549.930187,172.16.5.2,64047,172.16.1.2,5103,39937,46421,2086,146432,65728,6,6,4,1460,302812,1,16778208,620000,107308,101516,65700,0,43440,0,2763082109,63
i,1727695549.930479,172.16.5.2,64047,172.16.1.2,5103,39937,46421,2086,146432,65728,6,6,4,1460,302812,1,16778208,620000,107308,101516,65700,0,46336,0,2763082109,63
o,1727695549.930516,172.16.5.2,64047,172.16.1.2,5103,39937,46421,2086,143552,65728,6,6,4,1460,307500,1,16778208,630000,107308,98620,65700,0,43440,0,2763082109,63
i,1727695549.930753,172.16.5.2,64047,172.16.1.2,5103,39937,46421,2086,143552,65728,6,6,4,1460,307500,1,16778208,630000,107308,98620,65700,0,46336,0,2763082109,63
o,1727695549.930771,172.16.5.2,64047,172.16.1.2,5103,39937,47881,2086,144960,65728,6,6,4,1460,311562,1,16778208,640000,107308,95724,65700,0,43440,0,2763082109,63
i,1727695549.930939,172.16.5.2,64047,172.16.1.2,5103,39937,47881,2086,144960,65728,6,6,4,1460,311562,1,16778208,640000,107308,95724,65700,0,47784,0,2763082109,63
o,1727695549.930989,172.16.5.2,64047,172.16.1.2,5103,39937,47881,2086,144960,65728,6,6,4,1460,315312,1,16778208,640000,107308,92828,65700,0,44888,0,2763082109,63
i,1727695549.931179,172.16.5.2,64047,172.16.1.2,5103,39937,47881,2086,144960,65728,6,6,4,1460,315312,1,16778208,640000,107308,92828,65700,0,47784,0,2763082109,63
o,1727695549.931196,172.16.5.2,64047,172.16.1.2,5103,39937,47881,2086,142080,65728,6,6,4,1460,318437,1,16778208,640000,107308,89932,65700,0,44888,0,2763082109,63
i,1727695549.931399,172.16.5.2,64047,172.16.1.2,5103,39937,47881,2086,142080,65728,6,6,4,1460,318437,1,16778208,640000,107308,89932,65700,0,47784,0,2763082109,63
o,1727695549.931417,172.16.5.2,64047,172.16.1.2,5103,39937,47881,2086,139200,65728,6,6,4,1460,321250,1,16778208,630000,107308,87036,65700,0,44888,0,2763082109,63
o,1727695549.931558,172.16.5.2,64047,172.16.1.2,5103,39937,47881,2086,139200,65728,6,6,4,1460,321250,1,16778208,630000,107308,87036,65700,0,46336,0,2763082109,63
i,1727695549.931737,172.16.5.2,64047,172.16.1.2,5103,39937,47881,2086,139200,65728,6,6,4,1460,321250,1,16778208,630000,107308,87036,65700,0,47784,0,2763082109,63
o,1727695549.931755,172.16.5.2,64047,172.16.1.2,5103,39937,47881,2086,144960,65728,6,6,4,1460,323750,1,16778208,630000,107308,84140,65700,0,44888,0,2763082109,63
i,1727695549.950547,172.16.5.2,64047,172.16.1.2,5103,39937,47881,2086,144960,65728,6,6,4,1460,323750,1,16778208,630000,107308,107308,65700,0,47784,0,2763082109,63
o,1727695549.950632,172.16.5.2,64047,172.16.1.2,5103,39937,47881,2086,147840,65728,6,6,4,1460,328437,1,16778208,640000,107308,105860,65700,0,46336,0,2763082109,63
i,1727695550.091618,172.16.5.2,64047,172.16.1.2,5103,39937,47881,2086,147840,65728,6,6,4,1460,328437,1,16778208,640000,107308,105860,65700,0,47784,0,2763082109,63
o,1727695550.091734,172.16.5.2,64047,172.16.1.2,5103,39937,47881,2086,144960,65728,6,6,4,1460,317500,1,16778208,690000,107308,102964,65700,0,44888,0,2763082109,63
i,1727695550.093812,172.16.5.2,64047,172.16.1.2,5103,39937,47881,2086,144960,65728,6,6,4,1460,317500,1,16778208,690000,107308,107308,65700,0,47784,0,2763082109,63
o,1727695550.093910,172.16.5.2,64047,172.16.1.2,5103,39937,47881,2086,146432,65728,6,6,4,1460,307812,1,16778208,720000,107308,104412,65700,0,44888,0,2763082109,63
i,1727695550.094099,172.16.5.2,64047,172.16.1.2,5103,39937,47881,2086,146432,65728,6,6,4,1460,307812,1,16778208,720000,107308,104412,65700,0,47784,0,2763082109,63
o,1727695550.094122,172.16.5.2,64047,172.16.1.2,5103,39937,47881,2086,143552,65728,6,6,4,1460,295625,1,16778208,750000,107308,101516,65700,0,44888,0,2763082109,63
i,1727695550.095165,172.16.5.2,64047,172.16.1.2,5103,39937,47881,2086,143552,65728,6,6,4,1460,295625,1,16778208,750000,107308,107308,65700,0,47784,0,2763082109,63
o,1727695550.095196,172.16.5.2,64047,172.16.1.2,5103,39937,47881,2086,140672,65728,6,6,4,1460,285000,1,16778208,760000,107308,104412,65700,0,44888,0,2763082109,63
i,1727695550.095335,172.16.5.2,64047,172.16.1.2,5103,39937,47881,2086,140672,65728,6,6,4,1460,285000,1,16778208,760000,107308,104412,65700,0,47784,0,2763082109,63
o,1727695550.095354,172.16.5.2,64047,172.16.1.2,5103,39937,47881,2086,144960,65728,6,6,4,1460,275625,1,16778208,760000,107308,101516,65700,0,44888,0,2763082109,63
i,1727695550.218632,172.16.5.2,64047,172.16.1.2,5103,39937,47881,2086,144960,65728,6,6,4,1460,275625,1,16778208,760000,107308,107308,65700,0,47784,0,2763082109,63
o,1727695550.218726,172.16.5.2,64047,172.16.1.2,5103,39937,47881,2086,147840,65728,6,6,4,1460,282500,1,16778208,750000,107308,105860,65700,0,46336,0,2763082109,63
i,1727695550.228497,172.16.5.2,64047,172.16.1.2,5103,39937,47881,2086,147840,65728,6,6,4,1460,282500,1,16778208,750000,107308,105860,65700,0,47784,0,2763082109,63
o,1727695550.228526,172.16.5.2,64047,172.16.1.2,5103,39937,47881,2086,144960,65728,6,6,4,1460,284687,1,16778208,700000,107308,102964,65700,0,44888,0,2763082109,63
i,1727695550.228759,172.16.5.2,64047,172.16.1.2,5103,39937,47881,2086,144960,65728,6,6,4,1460,284687,1,16778208,700000,107308,102964,65700,0,47784,0,2763082109,63
o,1727695550.228778,172.16.5.2,64047,172.16.1.2,5103,39937,47881,2086,144960,65728,6,6,4,1460,286875,1,16778208,660000,107308,100068,65700,0,44888,0,2763082109,63
i,1727695550.228970,172.16.5.2,64047,172.16.1.2,5103,39937,47881,2086,144960,65728,6,6,4,1460,286875,1,16778208,660000,107308,100068,65700,0,47784,0,2763082109,63
o,1727695550.228996,172.16.5.2,64047,172.16.1.2,5103,39937,47881,2086,146432,65728,6,6,4,1460,288750,1,16778208,640000,107308,97172,65700,0,44888,0,2763082109,63
i,1727695550.229221,172.16.5.2,64047,172.16.1.2,5103,39937,47881,2086,146432,65728,6,6,4,1460,288750,1,16778208,640000,107308,97172,65700,0,47784,0,2763082109,63
o,1727695550.229256,172.16.5.2,64047,172.16.1.2,5103,39937,47881,2086,143552,65728,6,6,4,1460,290312,1,16778208,610000,107308,94276,65700,0,44888,0,2763082109,63
i,1727695550.229398,172.16.5.2,64047,172.16.1.2,5103,39937,47881,2086,143552,65728,6,6,4,1460,290312,1,16778208,610000,115500,94276,65700,0,47784,0,2763082109,63
o,1727695550.229417,172.16.5.2,64047,172.16.1.2,5103,39937,47881,2086,140672,65728,6,6,4,1460,290312,1,16778208,580000,115500,91380,65700,0,44888,0,2763082109,63
i,1727695550.230003,172.16.5.2,64047,172.16.1.2,5103,39937,47881,2086,140672,65728,6,6,4,1460,290312,1,16778208,580000,115500,115500,65700,0,47784,0,2763082109,63
o,1727695550.230030,172.16.5.2,64047,172.16.1.2,5103,39937,47881,2086,137792,65728,6,6,4,1460,290312,1,16778208,560000,115500,112604,65700,0,44888,0,2763082109,63
i,1727695550.230245,172.16.5.2,64047,172.16.1.2,5103,39937,47881,2086,137792,65728,6,6,4,1460,290312,1,16778208,560000,115500,112604,65700,0,47784,0,2763082109,63
o,1727695550.230268,172.16.5.2,64047,172.16.1.2,5103,39937,49341,2086,144960,65728,6,6,4,1460,290312,1,16778208,540000,115500,109708,65700,0,44888,0,2763082109,63
i,1727695550.230724,172.16.5.2,64047,172.16.1.2,5103,39937,49341,2086,144960,65728,6,6,4,1460,290312,1,16778208,540000,115500,109708,65700,0,49232,0,2763082109,63
o,1727695550.230747,172.16.5.2,64047,172.16.1.2,5103,39937,49341,2086,146432,65728,6,6,4,1460,291562,1,16778208,540000,115500,106812,65700,0,46336,0,2763082109,63
i,1727695550.238505,172.16.5.2,64047,172.16.1.2,5103,39937,49341,2086,146432,65728,6,6,4,1460,291562,1,16778208,540000,115500,115500,65700,0,49232,0,2763082109,63
o,1727695550.238612,172.16.5.2,64047,172.16.1.2,5103,39937,49341,2086,146432,65728,6,6,4,1460,292812,1,16778208,540000,115500,112604,65700,0,46336,0,2763082109,63
o,1727695550.238758,172.16.5.2,64047,172.16.1.2,5103,39937,49341,2086,146432,65728,6,6,4,1460,292812,1,16778208,540000,115500,112604,65700,0,47784,0,2763082109,63
i,1727695550.238896,172.16.5.2,64047,172.16.1.2,5103,39937,49341,2086,146432,65728,6,6,4,1460,292812,1,16778208,540000,115500,112604,65700,0,49232,0,2763082109,63
o,1727695550.238914,172.16.5.2,64047,172.16.1.2,5103,39937,49341,2086,146432,65728,6,6,4,1460,293750,1,16778208,540000,115500,109708,65700,0,46336,0,2763082109,63
i,1727695550.239093,172.16.5.2,64047,172.16.1.2,5103,39937,49341,2086,146432,65728,6,6,4,1460,293750,1,16778208,540000,115500,109708,65700,0,49232,0,2763082109,63
o,1727695550.239140,172.16.5.2,64047,172.16.1.2,5103,39937,49341,2086,144960,65728,6,6,4,1460,294687,1,16778208,530000,115500,106812,65700,0,46336,0,2763082109,63
i,1727695550.369689,172.16.5.2,64047,172.16.1.2,5103,39937,49341,2086,144960,65728,6,6,4,1460,294687,1,16778208,530000,115500,115500,65700,0,49232,0,2763082109,63
o,1727695550.369737,172.16.5.2,64047,172.16.1.2,5103,39937,49341,2086,144960,65728,6,6,4,1460,291875,1,16778208,540000,115500,112604,65700,0,46336,0,2763082109,63
i,1727695550.369946,172.16.5.2,64047,172.16.1.2,5103,39937,49341,2086,144960,65728,6,6,4,1460,291875,1,16778208,540000,115500,112604,65700,0,49232,0,2763082109,63
o,1727695550.369972,172.16.5.2,64047,172.16.1.2,5103,39937,49341,2086,142080,65728,6,6,4,1460,289375,1,16778208,550000,115500,109708,65700,0,46336,0,2763082109,63
i,1727695550.370158,172.16.5.2,64047,172.16.1.2,5103,39937,49341,2086,142080,65728,6,6,4,1460,289375,1,16778208,550000,115500,109708,65700,0,49232,0,2763082109,63
o,1727695550.370209,172.16.5.2,64047,172.16.1.2,5103,39937,49341,2086,144960,65728,6,6,4,1460,287187,1,16778208,550000,115500,106812,65700,0,46336,0,2763082109,63
i,1727695550.370635,172.16.5.2,64047,172.16.1.2,5103,39937,49341,2086,144960,65728,6,6,4,1460,287187,1,16778208,550000,115500,106812,65700,0,49232,0,2763082109,63
o,1727695550.370659,172.16.5.2,64047,172.16.1.2,5103,39937,49341,2086,146432,65728,6,6,4,1460,285312,1,16778208,550000,115500,103916,65700,0,46336,0,2763082109,63
i,1727695550.370860,172.16.5.2,64047,172.16.1.2,5103,39937,49341,2086,146432,65728,6,6,4,1460,285312,1,16778208,550000,115500,103916,65700,0,49232,0,2763082109,63
o,1727695550.370883,172.16.5.2,64047,172.16.1.2,5103,39937,49341,2086,143552,65728,6,6,4,1460,283437,1,16778208,550000,115500,101020,65700,0,46336,0,2763082109,63
i,1727695550.496043,172.16.5.2,64047,172.16.1.2,5103,39937,49341,2086,143552,65728,6,6,4,1460,283437,1,16778208,550000,115500,115500,65700,0,49232,0,2763082109,63
o,1727695550.496144,172.16.5.2,64047,172.16.1.2,5103,39937,49341,2086,146432,65728,6,6,4,1460,283125,1,16778208,530000,115500,112604,65700,0,46336,0,2763082109,63
i,1727695550.497544,172.16.5.2,64047,172.16.1.2,5103,39937,49341,2086,146432,65728,6,6,4,1460,283125,1,16778208,530000,115500,115500,65700,0,49232,0,2763082109,63
o,1727695550.497570,172.16.5.2,64047,172.16.1.2,5103,39937,49341,2086,143552,65728,6,6,4,1460,281562,1,16778208,530000,115500,112604,65700,0,46336,0,2763082109,63
i,1727695550.497749,172.16.5.2,64047,172.16.1.2,5103,39937,49341,2086,143552,65728,6,6,4,1460,281562,1,16778208,530000,115500,112604,65700,0,49232,0,2763082109,63
o,1727695550.497779,172.16.5.2,64047,172.16.1.2,5103,39937,49341,2086,144960,65728,6,6,4,1460,280312,1,16778208,530000,115500,109708,65700,0,46336,0,2763082109,63
i,1727695550.497995,172.16.5.2,64047,172.16.1.2,5103,39937,49341,2086,144960,65728,6,6,4,1460,280312,1,16778208,530000,115500,109708,65700,0,49232,0,2763082109,63
o,1727695550.498020,172.16.5.2,64047,172.16.1.2,5103,39937,49341,2086,142080,65728,6,6,4,1460,279062,1,16778208,520000,115500,106812,65700,0,46336,0,2763082109,63
i,1727695550.499182,172.16.5.2,64047,172.16.1.2,5103,39937,49341,2086,142080,65728,6,6,4,1460,279062,1,16778208,520000,115500,115500,65700,0,49232,0,2763082109,63
o,1727695550.499205,172.16.5.2,64047,172.16.1.2,5103,39937,49341,2086,146432,65728,6,6,4,1460,278125,1,16778208,520000,115500,112604,65700,0,46336,0,2763082109,63
i,1727695550.499392,172.16.5.2,64047,172.16.1.2,5103,39937,49341,2086,146432,65728,6,6,4,1460,278125,1,16778208,520000,115500,112604,65700,0,49232,0,2763082109,63
o,1727695550.499415,172.16.5.2,64047,172.16.1.2,5103,39937,49341,2086,143552,65728,6,6,4,1460,277187,1,16778208,510000,115500,109708,65700,0,46336,0,2763082109,63
i,1727695550.500532,172.16.5.2,64047,172.16.1.2,5103,39937,49341,2086,143552,65728,6,6,4,1460,277187,1,16778208,510000,115500,115500,65700,0,49232,0,2763082109,63
o,1727695550.500558,172.16.5.2,64047,172.16.1.2,5103,39937,49341,2086,144960,65728,6,6,4,1460,276562,1,16778208,510000,115500,112604,65700,0,46336,0,2763082109,63
i,1727695550.500744,172.16.5.2,64047,172.16.1.2,5103,39937,49341,2086,144960,65728,6,6,4,1460,276562,1,16778208,510000,115500,112604,65700,0,49232,0,2763082109,63
o,1727695550.500764,172.16.5.2,64047,172.16.1.2,5103,39937,50801,2086,144960,65728,6,6,4,1460,275937,1,16778208,510000,115500,109708,65700,0,46336,0,2763082109,63
i,1727695550.501684,172.16.5.2,64047,172.16.1.2,5103,39937,50801,2086,144960,65728,6,6,4,1460,275937,1,16778208,510000,115500,115500,65700,0,50680,0,2763082109,63
o,1727695550.501780,172.16.5.2,64047,172.16.1.2,5103,39937,50801,2086,146432,65728,6,6,4,1460,275312,1,16778208,500000,115500,112604,65700,0,47784,0,2763082109,63
i,1727695550.502800,172.16.5.2,64047,172.16.1.2,5103,39937,50801,2086,146432,65728,6,6,4,1460,275312,1,16778208,500000,115500,115500,65700,0,50680,0,2763082109,63
o,1727695550.502800,172.16.5.2,64047,172.16.1.2,5103,39937,50801,2086,144960,65728,6,6,4,1460,274687,1,16778208,500000,115500,112604,65700,0,47784,0,2763082109,63
o,1727695550.502800,172.16.5.2,64047,172.16.1.2,5103,39937,50801,2086,144960,65728,6,6,4,1460,274687,1,16778208,500000,115500,112604,65700,0,49232,0,2763082109,63
i,1727695550.502800,172.16.5.2,64047,172.16.1.2,5103,39937,50801,2086,144960,65728,6,6,4,1460,274687,1,16778208,500000,115500,112604,65700,0,50680,0,2763082109,63
o,1727695550.502800,172.16.5.2,64047,172.16.1.2,5103,39937,50801,2086,144960,65728,6,6,4,1460,274375,1,16778208,490000,115500,109708,65700,0,47784,0,2763082109,63
i,1727695550.536172,172.16.5.2,64047,172.16.1.2,5103,39937,50801,2086,144960,65728,6,6,4,1460,274375,1,16778208,490000,115500,115500,65700,0,50680,0,2763082109,63
o,1727695550.536365,172.16.5.2,64047,172.16.1.2,5103,39937,50801,2086,144960,65728,6,6,4,1460,277812,1,16778208,520000,115500,112604,65700,0,47784,0,2763082109,63
i,1727695550.684767,172.16.5.2,64047,172.16.1.2,5103,39937,50801,2086,144960,65728,6,6,4,1460,277812,1,16778208,520000,115500,115500,65700,0,50680,0,2763082109,63
o,1727695550.684815,172.16.5.2,64047,172.16.1.2,5103,39937,50801,2086,144960,65728,6,6,4,1460,283125,1,16778208,560000,115500,112604,65700,0,47784,0,2763082109,63
i,1727695550.686822,172.16.5.2,64047,172.16.1.2,5103,39937,50801,2086,144960,65728,6,6,4,1460,283125,1,16778208,560000,115500,112604,65700,0,50680,0,2763082109,63
o,1727695550.686985,172.16.5.2,64047,172.16.1.2,5103,39937,50801,2086,142080,65728,6,6,4,1460,287812,1,16778208,580000,115500,109708,65700,0,47784,0,2763082109,63
i,1727695550.689166,172.16.5.2,64047,172.16.1.2,5103,39937,50801,2086,142080,65728,6,6,4,1460,287812,1,16778208,580000,115500,115500,65700,0,50680,0,2763082109,63
