enable_time_secs=1727695648	enable_time_usecs=553577	siftrver=1.3.0	sysname=FreeBSD	sysver=1401000	ipmode=4
o,1727695648.554014,10.0.2.15,22,10.0.2.2,49883,1073725440,17746,1026,65535,65700,0,0,4,1460,312,0,16777220,240000,33580,172,65700,0,0,0,1268257973,63
i,1727695648.555018,10.0.2.15,22,10.0.2.2,49883,1073725440,17746,1026,65535,65700,0,0,4,1460,312,0,16777220,240000,33580,172,65700,0,172,0,1268257973,63
o,1727695648.555105,10.0.2.15,22,10.0.2.2,49883,1073725440,17918,1026,65535,65700,0,0,4,1460,312,0,16777220,240000,33580,72,65700,0,0,0,1268257973,63
i,1727695648.555749,10.0.2.15,22,10.0.2.2,49883,1073725440,17918,1026,65535,65700,0,0,4,1460,312,0,16777220,240000,33580,72,65700,0,72,0,1268257973,63
i,1727695648.555766,10.0.2.15,22,10.0.2.2,49883,1073725440,17990,1026,65535,65700,0,0,4,1460,312,0,4,240000,33580,0,65700,0,0,0,1268257973,63
i,1727695648.555783,10.0.2.15,22,10.0.2.2,49883,1073725440,17990,1026,65535,65700,0,0,4,1460,312,0,4,240000,33580,0,65700,96,0,0,1268257973,63
o,1727695648.555800,10.0.2.15,22,10.0.2.2,49883,1073725440,17990,1026,65535,65604,0,0,5,1460,312,0,5,240000,33580,0,65700,96,0,0,1268257973,63
o,1727695648.556389,10.0.2.15,22,10.0.2.2,49883,1073725440,17990,1026,65535,65604,0,0,8,1460,312,0,4,240000,33580,0,65700,0,0,0,1268257973,63
i,1727695648.556914,10.0.2.15,22,10.0.2.2,49883,1073725440,17990,1026,65535,65604,0,0,8,1460,312,0,67108884,240000,33580,0,65700,0,1,0,1268257973,63
o,1727695648.804527,10.0.2.15,22,10.0.2.2,57953,1073725440,14600,1026,65535,65700,0,0,4,1460,312,0,16777220,240000,33580,524,65700,0,0,0,2045767904,63
i,1727695648.805929,10.0.2.15,22,10.0.2.2,57953,1073725440,14600,1026,65535,65700,0,0,4,1460,312,0,16777220,240000,33580,524,65700,0,524,0,2045767904,63
o,1727695650.822088,10.0.2.15,22,10.0.2.2,57953,1073725440,14600,1026,65535,65700,0,0,4,1460,312,0,16777220,240000,33580,596,65700,0,0,0,2045767904,63
i,1727695650.823106,10.0.2.15,22,10.0.2.2,57953,1073725440,14600,1026,65535,65700,0,0,4,1460,312,0,16777220,240000,33580,596,65700,0,596,0,2045767904,63
i,1727695651.804857,10.0.2.15,22,10.0.2.2,49891,1073725440,14600,0,65535,65700,0,0,4,1460,312,0,16777216,270000,33580,0,65700,0,0,0,2159132173,63
o,1727695651.817626,10.0.2.15,22,10.0.2.2,49891,1073725440,14600,1026,65535,65700,0,0,4,1460,312,0,16777216,270000,33580,38,65700,42,0,0,2159132173,63
i,1727695651.818316,10.0.2.15,22,10.0.2.2,49891,1073725440,14600,1026,65535,65700,0,0,4,1460,312,0,16777216,270000,33580,38,65700,42,38,0,2159132173,63
i,1727695651.818708,10.0.2.15,22,10.0.2.2,49891,1073725440,14638,1026,65535,65700,0,0,4,1460,312,0,0,240000,33580,0,65700,0,0,0,2159132173,63
i,1727695651.818726,10.0.2.15,22,10.0.2.2,49891,1073725440,14638,1026,65535,65700,0,0,4,1460,312,0,0,240000,33580,0,65700,1460,0,0,2159132173,63
o,1727695651.818747,10.0.2.15,22,10.0.2.2,49891,1073725440,14638,1026,65535,65700,0,0,4,1460,312,0,1,240000,33580,0,65700,1536,0,0,2159132173,63
o,1727695651.819528,10.0.2.15,22,10.0.2.2,49891,1073725440,14638,1026,65535,65700,0,0,4,1460,312,0,16777216,240000,33580,1120,65700,1536,0,0,2159132173,63
i,1727695651.820868,10.0.2.15,22,10.0.2.2,49891,1073725440,14638,1026,65535,65700,0,0,4,1460,312,0,16777216,240000,33580,1120,65700,0,1120,0,2159132173,63
i,1727695651.821579,10.0.2.15,22,10.0.2.2,49891,1073725440,15758,1026,65535,65700,0,0,4,1460,312,0,0,240000,33580,0,65700,0,0,0,2159132173,63
o,1727695651.824790,10.0.2.15,22,10.0.2.2,49891,1073725440,15758,1026,65535,65700,0,0,4,1460,312,0,16777216,240000,33580,492,65700,0,0,0,2159132173,63
i,1727695651.826073,10.0.2.15,22,10.0.2.2,49891,1073725440,15758,1026,65535,65700,0,0,4,1460,312,0,16777216,240000,33580,492,65700,0,492,0,2159132173,63
i,1727695651.830098,10.0.2.15,22,10.0.2.2,49891,1073725440,16250,1026,65535,65700,0,0,4,1460,312,0,0,240000,33580,0,65700,0,0,0,2159132173,63
i,1727695651.830121,10.0.2.15,22,10.0.2.2,49891,1073725440,16250,1026,65535,65700,0,0,4,1460,312,0,0,240000,33580,0,65700,16,0,0,2159132173,63
o,1727695651.830141,10.0.2.15,22,10.0.2.2,49891,1073725440,16250,1026,65535,65700,0,0,4,1460,312,0,1,240000,33580,0,65700,60,0,0,2159132173,63
o,1727695651.830495,10.0.2.15,22,10.0.2.2,49891,1073725440,16250,1026,65535,65700,0,0,4,1460,312,0,16777216,240000,33580,44,65700,0,0,0,2159132173,63
i,1727695651.831005,10.0.2.15,22,10.0.2.2,49891,1073725440,16250,1026,65535,65700,0,0,4,1460,312,0,16777216,240000,33580,44,65700,0,44,0,2159132173,63
i,1727695651.831025,10.0.2.15,22,10.0.2.2,49891,1073725440,16294,1026,65535,65700,0,0,4,1460,312,0,0,240000,33580,0,65700,0,0,0,2159132173,63
o,1727695651.832142,10.0.2.15,22,10.0.2.2,49891,1073725440,16294,1026,65535,65700,0,0,4,1460,312,0,16777216,240000,33580,68,65700,0,0,0,2159132173,63
i,1727695651.832738,10.0.2.15,22,10.0.2.2,49891,1073725440,16294,1026,65535,65700,0,0,4,1460,312,0,16777216,240000,33580,68,65700,0,68,0,2159132173,63
i,1727695651.832758,10.0.2.15,22,10.0.2.2,49891,1073725440,16362,1026,65535,65700,0,0,4,1460,312,0,0,240000,33580,0,65700,0,0,0,2159132173,63
o,1727695651.833931,10.0.2.15,22,10.0.2.2,49891,1073725440,16362,1026,65535,65700,0,0,4,1460,312,0,16777216,240000,33580,332,65700,0,0,0,2159132173,63
i,1727695651.834823,10.0.2.15,22,10.0.2.2,49891,1073725440,16362,1026,65535,65700,0,0,4,1460,312,0,16777216,240000,33580,332,65700,0,332,0,2159132173,63
i,1727695651.836094,10.0.2.15,22,10.0.2.2,49891,1073725440,16694,1026,65535,65700,0,0,4,1460,312,0,0,240000,33580,0,65700,0,0,0,2159132173,63
o,1727695651.868137,10.0.2.15,22,10.0.2.2,49891,1073725440,16694,1026,65535,65700,0,0,4,1460,312,0,16777216,240000,33580,28,65700,0,0,0,2159132173,63
i,1727695651.868815,10.0.2.15,22,10.0.2.2,49891,1073725440,16694,1026,65535,65700,0,0,4,1460,312,0,16777216,240000,33580,28,65700,0,28,0,2159132173,63
i,1727695651.869248,10.0.2.15,22,10.0.2.2,49891,1073725440,16722,1026,65535,65700,0,0,4,1460,312,0,0,240000,33580,0,65700,0,0,0,2159132173,63
o,1727695651.870814,10.0.2.15,22,10.0.2.2,49891,1073725440,16722,1026,65535,65700,0,0,4,1460,312,0,16777216,240000,33580,768,65700,112,0,0,2159132173,63
i,1727695651.871783,10.0.2.15,22,10.0.2.2,49891,1073725440,16722,1026,65535,65700,0,0,4,1460,312,0,16777216,240000,33580,768,65700,112,768,0,2159132173,63
o,1727695651.871857,10.0.2.15,22,10.0.2.2,49891,1073725440,17490,1026,65535,65700,0,0,4,1460,312,0,16777216,240000,33580,140,65700,112,0,0,2159132173,63
i,1727695651.872312,10.0.2.15,22,10.0.2.2,49891,1073725440,17490,1026,65535,65700,0,0,4,1460,312,0,16777216,240000,33580,140,65700,0,140,0,2159132173,63
o,1727695651.872422,10.0.2.15,22,10.0.2.2,49891,1073725440,17630,1026,65535,65700,0,0,4,1460,312,0,16777216,240000,33580,44,65700,0,0,0,2159132173,63
i,1727695651.873052,10.0.2.15,22,10.0.2.2,49891,1073725440,17630,1026,65535,65700,0,0,4,1460,312,0,16777216,240000,33580,44,65700,0,44,0,2159132173,63
i,1727695651.873073,10.0.2.15,22,10.0.2.2,49891,1073725440,17674,1026,65535,65700,0,0,4,1460,312,0,0,240000,33580,0,65700,0,0,0,2159132173,63
o,1727695651.873654,10.0.2.15,22,10.0.2.2,49891,1073725440,17674,1026,65535,65700,0,0,4,1460,312,0,16777220,240000,33580,72,65700,0,0,0,2159132173,63
i,1727695651.874277,10.0.2.15,22,10.0.2.2,49891,1073725440,17674,1026,65535,65700,0,0,4,1460,312,0,16777220,240000,33580,72,65700,0,72,0,2159132173,63
o,1727695651.876963,10.0.2.15,22,10.0.2.2,49891,1073725440,17746,1026,65535,65700,0,0,4,1460,312,0,16777220,240000,33580,104,65700,0,0,0,2159132173,63
i,1727695651.877548,10.0.2.15,22,10.0.2.2,49891,1073725440,17746,1026,65535,65700,0,0,4,1460,312,0,16777220,240000,33580,104,65700,0,104,0,2159132173,63
o,1727695651.899209,10.0.2.15,22,10.0.2.2,49891,1073725440,17850,1026,65535,65700,0,0,4,1460,312,0,16777220,240000,33580,72,65700,0,0,0,2159132173,63
i,1727695651.901338,10.0.2.15,22,10.0.2.2,49891,1073725440,17850,1026,65535,65700,0,0,4,1460,312,0,16777220,240000,33580,72,65700,0,72,0,2159132173,63
i,1727695651.901395,10.0.2.15,22,10.0.2.2,49891,1073725440,17922,1026,65535,65700,0,0,4,1460,312,0,4,240000,33580,0,65700,0,0,0,2159132173,63
i,1727695651.901411,10.0.2.15,22,10.0.2.2,49891,1073725440,17922,1026,65535,65700,0,0,4,1460,312,0,4,240000,33580,0,65700,96,0,0,2159132173,63
o,1727695651.901428,10.0.2.15,22,10.0.2.2,49891,1073725440,17922,1026,65535,65604,0,0,5,1460,312,0,5,240000,33580,0,65700,96,0,0,2159132173,63
o,1727695651.903835,10.0.2.15,22,10.0.2.2,49891,1073725440,17922,1026,65535,65604,0,0,8,1460,312,0,4,240000,33580,0,65700,0,0,0,2159132173,63
i,1727695651.905295,10.0.2.15,22,10.0.2.2,49891,1073725440,17922,1026,65535,65604,0,0,8,1460,312,0,67108884,240000,33580,0,65700,0,1,0,2159132173,63
o,1727695652.880908,10.0.2.15,22,10.0.2.2,57953,1073725440,14600,1030,65535,65700,0,0,4,1460,312,0,16777220,240000,33580,1500,65700,0,0,0,2045767904,63
o,1727695652.881935,10.0.2.15,22,10.0.2.2,57953,1073725440,14600,1026,65535,65700,0,0,4,1460,312,0,16777220,240000,33580,1500,65700,0,1460,0,2045767904,63
i,1727695652.882299,10.0.2.15,22,10.0.2.2,57953,1073725440,14600,1026,65535,65700,0,0,4,1460,312,0,16777220,240000,33580,1500,65700,0,1500,0,2045767904,63
i,1727695652.882348,10.0.2.15,22,10.0.2.2,57953,1073725440,16060,1026,65535,65700,0,0,4,1460,312,0,4,240000,33580,40,65700,0,40,0,2045767904,63
i,1727695652.978005,10.0.2.15,22,10.0.2.2,49903,1073725440,14600,0,65535,65700,0,0,4,1460,312,0,16777216,270000,33580,0,65700,0,0,0,4244633344,63
o,1727695652.992181,10.0.2.15,22,10.0.2.2,49903,1073725440,14600,1026,65535,65700,0,0,4,1460,312,0,16777216,270000,33580,38,65700,42,0,0,4244633344,63
i,1727695652.993515,10.0.2.15,22,10.0.2.2,49903,1073725440,14600,1026,65535,65700,0,0,4,1460,312,0,16777216,270000,33580,38,65700,0,38,0,4244633344,63
i,1727695652.993607,10.0.2.15,22,10.0.2.2,49903,1073725440,14638,1026,65535,65700,0,0,4,1460,312,0,0,240000,33580,0,65700,0,0,0,4244633344,63
i,1727695652.993631,10.0.2.15,22,10.0.2.2,49903,1073725440,14638,1026,65535,65700,0,0,4,1460,312,0,0,240000,33580,0,65700,1460,0,0,4244633344,63
o,1727695652.993658,10.0.2.15,22,10.0.2.2,49903,1073725440,14638,1026,65535,65700,0,0,4,1460,312,0,1,240000,33580,0,65700,1536,0,0,4244633344,63
o,1727695652.995823,10.0.2.15,22,10.0.2.2,49903,1073725440,14638,1026,65535,65700,0,0,4,1460,312,0,16777216,240000,33580,1120,65700,1536,0,0,4244633344,63
i,1727695652.996738,10.0.2.15,22,10.0.2.2,49903,1073725440,14638,1026,65535,65700,0,0,4,1460,312,0,16777216,240000,33580,1120,65700,0,1120,0,4244633344,63
i,1727695652.997657,10.0.2.15,22,10.0.2.2,49903,1073725440,15758,1026,65535,65700,0,0,4,1460,312,0,0,240000,33580,0,65700,0,0,0,4244633344,63
o,1727695653.001475,10.0.2.15,22,10.0.2.2,49903,1073725440,15758,1026,65535,65700,0,0,4,1460,312,0,16777216,240000,33580,492,65700,0,0,0,4244633344,63
i,1727695653.002074,10.0.2.15,22,10.0.2.2,49903,1073725440,15758,1026,65535,65700,0,0,4,1460,312,0,16777216,240000,33580,492,65700,0,492,0,4244633344,63
i,1727695653.007730,10.0.2.15,22,10.0.2.2,49903,1073725440,16250,1026,65535,65700,0,0,4,1460,312,0,0,240000,33580,0,65700,0,0,0,4244633344,63
i,1727695653.007765,10.0.2.15,22,10.0.2.2,49903,1073725440,16250,1026,65535,65700,0,0,4,1460,312,0,0,240000,33580,0,65700,16,0,0,4244633344,63
o,1727695653.007790,10.0.2.15,22,10.0.2.2,49903,1073725440,16250,1026,65535,65700,0,0,4,1460,312,0,1,240000,33580,0,65700,60,0,0,4244633344,63
o,1727695653.008098,10.0.2.15,22,10.0.2.2,49903,1073725440,16250,1026,65535,65700,0,0,4,1460,312,0,16777216,240000,33580,44,65700,0,0,0,4244633344,63
i,1727695653.011170,10.0.2.15,22,10.0.2.2,49903,1073725440,16250,1026,65535,65700,0,0,4,1460,312,0,16777216,240000,33580,44,65700,0,44,0,4244633344,63
i,1727695653.011199,10.0.2.15,22,10.0.2.2,49903,1073725440,16294,1026,65535,65700,0,0,4,1460,312,0,0,230000,33580,0,65700,0,0,0,4244633344,63
o,1727695653.012959,10.0.2.15,22,10.0.2.2,49903,1073725440,16294,1026,65535,65700,0,0,4,1460,312,0,16777216,230000,33580,68,65700,0,0,0,4244633344,63
i,1727695653.013473,10.0.2.15,22,10.0.2.2,49903,1073725440,16294,1026,65535,65700,0,0,4,1460,312,0,16777216,230000,33580,68,65700,0,68,0,4244633344,63
i,1727695653.013492,10.0.2.15,22,10.0.2.2,49903,1073725440,16362,1026,65535,65700,0,0,4,1460,312,0,0,230000,33580,0,65700,0,0,0,4244633344,63
o,1727695653.014820,10.0.2.15,22,10.0.2.2,49903,1073725440,16362,1026,65535,65700,0,0,4,1460,312,0,16777216,230000,33580,332,65700,0,0,0,4244633344,63
i,1727695653.015573,10.0.2.15,22,10.0.2.2,49903,1073725440,16362,1026,65535,65700,0,0,4,1460,312,0,16777216,230000,33580,332,65700,0,332,0,4244633344,63
i,1727695653.017058,10.0.2.15,22,10.0.2.2,49903,1073725440,16694,1026,65535,65700,0,0,4,1460,312,0,0,230000,33580,0,65700,0,0,0,4244633344,63
o,1727695653.034967,10.0.2.15,22,10.0.2.2,49903,1073725440,16694,1026,65535,65700,0,0,4,1460,312,0,16777216,230000,33580,28,65700,0,0,0,4244633344,63
i,1727695653.035504,10.0.2.15,22,10.0.2.2,49903,1073725440,16694,1026,65535,65700,0,0,4,1460,312,0,16777216,230000,33580,28,65700,0,28,0,4244633344,63
i,1727695653.035530,10.0.2.15,22,10.0.2.2,49903,1073725440,16722,1026,65535,65700,0,0,4,1460,312,0,0,230000,33580,0,65700,0,0,0,4244633344,63
o,1727695653.037403,10.0.2.15,22,10.0.2.2,49903,1073725440,16722,1026,65535,65700,0,0,4,1460,312,0,16777216,230000,33580,768,65700,112,0,0,4244633344,63
i,1727695653.038597,10.0.2.15,22,10.0.2.2,49903,1073725440,16722,1026,65535,65700,0,0,4,1460,312,0,16777216,230000,33580,908,65700,112,768,0,4244633344,63
o,1727695653.038628,10.0.2.15,22,10.0.2.2,49903,1073725440,17490,1026,65535,65700,0,0,4,1460,312,0,16777216,240000,33580,140,65700,112,0,0,4244633344,63
i,1727695653.039029,10.0.2.15,22,10.0.2.2,49903,1073725440,17490,1026,65535,65700,0,0,4,1460,312,0,16777216,240000,33580,140,65700,112,140,0,4244633344,63
o,1727695653.040023,10.0.2.15,22,10.0.2.2,49903,1073725440,17630,1026,65535,65700,0,0,4,1460,312,0,16777216,240000,33580,44,65700,0,0,0,4244633344,63
i,1727695653.040554,10.0.2.15,22,10.0.2.2,49903,1073725440,17630,1026,65535,65700,0,0,4,1460,312,0,16777216,240000,33580,44,65700,0,44,0,4244633344,63
i,1727695653.040577,10.0.2.15,22,10.0.2.2,49903,1073725440,17674,1026,65535,65700,0,0,4,1460,312,0,0,230000,33580,0,65700,0,0,0,4244633344,63
o,1727695653.041431,10.0.2.15,22,10.0.2.2,49903,1073725440,17674,1026,65535,65700,0,0,4,1460,312,0,16777220,230000,33580,72,65700,0,0,0,4244633344,63
i,1727695653.041929,10.0.2.15,22,10.0.2.2,49903,1073725440,17674,1026,65535,65700,0,0,4,1460,312,0,16777220,230000,33580,72,65700,0,72,0,4244633344,63
o,1727695653.128471,172.16.5.2,44691,172.16.1.2,5103,89718,14480,2082,65535,65700,6,6,4,1460,304062,1,16778209,910000,33580,0,65700,0,0,0,1439617883,63
o,1727695653.129077,172.16.5.2,44691,172.16.1.2,5103,89718,14480,2082,65535,65700,6,6,4,1460,304062,1,16778212,910000,33580,37,65700,0,0,0,1439617883,63
i,1727695653.223146,172.16.5.2,44691,172.16.1.2,5103,89718,14480,2082,65535,65700,6,6,4,1460,304062,1,16778212,910000,33580,37,65700,0,37,0,1439617883,63
o,1727695653.223655,172.16.5.2,44691,172.16.1.2,5103,89718,14517,3106,65728,65728,6,6,4,1460,278750,1,16778212,980000,33580,4,65700,0,0,0,1439617883,63
o,1727695653.224399,172.16.5.2,44691,172.16.1.2,5103,89718,14517,3106,65728,65728,6,6,4,1460,278750,1,16778212,980000,33580,130,65700,0,4,0,1439617883,63
i,1727695653.326232,172.16.5.2,44691,172.16.1.2,5103,89718,14517,3106,65728,65728,6,6,4,1460,278750,1,16778212,980000,33580,130,65700,0,130,0,1439617883,63
i,1727695653.326277,172.16.5.2,44691,172.16.1.2,5103,89718,14647,3106,65600,65728,6,6,4,1460,256562,1,996,1010000,33580,0,65700,0,0,0,1439617883,63
o,1727695653.378017,172.16.5.2,44691,172.16.1.2,5103,89718,14647,3106,65728,65728,6,6,4,1460,256562,1,997,1010000,33580,0,65700,0,0,0,1439617883,63
o,1727695653.413933,172.16.5.2,50156,172.16.1.2,5103,89718,14480,2082,65535,65700,6,6,4,1460,304062,1,16778209,910000,33580,0,65700,0,0,0,4249522154,63
o,1727695653.414216,172.16.5.2,50156,172.16.1.2,5103,89718,14480,2082,65535,65700,6,6,4,1460,304062,1,16778208,910000,33580,37,65700,0,0,0,4249522154,63
i,1727695653.508004,172.16.5.2,44691,172.16.1.2,5103,89718,14647,3106,65728,65728,6,6,4,1460,256562,1,996,1010000,33580,0,65700,0,0,0,1439617883,63
i,1727695653.508084,172.16.5.2,44691,172.16.1.2,5103,89718,14647,3106,65728,65728,6,6,4,1460,256562,1,996,1010000,33580,0,65700,1,0,0,1439617883,63
o,1727695653.508103,172.16.5.2,44691,172.16.1.2,5103,89718,14647,3106,65728,65728,6,6,4,1460,256562,1,997,1010000,33580,0,65700,2,0,0,1439617883,63
o,1727695653.508575,172.16.5.2,50156,172.16.1.2,5103,89718,14480,2086,65535,65700,6,6,4,1460,304062,1,16778208,910000,33580,33580,65700,0,37,0,4249522154,63
i,1727695653.527633,172.16.5.2,50156,172.16.1.2,5103,89718,14480,2086,65535,65700,6,6,4,1460,304062,1,16778208,910000,33580,33580,65700,0,13069,0,4249522154,63
o,1727695653.527704,172.16.5.2,50156,172.16.1.2,5103,89718,14517,2086,65728,65728,6,6,4,1460,280000,1,16778208,980000,33580,33543,65700,0,13032,0,4249522154,63
i,1727695653.568993,172.16.5.2,50156,172.16.1.2,5103,89718,14517,2086,65728,65728,6,6,4,1460,280000,1,16778208,980000,33580,33543,65700,0,14480,0,4249522154,63
o,1727695653.569129,172.16.5.2,50156,172.16.1.2,5103,89718,17413,2086,62848,65728,6,6,4,1460,252500,1,16778208,1040000,33580,30647,65700,0,11584,0,4249522154,63
i,1727695653.593717,172.16.5.2,50156,172.16.1.2,5103,89718,17413,2086,62848,65728,6,6,4,1460,252500,1,16778208,1040000,41772,41772,65700,0,17376,0,4249522154,63
o,1727695653.593750,172.16.5.2,50156,172.16.1.2,5103,89718,20309,2086,64256,65728,6,6,4,1460,230937,1,16778208,1050000,41772,38876,65700,0,14480,0,4249522154,63
i,1727695653.593883,172.16.5.2,50156,172.16.1.2,5103,89718,20309,2086,64256,65728,6,6,4,1460,230937,1,16778208,1050000,49964,38876,65700,0,20272,0,4249522154,63
o,1727695653.593899,172.16.5.2,50156,172.16.1.2,5103,89718,23205,2086,61376,65728,6,6,4,1460,212187,1,16778208,1020000,49964,35980,65700,0,17376,0,4249522154,63
i,1727695653.594067,172.16.5.2,50156,172.16.1.2,5103,89718,23205,2086,61376,65728,6,6,4,1460,212187,1,16778208,1020000,49964,35980,65700,0,23168,0,4249522154,63
o,1727695653.594088,172.16.5.2,50156,172.16.1.2,5103,89718,26101,2086,62848,65728,6,6,4,1460,195937,1,16778208,980000,49964,33084,65700,0,20272,0,4249522154,63
i,1727695653.669294,172.16.5.2,50156,172.16.1.2,5103,89718,26101,2086,62848,65728,6,6,4,1460,195937,1,16778208,980000,58156,58156,65700,0,26064,0,4249522154,63
o,1727695653.669411,172.16.5.2,50156,172.16.1.2,5103,89718,28997,2086,64256,65728,6,6,4,1460,190312,1,16778208,880000,58156,55260,65700,0,23168,0,4249522154,63
o,1727695653.669569,172.16.5.2,50156,172.16.1.2,5103,89718,28997,2086,64256,65728,6,6,4,1460,190312,1,16778208,880000,58156,55260,65700,0,24616,0,4249522154,63
i,1727695653.772803,172.16.5.2,50156,172.16.1.2,5103,89718,28997,2086,64256,65728,6,6,4,1460,190312,1,16778208,880000,66348,66348,65700,0,28960,0,4249522154,63
o,1727695653.773055,172.16.5.2,50156,172.16.1.2,5103,89718,31893,2086,62848,65728,6,6,4,1460,191562,1,16778208,760000,66348,63452,65700,0,26064,0,4249522154,63
i,1727695653.773733,172.16.5.2,50156,172.16.1.2,5103,89718,31893,2086,62848,65728,6,6,4,1460,191562,1,16778208,760000,74540,63452,65700,0,31856,0,4249522154,63
o,1727695653.773914,172.16.5.2,50156,172.16.1.2,5103,89718,34789,2086,62848,65728,6,6,4,1460,192812,1,16778208,680000,74540,60556,65700,0,28960,0,4249522154,63
i,1727695653.774409,172.16.5.2,50156,172.16.1.2,5103,89718,34789,2086,62848,65728,6,6,4,1460,192812,1,16778208,680000,74540,60556,65700,0,34752,0,4249522154,63
o,1727695653.774527,172.16.5.2,50156,172.16.1.2,5103,89718,37685,2086,64256,65728,6,6,4,1460,191250,1,16778208,620000,74540,57660,65700,0,31856,0,4249522154,63
i,1727695653.775086,172.16.5.2,50156,172.16.1.2,5103,89718,37685,2086,64256,65728,6,6,4,1460,191250,1,16778208,620000,74540,57660,65700,0,37648,0,4249522154,63
o,1727695653.775168,172.16.5.2,50156,172.16.1.2,5103,89718,40581,2086,62848,65728,6,6,4,1460,190000,1,16778208,570000,74540,54764,65700,0,34752,0,4249522154,63
i,1727695653.775568,172.16.5.2,50156,172.16.1.2,5103,89718,40581,2086,62848,65728,6,6,4,1460,190000,1,16778208,570000,74540,54764,65700,0,40544,0,4249522154,63
o,1727695653.775625,172.16.5.2,50156,172.16.1.2,5103,89718,43477,2086,59968,65728,6,6,4,1460,188750,1,16778208,540000,74540,51868,65700,0,37648,0,4249522154,63
i,1727695653.775890,172.16.5.2,50156,172.16.1.2,5103,89718,43477,2086,59968,65728,6,6,4,1460,188750,1,16778208,540000,74540,51868,65700,0,43440,0,4249522154,63
o,1727695653.775934,172.16.5.2,50156,172.16.1.2,5103,89718,46373,2086,64256,65728,6,6,4,1460,187812,1,16778208,510000,74540,48972,65700,0,40544,0,4249522154,63
i,1727695653.776363,172.16.5.2,50156,172.16.1.2,5103,89718,46373,2086,64256,65728,6,6,4,1460,187812,1,16778208,510000,74540,48972,65700,0,46336,0,4249522154,63
o,1727695653.776397,172.16.5.2,50156,172.16.1.2,5103,89718,49269,2086,61376,65728,6,6,4,1460,186875,1,16778208,480000,74540,46076,65700,0,43440,0,4249522154,63
o,1727695653.776792,172.16.5.2,50156,172.16.1.2,5103,89718,49269,2086,61376,65728,6,6,4,1460,186875,1,16778208,480000,82732,74540,65700,0,46076,0,4249522154,63
i,1727695653.777751,172.16.5.2,50156,172.16.1.2,5103,89718,49269,2086,61376,65728,6,6,4,1460,186875,1,16778208,480000,82732,82732,65700,0,48972,0,4249522154,63
o,1727695653.777772,172.16.5.2,50156,172.16.1.2,5103,89718,52165,2086,62848,65728,6,6,4,1460,186250,1,16778208,460000,82732,79836,65700,0,46076,0,4249522154,63
i,1727695653.798761,172.16.5.2,50156,172.16.1.2,5103,89718,52165,2086,62848,65728,6,6,4,1460,186250,1,16778208,460000,82732,82732,65700,0,51868,0,4249522154,63
o,1727695653.798794,172.16.5.2,50156,172.16.1.2,5103,89718,55061,2086,62848,65728,6,6,4,1460,179375,1,16778208,490000,82732,79836,65700,0,48972,0,4249522154,63
o,1727695653.798919,172.16.5.2,50156,172.16.1.2,5103,89718,55061,2086,62848,65728,6,6,4,1460,179375,1,16778208,490000,82732,79836,65700,0,50420,0,4249522154,63
i,1727695653.799046,172.16.5.2,50156,172.16.1.2,5103,89718,55061,2086,62848,65728,6,6,4,1460,179375,1,16778208,490000,82732,79836,65700,0,54764,0,4249522154,63
o,1727695653.799064,172.16.5.2,50156,172.16.1.2,5103,89718,57957,2086,64256,65728,6,6,4,1460,173437,1,16778208,500000,82732,76940,65700,0,51868,0,4249522154,63
i,1727695654.083906,172.16.5.2,50156,172.16.1.2,5103,89718,57957,2086,64256,65728,6,6,4,1460,173437,1,16778208,500000,82732,82732,65700,0,57660,0,4249522154,63
o,1727695654.084007,172.16.5.2,50156,172.16.1.2,5103,89718,60853,2086,64256,65728,6,6,4,1460,190625,1,16778208,630000,82732,79836,65700,0,54764,0,4249522154,63
i,1727695654.084325,172.16.5.2,50156,172.16.1.2,5103,89718,60853,2086,64256,65728,6,6,4,1460,190625,1,16778208,630000,82732,79836,65700,0,60556,0,4249522154,63
o,1727695654.084362,172.16.5.2,50156,172.16.1.2,5103,89718,63749,2086,61376,65728,6,6,4,1460,205625,1,16778208,700000,82732,76940,65700,0,57660,0,4249522154,63
i,1727695654.084551,172.16.5.2,50156,172.16.1.2,5103,89718,63749,2086,61376,65728,6,6,4,1460,205625,1,16778208,700000,82732,76940,65700,0,60556,0,4249522154,63
i,1727695654.084919,172.16.5.2,50156,172.16.1.2,5103,89718,63749,2086,58496,65728,6,6,4,1460,218750,1,16778208,740000,82732,74044,65700,0,57660,0,4249522154,63
o,1727695654.084942,172.16.5.2,50156,172.16.1.2,5103,89718,63749,2086,62848,65728,6,6,4,1460,230312,1,16778208,770000,82732,71148,65700,0,54764,0,4249522154,63
i,1727695654.085135,172.16.5.2,50156,172.16.1.2,5103,89718,63749,2086,62848,65728,6,6,4,1460,230312,1,16778208,770000,82732,71148,65700,0,62004,0,4249522154,63
i,1727695654.085226,172.16.5.2,50156,172.16.1.2,5103,89718,63749,2086,59968,65728,6,6,4,1460,240312,1,16778208,770000,82732,68252,65700,0,59108,0,4249522154,63
i,1727695654.085288,172.16.5.2,50156,172.16.1.2,5103,89718,63749,2086,57088,65728,6,6,4,1460,249062,1,16778208,770000,82732,65356,65700,0,56212,0,4249522154,63
i,1727695654.086009,172.16.5.2,50156,172.16.1.2,5103,89718,63749,2086,54208,65728,6,6,4,1460,256875,1,16778208,760000,82732,82732,65700,0,53316,0,4249522154,63
o,1727695654.086035,172.16.5.2,50156,172.16.1.2,5103,89718,63749,2086,64256,65728,6,6,4,1460,263750,1,16778208,740000,82732,79836,65700,0,50420,0,4249522154,63
i,1727695654.086186,172.16.5.2,50156,172.16.1.2,5103,89718,63749,2086,64256,65728,6,6,4,1460,263750,1,16778208,740000,82732,79836,65700,0,63452,0,4249522154,63
i,1727695654.086220,172.16.5.2,50156,172.16.1.2,5103,89718,66645,2086,61376,65728,6,6,4,1460,269687,1,16778208,730000,82732,76940,65700,0,60556,0,4249522154,63
o,1727695654.086238,172.16.5.2,50156,172.16.1.2,5103,89718,66645,2086,62848,65728,6,6,4,1460,275000,1,16778208,710000,82732,74044,65700,0,57660,0,4249522154,63
i,1727695654.086412,172.16.5.2,50156,172.16.1.2,5103,89718,66645,2086,62848,65728,6,6,4,1460,275000,1,16778208,710000,82732,74044,65700,0,62004,0,4249522154,63
i,1727695654.087072,172.16.5.2,50156,172.16.1.2,5103,89718,66645,2086,59968,65728,6,6,4,1460,279375,1,16778208,690000,82732,82732,65700,0,59108,0,4249522154,63
o,1727695654.087107,172.16.5.2,50156,172.16.1.2,5103,89718,66645,2086,64256,65728,6,6,4,1460,283437,1,16778208,670000,82732,79836,65700,0,56212,0,4249522154,63
i,1727695654.103592,172.16.5.2,50156,172.16.1.2,5103,89718,66645,2086,64256,65728,6,6,4,1460,283437,1,16778208,670000,82732,82732,65700,0,63452,0,4249522154,63
o,1727695654.103637,172.16.5.2,50156,172.16.1.2,5103,89718,66645,2086,64512,65728,6,6,4,1460,289375,1,16778208,680000,82732,80096,65700,0,60816,0,4249522154,63
i,1727695654.103882,172.16.5.2,50156,172.16.1.2,5103,89718,66645,2086,64512,65728,6,6,4,1460,289375,1,16778208,680000,82732,80096,65700,0,63712,0,4249522154,63
o,1727695654.103905,172.16.5.2,50156,172.16.1.2,5103,89718,66645,2086,64256,65728,6,6,4,1460,294687,1,16778208,680000,82732,77200,65700,0,60816,0,4249522154,63
i,1727695654.104114,172.16.5.2,50156,172.16.1.2,5103,89718,66645,2086,64256,65728,6,6,4,1460,294687,1,16778208,680000,82732,77200,65700,0,63712,0,4249522154,63
i,1727695654.104717,172.16.5.2,50156,172.16.1.2,5103,89718,66645,2086,61376,65728,6,6,4,1460,299375,1,16778208,670000,82732,82732,65700,0,60816,0,4249522154,63
o,1727695654.104798,172.16.5.2,50156,172.16.1.2,5103,89718,66645,2086,62848,65728,6,6,4,1460,303437,1,16778208,670000,82732,79836,65700,0,57920,0,4249522154,63
i,1727695654.104965,172.16.5.2,50156,172.16.1.2,5103,89718,66645,2086,62848,65728,6,6,4,1460,303437,1,16778208,670000,82732,79836,65700,0,62264,0,4249522154,63
o,1727695654.104986,172.16.5.2,50156,172.16.1.2,5103,89718,66645,2086,97152,65728,6,6,4,1460,304375,1,16778208,630000,90924,76940,65700,0,59368,0,4249522154,63
o,1727695654.105184,172.16.5.2,50156,172.16.1.2,5103,89718,66645,2086,97152,65728,6,6,4,1460,304375,1,16778208,630000,90924,76940,65700,0,60816,0,4249522154,63
i,1727695654.105978,172.16.5.2,50156,172.16.1.2,5103,89718,66645,2086,97152,65728,6,6,4,1460,304375,1,16778208,630000,90924,76940,65700,0,66608,0,4249522154,63
o,1727695654.105999,172.16.5.2,50156,172.16.1.2,5103,89718,69541,2086,97152,65728,6,6,4,1460,305312,1,16778208,610000,90924,74044,65700,0,63712,0,4249522154,63
i,1727695654.106161,172.16.5.2,50156,172.16.1.2,5103,89718,69541,2086,97152,65728,6,6,4,1460,305312,1,16778208,610000,90924,74044,65700,0,69504,0,4249522154,63
o,1727695654.106181,172.16.5.2,50156,172.16.1.2,5103,89718,72437,2086,97152,65728,6,6,4,1460,305937,1,16778208,590000,90924,71148,65700,0,66608,0,4249522154,63
i,1727695654.106363,172.16.5.2,50156,172.16.1.2,5103,89718,72437,2086,97152,65728,6,6,4,1460,305937,1,16778208,590000,90924,71148,65700,0,71148,0,4249522154,63
o,1727695654.106532,172.16.5.2,50156,172.16.1.2,5103,89718,75333,2086,97152,65728,6,6,4,1460,306562,1,16778208,570000,99116,85132,65700,0,68252,0,4249522154,63
i,1727695654.463743,172.16.5.2,50156,172.16.1.2,5103,89718,75333,2086,97152,65728,6,6,4,1460,306562,1,16778208,570000,123692,123692,65700,0,74044,0,4249522154,63
o,1727695654.463823,172.16.5.2,50156,172.16.1.2,5103,89718,78229,2086,95680,65728,6,6,4,1460,314687,1,16778208,630000,123692,120796,65700,0,71148,0,4249522154,63
i,1727695654.464021,172.16.5.2,50156,172.16.1.2,5103,89718,78229,2086,95680,65728,6,6,4,1460,314687,1,16778208,630000,123692,120796,65700,0,76940,0,4249522154,63
o,1727695654.464042,172.16.5.2,50156,172.16.1.2,5103,89718,81125,2086,92800,65728,6,6,4,1460,321875,1,16778208,660000,123692,117900,65700,0,74044,0,4249522154,63
i,1727695654.464170,172.16.5.2,50156,172.16.1.2,5103,89718,81125,2086,92800,65728,6,6,4,1460,321875,1,16778208,660000,123692,117900,65700,0,79836,0,4249522154,63
o,1727695654.464185,172.16.5.2,50156,172.16.1.2,5103,89718,84021,2086,97152,65728,6,6,4,1460,328125,1,16778208,690000,123692,115004,65700,0,76940,0,4249522154,63
i,1727695654.465535,172.16.5.2,50156,172.16.1.2,5103,89718,84021,2086,97152,65728,6,6,4,1460,328125,1,16778208,690000,123692,123692,65700,0,82732,0,4249522154,63
o,1727695654.465554,172.16.5.2,50156,172.16.1.2,5103,89718,86917,2086,95680,65728,6,6,4,1460,333437,1,16778208,690000,123692,120796,65700,0,79836,0,4249522154,63
i,1727695654.465706,172.16.5.2,50156,172.16.1.2,5103,89718,86917,2086,95680,65728,6,6,4,1460,333437,1,16778208,690000,123692,120796,65700,0,85628,0,4249522154,63
o,1727695654.465724,172.16.5.2,50156,172.16.1.2,5103,89718,89813,2086,92800,65728,6,6,4,1460,338125,1,16778208,700000,123692,117900,65700,0,82732,0,4249522154,63
i,1727695654.466013,172.16.5.2,50156,172.16.1.2,5103,89718,89813,2086,92800,65728,6,6,4,1460,338125,1,16778208,700000,123692,117900,65700,0,88524,0,4249522154,63
o,1727695654.466038,172.16.5.2,50156,172.16.1.2,5103,89718,89813,2086,95680,65728,6,6,4,1460,342187,1,16778208,690000,123692,115004,65700,0,85628,0,4249522154,63
i,1727695654.466873,172.16.5.2,50156,172.16.1.2,5103,89718,89813,2086,95680,65728,6,6,4,1460,342187,1,16778208,690000,123692,123692,65700,0,88524,0,4249522154,63
o,1727695654.466894,172.16.5.2,50156,172.16.1.2,5103,89718,89813,2086,92800,65728,6,6,4,1460,345937,1,16778208,690000,123692,120796,65700,0,85628,0,4249522154,63
i,1727695654.467045,172.16.5.2,50156,172.16.1.2,5103,89718,89813,2086,92800,65728,6,6,4,1460,345937,1,16778208,690000,123692,120796,65700,0,88524,0,4249522154,63
o,1727695654.467064,172.16.5.2,50156,172.16.1.2,5103,89718,89813,2086,95680,65728,6,6,4,1460,349062,1,16778208,680000,123692,117900,65700,0,85628,0,4249522154,63
i,1727695654.467216,172.16.5.2,50156,172.16.1.2,5103,89718,89813,2086,95680,65728,6,6,4,1460,349062,1,16778208,680000,123692,117900,65700,0,88524,0,4249522154,63
o,1727695654.467236,172.16.5.2,50156,172.16.1.2,5103,89718,89813,2086,97152,65728,6,6,4,1460,351875,1,16778208,670000,123692,115004,65700,0,85628,0,4249522154,63
i,1727695654.467450,172.16.5.2,50156,172.16.1.2,5103,89718,89813,2086,97152,65728,6,6,4,1460,351875,1,16778208,670000,123692,115004,65700,0,88524,0,4249522154,63
o,1727695654.467469,172.16.5.2,50156,172.16.1.2,5103,89718,89813,2086,94272,65728,6,6,4,1460,354375,1,16778208,670000,123692,112108,65700,0,85628,0,4249522154,63
i,1727695654.467667,172.16.5.2,50156,172.16.1.2,5103,89718,89813,2086,94272,65728,6,6,4,1460,354375,1,16778208,670000,123692,112108,65700,0,88524,0,4249522154,63
o,1727695654.467688,172.16.5.2,50156,172.16.1.2,5103,89718,89813,2086,97152,65728,6,6,4,1460,356562,1,16778208,660000,123692,109212,65700,0,85628,0,4249522154,63
i,1727695654.467939,172.16.5.2,50156,172.16.1.2,5103,89718,89813,2086,97152,65728,6,6,4,1460,356562,1,16778208,660000,123692,109212,65700,0,88524,0,4249522154,63
o,1727695654.467958,172.16.5.2,50156,172.16.1.2,5103,89718,89813,2086,94272,65728,6,6,4,1460,358437,1,16778208,650000,123692,106316,65700,0,85628,0,4249522154,63
i,1727695654.469257,172.16.5.2,50156,172.16.1.2,5103,89718,89813,2086,94272,65728,6,6,4,1460,358437,1,16778208,650000,123692,123692,65700,0,88524,0,4249522154,63
o,1727695654.469281,172.16.5.2,50156,172.16.1.2,5103,89718,89813,2086,91392,65728,6,6,4,1460,360000,1,16778208,640000,123692,120796,65700,0,85628,0,4249522154,63
i,1727695654.469479,172.16.5.2,50156,172.16.1.2,5103,89718,89813,2086,91392,65728,6,6,4,1460,360000,1,16778208,640000,123692,120796,65700,0,88524,0,4249522154,63
o,1727695654.469499,172.16.5.2,50156,172.16.1.2,5103,89718,89813,2086,97152,65728,6,6,4,1460,361250,1,16778208,630000,123692,117900,65700,0,85628,0,4249522154,63
i,1727695654.469680,172.16.5.2,50156,172.16.1.2,5103,89718,89813,2086,97152,65728,6,6,4,1460,361250,1,16778208,630000,123692,117900,65700,0,88524,0,4249522154,63
o,1727695654.469699,172.16.5.2,50156,172.16.1.2,5103,89718,89813,2086,94272,65728,6,6,4,1460,360000,1,16778208,630000,123692,115004,65700,0,85628,0,4249522154,63
i,1727695654.471792,172.16.5.2,50156,172.16.1.2,5103,89718,89813,2086,94272,65728,6,6,4,1460,360000,1,16778208,630000,123692,115004,65700,0,88524,0,4249522154,63
o,1727695654.471821,172.16.5.2,50156,172.16.1.2,5103,89718,89813,2086,91392,65728,6,6,4,1460,361250,1,16778208,620000,123692,112108,65700,0,85628,0,4249522154,63
i,1727695654.472006,172.16.5.2,50156,172.16.1.2,5103,89718,89813,2086,91392,65728,6,6,4,1460,361250,1,16778208,620000,123692,112108,65700,0,88524,0,4249522154,63
o,1727695654.472026,172.16.5.2,50156,172.16.1.2,5103,89718,89813,2086,88512,65728,6,6,4,1460,362500,1,16778208,620000,123692,109212,65700,0,85628,0,4249522154,63
i,1727695654.472180,172.16.5.2,50156,172.16.1.2,5103,89718,89813,2086,88512,65728,6,6,4,1460,362500,1,16778208,620000,123692,109212,65700,0,87076,0,4249522154,63
o,1727695654.472200,172.16.5.2,50156,172.16.1.2,5103,89718,89813,2086,97152,65728,6,6,4,1460,363437,1,16778208,610000,123692,106316,65700,0,84180,0,4249522154,63
o,1727695654.472358,172.16.5.2,50156,172.16.1.2,5103,89718,89813,2086,97152,65728,6,6,4,1460,363437,1,16778208,610000,123692,106316,65700,0,85628,0,4249522154,63
i,1727695654.472490,172.16.5.2,50156,172.16.1.2,5103,89718,89813,2086,97152,65728,6,6,4,1460,363437,1,16778208,610000,123692,106316,65700,0,88524,0,4249522154,63
o,1727695654.472510,172.16.5.2,50156,172.16.1.2,5103,89718,89813,2086,95680,65728,6,6,4,1460,364375,1,16778208,610000,123692,103420,65700,0,85628,0,4249522154,63
i,1727695654.472663,172.16.5.2,50156,172.16.1.2,5103,89718,89813,2086,95680,65728,6,6,4,1460,364375,1,16778208,610000,123692,103420,65700,0,88524,0,4249522154,63
o,1727695654.472685,172.16.5.2,50156,172.16.1.2,5103,89718,89813,2086,97152,65728,6,6,4,1460,365312,1,16778208,610000,123692,100524,65700,0,85628,0,4249522154,63
i,1727695654.472868,172.16.5.2,50156,172.16.1.2,5103,89718,89813,2086,97152,65728,6,6,4,1460,365312,1,16778208,610000,123692,100524,65700,0,88524,0,4249522154,63
o,1727695654.472889,172.16.5.2,50156,172.16.1.2,5103,89718,89813,2086,94272,65728,6,6,4,1460,365937,1,16778208,600000,123692,97628,65700,0,85628,0,4249522154,63
i,1727695654.473066,172.16.5.2,50156,172.16.1.2,5103,89718,89813,2086,94272,65728,6,6,4,1460,365937,1,16778208,600000,123692,97628,65700,0,88524,0,4249522154,63
o,1727695654.473085,172.16.5.2,50156,172.16.1.2,5103,89718,89813,2086,95680,65728,6,6,4,1460,366562,1,16778208,600000,123692,94732,65700,0,85628,0,4249522154,63
i,1727695654.473206,172.16.5.2,50156,172.16.1.2,5103,89718,89813,2086,95680,65728,6,6,4,1460,366562,1,16778208,600000,123692,94732,65700,0,88524,0,4249522154,63
o,1727695654.473222,172.16.5.2,50156,172.16.1.2,5103,89718,89813,2086,95680,65728,6,6,4,1460,367187,1,16778208,590000,123692,91836,65700,0,85628,0,4249522154,63
i,1727695654.473417,172.16.5.2,50156,172.16.1.2,5103,89718,89813,2086,95680,65728,6,6,4,1460,367187,1,16778208,590000,123692,91836,65700,0,88524,0,4249522154,63
o,1727695654.473439,172.16.5.2,50156,172.16.1.2,5103,89718,89813,2086,94080,65728,6,6,4,1460,367812,1,16778208,590000,123692,90192,65700,0,86880,0,4249522154,63
i,1727695654.473689,172.16.5.2,50156,172.16.1.2,5103,89718,89813,2086,94080,65728,6,6,4,1460,367812,1,16778208,590000,123692,90192,65700,0,89776,0,4249522154,63
i,1727695654.473723,172.16.5.2,50156,172.16.1.2,5103,89718,89813,2086,95680,65728,6,6,4,1460,368125,1,16778208,590000,123692,87296,65700,0,86880,0,4249522154,63
o,1727695654.474077,172.16.5.2,50156,172.16.1.2,5103,89718,89813,2086,97152,65728,6,6,4,1460,368437,1,16778208,590000,123692,87000,65700,0,83984,0,4249522154,63
o,1727695654.474225,172.16.5.2,50156,172.16.1.2,5103,89718,89813,2086,97152,65728,6,6,4,1460,368437,1,16778208,590000,123692,123692,65700,0,87000,0,4249522154,63
i,1727695654.870776,172.16.5.2,50156,172.16.1.2,5103,89718,89813,2086,97152,65728,6,6,4,1460,368437,1,16778208,590000,123692,123692,65700,0,88448,0,4249522154,63
o,1727695654.870848,172.16.5.2,50156,172.16.1.2,5103,89718,89813,2086,144960,65728,6,6,4,1460,372500,1,16778208,620000,131884,120796,65700,0,85552,0,4249522154,63
i,1727695654.871956,172.16.5.2,50156,172.16.1.2,5103,89718,89813,2086,144960,65728,6,6,4,1460,372500,1,16778208,620000,181036,181036,65700,0,88448,0,4249522154,63
o,1727695654.871977,172.16.5.2,50156,172.16.1.2,5103,89718,89813,2086,146432,65728,6,6,4,1460,375937,1,16778208,640000,181036,178140,65700,0,85552,0,4249522154,63
i,1727695654.872121,172.16.5.2,50156,172.16.1.2,5103,89718,89813,2086,146432,65728,6,6,4,1460,375937,1,16778208,640000,189228,178140,65700,0,88448,0,4249522154,63
o,1727695654.872138,172.16.5.2,50156,172.16.1.2,5103,89718,89813,2086,144960,65728,6,6,4,1460,379062,1,16778208,650000,189228,175244,65700,0,85552,0,4249522154,63
i,1727695654.873758,172.16.5.2,50156,172.16.1.2,5103,89718,89813,2086,144960,65728,6,6,4,1460,379062,1,16778208,650000,189228,189228,65700,0,88448,0,4249522154,63
o,1727695654.873783,172.16.5.2,50156,172.16.1.2,5103,89718,89813,2086,144960,65728,6,6,4,1460,381875,1,16778208,660000,189228,186332,65700,0,85552,0,4249522154,63
i,1727695654.873934,172.16.5.2,50156,172.16.1.2,5103,89718,89813,2086,144960,65728,6,6,4,1460,381875,1,16778208,660000,189228,186332,65700,0,88448,0,4249522154,63
o,1727695654.873951,172.16.5.2,50156,172.16.1.2,5103,89718,89813,2086,144960,65728,6,6,4,1460,384375,1,16778208,660000,189228,183436,65700,0,85552,0,4249522154,63
i,1727695654.874144,172.16.5.2,50156,172.16.1.2,5103,89718,89813,2086,144960,65728,6,6,4,1460,384375,1,16778208,660000,189228,183436,65700,0,88448,0,4249522154,63
o,1727695654.874160,172.16.5.2,50156,172.16.1.2,5103,89718,89813,2086,142080,65728,6,6,4,1460,386562,1,16778208,660000,189228,180540,65700,0,85552,0,4249522154,63
i,1727695654.874322,172.16.5.2,50156,172.16.1.2,5103,89718,89813,2086,142080,65728,6,6,4,1460,386562,1,16778208,660000,189228,180540,65700,0,88448,0,4249522154,63
o,1727695654.874371,172.16.5.2,50156,172.16.1.2,5103,89718,89813,2086,144960,65728,6,6,4,1460,388437,1,16778208,660000,189228,177644,65700,0,85552,0,4249522154,63
i,1727695654.874538,172.16.5.2,50156,172.16.1.2,5103,89718,89813,2086,144960,65728,6,6,4,1460,388437,1,16778208,660000,189228,177644,65700,0,88448,0,4249522154,63
o,1727695654.874569,172.16.5.2,50156,172.16.1.2,5103,89718,89813,2086,144960,65728,6,6,4,1460,390000,1,16778208,660000,189228,174748,65700,0,85552,0,4249522154,63
i,1727695654.874735,172.16.5.2,50156,172.16.1.2,5103,89718,89813,2086,144960,65728,6,6,4,1460,390000,1,16778208,660000,189228,174748,65700,0,88448,0,4249522154,63
o,1727695654.874752,172.16.5.2,50156,172.16.1.2,5103,89718,89813,2086,146432,65728,6,6,4,1460,391250,1,16778208,650000,189228,171852,65700,0,85552,0,4249522154,63
i,1727695654.874945,172.16.5.2,50156,172.16.1.2,5103,89718,89813,2086,146432,65728,6,6,4,1460,391250,1,16778208,650000,189228,171852,65700,0,88448,0,4249522154,63
o,1727695654.874979,172.16.5.2,50156,172.16.1.2,5103,89718,89813,2086,146432,65728,6,6,4,1460,392500,1,16778208,650000,189228,168956,65700,0,85552,0,4249522154,63
i,1727695654.876114,172.16.5.2,50156,172.16.1.2,5103,89718,89813,2086,146432,65728,6,6,4,1460,392500,1,16778208,650000,189228,189112,65700,0,88448,0,4249522154,63
o,1727695654.876134,172.16.5.2,50156,172.16.1.2,5103,89718,91273,2086,144960,65728,6,6,4,1460,393437,1,16778208,640000,189228,186216,65700,0,85552,0,4249522154,63
i,1727695654.876291,172.16.5.2,50156,172.16.1.2,5103,89718,91273,2086,144960,65728,6,6,4,1460,393437,1,16778208,640000,189228,186216,65700,0,89896,0,4249522154,63
o,1727695654.876308,172.16.5.2,50156,172.16.1.2,5103,89718,91273,2086,144960,65728,6,6,4,1460,394375,1,16778208,640000,189228,183320,65700,0,87000,0,4249522154,63
i,1727695654.877458,172.16.5.2,50156,172.16.1.2,5103,89718,91273,2086,144960,65728,6,6,4,1460,394375,1,16778208,640000,189228,189228,65700,0,89896,0,4249522154,63
o,1727695654.877494,172.16.5.2,50156,172.16.1.2,5103,89718,91273,2086,144960,65728,6,6,4,1460,395312,1,16778208,640000,189228,186332,65700,0,87000,0,4249522154,63
i,1727695654.877616,172.16.5.2,50156,172.16.1.2,5103,89718,91273,2086,144960,65728,6,6,4,1460,395312,1,16778208,640000,189228,186332,65700,0,89896,0,4249522154,63
o,1727695654.877632,172.16.5.2,50156,172.16.1.2,5103,89718,91273,2086,144960,65728,6,6,4,1460,395937,1,16778208,630000,189228,183436,65700,0,87000,0,4249522154,63
i,1727695654.877789,172.16.5.2,50156,172.16.1.2,5103,89718,91273,2086,144960,65728,6,6,4,1460,395937,1,16778208,630000,189228,183436,65700,0,89896,0,4249522154,63
o,1727695654.877806,172.16.5.2,50156,172.16.1.2,5103,89718,91273,2086,146432,65728,6,6,4,1460,396562,1,16778208,630000,189228,180540,65700,0,87000,0,4249522154,63
i,1727695654.877955,172.16.5.2,50156,172.16.1.2,5103,89718,91273,2086,146432,65728,6,6,4,1460,396562,1,16778208,630000,189228,180540,65700,0,89896,0,4249522154,63
o,1727695654.877986,172.16.5.2,50156,172.16.1.2,5103,89718,91273,2086,144960,65728,6,6,4,1460,397187,1,16778208,620000,189228,177644,65700,0,87000,0,4249522154,63
i,1727695654.878159,172.16.5.2,50156,172.16.1.2,5103,89718,91273,2086,144960,65728,6,6,4,1460,397187,1,16778208,620000,189228,177644,65700,0,89896,0,4249522154,63
o,1727695654.878176,172.16.5.2,50156,172.16.1.2,5103,89718,91273,2086,144960,65728,6,6,4,1460,397812,1,16778208,620000,189228,174748,65700,0,87000,0,4249522154,63
i,1727695654.878409,172.16.5.2,50156,172.16.1.2,5103,89718,91273,2086,144960,65728,6,6,4,1460,397812,1,16778208,620000,189228,174748,65700,0,89896,0,4249522154,63
o,1727695654.878425,172.16.5.2,50156,172.16.1.2,5103,89718,91273,2086,146432,65728,6,6,4,1460,398125,1,16778208,620000,189228,171852,65700,0,87000,0,4249522154,63
i,1727695654.879209,172.16.5.2,50156,172.16.1.2,5103,89718,91273,2086,146432,65728,6,6,4,1460,398125,1,16778208,620000,189228,189228,65700,0,89896,0,4249522154,63
o,1727695654.879227,172.16.5.2,50156,172.16.1.2,5103,89718,91273,2086,143552,65728,6,6,4,1460,398437,1,16778208,620000,189228,186332,65700,0,87000,0,4249522154,63
i,1727695654.879386,172.16.5.2,50156,172.16.1.2,5103,89718,91273,2086,143552,65728,6,6,4,1460,398437,1,16778208,620000,189228,186332,65700,0,89896,0,4249522154,63
o,1727695654.879403,172.16.5.2,50156,172.16.1.2,5103,89718,91273,2086,140672,65728,6,6,4,1460,398750,1,16778208,610000,189228,183436,65700,0,87000,0,4249522154,63
i,1727695654.879577,172.16.5.2,50156,172.16.1.2,5103,89718,91273,2086,140672,65728,6,6,4,1460,398750,1,16778208,610000,189228,183436,65700,0,89896,0,4249522154,63
o,1727695654.879594,172.16.5.2,50156,172.16.1.2,5103,89718,91273,2086,144960,65728,6,6,4,1460,397812,1,16778208,620000,189228,180540,65700,0,87000,0,4249522154,63
i,1727695654.879721,172.16.5.2,50156,172.16.1.2,5103,89718,91273,2086,144960,65728,6,6,4,1460,397812,1,16778208,620000,189228,180540,65700,0,89896,0,4249522154,63
o,1727695654.879761,172.16.5.2,50156,172.16.1.2,5103,89718,91273,2086,142080,65728,6,6,4,1460,396875,1,16778208,620000,189228,177644,65700,0,87000,0,4249522154,63
o,1727695654.879880,172.16.5.2,50156,172.16.1.2,5103,89718,91273,2086,142080,65728,6,6,4,1460,396875,1,16778208,620000,189228,177644,65700,0,88448,0,4249522154,63
i,1727695654.880048,172.16.5.2,50156,172.16.1.2,5103,89718,91273,2086,142080,65728,6,6,4,1460,396875,1,16778208,620000,189228,177644,65700,0,89896,0,4249522154,63
o,1727695654.880068,172.16.5.2,50156,172.16.1.2,5103,89718,91273,2086,144960,65728,6,6,4,1460,396250,1,16778208,620000,189228,174748,65700,0,87000,0,4249522154,63
i,1727695654.880203,172.16.5.2,50156,172.16.1.2,5103,89718,91273,2086,144960,65728,6,6,4,1460,396250,1,16778208,620000,189228,174748,65700,0,89896,0,4249522154,63
o,1727695654.880220,172.16.5.2,50156,172.16.1.2,5103,89718,91273,2086,144960,65728,6,6,4,1460,395625,1,16778208,620000,189228,171852,65700,0,87000,0,4249522154,63
i,1727695654.881064,172.16.5.2,50156,172.16.1.2,5103,89718,91273,2086,144960,65728,6,6,4,1460,395625,1,16778208,620000,189228,189228,65700,0,89896,0,4249522154,63
o,1727695654.881095,172.16.5.2,50156,172.16.1.2,5103,89718,91273,2086,144960,65728,6,6,4,1460,396250,1,16778208,620000,189228,186332,65700,0,87000,0,4249522154,63
i,1727695654.881280,172.16.5.2,50156,172.16.1.2,5103,89718,91273,2086,144960,65728,6,6,4,1460,396250,1,16778208,620000,189228,186332,65700,0,89896,0,4249522154,63
o,1727695654.881302,172.16.5.2,50156,172.16.1.2,5103,89718,91273,2086,142080,65728,6,6,4,1460,396875,1,16778208,620000,189228,183436,65700,0,87000,0,4249522154,63
i,1727695654.881466,172.16.5.2,50156,172.16.1.2,5103,89718,91273,2086,142080,65728,6,6,4,1460,396875,1,16778208,620000,189228,183436,65700,0,89896,0,4249522154,63
o,1727695654.881487,172.16.5.2,50156,172.16.1.2,5103,89718,91273,2086,144960,65728,6,6,4,1460,397500,1,16778208,620000,189228,177644,65700,0,84104,0,4249522154,63
i,1727695654.881693,172.16.5.2,50156,172.16.1.2,5103,89718,91273,2086,144960,65728,6,6,4,1460,397500,1,16778208,620000,189228,177644,65700,0,89896,0,4249522154,63
o,1727695654.881714,172.16.5.2,50156,172.16.1.2,5103,89718,91273,2086,146432,65728,6,6,4,1460,397812,1,16778208,620000,189228,174748,65700,0,87000,0,4249522154,63
i,1727695654.882594,172.16.5.2,50156,172.16.1.2,5103,89718,91273,2086,146432,65728,6,6,4,1460,397812,1,16778208,620000,189228,189228,65700,0,89896,0,4249522154,63
o,1727695654.882620,172.16.5.2,50156,172.16.1.2,5103,89718,91273,2086,143552,65728,6,6,4,1460,398125,1,16778208,610000,189228,186332,65700,0,87000,0,4249522154,63
i,1727695654.882811,172.16.5.2,50156,172.16.1.2,5103,89718,91273,2086,143552,65728,6,6,4,1460,398125,1,16778208,610000,189228,186332,65700,0,89896,0,4249522154,63
o,1727695654.882833,172.16.5.2,50156,172.16.1.2,5103,89718,91273,2086,146432,65728,6,6,4,1460,398437,1,16778208,610000,189228,184764,65700,0,88328,0,4249522154,63
o,1727695654.893191,10.0.2.15,22,10.0.2.2,57953,1073725440,14600,1026,65535,65700,0,0,4,1460,312,0,16777220,240000,33580,1372,65700,0,0,0,2045767904,63
i,1727695654.893515,10.0.2.15,22,10.0.2.2,57953,1073725440,14600,1026,65535,65700,0,0,4,1460,312,0,16777220,240000,33580,1372,65700,0,1372,0,2045767904,63
i,1727695655.249219,172.16.5.2,50156,172.16.1.2,5103,89718,91273,2086,146432,65728,6,6,4,1460,398437,1,16778208,610000,189228,187660,65700,0,91224,0,4249522154,63
o,1727695655.249257,172.16.5.2,50156,172.16.1.2,5103,89718,91273,2086,144960,65728,6,6,4,1460,395000,1,16778208,630000,189228,184764,65700,0,88328,0,4249522154,63
i,1727695655.249826,172.16.5.2,50156,172.16.1.2,5103,89718,91273,2086,144960,65728,6,6,4,1460,395000,1,16778208,630000,189228,189228,65700,0,91224,0,4249522154,63
o,1727695655.249904,172.16.5.2,50156,172.16.1.2,5103,89718,91273,2086,142080,65728,6,6,4,1460,391875,1,16778208,640000,189228,186332,65700,0,88328,0,4249522154,63
i,1727695655.250949,172.16.5.2,50156,172.16.1.2,5103,89718,91273,2086,142080,65728,6,6,4,1460,391875,1,16778208,640000,189228,189228,65700,0,91224,0,4249522154,63
o,1727695655.250971,172.16.5.2,50156,172.16.1.2,5103,89718,91273,2086,146432,65728,6,6,4,1460,390625,1,16778208,640000,189228,186332,65700,0,88328,0,4249522154,63
i,1727695655.251172,172.16.5.2,50156,172.16.1.2,5103,89718,91273,2086,146432,65728,6,6,4,1460,390625,1,16778208,640000,189228,186332,65700,0,91224,0,4249522154,63
o,1727695655.251193,172.16.5.2,50156,172.16.1.2,5103,89718,91273,2086,143552,65728,6,6,4,1460,389375,1,16778208,640000,189228,183436,65700,0,88328,0,4249522154,63
i,1727695655.251379,172.16.5.2,50156,172.16.1.2,5103,89718,91273,2086,143552,65728,6,6,4,1460,389375,1,16778208,640000,189228,183436,65700,0,91224,0,4249522154,63
o,1727695655.251398,172.16.5.2,50156,172.16.1.2,5103,89718,91273,2086,140672,65728,6,6,4,1460,388437,1,16778208,630000,189228,180540,65700,0,88328,0,4249522154,63
i,1727695655.253000,172.16.5.2,50156,172.16.1.2,5103,89718,91273,2086,140672,65728,6,6,4,1460,388437,1,16778208,630000,189228,189228,65700,0,91224,0,4249522154,63
o,1727695655.253024,172.16.5.2,50156,172.16.1.2,5103,89718,91273,2086,146432,65728,6,6,4,1460,387500,1,16778208,630000,189228,186332,65700,0,88328,0,4249522154,63
i,1727695655.253164,172.16.5.2,50156,172.16.1.2,5103,89718,91273,2086,146432,65728,6,6,4,1460,387500,1,16778208,630000,189228,186332,65700,0,91224,0,4249522154,63
o,1727695655.253182,172.16.5.2,50156,172.16.1.2,5103,89718,91273,2086,143552,65728,6,6,4,1460,386562,1,16778208,620000,189228,183436,65700,0,88328,0,4249522154,63
i,1727695655.253326,172.16.5.2,50156,172.16.1.2,5103,89718,91273,2086,143552,65728,6,6,4,1460,386562,1,16778208,620000,189228,183436,65700,0,91224,0,4249522154,63
o,1727695655.253347,172.16.5.2,50156,172.16.1.2,5103,89718,91273,2086,140672,65728,6,6,4,1460,385937,1,16778208,620000,189228,180540,65700,0,88328,0,4249522154,63
i,1727695655.254029,172.16.5.2,50156,172.16.1.2,5103,89718,91273,2086,140672,65728,6,6,4,1460,385937,1,16778208,620000,189228,189228,65700,0,91224,0,4249522154,63
o,1727695655.254053,172.16.5.2,50156,172.16.1.2,5103,89718,91273,2086,144960,65728,6,6,4,1460,385312,1,16778208,620000,189228,186332,65700,0,88328,0,4249522154,63
i,1727695655.254248,172.16.5.2,50156,172.16.1.2,5103,89718,91273,2086,144960,65728,6,6,4,1460,385312,1,16778208,620000,189228,186332,65700,0,91224,0,4249522154,63
o,1727695655.254269,172.16.5.2,50156,172.16.1.2,5103,89718,91273,2086,142080,65728,6,6,4,1460,384687,1,16778208,610000,189228,183436,65700,0,88328,0,4249522154,63
i,1727695655.254531,172.16.5.2,50156,172.16.1.2,5103,89718,91273,2086,142080,65728,6,6,4,1460,384687,1,16778208,610000,189228,183436,65700,0,91224,0,4249522154,63
o,1727695655.254552,172.16.5.2,50156,172.16.1.2,5103,89718,91273,2086,144960,65728,6,6,4,1460,384375,1,16778208,610000,189228,180540,65700,0,88328,0,4249522154,63
i,1727695655.254706,172.16.5.2,50156,172.16.1.2,5103,89718,91273,2086,144960,65728,6,6,4,1460,384375,1,16778208,610000,189228,180540,65700,0,91224,0,4249522154,63
o,1727695655.254726,172.16.5.2,50156,172.16.1.2,5103,89718,92733,2086,142080,65728,6,6,4,1460,384062,1,16778208,600000,189228,177644,65700,0,88328,0,4249522154,63
i,1727695655.255619,172.16.5.2,50156,172.16.1.2,5103,89718,92733,2086,142080,65728,6,6,4,1460,384062,1,16778208,600000,189228,189228,65700,0,92672,0,4249522154,63
o,1727695655.255763,172.16.5.2,50156,172.16.1.2,5103,89718,92733,2086,144960,65728,6,6,4,1460,383750,1,16778208,600000,189228,186332,65700,0,89776,0,4249522154,63
i,1727695655.255932,172.16.5.2,50156,172.16.1.2,5103,89718,92733,2086,144960,65728,6,6,4,1460,383750,1,16778208,600000,189228,186332,65700,0,92672,0,4249522154,63
o,1727695655.255951,172.16.5.2,50156,172.16.1.2,5103,89718,92733,2086,142080,65728,6,6,4,1460,383437,1,16778208,600000,189228,183436,65700,0,89776,0,4249522154,63
i,1727695655.256166,172.16.5.2,50156,172.16.1.2,5103,89718,92733,2086,142080,65728,6,6,4,1460,383437,1,16778208,600000,189228,183436,65700,0,92672,0,4249522154,63
o,1727695655.256182,172.16.5.2,50156,172.16.1.2,5103,89718,92733,2086,146432,65728,6,6,4,1460,383125,1,16778208,600000,189228,180540,65700,0,89776,0,4249522154,63
i,1727695655.256358,172.16.5.2,50156,172.16.1.2,5103,89718,92733,2086,146432,65728,6,6,4,1460,383125,1,16778208,600000,189228,180540,65700,0,92672,0,4249522154,63
o,1727695655.256379,172.16.5.2,50156,172.16.1.2,5103,89718,92733,2086,143552,65728,6,6,4,1460,382812,1,16778208,600000,189228,177644,65700,0,89776,0,4249522154,63
i,1727695655.257617,172.16.5.2,50156,172.16.1.2,5103,89718,92733,2086,143552,65728,6,6,4,1460,382812,1,16778208,600000,189228,189228,65700,0,92672,0,4249522154,63
o,1727695655.257642,172.16.5.2,50156,172.16.1.2,5103,89718,92733,2086,147840,65728,6,6,4,1460,382500,1,16778208,600000,189228,187780,65700,0,91224,0,4249522154,63
i,1727695655.257834,172.16.5.2,50156,172.16.1.2,5103,89718,92733,2086,147840,65728,6,6,4,1460,382500,1,16778208,600000,189228,187780,65700,0,92672,0,4249522154,63
o,1727695655.257879,172.16.5.2,50156,172.16.1.2,5103,89718,92733,2086,144960,65728,6,6,4,1460,382187,1,16778208,590000,189228,184884,65700,0,89776,0,4249522154,63
i,1727695655.258087,172.16.5.2,50156,172.16.1.2,5103,89718,92733,2086,144960,65728,6,6,4,1460,382187,1,16778208,590000,189228,184884,65700,0,92672,0,4249522154,63
o,1727695655.258107,172.16.5.2,50156,172.16.1.2,5103,89718,92733,2086,142080,65728,6,6,4,1460,382187,1,16778208,590000,189228,181988,65700,0,89776,0,4249522154,63
i,1727695655.272074,172.16.5.2,50156,172.16.1.2,5103,89718,92733,2086,142080,65728,6,6,4,1460,382187,1,16778208,590000,189228,189228,65700,0,92672,0,4249522154,63
o,1727695655.272104,172.16.5.2,50156,172.16.1.2,5103,89718,92733,2086,144960,65728,6,6,4,1460,384687,1,16778208,610000,189228,186332,65700,0,89776,0,4249522154,63
i,1727695655.272493,172.16.5.2,50156,172.16.1.2,5103,89718,92733,2086,144960,65728,6,6,4,1460,384687,1,16778208,610000,189228,186332,65700,0,92672,0,4249522154,63
o,1727695655.272517,172.16.5.2,50156,172.16.1.2,5103,89718,92733,2086,142080,65728,6,6,4,1460,386875,1,16778208,620000,189228,183436,65700,0,89776,0,4249522154,63
i,1727695655.272734,172.16.5.2,50156,172.16.1.2,5103,89718,92733,2086,142080,65728,6,6,4,1460,386875,1,16778208,620000,189228,183436,65700,0,92672,0,4249522154,63
o,1727695655.272756,172.16.5.2,50156,172.16.1.2,5103,89718,92733,2086,144960,65728,6,6,4,1460,388750,1,16778208,630000,189228,180540,65700,0,89776,0,4249522154,63
i,1727695655.272941,172.16.5.2,50156,172.16.1.2,5103,89718,92733,2086,144960,65728,6,6,4,1460,388750,1,16778208,630000,189228,180540,65700,0,92672,0,4249522154,63
o,1727695655.272964,172.16.5.2,50156,172.16.1.2,5103,89718,92733,2086,144960,65728,6,6,4,1460,390312,1,16778208,640000,189228,177644,65700,0,89776,0,4249522154,63
o,1727695655.273144,172.16.5.2,50156,172.16.1.2,5103,89718,92733,2086,144960,65728,6,6,4,1460,390312,1,16778208,640000,189228,177644,65700,0,91224,0,4249522154,63
i,1727695655.273331,172.16.5.2,50156,172.16.1.2,5103,89718,92733,2086,144960,65728,6,6,4,1460,390312,1,16778208,640000,189228,177644,65700,0,92672,0,4249522154,63
o,1727695655.273353,172.16.5.2,50156,172.16.1.2,5103,89718,92733,2086,142080,65728,6,6,4,1460,391562,1,16778208,630000,189228,174748,65700,0,89776,0,4249522154,63
i,1727695655.273533,172.16.5.2,50156,172.16.1.2,5103,89718,92733,2086,142080,65728,6,6,4,1460,391562,1,16778208,630000,189228,174748,65700,0,92672,0,4249522154,63
o,1727695655.273560,172.16.5.2,50156,172.16.1.2,5103,89718,92733,2086,139200,65728,6,6,4,1460,392812,1,16778208,640000,189228,171852,65700,0,89776,0,4249522154,63
i,1727695655.273858,172.16.5.2,50156,172.16.1.2,5103,89718,92733,2086,139200,65728,6,6,4,1460,392812,1,16778208,640000,189228,171852,65700,0,92672,0,4249522154,63
o,1727695655.273879,172.16.5.2,50156,172.16.1.2,5103,89718,92733,2086,136320,65728,6,6,4,1460,392500,1,16778208,630000,189228,168956,65700,0,89776,0,4249522154,63
i,1727695655.274053,172.16.5.2,50156,172.16.1.2,5103,89718,92733,2086,136320,65728,6,6,4,1460,392500,1,16778208,630000,189228,168956,65700,0,92672,0,4249522154,63
o,1727695655.274076,172.16.5.2,50156,172.16.1.2,5103,89718,92733,2086,133440,65728,6,6,4,1460,392187,1,16778208,620000,189228,166060,65700,0,89776,0,4249522154,63
i,1727695655.274246,172.16.5.2,50156,172.16.1.2,5103,89718,92733,2086,133440,65728,6,6,4,1460,392187,1,16778208,620000,189228,166060,65700,0,92672,0,4249522154,63
o,1727695655.274269,172.16.5.2,50156,172.16.1.2,5103,89718,92733,2086,130560,65728,6,6,4,1460,392187,1,16778208,610000,189228,163164,65700,0,89776,0,4249522154,63
i,1727695655.274604,172.16.5.2,50156,172.16.1.2,5103,89718,92733,2086,130560,65728,6,6,4,1460,392187,1,16778208,610000,189228,163164,65700,0,92672,0,4249522154,63
o,1727695655.274627,172.16.5.2,50156,172.16.1.2,5103,89718,92733,2086,127680,65728,6,6,4,1460,392187,1,16778208,610000,189228,160268,65700,0,89776,0,4249522154,63
i,1727695655.274810,172.16.5.2,50156,172.16.1.2,5103,89718,92733,2086,127680,65728,6,6,4,1460,392187,1,16778208,610000,189228,160268,65700,0,92672,0,4249522154,63
o,1727695655.274832,172.16.5.2,50156,172.16.1.2,5103,89718,92733,2086,124800,65728,6,6,4,1460,392187,1,16778208,600000,189228,157372,65700,0,89776,0,4249522154,63
i,1727695655.275041,172.16.5.2,50156,172.16.1.2,5103,89718,92733,2086,124800,65728,6,6,4,1460,392187,1,16778208,600000,189228,157372,65700,0,92672,0,4249522154,63
o,1727695655.275063,172.16.5.2,50156,172.16.1.2,5103,89718,92733,2086,121920,65728,6,6,4,1460,392187,1,16778208,600000,189228,154476,65700,0,89776,0,4249522154,63
i,1727695655.275231,172.16.5.2,50156,172.16.1.2,5103,89718,92733,2086,121920,65728,6,6,4,1460,392187,1,16778208,600000,189228,154476,65700,0,92672,0,4249522154,63
o,1727695655.275253,172.16.5.2,50156,172.16.1.2,5103,89718,92733,2086,146432,65728,6,6,4,1460,392187,1,16778208,600000,189228,151580,65700,0,89776,0,4249522154,63
i,1727695655.658531,172.16.5.2,50156,172.16.1.2,5103,89718,92733,2086,146432,65728,6,6,4,1460,392187,1,16778208,600000,189228,189228,65700,0,92672,0,4249522154,63
o,1727695655.658576,172.16.5.2,50156,172.16.1.2,5103,89718,92733,2086,144960,65728,6,6,4,1460,394687,1,16778208,620000,189228,186332,65700,0,89776,0,4249522154,63
i,1727695655.658776,172.16.5.2,50156,172.16.1.2,5103,89718,92733,2086,144960,65728,6,6,4,1460,394687,1,16778208,620000,189228,186332,65700,0,92672,0,4249522154,63
o,1727695655.658798,172.16.5.2,50156,172.16.1.2,5103,89718,92733,2086,146432,65728,6,6,4,1460,396875,1,16778208,630000,189228,183436,65700,0,89776,0,4249522154,63
i,1727695655.658977,172.16.5.2,50156,172.16.1.2,5103,89718,92733,2086,146432,65728,6,6,4,1460,396875,1,16778208,630000,189228,183436,65700,0,92672,0,4249522154,63
o,1727695655.658998,172.16.5.2,50156,172.16.1.2,5103,89718,92733,2086,146432,65728,6,6,4,1460,397500,1,16778208,630000,189228,180540,65700,0,89776,0,4249522154,63
i,1727695655.659212,172.16.5.2,50156,172.16.1.2,5103,89718,92733,2086,146432,65728,6,6,4,1460,397500,1,16778208,630000,189228,180540,65700,0,92672,0,4249522154,63
o,1727695655.659233,172.16.5.2,50156,172.16.1.2,5103,89718,92733,2086,143552,65728,6,6,4,1460,397812,1,16778208,620000,189228,177644,65700,0,89776,0,4249522154,63
i,1727695655.659395,172.16.5.2,50156,172.16.1.2,5103,89718,92733,2086,143552,65728,6,6,4,1460,397812,1,16778208,620000,189228,177644,65700,0,92672,0,4249522154,63
o,1727695655.659412,172.16.5.2,50156,172.16.1.2,5103,89718,92733,2086,146432,65728,6,6,4,1460,398125,1,16778208,620000,189228,174748,65700,0,89776,0,4249522154,63
i,1727695655.659535,172.16.5.2,50156,172.16.1.2,5103,89718,92733,2086,146432,65728,6,6,4,1460,398125,1,16778208,620000,189228,174748,65700,0,92672,0,4249522154,63
o,1727695655.659552,172.16.5.2,50156,172.16.1.2,5103,89718,92733,2086,144960,65728,6,6,4,1460,398437,1,16778208,620000,189228,171852,65700,0,89776,0,4249522154,63
i,1727695655.659758,172.16.5.2,50156,172.16.1.2,5103,89718,92733,2086,144960,65728,6,6,4,1460,398437,1,16778208,620000,189228,171852,65700,0,92672,0,4249522154,63
o,1727695655.659781,172.16.5.2,50156,172.16.1.2,5103,89718,92733,2086,142080,65728,6,6,4,1460,398750,1,16778208,610000,189228,168956,65700,0,89776,0,4249522154,63
i,1727695655.659913,172.16.5.2,50156,172.16.1.2,5103,89718,92733,2086,142080,65728,6,6,4,1460,398750,1,16778208,610000,189228,168956,65700,0,92672,0,4249522154,63
o,1727695655.659929,172.16.5.2,50156,172.16.1.2,5103,89718,92733,2086,139200,65728,6,6,4,1460,399062,1,16778208,610000,189228,166060,65700,0,89776,0,4249522154,63
i,1727695655.660100,172.16.5.2,50156,172.16.1.2,5103,89718,92733,2086,139200,65728,6,6,4,1460,399062,1,16778208,610000,189228,166060,65700,0,92672,0,4249522154,63
o,1727695655.660115,172.16.5.2,50156,172.16.1.2,5103,89718,92733,2086,136320,65728,6,6,4,1460,399375,1,16778208,610000,189228,163164,65700,0,89776,0,4249522154,63
