enable_time_secs=1727695753	enable_time_usecs=753196	siftrver=1.3.0	sysname=FreeBSD	sysver=1401000	ipmode=4
o,1727695753.753502,10.0.2.15,22,10.0.2.2,49882,1073725440,17746,1026,65535,65700,0,0,4,1460,312,0,16777220,240000,33580,172,65700,0,0,0,3930706797,63
o,1727695753.753701,10.0.2.15,22,10.0.2.2,49882,1073725440,17746,1026,65535,65700,0,0,4,1460,312,0,16777220,240000,33580,244,65700,0,172,0,3930706797,63
i,1727695753.753957,10.0.2.15,22,10.0.2.2,49882,1073725440,17746,1026,65535,65700,0,0,4,1460,312,0,16777220,240000,33580,244,65700,0,244,0,3930706797,63
i,1727695753.753977,10.0.2.15,22,10.0.2.2,49882,1073725440,17918,1026,65535,65700,0,0,4,1460,312,0,4,240000,33580,72,65700,0,72,0,3930706797,63
i,1727695753.754512,10.0.2.15,22,10.0.2.2,49882,1073725440,17990,1026,65535,65700,0,0,4,1460,312,0,4,240000,33580,0,65700,0,0,0,3930706797,63
i,1727695753.754530,10.0.2.15,22,10.0.2.2,49882,1073725440,17990,1026,65535,65700,0,0,4,1460,312,0,4,240000,33580,0,65700,96,0,0,3930706797,63
o,1727695753.754550,10.0.2.15,22,10.0.2.2,49882,1073725440,17990,1026,65535,65604,0,0,5,1460,312,0,5,240000,33580,0,65700,96,0,0,3930706797,63
o,1727695753.755439,10.0.2.15,22,10.0.2.2,49882,1073725440,17990,1026,65535,65604,0,0,8,1460,312,0,4,240000,33580,0,65700,0,0,0,3930706797,63
i,1727695753.756032,10.0.2.15,22,10.0.2.2,49882,1073725440,17990,1026,65535,65604,0,0,8,1460,312,0,67108884,240000,33580,0,65700,0,1,0,3930706797,63
o,1727695754.422736,10.0.2.15,22,10.0.2.2,57953,1073725440,14600,1026,65535,65700,0,0,4,1460,312,0,16777220,240000,33580,332,65700,0,0,0,2045767904,63
i,1727695754.424061,10.0.2.15,22,10.0.2.2,57953,1073725440,14600,1026,65535,65700,0,0,4,1460,312,0,16777220,240000,33580,332,65700,0,332,0,2045767904,63
o,1727695756.433341,10.0.2.15,22,10.0.2.2,57953,1073725440,14600,1026,65535,65700,0,0,4,1460,312,0,16777220,240000,33580,380,65700,0,0,0,2045767904,63
i,1727695756.434036,10.0.2.15,22,10.0.2.2,57953,1073725440,14600,1026,65535,65700,0,0,4,1460,312,0,16777220,240000,33580,380,65700,0,380,0,2045767904,63
i,1727695757.000006,10.0.2.15,22,10.0.2.2,49898,1073725440,14600,0,65535,65700,0,0,4,1460,312,0,16777216,270000,33580,0,65700,0,0,0,4116332846,63
o,1727695757.012725,10.0.2.15,22,10.0.2.2,49898,1073725440,14600,1026,65535,65700,0,0,4,1460,312,0,16777216,270000,33580,38,65700,42,0,0,4116332846,63
i,1727695757.013794,10.0.2.15,22,10.0.2.2,49898,1073725440,14600,1026,65535,65700,0,0,4,1460,312,0,16777216,270000,33580,38,65700,0,38,0,4116332846,63
i,1727695757.014576,10.0.2.15,22,10.0.2.2,49898,1073725440,14638,1026,65535,65700,0,0,4,1460,312,0,0,240000,33580,0,65700,0,0,0,4116332846,63
i,1727695757.014597,10.0.2.15,22,10.0.2.2,49898,1073725440,14638,1026,65535,65700,0,0,4,1460,312,0,0,240000,33580,0,65700,1460,0,0,4116332846,63
o,1727695757.014619,10.0.2.15,22,10.0.2.2,49898,1073725440,14638,1026,65535,65700,0,0,4,1460,312,0,1,240000,33580,0,65700,1536,0,0,4116332846,63
o,1727695757.015266,10.0.2.15,22,10.0.2.2,49898,1073725440,14638,1026,65535,65700,0,0,4,1460,312,0,16777216,240000,33580,1120,65700,1536,0,0,4116332846,63
i,1727695757.016267,10.0.2.15,22,10.0.2.2,49898,1073725440,14638,1026,65535,65700,0,0,4,1460,312,0,16777216,240000,33580,1120,65700,0,1120,0,4116332846,63
i,1727695757.017309,10.0.2.15,22,10.0.2.2,49898,1073725440,15758,1026,65535,65700,0,0,4,1460,312,0,0,240000,33580,0,65700,0,0,0,4116332846,63
o,1727695757.021468,10.0.2.15,22,10.0.2.2,49898,1073725440,15758,1026,65535,65700,0,0,4,1460,312,0,16777216,240000,33580,492,65700,0,0,0,4116332846,63
i,1727695757.022937,10.0.2.15,22,10.0.2.2,49898,1073725440,15758,1026,65535,65700,0,0,4,1460,312,0,16777216,240000,33580,492,65700,0,492,0,4116332846,63
i,1727695757.027715,10.0.2.15,22,10.0.2.2,49898,1073725440,16250,1026,65535,65700,0,0,4,1460,312,0,0,240000,33580,0,65700,0,0,0,4116332846,63
i,1727695757.027736,10.0.2.15,22,10.0.2.2,49898,1073725440,16250,1026,65535,65700,0,0,4,1460,312,0,0,240000,33580,0,65700,16,0,0,4116332846,63
o,1727695757.027755,10.0.2.15,22,10.0.2.2,49898,1073725440,16250,1026,65535,65700,0,0,4,1460,312,0,1,240000,33580,0,65700,60,0,0,4116332846,63
o,1727695757.027987,10.0.2.15,22,10.0.2.2,49898,1073725440,16250,1026,65535,65700,0,0,4,1460,312,0,16777216,240000,33580,44,65700,0,0,0,4116332846,63
i,1727695757.028541,10.0.2.15,22,10.0.2.2,49898,1073725440,16250,1026,65535,65700,0,0,4,1460,312,0,16777216,240000,33580,44,65700,0,44,0,4116332846,63
i,1727695757.028593,10.0.2.15,22,10.0.2.2,49898,1073725440,16294,1026,65535,65700,0,0,4,1460,312,0,0,240000,33580,0,65700,0,0,0,4116332846,63
o,1727695757.030004,10.0.2.15,22,10.0.2.2,49898,1073725440,16294,1026,65535,65700,0,0,4,1460,312,0,16777216,240000,33580,68,65700,0,0,0,4116332846,63
i,1727695757.030849,10.0.2.15,22,10.0.2.2,49898,1073725440,16294,1026,65535,65700,0,0,4,1460,312,0,16777216,240000,33580,68,65700,0,68,0,4116332846,63
i,1727695757.032952,10.0.2.15,22,10.0.2.2,49898,1073725440,16362,1026,65535,65700,0,0,4,1460,312,0,0,230000,33580,0,65700,0,0,0,4116332846,63
o,1727695757.033699,10.0.2.15,22,10.0.2.2,49898,1073725440,16362,1026,65535,65700,0,0,4,1460,312,0,16777216,230000,33580,332,65700,0,0,0,4116332846,63
i,1727695757.034709,10.0.2.15,22,10.0.2.2,49898,1073725440,16362,1026,65535,65700,0,0,4,1460,312,0,16777216,230000,33580,332,65700,0,332,0,4116332846,63
i,1727695757.036323,10.0.2.15,22,10.0.2.2,49898,1073725440,16694,1026,65535,65700,0,0,4,1460,312,0,0,230000,33580,0,65700,0,0,0,4116332846,63
o,1727695757.053926,10.0.2.15,22,10.0.2.2,49898,1073725440,16694,1026,65535,65700,0,0,4,1460,312,0,16777216,230000,33580,28,65700,0,0,0,4116332846,63
i,1727695757.054650,10.0.2.15,22,10.0.2.2,49898,1073725440,16694,1026,65535,65700,0,0,4,1460,312,0,16777216,230000,33580,28,65700,0,28,0,4116332846,63
i,1727695757.055140,10.0.2.15,22,10.0.2.2,49898,1073725440,16722,1026,65535,65700,0,0,4,1460,312,0,0,230000,33580,0,65700,0,0,0,4116332846,63
o,1727695757.056396,10.0.2.15,22,10.0.2.2,49898,1073725440,16722,1026,65535,65700,0,0,4,1460,312,0,16777216,230000,33580,768,65700,112,0,0,4116332846,63
i,1727695757.056819,10.0.2.15,22,10.0.2.2,49898,1073725440,16722,1026,65535,65700,0,0,4,1460,312,0,16777216,230000,33580,908,65700,112,768,0,4116332846,63
o,1727695757.056840,10.0.2.15,22,10.0.2.2,49898,1073725440,17490,1026,65535,65700,0,0,4,1460,312,0,16777216,230000,33580,140,65700,112,0,0,4116332846,63
i,1727695757.057354,10.0.2.15,22,10.0.2.2,49898,1073725440,17490,1026,65535,65700,0,0,4,1460,312,0,16777216,230000,33580,140,65700,112,140,0,4116332846,63
o,1727695757.057564,10.0.2.15,22,10.0.2.2,49898,1073725440,17630,1026,65535,65700,0,0,4,1460,312,0,16777216,240000,33580,44,65700,0,0,0,4116332846,63
i,1727695757.058119,10.0.2.15,22,10.0.2.2,49898,1073725440,17630,1026,65535,65700,0,0,4,1460,312,0,16777216,240000,33580,44,65700,0,44,0,4116332846,63
i,1727695757.058604,10.0.2.15,22,10.0.2.2,49898,1073725440,17674,1026,65535,65700,0,0,4,1460,312,0,0,240000,33580,0,65700,0,0,0,4116332846,63
o,1727695757.059163,10.0.2.15,22,10.0.2.2,49898,1073725440,17674,1026,65535,65700,0,0,4,1460,312,0,16777220,240000,33580,72,65700,0,0,0,4116332846,63
i,1727695757.059845,10.0.2.15,22,10.0.2.2,49898,1073725440,17674,1026,65535,65700,0,0,4,1460,312,0,16777220,240000,33580,72,65700,0,72,0,4116332846,63
o,1727695757.062215,10.0.2.15,22,10.0.2.2,49898,1073725440,17746,1026,65535,65700,0,0,4,1460,312,0,16777220,240000,33580,104,65700,0,0,0,4116332846,63
i,1727695757.062794,10.0.2.15,22,10.0.2.2,49898,1073725440,17746,1026,65535,65700,0,0,4,1460,312,0,16777220,240000,33580,104,65700,0,104,0,4116332846,63
o,1727695757.070993,10.0.2.15,22,10.0.2.2,49898,1073725440,17850,1026,65535,65700,0,0,4,1460,312,0,16777220,240000,33580,72,65700,0,0,0,4116332846,63
i,1727695757.072749,10.0.2.15,22,10.0.2.2,49898,1073725440,17850,1026,65535,65700,0,0,4,1460,312,0,16777220,240000,33580,72,65700,0,72,0,4116332846,63
i,1727695757.072749,10.0.2.15,22,10.0.2.2,49898,1073725440,17922,1026,65535,65700,0,0,4,1460,312,0,4,240000,33580,0,65700,0,0,0,4116332846,63
i,1727695757.072749,10.0.2.15,22,10.0.2.2,49898,1073725440,17922,1026,65535,65700,0,0,4,1460,312,0,4,240000,33580,0,65700,96,0,0,4116332846,63
o,1727695757.072749,10.0.2.15,22,10.0.2.2,49898,1073725440,17922,1026,65535,65604,0,0,5,1460,312,0,5,240000,33580,0,65700,96,0,0,4116332846,63
o,1727695757.074008,10.0.2.15,22,10.0.2.2,49898,1073725440,17922,1026,65535,65604,0,0,8,1460,312,0,4,240000,33580,0,65700,0,0,0,4116332846,63
i,1727695757.075390,10.0.2.15,22,10.0.2.2,49898,1073725440,17922,1026,65535,65604,0,0,8,1460,312,0,67108884,240000,33580,0,65700,0,1,0,4116332846,63
i,1727695758.173315,10.0.2.15,22,10.0.2.2,49918,1073725440,14600,0,65535,65700,0,0,4,1460,312,0,16777216,270000,33580,0,65700,0,0,0,3073584293,63
o,1727695758.186995,10.0.2.15,22,10.0.2.2,49918,1073725440,14600,1026,65535,65700,0,0,4,1460,312,0,16777216,270000,33580,38,65700,42,0,0,3073584293,63
i,1727695758.188819,10.0.2.15,22,10.0.2.2,49918,1073725440,14600,1026,65535,65700,0,0,4,1460,312,0,16777216,270000,33580,38,65700,0,38,0,3073584293,63
i,1727695758.188846,10.0.2.15,22,10.0.2.2,49918,1073725440,14638,1026,65535,65700,0,0,4,1460,312,0,0,240000,33580,0,65700,0,0,0,3073584293,63
i,1727695758.188861,10.0.2.15,22,10.0.2.2,49918,1073725440,14638,1026,65535,65700,0,0,4,1460,312,0,0,240000,33580,0,65700,1460,0,0,3073584293,63
o,1727695758.188881,10.0.2.15,22,10.0.2.2,49918,1073725440,14638,1026,65535,65700,0,0,4,1460,312,0,1,240000,33580,0,65700,1536,0,0,3073584293,63
o,1727695758.190274,10.0.2.15,22,10.0.2.2,49918,1073725440,14638,1026,65535,65700,0,0,4,1460,312,0,16777216,240000,33580,1120,65700,1536,0,0,3073584293,63
i,1727695758.190884,10.0.2.15,22,10.0.2.2,49918,1073725440,14638,1026,65535,65700,0,0,4,1460,312,0,16777216,240000,33580,1120,65700,0,1120,0,3073584293,63
i,1727695758.193050,10.0.2.15,22,10.0.2.2,49918,1073725440,15758,1026,65535,65700,0,0,4,1460,312,0,0,240000,33580,0,65700,0,0,0,3073584293,63
o,1727695758.197938,10.0.2.15,22,10.0.2.2,49918,1073725440,15758,1026,65535,65700,0,0,4,1460,312,0,16777216,240000,33580,492,65700,0,0,0,3073584293,63
i,1727695758.198608,10.0.2.15,22,10.0.2.2,49918,1073725440,15758,1026,65535,65700,0,0,4,1460,312,0,16777216,240000,33580,492,65700,0,492,0,3073584293,63
i,1727695758.203379,10.0.2.15,22,10.0.2.2,49918,1073725440,16250,1026,65535,65700,0,0,4,1460,312,0,0,240000,33580,0,65700,0,0,0,3073584293,63
i,1727695758.203426,10.0.2.15,22,10.0.2.2,49918,1073725440,16250,1026,65535,65700,0,0,4,1460,312,0,0,240000,33580,0,65700,16,0,0,3073584293,63
o,1727695758.203465,10.0.2.15,22,10.0.2.2,49918,1073725440,16250,1026,65535,65700,0,0,4,1460,312,0,1,240000,33580,0,65700,60,0,0,3073584293,63
o,1727695758.204000,10.0.2.15,22,10.0.2.2,49918,1073725440,16250,1026,65535,65700,0,0,4,1460,312,0,16777216,240000,33580,44,65700,0,0,0,3073584293,63
i,1727695758.205109,10.0.2.15,22,10.0.2.2,49918,1073725440,16250,1026,65535,65700,0,0,4,1460,312,0,16777216,240000,33580,44,65700,0,44,0,3073584293,63
i,1727695758.205132,10.0.2.15,22,10.0.2.2,49918,1073725440,16294,1026,65535,65700,0,0,4,1460,312,0,0,240000,33580,0,65700,0,0,0,3073584293,63
o,1727695758.206961,10.0.2.15,22,10.0.2.2,49918,1073725440,16294,1026,65535,65700,0,0,4,1460,312,0,16777216,240000,33580,68,65700,0,0,0,3073584293,63
i,1727695758.207648,10.0.2.15,22,10.0.2.2,49918,1073725440,16294,1026,65535,65700,0,0,4,1460,312,0,16777216,240000,33580,68,65700,0,68,0,3073584293,63
i,1727695758.207671,10.0.2.15,22,10.0.2.2,49918,1073725440,16362,1026,65535,65700,0,0,4,1460,312,0,0,240000,33580,0,65700,0,0,0,3073584293,63
o,1727695758.209240,10.0.2.15,22,10.0.2.2,49918,1073725440,16362,1026,65535,65700,0,0,4,1460,312,0,16777216,240000,33580,332,65700,0,0,0,3073584293,63
i,1727695758.210025,10.0.2.15,22,10.0.2.2,49918,1073725440,16362,1026,65535,65700,0,0,4,1460,312,0,16777216,240000,33580,332,65700,0,332,0,3073584293,63
i,1727695758.211416,10.0.2.15,22,10.0.2.2,49918,1073725440,16694,1026,65535,65700,0,0,4,1460,312,0,0,240000,33580,0,65700,0,0,0,3073584293,63
o,1727695758.229053,10.0.2.15,22,10.0.2.2,49918,1073725440,16694,1026,65535,65700,0,0,4,1460,312,0,16777216,240000,33580,28,65700,0,0,0,3073584293,63
i,1727695758.229611,10.0.2.15,22,10.0.2.2,49918,1073725440,16694,1026,65535,65700,0,0,4,1460,312,0,16777216,240000,33580,28,65700,0,28,0,3073584293,63
i,1727695758.229634,10.0.2.15,22,10.0.2.2,49918,1073725440,16722,1026,65535,65700,0,0,4,1460,312,0,0,240000,33580,0,65700,0,0,0,3073584293,63
o,1727695758.231872,10.0.2.15,22,10.0.2.2,49918,1073725440,16722,1026,65535,65700,0,0,4,1460,312,0,16777216,240000,33580,768,65700,112,0,0,3073584293,63
i,1727695758.232519,10.0.2.15,22,10.0.2.2,49918,1073725440,16722,1026,65535,65700,0,0,4,1460,312,0,16777216,240000,33580,908,65700,112,768,0,3073584293,63
o,1727695758.232545,10.0.2.15,22,10.0.2.2,49918,1073725440,17490,1026,65535,65700,0,0,4,1460,312,0,16777216,240000,33580,140,65700,112,0,0,3073584293,63
i,1727695758.232714,10.0.2.15,22,10.0.2.2,49918,1073725440,17490,1026,65535,65700,0,0,4,1460,312,0,16777216,240000,33580,140,65700,112,140,0,3073584293,63
o,1727695758.233151,10.0.2.15,22,10.0.2.2,49918,1073725440,17630,1026,65535,65700,0,0,4,1460,312,0,16777216,240000,33580,44,65700,0,0,0,3073584293,63
i,1727695758.233692,10.0.2.15,22,10.0.2.2,49918,1073725440,17630,1026,65535,65700,0,0,4,1460,312,0,16777216,240000,33580,44,65700,0,44,0,3073584293,63
i,1727695758.233713,10.0.2.15,22,10.0.2.2,49918,1073725440,17674,1026,65535,65700,0,0,4,1460,312,0,0,240000,33580,0,65700,0,0,0,3073584293,63
o,1727695758.234670,10.0.2.15,22,10.0.2.2,49918,1073725440,17674,1026,65535,65700,0,0,4,1460,312,0,16777220,240000,33580,72,65700,0,0,0,3073584293,63
i,1727695758.235046,10.0.2.15,22,10.0.2.2,49918,1073725440,17674,1026,65535,65700,0,0,4,1460,312,0,16777220,240000,33580,72,65700,0,72,0,3073584293,63
o,1727695758.333495,172.16.5.2,63774,172.16.1.2,5103,61054,14480,2082,65535,65700,6,6,4,1460,357812,1,16778209,1030000,33580,0,65700,0,0,0,2043225678,63
o,1727695758.334125,172.16.5.2,63774,172.16.1.2,5103,61054,14480,2082,65535,65700,6,6,4,1460,357812,1,16778212,1030000,33580,37,65700,0,0,0,2043225678,63
i,1727695758.428281,172.16.5.2,63774,172.16.1.2,5103,61054,14480,2082,65535,65700,6,6,4,1460,357812,1,16778212,1030000,33580,37,65700,0,37,0,2043225678,63
o,1727695758.428600,172.16.5.2,63774,172.16.1.2,5103,61054,14517,3106,65728,65728,6,6,4,1460,324375,1,16778212,1150000,33580,4,65700,0,0,0,2043225678,63
o,1727695758.429045,172.16.5.2,63774,172.16.1.2,5103,61054,14517,3106,65728,65728,6,6,4,1460,324375,1,16778212,1150000,33580,130,65700,0,4,0,2043225678,63
o,1727695758.464876,10.0.2.15,22,10.0.2.2,57953,1073725440,14600,1030,65535,65700,0,0,4,1460,312,0,16777220,240000,33580,1652,65700,0,0,0,2045767904,63
o,1727695758.465446,10.0.2.15,22,10.0.2.2,57953,1073725440,14600,1026,65535,65700,0,0,4,1460,312,0,16777220,240000,33580,1652,65700,0,1460,0,2045767904,63
i,1727695758.466208,10.0.2.15,22,10.0.2.2,57953,1073725440,14600,1026,65535,65700,0,0,4,1460,312,0,16777220,240000,33580,1652,65700,0,1652,0,2045767904,63
i,1727695758.466235,10.0.2.15,22,10.0.2.2,57953,1073725440,16060,1026,65535,65700,0,0,4,1460,312,0,4,240000,33580,192,65700,0,192,0,2045767904,63
i,1727695758.520173,172.16.5.2,63774,172.16.1.2,5103,61054,14517,3106,65728,65728,6,6,4,1460,324375,1,16778212,1150000,33580,130,65700,0,130,0,2043225678,63
i,1727695758.521054,172.16.5.2,63774,172.16.1.2,5103,61054,14647,3106,65600,65728,6,6,4,1460,295312,1,996,1200000,33580,0,65700,0,0,0,2043225678,63
o,1727695758.569726,172.16.5.2,63774,172.16.1.2,5103,61054,14647,3106,65728,65728,6,6,4,1460,295312,1,997,1200000,33580,0,65700,0,0,0,2043225678,63
o,1727695758.623719,172.16.5.2,17568,172.16.1.2,5103,61054,14480,2082,65535,65700,6,6,4,1460,357812,1,16778209,1030000,33580,0,65700,0,0,0,573364807,63
o,1727695758.623963,172.16.5.2,17568,172.16.1.2,5103,61054,14480,2082,65535,65700,6,6,4,1460,357812,1,16778208,1030000,33580,37,65700,0,0,0,573364807,63
i,1727695758.717629,172.16.5.2,63774,172.16.1.2,5103,61054,14647,3106,65728,65728,6,6,4,1460,295312,1,996,1200000,33580,0,65700,0,0,0,2043225678,63
i,1727695758.717725,172.16.5.2,63774,172.16.1.2,5103,61054,14647,3106,65728,65728,6,6,4,1460,295312,1,996,1200000,33580,0,65700,1,0,0,2043225678,63
o,1727695758.717748,172.16.5.2,63774,172.16.1.2,5103,61054,14647,3106,65728,65728,6,6,4,1460,295312,1,997,1200000,33580,0,65700,2,0,0,2043225678,63
o,1727695758.718346,172.16.5.2,17568,172.16.1.2,5103,61054,14480,2086,65535,65700,6,6,4,1460,357812,1,16778208,1030000,33580,33580,65700,0,37,0,573364807,63
i,1727695758.737874,172.16.5.2,17568,172.16.1.2,5103,61054,14480,2086,65535,65700,6,6,4,1460,357812,1,16778208,1030000,33580,33580,65700,0,13069,0,573364807,63
o,1727695758.737922,172.16.5.2,17568,172.16.1.2,5103,61054,14517,2086,65728,65728,6,6,4,1460,326875,1,16778208,1130000,33580,33543,65700,0,13032,0,573364807,63
i,1727695758.819728,172.16.5.2,17568,172.16.1.2,5103,61054,14517,2086,65728,65728,6,6,4,1460,326875,1,16778208,1130000,33580,33543,65700,0,14480,0,573364807,63
o,1727695758.819764,172.16.5.2,17568,172.16.1.2,5103,61054,17413,2086,62848,65728,6,6,4,1460,298750,1,16778208,1180000,33580,30647,65700,0,11584,0,573364807,63
i,1727695758.819898,172.16.5.2,17568,172.16.1.2,5103,61054,17413,2086,62848,65728,6,6,4,1460,298750,1,16778208,1180000,41772,30647,65700,0,17376,0,573364807,63
o,1727695758.819916,172.16.5.2,17568,172.16.1.2,5103,61054,20309,2086,59968,65728,6,6,4,1460,274062,1,16778208,1180000,41772,27751,65700,0,14480,0,573364807,63
i,1727695758.820101,172.16.5.2,17568,172.16.1.2,5103,61054,20309,2086,59968,65728,6,6,4,1460,274062,1,16778208,1180000,41772,27751,65700,0,20272,0,573364807,63
o,1727695758.820132,172.16.5.2,17568,172.16.1.2,5103,61054,23205,2086,57088,65728,6,6,4,1460,252500,1,16778208,1150000,41772,24855,65700,0,17376,0,573364807,63
i,1727695758.821592,172.16.5.2,17568,172.16.1.2,5103,61054,23205,2086,57088,65728,6,6,4,1460,252500,1,16778208,1150000,49964,49964,65700,0,23168,0,573364807,63
o,1727695758.821660,172.16.5.2,17568,172.16.1.2,5103,61054,26101,2086,62848,65728,6,6,4,1460,233437,1,16778208,1110000,49964,47068,65700,0,20272,0,573364807,63
i,1727695758.821820,172.16.5.2,17568,172.16.1.2,5103,61054,26101,2086,62848,65728,6,6,4,1460,233437,1,16778208,1110000,58156,47068,65700,0,26064,0,573364807,63
o,1727695758.821838,172.16.5.2,17568,172.16.1.2,5103,61054,28997,2086,64256,65728,6,6,4,1460,216875,1,16778208,1060000,58156,44172,65700,0,23168,0,573364807,63
o,1727695758.821966,172.16.5.2,17568,172.16.1.2,5103,61054,28997,2086,64256,65728,6,6,4,1460,216875,1,16778208,1060000,58156,44172,65700,0,24616,0,573364807,63
i,1727695759.032611,172.16.5.2,17568,172.16.1.2,5103,61054,28997,2086,64256,65728,6,6,4,1460,216875,1,16778208,1060000,58156,58156,65700,0,28960,0,573364807,63
o,1727695759.032657,172.16.5.2,17568,172.16.1.2,5103,61054,31893,2086,62848,65728,6,6,4,1460,216250,1,16778208,900000,66348,55260,65700,0,26064,0,573364807,63
i,1727695759.032953,172.16.5.2,17568,172.16.1.2,5103,61054,31893,2086,62848,65728,6,6,4,1460,216250,1,16778208,900000,66348,55260,65700,0,31856,0,573364807,63
o,1727695759.032983,172.16.5.2,17568,172.16.1.2,5103,61054,34789,2086,62848,65728,6,6,4,1460,215625,1,16778208,780000,66348,52364,65700,0,28960,0,573364807,63
i,1727695759.033188,172.16.5.2,17568,172.16.1.2,5103,61054,34789,2086,62848,65728,6,6,4,1460,215625,1,16778208,780000,66348,52364,65700,0,34752,0,573364807,63
o,1727695759.033210,172.16.5.2,17568,172.16.1.2,5103,61054,37685,2086,62848,65728,6,6,4,1460,215000,1,16778208,700000,66348,49468,65700,0,31856,0,573364807,63
i,1727695759.033453,172.16.5.2,17568,172.16.1.2,5103,61054,37685,2086,62848,65728,6,6,4,1460,215000,1,16778208,700000,66348,49468,65700,0,37648,0,573364807,63
o,1727695759.033475,172.16.5.2,17568,172.16.1.2,5103,61054,40581,2086,64256,65728,6,6,4,1460,214375,1,16778208,630000,66348,46572,65700,0,34752,0,573364807,63
i,1727695759.033683,172.16.5.2,17568,172.16.1.2,5103,61054,40581,2086,64256,65728,6,6,4,1460,214375,1,16778208,630000,66348,46572,65700,0,40544,0,573364807,63
o,1727695759.033705,172.16.5.2,17568,172.16.1.2,5103,61054,43477,2086,61376,65728,6,6,4,1460,214062,1,16778208,580000,66348,43676,65700,0,37648,0,573364807,63
i,1727695759.033896,172.16.5.2,17568,172.16.1.2,5103,61054,43477,2086,61376,65728,6,6,4,1460,214062,1,16778208,580000,66348,43676,65700,0,43440,0,573364807,63
i,1727695759.033935,172.16.5.2,17568,172.16.1.2,5103,61054,46373,2086,62848,65728,6,6,4,1460,213750,1,16778208,540000,66348,40780,65700,0,40544,0,573364807,63
o,1727695759.034125,172.16.5.2,17568,172.16.1.2,5103,61054,49269,2086,59968,65728,6,6,4,1460,213437,1,16778208,510000,74540,66348,65700,0,37648,0,573364807,63
i,1727695759.035139,172.16.5.2,17568,172.16.1.2,5103,61054,49269,2086,59968,65728,6,6,4,1460,213437,1,16778208,510000,82732,82732,65700,0,49232,0,573364807,63
o,1727695759.035204,172.16.5.2,17568,172.16.1.2,5103,61054,52165,2086,64256,65728,6,6,4,1460,213125,1,16778208,490000,82732,79836,65700,0,46336,0,573364807,63
i,1727695759.035357,172.16.5.2,17568,172.16.1.2,5103,61054,52165,2086,64256,65728,6,6,4,1460,213125,1,16778208,490000,82732,79836,65700,0,52128,0,573364807,63
o,1727695759.035375,172.16.5.2,17568,172.16.1.2,5103,61054,55061,2086,61376,65728,6,6,4,1460,212812,1,16778208,470000,82732,76940,65700,0,49232,0,573364807,63
o,1727695759.035502,172.16.5.2,17568,172.16.1.2,5103,61054,55061,2086,61376,65728,6,6,4,1460,212812,1,16778208,470000,82732,76940,65700,0,50680,0,573364807,63
i,1727695759.035714,172.16.5.2,17568,172.16.1.2,5103,61054,55061,2086,61376,65728,6,6,4,1460,212812,1,16778208,470000,82732,76940,65700,0,55024,0,573364807,63
o,1727695759.035732,172.16.5.2,17568,172.16.1.2,5103,61054,57957,2086,64256,65728,6,6,4,1460,212500,1,16778208,460000,82732,74044,65700,0,52128,0,573364807,63
i,1727695759.415779,172.16.5.2,17568,172.16.1.2,5103,61054,57957,2086,64256,65728,6,6,4,1460,212500,1,16778208,460000,82732,82732,65700,0,57920,0,573364807,63
o,1727695759.415873,172.16.5.2,17568,172.16.1.2,5103,61054,60853,2086,95680,65728,6,6,4,1460,233437,1,16778208,630000,90924,79836,65700,0,55024,0,573364807,63
i,1727695759.416052,172.16.5.2,17568,172.16.1.2,5103,61054,60853,2086,95680,65728,6,6,4,1460,233437,1,16778208,630000,99116,79836,65700,0,60816,0,573364807,63
o,1727695759.416222,172.16.5.2,17568,172.16.1.2,5103,61054,63749,2086,97152,65728,6,6,4,1460,251875,1,16778208,750000,99116,76940,65700,0,57920,0,573364807,63
i,1727695759.416376,172.16.5.2,17568,172.16.1.2,5103,61054,63749,2086,97152,65728,6,6,4,1460,251875,1,16778208,750000,99116,76940,65700,0,63712,0,573364807,63
o,1727695759.416393,172.16.5.2,17568,172.16.1.2,5103,61054,63749,2086,94272,65728,6,6,4,1460,268125,1,16778208,820000,99116,74044,65700,0,60816,0,573364807,63
i,1727695759.417383,172.16.5.2,17568,172.16.1.2,5103,61054,63749,2086,94272,65728,6,6,4,1460,268125,1,16778208,820000,123692,123692,65700,0,63712,0,573364807,63
o,1727695759.417400,172.16.5.2,17568,172.16.1.2,5103,61054,63749,2086,95680,65728,6,6,4,1460,282187,1,16778208,860000,123692,120796,65700,0,60816,0,573364807,63
i,1727695759.417580,172.16.5.2,17568,172.16.1.2,5103,61054,63749,2086,95680,65728,6,6,4,1460,282187,1,16778208,860000,123692,120796,65700,0,63712,0,573364807,63
o,1727695759.417609,172.16.5.2,17568,172.16.1.2,5103,61054,63749,2086,95680,65728,6,6,4,1460,294687,1,16778208,880000,123692,117900,65700,0,60816,0,573364807,63
i,1727695759.417759,172.16.5.2,17568,172.16.1.2,5103,61054,63749,2086,95680,65728,6,6,4,1460,294687,1,16778208,880000,123692,117900,65700,0,63712,0,573364807,63
o,1727695759.417775,172.16.5.2,17568,172.16.1.2,5103,61054,63749,2086,97152,65728,6,6,4,1460,305625,1,16778208,880000,123692,115004,65700,0,60816,0,573364807,63
i,1727695759.417913,172.16.5.2,17568,172.16.1.2,5103,61054,63749,2086,97152,65728,6,6,4,1460,305625,1,16778208,880000,123692,115004,65700,0,63712,0,573364807,63
o,1727695759.417946,172.16.5.2,17568,172.16.1.2,5103,61054,63749,2086,97152,65728,6,6,4,1460,315000,1,16778208,870000,123692,112108,65700,0,60816,0,573364807,63
i,1727695759.418086,172.16.5.2,17568,172.16.1.2,5103,61054,63749,2086,97152,65728,6,6,4,1460,315000,1,16778208,870000,123692,112108,65700,0,63712,0,573364807,63
o,1727695759.418101,172.16.5.2,17568,172.16.1.2,5103,61054,63749,2086,97152,65728,6,6,4,1460,323125,1,16778208,850000,123692,109212,65700,0,60816,0,573364807,63
i,1727695759.418777,172.16.5.2,17568,172.16.1.2,5103,61054,63749,2086,97152,65728,6,6,4,1460,323125,1,16778208,850000,123692,123692,65700,0,63712,0,573364807,63
o,1727695759.418846,172.16.5.2,17568,172.16.1.2,5103,61054,63749,2086,94272,65728,6,6,4,1460,330312,1,16778208,840000,123692,120796,65700,0,60816,0,573364807,63
i,1727695759.418967,172.16.5.2,17568,172.16.1.2,5103,61054,63749,2086,94272,65728,6,6,4,1460,330312,1,16778208,840000,123692,120796,65700,0,63712,0,573364807,63
o,1727695759.418982,172.16.5.2,17568,172.16.1.2,5103,61054,63749,2086,95680,65728,6,6,4,1460,336562,1,16778208,810000,123692,117900,65700,0,60816,0,573364807,63
i,1727695759.419139,172.16.5.2,17568,172.16.1.2,5103,61054,63749,2086,95680,65728,6,6,4,1460,336562,1,16778208,810000,123692,117900,65700,0,63712,0,573364807,63
o,1727695759.419159,172.16.5.2,17568,172.16.1.2,5103,61054,63749,2086,97152,65728,6,6,4,1460,342187,1,16778208,790000,123692,112108,65700,0,57920,0,573364807,63
i,1727695759.419340,172.16.5.2,17568,172.16.1.2,5103,61054,63749,2086,97152,65728,6,6,4,1460,342187,1,16778208,790000,123692,112108,65700,0,63712,0,573364807,63
o,1727695759.419359,172.16.5.2,17568,172.16.1.2,5103,61054,63749,2086,95680,65728,6,6,4,1460,347187,1,16778208,780000,123692,109212,65700,0,60816,0,573364807,63
i,1727695759.419564,172.16.5.2,17568,172.16.1.2,5103,61054,63749,2086,95680,65728,6,6,4,1460,347187,1,16778208,780000,123692,109212,65700,0,63712,0,573364807,63
o,1727695759.419582,172.16.5.2,17568,172.16.1.2,5103,61054,63749,2086,92800,65728,6,6,4,1460,351562,1,16778208,760000,123692,106316,65700,0,60816,0,573364807,63
i,1727695759.420492,172.16.5.2,17568,172.16.1.2,5103,61054,63749,2086,92800,65728,6,6,4,1460,351562,1,16778208,760000,123692,123692,65700,0,63712,0,573364807,63
o,1727695759.420511,172.16.5.2,17568,172.16.1.2,5103,61054,63749,2086,97152,65728,6,6,4,1460,355312,1,16778208,740000,123692,120796,65700,0,60816,0,573364807,63
i,1727695759.420631,172.16.5.2,17568,172.16.1.2,5103,61054,63749,2086,97152,65728,6,6,4,1460,355312,1,16778208,740000,123692,120796,65700,0,63712,0,573364807,63
o,1727695759.420647,172.16.5.2,17568,172.16.1.2,5103,61054,63749,2086,94272,65728,6,6,4,1460,358437,1,16778208,720000,123692,117900,65700,0,60816,0,573364807,63
i,1727695759.420886,172.16.5.2,17568,172.16.1.2,5103,61054,63749,2086,94272,65728,6,6,4,1460,358437,1,16778208,720000,123692,117900,65700,0,63712,0,573364807,63
o,1727695759.420922,172.16.5.2,17568,172.16.1.2,5103,61054,63749,2086,97152,65728,6,6,4,1460,361250,1,16778208,710000,123692,115004,65700,0,60816,0,573364807,63
o,1727695759.421057,172.16.5.2,17568,172.16.1.2,5103,61054,63749,2086,97152,65728,6,6,4,1460,361250,1,16778208,710000,123692,115004,65700,0,62264,0,573364807,63
i,1727695759.421222,172.16.5.2,17568,172.16.1.2,5103,61054,63749,2086,97152,65728,6,6,4,1460,361250,1,16778208,710000,123692,115004,65700,0,63712,0,573364807,63
o,1727695759.421241,172.16.5.2,17568,172.16.1.2,5103,61054,63749,2086,94272,65728,6,6,4,1460,363750,1,16778208,690000,123692,112108,65700,0,60816,0,573364807,63
i,1727695759.422175,172.16.5.2,17568,172.16.1.2,5103,61054,63749,2086,94272,65728,6,6,4,1460,363750,1,16778208,690000,123692,123692,65700,0,63712,0,573364807,63
o,1727695759.422193,172.16.5.2,17568,172.16.1.2,5103,61054,63749,2086,97152,65728,6,6,4,1460,365937,1,16778208,680000,123692,120796,65700,0,60816,0,573364807,63
i,1727695759.422354,172.16.5.2,17568,172.16.1.2,5103,61054,63749,2086,97152,65728,6,6,4,1460,365937,1,16778208,680000,123692,120796,65700,0,63712,0,573364807,63
o,1727695759.422388,172.16.5.2,17568,172.16.1.2,5103,61054,63749,2086,97152,65728,6,6,4,1460,367812,1,16778208,670000,123692,117900,65700,0,60816,0,573364807,63
i,1727695759.859259,172.16.5.2,17568,172.16.1.2,5103,61054,63749,2086,97152,65728,6,6,4,1460,367812,1,16778208,670000,123692,123692,65700,0,63712,0,573364807,63
o,1727695759.859345,172.16.5.2,17568,172.16.1.2,5103,61054,63749,2086,95680,65728,6,6,4,1460,376875,1,16778208,720000,123692,120796,65700,0,60816,0,573364807,63
i,1727695759.860772,172.16.5.2,17568,172.16.1.2,5103,61054,63749,2086,95680,65728,6,6,4,1460,376875,1,16778208,720000,123692,123692,65700,0,63712,0,573364807,63
o,1727695759.860807,172.16.5.2,17568,172.16.1.2,5103,61054,63749,2086,97152,65728,6,6,4,1460,385000,1,16778208,760000,123692,117900,65700,0,57920,0,573364807,63
i,1727695759.861031,172.16.5.2,17568,172.16.1.2,5103,61054,63749,2086,97152,65728,6,6,4,1460,385000,1,16778208,760000,123692,117900,65700,0,63712,0,573364807,63
o,1727695759.861057,172.16.5.2,17568,172.16.1.2,5103,61054,63749,2086,97152,65728,6,6,4,1460,391875,1,16778208,780000,123692,115004,65700,0,60816,0,573364807,63
i,1727695759.861261,172.16.5.2,17568,172.16.1.2,5103,61054,63749,2086,97152,65728,6,6,4,1460,391875,1,16778208,780000,123692,115004,65700,0,63712,0,573364807,63
o,1727695759.861286,172.16.5.2,17568,172.16.1.2,5103,61054,65209,2086,95680,65728,6,6,4,1460,398125,1,16778208,790000,123692,112108,65700,0,60816,0,573364807,63
i,1727695759.861548,172.16.5.2,17568,172.16.1.2,5103,61054,65209,2086,95680,65728,6,6,4,1460,398125,1,16778208,790000,123692,112108,65700,0,65160,0,573364807,63
o,1727695759.861573,172.16.5.2,17568,172.16.1.2,5103,61054,65209,2086,92800,65728,6,6,4,1460,403437,1,16778208,790000,123692,109212,65700,0,62264,0,573364807,63
i,1727695759.861812,172.16.5.2,17568,172.16.1.2,5103,61054,65209,2086,92800,65728,6,6,4,1460,403437,1,16778208,790000,123692,109212,65700,0,65160,0,573364807,63
o,1727695759.861833,172.16.5.2,17568,172.16.1.2,5103,61054,65209,2086,97152,65728,6,6,4,1460,408125,1,16778208,780000,123692,106316,65700,0,62264,0,573364807,63
i,1727695759.862010,172.16.5.2,17568,172.16.1.2,5103,61054,65209,2086,97152,65728,6,6,4,1460,408125,1,16778208,780000,123692,106316,65700,0,65160,0,573364807,63
o,1727695759.862030,172.16.5.2,17568,172.16.1.2,5103,61054,65209,2086,94272,65728,6,6,4,1460,412187,1,16778208,770000,123692,103420,65700,0,62264,0,573364807,63
i,1727695759.863600,172.16.5.2,17568,172.16.1.2,5103,61054,65209,2086,94272,65728,6,6,4,1460,412187,1,16778208,770000,123692,123692,65700,0,65160,0,573364807,63
o,1727695759.863632,172.16.5.2,17568,172.16.1.2,5103,61054,65209,2086,91392,65728,6,6,4,1460,415937,1,16778208,770000,123692,120796,65700,0,62264,0,573364807,63
i,1727695759.872531,172.16.5.2,17568,172.16.1.2,5103,61054,65209,2086,91392,65728,6,6,4,1460,415937,1,16778208,770000,123692,123692,65700,0,65160,0,573364807,63
o,1727695759.872568,172.16.5.2,17568,172.16.1.2,5103,61054,65209,2086,97152,65728,6,6,4,1460,421562,1,16778208,780000,123692,120796,65700,0,62264,0,573364807,63
i,1727695759.872980,172.16.5.2,17568,172.16.1.2,5103,61054,65209,2086,97152,65728,6,6,4,1460,421562,1,16778208,780000,123692,120796,65700,0,65160,0,573364807,63
o,1727695759.873001,172.16.5.2,17568,172.16.1.2,5103,61054,65209,2086,94272,65728,6,6,4,1460,426562,1,16778208,790000,123692,117900,65700,0,62264,0,573364807,63
i,1727695759.873148,172.16.5.2,17568,172.16.1.2,5103,61054,65209,2086,94272,65728,6,6,4,1460,426562,1,16778208,790000,123692,117900,65700,0,65160,0,573364807,63
o,1727695759.873167,172.16.5.2,17568,172.16.1.2,5103,61054,65209,2086,91392,65728,6,6,4,1460,430937,1,16778208,790000,123692,115004,65700,0,62264,0,573364807,63
i,1727695759.873380,172.16.5.2,17568,172.16.1.2,5103,61054,65209,2086,91392,65728,6,6,4,1460,430937,1,16778208,790000,123692,115004,65700,0,65160,0,573364807,63
o,1727695759.873414,172.16.5.2,17568,172.16.1.2,5103,61054,65209,2086,90624,65728,6,6,4,1460,434687,1,16778208,780000,123692,112108,65700,0,62264,0,573364807,63
i,1727695759.874222,172.16.5.2,17568,172.16.1.2,5103,61054,65209,2086,90624,65728,6,6,4,1460,434687,1,16778208,780000,123692,123136,65700,0,65160,0,573364807,63
o,1727695759.874290,172.16.5.2,17568,172.16.1.2,5103,61054,65209,2086,95680,65728,6,6,4,1460,438125,1,16778208,770000,123692,120240,65700,0,62264,0,573364807,63
i,1727695759.874486,172.16.5.2,17568,172.16.1.2,5103,61054,65209,2086,95680,65728,6,6,4,1460,438125,1,16778208,770000,123692,120240,65700,0,65160,0,573364807,63
o,1727695759.874506,172.16.5.2,17568,172.16.1.2,5103,61054,65209,2086,92800,65728,6,6,4,1460,440937,1,16778208,760000,123692,117344,65700,0,62264,0,573364807,63
i,1727695759.874750,172.16.5.2,17568,172.16.1.2,5103,61054,65209,2086,92800,65728,6,6,4,1460,440937,1,16778208,760000,123692,117344,65700,0,65160,0,573364807,63
o,1727695759.874769,172.16.5.2,17568,172.16.1.2,5103,61054,65209,2086,97152,65728,6,6,4,1460,443437,1,16778208,760000,123692,114448,65700,0,62264,0,573364807,63
i,1727695759.874944,172.16.5.2,17568,172.16.1.2,5103,61054,65209,2086,97152,65728,6,6,4,1460,443437,1,16778208,760000,123692,114448,65700,0,65160,0,573364807,63
o,1727695759.874965,172.16.5.2,17568,172.16.1.2,5103,61054,65209,2086,146432,65728,6,6,4,1460,444375,1,16778208,740000,131884,111552,65700,0,62264,0,573364807,63
i,1727695759.875126,172.16.5.2,17568,172.16.1.2,5103,61054,65209,2086,146432,65728,6,6,4,1460,444375,1,16778208,740000,131884,111552,65700,0,65160,0,573364807,63
o,1727695759.875146,172.16.5.2,17568,172.16.1.2,5103,61054,65209,2086,146432,65728,6,6,4,1460,445312,1,16778208,720000,131884,108656,65700,0,62264,0,573364807,63
i,1727695759.875324,172.16.5.2,17568,172.16.1.2,5103,61054,65209,2086,146432,65728,6,6,4,1460,445312,1,16778208,720000,131884,108656,65700,0,65160,0,573364807,63
o,1727695759.875344,172.16.5.2,17568,172.16.1.2,5103,61054,65209,2086,143552,65728,6,6,4,1460,445937,1,16778208,710000,131884,105760,65700,0,62264,0,573364807,63
o,1727695759.875500,172.16.5.2,17568,172.16.1.2,5103,61054,65209,2086,143552,65728,6,6,4,1460,445937,1,16778208,710000,131884,105760,65700,0,63712,0,573364807,63
i,1727695759.875707,172.16.5.2,17568,172.16.1.2,5103,61054,65209,2086,143552,65728,6,6,4,1460,445937,1,16778208,710000,131884,105760,65700,0,65160,0,573364807,63
o,1727695759.875727,172.16.5.2,17568,172.16.1.2,5103,61054,65209,2086,144960,65728,6,6,4,1460,446562,1,16778208,700000,131884,102864,65700,0,62264,0,573364807,63
i,1727695759.875927,172.16.5.2,17568,172.16.1.2,5103,61054,65209,2086,144960,65728,6,6,4,1460,446562,1,16778208,700000,131884,102864,65700,0,65160,0,573364807,63
o,1727695759.875946,172.16.5.2,17568,172.16.1.2,5103,61054,65209,2086,144960,65728,6,6,4,1460,447187,1,16778208,690000,131884,99968,65700,0,62264,0,573364807,63
i,1727695759.876003,172.16.5.2,17568,172.16.1.2,5103,61054,65209,2086,144960,65728,6,6,4,1460,447187,1,16778208,690000,131884,99968,65700,0,65160,0,573364807,63
o,1727695759.876003,172.16.5.2,17568,172.16.1.2,5103,61054,65209,2086,142080,65728,6,6,4,1460,447812,1,16778208,690000,131884,128988,65700,0,62264,0,573364807,63
i,1727695760.319045,172.16.5.2,17568,172.16.1.2,5103,61054,65209,2086,142080,65728,6,6,4,1460,447812,1,16778208,690000,140076,140076,65700,0,65160,0,573364807,63
o,1727695760.319189,172.16.5.2,17568,172.16.1.2,5103,61054,65209,2086,146432,65728,6,6,4,1460,449375,1,16778208,690000,140076,137180,65700,0,62264,0,573364807,63
i,1727695760.319385,172.16.5.2,17568,172.16.1.2,5103,61054,65209,2086,146432,65728,6,6,4,1460,449375,1,16778208,690000,140076,137180,65700,0,65160,0,573364807,63
o,1727695760.319410,172.16.5.2,17568,172.16.1.2,5103,61054,65209,2086,143552,65728,6,6,4,1460,449687,1,16778208,680000,140076,134284,65700,0,62264,0,573364807,63
i,1727695760.320486,172.16.5.2,17568,172.16.1.2,5103,61054,65209,2086,143552,65728,6,6,4,1460,449687,1,16778208,680000,140076,140076,65700,0,65160,0,573364807,63
o,1727695760.320510,172.16.5.2,17568,172.16.1.2,5103,61054,65209,2086,146432,65728,6,6,4,1460,451250,1,16778208,690000,140076,137180,65700,0,62264,0,573364807,63
i,1727695760.320679,172.16.5.2,17568,172.16.1.2,5103,61054,65209,2086,146432,65728,6,6,4,1460,451250,1,16778208,690000,140076,137180,65700,0,65160,0,573364807,63
o,1727695760.320696,172.16.5.2,17568,172.16.1.2,5103,61054,65209,2086,143552,65728,6,6,4,1460,452500,1,16778208,690000,140076,134284,65700,0,62264,0,573364807,63
i,1727695760.320888,172.16.5.2,17568,172.16.1.2,5103,61054,65209,2086,143552,65728,6,6,4,1460,452500,1,16778208,690000,140076,134284,65700,0,65160,0,573364807,63
o,1727695760.320905,172.16.5.2,17568,172.16.1.2,5103,61054,66669,2086,140672,65728,6,6,4,1460,453437,1,16778208,690000,140076,131388,65700,0,62264,0,573364807,63
i,1727695760.321045,172.16.5.2,17568,172.16.1.2,5103,61054,66669,2086,140672,65728,6,6,4,1460,453437,1,16778208,690000,148268,131388,65700,0,66608,0,573364807,63
o,1727695760.321062,172.16.5.2,17568,172.16.1.2,5103,61054,66669,2086,146432,65728,6,6,4,1460,454375,1,16778208,690000,148268,128492,65700,0,63712,0,573364807,63
i,1727695760.321232,172.16.5.2,17568,172.16.1.2,5103,61054,66669,2086,146432,65728,6,6,4,1460,454375,1,16778208,690000,148268,128492,65700,0,66608,0,573364807,63
o,1727695760.321251,172.16.5.2,17568,172.16.1.2,5103,61054,66669,2086,143552,65728,6,6,4,1460,455312,1,16778208,690000,148268,125596,65700,0,63712,0,573364807,63
i,1727695760.322431,172.16.5.2,17568,172.16.1.2,5103,61054,66669,2086,143552,65728,6,6,4,1460,455312,1,16778208,690000,148268,148268,65700,0,66608,0,573364807,63
o,1727695760.322451,172.16.5.2,17568,172.16.1.2,5103,61054,66669,2086,144960,65728,6,6,4,1460,455937,1,16778208,690000,148268,145372,65700,0,63712,0,573364807,63
i,1727695760.322638,172.16.5.2,17568,172.16.1.2,5103,61054,66669,2086,144960,65728,6,6,4,1460,455937,1,16778208,690000,148268,145372,65700,0,66608,0,573364807,63
o,1727695760.322655,172.16.5.2,17568,172.16.1.2,5103,61054,66669,2086,142080,65728,6,6,4,1460,456562,1,16778208,680000,148268,142476,65700,0,63712,0,573364807,63
i,1727695760.322805,172.16.5.2,17568,172.16.1.2,5103,61054,66669,2086,142080,65728,6,6,4,1460,456562,1,16778208,680000,148268,142476,65700,0,66608,0,573364807,63
o,1727695760.322823,172.16.5.2,17568,172.16.1.2,5103,61054,66669,2086,146432,65728,6,6,4,1460,457187,1,16778208,680000,148268,139580,65700,0,63712,0,573364807,63
i,1727695760.323000,172.16.5.2,17568,172.16.1.2,5103,61054,66669,2086,146432,65728,6,6,4,1460,457187,1,16778208,680000,148268,139580,65700,0,66608,0,573364807,63
o,1727695760.323017,172.16.5.2,17568,172.16.1.2,5103,61054,66669,2086,146432,65728,6,6,4,1460,455312,1,16778208,690000,148268,136684,65700,0,63712,0,573364807,63
i,1727695760.323201,172.16.5.2,17568,172.16.1.2,5103,61054,66669,2086,146432,65728,6,6,4,1460,455312,1,16778208,690000,148268,136684,65700,0,66608,0,573364807,63
o,1727695760.323217,172.16.5.2,17568,172.16.1.2,5103,61054,66669,2086,146432,65728,6,6,4,1460,453437,1,16778208,690000,148268,133788,65700,0,63712,0,573364807,63
i,1727695760.323383,172.16.5.2,17568,172.16.1.2,5103,61054,66669,2086,146432,65728,6,6,4,1460,453437,1,16778208,690000,148268,133788,65700,0,66608,0,573364807,63
o,1727695760.323399,172.16.5.2,17568,172.16.1.2,5103,61054,66669,2086,143552,65728,6,6,4,1460,451875,1,16778208,690000,148268,130892,65700,0,63712,0,573364807,63
i,1727695760.328379,172.16.5.2,17568,172.16.1.2,5103,61054,66669,2086,143552,65728,6,6,4,1460,451875,1,16778208,690000,156460,156460,65700,0,66608,0,573364807,63
o,1727695760.328405,172.16.5.2,17568,172.16.1.2,5103,61054,66669,2086,146432,65728,6,6,4,1460,450625,1,16778208,690000,156460,153564,65700,0,63712,0,573364807,63
i,1727695760.328560,172.16.5.2,17568,172.16.1.2,5103,61054,66669,2086,146432,65728,6,6,4,1460,450625,1,16778208,690000,156460,153564,65700,0,66608,0,573364807,63
o,1727695760.328583,172.16.5.2,17568,172.16.1.2,5103,61054,66669,2086,144960,65728,6,6,4,1460,449375,1,16778208,690000,156460,150668,65700,0,63712,0,573364807,63
i,1727695760.328745,172.16.5.2,17568,172.16.1.2,5103,61054,66669,2086,144960,65728,6,6,4,1460,449375,1,16778208,690000,156460,150668,65700,0,66608,0,573364807,63
o,1727695760.328761,172.16.5.2,17568,172.16.1.2,5103,61054,66669,2086,146432,65728,6,6,4,1460,448437,1,16778208,690000,156460,147772,65700,0,63712,0,573364807,63
i,1727695760.328914,172.16.5.2,17568,172.16.1.2,5103,61054,66669,2086,146432,65728,6,6,4,1460,448437,1,16778208,690000,156460,147772,65700,0,66608,0,573364807,63
o,1727695760.328931,172.16.5.2,17568,172.16.1.2,5103,61054,66669,2086,143552,65728,6,6,4,1460,447500,1,16778208,690000,156460,144876,65700,0,63712,0,573364807,63
i,1727695760.329052,172.16.5.2,17568,172.16.1.2,5103,61054,66669,2086,143552,65728,6,6,4,1460,447500,1,16778208,690000,156460,144876,65700,0,66608,0,573364807,63
o,1727695760.329068,172.16.5.2,17568,172.16.1.2,5103,61054,66669,2086,146432,65728,6,6,4,1460,446562,1,16778208,680000,156460,141980,65700,0,63712,0,573364807,63
i,1727695760.329215,172.16.5.2,17568,172.16.1.2,5103,61054,66669,2086,146432,65728,6,6,4,1460,446562,1,16778208,680000,156460,141980,65700,0,66608,0,573364807,63
o,1727695760.329232,172.16.5.2,17568,172.16.1.2,5103,61054,66669,2086,143552,65728,6,6,4,1460,445937,1,16778208,680000,156460,139084,65700,0,63712,0,573364807,63
o,1727695760.329357,172.16.5.2,17568,172.16.1.2,5103,61054,66669,2086,143552,65728,6,6,4,1460,445937,1,16778208,680000,156460,139084,65700,0,65160,0,573364807,63
i,1727695760.329603,172.16.5.2,17568,172.16.1.2,5103,61054,66669,2086,143552,65728,6,6,4,1460,445937,1,16778208,680000,156460,139084,65700,0,66608,0,573364807,63
o,1727695760.329619,172.16.5.2,17568,172.16.1.2,5103,61054,66669,2086,144960,65728,6,6,4,1460,445312,1,16778208,670000,156460,136188,65700,0,63712,0,573364807,63
i,1727695760.329741,172.16.5.2,17568,172.16.1.2,5103,61054,66669,2086,144960,65728,6,6,4,1460,445312,1,16778208,670000,156460,136188,65700,0,66608,0,573364807,63
o,1727695760.329767,172.16.5.2,17568,172.16.1.2,5103,61054,66669,2086,146432,65728,6,6,4,1460,444687,1,16778208,670000,156460,133292,65700,0,63712,0,573364807,63
i,1727695760.329889,172.16.5.2,17568,172.16.1.2,5103,61054,66669,2086,146432,65728,6,6,4,1460,444687,1,16778208,670000,156460,133292,65700,0,66608,0,573364807,63
o,1727695760.329906,172.16.5.2,17568,172.16.1.2,5103,61054,66669,2086,143552,65728,6,6,4,1460,444375,1,16778208,660000,156460,130396,65700,0,63712,0,573364807,63
i,1727695760.330038,172.16.5.2,17568,172.16.1.2,5103,61054,66669,2086,143552,65728,6,6,4,1460,444375,1,16778208,660000,156460,130396,65700,0,66608,0,573364807,63
o,1727695760.330054,172.16.5.2,17568,172.16.1.2,5103,61054,66669,2086,147840,65728,6,6,4,1460,444062,1,16778208,660000,156460,128948,65700,0,65160,0,573364807,63
o,1727695760.482394,10.0.2.15,22,10.0.2.2,57953,1073725440,14600,1026,65535,65700,0,0,4,1460,312,0,16777220,240000,33580,1356,65700,0,0,0,2045767904,63
i,1727695760.483272,10.0.2.15,22,10.0.2.2,57953,1073725440,14600,1026,65535,65700,0,0,4,1460,312,0,16777220,240000,33580,1356,65700,0,1356,0,2045767904,63
i,1727695760.760200,172.16.5.2,17568,172.16.1.2,5103,61054,66669,2086,147840,65728,6,6,4,1460,444062,1,16778208,660000,156460,156460,65700,0,66608,0,573364807,63
o,1727695760.760476,172.16.5.2,17568,172.16.1.2,5103,61054,66669,2086,221760,65728,6,6,4,1460,443750,1,16778208,660000,156460,155012,65700,0,65160,0,573364807,63
i,1727695760.771425,172.16.5.2,17568,172.16.1.2,5103,61054,66669,2086,221760,65728,6,6,4,1460,443750,1,16778208,660000,156460,155012,65700,0,66608,0,573364807,63
o,1727695760.771515,172.16.5.2,17568,172.16.1.2,5103,61054,66669,2086,220352,65728,6,6,4,1460,445937,1,16778208,670000,156460,152116,65700,0,63712,0,573364807,63
i,1727695760.771696,172.16.5.2,17568,172.16.1.2,5103,61054,66669,2086,220352,65728,6,6,4,1460,445937,1,16778208,670000,156460,152116,65700,0,66608,0,573364807,63
o,1727695760.771716,172.16.5.2,17568,172.16.1.2,5103,61054,66669,2086,217472,65728,6,6,4,1460,447812,1,16778208,680000,156460,149220,65700,0,63712,0,573364807,63
i,1727695760.772522,172.16.5.2,17568,172.16.1.2,5103,61054,66669,2086,217472,65728,6,6,4,1460,447812,1,16778208,680000,156460,155744,65700,0,66608,0,573364807,63
o,1727695760.772600,172.16.5.2,17568,172.16.1.2,5103,61054,66669,2086,221760,65728,6,6,4,1460,448125,1,16778208,680000,156460,151400,65700,0,62264,0,573364807,63
i,1727695760.772751,172.16.5.2,17568,172.16.1.2,5103,61054,66669,2086,221760,65728,6,6,4,1460,448125,1,16778208,680000,156460,151400,65700,0,66608,0,573364807,63
o,1727695760.772770,172.16.5.2,17568,172.16.1.2,5103,61054,66669,2086,220352,65728,6,6,4,1460,448437,1,16778208,670000,156460,148504,65700,0,63712,0,573364807,63
i,1727695760.773551,172.16.5.2,17568,172.16.1.2,5103,61054,66669,2086,220352,65728,6,6,4,1460,448437,1,16778208,670000,156460,156460,65700,0,66608,0,573364807,63
o,1727695760.773628,172.16.5.2,17568,172.16.1.2,5103,61054,68129,2086,217472,65728,6,6,4,1460,448750,1,16778208,670000,156460,153564,65700,0,63712,0,573364807,63
i,1727695760.773829,172.16.5.2,17568,172.16.1.2,5103,61054,68129,2086,217472,65728,6,6,4,1460,448750,1,16778208,670000,156460,153564,65700,0,68056,0,573364807,63
o,1727695760.773849,172.16.5.2,17568,172.16.1.2,5103,61054,68129,2086,220352,65728,6,6,4,1460,449062,1,16778208,670000,156460,150668,65700,0,65160,0,573364807,63
i,1727695760.775140,172.16.5.2,17568,172.16.1.2,5103,61054,68129,2086,220352,65728,6,6,4,1460,449062,1,16778208,670000,156460,156460,65700,0,68056,0,573364807,63
o,1727695760.775162,172.16.5.2,17568,172.16.1.2,5103,61054,68129,2086,218880,65728,6,6,4,1460,449375,1,16778208,660000,156460,153564,65700,0,65160,0,573364807,63
i,1727695760.775314,172.16.5.2,17568,172.16.1.2,5103,61054,68129,2086,218880,65728,6,6,4,1460,449375,1,16778208,660000,156460,153564,65700,0,68056,0,573364807,63
o,1727695760.775333,172.16.5.2,17568,172.16.1.2,5103,61054,68129,2086,216000,65728,6,6,4,1460,449687,1,16778208,660000,156460,150668,65700,0,65160,0,573364807,63
i,1727695760.775536,172.16.5.2,17568,172.16.1.2,5103,61054,68129,2086,216000,65728,6,6,4,1460,449687,1,16778208,660000,156460,150668,65700,0,68056,0,573364807,63
o,1727695760.775556,172.16.5.2,17568,172.16.1.2,5103,61054,68129,2086,213120,65728,6,6,4,1460,450000,1,16778208,660000,156460,147772,65700,0,65160,0,573364807,63
i,1727695760.775753,172.16.5.2,17568,172.16.1.2,5103,61054,68129,2086,213120,65728,6,6,4,1460,450000,1,16778208,660000,156460,147772,65700,0,68056,0,573364807,63
o,1727695760.775791,172.16.5.2,17568,172.16.1.2,5103,61054,68129,2086,210240,65728,6,6,4,1460,450000,1,16778208,660000,156460,144876,65700,0,65160,0,573364807,63
i,1727695760.776054,172.16.5.2,17568,172.16.1.2,5103,61054,68129,2086,210240,65728,6,6,4,1460,450000,1,16778208,660000,156460,144876,65700,0,68056,0,573364807,63
o,1727695760.776081,172.16.5.2,17568,172.16.1.2,5103,61054,68129,2086,218880,65728,6,6,4,1460,450000,1,16778208,660000,156460,141980,65700,0,65160,0,573364807,63
i,1727695760.776324,172.16.5.2,17568,172.16.1.2,5103,61054,68129,2086,218880,65728,6,6,4,1460,450000,1,16778208,660000,156460,141980,65700,0,68056,0,573364807,63
o,1727695760.776343,172.16.5.2,17568,172.16.1.2,5103,61054,68129,2086,220352,65728,6,6,4,1460,450000,1,16778208,660000,156460,139084,65700,0,65160,0,573364807,63
i,1727695760.776508,172.16.5.2,17568,172.16.1.2,5103,61054,68129,2086,220352,65728,6,6,4,1460,450000,1,16778208,660000,156460,139084,65700,0,68056,0,573364807,63
o,1727695760.776526,172.16.5.2,17568,172.16.1.2,5103,61054,68129,2086,218880,65728,6,6,4,1460,450000,1,16778208,650000,156460,136188,65700,0,65160,0,573364807,63
i,1727695760.776693,172.16.5.2,17568,172.16.1.2,5103,61054,68129,2086,218880,65728,6,6,4,1460,450000,1,16778208,650000,156460,136188,65700,0,68056,0,573364807,63
o,1727695760.776714,172.16.5.2,17568,172.16.1.2,5103,61054,68129,2086,218880,65728,6,6,4,1460,450000,1,16778208,650000,156460,133292,65700,0,65160,0,573364807,63
i,1727695760.777576,172.16.5.2,17568,172.16.1.2,5103,61054,68129,2086,218880,65728,6,6,4,1460,450000,1,16778208,650000,156460,156460,65700,0,68056,0,573364807,63
o,1727695760.777602,172.16.5.2,17568,172.16.1.2,5103,61054,68129,2086,216000,65728,6,6,4,1460,450000,1,16778208,650000,156460,153564,65700,0,65160,0,573364807,63
i,1727695760.777730,172.16.5.2,17568,172.16.1.2,5103,61054,68129,2086,216000,65728,6,6,4,1460,450000,1,16778208,650000,156460,153564,65700,0,68056,0,573364807,63
o,1727695760.777746,172.16.5.2,17568,172.16.1.2,5103,61054,68129,2086,218880,65728,6,6,4,1460,450000,1,16778208,650000,156460,150668,65700,0,65160,0,573364807,63
i,1727695760.777941,172.16.5.2,17568,172.16.1.2,5103,61054,68129,2086,218880,65728,6,6,4,1460,450000,1,16778208,650000,156460,150668,65700,0,68056,0,573364807,63
o,1727695760.777960,172.16.5.2,17568,172.16.1.2,5103,61054,68129,2086,216000,65728,6,6,4,1460,450000,1,16778208,650000,156460,147772,65700,0,65160,0,573364807,63
i,1727695760.778821,172.16.5.2,17568,172.16.1.2,5103,61054,68129,2086,216000,65728,6,6,4,1460,450000,1,16778208,650000,156460,156460,65700,0,68056,0,573364807,63
o,1727695760.778839,172.16.5.2,17568,172.16.1.2,5103,61054,68129,2086,213120,65728,6,6,4,1460,450000,1,16778208,650000,156460,153564,65700,0,65160,0,573364807,63
o,1727695760.778943,172.16.5.2,17568,172.16.1.2,5103,61054,68129,2086,213120,65728,6,6,4,1460,450000,1,16778208,650000,156460,153564,65700,0,66608,0,573364807,63
i,1727695760.779096,172.16.5.2,17568,172.16.1.2,5103,61054,68129,2086,213120,65728,6,6,4,1460,450000,1,16778208,650000,156460,153564,65700,0,68056,0,573364807,63
o,1727695760.779115,172.16.5.2,17568,172.16.1.2,5103,61054,68129,2086,210240,65728,6,6,4,1460,450000,1,16778208,650000,156460,150668,65700,0,65160,0,573364807,63
i,1727695760.779272,172.16.5.2,17568,172.16.1.2,5103,61054,68129,2086,210240,65728,6,6,4,1460,450000,1,16778208,650000,156460,150668,65700,0,68056,0,573364807,63
o,1727695760.779291,172.16.5.2,17568,172.16.1.2,5103,61054,68129,2086,220352,65728,6,6,4,1460,450000,1,16778208,650000,156460,147772,65700,0,65160,0,573364807,63
i,1727695760.779924,172.16.5.2,17568,172.16.1.2,5103,61054,68129,2086,220352,65728,6,6,4,1460,450000,1,16778208,650000,156460,156460,65700,0,68056,0,573364807,63
o,1727695760.779945,172.16.5.2,17568,172.16.1.2,5103,61054,68129,2086,217472,65728,6,6,4,1460,450000,1,16778208,650000,156460,153564,65700,0,65160,0,573364807,63
i,1727695760.780176,172.16.5.2,17568,172.16.1.2,5103,61054,68129,2086,217472,65728,6,6,4,1460,450000,1,16778208,650000,156460,153564,65700,0,68056,0,573364807,63
o,1727695760.780195,172.16.5.2,17568,172.16.1.2,5103,61054,68129,2086,218880,65728,6,6,4,1460,450000,1,16778208,650000,156460,150668,65700,0,65160,0,573364807,63
i,1727695761.208271,172.16.5.2,17568,172.16.1.2,5103,61054,68129,2086,218880,65728,6,6,4,1460,450000,1,16778208,650000,156460,156460,65700,0,68056,0,573364807,63
o,1727695761.208417,172.16.5.2,17568,172.16.1.2,5103,61054,68129,2086,218880,65728,6,6,4,1460,448750,1,16778208,660000,156460,153564,65700,0,65160,0,573364807,63
i,1727695761.208727,172.16.5.2,17568,172.16.1.2,5103,61054,68129,2086,218880,65728,6,6,4,1460,448750,1,16778208,660000,156460,153564,65700,0,68056,0,573364807,63
o,1727695761.208756,172.16.5.2,17568,172.16.1.2,5103,61054,68129,2086,218880,65728,6,6,4,1460,446562,1,16778208,670000,156460,150668,65700,0,65160,0,573364807,63
i,1727695761.209866,172.16.5.2,17568,172.16.1.2,5103,61054,68129,2086,218880,65728,6,6,4,1460,446562,1,16778208,670000,156460,156460,65700,0,68056,0,573364807,63
o,1727695761.209898,172.16.5.2,17568,172.16.1.2,5103,61054,68129,2086,220352,65728,6,6,4,1460,444687,1,16778208,680000,156460,153564,65700,0,65160,0,573364807,63
i,1727695761.210092,172.16.5.2,17568,172.16.1.2,5103,61054,68129,2086,220352,65728,6,6,4,1460,444687,1,16778208,680000,156460,153564,65700,0,68056,0,573364807,63
o,1727695761.210123,172.16.5.2,17568,172.16.1.2,5103,61054,68129,2086,218880,65728,6,6,4,1460,443125,1,16778208,680000,156460,150668,65700,0,65160,0,573364807,63
i,1727695761.210529,172.16.5.2,17568,172.16.1.2,5103,61054,68129,2086,218880,65728,6,6,4,1460,443125,1,16778208,680000,156460,150668,65700,0,68056,0,573364807,63
o,1727695761.210552,172.16.5.2,17568,172.16.1.2,5103,61054,68129,2086,216000,65728,6,6,4,1460,441562,1,16778208,680000,156460,147772,65700,0,65160,0,573364807,63
i,1727695761.210759,172.16.5.2,17568,172.16.1.2,5103,61054,68129,2086,216000,65728,6,6,4,1460,441562,1,16778208,680000,156460,147772,65700,0,68056,0,573364807,63
o,1727695761.210780,172.16.5.2,17568,172.16.1.2,5103,61054,69589,2086,218880,65728,6,6,4,1460,440312,1,16778208,680000,156460,144876,65700,0,65160,0,573364807,63
i,1727695761.210985,172.16.5.2,17568,172.16.1.2,5103,61054,69589,2086,218880,65728,6,6,4,1460,440312,1,16778208,680000,156460,144876,65700,0,69504,0,573364807,63
o,1727695761.211015,172.16.5.2,17568,172.16.1.2,5103,61054,69589,2086,216000,65728,6,6,4,1460,439062,1,16778208,680000,156460,141980,65700,0,66608,0,573364807,63
i,1727695761.211208,172.16.5.2,17568,172.16.1.2,5103,61054,69589,2086,216000,65728,6,6,4,1460,439062,1,16778208,680000,156460,141980,65700,0,69504,0,573364807,63
o,1727695761.211230,172.16.5.2,17568,172.16.1.2,5103,61054,69589,2086,213120,65728,6,6,4,1460,438125,1,16778208,680000,156460,139084,65700,0,66608,0,573364807,63
i,1727695761.211577,172.16.5.2,17568,172.16.1.2,5103,61054,69589,2086,213120,65728,6,6,4,1460,438125,1,16778208,680000,164652,139084,65700,0,69504,0,573364807,63
o,1727695761.211599,172.16.5.2,17568,172.16.1.2,5103,61054,69589,2086,210240,65728,6,6,4,1460,437187,1,16778208,670000,164652,136188,65700,0,66608,0,573364807,63
i,1727695761.211759,172.16.5.2,17568,172.16.1.2,5103,61054,69589,2086,210240,65728,6,6,4,1460,437187,1,16778208,670000,164652,136188,65700,0,69504,0,573364807,63
o,1727695761.211781,172.16.5.2,17568,172.16.1.2,5103,61054,69589,2086,207360,65728,6,6,4,1460,436562,1,16778208,670000,164652,133292,65700,0,66608,0,573364807,63
i,1727695761.211958,172.16.5.2,17568,172.16.1.2,5103,61054,69589,2086,207360,65728,6,6,4,1460,436562,1,16778208,670000,164652,133292,65700,0,69504,0,573364807,63
o,1727695761.211980,172.16.5.2,17568,172.16.1.2,5103,61054,69589,2086,220352,65728,6,6,4,1460,435937,1,16778208,660000,164652,130396,65700,0,66608,0,573364807,63
i,1727695761.212179,172.16.5.2,17568,172.16.1.2,5103,61054,69589,2086,220352,65728,6,6,4,1460,435937,1,16778208,660000,164652,130396,65700,0,69504,0,573364807,63
o,1727695761.212212,172.16.5.2,17568,172.16.1.2,5103,61054,69589,2086,217472,65728,6,6,4,1460,435312,1,16778208,660000,164652,127500,65700,0,66608,0,573364807,63
i,1727695761.212401,172.16.5.2,17568,172.16.1.2,5103,61054,69589,2086,217472,65728,6,6,4,1460,435312,1,16778208,660000,164652,127500,65700,0,69504,0,573364807,63
o,1727695761.212422,172.16.5.2,17568,172.16.1.2,5103,61054,69589,2086,214592,65728,6,6,4,1460,434687,1,16778208,660000,164652,124604,65700,0,66608,0,573364807,63
i,1727695761.212643,172.16.5.2,17568,172.16.1.2,5103,61054,69589,2086,214592,65728,6,6,4,1460,434687,1,16778208,660000,164652,124604,65700,0,69504,0,573364807,63
o,1727695761.212663,172.16.5.2,17568,172.16.1.2,5103,61054,69589,2086,211712,65728,6,6,4,1460,434375,1,16778208,650000,164652,121708,65700,0,66608,0,573364807,63
i,1727695761.212820,172.16.5.2,17568,172.16.1.2,5103,61054,69589,2086,211712,65728,6,6,4,1460,434375,1,16778208,650000,164652,121708,65700,0,69504,0,573364807,63
o,1727695761.212841,172.16.5.2,17568,172.16.1.2,5103,61054,69589,2086,218880,65728,6,6,4,1460,434062,1,16778208,650000,164652,118812,65700,0,66608,0,573364807,63
i,1727695761.213692,172.16.5.2,17568,172.16.1.2,5103,61054,69589,2086,218880,65728,6,6,4,1460,434062,1,16778208,650000,164652,118812,65700,0,69504,0,573364807,63
o,1727695761.213715,172.16.5.2,17568,172.16.1.2,5103,61054,69589,2086,218880,65728,6,6,4,1460,433750,1,16778208,650000,164652,115916,65700,0,66608,0,573364807,63
i,1727695761.213999,172.16.5.2,17568,172.16.1.2,5103,61054,69589,2086,218880,65728,6,6,4,1460,433750,1,16778208,650000,164652,115916,65700,0,69504,0,573364807,63
o,1727695761.214021,172.16.5.2,17568,172.16.1.2,5103,61054,69589,2086,216000,65728,6,6,4,1460,433437,1,16778208,650000,164652,113020,65700,0,66608,0,573364807,63
i,1727695761.214205,172.16.5.2,17568,172.16.1.2,5103,61054,69589,2086,216000,65728,6,6,4,1460,433437,1,16778208,650000,164652,113020,65700,0,69504,0,573364807,63
o,1727695761.214228,172.16.5.2,17568,172.16.1.2,5103,61054,69589,2086,220352,65728,6,6,4,1460,433125,1,16778208,650000,164652,110124,65700,0,66608,0,573364807,63
i,1727695761.214473,172.16.5.2,17568,172.16.1.2,5103,61054,69589,2086,220352,65728,6,6,4,1460,433125,1,16778208,650000,164652,110124,65700,0,69504,0,573364807,63
o,1727695761.214494,172.16.5.2,17568,172.16.1.2,5103,61054,69589,2086,218880,65728,6,6,4,1460,432812,1,16778208,650000,164652,107228,65700,0,66608,0,573364807,63
o,1727695761.214736,172.16.5.2,17568,172.16.1.2,5103,61054,69589,2086,218880,65728,6,6,4,1460,432812,1,16778208,650000,164652,107228,65700,0,68056,0,573364807,63
i,1727695761.214939,172.16.5.2,17568,172.16.1.2,5103,61054,69589,2086,218880,65728,6,6,4,1460,432812,1,16778208,650000,164652,107228,65700,0,69504,0,573364807,63
o,1727695761.214968,172.16.5.2,17568,172.16.1.2,5103,61054,69589,2086,216000,65728,6,6,4,1460,432500,1,16778208,650000,164652,104332,65700,0,66608,0,573364807,63
i,1727695761.215190,172.16.5.2,17568,172.16.1.2,5103,61054,69589,2086,216000,65728,6,6,4,1460,432500,1,16778208,650000,164652,104332,65700,0,69504,0,573364807,63
o,1727695761.215221,172.16.5.2,17568,172.16.1.2,5103,61054,69589,2086,220352,65728,6,6,4,1460,432187,1,16778208,640000,164652,101436,65700,0,66608,0,573364807,63
i,1727695761.215529,172.16.5.2,17568,172.16.1.2,5103,61054,69589,2086,220352,65728,6,6,4,1460,432187,1,16778208,640000,164652,101436,65700,0,69504,0,573364807,63
o,1727695761.215551,172.16.5.2,17568,172.16.1.2,5103,61054,69589,2086,218880,65728,6,6,4,1460,432187,1,16778208,640000,164652,98540,65700,0,66608,0,573364807,63
i,1727695761.216919,172.16.5.2,17568,172.16.1.2,5103,61054,69589,2086,218880,65728,6,6,4,1460,432187,1,16778208,640000,164652,163736,65700,0,69504,0,573364807,63
o,1727695761.216990,172.16.5.2,17568,172.16.1.2,5103,61054,69589,2086,216000,65728,6,6,4,1460,432187,1,16778208,640000,164652,160840,65700,0,66608,0,573364807,63
i,1727695761.241324,172.16.5.2,17568,172.16.1.2,5103,61054,69589,2086,216000,65728,6,6,4,1460,432187,1,16778208,640000,164652,164652,65700,0,69504,0,573364807,63
o,1727695761.241389,172.16.5.2,17568,172.16.1.2,5103,61054,69589,2086,221760,65728,6,6,4,1460,437187,1,16778208,680000,164652,163204,65700,0,68056,0,573364807,63
i,1727695761.608912,172.16.5.2,17568,172.16.1.2,5103,61054,69589,2086,221760,65728,6,6,4,1460,437187,1,16778208,680000,164652,163204,65700,0,69504,0,573364807,63
o,1727695761.609151,172.16.5.2,17568,172.16.1.2,5103,61054,69589,2086,218880,65728,6,6,4,1460,432812,1,16778208,700000,164652,160308,65700,0,66608,0,573364807,63
i,1727695761.609551,172.16.5.2,17568,172.16.1.2,5103,61054,69589,2086,218880,65728,6,6,4,1460,432812,1,16778208,700000,164652,160308,65700,0,69504,0,573364807,63
o,1727695761.609591,172.16.5.2,17568,172.16.1.2,5103,61054,69589,2086,216000,65728,6,6,4,1460,428750,1,16778208,710000,164652,157412,65700,0,66608,0,573364807,63
i,1727695761.609784,172.16.5.2,17568,172.16.1.2,5103,61054,69589,2086,216000,65728,6,6,4,1460,428750,1,16778208,710000,164652,157412,65700,0,69504,0,573364807,63
o,1727695761.609807,172.16.5.2,17568,172.16.1.2,5103,61054,69589,2086,213120,65728,6,6,4,1460,425312,1,16778208,720000,164652,154516,65700,0,66608,0,573364807,63
i,1727695761.609965,172.16.5.2,17568,172.16.1.2,5103,61054,69589,2086,213120,65728,6,6,4,1460,425312,1,16778208,720000,164652,154516,65700,0,69504,0,573364807,63
o,1727695761.609981,172.16.5.2,17568,172.16.1.2,5103,61054,69589,2086,210240,65728,6,6,4,1460,422187,1,16778208,710000,164652,151620,65700,0,66608,0,573364807,63
i,1727695761.611159,172.16.5.2,17568,172.16.1.2,5103,61054,69589,2086,210240,65728,6,6,4,1460,422187,1,16778208,710000,164652,164652,65700,0,69504,0,573364807,63
