enable_time_secs=1727695926	enable_time_usecs=171670	siftrver=1.3.0	sysname=FreeBSD	sysver=1401000	ipmode=4
o,1727695926.172360,10.0.2.15,22,10.0.2.2,49896,1073725440,17746,1026,65535,65700,0,0,4,1460,312,0,16777220,240000,33580,172,65700,0,0,0,2779947714,63
o,1727695926.172568,10.0.2.15,22,10.0.2.2,49896,1073725440,17746,1026,65535,65700,0,0,4,1460,312,0,16777220,240000,33580,244,65700,0,172,0,2779947714,63
i,1727695926.172965,10.0.2.15,22,10.0.2.2,49896,1073725440,17746,1026,65535,65700,0,0,4,1460,312,0,16777220,240000,33580,244,65700,0,244,0,2779947714,63
i,1727695926.172997,10.0.2.15,22,10.0.2.2,49896,1073725440,17918,1026,65535,65700,0,0,4,1460,312,0,4,240000,33580,72,65700,0,72,0,2779947714,63
i,1727695926.173060,10.0.2.15,22,10.0.2.2,49896,1073725440,17990,1026,65535,65700,0,0,4,1460,312,0,4,240000,33580,0,65700,0,0,0,2779947714,63
i,1727695926.173111,10.0.2.15,22,10.0.2.2,49896,1073725440,17990,1026,65535,65700,0,0,4,1460,312,0,4,240000,33580,0,65700,96,0,0,2779947714,63
o,1727695926.173134,10.0.2.15,22,10.0.2.2,49896,1073725440,17990,1026,65535,65604,0,0,5,1460,312,0,5,240000,33580,0,65700,96,0,0,2779947714,63
o,1727695926.173803,10.0.2.15,22,10.0.2.2,49896,1073725440,17990,1026,65535,65604,0,0,8,1460,312,0,4,240000,33580,0,65700,0,0,0,2779947714,63
i,1727695926.174441,10.0.2.15,22,10.0.2.2,49896,1073725440,17990,1026,65535,65604,0,0,8,1460,312,0,67108884,240000,33580,0,65700,0,1,0,2779947714,63
o,1727695927.318086,10.0.2.15,22,10.0.2.2,57953,1073725440,14600,1026,65535,65700,0,0,4,1460,312,0,16777220,240000,33580,428,65700,0,0,0,2045767904,63
i,1727695927.318707,10.0.2.15,22,10.0.2.2,57953,1073725440,14600,1026,65535,65700,0,0,4,1460,312,0,16777220,240000,33580,428,65700,0,428,0,2045767904,63
o,1727695929.323035,10.0.2.15,22,10.0.2.2,57953,1073725440,14600,1026,65535,65700,0,0,4,1460,312,0,16777220,240000,33580,388,65700,0,0,0,2045767904,63
i,1727695929.324305,10.0.2.15,22,10.0.2.2,57953,1073725440,14600,1026,65535,65700,0,0,4,1460,312,0,16777220,240000,33580,388,65700,0,388,0,2045767904,63
i,1727695929.478526,10.0.2.15,22,10.0.2.2,49882,1073725440,14600,0,65535,65700,0,0,4,1460,312,0,16777216,270000,33580,0,65700,0,0,0,3930706797,63
o,1727695929.489967,10.0.2.15,22,10.0.2.2,49882,1073725440,14600,1026,65535,65700,0,0,4,1460,312,0,16777216,270000,33580,38,65700,42,0,0,3930706797,63
i,1727695929.490529,10.0.2.15,22,10.0.2.2,49882,1073725440,14600,1026,65535,65700,0,0,4,1460,312,0,16777216,270000,33580,38,65700,0,38,0,3930706797,63
i,1727695929.490861,10.0.2.15,22,10.0.2.2,49882,1073725440,14638,1026,65535,65700,0,0,4,1460,312,0,0,230000,33580,0,65700,0,0,0,3930706797,63
i,1727695929.490881,10.0.2.15,22,10.0.2.2,49882,1073725440,14638,1026,65535,65700,0,0,4,1460,312,0,0,230000,33580,0,65700,1460,0,0,3930706797,63
o,1727695929.490903,10.0.2.15,22,10.0.2.2,49882,1073725440,14638,1026,65535,65700,0,0,4,1460,312,0,1,230000,33580,0,65700,1536,0,0,3930706797,63
o,1727695929.491915,10.0.2.15,22,10.0.2.2,49882,1073725440,14638,1026,65535,65700,0,0,4,1460,312,0,16777216,230000,33580,1120,65700,1536,0,0,3930706797,63
i,1727695929.492666,10.0.2.15,22,10.0.2.2,49882,1073725440,14638,1026,65535,65700,0,0,4,1460,312,0,16777216,230000,33580,1120,65700,0,1120,0,3930706797,63
i,1727695929.494003,10.0.2.15,22,10.0.2.2,49882,1073725440,15758,1026,65535,65700,0,0,4,1460,312,0,0,230000,33580,0,65700,0,0,0,3930706797,63
o,1727695929.497829,10.0.2.15,22,10.0.2.2,49882,1073725440,15758,1026,65535,65700,0,0,4,1460,312,0,16777216,230000,33580,492,65700,0,0,0,3930706797,63
i,1727695929.498462,10.0.2.15,22,10.0.2.2,49882,1073725440,15758,1026,65535,65700,0,0,4,1460,312,0,16777216,230000,33580,492,65700,0,492,0,3930706797,63
i,1727695929.503889,10.0.2.15,22,10.0.2.2,49882,1073725440,16250,1026,65535,65700,0,0,4,1460,312,0,0,230000,33580,0,65700,0,0,0,3930706797,63
i,1727695929.503934,10.0.2.15,22,10.0.2.2,49882,1073725440,16250,1026,65535,65700,0,0,4,1460,312,0,0,230000,33580,0,65700,16,0,0,3930706797,63
o,1727695929.503965,10.0.2.15,22,10.0.2.2,49882,1073725440,16250,1026,65535,65700,0,0,4,1460,312,0,1,230000,33580,0,65700,60,0,0,3930706797,63
o,1727695929.504297,10.0.2.15,22,10.0.2.2,49882,1073725440,16250,1026,65535,65700,0,0,4,1460,312,0,16777216,230000,33580,44,65700,0,0,0,3930706797,63
i,1727695929.505550,10.0.2.15,22,10.0.2.2,49882,1073725440,16250,1026,65535,65700,0,0,4,1460,312,0,16777216,230000,33580,44,65700,0,44,0,3930706797,63
i,1727695929.505597,10.0.2.15,22,10.0.2.2,49882,1073725440,16294,1026,65535,65700,0,0,4,1460,312,0,0,230000,33580,0,65700,0,0,0,3930706797,63
o,1727695929.508159,10.0.2.15,22,10.0.2.2,49882,1073725440,16294,1026,65535,65700,0,0,4,1460,312,0,16777216,230000,33580,68,65700,0,0,0,3930706797,63
i,1727695929.508787,10.0.2.15,22,10.0.2.2,49882,1073725440,16294,1026,65535,65700,0,0,4,1460,312,0,16777216,230000,33580,68,65700,0,68,0,3930706797,63
i,1727695929.509310,10.0.2.15,22,10.0.2.2,49882,1073725440,16362,1026,65535,65700,0,0,4,1460,312,0,0,240000,33580,0,65700,0,0,0,3930706797,63
o,1727695929.510792,10.0.2.15,22,10.0.2.2,49882,1073725440,16362,1026,65535,65700,0,0,4,1460,312,0,16777216,240000,33580,332,65700,0,0,0,3930706797,63
i,1727695929.511640,10.0.2.15,22,10.0.2.2,49882,1073725440,16362,1026,65535,65700,0,0,4,1460,312,0,16777216,240000,33580,332,65700,0,332,0,3930706797,63
i,1727695929.513303,10.0.2.15,22,10.0.2.2,49882,1073725440,16694,1026,65535,65700,0,0,4,1460,312,0,0,240000,33580,0,65700,0,0,0,3930706797,63
o,1727695929.532206,10.0.2.15,22,10.0.2.2,49882,1073725440,16694,1026,65535,65700,0,0,4,1460,312,0,16777216,240000,33580,28,65700,0,0,0,3930706797,63
i,1727695929.533036,10.0.2.15,22,10.0.2.2,49882,1073725440,16694,1026,65535,65700,0,0,4,1460,312,0,16777216,240000,33580,28,65700,0,28,0,3930706797,63
i,1727695929.533504,10.0.2.15,22,10.0.2.2,49882,1073725440,16722,1026,65535,65700,0,0,4,1460,312,0,0,240000,33580,0,65700,0,0,0,3930706797,63
o,1727695929.534705,10.0.2.15,22,10.0.2.2,49882,1073725440,16722,1026,65535,65700,0,0,4,1460,312,0,16777216,240000,33580,768,65700,112,0,0,3930706797,63
i,1727695929.535771,10.0.2.15,22,10.0.2.2,49882,1073725440,16722,1026,65535,65700,0,0,4,1460,312,0,16777216,240000,33580,908,65700,112,768,0,3930706797,63
o,1727695929.535793,10.0.2.15,22,10.0.2.2,49882,1073725440,17490,1026,65535,65700,0,0,4,1460,312,0,16777216,240000,33580,140,65700,112,0,0,3930706797,63
i,1727695929.536226,10.0.2.15,22,10.0.2.2,49882,1073725440,17490,1026,65535,65700,0,0,4,1460,312,0,16777216,240000,33580,140,65700,112,140,0,3930706797,63
o,1727695929.536455,10.0.2.15,22,10.0.2.2,49882,1073725440,17630,1026,65535,65700,0,0,4,1460,312,0,16777216,240000,33580,44,65700,0,0,0,3930706797,63
i,1727695929.537018,10.0.2.15,22,10.0.2.2,49882,1073725440,17630,1026,65535,65700,0,0,4,1460,312,0,16777216,240000,33580,44,65700,0,44,0,3930706797,63
i,1727695929.537053,10.0.2.15,22,10.0.2.2,49882,1073725440,17674,1026,65535,65700,0,0,4,1460,312,0,0,240000,33580,0,65700,0,0,0,3930706797,63
o,1727695929.537713,10.0.2.15,22,10.0.2.2,49882,1073725440,17674,1026,65535,65700,0,0,4,1460,312,0,16777220,240000,33580,72,65700,0,0,0,3930706797,63
i,1727695929.538122,10.0.2.15,22,10.0.2.2,49882,1073725440,17674,1026,65535,65700,0,0,4,1460,312,0,16777220,240000,33580,72,65700,0,72,0,3930706797,63
o,1727695929.541901,10.0.2.15,22,10.0.2.2,49882,1073725440,17746,1026,65535,65700,0,0,4,1460,312,0,16777220,240000,33580,104,65700,0,0,0,3930706797,63
i,1727695929.542507,10.0.2.15,22,10.0.2.2,49882,1073725440,17746,1026,65535,65700,0,0,4,1460,312,0,16777220,240000,33580,104,65700,0,104,0,3930706797,63
o,1727695929.542975,10.0.2.15,22,10.0.2.2,49882,1073725440,17850,1026,65535,65700,0,0,4,1460,312,0,16777220,240000,33580,72,65700,0,0,0,3930706797,63
i,1727695929.543854,10.0.2.15,22,10.0.2.2,49882,1073725440,17850,1026,65535,65700,0,0,4,1460,312,0,16777220,240000,33580,72,65700,0,72,0,3930706797,63
i,1727695929.543900,10.0.2.15,22,10.0.2.2,49882,1073725440,17922,1026,65535,65700,0,0,4,1460,312,0,4,240000,33580,0,65700,0,0,0,3930706797,63
i,1727695929.543916,10.0.2.15,22,10.0.2.2,49882,1073725440,17922,1026,65535,65700,0,0,4,1460,312,0,4,240000,33580,0,65700,96,0,0,3930706797,63
o,1727695929.543933,10.0.2.15,22,10.0.2.2,49882,1073725440,17922,1026,65535,65604,0,0,5,1460,312,0,5,240000,33580,0,65700,96,0,0,3930706797,63
o,1727695929.550186,10.0.2.15,22,10.0.2.2,49882,1073725440,17922,1026,65535,65604,0,0,8,1460,312,0,4,240000,33580,0,65700,0,0,0,3930706797,63
i,1727695929.551157,10.0.2.15,22,10.0.2.2,49882,1073725440,17922,1026,65535,65604,0,0,8,1460,312,0,67108884,240000,33580,0,65700,0,1,0,3930706797,63
i,1727695930.647257,10.0.2.15,22,10.0.2.2,49917,1073725440,14600,0,65535,65700,0,0,4,1460,312,0,16777216,270000,33580,0,65700,0,0,0,1175062673,63
o,1727695930.665594,10.0.2.15,22,10.0.2.2,49917,1073725440,14600,1026,65535,65700,0,0,4,1460,312,0,16777216,270000,33580,38,65700,42,0,0,1175062673,63
i,1727695930.666211,10.0.2.15,22,10.0.2.2,49917,1073725440,14600,1026,65535,65700,0,0,4,1460,312,0,16777216,270000,33580,38,65700,0,38,0,1175062673,63
i,1727695930.666301,10.0.2.15,22,10.0.2.2,49917,1073725440,14638,1026,65535,65700,0,0,4,1460,312,0,0,240000,33580,0,65700,0,0,0,1175062673,63
i,1727695930.666334,10.0.2.15,22,10.0.2.2,49917,1073725440,14638,1026,65535,65700,0,0,4,1460,312,0,0,240000,33580,0,65700,1460,0,0,1175062673,63
o,1727695930.666373,10.0.2.15,22,10.0.2.2,49917,1073725440,14638,1026,65535,65700,0,0,4,1460,312,0,1,240000,33580,0,65700,1536,0,0,1175062673,63
o,1727695930.667721,10.0.2.15,22,10.0.2.2,49917,1073725440,14638,1026,65535,65700,0,0,4,1460,312,0,16777216,240000,33580,1120,65700,1536,0,0,1175062673,63
i,1727695930.668304,10.0.2.15,22,10.0.2.2,49917,1073725440,14638,1026,65535,65700,0,0,4,1460,312,0,16777216,240000,33580,1120,65700,0,1120,0,1175062673,63
i,1727695930.670107,10.0.2.15,22,10.0.2.2,49917,1073725440,15758,1026,65535,65700,0,0,4,1460,312,0,0,240000,33580,0,65700,0,0,0,1175062673,63
o,1727695930.674145,10.0.2.15,22,10.0.2.2,49917,1073725440,15758,1026,65535,65700,0,0,4,1460,312,0,16777216,240000,33580,492,65700,0,0,0,1175062673,63
i,1727695930.675449,10.0.2.15,22,10.0.2.2,49917,1073725440,15758,1026,65535,65700,0,0,4,1460,312,0,16777216,240000,33580,492,65700,0,492,0,1175062673,63
i,1727695930.680220,10.0.2.15,22,10.0.2.2,49917,1073725440,16250,1026,65535,65700,0,0,4,1460,312,0,0,240000,33580,0,65700,0,0,0,1175062673,63
i,1727695930.680244,10.0.2.15,22,10.0.2.2,49917,1073725440,16250,1026,65535,65700,0,0,4,1460,312,0,0,240000,33580,0,65700,16,0,0,1175062673,63
o,1727695930.680263,10.0.2.15,22,10.0.2.2,49917,1073725440,16250,1026,65535,65700,0,0,4,1460,312,0,1,240000,33580,0,65700,60,0,0,1175062673,63
o,1727695930.680651,10.0.2.15,22,10.0.2.2,49917,1073725440,16250,1026,65535,65700,0,0,4,1460,312,0,16777216,240000,33580,44,65700,0,0,0,1175062673,63
i,1727695930.681670,10.0.2.15,22,10.0.2.2,49917,1073725440,16250,1026,65535,65700,0,0,4,1460,312,0,16777216,240000,33580,44,65700,0,44,0,1175062673,63
i,1727695930.684169,10.0.2.15,22,10.0.2.2,49917,1073725440,16294,1026,65535,65700,0,0,4,1460,312,0,0,240000,33580,0,65700,0,0,0,1175062673,63
o,1727695930.686579,10.0.2.15,22,10.0.2.2,49917,1073725440,16294,1026,65535,65700,0,0,4,1460,312,0,16777216,240000,33580,68,65700,0,0,0,1175062673,63
i,1727695930.687232,10.0.2.15,22,10.0.2.2,49917,1073725440,16294,1026,65535,65700,0,0,4,1460,312,0,16777216,240000,33580,68,65700,0,68,0,1175062673,63
i,1727695930.687259,10.0.2.15,22,10.0.2.2,49917,1073725440,16362,1026,65535,65700,0,0,4,1460,312,0,0,240000,33580,0,65700,0,0,0,1175062673,63
o,1727695930.688824,10.0.2.15,22,10.0.2.2,49917,1073725440,16362,1026,65535,65700,0,0,4,1460,312,0,16777216,240000,33580,332,65700,0,0,0,1175062673,63
i,1727695930.689403,10.0.2.15,22,10.0.2.2,49917,1073725440,16362,1026,65535,65700,0,0,4,1460,312,0,16777216,240000,33580,332,65700,0,332,0,1175062673,63
i,1727695930.691576,10.0.2.15,22,10.0.2.2,49917,1073725440,16694,1026,65535,65700,0,0,4,1460,312,0,0,240000,33580,0,65700,0,0,0,1175062673,63
o,1727695930.708989,10.0.2.15,22,10.0.2.2,49917,1073725440,16694,1026,65535,65700,0,0,4,1460,312,0,16777216,240000,33580,28,65700,0,0,0,1175062673,63
i,1727695930.709837,10.0.2.15,22,10.0.2.2,49917,1073725440,16694,1026,65535,65700,0,0,4,1460,312,0,16777216,240000,33580,28,65700,0,28,0,1175062673,63
i,1727695930.709879,10.0.2.15,22,10.0.2.2,49917,1073725440,16722,1026,65535,65700,0,0,4,1460,312,0,0,240000,33580,0,65700,0,0,0,1175062673,63
o,1727695930.712775,10.0.2.15,22,10.0.2.2,49917,1073725440,16722,1026,65535,65700,0,0,4,1460,312,0,16777216,240000,33580,768,65700,112,0,0,1175062673,63
i,1727695930.713240,10.0.2.15,22,10.0.2.2,49917,1073725440,16722,1026,65535,65700,0,0,4,1460,312,0,16777216,240000,33580,908,65700,112,768,0,1175062673,63
o,1727695930.713268,10.0.2.15,22,10.0.2.2,49917,1073725440,17490,1026,65535,65700,0,0,4,1460,312,0,16777216,240000,33580,140,65700,112,0,0,1175062673,63
i,1727695930.713762,10.0.2.15,22,10.0.2.2,49917,1073725440,17490,1026,65535,65700,0,0,4,1460,312,0,16777216,240000,33580,140,65700,112,140,0,1175062673,63
o,1727695930.714224,10.0.2.15,22,10.0.2.2,49917,1073725440,17630,1026,65535,65700,0,0,4,1460,312,0,16777216,240000,33580,44,65700,0,0,0,1175062673,63
i,1727695930.714802,10.0.2.15,22,10.0.2.2,49917,1073725440,17630,1026,65535,65700,0,0,4,1460,312,0,16777216,240000,33580,44,65700,0,44,0,1175062673,63
i,1727695930.714828,10.0.2.15,22,10.0.2.2,49917,1073725440,17674,1026,65535,65700,0,0,4,1460,312,0,0,240000,33580,0,65700,0,0,0,1175062673,63
o,1727695930.715825,10.0.2.15,22,10.0.2.2,49917,1073725440,17674,1026,65535,65700,0,0,4,1460,312,0,16777220,240000,33580,72,65700,0,0,0,1175062673,63
i,1727695930.716259,10.0.2.15,22,10.0.2.2,49917,1073725440,17674,1026,65535,65700,0,0,4,1460,312,0,16777220,240000,33580,72,65700,0,72,0,1175062673,63
o,1727695930.811446,172.16.5.2,44683,172.16.1.2,5103,64277,14480,2082,65535,65700,6,6,4,1460,285937,1,16778209,950000,33580,0,65700,0,0,0,515173756,63
o,1727695930.811943,172.16.5.2,44683,172.16.1.2,5103,64277,14480,2082,65535,65700,6,6,4,1460,285937,1,16778212,950000,33580,37,65700,0,0,0,515173756,63
i,1727695930.917017,172.16.5.2,44683,172.16.1.2,5103,64277,14480,2082,65535,65700,6,6,4,1460,285937,1,16778212,950000,33580,37,65700,0,37,0,515173756,63
o,1727695930.917253,172.16.5.2,44683,172.16.1.2,5103,64277,14517,3106,65728,65728,6,6,4,1460,262812,1,16778212,1000000,33580,4,65700,0,0,0,515173756,63
o,1727695930.917413,172.16.5.2,44683,172.16.1.2,5103,64277,14517,3106,65728,65728,6,6,4,1460,262812,1,16778212,1000000,33580,130,65700,0,4,0,515173756,63
i,1727695931.039754,172.16.5.2,44683,172.16.1.2,5103,64277,14517,3106,65728,65728,6,6,4,1460,262812,1,16778212,1000000,33580,130,65700,0,130,0,515173756,63
i,1727695931.040261,172.16.5.2,44683,172.16.1.2,5103,64277,14647,3106,65600,65728,6,6,4,1460,245000,1,996,990000,33580,0,65700,0,0,0,515173756,63
o,1727695931.084147,172.16.5.2,44683,172.16.1.2,5103,64277,14647,3106,65728,65728,6,6,4,1460,245000,1,997,990000,33580,0,65700,0,0,0,515173756,63
o,1727695931.123423,172.16.5.2,46970,172.16.1.2,5103,64277,14480,2082,65535,65700,6,6,4,1460,284687,1,16778209,960000,33580,0,65700,0,0,0,773976293,63
o,1727695931.123651,172.16.5.2,46970,172.16.1.2,5103,64277,14480,2082,65535,65700,6,6,4,1460,284687,1,16778208,960000,33580,37,65700,0,0,0,773976293,63
i,1727695931.218254,172.16.5.2,44683,172.16.1.2,5103,64277,14647,3106,65728,65728,6,6,4,1460,245000,1,996,990000,33580,0,65700,0,0,0,515173756,63
i,1727695931.218335,172.16.5.2,44683,172.16.1.2,5103,64277,14647,3106,65728,65728,6,6,4,1460,245000,1,996,990000,33580,0,65700,1,0,0,515173756,63
o,1727695931.218358,172.16.5.2,44683,172.16.1.2,5103,64277,14647,3106,65728,65728,6,6,4,1460,245000,1,997,990000,33580,0,65700,2,0,0,515173756,63
o,1727695931.218973,172.16.5.2,46970,172.16.1.2,5103,64277,14480,2086,65535,65700,6,6,4,1460,284687,1,16778208,960000,33580,33580,65700,0,37,0,773976293,63
i,1727695931.249115,172.16.5.2,46970,172.16.1.2,5103,64277,14480,2086,65535,65700,6,6,4,1460,284687,1,16778208,960000,33580,33580,65700,0,13069,0,773976293,63
o,1727695931.249345,172.16.5.2,46970,172.16.1.2,5103,64277,14517,2086,65728,65728,6,6,4,1460,264375,1,16778208,980000,33580,33543,65700,0,13032,0,773976293,63
i,1727695931.338378,172.16.5.2,46970,172.16.1.2,5103,64277,14517,2086,65728,65728,6,6,4,1460,264375,1,16778208,980000,33580,33543,65700,0,14480,0,773976293,63
o,1727695931.338415,172.16.5.2,46970,172.16.1.2,5103,64277,17413,2086,62848,65728,6,6,4,1460,245312,1,16778208,990000,33580,30647,65700,0,11584,0,773976293,63
o,1727695931.343236,10.0.2.15,22,10.0.2.2,57953,1073725440,14600,1030,65535,65700,0,0,4,1460,312,0,16777220,240000,33580,1660,65700,0,0,0,2045767904,63
o,1727695931.344244,10.0.2.15,22,10.0.2.2,57953,1073725440,14600,1026,65535,65700,0,0,4,1460,312,0,16777220,240000,33580,1660,65700,0,1460,0,2045767904,63
i,1727695931.344415,10.0.2.15,22,10.0.2.2,57953,1073725440,14600,1026,65535,65700,0,0,4,1460,312,0,16777220,240000,33580,1660,65700,0,1660,0,2045767904,63
i,1727695931.344806,10.0.2.15,22,10.0.2.2,57953,1073725440,16060,1026,65535,65700,0,0,4,1460,312,0,4,240000,33580,200,65700,0,200,0,2045767904,63
i,1727695931.351910,172.16.5.2,46970,172.16.1.2,5103,64277,17413,2086,62848,65728,6,6,4,1460,245312,1,16778208,990000,41772,41772,65700,0,17376,0,773976293,63
o,1727695931.351950,172.16.5.2,46970,172.16.1.2,5103,64277,20309,2086,64256,65728,6,6,4,1460,230937,1,16778208,950000,41772,38876,65700,0,14480,0,773976293,63
i,1727695931.352167,172.16.5.2,46970,172.16.1.2,5103,64277,20309,2086,64256,65728,6,6,4,1460,230937,1,16778208,950000,49964,38876,65700,0,20272,0,773976293,63
o,1727695931.352193,172.16.5.2,46970,172.16.1.2,5103,64277,23205,2086,62848,65728,6,6,4,1460,218437,1,16778208,910000,49964,35980,65700,0,17376,0,773976293,63
i,1727695931.353941,172.16.5.2,46970,172.16.1.2,5103,64277,23205,2086,62848,65728,6,6,4,1460,218437,1,16778208,910000,49964,49964,65700,0,23168,0,773976293,63
o,1727695931.353966,172.16.5.2,46970,172.16.1.2,5103,64277,26101,2086,64256,65728,6,6,4,1460,207500,1,16778208,860000,49964,47068,65700,0,20272,0,773976293,63
i,1727695931.354119,172.16.5.2,46970,172.16.1.2,5103,64277,26101,2086,64256,65728,6,6,4,1460,207500,1,16778208,860000,58156,47068,65700,0,26064,0,773976293,63
o,1727695931.354138,172.16.5.2,46970,172.16.1.2,5103,64277,28997,2086,64256,65728,6,6,4,1460,197812,1,16778208,820000,58156,44172,65700,0,23168,0,773976293,63
o,1727695931.354273,172.16.5.2,46970,172.16.1.2,5103,64277,28997,2086,64256,65728,6,6,4,1460,197812,1,16778208,820000,58156,44172,65700,0,24616,0,773976293,63
i,1727695931.471168,172.16.5.2,46970,172.16.1.2,5103,64277,28997,2086,64256,65728,6,6,4,1460,197812,1,16778208,820000,58156,58156,65700,0,28960,0,773976293,63
o,1727695931.471388,172.16.5.2,46970,172.16.1.2,5103,64277,31893,2086,62848,65728,6,6,4,1460,190625,1,16778208,760000,66348,55260,65700,0,26064,0,773976293,63
i,1727695931.471546,172.16.5.2,46970,172.16.1.2,5103,64277,31893,2086,62848,65728,6,6,4,1460,190625,1,16778208,760000,66348,55260,65700,0,31856,0,773976293,63
o,1727695931.471565,172.16.5.2,46970,172.16.1.2,5103,64277,34789,2086,64256,65728,6,6,4,1460,184375,1,16778208,710000,66348,52364,65700,0,28960,0,773976293,63
i,1727695931.487528,172.16.5.2,46970,172.16.1.2,5103,64277,34789,2086,64256,65728,6,6,4,1460,184375,1,16778208,710000,74540,74540,65700,0,34752,0,773976293,63
o,1727695931.487565,172.16.5.2,46970,172.16.1.2,5103,64277,37685,2086,64256,65728,6,6,4,1460,177812,1,16778208,680000,74540,71644,65700,0,31856,0,773976293,63
i,1727695931.487775,172.16.5.2,46970,172.16.1.2,5103,64277,37685,2086,64256,65728,6,6,4,1460,177812,1,16778208,680000,82732,71644,65700,0,37648,0,773976293,63
o,1727695931.487794,172.16.5.2,46970,172.16.1.2,5103,64277,40581,2086,64256,65728,6,6,4,1460,171875,1,16778208,640000,82732,68748,65700,0,34752,0,773976293,63
i,1727695931.487947,172.16.5.2,46970,172.16.1.2,5103,64277,40581,2086,64256,65728,6,6,4,1460,171875,1,16778208,640000,82732,68748,65700,0,40544,0,773976293,63
o,1727695931.487966,172.16.5.2,46970,172.16.1.2,5103,64277,43477,2086,61376,65728,6,6,4,1460,166875,1,16778208,610000,82732,65852,65700,0,37648,0,773976293,63
i,1727695931.539462,172.16.5.2,46970,172.16.1.2,5103,64277,43477,2086,61376,65728,6,6,4,1460,166875,1,16778208,610000,82732,82732,65700,0,43440,0,773976293,63
o,1727695931.539561,172.16.5.2,46970,172.16.1.2,5103,64277,46373,2086,62848,65728,6,6,4,1460,168750,1,16778208,570000,82732,79836,65700,0,40544,0,773976293,63
i,1727695931.539874,172.16.5.2,46970,172.16.1.2,5103,64277,46373,2086,62848,65728,6,6,4,1460,168750,1,16778208,570000,82732,79836,65700,0,46336,0,773976293,63
o,1727695931.539935,172.16.5.2,46970,172.16.1.2,5103,64277,49269,2086,59968,65728,6,6,4,1460,170312,1,16778208,530000,82732,76940,65700,0,43440,0,773976293,63
i,1727695931.541077,172.16.5.2,46970,172.16.1.2,5103,64277,49269,2086,59968,65728,6,6,4,1460,170312,1,16778208,530000,82732,82732,65700,0,49232,0,773976293,63
o,1727695931.541162,172.16.5.2,46970,172.16.1.2,5103,64277,52165,2086,64256,65728,6,6,4,1460,172812,1,16778208,510000,82732,79836,65700,0,46336,0,773976293,63
i,1727695931.597860,172.16.5.2,46970,172.16.1.2,5103,64277,52165,2086,64256,65728,6,6,4,1460,172812,1,16778208,510000,82732,82732,65700,0,52128,0,773976293,63
o,1727695931.598006,172.16.5.2,46970,172.16.1.2,5103,64277,55061,2086,64256,65728,6,6,4,1460,181250,1,16778208,550000,82732,79836,65700,0,49232,0,773976293,63
o,1727695931.598193,172.16.5.2,46970,172.16.1.2,5103,64277,55061,2086,64256,65728,6,6,4,1460,181250,1,16778208,550000,82732,79836,65700,0,50680,0,773976293,63
i,1727695931.638784,172.16.5.2,46970,172.16.1.2,5103,64277,55061,2086,64256,65728,6,6,4,1460,181250,1,16778208,550000,82732,82732,65700,0,55024,0,773976293,63
o,1727695931.638917,172.16.5.2,46970,172.16.1.2,5103,64277,57957,2086,64256,65728,6,6,4,1460,193750,1,16778208,620000,82732,79836,65700,0,52128,0,773976293,63
i,1727695931.723254,172.16.5.2,46970,172.16.1.2,5103,64277,57957,2086,64256,65728,6,6,4,1460,193750,1,16778208,620000,82732,82732,65700,0,57920,0,773976293,63
o,1727695931.723303,172.16.5.2,46970,172.16.1.2,5103,64277,60853,2086,95680,65728,6,6,4,1460,200937,1,16778208,630000,90924,79836,65700,0,55024,0,773976293,63
i,1727695931.723549,172.16.5.2,46970,172.16.1.2,5103,64277,60853,2086,95680,65728,6,6,4,1460,200937,1,16778208,630000,99116,79836,65700,0,60816,0,773976293,63
o,1727695931.723574,172.16.5.2,46970,172.16.1.2,5103,64277,63749,2086,95680,65728,6,6,4,1460,207187,1,16778208,630000,99116,76940,65700,0,57920,0,773976293,63
i,1727695931.727873,172.16.5.2,46970,172.16.1.2,5103,64277,63749,2086,95680,65728,6,6,4,1460,207187,1,16778208,630000,123692,123692,65700,0,63712,0,773976293,63
o,1727695931.727904,172.16.5.2,46970,172.16.1.2,5103,64277,66645,2086,97152,65728,6,6,4,1460,212812,1,16778208,630000,123692,120796,65700,0,60816,0,773976293,63
i,1727695931.728099,172.16.5.2,46970,172.16.1.2,5103,64277,66645,2086,97152,65728,6,6,4,1460,212812,1,16778208,630000,123692,120796,65700,0,66608,0,773976293,63
o,1727695931.728141,172.16.5.2,46970,172.16.1.2,5103,64277,66645,2086,97152,65728,6,6,4,1460,217500,1,16778208,620000,123692,117900,65700,0,63712,0,773976293,63
i,1727695931.728293,172.16.5.2,46970,172.16.1.2,5103,64277,66645,2086,97152,65728,6,6,4,1460,217500,1,16778208,620000,123692,117900,65700,0,66608,0,773976293,63
o,1727695931.728321,172.16.5.2,46970,172.16.1.2,5103,64277,66645,2086,94272,65728,6,6,4,1460,220312,1,16778208,590000,123692,115004,65700,0,63712,0,773976293,63
i,1727695931.728491,172.16.5.2,46970,172.16.1.2,5103,64277,66645,2086,94272,65728,6,6,4,1460,220312,1,16778208,590000,123692,115004,65700,0,66608,0,773976293,63
o,1727695931.728531,172.16.5.2,46970,172.16.1.2,5103,64277,66645,2086,97152,65728,6,6,4,1460,222812,1,16778208,570000,123692,112108,65700,0,63712,0,773976293,63
i,1727695931.737328,172.16.5.2,46970,172.16.1.2,5103,64277,66645,2086,97152,65728,6,6,4,1460,222812,1,16778208,570000,123692,123692,65700,0,66608,0,773976293,63
o,1727695931.737355,172.16.5.2,46970,172.16.1.2,5103,64277,66645,2086,94272,65728,6,6,4,1460,225000,1,16778208,550000,123692,120796,65700,0,63712,0,773976293,63
i,1727695931.747674,172.16.5.2,46970,172.16.1.2,5103,64277,66645,2086,94272,65728,6,6,4,1460,225000,1,16778208,550000,123692,123692,65700,0,66608,0,773976293,63
o,1727695931.747705,172.16.5.2,46970,172.16.1.2,5103,64277,66645,2086,97152,65728,6,6,4,1460,229375,1,16778208,560000,123692,120796,65700,0,63712,0,773976293,63
i,1727695931.747862,172.16.5.2,46970,172.16.1.2,5103,64277,66645,2086,97152,65728,6,6,4,1460,229375,1,16778208,560000,123692,120796,65700,0,66608,0,773976293,63
o,1727695931.747882,172.16.5.2,46970,172.16.1.2,5103,64277,66645,2086,94272,65728,6,6,4,1460,233437,1,16778208,560000,123692,117900,65700,0,63712,0,773976293,63
i,1727695931.769944,172.16.5.2,46970,172.16.1.2,5103,64277,66645,2086,94272,65728,6,6,4,1460,233437,1,16778208,560000,123692,123692,65700,0,66608,0,773976293,63
o,1727695931.770003,172.16.5.2,46970,172.16.1.2,5103,64277,66645,2086,97152,65728,6,6,4,1460,239375,1,16778208,580000,123692,120796,65700,0,63712,0,773976293,63
i,1727695931.770256,172.16.5.2,46970,172.16.1.2,5103,64277,66645,2086,97152,65728,6,6,4,1460,239375,1,16778208,580000,123692,120796,65700,0,66608,0,773976293,63
o,1727695931.770277,172.16.5.2,46970,172.16.1.2,5103,64277,66645,2086,95680,65728,6,6,4,1460,238437,1,16778208,550000,123692,117900,65700,0,63712,0,773976293,63
i,1727695931.770753,172.16.5.2,46970,172.16.1.2,5103,64277,66645,2086,95680,65728,6,6,4,1460,238437,1,16778208,550000,123692,117900,65700,0,66608,0,773976293,63
o,1727695931.770788,172.16.5.2,46970,172.16.1.2,5103,64277,66645,2086,97152,65728,6,6,4,1460,237500,1,16778208,530000,123692,115004,65700,0,63712,0,773976293,63
i,1727695931.771029,172.16.5.2,46970,172.16.1.2,5103,64277,66645,2086,97152,65728,6,6,4,1460,237500,1,16778208,530000,123692,115004,65700,0,66608,0,773976293,63
o,1727695931.771052,172.16.5.2,46970,172.16.1.2,5103,64277,66645,2086,97152,65728,6,6,4,1460,236562,1,16778208,510000,123692,112108,65700,0,63712,0,773976293,63
i,1727695931.772355,172.16.5.2,46970,172.16.1.2,5103,64277,66645,2086,97152,65728,6,6,4,1460,236562,1,16778208,510000,123692,123692,65700,0,66608,0,773976293,63
o,1727695931.772355,172.16.5.2,46970,172.16.1.2,5103,64277,66645,2086,94272,65728,6,6,4,1460,235937,1,16778208,500000,123692,120796,65700,0,63712,0,773976293,63
i,1727695931.773082,172.16.5.2,46970,172.16.1.2,5103,64277,66645,2086,94272,65728,6,6,4,1460,235937,1,16778208,500000,123692,120796,65700,0,66608,0,773976293,63
o,1727695931.773113,172.16.5.2,46970,172.16.1.2,5103,64277,66645,2086,97152,65728,6,6,4,1460,234062,1,16778208,500000,123692,117900,65700,0,63712,0,773976293,63
i,1727695931.773803,172.16.5.2,46970,172.16.1.2,5103,64277,66645,2086,97152,65728,6,6,4,1460,234062,1,16778208,500000,123692,123692,65700,0,66608,0,773976293,63
o,1727695931.773929,172.16.5.2,46970,172.16.1.2,5103,64277,66645,2086,95680,65728,6,6,4,1460,232500,1,16778208,490000,123692,120796,65700,0,63712,0,773976293,63
i,1727695931.778019,172.16.5.2,46970,172.16.1.2,5103,64277,66645,2086,95680,65728,6,6,4,1460,232500,1,16778208,490000,123692,123692,65700,0,66608,0,773976293,63
o,1727695931.778058,172.16.5.2,46970,172.16.1.2,5103,64277,66645,2086,95680,65728,6,6,4,1460,224687,1,16778208,530000,123692,120796,65700,0,63712,0,773976293,63
o,1727695931.778216,172.16.5.2,46970,172.16.1.2,5103,64277,66645,2086,95680,65728,6,6,4,1460,224687,1,16778208,530000,123692,120796,65700,0,65160,0,773976293,63
i,1727695931.778690,172.16.5.2,46970,172.16.1.2,5103,64277,66645,2086,95680,65728,6,6,4,1460,224687,1,16778208,530000,123692,120796,65700,0,66608,0,773976293,63
o,1727695931.778725,172.16.5.2,46970,172.16.1.2,5103,64277,66645,2086,97152,65728,6,6,4,1460,218125,1,16778208,550000,123692,117900,65700,0,63712,0,773976293,63
i,1727695931.798522,172.16.5.2,46970,172.16.1.2,5103,64277,66645,2086,97152,65728,6,6,4,1460,218125,1,16778208,550000,123692,123692,65700,0,66608,0,773976293,63
o,1727695931.798595,172.16.5.2,46970,172.16.1.2,5103,64277,66645,2086,97152,65728,6,6,4,1460,210937,1,16778208,570000,123692,120796,65700,0,63712,0,773976293,63
i,1727695931.798823,172.16.5.2,46970,172.16.1.2,5103,64277,66645,2086,97152,65728,6,6,4,1460,210937,1,16778208,570000,123692,120796,65700,0,66608,0,773976293,63
o,1727695931.798857,172.16.5.2,46970,172.16.1.2,5103,64277,66645,2086,94272,65728,6,6,4,1460,204687,1,16778208,570000,123692,117900,65700,0,63712,0,773976293,63
i,1727695932.087499,172.16.5.2,46970,172.16.1.2,5103,64277,66645,2086,94272,65728,6,6,4,1460,204687,1,16778208,570000,123692,123692,65700,0,66608,0,773976293,63
o,1727695932.088464,172.16.5.2,46970,172.16.1.2,5103,64277,66645,2086,95680,65728,6,6,4,1460,224375,1,16778208,710000,123692,120796,65700,0,63712,0,773976293,63
i,1727695932.088906,172.16.5.2,46970,172.16.1.2,5103,64277,66645,2086,95680,65728,6,6,4,1460,224375,1,16778208,710000,123692,120796,65700,0,66608,0,773976293,63
o,1727695932.088982,172.16.5.2,46970,172.16.1.2,5103,64277,66645,2086,95680,65728,6,6,4,1460,241562,1,16778208,790000,123692,117900,65700,0,63712,0,773976293,63
i,1727695932.089312,172.16.5.2,46970,172.16.1.2,5103,64277,66645,2086,95680,65728,6,6,4,1460,241562,1,16778208,790000,123692,117900,65700,0,66608,0,773976293,63
o,1727695932.089355,172.16.5.2,46970,172.16.1.2,5103,64277,66645,2086,97152,65728,6,6,4,1460,256562,1,16778208,840000,123692,115004,65700,0,63712,0,773976293,63
i,1727695932.091555,172.16.5.2,46970,172.16.1.2,5103,64277,66645,2086,97152,65728,6,6,4,1460,256562,1,16778208,840000,123692,123692,65700,0,66608,0,773976293,63
o,1727695932.091586,172.16.5.2,46970,172.16.1.2,5103,64277,66645,2086,94272,65728,6,6,4,1460,269687,1,16778208,860000,123692,120796,65700,0,63712,0,773976293,63
i,1727695932.091769,172.16.5.2,46970,172.16.1.2,5103,64277,66645,2086,94272,65728,6,6,4,1460,269687,1,16778208,860000,123692,120796,65700,0,66608,0,773976293,63
o,1727695932.091790,172.16.5.2,46970,172.16.1.2,5103,64277,66645,2086,91392,65728,6,6,4,1460,281250,1,16778208,870000,123692,117900,65700,0,63712,0,773976293,63
i,1727695932.092021,172.16.5.2,46970,172.16.1.2,5103,64277,66645,2086,91392,65728,6,6,4,1460,281250,1,16778208,870000,123692,117900,65700,0,66608,0,773976293,63
o,1727695932.092050,172.16.5.2,46970,172.16.1.2,5103,64277,66645,2086,88512,65728,6,6,4,1460,291250,1,16778208,860000,123692,115004,65700,0,63712,0,773976293,63
i,1727695932.092243,172.16.5.2,46970,172.16.1.2,5103,64277,66645,2086,88512,65728,6,6,4,1460,291250,1,16778208,860000,123692,115004,65700,0,66608,0,773976293,63
o,1727695932.092265,172.16.5.2,46970,172.16.1.2,5103,64277,68105,2086,85632,65728,6,6,4,1460,300000,1,16778208,850000,123692,112108,65700,0,63712,0,773976293,63
i,1727695932.092489,172.16.5.2,46970,172.16.1.2,5103,64277,68105,2086,85632,65728,6,6,4,1460,300000,1,16778208,850000,123692,112108,65700,0,68056,0,773976293,63
o,1727695932.092510,172.16.5.2,46970,172.16.1.2,5103,64277,68105,2086,82752,65728,6,6,4,1460,307500,1,16778208,830000,123692,109212,65700,0,65160,0,773976293,63
i,1727695932.092673,172.16.5.2,46970,172.16.1.2,5103,64277,68105,2086,82752,65728,6,6,4,1460,307500,1,16778208,830000,123692,109212,65700,0,68056,0,773976293,63
o,1727695932.092694,172.16.5.2,46970,172.16.1.2,5103,64277,68105,2086,79872,65728,6,6,4,1460,314062,1,16778208,810000,123692,106316,65700,0,65160,0,773976293,63
i,1727695932.092915,172.16.5.2,46970,172.16.1.2,5103,64277,68105,2086,79872,65728,6,6,4,1460,314062,1,16778208,810000,123692,106316,65700,0,68056,0,773976293,63
o,1727695932.092936,172.16.5.2,46970,172.16.1.2,5103,64277,68105,2086,97152,65728,6,6,4,1460,320000,1,16778208,790000,123692,103420,65700,0,65160,0,773976293,63
i,1727695932.094022,172.16.5.2,46970,172.16.1.2,5103,64277,68105,2086,97152,65728,6,6,4,1460,320000,1,16778208,790000,123692,123692,65700,0,68056,0,773976293,63
o,1727695932.094050,172.16.5.2,46970,172.16.1.2,5103,64277,68105,2086,94272,65728,6,6,4,1460,322500,1,16778208,740000,123692,120796,65700,0,65160,0,773976293,63
i,1727695932.094238,172.16.5.2,46970,172.16.1.2,5103,64277,68105,2086,94272,65728,6,6,4,1460,322500,1,16778208,740000,123692,120796,65700,0,68056,0,773976293,63
o,1727695932.094268,172.16.5.2,46970,172.16.1.2,5103,64277,68105,2086,91392,65728,6,6,4,1460,324687,1,16778208,710000,123692,117900,65700,0,65160,0,773976293,63
i,1727695932.094440,172.16.5.2,46970,172.16.1.2,5103,64277,68105,2086,91392,65728,6,6,4,1460,324687,1,16778208,710000,123692,117900,65700,0,68056,0,773976293,63
o,1727695932.094461,172.16.5.2,46970,172.16.1.2,5103,64277,68105,2086,88512,65728,6,6,4,1460,324375,1,16778208,660000,123692,115004,65700,0,65160,0,773976293,63
i,1727695932.140570,172.16.5.2,46970,172.16.1.2,5103,64277,68105,2086,88512,65728,6,6,4,1460,324375,1,16778208,660000,123692,123136,65700,0,68056,0,773976293,63
o,1727695932.141366,172.16.5.2,46970,172.16.1.2,5103,64277,68105,2086,85632,65728,6,6,4,1460,330312,1,16778208,680000,123692,120240,65700,0,65160,0,773976293,63
i,1727695932.148589,172.16.5.2,46970,172.16.1.2,5103,64277,68105,2086,85632,65728,6,6,4,1460,330312,1,16778208,680000,123692,123692,65700,0,68056,0,773976293,63
o,1727695932.148627,172.16.5.2,46970,172.16.1.2,5103,64277,68105,2086,95680,65728,6,6,4,1460,335312,1,16778208,690000,123692,120796,65700,0,65160,0,773976293,63
i,1727695932.148839,172.16.5.2,46970,172.16.1.2,5103,64277,68105,2086,95680,65728,6,6,4,1460,335312,1,16778208,690000,123692,120796,65700,0,68056,0,773976293,63
o,1727695932.148868,172.16.5.2,46970,172.16.1.2,5103,64277,68105,2086,92800,65728,6,6,4,1460,339687,1,16778208,690000,123692,117900,65700,0,65160,0,773976293,63
i,1727695932.149062,172.16.5.2,46970,172.16.1.2,5103,64277,68105,2086,92800,65728,6,6,4,1460,339687,1,16778208,690000,123692,117900,65700,0,68056,0,773976293,63
o,1727695932.149085,172.16.5.2,46970,172.16.1.2,5103,64277,68105,2086,89920,65728,6,6,4,1460,343750,1,16778208,690000,123692,115004,65700,0,65160,0,773976293,63
i,1727695932.150484,172.16.5.2,46970,172.16.1.2,5103,64277,68105,2086,89920,65728,6,6,4,1460,343750,1,16778208,690000,123692,123692,65700,0,68056,0,773976293,63
o,1727695932.150513,172.16.5.2,46970,172.16.1.2,5103,64277,68105,2086,95680,65728,6,6,4,1460,348437,1,16778208,690000,123692,120796,65700,0,65160,0,773976293,63
i,1727695932.150698,172.16.5.2,46970,172.16.1.2,5103,64277,68105,2086,95680,65728,6,6,4,1460,348437,1,16778208,690000,123692,120796,65700,0,68056,0,773976293,63
o,1727695932.150742,172.16.5.2,46970,172.16.1.2,5103,64277,68105,2086,98560,65728,6,6,4,1460,352500,1,16778208,690000,123692,119348,65700,0,66608,0,773976293,63
i,1727695932.150960,172.16.5.2,46970,172.16.1.2,5103,64277,68105,2086,98560,65728,6,6,4,1460,352500,1,16778208,690000,123692,119348,65700,0,68056,0,773976293,63
o,1727695932.150989,172.16.5.2,46970,172.16.1.2,5103,64277,68105,2086,144960,65728,6,6,4,1460,355937,1,16778208,690000,131884,116452,65700,0,65160,0,773976293,63
o,1727695932.151136,172.16.5.2,46970,172.16.1.2,5103,64277,68105,2086,144960,65728,6,6,4,1460,355937,1,16778208,690000,140076,116452,65700,0,66608,0,773976293,63
i,1727695932.151304,172.16.5.2,46970,172.16.1.2,5103,64277,68105,2086,144960,65728,6,6,4,1460,355937,1,16778208,690000,140076,116452,65700,0,68056,0,773976293,63
o,1727695932.151324,172.16.5.2,46970,172.16.1.2,5103,64277,68105,2086,142080,65728,6,6,4,1460,359062,1,16778208,680000,140076,113556,65700,0,65160,0,773976293,63
i,1727695932.151512,172.16.5.2,46970,172.16.1.2,5103,64277,68105,2086,142080,65728,6,6,4,1460,359062,1,16778208,680000,140076,113556,65700,0,68056,0,773976293,63
o,1727695932.151532,172.16.5.2,46970,172.16.1.2,5103,64277,68105,2086,144960,65728,6,6,4,1460,361875,1,16778208,680000,140076,110660,65700,0,65160,0,773976293,63
i,1727695932.151701,172.16.5.2,46970,172.16.1.2,5103,64277,68105,2086,144960,65728,6,6,4,1460,361875,1,16778208,680000,140076,110660,65700,0,68056,0,773976293,63
o,1727695932.151722,172.16.5.2,46970,172.16.1.2,5103,64277,68105,2086,142080,65728,6,6,4,1460,360625,1,16778208,660000,140076,107764,65700,0,65160,0,773976293,63
i,1727695932.192411,172.16.5.2,46970,172.16.1.2,5103,64277,68105,2086,142080,65728,6,6,4,1460,360625,1,16778208,660000,140076,140076,65700,0,68056,0,773976293,63
o,1727695932.192510,172.16.5.2,46970,172.16.1.2,5103,64277,68105,2086,147840,65728,6,6,4,1460,364375,1,16778208,660000,140076,138628,65700,0,66608,0,773976293,63
i,1727695932.455566,172.16.5.2,46970,172.16.1.2,5103,64277,68105,2086,147840,65728,6,6,4,1460,364375,1,16778208,660000,140076,138628,65700,0,68056,0,773976293,63
o,1727695932.455604,172.16.5.2,46970,172.16.1.2,5103,64277,68105,2086,144960,65728,6,6,4,1460,364062,1,16778208,640000,140076,135732,65700,0,65160,0,773976293,63
i,1727695932.455832,172.16.5.2,46970,172.16.1.2,5103,64277,68105,2086,144960,65728,6,6,4,1460,364062,1,16778208,640000,148268,135732,65700,0,68056,0,773976293,63
o,1727695932.455851,172.16.5.2,46970,172.16.1.2,5103,64277,68105,2086,146432,65728,6,6,4,1460,363750,1,16778208,620000,156460,132836,65700,0,65160,0,773976293,63
i,1727695932.455988,172.16.5.2,46970,172.16.1.2,5103,64277,68105,2086,146432,65728,6,6,4,1460,363750,1,16778208,620000,156460,132836,65700,0,68056,0,773976293,63
o,1727695932.456006,172.16.5.2,46970,172.16.1.2,5103,64277,68105,2086,146432,65728,6,6,4,1460,363437,1,16778208,610000,156460,129940,65700,0,65160,0,773976293,63
i,1727695932.458345,172.16.5.2,46970,172.16.1.2,5103,64277,68105,2086,146432,65728,6,6,4,1460,363437,1,16778208,610000,156460,156460,65700,0,68056,0,773976293,63
o,1727695932.458436,172.16.5.2,46970,172.16.1.2,5103,64277,68105,2086,146432,65728,6,6,4,1460,361875,1,16778208,610000,156460,153564,65700,0,65160,0,773976293,63
i,1727695932.630886,172.16.5.2,46970,172.16.1.2,5103,64277,68105,2086,146432,65728,6,6,4,1460,361875,1,16778208,610000,156460,156460,65700,0,68056,0,773976293,63
o,1727695932.630940,172.16.5.2,46970,172.16.1.2,5103,64277,68105,2086,146432,65728,6,6,4,1460,384375,1,16778208,800000,156460,153564,65700,0,65160,0,773976293,63
i,1727695932.633905,172.16.5.2,46970,172.16.1.2,5103,64277,68105,2086,146432,65728,6,6,4,1460,384375,1,16778208,800000,156460,156460,65700,0,68056,0,773976293,63
o,1727695932.633938,172.16.5.2,46970,172.16.1.2,5103,64277,68105,2086,146432,65728,6,6,4,1460,404062,1,16778208,920000,156460,153564,65700,0,65160,0,773976293,63
i,1727695932.634139,172.16.5.2,46970,172.16.1.2,5103,64277,68105,2086,146432,65728,6,6,4,1460,404062,1,16778208,920000,156460,153564,65700,0,68056,0,773976293,63
o,1727695932.634183,172.16.5.2,46970,172.16.1.2,5103,64277,69565,2086,146432,65728,6,6,4,1460,421250,1,16778208,1000000,156460,150668,65700,0,65160,0,773976293,63
i,1727695932.636993,172.16.5.2,46970,172.16.1.2,5103,64277,69565,2086,146432,65728,6,6,4,1460,421250,1,16778208,1000000,156460,156460,65700,0,69504,0,773976293,63
o,1727695932.637089,172.16.5.2,46970,172.16.1.2,5103,64277,69565,2086,143552,65728,6,6,4,1460,436250,1,16778208,1040000,156460,153564,65700,0,66608,0,773976293,63
i,1727695932.637247,172.16.5.2,46970,172.16.1.2,5103,64277,69565,2086,143552,65728,6,6,4,1460,436250,1,16778208,1040000,156460,153564,65700,0,69504,0,773976293,63
o,1727695932.637274,172.16.5.2,46970,172.16.1.2,5103,64277,69565,2086,144960,65728,6,6,4,1460,449375,1,16778208,1050000,156460,150668,65700,0,66608,0,773976293,63
i,1727695932.671229,172.16.5.2,46970,172.16.1.2,5103,64277,69565,2086,144960,65728,6,6,4,1460,449375,1,16778208,1050000,156460,156460,65700,0,69504,0,773976293,63
o,1727695932.671268,172.16.5.2,46970,172.16.1.2,5103,64277,69565,2086,146432,65728,6,6,4,1460,465937,1,16778208,1100000,156460,153564,65700,0,66608,0,773976293,63
i,1727695932.671466,172.16.5.2,46970,172.16.1.2,5103,64277,69565,2086,146432,65728,6,6,4,1460,465937,1,16778208,1100000,156460,153564,65700,0,69504,0,773976293,63
o,1727695932.671486,172.16.5.2,46970,172.16.1.2,5103,64277,69565,2086,143552,65728,6,6,4,1460,480312,1,16778208,1120000,156460,150668,65700,0,66608,0,773976293,63
i,1727695932.671686,172.16.5.2,46970,172.16.1.2,5103,64277,69565,2086,143552,65728,6,6,4,1460,480312,1,16778208,1120000,156460,150668,65700,0,69504,0,773976293,63
o,1727695932.671704,172.16.5.2,46970,172.16.1.2,5103,64277,69565,2086,140672,65728,6,6,4,1460,492812,1,16778208,1120000,156460,147772,65700,0,66608,0,773976293,63
i,1727695932.672784,172.16.5.2,46970,172.16.1.2,5103,64277,69565,2086,140672,65728,6,6,4,1460,492812,1,16778208,1120000,156460,156460,65700,0,69504,0,773976293,63
o,1727695932.672807,172.16.5.2,46970,172.16.1.2,5103,64277,69565,2086,146432,65728,6,6,4,1460,503750,1,16778208,1110000,156460,153564,65700,0,66608,0,773976293,63
i,1727695932.672959,172.16.5.2,46970,172.16.1.2,5103,64277,69565,2086,146432,65728,6,6,4,1460,503750,1,16778208,1110000,156460,153564,65700,0,69504,0,773976293,63
o,1727695932.672983,172.16.5.2,46970,172.16.1.2,5103,64277,69565,2086,143552,65728,6,6,4,1460,513437,1,16778208,1100000,156460,150668,65700,0,66608,0,773976293,63
i,1727695932.673188,172.16.5.2,46970,172.16.1.2,5103,64277,69565,2086,143552,65728,6,6,4,1460,513437,1,16778208,1100000,156460,150668,65700,0,69504,0,773976293,63
o,1727695932.673207,172.16.5.2,46970,172.16.1.2,5103,64277,69565,2086,140672,65728,6,6,4,1460,515625,1,16778208,1020000,156460,147772,65700,0,66608,0,773976293,63
i,1727695932.673742,172.16.5.2,46970,172.16.1.2,5103,64277,69565,2086,140672,65728,6,6,4,1460,515625,1,16778208,1020000,156460,156460,65700,0,69504,0,773976293,63
o,1727695932.673828,172.16.5.2,46970,172.16.1.2,5103,64277,69565,2086,146432,65728,6,6,4,1460,517500,1,16778208,960000,156460,153564,65700,0,66608,0,773976293,63
i,1727695932.674001,172.16.5.2,46970,172.16.1.2,5103,64277,69565,2086,146432,65728,6,6,4,1460,517500,1,16778208,960000,156460,153564,65700,0,69504,0,773976293,63
o,1727695932.674030,172.16.5.2,46970,172.16.1.2,5103,64277,69565,2086,146432,65728,6,6,4,1460,519062,1,16778208,910000,156460,150668,65700,0,66608,0,773976293,63
i,1727695932.731457,172.16.5.2,46970,172.16.1.2,5103,64277,69565,2086,146432,65728,6,6,4,1460,519062,1,16778208,910000,156460,156460,65700,0,69504,0,773976293,63
o,1727695932.731524,172.16.5.2,46970,172.16.1.2,5103,64277,69565,2086,146432,65728,6,6,4,1460,528125,1,16778208,950000,156460,153564,65700,0,66608,0,773976293,63
i,1727695932.731700,172.16.5.2,46970,172.16.1.2,5103,64277,69565,2086,146432,65728,6,6,4,1460,528125,1,16778208,950000,156460,153564,65700,0,69504,0,773976293,63
o,1727695932.731722,172.16.5.2,46970,172.16.1.2,5103,64277,69565,2086,143552,65728,6,6,4,1460,534687,1,16778208,950000,156460,150668,65700,0,66608,0,773976293,63
i,1727695932.732018,172.16.5.2,46970,172.16.1.2,5103,64277,69565,2086,143552,65728,6,6,4,1460,534687,1,16778208,950000,156460,150668,65700,0,69504,0,773976293,63
o,1727695932.732037,172.16.5.2,46970,172.16.1.2,5103,64277,69565,2086,146432,65728,6,6,4,1460,540625,1,16778208,950000,156460,147772,65700,0,66608,0,773976293,63
o,1727695932.732201,172.16.5.2,46970,172.16.1.2,5103,64277,69565,2086,146432,65728,6,6,4,1460,540625,1,16778208,950000,156460,147772,65700,0,68056,0,773976293,63
i,1727695932.732373,172.16.5.2,46970,172.16.1.2,5103,64277,69565,2086,146432,65728,6,6,4,1460,540625,1,16778208,950000,156460,147772,65700,0,69504,0,773976293,63
o,1727695932.732398,172.16.5.2,46970,172.16.1.2,5103,64277,69565,2086,146432,65728,6,6,4,1460,545625,1,16778208,940000,156460,144876,65700,0,66608,0,773976293,63
i,1727695932.732622,172.16.5.2,46970,172.16.1.2,5103,64277,69565,2086,146432,65728,6,6,4,1460,545625,1,16778208,940000,156460,144876,65700,0,69504,0,773976293,63
o,1727695932.732645,172.16.5.2,46970,172.16.1.2,5103,64277,69565,2086,146432,65728,6,6,4,1460,550000,1,16778208,930000,156460,141980,65700,0,66608,0,773976293,63
i,1727695932.733544,172.16.5.2,46970,172.16.1.2,5103,64277,69565,2086,146432,65728,6,6,4,1460,550000,1,16778208,930000,156460,156460,65700,0,69504,0,773976293,63
o,1727695932.733627,172.16.5.2,46970,172.16.1.2,5103,64277,69565,2086,146432,65728,6,6,4,1460,553750,1,16778208,920000,156460,153564,65700,0,66608,0,773976293,63
i,1727695932.734566,172.16.5.2,46970,172.16.1.2,5103,64277,69565,2086,146432,65728,6,6,4,1460,553750,1,16778208,920000,156460,156460,65700,0,69504,0,773976293,63
o,1727695932.734587,172.16.5.2,46970,172.16.1.2,5103,64277,69565,2086,147840,65728,6,6,4,1460,552187,1,16778208,890000,156460,155012,65700,0,68056,0,773976293,63
i,1727695932.758246,172.16.5.2,46970,172.16.1.2,5103,64277,69565,2086,147840,65728,6,6,4,1460,552187,1,16778208,890000,156460,155012,65700,0,69504,0,773976293,63
o,1727695932.758290,172.16.5.2,46970,172.16.1.2,5103,64277,69565,2086,144960,65728,6,6,4,1460,520937,1,16778208,1070000,156460,152116,65700,0,66608,0,773976293,63
i,1727695932.758566,172.16.5.2,46970,172.16.1.2,5103,64277,69565,2086,144960,65728,6,6,4,1460,520937,1,16778208,1070000,156460,152116,65700,0,69504,0,773976293,63
o,1727695932.758591,172.16.5.2,46970,172.16.1.2,5103,64277,69565,2086,142080,65728,6,6,4,1460,493437,1,16778208,1180000,156460,149220,65700,0,66608,0,773976293,63
i,1727695932.758738,172.16.5.2,46970,172.16.1.2,5103,64277,69565,2086,142080,65728,6,6,4,1460,493437,1,16778208,1180000,156460,149220,65700,0,69504,0,773976293,63
o,1727695932.758758,172.16.5.2,46970,172.16.1.2,5103,64277,69565,2086,146432,65728,6,6,4,1460,469375,1,16778208,1220000,156460,146324,65700,0,66608,0,773976293,63
i,1727695932.758897,172.16.5.2,46970,172.16.1.2,5103,64277,69565,2086,146432,65728,6,6,4,1460,469375,1,16778208,1220000,156460,146324,65700,0,69504,0,773976293,63
o,1727695932.758916,172.16.5.2,46970,172.16.1.2,5103,64277,69565,2086,146432,65728,6,6,4,1460,448437,1,16778208,1230000,156460,143428,65700,0,66608,0,773976293,63
i,1727695933.102626,172.16.5.2,46970,172.16.1.2,5103,64277,69565,2086,146432,65728,6,6,4,1460,448437,1,16778208,1230000,156460,156460,65700,0,69504,0,773976293,63
o,1727695933.102665,172.16.5.2,46970,172.16.1.2,5103,64277,69565,2086,144960,65728,6,6,4,1460,451250,1,16778208,1110000,156460,153564,65700,0,66608,0,773976293,63
i,1727695933.103087,172.16.5.2,46970,172.16.1.2,5103,64277,69565,2086,144960,65728,6,6,4,1460,451250,1,16778208,1110000,156460,156460,65700,0,69504,0,773976293,63
o,1727695933.103108,172.16.5.2,46970,172.16.1.2,5103,64277,69565,2086,142080,65728,6,6,4,1460,453750,1,16778208,1020000,156460,153564,65700,0,66608,0,773976293,63
i,1727695933.104006,172.16.5.2,46970,172.16.1.2,5103,64277,69565,2086,142080,65728,6,6,4,1460,453750,1,16778208,1020000,156460,156460,65700,0,69504,0,773976293,63
o,1727695933.104029,172.16.5.2,46970,172.16.1.2,5103,64277,69565,2086,144960,65728,6,6,4,1460,455937,1,16778208,950000,156460,153564,65700,0,66608,0,773976293,63
i,1727695933.108196,172.16.5.2,46970,172.16.1.2,5103,64277,69565,2086,144960,65728,6,6,4,1460,455937,1,16778208,950000,156460,156460,65700,0,69504,0,773976293,63
o,1727695933.108304,172.16.5.2,46970,172.16.1.2,5103,64277,71025,2086,146432,65728,6,6,4,1460,457812,1,16778208,890000,156460,153564,65700,0,66608,0,773976293,63
i,1727695933.108458,172.16.5.2,46970,172.16.1.2,5103,64277,71025,2086,146432,65728,6,6,4,1460,457812,1,16778208,890000,156460,153564,65700,0,70952,0,773976293,63
o,1727695933.108477,172.16.5.2,46970,172.16.1.2,5103,64277,71025,2086,146432,65728,6,6,4,1460,459375,1,16778208,850000,156460,150668,65700,0,68056,0,773976293,63
i,1727695933.168358,172.16.5.2,46970,172.16.1.2,5103,64277,71025,2086,146432,65728,6,6,4,1460,459375,1,16778208,850000,156460,156460,65700,0,70952,0,773976293,63
o,1727695933.168459,172.16.5.2,46970,172.16.1.2,5103,64277,71025,2086,146432,65728,6,6,4,1460,468437,1,16778208,880000,156460,153564,65700,0,68056,0,773976293,63
i,1727695933.168701,172.16.5.2,46970,172.16.1.2,5103,64277,71025,2086,146432,65728,6,6,4,1460,468437,1,16778208,880000,156460,153564,65700,0,70952,0,773976293,63
o,1727695933.168747,172.16.5.2,46970,172.16.1.2,5103,64277,71025,2086,143552,65728,6,6,4,1460,471250,1,16778208,850000,156460,150668,65700,0,68056,0,773976293,63
i,1727695933.219662,172.16.5.2,46970,172.16.1.2,5103,64277,71025,2086,143552,65728,6,6,4,1460,471250,1,16778208,850000,156460,156460,65700,0,70952,0,773976293,63
o,1727695933.219758,172.16.5.2,46970,172.16.1.2,5103,64277,71025,2086,140672,65728,6,6,4,1460,480000,1,16778208,890000,156460,153564,65700,0,68056,0,773976293,63
i,1727695933.326060,172.16.5.2,46970,172.16.1.2,5103,64277,71025,2086,140672,65728,6,6,4,1460,480000,1,16778208,890000,156460,156460,65700,0,70952,0,773976293,63
o,1727695933.326097,172.16.5.2,46970,172.16.1.2,5103,64277,71025,2086,146432,65728,6,6,4,1460,501250,1,16778208,1030000,156460,153564,65700,0,68056,0,773976293,63
i,1727695933.326270,172.16.5.2,46970,172.16.1.2,5103,64277,71025,2086,146432,65728,6,6,4,1460,501250,1,16778208,1030000,156460,153564,65700,0,70952,0,773976293,63
o,1727695933.326290,172.16.5.2,46970,172.16.1.2,5103,64277,71025,2086,143552,65728,6,6,4,1460,520000,1,16778208,1110000,156460,150668,65700,0,68056,0,773976293,63
i,1727695933.326441,172.16.5.2,46970,172.16.1.2,5103,64277,71025,2086,143552,65728,6,6,4,1460,520000,1,16778208,1110000,156460,150668,65700,0,70952,0,773976293,63
o,1727695933.326463,172.16.5.2,46970,172.16.1.2,5103,64277,71025,2086,144960,65728,6,6,4,1460,536250,1,16778208,1160000,156460,147772,65700,0,68056,0,773976293,63
i,1727695933.326643,172.16.5.2,46970,172.16.1.2,5103,64277,71025,2086,144960,65728,6,6,4,1460,536250,1,16778208,1160000,156460,147772,65700,0,70952,0,773976293,63
o,1727695933.326660,172.16.5.2,46970,172.16.1.2,5103,64277,71025,2086,142080,65728,6,6,4,1460,550625,1,16778208,1180000,156460,144876,65700,0,68056,0,773976293,63
i,1727695933.326849,172.16.5.2,46970,172.16.1.2,5103,64277,71025,2086,142080,65728,6,6,4,1460,550625,1,16778208,1180000,156460,144876,65700,0,70952,0,773976293,63
o,1727695933.326866,172.16.5.2,46970,172.16.1.2,5103,64277,71025,2086,139200,65728,6,6,4,1460,563125,1,16778208,1190000,156460,141980,65700,0,68056,0,773976293,63
i,1727695933.327941,172.16.5.2,46970,172.16.1.2,5103,64277,71025,2086,139200,65728,6,6,4,1460,563125,1,16778208,1190000,156460,156460,65700,0,70952,0,773976293,63
o,1727695933.327982,172.16.5.2,46970,172.16.1.2,5103,64277,71025,2086,136320,65728,6,6,4,1460,574062,1,16778208,1180000,156460,153564,65700,0,68056,0,773976293,63
i,1727695933.328209,172.16.5.2,46970,172.16.1.2,5103,64277,71025,2086,136320,65728,6,6,4,1460,574062,1,16778208,1180000,156460,153564,65700,0,70952,0,773976293,63
o,1727695933.328251,172.16.5.2,46970,172.16.1.2,5103,64277,71025,2086,146432,65728,6,6,4,1460,576250,1,16778208,1100000,156460,150668,65700,0,68056,0,773976293,63
i,1727695933.328532,172.16.5.2,46970,172.16.1.2,5103,64277,71025,2086,146432,65728,6,6,4,1460,576250,1,16778208,1100000,156460,150668,65700,0,70952,0,773976293,63
o,1727695933.328553,172.16.5.2,46970,172.16.1.2,5103,64277,71025,2086,143552,65728,6,6,4,1460,578125,1,16778208,1030000,156460,147772,65700,0,68056,0,773976293,63
o,1727695933.328692,172.16.5.2,46970,172.16.1.2,5103,64277,71025,2086,143552,65728,6,6,4,1460,578125,1,16778208,1030000,156460,147772,65700,0,69504,0,773976293,63
i,1727695933.329651,172.16.5.2,46970,172.16.1.2,5103,64277,71025,2086,143552,65728,6,6,4,1460,578125,1,16778208,1030000,156460,156460,65700,0,70952,0,773976293,63
o,1727695933.329651,172.16.5.2,46970,172.16.1.2,5103,64277,71025,2086,146432,65728,6,6,4,1460,579687,1,16778208,980000,156460,153564,65700,0,68056,0,773976293,63
i,1727695933.329651,172.16.5.2,46970,172.16.1.2,5103,64277,71025,2086,146432,65728,6,6,4,1460,579687,1,16778208,980000,156460,153564,65700,0,70952,0,773976293,63
o,1727695933.329651,172.16.5.2,46970,172.16.1.2,5103,64277,71025,2086,143552,65728,6,6,4,1460,581250,1,16778208,950000,156460,150668,65700,0,68056,0,773976293,63
i,1727695933.330508,172.16.5.2,46970,172.16.1.2,5103,64277,71025,2086,143552,65728,6,6,4,1460,581250,1,16778208,950000,156460,150668,65700,0,70952,0,773976293,63
o,1727695933.330527,172.16.5.2,46970,172.16.1.2,5103,64277,71025,2086,144960,65728,6,6,4,1460,582500,1,16778208,920000,156460,147772,65700,0,68056,0,773976293,63
i,1727695933.330720,172.16.5.2,46970,172.16.1.2,5103,64277,71025,2086,144960,65728,6,6,4,1460,582500,1,16778208,920000,156460,147772,65700,0,70952,0,773976293,63
o,1727695933.330738,172.16.5.2,46970,172.16.1.2,5103,64277,71025,2086,144960,65728,6,6,4,1460,583437,1,16778208,890000,156460,144876,65700,0,68056,0,773976293,63
i,1727695933.331780,172.16.5.2,46970,172.16.1.2,5103,64277,71025,2086,144960,65728,6,6,4,1460,583437,1,16778208,890000,156460,156460,65700,0,70952,0,773976293,63
o,1727695933.331802,172.16.5.2,46970,172.16.1.2,5103,64277,71025,2086,142080,65728,6,6,4,1460,581875,1,16778208,870000,156460,153564,65700,0,68056,0,773976293,63
i,1727695933.331972,172.16.5.2,46970,172.16.1.2,5103,64277,71025,2086,142080,65728,6,6,4,1460,581875,1,16778208,870000,156460,153564,65700,0,70952,0,773976293,63
o,1727695933.331990,172.16.5.2,46970,172.16.1.2,5103,64277,71025,2086,146432,65728,6,6,4,1460,580625,1,16778208,860000,156460,150668,65700,0,68056,0,773976293,63
i,1727695933.332989,172.16.5.2,46970,172.16.1.2,5103,64277,71025,2086,146432,65728,6,6,4,1460,580625,1,16778208,860000,156460,156460,65700,0,70952,0,773976293,63
o,1727695933.333010,172.16.5.2,46970,172.16.1.2,5103,64277,71025,2086,144960,65728,6,6,4,1460,579375,1,16778208,850000,156460,153564,65700,0,68056,0,773976293,63
i,1727695933.351947,172.16.5.2,46970,172.16.1.2,5103,64277,71025,2086,144960,65728,6,6,4,1460,579375,1,16778208,850000,156460,156460,65700,0,70952,0,773976293,63
o,1727695933.351984,172.16.5.2,46970,172.16.1.2,5103,64277,71025,2086,144960,65728,6,6,4,1460,582187,1,16778208,860000,156460,153564,65700,0,68056,0,773976293,63
o,1727695933.363163,10.0.2.15,22,10.0.2.2,57953,1073725440,14600,1026,65535,65700,0,0,4,1460,312,0,16777220,240000,33580,1412,65700,0,0,0,2045767904,63
i,1727695933.364308,10.0.2.15,22,10.0.2.2,57953,1073725440,14600,1026,65535,65700,0,0,4,1460,312,0,16777220,240000,33580,1412,65700,0,1412,0,2045767904,63
i,1727695933.496005,172.16.5.2,46970,172.16.1.2,5103,64277,71025,2086,144960,65728,6,6,4,1460,582187,1,16778208,860000,156460,156460,65700,0,70952,0,773976293,63
o,1727695933.496067,172.16.5.2,46970,172.16.1.2,5103,64277,71025,2086,144960,65728,6,6,4,1460,558437,1,16778208,1000000,156460,153564,65700,0,68056,0,773976293,63
i,1727695933.496289,172.16.5.2,46970,172.16.1.2,5103,64277,71025,2086,144960,65728,6,6,4,1460,558437,1,16778208,1000000,156460,153564,65700,0,70952,0,773976293,63
o,1727695933.496317,172.16.5.2,46970,172.16.1.2,5103,64277,71025,2086,142080,65728,6,6,4,1460,537500,1,16778208,1090000,156460,150668,65700,0,68056,0,773976293,63
i,1727695933.498032,172.16.5.2,46970,172.16.1.2,5103,64277,71025,2086,142080,65728,6,6,4,1460,537500,1,16778208,1090000,156460,156460,65700,0,70952,0,773976293,63
o,1727695933.498065,172.16.5.2,46970,172.16.1.2,5103,64277,71025,2086,146432,65728,6,6,4,1460,519062,1,16778208,1130000,156460,153564,65700,0,68056,0,773976293,63
i,1727695933.531446,172.16.5.2,46970,172.16.1.2,5103,64277,71025,2086,146432,65728,6,6,4,1460,519062,1,16778208,1130000,156460,156460,65700,0,70952,0,773976293,63
o,1727695933.531537,172.16.5.2,46970,172.16.1.2,5103,64277,72485,2086,144960,65728,6,6,4,1460,508125,1,16778208,1100000,156460,153564,65700,0,68056,0,773976293,63
i,1727695933.531687,172.16.5.2,46970,172.16.1.2,5103,64277,72485,2086,144960,65728,6,6,4,1460,508125,1,16778208,1100000,156460,153564,65700,0,72400,0,773976293,63
o,1727695933.531707,172.16.5.2,46970,172.16.1.2,5103,64277,72485,2086,142080,65728,6,6,4,1460,498437,1,16778208,1070000,156460,150668,65700,0,69504,0,773976293,63
i,1727695933.532795,172.16.5.2,46970,172.16.1.2,5103,64277,72485,2086,142080,65728,6,6,4,1460,498437,1,16778208,1070000,156460,156460,65700,0,72400,0,773976293,63
o,1727695933.532822,172.16.5.2,46970,172.16.1.2,5103,64277,72485,2086,147840,65728,6,6,4,1460,490000,1,16778208,1040000,156460,155012,65700,0,70952,0,773976293,63
i,1727695933.532974,172.16.5.2,46970,172.16.1.2,5103,64277,72485,2086,147840,65728,6,6,4,1460,490000,1,16778208,1040000,156460,155012,65700,0,72400,0,773976293,63
o,1727695933.532996,172.16.5.2,46970,172.16.1.2,5103,64277,72485,2086,144960,65728,6,6,4,1460,473750,1,16778208,1060000,156460,152116,65700,0,69504,0,773976293,63
i,1727695933.533153,172.16.5.2,46970,172.16.1.2,5103,64277,72485,2086,144960,65728,6,6,4,1460,473750,1,16778208,1060000,156460,152116,65700,0,72400,0,773976293,63
o,1727695933.533172,172.16.5.2,46970,172.16.1.2,5103,64277,72485,2086,142080,65728,6,6,4,1460,459687,1,16778208,1060000,156460,149220,65700,0,69504,0,773976293,63
i,1727695933.538880,172.16.5.2,46970,172.16.1.2,5103,64277,72485,2086,142080,65728,6,6,4,1460,459687,1,16778208,1060000,156460,156460,65700,0,72400,0,773976293,63
o,1727695933.538911,172.16.5.2,46970,172.16.1.2,5103,64277,72485,2086,144960,65728,6,6,4,1460,441250,1,16778208,1090000,156460,153564,65700,0,69504,0,773976293,63
i,1727695933.561232,172.16.5.2,46970,172.16.1.2,5103,64277,72485,2086,144960,65728,6,6,4,1460,441250,1,16778208,1090000,156460,156460,65700,0,72400,0,773976293,63
o,1727695933.561270,172.16.5.2,46970,172.16.1.2,5103,64277,72485,2086,144960,65728,6,6,4,1460,416250,1,16778208,1150000,156460,153564,65700,0,69504,0,773976293,63
i,1727695933.562575,172.16.5.2,46970,172.16.1.2,5103,64277,72485,2086,144960,65728,6,6,4,1460,416250,1,16778208,1150000,156460,156460,65700,0,72400,0,773976293,63
o,1727695933.562611,172.16.5.2,46970,172.16.1.2,5103,64277,72485,2086,144960,65728,6,6,4,1460,394375,1,16778208,1170000,156460,150668,65700,0,66608,0,773976293,63
i,1727695933.567170,172.16.5.2,46970,172.16.1.2,5103,64277,72485,2086,144960,65728,6,6,4,1460,394375,1,16778208,1170000,156460,156460,65700,0,72400,0,773976293,63
o,1727695933.567259,172.16.5.2,46970,172.16.1.2,5103,64277,72485,2086,144960,65728,6,6,4,1460,375312,1,16778208,1160000,156460,153564,65700,0,69504,0,773976293,63
i,1727695933.567427,172.16.5.2,46970,172.16.1.2,5103,64277,72485,2086,144960,65728,6,6,4,1460,375312,1,16778208,1160000,156460,153564,65700,0,72400,0,773976293,63
o,1727695933.567447,172.16.5.2,46970,172.16.1.2,5103,64277,72485,2086,146432,65728,6,6,4,1460,358437,1,16778208,1130000,156460,150668,65700,0,69504,0,773976293,63
i,1727695933.568253,172.16.5.2,46970,172.16.1.2,5103,64277,72485,2086,146432,65728,6,6,4,1460,358437,1,16778208,1130000,156460,156460,65700,0,72400,0,773976293,63
o,1727695933.568279,172.16.5.2,46970,172.16.1.2,5103,64277,72485,2086,146432,65728,6,6,4,1460,343750,1,16778208,1090000,156460,153564,65700,0,69504,0,773976293,63
i,1727695933.568509,172.16.5.2,46970,172.16.1.2,5103,64277,72485,2086,146432,65728,6,6,4,1460,343750,1,16778208,1090000,156460,153564,65700,0,72400,0,773976293,63
o,1727695933.568529,172.16.5.2,46970,172.16.1.2,5103,64277,72485,2086,146432,65728,6,6,4,1460,330937,1,16778208,1040000,156460,150668,65700,0,69504,0,773976293,63
i,1727695933.568710,172.16.5.2,46970,172.16.1.2,5103,64277,72485,2086,146432,65728,6,6,4,1460,330937,1,16778208,1040000,156460,150668,65700,0,72400,0,773976293,63
o,1727695933.568731,172.16.5.2,46970,172.16.1.2,5103,64277,72485,2086,147840,65728,6,6,4,1460,319687,1,16778208,990000,156460,149220,65700,0,70952,0,773976293,63
i,1727695933.598158,172.16.5.2,46970,172.16.1.2,5103,64277,72485,2086,147840,65728,6,6,4,1460,319687,1,16778208,990000,156460,156460,65700,0,72400,0,773976293,63
o,1727695933.598207,172.16.5.2,46970,172.16.1.2,5103,64277,72485,2086,144960,65728,6,6,4,1460,313750,1,16778208,920000,156460,153564,65700,0,69504,0,773976293,63
i,1727695933.598424,172.16.5.2,46970,172.16.1.2,5103,64277,72485,2086,144960,65728,6,6,4,1460,313750,1,16778208,920000,156460,153564,65700,0,72400,0,773976293,63
o,1727695933.598452,172.16.5.2,46970,172.16.1.2,5103,64277,72485,2086,146432,65728,6,6,4,1460,308437,1,16778208,850000,156460,150668,65700,0,69504,0,773976293,63
i,1727695933.598616,172.16.5.2,46970,172.16.1.2,5103,64277,72485,2086,146432,65728,6,6,4,1460,308437,1,16778208,850000,156460,150668,65700,0,72400,0,773976293,63
