enable_time_secs=1727696031	enable_time_usecs=180517	siftrver=1.3.0	sysname=FreeBSD	sysver=1401000	ipmode=4
o,1727696031.180749,10.0.2.15,22,10.0.2.2,49912,1073725440,17746,1026,65535,65700,0,0,4,1460,312,0,16777220,240000,33580,60,65700,0,0,0,1336917695,63
i,1727696031.181517,10.0.2.15,22,10.0.2.2,49912,1073725440,17746,1026,65535,65700,0,0,4,1460,312,0,16777220,240000,33580,60,65700,0,60,0,1336917695,63
o,1727696031.181639,10.0.2.15,22,10.0.2.2,49912,1073725440,17806,1026,65535,65700,0,0,4,1460,312,0,16777220,240000,33580,148,65700,0,0,0,1336917695,63
o,1727696031.181865,10.0.2.15,22,10.0.2.2,49912,1073725440,17806,1026,65535,65700,0,0,4,1460,312,0,16777220,240000,33580,220,65700,0,148,0,1336917695,63
i,1727696031.182213,10.0.2.15,22,10.0.2.2,49912,1073725440,17806,1026,65535,65700,0,0,4,1460,312,0,16777220,240000,33580,220,65700,0,220,0,1336917695,63
i,1727696031.182235,10.0.2.15,22,10.0.2.2,49912,1073725440,17954,1026,65535,65700,0,0,4,1460,312,0,4,240000,33580,72,65700,0,72,0,1336917695,63
i,1727696031.182255,10.0.2.15,22,10.0.2.2,49912,1073725440,18026,1026,65535,65700,0,0,4,1460,312,0,4,240000,33580,0,65700,0,0,0,1336917695,63
i,1727696031.182276,10.0.2.15,22,10.0.2.2,49912,1073725440,18026,1026,65535,65700,0,0,4,1460,312,0,4,240000,33580,0,65700,36,0,0,1336917695,63
o,1727696031.182295,10.0.2.15,22,10.0.2.2,49912,1073725440,18026,1026,65535,65700,0,0,4,1460,312,0,5,240000,33580,0,65700,96,0,0,1336917695,63
i,1727696031.182394,10.0.2.15,22,10.0.2.2,49912,1073725440,18026,1026,65535,65700,0,0,4,1460,312,0,4,240000,33580,0,65700,96,0,0,1336917695,63
o,1727696031.182412,10.0.2.15,22,10.0.2.2,49912,1073725440,18026,1026,65535,65604,0,0,5,1460,312,0,7,240000,33580,0,65700,96,0,0,1336917695,63
o,1727696031.183136,10.0.2.15,22,10.0.2.2,49912,1073725440,18026,1026,65535,65604,0,0,8,1460,312,0,4,240000,33580,0,65700,0,0,0,1336917695,63
i,1727696031.183634,10.0.2.15,22,10.0.2.2,49912,1073725440,18026,1026,65535,65604,0,0,8,1460,312,0,67108884,240000,33580,0,65700,0,1,0,1336917695,63
o,1727696032.733597,10.0.2.15,22,10.0.2.2,57953,1073725440,14600,1026,65535,65700,0,0,4,1460,312,0,16777220,240000,33580,404,65700,0,0,0,2045767904,63
i,1727696032.734755,10.0.2.15,22,10.0.2.2,57953,1073725440,14600,1026,65535,65700,0,0,4,1460,312,0,16777220,240000,33580,404,65700,0,404,0,2045767904,63
i,1727696034.442065,10.0.2.15,22,10.0.2.2,49914,1073725440,14600,0,65535,65700,0,0,4,1460,312,0,16777216,270000,33580,0,65700,0,0,0,524770643,63
o,1727696034.453862,10.0.2.15,22,10.0.2.2,49914,1073725440,14600,1026,65535,65700,0,0,4,1460,312,0,16777216,270000,33580,38,65700,42,0,0,524770643,63
i,1727696034.454918,10.0.2.15,22,10.0.2.2,49914,1073725440,14600,1026,65535,65700,0,0,4,1460,312,0,16777216,270000,33580,38,65700,0,38,0,524770643,63
i,1727696034.455378,10.0.2.15,22,10.0.2.2,49914,1073725440,14638,1026,65535,65700,0,0,4,1460,312,0,0,240000,33580,0,65700,0,0,0,524770643,63
i,1727696034.455397,10.0.2.15,22,10.0.2.2,49914,1073725440,14638,1026,65535,65700,0,0,4,1460,312,0,0,240000,33580,0,65700,1460,0,0,524770643,63
o,1727696034.455578,10.0.2.15,22,10.0.2.2,49914,1073725440,14638,1026,65535,65700,0,0,4,1460,312,0,1,240000,33580,0,65700,1536,0,0,524770643,63
o,1727696034.456564,10.0.2.15,22,10.0.2.2,49914,1073725440,14638,1026,65535,65700,0,0,4,1460,312,0,16777216,240000,33580,1120,65700,1536,0,0,524770643,63
i,1727696034.457301,10.0.2.15,22,10.0.2.2,49914,1073725440,14638,1026,65535,65700,0,0,4,1460,312,0,16777216,240000,33580,1120,65700,0,1120,0,524770643,63
i,1727696034.458633,10.0.2.15,22,10.0.2.2,49914,1073725440,15758,1026,65535,65700,0,0,4,1460,312,0,0,240000,33580,0,65700,0,0,0,524770643,63
o,1727696034.462109,10.0.2.15,22,10.0.2.2,49914,1073725440,15758,1026,65535,65700,0,0,4,1460,312,0,16777216,240000,33580,492,65700,0,0,0,524770643,63
i,1727696034.463173,10.0.2.15,22,10.0.2.2,49914,1073725440,15758,1026,65535,65700,0,0,4,1460,312,0,16777216,240000,33580,492,65700,0,492,0,524770643,63
i,1727696034.468311,10.0.2.15,22,10.0.2.2,49914,1073725440,16250,1026,65535,65700,0,0,4,1460,312,0,0,240000,33580,0,65700,0,0,0,524770643,63
i,1727696034.468330,10.0.2.15,22,10.0.2.2,49914,1073725440,16250,1026,65535,65700,0,0,4,1460,312,0,0,240000,33580,0,65700,16,0,0,524770643,63
o,1727696034.468347,10.0.2.15,22,10.0.2.2,49914,1073725440,16250,1026,65535,65700,0,0,4,1460,312,0,1,240000,33580,0,65700,60,0,0,524770643,63
o,1727696034.468509,10.0.2.15,22,10.0.2.2,49914,1073725440,16250,1026,65535,65700,0,0,4,1460,312,0,16777216,240000,33580,44,65700,0,0,0,524770643,63
i,1727696034.468975,10.0.2.15,22,10.0.2.2,49914,1073725440,16250,1026,65535,65700,0,0,4,1460,312,0,16777216,240000,33580,44,65700,0,44,0,524770643,63
i,1727696034.471484,10.0.2.15,22,10.0.2.2,49914,1073725440,16294,1026,65535,65700,0,0,4,1460,312,0,0,240000,33580,0,65700,0,0,0,524770643,63
o,1727696034.472800,10.0.2.15,22,10.0.2.2,49914,1073725440,16294,1026,65535,65700,0,0,4,1460,312,0,16777216,240000,33580,68,65700,0,0,0,524770643,63
i,1727696034.473292,10.0.2.15,22,10.0.2.2,49914,1073725440,16294,1026,65535,65700,0,0,4,1460,312,0,16777216,240000,33580,68,65700,0,68,0,524770643,63
i,1727696034.473311,10.0.2.15,22,10.0.2.2,49914,1073725440,16362,1026,65535,65700,0,0,4,1460,312,0,0,240000,33580,0,65700,0,0,0,524770643,63
o,1727696034.474466,10.0.2.15,22,10.0.2.2,49914,1073725440,16362,1026,65535,65700,0,0,4,1460,312,0,16777216,240000,33580,332,65700,0,0,0,524770643,63
i,1727696034.475403,10.0.2.15,22,10.0.2.2,49914,1073725440,16362,1026,65535,65700,0,0,4,1460,312,0,16777216,240000,33580,332,65700,0,332,0,524770643,63
i,1727696034.476684,10.0.2.15,22,10.0.2.2,49914,1073725440,16694,1026,65535,65700,0,0,4,1460,312,0,0,240000,33580,0,65700,0,0,0,524770643,63
o,1727696034.495314,10.0.2.15,22,10.0.2.2,49914,1073725440,16694,1026,65535,65700,0,0,4,1460,312,0,16777216,240000,33580,28,65700,0,0,0,524770643,63
i,1727696034.495996,10.0.2.15,22,10.0.2.2,49914,1073725440,16694,1026,65535,65700,0,0,4,1460,312,0,16777216,240000,33580,28,65700,0,28,0,524770643,63
i,1727696034.496021,10.0.2.15,22,10.0.2.2,49914,1073725440,16722,1026,65535,65700,0,0,4,1460,312,0,0,240000,33580,0,65700,0,0,0,524770643,63
o,1727696034.497616,10.0.2.15,22,10.0.2.2,49914,1073725440,16722,1026,65535,65700,0,0,4,1460,312,0,16777216,240000,33580,768,65700,112,0,0,524770643,63
i,1727696034.498602,10.0.2.15,22,10.0.2.2,49914,1073725440,16722,1026,65535,65700,0,0,4,1460,312,0,16777216,240000,33580,908,65700,112,768,0,524770643,63
o,1727696034.498629,10.0.2.15,22,10.0.2.2,49914,1073725440,17490,1026,65535,65700,0,0,4,1460,312,0,16777216,240000,33580,140,65700,112,0,0,524770643,63
i,1727696034.499072,10.0.2.15,22,10.0.2.2,49914,1073725440,17490,1026,65535,65700,0,0,4,1460,312,0,16777216,240000,33580,140,65700,0,140,0,524770643,63
o,1727696034.499198,10.0.2.15,22,10.0.2.2,49914,1073725440,17630,1026,65535,65700,0,0,4,1460,312,0,16777216,240000,33580,44,65700,0,0,0,524770643,63
i,1727696034.499829,10.0.2.15,22,10.0.2.2,49914,1073725440,17630,1026,65535,65700,0,0,4,1460,312,0,16777216,240000,33580,44,65700,0,44,0,524770643,63
i,1727696034.499850,10.0.2.15,22,10.0.2.2,49914,1073725440,17674,1026,65535,65700,0,0,4,1460,312,0,0,240000,33580,0,65700,0,0,0,524770643,63
o,1727696034.500841,10.0.2.15,22,10.0.2.2,49914,1073725440,17674,1026,65535,65700,0,0,4,1460,312,0,16777220,240000,33580,72,65700,0,0,0,524770643,63
i,1727696034.501203,10.0.2.15,22,10.0.2.2,49914,1073725440,17674,1026,65535,65700,0,0,4,1460,312,0,16777220,240000,33580,72,65700,0,72,0,524770643,63
o,1727696034.503804,10.0.2.15,22,10.0.2.2,49914,1073725440,17746,1026,65535,65700,0,0,4,1460,312,0,16777220,240000,33580,104,65700,0,0,0,524770643,63
i,1727696034.504119,10.0.2.15,22,10.0.2.2,49914,1073725440,17746,1026,65535,65700,0,0,4,1460,312,0,16777220,240000,33580,104,65700,0,104,0,524770643,63
o,1727696034.511125,10.0.2.15,22,10.0.2.2,49914,1073725440,17850,1026,65535,65700,0,0,4,1460,312,0,16777220,240000,33580,72,65700,0,0,0,524770643,63
i,1727696034.511834,10.0.2.15,22,10.0.2.2,49914,1073725440,17850,1026,65535,65700,0,0,4,1460,312,0,16777220,240000,33580,72,65700,0,72,0,524770643,63
i,1727696034.512155,10.0.2.15,22,10.0.2.2,49914,1073725440,17922,1026,65535,65700,0,0,4,1460,312,0,4,240000,33580,0,65700,0,0,0,524770643,63
i,1727696034.512240,10.0.2.15,22,10.0.2.2,49914,1073725440,17922,1026,65535,65700,0,0,4,1460,312,0,4,240000,33580,0,65700,96,0,0,524770643,63
o,1727696034.512262,10.0.2.15,22,10.0.2.2,49914,1073725440,17922,1026,65535,65604,0,0,5,1460,312,0,5,240000,33580,0,65700,96,0,0,524770643,63
o,1727696034.521137,10.0.2.15,22,10.0.2.2,49914,1073725440,17922,1026,65535,65604,0,0,8,1460,312,0,4,240000,33580,0,65700,0,0,0,524770643,63
i,1727696034.521711,10.0.2.15,22,10.0.2.2,49914,1073725440,17922,1026,65535,65604,0,0,8,1460,312,0,67108884,240000,33580,0,65700,0,1,0,524770643,63
o,1727696034.750713,10.0.2.15,22,10.0.2.2,57953,1073725440,14600,1030,65535,65700,0,0,4,1460,312,0,16777220,240000,33580,1484,65700,0,0,0,2045767904,63
o,1727696034.750879,10.0.2.15,22,10.0.2.2,57953,1073725440,14600,1026,65535,65700,0,0,4,1460,312,0,16777220,240000,33580,1484,65700,0,1460,0,2045767904,63
i,1727696034.751747,10.0.2.15,22,10.0.2.2,57953,1073725440,14600,1026,65535,65700,0,0,4,1460,312,0,16777220,240000,33580,1484,65700,0,1484,0,2045767904,63
i,1727696034.751775,10.0.2.15,22,10.0.2.2,57953,1073725440,16060,1026,65535,65700,0,0,4,1460,312,0,4,240000,33580,24,65700,0,24,0,2045767904,63
i,1727696035.628430,10.0.2.15,22,10.0.2.2,49922,1073725440,14600,0,65535,65700,0,0,4,1460,312,0,16777216,270000,33580,0,65700,0,0,0,218874556,63
o,1727696035.646360,10.0.2.15,22,10.0.2.2,49922,1073725440,14600,1026,65535,65700,0,0,4,1460,312,0,16777216,270000,33580,38,65700,42,0,0,218874556,63
i,1727696035.647264,10.0.2.15,22,10.0.2.2,49922,1073725440,14600,1026,65535,65700,0,0,4,1460,312,0,16777216,270000,33580,38,65700,0,38,0,218874556,63
i,1727696035.647308,10.0.2.15,22,10.0.2.2,49922,1073725440,14638,1026,65535,65700,0,0,4,1460,312,0,0,240000,33580,0,65700,0,0,0,218874556,63
i,1727696035.647340,10.0.2.15,22,10.0.2.2,49922,1073725440,14638,1026,65535,65700,0,0,4,1460,312,0,0,240000,33580,0,65700,1460,0,0,218874556,63
o,1727696035.647383,10.0.2.15,22,10.0.2.2,49922,1073725440,14638,1026,65535,65700,0,0,4,1460,312,0,1,240000,33580,0,65700,1536,0,0,218874556,63
o,1727696035.648865,10.0.2.15,22,10.0.2.2,49922,1073725440,14638,1026,65535,65700,0,0,4,1460,312,0,16777216,240000,33580,1120,65700,1536,0,0,218874556,63
i,1727696035.649618,10.0.2.15,22,10.0.2.2,49922,1073725440,14638,1026,65535,65700,0,0,4,1460,312,0,16777216,240000,33580,1120,65700,0,1120,0,218874556,63
i,1727696035.651283,10.0.2.15,22,10.0.2.2,49922,1073725440,15758,1026,65535,65700,0,0,4,1460,312,0,0,240000,33580,0,65700,0,0,0,218874556,63
o,1727696035.655358,10.0.2.15,22,10.0.2.2,49922,1073725440,15758,1026,65535,65700,0,0,4,1460,312,0,16777216,240000,33580,492,65700,0,0,0,218874556,63
i,1727696035.656196,10.0.2.15,22,10.0.2.2,49922,1073725440,15758,1026,65535,65700,0,0,4,1460,312,0,16777216,240000,33580,492,65700,0,492,0,218874556,63
i,1727696035.663376,10.0.2.15,22,10.0.2.2,49922,1073725440,16250,1026,65535,65700,0,0,4,1460,312,0,0,240000,33580,0,65700,0,0,0,218874556,63
i,1727696035.663450,10.0.2.15,22,10.0.2.2,49922,1073725440,16250,1026,65535,65700,0,0,4,1460,312,0,0,240000,33580,0,65700,16,0,0,218874556,63
o,1727696035.663485,10.0.2.15,22,10.0.2.2,49922,1073725440,16250,1026,65535,65700,0,0,4,1460,312,0,1,240000,33580,0,65700,60,0,0,218874556,63
o,1727696035.663799,10.0.2.15,22,10.0.2.2,49922,1073725440,16250,1026,65535,65700,0,0,4,1460,312,0,16777216,240000,33580,44,65700,0,0,0,218874556,63
i,1727696035.664861,10.0.2.15,22,10.0.2.2,49922,1073725440,16250,1026,65535,65700,0,0,4,1460,312,0,16777216,240000,33580,44,65700,0,44,0,218874556,63
i,1727696035.664907,10.0.2.15,22,10.0.2.2,49922,1073725440,16294,1026,65535,65700,0,0,4,1460,312,0,0,240000,33580,0,65700,0,0,0,218874556,63
o,1727696035.667534,10.0.2.15,22,10.0.2.2,49922,1073725440,16294,1026,65535,65700,0,0,4,1460,312,0,16777216,240000,33580,68,65700,0,0,0,218874556,63
i,1727696035.668333,10.0.2.15,22,10.0.2.2,49922,1073725440,16294,1026,65535,65700,0,0,4,1460,312,0,16777216,240000,33580,68,65700,0,68,0,218874556,63
i,1727696035.668354,10.0.2.15,22,10.0.2.2,49922,1073725440,16362,1026,65535,65700,0,0,4,1460,312,0,0,240000,33580,0,65700,0,0,0,218874556,63
o,1727696035.669709,10.0.2.15,22,10.0.2.2,49922,1073725440,16362,1026,65535,65700,0,0,4,1460,312,0,16777216,240000,33580,332,65700,0,0,0,218874556,63
i,1727696035.671050,10.0.2.15,22,10.0.2.2,49922,1073725440,16362,1026,65535,65700,0,0,4,1460,312,0,16777216,240000,33580,332,65700,0,332,0,218874556,63
i,1727696035.672239,10.0.2.15,22,10.0.2.2,49922,1073725440,16694,1026,65535,65700,0,0,4,1460,312,0,0,240000,33580,0,65700,0,0,0,218874556,63
o,1727696035.690516,10.0.2.15,22,10.0.2.2,49922,1073725440,16694,1026,65535,65700,0,0,4,1460,312,0,16777216,240000,33580,28,65700,0,0,0,218874556,63
i,1727696035.691877,10.0.2.15,22,10.0.2.2,49922,1073725440,16694,1026,65535,65700,0,0,4,1460,312,0,16777216,240000,33580,28,65700,0,28,0,218874556,63
i,1727696035.691914,10.0.2.15,22,10.0.2.2,49922,1073725440,16722,1026,65535,65700,0,0,4,1460,312,0,0,240000,33580,0,65700,0,0,0,218874556,63
o,1727696035.693807,10.0.2.15,22,10.0.2.2,49922,1073725440,16722,1026,65535,65700,0,0,4,1460,312,0,16777216,240000,33580,768,65700,112,0,0,218874556,63
i,1727696035.694635,10.0.2.15,22,10.0.2.2,49922,1073725440,16722,1026,65535,65700,0,0,4,1460,312,0,16777216,240000,33580,768,65700,112,768,0,218874556,63
o,1727696035.694667,10.0.2.15,22,10.0.2.2,49922,1073725440,17490,1026,65535,65700,0,0,4,1460,312,0,16777216,240000,33580,140,65700,112,0,0,218874556,63
i,1727696035.695001,10.0.2.15,22,10.0.2.2,49922,1073725440,17490,1026,65535,65700,0,0,4,1460,312,0,16777216,240000,33580,140,65700,112,140,0,218874556,63
o,1727696035.696308,10.0.2.15,22,10.0.2.2,49922,1073725440,17630,1026,65535,65700,0,0,4,1460,312,0,16777216,240000,33580,44,65700,0,0,0,218874556,63
i,1727696035.697150,10.0.2.15,22,10.0.2.2,49922,1073725440,17630,1026,65535,65700,0,0,4,1460,312,0,16777216,240000,33580,44,65700,0,44,0,218874556,63
i,1727696035.697194,10.0.2.15,22,10.0.2.2,49922,1073725440,17674,1026,65535,65700,0,0,4,1460,312,0,0,240000,33580,0,65700,0,0,0,218874556,63
o,1727696035.698309,10.0.2.15,22,10.0.2.2,49922,1073725440,17674,1026,65535,65700,0,0,4,1460,312,0,16777220,240000,33580,72,65700,0,0,0,218874556,63
i,1727696035.698795,10.0.2.15,22,10.0.2.2,49922,1073725440,17674,1026,65535,65700,0,0,4,1460,312,0,16777220,240000,33580,72,65700,0,72,0,218874556,63
o,1727696035.804491,172.16.5.2,21975,172.16.1.2,5103,58388,14480,2082,65535,65700,6,6,4,1460,502500,1,16778209,1450000,33580,0,65700,0,0,0,1309037013,63
o,1727696035.805006,172.16.5.2,21975,172.16.1.2,5103,58388,14480,2082,65535,65700,6,6,4,1460,502500,1,16778212,1450000,33580,37,65700,0,0,0,1309037013,63
i,1727696035.914480,172.16.5.2,21975,172.16.1.2,5103,58388,14480,2082,65535,65700,6,6,4,1460,502500,1,16778212,1450000,33580,37,65700,0,37,0,1309037013,63
o,1727696035.914699,172.16.5.2,21975,172.16.1.2,5103,58388,14517,3106,65728,65728,6,6,4,1460,453437,1,16778212,1610000,33580,4,65700,0,0,0,1309037013,63
o,1727696035.915266,172.16.5.2,21975,172.16.1.2,5103,58388,14517,3106,65728,65728,6,6,4,1460,453437,1,16778212,1610000,33580,130,65700,0,4,0,1309037013,63
i,1727696036.008607,172.16.5.2,21975,172.16.1.2,5103,58388,14517,3106,65728,65728,6,6,4,1460,453437,1,16778212,1610000,33580,130,65700,0,130,0,1309037013,63
i,1727696036.008650,172.16.5.2,21975,172.16.1.2,5103,58388,14647,3106,65600,65728,6,6,4,1460,408125,1,996,1690000,33580,0,65700,0,0,0,1309037013,63
o,1727696036.044995,172.16.5.2,21975,172.16.1.2,5103,58388,14647,3106,65728,65728,6,6,4,1460,408125,1,997,1690000,33580,0,65700,0,0,0,1309037013,63
o,1727696036.099870,172.16.5.2,53556,172.16.1.2,5103,58388,14480,2082,65535,65700,6,6,4,1460,500000,1,16778209,1470000,33580,0,65700,0,0,0,1303351475,63
o,1727696036.100024,172.16.5.2,53556,172.16.1.2,5103,58388,14480,2082,65535,65700,6,6,4,1460,500000,1,16778208,1470000,33580,37,65700,0,0,0,1303351475,63
i,1727696036.198427,172.16.5.2,21975,172.16.1.2,5103,58388,14647,3106,65728,65728,6,6,4,1460,408125,1,996,1690000,33580,0,65700,0,0,0,1309037013,63
i,1727696036.198534,172.16.5.2,21975,172.16.1.2,5103,58388,14647,3106,65728,65728,6,6,4,1460,408125,1,996,1690000,33580,0,65700,1,0,0,1309037013,63
o,1727696036.198560,172.16.5.2,21975,172.16.1.2,5103,58388,14647,3106,65728,65728,6,6,4,1460,408125,1,997,1690000,33580,0,65700,2,0,0,1309037013,63
o,1727696036.199139,172.16.5.2,53556,172.16.1.2,5103,58388,14480,2086,65535,65700,6,6,4,1460,500000,1,16778208,1470000,33580,33580,65700,0,37,0,1303351475,63
i,1727696036.218496,172.16.5.2,53556,172.16.1.2,5103,58388,14480,2086,65535,65700,6,6,4,1460,500000,1,16778208,1470000,33580,33580,65700,0,13069,0,1303351475,63
o,1727696036.218544,172.16.5.2,53556,172.16.1.2,5103,58388,14517,2086,65728,65728,6,6,4,1460,452500,1,16778208,1610000,33580,33543,65700,0,13032,0,1303351475,63
i,1727696036.274918,172.16.5.2,53556,172.16.1.2,5103,58388,14517,2086,65728,65728,6,6,4,1460,452500,1,16778208,1610000,33580,33543,65700,0,14480,0,1303351475,63
o,1727696036.275060,172.16.5.2,53556,172.16.1.2,5103,58388,17413,2086,62848,65728,6,6,4,1460,404687,1,16778208,1700000,33580,30647,65700,0,11584,0,1303351475,63
i,1727696036.295130,172.16.5.2,53556,172.16.1.2,5103,58388,17413,2086,62848,65728,6,6,4,1460,404687,1,16778208,1700000,41772,41772,65700,0,17376,0,1303351475,63
o,1727696036.295284,172.16.5.2,53556,172.16.1.2,5103,58388,20309,2086,64256,65728,6,6,4,1460,365625,1,16778208,1700000,41772,38876,65700,0,14480,0,1303351475,63
i,1727696036.295478,172.16.5.2,53556,172.16.1.2,5103,58388,20309,2086,64256,65728,6,6,4,1460,365625,1,16778208,1700000,49964,38876,65700,0,20272,0,1303351475,63
o,1727696036.295502,172.16.5.2,53556,172.16.1.2,5103,58388,23205,2086,61376,65728,6,6,4,1460,331250,1,16778208,1660000,49964,35980,65700,0,17376,0,1303351475,63
i,1727696036.303198,172.16.5.2,53556,172.16.1.2,5103,58388,23205,2086,61376,65728,6,6,4,1460,331250,1,16778208,1660000,49964,49964,65700,0,23168,0,1303351475,63
o,1727696036.303245,172.16.5.2,53556,172.16.1.2,5103,58388,26101,2086,62848,65728,6,6,4,1460,302500,1,16778208,1580000,49964,47068,65700,0,20272,0,1303351475,63
i,1727696036.303436,172.16.5.2,53556,172.16.1.2,5103,58388,26101,2086,62848,65728,6,6,4,1460,302500,1,16778208,1580000,58156,47068,65700,0,26064,0,1303351475,63
o,1727696036.303459,172.16.5.2,53556,172.16.1.2,5103,58388,28997,2086,64256,65728,6,6,4,1460,277187,1,16778208,1480000,58156,44172,65700,0,23168,0,1303351475,63
o,1727696036.303616,172.16.5.2,53556,172.16.1.2,5103,58388,28997,2086,64256,65728,6,6,4,1460,277187,1,16778208,1480000,58156,44172,65700,0,24616,0,1303351475,63
i,1727696036.524867,172.16.5.2,53556,172.16.1.2,5103,58388,28997,2086,64256,65728,6,6,4,1460,277187,1,16778208,1480000,58156,58156,65700,0,28960,0,1303351475,63
o,1727696036.524909,172.16.5.2,53556,172.16.1.2,5103,58388,31893,2086,64256,65728,6,6,4,1460,274062,1,16778208,1250000,66348,55260,65700,0,26064,0,1303351475,63
i,1727696036.525085,172.16.5.2,53556,172.16.1.2,5103,58388,31893,2086,64256,65728,6,6,4,1460,274062,1,16778208,1250000,66348,55260,65700,0,31856,0,1303351475,63
o,1727696036.525105,172.16.5.2,53556,172.16.1.2,5103,58388,34789,2086,61376,65728,6,6,4,1460,271250,1,16778208,1080000,66348,52364,65700,0,28960,0,1303351475,63
i,1727696036.525288,172.16.5.2,53556,172.16.1.2,5103,58388,34789,2086,61376,65728,6,6,4,1460,271250,1,16778208,1080000,66348,52364,65700,0,34752,0,1303351475,63
o,1727696036.525324,172.16.5.2,53556,172.16.1.2,5103,58388,37685,2086,62848,65728,6,6,4,1460,266250,1,16778208,960000,66348,49468,65700,0,31856,0,1303351475,63
i,1727696036.527330,172.16.5.2,53556,172.16.1.2,5103,58388,37685,2086,62848,65728,6,6,4,1460,266250,1,16778208,960000,82732,82732,65700,0,37648,0,1303351475,63
o,1727696036.527366,172.16.5.2,53556,172.16.1.2,5103,58388,40581,2086,64256,65728,6,6,4,1460,261875,1,16778208,870000,82732,79836,65700,0,34752,0,1303351475,63
i,1727696036.527559,172.16.5.2,53556,172.16.1.2,5103,58388,40581,2086,64256,65728,6,6,4,1460,261875,1,16778208,870000,82732,79836,65700,0,40544,0,1303351475,63
o,1727696036.527585,172.16.5.2,53556,172.16.1.2,5103,58388,43477,2086,61376,65728,6,6,4,1460,258125,1,16778208,790000,82732,76940,65700,0,37648,0,1303351475,63
i,1727696036.527771,172.16.5.2,53556,172.16.1.2,5103,58388,43477,2086,61376,65728,6,6,4,1460,258125,1,16778208,790000,82732,76940,65700,0,43440,0,1303351475,63
o,1727696036.527819,172.16.5.2,53556,172.16.1.2,5103,58388,46373,2086,64256,65728,6,6,4,1460,254687,1,16778208,730000,82732,74044,65700,0,40544,0,1303351475,63
i,1727696036.528078,172.16.5.2,53556,172.16.1.2,5103,58388,46373,2086,64256,65728,6,6,4,1460,254687,1,16778208,730000,82732,74044,65700,0,46336,0,1303351475,63
o,1727696036.528103,172.16.5.2,53556,172.16.1.2,5103,58388,49269,2086,61376,65728,6,6,4,1460,250625,1,16778208,690000,82732,71148,65700,0,43440,0,1303351475,63
i,1727696036.560808,172.16.5.2,53556,172.16.1.2,5103,58388,49269,2086,61376,65728,6,6,4,1460,250625,1,16778208,690000,82732,82732,65700,0,49232,0,1303351475,63
o,1727696036.560852,172.16.5.2,53556,172.16.1.2,5103,58388,52165,2086,64256,65728,6,6,4,1460,251875,1,16778208,640000,82732,79836,65700,0,46336,0,1303351475,63
i,1727696036.561992,172.16.5.2,53556,172.16.1.2,5103,58388,52165,2086,64256,65728,6,6,4,1460,251875,1,16778208,640000,82732,82732,65700,0,52128,0,1303351475,63
o,1727696036.562033,172.16.5.2,53556,172.16.1.2,5103,58388,55061,2086,64256,65728,6,6,4,1460,253125,1,16778208,610000,82732,79836,65700,0,49232,0,1303351475,63
o,1727696036.562141,172.16.5.2,53556,172.16.1.2,5103,58388,55061,2086,64256,65728,6,6,4,1460,253125,1,16778208,610000,82732,79836,65700,0,50680,0,1303351475,63
i,1727696036.562267,172.16.5.2,53556,172.16.1.2,5103,58388,55061,2086,64256,65728,6,6,4,1460,253125,1,16778208,610000,82732,79836,65700,0,55024,0,1303351475,63
o,1727696036.562283,172.16.5.2,53556,172.16.1.2,5103,58388,57957,2086,61376,65728,6,6,4,1460,254062,1,16778208,580000,82732,76940,65700,0,52128,0,1303351475,63
o,1727696036.752458,10.0.2.15,22,10.0.2.2,57953,1073725440,14600,1026,65535,65700,0,0,4,1460,312,0,16777220,240000,33580,1284,65700,0,0,0,2045767904,63
i,1727696036.753046,10.0.2.15,22,10.0.2.2,57953,1073725440,14600,1026,65535,65700,0,0,4,1460,312,0,16777220,240000,33580,1284,65700,0,1284,0,2045767904,63
i,1727696036.901188,172.16.5.2,53556,172.16.1.2,5103,58388,57957,2086,61376,65728,6,6,4,1460,254062,1,16778208,580000,82732,82732,65700,0,57920,0,1303351475,63
o,1727696036.901232,172.16.5.2,53556,172.16.1.2,5103,58388,60853,2086,64256,65728,6,6,4,1460,270000,1,16778208,690000,82732,79836,65700,0,55024,0,1303351475,63
i,1727696036.901395,172.16.5.2,53556,172.16.1.2,5103,58388,60853,2086,64256,65728,6,6,4,1460,270000,1,16778208,690000,82732,79836,65700,0,60816,0,1303351475,63
o,1727696036.901413,172.16.5.2,53556,172.16.1.2,5103,58388,60853,2086,61376,65728,6,6,4,1460,283750,1,16778208,760000,82732,76940,65700,0,57920,0,1303351475,63
i,1727696036.902338,172.16.5.2,53556,172.16.1.2,5103,58388,60853,2086,61376,65728,6,6,4,1460,283750,1,16778208,760000,82732,81840,65700,0,60816,0,1303351475,63
i,1727696036.902420,172.16.5.2,53556,172.16.1.2,5103,58388,60853,2086,58496,65728,6,6,4,1460,295937,1,16778208,800000,82732,78944,65700,0,57920,0,1303351475,63
o,1727696036.902444,172.16.5.2,53556,172.16.1.2,5103,58388,60853,2086,62848,65728,6,6,4,1460,306562,1,16778208,820000,82732,76048,65700,0,55024,0,1303351475,63
i,1727696036.903428,172.16.5.2,53556,172.16.1.2,5103,58388,60853,2086,62848,65728,6,6,4,1460,306562,1,16778208,820000,82732,82732,65700,0,60816,0,1303351475,63
o,1727696036.903453,172.16.5.2,53556,172.16.1.2,5103,58388,60853,2086,64256,65728,6,6,4,1460,315937,1,16778208,830000,82732,79836,65700,0,57920,0,1303351475,63
i,1727696036.903614,172.16.5.2,53556,172.16.1.2,5103,58388,60853,2086,64256,65728,6,6,4,1460,315937,1,16778208,830000,82732,79836,65700,0,60816,0,1303351475,63
o,1727696036.903634,172.16.5.2,53556,172.16.1.2,5103,58388,60853,2086,61376,65728,6,6,4,1460,324062,1,16778208,820000,82732,76940,65700,0,57920,0,1303351475,63
i,1727696036.903842,172.16.5.2,53556,172.16.1.2,5103,58388,60853,2086,61376,65728,6,6,4,1460,324062,1,16778208,820000,82732,76940,65700,0,60816,0,1303351475,63
o,1727696036.903862,172.16.5.2,53556,172.16.1.2,5103,58388,60853,2086,62848,65728,6,6,4,1460,331250,1,16778208,810000,82732,74044,65700,0,57920,0,1303351475,63
i,1727696036.904500,172.16.5.2,53556,172.16.1.2,5103,58388,60853,2086,62848,65728,6,6,4,1460,331250,1,16778208,810000,82732,82732,65700,0,60816,0,1303351475,63
o,1727696036.904522,172.16.5.2,53556,172.16.1.2,5103,58388,60853,2086,64256,65728,6,6,4,1460,337500,1,16778208,800000,82732,79836,65700,0,57920,0,1303351475,63
i,1727696036.904724,172.16.5.2,53556,172.16.1.2,5103,58388,60853,2086,64256,65728,6,6,4,1460,337500,1,16778208,800000,82732,79836,65700,0,60816,0,1303351475,63
o,1727696036.904759,172.16.5.2,53556,172.16.1.2,5103,58388,60853,2086,62848,65728,6,6,4,1460,342812,1,16778208,780000,82732,76940,65700,0,57920,0,1303351475,63
i,1727696036.905673,172.16.5.2,53556,172.16.1.2,5103,58388,60853,2086,62848,65728,6,6,4,1460,342812,1,16778208,780000,82732,82732,65700,0,60816,0,1303351475,63
o,1727696036.905698,172.16.5.2,53556,172.16.1.2,5103,58388,60853,2086,64256,65728,6,6,4,1460,347500,1,16778208,760000,82732,79836,65700,0,57920,0,1303351475,63
i,1727696036.905934,172.16.5.2,53556,172.16.1.2,5103,58388,60853,2086,64256,65728,6,6,4,1460,347500,1,16778208,760000,82732,79836,65700,0,60816,0,1303351475,63
o,1727696036.905957,172.16.5.2,53556,172.16.1.2,5103,58388,60853,2086,62848,65728,6,6,4,1460,351562,1,16778208,740000,82732,76940,65700,0,57920,0,1303351475,63
i,1727696036.906146,172.16.5.2,53556,172.16.1.2,5103,58388,60853,2086,62848,65728,6,6,4,1460,351562,1,16778208,740000,82732,76940,65700,0,60816,0,1303351475,63
o,1727696036.906168,172.16.5.2,53556,172.16.1.2,5103,58388,60853,2086,62848,65728,6,6,4,1460,355312,1,16778208,730000,82732,74044,65700,0,57920,0,1303351475,63
i,1727696036.906434,172.16.5.2,53556,172.16.1.2,5103,58388,60853,2086,62848,65728,6,6,4,1460,355312,1,16778208,730000,82732,74044,65700,0,60816,0,1303351475,63
o,1727696036.906458,172.16.5.2,53556,172.16.1.2,5103,58388,60853,2086,64256,65728,6,6,4,1460,358437,1,16778208,710000,82732,71148,65700,0,57920,0,1303351475,63
i,1727696036.906682,172.16.5.2,53556,172.16.1.2,5103,58388,60853,2086,64256,65728,6,6,4,1460,358437,1,16778208,710000,82732,71148,65700,0,60816,0,1303351475,63
o,1727696036.906704,172.16.5.2,53556,172.16.1.2,5103,58388,60853,2086,64256,65728,6,6,4,1460,361250,1,16778208,700000,82732,68252,65700,0,57920,0,1303351475,63
i,1727696036.906939,172.16.5.2,53556,172.16.1.2,5103,58388,60853,2086,64256,65728,6,6,4,1460,361250,1,16778208,700000,82732,68252,65700,0,60816,0,1303351475,63
o,1727696036.906992,172.16.5.2,53556,172.16.1.2,5103,58388,60853,2086,61376,65728,6,6,4,1460,358750,1,16778208,680000,82732,65356,65700,0,57920,0,1303351475,63
i,1727696036.908075,172.16.5.2,53556,172.16.1.2,5103,58388,60853,2086,61376,65728,6,6,4,1460,358750,1,16778208,680000,82732,82732,65700,0,60816,0,1303351475,63
o,1727696036.908100,172.16.5.2,53556,172.16.1.2,5103,58388,60853,2086,62848,65728,6,6,4,1460,356562,1,16778208,670000,82732,79836,65700,0,57920,0,1303351475,63
i,1727696036.908278,172.16.5.2,53556,172.16.1.2,5103,58388,60853,2086,62848,65728,6,6,4,1460,356562,1,16778208,670000,82732,79836,65700,0,60816,0,1303351475,63
o,1727696036.908301,172.16.5.2,53556,172.16.1.2,5103,58388,60853,2086,64256,65728,6,6,4,1460,354687,1,16778208,650000,82732,76940,65700,0,57920,0,1303351475,63
o,1727696036.908510,172.16.5.2,53556,172.16.1.2,5103,58388,60853,2086,64256,65728,6,6,4,1460,354687,1,16778208,650000,82732,76940,65700,0,59368,0,1303351475,63
i,1727696036.908700,172.16.5.2,53556,172.16.1.2,5103,58388,60853,2086,64256,65728,6,6,4,1460,354687,1,16778208,650000,82732,76940,65700,0,60816,0,1303351475,63
o,1727696036.908723,172.16.5.2,53556,172.16.1.2,5103,58388,60853,2086,62848,65728,6,6,4,1460,353125,1,16778208,640000,82732,74044,65700,0,57920,0,1303351475,63
i,1727696036.909019,172.16.5.2,53556,172.16.1.2,5103,58388,60853,2086,62848,65728,6,6,4,1460,353125,1,16778208,640000,82732,74044,65700,0,60816,0,1303351475,63
o,1727696036.909041,172.16.5.2,53556,172.16.1.2,5103,58388,60853,2086,64256,65728,6,6,4,1460,351562,1,16778208,630000,82732,71148,65700,0,57920,0,1303351475,63
i,1727696036.909244,172.16.5.2,53556,172.16.1.2,5103,58388,60853,2086,64256,65728,6,6,4,1460,351562,1,16778208,630000,82732,71148,65700,0,60816,0,1303351475,63
o,1727696036.909271,172.16.5.2,53556,172.16.1.2,5103,58388,60853,2086,61376,65728,6,6,4,1460,350312,1,16778208,620000,82732,68252,65700,0,57920,0,1303351475,63
i,1727696037.425260,172.16.5.2,53556,172.16.1.2,5103,58388,60853,2086,61376,65728,6,6,4,1460,350312,1,16778208,620000,82732,82732,65700,0,60816,0,1303351475,63
o,1727696037.425316,172.16.5.2,53556,172.16.1.2,5103,58388,60853,2086,95680,65728,6,6,4,1460,371562,1,16778208,790000,90924,79836,65700,0,57920,0,1303351475,63
i,1727696037.425482,172.16.5.2,53556,172.16.1.2,5103,58388,60853,2086,95680,65728,6,6,4,1460,371562,1,16778208,790000,99116,79836,65700,0,60816,0,1303351475,63
o,1727696037.425503,172.16.5.2,53556,172.16.1.2,5103,58388,60853,2086,92800,65728,6,6,4,1460,390312,1,16778208,900000,99116,76940,65700,0,57920,0,1303351475,63
i,1727696037.425686,172.16.5.2,53556,172.16.1.2,5103,58388,60853,2086,92800,65728,6,6,4,1460,390312,1,16778208,900000,99116,76940,65700,0,60816,0,1303351475,63
o,1727696037.425707,172.16.5.2,53556,172.16.1.2,5103,58388,62313,2086,95680,65728,6,6,4,1460,406562,1,16778208,970000,99116,74044,65700,0,57920,0,1303351475,63
i,1727696037.425859,172.16.5.2,53556,172.16.1.2,5103,58388,62313,2086,95680,65728,6,6,4,1460,406562,1,16778208,970000,99116,74044,65700,0,62264,0,1303351475,63
o,1727696037.425879,172.16.5.2,53556,172.16.1.2,5103,58388,62313,2086,92800,65728,6,6,4,1460,420937,1,16778208,1010000,99116,71148,65700,0,59368,0,1303351475,63
i,1727696037.426087,172.16.5.2,53556,172.16.1.2,5103,58388,62313,2086,92800,65728,6,6,4,1460,420937,1,16778208,1010000,99116,71148,65700,0,62264,0,1303351475,63
o,1727696037.426129,172.16.5.2,53556,172.16.1.2,5103,58388,62313,2086,95680,65728,6,6,4,1460,433437,1,16778208,1020000,99116,68252,65700,0,59368,0,1303351475,63
i,1727696037.427113,172.16.5.2,53556,172.16.1.2,5103,58388,62313,2086,95680,65728,6,6,4,1460,433437,1,16778208,1020000,123692,123692,65700,0,62264,0,1303351475,63
o,1727696037.427143,172.16.5.2,53556,172.16.1.2,5103,58388,62313,2086,97152,65728,6,6,4,1460,444375,1,16778208,1020000,123692,120796,65700,0,59368,0,1303351475,63
i,1727696037.427334,172.16.5.2,53556,172.16.1.2,5103,58388,62313,2086,97152,65728,6,6,4,1460,444375,1,16778208,1020000,123692,120796,65700,0,62264,0,1303351475,63
o,1727696037.427353,172.16.5.2,53556,172.16.1.2,5103,58388,62313,2086,94272,65728,6,6,4,1460,454062,1,16778208,1020000,123692,117900,65700,0,59368,0,1303351475,63
i,1727696037.428281,172.16.5.2,53556,172.16.1.2,5103,58388,62313,2086,94272,65728,6,6,4,1460,454062,1,16778208,1020000,123692,123692,65700,0,62264,0,1303351475,63
o,1727696037.428310,172.16.5.2,53556,172.16.1.2,5103,58388,62313,2086,95680,65728,6,6,4,1460,462500,1,16778208,1000000,123692,120796,65700,0,59368,0,1303351475,63
i,1727696037.428523,172.16.5.2,53556,172.16.1.2,5103,58388,62313,2086,95680,65728,6,6,4,1460,462500,1,16778208,1000000,123692,120796,65700,0,62264,0,1303351475,63
o,1727696037.428546,172.16.5.2,53556,172.16.1.2,5103,58388,62313,2086,97152,65728,6,6,4,1460,469687,1,16778208,980000,123692,117900,65700,0,59368,0,1303351475,63
i,1727696037.428714,172.16.5.2,53556,172.16.1.2,5103,58388,62313,2086,97152,65728,6,6,4,1460,469687,1,16778208,980000,123692,117900,65700,0,62264,0,1303351475,63
o,1727696037.428736,172.16.5.2,53556,172.16.1.2,5103,58388,62313,2086,94272,65728,6,6,4,1460,476250,1,16778208,960000,123692,115004,65700,0,59368,0,1303351475,63
i,1727696037.428939,172.16.5.2,53556,172.16.1.2,5103,58388,62313,2086,94272,65728,6,6,4,1460,476250,1,16778208,960000,123692,115004,65700,0,62264,0,1303351475,63
o,1727696037.428962,172.16.5.2,53556,172.16.1.2,5103,58388,62313,2086,95680,65728,6,6,4,1460,481875,1,16778208,940000,123692,112108,65700,0,59368,0,1303351475,63
i,1727696037.429130,172.16.5.2,53556,172.16.1.2,5103,58388,62313,2086,95680,65728,6,6,4,1460,481875,1,16778208,940000,123692,112108,65700,0,62264,0,1303351475,63
o,1727696037.429153,172.16.5.2,53556,172.16.1.2,5103,58388,62313,2086,92800,65728,6,6,4,1460,486875,1,16778208,920000,123692,109212,65700,0,59368,0,1303351475,63
i,1727696037.429349,172.16.5.2,53556,172.16.1.2,5103,58388,62313,2086,92800,65728,6,6,4,1460,486875,1,16778208,920000,123692,109212,65700,0,62264,0,1303351475,63
o,1727696037.429371,172.16.5.2,53556,172.16.1.2,5103,58388,62313,2086,97152,65728,6,6,4,1460,491250,1,16778208,900000,123692,106316,65700,0,59368,0,1303351475,63
i,1727696037.429592,172.16.5.2,53556,172.16.1.2,5103,58388,62313,2086,97152,65728,6,6,4,1460,491250,1,16778208,900000,123692,106316,65700,0,62264,0,1303351475,63
o,1727696037.429619,172.16.5.2,53556,172.16.1.2,5103,58388,62313,2086,94272,65728,6,6,4,1460,495000,1,16778208,880000,123692,103420,65700,0,59368,0,1303351475,63
i,1727696037.431163,172.16.5.2,53556,172.16.1.2,5103,58388,62313,2086,94272,65728,6,6,4,1460,495000,1,16778208,880000,123692,123692,65700,0,62264,0,1303351475,63
o,1727696037.431184,172.16.5.2,53556,172.16.1.2,5103,58388,62313,2086,97152,65728,6,6,4,1460,499375,1,16778208,870000,123692,120796,65700,0,59368,0,1303351475,63
i,1727696037.431318,172.16.5.2,53556,172.16.1.2,5103,58388,62313,2086,97152,65728,6,6,4,1460,499375,1,16778208,870000,123692,120796,65700,0,62264,0,1303351475,63
o,1727696037.431340,172.16.5.2,53556,172.16.1.2,5103,58388,62313,2086,94272,65728,6,6,4,1460,503437,1,16778208,870000,123692,117900,65700,0,59368,0,1303351475,63
i,1727696037.431500,172.16.5.2,53556,172.16.1.2,5103,58388,62313,2086,94272,65728,6,6,4,1460,503437,1,16778208,870000,123692,117900,65700,0,62264,0,1303351475,63
o,1727696037.431520,172.16.5.2,53556,172.16.1.2,5103,58388,62313,2086,95680,65728,6,6,4,1460,506875,1,16778208,860000,123692,115004,65700,0,59368,0,1303351475,63
i,1727696037.431653,172.16.5.2,53556,172.16.1.2,5103,58388,62313,2086,95680,65728,6,6,4,1460,506875,1,16778208,860000,123692,115004,65700,0,62264,0,1303351475,63
o,1727696037.431670,172.16.5.2,53556,172.16.1.2,5103,58388,62313,2086,92800,65728,6,6,4,1460,510000,1,16778208,850000,123692,112108,65700,0,59368,0,1303351475,63
o,1727696037.431942,172.16.5.2,53556,172.16.1.2,5103,58388,62313,2086,92800,65728,6,6,4,1460,510000,1,16778208,850000,123692,112108,65700,0,60816,0,1303351475,63
i,1727696037.432818,172.16.5.2,53556,172.16.1.2,5103,58388,62313,2086,92800,65728,6,6,4,1460,510000,1,16778208,850000,123692,123692,65700,0,62264,0,1303351475,63
o,1727696037.432840,172.16.5.2,53556,172.16.1.2,5103,58388,62313,2086,89920,65728,6,6,4,1460,512500,1,16778208,840000,123692,120796,65700,0,59368,0,1303351475,63
i,1727696037.432999,172.16.5.2,53556,172.16.1.2,5103,58388,62313,2086,89920,65728,6,6,4,1460,512500,1,16778208,840000,123692,120796,65700,0,62264,0,1303351475,63
o,1727696037.433018,172.16.5.2,53556,172.16.1.2,5103,58388,62313,2086,87040,65728,6,6,4,1460,514687,1,16778208,820000,123692,117900,65700,0,59368,0,1303351475,63
i,1727696037.433203,172.16.5.2,53556,172.16.1.2,5103,58388,62313,2086,87040,65728,6,6,4,1460,514687,1,16778208,820000,123692,117900,65700,0,62264,0,1303351475,63
o,1727696037.433221,172.16.5.2,53556,172.16.1.2,5103,58388,62313,2086,95680,65728,6,6,4,1460,516875,1,16778208,820000,123692,115004,65700,0,59368,0,1303351475,63
i,1727696037.965106,172.16.5.2,53556,172.16.1.2,5103,58388,62313,2086,95680,65728,6,6,4,1460,516875,1,16778208,820000,123692,123692,65700,0,62264,0,1303351475,63
o,1727696037.965144,172.16.5.2,53556,172.16.1.2,5103,58388,62313,2086,144960,65728,6,6,4,1460,518750,1,16778208,810000,131884,120796,65700,0,59368,0,1303351475,63
i,1727696037.965302,172.16.5.2,53556,172.16.1.2,5103,58388,62313,2086,144960,65728,6,6,4,1460,518750,1,16778208,810000,140076,120796,65700,0,62264,0,1303351475,63
o,1727696037.965319,172.16.5.2,53556,172.16.1.2,5103,58388,62313,2086,144960,65728,6,6,4,1460,520312,1,16778208,800000,140076,117900,65700,0,59368,0,1303351475,63
i,1727696037.966372,172.16.5.2,53556,172.16.1.2,5103,58388,62313,2086,144960,65728,6,6,4,1460,520312,1,16778208,800000,140076,140076,65700,0,62264,0,1303351475,63
o,1727696037.966460,172.16.5.2,53556,172.16.1.2,5103,58388,63773,2086,146432,65728,6,6,4,1460,521562,1,16778208,790000,140076,137180,65700,0,59368,0,1303351475,63
i,1727696037.968693,172.16.5.2,53556,172.16.1.2,5103,58388,63773,2086,146432,65728,6,6,4,1460,521562,1,16778208,790000,140076,140076,65700,0,63712,0,1303351475,63
o,1727696037.968735,172.16.5.2,53556,172.16.1.2,5103,58388,63773,2086,144960,65728,6,6,4,1460,522812,1,16778208,790000,140076,137180,65700,0,60816,0,1303351475,63
i,1727696037.968866,172.16.5.2,53556,172.16.1.2,5103,58388,63773,2086,144960,65728,6,6,4,1460,522812,1,16778208,790000,140076,137180,65700,0,63712,0,1303351475,63
o,1727696037.968887,172.16.5.2,53556,172.16.1.2,5103,58388,63773,2086,142080,65728,6,6,4,1460,523750,1,16778208,780000,140076,134284,65700,0,60816,0,1303351475,63
i,1727696037.969043,172.16.5.2,53556,172.16.1.2,5103,58388,63773,2086,142080,65728,6,6,4,1460,523750,1,16778208,780000,140076,134284,65700,0,63712,0,1303351475,63
o,1727696037.969064,172.16.5.2,53556,172.16.1.2,5103,58388,63773,2086,144960,65728,6,6,4,1460,524687,1,16778208,770000,140076,131388,65700,0,60816,0,1303351475,63
i,1727696037.969222,172.16.5.2,53556,172.16.1.2,5103,58388,63773,2086,144960,65728,6,6,4,1460,524687,1,16778208,770000,140076,131388,65700,0,63712,0,1303351475,63
o,1727696037.969242,172.16.5.2,53556,172.16.1.2,5103,58388,63773,2086,146432,65728,6,6,4,1460,525625,1,16778208,770000,140076,128492,65700,0,60816,0,1303351475,63
i,1727696037.969418,172.16.5.2,53556,172.16.1.2,5103,58388,63773,2086,146432,65728,6,6,4,1460,525625,1,16778208,770000,140076,128492,65700,0,63712,0,1303351475,63
o,1727696037.969435,172.16.5.2,53556,172.16.1.2,5103,58388,63773,2086,144960,65728,6,6,4,1460,526250,1,16778208,760000,140076,125596,65700,0,60816,0,1303351475,63
i,1727696037.969647,172.16.5.2,53556,172.16.1.2,5103,58388,63773,2086,144960,65728,6,6,4,1460,526250,1,16778208,760000,148268,125596,65700,0,63712,0,1303351475,63
o,1727696037.969663,172.16.5.2,53556,172.16.1.2,5103,58388,63773,2086,146432,65728,6,6,4,1460,526875,1,16778208,760000,148268,122700,65700,0,60816,0,1303351475,63
i,1727696037.969786,172.16.5.2,53556,172.16.1.2,5103,58388,63773,2086,146432,65728,6,6,4,1460,526875,1,16778208,760000,148268,122700,65700,0,63712,0,1303351475,63
o,1727696037.969802,172.16.5.2,53556,172.16.1.2,5103,58388,63773,2086,146432,65728,6,6,4,1460,527500,1,16778208,760000,148268,119804,65700,0,60816,0,1303351475,63
i,1727696037.969946,172.16.5.2,53556,172.16.1.2,5103,58388,63773,2086,146432,65728,6,6,4,1460,527500,1,16778208,760000,148268,119804,65700,0,63712,0,1303351475,63
o,1727696037.969966,172.16.5.2,53556,172.16.1.2,5103,58388,63773,2086,143552,65728,6,6,4,1460,527812,1,16778208,750000,148268,116908,65700,0,60816,0,1303351475,63
i,1727696037.970122,172.16.5.2,53556,172.16.1.2,5103,58388,63773,2086,143552,65728,6,6,4,1460,527812,1,16778208,750000,148268,116908,65700,0,63712,0,1303351475,63
o,1727696037.970141,172.16.5.2,53556,172.16.1.2,5103,58388,63773,2086,146432,65728,6,6,4,1460,528125,1,16778208,750000,148268,114012,65700,0,60816,0,1303351475,63
i,1727696037.970558,172.16.5.2,53556,172.16.1.2,5103,58388,63773,2086,146432,65728,6,6,4,1460,528125,1,16778208,750000,148268,114012,65700,0,63712,0,1303351475,63
o,1727696037.970581,172.16.5.2,53556,172.16.1.2,5103,58388,63773,2086,144960,65728,6,6,4,1460,529687,1,16778208,760000,148268,111116,65700,0,60816,0,1303351475,63
i,1727696037.970741,172.16.5.2,53556,172.16.1.2,5103,58388,63773,2086,144960,65728,6,6,4,1460,529687,1,16778208,760000,148268,111116,65700,0,63712,0,1303351475,63
o,1727696037.970761,172.16.5.2,53556,172.16.1.2,5103,58388,63773,2086,146432,65728,6,6,4,1460,531250,1,16778208,760000,148268,108220,65700,0,60816,0,1303351475,63
i,1727696037.970927,172.16.5.2,53556,172.16.1.2,5103,58388,63773,2086,146432,65728,6,6,4,1460,531250,1,16778208,760000,148268,108220,65700,0,63712,0,1303351475,63
o,1727696037.970948,172.16.5.2,53556,172.16.1.2,5103,58388,63773,2086,144960,65728,6,6,4,1460,532500,1,16778208,770000,148268,105324,65700,0,60816,0,1303351475,63
i,1727696037.971142,172.16.5.2,53556,172.16.1.2,5103,58388,63773,2086,144960,65728,6,6,4,1460,532500,1,16778208,770000,148268,105324,65700,0,63712,0,1303351475,63
o,1727696037.971163,172.16.5.2,53556,172.16.1.2,5103,58388,63773,2086,146432,65728,6,6,4,1460,532187,1,16778208,760000,148268,102428,65700,0,60816,0,1303351475,63
i,1727696037.971335,172.16.5.2,53556,172.16.1.2,5103,58388,63773,2086,146432,65728,6,6,4,1460,532187,1,16778208,760000,148268,102428,65700,0,63712,0,1303351475,63
o,1727696037.971357,172.16.5.2,53556,172.16.1.2,5103,58388,63773,2086,144960,65728,6,6,4,1460,532187,1,16778208,750000,148268,99532,65700,0,60816,0,1303351475,63
i,1727696037.971525,172.16.5.2,53556,172.16.1.2,5103,58388,63773,2086,144960,65728,6,6,4,1460,532187,1,16778208,750000,148268,99532,65700,0,63712,0,1303351475,63
o,1727696037.971545,172.16.5.2,53556,172.16.1.2,5103,58388,63773,2086,144960,65728,6,6,4,1460,532187,1,16778208,750000,148268,96636,65700,0,60816,0,1303351475,63
o,1727696037.971686,172.16.5.2,53556,172.16.1.2,5103,58388,63773,2086,144960,65728,6,6,4,1460,532187,1,16778208,750000,148268,96636,65700,0,62264,0,1303351475,63
i,1727696037.971865,172.16.5.2,53556,172.16.1.2,5103,58388,63773,2086,144960,65728,6,6,4,1460,532187,1,16778208,750000,148268,96636,65700,0,63712,0,1303351475,63
o,1727696037.971886,172.16.5.2,53556,172.16.1.2,5103,58388,63773,2086,144960,65728,6,6,4,1460,532187,1,16778208,740000,148268,93740,65700,0,60816,0,1303351475,63
i,1727696037.972046,172.16.5.2,53556,172.16.1.2,5103,58388,63773,2086,144960,65728,6,6,4,1460,532187,1,16778208,740000,148268,93740,65700,0,63712,0,1303351475,63
o,1727696037.972063,172.16.5.2,53556,172.16.1.2,5103,58388,63773,2086,142080,65728,6,6,4,1460,532187,1,16778208,740000,148268,90844,65700,0,60816,0,1303351475,63
i,1727696037.972249,172.16.5.2,53556,172.16.1.2,5103,58388,63773,2086,142080,65728,6,6,4,1460,532187,1,16778208,740000,148268,90844,65700,0,63712,0,1303351475,63
o,1727696037.972270,172.16.5.2,53556,172.16.1.2,5103,58388,63773,2086,146432,65728,6,6,4,1460,532187,1,16778208,740000,148268,87948,65700,0,60816,0,1303351475,63
i,1727696037.978049,172.16.5.2,53556,172.16.1.2,5103,58388,63773,2086,146432,65728,6,6,4,1460,532187,1,16778208,740000,148268,148268,65700,0,63712,0,1303351475,63
o,1727696037.978090,172.16.5.2,53556,172.16.1.2,5103,58388,63773,2086,147840,65728,6,6,4,1460,532187,1,16778208,730000,148268,146820,65700,0,62264,0,1303351475,63
i,1727696038.420618,172.16.5.2,53556,172.16.1.2,5103,58388,63773,2086,147840,65728,6,6,4,1460,532187,1,16778208,730000,148268,146820,65700,0,63712,0,1303351475,63
o,1727696038.420663,172.16.5.2,53556,172.16.1.2,5103,58388,63773,2086,144960,65728,6,6,4,1460,522187,1,16778208,800000,148268,143924,65700,0,60816,0,1303351475,63
i,1727696038.420808,172.16.5.2,53556,172.16.1.2,5103,58388,63773,2086,144960,65728,6,6,4,1460,522187,1,16778208,800000,148268,143924,65700,0,63712,0,1303351475,63
o,1727696038.420830,172.16.5.2,53556,172.16.1.2,5103,58388,63773,2086,146432,65728,6,6,4,1460,513437,1,16778208,850000,148268,141028,65700,0,60816,0,1303351475,63
i,1727696038.421012,172.16.5.2,53556,172.16.1.2,5103,58388,63773,2086,146432,65728,6,6,4,1460,513437,1,16778208,850000,148268,141028,65700,0,63712,0,1303351475,63
o,1727696038.421031,172.16.5.2,53556,172.16.1.2,5103,58388,63773,2086,146432,65728,6,6,4,1460,505625,1,16778208,870000,148268,138132,65700,0,60816,0,1303351475,63
i,1727696038.422372,172.16.5.2,53556,172.16.1.2,5103,58388,63773,2086,146432,65728,6,6,4,1460,505625,1,16778208,870000,148268,148268,65700,0,63712,0,1303351475,63
o,1727696038.422408,172.16.5.2,53556,172.16.1.2,5103,58388,65233,2086,146432,65728,6,6,4,1460,498750,1,16778208,880000,148268,145372,65700,0,60816,0,1303351475,63
i,1727696038.422623,172.16.5.2,53556,172.16.1.2,5103,58388,65233,2086,146432,65728,6,6,4,1460,498750,1,16778208,880000,148268,145372,65700,0,65160,0,1303351475,63
o,1727696038.422641,172.16.5.2,53556,172.16.1.2,5103,58388,65233,2086,146432,65728,6,6,4,1460,492812,1,16778208,870000,148268,142476,65700,0,62264,0,1303351475,63
i,1727696038.423327,172.16.5.2,53556,172.16.1.2,5103,58388,65233,2086,146432,65728,6,6,4,1460,492812,1,16778208,870000,148268,148268,65700,0,65160,0,1303351475,63
o,1727696038.423348,172.16.5.2,53556,172.16.1.2,5103,58388,65233,2086,143552,65728,6,6,4,1460,487500,1,16778208,870000,148268,145372,65700,0,62264,0,1303351475,63
i,1727696038.423488,172.16.5.2,53556,172.16.1.2,5103,58388,65233,2086,143552,65728,6,6,4,1460,487500,1,16778208,870000,148268,145372,65700,0,65160,0,1303351475,63
o,1727696038.423506,172.16.5.2,53556,172.16.1.2,5103,58388,65233,2086,144960,65728,6,6,4,1460,482812,1,16778208,850000,148268,142476,65700,0,62264,0,1303351475,63
i,1727696038.423705,172.16.5.2,53556,172.16.1.2,5103,58388,65233,2086,144960,65728,6,6,4,1460,482812,1,16778208,850000,148268,142476,65700,0,65160,0,1303351475,63
o,1727696038.423745,172.16.5.2,53556,172.16.1.2,5103,58388,65233,2086,146432,65728,6,6,4,1460,478750,1,16778208,840000,148268,139580,65700,0,62264,0,1303351475,63
i,1727696038.424557,172.16.5.2,53556,172.16.1.2,5103,58388,65233,2086,146432,65728,6,6,4,1460,478750,1,16778208,840000,148268,148268,65700,0,65160,0,1303351475,63
o,1727696038.424576,172.16.5.2,53556,172.16.1.2,5103,58388,65233,2086,146432,65728,6,6,4,1460,475312,1,16778208,820000,148268,145372,65700,0,62264,0,1303351475,63
i,1727696038.424712,172.16.5.2,53556,172.16.1.2,5103,58388,65233,2086,146432,65728,6,6,4,1460,475312,1,16778208,820000,148268,145372,65700,0,65160,0,1303351475,63
o,1727696038.424729,172.16.5.2,53556,172.16.1.2,5103,58388,65233,2086,143552,65728,6,6,4,1460,472187,1,16778208,810000,148268,142476,65700,0,62264,0,1303351475,63
i,1727696038.424916,172.16.5.2,53556,172.16.1.2,5103,58388,65233,2086,143552,65728,6,6,4,1460,472187,1,16778208,810000,148268,142476,65700,0,65160,0,1303351475,63
o,1727696038.424938,172.16.5.2,53556,172.16.1.2,5103,58388,65233,2086,140672,65728,6,6,4,1460,469687,1,16778208,790000,148268,139580,65700,0,62264,0,1303351475,63
i,1727696038.425156,172.16.5.2,53556,172.16.1.2,5103,58388,65233,2086,140672,65728,6,6,4,1460,469687,1,16778208,790000,148268,139580,65700,0,65160,0,1303351475,63
o,1727696038.425179,172.16.5.2,53556,172.16.1.2,5103,58388,65233,2086,137792,65728,6,6,4,1460,467500,1,16778208,780000,148268,136684,65700,0,62264,0,1303351475,63
i,1727696038.425376,172.16.5.2,53556,172.16.1.2,5103,58388,65233,2086,137792,65728,6,6,4,1460,467500,1,16778208,780000,148268,136684,65700,0,65160,0,1303351475,63
o,1727696038.425396,172.16.5.2,53556,172.16.1.2,5103,58388,65233,2086,146432,65728,6,6,4,1460,465312,1,16778208,760000,148268,133788,65700,0,62264,0,1303351475,63
i,1727696038.425625,172.16.5.2,53556,172.16.1.2,5103,58388,65233,2086,146432,65728,6,6,4,1460,465312,1,16778208,760000,148268,133788,65700,0,65160,0,1303351475,63
o,1727696038.425648,172.16.5.2,53556,172.16.1.2,5103,58388,65233,2086,146432,65728,6,6,4,1460,463437,1,16778208,750000,148268,130892,65700,0,62264,0,1303351475,63
i,1727696038.426890,172.16.5.2,53556,172.16.1.2,5103,58388,65233,2086,146432,65728,6,6,4,1460,463437,1,16778208,750000,148268,148268,65700,0,65160,0,1303351475,63
o,1727696038.426910,172.16.5.2,53556,172.16.1.2,5103,58388,65233,2086,143552,65728,6,6,4,1460,461875,1,16778208,740000,148268,145372,65700,0,62264,0,1303351475,63
i,1727696038.427049,172.16.5.2,53556,172.16.1.2,5103,58388,65233,2086,143552,65728,6,6,4,1460,461875,1,16778208,740000,148268,145372,65700,0,65160,0,1303351475,63
o,1727696038.427066,172.16.5.2,53556,172.16.1.2,5103,58388,65233,2086,140672,65728,6,6,4,1460,460625,1,16778208,730000,148268,142476,65700,0,62264,0,1303351475,63
i,1727696038.427279,172.16.5.2,53556,172.16.1.2,5103,58388,65233,2086,140672,65728,6,6,4,1460,460625,1,16778208,730000,148268,142476,65700,0,65160,0,1303351475,63
o,1727696038.427300,172.16.5.2,53556,172.16.1.2,5103,58388,65233,2086,146432,65728,6,6,4,1460,459375,1,16778208,720000,148268,139580,65700,0,62264,0,1303351475,63
i,1727696038.427525,172.16.5.2,53556,172.16.1.2,5103,58388,65233,2086,146432,65728,6,6,4,1460,459375,1,16778208,720000,148268,139580,65700,0,65160,0,1303351475,63
o,1727696038.427547,172.16.5.2,53556,172.16.1.2,5103,58388,65233,2086,143552,65728,6,6,4,1460,458437,1,16778208,710000,148268,136684,65700,0,62264,0,1303351475,63
o,1727696038.427716,172.16.5.2,53556,172.16.1.2,5103,58388,65233,2086,143552,65728,6,6,4,1460,458437,1,16778208,710000,148268,136684,65700,0,63712,0,1303351475,63
i,1727696038.427905,172.16.5.2,53556,172.16.1.2,5103,58388,65233,2086,143552,65728,6,6,4,1460,458437,1,16778208,710000,148268,136684,65700,0,65160,0,1303351475,63
o,1727696038.427927,172.16.5.2,53556,172.16.1.2,5103,58388,65233,2086,140672,65728,6,6,4,1460,457500,1,16778208,710000,148268,133788,65700,0,62264,0,1303351475,63
i,1727696038.428196,172.16.5.2,53556,172.16.1.2,5103,58388,65233,2086,140672,65728,6,6,4,1460,457500,1,16778208,710000,148268,133788,65700,0,65160,0,1303351475,63
o,1727696038.428217,172.16.5.2,53556,172.16.1.2,5103,58388,65233,2086,146432,65728,6,6,4,1460,456562,1,16778208,700000,148268,130892,65700,0,62264,0,1303351475,63
i,1727696038.428477,172.16.5.2,53556,172.16.1.2,5103,58388,65233,2086,146432,65728,6,6,4,1460,456562,1,16778208,700000,148268,130892,65700,0,65160,0,1303351475,63
o,1727696038.428500,172.16.5.2,53556,172.16.1.2,5103,58388,65233,2086,143552,65728,6,6,4,1460,455937,1,16778208,690000,148268,127996,65700,0,62264,0,1303351475,63
i,1727696038.428680,172.16.5.2,53556,172.16.1.2,5103,58388,65233,2086,143552,65728,6,6,4,1460,455937,1,16778208,690000,148268,127996,65700,0,65160,0,1303351475,63
o,1727696038.428703,172.16.5.2,53556,172.16.1.2,5103,58388,65233,2086,146432,65728,6,6,4,1460,455312,1,16778208,690000,148268,125100,65700,0,62264,0,1303351475,63
o,1727696038.772637,10.0.2.15,22,10.0.2.2,57953,1073725440,14600,1026,65535,65700,0,0,4,1460,312,0,16777220,240000,33580,812,65700,0,0,0,2045767904,63
i,1727696038.773967,10.0.2.15,22,10.0.2.2,57953,1073725440,14600,1026,65535,65700,0,0,4,1460,312,0,16777220,240000,33580,812,65700,0,812,0,2045767904,63
i,1727696038.850768,172.16.5.2,53556,172.16.1.2,5103,58388,65233,2086,146432,65728,6,6,4,1460,455312,1,16778208,690000,148268,148268,65700,0,65160,0,1303351475,63
o,1727696038.850824,172.16.5.2,53556,172.16.1.2,5103,58388,65233,2086,146432,65728,6,6,4,1460,452187,1,16778208,700000,148268,145372,65700,0,62264,0,1303351475,63
i,1727696038.852171,172.16.5.2,53556,172.16.1.2,5103,58388,65233,2086,146432,65728,6,6,4,1460,452187,1,16778208,700000,148268,148268,65700,0,65160,0,1303351475,63
o,1727696038.852199,172.16.5.2,53556,172.16.1.2,5103,58388,65233,2086,143552,65728,6,6,4,1460,449687,1,16778208,710000,148268,145372,65700,0,62264,0,1303351475,63
i,1727696038.852399,172.16.5.2,53556,172.16.1.2,5103,58388,65233,2086,143552,65728,6,6,4,1460,449687,1,16778208,710000,148268,145372,65700,0,65160,0,1303351475,63
o,1727696038.852423,172.16.5.2,53556,172.16.1.2,5103,58388,65233,2086,144960,65728,6,6,4,1460,447500,1,16778208,710000,148268,142476,65700,0,62264,0,1303351475,63
i,1727696038.853159,172.16.5.2,53556,172.16.1.2,5103,58388,65233,2086,144960,65728,6,6,4,1460,447500,1,16778208,710000,148268,148268,65700,0,65160,0,1303351475,63
o,1727696038.853259,172.16.5.2,53556,172.16.1.2,5103,58388,66693,2086,146432,65728,6,6,4,1460,445312,1,16778208,710000,148268,145372,65700,0,62264,0,1303351475,63
i,1727696038.854414,172.16.5.2,53556,172.16.1.2,5103,58388,66693,2086,146432,65728,6,6,4,1460,445312,1,16778208,710000,148268,148268,65700,0,66608,0,1303351475,63
o,1727696038.854436,172.16.5.2,53556,172.16.1.2,5103,58388,66693,2086,143552,65728,6,6,4,1460,443437,1,16778208,710000,148268,145372,65700,0,63712,0,1303351475,63
i,1727696038.854995,172.16.5.2,53556,172.16.1.2,5103,58388,66693,2086,143552,65728,6,6,4,1460,443437,1,16778208,710000,148268,148268,65700,0,66608,0,1303351475,63
o,1727696038.855018,172.16.5.2,53556,172.16.1.2,5103,58388,66693,2086,144960,65728,6,6,4,1460,441875,1,16778208,700000,148268,145372,65700,0,63712,0,1303351475,63
i,1727696038.856561,172.16.5.2,53556,172.16.1.2,5103,58388,66693,2086,144960,65728,6,6,4,1460,441875,1,16778208,700000,148268,148268,65700,0,66608,0,1303351475,63
o,1727696038.856589,172.16.5.2,53556,172.16.1.2,5103,58388,66693,2086,146432,65728,6,6,4,1460,440625,1,16778208,700000,148268,145372,65700,0,63712,0,1303351475,63
i,1727696038.857738,172.16.5.2,53556,172.16.1.2,5103,58388,66693,2086,146432,65728,6,6,4,1460,440625,1,16778208,700000,148268,148268,65700,0,66608,0,1303351475,63
o,1727696038.857761,172.16.5.2,53556,172.16.1.2,5103,58388,66693,2086,143552,65728,6,6,4,1460,439375,1,16778208,690000,148268,145372,65700,0,63712,0,1303351475,63
i,1727696038.857908,172.16.5.2,53556,172.16.1.2,5103,58388,66693,2086,143552,65728,6,6,4,1460,439375,1,16778208,690000,148268,145372,65700,0,66608,0,1303351475,63
o,1727696038.857928,172.16.5.2,53556,172.16.1.2,5103,58388,66693,2086,146432,65728,6,6,4,1460,438437,1,16778208,680000,148268,142476,65700,0,63712,0,1303351475,63
i,1727696038.858150,172.16.5.2,53556,172.16.1.2,5103,58388,66693,2086,146432,65728,6,6,4,1460,438437,1,16778208,680000,148268,142476,65700,0,66608,0,1303351475,63
o,1727696038.858176,172.16.5.2,53556,172.16.1.2,5103,58388,66693,2086,143552,65728,6,6,4,1460,437500,1,16778208,680000,148268,139580,65700,0,63712,0,1303351475,63
i,1727696038.859189,172.16.5.2,53556,172.16.1.2,5103,58388,66693,2086,143552,65728,6,6,4,1460,437500,1,16778208,680000,148268,148268,65700,0,66608,0,1303351475,63
o,1727696038.859307,172.16.5.2,53556,172.16.1.2,5103,58388,66693,2086,144960,65728,6,6,4,1460,436562,1,16778208,670000,148268,145372,65700,0,63712,0,1303351475,63
i,1727696038.859534,172.16.5.2,53556,172.16.1.2,5103,58388,66693,2086,144960,65728,6,6,4,1460,436562,1,16778208,670000,148268,145372,65700,0,66608,0,1303351475,63
o,1727696038.859563,172.16.5.2,53556,172.16.1.2,5103,58388,66693,2086,146432,65728,6,6,4,1460,435937,1,16778208,670000,148268,142476,65700,0,63712,0,1303351475,63
i,1727696038.859871,172.16.5.2,53556,172.16.1.2,5103,58388,66693,2086,146432,65728,6,6,4,1460,435937,1,16778208,670000,148268,142476,65700,0,66608,0,1303351475,63
o,1727696038.859897,172.16.5.2,53556,172.16.1.2,5103,58388,66693,2086,146432,65728,6,6,4,1460,435312,1,16778208,670000,148268,139580,65700,0,63712,0,1303351475,63
i,1727696038.860151,172.16.5.2,53556,172.16.1.2,5103,58388,66693,2086,146432,65728,6,6,4,1460,435312,1,16778208,670000,148268,139580,65700,0,66608,0,1303351475,63
o,1727696038.860176,172.16.5.2,53556,172.16.1.2,5103,58388,66693,2086,143552,65728,6,6,4,1460,434687,1,16778208,660000,148268,136684,65700,0,63712,0,1303351475,63
i,1727696038.860612,172.16.5.2,53556,172.16.1.2,5103,58388,66693,2086,143552,65728,6,6,4,1460,434687,1,16778208,660000,148268,136684,65700,0,66608,0,1303351475,63
o,1727696038.860636,172.16.5.2,53556,172.16.1.2,5103,58388,66693,2086,146432,65728,6,6,4,1460,435625,1,16778208,660000,148268,133788,65700,0,63712,0,1303351475,63
i,1727696038.860867,172.16.5.2,53556,172.16.1.2,5103,58388,66693,2086,146432,65728,6,6,4,1460,435625,1,16778208,660000,148268,133788,65700,0,66608,0,1303351475,63
o,1727696038.860892,172.16.5.2,53556,172.16.1.2,5103,58388,66693,2086,146432,65728,6,6,4,1460,436250,1,16778208,660000,148268,130892,65700,0,63712,0,1303351475,63
i,1727696038.861148,172.16.5.2,53556,172.16.1.2,5103,58388,66693,2086,146432,65728,6,6,4,1460,436250,1,16778208,660000,156460,130892,65700,0,66608,0,1303351475,63
o,1727696038.861174,172.16.5.2,53556,172.16.1.2,5103,58388,66693,2086,143552,65728,6,6,4,1460,436875,1,16778208,660000,156460,127996,65700,0,63712,0,1303351475,63
i,1727696038.861399,172.16.5.2,53556,172.16.1.2,5103,58388,66693,2086,143552,65728,6,6,4,1460,436875,1,16778208,660000,156460,127996,65700,0,66608,0,1303351475,63
o,1727696038.861424,172.16.5.2,53556,172.16.1.2,5103,58388,66693,2086,144960,65728,6,6,4,1460,437500,1,16778208,660000,156460,125100,65700,0,63712,0,1303351475,63
o,1727696038.861633,172.16.5.2,53556,172.16.1.2,5103,58388,66693,2086,144960,65728,6,6,4,1460,437500,1,16778208,660000,156460,125100,65700,0,65160,0,1303351475,63
i,1727696038.861846,172.16.5.2,53556,172.16.1.2,5103,58388,66693,2086,144960,65728,6,6,4,1460,437500,1,16778208,660000,156460,125100,65700,0,66608,0,1303351475,63
o,1727696038.861870,172.16.5.2,53556,172.16.1.2,5103,58388,66693,2086,146432,65728,6,6,4,1460,437812,1,16778208,660000,156460,122204,65700,0,63712,0,1303351475,63
i,1727696038.863509,172.16.5.2,53556,172.16.1.2,5103,58388,66693,2086,146432,65728,6,6,4,1460,437812,1,16778208,660000,156460,156460,65700,0,66608,0,1303351475,63
o,1727696038.863536,172.16.5.2,53556,172.16.1.2,5103,58388,66693,2086,143552,65728,6,6,4,1460,438125,1,16778208,660000,156460,153564,65700,0,63712,0,1303351475,63
i,1727696038.863699,172.16.5.2,53556,172.16.1.2,5103,58388,66693,2086,143552,65728,6,6,4,1460,438125,1,16778208,660000,156460,153564,65700,0,66608,0,1303351475,63
o,1727696038.863718,172.16.5.2,53556,172.16.1.2,5103,58388,66693,2086,144960,65728,6,6,4,1460,438437,1,16778208,650000,156460,150668,65700,0,63712,0,1303351475,63
i,1727696038.863906,172.16.5.2,53556,172.16.1.2,5103,58388,66693,2086,144960,65728,6,6,4,1460,438437,1,16778208,650000,156460,150668,65700,0,66608,0,1303351475,63
o,1727696038.863929,172.16.5.2,53556,172.16.1.2,5103,58388,66693,2086,146432,65728,6,6,4,1460,438750,1,16778208,650000,156460,147772,65700,0,63712,0,1303351475,63
i,1727696038.928805,172.16.5.2,53556,172.16.1.2,5103,58388,66693,2086,146432,65728,6,6,4,1460,438750,1,16778208,650000,156460,156460,65700,0,66608,0,1303351475,63
o,1727696038.928850,172.16.5.2,53556,172.16.1.2,5103,58388,66693,2086,147840,65728,6,6,4,1460,446562,1,16778208,720000,156460,155012,65700,0,65160,0,1303351475,63
i,1727696039.228208,172.16.5.2,53556,172.16.1.2,5103,58388,66693,2086,147840,65728,6,6,4,1460,446562,1,16778208,720000,156460,155012,65700,0,66608,0,1303351475,63
o,1727696039.228257,172.16.5.2,53556,172.16.1.2,5103,58388,66693,2086,218880,65728,6,6,4,1460,437187,1,16778208,770000,156460,152116,65700,0,63712,0,1303351475,63
i,1727696039.228485,172.16.5.2,53556,172.16.1.2,5103,58388,66693,2086,218880,65728,6,6,4,1460,437187,1,16778208,770000,156460,152116,65700,0,66608,0,1303351475,63
o,1727696039.228509,172.16.5.2,53556,172.16.1.2,5103,58388,66693,2086,216000,65728,6,6,4,1460,429062,1,16778208,790000,156460,149220,65700,0,63712,0,1303351475,63
i,1727696039.228736,172.16.5.2,53556,172.16.1.2,5103,58388,66693,2086,216000,65728,6,6,4,1460,429062,1,16778208,790000,156460,149220,65700,0,66608,0,1303351475,63
o,1727696039.228758,172.16.5.2,53556,172.16.1.2,5103,58388,66693,2086,213120,65728,6,6,4,1460,421875,1,16778208,800000,156460,146324,65700,0,63712,0,1303351475,63
i,1727696039.229860,172.16.5.2,53556,172.16.1.2,5103,58388,66693,2086,213120,65728,6,6,4,1460,421875,1,16778208,800000,156460,156460,65700,0,66608,0,1303351475,63
o,1727696039.229890,172.16.5.2,53556,172.16.1.2,5103,58388,66693,2086,220352,65728,6,6,4,1460,415625,1,16778208,800000,156460,153564,65700,0,63712,0,1303351475,63
i,1727696039.230095,172.16.5.2,53556,172.16.1.2,5103,58388,66693,2086,220352,65728,6,6,4,1460,415625,1,16778208,800000,156460,153564,65700,0,66608,0,1303351475,63
