enable_time_secs=1720890899	enable_time_usecs=725185	siftrver=1.2.4	hz=100	tcp_rtt_scale=32	sysname=FreeBSD	sysver=1301000	ipmode=4
o,0x00000000,1720890899.725222,10.0.2.15,22,10.0.2.2,51028,1073725440,17770,0,65535,65700,0,0,4,1460,1,0,4,24,33580,44,65700,0,0,0,0,0
o,0x00000000,1720890899.725389,10.0.2.15,22,10.0.2.2,51028,1073725440,17770,0,65535,65700,0,0,4,1460,1,0,4,24,33580,80,65700,0,44,0,0,0
i,0x00000000,1720890899.726858,10.0.2.15,22,10.0.2.2,51028,1073725440,17770,0,65535,65700,0,0,4,1460,1,0,4,24,33580,80,65700,0,80,0,0,0
i,0x00000000,1720890899.726865,10.0.2.15,22,10.0.2.2,51028,1073725440,17814,0,65535,65700,0,0,4,1460,1,0,4,24,33580,36,65700,0,36,0,0,0
o,0x00000000,1720890899.727033,10.0.2.15,22,10.0.2.2,51028,1073725440,17850,0,65535,65700,0,0,4,1460,1,0,4,24,33580,36,65700,0,0,0,0,0
i,0x00000000,1720890899.727608,10.0.2.15,22,10.0.2.2,51028,1073725440,17850,0,65535,65700,0,0,4,1460,1,0,4,24,33580,36,65700,0,36,0,0,0
o,0x00000000,1720890899.727793,10.0.2.15,22,10.0.2.2,51028,1073725440,17886,0,65535,65700,0,0,4,1460,1,0,4,24,33580,176,65700,0,0,0,0,0
i,0x00000000,1720890899.728820,10.0.2.15,22,10.0.2.2,51028,1073725440,17886,0,65535,65700,0,0,4,1460,1,0,4,24,33580,176,65700,0,176,0,0,0
i,0x00000000,1720890899.731947,10.0.2.15,22,10.0.2.2,51028,1073725440,18062,0,65535,65700,0,0,4,1460,1,0,4,24,33580,0,65700,0,0,0,0,0
i,0x00000000,1720890899.731957,10.0.2.15,22,10.0.2.2,51028,1073725440,18062,0,65535,65700,0,0,4,1460,1,0,4,24,33580,0,65700,96,0,0,0,0
o,0x00000000,1720890899.731964,10.0.2.15,22,10.0.2.2,51028,1073725440,18062,0,65535,65604,0,0,5,1460,1,0,5,24,33580,0,65700,96,0,0,0,0
o,0x00000000,1720890899.732439,10.0.2.15,22,10.0.2.2,51028,1073725440,18062,0,65535,65604,0,0,8,1460,1,0,4,24,33580,0,65700,0,0,0,0,0
i,0x00000000,1720890899.733246,10.0.2.15,22,10.0.2.2,51028,1073725440,18062,0,65535,65604,0,0,8,1460,1,0,20,24,33580,0,65700,0,1,0,0,0
i,0x00000000,1720890901.899356,10.0.2.15,22,10.0.2.2,51042,1073725440,14600,0,65535,65700,0,0,4,1460,1,0,0,27,33580,0,65700,0,0,0,0,0
o,0x00000000,1720890901.916333,10.0.2.15,22,10.0.2.2,51042,1073725440,14600,0,65535,65700,0,0,4,1460,1,0,0,27,33580,38,65700,42,0,0,0,0
i,0x00000000,1720890901.917617,10.0.2.15,22,10.0.2.2,51042,1073725440,14600,0,65535,65700,0,0,4,1460,1,0,0,27,33580,38,65700,42,38,0,0,0
i,0x00000000,1720890901.918322,10.0.2.15,22,10.0.2.2,51042,1073725440,14638,0,65535,65700,0,0,4,1460,1,0,0,24,33580,0,65700,0,0,0,0,0
i,0x00000000,1720890901.918325,10.0.2.15,22,10.0.2.2,51042,1073725440,14638,0,65535,65700,0,0,4,1460,1,0,0,24,33580,0,65700,1460,0,0,0,0
o,0x00000000,1720890901.918328,10.0.2.15,22,10.0.2.2,51042,1073725440,14638,0,65535,65700,0,0,4,1460,1,0,1,24,33580,0,65700,1536,0,0,0,0
o,0x00000000,1720890901.918998,10.0.2.15,22,10.0.2.2,51042,1073725440,14638,0,65535,65700,0,0,4,1460,1,0,0,24,33580,1056,65700,1536,0,0,0,0
i,0x00000000,1720890901.920682,10.0.2.15,22,10.0.2.2,51042,1073725440,14638,0,65535,65700,0,0,4,1460,1,0,0,24,33580,1056,65700,1536,1056,0,0,0
i,0x00000000,1720890901.924079,10.0.2.15,22,10.0.2.2,51042,1073725440,15694,0,65535,65700,0,0,4,1460,1,0,0,24,33580,0,65700,0,0,0,0,0
o,0x00000000,1720890901.932566,10.0.2.15,22,10.0.2.2,51042,1073725440,15694,0,65535,65700,0,0,4,1460,1,0,0,24,33580,484,65700,0,0,0,0,0
i,0x00000000,1720890901.935231,10.0.2.15,22,10.0.2.2,51042,1073725440,15694,0,65535,65700,0,0,4,1460,1,0,0,24,33580,484,65700,0,484,0,0,0
i,0x00000000,1720890901.947678,10.0.2.15,22,10.0.2.2,51042,1073725440,16178,0,65535,65700,0,0,4,1460,1,0,0,24,33580,0,65700,0,0,0,0,0
i,0x00000000,1720890901.947703,10.0.2.15,22,10.0.2.2,51042,1073725440,16178,0,65535,65700,0,0,4,1460,1,0,0,24,33580,0,65700,16,0,0,0,0
o,0x00000000,1720890901.947714,10.0.2.15,22,10.0.2.2,51042,1073725440,16178,0,65535,65700,0,0,4,1460,1,0,1,24,33580,0,65700,60,0,0,0,0
o,0x00000000,1720890901.948597,10.0.2.15,22,10.0.2.2,51042,1073725440,16178,0,65535,65700,0,0,4,1460,1,0,0,24,33580,44,65700,0,0,0,0,0
i,0x00000000,1720890901.952369,10.0.2.15,22,10.0.2.2,51042,1073725440,16178,0,65535,65700,0,0,4,1460,1,0,0,24,33580,44,65700,0,44,0,0,0
i,0x00000000,1720890901.952385,10.0.2.15,22,10.0.2.2,51042,1073725440,16222,0,65535,65700,0,0,4,1460,1,0,0,24,33580,0,65700,0,0,0,0,0
o,0x00000000,1720890901.963732,10.0.2.15,22,10.0.2.2,51042,1073725440,16222,0,65535,65700,0,0,4,1460,1,0,0,24,33580,68,65700,0,0,0,0,0
i,0x00000000,1720890901.968335,10.0.2.15,22,10.0.2.2,51042,1073725440,16222,0,65535,65700,0,0,4,1460,1,0,0,24,33580,68,65700,0,68,0,0,0
i,0x00000000,1720890901.968372,10.0.2.15,22,10.0.2.2,51042,1073725440,16290,0,65535,65700,0,0,4,1460,1,0,0,24,33580,0,65700,0,0,0,0,0
o,0x00000000,1720890901.969683,10.0.2.15,22,10.0.2.2,51042,1073725440,16290,0,65535,65700,0,0,4,1460,1,0,0,24,33580,332,65700,0,0,0,0,0
i,0x00000000,1720890901.973850,10.0.2.15,22,10.0.2.2,51042,1073725440,16290,0,65535,65700,0,0,4,1460,1,0,0,24,33580,332,65700,0,332,0,0,0
i,0x00000000,1720890901.978343,10.0.2.15,22,10.0.2.2,51042,1073725440,16622,0,65535,65700,0,0,4,1460,1,0,0,24,33580,0,65700,0,0,0,0,0
o,0x00000000,1720890901.989107,10.0.2.15,22,10.0.2.2,51042,1073725440,16622,0,65535,65700,0,0,4,1460,1,0,0,24,33580,28,65700,0,0,0,0,0
i,0x00000000,1720890901.993503,10.0.2.15,22,10.0.2.2,51042,1073725440,16622,0,65535,65700,0,0,4,1460,1,0,0,24,33580,28,65700,0,28,0,0,0
i,0x00000000,1720890901.993595,10.0.2.15,22,10.0.2.2,51042,1073725440,16650,0,65535,65700,0,0,4,1460,1,0,0,23,33580,0,65700,0,0,0,0,0
o,0x00000000,1720890901.995947,10.0.2.15,22,10.0.2.2,51042,1073725440,16650,0,65535,65700,0,0,4,1460,1,0,0,23,33580,768,65700,112,0,0,0,0
i,0x00000000,1720890901.999106,10.0.2.15,22,10.0.2.2,51042,1073725440,16650,0,65535,65700,0,0,4,1460,1,0,0,23,33580,768,65700,112,768,0,0,0
o,0x00000000,1720890902.000185,10.0.2.15,22,10.0.2.2,51042,1073725440,17418,0,65535,65700,0,0,4,1460,1,0,0,23,33580,140,65700,112,0,0,0,0
i,0x00000000,1720890902.004785,10.0.2.15,22,10.0.2.2,51042,1073725440,17418,0,65535,65700,0,0,4,1460,1,0,0,23,33580,140,65700,112,140,0,0,0
o,0x00000000,1720890902.005736,10.0.2.15,22,10.0.2.2,51042,1073725440,17558,0,65535,65700,0,0,4,1460,1,0,0,23,33580,44,65700,0,0,0,0,0
i,0x00000000,1720890902.008663,10.0.2.15,22,10.0.2.2,51042,1073725440,17558,0,65535,65700,0,0,4,1460,1,0,0,23,33580,44,65700,0,44,0,0,0
i,0x00000000,1720890902.008673,10.0.2.15,22,10.0.2.2,51042,1073725440,17602,0,65535,65700,0,0,4,1460,1,0,0,23,33580,0,65700,0,0,0,0,0
o,0x00000000,1720890902.009346,10.0.2.15,22,10.0.2.2,51042,1073725440,17602,0,65535,65700,0,0,4,1460,1,0,4,23,33580,72,65700,0,0,0,0,0
i,0x00000000,1720890902.011173,10.0.2.15,22,10.0.2.2,51042,1073725440,17602,0,65535,65700,0,0,4,1460,1,0,4,23,33580,72,65700,0,72,0,0,0
o,0x00000000,1720890902.016050,10.0.2.15,22,10.0.2.2,51042,1073725440,17674,0,65535,65700,0,0,4,1460,1,0,4,24,33580,44,65700,0,0,0,0,0
i,0x00000000,1720890902.017303,10.0.2.15,22,10.0.2.2,51042,1073725440,17674,0,65535,65700,0,0,4,1460,1,0,4,24,33580,44,65700,0,44,0,0,0
o,0x00000000,1720890902.017600,10.0.2.15,22,10.0.2.2,51042,1073725440,17718,0,65535,65700,0,0,4,1460,1,0,4,24,33580,44,65700,0,0,0,0,0
i,0x00000000,1720890902.018981,10.0.2.15,22,10.0.2.2,51042,1073725440,17718,0,65535,65700,0,0,4,1460,1,0,4,24,33580,44,65700,0,44,0,0,0
o,0x00000000,1720890902.023397,10.0.2.15,22,10.0.2.2,51042,1073725440,17762,0,65535,65700,0,0,4,1460,1,0,4,24,33580,176,65700,0,0,0,0,0
i,0x00000000,1720890902.027298,10.0.2.15,22,10.0.2.2,51042,1073725440,17762,0,65535,65700,0,0,4,1460,1,0,4,24,33580,176,65700,0,176,0,0,0
i,0x00000000,1720890902.027308,10.0.2.15,22,10.0.2.2,51042,1073725440,17938,0,65535,65700,0,0,4,1460,1,0,4,24,33580,0,65700,0,0,0,0,0
i,0x00000000,1720890902.027311,10.0.2.15,22,10.0.2.2,51042,1073725440,17938,0,65535,65700,0,0,4,1460,1,0,4,24,33580,0,65700,96,0,0,0,0
o,0x00000000,1720890902.027317,10.0.2.15,22,10.0.2.2,51042,1073725440,17938,0,65535,65604,0,0,5,1460,1,0,5,24,33580,0,65700,96,0,0,0,0
o,0x00000000,1720890902.039368,10.0.2.15,22,10.0.2.2,51042,1073725440,17938,0,65535,65604,0,0,8,1460,1,0,4,24,33580,0,65700,0,0,0,0,0
i,0x00000000,1720890902.040969,10.0.2.15,22,10.0.2.2,51042,1073725440,17938,0,65535,65604,0,0,8,1460,1,0,20,24,33580,0,65700,0,1,0,0,0
i,0x00000000,1720890902.314133,172.16.3.2,5101,172.16.1.2,61461,10499,14480,0,65728,65700,6,6,4,1460,459,1,992,41,33580,0,65700,0,0,0,0,0
o,0x00000000,1720890902.315569,172.16.3.2,5101,172.16.1.2,61461,10499,14480,0,65728,65700,6,6,4,1460,459,1,996,41,33580,1,65700,0,0,0,0,0
i,0x00000000,1720890902.460509,172.16.3.2,5101,172.16.1.2,61461,10499,14480,0,65728,65700,6,6,4,1460,459,1,996,41,33580,1,65700,0,1,0,0,0
i,0x00000000,1720890902.460544,172.16.3.2,5101,172.16.1.2,61461,10499,14480,0,65728,65728,6,6,4,1460,458,1,996,40,33580,0,65700,4,0,0,0,0
o,0x00000000,1720890902.460561,172.16.3.2,5101,172.16.1.2,61461,10499,14480,0,65728,65728,6,6,4,1460,458,1,997,40,33580,0,65700,128,0,0,0,0
o,0x00000000,1720890902.461480,172.16.3.2,5101,172.16.1.2,61461,10499,14480,0,65728,65728,6,6,4,1460,458,1,996,40,33580,1,65700,0,0,0,0,0
o,0x00000000,1720890902.468545,10.0.2.15,22,10.0.2.2,57021,1073725440,14600,0,65535,65700,0,0,4,1460,1,0,4,24,33580,84,65700,0,0,0,0,0
i,0x00000000,1720890902.471409,10.0.2.15,22,10.0.2.2,57021,1073725440,14600,0,65535,65700,0,0,4,1460,1,0,4,24,33580,84,65700,0,84,0,0,0
i,0x00000000,1720890902.625241,172.16.3.2,5101,172.16.1.2,61461,10499,14480,0,65728,65728,6,6,4,1460,458,1,996,40,33580,1,65700,0,1,0,0,0
i,0x00000000,1720890902.718476,172.16.3.2,5101,172.16.1.2,24459,10499,14480,0,65728,65700,6,6,4,1460,459,1,992,41,33580,0,65700,0,0,0,0,0
o,0x00000000,1720890902.727294,172.16.3.2,5101,172.16.1.2,61461,10499,14480,0,65728,65728,6,6,4,1460,469,1,996,41,33580,1,65700,0,0,0,0,0
o,0x00000000,1720890902.728692,172.16.3.2,5101,172.16.1.2,61461,10499,14480,0,65728,65728,6,6,4,1460,469,1,996,41,33580,2,65700,0,1,0,0,0
o,0x00000000,1720890902.729103,10.0.2.15,22,10.0.2.2,57021,1073725440,14600,0,65535,65700,0,0,4,1460,1,0,4,24,33580,108,65700,0,0,0,0,0
i,0x00000000,1720890902.731219,10.0.2.15,22,10.0.2.2,57021,1073725440,14600,0,65535,65700,0,0,4,1460,1,0,4,24,33580,108,65700,0,108,0,0,0
o,0x00000000,1720890902.753637,172.16.3.2,5101,172.16.1.2,24459,10499,14480,0,65728,65700,6,6,4,1460,459,1,993,41,33580,0,65700,0,0,0,0,0
i,0x00000000,1720890902.840492,172.16.3.2,5101,172.16.1.2,61461,10499,14480,0,65728,65728,6,6,4,1460,469,1,996,41,33580,2,65700,0,2,0,0,0
i,0x00000000,1720890902.940049,172.16.3.2,5101,172.16.1.2,24459,10499,14480,0,65728,65700,6,6,4,1460,459,1,992,41,33580,0,65700,0,0,0,0,0
o,0x00000000,1720890902.940082,172.16.3.2,5101,172.16.1.2,24459,10499,14480,0,65728,65728,6,6,4,1460,459,1,993,41,33580,0,65700,0,0,1,0,0
i,0x00000000,1720890902.950306,172.16.3.2,5101,172.16.1.2,24459,10499,14480,0,65728,65728,6,6,4,1460,459,1,992,41,33580,0,65700,0,0,1,0,0
o,0x00000000,1720890902.950349,172.16.3.2,5101,172.16.1.2,24459,10499,14480,0,65728,65728,6,6,4,1460,459,1,993,41,33580,0,65700,0,0,1,0,0
i,0x00000000,1720890902.959659,172.16.3.2,5101,172.16.1.2,24459,10499,14480,0,65728,65728,6,6,4,1460,459,1,992,41,33580,0,65700,0,0,1,0,0
o,0x00000000,1720890902.959688,172.16.3.2,5101,172.16.1.2,24459,10499,14480,0,65728,65728,6,6,4,1460,459,1,993,41,33580,0,65700,0,0,1,0,0
i,0x00000000,1720890902.970150,172.16.3.2,5101,172.16.1.2,24459,10499,14480,0,65728,65728,6,6,4,1460,459,1,992,41,33580,0,65700,0,0,1,0,0
o,0x00000000,1720890902.970180,172.16.3.2,5101,172.16.1.2,24459,10499,14480,0,65728,65728,6,6,4,1460,459,1,993,41,33580,0,65700,0,0,1,0,0
i,0x00000000,1720890902.989776,172.16.3.2,5101,172.16.1.2,24459,10499,14480,0,65728,65728,6,6,4,1460,459,1,992,41,33580,0,65700,0,0,1,0,0
o,0x00000000,1720890902.989807,172.16.3.2,5101,172.16.1.2,24459,10499,14480,0,65728,65728,6,6,4,1460,459,1,993,41,33580,0,65700,0,0,1,0,0
i,0x00000000,1720890903.002073,172.16.3.2,5101,172.16.1.2,24459,10499,14480,0,65728,65728,6,6,4,1460,459,1,992,41,33580,0,65700,0,0,1,0,0
o,0x00000000,1720890903.002105,172.16.3.2,5101,172.16.1.2,24459,10499,14480,0,65728,65728,6,6,4,1460,459,1,993,41,33580,0,65700,0,0,1,0,0
i,0x00000000,1720890903.010778,172.16.3.2,5101,172.16.1.2,24459,10499,14480,0,65728,65728,6,6,4,1460,459,1,992,41,33580,0,65700,0,0,1,0,0
o,0x00000000,1720890903.010806,172.16.3.2,5101,172.16.1.2,24459,10499,14480,0,65728,65728,6,6,4,1460,459,1,993,41,33580,0,65700,0,0,1,0,0
i,0x00000000,1720890903.018870,172.16.3.2,5101,172.16.1.2,24459,10499,14480,0,65728,65728,6,6,4,1460,459,1,992,41,33580,0,65700,0,0,1,0,0
o,0x00000000,1720890903.018897,172.16.3.2,5101,172.16.1.2,24459,10499,14480,0,65728,65728,6,6,4,1460,459,1,993,41,33580,0,65700,0,0,1,0,0
i,0x00000000,1720890903.038394,172.16.3.2,5101,172.16.1.2,24459,10499,14480,0,65728,65728,6,6,4,1460,459,1,992,41,33580,0,65700,0,0,1,0,0
o,0x00000000,1720890903.038406,172.16.3.2,5101,172.16.1.2,24459,10499,14480,0,65728,65728,6,6,4,1460,459,1,993,41,33580,0,65700,0,0,1,0,0
i,0x00000000,1720890903.089280,172.16.3.2,5101,172.16.1.2,24459,10499,14480,0,65728,65728,6,6,4,1460,459,1,992,41,33580,0,65700,0,0,1,0,0
o,0x00000000,1720890903.089296,172.16.3.2,5101,172.16.1.2,24459,10499,14480,0,65728,65728,6,6,4,1460,459,1,993,41,33580,0,65700,0,0,1,0,0
i,0x00000000,1720890903.108926,172.16.3.2,5101,172.16.1.2,24459,10499,14480,0,65728,65728,6,6,4,1460,459,1,992,41,33580,0,65700,0,0,1,0,0
o,0x00000000,1720890903.108937,172.16.3.2,5101,172.16.1.2,24459,10499,14480,0,65728,65728,6,6,4,1460,459,1,993,41,33580,0,65700,0,0,1,0,0
i,0x00000000,1720890903.130518,172.16.3.2,5101,172.16.1.2,24459,10499,14480,0,65728,65728,6,6,4,1460,459,1,992,41,33580,0,65700,0,0,1,0,0
o,0x00000000,1720890903.130580,172.16.3.2,5101,172.16.1.2,24459,10499,14480,0,65728,65728,6,6,4,1460,459,1,993,41,33580,0,65700,17376,0,0,0,0
o,0x00000000,1720890903.133864,172.16.3.2,5101,172.16.1.2,24459,10499,14480,0,65728,65728,6,6,4,1460,459,1,992,41,33580,0,65700,0,0,0,0,0
i,0x00000000,1720890903.149999,172.16.3.2,5101,172.16.1.2,24459,10499,14480,0,65728,65728,6,6,4,1460,459,1,992,41,33580,0,65700,0,0,0,0,0
i,0x00000000,1720890903.181025,172.16.3.2,5101,172.16.1.2,24459,10499,14480,0,65728,65728,6,6,4,1460,459,1,992,41,33580,0,65700,0,0,0,0,0
o,0x00000000,1720890903.181083,172.16.3.2,5101,172.16.1.2,24459,10499,14480,0,65728,65728,6,6,4,1460,459,1,993,41,33580,0,65700,1448,0,0,0,0
i,0x00000000,1720890903.232391,172.16.3.2,5101,172.16.1.2,24459,10499,14480,0,65728,65728,6,6,4,1460,459,1,992,41,33580,0,65700,0,0,0,0,0
i,0x00000000,1720890903.272401,172.16.3.2,5101,172.16.1.2,24459,10499,14480,0,65728,65728,6,6,4,1460,459,1,992,41,33580,0,65700,0,0,0,0,0
o,0x00000000,1720890903.272439,172.16.3.2,5101,172.16.1.2,24459,10499,14480,0,65728,65728,6,6,4,1460,459,1,993,41,33580,0,65700,1448,0,0,0,0
i,0x00000000,1720890903.280851,172.16.3.2,5101,172.16.1.2,24459,10499,14480,0,65728,65728,6,6,4,1460,459,1,992,41,33580,0,65700,0,0,0,0,0
i,0x00000000,1720890903.293240,172.16.3.2,5101,172.16.1.2,24459,10499,14480,0,65728,65728,6,6,4,1460,459,1,992,41,33580,0,65700,0,0,0,0,0
o,0x00000000,1720890903.293287,172.16.3.2,5101,172.16.1.2,24459,10499,14480,0,65728,65728,6,6,4,1460,459,1,993,41,33580,0,65700,1448,0,0,0,0
i,0x00000000,1720890903.341420,172.16.3.2,5101,172.16.1.2,24459,10499,14480,0,65728,65728,6,6,4,1460,459,1,992,41,33580,0,65700,0,0,0,0,0
i,0x00000000,1720890903.354844,172.16.3.2,5101,172.16.1.2,24459,10499,14480,0,65728,65728,6,6,4,1460,459,1,992,41,33580,0,65700,0,0,0,0,0
o,0x00000000,1720890903.354886,172.16.3.2,5101,172.16.1.2,24459,10499,14480,0,65728,65728,6,6,4,1460,459,1,993,41,33580,0,65700,1448,0,0,0,0
i,0x00000000,1720890903.449965,172.16.3.2,5101,172.16.1.2,24459,10499,14480,0,65728,65728,6,6,4,1460,459,1,992,41,33580,0,65700,0,0,0,0,0
i,0x00000000,1720890903.470073,172.16.3.2,5101,172.16.1.2,24459,10499,14480,0,65728,65728,6,6,4,1460,459,1,992,41,33580,0,65700,0,0,0,0,0
o,0x00000000,1720890903.470110,172.16.3.2,5101,172.16.1.2,24459,10499,14480,0,65728,65728,6,6,4,1460,459,1,993,41,33580,0,65700,1448,0,0,0,0
i,0x00000000,1720890903.480281,172.16.3.2,5101,172.16.1.2,24459,10499,14480,0,65728,65728,6,6,4,1460,459,1,992,41,33580,0,65700,0,0,0,0,0
i,0x00000000,1720890903.511790,172.16.3.2,5101,172.16.1.2,24459,10499,14480,0,65728,65728,6,6,4,1460,459,1,992,41,33580,0,65700,0,0,0,0,0
o,0x00000000,1720890903.511844,172.16.3.2,5101,172.16.1.2,24459,10499,14480,0,65728,65728,6,6,4,1460,459,1,993,41,33580,0,65700,1448,0,0,0,0
i,0x00000000,1720890903.519756,172.16.3.2,5101,172.16.1.2,24459,10499,14480,0,65728,65728,6,6,4,1460,459,1,992,41,33580,0,65700,0,0,0,0,0
i,0x00000000,1720890903.532411,172.16.3.2,5101,172.16.1.2,24459,10499,14480,0,65728,65728,6,6,4,1460,459,1,992,41,33580,0,65700,0,0,0,0,0
o,0x00000000,1720890903.532449,172.16.3.2,5101,172.16.1.2,24459,10499,14480,0,65728,65728,6,6,4,1460,459,1,993,41,33580,0,65700,1448,0,0,0,0
i,0x00000000,1720890903.538902,172.16.3.2,5101,172.16.1.2,24459,10499,14480,0,65728,65728,6,6,4,1460,459,1,992,41,33580,0,65700,0,0,0,0,0
o,0x00000000,1720890903.572817,172.16.3.2,5101,172.16.1.2,24459,10499,14480,0,65728,65728,6,6,4,1460,459,1,993,41,33580,0,65700,0,0,0,0,0
i,0x00000000,1720890903.626566,172.16.3.2,5101,172.16.1.2,24459,10499,14480,0,65728,65728,6,6,4,1460,459,1,992,41,33580,0,65700,0,0,0,0,0
i,0x00000000,1720890903.636672,172.16.3.2,5101,172.16.1.2,24459,10499,14480,0,65728,65728,6,6,4,1460,459,1,992,41,33580,0,65700,0,0,0,0,0
o,0x00000000,1720890903.636721,172.16.3.2,5101,172.16.1.2,24459,10499,14480,0,65728,65728,6,6,4,1460,459,1,993,41,33580,0,65700,1448,0,0,0,0
i,0x00000000,1720890903.679943,172.16.3.2,5101,172.16.1.2,24459,10499,14480,0,65728,65728,6,6,4,1460,459,1,992,41,33580,0,65700,0,0,0,0,0
o,0x00000000,1720890903.712544,172.16.3.2,5101,172.16.1.2,24459,10499,14480,0,65728,65728,6,6,4,1460,459,1,993,41,33580,0,65700,0,0,0,0,0
i,0x00000000,1720890903.730771,172.16.3.2,5101,172.16.1.2,24459,10499,14480,0,65728,65728,6,6,4,1460,459,1,992,41,33580,0,65700,0,0,0,0,0
o,0x00000000,1720890903.732968,10.0.2.15,22,10.0.2.2,57021,1073725440,14600,0,65535,65700,0,0,4,1460,1,0,4,24,33580,156,65700,0,0,0,0,0
i,0x00000000,1720890903.735098,10.0.2.15,22,10.0.2.2,57021,1073725440,14600,0,65535,65700,0,0,4,1460,1,0,4,24,33580,156,65700,0,156,0,0,0
i,0x00000000,1720890903.740939,172.16.3.2,5101,172.16.1.2,24459,10499,14480,0,65728,65728,6,6,4,1460,459,1,992,41,33580,0,65700,0,0,0,0,0
o,0x00000000,1720890903.740995,172.16.3.2,5101,172.16.1.2,24459,10499,14480,0,65728,65728,6,6,4,1460,459,1,993,41,33580,0,65700,1448,0,0,0,0
i,0x00000000,1720890903.749730,172.16.3.2,5101,172.16.1.2,24459,10499,14480,0,65728,65728,6,6,4,1460,459,1,992,41,33580,0,65700,0,0,0,0,0
i,0x00000000,1720890903.761310,172.16.3.2,5101,172.16.1.2,24459,10499,14480,0,65728,65728,6,6,4,1460,459,1,992,41,33580,0,65700,0,0,0,0,0
o,0x00000000,1720890903.761354,172.16.3.2,5101,172.16.1.2,24459,10499,14480,0,65728,65728,6,6,4,1460,459,1,993,41,33580,0,65700,1448,0,0,0,0
i,0x00000000,1720890903.799164,172.16.3.2,5101,172.16.1.2,24459,10499,14480,0,65728,65728,6,6,4,1460,459,1,992,41,33580,0,65700,0,0,0,0,0
i,0x00000000,1720890903.810058,172.16.3.2,5101,172.16.1.2,24459,10499,14480,0,65728,65728,6,6,4,1460,459,1,992,41,33580,0,65700,0,0,0,0,0
o,0x00000000,1720890903.810096,172.16.3.2,5101,172.16.1.2,24459,10499,14480,0,65728,65728,6,6,4,1460,459,1,993,41,33580,0,65700,1448,0,0,0,0
i,0x00000000,1720890903.839817,172.16.3.2,5101,172.16.1.2,24459,10499,14480,0,65728,65728,6,6,4,1460,459,1,992,41,33580,0,65700,0,0,0,0,0
i,0x00000000,1720890903.855903,172.16.3.2,5101,172.16.1.2,24459,10499,14480,0,65728,65728,6,6,4,1460,459,1,992,41,33580,0,65700,0,0,0,0,0
o,0x00000000,1720890903.855941,172.16.3.2,5101,172.16.1.2,24459,10499,14480,0,65728,65728,6,6,4,1460,459,1,993,41,33580,0,65700,1448,0,0,0,0
i,0x00000000,1720890903.918976,172.16.3.2,5101,172.16.1.2,24459,10499,14480,0,65728,65728,6,6,4,1460,459,1,992,41,33580,0,65700,0,0,0,0,0
i,0x00000000,1720890903.929511,172.16.3.2,5101,172.16.1.2,24459,10499,14480,0,65728,65728,6,6,4,1460,459,1,992,41,33580,0,65700,0,0,0,0,0
o,0x00000000,1720890903.929536,172.16.3.2,5101,172.16.1.2,24459,10499,14480,0,65728,65728,6,6,4,1460,459,1,993,41,33580,0,65700,1448,0,0,0,0
i,0x00000000,1720890903.962434,172.16.3.2,5101,172.16.1.2,24459,10499,14480,0,65728,65728,6,6,4,1460,459,1,992,41,33580,0,65700,0,0,0,0,0
i,0x00000000,1720890903.969809,172.16.3.2,5101,172.16.1.2,24459,10499,14480,0,65728,65728,6,6,4,1460,459,1,992,41,33580,0,65700,0,0,0,0,0
o,0x00000000,1720890903.969847,172.16.3.2,5101,172.16.1.2,24459,10499,14480,0,65728,65728,6,6,4,1460,459,1,993,41,33580,0,65700,1448,0,0,0,0
i,0x00000000,1720890903.980942,172.16.3.2,5101,172.16.1.2,24459,10499,14480,0,65728,65728,6,6,4,1460,459,1,992,41,33580,0,65700,0,0,0,0,0
o,0x00000000,1720890904.013721,172.16.3.2,5101,172.16.1.2,24459,10499,14480,0,65728,65728,6,6,4,1460,459,1,993,41,33580,0,65700,0,0,0,0,0
i,0x00000000,1720890904.018035,172.16.3.2,5101,172.16.1.2,24459,10499,14480,0,65728,65728,6,6,4,1460,459,1,992,41,33580,0,65700,0,0,0,0,0
i,0x00000000,1720890904.031500,172.16.3.2,5101,172.16.1.2,24459,10499,14480,0,65728,65728,6,6,4,1460,459,1,992,41,33580,0,65700,0,0,0,0,0
o,0x00000000,1720890904.031538,172.16.3.2,5101,172.16.1.2,24459,10499,14480,0,65728,65700,6,6,4,1460,459,1,993,41,33580,0,65700,0,0,1,0,0
i,0x00000000,1720890904.073453,172.16.3.2,5101,172.16.1.2,24459,10499,14480,0,65728,65700,6,6,4,1460,459,1,992,41,33580,0,65700,0,0,1,0,0
o,0x00000000,1720890904.073482,172.16.3.2,5101,172.16.1.2,24459,10499,14480,0,65728,65728,6,6,4,1460,459,1,993,41,33580,0,65700,0,0,1,0,0
i,0x00000000,1720890904.078043,172.16.3.2,5101,172.16.1.2,24459,10499,14480,0,65728,65728,6,6,4,1460,459,1,992,41,33580,0,65700,0,0,1,0,0
o,0x00000000,1720890904.078053,172.16.3.2,5101,172.16.1.2,24459,10499,14480,0,65728,65728,6,6,4,1460,459,1,993,41,33580,0,65700,0,0,1,0,0
i,0x00000000,1720890904.138338,172.16.3.2,5101,172.16.1.2,24459,10499,14480,0,65728,65728,6,6,4,1460,459,1,992,41,33580,0,65700,0,0,1,0,0
o,0x00000000,1720890904.138371,172.16.3.2,5101,172.16.1.2,24459,10499,14480,0,65728,65728,6,6,4,1460,459,1,993,41,33580,0,65700,0,0,1,0,0
i,0x00000000,1720890904.139906,172.16.3.2,5101,172.16.1.2,24459,10499,14480,0,65728,65728,6,6,4,1460,459,1,992,41,33580,0,65700,0,0,1,0,0
o,0x00000000,1720890904.139927,172.16.3.2,5101,172.16.1.2,24459,10499,14480,0,65728,65728,6,6,4,1460,459,1,993,41,33580,0,65700,0,0,1,0,0
i,0x00000000,1720890904.180194,172.16.3.2,5101,172.16.1.2,24459,10499,14480,0,65728,65728,6,6,4,1460,459,1,992,41,33580,0,65700,0,0,1,0,0
o,0x00000000,1720890904.180230,172.16.3.2,5101,172.16.1.2,24459,10499,14480,0,65728,65728,6,6,4,1460,459,1,993,41,33580,0,65700,0,0,1,0,0
i,0x00000000,1720890904.189224,172.16.3.2,5101,172.16.1.2,24459,10499,14480,0,65728,65728,6,6,4,1460,459,1,992,41,33580,0,65700,0,0,1,0,0
o,0x00000000,1720890904.189268,172.16.3.2,5101,172.16.1.2,24459,10499,14480,0,65728,65728,6,6,4,1460,459,1,993,41,33580,0,65700,0,0,1,0,0
i,0x00000000,1720890904.230489,172.16.3.2,5101,172.16.1.2,24459,10499,14480,0,65728,65728,6,6,4,1460,459,1,992,41,33580,0,65700,0,0,1,0,0
o,0x00000000,1720890904.230522,172.16.3.2,5101,172.16.1.2,24459,10499,14480,0,65728,65728,6,6,4,1460,459,1,993,41,33580,0,65700,0,0,1,0,0
i,0x00000000,1720890904.239771,172.16.3.2,5101,172.16.1.2,24459,10499,14480,0,65728,65728,6,6,4,1460,459,1,992,41,33580,0,65700,0,0,1,0,0
o,0x00000000,1720890904.239804,172.16.3.2,5101,172.16.1.2,24459,10499,14480,0,65728,65728,6,6,4,1460,459,1,993,41,33580,0,65700,0,0,1,0,0
i,0x00000000,1720890904.259599,172.16.3.2,5101,172.16.1.2,24459,10499,14480,0,65728,65728,6,6,4,1460,459,1,992,41,33580,0,65700,0,0,1,0,0
o,0x00000000,1720890904.259638,172.16.3.2,5101,172.16.1.2,24459,10499,14480,0,65728,65728,6,6,4,1460,459,1,993,41,33580,0,65700,0,0,1,0,0
i,0x00000000,1720890904.280132,172.16.3.2,5101,172.16.1.2,24459,10499,14480,0,65728,65728,6,6,4,1460,459,1,992,41,33580,0,65700,0,0,1,0,0
o,0x00000000,1720890904.280179,172.16.3.2,5101,172.16.1.2,24459,10499,14480,0,65728,65728,6,6,4,1460,459,1,993,41,33580,0,65700,15928,0,0,0,0
i,0x00000000,1720890904.309842,172.16.3.2,5101,172.16.1.2,24459,10499,14480,0,65728,65728,6,6,4,1460,459,1,992,41,33580,0,65700,0,0,0,0,0
o,0x00000000,1720890904.310223,172.16.3.2,5101,172.16.1.2,24459,10499,14480,0,65728,65728,6,6,4,1460,459,1,992,41,33580,0,65700,0,0,0,0,0
i,0x00000000,1720890904.316486,172.16.3.2,5101,172.16.1.2,24459,10499,14480,0,65728,65728,6,6,4,1460,459,1,992,41,33580,0,65700,0,0,0,0,0
o,0x00000000,1720890904.352182,172.16.3.2,5101,172.16.1.2,24459,10499,14480,0,65728,65728,6,6,4,1460,459,1,993,41,33580,0,65700,0,0,0,0,0
i,0x00000000,1720890904.379789,172.16.3.2,5101,172.16.1.2,24459,10499,14480,0,65728,65728,6,6,4,1460,459,1,992,41,33580,0,65700,0,0,0,0,0
i,0x00000000,1720890904.399508,172.16.3.2,5101,172.16.1.2,24459,10499,14480,0,65728,65728,6,6,4,1460,459,1,992,41,33580,0,65700,0,0,0,0,0
o,0x00000000,1720890904.399548,172.16.3.2,5101,172.16.1.2,24459,10499,14480,0,65728,65728,6,6,4,1460,459,1,993,41,33580,0,65700,1448,0,0,0,0
i,0x00000000,1720890904.430729,172.16.3.2,5101,172.16.1.2,24459,10499,14480,0,65728,65728,6,6,4,1460,459,1,992,41,33580,0,65700,0,0,0,0,0
i,0x00000000,1720890904.450957,172.16.3.2,5101,172.16.1.2,24459,10499,14480,0,65728,65728,6,6,4,1460,459,1,992,41,33580,0,65700,0,0,0,0,0
o,0x00000000,1720890904.451009,172.16.3.2,5101,172.16.1.2,24459,10499,14480,0,65728,65728,6,6,4,1460,459,1,993,41,33580,0,65700,1448,0,0,0,0
i,0x00000000,1720890904.462647,172.16.3.2,5101,172.16.1.2,24459,10499,14480,0,65728,65728,6,6,4,1460,459,1,992,41,33580,0,65700,0,0,0,0,0
o,0x00000000,1720890904.504274,172.16.3.2,5101,172.16.1.2,24459,10499,14480,0,65728,65728,6,6,4,1460,459,1,993,41,33580,0,65700,0,0,0,0,0
i,0x00000000,1720890904.518662,172.16.3.2,5101,172.16.1.2,24459,10499,14480,0,65728,65728,6,6,4,1460,459,1,992,41,33580,0,65700,0,0,0,0,0
i,0x00000000,1720890904.544325,172.16.3.2,5101,172.16.1.2,24459,10499,14480,0,65728,65728,6,6,4,1460,459,1,992,41,33580,0,65700,0,0,0,0,0
o,0x00000000,1720890904.544363,172.16.3.2,5101,172.16.1.2,24459,10499,14480,0,65728,65728,6,6,4,1460,459,1,993,41,33580,0,65700,1448,0,0,0,0
i,0x00000000,1720890904.550930,172.16.3.2,5101,172.16.1.2,24459,10499,14480,0,65728,65728,6,6,4,1460,459,1,992,41,33580,0,65700,0,0,0,0,0
o,0x00000000,1720890904.583027,172.16.3.2,5101,172.16.1.2,24459,10499,14480,0,65728,65728,6,6,4,1460,459,1,993,41,33580,0,65700,0,0,0,0,0
i,0x00000000,1720890904.599227,172.16.3.2,5101,172.16.1.2,24459,10499,14480,0,65728,65728,6,6,4,1460,459,1,992,41,33580,0,65700,0,0,0,0,0
i,0x00000000,1720890904.608796,172.16.3.2,5101,172.16.1.2,24459,10499,14480,0,65728,65728,6,6,4,1460,459,1,992,41,33580,0,65700,0,0,0,0,0
o,0x00000000,1720890904.608830,172.16.3.2,5101,172.16.1.2,24459,10499,14480,0,65728,65728,6,6,4,1460,459,1,993,41,33580,0,65700,1448,0,0,0,0
i,0x00000000,1720890904.618304,172.16.3.2,5101,172.16.1.2,24459,10499,14480,0,65728,65728,6,6,4,1460,459,1,992,41,33580,0,65700,0,0,0,0,0
o,0x00000000,1720890904.652719,172.16.3.2,5101,172.16.1.2,24459,10499,14480,0,65728,65728,6,6,4,1460,459,1,993,41,33580,0,65700,0,0,0,0,0
i,0x00000000,1720890904.669144,172.16.3.2,5101,172.16.1.2,24459,10499,14480,0,65728,65728,6,6,4,1460,459,1,992,41,33580,0,65700,0,0,0,0,0
i,0x00000000,1720890904.681422,172.16.3.2,5101,172.16.1.2,24459,10499,14480,0,65728,65728,6,6,4,1460,459,1,992,41,33580,0,65700,0,0,0,0,0
o,0x00000000,1720890904.681470,172.16.3.2,5101,172.16.1.2,24459,10499,14480,0,65728,65728,6,6,4,1460,459,1,993,41,33580,0,65700,1448,0,0,0,0
i,0x00000000,1720890904.699136,172.16.3.2,5101,172.16.1.2,24459,10499,14480,0,65728,65728,6,6,4,1460,459,1,992,41,33580,0,65700,0,0,0,0,0
o,0x00000000,1720890904.732830,172.16.3.2,5101,172.16.1.2,24459,10499,14480,0,65728,65728,6,6,4,1460,459,1,993,41,33580,0,65700,0,0,0,0,0
i,0x00000000,1720890904.741119,172.16.3.2,5101,172.16.1.2,24459,10499,14480,0,65728,65728,6,6,4,1460,459,1,992,41,33580,0,65700,0,0,0,0,0
o,0x00000000,1720890904.743627,10.0.2.15,22,10.0.2.2,57021,1073725440,14600,0,65535,65700,0,0,4,1460,1,0,4,24,33580,108,65700,0,0,0,0,0
i,0x00000000,1720890904.745919,10.0.2.15,22,10.0.2.2,57021,1073725440,14600,0,65535,65700,0,0,4,1460,1,0,4,24,33580,108,65700,0,108,0,0,0
o,0x00000000,1720890904.774321,172.16.3.2,5101,172.16.1.2,24459,10499,14480,0,65728,65728,6,6,4,1460,459,1,993,41,33580,0,65700,0,0,0,0,0
i,0x00000000,1720890904.778556,172.16.3.2,5101,172.16.1.2,24459,10499,14480,0,65728,65728,6,6,4,1460,459,1,992,41,33580,0,65700,0,0,0,0,0
i,0x00000000,1720890904.789462,172.16.3.2,5101,172.16.1.2,24459,10499,14480,0,65728,65728,6,6,4,1460,459,1,992,41,33580,0,65700,0,0,0,0,0
o,0x00000000,1720890904.789507,172.16.3.2,5101,172.16.1.2,24459,10499,14480,0,65728,65728,6,6,4,1460,459,1,993,41,33580,0,65700,1448,0,0,0,0
i,0x00000000,1720890904.816748,172.16.3.2,5101,172.16.1.2,24459,10499,14480,0,65728,65728,6,6,4,1460,459,1,992,41,33580,0,65700,0,0,0,0,0
i,0x00000000,1720890904.839745,172.16.3.2,5101,172.16.1.2,24459,10499,14480,0,65728,65728,6,6,4,1460,459,1,992,41,33580,0,65700,0,0,0,0,0
o,0x00000000,1720890904.839794,172.16.3.2,5101,172.16.1.2,24459,10499,14480,0,65728,65728,6,6,4,1460,459,1,993,41,33580,0,65700,1448,0,0,0,0
i,0x00000000,1720890904.869154,172.16.3.2,5101,172.16.1.2,24459,10499,14480,0,65728,65728,6,6,4,1460,459,1,992,41,33580,0,65700,0,0,0,0,0
i,0x00000000,1720890904.879773,172.16.3.2,5101,172.16.1.2,24459,10499,14480,0,65728,65728,6,6,4,1460,459,1,992,41,33580,0,65700,0,0,0,0,0
o,0x00000000,1720890904.879825,172.16.3.2,5101,172.16.1.2,24459,10499,14480,0,65728,65728,6,6,4,1460,459,1,993,41,33580,0,65700,1448,0,0,0,0
i,0x00000000,1720890904.898474,172.16.3.2,5101,172.16.1.2,24459,10499,14480,0,65728,65728,6,6,4,1460,459,1,992,41,33580,0,65700,0,0,0,0,0
o,0x00000000,1720890904.933140,172.16.3.2,5101,172.16.1.2,24459,10499,14480,0,65728,65728,6,6,4,1460,459,1,993,41,33580,0,65700,0,0,0,0,0
i,0x00000000,1720890904.939568,172.16.3.2,5101,172.16.1.2,24459,10499,14480,0,65728,65728,6,6,4,1460,459,1,992,41,33580,0,65700,0,0,0,0,0
o,0x00000000,1720890904.972564,172.16.3.2,5101,172.16.1.2,24459,10499,14480,0,65728,65728,6,6,4,1460,459,1,993,41,33580,0,65700,0,0,0,0,0
i,0x00000000,1720890904.990207,172.16.3.2,5101,172.16.1.2,24459,10499,14480,0,65728,65728,6,6,4,1460,459,1,992,41,33580,0,65700,0,0,0,0,0
i,0x00000000,1720890905.003848,172.16.3.2,5101,172.16.1.2,24459,10499,14480,0,65728,65728,6,6,4,1460,459,1,992,41,33580,0,65700,0,0,0,0,0
o,0x00000000,1720890905.003892,172.16.3.2,5101,172.16.1.2,24459,10499,14480,0,65728,65728,6,6,4,1460,459,1,993,41,33580,0,65700,1448,0,0,0,0
i,0x00000000,1720890905.015071,172.16.3.2,5101,172.16.1.2,24459,10499,14480,0,65728,65728,6,6,4,1460,459,1,992,41,33580,0,65700,0,0,0,0,0
i,0x00000000,1720890905.037493,172.16.3.2,5101,172.16.1.2,24459,10499,14480,0,65728,65728,6,6,4,1460,459,1,992,41,33580,0,65700,0,0,0,0,0
o,0x00000000,1720890905.037507,172.16.3.2,5101,172.16.1.2,24459,10499,14480,0,65728,65728,6,6,4,1460,459,1,993,41,33580,0,65700,1448,0,0,0,0
i,0x00000000,1720890905.047665,172.16.3.2,5101,172.16.1.2,24459,10499,14480,0,65728,65728,6,6,4,1460,459,1,992,41,33580,0,65700,0,0,0,0,0
i,0x00000000,1720890905.079791,172.16.3.2,5101,172.16.1.2,24459,10499,14480,0,65728,65728,6,6,4,1460,459,1,992,41,33580,0,65700,0,0,0,0,0
o,0x00000000,1720890905.079822,172.16.3.2,5101,172.16.1.2,24459,10499,14480,0,65728,65728,6,6,4,1460,459,1,993,41,33580,0,65700,1448,0,0,0,0
i,0x00000000,1720890905.100601,172.16.3.2,5101,172.16.1.2,24459,10499,14480,0,65728,65728,6,6,4,1460,459,1,992,41,33580,0,65700,0,0,0,0,0
o,0x00000000,1720890905.100628,172.16.3.2,5101,172.16.1.2,24459,10499,14480,0,65728,65700,6,6,4,1460,459,1,993,41,33580,0,65700,0,0,1,0,0
i,0x00000000,1720890905.137397,172.16.3.2,5101,172.16.1.2,24459,10499,14480,0,65728,65700,6,6,4,1460,459,1,992,41,33580,0,65700,0,0,1,0,0
o,0x00000000,1720890905.137412,172.16.3.2,5101,172.16.1.2,24459,10499,14480,0,65728,65728,6,6,4,1460,459,1,993,41,33580,0,65700,0,0,1,0,0
i,0x00000000,1720890905.148434,172.16.3.2,5101,172.16.1.2,24459,10499,14480,0,65728,65728,6,6,4,1460,459,1,992,41,33580,0,65700,0,0,1,0,0
o,0x00000000,1720890905.148463,172.16.3.2,5101,172.16.1.2,24459,10499,14480,0,65728,65728,6,6,4,1460,459,1,993,41,33580,0,65700,0,0,1,0,0
i,0x00000000,1720890905.189948,172.16.3.2,5101,172.16.1.2,24459,10499,14480,0,65728,65728,6,6,4,1460,459,1,992,41,33580,0,65700,0,0,1,0,0
o,0x00000000,1720890905.189981,172.16.3.2,5101,172.16.1.2,24459,10499,14480,0,65728,65728,6,6,4,1460,459,1,993,41,33580,0,65700,0,0,1,0,0
i,0x00000000,1720890905.239291,172.16.3.2,5101,172.16.1.2,24459,10499,14480,0,65728,65728,6,6,4,1460,459,1,992,41,33580,0,65700,0,0,1,0,0
o,0x00000000,1720890905.239334,172.16.3.2,5101,172.16.1.2,24459,10499,14480,0,65728,65728,6,6,4,1460,459,1,993,41,33580,0,65700,0,0,1,0,0
i,0x00000000,1720890905.248482,172.16.3.2,5101,172.16.1.2,24459,10499,14480,0,65728,65728,6,6,4,1460,459,1,992,41,33580,0,65700,0,0,1,0,0
o,0x00000000,1720890905.248518,172.16.3.2,5101,172.16.1.2,24459,10499,14480,0,65728,65728,6,6,4,1460,459,1,993,41,33580,0,65700,0,0,1,0,0
i,0x00000000,1720890905.268969,172.16.3.2,5101,172.16.1.2,24459,10499,14480,0,65728,65728,6,6,4,1460,459,1,992,41,33580,0,65700,0,0,1,0,0
o,0x00000000,1720890905.269003,172.16.3.2,5101,172.16.1.2,24459,10499,14480,0,65728,65728,6,6,4,1460,459,1,993,41,33580,0,65700,0,0,1,0,0
i,0x00000000,1720890905.287060,172.16.3.2,5101,172.16.1.2,24459,10499,14480,0,65728,65728,6,6,4,1460,459,1,992,41,33580,0,65700,0,0,1,0,0
o,0x00000000,1720890905.287079,172.16.3.2,5101,172.16.1.2,24459,10499,14480,0,65728,65728,6,6,4,1460,459,1,993,41,33580,0,65700,0,0,1,0,0
i,0x00000000,1720890905.299190,172.16.3.2,5101,172.16.1.2,24459,10499,14480,0,65728,65728,6,6,4,1460,459,1,992,41,33580,0,65700,0,0,1,0,0
o,0x00000000,1720890905.299229,172.16.3.2,5101,172.16.1.2,24459,10499,14480,0,65728,65728,6,6,4,1460,459,1,993,41,33580,0,65700,0,0,1,0,0
i,0x00000000,1720890905.319225,172.16.3.2,5101,172.16.1.2,24459,10499,14480,0,65728,65728,6,6,4,1460,459,1,992,41,33580,0,65700,0,0,1,0,0
o,0x00000000,1720890905.319257,172.16.3.2,5101,172.16.1.2,24459,10499,14480,0,65728,65728,6,6,4,1460,459,1,993,41,33580,0,65700,0,0,1,0,0
i,0x00000000,1720890905.352809,172.16.3.2,5101,172.16.1.2,24459,10499,14480,0,65728,65728,6,6,4,1460,459,1,992,41,33580,0,65700,0,0,1,0,0
o,0x00000000,1720890905.352856,172.16.3.2,5101,172.16.1.2,24459,10499,14480,0,65728,65728,6,6,4,1460,459,1,993,41,33580,0,65700,15928,0,0,0,0
i,0x00000000,1720890905.379320,172.16.3.2,5101,172.16.1.2,24459,10499,14480,0,65728,65728,6,6,4,1460,459,1,992,41,33580,0,65700,0,0,0,0,0
o,0x00000000,1720890905.379353,172.16.3.2,5101,172.16.1.2,24459,10499,14480,0,65728,65700,6,6,4,1460,459,1,993,41,33580,0,65700,0,0,1,0,0
i,0x00000000,1720890905.419040,172.16.3.2,5101,172.16.1.2,24459,10499,14480,0,65728,65700,6,6,4,1460,459,1,992,41,33580,0,65700,0,0,1,0,0
o,0x00000000,1720890905.419074,172.16.3.2,5101,172.16.1.2,24459,10499,14480,0,65728,65728,6,6,4,1460,459,1,993,41,33580,0,65700,0,0,1,0,0
i,0x00000000,1720890905.459542,172.16.3.2,5101,172.16.1.2,24459,10499,14480,0,65728,65728,6,6,4,1460,459,1,992,41,33580,0,65700,0,0,1,0,0
o,0x00000000,1720890905.459576,172.16.3.2,5101,172.16.1.2,24459,10499,14480,0,65728,65728,6,6,4,1460,459,1,993,41,33580,0,65700,0,0,1,0,0
i,0x00000000,1720890905.498741,172.16.3.2,5101,172.16.1.2,24459,10499,14480,0,65728,65728,6,6,4,1460,459,1,992,41,33580,0,65700,0,0,1,0,0
i,0x00000000,1720890905.511539,172.16.3.2,5101,172.16.1.2,24459,10499,14480,0,65728,65728,6,6,4,1460,459,1,992,41,33580,0,65700,0,0,1,0,0
o,0x00000000,1720890905.511581,172.16.3.2,5101,172.16.1.2,24459,10499,14480,0,65728,65728,6,6,4,1460,459,1,993,41,33580,0,65700,0,0,1,0,0
i,0x00000000,1720890905.519698,172.16.3.2,5101,172.16.1.2,24459,10499,14480,0,65728,65728,6,6,4,1460,459,1,992,41,33580,0,65700,0,0,1,0,0
o,0x00000000,1720890905.519748,172.16.3.2,5101,172.16.1.2,24459,10499,14480,0,65728,65728,6,6,4,1460,459,1,993,41,33580,0,65700,7240,0,0,0,0
i,0x00000000,1720890905.539848,172.16.3.2,5101,172.16.1.2,24459,10499,14480,0,65728,65728,6,6,4,1460,459,1,992,41,33580,0,65700,0,0,0,0,0
i,0x00000000,1720890905.568576,172.16.3.2,5101,172.16.1.2,24459,10499,14480,0,65728,65728,6,6,4,1460,459,1,992,41,33580,0,65700,0,0,0,0,0
o,0x00000000,1720890905.568616,172.16.3.2,5101,172.16.1.2,24459,10499,14480,0,65728,65728,6,6,4,1460,459,1,993,41,33580,0,65700,1448,0,0,0,0
i,0x00000000,1720890905.579994,172.16.3.2,5101,172.16.1.2,24459,10499,14480,0,65728,65728,6,6,4,1460,459,1,992,41,33580,0,65700,0,0,0,0,0
o,0x00000000,1720890905.612638,172.16.3.2,5101,172.16.1.2,24459,10499,14480,0,65728,65728,6,6,4,1460,459,1,993,41,33580,0,65700,0,0,0,0,0
i,0x00000000,1720890905.647609,172.16.3.2,5101,172.16.1.2,24459,10499,14480,0,65728,65728,6,6,4,1460,459,1,992,41,33580,0,65700,0,0,0,0,0
i,0x00000000,1720890905.661495,172.16.3.2,5101,172.16.1.2,24459,10499,14480,0,65728,65728,6,6,4,1460,459,1,992,41,33580,0,65700,0,0,0,0,0
o,0x00000000,1720890905.661534,172.16.3.2,5101,172.16.1.2,24459,10499,14480,0,65728,65728,6,6,4,1460,459,1,993,41,33580,0,65700,1448,0,0,0,0
i,0x00000000,1720890905.708528,172.16.3.2,5101,172.16.1.2,24459,10499,14480,0,65728,65728,6,6,4,1460,459,1,992,41,33580,0,65700,0,0,0,0,0
i,0x00000000,1720890905.725071,172.16.3.2,5101,172.16.1.2,24459,10499,14480,0,65728,65728,6,6,4,1460,459,1,992,41,33580,0,65700,0,0,0,0,0
o,0x00000000,1720890905.725120,172.16.3.2,5101,172.16.1.2,24459,10499,14480,0,65728,65728,6,6,4,1460,459,1,993,41,33580,0,65700,1448,0,0,0,0
i,0x00000000,1720890905.728631,172.16.3.2,5101,172.16.1.2,24459,10499,14480,0,65728,65728,6,6,4,1460,459,1,992,41,33580,0,65700,0,0,0,0,0
o,0x00000000,1720890905.743697,10.0.2.15,22,10.0.2.2,57021,1073725440,14600,0,65535,65700,0,0,4,1460,1,0,4,24,33580,108,65700,0,0,0,0,0
i,0x00000000,1720890905.746445,10.0.2.15,22,10.0.2.2,57021,1073725440,14600,0,65535,65700,0,0,4,1460,1,0,4,24,33580,108,65700,0,108,0,0,0
o,0x00000000,1720890905.763914,172.16.3.2,5101,172.16.1.2,24459,10499,14480,0,65728,65728,6,6,4,1460,459,1,993,41,33580,0,65700,0,0,0,0,0
i,0x00000000,1720890905.769693,172.16.3.2,5101,172.16.1.2,24459,10499,14480,0,65728,65728,6,6,4,1460,459,1,992,41,33580,0,65700,0,0,0,0,0
o,0x00000000,1720890905.803226,172.16.3.2,5101,172.16.1.2,24459,10499,14480,0,65728,65728,6,6,4,1460,459,1,993,41,33580,0,65700,0,0,0,0,0
i,0x00000000,1720890905.818545,172.16.3.2,5101,172.16.1.2,24459,10499,14480,0,65728,65728,6,6,4,1460,459,1,992,41,33580,0,65700,0,0,0,0,0
i,0x00000000,1720890905.829498,172.16.3.2,5101,172.16.1.2,24459,10499,14480,0,65728,65728,6,6,4,1460,459,1,992,41,33580,0,65700,0,0,0,0,0
o,0x00000000,1720890905.829547,172.16.3.2,5101,172.16.1.2,24459,10499,14480,0,65728,65728,6,6,4,1460,459,1,993,41,33580,0,65700,1448,0,0,0,0
i,0x00000000,1720890905.890364,172.16.3.2,5101,172.16.1.2,24459,10499,14480,0,65728,65728,6,6,4,1460,459,1,992,41,33580,0,65700,0,0,0,0,0
i,0x00000000,1720890905.900297,172.16.3.2,5101,172.16.1.2,24459,10499,14480,0,65728,65728,6,6,4,1460,459,1,992,41,33580,0,65700,0,0,0,0,0
o,0x00000000,1720890905.900318,172.16.3.2,5101,172.16.1.2,24459,10499,14480,0,65728,65728,6,6,4,1460,459,1,993,41,33580,0,65700,1448,0,0,0,0
i,0x00000000,1720890905.917955,172.16.3.2,5101,172.16.1.2,24459,10499,14480,0,65728,65728,6,6,4,1460,459,1,992,41,33580,0,65700,0,0,0,0,0
i,0x00000000,1720890905.939563,172.16.3.2,5101,172.16.1.2,24459,10499,14480,0,65728,65728,6,6,4,1460,459,1,992,41,33580,0,65700,0,0,0,0,0
o,0x00000000,1720890905.939602,172.16.3.2,5101,172.16.1.2,24459,10499,14480,0,65728,65728,6,6,4,1460,459,1,993,41,33580,0,65700,1448,0,0,0,0
i,0x00000000,1720890905.978999,172.16.3.2,5101,172.16.1.2,24459,10499,14480,0,65728,65728,6,6,4,1460,459,1,992,41,33580,0,65700,0,0,0,0,0
i,0x00000000,1720890905.989520,172.16.3.2,5101,172.16.1.2,24459,10499,14480,0,65728,65728,6,6,4,1460,459,1,992,41,33580,0,65700,0,0,0,0,0
o,0x00000000,1720890905.989555,172.16.3.2,5101,172.16.1.2,24459,10499,14480,0,65728,65728,6,6,4,1460,459,1,993,41,33580,0,65700,1448,0,0,0,0
i,0x00000000,1720890905.998872,172.16.3.2,5101,172.16.1.2,24459,10499,14480,0,65728,65728,6,6,4,1460,459,1,992,41,33580,0,65700,0,0,0,0,0
o,0x00000000,1720890906.033159,172.16.3.2,5101,172.16.1.2,24459,10499,14480,0,65728,65728,6,6,4,1460,459,1,993,41,33580,0,65700,0,0,0,0,0
i,0x00000000,1720890906.038088,172.16.3.2,5101,172.16.1.2,24459,10499,14480,0,65728,65728,6,6,4,1460,459,1,992,41,33580,0,65700,0,0,0,0,0
o,0x00000000,1720890906.071564,172.16.3.2,5101,172.16.1.2,24459,10499,14480,0,65728,65728,6,6,4,1460,459,1,993,41,33580,0,65700,0,0,0,0,0
i,0x00000000,1720890906.089318,172.16.3.2,5101,172.16.1.2,24459,10499,14480,0,65728,65728,6,6,4,1460,459,1,992,41,33580,0,65700,0,0,0,0,0
i,0x00000000,1720890906.100415,172.16.3.2,5101,172.16.1.2,24459,10499,14480,0,65728,65728,6,6,4,1460,459,1,992,41,33580,0,65700,0,0,0,0,0
o,0x00000000,1720890906.100452,172.16.3.2,5101,172.16.1.2,24459,10499,14480,0,65728,65728,6,6,4,1460,459,1,993,41,33580,0,65700,1448,0,0,0,0
i,0x00000000,1720890906.108838,172.16.3.2,5101,172.16.1.2,24459,10499,14480,0,65728,65728,6,6,4,1460,459,1,992,41,33580,0,65700,0,0,0,0,0
o,0x00000000,1720890906.143552,172.16.3.2,5101,172.16.1.2,24459,10499,14480,0,65728,65728,6,6,4,1460,459,1,993,41,33580,0,65700,0,0,0,0,0
i,0x00000000,1720890906.150779,172.16.3.2,5101,172.16.1.2,24459,10499,14480,0,65728,65728,6,6,4,1460,459,1,992,41,33580,0,65700,0,0,0,0,0
i,0x00000000,1720890906.169174,172.16.3.2,5101,172.16.1.2,24459,10499,14480,0,65728,65728,6,6,4,1460,459,1,992,41,33580,0,65700,0,0,0,0,0
o,0x00000000,1720890906.169228,172.16.3.2,5101,172.16.1.2,24459,10499,14480,0,65728,65728,6,6,4,1460,459,1,993,41,33580,0,65700,1448,0,0,0,0
i,0x00000000,1720890906.177254,172.16.3.2,5101,172.16.1.2,24459,10499,14480,0,65728,65728,6,6,4,1460,459,1,992,41,33580,0,65700,0,0,0,0,0
i,0x00000000,1720890906.213267,172.16.3.2,5101,172.16.1.2,24459,10499,14480,0,65728,65728,6,6,4,1460,459,1,992,41,33580,0,65700,0,0,0,0,0
o,0x00000000,1720890906.213307,172.16.3.2,5101,172.16.1.2,24459,10499,14480,0,65728,65728,6,6,4,1460,459,1,993,41,33580,0,65700,1448,0,0,0,0
i,0x00000000,1720890906.248532,172.16.3.2,5101,172.16.1.2,24459,10499,14480,0,65728,65728,6,6,4,1460,459,1,992,41,33580,0,65700,0,0,0,0,0
i,0x00000000,1720890906.279350,172.16.3.2,5101,172.16.1.2,24459,10499,14480,0,65728,65728,6,6,4,1460,459,1,992,41,33580,0,65700,0,0,0,0,0
o,0x00000000,1720890906.279403,172.16.3.2,5101,172.16.1.2,24459,10499,14480,0,65728,65728,6,6,4,1460,459,1,993,41,33580,0,65700,1448,0,0,0,0
i,0x00000000,1720890906.289017,172.16.3.2,5101,172.16.1.2,24459,10499,14480,0,65728,65728,6,6,4,1460,459,1,992,41,33580,0,65700,0,0,0,0,0
o,0x00000000,1720890906.322196,172.16.3.2,5101,172.16.1.2,24459,10499,14480,0,65728,65728,6,6,4,1460,459,1,993,41,33580,0,65700,0,0,0,0,0
i,0x00000000,1720890906.326297,172.16.3.2,5101,172.16.1.2,24459,10499,14480,0,65728,65728,6,6,4,1460,459,1,992,41,33580,0,65700,0,0,0,0,0
o,0x00000000,1720890906.363934,172.16.3.2,5101,172.16.1.2,24459,10499,14480,0,65728,65728,6,6,4,1460,459,1,993,41,33580,0,65700,0,0,0,0,0
i,0x00000000,1720890906.370254,172.16.3.2,5101,172.16.1.2,24459,10499,14480,0,65728,65728,6,6,4,1460,459,1,992,41,33580,0,65700,0,0,0,0,0
o,0x00000000,1720890906.370304,172.16.3.2,5101,172.16.1.2,24459,10499,14480,0,65728,65728,6,6,4,1460,459,1,993,41,33580,0,65700,0,0,1,0,0
i,0x00000000,1720890906.379568,172.16.3.2,5101,172.16.1.2,24459,10499,14480,0,65728,65728,6,6,4,1460,459,1,992,41,33580,0,65700,0,0,1,0,0
o,0x00000000,1720890906.379602,172.16.3.2,5101,172.16.1.2,24459,10499,14480,0,65728,65728,6,6,4,1460,459,1,993,41,33580,0,65700,0,0,1,0,0
i,0x00000000,1720890906.388027,172.16.3.2,5101,172.16.1.2,24459,10499,14480,0,65728,65728,6,6,4,1460,459,1,992,41,33580,0,65700,0,0,1,0,0
o,0x00000000,1720890906.388064,172.16.3.2,5101,172.16.1.2,24459,10499,14480,0,65728,65728,6,6,4,1460,459,1,993,41,33580,0,65700,0,0,1,0,0
i,0x00000000,1720890906.434985,172.16.3.2,5101,172.16.1.2,24459,10499,14480,0,65728,65728,6,6,4,1460,459,1,992,41,33580,0,65700,0,0,1,0,0
o,0x00000000,1720890906.435029,172.16.3.2,5101,172.16.1.2,24459,10499,14480,0,65728,65728,6,6,4,1460,459,1,993,41,33580,0,65700,0,0,1,0,0
i,0x00000000,1720890906.458669,172.16.3.2,5101,172.16.1.2,24459,10499,14480,0,65728,65728,6,6,4,1460,459,1,992,41,33580,0,65700,0,0,1,0,0
o,0x00000000,1720890906.458701,172.16.3.2,5101,172.16.1.2,24459,10499,14480,0,65728,65728,6,6,4,1460,459,1,993,41,33580,0,65700,0,0,1,0,0
i,0x00000000,1720890906.468835,172.16.3.2,5101,172.16.1.2,24459,10499,14480,0,65728,65728,6,6,4,1460,459,1,992,41,33580,0,65700,0,0,1,0,0
o,0x00000000,1720890906.468877,172.16.3.2,5101,172.16.1.2,24459,10499,14480,0,65728,65728,6,6,4,1460,459,1,993,41,33580,0,65700,0,0,1,0,0
i,0x00000000,1720890906.495218,172.16.3.2,5101,172.16.1.2,24459,10499,14480,0,65728,65728,6,6,4,1460,459,1,992,41,33580,0,65700,0,0,1,0,0
o,0x00000000,1720890906.495250,172.16.3.2,5101,172.16.1.2,24459,10499,14480,0,65728,65728,6,6,4,1460,459,1,993,41,33580,0,65700,0,0,1,0,0
i,0x00000000,1720890906.548114,172.16.3.2,5101,172.16.1.2,24459,10499,14480,0,65728,65728,6,6,4,1460,459,1,992,41,33580,0,65700,0,0,1,0,0
o,0x00000000,1720890906.548158,172.16.3.2,5101,172.16.1.2,24459,10499,14480,0,65728,65728,6,6,4,1460,459,1,993,41,33580,0,65700,0,0,1,0,0
i,0x00000000,1720890906.556920,172.16.3.2,5101,172.16.1.2,24459,10499,14480,0,65728,65728,6,6,4,1460,459,1,992,41,33580,0,65700,0,0,1,0,0
o,0x00000000,1720890906.556929,172.16.3.2,5101,172.16.1.2,24459,10499,14480,0,65728,65728,6,6,4,1460,459,1,993,41,33580,0,65700,0,0,1,0,0
i,0x00000000,1720890906.566845,172.16.3.2,5101,172.16.1.2,24459,10499,14480,0,65728,65728,6,6,4,1460,459,1,992,41,33580,0,65700,0,0,1,0,0
o,0x00000000,1720890906.566874,172.16.3.2,5101,172.16.1.2,24459,10499,14480,0,65728,65728,6,6,4,1460,459,1,993,41,33580,0,65700,0,0,1,0,0
i,0x00000000,1720890906.578431,172.16.3.2,5101,172.16.1.2,24459,10499,14480,0,65728,65728,6,6,4,1460,459,1,992,41,33580,0,65700,0,0,1,0,0
o,0x00000000,1720890906.578456,172.16.3.2,5101,172.16.1.2,24459,10499,14480,0,65728,65728,6,6,4,1460,459,1,993,41,33580,0,65700,15928,0,0,0,0
i,0x00000000,1720890906.622143,172.16.3.2,5101,172.16.1.2,24459,10499,14480,0,65728,65728,6,6,4,1460,459,1,992,41,33580,0,65700,0,0,0,0,0
o,0x00000000,1720890906.622518,172.16.3.2,5101,172.16.1.2,24459,10499,14480,0,65728,65728,6,6,4,1460,459,1,992,41,33580,0,65700,0,0,0,0,0
i,0x00000000,1720890906.678740,172.16.3.2,5101,172.16.1.2,24459,10499,14480,0,65728,65728,6,6,4,1460,459,1,992,41,33580,0,65700,0,0,0,0,0
i,0x00000000,1720890906.704905,172.16.3.2,5101,172.16.1.2,24459,10499,14480,0,65728,65728,6,6,4,1460,459,1,992,41,33580,0,65700,0,0,0,0,0
o,0x00000000,1720890906.704946,172.16.3.2,5101,172.16.1.2,24459,10499,14480,0,65728,65728,6,6,4,1460,459,1,993,41,33580,0,65700,1448,0,0,0,0
i,0x00000000,1720890906.728993,172.16.3.2,5101,172.16.1.2,24459,10499,14480,0,65728,65728,6,6,4,1460,459,1,992,41,33580,0,65700,0,0,0,0,0
i,0x00000000,1720890906.748000,172.16.3.2,5101,172.16.1.2,24459,10499,14480,0,65728,65728,6,6,4,1460,459,1,992,41,33580,0,65700,0,0,0,0,0
o,0x00000000,1720890906.748050,172.16.3.2,5101,172.16.1.2,24459,10499,14480,0,65728,65728,6,6,4,1460,459,1,993,41,33580,0,65700,1448,0,0,0,0
o,0x00000000,1720890906.750242,10.0.2.15,22,10.0.2.2,57021,1073725440,14600,0,65535,65700,0,0,4,1460,1,0,4,24,33580,108,65700,0,0,0,0,0
i,0x00000000,1720890906.753745,10.0.2.15,22,10.0.2.2,57021,1073725440,14600,0,65535,65700,0,0,4,1460,1,0,4,24,33580,108,65700,0,108,0,0,0
i,0x00000000,1720890906.758331,172.16.3.2,5101,172.16.1.2,24459,10499,14480,0,65728,65728,6,6,4,1460,459,1,992,41,33580,0,65700,0,0,0,0,0
o,0x00000000,1720890906.792946,172.16.3.2,5101,172.16.1.2,24459,10499,14480,0,65728,65728,6,6,4,1460,459,1,993,41,33580,0,65700,0,0,0,0,0
i,0x00000000,1720890906.862658,172.16.3.2,5101,172.16.1.2,24459,10499,14480,0,65728,65728,6,6,4,1460,459,1,992,41,33580,0,65700,0,0,0,0,0
i,0x00000000,1720890906.868466,172.16.3.2,5101,172.16.1.2,24459,10499,14480,0,65728,65728,6,6,4,1460,459,1,992,41,33580,0,65700,0,0,0,0,0
o,0x00000000,1720890906.868502,172.16.3.2,5101,172.16.1.2,24459,10499,14480,0,65728,65728,6,6,4,1460,459,1,993,41,33580,0,65700,1448,0,0,0,0
i,0x00000000,1720890906.878172,172.16.3.2,5101,172.16.1.2,24459,10499,14480,0,65728,65728,6,6,4,1460,459,1,992,41,33580,0,65700,0,0,0,0,0
i,0x00000000,1720890906.888465,172.16.3.2,5101,172.16.1.2,24459,10499,14480,0,65728,65728,6,6,4,1460,459,1,992,41,33580,0,65700,0,0,0,0,0
o,0x00000000,1720890906.888508,172.16.3.2,5101,172.16.1.2,24459,10499,14480,0,65728,65728,6,6,4,1460,459,1,993,41,33580,0,65700,1448,0,0,0,0
i,0x00000000,1720890906.912302,172.16.3.2,5101,172.16.1.2,24459,10499,14480,0,65728,65728,6,6,4,1460,459,1,992,41,33580,0,65700,0,0,0,0,0
i,0x00000000,1720890906.947712,172.16.3.2,5101,172.16.1.2,24459,10499,14480,0,65728,65728,6,6,4,1460,459,1,992,41,33580,0,65700,0,0,0,0,0
o,0x00000000,1720890906.947735,172.16.3.2,5101,172.16.1.2,24459,10499,14480,0,65728,65728,6,6,4,1460,459,1,993,41,33580,0,65700,1448,0,0,0,0
i,0x00000000,1720890907.038263,172.16.3.2,5101,172.16.1.2,24459,10499,14480,0,65728,65728,6,6,4,1460,459,1,992,41,33580,0,65700,0,0,0,0,0
i,0x00000000,1720890907.046475,172.16.3.2,5101,172.16.1.2,24459,10499,14480,0,65728,65728,6,6,4,1460,459,1,992,41,33580,0,65700,0,0,0,0,0
o,0x00000000,1720890907.046489,172.16.3.2,5101,172.16.1.2,24459,10499,14480,0,65728,65728,6,6,4,1460,459,1,993,41,33580,0,65700,1448,0,0,0,0
i,0x00000000,1720890907.055607,172.16.3.2,5101,172.16.1.2,24459,10499,14480,0,65728,65728,6,6,4,1460,459,1,992,41,33580,0,65700,0,0,0,0,0
i,0x00000000,1720890907.067314,172.16.3.2,5101,172.16.1.2,24459,10499,14480,0,65728,65728,6,6,4,1460,459,1,992,41,33580,0,65700,0,0,0,0,0
o,0x00000000,1720890907.067353,172.16.3.2,5101,172.16.1.2,24459,10499,14480,0,65728,65728,6,6,4,1460,459,1,993,41,33580,0,65700,1448,0,0,0,0
i,0x00000000,1720890907.085582,172.16.3.2,5101,172.16.1.2,24459,10499,14480,0,65728,65728,6,6,4,1460,459,1,992,41,33580,0,65700,0,0,0,0,0
o,0x00000000,1720890907.122998,172.16.3.2,5101,172.16.1.2,24459,10499,14480,0,65728,65728,6,6,4,1460,459,1,993,41,33580,0,65700,0,0,0,0,0
i,0x00000000,1720890907.137910,172.16.3.2,5101,172.16.1.2,24459,10499,14480,0,65728,65728,6,6,4,1460,459,1,992,41,33580,0,65700,0,0,0,0,0
i,0x00000000,1720890907.148898,172.16.3.2,5101,172.16.1.2,24459,10499,14480,0,65728,65728,6,6,4,1460,459,1,992,41,33580,0,65700,0,0,0,0,0
o,0x00000000,1720890907.148944,172.16.3.2,5101,172.16.1.2,24459,10499,14480,0,65728,65728,6,6,4,1460,459,1,993,41,33580,0,65700,1448,0,0,0,0
i,0x00000000,1720890907.211154,172.16.3.2,5101,172.16.1.2,24459,10499,14480,0,65728,65728,6,6,4,1460,459,1,992,41,33580,0,65700,0,0,0,0,0
o,0x00000000,1720890907.243837,172.16.3.2,5101,172.16.1.2,24459,10499,14480,0,65728,65728,6,6,4,1460,459,1,993,41,33580,0,65700,0,0,0,0,0
i,0x00000000,1720890907.252206,172.16.3.2,5101,172.16.1.2,24459,10499,14480,0,65728,65728,6,6,4,1460,459,1,992,41,33580,0,65700,0,0,0,0,0
i,0x00000000,1720890907.252239,172.16.3.2,5101,172.16.1.2,24459,10499,14480,0,65728,65728,6,6,4,1460,459,1,992,41,33580,0,65700,1448,0,0,0,0
o,0x00000000,1720890907.252264,172.16.3.2,5101,172.16.1.2,24459,10499,14480,0,65728,65728,6,6,4,1460,459,1,993,41,33580,0,65700,2896,0,0,0,0
i,0x00000000,1720890907.257325,172.16.3.2,5101,172.16.1.2,24459,10499,14480,0,65728,65728,6,6,4,1460,459,1,992,41,33580,0,65700,0,0,0,0,0
o,0x00000000,1720890907.293548,172.16.3.2,5101,172.16.1.2,24459,10499,14480,0,65728,65728,6,6,4,1460,459,1,993,41,33580,0,65700,0,0,0,0,0
i,0x00000000,1720890907.308018,172.16.3.2,5101,172.16.1.2,24459,10499,14480,0,65728,65728,6,6,4,1460,459,1,992,41,33580,0,65700,0,0,0,0,0
i,0x00000000,1720890907.316524,172.16.3.2,5101,172.16.1.2,24459,10499,14480,0,65728,65728,6,6,4,1460,459,1,992,41,33580,0,65700,0,0,0,0,0
o,0x00000000,1720890907.316549,172.16.3.2,5101,172.16.1.2,24459,10499,14480,0,65728,65728,6,6,4,1460,459,1,993,41,33580,0,65700,1448,0,0,0,0
i,0x00000000,1720890907.327398,172.16.3.2,5101,172.16.1.2,24459,10499,14480,0,65728,65728,6,6,4,1460,459,1,992,41,33580,0,65700,0,0,0,0,0
i,0x00000000,1720890907.352442,172.16.3.2,5101,172.16.1.2,24459,10499,14480,0,65728,65728,6,6,4,1460,459,1,992,41,33580,0,65700,0,0,0,0,0
o,0x00000000,1720890907.352481,172.16.3.2,5101,172.16.1.2,24459,10499,14480,0,65728,65728,6,6,4,1460,459,1,993,41,33580,0,65700,1448,0,0,0,0
i,0x00000000,1720890907.387523,172.16.3.2,5101,172.16.1.2,24459,10499,14480,0,65728,65728,6,6,4,1460,459,1,992,41,33580,0,65700,0,0,0,0,0
i,0x00000000,1720890907.422767,172.16.3.2,5101,172.16.1.2,24459,10499,14480,0,65728,65728,6,6,4,1460,459,1,992,41,33580,0,65700,0,0,0,0,0
o,0x00000000,1720890907.422804,172.16.3.2,5101,172.16.1.2,24459,10499,14480,0,65728,65728,6,6,4,1460,459,1,993,41,33580,0,65700,1448,0,0,0,0
i,0x00000000,1720890907.426727,172.16.3.2,5101,172.16.1.2,24459,10499,14480,0,65728,65728,6,6,4,1460,459,1,992,41,33580,0,65700,1448,0,0,0,0
o,0x00000000,1720890907.464679,172.16.3.2,5101,172.16.1.2,24459,10499,14480,0,65728,65728,6,6,4,1460,459,1,993,41,33580,0,65700,0,0,0,0,0
i,0x00000000,1720890907.480098,172.16.3.2,5101,172.16.1.2,24459,10499,14480,0,65728,65728,6,6,4,1460,459,1,992,41,33580,0,65700,0,0,0,0,0
o,0x00000000,1720890907.513438,172.16.3.2,5101,172.16.1.2,24459,10499,14480,0,65728,65728,6,6,4,1460,459,1,993,41,33580,0,65700,0,0,0,0,0
i,0x00000000,1720890907.518081,172.16.3.2,5101,172.16.1.2,24459,10499,14480,0,65728,65728,6,6,4,1460,459,1,992,41,33580,0,65700,0,0,0,0,0
i,0x00000000,1720890907.528957,172.16.3.2,5101,172.16.1.2,24459,10499,14480,0,65728,65728,6,6,4,1460,459,1,992,41,33580,0,65700,0,0,0,0,0
o,0x00000000,1720890907.529002,172.16.3.2,5101,172.16.1.2,24459,10499,14480,0,65728,65700,6,6,4,1460,459,1,993,41,33580,0,65700,0,0,1,0,0
i,0x00000000,1720890907.536967,172.16.3.2,5101,172.16.1.2,24459,10499,14480,0,65728,65700,6,6,4,1460,459,1,992,41,33580,0,65700,0,0,1,0,0
o,0x00000000,1720890907.537005,172.16.3.2,5101,172.16.1.2,24459,10499,14480,0,65728,65728,6,6,4,1460,459,1,993,41,33580,0,65700,0,0,1,0,0
i,0x00000000,1720890907.576590,172.16.3.2,5101,172.16.1.2,24459,10499,14480,0,65728,65728,6,6,4,1460,459,1,992,41,33580,0,65700,0,0,1,0,0
o,0x00000000,1720890907.576607,172.16.3.2,5101,172.16.1.2,24459,10499,14480,0,65728,65728,6,6,4,1460,459,1,993,41,33580,0,65700,0,0,1,0,0
i,0x00000000,1720890907.595551,172.16.3.2,5101,172.16.1.2,24459,10499,14480,0,65728,65728,6,6,4,1460,459,1,992,41,33580,0,65700,0,0,1,0,0
o,0x00000000,1720890907.595566,172.16.3.2,5101,172.16.1.2,24459,10499,14480,0,65728,65728,6,6,4,1460,459,1,993,41,33580,0,65700,0,0,1,0,0
i,0x00000000,1720890907.615442,172.16.3.2,5101,172.16.1.2,24459,10499,14480,0,65728,65728,6,6,4,1460,459,1,992,41,33580,0,65700,0,0,1,0,0
o,0x00000000,1720890907.615453,172.16.3.2,5101,172.16.1.2,24459,10499,14480,0,65728,65728,6,6,4,1460,459,1,993,41,33580,0,65700,0,0,1,0,0
i,0x00000000,1720890907.637119,172.16.3.2,5101,172.16.1.2,24459,10499,14480,0,65728,65728,6,6,4,1460,459,1,992,41,33580,0,65700,0,0,1,0,0
o,0x00000000,1720890907.637156,172.16.3.2,5101,172.16.1.2,24459,10499,14480,0,65728,65728,6,6,4,1460,459,1,993,41,33580,0,65700,0,0,1,0,0
i,0x00000000,1720890907.673870,172.16.3.2,5101,172.16.1.2,24459,10499,14480,0,65728,65728,6,6,4,1460,459,1,992,41,33580,0,65700,0,0,1,0,0
o,0x00000000,1720890907.673913,172.16.3.2,5101,172.16.1.2,24459,10499,14480,0,65728,65728,6,6,4,1460,459,1,993,41,33580,0,65700,0,0,1,0,0
i,0x00000000,1720890907.677913,172.16.3.2,5101,172.16.1.2,24459,10499,14480,0,65728,65728,6,6,4,1460,459,1,992,41,33580,0,65700,0,0,1,0,0
o,0x00000000,1720890907.677941,172.16.3.2,5101,172.16.1.2,24459,10499,14480,0,65728,65728,6,6,4,1460,459,1,993,41,33580,0,65700,0,0,1,0,0
i,0x00000000,1720890907.716679,172.16.3.2,5101,172.16.1.2,24459,10499,14480,0,65728,65728,6,6,4,1460,459,1,992,41,33580,0,65700,0,0,1,0,0
o,0x00000000,1720890907.716725,172.16.3.2,5101,172.16.1.2,24459,10499,14480,0,65728,65728,6,6,4,1460,459,1,993,41,33580,0,65700,13032,0,0,0,0
o,0x00000000,1720890907.743436,10.0.2.15,22,10.0.2.2,57021,1073725440,14600,0,65535,65700,0,0,4,1460,1,0,4,23,33580,108,65700,0,0,0,0,0
i,0x00000000,1720890907.749419,10.0.2.15,22,10.0.2.2,57021,1073725440,14600,0,65535,65700,0,0,4,1460,1,0,4,23,33580,108,65700,0,108,0,0,0
i,0x00000000,1720890907.757989,172.16.3.2,5101,172.16.1.2,24459,10499,14480,0,65728,65728,6,6,4,1460,459,1,992,41,33580,0,65700,0,0,0,0,0
o,0x00000000,1720890907.793741,172.16.3.2,5101,172.16.1.2,24459,10499,14480,0,65728,65728,6,6,4,1460,459,1,993,41,33580,0,65700,0,0,0,0,0
i,0x00000000,1720890907.808921,172.16.3.2,5101,172.16.1.2,24459,10499,14480,0,65728,65728,6,6,4,1460,459,1,992,41,33580,0,65700,0,0,0,0,0
i,0x00000000,1720890907.817074,172.16.3.2,5101,172.16.1.2,24459,10499,14480,0,65728,65728,6,6,4,1460,459,1,992,41,33580,0,65700,0,0,0,0,0
o,0x00000000,1720890907.817110,172.16.3.2,5101,172.16.1.2,24459,10499,14480,0,65728,65728,6,6,4,1460,459,1,993,41,33580,0,65700,1448,0,0,0,0
i,0x00000000,1720890907.864110,172.16.3.2,5101,172.16.1.2,24459,10499,14480,0,65728,65728,6,6,4,1460,459,1,992,41,33580,0,65700,0,0,0,0,0
o,0x00000000,1720890907.904071,172.16.3.2,5101,172.16.1.2,24459,10499,14480,0,65728,65728,6,6,4,1460,459,1,993,41,33580,0,65700,0,0,0,0,0
i,0x00000000,1720890907.938467,172.16.3.2,5101,172.16.1.2,24459,10499,14480,0,65728,65728,6,6,4,1460,459,1,992,41,33580,0,65700,0,0,0,0,0
i,0x00000000,1720890907.946502,172.16.3.2,5101,172.16.1.2,24459,10499,14480,0,65728,65728,6,6,4,1460,459,1,992,41,33580,0,65700,0,0,0,0,0
o,0x00000000,1720890907.946536,172.16.3.2,5101,172.16.1.2,24459,10499,14480,0,65728,65728,6,6,4,1460,459,1,993,41,33580,0,65700,1448,0,0,0,0
i,0x00000000,1720890907.957735,172.16.3.2,5101,172.16.1.2,24459,10499,14480,0,65728,65728,6,6,4,1460,459,1,992,41,33580,0,65700,0,0,0,0,0
i,0x00000000,1720890907.968441,172.16.3.2,5101,172.16.1.2,24459,10499,14480,0,65728,65728,6,6,4,1460,459,1,992,41,33580,0,65700,0,0,0,0,0
o,0x00000000,1720890907.968479,172.16.3.2,5101,172.16.1.2,24459,10499,14480,0,65728,65728,6,6,4,1460,459,1,993,41,33580,0,65700,1448,0,0,0,0
i,0x00000000,1720890908.044937,172.16.3.2,5101,172.16.1.2,24459,10499,14480,0,65728,65728,6,6,4,1460,459,1,992,41,33580,0,65700,0,0,0,0,0
o,0x00000000,1720890908.081794,172.16.3.2,5101,172.16.1.2,24459,10499,14480,0,65728,65728,6,6,4,1460,459,1,993,41,33580,0,65700,0,0,0,0,0
i,0x00000000,1720890908.107509,172.16.3.2,5101,172.16.1.2,24459,10499,14480,0,65728,65728,6,6,4,1460,459,1,992,41,33580,0,65700,0,0,0,0,0
i,0x00000000,1720890908.117101,172.16.3.2,5101,172.16.1.2,24459,10499,14480,0,65728,65728,6,6,4,1460,459,1,992,41,33580,0,65700,0,0,0,0,0
o,0x00000000,1720890908.117138,172.16.3.2,5101,172.16.1.2,24459,10499,14480,0,65728,65728,6,6,4,1460,459,1,993,41,33580,0,65700,1448,0,0,0,0
i,0x00000000,1720890908.127116,172.16.3.2,5101,172.16.1.2,24459,10499,14480,0,65728,65728,6,6,4,1460,459,1,992,41,33580,0,65700,0,0,0,0,0
i,0x00000000,1720890908.148485,172.16.3.2,5101,172.16.1.2,24459,10499,14480,0,65728,65728,6,6,4,1460,459,1,992,41,33580,0,65700,0,0,0,0,0
o,0x00000000,1720890908.148534,172.16.3.2,5101,172.16.1.2,24459,10499,14480,0,65728,65728,6,6,4,1460,459,1,993,41,33580,0,65700,1448,0,0,0,0
i,0x00000000,1720890908.157738,172.16.3.2,5101,172.16.1.2,24459,10499,14480,0,65728,65728,6,6,4,1460,459,1,992,41,33580,0,65700,0,0,0,0,0
o,0x00000000,1720890908.191883,172.16.3.2,5101,172.16.1.2,24459,10499,14480,0,65728,65728,6,6,4,1460,459,1,993,41,33580,0,65700,0,0,0,0,0
i,0x00000000,1720890908.238115,172.16.3.2,5101,172.16.1.2,24459,10499,14480,0,65728,65728,6,6,4,1460,459,1,992,41,33580,0,65700,0,0,0,0,0
o,0x00000000,1720890908.272777,172.16.3.2,5101,172.16.1.2,24459,10499,14480,0,65728,65728,6,6,4,1460,459,1,993,41,33580,0,65700,0,0,0,0,0
i,0x00000000,1720890908.287958,172.16.3.2,5101,172.16.1.2,24459,10499,14480,0,65728,65728,6,6,4,1460,459,1,992,41,33580,0,65700,0,0,0,0,0
i,0x00000000,1720890908.300847,172.16.3.2,5101,172.16.1.2,24459,10499,14480,0,65728,65728,6,6,4,1460,459,1,992,41,33580,0,65700,0,0,0,0,0
o,0x00000000,1720890908.300884,172.16.3.2,5101,172.16.1.2,24459,10499,14480,0,65728,65728,6,6,4,1460,459,1,993,41,33580,0,65700,1448,0,0,0,0
