enable_time_secs=1720890697	enable_time_usecs=727411	siftrver=1.2.4	hz=100	tcp_rtt_scale=32	sysname=FreeBSD	sysver=1301000	ipmode=4
o,0x00000000,1720890697.727579,10.0.2.15,22,10.0.2.2,51016,1073725440,17770,0,65535,65700,0,0,4,1460,1,0,4,23,33580,44,65700,0,0,0,0,0
o,0x00000000,1720890697.728187,10.0.2.15,22,10.0.2.2,51016,1073725440,17770,0,65535,65700,0,0,4,1460,1,0,4,23,33580,80,65700,0,44,0,0,0
i,0x00000000,1720890697.730024,10.0.2.15,22,10.0.2.2,51016,1073725440,17770,0,65535,65700,0,0,4,1460,1,0,4,23,33580,80,65700,0,80,0,0,0
i,0x00000000,1720890697.732572,10.0.2.15,22,10.0.2.2,51016,1073725440,17814,0,65535,65700,0,0,4,1460,1,0,4,23,33580,36,65700,0,36,0,0,0
o,0x00000000,1720890697.733216,10.0.2.15,22,10.0.2.2,51016,1073725440,17850,0,65535,65700,0,0,4,1460,1,0,4,23,33580,36,65700,0,0,0,0,0
i,0x00000000,1720890697.735586,10.0.2.15,22,10.0.2.2,51016,1073725440,17850,0,65535,65700,0,0,4,1460,1,0,4,23,33580,36,65700,0,36,0,0,0
o,0x00000000,1720890697.736349,10.0.2.15,22,10.0.2.2,51016,1073725440,17886,0,65535,65700,0,0,4,1460,1,0,4,24,33580,176,65700,0,0,0,0,0
i,0x00000000,1720890697.740873,10.0.2.15,22,10.0.2.2,51016,1073725440,17886,0,65535,65700,0,0,4,1460,1,0,4,24,33580,176,65700,0,176,0,0,0
i,0x00000000,1720890697.740897,10.0.2.15,22,10.0.2.2,51016,1073725440,18062,0,65535,65700,0,0,4,1460,1,0,4,24,33580,0,65700,0,0,0,0,0
i,0x00000000,1720890697.740906,10.0.2.15,22,10.0.2.2,51016,1073725440,18062,0,65535,65700,0,0,4,1460,1,0,4,24,33580,0,65700,96,0,0,0,0
o,0x00000000,1720890697.740919,10.0.2.15,22,10.0.2.2,51016,1073725440,18062,0,65535,65604,0,0,5,1460,1,0,5,24,33580,0,65700,96,0,0,0,0
o,0x00000000,1720890697.743635,10.0.2.15,22,10.0.2.2,51016,1073725440,18062,0,65535,65604,0,0,8,1460,1,0,4,24,33580,0,65700,0,0,0,0,0
i,0x00000000,1720890697.745584,10.0.2.15,22,10.0.2.2,51016,1073725440,18062,0,65535,65604,0,0,8,1460,1,0,20,24,33580,0,65700,0,1,0,0,0
i,0x00000000,1720890699.929362,10.0.2.15,22,10.0.2.2,51032,1073725440,14600,0,65535,65700,0,0,4,1460,1,0,0,27,33580,0,65700,0,0,0,0,0
o,0x00000000,1720890699.949126,10.0.2.15,22,10.0.2.2,51032,1073725440,14600,0,65535,65700,0,0,4,1460,1,0,0,27,33580,38,65700,42,0,0,0,0
i,0x00000000,1720890699.952468,10.0.2.15,22,10.0.2.2,51032,1073725440,14600,0,65535,65700,0,0,4,1460,1,0,0,27,33580,38,65700,42,38,0,0,0
i,0x00000000,1720890699.952478,10.0.2.15,22,10.0.2.2,51032,1073725440,14638,0,65535,65700,0,0,4,1460,1,0,0,24,33580,0,65700,42,0,0,0,0
i,0x00000000,1720890699.952480,10.0.2.15,22,10.0.2.2,51032,1073725440,14638,0,65535,65700,0,0,4,1460,1,0,0,24,33580,0,65700,1502,0,0,0,0
o,0x00000000,1720890699.952484,10.0.2.15,22,10.0.2.2,51032,1073725440,14638,0,65535,65700,0,0,4,1460,1,0,1,24,33580,0,65700,1578,0,0,0,0
o,0x00000000,1720890699.953833,10.0.2.15,22,10.0.2.2,51032,1073725440,14638,0,65535,65700,0,0,4,1460,1,0,0,24,33580,1056,65700,1536,0,0,0,0
i,0x00000000,1720890699.954636,10.0.2.15,22,10.0.2.2,51032,1073725440,14638,0,65535,65700,0,0,4,1460,1,0,0,24,33580,1056,65700,1536,1056,0,0,0
i,0x00000000,1720890699.959573,10.0.2.15,22,10.0.2.2,51032,1073725440,15694,0,65535,65700,0,0,4,1460,1,0,0,24,33580,0,65700,0,0,0,0,0
o,0x00000000,1720890699.963734,10.0.2.15,22,10.0.2.2,51032,1073725440,15694,0,65535,65700,0,0,4,1460,1,0,0,24,33580,484,65700,0,0,0,0,0
i,0x00000000,1720890699.964906,10.0.2.15,22,10.0.2.2,51032,1073725440,15694,0,65535,65700,0,0,4,1460,1,0,0,24,33580,484,65700,0,484,0,0,0
i,0x00000000,1720890699.978322,10.0.2.15,22,10.0.2.2,51032,1073725440,16178,0,65535,65700,0,0,4,1460,1,0,0,24,33580,0,65700,0,0,0,0,0
i,0x00000000,1720890699.978356,10.0.2.15,22,10.0.2.2,51032,1073725440,16178,0,65535,65700,0,0,4,1460,1,0,0,24,33580,0,65700,16,0,0,0,0
o,0x00000000,1720890699.978367,10.0.2.15,22,10.0.2.2,51032,1073725440,16178,0,65535,65700,0,0,4,1460,1,0,1,24,33580,0,65700,60,0,0,0,0
o,0x00000000,1720890699.980366,10.0.2.15,22,10.0.2.2,51032,1073725440,16178,0,65535,65700,0,0,4,1460,1,0,0,24,33580,44,65700,0,0,0,0,0
i,0x00000000,1720890699.984766,10.0.2.15,22,10.0.2.2,51032,1073725440,16178,0,65535,65700,0,0,4,1460,1,0,0,24,33580,44,65700,0,44,0,0,0
i,0x00000000,1720890699.984788,10.0.2.15,22,10.0.2.2,51032,1073725440,16222,0,65535,65700,0,0,4,1460,1,0,0,24,33580,0,65700,0,0,0,0,0
o,0x00000000,1720890700.004320,10.0.2.15,22,10.0.2.2,51032,1073725440,16222,0,65535,65700,0,0,4,1460,1,0,0,24,33580,68,65700,0,0,0,0,0
i,0x00000000,1720890700.010229,10.0.2.15,22,10.0.2.2,51032,1073725440,16222,0,65535,65700,0,0,4,1460,1,0,0,24,33580,68,65700,0,68,0,0,0
i,0x00000000,1720890700.010247,10.0.2.15,22,10.0.2.2,51032,1073725440,16290,0,65535,65700,0,0,4,1460,1,0,0,24,33580,0,65700,0,0,0,0,0
o,0x00000000,1720890700.011616,10.0.2.15,22,10.0.2.2,51032,1073725440,16290,0,65535,65700,0,0,4,1460,1,0,0,24,33580,332,65700,0,0,0,0,0
i,0x00000000,1720890700.014405,10.0.2.15,22,10.0.2.2,51032,1073725440,16290,0,65535,65700,0,0,4,1460,1,0,0,24,33580,332,65700,0,332,0,0,0
i,0x00000000,1720890700.018400,10.0.2.15,22,10.0.2.2,51032,1073725440,16622,0,65535,65700,0,0,4,1460,1,0,0,24,33580,0,65700,0,0,0,0,0
o,0x00000000,1720890700.030348,10.0.2.15,22,10.0.2.2,51032,1073725440,16622,0,65535,65700,0,0,4,1460,1,0,0,24,33580,28,65700,0,0,0,0,0
i,0x00000000,1720890700.034817,10.0.2.15,22,10.0.2.2,51032,1073725440,16622,0,65535,65700,0,0,4,1460,1,0,0,24,33580,28,65700,0,28,0,0,0
i,0x00000000,1720890700.034838,10.0.2.15,22,10.0.2.2,51032,1073725440,16650,0,65535,65700,0,0,4,1460,1,0,0,24,33580,0,65700,0,0,0,0,0
o,0x00000000,1720890700.037472,10.0.2.15,22,10.0.2.2,51032,1073725440,16650,0,65535,65700,0,0,4,1460,1,0,0,24,33580,768,65700,112,0,0,0,0
i,0x00000000,1720890700.040351,10.0.2.15,22,10.0.2.2,51032,1073725440,16650,0,65535,65700,0,0,4,1460,1,0,0,24,33580,768,65700,112,768,0,0,0
o,0x00000000,1720890700.040823,10.0.2.15,22,10.0.2.2,51032,1073725440,17418,0,65535,65700,0,0,4,1460,1,0,0,24,33580,140,65700,112,0,0,0,0
i,0x00000000,1720890700.045502,10.0.2.15,22,10.0.2.2,51032,1073725440,17418,0,65535,65700,0,0,4,1460,1,0,0,24,33580,140,65700,112,140,0,0,0
o,0x00000000,1720890700.046224,10.0.2.15,22,10.0.2.2,51032,1073725440,17558,0,65535,65700,0,0,4,1460,1,0,0,24,33580,44,65700,0,0,0,0,0
i,0x00000000,1720890700.048674,10.0.2.15,22,10.0.2.2,51032,1073725440,17558,0,65535,65700,0,0,4,1460,1,0,0,24,33580,44,65700,0,44,0,0,0
i,0x00000000,1720890700.050911,10.0.2.15,22,10.0.2.2,51032,1073725440,17602,0,65535,65700,0,0,4,1460,1,0,0,24,33580,0,65700,0,0,0,0,0
o,0x00000000,1720890700.051668,10.0.2.15,22,10.0.2.2,51032,1073725440,17602,0,65535,65700,0,0,4,1460,1,0,4,24,33580,72,65700,0,0,0,0,0
i,0x00000000,1720890700.055424,10.0.2.15,22,10.0.2.2,51032,1073725440,17602,0,65535,65700,0,0,4,1460,1,0,4,24,33580,72,65700,0,72,0,0,0
o,0x00000000,1720890700.076811,10.0.2.15,22,10.0.2.2,51032,1073725440,17674,0,65535,65700,0,0,4,1460,1,0,4,24,33580,44,65700,0,0,0,0,0
i,0x00000000,1720890700.079703,10.0.2.15,22,10.0.2.2,51032,1073725440,17674,0,65535,65700,0,0,4,1460,1,0,4,24,33580,44,65700,0,44,0,0,0
o,0x00000000,1720890700.081056,10.0.2.15,22,10.0.2.2,51032,1073725440,17718,0,65535,65700,0,0,4,1460,1,0,4,24,33580,44,65700,0,0,0,0,0
i,0x00000000,1720890700.083684,10.0.2.15,22,10.0.2.2,51032,1073725440,17718,0,65535,65700,0,0,4,1460,1,0,4,24,33580,44,65700,0,44,0,0,0
o,0x00000000,1720890700.087541,10.0.2.15,22,10.0.2.2,51032,1073725440,17762,0,65535,65700,0,0,4,1460,1,0,4,24,33580,176,65700,0,0,0,0,0
i,0x00000000,1720890700.089748,10.0.2.15,22,10.0.2.2,51032,1073725440,17762,0,65535,65700,0,0,4,1460,1,0,4,24,33580,176,65700,0,176,0,0,0
i,0x00000000,1720890700.089757,10.0.2.15,22,10.0.2.2,51032,1073725440,17938,0,65535,65700,0,0,4,1460,1,0,4,24,33580,0,65700,0,0,0,0,0
i,0x00000000,1720890700.089759,10.0.2.15,22,10.0.2.2,51032,1073725440,17938,0,65535,65700,0,0,4,1460,1,0,4,24,33580,0,65700,36,0,0,0,0
o,0x00000000,1720890700.089762,10.0.2.15,22,10.0.2.2,51032,1073725440,17938,0,65535,65700,0,0,4,1460,1,0,5,24,33580,0,65700,96,0,0,0,0
i,0x00000000,1720890700.089864,10.0.2.15,22,10.0.2.2,51032,1073725440,17938,0,65535,65700,0,0,4,1460,1,0,4,24,33580,0,65700,96,0,0,0,0
o,0x00000000,1720890700.089869,10.0.2.15,22,10.0.2.2,51032,1073725440,17938,0,65535,65604,0,0,5,1460,1,0,7,24,33580,0,65700,96,0,0,0,0
o,0x00000000,1720890700.099577,10.0.2.15,22,10.0.2.2,51032,1073725440,17938,0,65535,65604,0,0,8,1460,1,0,4,24,33580,0,65700,0,0,0,0,0
i,0x00000000,1720890700.100505,10.0.2.15,22,10.0.2.2,51032,1073725440,17938,0,65535,65604,0,0,8,1460,1,0,20,24,33580,0,65700,0,1,0,0,0
i,0x00000000,1720890700.378330,172.16.3.2,5101,172.16.1.2,47180,10499,14480,0,65728,65700,6,6,4,1460,468,1,992,50,33580,0,65700,0,0,0,0,0
o,0x00000000,1720890700.378860,172.16.3.2,5101,172.16.1.2,47180,10499,14480,0,65728,65700,6,6,4,1460,468,1,996,50,33580,1,65700,0,0,0,0,0
i,0x00000000,1720890700.493806,172.16.3.2,5101,172.16.1.2,47180,10499,14480,0,65728,65700,6,6,4,1460,468,1,996,50,33580,1,65700,0,1,0,0,0
i,0x00000000,1720890700.493845,172.16.3.2,5101,172.16.1.2,47180,10499,14480,0,65728,65728,6,6,4,1460,458,1,996,48,33580,0,65700,4,0,0,0,0
o,0x00000000,1720890700.493862,172.16.3.2,5101,172.16.1.2,47180,10499,14480,0,65728,65728,6,6,4,1460,458,1,997,48,33580,0,65700,128,0,0,0,0
o,0x00000000,1720890700.496912,172.16.3.2,5101,172.16.1.2,47180,10499,14480,0,65728,65728,6,6,4,1460,458,1,996,48,33580,1,65700,0,0,0,0,0
o,0x00000000,1720890700.498401,10.0.2.15,22,10.0.2.2,57021,1073725440,14600,0,65535,65700,0,0,4,1460,1,0,4,24,33580,84,65700,0,0,0,0,0
i,0x00000000,1720890700.502118,10.0.2.15,22,10.0.2.2,57021,1073725440,14600,0,65535,65700,0,0,4,1460,1,0,4,24,33580,84,65700,0,84,0,0,0
i,0x00000000,1720890700.641169,172.16.3.2,5101,172.16.1.2,47180,10499,14480,0,65728,65728,6,6,4,1460,458,1,996,48,33580,1,65700,0,1,0,0,0
i,0x00000000,1720890700.742483,172.16.3.2,5101,172.16.1.2,14330,10499,14480,0,65728,65700,6,6,4,1460,472,1,992,49,33580,0,65700,0,0,0,0,0
o,0x00000000,1720890700.753328,172.16.3.2,5101,172.16.1.2,47180,10499,14480,0,65728,65728,6,6,4,1460,453,1,996,46,33580,1,65700,0,0,0,0,0
o,0x00000000,1720890700.754536,172.16.3.2,5101,172.16.1.2,47180,10499,14480,0,65728,65728,6,6,4,1460,453,1,996,46,33580,2,65700,0,1,0,0,0
o,0x00000000,1720890700.758311,10.0.2.15,22,10.0.2.2,57021,1073725440,14600,0,65535,65700,0,0,4,1460,1,0,4,24,33580,108,65700,0,0,0,0,0
i,0x00000000,1720890700.760570,10.0.2.15,22,10.0.2.2,57021,1073725440,14600,0,65535,65700,0,0,4,1460,1,0,4,24,33580,108,65700,0,108,0,0,0
o,0x00000000,1720890700.782749,172.16.3.2,5101,172.16.1.2,14330,10499,14480,0,65728,65700,6,6,4,1460,472,1,993,49,33580,0,65700,0,0,0,0,0
i,0x00000000,1720890700.872107,172.16.3.2,5101,172.16.1.2,47180,10499,14480,0,65728,65728,6,6,4,1460,453,1,996,46,33580,2,65700,0,2,0,0,0
i,0x00000000,1720890700.970925,172.16.3.2,5101,172.16.1.2,14330,10499,14480,0,65728,65700,6,6,4,1460,472,1,992,49,33580,0,65700,0,0,0,0,0
i,0x00000000,1720890700.980737,172.16.3.2,5101,172.16.1.2,14330,10499,14480,0,65728,65700,6,6,4,1460,472,1,992,49,33580,0,65700,0,0,0,0,0
o,0x00000000,1720890700.980780,172.16.3.2,5101,172.16.1.2,14330,10499,14480,0,65728,65700,6,6,4,1460,472,1,993,49,33580,0,65700,1448,0,0,0,0
i,0x00000000,1720890700.992570,172.16.3.2,5101,172.16.1.2,14330,10499,14480,0,65728,65700,6,6,4,1460,472,1,992,49,33580,0,65700,0,0,0,0,0
i,0x00000000,1720890701.001256,172.16.3.2,5101,172.16.1.2,14330,10499,14480,0,65728,65700,6,6,4,1460,472,1,992,49,33580,0,65700,0,0,0,0,0
o,0x00000000,1720890701.001302,172.16.3.2,5101,172.16.1.2,14330,10499,14480,0,65728,65700,6,6,4,1460,472,1,993,49,33580,0,65700,1448,0,0,0,0
i,0x00000000,1720890701.023916,172.16.3.2,5101,172.16.1.2,14330,10499,14480,0,65728,65700,6,6,4,1460,472,1,992,49,33580,0,65700,0,0,0,0,0
i,0x00000000,1720890701.033766,172.16.3.2,5101,172.16.1.2,14330,10499,14480,0,65728,65700,6,6,4,1460,472,1,992,49,33580,0,65700,0,0,0,0,0
o,0x00000000,1720890701.033804,172.16.3.2,5101,172.16.1.2,14330,10499,14480,0,65728,65700,6,6,4,1460,472,1,993,49,33580,0,65700,1448,0,0,0,0
i,0x00000000,1720890701.042593,172.16.3.2,5101,172.16.1.2,14330,10499,14480,0,65728,65700,6,6,4,1460,472,1,992,49,33580,0,65700,0,0,0,0,0
i,0x00000000,1720890701.050655,172.16.3.2,5101,172.16.1.2,14330,10499,14480,0,65728,65700,6,6,4,1460,472,1,992,49,33580,0,65700,0,0,0,0,0
o,0x00000000,1720890701.050699,172.16.3.2,5101,172.16.1.2,14330,10499,14480,0,65728,65700,6,6,4,1460,472,1,993,49,33580,0,65700,1448,0,0,0,0
i,0x00000000,1720890701.070208,172.16.3.2,5101,172.16.1.2,14330,10499,14480,0,65728,65700,6,6,4,1460,472,1,992,49,33580,0,65700,0,0,0,0,0
i,0x00000000,1720890701.080768,172.16.3.2,5101,172.16.1.2,14330,10499,14480,0,65728,65700,6,6,4,1460,472,1,992,49,33580,0,65700,0,0,0,0,0
o,0x00000000,1720890701.080806,172.16.3.2,5101,172.16.1.2,14330,10499,14480,0,65728,65700,6,6,4,1460,472,1,993,49,33580,0,65700,1448,0,0,0,0
i,0x00000000,1720890701.189968,172.16.3.2,5101,172.16.1.2,14330,10499,14480,0,65728,65700,6,6,4,1460,472,1,992,49,33580,0,65700,0,0,0,0,0
i,0x00000000,1720890701.200336,172.16.3.2,5101,172.16.1.2,14330,10499,14480,0,65728,65700,6,6,4,1460,472,1,992,49,33580,0,65700,0,0,0,0,0
o,0x00000000,1720890701.200362,172.16.3.2,5101,172.16.1.2,14330,10499,14480,0,65728,65700,6,6,4,1460,472,1,993,49,33580,0,65700,1448,0,0,0,0
i,0x00000000,1720890701.260644,172.16.3.2,5101,172.16.1.2,14330,10499,14480,0,65728,65700,6,6,4,1460,472,1,992,49,33580,0,65700,0,0,0,0,0
i,0x00000000,1720890701.270601,172.16.3.2,5101,172.16.1.2,14330,10499,14480,0,65728,65700,6,6,4,1460,472,1,992,49,33580,0,65700,0,0,0,0,0
o,0x00000000,1720890701.270654,172.16.3.2,5101,172.16.1.2,14330,10499,14480,0,65728,65700,6,6,4,1460,472,1,993,49,33580,0,65700,1448,0,0,0,0
i,0x00000000,1720890701.292668,172.16.3.2,5101,172.16.1.2,14330,10499,14480,0,65728,65700,6,6,4,1460,472,1,992,49,33580,0,65700,0,0,0,0,0
i,0x00000000,1720890701.300575,172.16.3.2,5101,172.16.1.2,14330,10499,14480,0,65728,65700,6,6,4,1460,472,1,992,49,33580,0,65700,0,0,0,0,0
o,0x00000000,1720890701.300613,172.16.3.2,5101,172.16.1.2,14330,10499,14480,0,65728,65700,6,6,4,1460,472,1,993,49,33580,0,65700,1448,0,0,0,0
i,0x00000000,1720890701.313808,172.16.3.2,5101,172.16.1.2,14330,10499,14480,0,65728,65700,6,6,4,1460,472,1,992,49,33580,0,65700,0,0,0,0,0
i,0x00000000,1720890701.319651,172.16.3.2,5101,172.16.1.2,14330,10499,14480,0,65728,65700,6,6,4,1460,472,1,992,49,33580,0,65700,0,0,0,0,0
o,0x00000000,1720890701.319688,172.16.3.2,5101,172.16.1.2,14330,10499,14480,0,65728,65700,6,6,4,1460,472,1,993,49,33580,0,65700,1448,0,0,0,0
i,0x00000000,1720890701.330661,172.16.3.2,5101,172.16.1.2,14330,10499,14480,0,65728,65700,6,6,4,1460,472,1,992,49,33580,0,65700,0,0,0,0,0
i,0x00000000,1720890701.351223,172.16.3.2,5101,172.16.1.2,14330,10499,14480,0,65728,65700,6,6,4,1460,472,1,992,49,33580,0,65700,0,0,0,0,0
o,0x00000000,1720890701.351276,172.16.3.2,5101,172.16.1.2,14330,10499,14480,0,65728,65700,6,6,4,1460,472,1,993,49,33580,0,65700,1448,0,0,0,0
i,0x00000000,1720890701.360252,172.16.3.2,5101,172.16.1.2,14330,10499,14480,0,65728,65700,6,6,4,1460,472,1,992,49,33580,0,65700,0,0,0,0,0
i,0x00000000,1720890701.369610,172.16.3.2,5101,172.16.1.2,14330,10499,14480,0,65728,65700,6,6,4,1460,472,1,992,49,33580,0,65700,0,0,0,0,0
o,0x00000000,1720890701.369652,172.16.3.2,5101,172.16.1.2,14330,10499,14480,0,65728,65700,6,6,4,1460,472,1,993,49,33580,0,65700,1448,0,0,0,0
i,0x00000000,1720890701.420072,172.16.3.2,5101,172.16.1.2,14330,10499,14480,0,65728,65700,6,6,4,1460,472,1,992,49,33580,0,65700,0,0,0,0,0
o,0x00000000,1720890701.420375,172.16.3.2,5101,172.16.1.2,14330,10499,14480,0,65728,65700,6,6,4,1460,472,1,993,49,33580,0,65700,0,0,0,0,0
i,0x00000000,1720890701.429663,172.16.3.2,5101,172.16.1.2,14330,10499,14480,0,65728,65700,6,6,4,1460,472,1,992,49,33580,0,65700,0,0,0,0,0
i,0x00000000,1720890701.450637,172.16.3.2,5101,172.16.1.2,14330,10499,14480,0,65728,65700,6,6,4,1460,472,1,992,49,33580,0,65700,0,0,0,0,0
o,0x00000000,1720890701.450678,172.16.3.2,5101,172.16.1.2,14330,10499,14480,0,65728,65700,6,6,4,1460,472,1,993,49,33580,0,65700,1448,0,0,0,0
i,0x00000000,1720890701.494406,172.16.3.2,5101,172.16.1.2,14330,10499,14480,0,65728,65700,6,6,4,1460,472,1,992,49,33580,0,65700,0,0,0,0,0
i,0x00000000,1720890701.510856,172.16.3.2,5101,172.16.1.2,14330,10499,14480,0,65728,65700,6,6,4,1460,472,1,992,49,33580,0,65700,0,0,0,0,0
o,0x00000000,1720890701.510897,172.16.3.2,5101,172.16.1.2,14330,10499,14480,0,65728,65700,6,6,4,1460,472,1,993,49,33580,0,65700,1448,0,0,0,0
i,0x00000000,1720890701.523372,172.16.3.2,5101,172.16.1.2,14330,10499,14480,0,65728,65700,6,6,4,1460,472,1,992,49,33580,0,65700,0,0,0,0,0
o,0x00000000,1720890701.564204,172.16.3.2,5101,172.16.1.2,14330,10499,14480,0,65728,65700,6,6,4,1460,472,1,993,49,33580,0,65700,0,0,0,0,0
i,0x00000000,1720890701.618035,172.16.3.2,5101,172.16.1.2,14330,10499,14480,0,65728,65700,6,6,4,1460,472,1,992,49,33580,0,65700,0,0,0,0,0
i,0x00000000,1720890701.627838,172.16.3.2,5101,172.16.1.2,14330,10499,14480,0,65728,65700,6,6,4,1460,472,1,992,49,33580,0,65700,0,0,0,0,0
o,0x00000000,1720890701.627877,172.16.3.2,5101,172.16.1.2,14330,10499,14480,0,65728,65700,6,6,4,1460,472,1,993,49,33580,0,65700,1448,0,0,0,0
i,0x00000000,1720890701.631707,172.16.3.2,5101,172.16.1.2,14330,10499,14480,0,65728,65700,6,6,4,1460,472,1,992,49,33580,0,65700,0,0,0,0,0
o,0x00000000,1720890701.673300,172.16.3.2,5101,172.16.1.2,14330,10499,14480,0,65728,65700,6,6,4,1460,472,1,993,49,33580,0,65700,0,0,0,0,0
i,0x00000000,1720890701.678033,172.16.3.2,5101,172.16.1.2,14330,10499,14480,0,65728,65700,6,6,4,1460,472,1,992,49,33580,0,65700,0,0,0,0,0
i,0x00000000,1720890701.700700,172.16.3.2,5101,172.16.1.2,14330,10499,14480,0,65728,65700,6,6,4,1460,472,1,992,49,33580,0,65700,0,0,0,0,0
o,0x00000000,1720890701.700746,172.16.3.2,5101,172.16.1.2,14330,10499,14480,0,65728,65700,6,6,4,1460,472,1,993,49,33580,0,65700,1448,0,0,0,0
i,0x00000000,1720890701.730135,172.16.3.2,5101,172.16.1.2,14330,10499,14480,0,65728,65700,6,6,4,1460,472,1,992,49,33580,0,65700,0,0,0,0,0
i,0x00000000,1720890701.740236,172.16.3.2,5101,172.16.1.2,14330,10499,14480,0,65728,65700,6,6,4,1460,472,1,992,49,33580,0,65700,0,0,0,0,0
o,0x00000000,1720890701.740274,172.16.3.2,5101,172.16.1.2,14330,10499,14480,0,65728,65700,6,6,4,1460,472,1,993,49,33580,0,65700,1448,0,0,0,0
i,0x00000000,1720890701.752707,172.16.3.2,5101,172.16.1.2,14330,10499,14480,0,65728,65700,6,6,4,1460,472,1,992,49,33580,0,65700,0,0,0,0,0
o,0x00000000,1720890701.763156,10.0.2.15,22,10.0.2.2,57021,1073725440,14600,0,65535,65700,0,0,4,1460,1,0,4,24,33580,156,65700,0,0,0,0,0
i,0x00000000,1720890701.768434,10.0.2.15,22,10.0.2.2,57021,1073725440,14600,0,65535,65700,0,0,4,1460,1,0,4,24,33580,156,65700,0,156,0,0,0
o,0x00000000,1720890701.793045,172.16.3.2,5101,172.16.1.2,14330,10499,14480,0,65728,65700,6,6,4,1460,472,1,993,49,33580,0,65700,0,0,0,0,0
i,0x00000000,1720890701.800517,172.16.3.2,5101,172.16.1.2,14330,10499,14480,0,65728,65700,6,6,4,1460,472,1,992,49,33580,0,65700,0,0,0,0,0
i,0x00000000,1720890701.810990,172.16.3.2,5101,172.16.1.2,14330,10499,14480,0,65728,65700,6,6,4,1460,472,1,992,49,33580,0,65700,0,0,0,0,0
o,0x00000000,1720890701.811027,172.16.3.2,5101,172.16.1.2,14330,10499,14480,0,65728,65700,6,6,4,1460,472,1,993,49,33580,0,65700,1448,0,0,0,0
i,0x00000000,1720890701.828138,172.16.3.2,5101,172.16.1.2,14330,10499,14480,0,65728,65700,6,6,4,1460,472,1,992,49,33580,0,65700,0,0,0,0,0
i,0x00000000,1720890701.863032,172.16.3.2,5101,172.16.1.2,14330,10499,14480,0,65728,65700,6,6,4,1460,472,1,992,49,33580,0,65700,0,0,0,0,0
o,0x00000000,1720890701.863075,172.16.3.2,5101,172.16.1.2,14330,10499,14480,0,65728,65700,6,6,4,1460,472,1,993,49,33580,0,65700,1448,0,0,0,0
i,0x00000000,1720890701.870483,172.16.3.2,5101,172.16.1.2,14330,10499,14480,0,65728,65700,6,6,4,1460,472,1,992,49,33580,0,65700,0,0,0,0,0
o,0x00000000,1720890701.902461,172.16.3.2,5101,172.16.1.2,14330,10499,14480,0,65728,65700,6,6,4,1460,472,1,993,49,33580,0,65700,0,0,0,0,0
i,0x00000000,1720890701.921168,172.16.3.2,5101,172.16.1.2,14330,10499,14480,0,65728,65700,6,6,4,1460,472,1,992,49,33580,0,65700,0,0,0,0,0
i,0x00000000,1720890701.952944,172.16.3.2,5101,172.16.1.2,14330,10499,14480,0,65728,65700,6,6,4,1460,472,1,992,49,33580,0,65700,0,0,0,0,0
o,0x00000000,1720890701.952983,172.16.3.2,5101,172.16.1.2,14330,10499,14480,0,65728,65700,6,6,4,1460,472,1,993,49,33580,0,65700,1448,0,0,0,0
i,0x00000000,1720890701.958408,172.16.3.2,5101,172.16.1.2,14330,10499,14480,0,65728,65700,6,6,4,1460,472,1,992,49,33580,0,65700,0,0,0,0,0
o,0x00000000,1720890701.958724,172.16.3.2,5101,172.16.1.2,14330,10499,14480,0,65728,65700,6,6,4,1460,472,1,993,49,33580,0,65700,0,0,0,0,0
i,0x00000000,1720890701.971118,172.16.3.2,5101,172.16.1.2,14330,10499,14480,0,65728,65700,6,6,4,1460,472,1,992,49,33580,0,65700,0,0,0,0,0
i,0x00000000,1720890701.981492,172.16.3.2,5101,172.16.1.2,14330,10499,14480,0,65728,65700,6,6,4,1460,472,1,992,49,33580,0,65700,0,0,0,0,0
o,0x00000000,1720890701.981534,172.16.3.2,5101,172.16.1.2,14330,10499,14480,0,65728,65700,6,6,4,1460,472,1,993,49,33580,0,65700,1448,0,0,0,0
i,0x00000000,1720890702.011092,172.16.3.2,5101,172.16.1.2,14330,10499,14480,0,65728,65700,6,6,4,1460,472,1,992,49,33580,0,65700,0,0,0,0,0
i,0x00000000,1720890702.030224,172.16.3.2,5101,172.16.1.2,14330,10499,14480,0,65728,65700,6,6,4,1460,472,1,992,49,33580,0,65700,0,0,0,0,0
o,0x00000000,1720890702.030249,172.16.3.2,5101,172.16.1.2,14330,10499,14480,0,65728,65700,6,6,4,1460,472,1,993,49,33580,0,65700,1448,0,0,0,0
i,0x00000000,1720890702.050802,172.16.3.2,5101,172.16.1.2,14330,10499,14480,0,65728,65700,6,6,4,1460,472,1,992,49,33580,0,65700,0,0,0,0,0
o,0x00000000,1720890702.083649,172.16.3.2,5101,172.16.1.2,14330,10499,14480,0,65728,65700,6,6,4,1460,472,1,993,49,33580,0,65700,0,0,0,0,0
i,0x00000000,1720890702.220370,172.16.3.2,5101,172.16.1.2,14330,10499,14480,0,65728,65700,6,6,4,1460,472,1,992,49,33580,0,65700,0,0,0,0,0
o,0x00000000,1720890702.220708,172.16.3.2,5101,172.16.1.2,14330,10499,14480,0,65728,65700,6,6,4,1460,472,1,993,49,33580,0,65700,0,0,0,0,0
i,0x00000000,1720890702.229974,172.16.3.2,5101,172.16.1.2,14330,10499,14480,0,65728,65700,6,6,4,1460,472,1,992,49,33580,0,65700,0,0,0,0,0
o,0x00000000,1720890702.261985,172.16.3.2,5101,172.16.1.2,14330,10499,14480,0,65728,65700,6,6,4,1460,472,1,993,49,33580,0,65700,0,0,0,0,0
i,0x00000000,1720890702.376726,172.16.3.2,5101,172.16.1.2,14330,10499,14480,0,65728,65700,6,6,4,1460,472,1,992,49,33580,0,65700,0,0,0,0,0
i,0x00000000,1720890702.381760,172.16.3.2,5101,172.16.1.2,14330,10499,14480,0,65728,65700,6,6,4,1460,472,1,992,49,33580,0,65700,0,0,0,0,0
o,0x00000000,1720890702.381804,172.16.3.2,5101,172.16.1.2,14330,10499,14480,0,65728,65700,6,6,4,1460,472,1,993,49,33580,0,65700,1448,0,0,0,0
i,0x00000000,1720890702.389675,172.16.3.2,5101,172.16.1.2,14330,10499,14480,0,65728,65700,6,6,4,1460,472,1,992,49,33580,0,65700,0,0,0,0,0
o,0x00000000,1720890702.422735,172.16.3.2,5101,172.16.1.2,14330,10499,14480,0,65728,65700,6,6,4,1460,472,1,993,49,33580,0,65700,0,0,0,0,0
i,0x00000000,1720890702.542311,172.16.3.2,5101,172.16.1.2,14330,10499,14480,0,65728,65700,6,6,4,1460,472,1,992,49,33580,0,65700,0,0,0,0,0
i,0x00000000,1720890702.554531,172.16.3.2,5101,172.16.1.2,14330,10499,14480,0,65728,65700,6,6,4,1460,472,1,992,49,33580,0,65700,0,0,0,0,0
o,0x00000000,1720890702.554572,172.16.3.2,5101,172.16.1.2,14330,10499,14480,0,65728,65700,6,6,4,1460,472,1,993,49,33580,0,65700,1448,0,0,0,0
i,0x00000000,1720890702.559059,172.16.3.2,5101,172.16.1.2,14330,10499,14480,0,65728,65700,6,6,4,1460,472,1,992,49,33580,0,65700,0,0,0,0,0
i,0x00000000,1720890702.569289,172.16.3.2,5101,172.16.1.2,14330,10499,14480,0,65728,65700,6,6,4,1460,472,1,992,49,33580,0,65700,0,0,0,0,0
o,0x00000000,1720890702.569338,172.16.3.2,5101,172.16.1.2,14330,10499,14480,0,65728,65700,6,6,4,1460,472,1,993,49,33580,0,65700,1448,0,0,0,0
i,0x00000000,1720890702.590465,172.16.3.2,5101,172.16.1.2,14330,10499,14480,0,65728,65700,6,6,4,1460,472,1,992,49,33580,0,65700,0,0,0,0,0
o,0x00000000,1720890702.623123,172.16.3.2,5101,172.16.1.2,14330,10499,14480,0,65728,65700,6,6,4,1460,472,1,993,49,33580,0,65700,0,0,0,0,0
i,0x00000000,1720890702.720717,172.16.3.2,5101,172.16.1.2,14330,10499,14480,0,65728,65700,6,6,4,1460,472,1,992,49,33580,0,65700,0,0,0,0,0
i,0x00000000,1720890702.729303,172.16.3.2,5101,172.16.1.2,14330,10499,14480,0,65728,65700,6,6,4,1460,472,1,992,49,33580,0,65700,0,0,0,0,0
o,0x00000000,1720890702.729338,172.16.3.2,5101,172.16.1.2,14330,10499,14480,0,65728,65700,6,6,4,1460,472,1,993,49,33580,0,65700,1448,0,0,0,0
i,0x00000000,1720890702.740453,172.16.3.2,5101,172.16.1.2,14330,10499,14480,0,65728,65700,6,6,4,1460,472,1,992,49,33580,0,65700,0,0,0,0,0
i,0x00000000,1720890702.749051,172.16.3.2,5101,172.16.1.2,14330,10499,14480,0,65728,65700,6,6,4,1460,472,1,992,49,33580,0,65700,0,0,0,0,0
o,0x00000000,1720890702.749086,172.16.3.2,5101,172.16.1.2,14330,10499,14480,0,65728,65700,6,6,4,1460,472,1,993,49,33580,0,65700,1448,0,0,0,0
i,0x00000000,1720890702.769646,172.16.3.2,5101,172.16.1.2,14330,10499,14480,0,65728,65700,6,6,4,1460,472,1,992,49,33580,0,65700,0,0,0,0,0
o,0x00000000,1720890702.775095,10.0.2.15,22,10.0.2.2,57021,1073725440,14600,0,65535,65700,0,0,4,1460,1,0,4,24,33580,108,65700,0,0,0,0,0
i,0x00000000,1720890702.778046,10.0.2.15,22,10.0.2.2,57021,1073725440,14600,0,65535,65700,0,0,4,1460,1,0,4,24,33580,108,65700,0,108,0,0,0
o,0x00000000,1720890702.803038,172.16.3.2,5101,172.16.1.2,14330,10499,14480,0,65728,65700,6,6,4,1460,472,1,993,49,33580,0,65700,0,0,0,0,0
i,0x00000000,1720890702.810429,172.16.3.2,5101,172.16.1.2,14330,10499,14480,0,65728,65700,6,6,4,1460,472,1,992,49,33580,0,65700,0,0,0,0,0
o,0x00000000,1720890702.842486,172.16.3.2,5101,172.16.1.2,14330,10499,14480,0,65728,65700,6,6,4,1460,472,1,993,49,33580,0,65700,0,0,0,0,0
i,0x00000000,1720890702.898536,172.16.3.2,5101,172.16.1.2,14330,10499,14480,0,65728,65700,6,6,4,1460,472,1,992,49,33580,0,65700,0,0,0,0,0
i,0x00000000,1720890702.902119,172.16.3.2,5101,172.16.1.2,14330,10499,14480,0,65728,65700,6,6,4,1460,472,1,992,49,33580,0,65700,0,0,0,0,0
o,0x00000000,1720890702.902158,172.16.3.2,5101,172.16.1.2,14330,10499,14480,0,65728,65700,6,6,4,1460,472,1,993,49,33580,0,65700,1448,0,0,0,0
i,0x00000000,1720890702.909861,172.16.3.2,5101,172.16.1.2,14330,10499,14480,0,65728,65700,6,6,4,1460,472,1,992,49,33580,0,65700,0,0,0,0,0
i,0x00000000,1720890702.918781,172.16.3.2,5101,172.16.1.2,14330,10499,14480,0,65728,65700,6,6,4,1460,472,1,992,49,33580,0,65700,0,0,0,0,0
o,0x00000000,1720890702.918818,172.16.3.2,5101,172.16.1.2,14330,10499,14480,0,65728,65700,6,6,4,1460,472,1,993,49,33580,0,65700,1448,0,0,0,0
i,0x00000000,1720890702.970851,172.16.3.2,5101,172.16.1.2,14330,10499,14480,0,65728,65700,6,6,4,1460,472,1,992,49,33580,0,65700,0,0,0,0,0
i,0x00000000,1720890702.982846,172.16.3.2,5101,172.16.1.2,14330,10499,14480,0,65728,65700,6,6,4,1460,472,1,992,49,33580,0,65700,0,0,0,0,0
o,0x00000000,1720890702.982892,172.16.3.2,5101,172.16.1.2,14330,10499,14480,0,65728,65700,6,6,4,1460,472,1,993,49,33580,0,65700,1448,0,0,0,0
i,0x00000000,1720890703.000558,172.16.3.2,5101,172.16.1.2,14330,10499,14480,0,65728,65700,6,6,4,1460,472,1,992,49,33580,0,65700,0,0,0,0,0
o,0x00000000,1720890703.032977,172.16.3.2,5101,172.16.1.2,14330,10499,14480,0,65728,65700,6,6,4,1460,472,1,993,49,33580,0,65700,0,0,0,0,0
i,0x00000000,1720890703.060970,172.16.3.2,5101,172.16.1.2,14330,10499,14480,0,65728,65700,6,6,4,1460,472,1,992,49,33580,0,65700,0,0,0,0,0
i,0x00000000,1720890703.070707,172.16.3.2,5101,172.16.1.2,14330,10499,14480,0,65728,65700,6,6,4,1460,472,1,992,49,33580,0,65700,0,0,0,0,0
o,0x00000000,1720890703.070754,172.16.3.2,5101,172.16.1.2,14330,10499,14480,0,65728,65700,6,6,4,1460,472,1,993,49,33580,0,65700,1448,0,0,0,0
i,0x00000000,1720890703.079847,172.16.3.2,5101,172.16.1.2,14330,10499,14480,0,65728,65700,6,6,4,1460,472,1,992,49,33580,0,65700,0,0,0,0,0
o,0x00000000,1720890703.113325,172.16.3.2,5101,172.16.1.2,14330,10499,14480,0,65728,65700,6,6,4,1460,472,1,993,49,33580,0,65700,0,0,0,0,0
i,0x00000000,1720890703.117755,172.16.3.2,5101,172.16.1.2,14330,10499,14480,0,65728,65700,6,6,4,1460,472,1,992,49,33580,0,65700,0,0,0,0,0
i,0x00000000,1720890703.130949,172.16.3.2,5101,172.16.1.2,14330,10499,14480,0,65728,65700,6,6,4,1460,472,1,992,49,33580,0,65700,0,0,0,0,0
o,0x00000000,1720890703.130989,172.16.3.2,5101,172.16.1.2,14330,10499,14480,0,65728,65700,6,6,4,1460,472,1,993,49,33580,0,65700,1448,0,0,0,0
i,0x00000000,1720890703.169105,172.16.3.2,5101,172.16.1.2,14330,10499,14480,0,65728,65700,6,6,4,1460,472,1,992,49,33580,0,65700,0,0,0,0,0
i,0x00000000,1720890703.169117,172.16.3.2,5101,172.16.1.2,14330,10499,14480,0,65728,65700,6,6,4,1460,472,1,992,49,33580,0,65700,1448,0,0,0,0
o,0x00000000,1720890703.169126,172.16.3.2,5101,172.16.1.2,14330,10499,14480,0,65728,65700,6,6,4,1460,472,1,993,49,33580,0,65700,2896,0,0,0,0
i,0x00000000,1720890703.210239,172.16.3.2,5101,172.16.1.2,14330,10499,14480,0,65728,65700,6,6,4,1460,472,1,992,49,33580,0,65700,0,0,0,0,0
i,0x00000000,1720890703.219386,172.16.3.2,5101,172.16.1.2,14330,10499,14480,0,65728,65700,6,6,4,1460,472,1,992,49,33580,0,65700,0,0,0,0,0
o,0x00000000,1720890703.219414,172.16.3.2,5101,172.16.1.2,14330,10499,14480,0,65728,65700,6,6,4,1460,472,1,993,49,33580,0,65700,1448,0,0,0,0
i,0x00000000,1720890703.227391,172.16.3.2,5101,172.16.1.2,14330,10499,14480,0,65728,65700,6,6,4,1460,472,1,992,49,33580,0,65700,0,0,0,0,0
o,0x00000000,1720890703.263320,172.16.3.2,5101,172.16.1.2,14330,10499,14480,0,65728,65700,6,6,4,1460,472,1,993,49,33580,0,65700,0,0,0,0,0
i,0x00000000,1720890703.280170,172.16.3.2,5101,172.16.1.2,14330,10499,14480,0,65728,65700,6,6,4,1460,472,1,992,49,33580,0,65700,0,0,0,0,0
o,0x00000000,1720890703.313085,172.16.3.2,5101,172.16.1.2,14330,10499,14480,0,65728,65700,6,6,4,1460,472,1,993,49,33580,0,65700,0,0,0,0,0
i,0x00000000,1720890703.318903,172.16.3.2,5101,172.16.1.2,14330,10499,14480,0,65728,65700,6,6,4,1460,472,1,992,49,33580,0,65700,0,0,0,0,0
i,0x00000000,1720890703.329623,172.16.3.2,5101,172.16.1.2,14330,10499,14480,0,65728,65700,6,6,4,1460,472,1,992,49,33580,0,65700,0,0,0,0,0
o,0x00000000,1720890703.329666,172.16.3.2,5101,172.16.1.2,14330,10499,14480,0,65728,65700,6,6,4,1460,472,1,993,49,33580,0,65700,1448,0,0,0,0
i,0x00000000,1720890703.339254,172.16.3.2,5101,172.16.1.2,14330,10499,14480,0,65728,65700,6,6,4,1460,472,1,992,49,33580,0,65700,0,0,0,0,0
o,0x00000000,1720890703.373051,172.16.3.2,5101,172.16.1.2,14330,10499,14480,0,65728,65700,6,6,4,1460,472,1,993,49,33580,0,65700,0,0,0,0,0
i,0x00000000,1720890703.400347,172.16.3.2,5101,172.16.1.2,14330,10499,14480,0,65728,65700,6,6,4,1460,472,1,992,49,33580,0,65700,0,0,0,0,0
i,0x00000000,1720890703.428840,172.16.3.2,5101,172.16.1.2,14330,10499,14480,0,65728,65700,6,6,4,1460,472,1,992,49,33580,0,65700,0,0,0,0,0
o,0x00000000,1720890703.428887,172.16.3.2,5101,172.16.1.2,14330,10499,14480,0,65728,65700,6,6,4,1460,472,1,993,49,33580,0,65700,1448,0,0,0,0
i,0x00000000,1720890703.439686,172.16.3.2,5101,172.16.1.2,14330,10499,14480,0,65728,65700,6,6,4,1460,472,1,992,49,33580,0,65700,0,0,0,0,0
i,0x00000000,1720890703.460910,172.16.3.2,5101,172.16.1.2,14330,10499,14480,0,65728,65700,6,6,4,1460,472,1,992,49,33580,0,65700,0,0,0,0,0
o,0x00000000,1720890703.460953,172.16.3.2,5101,172.16.1.2,14330,10499,14480,0,65728,65700,6,6,4,1460,472,1,993,49,33580,0,65700,1448,0,0,0,0
i,0x00000000,1720890703.470645,172.16.3.2,5101,172.16.1.2,14330,10499,14480,0,65728,65700,6,6,4,1460,472,1,992,49,33580,0,65700,0,0,0,0,0
o,0x00000000,1720890703.503271,172.16.3.2,5101,172.16.1.2,14330,10499,14480,0,65728,65700,6,6,4,1460,472,1,993,49,33580,0,65700,0,0,0,0,0
i,0x00000000,1720890703.509738,172.16.3.2,5101,172.16.1.2,14330,10499,14480,0,65728,65700,6,6,4,1460,472,1,992,49,33580,0,65700,0,0,0,0,0
i,0x00000000,1720890703.539984,172.16.3.2,5101,172.16.1.2,14330,10499,14480,0,65728,65700,6,6,4,1460,472,1,992,49,33580,0,65700,0,0,0,0,0
o,0x00000000,1720890703.540023,172.16.3.2,5101,172.16.1.2,14330,10499,14480,0,65728,65700,6,6,4,1460,472,1,993,49,33580,0,65700,1448,0,0,0,0
i,0x00000000,1720890703.570852,172.16.3.2,5101,172.16.1.2,14330,10499,14480,0,65728,65700,6,6,4,1460,472,1,992,49,33580,0,65700,0,0,0,0,0
i,0x00000000,1720890703.578491,172.16.3.2,5101,172.16.1.2,14330,10499,14480,0,65728,65700,6,6,4,1460,472,1,992,49,33580,0,65700,0,0,0,0,0
o,0x00000000,1720890703.578526,172.16.3.2,5101,172.16.1.2,14330,10499,14480,0,65728,65700,6,6,4,1460,472,1,993,49,33580,0,65700,1448,0,0,0,0
i,0x00000000,1720890703.628881,172.16.3.2,5101,172.16.1.2,14330,10499,14480,0,65728,65700,6,6,4,1460,472,1,992,49,33580,0,65700,0,0,0,0,0
o,0x00000000,1720890703.661877,172.16.3.2,5101,172.16.1.2,14330,10499,14480,0,65728,65700,6,6,4,1460,472,1,993,49,33580,0,65700,0,0,0,0,0
i,0x00000000,1720890703.667423,172.16.3.2,5101,172.16.1.2,14330,10499,14480,0,65728,65700,6,6,4,1460,472,1,992,49,33580,0,65700,0,0,0,0,0
i,0x00000000,1720890703.681515,172.16.3.2,5101,172.16.1.2,14330,10499,14480,0,65728,65700,6,6,4,1460,472,1,992,49,33580,0,65700,0,0,0,0,0
o,0x00000000,1720890703.681565,172.16.3.2,5101,172.16.1.2,14330,10499,14480,0,65728,65700,6,6,4,1460,472,1,993,49,33580,0,65700,1448,0,0,0,0
i,0x00000000,1720890703.712321,172.16.3.2,5101,172.16.1.2,14330,10499,14480,0,65728,65700,6,6,4,1460,472,1,992,49,33580,0,65700,0,0,0,0,0
i,0x00000000,1720890703.719112,172.16.3.2,5101,172.16.1.2,14330,10499,14480,0,65728,65700,6,6,4,1460,472,1,992,49,33580,0,65700,0,0,0,0,0
o,0x00000000,1720890703.719158,172.16.3.2,5101,172.16.1.2,14330,10499,14480,0,65728,65700,6,6,4,1460,472,1,993,49,33580,0,65700,1448,0,0,0,0
i,0x00000000,1720890703.728652,172.16.3.2,5101,172.16.1.2,14330,10499,14480,0,65728,65700,6,6,4,1460,472,1,992,49,33580,0,65700,0,0,0,0,0
o,0x00000000,1720890703.762775,172.16.3.2,5101,172.16.1.2,14330,10499,14480,0,65728,65700,6,6,4,1460,472,1,993,49,33580,0,65700,0,0,0,0,0
o,0x00000000,1720890703.765638,10.0.2.15,22,10.0.2.2,57021,1073725440,14600,0,65535,65700,0,0,4,1460,1,0,4,24,33580,108,65700,0,0,0,0,0
i,0x00000000,1720890703.769973,10.0.2.15,22,10.0.2.2,57021,1073725440,14600,0,65535,65700,0,0,4,1460,1,0,4,24,33580,108,65700,0,108,0,0,0
i,0x00000000,1720890703.770634,172.16.3.2,5101,172.16.1.2,14330,10499,14480,0,65728,65700,6,6,4,1460,472,1,992,49,33580,0,65700,0,0,0,0,0
i,0x00000000,1720890703.779558,172.16.3.2,5101,172.16.1.2,14330,10499,14480,0,65728,65700,6,6,4,1460,472,1,992,49,33580,0,65700,0,0,0,0,0
o,0x00000000,1720890703.779592,172.16.3.2,5101,172.16.1.2,14330,10499,14480,0,65728,65700,6,6,4,1460,472,1,993,49,33580,0,65700,1448,0,0,0,0
i,0x00000000,1720890703.900954,172.16.3.2,5101,172.16.1.2,14330,10499,14480,0,65728,65700,6,6,4,1460,472,1,992,49,33580,0,65700,0,0,0,0,0
i,0x00000000,1720890703.909577,172.16.3.2,5101,172.16.1.2,14330,10499,14480,0,65728,65700,6,6,4,1460,472,1,992,49,33580,0,65700,0,0,0,0,0
o,0x00000000,1720890703.909625,172.16.3.2,5101,172.16.1.2,14330,10499,14480,0,65728,65700,6,6,4,1460,472,1,993,49,33580,0,65700,1448,0,0,0,0
i,0x00000000,1720890703.928967,172.16.3.2,5101,172.16.1.2,14330,10499,14480,0,65728,65700,6,6,4,1460,472,1,992,49,33580,0,65700,0,0,0,0,0
o,0x00000000,1720890703.929313,172.16.3.2,5101,172.16.1.2,14330,10499,14480,0,65728,65700,6,6,4,1460,472,1,993,49,33580,0,65700,0,0,0,0,0
i,0x00000000,1720890703.938979,172.16.3.2,5101,172.16.1.2,14330,10499,14480,0,65728,65700,6,6,4,1460,472,1,992,49,33580,0,65700,0,0,0,0,0
i,0x00000000,1720890703.950434,172.16.3.2,5101,172.16.1.2,14330,10499,14480,0,65728,65700,6,6,4,1460,472,1,992,49,33580,0,65700,0,0,0,0,0
o,0x00000000,1720890703.950480,172.16.3.2,5101,172.16.1.2,14330,10499,14480,0,65728,65700,6,6,4,1460,472,1,993,49,33580,0,65700,1448,0,0,0,0
i,0x00000000,1720890703.974821,172.16.3.2,5101,172.16.1.2,14330,10499,14480,0,65728,65700,6,6,4,1460,472,1,992,49,33580,0,65700,0,0,0,0,0
i,0x00000000,1720890703.991101,172.16.3.2,5101,172.16.1.2,14330,10499,14480,0,65728,65700,6,6,4,1460,472,1,992,49,33580,0,65700,0,0,0,0,0
o,0x00000000,1720890703.991156,172.16.3.2,5101,172.16.1.2,14330,10499,14480,0,65728,65700,6,6,4,1460,472,1,993,49,33580,0,65700,1448,0,0,0,0
i,0x00000000,1720890704.000274,172.16.3.2,5101,172.16.1.2,14330,10499,14480,0,65728,65700,6,6,4,1460,472,1,992,49,33580,0,65700,0,0,0,0,0
i,0x00000000,1720890704.009034,172.16.3.2,5101,172.16.1.2,14330,10499,14480,0,65728,65700,6,6,4,1460,472,1,992,49,33580,0,65700,0,0,0,0,0
o,0x00000000,1720890704.009064,172.16.3.2,5101,172.16.1.2,14330,10499,14480,0,65728,65700,6,6,4,1460,472,1,993,49,33580,0,65700,1448,0,0,0,0
i,0x00000000,1720890704.016243,172.16.3.2,5101,172.16.1.2,14330,10499,14480,0,65728,65700,6,6,4,1460,472,1,992,49,33580,0,65700,0,0,0,0,0
i,0x00000000,1720890704.037949,172.16.3.2,5101,172.16.1.2,14330,10499,14480,0,65728,65700,6,6,4,1460,472,1,992,49,33580,0,65700,0,0,0,0,0
o,0x00000000,1720890704.037965,172.16.3.2,5101,172.16.1.2,14330,10499,14480,0,65728,65700,6,6,4,1460,472,1,993,49,33580,0,65700,1448,0,0,0,0
i,0x00000000,1720890704.046650,172.16.3.2,5101,172.16.1.2,14330,10499,14480,0,65728,65700,6,6,4,1460,472,1,992,49,33580,0,65700,0,0,0,0,0
o,0x00000000,1720890704.083269,172.16.3.2,5101,172.16.1.2,14330,10499,14480,0,65728,65700,6,6,4,1460,472,1,993,49,33580,0,65700,0,0,0,0,0
i,0x00000000,1720890704.226649,172.16.3.2,5101,172.16.1.2,14330,10499,14480,0,65728,65700,6,6,4,1460,472,1,992,49,33580,0,65700,0,0,0,0,0
i,0x00000000,1720890704.241973,172.16.3.2,5101,172.16.1.2,14330,10499,14480,0,65728,65700,6,6,4,1460,472,1,992,49,33580,0,65700,0,0,0,0,0
o,0x00000000,1720890704.242010,172.16.3.2,5101,172.16.1.2,14330,10499,14480,0,65728,65700,6,6,4,1460,472,1,993,49,33580,0,65700,1448,0,0,0,0
i,0x00000000,1720890704.268705,172.16.3.2,5101,172.16.1.2,14330,10499,14480,0,65728,65700,6,6,4,1460,472,1,992,49,33580,0,65700,0,0,0,0,0
o,0x00000000,1720890704.268834,172.16.3.2,5101,172.16.1.2,14330,10499,14480,0,65728,65700,6,6,4,1460,472,1,993,49,33580,0,65700,0,0,0,0,0
i,0x00000000,1720890704.276211,172.16.3.2,5101,172.16.1.2,14330,10499,14480,0,65728,65700,6,6,4,1460,472,1,992,49,33580,0,65700,0,0,0,0,0
i,0x00000000,1720890704.286578,172.16.3.2,5101,172.16.1.2,14330,10499,14480,0,65728,65700,6,6,4,1460,472,1,992,49,33580,0,65700,0,0,0,0,0
o,0x00000000,1720890704.286590,172.16.3.2,5101,172.16.1.2,14330,10499,14480,0,65728,65700,6,6,4,1460,472,1,993,49,33580,0,65700,1448,0,0,0,0
i,0x00000000,1720890704.295945,172.16.3.2,5101,172.16.1.2,14330,10499,14480,0,65728,65700,6,6,4,1460,472,1,992,49,33580,0,65700,0,0,0,0,0
i,0x00000000,1720890704.316318,172.16.3.2,5101,172.16.1.2,14330,10499,14480,0,65728,65700,6,6,4,1460,472,1,992,49,33580,0,65700,0,0,0,0,0
o,0x00000000,1720890704.316331,172.16.3.2,5101,172.16.1.2,14330,10499,14480,0,65728,65700,6,6,4,1460,472,1,993,49,33580,0,65700,1448,0,0,0,0
i,0x00000000,1720890704.336383,172.16.3.2,5101,172.16.1.2,14330,10499,14480,0,65728,65700,6,6,4,1460,472,1,992,49,33580,0,65700,0,0,0,0,0
i,0x00000000,1720890704.347327,172.16.3.2,5101,172.16.1.2,14330,10499,14480,0,65728,65700,6,6,4,1460,472,1,992,49,33580,0,65700,0,0,0,0,0
o,0x00000000,1720890704.347342,172.16.3.2,5101,172.16.1.2,14330,10499,14480,0,65728,65700,6,6,4,1460,472,1,993,49,33580,0,65700,1448,0,0,0,0
i,0x00000000,1720890704.366890,172.16.3.2,5101,172.16.1.2,14330,10499,14480,0,65728,65700,6,6,4,1460,472,1,992,49,33580,0,65700,0,0,0,0,0
i,0x00000000,1720890704.382003,172.16.3.2,5101,172.16.1.2,14330,10499,14480,0,65728,65700,6,6,4,1460,472,1,992,49,33580,0,65700,0,0,0,0,0
o,0x00000000,1720890704.382017,172.16.3.2,5101,172.16.1.2,14330,10499,14480,0,65728,65700,6,6,4,1460,472,1,993,49,33580,0,65700,1448,0,0,0,0
i,0x00000000,1720890704.388222,172.16.3.2,5101,172.16.1.2,14330,10499,14480,0,65728,65700,6,6,4,1460,472,1,992,49,33580,0,65700,0,0,0,0,0
i,0x00000000,1720890704.405794,172.16.3.2,5101,172.16.1.2,14330,10499,14480,0,65728,65700,6,6,4,1460,472,1,992,49,33580,0,65700,0,0,0,0,0
o,0x00000000,1720890704.405812,172.16.3.2,5101,172.16.1.2,14330,10499,14480,0,65728,65700,6,6,4,1460,472,1,993,49,33580,0,65700,1448,0,0,0,0
i,0x00000000,1720890704.418047,172.16.3.2,5101,172.16.1.2,14330,10499,14480,0,65728,65700,6,6,4,1460,472,1,992,49,33580,0,65700,0,0,0,0,0
i,0x00000000,1720890704.426338,172.16.3.2,5101,172.16.1.2,14330,10499,14480,0,65728,65700,6,6,4,1460,472,1,992,49,33580,0,65700,0,0,0,0,0
o,0x00000000,1720890704.426351,172.16.3.2,5101,172.16.1.2,14330,10499,14480,0,65728,65700,6,6,4,1460,472,1,993,49,33580,0,65700,1448,0,0,0,0
i,0x00000000,1720890704.437659,172.16.3.2,5101,172.16.1.2,14330,10499,14480,0,65728,65700,6,6,4,1460,472,1,992,49,33580,0,65700,0,0,0,0,0
o,0x00000000,1720890704.471932,172.16.3.2,5101,172.16.1.2,14330,10499,14480,0,65728,65700,6,6,4,1460,472,1,993,49,33580,0,65700,0,0,0,0,0
i,0x00000000,1720890704.581177,172.16.3.2,5101,172.16.1.2,14330,10499,14480,0,65728,65700,6,6,4,1460,472,1,992,49,33580,0,65700,0,0,0,0,0
o,0x00000000,1720890704.581274,172.16.3.2,5101,172.16.1.2,14330,10499,14480,0,65728,65700,6,6,4,1460,472,1,993,49,33580,0,65700,0,0,0,0,0
i,0x00000000,1720890704.596030,172.16.3.2,5101,172.16.1.2,14330,10499,14480,0,65728,65700,6,6,4,1460,472,1,992,49,33580,0,65700,0,0,0,0,0
i,0x00000000,1720890704.615838,172.16.3.2,5101,172.16.1.2,14330,10499,14480,0,65728,65700,6,6,4,1460,472,1,992,49,33580,0,65700,0,0,0,0,0
o,0x00000000,1720890704.615852,172.16.3.2,5101,172.16.1.2,14330,10499,14480,0,65728,65700,6,6,4,1460,472,1,993,49,33580,0,65700,1448,0,0,0,0
i,0x00000000,1720890704.637773,172.16.3.2,5101,172.16.1.2,14330,10499,14480,0,65728,65700,6,6,4,1460,472,1,992,49,33580,0,65700,0,0,0,0,0
i,0x00000000,1720890704.655032,172.16.3.2,5101,172.16.1.2,14330,10499,14480,0,65728,65700,6,6,4,1460,472,1,992,49,33580,0,65700,0,0,0,0,0
o,0x00000000,1720890704.655066,172.16.3.2,5101,172.16.1.2,14330,10499,14480,0,65728,65700,6,6,4,1460,472,1,993,49,33580,0,65700,1448,0,0,0,0
i,0x00000000,1720890704.657022,172.16.3.2,5101,172.16.1.2,14330,10499,14480,0,65728,65700,6,6,4,1460,472,1,992,49,33580,0,65700,0,0,0,0,0
i,0x00000000,1720890704.667960,172.16.3.2,5101,172.16.1.2,14330,10499,14480,0,65728,65700,6,6,4,1460,472,1,992,49,33580,0,65700,0,0,0,0,0
o,0x00000000,1720890704.667994,172.16.3.2,5101,172.16.1.2,14330,10499,14480,0,65728,65700,6,6,4,1460,472,1,993,49,33580,0,65700,1448,0,0,0,0
i,0x00000000,1720890704.712576,172.16.3.2,5101,172.16.1.2,14330,10499,14480,0,65728,65700,6,6,4,1460,472,1,992,49,33580,0,65700,0,0,0,0,0
i,0x00000000,1720890704.717537,172.16.3.2,5101,172.16.1.2,14330,10499,14480,0,65728,65700,6,6,4,1460,472,1,992,49,33580,0,65700,0,0,0,0,0
o,0x00000000,1720890704.717550,172.16.3.2,5101,172.16.1.2,14330,10499,14480,0,65728,65700,6,6,4,1460,472,1,993,49,33580,0,65700,1448,0,0,0,0
i,0x00000000,1720890704.726303,172.16.3.2,5101,172.16.1.2,14330,10499,14480,0,65728,65700,6,6,4,1460,472,1,992,49,33580,0,65700,0,0,0,0,0
i,0x00000000,1720890704.747457,172.16.3.2,5101,172.16.1.2,14330,10499,14480,0,65728,65700,6,6,4,1460,472,1,992,49,33580,0,65700,0,0,0,0,0
o,0x00000000,1720890704.747477,172.16.3.2,5101,172.16.1.2,14330,10499,14480,0,65728,65700,6,6,4,1460,472,1,993,49,33580,0,65700,1448,0,0,0,0
i,0x00000000,1720890704.756989,172.16.3.2,5101,172.16.1.2,14330,10499,14480,0,65728,65700,6,6,4,1460,472,1,992,49,33580,0,65700,0,0,0,0,0
o,0x00000000,1720890704.762831,10.0.2.15,22,10.0.2.2,57021,1073725440,14600,0,65535,65700,0,0,4,1460,1,0,4,24,33580,108,65700,0,0,0,0,0
i,0x00000000,1720890704.764634,10.0.2.15,22,10.0.2.2,57021,1073725440,14600,0,65535,65700,0,0,4,1460,1,0,4,24,33580,108,65700,0,108,0,0,0
i,0x00000000,1720890704.767281,172.16.3.2,5101,172.16.1.2,14330,10499,14480,0,65728,65700,6,6,4,1460,472,1,992,49,33580,0,65700,0,0,0,0,0
o,0x00000000,1720890704.767297,172.16.3.2,5101,172.16.1.2,14330,10499,14480,0,65728,65700,6,6,4,1460,472,1,993,49,33580,0,65700,1448,0,0,0,0
i,0x00000000,1720890704.776561,172.16.3.2,5101,172.16.1.2,14330,10499,14480,0,65728,65700,6,6,4,1460,472,1,992,49,33580,0,65700,0,0,0,0,0
o,0x00000000,1720890704.812675,172.16.3.2,5101,172.16.1.2,14330,10499,14480,0,65728,65700,6,6,4,1460,472,1,993,49,33580,0,65700,0,0,0,0,0
i,0x00000000,1720890704.826541,172.16.3.2,5101,172.16.1.2,14330,10499,14480,0,65728,65700,6,6,4,1460,472,1,992,49,33580,0,65700,0,0,0,0,0
o,0x00000000,1720890704.826632,172.16.3.2,5101,172.16.1.2,14330,10499,14480,0,65728,65700,6,6,4,1460,472,1,993,49,33580,0,65700,0,0,0,0,0
i,0x00000000,1720890704.837834,172.16.3.2,5101,172.16.1.2,14330,10499,14480,0,65728,65700,6,6,4,1460,472,1,992,49,33580,0,65700,0,0,0,0,0
i,0x00000000,1720890704.861950,172.16.3.2,5101,172.16.1.2,14330,10499,14480,0,65728,65700,6,6,4,1460,472,1,992,49,33580,0,65700,0,0,0,0,0
o,0x00000000,1720890704.861985,172.16.3.2,5101,172.16.1.2,14330,10499,14480,0,65728,65700,6,6,4,1460,472,1,993,49,33580,0,65700,1448,0,0,0,0
i,0x00000000,1720890704.897432,172.16.3.2,5101,172.16.1.2,14330,10499,14480,0,65728,65700,6,6,4,1460,472,1,992,49,33580,0,65700,0,0,0,0,0
o,0x00000000,1720890704.932804,172.16.3.2,5101,172.16.1.2,14330,10499,14480,0,65728,65700,6,6,4,1460,472,1,993,49,33580,0,65700,0,0,0,0,0
i,0x00000000,1720890704.946920,172.16.3.2,5101,172.16.1.2,14330,10499,14480,0,65728,65700,6,6,4,1460,472,1,992,49,33580,0,65700,0,0,0,0,0
i,0x00000000,1720890704.964775,172.16.3.2,5101,172.16.1.2,14330,10499,14480,0,65728,65700,6,6,4,1460,472,1,992,49,33580,0,65700,0,0,0,0,0
o,0x00000000,1720890704.964790,172.16.3.2,5101,172.16.1.2,14330,10499,14480,0,65728,65700,6,6,4,1460,472,1,993,49,33580,0,65700,1448,0,0,0,0
i,0x00000000,1720890704.985664,172.16.3.2,5101,172.16.1.2,14330,10499,14480,0,65728,65700,6,6,4,1460,472,1,992,49,33580,0,65700,0,0,0,0,0
o,0x00000000,1720890705.022368,172.16.3.2,5101,172.16.1.2,14330,10499,14480,0,65728,65700,6,6,4,1460,472,1,993,49,33580,0,65700,0,0,0,0,0
i,0x00000000,1720890705.026791,172.16.3.2,5101,172.16.1.2,14330,10499,14480,0,65728,65700,6,6,4,1460,472,1,992,49,33580,0,65700,0,0,0,0,0
i,0x00000000,1720890705.037027,172.16.3.2,5101,172.16.1.2,14330,10499,14480,0,65728,65700,6,6,4,1460,472,1,992,49,33580,0,65700,0,0,0,0,0
o,0x00000000,1720890705.037070,172.16.3.2,5101,172.16.1.2,14330,10499,14480,0,65728,65700,6,6,4,1460,472,1,993,49,33580,0,65700,1448,0,0,0,0
i,0x00000000,1720890705.070661,172.16.3.2,5101,172.16.1.2,14330,10499,14480,0,65728,65700,6,6,4,1460,472,1,992,49,33580,0,65700,0,0,0,0,0
i,0x00000000,1720890705.076709,172.16.3.2,5101,172.16.1.2,14330,10499,14480,0,65728,65700,6,6,4,1460,472,1,992,49,33580,0,65700,0,0,0,0,0
o,0x00000000,1720890705.076741,172.16.3.2,5101,172.16.1.2,14330,10499,14480,0,65728,65700,6,6,4,1460,472,1,993,49,33580,0,65700,1448,0,0,0,0
i,0x00000000,1720890705.116099,172.16.3.2,5101,172.16.1.2,14330,10499,14480,0,65728,65700,6,6,4,1460,472,1,992,49,33580,0,65700,0,0,0,0,0
i,0x00000000,1720890705.126384,172.16.3.2,5101,172.16.1.2,14330,10499,14480,0,65728,65700,6,6,4,1460,472,1,992,49,33580,0,65700,0,0,0,0,0
o,0x00000000,1720890705.126398,172.16.3.2,5101,172.16.1.2,14330,10499,14480,0,65728,65700,6,6,4,1460,472,1,993,49,33580,0,65700,1448,0,0,0,0
i,0x00000000,1720890705.146297,172.16.3.2,5101,172.16.1.2,14330,10499,14480,0,65728,65700,6,6,4,1460,472,1,992,49,33580,0,65700,0,0,0,0,0
o,0x00000000,1720890705.182245,172.16.3.2,5101,172.16.1.2,14330,10499,14480,0,65728,65700,6,6,4,1460,472,1,993,49,33580,0,65700,0,0,0,0,0
i,0x00000000,1720890705.189393,172.16.3.2,5101,172.16.1.2,14330,10499,14480,0,65728,65700,6,6,4,1460,472,1,992,49,33580,0,65700,0,0,0,0,0
o,0x00000000,1720890705.223696,172.16.3.2,5101,172.16.1.2,14330,10499,14480,0,65728,65700,6,6,4,1460,472,1,993,49,33580,0,65700,0,0,0,0,0
i,0x00000000,1720890705.238289,172.16.3.2,5101,172.16.1.2,14330,10499,14480,0,65728,65700,6,6,4,1460,472,1,992,49,33580,0,65700,0,0,0,0,0
i,0x00000000,1720890705.255707,172.16.3.2,5101,172.16.1.2,14330,10499,14480,0,65728,65700,6,6,4,1460,472,1,992,49,33580,0,65700,0,0,0,0,0
o,0x00000000,1720890705.255721,172.16.3.2,5101,172.16.1.2,14330,10499,14480,0,65728,65700,6,6,4,1460,472,1,993,49,33580,0,65700,1448,0,0,0,0
i,0x00000000,1720890705.258084,172.16.3.2,5101,172.16.1.2,14330,10499,14480,0,65728,65700,6,6,4,1460,472,1,992,49,33580,0,65700,0,0,0,0,0
o,0x00000000,1720890705.292941,172.16.3.2,5101,172.16.1.2,14330,10499,14480,0,65728,65700,6,6,4,1460,472,1,993,49,33580,0,65700,0,0,0,0,0
i,0x00000000,1720890705.299259,172.16.3.2,5101,172.16.1.2,14330,10499,14480,0,65728,65700,6,6,4,1460,472,1,992,49,33580,0,65700,0,0,0,0,0
i,0x00000000,1720890705.308106,172.16.3.2,5101,172.16.1.2,14330,10499,14480,0,65728,65700,6,6,4,1460,472,1,992,49,33580,0,65700,0,0,0,0,0
o,0x00000000,1720890705.308145,172.16.3.2,5101,172.16.1.2,14330,10499,14480,0,65728,65700,6,6,4,1460,472,1,993,49,33580,0,65700,1448,0,0,0,0
i,0x00000000,1720890705.341147,172.16.3.2,5101,172.16.1.2,14330,10499,14480,0,65728,65700,6,6,4,1460,472,1,992,49,33580,0,65700,0,0,0,0,0
i,0x00000000,1720890705.348607,172.16.3.2,5101,172.16.1.2,14330,10499,14480,0,65728,65700,6,6,4,1460,472,1,992,49,33580,0,65700,0,0,0,0,0
o,0x00000000,1720890705.348621,172.16.3.2,5101,172.16.1.2,14330,10499,14480,0,65728,65700,6,6,4,1460,472,1,993,49,33580,0,65700,1448,0,0,0,0
i,0x00000000,1720890705.401008,172.16.3.2,5101,172.16.1.2,14330,10499,14480,0,65728,65700,6,6,4,1460,472,1,992,49,33580,0,65700,0,0,0,0,0
i,0x00000000,1720890705.413067,172.16.3.2,5101,172.16.1.2,14330,10499,14480,0,65728,65700,6,6,4,1460,472,1,992,49,33580,0,65700,0,0,0,0,0
o,0x00000000,1720890705.413112,172.16.3.2,5101,172.16.1.2,14330,10499,14480,0,65728,65700,6,6,4,1460,472,1,993,49,33580,0,65700,1448,0,0,0,0
i,0x00000000,1720890705.436042,172.16.3.2,5101,172.16.1.2,14330,10499,14480,0,65728,65700,6,6,4,1460,472,1,992,49,33580,0,65700,0,0,0,0,0
o,0x00000000,1720890705.472844,172.16.3.2,5101,172.16.1.2,14330,10499,14480,0,65728,65700,6,6,4,1460,472,1,993,49,33580,0,65700,0,0,0,0,0
i,0x00000000,1720890705.475608,172.16.3.2,5101,172.16.1.2,14330,10499,14480,0,65728,65700,6,6,4,1460,472,1,992,49,33580,0,65700,0,0,0,0,0
i,0x00000000,1720890705.486780,172.16.3.2,5101,172.16.1.2,14330,10499,14480,0,65728,65700,6,6,4,1460,472,1,992,49,33580,0,65700,0,0,0,0,0
o,0x00000000,1720890705.486795,172.16.3.2,5101,172.16.1.2,14330,10499,14480,0,65728,65700,6,6,4,1460,472,1,993,49,33580,0,65700,1448,0,0,0,0
i,0x00000000,1720890705.708943,172.16.3.2,5101,172.16.1.2,14330,10499,14480,0,65728,65700,6,6,4,1460,472,1,992,49,33580,0,65700,0,0,0,0,0
i,0x00000000,1720890705.737609,172.16.3.2,5101,172.16.1.2,14330,10499,14480,0,65728,65700,6,6,4,1460,472,1,992,49,33580,0,65700,0,0,0,0,0
o,0x00000000,1720890705.737659,172.16.3.2,5101,172.16.1.2,14330,10499,14480,0,65728,65700,6,6,4,1460,472,1,993,49,33580,0,65700,1448,0,0,0,0
i,0x00000000,1720890705.747552,172.16.3.2,5101,172.16.1.2,14330,10499,14480,0,65728,65700,6,6,4,1460,472,1,992,49,33580,0,65700,0,0,0,0,0
o,0x00000000,1720890705.747861,172.16.3.2,5101,172.16.1.2,14330,10499,14480,0,65728,65700,6,6,4,1460,472,1,993,49,33580,0,65700,0,0,0,0,0
i,0x00000000,1720890705.755597,172.16.3.2,5101,172.16.1.2,14330,10499,14480,0,65728,65700,6,6,4,1460,472,1,992,49,33580,0,65700,0,0,0,0,0
i,0x00000000,1720890705.766425,172.16.3.2,5101,172.16.1.2,14330,10499,14480,0,65728,65700,6,6,4,1460,472,1,992,49,33580,0,65700,0,0,0,0,0
o,0x00000000,1720890705.766465,172.16.3.2,5101,172.16.1.2,14330,10499,14480,0,65728,65700,6,6,4,1460,472,1,993,49,33580,0,65700,1448,0,0,0,0
o,0x00000000,1720890705.774071,10.0.2.15,22,10.0.2.2,57021,1073725440,14600,0,65535,65700,0,0,4,1460,1,0,4,24,33580,108,65700,0,0,0,0,0
i,0x00000000,1720890705.776708,10.0.2.15,22,10.0.2.2,57021,1073725440,14600,0,65535,65700,0,0,4,1460,1,0,4,24,33580,108,65700,0,108,0,0,0
i,0x00000000,1720890705.787466,172.16.3.2,5101,172.16.1.2,14330,10499,14480,0,65728,65700,6,6,4,1460,472,1,992,49,33580,0,65700,0,0,0,0,0
i,0x00000000,1720890705.806326,172.16.3.2,5101,172.16.1.2,14330,10499,14480,0,65728,65700,6,6,4,1460,472,1,992,49,33580,0,65700,0,0,0,0,0
o,0x00000000,1720890705.806354,172.16.3.2,5101,172.16.1.2,14330,10499,14480,0,65728,65700,6,6,4,1460,472,1,993,49,33580,0,65700,1448,0,0,0,0
i,0x00000000,1720890705.815722,172.16.3.2,5101,172.16.1.2,14330,10499,14480,0,65728,65700,6,6,4,1460,472,1,992,49,33580,0,65700,0,0,0,0,0
i,0x00000000,1720890705.838621,172.16.3.2,5101,172.16.1.2,14330,10499,14480,0,65728,65700,6,6,4,1460,472,1,992,49,33580,0,65700,0,0,0,0,0
o,0x00000000,1720890705.838634,172.16.3.2,5101,172.16.1.2,14330,10499,14480,0,65728,65700,6,6,4,1460,472,1,993,49,33580,0,65700,1448,0,0,0,0
i,0x00000000,1720890705.846992,172.16.3.2,5101,172.16.1.2,14330,10499,14480,0,65728,65700,6,6,4,1460,472,1,992,49,33580,0,65700,0,0,0,0,0
i,0x00000000,1720890705.861772,172.16.3.2,5101,172.16.1.2,14330,10499,14480,0,65728,65700,6,6,4,1460,472,1,992,49,33580,0,65700,0,0,0,0,0
o,0x00000000,1720890705.861800,172.16.3.2,5101,172.16.1.2,14330,10499,14480,0,65728,65700,6,6,4,1460,472,1,993,49,33580,0,65700,1448,0,0,0,0
i,0x00000000,1720890705.867722,172.16.3.2,5101,172.16.1.2,14330,10499,14480,0,65728,65700,6,6,4,1460,472,1,992,49,33580,0,65700,0,0,0,0,0
i,0x00000000,1720890705.886681,172.16.3.2,5101,172.16.1.2,14330,10499,14480,0,65728,65700,6,6,4,1460,472,1,992,49,33580,0,65700,0,0,0,0,0
o,0x00000000,1720890705.886716,172.16.3.2,5101,172.16.1.2,14330,10499,14480,0,65728,65700,6,6,4,1460,472,1,993,49,33580,0,65700,1448,0,0,0,0
i,0x00000000,1720890705.897821,172.16.3.2,5101,172.16.1.2,14330,10499,14480,0,65728,65700,6,6,4,1460,472,1,992,49,33580,0,65700,0,0,0,0,0
i,0x00000000,1720890705.907564,172.16.3.2,5101,172.16.1.2,14330,10499,14480,0,65728,65700,6,6,4,1460,472,1,992,49,33580,0,65700,0,0,0,0,0
o,0x00000000,1720890705.907601,172.16.3.2,5101,172.16.1.2,14330,10499,14480,0,65728,65700,6,6,4,1460,472,1,993,49,33580,0,65700,1448,0,0,0,0
i,0x00000000,1720890705.917106,172.16.3.2,5101,172.16.1.2,14330,10499,14480,0,65728,65700,6,6,4,1460,472,1,992,49,33580,0,65700,0,0,0,0,0
i,0x00000000,1720890705.945822,172.16.3.2,5101,172.16.1.2,14330,10499,14480,0,65728,65700,6,6,4,1460,472,1,992,49,33580,0,65700,0,0,0,0,0
o,0x00000000,1720890705.945866,172.16.3.2,5101,172.16.1.2,14330,10499,14480,0,65728,65700,6,6,4,1460,472,1,993,49,33580,0,65700,1448,0,0,0,0
i,0x00000000,1720890705.950857,172.16.3.2,5101,172.16.1.2,14330,10499,14480,0,65728,65700,6,6,4,1460,472,1,992,49,33580,0,65700,0,0,0,0,0
i,0x00000000,1720890705.958072,172.16.3.2,5101,172.16.1.2,14330,10499,14480,0,65728,65700,6,6,4,1460,472,1,992,49,33580,0,65700,0,0,0,0,0
o,0x00000000,1720890705.958109,172.16.3.2,5101,172.16.1.2,14330,10499,14480,0,65728,65700,6,6,4,1460,472,1,993,49,33580,0,65700,1448,0,0,0,0
i,0x00000000,1720890705.966673,172.16.3.2,5101,172.16.1.2,14330,10499,14480,0,65728,65700,6,6,4,1460,472,1,992,49,33580,0,65700,0,0,0,0,0
i,0x00000000,1720890705.986603,172.16.3.2,5101,172.16.1.2,14330,10499,14480,0,65728,65700,6,6,4,1460,472,1,992,49,33580,0,65700,0,0,0,0,0
o,0x00000000,1720890705.986615,172.16.3.2,5101,172.16.1.2,14330,10499,14480,0,65728,65700,6,6,4,1460,472,1,993,49,33580,0,65700,1448,0,0,0,0
i,0x00000000,1720890705.997779,172.16.3.2,5101,172.16.1.2,14330,10499,14480,0,65728,65700,6,6,4,1460,472,1,992,49,33580,0,65700,0,0,0,0,0
o,0x00000000,1720890706.032225,172.16.3.2,5101,172.16.1.2,14330,10499,14480,0,65728,65700,6,6,4,1460,472,1,993,49,33580,0,65700,0,0,0,0,0
i,0x00000000,1720890706.465542,172.16.3.2,5101,172.16.1.2,14330,10499,14480,0,65728,65700,6,6,4,1460,472,1,992,49,33580,0,65700,0,0,0,0,0
o,0x00000000,1720890706.465890,172.16.3.2,5101,172.16.1.2,14330,10499,14480,0,65728,65700,6,6,4,1460,472,1,993,49,33580,0,65700,0,0,0,0,0
i,0x00000000,1720890706.470819,172.16.3.2,5101,172.16.1.2,14330,10499,14480,0,65728,65700,6,6,4,1460,472,1,992,49,33580,0,65700,0,0,0,0,0
o,0x00000000,1720890706.502803,172.16.3.2,5101,172.16.1.2,14330,10499,14480,0,65728,65700,6,6,4,1460,472,1,993,49,33580,0,65700,0,0,0,0,0
i,0x00000000,1720890706.528492,172.16.3.2,5101,172.16.1.2,14330,10499,14480,0,65728,65700,6,6,4,1460,472,1,992,49,33580,0,65700,0,0,0,0,0
i,0x00000000,1720890706.549075,172.16.3.2,5101,172.16.1.2,14330,10499,14480,0,65728,65700,6,6,4,1460,472,1,992,49,33580,0,65700,0,0,0,0,0
o,0x00000000,1720890706.549129,172.16.3.2,5101,172.16.1.2,14330,10499,14480,0,65728,65700,6,6,4,1460,472,1,993,49,33580,0,65700,1448,0,0,0,0
i,0x00000000,1720890706.576938,172.16.3.2,5101,172.16.1.2,14330,10499,14480,0,65728,65700,6,6,4,1460,472,1,992,49,33580,0,65700,0,0,0,0,0
i,0x00000000,1720890706.588493,172.16.3.2,5101,172.16.1.2,14330,10499,14480,0,65728,65700,6,6,4,1460,472,1,992,49,33580,0,65700,0,0,0,0,0
o,0x00000000,1720890706.588531,172.16.3.2,5101,172.16.1.2,14330,10499,14480,0,65728,65700,6,6,4,1460,472,1,993,49,33580,0,65700,1448,0,0,0,0
i,0x00000000,1720890706.597247,172.16.3.2,5101,172.16.1.2,14330,10499,14480,0,65728,65700,6,6,4,1460,472,1,992,49,33580,0,65700,0,0,0,0,0
i,0x00000000,1720890706.610635,172.16.3.2,5101,172.16.1.2,14330,10499,14480,0,65728,65700,6,6,4,1460,472,1,992,49,33580,0,65700,0,0,0,0,0
o,0x00000000,1720890706.610650,172.16.3.2,5101,172.16.1.2,14330,10499,14480,0,65728,65700,6,6,4,1460,472,1,993,49,33580,0,65700,1448,0,0,0,0
i,0x00000000,1720890706.653835,172.16.3.2,5101,172.16.1.2,14330,10499,14480,0,65728,65700,6,6,4,1460,472,1,992,49,33580,0,65700,0,0,0,0,0
i,0x00000000,1720890706.662301,172.16.3.2,5101,172.16.1.2,14330,10499,14480,0,65728,65700,6,6,4,1460,472,1,992,49,33580,0,65700,0,0,0,0,0
o,0x00000000,1720890706.662341,172.16.3.2,5101,172.16.1.2,14330,10499,14480,0,65728,65700,6,6,4,1460,472,1,993,49,33580,0,65700,1448,0,0,0,0
i,0x00000000,1720890706.678386,172.16.3.2,5101,172.16.1.2,14330,10499,14480,0,65728,65700,6,6,4,1460,472,1,992,49,33580,0,65700,0,0,0,0,0
i,0x00000000,1720890706.685598,172.16.3.2,5101,172.16.1.2,14330,10499,14480,0,65728,65700,6,6,4,1460,472,1,992,49,33580,0,65700,0,0,0,0,0
o,0x00000000,1720890706.685618,172.16.3.2,5101,172.16.1.2,14330,10499,14480,0,65728,65700,6,6,4,1460,472,1,993,49,33580,0,65700,1448,0,0,0,0
i,0x00000000,1720890706.697815,172.16.3.2,5101,172.16.1.2,14330,10499,14480,0,65728,65700,6,6,4,1460,472,1,992,49,33580,0,65700,0,0,0,0,0
i,0x00000000,1720890706.716878,172.16.3.2,5101,172.16.1.2,14330,10499,14480,0,65728,65700,6,6,4,1460,472,1,992,49,33580,0,65700,0,0,0,0,0
o,0x00000000,1720890706.716924,172.16.3.2,5101,172.16.1.2,14330,10499,14480,0,65728,65700,6,6,4,1460,472,1,993,49,33580,0,65700,1448,0,0,0,0
i,0x00000000,1720890706.727492,172.16.3.2,5101,172.16.1.2,14330,10499,14480,0,65728,65700,6,6,4,1460,472,1,992,49,33580,0,65700,0,0,0,0,0
i,0x00000000,1720890706.735499,172.16.3.2,5101,172.16.1.2,14330,10499,14480,0,65728,65700,6,6,4,1460,472,1,992,49,33580,0,65700,0,0,0,0,0
o,0x00000000,1720890706.735539,172.16.3.2,5101,172.16.1.2,14330,10499,14480,0,65728,65700,6,6,4,1460,472,1,993,49,33580,0,65700,1448,0,0,0,0
i,0x00000000,1720890706.746691,172.16.3.2,5101,172.16.1.2,14330,10499,14480,0,65728,65700,6,6,4,1460,472,1,992,49,33580,0,65700,0,0,0,0,0
o,0x00000000,1720890706.763816,10.0.2.15,22,10.0.2.2,57021,1073725440,14600,0,65535,65700,0,0,4,1460,1,0,4,24,33580,108,65700,0,0,0,0,0
i,0x00000000,1720890706.768327,10.0.2.15,22,10.0.2.2,57021,1073725440,14600,0,65535,65700,0,0,4,1460,1,0,4,24,33580,108,65700,0,108,0,0,0
i,0x00000000,1720890706.768847,172.16.3.2,5101,172.16.1.2,14330,10499,14480,0,65728,65700,6,6,4,1460,472,1,992,49,33580,0,65700,0,0,0,0,0
o,0x00000000,1720890706.768885,172.16.3.2,5101,172.16.1.2,14330,10499,14480,0,65728,65700,6,6,4,1460,472,1,993,49,33580,0,65700,1448,0,0,0,0
i,0x00000000,1720890706.773708,172.16.3.2,5101,172.16.1.2,14330,10499,14480,0,65728,65700,6,6,4,1460,472,1,992,49,33580,0,65700,1448,0,0,0,0
i,0x00000000,1720890706.787635,172.16.3.2,5101,172.16.1.2,14330,10499,14480,0,65728,65700,6,6,4,1460,472,1,992,49,33580,0,65700,0,0,0,0,0
o,0x00000000,1720890706.787683,172.16.3.2,5101,172.16.1.2,14330,10499,14480,0,65728,65700,6,6,4,1460,472,1,993,49,33580,0,65700,1448,0,0,0,0
i,0x00000000,1720890706.798025,172.16.3.2,5101,172.16.1.2,14330,10499,14480,0,65728,65700,6,6,4,1460,472,1,992,49,33580,0,65700,0,0,0,0,0
i,0x00000000,1720890706.806342,172.16.3.2,5101,172.16.1.2,14330,10499,14480,0,65728,65700,6,6,4,1460,472,1,992,49,33580,0,65700,0,0,0,0,0
o,0x00000000,1720890706.806379,172.16.3.2,5101,172.16.1.2,14330,10499,14480,0,65728,65700,6,6,4,1460,472,1,993,49,33580,0,65700,1448,0,0,0,0
