enable_time_secs=1720889079	enable_time_usecs=193089	siftrver=1.2.4	hz=100	tcp_rtt_scale=32	sysname=FreeBSD	sysver=1301000	ipmode=4
o,0x00000000,1720889079.193137,10.0.2.15,22,10.0.2.2,51056,1073725440,17770,0,65535,65700,0,0,4,1460,1,0,4,24,33580,44,65700,0,0,0,0,0
o,0x00000000,1720889079.193257,10.0.2.15,22,10.0.2.2,51056,1073725440,17770,0,65535,65700,0,0,4,1460,1,0,4,24,33580,80,65700,0,44,0,0,0
i,0x00000000,1720889079.193948,10.0.2.15,22,10.0.2.2,51056,1073725440,17770,0,65535,65700,0,0,4,1460,1,0,4,24,33580,80,65700,0,80,0,0,0
i,0x00000000,1720889079.193951,10.0.2.15,22,10.0.2.2,51056,1073725440,17814,0,65535,65700,0,0,4,1460,1,0,4,24,33580,36,65700,0,36,0,0,0
o,0x00000000,1720889079.194049,10.0.2.15,22,10.0.2.2,51056,1073725440,17850,0,65535,65700,0,0,4,1460,1,0,4,24,33580,36,65700,0,0,0,0,0
i,0x00000000,1720889079.194568,10.0.2.15,22,10.0.2.2,51056,1073725440,17850,0,65535,65700,0,0,4,1460,1,0,4,24,33580,36,65700,0,36,0,0,0
o,0x00000000,1720889079.194664,10.0.2.15,22,10.0.2.2,51056,1073725440,17886,0,65535,65700,0,0,4,1460,1,0,4,24,33580,36,65700,0,0,0,0,0
i,0x00000000,1720889079.196252,10.0.2.15,22,10.0.2.2,51056,1073725440,17886,0,65535,65700,0,0,4,1460,1,0,4,24,33580,36,65700,0,36,0,0,0
o,0x00000000,1720889079.196694,10.0.2.15,22,10.0.2.2,51056,1073725440,17922,0,65535,65700,0,0,4,1460,1,0,4,24,33580,140,65700,0,0,0,0,0
i,0x00000000,1720889079.198586,10.0.2.15,22,10.0.2.2,51056,1073725440,17922,0,65535,65700,0,0,4,1460,1,0,4,24,33580,140,65700,0,140,0,0,0
i,0x00000000,1720889079.198596,10.0.2.15,22,10.0.2.2,51056,1073725440,18062,0,65535,65700,0,0,4,1460,1,0,4,24,33580,0,65700,0,0,0,0,0
i,0x00000000,1720889079.198598,10.0.2.15,22,10.0.2.2,51056,1073725440,18062,0,65535,65700,0,0,4,1460,1,0,4,24,33580,0,65700,96,0,0,0,0
o,0x00000000,1720889079.198604,10.0.2.15,22,10.0.2.2,51056,1073725440,18062,0,65535,65604,0,0,5,1460,1,0,5,24,33580,0,65700,96,0,0,0,0
o,0x00000000,1720889079.199142,10.0.2.15,22,10.0.2.2,51056,1073725440,18062,0,65535,65604,0,0,8,1460,1,0,4,24,33580,0,65700,0,0,0,0,0
i,0x00000000,1720889079.200334,10.0.2.15,22,10.0.2.2,51056,1073725440,18062,0,65535,65604,0,0,8,1460,1,0,20,24,33580,0,65700,0,1,0,0,0
i,0x00000000,1720889081.486907,10.0.2.15,22,10.0.2.2,51062,1073725440,14600,0,65535,65700,0,0,4,1460,1,0,0,28,33580,0,65700,0,0,0,0,0
o,0x00000000,1720889081.522105,10.0.2.15,22,10.0.2.2,51062,1073725440,14600,0,65535,65700,0,0,4,1460,1,0,0,28,33580,38,65700,42,0,0,0,0
i,0x00000000,1720889081.530334,10.0.2.15,22,10.0.2.2,51062,1073725440,14600,0,65535,65700,0,0,4,1460,1,0,0,28,33580,38,65700,42,38,0,0,0
i,0x00000000,1720889081.530355,10.0.2.15,22,10.0.2.2,51062,1073725440,14638,0,65535,65700,0,0,4,1460,1,0,0,24,33580,0,65700,42,0,0,0,0
i,0x00000000,1720889081.530363,10.0.2.15,22,10.0.2.2,51062,1073725440,14638,0,65535,65700,0,0,4,1460,1,0,0,24,33580,0,65700,1502,0,0,0,0
o,0x00000000,1720889081.530374,10.0.2.15,22,10.0.2.2,51062,1073725440,14638,0,65535,65700,0,0,4,1460,1,0,1,24,33580,0,65700,1578,0,0,0,0
o,0x00000000,1720889081.535712,10.0.2.15,22,10.0.2.2,51062,1073725440,14638,0,65535,65700,0,0,4,1460,1,0,0,24,33580,1056,65700,1536,0,0,0,0
i,0x00000000,1720889081.538957,10.0.2.15,22,10.0.2.2,51062,1073725440,14638,0,65535,65700,0,0,4,1460,1,0,0,24,33580,1056,65700,1536,1056,0,0,0
i,0x00000000,1720889081.545177,10.0.2.15,22,10.0.2.2,51062,1073725440,15694,0,65535,65700,0,0,4,1460,1,0,0,24,33580,0,65700,0,0,0,0,0
o,0x00000000,1720889081.571209,10.0.2.15,22,10.0.2.2,51062,1073725440,15694,0,65535,65700,0,0,4,1460,1,0,0,24,33580,484,65700,0,0,0,0,0
i,0x00000000,1720889081.576222,10.0.2.15,22,10.0.2.2,51062,1073725440,15694,0,65535,65700,0,0,4,1460,1,0,0,24,33580,484,65700,0,484,0,0,0
i,0x00000000,1720889081.582029,10.0.2.15,22,10.0.2.2,51062,1073725440,16178,0,65535,65700,0,0,4,1460,1,0,0,24,33580,0,65700,0,0,0,0,0
i,0x00000000,1720889081.582038,10.0.2.15,22,10.0.2.2,51062,1073725440,16178,0,65535,65700,0,0,4,1460,1,0,0,24,33580,0,65700,16,0,0,0,0
o,0x00000000,1720889081.582042,10.0.2.15,22,10.0.2.2,51062,1073725440,16178,0,65535,65700,0,0,4,1460,1,0,1,24,33580,0,65700,60,0,0,0,0
o,0x00000000,1720889081.582268,10.0.2.15,22,10.0.2.2,51062,1073725440,16178,0,65535,65700,0,0,4,1460,1,0,0,24,33580,44,65700,0,0,0,0,0
i,0x00000000,1720889081.583626,10.0.2.15,22,10.0.2.2,51062,1073725440,16178,0,65535,65700,0,0,4,1460,1,0,0,24,33580,44,65700,0,44,0,0,0
i,0x00000000,1720889081.583634,10.0.2.15,22,10.0.2.2,51062,1073725440,16222,0,65535,65700,0,0,4,1460,1,0,0,24,33580,0,65700,0,0,0,0,0
o,0x00000000,1720889081.592978,10.0.2.15,22,10.0.2.2,51062,1073725440,16222,0,65535,65700,0,0,4,1460,1,0,0,24,33580,68,65700,0,0,0,0,0
i,0x00000000,1720889081.595050,10.0.2.15,22,10.0.2.2,51062,1073725440,16222,0,65535,65700,0,0,4,1460,1,0,0,24,33580,68,65700,0,68,0,0,0
i,0x00000000,1720889081.595055,10.0.2.15,22,10.0.2.2,51062,1073725440,16290,0,65535,65700,0,0,4,1460,1,0,0,24,33580,0,65700,0,0,0,0,0
o,0x00000000,1720889081.595331,10.0.2.15,22,10.0.2.2,51062,1073725440,16290,0,65535,65700,0,0,4,1460,1,0,0,24,33580,332,65700,0,0,0,0,0
i,0x00000000,1720889081.596001,10.0.2.15,22,10.0.2.2,51062,1073725440,16290,0,65535,65700,0,0,4,1460,1,0,0,24,33580,332,65700,0,332,0,0,0
i,0x00000000,1720889081.598371,10.0.2.15,22,10.0.2.2,51062,1073725440,16622,0,65535,65700,0,0,4,1460,1,0,0,24,33580,0,65700,0,0,0,0,0
o,0x00000000,1720889081.616440,10.0.2.15,22,10.0.2.2,51062,1073725440,16622,0,65535,65700,0,0,4,1460,1,0,0,24,33580,28,65700,0,0,0,0,0
i,0x00000000,1720889081.620910,10.0.2.15,22,10.0.2.2,51062,1073725440,16622,0,65535,65700,0,0,4,1460,1,0,0,24,33580,28,65700,0,28,0,0,0
i,0x00000000,1720889081.620921,10.0.2.15,22,10.0.2.2,51062,1073725440,16650,0,65535,65700,0,0,4,1460,1,0,0,24,33580,0,65700,0,0,0,0,0
o,0x00000000,1720889081.624225,10.0.2.15,22,10.0.2.2,51062,1073725440,16650,0,65535,65700,0,0,4,1460,1,0,0,24,33580,768,65700,112,0,0,0,0
i,0x00000000,1720889081.627452,10.0.2.15,22,10.0.2.2,51062,1073725440,16650,0,65535,65700,0,0,4,1460,1,0,0,24,33580,768,65700,112,768,0,0,0
o,0x00000000,1720889081.627796,10.0.2.15,22,10.0.2.2,51062,1073725440,17418,0,65535,65700,0,0,4,1460,1,0,0,24,33580,140,65700,112,0,0,0,0
i,0x00000000,1720889081.631172,10.0.2.15,22,10.0.2.2,51062,1073725440,17418,0,65535,65700,0,0,4,1460,1,0,0,24,33580,140,65700,112,140,0,0,0
o,0x00000000,1720889081.631905,10.0.2.15,22,10.0.2.2,51062,1073725440,17558,0,65535,65700,0,0,4,1460,1,0,0,24,33580,44,65700,0,0,0,0,0
i,0x00000000,1720889081.635369,10.0.2.15,22,10.0.2.2,51062,1073725440,17558,0,65535,65700,0,0,4,1460,1,0,0,24,33580,44,65700,0,44,0,0,0
i,0x00000000,1720889081.635390,10.0.2.15,22,10.0.2.2,51062,1073725440,17602,0,65535,65700,0,0,4,1460,1,0,0,24,33580,0,65700,0,0,0,0,0
o,0x00000000,1720889081.637015,10.0.2.15,22,10.0.2.2,51062,1073725440,17602,0,65535,65700,0,0,4,1460,1,0,4,24,33580,72,65700,0,0,0,0,0
i,0x00000000,1720889081.638378,10.0.2.15,22,10.0.2.2,51062,1073725440,17602,0,65535,65700,0,0,4,1460,1,0,4,24,33580,72,65700,0,72,0,0,0
o,0x00000000,1720889081.646333,10.0.2.15,22,10.0.2.2,51062,1073725440,17674,0,65535,65700,0,0,4,1460,1,0,4,24,33580,44,65700,0,0,0,0,0
i,0x00000000,1720889081.647739,10.0.2.15,22,10.0.2.2,51062,1073725440,17674,0,65535,65700,0,0,4,1460,1,0,4,24,33580,44,65700,0,44,0,0,0
o,0x00000000,1720889081.648885,10.0.2.15,22,10.0.2.2,51062,1073725440,17718,0,65535,65700,0,0,4,1460,1,0,4,24,33580,104,65700,0,0,0,0,0
i,0x00000000,1720889081.650187,10.0.2.15,22,10.0.2.2,51062,1073725440,17718,0,65535,65700,0,0,4,1460,1,0,4,24,33580,104,65700,0,104,0,0,0
o,0x00000000,1720889081.650519,10.0.2.15,22,10.0.2.2,51062,1073725440,17822,0,65535,65700,0,0,4,1460,1,0,4,24,33580,44,65700,0,0,0,0,0
i,0x00000000,1720889081.653770,10.0.2.15,22,10.0.2.2,51062,1073725440,17822,0,65535,65700,0,0,4,1460,1,0,4,24,33580,44,65700,0,44,0,0,0
o,0x00000000,1720889081.764211,10.0.2.15,22,10.0.2.2,51062,1073725440,17866,0,65535,65700,0,0,4,1460,1,0,4,24,33580,72,65700,0,0,0,0,0
i,0x00000000,1720889081.765900,10.0.2.15,22,10.0.2.2,51062,1073725440,17866,0,65535,65700,0,0,4,1460,1,0,4,24,33580,72,65700,0,72,0,0,0
i,0x00000000,1720889081.766422,10.0.2.15,22,10.0.2.2,51062,1073725440,17938,0,65535,65700,0,0,4,1460,1,0,4,24,33580,0,65700,0,0,0,0,0
i,0x00000000,1720889081.766430,10.0.2.15,22,10.0.2.2,51062,1073725440,17938,0,65535,65700,0,0,4,1460,1,0,4,24,33580,0,65700,96,0,0,0,0
o,0x00000000,1720889081.766435,10.0.2.15,22,10.0.2.2,51062,1073725440,17938,0,65535,65604,0,0,5,1460,1,0,5,24,33580,0,65700,96,0,0,0,0
o,0x00000000,1720889081.767076,10.0.2.15,22,10.0.2.2,51062,1073725440,17938,0,65535,65604,0,0,8,1460,1,0,4,24,33580,0,65700,0,0,0,0,0
i,0x00000000,1720889081.768160,10.0.2.15,22,10.0.2.2,51062,1073725440,17938,0,65535,65604,0,0,8,1460,1,0,20,24,33580,0,65700,0,1,0,0,0
i,0x00000000,1720889082.173822,172.16.3.2,5101,172.16.1.2,53096,1073725440,14480,0,65728,65700,6,6,4,1460,416,1,992,59,33580,0,65700,0,0,0,0,0
o,0x00000000,1720889082.174059,172.16.3.2,5101,172.16.1.2,53096,1073725440,14480,0,65728,65700,6,6,4,1460,416,1,996,59,33580,1,65700,0,0,0,0,0
i,0x00000000,1720889082.305869,172.16.3.2,5101,172.16.1.2,53096,1073725440,14480,0,65728,65700,6,6,4,1460,416,1,996,59,33580,1,65700,0,1,0,0,0
i,0x00000000,1720889082.305910,172.16.3.2,5101,172.16.1.2,53096,1073725440,14481,0,65728,65728,6,6,4,1460,416,1,996,52,33580,0,65700,4,0,0,0,0
o,0x00000000,1720889082.305930,172.16.3.2,5101,172.16.1.2,53096,1073725440,14481,0,65728,65728,6,6,4,1460,416,1,997,52,33580,0,65700,128,0,0,0,0
o,0x00000000,1720889082.309540,172.16.3.2,5101,172.16.1.2,53096,1073725440,14481,0,65728,65728,6,6,4,1460,416,1,996,52,33580,1,65700,0,0,0,0,0
o,0x00000000,1720889082.311861,10.0.2.15,22,10.0.2.2,57021,1073725440,14600,0,65535,65700,0,0,4,1460,1,0,4,24,33580,84,65700,0,0,0,0,0
i,0x00000000,1720889082.314208,10.0.2.15,22,10.0.2.2,57021,1073725440,14600,0,65535,65700,0,0,4,1460,1,0,4,24,33580,84,65700,0,84,0,0,0
i,0x00000000,1720889082.454533,172.16.3.2,5101,172.16.1.2,53096,1073725440,14481,0,65728,65728,6,6,4,1460,416,1,996,52,33580,1,65700,0,1,0,0,0
i,0x00000000,1720889082.566689,172.16.3.2,5101,172.16.1.2,54991,1073725440,14480,0,65728,65700,6,6,4,1460,448,1,992,62,33580,0,65700,0,0,0,0,0
o,0x00000000,1720889082.601682,172.16.3.2,5101,172.16.1.2,54991,1073725440,14480,0,65728,65700,6,6,4,1460,448,1,993,62,33580,0,65700,0,0,0,0,0
o,0x00000000,1720889082.603700,172.16.3.2,5101,172.16.1.2,53096,1073725440,14482,0,65728,65728,6,6,4,1460,424,1,996,50,33580,1,65700,0,0,0,0,0
o,0x00000000,1720889082.604269,172.16.3.2,5101,172.16.1.2,53096,1073725440,14482,0,65728,65728,6,6,4,1460,424,1,996,50,33580,2,65700,0,1,0,0,0
o,0x00000000,1720889082.604568,10.0.2.15,22,10.0.2.2,57021,1073725440,14600,0,65535,65700,0,0,4,1460,1,0,4,24,33580,108,65700,0,0,0,0,0
i,0x00000000,1720889082.605646,10.0.2.15,22,10.0.2.2,57021,1073725440,14600,0,65535,65700,0,0,4,1460,1,0,4,24,33580,108,65700,0,108,0,0,0
i,0x00000000,1720889082.731733,172.16.3.2,5101,172.16.1.2,53096,1073725440,14482,0,65728,65728,6,6,4,1460,424,1,996,50,33580,2,65700,0,2,0,0,0
i,0x00000000,1720889082.825987,172.16.3.2,5101,172.16.1.2,54991,1073725440,14480,0,65728,65700,6,6,4,1460,448,1,992,62,33580,0,65700,0,0,0,0,0
i,0x00000000,1720889082.837108,172.16.3.2,5101,172.16.1.2,54991,1073725440,14480,0,65728,65700,6,6,4,1460,448,1,992,62,33580,0,65700,0,0,0,0,0
o,0x00000000,1720889082.837128,172.16.3.2,5101,172.16.1.2,54991,1073725440,14480,0,65728,65700,6,6,4,1460,448,1,993,62,33580,0,65700,1448,0,0,0,0
i,0x00000000,1720889082.844079,172.16.3.2,5101,172.16.1.2,54991,1073725440,14480,0,65728,65700,6,6,4,1460,448,1,992,62,33580,0,65700,0,0,0,0,0
i,0x00000000,1720889082.854147,172.16.3.2,5101,172.16.1.2,54991,1073725440,14480,0,65728,65700,6,6,4,1460,448,1,992,62,33580,0,65700,0,0,0,0,0
o,0x00000000,1720889082.854161,172.16.3.2,5101,172.16.1.2,54991,1073725440,14480,0,65728,65700,6,6,4,1460,448,1,993,62,33580,0,65700,1448,0,0,0,0
i,0x00000000,1720889082.874848,172.16.3.2,5101,172.16.1.2,54991,1073725440,14480,0,65728,65700,6,6,4,1460,448,1,992,62,33580,0,65700,0,0,0,0,0
i,0x00000000,1720889082.886028,172.16.3.2,5101,172.16.1.2,54991,1073725440,14480,0,65728,65700,6,6,4,1460,448,1,992,62,33580,0,65700,0,0,0,0,0
o,0x00000000,1720889082.886064,172.16.3.2,5101,172.16.1.2,54991,1073725440,14480,0,65728,65700,6,6,4,1460,448,1,993,62,33580,0,65700,1448,0,0,0,0
i,0x00000000,1720889082.898376,172.16.3.2,5101,172.16.1.2,54991,1073725440,14480,0,65728,65700,6,6,4,1460,448,1,992,62,33580,0,65700,0,0,0,0,0
i,0x00000000,1720889082.910271,172.16.3.2,5101,172.16.1.2,54991,1073725440,14480,0,65728,65700,6,6,4,1460,448,1,992,62,33580,0,65700,0,0,0,0,0
o,0x00000000,1720889082.910291,172.16.3.2,5101,172.16.1.2,54991,1073725440,14480,0,65728,65700,6,6,4,1460,448,1,993,62,33580,0,65700,1448,0,0,0,0
i,0x00000000,1720889082.924660,172.16.3.2,5101,172.16.1.2,54991,1073725440,14480,0,65728,65700,6,6,4,1460,448,1,992,62,33580,0,65700,0,0,0,0,0
i,0x00000000,1720889082.934740,172.16.3.2,5101,172.16.1.2,54991,1073725440,14480,0,65728,65700,6,6,4,1460,448,1,992,62,33580,0,65700,0,0,0,0,0
o,0x00000000,1720889082.934767,172.16.3.2,5101,172.16.1.2,54991,1073725440,14480,0,65728,65700,6,6,4,1460,448,1,993,62,33580,0,65700,1448,0,0,0,0
i,0x00000000,1720889083.059047,172.16.3.2,5101,172.16.1.2,54991,1073725440,14480,0,65728,65700,6,6,4,1460,448,1,992,62,33580,0,65700,0,0,0,0,0
i,0x00000000,1720889083.059631,172.16.3.2,5101,172.16.1.2,54991,1073725440,14480,0,65728,65700,6,6,4,1460,448,1,992,62,33580,0,65700,1448,0,0,0,0
o,0x00000000,1720889083.059672,172.16.3.2,5101,172.16.1.2,54991,1073725440,14480,0,65728,65700,6,6,4,1460,448,1,993,62,33580,0,65700,2896,0,0,0,0
i,0x00000000,1720889083.119428,172.16.3.2,5101,172.16.1.2,54991,1073725440,14480,0,65728,65700,6,6,4,1460,448,1,992,62,33580,0,65700,0,0,0,0,0
o,0x00000000,1720889083.152277,172.16.3.2,5101,172.16.1.2,54991,1073725440,14480,0,65728,65700,6,6,4,1460,448,1,993,62,33580,0,65700,0,0,0,0,0
i,0x00000000,1720889083.165581,172.16.3.2,5101,172.16.1.2,54991,1073725440,14480,0,65728,65700,6,6,4,1460,448,1,992,62,33580,0,65700,0,0,0,0,0
i,0x00000000,1720889083.184670,172.16.3.2,5101,172.16.1.2,54991,1073725440,14480,0,65728,65700,6,6,4,1460,448,1,992,62,33580,0,65700,0,0,0,0,0
o,0x00000000,1720889083.184717,172.16.3.2,5101,172.16.1.2,54991,1073725440,14480,0,65728,65700,6,6,4,1460,448,1,993,62,33580,0,65700,1448,0,0,0,0
i,0x00000000,1720889083.205768,172.16.3.2,5101,172.16.1.2,54991,1073725440,14480,0,65728,65700,6,6,4,1460,448,1,992,62,33580,0,65700,0,0,0,0,0
o,0x00000000,1720889083.244298,172.16.3.2,5101,172.16.1.2,54991,1073725440,14480,0,65728,65700,6,6,4,1460,448,1,993,62,33580,0,65700,0,0,0,0,0
i,0x00000000,1720889083.263856,172.16.3.2,5101,172.16.1.2,54991,1073725440,14480,0,65728,65700,6,6,4,1460,448,1,992,62,33580,0,65700,0,0,0,0,0
i,0x00000000,1720889083.274626,172.16.3.2,5101,172.16.1.2,54991,1073725440,14480,0,65728,65700,6,6,4,1460,448,1,992,62,33580,0,65700,0,0,0,0,0
o,0x00000000,1720889083.274642,172.16.3.2,5101,172.16.1.2,54991,1073725440,14480,0,65728,65700,6,6,4,1460,448,1,993,62,33580,0,65700,1448,0,0,0,0
i,0x00000000,1720889083.284673,172.16.3.2,5101,172.16.1.2,54991,1073725440,14480,0,65728,65700,6,6,4,1460,448,1,992,62,33580,0,65700,0,0,0,0,0
i,0x00000000,1720889083.296141,172.16.3.2,5101,172.16.1.2,54991,1073725440,14480,0,65728,65700,6,6,4,1460,448,1,992,62,33580,0,65700,0,0,0,0,0
o,0x00000000,1720889083.296168,172.16.3.2,5101,172.16.1.2,54991,1073725440,14480,0,65728,65700,6,6,4,1460,448,1,993,62,33580,0,65700,1448,0,0,0,0
i,0x00000000,1720889083.302915,172.16.3.2,5101,172.16.1.2,54991,1073725440,14480,0,65728,65700,6,6,4,1460,448,1,992,62,33580,0,65700,0,0,0,0,0
i,0x00000000,1720889083.323252,172.16.3.2,5101,172.16.1.2,54991,1073725440,14480,0,65728,65700,6,6,4,1460,448,1,992,62,33580,0,65700,0,0,0,0,0
o,0x00000000,1720889083.323285,172.16.3.2,5101,172.16.1.2,54991,1073725440,14480,0,65728,65700,6,6,4,1460,448,1,993,62,33580,0,65700,1448,0,0,0,0
i,0x00000000,1720889083.337771,172.16.3.2,5101,172.16.1.2,54991,1073725440,14480,0,65728,65700,6,6,4,1460,448,1,992,62,33580,0,65700,0,0,0,0,0
o,0x00000000,1720889083.372558,172.16.3.2,5101,172.16.1.2,54991,1073725440,14480,0,65728,65700,6,6,4,1460,448,1,993,62,33580,0,65700,0,0,0,0,0
i,0x00000000,1720889083.399943,172.16.3.2,5101,172.16.1.2,54991,1073725440,14480,0,65728,65700,6,6,4,1460,448,1,992,62,33580,0,65700,0,0,0,0,0
i,0x00000000,1720889083.404888,172.16.3.2,5101,172.16.1.2,54991,1073725440,14480,0,65728,65700,6,6,4,1460,448,1,992,62,33580,0,65700,0,0,0,0,0
o,0x00000000,1720889083.404903,172.16.3.2,5101,172.16.1.2,54991,1073725440,14480,0,65728,65700,6,6,4,1460,448,1,993,62,33580,0,65700,1448,0,0,0,0
i,0x00000000,1720889083.423810,172.16.3.2,5101,172.16.1.2,54991,1073725440,14480,0,65728,65700,6,6,4,1460,448,1,992,62,33580,0,65700,0,0,0,0,0
i,0x00000000,1720889083.441559,172.16.3.2,5101,172.16.1.2,54991,1073725440,14480,0,65728,65700,6,6,4,1460,448,1,992,62,33580,0,65700,0,0,0,0,0
o,0x00000000,1720889083.441572,172.16.3.2,5101,172.16.1.2,54991,1073725440,14480,0,65728,65700,6,6,4,1460,448,1,993,62,33580,0,65700,1448,0,0,0,0
i,0x00000000,1720889083.475055,172.16.3.2,5101,172.16.1.2,54991,1073725440,14480,0,65728,65700,6,6,4,1460,448,1,992,62,33580,0,65700,0,0,0,0,0
i,0x00000000,1720889083.484600,172.16.3.2,5101,172.16.1.2,54991,1073725440,14480,0,65728,65700,6,6,4,1460,448,1,992,62,33580,0,65700,0,0,0,0,0
o,0x00000000,1720889083.484646,172.16.3.2,5101,172.16.1.2,54991,1073725440,14480,0,65728,65700,6,6,4,1460,448,1,993,62,33580,0,65700,1448,0,0,0,0
i,0x00000000,1720889083.559241,172.16.3.2,5101,172.16.1.2,54991,1073725440,14480,0,65728,65700,6,6,4,1460,448,1,992,62,33580,0,65700,0,0,0,0,0
o,0x00000000,1720889083.559591,172.16.3.2,5101,172.16.1.2,54991,1073725440,14480,0,65728,65700,6,6,4,1460,448,1,993,62,33580,0,65700,0,0,1,0,0
o,0x00000000,1720889083.613657,10.0.2.15,22,10.0.2.2,57021,1073725440,14600,0,65535,65700,0,0,4,1460,1,0,4,24,33580,156,65700,0,0,0,0,0
i,0x00000000,1720889083.615542,172.16.3.2,5101,172.16.1.2,54991,1073725440,14480,0,65728,65700,6,6,4,1460,448,1,992,62,33580,0,65700,0,0,1,0,0
o,0x00000000,1720889083.615573,172.16.3.2,5101,172.16.1.2,54991,1073725440,14480,0,65728,65728,6,6,4,1460,448,1,993,62,33580,0,65700,0,0,1,0,0
i,0x00000000,1720889083.617111,10.0.2.15,22,10.0.2.2,57021,1073725440,14600,0,65535,65700,0,0,4,1460,1,0,4,24,33580,156,65700,0,156,0,0,0
i,0x00000000,1720889083.670804,172.16.3.2,5101,172.16.1.2,54991,1073725440,14480,0,65728,65728,6,6,4,1460,448,1,992,62,33580,0,65700,0,0,1,0,0
o,0x00000000,1720889083.670817,172.16.3.2,5101,172.16.1.2,54991,1073725440,14480,0,65728,65728,6,6,4,1460,448,1,993,62,33580,0,65700,0,0,1,0,0
i,0x00000000,1720889083.673590,172.16.3.2,5101,172.16.1.2,54991,1073725440,14480,0,65728,65728,6,6,4,1460,448,1,992,62,33580,0,65700,0,0,1,0,0
o,0x00000000,1720889083.673612,172.16.3.2,5101,172.16.1.2,54991,1073725440,14480,0,65728,65728,6,6,4,1460,448,1,993,62,33580,0,65700,0,0,1,0,0
i,0x00000000,1720889083.736566,172.16.3.2,5101,172.16.1.2,54991,1073725440,14480,0,65728,65728,6,6,4,1460,448,1,992,62,33580,0,65700,0,0,1,0,0
o,0x00000000,1720889083.736595,172.16.3.2,5101,172.16.1.2,54991,1073725440,14480,0,65728,65728,6,6,4,1460,448,1,993,62,33580,0,65700,0,0,1,0,0
i,0x00000000,1720889083.823284,172.16.3.2,5101,172.16.1.2,54991,1073725440,14480,0,65728,65728,6,6,4,1460,448,1,992,62,33580,0,65700,0,0,1,0,0
o,0x00000000,1720889083.823308,172.16.3.2,5101,172.16.1.2,54991,1073725440,14480,0,65728,65728,6,6,4,1460,448,1,993,62,33580,0,65700,0,0,2,0,0
i,0x00000000,1720889083.833493,172.16.3.2,5101,172.16.1.2,54991,1073725440,14480,0,65728,65728,6,6,4,1460,448,1,992,62,33580,0,65700,0,0,2,0,0
o,0x00000000,1720889083.833507,172.16.3.2,5101,172.16.1.2,54991,1073725440,14480,0,65728,65728,6,6,4,1460,448,1,993,62,33580,0,65700,0,0,2,0,0
i,0x00000000,1720889083.890112,172.16.3.2,5101,172.16.1.2,54991,1073725440,14480,0,65728,65728,6,6,4,1460,448,1,992,62,33580,0,65700,0,0,2,0,0
o,0x00000000,1720889083.890131,172.16.3.2,5101,172.16.1.2,54991,1073725440,14480,0,65728,65728,6,6,4,1460,448,1,993,62,33580,0,65700,0,0,2,0,0
i,0x00000000,1720889083.892909,172.16.3.2,5101,172.16.1.2,54991,1073725440,14480,0,65728,65728,6,6,4,1460,448,1,992,62,33580,0,65700,0,0,2,0,0
o,0x00000000,1720889083.892918,172.16.3.2,5101,172.16.1.2,54991,1073725440,14480,0,65728,65728,6,6,4,1460,448,1,993,62,33580,0,65700,0,0,2,0,0
i,0x00000000,1720889083.913494,172.16.3.2,5101,172.16.1.2,54991,1073725440,14480,0,65728,65728,6,6,4,1460,448,1,992,62,33580,0,65700,0,0,2,0,0
o,0x00000000,1720889083.913507,172.16.3.2,5101,172.16.1.2,54991,1073725440,14480,0,65728,65728,6,6,4,1460,448,1,993,62,33580,0,65700,0,0,2,0,0
i,0x00000000,1720889083.932375,172.16.3.2,5101,172.16.1.2,54991,1073725440,14480,0,65728,65728,6,6,4,1460,448,1,992,62,33580,0,65700,0,0,2,0,0
o,0x00000000,1720889083.932390,172.16.3.2,5101,172.16.1.2,54991,1073725440,14480,0,65728,65728,6,6,4,1460,448,1,993,62,33580,0,65700,0,0,3,0,0
i,0x00000000,1720889083.984917,172.16.3.2,5101,172.16.1.2,54991,1073725440,14480,0,65728,65728,6,6,4,1460,448,1,992,62,33580,0,65700,0,0,3,0,0
o,0x00000000,1720889083.984943,172.16.3.2,5101,172.16.1.2,54991,1073725440,14480,0,65728,65728,6,6,4,1460,448,1,993,62,33580,0,65700,0,0,3,0,0
i,0x00000000,1720889083.985275,172.16.3.2,5101,172.16.1.2,54991,1073725440,14480,0,65728,65728,6,6,4,1460,448,1,992,62,33580,0,65700,0,0,3,0,0
o,0x00000000,1720889083.985299,172.16.3.2,5101,172.16.1.2,54991,1073725440,14480,0,65728,65728,6,6,4,1460,448,1,993,62,33580,0,65700,0,0,4,0,0
i,0x00000000,1720889084.015447,172.16.3.2,5101,172.16.1.2,54991,1073725440,14480,0,65728,65728,6,6,4,1460,448,1,992,62,33580,0,65700,0,0,4,0,0
o,0x00000000,1720889084.015462,172.16.3.2,5101,172.16.1.2,54991,1073725440,14480,0,65728,65728,6,6,4,1460,448,1,993,62,33580,0,65700,0,0,5,0,0
i,0x00000000,1720889084.022622,172.16.3.2,5101,172.16.1.2,54991,1073725440,14480,0,65728,65728,6,6,4,1460,448,1,992,62,33580,0,65700,0,0,5,0,0
o,0x00000000,1720889084.022653,172.16.3.2,5101,172.16.1.2,54991,1073725440,14480,0,65728,65728,6,6,4,1460,448,1,993,62,33580,0,65700,0,0,5,0,0
i,0x00000000,1720889084.032369,172.16.3.2,5101,172.16.1.2,54991,1073725440,14480,0,65728,65728,6,6,4,1460,448,1,992,62,33580,0,65700,0,0,5,0,0
o,0x00000000,1720889084.032383,172.16.3.2,5101,172.16.1.2,54991,1073725440,14480,0,65728,65728,6,6,4,1460,448,1,993,62,33580,0,65700,0,0,5,0,0
i,0x00000000,1720889084.063040,172.16.3.2,5101,172.16.1.2,54991,1073725440,14480,0,65728,65728,6,6,4,1460,448,1,992,62,33580,0,65700,0,0,5,0,0
o,0x00000000,1720889084.063056,172.16.3.2,5101,172.16.1.2,54991,1073725440,14480,0,65728,65728,6,6,4,1460,448,1,993,62,33580,0,65700,0,0,5,0,0
i,0x00000000,1720889084.072738,172.16.3.2,5101,172.16.1.2,54991,1073725440,14480,0,65728,65728,6,6,4,1460,448,1,992,62,33580,0,65700,0,0,5,0,0
o,0x00000000,1720889084.072750,172.16.3.2,5101,172.16.1.2,54991,1073725440,14480,0,65728,65728,6,6,4,1460,448,1,993,62,33580,0,65700,0,0,5,0,0
i,0x00000000,1720889084.091090,172.16.3.2,5101,172.16.1.2,54991,1073725440,14480,0,65728,65728,6,6,4,1460,448,1,992,62,33580,0,65700,0,0,5,0,0
o,0x00000000,1720889084.091134,172.16.3.2,5101,172.16.1.2,54991,1073725440,14480,0,65728,65728,6,6,4,1460,448,1,993,62,33580,0,65700,0,0,6,0,0
i,0x00000000,1720889084.115292,172.16.3.2,5101,172.16.1.2,54991,1073725440,14480,0,65728,65728,6,6,4,1460,448,1,992,62,33580,0,65700,0,0,6,0,0
o,0x00000000,1720889084.115327,172.16.3.2,5101,172.16.1.2,54991,1073725440,14480,0,65728,65728,6,6,4,1460,448,1,993,62,33580,0,65700,0,0,7,0,0
i,0x00000000,1720889084.123434,172.16.3.2,5101,172.16.1.2,54991,1073725440,14480,0,65728,65728,6,6,4,1460,448,1,992,62,33580,0,65700,0,0,7,0,0
o,0x00000000,1720889084.123452,172.16.3.2,5101,172.16.1.2,54991,1073725440,14480,0,65728,65728,6,6,4,1460,448,1,993,62,33580,0,65700,0,0,8,0,0
i,0x00000000,1720889084.152571,172.16.3.2,5101,172.16.1.2,54991,1073725440,14480,0,65728,65728,6,6,4,1460,448,1,992,62,33580,0,65700,0,0,8,0,0
o,0x00000000,1720889084.152601,172.16.3.2,5101,172.16.1.2,54991,1073725440,14480,0,65728,65728,6,6,4,1460,448,1,993,62,33580,0,65700,0,0,8,0,0
i,0x00000000,1720889084.155059,172.16.3.2,5101,172.16.1.2,54991,1073725440,14480,0,65728,65728,6,6,4,1460,448,1,992,62,33580,0,65700,0,0,8,0,0
o,0x00000000,1720889084.155081,172.16.3.2,5101,172.16.1.2,54991,1073725440,14480,0,65728,65728,6,6,4,1460,448,1,993,62,33580,0,65700,0,0,8,0,0
i,0x00000000,1720889084.164102,172.16.3.2,5101,172.16.1.2,54991,1073725440,14480,0,65728,65728,6,6,4,1460,448,1,992,62,33580,0,65700,0,0,8,0,0
o,0x00000000,1720889084.164131,172.16.3.2,5101,172.16.1.2,54991,1073725440,14480,0,65728,65728,6,6,4,1460,448,1,993,62,33580,0,65700,0,0,9,0,0
i,0x00000000,1720889084.173851,172.16.3.2,5101,172.16.1.2,54991,1073725440,14480,0,65728,65728,6,6,4,1460,448,1,992,62,33580,0,65700,0,0,9,0,0
o,0x00000000,1720889084.173884,172.16.3.2,5101,172.16.1.2,54991,1073725440,14480,0,65728,65728,6,6,4,1460,448,1,993,62,33580,0,65700,0,0,9,0,0
i,0x00000000,1720889084.193649,172.16.3.2,5101,172.16.1.2,54991,1073725440,14480,0,65728,65728,6,6,4,1460,448,1,992,62,33580,0,65700,0,0,9,0,0
o,0x00000000,1720889084.193664,172.16.3.2,5101,172.16.1.2,54991,1073725440,14480,0,65728,65728,6,6,4,1460,448,1,993,62,33580,0,65700,0,0,9,0,0
i,0x00000000,1720889084.203628,172.16.3.2,5101,172.16.1.2,54991,1073725440,14480,0,65728,65728,6,6,4,1460,448,1,992,62,33580,0,65700,0,0,9,0,0
o,0x00000000,1720889084.203649,172.16.3.2,5101,172.16.1.2,54991,1073725440,14480,0,65728,65728,6,6,4,1460,448,1,993,62,33580,0,65700,0,0,10,0,0
i,0x00000000,1720889084.213373,172.16.3.2,5101,172.16.1.2,54991,1073725440,14480,0,65728,65728,6,6,4,1460,448,1,992,62,33580,0,65700,0,0,10,0,0
o,0x00000000,1720889084.213402,172.16.3.2,5101,172.16.1.2,54991,1073725440,14480,0,65728,65728,6,6,4,1460,448,1,993,62,33580,0,65700,0,0,10,0,0
i,0x00000000,1720889084.231445,172.16.3.2,5101,172.16.1.2,54991,1073725440,14480,0,65728,65728,6,6,4,1460,448,1,992,62,33580,0,65700,0,0,10,0,0
o,0x00000000,1720889084.231458,172.16.3.2,5101,172.16.1.2,54991,1073725440,14480,0,65728,65728,6,6,4,1460,448,1,993,62,33580,0,65700,0,0,10,0,0
i,0x00000000,1720889084.284763,172.16.3.2,5101,172.16.1.2,54991,1073725440,14480,0,65728,65728,6,6,4,1460,448,1,992,62,33580,0,65700,0,0,10,0,0
o,0x00000000,1720889084.284809,172.16.3.2,5101,172.16.1.2,54991,1073725440,14480,0,65728,65728,6,6,4,1460,448,1,993,62,33580,0,65700,0,0,9,0,0
i,0x00000000,1720889084.294772,172.16.3.2,5101,172.16.1.2,54991,1073725440,14480,0,65728,65728,6,6,4,1460,448,1,992,62,33580,0,65700,0,0,9,0,0
o,0x00000000,1720889084.294812,172.16.3.2,5101,172.16.1.2,54991,1073725440,14480,0,65728,65728,6,6,4,1460,448,1,993,62,33580,0,65700,0,0,9,0,0
i,0x00000000,1720889084.319010,172.16.3.2,5101,172.16.1.2,54991,1073725440,14480,0,65728,65728,6,6,4,1460,448,1,992,62,33580,0,65700,0,0,9,0,0
o,0x00000000,1720889084.319045,172.16.3.2,5101,172.16.1.2,54991,1073725440,14480,0,65728,65728,6,6,4,1460,448,1,993,62,33580,0,65700,0,0,8,0,0
i,0x00000000,1720889084.366569,172.16.3.2,5101,172.16.1.2,54991,1073725440,14480,0,65728,65728,6,6,4,1460,448,1,992,62,33580,0,65700,0,0,8,0,0
o,0x00000000,1720889084.366605,172.16.3.2,5101,172.16.1.2,54991,1073725440,14480,0,65728,65728,6,6,4,1460,448,1,993,62,33580,0,65700,0,0,8,0,0
i,0x00000000,1720889084.373261,172.16.3.2,5101,172.16.1.2,54991,1073725440,14480,0,65728,65728,6,6,4,1460,448,1,992,62,33580,0,65700,0,0,8,0,0
o,0x00000000,1720889084.373273,172.16.3.2,5101,172.16.1.2,54991,1073725440,14480,0,65728,65728,6,6,4,1460,448,1,993,62,33580,0,65700,0,0,7,0,0
o,0x00000000,1720889084.623417,10.0.2.15,22,10.0.2.2,57021,1073725440,14600,0,65535,65700,0,0,4,1460,1,0,4,24,33580,108,65700,0,0,0,0,0
i,0x00000000,1720889084.624876,10.0.2.15,22,10.0.2.2,57021,1073725440,14600,0,65535,65700,0,0,4,1460,1,0,4,24,33580,108,65700,0,108,0,0,0
i,0x00000000,1720889085.033466,172.16.3.2,5101,172.16.1.2,54991,1073725440,14480,0,65728,65728,6,6,4,1460,448,1,992,62,33580,0,65700,0,0,7,0,0
o,0x00000000,1720889085.033518,172.16.3.2,5101,172.16.1.2,54991,1073725440,14480,0,65728,65728,6,6,4,1460,448,1,993,62,33580,0,65700,8688,0,6,0,0
i,0x00000000,1720889085.195492,172.16.3.2,5101,172.16.1.2,54991,1073725440,14480,0,65728,65728,6,6,4,1460,448,1,992,62,33580,0,65700,0,0,6,0,0
o,0x00000000,1720889085.195508,172.16.3.2,5101,172.16.1.2,54991,1073725440,14480,0,65728,65700,6,6,4,1460,448,1,993,62,33580,0,65700,8688,0,5,0,0
i,0x00000000,1720889085.201136,172.16.3.2,5101,172.16.1.2,54991,1073725440,14480,0,65728,65700,6,6,4,1460,448,1,992,62,33580,0,65700,0,0,5,0,0
o,0x00000000,1720889085.201175,172.16.3.2,5101,172.16.1.2,54991,1073725440,14480,0,65728,65700,6,6,4,1460,448,1,993,62,33580,0,65700,0,0,5,0,0
i,0x00000000,1720889085.322270,172.16.3.2,5101,172.16.1.2,54991,1073725440,14480,0,65728,65700,6,6,4,1460,448,1,992,62,33580,0,65700,0,0,5,0,0
o,0x00000000,1720889085.322284,172.16.3.2,5101,172.16.1.2,54991,1073725440,14480,0,65728,65728,6,6,4,1460,448,1,993,62,33580,0,65700,4344,0,4,0,0
i,0x00000000,1720889085.332164,172.16.3.2,5101,172.16.1.2,54991,1073725440,14480,0,65728,65728,6,6,4,1460,448,1,992,62,33580,0,65700,0,0,4,0,0
o,0x00000000,1720889085.332180,172.16.3.2,5101,172.16.1.2,54991,1073725440,14480,0,65728,65700,6,6,4,1460,448,1,993,62,33580,0,65700,0,0,4,0,0
i,0x00000000,1720889085.469904,172.16.3.2,5101,172.16.1.2,54991,1073725440,14480,0,65728,65700,6,6,4,1460,448,1,992,62,33580,0,65700,0,0,4,0,0
o,0x00000000,1720889085.469948,172.16.3.2,5101,172.16.1.2,54991,1073725440,14480,0,65728,65728,6,6,4,1460,448,1,993,62,33580,0,65700,2896,0,3,0,0
i,0x00000000,1720889085.476172,172.16.3.2,5101,172.16.1.2,54991,1073725440,14480,0,65728,65728,6,6,4,1460,448,1,992,62,33580,0,65700,0,0,3,0,0
o,0x00000000,1720889085.476206,172.16.3.2,5101,172.16.1.2,54991,1073725440,14480,0,65728,65700,6,6,4,1460,448,1,993,62,33580,0,65700,0,0,3,0,0
o,0x00000000,1720889085.623317,10.0.2.15,22,10.0.2.2,57021,1073725440,14600,0,65535,65700,0,0,4,1460,1,0,4,24,33580,108,65700,0,0,0,0,0
i,0x00000000,1720889085.626953,172.16.3.2,5101,172.16.1.2,54991,1073725440,14480,0,65728,65700,6,6,4,1460,448,1,992,62,33580,0,65700,0,0,3,0,0
o,0x00000000,1720889085.626970,172.16.3.2,5101,172.16.1.2,54991,1073725440,14480,0,65728,65728,6,6,4,1460,448,1,993,62,33580,0,65700,8688,0,2,0,0
i,0x00000000,1720889085.627261,10.0.2.15,22,10.0.2.2,57021,1073725440,14600,0,65535,65700,0,0,4,1460,1,0,4,24,33580,108,65700,0,108,0,0,0
i,0x00000000,1720889085.630978,172.16.3.2,5101,172.16.1.2,54991,1073725440,14480,0,65728,65728,6,6,4,1460,448,1,992,62,33580,0,65700,0,0,2,0,0
o,0x00000000,1720889085.630994,172.16.3.2,5101,172.16.1.2,54991,1073725440,14480,0,65728,65700,6,6,4,1460,448,1,993,62,33580,0,65700,0,0,2,0,0
i,0x00000000,1720889085.762574,172.16.3.2,5101,172.16.1.2,54991,1073725440,14480,0,65728,65700,6,6,4,1460,448,1,992,62,33580,0,65700,0,0,2,0,0
o,0x00000000,1720889085.762600,172.16.3.2,5101,172.16.1.2,54991,1073725440,14480,0,65728,65728,6,6,4,1460,448,1,993,62,33580,0,65700,5792,0,1,0,0
i,0x00000000,1720889085.896191,172.16.3.2,5101,172.16.1.2,54991,1073725440,14480,0,65728,65728,6,6,4,1460,448,1,992,62,33580,0,65700,0,0,1,0,0
o,0x00000000,1720889085.896222,172.16.3.2,5101,172.16.1.2,54991,1073725440,14480,0,65728,65700,6,6,4,1460,448,1,993,62,33580,0,65700,20272,0,0,0,0
o,0x00000000,1720889085.897886,172.16.3.2,5101,172.16.1.2,54991,1073725440,14480,0,65728,65700,6,6,4,1460,448,1,992,62,33580,0,65700,0,0,0,0,0
i,0x00000000,1720889086.039103,172.16.3.2,5101,172.16.1.2,54991,1073725440,14480,0,65728,65700,6,6,4,1460,448,1,992,62,33580,0,65700,0,0,0,0,0
i,0x00000000,1720889086.061237,172.16.3.2,5101,172.16.1.2,54991,1073725440,14480,0,65728,65700,6,6,4,1460,448,1,992,62,33580,0,65700,0,0,0,0,0
o,0x00000000,1720889086.061251,172.16.3.2,5101,172.16.1.2,54991,1073725440,14480,0,65728,65700,6,6,4,1460,448,1,993,62,33580,0,65700,1448,0,0,0,0
i,0x00000000,1720889086.062268,172.16.3.2,5101,172.16.1.2,54991,1073725440,14480,0,65728,65700,6,6,4,1460,448,1,992,62,33580,0,65700,0,0,0,0,0
i,0x00000000,1720889086.071683,172.16.3.2,5101,172.16.1.2,54991,1073725440,14480,0,65728,65700,6,6,4,1460,448,1,992,62,33580,0,65700,0,0,0,0,0
o,0x00000000,1720889086.071696,172.16.3.2,5101,172.16.1.2,54991,1073725440,14480,0,65728,65700,6,6,4,1460,448,1,993,62,33580,0,65700,1448,0,0,0,0
i,0x00000000,1720889086.204092,172.16.3.2,5101,172.16.1.2,54991,1073725440,14480,0,65728,65700,6,6,4,1460,448,1,992,62,33580,0,65700,0,0,0,0,0
i,0x00000000,1720889086.212125,172.16.3.2,5101,172.16.1.2,54991,1073725440,14480,0,65728,65700,6,6,4,1460,448,1,992,62,33580,0,65700,0,0,0,0,0
o,0x00000000,1720889086.212144,172.16.3.2,5101,172.16.1.2,54991,1073725440,14480,0,65728,65700,6,6,4,1460,448,1,993,62,33580,0,65700,1448,0,0,0,0
i,0x00000000,1720889086.231936,172.16.3.2,5101,172.16.1.2,54991,1073725440,14480,0,65728,65700,6,6,4,1460,448,1,992,62,33580,0,65700,0,0,0,0,0
i,0x00000000,1720889086.250277,172.16.3.2,5101,172.16.1.2,54991,1073725440,14480,0,65728,65700,6,6,4,1460,448,1,992,62,33580,0,65700,0,0,0,0,0
o,0x00000000,1720889086.250301,172.16.3.2,5101,172.16.1.2,54991,1073725440,14480,0,65728,65700,6,6,4,1460,448,1,993,62,33580,0,65700,1448,0,0,0,0
i,0x00000000,1720889086.381153,172.16.3.2,5101,172.16.1.2,54991,1073725440,14480,0,65728,65700,6,6,4,1460,448,1,992,62,33580,0,65700,0,0,0,0,0
i,0x00000000,1720889086.393403,172.16.3.2,5101,172.16.1.2,54991,1073725440,14480,0,65728,65700,6,6,4,1460,448,1,992,62,33580,0,65700,0,0,0,0,0
o,0x00000000,1720889086.393423,172.16.3.2,5101,172.16.1.2,54991,1073725440,14480,0,65728,65700,6,6,4,1460,448,1,993,62,33580,0,65700,1448,0,0,0,0
i,0x00000000,1720889086.404080,172.16.3.2,5101,172.16.1.2,54991,1073725440,14480,0,65728,65700,6,6,4,1460,448,1,992,62,33580,0,65700,0,0,0,0,0
i,0x00000000,1720889086.411352,172.16.3.2,5101,172.16.1.2,54991,1073725440,14480,0,65728,65700,6,6,4,1460,448,1,992,62,33580,0,65700,0,0,0,0,0
o,0x00000000,1720889086.411367,172.16.3.2,5101,172.16.1.2,54991,1073725440,14480,0,65728,65700,6,6,4,1460,448,1,993,62,33580,0,65700,1448,0,0,0,0
i,0x00000000,1720889086.431265,172.16.3.2,5101,172.16.1.2,54991,1073725440,14480,0,65728,65700,6,6,4,1460,448,1,992,62,33580,0,65700,0,0,0,0,0
o,0x00000000,1720889086.462688,172.16.3.2,5101,172.16.1.2,54991,1073725440,14480,0,65728,65700,6,6,4,1460,448,1,993,62,33580,0,65700,0,0,0,0,0
i,0x00000000,1720889086.559934,172.16.3.2,5101,172.16.1.2,54991,1073725440,14480,0,65728,65700,6,6,4,1460,448,1,992,62,33580,0,65700,0,0,0,0,0
i,0x00000000,1720889086.561494,172.16.3.2,5101,172.16.1.2,54991,1073725440,14480,0,65728,65700,6,6,4,1460,448,1,992,62,33580,0,65700,0,0,0,0,0
o,0x00000000,1720889086.561508,172.16.3.2,5101,172.16.1.2,54991,1073725440,14480,0,65728,65700,6,6,4,1460,448,1,993,62,33580,0,65700,1448,0,0,0,0
i,0x00000000,1720889086.581728,172.16.3.2,5101,172.16.1.2,54991,1073725440,14480,0,65728,65700,6,6,4,1460,448,1,992,62,33580,0,65700,0,0,0,0,0
i,0x00000000,1720889086.589421,172.16.3.2,5101,172.16.1.2,54991,1073725440,14480,0,65728,65700,6,6,4,1460,448,1,992,62,33580,0,65700,0,0,0,0,0
o,0x00000000,1720889086.589438,172.16.3.2,5101,172.16.1.2,54991,1073725440,14480,0,65728,65700,6,6,4,1460,448,1,993,62,33580,0,65700,1448,0,0,0,0
i,0x00000000,1720889086.624506,172.16.3.2,5101,172.16.1.2,54991,1073725440,14480,0,65728,65700,6,6,4,1460,448,1,992,62,33580,0,65700,0,0,0,0,0
o,0x00000000,1720889086.624966,10.0.2.15,22,10.0.2.2,57021,1073725440,14600,0,65535,65700,0,0,4,1460,1,0,4,24,33580,108,65700,0,0,0,0,0
i,0x00000000,1720889086.627288,10.0.2.15,22,10.0.2.2,57021,1073725440,14600,0,65535,65700,0,0,4,1460,1,0,4,24,33580,108,65700,0,108,0,0,0
i,0x00000000,1720889086.654707,172.16.3.2,5101,172.16.1.2,54991,1073725440,14480,0,65728,65700,6,6,4,1460,448,1,992,62,33580,0,65700,0,0,0,0,0
o,0x00000000,1720889086.654747,172.16.3.2,5101,172.16.1.2,54991,1073725440,14480,0,65728,65700,6,6,4,1460,448,1,993,62,33580,0,65700,1448,0,0,0,0
i,0x00000000,1720889086.705249,172.16.3.2,5101,172.16.1.2,54991,1073725440,14480,0,65728,65700,6,6,4,1460,448,1,992,62,33580,0,65700,0,0,0,0,0
i,0x00000000,1720889086.734268,172.16.3.2,5101,172.16.1.2,54991,1073725440,14480,0,65728,65700,6,6,4,1460,448,1,992,62,33580,0,65700,0,0,0,0,0
o,0x00000000,1720889086.734316,172.16.3.2,5101,172.16.1.2,54991,1073725440,14480,0,65728,65700,6,6,4,1460,448,1,993,62,33580,0,65700,1448,0,0,0,0
i,0x00000000,1720889086.752884,172.16.3.2,5101,172.16.1.2,54991,1073725440,14480,0,65728,65700,6,6,4,1460,448,1,992,62,33580,0,65700,0,0,0,0,0
o,0x00000000,1720889086.792869,172.16.3.2,5101,172.16.1.2,54991,1073725440,14480,0,65728,65700,6,6,4,1460,448,1,993,62,33580,0,65700,0,0,0,0,0
i,0x00000000,1720889086.796630,172.16.3.2,5101,172.16.1.2,54991,1073725440,14480,0,65728,65700,6,6,4,1460,448,1,992,62,33580,0,65700,0,0,0,0,0
i,0x00000000,1720889086.811107,172.16.3.2,5101,172.16.1.2,54991,1073725440,14480,0,65728,65700,6,6,4,1460,448,1,992,62,33580,0,65700,0,0,0,0,0
o,0x00000000,1720889086.811125,172.16.3.2,5101,172.16.1.2,54991,1073725440,14480,0,65728,65700,6,6,4,1460,448,1,993,62,33580,0,65700,1448,0,0,0,0
i,0x00000000,1720889086.822630,172.16.3.2,5101,172.16.1.2,54991,1073725440,14480,0,65728,65700,6,6,4,1460,448,1,992,62,33580,0,65700,0,0,0,0,0
i,0x00000000,1720889086.830420,172.16.3.2,5101,172.16.1.2,54991,1073725440,14480,0,65728,65700,6,6,4,1460,448,1,992,62,33580,0,65700,0,0,0,0,0
o,0x00000000,1720889086.830456,172.16.3.2,5101,172.16.1.2,54991,1073725440,14480,0,65728,65700,6,6,4,1460,448,1,993,62,33580,0,65700,1448,0,0,0,0
i,0x00000000,1720889086.870867,172.16.3.2,5101,172.16.1.2,54991,1073725440,14480,0,65728,65700,6,6,4,1460,448,1,992,62,33580,0,65700,0,0,0,0,0
o,0x00000000,1720889086.903393,172.16.3.2,5101,172.16.1.2,54991,1073725440,14480,0,65728,65700,6,6,4,1460,448,1,993,62,33580,0,65700,0,0,0,0,0
i,0x00000000,1720889086.907383,172.16.3.2,5101,172.16.1.2,54991,1073725440,14480,0,65728,65700,6,6,4,1460,448,1,992,62,33580,0,65700,0,0,0,0,0
o,0x00000000,1720889086.943507,172.16.3.2,5101,172.16.1.2,54991,1073725440,14480,0,65728,65700,6,6,4,1460,448,1,993,62,33580,0,65700,0,0,0,0,0
i,0x00000000,1720889086.952677,172.16.3.2,5101,172.16.1.2,54991,1073725440,14480,0,65728,65700,6,6,4,1460,448,1,992,62,33580,0,65700,0,0,0,0,0
o,0x00000000,1720889086.992687,172.16.3.2,5101,172.16.1.2,54991,1073725440,14480,0,65728,65700,6,6,4,1460,448,1,993,62,33580,0,65700,0,0,0,0,0
i,0x00000000,1720889086.994268,172.16.3.2,5101,172.16.1.2,54991,1073725440,14480,0,65728,65700,6,6,4,1460,448,1,992,62,33580,0,65700,0,0,0,0,0
i,0x00000000,1720889087.018135,172.16.3.2,5101,172.16.1.2,54991,1073725440,14480,0,65728,65700,6,6,4,1460,448,1,992,62,33580,0,65700,0,0,0,0,0
o,0x00000000,1720889087.018164,172.16.3.2,5101,172.16.1.2,54991,1073725440,14480,0,65728,65700,6,6,4,1460,448,1,993,62,33580,0,65700,1448,0,0,0,0
i,0x00000000,1720889087.023224,172.16.3.2,5101,172.16.1.2,54991,1073725440,14480,0,65728,65700,6,6,4,1460,448,1,992,62,33580,0,65700,0,0,0,0,0
i,0x00000000,1720889087.049951,172.16.3.2,5101,172.16.1.2,54991,1073725440,14480,0,65728,65700,6,6,4,1460,448,1,992,62,33580,0,65700,0,0,0,0,0
o,0x00000000,1720889087.049966,172.16.3.2,5101,172.16.1.2,54991,1073725440,14480,0,65728,65700,6,6,4,1460,448,1,993,62,33580,0,65700,1448,0,0,0,0
i,0x00000000,1720889087.069428,172.16.3.2,5101,172.16.1.2,54991,1073725440,14480,0,65728,65700,6,6,4,1460,448,1,992,62,33580,0,65700,0,0,0,0,0
i,0x00000000,1720889087.083613,172.16.3.2,5101,172.16.1.2,54991,1073725440,14480,0,65728,65700,6,6,4,1460,448,1,992,62,33580,0,65700,0,0,0,0,0
o,0x00000000,1720889087.083627,172.16.3.2,5101,172.16.1.2,54991,1073725440,14480,0,65728,65700,6,6,4,1460,448,1,993,62,33580,0,65700,1448,0,0,0,0
i,0x00000000,1720889087.113363,172.16.3.2,5101,172.16.1.2,54991,1073725440,14480,0,65728,65700,6,6,4,1460,448,1,992,62,33580,0,65700,0,0,0,0,0
i,0x00000000,1720889087.140682,172.16.3.2,5101,172.16.1.2,54991,1073725440,14480,0,65728,65700,6,6,4,1460,448,1,992,62,33580,0,65700,0,0,0,0,0
o,0x00000000,1720889087.140746,172.16.3.2,5101,172.16.1.2,54991,1073725440,14480,0,65728,65700,6,6,4,1460,448,1,993,62,33580,0,65700,1448,0,0,0,0
i,0x00000000,1720889087.151324,172.16.3.2,5101,172.16.1.2,54991,1073725440,14480,0,65728,65700,6,6,4,1460,448,1,992,62,33580,0,65700,0,0,0,0,0
o,0x00000000,1720889087.182544,172.16.3.2,5101,172.16.1.2,54991,1073725440,14480,0,65728,65700,6,6,4,1460,448,1,993,62,33580,0,65700,0,0,0,0,0
i,0x00000000,1720889087.192865,172.16.3.2,5101,172.16.1.2,54991,1073725440,14480,0,65728,65700,6,6,4,1460,448,1,992,62,33580,0,65700,0,0,0,0,0
i,0x00000000,1720889087.200799,172.16.3.2,5101,172.16.1.2,54991,1073725440,14480,0,65728,65700,6,6,4,1460,448,1,992,62,33580,0,65700,0,0,0,0,0
o,0x00000000,1720889087.200818,172.16.3.2,5101,172.16.1.2,54991,1073725440,14480,0,65728,65700,6,6,4,1460,448,1,993,62,33580,0,65700,1448,0,0,0,0
i,0x00000000,1720889087.240619,172.16.3.2,5101,172.16.1.2,54991,1073725440,14480,0,65728,65700,6,6,4,1460,448,1,992,62,33580,0,65700,0,0,0,0,0
i,0x00000000,1720889087.263004,172.16.3.2,5101,172.16.1.2,54991,1073725440,14480,0,65728,65700,6,6,4,1460,448,1,992,62,33580,0,65700,0,0,0,0,0
o,0x00000000,1720889087.263017,172.16.3.2,5101,172.16.1.2,54991,1073725440,14480,0,65728,65700,6,6,4,1460,448,1,993,62,33580,0,65700,1448,0,0,0,0
i,0x00000000,1720889087.320356,172.16.3.2,5101,172.16.1.2,54991,1073725440,14480,0,65728,65700,6,6,4,1460,448,1,992,62,33580,0,65700,0,0,0,0,0
i,0x00000000,1720889087.324538,172.16.3.2,5101,172.16.1.2,54991,1073725440,14480,0,65728,65700,6,6,4,1460,448,1,992,62,33580,0,65700,0,0,0,0,0
o,0x00000000,1720889087.324574,172.16.3.2,5101,172.16.1.2,54991,1073725440,14480,0,65728,65700,6,6,4,1460,448,1,993,62,33580,0,65700,1448,0,0,0,0
i,0x00000000,1720889087.362597,172.16.3.2,5101,172.16.1.2,54991,1073725440,14480,0,65728,65700,6,6,4,1460,448,1,992,62,33580,0,65700,0,0,0,0,0
i,0x00000000,1720889087.373457,172.16.3.2,5101,172.16.1.2,54991,1073725440,14480,0,65728,65700,6,6,4,1460,448,1,992,62,33580,0,65700,0,0,0,0,0
o,0x00000000,1720889087.373490,172.16.3.2,5101,172.16.1.2,54991,1073725440,14480,0,65728,65700,6,6,4,1460,448,1,993,62,33580,0,65700,1448,0,0,0,0
i,0x00000000,1720889087.392356,172.16.3.2,5101,172.16.1.2,54991,1073725440,14480,0,65728,65700,6,6,4,1460,448,1,992,62,33580,0,65700,0,0,0,0,0
i,0x00000000,1720889087.421240,172.16.3.2,5101,172.16.1.2,54991,1073725440,14480,0,65728,65700,6,6,4,1460,448,1,992,62,33580,0,65700,0,0,0,0,0
o,0x00000000,1720889087.421266,172.16.3.2,5101,172.16.1.2,54991,1073725440,14480,0,65728,65700,6,6,4,1460,448,1,993,62,33580,0,65700,1448,0,0,0,0
i,0x00000000,1720889087.434081,172.16.3.2,5101,172.16.1.2,54991,1073725440,14480,0,65728,65700,6,6,4,1460,448,1,992,62,33580,0,65700,0,0,0,0,0
o,0x00000000,1720889087.473026,172.16.3.2,5101,172.16.1.2,54991,1073725440,14480,0,65728,65700,6,6,4,1460,448,1,993,62,33580,0,65700,0,0,0,0,0
i,0x00000000,1720889087.485292,172.16.3.2,5101,172.16.1.2,54991,1073725440,14480,0,65728,65700,6,6,4,1460,448,1,992,62,33580,0,65700,0,0,0,0,0
i,0x00000000,1720889087.500684,172.16.3.2,5101,172.16.1.2,54991,1073725440,14480,0,65728,65700,6,6,4,1460,448,1,992,62,33580,0,65700,0,0,0,0,0
o,0x00000000,1720889087.500702,172.16.3.2,5101,172.16.1.2,54991,1073725440,14480,0,65728,65700,6,6,4,1460,448,1,993,62,33580,0,65700,1448,0,0,0,0
i,0x00000000,1720889087.533708,172.16.3.2,5101,172.16.1.2,54991,1073725440,14480,0,65728,65700,6,6,4,1460,448,1,992,62,33580,0,65700,0,0,0,0,0
i,0x00000000,1720889087.551979,172.16.3.2,5101,172.16.1.2,54991,1073725440,14480,0,65728,65700,6,6,4,1460,448,1,992,62,33580,0,65700,0,0,0,0,0
o,0x00000000,1720889087.552018,172.16.3.2,5101,172.16.1.2,54991,1073725440,14480,0,65728,65700,6,6,4,1460,448,1,993,62,33580,0,65700,1448,0,0,0,0
i,0x00000000,1720889087.561285,172.16.3.2,5101,172.16.1.2,54991,1073725440,14480,0,65728,65700,6,6,4,1460,448,1,992,62,33580,0,65700,0,0,0,0,0
o,0x00000000,1720889087.592794,172.16.3.2,5101,172.16.1.2,54991,1073725440,14480,0,65728,65700,6,6,4,1460,448,1,993,62,33580,0,65700,0,0,0,0,0
i,0x00000000,1720889087.594491,172.16.3.2,5101,172.16.1.2,54991,1073725440,14480,0,65728,65700,6,6,4,1460,448,1,992,62,33580,0,65700,0,0,0,0,0
o,0x00000000,1720889087.624117,10.0.2.15,22,10.0.2.2,57021,1073725440,14600,0,65535,65700,0,0,4,1460,1,0,4,24,33580,108,65700,0,0,0,0,0
i,0x00000000,1720889087.626564,10.0.2.15,22,10.0.2.2,57021,1073725440,14600,0,65535,65700,0,0,4,1460,1,0,4,24,33580,108,65700,0,108,0,0,0
o,0x00000000,1720889087.631760,172.16.3.2,5101,172.16.1.2,54991,1073725440,14480,0,65728,65700,6,6,4,1460,448,1,993,62,33580,0,65700,0,0,0,0,0
i,0x00000000,1720889087.632613,172.16.3.2,5101,172.16.1.2,54991,1073725440,14480,0,65728,65700,6,6,4,1460,448,1,992,62,33580,0,65700,0,0,0,0,0
i,0x00000000,1720889087.671184,172.16.3.2,5101,172.16.1.2,54991,1073725440,14480,0,65728,65700,6,6,4,1460,448,1,992,62,33580,0,65700,0,0,0,0,0
o,0x00000000,1720889087.671201,172.16.3.2,5101,172.16.1.2,54991,1073725440,14480,0,65728,65700,6,6,4,1460,448,1,993,62,33580,0,65700,1448,0,0,0,0
i,0x00000000,1720889087.673946,172.16.3.2,5101,172.16.1.2,54991,1073725440,14480,0,65728,65700,6,6,4,1460,448,1,992,62,33580,0,65700,0,0,0,0,0
i,0x00000000,1720889087.681329,172.16.3.2,5101,172.16.1.2,54991,1073725440,14480,0,65728,65700,6,6,4,1460,448,1,992,62,33580,0,65700,0,0,0,0,0
o,0x00000000,1720889087.681341,172.16.3.2,5101,172.16.1.2,54991,1073725440,14480,0,65728,65700,6,6,4,1460,448,1,993,62,33580,0,65700,1448,0,0,0,0
i,0x00000000,1720889087.691172,172.16.3.2,5101,172.16.1.2,54991,1073725440,14480,0,65728,65700,6,6,4,1460,448,1,992,62,33580,0,65700,0,0,0,0,0
o,0x00000000,1720889087.722486,172.16.3.2,5101,172.16.1.2,54991,1073725440,14480,0,65728,65700,6,6,4,1460,448,1,993,62,33580,0,65700,0,0,0,0,0
i,0x00000000,1720889087.740357,172.16.3.2,5101,172.16.1.2,54991,1073725440,14480,0,65728,65700,6,6,4,1460,448,1,992,62,33580,0,65700,0,0,0,0,0
o,0x00000000,1720889087.772563,172.16.3.2,5101,172.16.1.2,54991,1073725440,14480,0,65728,65700,6,6,4,1460,448,1,993,62,33580,0,65700,0,0,0,0,0
i,0x00000000,1720889087.780300,172.16.3.2,5101,172.16.1.2,54991,1073725440,14480,0,65728,65700,6,6,4,1460,448,1,992,62,33580,0,65700,0,0,0,0,0
i,0x00000000,1720889087.790980,172.16.3.2,5101,172.16.1.2,54991,1073725440,14480,0,65728,65700,6,6,4,1460,448,1,992,62,33580,0,65700,0,0,0,0,0
o,0x00000000,1720889087.791014,172.16.3.2,5101,172.16.1.2,54991,1073725440,14480,0,65728,65700,6,6,4,1460,448,1,993,62,33580,0,65700,1448,0,0,0,0
i,0x00000000,1720889087.833445,172.16.3.2,5101,172.16.1.2,54991,1073725440,14480,0,65728,65700,6,6,4,1460,448,1,992,62,33580,0,65700,0,0,0,0,0
i,0x00000000,1720889087.839370,172.16.3.2,5101,172.16.1.2,54991,1073725440,14480,0,65728,65700,6,6,4,1460,448,1,992,62,33580,0,65700,0,0,0,0,0
o,0x00000000,1720889087.839381,172.16.3.2,5101,172.16.1.2,54991,1073725440,14480,0,65728,65700,6,6,4,1460,448,1,993,62,33580,0,65700,1448,0,0,0,0
i,0x00000000,1720889087.881860,172.16.3.2,5101,172.16.1.2,54991,1073725440,14480,0,65728,65700,6,6,4,1460,448,1,992,62,33580,0,65700,0,0,0,0,0
i,0x00000000,1720889087.901727,172.16.3.2,5101,172.16.1.2,54991,1073725440,14480,0,65728,65700,6,6,4,1460,448,1,992,62,33580,0,65700,0,0,0,0,0
o,0x00000000,1720889087.901743,172.16.3.2,5101,172.16.1.2,54991,1073725440,14480,0,65728,65700,6,6,4,1460,448,1,993,62,33580,0,65700,1448,0,0,0,0
i,0x00000000,1720889087.909620,172.16.3.2,5101,172.16.1.2,54991,1073725440,14480,0,65728,65700,6,6,4,1460,448,1,992,62,33580,0,65700,0,0,0,0,0
i,0x00000000,1720889087.945719,172.16.3.2,5101,172.16.1.2,54991,1073725440,14480,0,65728,65700,6,6,4,1460,448,1,992,62,33580,0,65700,0,0,0,0,0
o,0x00000000,1720889087.945773,172.16.3.2,5101,172.16.1.2,54991,1073725440,14480,0,65728,65700,6,6,4,1460,448,1,993,62,33580,0,65700,1448,0,0,0,0
i,0x00000000,1720889087.971359,172.16.3.2,5101,172.16.1.2,54991,1073725440,14480,0,65728,65700,6,6,4,1460,448,1,992,62,33580,0,65700,0,0,0,0,0
i,0x00000000,1720889087.996053,172.16.3.2,5101,172.16.1.2,54991,1073725440,14480,0,65728,65700,6,6,4,1460,448,1,992,62,33580,0,65700,0,0,0,0,0
o,0x00000000,1720889087.996094,172.16.3.2,5101,172.16.1.2,54991,1073725440,14480,0,65728,65700,6,6,4,1460,448,1,993,62,33580,0,65700,1448,0,0,0,0
i,0x00000000,1720889088.047848,172.16.3.2,5101,172.16.1.2,54991,1073725440,14480,0,65728,65700,6,6,4,1460,448,1,992,62,33580,0,65700,0,0,0,0,0
i,0x00000000,1720889088.060729,172.16.3.2,5101,172.16.1.2,54991,1073725440,14480,0,65728,65700,6,6,4,1460,448,1,992,62,33580,0,65700,0,0,0,0,0
o,0x00000000,1720889088.060748,172.16.3.2,5101,172.16.1.2,54991,1073725440,14480,0,65728,65700,6,6,4,1460,448,1,993,62,33580,0,65700,1448,0,0,0,0
i,0x00000000,1720889088.071066,172.16.3.2,5101,172.16.1.2,54991,1073725440,14480,0,65728,65700,6,6,4,1460,448,1,992,62,33580,0,65700,0,0,0,0,0
i,0x00000000,1720889088.103819,172.16.3.2,5101,172.16.1.2,54991,1073725440,14480,0,65728,65700,6,6,4,1460,448,1,992,62,33580,0,65700,0,0,0,0,0
o,0x00000000,1720889088.103859,172.16.3.2,5101,172.16.1.2,54991,1073725440,14480,0,65728,65700,6,6,4,1460,448,1,993,62,33580,0,65700,1448,0,0,0,0
i,0x00000000,1720889088.130719,172.16.3.2,5101,172.16.1.2,54991,1073725440,14480,0,65728,65700,6,6,4,1460,448,1,992,62,33580,0,65700,0,0,0,0,0
i,0x00000000,1720889088.151270,172.16.3.2,5101,172.16.1.2,54991,1073725440,14480,0,65728,65700,6,6,4,1460,448,1,992,62,33580,0,65700,0,0,0,0,0
o,0x00000000,1720889088.151296,172.16.3.2,5101,172.16.1.2,54991,1073725440,14480,0,65728,65700,6,6,4,1460,448,1,993,62,33580,0,65700,1448,0,0,0,0
i,0x00000000,1720889088.182212,172.16.3.2,5101,172.16.1.2,54991,1073725440,14480,0,65728,65700,6,6,4,1460,448,1,992,62,33580,0,65700,0,0,0,0,0
i,0x00000000,1720889088.194128,172.16.3.2,5101,172.16.1.2,54991,1073725440,14480,0,65728,65700,6,6,4,1460,448,1,992,62,33580,0,65700,0,0,0,0,0
o,0x00000000,1720889088.194147,172.16.3.2,5101,172.16.1.2,54991,1073725440,14480,0,65728,65700,6,6,4,1460,448,1,993,62,33580,0,65700,1448,0,0,0,0
i,0x00000000,1720889088.211350,172.16.3.2,5101,172.16.1.2,54991,1073725440,14480,0,65728,65700,6,6,4,1460,448,1,992,62,33580,0,65700,0,0,0,0,0
i,0x00000000,1720889088.220398,172.16.3.2,5101,172.16.1.2,54991,1073725440,14480,0,65728,65700,6,6,4,1460,448,1,992,62,33580,0,65700,0,0,0,0,0
o,0x00000000,1720889088.220427,172.16.3.2,5101,172.16.1.2,54991,1073725440,14480,0,65728,65700,6,6,4,1460,448,1,993,62,33580,0,65700,1448,0,0,0,0
i,0x00000000,1720889088.257049,172.16.3.2,5101,172.16.1.2,54991,1073725440,14480,0,65728,65700,6,6,4,1460,448,1,992,62,33580,0,65700,0,0,0,0,0
o,0x00000000,1720889088.292725,172.16.3.2,5101,172.16.1.2,54991,1073725440,14480,0,65728,65700,6,6,4,1460,448,1,993,62,33580,0,65700,0,0,0,0,0
i,0x00000000,1720889088.293900,172.16.3.2,5101,172.16.1.2,54991,1073725440,14480,0,65728,65700,6,6,4,1460,448,1,992,62,33580,0,65700,0,0,0,0,0
o,0x00000000,1720889088.332932,172.16.3.2,5101,172.16.1.2,54991,1073725440,14480,0,65728,65700,6,6,4,1460,448,1,993,62,33580,0,65700,0,0,0,0,0
i,0x00000000,1720889088.340647,172.16.3.2,5101,172.16.1.2,54991,1073725440,14480,0,65728,65700,6,6,4,1460,448,1,992,62,33580,0,65700,0,0,0,0,0
i,0x00000000,1720889088.352025,172.16.3.2,5101,172.16.1.2,54991,1073725440,14480,0,65728,65700,6,6,4,1460,448,1,992,62,33580,0,65700,0,0,0,0,0
o,0x00000000,1720889088.352065,172.16.3.2,5101,172.16.1.2,54991,1073725440,14480,0,65728,65700,6,6,4,1460,448,1,993,62,33580,0,65700,1448,0,0,0,0
i,0x00000000,1720889088.393795,172.16.3.2,5101,172.16.1.2,54991,1073725440,14480,0,65728,65700,6,6,4,1460,448,1,992,62,33580,0,65700,0,0,0,0,0
i,0x00000000,1720889088.404743,172.16.3.2,5101,172.16.1.2,54991,1073725440,14480,0,65728,65700,6,6,4,1460,448,1,992,62,33580,0,65700,0,0,0,0,0
o,0x00000000,1720889088.404791,172.16.3.2,5101,172.16.1.2,54991,1073725440,14480,0,65728,65700,6,6,4,1460,448,1,993,62,33580,0,65700,1448,0,0,0,0
i,0x00000000,1720889088.440615,172.16.3.2,5101,172.16.1.2,54991,1073725440,14480,0,65728,65700,6,6,4,1460,448,1,992,62,33580,0,65700,0,0,0,0,0
i,0x00000000,1720889088.455750,172.16.3.2,5101,172.16.1.2,54991,1073725440,14480,0,65728,65700,6,6,4,1460,448,1,992,62,33580,0,65700,0,0,0,0,0
o,0x00000000,1720889088.455766,172.16.3.2,5101,172.16.1.2,54991,1073725440,14480,0,65728,65700,6,6,4,1460,448,1,993,62,33580,0,65700,1448,0,0,0,0
i,0x00000000,1720889088.461343,172.16.3.2,5101,172.16.1.2,54991,1073725440,14480,0,65728,65700,6,6,4,1460,448,1,992,62,33580,0,65700,0,0,0,0,0
o,0x00000000,1720889088.492372,172.16.3.2,5101,172.16.1.2,54991,1073725440,14480,0,65728,65700,6,6,4,1460,448,1,993,62,33580,0,65700,0,0,0,0,0
i,0x00000000,1720889088.496346,172.16.3.2,5101,172.16.1.2,54991,1073725440,14480,0,65728,65700,6,6,4,1460,448,1,992,62,33580,0,65700,0,0,0,0,0
i,0x00000000,1720889088.499681,172.16.3.2,5101,172.16.1.2,54991,1073725440,14480,0,65728,65700,6,6,4,1460,448,1,992,62,33580,0,65700,0,0,0,0,0
o,0x00000000,1720889088.499692,172.16.3.2,5101,172.16.1.2,54991,1073725440,14480,0,65728,65700,6,6,4,1460,448,1,993,62,33580,0,65700,1448,0,0,0,0
i,0x00000000,1720889088.527135,172.16.3.2,5101,172.16.1.2,54991,1073725440,14480,0,65728,65700,6,6,4,1460,448,1,992,62,33580,0,65700,0,0,0,0,0
i,0x00000000,1720889088.560986,172.16.3.2,5101,172.16.1.2,54991,1073725440,14480,0,65728,65700,6,6,4,1460,448,1,992,62,33580,0,65700,0,0,0,0,0
o,0x00000000,1720889088.561030,172.16.3.2,5101,172.16.1.2,54991,1073725440,14480,0,65728,65700,6,6,4,1460,448,1,993,62,33580,0,65700,1448,0,0,0,0
i,0x00000000,1720889088.600586,172.16.3.2,5101,172.16.1.2,54991,1073725440,14480,0,65728,65700,6,6,4,1460,448,1,992,62,33580,0,65700,0,0,0,0,0
i,0x00000000,1720889088.619409,172.16.3.2,5101,172.16.1.2,54991,1073725440,14480,0,65728,65700,6,6,4,1460,448,1,992,62,33580,0,65700,0,0,0,0,0
o,0x00000000,1720889088.619422,172.16.3.2,5101,172.16.1.2,54991,1073725440,14480,0,65728,65700,6,6,4,1460,448,1,993,62,33580,0,65700,1448,0,0,0,0
o,0x00000000,1720889088.622970,10.0.2.15,22,10.0.2.2,57021,1073725440,14600,0,65535,65700,0,0,4,1460,1,0,4,24,33580,108,65700,0,0,0,0,0
i,0x00000000,1720889088.623609,10.0.2.15,22,10.0.2.2,57021,1073725440,14600,0,65535,65700,0,0,4,1460,1,0,4,24,33580,108,65700,0,108,0,0,0
i,0x00000000,1720889088.659906,172.16.3.2,5101,172.16.1.2,54991,1073725440,14480,0,65728,65700,6,6,4,1460,448,1,992,62,33580,0,65700,0,0,0,0,0
i,0x00000000,1720889088.674552,172.16.3.2,5101,172.16.1.2,54991,1073725440,14480,0,65728,65700,6,6,4,1460,448,1,992,62,33580,0,65700,0,0,0,0,0
o,0x00000000,1720889088.674592,172.16.3.2,5101,172.16.1.2,54991,1073725440,14480,0,65728,65700,6,6,4,1460,448,1,993,62,33580,0,65700,1448,0,0,0,0
i,0x00000000,1720889088.704493,172.16.3.2,5101,172.16.1.2,54991,1073725440,14480,0,65728,65700,6,6,4,1460,448,1,992,62,33580,0,65700,0,0,0,0,0
i,0x00000000,1720889088.733845,172.16.3.2,5101,172.16.1.2,54991,1073725440,14480,0,65728,65700,6,6,4,1460,448,1,992,62,33580,0,65700,0,0,0,0,0
o,0x00000000,1720889088.733887,172.16.3.2,5101,172.16.1.2,54991,1073725440,14480,0,65728,65700,6,6,4,1460,448,1,993,62,33580,0,65700,1448,0,0,0,0
i,0x00000000,1720889088.740465,172.16.3.2,5101,172.16.1.2,54991,1073725440,14480,0,65728,65700,6,6,4,1460,448,1,992,62,33580,0,65700,0,0,0,0,0
i,0x00000000,1720889088.768901,172.16.3.2,5101,172.16.1.2,54991,1073725440,14480,0,65728,65700,6,6,4,1460,448,1,992,62,33580,0,65700,0,0,0,0,0
o,0x00000000,1720889088.768945,172.16.3.2,5101,172.16.1.2,54991,1073725440,14480,0,65728,65700,6,6,4,1460,448,1,993,62,33580,0,65700,1448,0,0,0,0
i,0x00000000,1720889088.799221,172.16.3.2,5101,172.16.1.2,54991,1073725440,14480,0,65728,65700,6,6,4,1460,448,1,992,62,33580,0,65700,0,0,0,0,0
i,0x00000000,1720889088.830050,172.16.3.2,5101,172.16.1.2,54991,1073725440,14480,0,65728,65700,6,6,4,1460,448,1,992,62,33580,0,65700,0,0,0,0,0
o,0x00000000,1720889088.830084,172.16.3.2,5101,172.16.1.2,54991,1073725440,14480,0,65728,65700,6,6,4,1460,448,1,993,62,33580,0,65700,0,0,1,0,0
i,0x00000000,1720889088.848019,172.16.3.2,5101,172.16.1.2,54991,1073725440,14480,0,65728,65700,6,6,4,1460,448,1,992,62,33580,0,65700,0,0,1,0,0
o,0x00000000,1720889088.848055,172.16.3.2,5101,172.16.1.2,54991,1073725440,14480,0,65728,65728,6,6,4,1460,448,1,993,62,33580,0,65700,0,0,1,0,0
i,0x00000000,1720889088.871307,172.16.3.2,5101,172.16.1.2,54991,1073725440,14480,0,65728,65728,6,6,4,1460,448,1,992,62,33580,0,65700,0,0,1,0,0
o,0x00000000,1720889088.871332,172.16.3.2,5101,172.16.1.2,54991,1073725440,14480,0,65728,65728,6,6,4,1460,448,1,993,62,33580,0,65700,0,0,1,0,0
i,0x00000000,1720889088.883250,172.16.3.2,5101,172.16.1.2,54991,1073725440,14480,0,65728,65728,6,6,4,1460,448,1,992,62,33580,0,65700,0,0,1,0,0
o,0x00000000,1720889088.883293,172.16.3.2,5101,172.16.1.2,54991,1073725440,14480,0,65728,65728,6,6,4,1460,448,1,993,62,33580,0,65700,0,0,1,0,0
i,0x00000000,1720889088.919835,172.16.3.2,5101,172.16.1.2,54991,1073725440,14480,0,65728,65728,6,6,4,1460,448,1,992,62,33580,0,65700,0,0,1,0,0
o,0x00000000,1720889088.919850,172.16.3.2,5101,172.16.1.2,54991,1073725440,14480,0,65728,65728,6,6,4,1460,448,1,993,62,33580,0,65700,0,0,1,0,0
i,0x00000000,1720889088.941534,172.16.3.2,5101,172.16.1.2,54991,1073725440,14480,0,65728,65728,6,6,4,1460,448,1,992,62,33580,0,65700,0,0,1,0,0
o,0x00000000,1720889088.941573,172.16.3.2,5101,172.16.1.2,54991,1073725440,14480,0,65728,65728,6,6,4,1460,448,1,993,62,33580,0,65700,0,0,2,0,0
i,0x00000000,1720889088.976930,172.16.3.2,5101,172.16.1.2,54991,1073725440,14480,0,65728,65728,6,6,4,1460,448,1,992,62,33580,0,65700,0,0,2,0,0
o,0x00000000,1720889088.976979,172.16.3.2,5101,172.16.1.2,54991,1073725440,14480,0,65728,65728,6,6,4,1460,448,1,993,62,33580,0,65700,0,0,3,0,0
i,0x00000000,1720889088.981103,172.16.3.2,5101,172.16.1.2,54991,1073725440,14480,0,65728,65728,6,6,4,1460,448,1,992,62,33580,0,65700,0,0,3,0,0
o,0x00000000,1720889088.981126,172.16.3.2,5101,172.16.1.2,54991,1073725440,14480,0,65728,65728,6,6,4,1460,448,1,993,62,33580,0,65700,0,0,3,0,0
i,0x00000000,1720889089.029718,172.16.3.2,5101,172.16.1.2,54991,1073725440,14480,0,65728,65728,6,6,4,1460,448,1,992,62,33580,0,65700,0,0,3,0,0
o,0x00000000,1720889089.029732,172.16.3.2,5101,172.16.1.2,54991,1073725440,14480,0,65728,65728,6,6,4,1460,448,1,993,62,33580,0,65700,0,0,3,0,0
i,0x00000000,1720889089.051213,172.16.3.2,5101,172.16.1.2,54991,1073725440,14480,0,65728,65728,6,6,4,1460,448,1,992,62,33580,0,65700,0,0,3,0,0
o,0x00000000,1720889089.051258,172.16.3.2,5101,172.16.1.2,54991,1073725440,14480,0,65728,65728,6,6,4,1460,448,1,993,62,33580,0,65700,0,0,3,0,0
i,0x00000000,1720889089.113584,172.16.3.2,5101,172.16.1.2,54991,1073725440,14480,0,65728,65728,6,6,4,1460,448,1,992,62,33580,0,65700,0,0,3,0,0
o,0x00000000,1720889089.113624,172.16.3.2,5101,172.16.1.2,54991,1073725440,14480,0,65728,65728,6,6,4,1460,448,1,993,62,33580,0,65700,0,0,3,0,0
i,0x00000000,1720889089.115009,172.16.3.2,5101,172.16.1.2,54991,1073725440,14480,0,65728,65728,6,6,4,1460,448,1,992,62,33580,0,65700,0,0,3,0,0
o,0x00000000,1720889089.115034,172.16.3.2,5101,172.16.1.2,54991,1073725440,14480,0,65728,65728,6,6,4,1460,448,1,993,62,33580,0,65700,0,0,3,0,0
i,0x00000000,1720889089.119128,172.16.3.2,5101,172.16.1.2,54991,1073725440,14480,0,65728,65728,6,6,4,1460,448,1,992,62,33580,0,65700,0,0,3,0,0
o,0x00000000,1720889089.119135,172.16.3.2,5101,172.16.1.2,54991,1073725440,14480,0,65728,65728,6,6,4,1460,448,1,993,62,33580,0,65700,0,0,3,0,0
i,0x00000000,1720889089.143668,172.16.3.2,5101,172.16.1.2,54991,1073725440,14480,0,65728,65728,6,6,4,1460,448,1,992,62,33580,0,65700,0,0,3,0,0
o,0x00000000,1720889089.143687,172.16.3.2,5101,172.16.1.2,54991,1073725440,14480,0,65728,65728,6,6,4,1460,448,1,993,62,33580,0,65700,0,0,3,0,0
i,0x00000000,1720889089.153529,172.16.3.2,5101,172.16.1.2,54991,1073725440,14480,0,65728,65728,6,6,4,1460,448,1,992,62,33580,0,65700,0,0,3,0,0
o,0x00000000,1720889089.153565,172.16.3.2,5101,172.16.1.2,54991,1073725440,14480,0,65728,65728,6,6,4,1460,448,1,993,62,33580,0,65700,0,0,2,0,0
i,0x00000000,1720889089.173126,172.16.3.2,5101,172.16.1.2,54991,1073725440,14480,0,65728,65728,6,6,4,1460,448,1,992,62,33580,0,65700,0,0,2,0,0
o,0x00000000,1720889089.173163,172.16.3.2,5101,172.16.1.2,54991,1073725440,14480,0,65728,65728,6,6,4,1460,448,1,993,62,33580,0,65700,0,0,1,0,0
i,0x00000000,1720889089.242451,172.16.3.2,5101,172.16.1.2,54991,1073725440,14480,0,65728,65728,6,6,4,1460,448,1,992,62,33580,0,65700,0,0,1,0,0
