enable_time_secs=1720889281	enable_time_usecs=344426	siftrver=1.2.4	hz=100	tcp_rtt_scale=32	sysname=FreeBSD	sysver=1301000	ipmode=4
o,0x00000000,1720889281.344499,10.0.2.15,22,10.0.2.2,51034,1073725440,17770,0,65535,65700,0,0,4,1460,1,0,4,23,33580,44,65700,0,0,0,0,0
i,0x00000000,1720889281.345986,10.0.2.15,22,10.0.2.2,51034,1073725440,17770,0,65535,65700,0,0,4,1460,1,0,4,23,33580,44,65700,0,44,0,0,0
o,0x00000000,1720889281.346074,10.0.2.15,22,10.0.2.2,51034,1073725440,17814,0,65535,65700,0,0,4,1460,1,0,4,23,33580,36,65700,0,0,0,0,0
i,0x00000000,1720889281.346922,10.0.2.15,22,10.0.2.2,51034,1073725440,17814,0,65535,65700,0,0,4,1460,1,0,4,23,33580,36,65700,0,36,0,0,0
o,0x00000000,1720889281.347013,10.0.2.15,22,10.0.2.2,51034,1073725440,17850,0,65535,65700,0,0,4,1460,1,0,4,24,33580,36,65700,0,0,0,0,0
i,0x00000000,1720889281.347497,10.0.2.15,22,10.0.2.2,51034,1073725440,17850,0,65535,65700,0,0,4,1460,1,0,4,24,33580,36,65700,0,36,0,0,0
o,0x00000000,1720889281.347726,10.0.2.15,22,10.0.2.2,51034,1073725440,17886,0,65535,65700,0,0,4,1460,1,0,4,24,33580,176,65700,0,0,0,0,0
i,0x00000000,1720889281.348756,10.0.2.15,22,10.0.2.2,51034,1073725440,17886,0,65535,65700,0,0,4,1460,1,0,4,24,33580,176,65700,0,176,0,0,0
i,0x00000000,1720889281.348761,10.0.2.15,22,10.0.2.2,51034,1073725440,18062,0,65535,65700,0,0,4,1460,1,0,4,24,33580,0,65700,0,0,0,0,0
i,0x00000000,1720889281.348763,10.0.2.15,22,10.0.2.2,51034,1073725440,18062,0,65535,65700,0,0,4,1460,1,0,4,24,33580,0,65700,96,0,0,0,0
o,0x00000000,1720889281.348766,10.0.2.15,22,10.0.2.2,51034,1073725440,18062,0,65535,65604,0,0,5,1460,1,0,5,24,33580,0,65700,96,0,0,0,0
o,0x00000000,1720889281.349210,10.0.2.15,22,10.0.2.2,51034,1073725440,18062,0,65535,65604,0,0,8,1460,1,0,4,24,33580,0,65700,0,0,0,0,0
i,0x00000000,1720889281.350136,10.0.2.15,22,10.0.2.2,51034,1073725440,18062,0,65535,65604,0,0,8,1460,1,0,20,24,33580,0,65700,0,1,0,0,0
i,0x00000000,1720889283.517649,10.0.2.15,22,10.0.2.2,51038,1073725440,14600,0,65535,65700,0,0,4,1460,1,0,0,27,33580,0,65700,0,0,0,0,0
o,0x00000000,1720889283.550327,10.0.2.15,22,10.0.2.2,51038,1073725440,14600,0,65535,65700,0,0,4,1460,1,0,0,27,33580,38,65700,42,0,0,0,0
i,0x00000000,1720889283.553014,10.0.2.15,22,10.0.2.2,51038,1073725440,14600,0,65535,65700,0,0,4,1460,1,0,0,27,33580,38,65700,42,38,0,0,0
i,0x00000000,1720889283.553965,10.0.2.15,22,10.0.2.2,51038,1073725440,14638,0,65535,65700,0,0,4,1460,1,0,0,24,33580,0,65700,0,0,0,0,0
i,0x00000000,1720889283.553972,10.0.2.15,22,10.0.2.2,51038,1073725440,14638,0,65535,65700,0,0,4,1460,1,0,0,24,33580,0,65700,1460,0,0,0,0
o,0x00000000,1720889283.553977,10.0.2.15,22,10.0.2.2,51038,1073725440,14638,0,65535,65700,0,0,4,1460,1,0,1,24,33580,0,65700,1536,0,0,0,0
o,0x00000000,1720889283.555142,10.0.2.15,22,10.0.2.2,51038,1073725440,14638,0,65535,65700,0,0,4,1460,1,0,0,24,33580,1056,65700,1536,0,0,0,0
i,0x00000000,1720889283.559214,10.0.2.15,22,10.0.2.2,51038,1073725440,14638,0,65535,65700,0,0,4,1460,1,0,0,24,33580,1056,65700,1536,1056,0,0,0
i,0x00000000,1720889283.562484,10.0.2.15,22,10.0.2.2,51038,1073725440,15694,0,65535,65700,0,0,4,1460,1,0,0,24,33580,0,65700,0,0,0,0,0
o,0x00000000,1720889283.572430,10.0.2.15,22,10.0.2.2,51038,1073725440,15694,0,65535,65700,0,0,4,1460,1,0,0,24,33580,484,65700,0,0,0,0,0
i,0x00000000,1720889283.575617,10.0.2.15,22,10.0.2.2,51038,1073725440,15694,0,65535,65700,0,0,4,1460,1,0,0,24,33580,484,65700,0,484,0,0,0
i,0x00000000,1720889283.586260,10.0.2.15,22,10.0.2.2,51038,1073725440,16178,0,65535,65700,0,0,4,1460,1,0,0,24,33580,0,65700,0,0,0,0,0
i,0x00000000,1720889283.586293,10.0.2.15,22,10.0.2.2,51038,1073725440,16178,0,65535,65700,0,0,4,1460,1,0,0,24,33580,0,65700,16,0,0,0,0
o,0x00000000,1720889283.586305,10.0.2.15,22,10.0.2.2,51038,1073725440,16178,0,65535,65700,0,0,4,1460,1,0,1,24,33580,0,65700,60,0,0,0,0
o,0x00000000,1720889283.587189,10.0.2.15,22,10.0.2.2,51038,1073725440,16178,0,65535,65700,0,0,4,1460,1,0,0,24,33580,44,65700,0,0,0,0,0
i,0x00000000,1720889283.593215,10.0.2.15,22,10.0.2.2,51038,1073725440,16178,0,65535,65700,0,0,4,1460,1,0,0,24,33580,44,65700,0,44,0,0,0
i,0x00000000,1720889283.593235,10.0.2.15,22,10.0.2.2,51038,1073725440,16222,0,65535,65700,0,0,4,1460,1,0,0,24,33580,0,65700,0,0,0,0,0
o,0x00000000,1720889283.612600,10.0.2.15,22,10.0.2.2,51038,1073725440,16222,0,65535,65700,0,0,4,1460,1,0,0,24,33580,68,65700,0,0,0,0,0
i,0x00000000,1720889283.616600,10.0.2.15,22,10.0.2.2,51038,1073725440,16222,0,65535,65700,0,0,4,1460,1,0,0,24,33580,68,65700,0,68,0,0,0
i,0x00000000,1720889283.616615,10.0.2.15,22,10.0.2.2,51038,1073725440,16290,0,65535,65700,0,0,4,1460,1,0,0,24,33580,0,65700,0,0,0,0,0
o,0x00000000,1720889283.618074,10.0.2.15,22,10.0.2.2,51038,1073725440,16290,0,65535,65700,0,0,4,1460,1,0,0,24,33580,332,65700,0,0,0,0,0
i,0x00000000,1720889283.622669,10.0.2.15,22,10.0.2.2,51038,1073725440,16290,0,65535,65700,0,0,4,1460,1,0,0,24,33580,332,65700,0,332,0,0,0
i,0x00000000,1720889283.624750,10.0.2.15,22,10.0.2.2,51038,1073725440,16622,0,65535,65700,0,0,4,1460,1,0,0,24,33580,0,65700,0,0,0,0,0
o,0x00000000,1720889283.638386,10.0.2.15,22,10.0.2.2,51038,1073725440,16622,0,65535,65700,0,0,4,1460,1,0,0,24,33580,28,65700,0,0,0,0,0
i,0x00000000,1720889283.644301,10.0.2.15,22,10.0.2.2,51038,1073725440,16622,0,65535,65700,0,0,4,1460,1,0,0,24,33580,28,65700,0,28,0,0,0
i,0x00000000,1720889283.644325,10.0.2.15,22,10.0.2.2,51038,1073725440,16650,0,65535,65700,0,0,4,1460,1,0,0,23,33580,0,65700,0,0,0,0,0
o,0x00000000,1720889283.650595,10.0.2.15,22,10.0.2.2,51038,1073725440,16650,0,65535,65700,0,0,4,1460,1,0,0,23,33580,768,65700,112,0,0,0,0
i,0x00000000,1720889283.656175,10.0.2.15,22,10.0.2.2,51038,1073725440,16650,0,65535,65700,0,0,4,1460,1,0,0,23,33580,768,65700,112,768,0,0,0
o,0x00000000,1720889283.657013,10.0.2.15,22,10.0.2.2,51038,1073725440,17418,0,65535,65700,0,0,4,1460,1,0,0,23,33580,140,65700,112,0,0,0,0
i,0x00000000,1720889283.659883,10.0.2.15,22,10.0.2.2,51038,1073725440,17418,0,65535,65700,0,0,4,1460,1,0,0,23,33580,140,65700,112,140,0,0,0
o,0x00000000,1720889283.661165,10.0.2.15,22,10.0.2.2,51038,1073725440,17558,0,65535,65700,0,0,4,1460,1,0,0,23,33580,44,65700,0,0,0,0,0
i,0x00000000,1720889283.664939,10.0.2.15,22,10.0.2.2,51038,1073725440,17558,0,65535,65700,0,0,4,1460,1,0,0,23,33580,44,65700,0,44,0,0,0
i,0x00000000,1720889283.664954,10.0.2.15,22,10.0.2.2,51038,1073725440,17602,0,65535,65700,0,0,4,1460,1,0,0,23,33580,0,65700,0,0,0,0,0
o,0x00000000,1720889283.665809,10.0.2.15,22,10.0.2.2,51038,1073725440,17602,0,65535,65700,0,0,4,1460,1,0,4,23,33580,72,65700,0,0,0,0,0
i,0x00000000,1720889283.667993,10.0.2.15,22,10.0.2.2,51038,1073725440,17602,0,65535,65700,0,0,4,1460,1,0,4,23,33580,72,65700,0,72,0,0,0
o,0x00000000,1720889283.675267,10.0.2.15,22,10.0.2.2,51038,1073725440,17674,0,65535,65700,0,0,4,1460,1,0,4,24,33580,44,65700,0,0,0,0,0
i,0x00000000,1720889283.676847,10.0.2.15,22,10.0.2.2,51038,1073725440,17674,0,65535,65700,0,0,4,1460,1,0,4,24,33580,44,65700,0,44,0,0,0
o,0x00000000,1720889283.677045,10.0.2.15,22,10.0.2.2,51038,1073725440,17718,0,65535,65700,0,0,4,1460,1,0,4,24,33580,44,65700,0,0,0,0,0
i,0x00000000,1720889283.677758,10.0.2.15,22,10.0.2.2,51038,1073725440,17718,0,65535,65700,0,0,4,1460,1,0,4,24,33580,44,65700,0,44,0,0,0
o,0x00000000,1720889283.683454,10.0.2.15,22,10.0.2.2,51038,1073725440,17762,0,65535,65700,0,0,4,1460,1,0,4,24,33580,176,65700,0,0,0,0,0
i,0x00000000,1720889283.686889,10.0.2.15,22,10.0.2.2,51038,1073725440,17762,0,65535,65700,0,0,4,1460,1,0,4,24,33580,176,65700,0,176,0,0,0
i,0x00000000,1720889283.686898,10.0.2.15,22,10.0.2.2,51038,1073725440,17938,0,65535,65700,0,0,4,1460,1,0,4,24,33580,0,65700,0,0,0,0,0
i,0x00000000,1720889283.686900,10.0.2.15,22,10.0.2.2,51038,1073725440,17938,0,65535,65700,0,0,4,1460,1,0,4,24,33580,0,65700,96,0,0,0,0
o,0x00000000,1720889283.686904,10.0.2.15,22,10.0.2.2,51038,1073725440,17938,0,65535,65604,0,0,5,1460,1,0,5,24,33580,0,65700,96,0,0,0,0
o,0x00000000,1720889283.705043,10.0.2.15,22,10.0.2.2,51038,1073725440,17938,0,65535,65604,0,0,8,1460,1,0,4,24,33580,0,65700,0,0,0,0,0
i,0x00000000,1720889283.706575,10.0.2.15,22,10.0.2.2,51038,1073725440,17938,0,65535,65604,0,0,8,1460,1,0,20,24,33580,0,65700,0,1,0,0,0
i,0x00000000,1720889283.990198,172.16.3.2,5101,172.16.1.2,64142,1073725440,14480,0,65728,65700,6,6,4,1460,489,1,992,52,33580,0,65700,0,0,0,0,0
o,0x00000000,1720889283.990519,172.16.3.2,5101,172.16.1.2,64142,1073725440,14480,0,65728,65700,6,6,4,1460,489,1,996,52,33580,1,65700,0,0,0,0,0
i,0x00000000,1720889284.110046,172.16.3.2,5101,172.16.1.2,64142,1073725440,14480,0,65728,65700,6,6,4,1460,489,1,996,52,33580,1,65700,0,1,0,0,0
i,0x00000000,1720889284.110092,172.16.3.2,5101,172.16.1.2,64142,1073725440,14481,0,65728,65728,6,6,4,1460,476,1,996,50,33580,0,65700,4,0,0,0,0
o,0x00000000,1720889284.110115,172.16.3.2,5101,172.16.1.2,64142,1073725440,14481,0,65728,65728,6,6,4,1460,476,1,997,50,33580,0,65700,128,0,0,0,0
o,0x00000000,1720889284.111097,172.16.3.2,5101,172.16.1.2,64142,1073725440,14481,0,65728,65728,6,6,4,1460,476,1,996,50,33580,1,65700,0,0,0,0,0
o,0x00000000,1720889284.114595,10.0.2.15,22,10.0.2.2,57021,1073725440,14600,0,65535,65700,0,0,4,1460,1,0,4,24,33580,84,65700,0,0,0,0,0
i,0x00000000,1720889284.117019,10.0.2.15,22,10.0.2.2,57021,1073725440,14600,0,65535,65700,0,0,4,1460,1,0,4,24,33580,84,65700,0,84,0,0,0
i,0x00000000,1720889284.258144,172.16.3.2,5101,172.16.1.2,64142,1073725440,14481,0,65728,65728,6,6,4,1460,476,1,996,50,33580,1,65700,0,1,0,0,0
i,0x00000000,1720889284.345749,172.16.3.2,5101,172.16.1.2,27477,1073725440,14480,0,65728,65700,6,6,4,1460,489,1,992,52,33580,0,65700,0,0,0,0,0
o,0x00000000,1720889284.363896,172.16.3.2,5101,172.16.1.2,64142,1073725440,14482,0,65728,65728,6,6,4,1460,477,1,996,47,33580,1,65700,0,0,0,0,0
o,0x00000000,1720889284.366337,172.16.3.2,5101,172.16.1.2,64142,1073725440,14482,0,65728,65728,6,6,4,1460,477,1,996,47,33580,2,65700,0,1,0,0,0
o,0x00000000,1720889284.367123,10.0.2.15,22,10.0.2.2,57021,1073725440,14600,0,65535,65700,0,0,4,1460,1,0,4,24,33580,108,65700,0,0,0,0,0
i,0x00000000,1720889284.370577,10.0.2.15,22,10.0.2.2,57021,1073725440,14600,0,65535,65700,0,0,4,1460,1,0,4,24,33580,108,65700,0,108,0,0,0
o,0x00000000,1720889284.382941,172.16.3.2,5101,172.16.1.2,27477,1073725440,14480,0,65728,65700,6,6,4,1460,489,1,993,52,33580,0,65700,0,0,0,0,0
i,0x00000000,1720889284.485751,172.16.3.2,5101,172.16.1.2,64142,1073725440,14482,0,65728,65728,6,6,4,1460,477,1,996,47,33580,2,65700,0,2,0,0,0
i,0x00000000,1720889284.590943,172.16.3.2,5101,172.16.1.2,27477,1073725440,14480,0,65728,65700,6,6,4,1460,489,1,992,52,33580,0,65700,0,0,0,0,0
i,0x00000000,1720889284.596975,172.16.3.2,5101,172.16.1.2,27477,1073725440,14480,0,65728,65700,6,6,4,1460,489,1,992,52,33580,0,65700,0,0,0,0,0
o,0x00000000,1720889284.597019,172.16.3.2,5101,172.16.1.2,27477,1073725440,14480,0,65728,65700,6,6,4,1460,489,1,993,52,33580,0,65700,1448,0,0,0,0
i,0x00000000,1720889284.605887,172.16.3.2,5101,172.16.1.2,27477,1073725440,14480,0,65728,65700,6,6,4,1460,489,1,992,52,33580,0,65700,0,0,0,0,0
i,0x00000000,1720889284.614217,172.16.3.2,5101,172.16.1.2,27477,1073725440,14480,0,65728,65700,6,6,4,1460,489,1,992,52,33580,0,65700,0,0,0,0,0
o,0x00000000,1720889284.614250,172.16.3.2,5101,172.16.1.2,27477,1073725440,14480,0,65728,65700,6,6,4,1460,489,1,993,52,33580,0,65700,1448,0,0,0,0
i,0x00000000,1720889284.634845,172.16.3.2,5101,172.16.1.2,27477,1073725440,14480,0,65728,65700,6,6,4,1460,489,1,992,52,33580,0,65700,0,0,0,0,0
i,0x00000000,1720889284.653687,172.16.3.2,5101,172.16.1.2,27477,1073725440,14480,0,65728,65700,6,6,4,1460,489,1,992,52,33580,0,65700,0,0,0,0,0
o,0x00000000,1720889284.653742,172.16.3.2,5101,172.16.1.2,27477,1073725440,14480,0,65728,65700,6,6,4,1460,489,1,993,52,33580,0,65700,1448,0,0,0,0
i,0x00000000,1720889284.655599,172.16.3.2,5101,172.16.1.2,27477,1073725440,14480,0,65728,65700,6,6,4,1460,489,1,992,52,33580,0,65700,1448,0,0,0,0
i,0x00000000,1720889284.674998,172.16.3.2,5101,172.16.1.2,27477,1073725440,14480,0,65728,65700,6,6,4,1460,489,1,992,52,33580,0,65700,0,0,0,0,0
o,0x00000000,1720889284.675048,172.16.3.2,5101,172.16.1.2,27477,1073725440,14480,0,65728,65700,6,6,4,1460,489,1,993,52,33580,0,65700,1448,0,0,0,0
i,0x00000000,1720889284.685637,172.16.3.2,5101,172.16.1.2,27477,1073725440,14480,0,65728,65700,6,6,4,1460,489,1,992,52,33580,0,65700,0,0,0,0,0
i,0x00000000,1720889284.693888,172.16.3.2,5101,172.16.1.2,27477,1073725440,14480,0,65728,65700,6,6,4,1460,489,1,992,52,33580,0,65700,0,0,0,0,0
o,0x00000000,1720889284.693912,172.16.3.2,5101,172.16.1.2,27477,1073725440,14480,0,65728,65700,6,6,4,1460,489,1,993,52,33580,0,65700,1448,0,0,0,0
i,0x00000000,1720889284.759575,172.16.3.2,5101,172.16.1.2,27477,1073725440,14480,0,65728,65700,6,6,4,1460,489,1,992,52,33580,0,65700,0,0,0,0,0
i,0x00000000,1720889284.766028,172.16.3.2,5101,172.16.1.2,27477,1073725440,14480,0,65728,65700,6,6,4,1460,489,1,992,52,33580,0,65700,0,0,0,0,0
o,0x00000000,1720889284.766078,172.16.3.2,5101,172.16.1.2,27477,1073725440,14480,0,65728,65700,6,6,4,1460,489,1,993,52,33580,0,65700,1448,0,0,0,0
i,0x00000000,1720889284.807347,172.16.3.2,5101,172.16.1.2,27477,1073725440,14480,0,65728,65700,6,6,4,1460,489,1,992,52,33580,0,65700,0,0,0,0,0
i,0x00000000,1720889284.835682,172.16.3.2,5101,172.16.1.2,27477,1073725440,14480,0,65728,65700,6,6,4,1460,489,1,992,52,33580,0,65700,0,0,0,0,0
o,0x00000000,1720889284.835721,172.16.3.2,5101,172.16.1.2,27477,1073725440,14480,0,65728,65700,6,6,4,1460,489,1,993,52,33580,0,65700,1448,0,0,0,0
i,0x00000000,1720889284.913827,172.16.3.2,5101,172.16.1.2,27477,1073725440,14480,0,65728,65700,6,6,4,1460,489,1,992,52,33580,0,65700,0,0,0,0,0
i,0x00000000,1720889284.913836,172.16.3.2,5101,172.16.1.2,27477,1073725440,14480,0,65728,65700,6,6,4,1460,489,1,992,52,33580,0,65700,1448,0,0,0,0
o,0x00000000,1720889284.913841,172.16.3.2,5101,172.16.1.2,27477,1073725440,14480,0,65728,65700,6,6,4,1460,489,1,993,52,33580,0,65700,2896,0,0,0,0
i,0x00000000,1720889284.932672,172.16.3.2,5101,172.16.1.2,27477,1073725440,14480,0,65728,65700,6,6,4,1460,489,1,992,52,33580,0,65700,0,0,0,0,0
i,0x00000000,1720889284.933168,172.16.3.2,5101,172.16.1.2,27477,1073725440,14480,0,65728,65700,6,6,4,1460,489,1,992,52,33580,0,65700,0,0,0,0,0
o,0x00000000,1720889284.933178,172.16.3.2,5101,172.16.1.2,27477,1073725440,14480,0,65728,65700,6,6,4,1460,489,1,993,52,33580,0,65700,1448,0,0,0,0
i,0x00000000,1720889284.972213,172.16.3.2,5101,172.16.1.2,27477,1073725440,14480,0,65728,65700,6,6,4,1460,489,1,992,52,33580,0,65700,0,0,0,0,0
i,0x00000000,1720889284.973843,172.16.3.2,5101,172.16.1.2,27477,1073725440,14480,0,65728,65700,6,6,4,1460,489,1,992,52,33580,0,65700,0,0,0,0,0
o,0x00000000,1720889284.973880,172.16.3.2,5101,172.16.1.2,27477,1073725440,14480,0,65728,65700,6,6,4,1460,489,1,993,52,33580,0,65700,1448,0,0,0,0
i,0x00000000,1720889284.985535,172.16.3.2,5101,172.16.1.2,27477,1073725440,14480,0,65728,65700,6,6,4,1460,489,1,992,52,33580,0,65700,0,0,0,0,0
i,0x00000000,1720889284.998920,172.16.3.2,5101,172.16.1.2,27477,1073725440,14480,0,65728,65700,6,6,4,1460,489,1,992,52,33580,0,65700,0,0,0,0,0
o,0x00000000,1720889284.998961,172.16.3.2,5101,172.16.1.2,27477,1073725440,14480,0,65728,65700,6,6,4,1460,489,1,993,52,33580,0,65700,1448,0,0,0,0
i,0x00000000,1720889285.034222,172.16.3.2,5101,172.16.1.2,27477,1073725440,14480,0,65728,65700,6,6,4,1460,489,1,992,52,33580,0,65700,0,0,0,0,0
o,0x00000000,1720889285.072922,172.16.3.2,5101,172.16.1.2,27477,1073725440,14480,0,65728,65700,6,6,4,1460,489,1,993,52,33580,0,65700,0,0,0,0,0
i,0x00000000,1720889285.102067,172.16.3.2,5101,172.16.1.2,27477,1073725440,14480,0,65728,65700,6,6,4,1460,489,1,992,52,33580,0,65700,0,0,0,0,0
i,0x00000000,1720889285.107085,172.16.3.2,5101,172.16.1.2,27477,1073725440,14480,0,65728,65700,6,6,4,1460,489,1,992,52,33580,0,65700,0,0,0,0,0
o,0x00000000,1720889285.107126,172.16.3.2,5101,172.16.1.2,27477,1073725440,14480,0,65728,65700,6,6,4,1460,489,1,993,52,33580,0,65700,1448,0,0,0,0
i,0x00000000,1720889285.131957,172.16.3.2,5101,172.16.1.2,27477,1073725440,14480,0,65728,65700,6,6,4,1460,489,1,992,52,33580,0,65700,0,0,0,0,0
i,0x00000000,1720889285.154897,172.16.3.2,5101,172.16.1.2,27477,1073725440,14480,0,65728,65700,6,6,4,1460,489,1,992,52,33580,0,65700,0,0,0,0,0
o,0x00000000,1720889285.154934,172.16.3.2,5101,172.16.1.2,27477,1073725440,14480,0,65728,65700,6,6,4,1460,489,1,993,52,33580,0,65700,1448,0,0,0,0
i,0x00000000,1720889285.206273,172.16.3.2,5101,172.16.1.2,27477,1073725440,14480,0,65728,65700,6,6,4,1460,489,1,992,52,33580,0,65700,0,0,0,0,0
i,0x00000000,1720889285.215012,172.16.3.2,5101,172.16.1.2,27477,1073725440,14480,0,65728,65700,6,6,4,1460,489,1,992,52,33580,0,65700,0,0,0,0,0
o,0x00000000,1720889285.215049,172.16.3.2,5101,172.16.1.2,27477,1073725440,14480,0,65728,65700,6,6,4,1460,489,1,993,52,33580,0,65700,1448,0,0,0,0
i,0x00000000,1720889285.235208,172.16.3.2,5101,172.16.1.2,27477,1073725440,14480,0,65728,65700,6,6,4,1460,489,1,992,52,33580,0,65700,0,0,0,0,0
i,0x00000000,1720889285.255537,172.16.3.2,5101,172.16.1.2,27477,1073725440,14480,0,65728,65700,6,6,4,1460,489,1,992,52,33580,0,65700,0,0,0,0,0
o,0x00000000,1720889285.255569,172.16.3.2,5101,172.16.1.2,27477,1073725440,14480,0,65728,65700,6,6,4,1460,489,1,993,52,33580,0,65700,1448,0,0,0,0
i,0x00000000,1720889285.263474,172.16.3.2,5101,172.16.1.2,27477,1073725440,14480,0,65728,65700,6,6,4,1460,489,1,992,52,33580,0,65700,0,0,0,0,0
o,0x00000000,1720889285.304263,172.16.3.2,5101,172.16.1.2,27477,1073725440,14480,0,65728,65700,6,6,4,1460,489,1,993,52,33580,0,65700,0,0,0,0,0
i,0x00000000,1720889285.309454,172.16.3.2,5101,172.16.1.2,27477,1073725440,14480,0,65728,65700,6,6,4,1460,489,1,992,52,33580,0,65700,0,0,0,0,0
i,0x00000000,1720889285.315866,172.16.3.2,5101,172.16.1.2,27477,1073725440,14480,0,65728,65700,6,6,4,1460,489,1,992,52,33580,0,65700,0,0,0,0,0
o,0x00000000,1720889285.315908,172.16.3.2,5101,172.16.1.2,27477,1073725440,14480,0,65728,65700,6,6,4,1460,489,1,993,52,33580,0,65700,1448,0,0,0,0
i,0x00000000,1720889285.356412,172.16.3.2,5101,172.16.1.2,27477,1073725440,14480,0,65728,65700,6,6,4,1460,489,1,992,52,33580,0,65700,0,0,0,0,0
i,0x00000000,1720889285.363562,172.16.3.2,5101,172.16.1.2,27477,1073725440,14480,0,65728,65700,6,6,4,1460,489,1,992,52,33580,0,65700,0,0,0,0,0
o,0x00000000,1720889285.363585,172.16.3.2,5101,172.16.1.2,27477,1073725440,14480,0,65728,65700,6,6,4,1460,489,1,993,52,33580,0,65700,1448,0,0,0,0
o,0x00000000,1720889285.383747,10.0.2.15,22,10.0.2.2,57021,1073725440,14600,0,65535,65700,0,0,4,1460,1,0,4,24,33580,156,65700,0,0,0,0,0
i,0x00000000,1720889285.387866,10.0.2.15,22,10.0.2.2,57021,1073725440,14600,0,65535,65700,0,0,4,1460,1,0,4,24,33580,156,65700,0,156,0,0,0
i,0x00000000,1720889285.404571,172.16.3.2,5101,172.16.1.2,27477,1073725440,14480,0,65728,65700,6,6,4,1460,489,1,992,52,33580,0,65700,0,0,0,0,0
i,0x00000000,1720889285.414863,172.16.3.2,5101,172.16.1.2,27477,1073725440,14480,0,65728,65700,6,6,4,1460,489,1,992,52,33580,0,65700,0,0,0,0,0
o,0x00000000,1720889285.414895,172.16.3.2,5101,172.16.1.2,27477,1073725440,14480,0,65728,65700,6,6,4,1460,489,1,993,52,33580,0,65700,1448,0,0,0,0
i,0x00000000,1720889285.454469,172.16.3.2,5101,172.16.1.2,27477,1073725440,14480,0,65728,65700,6,6,4,1460,489,1,992,52,33580,0,65700,0,0,0,0,0
i,0x00000000,1720889285.479397,172.16.3.2,5101,172.16.1.2,27477,1073725440,14480,0,65728,65700,6,6,4,1460,489,1,992,52,33580,0,65700,0,0,0,0,0
o,0x00000000,1720889285.479446,172.16.3.2,5101,172.16.1.2,27477,1073725440,14480,0,65728,65700,6,6,4,1460,489,1,993,52,33580,0,65700,1448,0,0,0,0
i,0x00000000,1720889285.524705,172.16.3.2,5101,172.16.1.2,27477,1073725440,14480,0,65728,65700,6,6,4,1460,489,1,992,52,33580,0,65700,0,0,0,0,0
i,0x00000000,1720889285.536219,172.16.3.2,5101,172.16.1.2,27477,1073725440,14480,0,65728,65700,6,6,4,1460,489,1,992,52,33580,0,65700,0,0,0,0,0
o,0x00000000,1720889285.536277,172.16.3.2,5101,172.16.1.2,27477,1073725440,14480,0,65728,65700,6,6,4,1460,489,1,993,52,33580,0,65700,1448,0,0,0,0
i,0x00000000,1720889285.544288,172.16.3.2,5101,172.16.1.2,27477,1073725440,14480,0,65728,65700,6,6,4,1460,489,1,992,52,33580,0,65700,0,0,0,0,0
o,0x00000000,1720889285.583507,172.16.3.2,5101,172.16.1.2,27477,1073725440,14480,0,65728,65700,6,6,4,1460,489,1,993,52,33580,0,65700,0,0,0,0,0
i,0x00000000,1720889285.587878,172.16.3.2,5101,172.16.1.2,27477,1073725440,14480,0,65728,65700,6,6,4,1460,489,1,992,52,33580,0,65700,0,0,0,0,0
i,0x00000000,1720889285.595055,172.16.3.2,5101,172.16.1.2,27477,1073725440,14480,0,65728,65700,6,6,4,1460,489,1,992,52,33580,0,65700,0,0,0,0,0
o,0x00000000,1720889285.595090,172.16.3.2,5101,172.16.1.2,27477,1073725440,14480,0,65728,65700,6,6,4,1460,489,1,993,52,33580,0,65700,1448,0,0,0,0
i,0x00000000,1720889285.634412,172.16.3.2,5101,172.16.1.2,27477,1073725440,14480,0,65728,65700,6,6,4,1460,489,1,992,52,33580,0,65700,0,0,0,0,0
i,0x00000000,1720889285.649083,172.16.3.2,5101,172.16.1.2,27477,1073725440,14480,0,65728,65700,6,6,4,1460,489,1,992,52,33580,0,65700,0,0,0,0,0
o,0x00000000,1720889285.649122,172.16.3.2,5101,172.16.1.2,27477,1073725440,14480,0,65728,65700,6,6,4,1460,489,1,993,52,33580,0,65700,1448,0,0,0,0
i,0x00000000,1720889285.692503,172.16.3.2,5101,172.16.1.2,27477,1073725440,14480,0,65728,65700,6,6,4,1460,489,1,992,52,33580,0,65700,0,0,0,0,0
i,0x00000000,1720889285.707685,172.16.3.2,5101,172.16.1.2,27477,1073725440,14480,0,65728,65700,6,6,4,1460,489,1,992,52,33580,0,65700,0,0,0,0,0
o,0x00000000,1720889285.707722,172.16.3.2,5101,172.16.1.2,27477,1073725440,14480,0,65728,65700,6,6,4,1460,489,1,993,52,33580,0,65700,1448,0,0,0,0
i,0x00000000,1720889285.734405,172.16.3.2,5101,172.16.1.2,27477,1073725440,14480,0,65728,65700,6,6,4,1460,489,1,992,52,33580,0,65700,0,0,0,0,0
i,0x00000000,1720889285.744971,172.16.3.2,5101,172.16.1.2,27477,1073725440,14480,0,65728,65700,6,6,4,1460,489,1,992,52,33580,0,65700,0,0,0,0,0
o,0x00000000,1720889285.745007,172.16.3.2,5101,172.16.1.2,27477,1073725440,14480,0,65728,65700,6,6,4,1460,489,1,993,52,33580,0,65700,1448,0,0,0,0
i,0x00000000,1720889285.761254,172.16.3.2,5101,172.16.1.2,27477,1073725440,14480,0,65728,65700,6,6,4,1460,489,1,992,52,33580,0,65700,0,0,0,0,0
o,0x00000000,1720889285.793979,172.16.3.2,5101,172.16.1.2,27477,1073725440,14480,0,65728,65700,6,6,4,1460,489,1,993,52,33580,0,65700,0,0,0,0,0
i,0x00000000,1720889285.805409,172.16.3.2,5101,172.16.1.2,27477,1073725440,14480,0,65728,65700,6,6,4,1460,489,1,992,52,33580,0,65700,0,0,0,0,0
i,0x00000000,1720889285.815884,172.16.3.2,5101,172.16.1.2,27477,1073725440,14480,0,65728,65700,6,6,4,1460,489,1,992,52,33580,0,65700,0,0,0,0,0
o,0x00000000,1720889285.815924,172.16.3.2,5101,172.16.1.2,27477,1073725440,14480,0,65728,65700,6,6,4,1460,489,1,993,52,33580,0,65700,1448,0,0,0,0
i,0x00000000,1720889285.824065,172.16.3.2,5101,172.16.1.2,27477,1073725440,14480,0,65728,65700,6,6,4,1460,489,1,992,52,33580,0,65700,0,0,0,0,0
o,0x00000000,1720889285.863150,172.16.3.2,5101,172.16.1.2,27477,1073725440,14480,0,65728,65700,6,6,4,1460,489,1,993,52,33580,0,65700,0,0,0,0,0
i,0x00000000,1720889285.874926,172.16.3.2,5101,172.16.1.2,27477,1073725440,14480,0,65728,65700,6,6,4,1460,489,1,992,52,33580,0,65700,0,0,0,0,0
i,0x00000000,1720889285.904242,172.16.3.2,5101,172.16.1.2,27477,1073725440,14480,0,65728,65700,6,6,4,1460,489,1,992,52,33580,0,65700,0,0,0,0,0
o,0x00000000,1720889285.904361,172.16.3.2,5101,172.16.1.2,27477,1073725440,14480,0,65728,65700,6,6,4,1460,489,1,993,52,33580,0,65700,1448,0,0,0,0
i,0x00000000,1720889285.917430,172.16.3.2,5101,172.16.1.2,27477,1073725440,14480,0,65728,65700,6,6,4,1460,489,1,992,52,33580,0,65700,0,0,0,0,0
o,0x00000000,1720889285.952515,172.16.3.2,5101,172.16.1.2,27477,1073725440,14480,0,65728,65700,6,6,4,1460,489,1,993,52,33580,0,65700,0,0,0,0,0
i,0x00000000,1720889285.956846,172.16.3.2,5101,172.16.1.2,27477,1073725440,14480,0,65728,65700,6,6,4,1460,489,1,992,52,33580,0,65700,0,0,0,0,0
i,0x00000000,1720889285.964984,172.16.3.2,5101,172.16.1.2,27477,1073725440,14480,0,65728,65700,6,6,4,1460,489,1,992,52,33580,0,65700,0,0,0,0,0
o,0x00000000,1720889285.965020,172.16.3.2,5101,172.16.1.2,27477,1073725440,14480,0,65728,65700,6,6,4,1460,489,1,993,52,33580,0,65700,1448,0,0,0,0
i,0x00000000,1720889285.994576,172.16.3.2,5101,172.16.1.2,27477,1073725440,14480,0,65728,65700,6,6,4,1460,489,1,992,52,33580,0,65700,0,0,0,0,0
i,0x00000000,1720889286.034261,172.16.3.2,5101,172.16.1.2,27477,1073725440,14480,0,65728,65700,6,6,4,1460,489,1,992,52,33580,0,65700,0,0,0,0,0
o,0x00000000,1720889286.034292,172.16.3.2,5101,172.16.1.2,27477,1073725440,14480,0,65728,65700,6,6,4,1460,489,1,993,52,33580,0,65700,0,0,1,0,0
i,0x00000000,1720889286.053933,172.16.3.2,5101,172.16.1.2,27477,1073725440,14480,0,65728,65700,6,6,4,1460,489,1,992,52,33580,0,65700,0,0,1,0,0
o,0x00000000,1720889286.053955,172.16.3.2,5101,172.16.1.2,27477,1073725440,14480,0,65728,65728,6,6,4,1460,489,1,993,52,33580,0,65700,0,0,1,0,0
i,0x00000000,1720889286.062498,172.16.3.2,5101,172.16.1.2,27477,1073725440,14480,0,65728,65728,6,6,4,1460,489,1,992,52,33580,0,65700,0,0,1,0,0
o,0x00000000,1720889286.062516,172.16.3.2,5101,172.16.1.2,27477,1073725440,14480,0,65728,65728,6,6,4,1460,489,1,993,52,33580,0,65700,0,0,1,0,0
i,0x00000000,1720889286.075407,172.16.3.2,5101,172.16.1.2,27477,1073725440,14480,0,65728,65728,6,6,4,1460,489,1,992,52,33580,0,65700,0,0,1,0,0
o,0x00000000,1720889286.075431,172.16.3.2,5101,172.16.1.2,27477,1073725440,14480,0,65728,65728,6,6,4,1460,489,1,993,52,33580,0,65700,0,0,1,0,0
i,0x00000000,1720889286.113506,172.16.3.2,5101,172.16.1.2,27477,1073725440,14480,0,65728,65728,6,6,4,1460,489,1,992,52,33580,0,65700,0,0,1,0,0
o,0x00000000,1720889286.113540,172.16.3.2,5101,172.16.1.2,27477,1073725440,14480,0,65728,65728,6,6,4,1460,489,1,993,52,33580,0,65700,0,0,2,0,0
i,0x00000000,1720889286.165530,172.16.3.2,5101,172.16.1.2,27477,1073725440,14480,0,65728,65728,6,6,4,1460,489,1,992,52,33580,0,65700,0,0,2,0,0
o,0x00000000,1720889286.165563,172.16.3.2,5101,172.16.1.2,27477,1073725440,14480,0,65728,65728,6,6,4,1460,489,1,993,52,33580,0,65700,0,0,2,0,0
i,0x00000000,1720889286.175005,172.16.3.2,5101,172.16.1.2,27477,1073725440,14480,0,65728,65728,6,6,4,1460,489,1,992,52,33580,0,65700,0,0,2,0,0
o,0x00000000,1720889286.175049,172.16.3.2,5101,172.16.1.2,27477,1073725440,14480,0,65728,65728,6,6,4,1460,489,1,993,52,33580,0,65700,0,0,2,0,0
i,0x00000000,1720889286.183362,172.16.3.2,5101,172.16.1.2,27477,1073725440,14480,0,65728,65728,6,6,4,1460,489,1,992,52,33580,0,65700,0,0,2,0,0
o,0x00000000,1720889286.183392,172.16.3.2,5101,172.16.1.2,27477,1073725440,14480,0,65728,65728,6,6,4,1460,489,1,993,52,33580,0,65700,0,0,2,0,0
i,0x00000000,1720889286.244145,172.16.3.2,5101,172.16.1.2,27477,1073725440,14480,0,65728,65728,6,6,4,1460,489,1,992,52,33580,0,65700,0,0,2,0,0
o,0x00000000,1720889286.244189,172.16.3.2,5101,172.16.1.2,27477,1073725440,14480,0,65728,65728,6,6,4,1460,489,1,993,52,33580,0,65700,0,0,2,0,0
i,0x00000000,1720889286.261313,172.16.3.2,5101,172.16.1.2,27477,1073725440,14480,0,65728,65728,6,6,4,1460,489,1,992,52,33580,0,65700,0,0,2,0,0
o,0x00000000,1720889286.261327,172.16.3.2,5101,172.16.1.2,27477,1073725440,14480,0,65728,65728,6,6,4,1460,489,1,993,52,33580,0,65700,0,0,2,0,0
i,0x00000000,1720889286.290442,172.16.3.2,5101,172.16.1.2,27477,1073725440,14480,0,65728,65728,6,6,4,1460,489,1,992,52,33580,0,65700,0,0,2,0,0
o,0x00000000,1720889286.290477,172.16.3.2,5101,172.16.1.2,27477,1073725440,14480,0,65728,65728,6,6,4,1460,489,1,993,52,33580,0,65700,0,0,2,0,0
i,0x00000000,1720889286.312128,172.16.3.2,5101,172.16.1.2,27477,1073725440,14480,0,65728,65728,6,6,4,1460,489,1,992,52,33580,0,65700,0,0,2,0,0
o,0x00000000,1720889286.312142,172.16.3.2,5101,172.16.1.2,27477,1073725440,14480,0,65728,65728,6,6,4,1460,489,1,993,52,33580,0,65700,0,0,2,0,0
i,0x00000000,1720889286.325514,172.16.3.2,5101,172.16.1.2,27477,1073725440,14480,0,65728,65728,6,6,4,1460,489,1,992,52,33580,0,65700,0,0,2,0,0
o,0x00000000,1720889286.325531,172.16.3.2,5101,172.16.1.2,27477,1073725440,14480,0,65728,65728,6,6,4,1460,489,1,993,52,33580,0,65700,0,0,2,0,0
i,0x00000000,1720889286.336068,172.16.3.2,5101,172.16.1.2,27477,1073725440,14480,0,65728,65728,6,6,4,1460,489,1,992,52,33580,0,65700,0,0,2,0,0
o,0x00000000,1720889286.336106,172.16.3.2,5101,172.16.1.2,27477,1073725440,14480,0,65728,65728,6,6,4,1460,489,1,993,52,33580,0,65700,0,0,3,0,0
i,0x00000000,1720889286.365854,172.16.3.2,5101,172.16.1.2,27477,1073725440,14480,0,65728,65728,6,6,4,1460,489,1,992,52,33580,0,65700,0,0,3,0,0
o,0x00000000,1720889286.365899,172.16.3.2,5101,172.16.1.2,27477,1073725440,14480,0,65728,65728,6,6,4,1460,489,1,993,52,33580,0,65700,7240,0,2,0,0
i,0x00000000,1720889286.374379,172.16.3.2,5101,172.16.1.2,27477,1073725440,14480,0,65728,65728,6,6,4,1460,489,1,992,52,33580,0,65700,0,0,2,0,0
o,0x00000000,1720889286.374418,172.16.3.2,5101,172.16.1.2,27477,1073725440,14480,0,65728,65700,6,6,4,1460,489,1,993,52,33580,0,65700,14480,0,1,0,0
o,0x00000000,1720889286.382907,10.0.2.15,22,10.0.2.2,57021,1073725440,14600,0,65535,65700,0,0,4,1460,1,0,4,24,33580,108,65700,0,0,0,0,0
i,0x00000000,1720889286.386403,10.0.2.15,22,10.0.2.2,57021,1073725440,14600,0,65535,65700,0,0,4,1460,1,0,4,24,33580,108,65700,0,108,0,0,0
i,0x00000000,1720889286.408463,172.16.3.2,5101,172.16.1.2,27477,1073725440,14480,0,65728,65700,6,6,4,1460,489,1,992,52,33580,0,65700,0,0,1,0,0
o,0x00000000,1720889286.408501,172.16.3.2,5101,172.16.1.2,27477,1073725440,14480,0,65728,65700,6,6,4,1460,489,1,993,52,33580,0,65700,0,0,1,0,0
i,0x00000000,1720889286.414695,172.16.3.2,5101,172.16.1.2,27477,1073725440,14480,0,65728,65700,6,6,4,1460,489,1,992,52,33580,0,65700,0,0,1,0,0
o,0x00000000,1720889286.414721,172.16.3.2,5101,172.16.1.2,27477,1073725440,14480,0,65728,65728,6,6,4,1460,489,1,993,52,33580,0,65700,0,0,1,0,0
i,0x00000000,1720889286.461510,172.16.3.2,5101,172.16.1.2,27477,1073725440,14480,0,65728,65728,6,6,4,1460,489,1,992,52,33580,0,65700,0,0,1,0,0
o,0x00000000,1720889286.461521,172.16.3.2,5101,172.16.1.2,27477,1073725440,14480,0,65728,65728,6,6,4,1460,489,1,993,52,33580,0,65700,0,0,1,0,0
i,0x00000000,1720889286.504576,172.16.3.2,5101,172.16.1.2,27477,1073725440,14480,0,65728,65728,6,6,4,1460,489,1,992,52,33580,0,65700,0,0,1,0,0
o,0x00000000,1720889286.504632,172.16.3.2,5101,172.16.1.2,27477,1073725440,14480,0,65728,65728,6,6,4,1460,489,1,993,52,33580,0,65700,7240,0,0,0,0
i,0x00000000,1720889286.514688,172.16.3.2,5101,172.16.1.2,27477,1073725440,14480,0,65728,65728,6,6,4,1460,489,1,992,52,33580,0,65700,0,0,0,0,0
i,0x00000000,1720889286.532181,172.16.3.2,5101,172.16.1.2,27477,1073725440,14480,0,65728,65728,6,6,4,1460,489,1,992,52,33580,0,65700,0,0,0,0,0
o,0x00000000,1720889286.532201,172.16.3.2,5101,172.16.1.2,27477,1073725440,14480,0,65728,65728,6,6,4,1460,489,1,993,52,33580,0,65700,1448,0,0,0,0
i,0x00000000,1720889286.555700,172.16.3.2,5101,172.16.1.2,27477,1073725440,14480,0,65728,65728,6,6,4,1460,489,1,992,52,33580,0,65700,0,0,0,0,0
i,0x00000000,1720889286.575208,172.16.3.2,5101,172.16.1.2,27477,1073725440,14480,0,65728,65728,6,6,4,1460,489,1,992,52,33580,0,65700,0,0,0,0,0
o,0x00000000,1720889286.575253,172.16.3.2,5101,172.16.1.2,27477,1073725440,14480,0,65728,65728,6,6,4,1460,489,1,993,52,33580,0,65700,1448,0,0,0,0
i,0x00000000,1720889286.608359,172.16.3.2,5101,172.16.1.2,27477,1073725440,14480,0,65728,65728,6,6,4,1460,489,1,992,52,33580,0,65700,0,0,0,0,0
i,0x00000000,1720889286.623659,172.16.3.2,5101,172.16.1.2,27477,1073725440,14480,0,65728,65728,6,6,4,1460,489,1,992,52,33580,0,65700,0,0,0,0,0
o,0x00000000,1720889286.623698,172.16.3.2,5101,172.16.1.2,27477,1073725440,14480,0,65728,65728,6,6,4,1460,489,1,993,52,33580,0,65700,1448,0,0,0,0
i,0x00000000,1720889286.659494,172.16.3.2,5101,172.16.1.2,27477,1073725440,14480,0,65728,65728,6,6,4,1460,489,1,992,52,33580,0,65700,0,0,0,0,0
o,0x00000000,1720889286.692851,172.16.3.2,5101,172.16.1.2,27477,1073725440,14480,0,65728,65728,6,6,4,1460,489,1,993,52,33580,0,65700,0,0,0,0,0
i,0x00000000,1720889286.710664,172.16.3.2,5101,172.16.1.2,27477,1073725440,14480,0,65728,65728,6,6,4,1460,489,1,992,52,33580,0,65700,0,0,0,0,0
o,0x00000000,1720889286.743086,172.16.3.2,5101,172.16.1.2,27477,1073725440,14480,0,65728,65728,6,6,4,1460,489,1,993,52,33580,0,65700,0,0,0,0,0
i,0x00000000,1720889286.764361,172.16.3.2,5101,172.16.1.2,27477,1073725440,14480,0,65728,65728,6,6,4,1460,489,1,992,52,33580,0,65700,0,0,0,0,0
i,0x00000000,1720889286.769133,172.16.3.2,5101,172.16.1.2,27477,1073725440,14480,0,65728,65728,6,6,4,1460,489,1,992,52,33580,0,65700,0,0,0,0,0
o,0x00000000,1720889286.769163,172.16.3.2,5101,172.16.1.2,27477,1073725440,14480,0,65728,65728,6,6,4,1460,489,1,993,52,33580,0,65700,1448,0,0,0,0
i,0x00000000,1720889286.805211,172.16.3.2,5101,172.16.1.2,27477,1073725440,14480,0,65728,65728,6,6,4,1460,489,1,992,52,33580,0,65700,0,0,0,0,0
i,0x00000000,1720889286.839656,172.16.3.2,5101,172.16.1.2,27477,1073725440,14480,0,65728,65728,6,6,4,1460,489,1,992,52,33580,0,65700,0,0,0,0,0
o,0x00000000,1720889286.839707,172.16.3.2,5101,172.16.1.2,27477,1073725440,14480,0,65728,65728,6,6,4,1460,489,1,993,52,33580,0,65700,1448,0,0,0,0
i,0x00000000,1720889286.845934,172.16.3.2,5101,172.16.1.2,27477,1073725440,14480,0,65728,65728,6,6,4,1460,489,1,992,52,33580,0,65700,0,0,0,0,0
i,0x00000000,1720889286.845964,172.16.3.2,5101,172.16.1.2,27477,1073725440,14480,0,65728,65728,6,6,4,1460,489,1,992,52,33580,0,65700,1448,0,0,0,0
o,0x00000000,1720889286.845986,172.16.3.2,5101,172.16.1.2,27477,1073725440,14480,0,65728,65728,6,6,4,1460,489,1,993,52,33580,0,65700,2896,0,0,0,0
i,0x00000000,1720889286.863747,172.16.3.2,5101,172.16.1.2,27477,1073725440,14480,0,65728,65728,6,6,4,1460,489,1,992,52,33580,0,65700,0,0,0,0,0
o,0x00000000,1720889286.903854,172.16.3.2,5101,172.16.1.2,27477,1073725440,14480,0,65728,65728,6,6,4,1460,489,1,993,52,33580,0,65700,0,0,0,0,0
i,0x00000000,1720889286.913278,172.16.3.2,5101,172.16.1.2,27477,1073725440,14480,0,65728,65728,6,6,4,1460,489,1,992,52,33580,0,65700,0,0,0,0,0
i,0x00000000,1720889286.932466,172.16.3.2,5101,172.16.1.2,27477,1073725440,14480,0,65728,65728,6,6,4,1460,489,1,992,52,33580,0,65700,0,0,0,0,0
o,0x00000000,1720889286.932513,172.16.3.2,5101,172.16.1.2,27477,1073725440,14480,0,65728,65728,6,6,4,1460,489,1,993,52,33580,0,65700,1448,0,0,0,0
i,0x00000000,1720889286.943380,172.16.3.2,5101,172.16.1.2,27477,1073725440,14480,0,65728,65728,6,6,4,1460,489,1,992,52,33580,0,65700,0,0,0,0,0
o,0x00000000,1720889286.983484,172.16.3.2,5101,172.16.1.2,27477,1073725440,14480,0,65728,65728,6,6,4,1460,489,1,993,52,33580,0,65700,0,0,0,0,0
i,0x00000000,1720889287.003481,172.16.3.2,5101,172.16.1.2,27477,1073725440,14480,0,65728,65728,6,6,4,1460,489,1,992,52,33580,0,65700,0,0,0,0,0
i,0x00000000,1720889287.022034,172.16.3.2,5101,172.16.1.2,27477,1073725440,14480,0,65728,65728,6,6,4,1460,489,1,992,52,33580,0,65700,0,0,0,0,0
o,0x00000000,1720889287.022048,172.16.3.2,5101,172.16.1.2,27477,1073725440,14480,0,65728,65728,6,6,4,1460,489,1,993,52,33580,0,65700,1448,0,0,0,0
i,0x00000000,1720889287.053214,172.16.3.2,5101,172.16.1.2,27477,1073725440,14480,0,65728,65728,6,6,4,1460,489,1,992,52,33580,0,65700,0,0,0,0,0
i,0x00000000,1720889287.053321,172.16.3.2,5101,172.16.1.2,27477,1073725440,14480,0,65728,65728,6,6,4,1460,489,1,992,52,33580,0,65700,1448,0,0,0,0
o,0x00000000,1720889287.053339,172.16.3.2,5101,172.16.1.2,27477,1073725440,14480,0,65728,65728,6,6,4,1460,489,1,993,52,33580,0,65700,2896,0,0,0,0
i,0x00000000,1720889287.063236,172.16.3.2,5101,172.16.1.2,27477,1073725440,14480,0,65728,65728,6,6,4,1460,489,1,992,52,33580,0,65700,0,0,0,0,0
i,0x00000000,1720889287.103210,172.16.3.2,5101,172.16.1.2,27477,1073725440,14480,0,65728,65728,6,6,4,1460,489,1,992,52,33580,0,65700,0,0,0,0,0
o,0x00000000,1720889287.103250,172.16.3.2,5101,172.16.1.2,27477,1073725440,14480,0,65728,65728,6,6,4,1460,489,1,993,52,33580,0,65700,1448,0,0,0,0
i,0x00000000,1720889287.134565,172.16.3.2,5101,172.16.1.2,27477,1073725440,14480,0,65728,65728,6,6,4,1460,489,1,992,52,33580,0,65700,0,0,0,0,0
i,0x00000000,1720889287.149658,172.16.3.2,5101,172.16.1.2,27477,1073725440,14480,0,65728,65728,6,6,4,1460,489,1,992,52,33580,0,65700,0,0,0,0,0
o,0x00000000,1720889287.149707,172.16.3.2,5101,172.16.1.2,27477,1073725440,14480,0,65728,65728,6,6,4,1460,489,1,993,52,33580,0,65700,1448,0,0,0,0
i,0x00000000,1720889287.194040,172.16.3.2,5101,172.16.1.2,27477,1073725440,14480,0,65728,65728,6,6,4,1460,489,1,992,52,33580,0,65700,0,0,0,0,0
i,0x00000000,1720889287.223189,172.16.3.2,5101,172.16.1.2,27477,1073725440,14480,0,65728,65728,6,6,4,1460,489,1,992,52,33580,0,65700,0,0,0,0,0
o,0x00000000,1720889287.223238,172.16.3.2,5101,172.16.1.2,27477,1073725440,14480,0,65728,65728,6,6,4,1460,489,1,993,52,33580,0,65700,1448,0,0,0,0
i,0x00000000,1720889287.244657,172.16.3.2,5101,172.16.1.2,27477,1073725440,14480,0,65728,65728,6,6,4,1460,489,1,992,52,33580,0,65700,0,0,0,0,0
i,0x00000000,1720889287.274367,172.16.3.2,5101,172.16.1.2,27477,1073725440,14480,0,65728,65728,6,6,4,1460,489,1,992,52,33580,0,65700,0,0,0,0,0
o,0x00000000,1720889287.274420,172.16.3.2,5101,172.16.1.2,27477,1073725440,14480,0,65728,65728,6,6,4,1460,489,1,993,52,33580,0,65700,1448,0,0,0,0
i,0x00000000,1720889287.282985,172.16.3.2,5101,172.16.1.2,27477,1073725440,14480,0,65728,65728,6,6,4,1460,489,1,992,52,33580,0,65700,0,0,0,0,0
o,0x00000000,1720889287.322781,172.16.3.2,5101,172.16.1.2,27477,1073725440,14480,0,65728,65728,6,6,4,1460,489,1,993,52,33580,0,65700,0,0,0,0,0
i,0x00000000,1720889287.328899,172.16.3.2,5101,172.16.1.2,27477,1073725440,14480,0,65728,65728,6,6,4,1460,489,1,992,52,33580,0,65700,0,0,0,0,0
i,0x00000000,1720889287.333204,172.16.3.2,5101,172.16.1.2,27477,1073725440,14480,0,65728,65728,6,6,4,1460,489,1,992,52,33580,0,65700,0,0,0,0,0
o,0x00000000,1720889287.333236,172.16.3.2,5101,172.16.1.2,27477,1073725440,14480,0,65728,65728,6,6,4,1460,489,1,993,52,33580,0,65700,1448,0,0,0,0
i,0x00000000,1720889287.357858,172.16.3.2,5101,172.16.1.2,27477,1073725440,14480,0,65728,65728,6,6,4,1460,489,1,992,52,33580,0,65700,0,0,0,0,0
o,0x00000000,1720889287.383423,10.0.2.15,22,10.0.2.2,57021,1073725440,14600,0,65535,65700,0,0,4,1460,1,0,4,24,33580,108,65700,0,0,0,0,0
i,0x00000000,1720889287.387485,10.0.2.15,22,10.0.2.2,57021,1073725440,14600,0,65535,65700,0,0,4,1460,1,0,4,24,33580,108,65700,0,108,0,0,0
i,0x00000000,1720889287.392240,172.16.3.2,5101,172.16.1.2,27477,1073725440,14480,0,65728,65728,6,6,4,1460,489,1,992,52,33580,0,65700,0,0,0,0,0
o,0x00000000,1720889287.392274,172.16.3.2,5101,172.16.1.2,27477,1073725440,14480,0,65728,65728,6,6,4,1460,489,1,993,52,33580,0,65700,1448,0,0,0,0
i,0x00000000,1720889287.403151,172.16.3.2,5101,172.16.1.2,27477,1073725440,14480,0,65728,65728,6,6,4,1460,489,1,992,52,33580,0,65700,0,0,0,0,0
o,0x00000000,1720889287.444058,172.16.3.2,5101,172.16.1.2,27477,1073725440,14480,0,65728,65728,6,6,4,1460,489,1,993,52,33580,0,65700,0,0,0,0,0
i,0x00000000,1720889287.447422,172.16.3.2,5101,172.16.1.2,27477,1073725440,14480,0,65728,65728,6,6,4,1460,489,1,992,52,33580,0,65700,0,0,0,0,0
i,0x00000000,1720889287.461457,172.16.3.2,5101,172.16.1.2,27477,1073725440,14480,0,65728,65728,6,6,4,1460,489,1,992,52,33580,0,65700,0,0,0,0,0
o,0x00000000,1720889287.461510,172.16.3.2,5101,172.16.1.2,27477,1073725440,14480,0,65728,65728,6,6,4,1460,489,1,993,52,33580,0,65700,1448,0,0,0,0
i,0x00000000,1720889287.502305,172.16.3.2,5101,172.16.1.2,27477,1073725440,14480,0,65728,65728,6,6,4,1460,489,1,992,52,33580,0,65700,0,0,0,0,0
i,0x00000000,1720889287.535093,172.16.3.2,5101,172.16.1.2,27477,1073725440,14480,0,65728,65728,6,6,4,1460,489,1,992,52,33580,0,65700,0,0,0,0,0
o,0x00000000,1720889287.535129,172.16.3.2,5101,172.16.1.2,27477,1073725440,14480,0,65728,65728,6,6,4,1460,489,1,993,52,33580,0,65700,1448,0,0,0,0
i,0x00000000,1720889287.541494,172.16.3.2,5101,172.16.1.2,27477,1073725440,14480,0,65728,65728,6,6,4,1460,489,1,992,52,33580,0,65700,0,0,0,0,0
o,0x00000000,1720889287.573291,172.16.3.2,5101,172.16.1.2,27477,1073725440,14480,0,65728,65728,6,6,4,1460,489,1,993,52,33580,0,65700,0,0,0,0,0
i,0x00000000,1720889287.578616,172.16.3.2,5101,172.16.1.2,27477,1073725440,14480,0,65728,65728,6,6,4,1460,489,1,992,52,33580,0,65700,0,0,0,0,0
i,0x00000000,1720889287.581707,172.16.3.2,5101,172.16.1.2,27477,1073725440,14480,0,65728,65728,6,6,4,1460,489,1,992,52,33580,0,65700,0,0,0,0,0
o,0x00000000,1720889287.581739,172.16.3.2,5101,172.16.1.2,27477,1073725440,14480,0,65728,65728,6,6,4,1460,489,1,993,52,33580,0,65700,1448,0,0,0,0
i,0x00000000,1720889287.594071,172.16.3.2,5101,172.16.1.2,27477,1073725440,14480,0,65728,65728,6,6,4,1460,489,1,992,52,33580,0,65700,0,0,0,0,0
o,0x00000000,1720889287.633638,172.16.3.2,5101,172.16.1.2,27477,1073725440,14480,0,65728,65728,6,6,4,1460,489,1,993,52,33580,0,65700,0,0,0,0,0
i,0x00000000,1720889287.643476,172.16.3.2,5101,172.16.1.2,27477,1073725440,14480,0,65728,65728,6,6,4,1460,489,1,992,52,33580,0,65700,0,0,0,0,0
i,0x00000000,1720889287.653750,172.16.3.2,5101,172.16.1.2,27477,1073725440,14480,0,65728,65728,6,6,4,1460,489,1,992,52,33580,0,65700,0,0,0,0,0
o,0x00000000,1720889287.653775,172.16.3.2,5101,172.16.1.2,27477,1073725440,14480,0,65728,65728,6,6,4,1460,489,1,993,52,33580,0,65700,1448,0,0,0,0
i,0x00000000,1720889287.694942,172.16.3.2,5101,172.16.1.2,27477,1073725440,14480,0,65728,65728,6,6,4,1460,489,1,992,52,33580,0,65700,0,0,0,0,0
i,0x00000000,1720889287.703364,172.16.3.2,5101,172.16.1.2,27477,1073725440,14480,0,65728,65728,6,6,4,1460,489,1,992,52,33580,0,65700,0,0,0,0,0
o,0x00000000,1720889287.703398,172.16.3.2,5101,172.16.1.2,27477,1073725440,14480,0,65728,65728,6,6,4,1460,489,1,993,52,33580,0,65700,1448,0,0,0,0
i,0x00000000,1720889287.715248,172.16.3.2,5101,172.16.1.2,27477,1073725440,14480,0,65728,65728,6,6,4,1460,489,1,992,52,33580,0,65700,0,0,0,0,0
o,0x00000000,1720889287.753463,172.16.3.2,5101,172.16.1.2,27477,1073725440,14480,0,65728,65728,6,6,4,1460,489,1,993,52,33580,0,65700,0,0,0,0,0
i,0x00000000,1720889287.772023,172.16.3.2,5101,172.16.1.2,27477,1073725440,14480,0,65728,65728,6,6,4,1460,489,1,992,52,33580,0,65700,0,0,0,0,0
i,0x00000000,1720889287.798240,172.16.3.2,5101,172.16.1.2,27477,1073725440,14480,0,65728,65728,6,6,4,1460,489,1,992,52,33580,0,65700,0,0,0,0,0
o,0x00000000,1720889287.798286,172.16.3.2,5101,172.16.1.2,27477,1073725440,14480,0,65728,65728,6,6,4,1460,489,1,993,52,33580,0,65700,1448,0,0,0,0
i,0x00000000,1720889287.851168,172.16.3.2,5101,172.16.1.2,27477,1073725440,14480,0,65728,65728,6,6,4,1460,489,1,992,52,33580,0,65700,0,0,0,0,0
i,0x00000000,1720889287.855560,172.16.3.2,5101,172.16.1.2,27477,1073725440,14480,0,65728,65728,6,6,4,1460,489,1,992,52,33580,0,65700,0,0,0,0,0
o,0x00000000,1720889287.855601,172.16.3.2,5101,172.16.1.2,27477,1073725440,14480,0,65728,65728,6,6,4,1460,489,1,993,52,33580,0,65700,1448,0,0,0,0
i,0x00000000,1720889287.860425,172.16.3.2,5101,172.16.1.2,27477,1073725440,14480,0,65728,65728,6,6,4,1460,489,1,992,52,33580,0,65700,0,0,0,0,0
i,0x00000000,1720889287.870880,172.16.3.2,5101,172.16.1.2,27477,1073725440,14480,0,65728,65728,6,6,4,1460,489,1,992,52,33580,0,65700,0,0,0,0,0
o,0x00000000,1720889287.870916,172.16.3.2,5101,172.16.1.2,27477,1073725440,14480,0,65728,65728,6,6,4,1460,489,1,993,52,33580,0,65700,1448,0,0,0,0
i,0x00000000,1720889287.922259,172.16.3.2,5101,172.16.1.2,27477,1073725440,14480,0,65728,65728,6,6,4,1460,489,1,992,52,33580,0,65700,0,0,0,0,0
i,0x00000000,1720889287.934347,172.16.3.2,5101,172.16.1.2,27477,1073725440,14480,0,65728,65728,6,6,4,1460,489,1,992,52,33580,0,65700,0,0,0,0,0
o,0x00000000,1720889287.934389,172.16.3.2,5101,172.16.1.2,27477,1073725440,14480,0,65728,65728,6,6,4,1460,489,1,993,52,33580,0,65700,1448,0,0,0,0
i,0x00000000,1720889287.963991,172.16.3.2,5101,172.16.1.2,27477,1073725440,14480,0,65728,65728,6,6,4,1460,489,1,992,52,33580,0,65700,0,0,0,0,0
i,0x00000000,1720889287.985038,172.16.3.2,5101,172.16.1.2,27477,1073725440,14480,0,65728,65728,6,6,4,1460,489,1,992,52,33580,0,65700,0,0,0,0,0
o,0x00000000,1720889287.985073,172.16.3.2,5101,172.16.1.2,27477,1073725440,14480,0,65728,65728,6,6,4,1460,489,1,993,52,33580,0,65700,1448,0,0,0,0
i,0x00000000,1720889287.996996,172.16.3.2,5101,172.16.1.2,27477,1073725440,14480,0,65728,65728,6,6,4,1460,489,1,992,52,33580,0,65700,0,0,0,0,0
o,0x00000000,1720889288.032353,172.16.3.2,5101,172.16.1.2,27477,1073725440,14480,0,65728,65728,6,6,4,1460,489,1,993,52,33580,0,65700,0,0,0,0,0
i,0x00000000,1720889288.032900,172.16.3.2,5101,172.16.1.2,27477,1073725440,14480,0,65728,65728,6,6,4,1460,489,1,992,52,33580,0,65700,0,0,0,0,0
o,0x00000000,1720889288.074069,172.16.3.2,5101,172.16.1.2,27477,1073725440,14480,0,65728,65728,6,6,4,1460,489,1,993,52,33580,0,65700,0,0,0,0,0
i,0x00000000,1720889288.082909,172.16.3.2,5101,172.16.1.2,27477,1073725440,14480,0,65728,65728,6,6,4,1460,489,1,992,52,33580,0,65700,0,0,0,0,0
i,0x00000000,1720889288.100880,172.16.3.2,5101,172.16.1.2,27477,1073725440,14480,0,65728,65728,6,6,4,1460,489,1,992,52,33580,0,65700,0,0,0,0,0
o,0x00000000,1720889288.100924,172.16.3.2,5101,172.16.1.2,27477,1073725440,14480,0,65728,65728,6,6,4,1460,489,1,993,52,33580,0,65700,1448,0,0,0,0
i,0x00000000,1720889288.134283,172.16.3.2,5101,172.16.1.2,27477,1073725440,14480,0,65728,65728,6,6,4,1460,489,1,992,52,33580,0,65700,0,0,0,0,0
i,0x00000000,1720889288.142549,172.16.3.2,5101,172.16.1.2,27477,1073725440,14480,0,65728,65728,6,6,4,1460,489,1,992,52,33580,0,65700,0,0,0,0,0
o,0x00000000,1720889288.142601,172.16.3.2,5101,172.16.1.2,27477,1073725440,14480,0,65728,65728,6,6,4,1460,489,1,993,52,33580,0,65700,1448,0,0,0,0
i,0x00000000,1720889288.152213,172.16.3.2,5101,172.16.1.2,27477,1073725440,14480,0,65728,65728,6,6,4,1460,489,1,992,52,33580,0,65700,0,0,0,0,0
o,0x00000000,1720889288.193545,172.16.3.2,5101,172.16.1.2,27477,1073725440,14480,0,65728,65728,6,6,4,1460,489,1,993,52,33580,0,65700,0,0,0,0,0
i,0x00000000,1720889288.199263,172.16.3.2,5101,172.16.1.2,27477,1073725440,14480,0,65728,65728,6,6,4,1460,489,1,992,52,33580,0,65700,0,0,0,0,0
i,0x00000000,1720889288.206292,172.16.3.2,5101,172.16.1.2,27477,1073725440,14480,0,65728,65728,6,6,4,1460,489,1,992,52,33580,0,65700,0,0,0,0,0
o,0x00000000,1720889288.206326,172.16.3.2,5101,172.16.1.2,27477,1073725440,14480,0,65728,65728,6,6,4,1460,489,1,993,52,33580,0,65700,1448,0,0,0,0
i,0x00000000,1720889288.267354,172.16.3.2,5101,172.16.1.2,27477,1073725440,14480,0,65728,65728,6,6,4,1460,489,1,992,52,33580,0,65700,0,0,0,0,0
i,0x00000000,1720889288.267387,172.16.3.2,5101,172.16.1.2,27477,1073725440,14480,0,65728,65728,6,6,4,1460,489,1,992,52,33580,0,65700,1448,0,0,0,0
o,0x00000000,1720889288.267409,172.16.3.2,5101,172.16.1.2,27477,1073725440,14480,0,65728,65728,6,6,4,1460,489,1,993,52,33580,0,65700,2896,0,0,0,0
i,0x00000000,1720889288.273137,172.16.3.2,5101,172.16.1.2,27477,1073725440,14480,0,65728,65728,6,6,4,1460,489,1,992,52,33580,0,65700,0,0,0,0,0
i,0x00000000,1720889288.293635,172.16.3.2,5101,172.16.1.2,27477,1073725440,14480,0,65728,65728,6,6,4,1460,489,1,992,52,33580,0,65700,0,0,0,0,0
o,0x00000000,1720889288.293696,172.16.3.2,5101,172.16.1.2,27477,1073725440,14480,0,65728,65728,6,6,4,1460,489,1,993,52,33580,0,65700,1448,0,0,0,0
i,0x00000000,1720889288.329073,172.16.3.2,5101,172.16.1.2,27477,1073725440,14480,0,65728,65728,6,6,4,1460,489,1,992,52,33580,0,65700,0,0,0,0,0
i,0x00000000,1720889288.344572,172.16.3.2,5101,172.16.1.2,27477,1073725440,14480,0,65728,65728,6,6,4,1460,489,1,992,52,33580,0,65700,0,0,0,0,0
o,0x00000000,1720889288.344604,172.16.3.2,5101,172.16.1.2,27477,1073725440,14480,0,65728,65728,6,6,4,1460,489,1,993,52,33580,0,65700,1448,0,0,0,0
i,0x00000000,1720889288.380096,172.16.3.2,5101,172.16.1.2,27477,1073725440,14480,0,65728,65728,6,6,4,1460,489,1,992,52,33580,0,65700,0,0,0,0,0
o,0x00000000,1720889288.382792,10.0.2.15,22,10.0.2.2,57021,1073725440,14600,0,65535,65700,0,0,4,1460,1,0,4,24,33580,108,65700,0,0,0,0,0
i,0x00000000,1720889288.385797,10.0.2.15,22,10.0.2.2,57021,1073725440,14600,0,65535,65700,0,0,4,1460,1,0,4,24,33580,108,65700,0,108,0,0,0
o,0x00000000,1720889288.413556,172.16.3.2,5101,172.16.1.2,27477,1073725440,14480,0,65728,65728,6,6,4,1460,489,1,993,52,33580,0,65700,0,0,0,0,0
i,0x00000000,1720889288.418489,172.16.3.2,5101,172.16.1.2,27477,1073725440,14480,0,65728,65728,6,6,4,1460,489,1,992,52,33580,0,65700,0,0,0,0,0
o,0x00000000,1720889288.418524,172.16.3.2,5101,172.16.1.2,27477,1073725440,14480,0,65728,65728,6,6,4,1460,489,1,993,52,33580,0,65700,0,0,1,0,0
i,0x00000000,1720889288.424090,172.16.3.2,5101,172.16.1.2,27477,1073725440,14480,0,65728,65728,6,6,4,1460,489,1,992,52,33580,0,65700,0,0,1,0,0
o,0x00000000,1720889288.424118,172.16.3.2,5101,172.16.1.2,27477,1073725440,14480,0,65728,65728,6,6,4,1460,489,1,993,52,33580,0,65700,0,0,1,0,0
i,0x00000000,1720889288.470400,172.16.3.2,5101,172.16.1.2,27477,1073725440,14480,0,65728,65728,6,6,4,1460,489,1,992,52,33580,0,65700,0,0,1,0,0
o,0x00000000,1720889288.470424,172.16.3.2,5101,172.16.1.2,27477,1073725440,14480,0,65728,65728,6,6,4,1460,489,1,993,52,33580,0,65700,0,0,1,0,0
i,0x00000000,1720889288.475452,172.16.3.2,5101,172.16.1.2,27477,1073725440,14480,0,65728,65728,6,6,4,1460,489,1,992,52,33580,0,65700,0,0,1,0,0
o,0x00000000,1720889288.475488,172.16.3.2,5101,172.16.1.2,27477,1073725440,14480,0,65728,65728,6,6,4,1460,489,1,993,52,33580,0,65700,0,0,1,0,0
i,0x00000000,1720889288.517850,172.16.3.2,5101,172.16.1.2,27477,1073725440,14480,0,65728,65728,6,6,4,1460,489,1,992,52,33580,0,65700,0,0,1,0,0
o,0x00000000,1720889288.517874,172.16.3.2,5101,172.16.1.2,27477,1073725440,14480,0,65728,65728,6,6,4,1460,489,1,993,52,33580,0,65700,0,0,2,0,0
i,0x00000000,1720889288.559822,172.16.3.2,5101,172.16.1.2,27477,1073725440,14480,0,65728,65728,6,6,4,1460,489,1,992,52,33580,0,65700,0,0,2,0,0
o,0x00000000,1720889288.559857,172.16.3.2,5101,172.16.1.2,27477,1073725440,14480,0,65728,65728,6,6,4,1460,489,1,993,52,33580,0,65700,0,0,2,0,0
i,0x00000000,1720889288.564705,172.16.3.2,5101,172.16.1.2,27477,1073725440,14480,0,65728,65728,6,6,4,1460,489,1,992,52,33580,0,65700,0,0,2,0,0
o,0x00000000,1720889288.564735,172.16.3.2,5101,172.16.1.2,27477,1073725440,14480,0,65728,65728,6,6,4,1460,489,1,993,52,33580,0,65700,0,0,2,0,0
i,0x00000000,1720889288.602959,172.16.3.2,5101,172.16.1.2,27477,1073725440,14480,0,65728,65728,6,6,4,1460,489,1,992,52,33580,0,65700,0,0,2,0,0
o,0x00000000,1720889288.602994,172.16.3.2,5101,172.16.1.2,27477,1073725440,14480,0,65728,65728,6,6,4,1460,489,1,993,52,33580,0,65700,0,0,2,0,0
i,0x00000000,1720889288.622126,172.16.3.2,5101,172.16.1.2,27477,1073725440,14480,0,65728,65728,6,6,4,1460,489,1,992,52,33580,0,65700,0,0,2,0,0
o,0x00000000,1720889288.622165,172.16.3.2,5101,172.16.1.2,27477,1073725440,14480,0,65728,65728,6,6,4,1460,489,1,993,52,33580,0,65700,0,0,2,0,0
i,0x00000000,1720889288.644137,172.16.3.2,5101,172.16.1.2,27477,1073725440,14480,0,65728,65728,6,6,4,1460,489,1,992,52,33580,0,65700,0,0,2,0,0
o,0x00000000,1720889288.644175,172.16.3.2,5101,172.16.1.2,27477,1073725440,14480,0,65728,65728,6,6,4,1460,489,1,993,52,33580,0,65700,0,0,2,0,0
i,0x00000000,1720889288.651914,172.16.3.2,5101,172.16.1.2,27477,1073725440,14480,0,65728,65728,6,6,4,1460,489,1,992,52,33580,0,65700,0,0,2,0,0
o,0x00000000,1720889288.651944,172.16.3.2,5101,172.16.1.2,27477,1073725440,14480,0,65728,65728,6,6,4,1460,489,1,993,52,33580,0,65700,0,0,2,0,0
i,0x00000000,1720889288.660552,172.16.3.2,5101,172.16.1.2,27477,1073725440,14480,0,65728,65728,6,6,4,1460,489,1,992,52,33580,0,65700,0,0,2,0,0
o,0x00000000,1720889288.660571,172.16.3.2,5101,172.16.1.2,27477,1073725440,14480,0,65728,65728,6,6,4,1460,489,1,993,52,33580,0,65700,0,0,2,0,0
i,0x00000000,1720889288.696730,172.16.3.2,5101,172.16.1.2,27477,1073725440,14480,0,65728,65728,6,6,4,1460,489,1,992,52,33580,0,65700,0,0,2,0,0
o,0x00000000,1720889288.696771,172.16.3.2,5101,172.16.1.2,27477,1073725440,14480,0,65728,65728,6,6,4,1460,489,1,993,52,33580,0,65700,0,0,2,0,0
i,0x00000000,1720889288.701363,172.16.3.2,5101,172.16.1.2,27477,1073725440,14480,0,65728,65728,6,6,4,1460,489,1,992,52,33580,0,65700,0,0,2,0,0
o,0x00000000,1720889288.701395,172.16.3.2,5101,172.16.1.2,27477,1073725440,14480,0,65728,65728,6,6,4,1460,489,1,993,52,33580,0,65700,0,0,2,0,0
i,0x00000000,1720889288.726905,172.16.3.2,5101,172.16.1.2,27477,1073725440,14480,0,65728,65728,6,6,4,1460,489,1,992,52,33580,0,65700,0,0,2,0,0
o,0x00000000,1720889288.726948,172.16.3.2,5101,172.16.1.2,27477,1073725440,14480,0,65728,65728,6,6,4,1460,489,1,993,52,33580,0,65700,0,0,1,0,0
i,0x00000000,1720889288.758188,172.16.3.2,5101,172.16.1.2,27477,1073725440,14480,0,65728,65728,6,6,4,1460,489,1,992,52,33580,0,65700,0,0,1,0,0
o,0x00000000,1720889288.758234,172.16.3.2,5101,172.16.1.2,27477,1073725440,14480,0,65728,65728,6,6,4,1460,489,1,993,52,33580,0,65700,0,0,1,0,0
i,0x00000000,1720889288.783798,172.16.3.2,5101,172.16.1.2,27477,1073725440,14480,0,65728,65728,6,6,4,1460,489,1,992,52,33580,0,65700,0,0,1,0,0
o,0x00000000,1720889288.783843,172.16.3.2,5101,172.16.1.2,27477,1073725440,14480,0,65728,65728,6,6,4,1460,489,1,993,52,33580,0,65700,0,0,1,0,0
i,0x00000000,1720889288.793466,172.16.3.2,5101,172.16.1.2,27477,1073725440,14480,0,65728,65728,6,6,4,1460,489,1,992,52,33580,0,65700,0,0,1,0,0
o,0x00000000,1720889288.793498,172.16.3.2,5101,172.16.1.2,27477,1073725440,14480,0,65728,65728,6,6,4,1460,489,1,993,52,33580,0,65700,0,0,1,0,0
i,0x00000000,1720889288.869705,172.16.3.2,5101,172.16.1.2,27477,1073725440,14480,0,65728,65728,6,6,4,1460,489,1,992,52,33580,0,65700,0,0,1,0,0
o,0x00000000,1720889288.869735,172.16.3.2,5101,172.16.1.2,27477,1073725440,14480,0,65728,65728,6,6,4,1460,489,1,993,52,33580,0,65700,0,0,1,0,0
i,0x00000000,1720889288.872968,172.16.3.2,5101,172.16.1.2,27477,1073725440,14480,0,65728,65728,6,6,4,1460,489,1,992,52,33580,0,65700,0,0,1,0,0
o,0x00000000,1720889288.872989,172.16.3.2,5101,172.16.1.2,27477,1073725440,14480,0,65728,65728,6,6,4,1460,489,1,993,52,33580,0,65700,0,0,1,0,0
i,0x00000000,1720889288.883604,172.16.3.2,5101,172.16.1.2,27477,1073725440,14480,0,65728,65728,6,6,4,1460,489,1,992,52,33580,0,65700,0,0,1,0,0
o,0x00000000,1720889288.883641,172.16.3.2,5101,172.16.1.2,27477,1073725440,14480,0,65728,65728,6,6,4,1460,489,1,993,52,33580,0,65700,0,0,1,0,0
i,0x00000000,1720889288.892420,172.16.3.2,5101,172.16.1.2,27477,1073725440,14480,0,65728,65728,6,6,4,1460,489,1,992,52,33580,0,65700,0,0,1,0,0
o,0x00000000,1720889288.892449,172.16.3.2,5101,172.16.1.2,27477,1073725440,14480,0,65728,65728,6,6,4,1460,489,1,993,52,33580,0,65700,0,0,1,0,0
i,0x00000000,1720889288.945177,172.16.3.2,5101,172.16.1.2,27477,1073725440,14480,0,65728,65728,6,6,4,1460,489,1,992,52,33580,0,65700,0,0,1,0,0
o,0x00000000,1720889288.945210,172.16.3.2,5101,172.16.1.2,27477,1073725440,14480,0,65728,65728,6,6,4,1460,489,1,993,52,33580,0,65700,0,0,1,0,0
i,0x00000000,1720889288.954486,172.16.3.2,5101,172.16.1.2,27477,1073725440,14480,0,65728,65728,6,6,4,1460,489,1,992,52,33580,0,65700,0,0,1,0,0
o,0x00000000,1720889288.954517,172.16.3.2,5101,172.16.1.2,27477,1073725440,14480,0,65728,65728,6,6,4,1460,489,1,993,52,33580,0,65700,0,0,1,0,0
i,0x00000000,1720889289.000439,172.16.3.2,5101,172.16.1.2,27477,1073725440,14480,0,65728,65728,6,6,4,1460,489,1,992,52,33580,0,65700,0,0,1,0,0
o,0x00000000,1720889289.000474,172.16.3.2,5101,172.16.1.2,27477,1073725440,14480,0,65728,65728,6,6,4,1460,489,1,993,52,33580,0,65700,0,0,1,0,0
i,0x00000000,1720889289.042846,172.16.3.2,5101,172.16.1.2,27477,1073725440,14480,0,65728,65728,6,6,4,1460,489,1,992,52,33580,0,65700,0,0,1,0,0
o,0x00000000,1720889289.042869,172.16.3.2,5101,172.16.1.2,27477,1073725440,14480,0,65728,65728,6,6,4,1460,489,1,993,52,33580,0,65700,0,0,1,0,0
i,0x00000000,1720889289.059195,172.16.3.2,5101,172.16.1.2,27477,1073725440,14480,0,65728,65728,6,6,4,1460,489,1,992,52,33580,0,65700,0,0,1,0,0
o,0x00000000,1720889289.059237,172.16.3.2,5101,172.16.1.2,27477,1073725440,14480,0,65728,65728,6,6,4,1460,489,1,993,52,33580,0,65700,0,0,1,0,0
i,0x00000000,1720889289.071279,172.16.3.2,5101,172.16.1.2,27477,1073725440,14480,0,65728,65728,6,6,4,1460,489,1,992,52,33580,0,65700,0,0,1,0,0
o,0x00000000,1720889289.071319,172.16.3.2,5101,172.16.1.2,27477,1073725440,14480,0,65728,65728,6,6,4,1460,489,1,993,52,33580,0,65700,0,0,1,0,0
i,0x00000000,1720889289.102137,172.16.3.2,5101,172.16.1.2,27477,1073725440,14480,0,65728,65728,6,6,4,1460,489,1,992,52,33580,0,65700,0,0,1,0,0
o,0x00000000,1720889289.102178,172.16.3.2,5101,172.16.1.2,27477,1073725440,14480,0,65728,65728,6,6,4,1460,489,1,993,52,33580,0,65700,0,0,1,0,0
i,0x00000000,1720889289.124544,172.16.3.2,5101,172.16.1.2,27477,1073725440,14480,0,65728,65728,6,6,4,1460,489,1,992,52,33580,0,65700,0,0,1,0,0
o,0x00000000,1720889289.124586,172.16.3.2,5101,172.16.1.2,27477,1073725440,14480,0,65728,65728,6,6,4,1460,489,1,993,52,33580,0,65700,0,0,1,0,0
i,0x00000000,1720889289.153281,172.16.3.2,5101,172.16.1.2,27477,1073725440,14480,0,65728,65728,6,6,4,1460,489,1,992,52,33580,0,65700,0,0,1,0,0
o,0x00000000,1720889289.153335,172.16.3.2,5101,172.16.1.2,27477,1073725440,14480,0,65728,65728,6,6,4,1460,489,1,993,52,33580,0,65700,0,0,1,0,0
i,0x00000000,1720889289.182196,172.16.3.2,5101,172.16.1.2,27477,1073725440,14480,0,65728,65728,6,6,4,1460,489,1,992,52,33580,0,65700,0,0,1,0,0
o,0x00000000,1720889289.182230,172.16.3.2,5101,172.16.1.2,27477,1073725440,14480,0,65728,65728,6,6,4,1460,489,1,993,52,33580,0,65700,0,0,1,0,0
i,0x00000000,1720889289.255152,172.16.3.2,5101,172.16.1.2,27477,1073725440,14480,0,65728,65728,6,6,4,1460,489,1,992,52,33580,0,65700,0,0,1,0,0
o,0x00000000,1720889289.255213,172.16.3.2,5101,172.16.1.2,27477,1073725440,14480,0,65728,65728,6,6,4,1460,489,1,993,52,33580,0,65700,47784,0,0,0,0
i,0x00000000,1720889289.257463,172.16.3.2,5101,172.16.1.2,27477,1073725440,14480,0,65728,65728,6,6,4,1460,489,1,992,52,33580,0,65700,47784,0,0,0,0
o,0x00000000,1720889289.257482,172.16.3.2,5101,172.16.1.2,27477,1073725440,14480,0,65728,17984,6,6,4,1460,489,1,993,52,33580,0,65700,47784,0,0,0,0
o,0x00000000,1720889289.258265,172.16.3.2,5101,172.16.1.2,27477,1073725440,14480,0,65728,17984,6,6,4,1460,489,1,992,52,33580,0,65700,11528,0,0,0,0
i,0x00000000,1720889289.374540,172.16.3.2,5101,172.16.1.2,27477,1073725440,14480,0,65728,17984,6,6,4,1460,489,1,992,52,33580,0,65700,0,0,0,0,0
i,0x00000000,1720889289.382684,172.16.3.2,5101,172.16.1.2,27477,1073725440,14480,0,65728,17984,6,6,4,1460,489,1,992,52,33580,0,65700,0,0,0,0,0
o,0x00000000,1720889289.382714,172.16.3.2,5101,172.16.1.2,27477,1073725440,14480,0,65728,17984,6,6,4,1460,489,1,993,52,33580,0,65700,1448,0,0,0,0
o,0x00000000,1720889289.383566,10.0.2.15,22,10.0.2.2,57021,1073725440,14600,0,65535,65700,0,0,4,1460,1,0,4,24,33580,108,65700,0,0,0,0,0
i,0x00000000,1720889289.385355,10.0.2.15,22,10.0.2.2,57021,1073725440,14600,0,65535,65700,0,0,4,1460,1,0,4,24,33580,108,65700,0,108,0,0,0
i,0x00000000,1720889289.513044,172.16.3.2,5101,172.16.1.2,27477,1073725440,14480,0,65728,17984,6,6,4,1460,489,1,992,52,33580,0,65700,0,0,0,0,0
i,0x00000000,1720889289.523417,172.16.3.2,5101,172.16.1.2,27477,1073725440,14480,0,65728,17984,6,6,4,1460,489,1,992,52,33580,0,65700,0,0,0,0,0
o,0x00000000,1720889289.523469,172.16.3.2,5101,172.16.1.2,27477,1073725440,14480,0,65728,17984,6,6,4,1460,489,1,993,52,33580,0,65700,1448,0,0,0,0
i,0x00000000,1720889289.540697,172.16.3.2,5101,172.16.1.2,27477,1073725440,14480,0,65728,17984,6,6,4,1460,489,1,992,52,33580,0,65700,0,0,0,0,0
o,0x00000000,1720889289.572972,172.16.3.2,5101,172.16.1.2,27477,1073725440,14480,0,65728,17984,6,6,4,1460,489,1,993,52,33580,0,65700,0,0,0,0,0
i,0x00000000,1720889289.673150,172.16.3.2,5101,172.16.1.2,27477,1073725440,14480,0,65728,17984,6,6,4,1460,489,1,992,52,33580,0,65700,0,0,0,0,0
i,0x00000000,1720889289.682216,172.16.3.2,5101,172.16.1.2,27477,1073725440,14480,0,65728,17984,6,6,4,1460,489,1,992,52,33580,0,65700,0,0,0,0,0
o,0x00000000,1720889289.682266,172.16.3.2,5101,172.16.1.2,27477,1073725440,14480,0,65728,17984,6,6,4,1460,489,1,993,52,33580,0,65700,1448,0,0,0,0
i,0x00000000,1720889289.711108,172.16.3.2,5101,172.16.1.2,27477,1073725440,14480,0,65728,17984,6,6,4,1460,489,1,992,52,33580,0,65700,0,0,0,0,0
i,0x00000000,1720889289.732264,172.16.3.2,5101,172.16.1.2,27477,1073725440,14480,0,65728,17984,6,6,4,1460,489,1,992,52,33580,0,65700,0,0,0,0,0
