enable_time_secs=1720890090	enable_time_usecs=797499	siftrver=1.2.4	hz=100	tcp_rtt_scale=32	sysname=FreeBSD	sysver=1301000	ipmode=4
o,0x00000000,1720890090.797540,10.0.2.15,22,10.0.2.2,51028,1073725440,17770,0,65535,65700,0,0,4,1460,1,0,4,24,33580,44,65700,0,0,0,0,0
o,0x00000000,1720890090.797697,10.0.2.15,22,10.0.2.2,51028,1073725440,17770,0,65535,65700,0,0,4,1460,1,0,4,24,33580,80,65700,0,44,0,0,0
i,0x00000000,1720890090.798295,10.0.2.15,22,10.0.2.2,51028,1073725440,17770,0,65535,65700,0,0,4,1460,1,0,4,24,33580,80,65700,0,80,0,0,0
i,0x00000000,1720890090.798602,10.0.2.15,22,10.0.2.2,51028,1073725440,17814,0,65535,65700,0,0,4,1460,1,0,4,24,33580,36,65700,0,36,0,0,0
o,0x00000000,1720890090.798708,10.0.2.15,22,10.0.2.2,51028,1073725440,17850,0,65535,65700,0,0,4,1460,1,0,4,24,33580,36,65700,0,0,0,0,0
i,0x00000000,1720890090.799239,10.0.2.15,22,10.0.2.2,51028,1073725440,17850,0,65535,65700,0,0,4,1460,1,0,4,24,33580,36,65700,0,36,0,0,0
o,0x00000000,1720890090.799406,10.0.2.15,22,10.0.2.2,51028,1073725440,17886,0,65535,65700,0,0,4,1460,1,0,4,24,33580,104,65700,0,0,0,0,0
i,0x00000000,1720890090.800126,10.0.2.15,22,10.0.2.2,51028,1073725440,17886,0,65535,65700,0,0,4,1460,1,0,4,24,33580,104,65700,0,104,0,0,0
o,0x00000000,1720890090.800243,10.0.2.15,22,10.0.2.2,51028,1073725440,17990,0,65535,65700,0,0,4,1460,1,0,4,24,33580,72,65700,0,0,0,0,0
i,0x00000000,1720890090.801411,10.0.2.15,22,10.0.2.2,51028,1073725440,17990,0,65535,65700,0,0,4,1460,1,0,4,24,33580,72,65700,0,72,0,0,0
i,0x00000000,1720890090.801415,10.0.2.15,22,10.0.2.2,51028,1073725440,18062,0,65535,65700,0,0,4,1460,1,0,4,23,33580,0,65700,0,0,0,0,0
i,0x00000000,1720890090.801417,10.0.2.15,22,10.0.2.2,51028,1073725440,18062,0,65535,65700,0,0,4,1460,1,0,4,23,33580,0,65700,96,0,0,0,0
o,0x00000000,1720890090.801420,10.0.2.15,22,10.0.2.2,51028,1073725440,18062,0,65535,65604,0,0,5,1460,1,0,5,23,33580,0,65700,96,0,0,0,0
o,0x00000000,1720890090.802053,10.0.2.15,22,10.0.2.2,51028,1073725440,18062,0,65535,65604,0,0,8,1460,1,0,4,23,33580,0,65700,0,0,0,0,0
i,0x00000000,1720890090.802736,10.0.2.15,22,10.0.2.2,51028,1073725440,18062,0,65535,65604,0,0,8,1460,1,0,20,23,33580,0,65700,0,1,0,0,0
i,0x00000000,1720890092.907890,10.0.2.15,22,10.0.2.2,51040,1073725440,14600,0,65535,65700,0,0,4,1460,1,0,0,27,33580,0,65700,0,0,0,0,0
o,0x00000000,1720890092.913553,10.0.2.15,22,10.0.2.2,51040,1073725440,14600,0,65535,65700,0,0,4,1460,1,0,0,27,33580,38,65700,42,0,0,0,0
i,0x00000000,1720890092.915371,10.0.2.15,22,10.0.2.2,51040,1073725440,14600,0,65535,65700,0,0,4,1460,1,0,0,27,33580,38,65700,0,38,0,0,0
i,0x00000000,1720890092.915384,10.0.2.15,22,10.0.2.2,51040,1073725440,14638,0,65535,65700,0,0,4,1460,1,0,0,23,33580,0,65700,0,0,0,0,0
i,0x00000000,1720890092.915387,10.0.2.15,22,10.0.2.2,51040,1073725440,14638,0,65535,65700,0,0,4,1460,1,0,0,23,33580,0,65700,1460,0,0,0,0
o,0x00000000,1720890092.915394,10.0.2.15,22,10.0.2.2,51040,1073725440,14638,0,65535,65700,0,0,4,1460,1,0,1,23,33580,0,65700,1536,0,0,0,0
o,0x00000000,1720890092.917179,10.0.2.15,22,10.0.2.2,51040,1073725440,14638,0,65535,65700,0,0,4,1460,1,0,0,23,33580,1056,65700,1536,0,0,0,0
i,0x00000000,1720890092.918709,10.0.2.15,22,10.0.2.2,51040,1073725440,14638,0,65535,65700,0,0,4,1460,1,0,0,23,33580,1056,65700,1536,1056,0,0,0
i,0x00000000,1720890092.919859,10.0.2.15,22,10.0.2.2,51040,1073725440,15694,0,65535,65700,0,0,4,1460,1,0,0,24,33580,0,65700,0,0,0,0,0
o,0x00000000,1720890092.924542,10.0.2.15,22,10.0.2.2,51040,1073725440,15694,0,65535,65700,0,0,4,1460,1,0,0,24,33580,484,65700,0,0,0,0,0
i,0x00000000,1720890092.925364,10.0.2.15,22,10.0.2.2,51040,1073725440,15694,0,65535,65700,0,0,4,1460,1,0,0,24,33580,484,65700,0,484,0,0,0
i,0x00000000,1720890092.929450,10.0.2.15,22,10.0.2.2,51040,1073725440,16178,0,65535,65700,0,0,4,1460,1,0,0,24,33580,0,65700,0,0,0,0,0
i,0x00000000,1720890092.929456,10.0.2.15,22,10.0.2.2,51040,1073725440,16178,0,65535,65700,0,0,4,1460,1,0,0,24,33580,0,65700,16,0,0,0,0
o,0x00000000,1720890092.929459,10.0.2.15,22,10.0.2.2,51040,1073725440,16178,0,65535,65700,0,0,4,1460,1,0,1,24,33580,0,65700,60,0,0,0,0
o,0x00000000,1720890092.929653,10.0.2.15,22,10.0.2.2,51040,1073725440,16178,0,65535,65700,0,0,4,1460,1,0,0,24,33580,44,65700,0,0,0,0,0
i,0x00000000,1720890092.930744,10.0.2.15,22,10.0.2.2,51040,1073725440,16178,0,65535,65700,0,0,4,1460,1,0,0,24,33580,44,65700,0,44,0,0,0
i,0x00000000,1720890092.930750,10.0.2.15,22,10.0.2.2,51040,1073725440,16222,0,65535,65700,0,0,4,1460,1,0,0,24,33580,0,65700,0,0,0,0,0
o,0x00000000,1720890092.940499,10.0.2.15,22,10.0.2.2,51040,1073725440,16222,0,65535,65700,0,0,4,1460,1,0,0,24,33580,68,65700,0,0,0,0,0
i,0x00000000,1720890092.944952,10.0.2.15,22,10.0.2.2,51040,1073725440,16222,0,65535,65700,0,0,4,1460,1,0,0,24,33580,68,65700,0,68,0,0,0
i,0x00000000,1720890092.944959,10.0.2.15,22,10.0.2.2,51040,1073725440,16290,0,65535,65700,0,0,4,1460,1,0,0,23,33580,0,65700,0,0,0,0,0
o,0x00000000,1720890092.945333,10.0.2.15,22,10.0.2.2,51040,1073725440,16290,0,65535,65700,0,0,4,1460,1,0,0,23,33580,332,65700,0,0,0,0,0
i,0x00000000,1720890092.946137,10.0.2.15,22,10.0.2.2,51040,1073725440,16290,0,65535,65700,0,0,4,1460,1,0,0,23,33580,332,65700,0,332,0,0,0
i,0x00000000,1720890092.947419,10.0.2.15,22,10.0.2.2,51040,1073725440,16622,0,65535,65700,0,0,4,1460,1,0,0,23,33580,0,65700,0,0,0,0,0
o,0x00000000,1720890092.965682,10.0.2.15,22,10.0.2.2,51040,1073725440,16622,0,65535,65700,0,0,4,1460,1,0,0,23,33580,28,65700,0,0,0,0,0
i,0x00000000,1720890092.966394,10.0.2.15,22,10.0.2.2,51040,1073725440,16622,0,65535,65700,0,0,4,1460,1,0,0,23,33580,28,65700,0,28,0,0,0
i,0x00000000,1720890092.966841,10.0.2.15,22,10.0.2.2,51040,1073725440,16650,0,65535,65700,0,0,4,1460,1,0,0,23,33580,0,65700,0,0,0,0,0
o,0x00000000,1720890092.967540,10.0.2.15,22,10.0.2.2,51040,1073725440,16650,0,65535,65700,0,0,4,1460,1,0,0,23,33580,768,65700,112,0,0,0,0
i,0x00000000,1720890092.968384,10.0.2.15,22,10.0.2.2,51040,1073725440,16650,0,65535,65700,0,0,4,1460,1,0,0,23,33580,768,65700,112,768,0,0,0
o,0x00000000,1720890092.968475,10.0.2.15,22,10.0.2.2,51040,1073725440,17418,0,65535,65700,0,0,4,1460,1,0,0,23,33580,140,65700,112,0,0,0,0
i,0x00000000,1720890092.969511,10.0.2.15,22,10.0.2.2,51040,1073725440,17418,0,65535,65700,0,0,4,1460,1,0,0,23,33580,140,65700,112,140,0,0,0
o,0x00000000,1720890092.969758,10.0.2.15,22,10.0.2.2,51040,1073725440,17558,0,65535,65700,0,0,4,1460,1,0,0,24,33580,44,65700,0,0,0,0,0
i,0x00000000,1720890092.971040,10.0.2.15,22,10.0.2.2,51040,1073725440,17558,0,65535,65700,0,0,4,1460,1,0,0,24,33580,44,65700,0,44,0,0,0
i,0x00000000,1720890092.971043,10.0.2.15,22,10.0.2.2,51040,1073725440,17602,0,65535,65700,0,0,4,1460,1,0,0,24,33580,0,65700,0,0,0,0,0
o,0x00000000,1720890092.971347,10.0.2.15,22,10.0.2.2,51040,1073725440,17602,0,65535,65700,0,0,4,1460,1,0,4,24,33580,72,65700,0,0,0,0,0
i,0x00000000,1720890092.972453,10.0.2.15,22,10.0.2.2,51040,1073725440,17602,0,65535,65700,0,0,4,1460,1,0,4,24,33580,72,65700,0,72,0,0,0
o,0x00000000,1720890092.976358,10.0.2.15,22,10.0.2.2,51040,1073725440,17674,0,65535,65700,0,0,4,1460,1,0,4,24,33580,44,65700,0,0,0,0,0
i,0x00000000,1720890092.977450,10.0.2.15,22,10.0.2.2,51040,1073725440,17674,0,65535,65700,0,0,4,1460,1,0,4,24,33580,44,65700,0,44,0,0,0
o,0x00000000,1720890092.977746,10.0.2.15,22,10.0.2.2,51040,1073725440,17718,0,65535,65700,0,0,4,1460,1,0,4,24,33580,44,65700,0,0,0,0,0
i,0x00000000,1720890092.978562,10.0.2.15,22,10.0.2.2,51040,1073725440,17718,0,65535,65700,0,0,4,1460,1,0,4,24,33580,44,65700,0,44,0,0,0
o,0x00000000,1720890092.982651,10.0.2.15,22,10.0.2.2,51040,1073725440,17762,0,65535,65700,0,0,4,1460,1,0,4,24,33580,176,65700,0,0,0,0,0
i,0x00000000,1720890092.984299,10.0.2.15,22,10.0.2.2,51040,1073725440,17762,0,65535,65700,0,0,4,1460,1,0,4,24,33580,176,65700,0,176,0,0,0
i,0x00000000,1720890092.984313,10.0.2.15,22,10.0.2.2,51040,1073725440,17938,0,65535,65700,0,0,4,1460,1,0,4,24,33580,0,65700,0,0,0,0,0
i,0x00000000,1720890092.984316,10.0.2.15,22,10.0.2.2,51040,1073725440,17938,0,65535,65700,0,0,4,1460,1,0,4,24,33580,0,65700,96,0,0,0,0
o,0x00000000,1720890092.984324,10.0.2.15,22,10.0.2.2,51040,1073725440,17938,0,65535,65604,0,0,5,1460,1,0,5,24,33580,0,65700,96,0,0,0,0
o,0x00000000,1720890092.994611,10.0.2.15,22,10.0.2.2,51040,1073725440,17938,0,65535,65604,0,0,8,1460,1,0,4,24,33580,0,65700,0,0,0,0,0
i,0x00000000,1720890092.995623,10.0.2.15,22,10.0.2.2,51040,1073725440,17938,0,65535,65604,0,0,8,1460,1,0,20,24,33580,0,65700,0,1,0,0,0
i,0x00000000,1720890093.239731,172.16.3.2,5101,172.16.1.2,14139,7500,14480,0,65728,65700,6,6,4,1460,551,1,992,72,33580,0,65700,0,0,0,0,0
o,0x00000000,1720890093.239801,172.16.3.2,5101,172.16.1.2,14139,7500,14480,0,65728,65700,6,6,4,1460,551,1,996,72,33580,1,65700,0,0,0,0,0
i,0x00000000,1720890093.361893,172.16.3.2,5101,172.16.1.2,14139,7500,14480,0,65728,65700,6,6,4,1460,551,1,996,72,33580,1,65700,0,1,0,0,0
i,0x00000000,1720890093.361911,172.16.3.2,5101,172.16.1.2,14139,7500,14480,0,65728,65728,6,6,4,1460,535,1,996,67,33580,0,65700,4,0,0,0,0
o,0x00000000,1720890093.361919,172.16.3.2,5101,172.16.1.2,14139,7500,14480,0,65728,65728,6,6,4,1460,535,1,997,67,33580,0,65700,128,0,0,0,0
o,0x00000000,1720890093.362185,172.16.3.2,5101,172.16.1.2,14139,7500,14480,0,65728,65728,6,6,4,1460,535,1,996,67,33580,1,65700,0,0,0,0,0
o,0x00000000,1720890093.362883,10.0.2.15,22,10.0.2.2,57021,1073725440,14600,0,65535,65700,0,0,4,1460,1,0,4,24,33580,84,65700,0,0,0,0,0
i,0x00000000,1720890093.363756,10.0.2.15,22,10.0.2.2,57021,1073725440,14600,0,65535,65700,0,0,4,1460,1,0,4,24,33580,84,65700,0,84,0,0,0
i,0x00000000,1720890093.510273,172.16.3.2,5101,172.16.1.2,14139,7500,14480,0,65728,65728,6,6,4,1460,535,1,996,67,33580,1,65700,0,1,0,0,0
i,0x00000000,1720890093.600787,172.16.3.2,5101,172.16.1.2,40804,7500,14480,0,65728,65700,6,6,4,1460,559,1,992,70,33580,0,65700,0,0,0,0,0
o,0x00000000,1720890093.607955,172.16.3.2,5101,172.16.1.2,14139,7500,14480,0,65728,65728,6,6,4,1460,525,1,996,62,33580,1,65700,0,0,0,0,0
o,0x00000000,1720890093.608458,172.16.3.2,5101,172.16.1.2,14139,7500,14480,0,65728,65728,6,6,4,1460,525,1,996,62,33580,2,65700,0,1,0,0,0
o,0x00000000,1720890093.608658,10.0.2.15,22,10.0.2.2,57021,1073725440,14600,0,65535,65700,0,0,4,1460,1,0,4,24,33580,108,65700,0,0,0,0,0
i,0x00000000,1720890093.609640,10.0.2.15,22,10.0.2.2,57021,1073725440,14600,0,65535,65700,0,0,4,1460,1,0,4,24,33580,108,65700,0,108,0,0,0
o,0x00000000,1720890093.632854,172.16.3.2,5101,172.16.1.2,40804,7500,14480,0,65728,65700,6,6,4,1460,559,1,993,70,33580,0,65700,0,0,0,0,0
i,0x00000000,1720890093.721207,172.16.3.2,5101,172.16.1.2,14139,7500,14480,0,65728,65728,6,6,4,1460,525,1,996,62,33580,2,65700,0,2,0,0,0
i,0x00000000,1720890093.819145,172.16.3.2,5101,172.16.1.2,40804,7500,14480,0,65728,65700,6,6,4,1460,559,1,992,70,33580,0,65700,0,0,0,0,0
i,0x00000000,1720890093.830254,172.16.3.2,5101,172.16.1.2,40804,7500,14480,0,65728,65700,6,6,4,1460,559,1,992,70,33580,0,65700,0,0,0,0,0
o,0x00000000,1720890093.830271,172.16.3.2,5101,172.16.1.2,40804,7500,14480,0,65728,65700,6,6,4,1460,559,1,993,70,33580,0,65700,1448,0,0,0,0
i,0x00000000,1720890093.840337,172.16.3.2,5101,172.16.1.2,40804,7500,14480,0,65728,65700,6,6,4,1460,559,1,992,70,33580,0,65700,0,0,0,0,0
i,0x00000000,1720890093.851002,172.16.3.2,5101,172.16.1.2,40804,7500,14480,0,65728,65700,6,6,4,1460,559,1,992,70,33580,0,65700,0,0,0,0,0
o,0x00000000,1720890093.851048,172.16.3.2,5101,172.16.1.2,40804,7500,14480,0,65728,65700,6,6,4,1460,559,1,993,70,33580,0,65700,1448,0,0,0,0
i,0x00000000,1720890093.870597,172.16.3.2,5101,172.16.1.2,40804,7500,14480,0,65728,65700,6,6,4,1460,559,1,992,70,33580,0,65700,0,0,0,0,0
i,0x00000000,1720890093.880584,172.16.3.2,5101,172.16.1.2,40804,7500,14480,0,65728,65700,6,6,4,1460,559,1,992,70,33580,0,65700,0,0,0,0,0
o,0x00000000,1720890093.880616,172.16.3.2,5101,172.16.1.2,40804,7500,14480,0,65728,65700,6,6,4,1460,559,1,993,70,33580,0,65700,1448,0,0,0,0
i,0x00000000,1720890093.891110,172.16.3.2,5101,172.16.1.2,40804,7500,14480,0,65728,65700,6,6,4,1460,559,1,992,70,33580,0,65700,0,0,0,0,0
i,0x00000000,1720890093.900895,172.16.3.2,5101,172.16.1.2,40804,7500,14480,0,65728,65700,6,6,4,1460,559,1,992,70,33580,0,65700,0,0,0,0,0
o,0x00000000,1720890093.900919,172.16.3.2,5101,172.16.1.2,40804,7500,14480,0,65728,65700,6,6,4,1460,559,1,993,70,33580,0,65700,1448,0,0,0,0
i,0x00000000,1720890093.920047,172.16.3.2,5101,172.16.1.2,40804,7500,14480,0,65728,65700,6,6,4,1460,559,1,992,70,33580,0,65700,0,0,0,0,0
i,0x00000000,1720890093.929299,172.16.3.2,5101,172.16.1.2,40804,7500,14480,0,65728,65700,6,6,4,1460,559,1,992,70,33580,0,65700,0,0,0,0,0
o,0x00000000,1720890093.929314,172.16.3.2,5101,172.16.1.2,40804,7500,14480,0,65728,65700,6,6,4,1460,559,1,993,70,33580,0,65700,1448,0,0,0,0
i,0x00000000,1720890093.989748,172.16.3.2,5101,172.16.1.2,40804,7500,14480,0,65728,65700,6,6,4,1460,559,1,992,70,33580,0,65700,0,0,0,0,0
i,0x00000000,1720890094.001005,172.16.3.2,5101,172.16.1.2,40804,7500,14480,0,65728,65700,6,6,4,1460,559,1,992,70,33580,0,65700,0,0,0,0,0
o,0x00000000,1720890094.001054,172.16.3.2,5101,172.16.1.2,40804,7500,14480,0,65728,65700,6,6,4,1460,559,1,993,70,33580,0,65700,1448,0,0,0,0
i,0x00000000,1720890094.040569,172.16.3.2,5101,172.16.1.2,40804,7500,14480,0,65728,65700,6,6,4,1460,559,1,992,70,33580,0,65700,0,0,0,0,0
o,0x00000000,1720890094.073596,172.16.3.2,5101,172.16.1.2,40804,7500,14480,0,65728,65700,6,6,4,1460,559,1,993,70,33580,0,65700,0,0,0,0,0
i,0x00000000,1720890094.079825,172.16.3.2,5101,172.16.1.2,40804,7500,14480,0,65728,65700,6,6,4,1460,559,1,992,70,33580,0,65700,0,0,0,0,0
o,0x00000000,1720890094.112715,172.16.3.2,5101,172.16.1.2,40804,7500,14480,0,65728,65700,6,6,4,1460,559,1,993,70,33580,0,65700,0,0,0,0,0
i,0x00000000,1720890094.119568,172.16.3.2,5101,172.16.1.2,40804,7500,14480,0,65728,65700,6,6,4,1460,559,1,992,70,33580,0,65700,0,0,0,0,0
i,0x00000000,1720890094.141315,172.16.3.2,5101,172.16.1.2,40804,7500,14480,0,65728,65700,6,6,4,1460,559,1,992,70,33580,0,65700,0,0,0,0,0
o,0x00000000,1720890094.141361,172.16.3.2,5101,172.16.1.2,40804,7500,14480,0,65728,65700,6,6,4,1460,559,1,993,70,33580,0,65700,1448,0,0,0,0
i,0x00000000,1720890094.151104,172.16.3.2,5101,172.16.1.2,40804,7500,14480,0,65728,65700,6,6,4,1460,559,1,992,70,33580,0,65700,0,0,0,0,0
i,0x00000000,1720890094.159709,172.16.3.2,5101,172.16.1.2,40804,7500,14480,0,65728,65700,6,6,4,1460,559,1,992,70,33580,0,65700,0,0,0,0,0
o,0x00000000,1720890094.159722,172.16.3.2,5101,172.16.1.2,40804,7500,14480,0,65728,65700,6,6,4,1460,559,1,993,70,33580,0,65700,1448,0,0,0,0
i,0x00000000,1720890094.201301,172.16.3.2,5101,172.16.1.2,40804,7500,14480,0,65728,65700,6,6,4,1460,559,1,992,70,33580,0,65700,0,0,0,0,0
i,0x00000000,1720890094.210628,172.16.3.2,5101,172.16.1.2,40804,7500,14480,0,65728,65700,6,6,4,1460,559,1,992,70,33580,0,65700,0,0,0,0,0
o,0x00000000,1720890094.210674,172.16.3.2,5101,172.16.1.2,40804,7500,14480,0,65728,65700,6,6,4,1460,559,1,993,70,33580,0,65700,1448,0,0,0,0
i,0x00000000,1720890094.220571,172.16.3.2,5101,172.16.1.2,40804,7500,14480,0,65728,65700,6,6,4,1460,559,1,992,70,33580,0,65700,0,0,0,0,0
i,0x00000000,1720890094.249683,172.16.3.2,5101,172.16.1.2,40804,7500,14480,0,65728,65700,6,6,4,1460,559,1,992,70,33580,0,65700,0,0,0,0,0
o,0x00000000,1720890094.249697,172.16.3.2,5101,172.16.1.2,40804,7500,14480,0,65728,65700,6,6,4,1460,559,1,993,70,33580,0,65700,1448,0,0,0,0
i,0x00000000,1720890094.270046,172.16.3.2,5101,172.16.1.2,40804,7500,14480,0,65728,65700,6,6,4,1460,559,1,992,70,33580,0,65700,0,0,0,0,0
o,0x00000000,1720890094.303678,172.16.3.2,5101,172.16.1.2,40804,7500,14480,0,65728,65700,6,6,4,1460,559,1,993,70,33580,0,65700,0,0,0,0,0
i,0x00000000,1720890094.330975,172.16.3.2,5101,172.16.1.2,40804,7500,14480,0,65728,65700,6,6,4,1460,559,1,992,70,33580,0,65700,0,0,0,0,0
i,0x00000000,1720890094.342494,172.16.3.2,5101,172.16.1.2,40804,7500,14480,0,65728,65700,6,6,4,1460,559,1,992,70,33580,0,65700,0,0,0,0,0
o,0x00000000,1720890094.342529,172.16.3.2,5101,172.16.1.2,40804,7500,14480,0,65728,65700,6,6,4,1460,559,1,993,70,33580,0,65700,1448,0,0,0,0
i,0x00000000,1720890094.361507,172.16.3.2,5101,172.16.1.2,40804,7500,14480,0,65728,65700,6,6,4,1460,559,1,992,70,33580,0,65700,0,0,0,0,0
i,0x00000000,1720890094.390305,172.16.3.2,5101,172.16.1.2,40804,7500,14480,0,65728,65700,6,6,4,1460,559,1,992,70,33580,0,65700,0,0,0,0,0
o,0x00000000,1720890094.390339,172.16.3.2,5101,172.16.1.2,40804,7500,14480,0,65728,65700,6,6,4,1460,559,1,993,70,33580,0,65700,1448,0,0,0,0
i,0x00000000,1720890094.410356,172.16.3.2,5101,172.16.1.2,40804,7500,14480,0,65728,65700,6,6,4,1460,559,1,992,70,33580,0,65700,0,0,0,0,0
o,0x00000000,1720890094.443062,172.16.3.2,5101,172.16.1.2,40804,7500,14480,0,65728,65700,6,6,4,1460,559,1,993,70,33580,0,65700,0,0,0,0,0
i,0x00000000,1720890094.448693,172.16.3.2,5101,172.16.1.2,40804,7500,14480,0,65728,65700,6,6,4,1460,559,1,992,70,33580,0,65700,0,0,0,0,0
i,0x00000000,1720890094.479722,172.16.3.2,5101,172.16.1.2,40804,7500,14480,0,65728,65700,6,6,4,1460,559,1,992,70,33580,0,65700,0,0,0,0,0
o,0x00000000,1720890094.479742,172.16.3.2,5101,172.16.1.2,40804,7500,14480,0,65728,65700,6,6,4,1460,559,1,993,70,33580,0,65700,1448,0,0,0,0
i,0x00000000,1720890094.489752,172.16.3.2,5101,172.16.1.2,40804,7500,14480,0,65728,65700,6,6,4,1460,559,1,992,70,33580,0,65700,0,0,0,0,0
o,0x00000000,1720890094.521692,172.16.3.2,5101,172.16.1.2,40804,7500,14480,0,65728,65700,6,6,4,1460,559,1,993,70,33580,0,65700,0,0,0,0,0
i,0x00000000,1720890094.531887,172.16.3.2,5101,172.16.1.2,40804,7500,14480,0,65728,65700,6,6,4,1460,559,1,992,70,33580,0,65700,0,0,0,0,0
i,0x00000000,1720890094.538652,172.16.3.2,5101,172.16.1.2,40804,7500,14480,0,65728,65700,6,6,4,1460,559,1,992,70,33580,0,65700,0,0,0,0,0
o,0x00000000,1720890094.538665,172.16.3.2,5101,172.16.1.2,40804,7500,14480,0,65728,65700,6,6,4,1460,559,1,993,70,33580,0,65700,1448,0,0,0,0
i,0x00000000,1720890094.550185,172.16.3.2,5101,172.16.1.2,40804,7500,14480,0,65728,65700,6,6,4,1460,559,1,992,70,33580,0,65700,0,0,0,0,0
o,0x00000000,1720890094.582662,172.16.3.2,5101,172.16.1.2,40804,7500,14480,0,65728,65700,6,6,4,1460,559,1,993,70,33580,0,65700,0,0,0,0,0
i,0x00000000,1720890094.588677,172.16.3.2,5101,172.16.1.2,40804,7500,14480,0,65728,65700,6,6,4,1460,559,1,992,70,33580,0,65700,0,0,0,0,0
i,0x00000000,1720890094.598503,172.16.3.2,5101,172.16.1.2,40804,7500,14480,0,65728,65700,6,6,4,1460,559,1,992,70,33580,0,65700,0,0,0,0,0
o,0x00000000,1720890094.598514,172.16.3.2,5101,172.16.1.2,40804,7500,14480,0,65728,65700,6,6,4,1460,559,1,993,70,33580,0,65700,1448,0,0,0,0
o,0x00000000,1720890094.613258,10.0.2.15,22,10.0.2.2,57021,1073725440,14600,0,65535,65700,0,0,4,1460,1,0,4,24,33580,156,65700,0,0,0,0,0
i,0x00000000,1720890094.614066,10.0.2.15,22,10.0.2.2,57021,1073725440,14600,0,65535,65700,0,0,4,1460,1,0,4,24,33580,156,65700,0,156,0,0,0
i,0x00000000,1720890094.628612,172.16.3.2,5101,172.16.1.2,40804,7500,14480,0,65728,65700,6,6,4,1460,559,1,992,70,33580,0,65700,0,0,0,0,0
i,0x00000000,1720890094.658576,172.16.3.2,5101,172.16.1.2,40804,7500,14480,0,65728,65700,6,6,4,1460,559,1,992,70,33580,0,65700,0,0,0,0,0
o,0x00000000,1720890094.658592,172.16.3.2,5101,172.16.1.2,40804,7500,14480,0,65728,65700,6,6,4,1460,559,1,993,70,33580,0,65700,1448,0,0,0,0
i,0x00000000,1720890094.679157,172.16.3.2,5101,172.16.1.2,40804,7500,14480,0,65728,65700,6,6,4,1460,559,1,992,70,33580,0,65700,0,0,0,0,0
i,0x00000000,1720890094.698853,172.16.3.2,5101,172.16.1.2,40804,7500,14480,0,65728,65700,6,6,4,1460,559,1,992,70,33580,0,65700,0,0,0,0,0
o,0x00000000,1720890094.698886,172.16.3.2,5101,172.16.1.2,40804,7500,14480,0,65728,65700,6,6,4,1460,559,1,993,70,33580,0,65700,1448,0,0,0,0
i,0x00000000,1720890094.749774,172.16.3.2,5101,172.16.1.2,40804,7500,14480,0,65728,65700,6,6,4,1460,559,1,992,70,33580,0,65700,0,0,0,0,0
i,0x00000000,1720890094.769226,172.16.3.2,5101,172.16.1.2,40804,7500,14480,0,65728,65700,6,6,4,1460,559,1,992,70,33580,0,65700,0,0,0,0,0
o,0x00000000,1720890094.769242,172.16.3.2,5101,172.16.1.2,40804,7500,14480,0,65728,65700,6,6,4,1460,559,1,993,70,33580,0,65700,1448,0,0,0,0
i,0x00000000,1720890094.810569,172.16.3.2,5101,172.16.1.2,40804,7500,14480,0,65728,65700,6,6,4,1460,559,1,992,70,33580,0,65700,0,0,0,0,0
i,0x00000000,1720890094.818525,172.16.3.2,5101,172.16.1.2,40804,7500,14480,0,65728,65700,6,6,4,1460,559,1,992,70,33580,0,65700,0,0,0,0,0
o,0x00000000,1720890094.818537,172.16.3.2,5101,172.16.1.2,40804,7500,14480,0,65728,65700,6,6,4,1460,559,1,993,70,33580,0,65700,1448,0,0,0,0
i,0x00000000,1720890094.828701,172.16.3.2,5101,172.16.1.2,40804,7500,14480,0,65728,65700,6,6,4,1460,559,1,992,70,33580,0,65700,0,0,0,0,0
o,0x00000000,1720890094.862781,172.16.3.2,5101,172.16.1.2,40804,7500,14480,0,65728,65700,6,6,4,1460,559,1,993,70,33580,0,65700,0,0,0,0,0
i,0x00000000,1720890094.870450,172.16.3.2,5101,172.16.1.2,40804,7500,14480,0,65728,65700,6,6,4,1460,559,1,992,70,33580,0,65700,0,0,0,0,0
i,0x00000000,1720890094.880751,172.16.3.2,5101,172.16.1.2,40804,7500,14480,0,65728,65700,6,6,4,1460,559,1,992,70,33580,0,65700,0,0,0,0,0
o,0x00000000,1720890094.880772,172.16.3.2,5101,172.16.1.2,40804,7500,14480,0,65728,65700,6,6,4,1460,559,1,993,70,33580,0,65700,1448,0,0,0,0
i,0x00000000,1720890094.919848,172.16.3.2,5101,172.16.1.2,40804,7500,14480,0,65728,65700,6,6,4,1460,559,1,992,70,33580,0,65700,0,0,0,0,0
i,0x00000000,1720890094.929622,172.16.3.2,5101,172.16.1.2,40804,7500,14480,0,65728,65700,6,6,4,1460,559,1,992,70,33580,0,65700,0,0,0,0,0
o,0x00000000,1720890094.929664,172.16.3.2,5101,172.16.1.2,40804,7500,14480,0,65728,65700,6,6,4,1460,559,1,993,70,33580,0,65700,1448,0,0,0,0
i,0x00000000,1720890094.971065,172.16.3.2,5101,172.16.1.2,40804,7500,14480,0,65728,65700,6,6,4,1460,559,1,992,70,33580,0,65700,0,0,0,0,0
i,0x00000000,1720890094.979515,172.16.3.2,5101,172.16.1.2,40804,7500,14480,0,65728,65700,6,6,4,1460,559,1,992,70,33580,0,65700,0,0,0,0,0
o,0x00000000,1720890094.979532,172.16.3.2,5101,172.16.1.2,40804,7500,14480,0,65728,65700,6,6,4,1460,559,1,993,70,33580,0,65700,1448,0,0,0,0
i,0x00000000,1720890095.019741,172.16.3.2,5101,172.16.1.2,40804,7500,14480,0,65728,65700,6,6,4,1460,559,1,992,70,33580,0,65700,0,0,0,0,0
i,0x00000000,1720890095.028556,172.16.3.2,5101,172.16.1.2,40804,7500,14480,0,65728,65700,6,6,4,1460,559,1,992,70,33580,0,65700,0,0,0,0,0
o,0x00000000,1720890095.028575,172.16.3.2,5101,172.16.1.2,40804,7500,14480,0,65728,65700,6,6,4,1460,559,1,993,70,33580,0,65700,1448,0,0,0,0
i,0x00000000,1720890095.049895,172.16.3.2,5101,172.16.1.2,40804,7500,14480,0,65728,65700,6,6,4,1460,559,1,992,70,33580,0,65700,0,0,0,0,0
o,0x00000000,1720890095.082738,172.16.3.2,5101,172.16.1.2,40804,7500,14480,0,65728,65700,6,6,4,1460,559,1,993,70,33580,0,65700,0,0,0,0,0
i,0x00000000,1720890095.099766,172.16.3.2,5101,172.16.1.2,40804,7500,14480,0,65728,65700,6,6,4,1460,559,1,992,70,33580,0,65700,0,0,0,0,0
i,0x00000000,1720890095.121046,172.16.3.2,5101,172.16.1.2,40804,7500,14480,0,65728,65700,6,6,4,1460,559,1,992,70,33580,0,65700,0,0,0,0,0
o,0x00000000,1720890095.121089,172.16.3.2,5101,172.16.1.2,40804,7500,14480,0,65728,65700,6,6,4,1460,559,1,993,70,33580,0,65700,1448,0,0,0,0
i,0x00000000,1720890095.148591,172.16.3.2,5101,172.16.1.2,40804,7500,14480,0,65728,65700,6,6,4,1460,559,1,992,70,33580,0,65700,0,0,0,0,0
i,0x00000000,1720890095.159961,172.16.3.2,5101,172.16.1.2,40804,7500,14480,0,65728,65700,6,6,4,1460,559,1,992,70,33580,0,65700,0,0,0,0,0
o,0x00000000,1720890095.159977,172.16.3.2,5101,172.16.1.2,40804,7500,14480,0,65728,65700,6,6,4,1460,559,1,993,70,33580,0,65700,1448,0,0,0,0
i,0x00000000,1720890095.198546,172.16.3.2,5101,172.16.1.2,40804,7500,14480,0,65728,65700,6,6,4,1460,559,1,992,70,33580,0,65700,0,0,0,0,0
i,0x00000000,1720890095.208504,172.16.3.2,5101,172.16.1.2,40804,7500,14480,0,65728,65700,6,6,4,1460,559,1,992,70,33580,0,65700,0,0,0,0,0
o,0x00000000,1720890095.208524,172.16.3.2,5101,172.16.1.2,40804,7500,14480,0,65728,65700,6,6,4,1460,559,1,993,70,33580,0,65700,1448,0,0,0,0
i,0x00000000,1720890095.229943,172.16.3.2,5101,172.16.1.2,40804,7500,14480,0,65728,65700,6,6,4,1460,559,1,992,70,33580,0,65700,0,0,0,0,0
i,0x00000000,1720890095.258428,172.16.3.2,5101,172.16.1.2,40804,7500,14480,0,65728,65700,6,6,4,1460,559,1,992,70,33580,0,65700,0,0,0,0,0
o,0x00000000,1720890095.258443,172.16.3.2,5101,172.16.1.2,40804,7500,14480,0,65728,65700,6,6,4,1460,559,1,993,70,33580,0,65700,1448,0,0,0,0
i,0x00000000,1720890095.268520,172.16.3.2,5101,172.16.1.2,40804,7500,14480,0,65728,65700,6,6,4,1460,559,1,992,70,33580,0,65700,0,0,0,0,0
i,0x00000000,1720890095.298445,172.16.3.2,5101,172.16.1.2,40804,7500,14480,0,65728,65700,6,6,4,1460,559,1,992,70,33580,0,65700,0,0,0,0,0
o,0x00000000,1720890095.298458,172.16.3.2,5101,172.16.1.2,40804,7500,14480,0,65728,65700,6,6,4,1460,559,1,993,70,33580,0,65700,1448,0,0,0,0
i,0x00000000,1720890095.340398,172.16.3.2,5101,172.16.1.2,40804,7500,14480,0,65728,65700,6,6,4,1460,559,1,992,70,33580,0,65700,0,0,0,0,0
i,0x00000000,1720890095.371445,172.16.3.2,5101,172.16.1.2,40804,7500,14480,0,65728,65700,6,6,4,1460,559,1,992,70,33580,0,65700,0,0,0,0,0
o,0x00000000,1720890095.371487,172.16.3.2,5101,172.16.1.2,40804,7500,14480,0,65728,65700,6,6,4,1460,559,1,993,70,33580,0,65700,1448,0,0,0,0
i,0x00000000,1720890095.381094,172.16.3.2,5101,172.16.1.2,40804,7500,14480,0,65728,65700,6,6,4,1460,559,1,992,70,33580,0,65700,0,0,0,0,0
o,0x00000000,1720890095.413451,172.16.3.2,5101,172.16.1.2,40804,7500,14480,0,65728,65700,6,6,4,1460,559,1,993,70,33580,0,65700,0,0,0,0,0
i,0x00000000,1720890095.418883,172.16.3.2,5101,172.16.1.2,40804,7500,14480,0,65728,65700,6,6,4,1460,559,1,992,70,33580,0,65700,0,0,0,0,0
i,0x00000000,1720890095.429466,172.16.3.2,5101,172.16.1.2,40804,7500,14480,0,65728,65700,6,6,4,1460,559,1,992,70,33580,0,65700,0,0,0,0,0
o,0x00000000,1720890095.429501,172.16.3.2,5101,172.16.1.2,40804,7500,14480,0,65728,65700,6,6,4,1460,559,1,993,70,33580,0,65700,1448,0,0,0,0
i,0x00000000,1720890095.449548,172.16.3.2,5101,172.16.1.2,40804,7500,14480,0,65728,65700,6,6,4,1460,559,1,992,70,33580,0,65700,0,0,0,0,0
o,0x00000000,1720890095.484882,172.16.3.2,5101,172.16.1.2,40804,7500,14480,0,65728,65700,6,6,4,1460,559,1,993,70,33580,0,65700,0,0,0,0,0
i,0x00000000,1720890095.488715,172.16.3.2,5101,172.16.1.2,40804,7500,14480,0,65728,65700,6,6,4,1460,559,1,992,70,33580,0,65700,0,0,0,0,0
i,0x00000000,1720890095.508127,172.16.3.2,5101,172.16.1.2,40804,7500,14480,0,65728,65700,6,6,4,1460,559,1,992,70,33580,0,65700,0,0,0,0,0
o,0x00000000,1720890095.508141,172.16.3.2,5101,172.16.1.2,40804,7500,14480,0,65728,65700,6,6,4,1460,559,1,993,70,33580,0,65700,1448,0,0,0,0
i,0x00000000,1720890095.538086,172.16.3.2,5101,172.16.1.2,40804,7500,14480,0,65728,65700,6,6,4,1460,559,1,992,70,33580,0,65700,0,0,0,0,0
i,0x00000000,1720890095.558869,172.16.3.2,5101,172.16.1.2,40804,7500,14480,0,65728,65700,6,6,4,1460,559,1,992,70,33580,0,65700,0,0,0,0,0
o,0x00000000,1720890095.558881,172.16.3.2,5101,172.16.1.2,40804,7500,14480,0,65728,65700,6,6,4,1460,559,1,993,70,33580,0,65700,1448,0,0,0,0
i,0x00000000,1720890095.587986,172.16.3.2,5101,172.16.1.2,40804,7500,14480,0,65728,65700,6,6,4,1460,559,1,992,70,33580,0,65700,0,0,0,0,0
i,0x00000000,1720890095.597981,172.16.3.2,5101,172.16.1.2,40804,7500,14480,0,65728,65700,6,6,4,1460,559,1,992,70,33580,0,65700,0,0,0,0,0
o,0x00000000,1720890095.597993,172.16.3.2,5101,172.16.1.2,40804,7500,14480,0,65728,65700,6,6,4,1460,559,1,993,70,33580,0,65700,1448,0,0,0,0
i,0x00000000,1720890095.621409,172.16.3.2,5101,172.16.1.2,40804,7500,14480,0,65728,65700,6,6,4,1460,559,1,992,70,33580,0,65700,0,0,0,0,0
o,0x00000000,1720890095.621522,10.0.2.15,22,10.0.2.2,57021,1073725440,14600,0,65535,65700,0,0,4,1460,1,0,4,24,33580,108,65700,0,0,0,0,0
i,0x00000000,1720890095.622281,10.0.2.15,22,10.0.2.2,57021,1073725440,14600,0,65535,65700,0,0,4,1460,1,0,4,24,33580,108,65700,0,108,0,0,0
o,0x00000000,1720890095.661575,172.16.3.2,5101,172.16.1.2,40804,7500,14480,0,65728,65700,6,6,4,1460,559,1,993,70,33580,0,65700,0,0,0,0,0
i,0x00000000,1720890095.668383,172.16.3.2,5101,172.16.1.2,40804,7500,14480,0,65728,65700,6,6,4,1460,559,1,992,70,33580,0,65700,0,0,0,0,0
i,0x00000000,1720890095.678443,172.16.3.2,5101,172.16.1.2,40804,7500,14480,0,65728,65700,6,6,4,1460,559,1,992,70,33580,0,65700,0,0,0,0,0
o,0x00000000,1720890095.678456,172.16.3.2,5101,172.16.1.2,40804,7500,14480,0,65728,65700,6,6,4,1460,559,1,993,70,33580,0,65700,1448,0,0,0,0
i,0x00000000,1720890095.699619,172.16.3.2,5101,172.16.1.2,40804,7500,14480,0,65728,65700,6,6,4,1460,559,1,992,70,33580,0,65700,0,0,0,0,0
o,0x00000000,1720890095.732471,172.16.3.2,5101,172.16.1.2,40804,7500,14480,0,65728,65700,6,6,4,1460,559,1,993,70,33580,0,65700,0,0,0,0,0
i,0x00000000,1720890095.738665,172.16.3.2,5101,172.16.1.2,40804,7500,14480,0,65728,65700,6,6,4,1460,559,1,992,70,33580,0,65700,0,0,0,0,0
o,0x00000000,1720890095.771474,172.16.3.2,5101,172.16.1.2,40804,7500,14480,0,65728,65700,6,6,4,1460,559,1,993,70,33580,0,65700,0,0,0,0,0
i,0x00000000,1720890095.777562,172.16.3.2,5101,172.16.1.2,40804,7500,14480,0,65728,65700,6,6,4,1460,559,1,992,70,33580,0,65700,0,0,0,0,0
i,0x00000000,1720890095.787800,172.16.3.2,5101,172.16.1.2,40804,7500,14480,0,65728,65700,6,6,4,1460,559,1,992,70,33580,0,65700,0,0,0,0,0
o,0x00000000,1720890095.787815,172.16.3.2,5101,172.16.1.2,40804,7500,14480,0,65728,65700,6,6,4,1460,559,1,993,70,33580,0,65700,1448,0,0,0,0
i,0x00000000,1720890095.798148,172.16.3.2,5101,172.16.1.2,40804,7500,14480,0,65728,65700,6,6,4,1460,559,1,992,70,33580,0,65700,0,0,0,0,0
o,0x00000000,1720890095.831455,172.16.3.2,5101,172.16.1.2,40804,7500,14480,0,65728,65700,6,6,4,1460,559,1,993,70,33580,0,65700,0,0,0,0,0
i,0x00000000,1720890095.847782,172.16.3.2,5101,172.16.1.2,40804,7500,14480,0,65728,65700,6,6,4,1460,559,1,992,70,33580,0,65700,0,0,0,0,0
i,0x00000000,1720890095.858267,172.16.3.2,5101,172.16.1.2,40804,7500,14480,0,65728,65700,6,6,4,1460,559,1,992,70,33580,0,65700,0,0,0,0,0
o,0x00000000,1720890095.858280,172.16.3.2,5101,172.16.1.2,40804,7500,14480,0,65728,65700,6,6,4,1460,559,1,993,70,33580,0,65700,1448,0,0,0,0
i,0x00000000,1720890095.868545,172.16.3.2,5101,172.16.1.2,40804,7500,14480,0,65728,65700,6,6,4,1460,559,1,992,70,33580,0,65700,0,0,0,0,0
o,0x00000000,1720890095.902123,172.16.3.2,5101,172.16.1.2,40804,7500,14480,0,65728,65700,6,6,4,1460,559,1,993,70,33580,0,65700,0,0,0,0,0
i,0x00000000,1720890095.918114,172.16.3.2,5101,172.16.1.2,40804,7500,14480,0,65728,65700,6,6,4,1460,559,1,992,70,33580,0,65700,0,0,0,0,0
i,0x00000000,1720890095.938209,172.16.3.2,5101,172.16.1.2,40804,7500,14480,0,65728,65700,6,6,4,1460,559,1,992,70,33580,0,65700,0,0,0,0,0
o,0x00000000,1720890095.938234,172.16.3.2,5101,172.16.1.2,40804,7500,14480,0,65728,65700,6,6,4,1460,559,1,993,70,33580,0,65700,1448,0,0,0,0
i,0x00000000,1720890095.958193,172.16.3.2,5101,172.16.1.2,40804,7500,14480,0,65728,65700,6,6,4,1460,559,1,992,70,33580,0,65700,0,0,0,0,0
i,0x00000000,1720890095.967951,172.16.3.2,5101,172.16.1.2,40804,7500,14480,0,65728,65700,6,6,4,1460,559,1,992,70,33580,0,65700,0,0,0,0,0
o,0x00000000,1720890095.967963,172.16.3.2,5101,172.16.1.2,40804,7500,14480,0,65728,65700,6,6,4,1460,559,1,993,70,33580,0,65700,1448,0,0,0,0
i,0x00000000,1720890095.997846,172.16.3.2,5101,172.16.1.2,40804,7500,14480,0,65728,65700,6,6,4,1460,559,1,992,70,33580,0,65700,0,0,0,0,0
i,0x00000000,1720890096.028771,172.16.3.2,5101,172.16.1.2,40804,7500,14480,0,65728,65700,6,6,4,1460,559,1,992,70,33580,0,65700,0,0,0,0,0
o,0x00000000,1720890096.028800,172.16.3.2,5101,172.16.1.2,40804,7500,14480,0,65728,65700,6,6,4,1460,559,1,993,70,33580,0,65700,1448,0,0,0,0
i,0x00000000,1720890096.058836,172.16.3.2,5101,172.16.1.2,40804,7500,14480,0,65728,65700,6,6,4,1460,559,1,992,70,33580,0,65700,0,0,0,0,0
i,0x00000000,1720890096.068277,172.16.3.2,5101,172.16.1.2,40804,7500,14480,0,65728,65700,6,6,4,1460,559,1,992,70,33580,0,65700,0,0,0,0,0
o,0x00000000,1720890096.068294,172.16.3.2,5101,172.16.1.2,40804,7500,14480,0,65728,65700,6,6,4,1460,559,1,993,70,33580,0,65700,1448,0,0,0,0
i,0x00000000,1720890096.107902,172.16.3.2,5101,172.16.1.2,40804,7500,14480,0,65728,65700,6,6,4,1460,559,1,992,70,33580,0,65700,0,0,0,0,0
i,0x00000000,1720890096.127630,172.16.3.2,5101,172.16.1.2,40804,7500,14480,0,65728,65700,6,6,4,1460,559,1,992,70,33580,0,65700,0,0,0,0,0
o,0x00000000,1720890096.127642,172.16.3.2,5101,172.16.1.2,40804,7500,14480,0,65728,65700,6,6,4,1460,559,1,993,70,33580,0,65700,1448,0,0,0,0
i,0x00000000,1720890096.168124,172.16.3.2,5101,172.16.1.2,40804,7500,14480,0,65728,65700,6,6,4,1460,559,1,992,70,33580,0,65700,0,0,0,0,0
i,0x00000000,1720890096.197711,172.16.3.2,5101,172.16.1.2,40804,7500,14480,0,65728,65700,6,6,4,1460,559,1,992,70,33580,0,65700,0,0,0,0,0
o,0x00000000,1720890096.197727,172.16.3.2,5101,172.16.1.2,40804,7500,14480,0,65728,65700,6,6,4,1460,559,1,993,70,33580,0,65700,0,0,1,0,0
i,0x00000000,1720890096.217720,172.16.3.2,5101,172.16.1.2,40804,7500,14480,0,65728,65700,6,6,4,1460,559,1,992,70,33580,0,65700,0,0,1,0,0
o,0x00000000,1720890096.217735,172.16.3.2,5101,172.16.1.2,40804,7500,14480,0,65728,65728,6,6,4,1460,559,1,993,70,33580,0,65700,0,0,1,0,0
i,0x00000000,1720890096.227886,172.16.3.2,5101,172.16.1.2,40804,7500,14480,0,65728,65728,6,6,4,1460,559,1,992,70,33580,0,65700,0,0,1,0,0
o,0x00000000,1720890096.227899,172.16.3.2,5101,172.16.1.2,40804,7500,14480,0,65728,65728,6,6,4,1460,559,1,993,70,33580,0,65700,0,0,1,0,0
i,0x00000000,1720890096.267423,172.16.3.2,5101,172.16.1.2,40804,7500,14480,0,65728,65728,6,6,4,1460,559,1,992,70,33580,0,65700,0,0,1,0,0
o,0x00000000,1720890096.267437,172.16.3.2,5101,172.16.1.2,40804,7500,14480,0,65728,65728,6,6,4,1460,559,1,993,70,33580,0,65700,0,0,1,0,0
i,0x00000000,1720890096.287999,172.16.3.2,5101,172.16.1.2,40804,7500,14480,0,65728,65728,6,6,4,1460,559,1,992,70,33580,0,65700,0,0,1,0,0
o,0x00000000,1720890096.288013,172.16.3.2,5101,172.16.1.2,40804,7500,14480,0,65728,65728,6,6,4,1460,559,1,993,70,33580,0,65700,0,0,1,0,0
i,0x00000000,1720890096.299495,172.16.3.2,5101,172.16.1.2,40804,7500,14480,0,65728,65728,6,6,4,1460,559,1,992,70,33580,0,65700,0,0,1,0,0
o,0x00000000,1720890096.299523,172.16.3.2,5101,172.16.1.2,40804,7500,14480,0,65728,65728,6,6,4,1460,559,1,993,70,33580,0,65700,0,0,1,0,0
i,0x00000000,1720890096.318731,172.16.3.2,5101,172.16.1.2,40804,7500,14480,0,65728,65728,6,6,4,1460,559,1,992,70,33580,0,65700,0,0,1,0,0
o,0x00000000,1720890096.318752,172.16.3.2,5101,172.16.1.2,40804,7500,14480,0,65728,65728,6,6,4,1460,559,1,993,70,33580,0,65700,0,0,1,0,0
i,0x00000000,1720890096.328099,172.16.3.2,5101,172.16.1.2,40804,7500,14480,0,65728,65728,6,6,4,1460,559,1,992,70,33580,0,65700,0,0,1,0,0
o,0x00000000,1720890096.328111,172.16.3.2,5101,172.16.1.2,40804,7500,14480,0,65728,65728,6,6,4,1460,559,1,993,70,33580,0,65700,0,0,1,0,0
i,0x00000000,1720890096.367783,172.16.3.2,5101,172.16.1.2,40804,7500,14480,0,65728,65728,6,6,4,1460,559,1,992,70,33580,0,65700,0,0,1,0,0
o,0x00000000,1720890096.367798,172.16.3.2,5101,172.16.1.2,40804,7500,14480,0,65728,65728,6,6,4,1460,559,1,993,70,33580,0,65700,0,0,2,0,0
i,0x00000000,1720890096.378017,172.16.3.2,5101,172.16.1.2,40804,7500,14480,0,65728,65728,6,6,4,1460,559,1,992,70,33580,0,65700,0,0,2,0,0
o,0x00000000,1720890096.378031,172.16.3.2,5101,172.16.1.2,40804,7500,14480,0,65728,65728,6,6,4,1460,559,1,993,70,33580,0,65700,0,0,2,0,0
i,0x00000000,1720890096.398446,172.16.3.2,5101,172.16.1.2,40804,7500,14480,0,65728,65728,6,6,4,1460,559,1,992,70,33580,0,65700,0,0,2,0,0
o,0x00000000,1720890096.398460,172.16.3.2,5101,172.16.1.2,40804,7500,14480,0,65728,65728,6,6,4,1460,559,1,993,70,33580,0,65700,0,0,2,0,0
i,0x00000000,1720890096.457744,172.16.3.2,5101,172.16.1.2,40804,7500,14480,0,65728,65728,6,6,4,1460,559,1,992,70,33580,0,65700,0,0,2,0,0
o,0x00000000,1720890096.457759,172.16.3.2,5101,172.16.1.2,40804,7500,14480,0,65728,65728,6,6,4,1460,559,1,993,70,33580,0,65700,0,0,3,0,0
i,0x00000000,1720890096.468384,172.16.3.2,5101,172.16.1.2,40804,7500,14480,0,65728,65728,6,6,4,1460,559,1,992,70,33580,0,65700,0,0,3,0,0
o,0x00000000,1720890096.468410,172.16.3.2,5101,172.16.1.2,40804,7500,14480,0,65728,65728,6,6,4,1460,559,1,993,70,33580,0,65700,0,0,3,0,0
i,0x00000000,1720890096.488281,172.16.3.2,5101,172.16.1.2,40804,7500,14480,0,65728,65728,6,6,4,1460,559,1,992,70,33580,0,65700,0,0,3,0,0
o,0x00000000,1720890096.488303,172.16.3.2,5101,172.16.1.2,40804,7500,14480,0,65728,65728,6,6,4,1460,559,1,993,70,33580,0,65700,0,0,3,0,0
i,0x00000000,1720890096.508330,172.16.3.2,5101,172.16.1.2,40804,7500,14480,0,65728,65728,6,6,4,1460,559,1,992,70,33580,0,65700,0,0,3,0,0
o,0x00000000,1720890096.508350,172.16.3.2,5101,172.16.1.2,40804,7500,14480,0,65728,65728,6,6,4,1460,559,1,993,70,33580,0,65700,0,0,3,0,0
i,0x00000000,1720890096.517808,172.16.3.2,5101,172.16.1.2,40804,7500,14480,0,65728,65728,6,6,4,1460,559,1,992,70,33580,0,65700,0,0,3,0,0
o,0x00000000,1720890096.517828,172.16.3.2,5101,172.16.1.2,40804,7500,14480,0,65728,65728,6,6,4,1460,559,1,993,70,33580,0,65700,0,0,3,0,0
i,0x00000000,1720890096.527638,172.16.3.2,5101,172.16.1.2,40804,7500,14480,0,65728,65728,6,6,4,1460,559,1,992,70,33580,0,65700,0,0,3,0,0
o,0x00000000,1720890096.527661,172.16.3.2,5101,172.16.1.2,40804,7500,14480,0,65728,65728,6,6,4,1460,559,1,993,70,33580,0,65700,13032,0,2,0,0
i,0x00000000,1720890096.537352,172.16.3.2,5101,172.16.1.2,40804,7500,14480,0,65728,65728,6,6,4,1460,559,1,992,70,33580,0,65700,0,0,2,0,0
o,0x00000000,1720890096.537366,172.16.3.2,5101,172.16.1.2,40804,7500,14480,0,65728,65700,6,6,4,1460,559,1,993,70,33580,0,65700,0,0,2,0,0
i,0x00000000,1720890096.598353,172.16.3.2,5101,172.16.1.2,40804,7500,14480,0,65728,65700,6,6,4,1460,559,1,992,70,33580,0,65700,0,0,2,0,0
o,0x00000000,1720890096.598367,172.16.3.2,5101,172.16.1.2,40804,7500,14480,0,65728,65728,6,6,4,1460,559,1,993,70,33580,0,65700,0,0,1,0,0
i,0x00000000,1720890096.617599,172.16.3.2,5101,172.16.1.2,40804,7500,14480,0,65728,65728,6,6,4,1460,559,1,992,70,33580,0,65700,0,0,1,0,0
o,0x00000000,1720890096.617613,172.16.3.2,5101,172.16.1.2,40804,7500,14480,0,65728,65728,6,6,4,1460,559,1,993,70,33580,0,65700,0,0,2,0,0
o,0x00000000,1720890096.621711,10.0.2.15,22,10.0.2.2,57021,1073725440,14600,0,65535,65700,0,0,4,1460,1,0,4,24,33580,108,65700,0,0,0,0,0
i,0x00000000,1720890096.622530,10.0.2.15,22,10.0.2.2,57021,1073725440,14600,0,65535,65700,0,0,4,1460,1,0,4,24,33580,108,65700,0,108,0,0,0
i,0x00000000,1720890096.647695,172.16.3.2,5101,172.16.1.2,40804,7500,14480,0,65728,65728,6,6,4,1460,559,1,992,70,33580,0,65700,0,0,2,0,0
o,0x00000000,1720890096.647709,172.16.3.2,5101,172.16.1.2,40804,7500,14480,0,65728,65728,6,6,4,1460,559,1,993,70,33580,0,65700,0,0,2,0,0
i,0x00000000,1720890096.677788,172.16.3.2,5101,172.16.1.2,40804,7500,14480,0,65728,65728,6,6,4,1460,559,1,992,70,33580,0,65700,0,0,2,0,0
o,0x00000000,1720890096.677802,172.16.3.2,5101,172.16.1.2,40804,7500,14480,0,65728,65728,6,6,4,1460,559,1,993,70,33580,0,65700,0,0,2,0,0
i,0x00000000,1720890096.697761,172.16.3.2,5101,172.16.1.2,40804,7500,14480,0,65728,65728,6,6,4,1460,559,1,992,70,33580,0,65700,0,0,2,0,0
o,0x00000000,1720890096.697775,172.16.3.2,5101,172.16.1.2,40804,7500,14480,0,65728,65728,6,6,4,1460,559,1,993,70,33580,0,65700,0,0,2,0,0
i,0x00000000,1720890096.717704,172.16.3.2,5101,172.16.1.2,40804,7500,14480,0,65728,65728,6,6,4,1460,559,1,992,70,33580,0,65700,0,0,2,0,0
o,0x00000000,1720890096.717719,172.16.3.2,5101,172.16.1.2,40804,7500,14480,0,65728,65728,6,6,4,1460,559,1,993,70,33580,0,65700,0,0,2,0,0
i,0x00000000,1720890096.747381,172.16.3.2,5101,172.16.1.2,40804,7500,14480,0,65728,65728,6,6,4,1460,559,1,992,70,33580,0,65700,0,0,2,0,0
o,0x00000000,1720890096.747396,172.16.3.2,5101,172.16.1.2,40804,7500,14480,0,65728,65728,6,6,4,1460,559,1,993,70,33580,0,65700,0,0,2,0,0
i,0x00000000,1720890096.797741,172.16.3.2,5101,172.16.1.2,40804,7500,14480,0,65728,65728,6,6,4,1460,559,1,992,70,33580,0,65700,0,0,2,0,0
o,0x00000000,1720890096.797757,172.16.3.2,5101,172.16.1.2,40804,7500,14480,0,65728,65728,6,6,4,1460,559,1,993,70,33580,0,65700,0,0,2,0,0
i,0x00000000,1720890096.827810,172.16.3.2,5101,172.16.1.2,40804,7500,14480,0,65728,65728,6,6,4,1460,559,1,992,70,33580,0,65700,0,0,2,0,0
o,0x00000000,1720890096.827831,172.16.3.2,5101,172.16.1.2,40804,7500,14480,0,65728,65728,6,6,4,1460,559,1,993,70,33580,0,65700,0,0,2,0,0
i,0x00000000,1720890096.847769,172.16.3.2,5101,172.16.1.2,40804,7500,14480,0,65728,65728,6,6,4,1460,559,1,992,70,33580,0,65700,0,0,2,0,0
o,0x00000000,1720890096.847785,172.16.3.2,5101,172.16.1.2,40804,7500,14480,0,65728,65728,6,6,4,1460,559,1,993,70,33580,0,65700,0,0,2,0,0
i,0x00000000,1720890096.867715,172.16.3.2,5101,172.16.1.2,40804,7500,14480,0,65728,65728,6,6,4,1460,559,1,992,70,33580,0,65700,0,0,2,0,0
o,0x00000000,1720890096.867738,172.16.3.2,5101,172.16.1.2,40804,7500,14480,0,65728,65728,6,6,4,1460,559,1,993,70,33580,0,65700,0,0,2,0,0
i,0x00000000,1720890096.877873,172.16.3.2,5101,172.16.1.2,40804,7500,14480,0,65728,65728,6,6,4,1460,559,1,992,70,33580,0,65700,0,0,2,0,0
o,0x00000000,1720890096.877892,172.16.3.2,5101,172.16.1.2,40804,7500,14480,0,65728,65728,6,6,4,1460,559,1,993,70,33580,0,65700,0,0,2,0,0
i,0x00000000,1720890096.908315,172.16.3.2,5101,172.16.1.2,40804,7500,14480,0,65728,65728,6,6,4,1460,559,1,992,70,33580,0,65700,0,0,2,0,0
o,0x00000000,1720890096.908340,172.16.3.2,5101,172.16.1.2,40804,7500,14480,0,65728,65728,6,6,4,1460,559,1,993,70,33580,0,65700,0,0,2,0,0
i,0x00000000,1720890096.937805,172.16.3.2,5101,172.16.1.2,40804,7500,14480,0,65728,65728,6,6,4,1460,559,1,992,70,33580,0,65700,0,0,2,0,0
o,0x00000000,1720890096.937823,172.16.3.2,5101,172.16.1.2,40804,7500,14480,0,65728,65728,6,6,4,1460,559,1,993,70,33580,0,65700,0,0,2,0,0
i,0x00000000,1720890096.967399,172.16.3.2,5101,172.16.1.2,40804,7500,14480,0,65728,65728,6,6,4,1460,559,1,992,70,33580,0,65700,0,0,2,0,0
o,0x00000000,1720890096.967410,172.16.3.2,5101,172.16.1.2,40804,7500,14480,0,65728,65728,6,6,4,1460,559,1,993,70,33580,0,65700,0,0,2,0,0
i,0x00000000,1720890096.987446,172.16.3.2,5101,172.16.1.2,40804,7500,14480,0,65728,65728,6,6,4,1460,559,1,992,70,33580,0,65700,0,0,2,0,0
o,0x00000000,1720890096.987460,172.16.3.2,5101,172.16.1.2,40804,7500,14480,0,65728,65728,6,6,4,1460,559,1,993,70,33580,0,65700,0,0,2,0,0
i,0x00000000,1720890097.017572,172.16.3.2,5101,172.16.1.2,40804,7500,14480,0,65728,65728,6,6,4,1460,559,1,992,70,33580,0,65700,0,0,2,0,0
o,0x00000000,1720890097.017586,172.16.3.2,5101,172.16.1.2,40804,7500,14480,0,65728,65728,6,6,4,1460,559,1,993,70,33580,0,65700,0,0,2,0,0
i,0x00000000,1720890097.037446,172.16.3.2,5101,172.16.1.2,40804,7500,14480,0,65728,65728,6,6,4,1460,559,1,992,70,33580,0,65700,0,0,2,0,0
o,0x00000000,1720890097.037482,172.16.3.2,5101,172.16.1.2,40804,7500,14480,0,65728,65728,6,6,4,1460,559,1,993,70,33580,0,65700,0,0,2,0,0
i,0x00000000,1720890097.067332,172.16.3.2,5101,172.16.1.2,40804,7500,14480,0,65728,65728,6,6,4,1460,559,1,992,70,33580,0,65700,0,0,2,0,0
o,0x00000000,1720890097.067346,172.16.3.2,5101,172.16.1.2,40804,7500,14480,0,65728,65728,6,6,4,1460,559,1,993,70,33580,0,65700,0,0,2,0,0
i,0x00000000,1720890097.087957,172.16.3.2,5101,172.16.1.2,40804,7500,14480,0,65728,65728,6,6,4,1460,559,1,992,70,33580,0,65700,0,0,2,0,0
o,0x00000000,1720890097.087982,172.16.3.2,5101,172.16.1.2,40804,7500,14480,0,65728,65728,6,6,4,1460,559,1,993,70,33580,0,65700,0,0,2,0,0
i,0x00000000,1720890097.118166,172.16.3.2,5101,172.16.1.2,40804,7500,14480,0,65728,65728,6,6,4,1460,559,1,992,70,33580,0,65700,0,0,2,0,0
o,0x00000000,1720890097.118184,172.16.3.2,5101,172.16.1.2,40804,7500,14480,0,65728,65728,6,6,4,1460,559,1,993,70,33580,0,65700,0,0,2,0,0
i,0x00000000,1720890097.137457,172.16.3.2,5101,172.16.1.2,40804,7500,14480,0,65728,65728,6,6,4,1460,559,1,992,70,33580,0,65700,0,0,2,0,0
o,0x00000000,1720890097.137470,172.16.3.2,5101,172.16.1.2,40804,7500,14480,0,65728,65728,6,6,4,1460,559,1,993,70,33580,0,65700,0,0,2,0,0
i,0x00000000,1720890097.167667,172.16.3.2,5101,172.16.1.2,40804,7500,14480,0,65728,65728,6,6,4,1460,559,1,992,70,33580,0,65700,0,0,2,0,0
o,0x00000000,1720890097.167684,172.16.3.2,5101,172.16.1.2,40804,7500,14480,0,65728,65728,6,6,4,1460,559,1,993,70,33580,0,65700,0,0,2,0,0
i,0x00000000,1720890097.187775,172.16.3.2,5101,172.16.1.2,40804,7500,14480,0,65728,65728,6,6,4,1460,559,1,992,70,33580,0,65700,0,0,2,0,0
o,0x00000000,1720890097.187789,172.16.3.2,5101,172.16.1.2,40804,7500,14480,0,65728,65728,6,6,4,1460,559,1,993,70,33580,0,65700,0,0,2,0,0
i,0x00000000,1720890097.197593,172.16.3.2,5101,172.16.1.2,40804,7500,14480,0,65728,65728,6,6,4,1460,559,1,992,70,33580,0,65700,0,0,2,0,0
o,0x00000000,1720890097.197607,172.16.3.2,5101,172.16.1.2,40804,7500,14480,0,65728,65728,6,6,4,1460,559,1,993,70,33580,0,65700,0,0,2,0,0
i,0x00000000,1720890097.387420,172.16.3.2,5101,172.16.1.2,40804,7500,14480,0,65728,65728,6,6,4,1460,559,1,992,70,33580,0,65700,0,0,2,0,0
o,0x00000000,1720890097.387439,172.16.3.2,5101,172.16.1.2,40804,7500,14480,0,65728,65728,6,6,4,1460,559,1,993,70,33580,0,65700,15928,0,1,0,0
i,0x00000000,1720890097.527530,172.16.3.2,5101,172.16.1.2,40804,7500,14480,0,65728,65728,6,6,4,1460,559,1,992,70,33580,0,65700,0,0,1,0,0
o,0x00000000,1720890097.527560,172.16.3.2,5101,172.16.1.2,40804,7500,14480,0,65728,65700,6,6,4,1460,559,1,993,70,33580,0,65700,36200,0,0,0,0
o,0x00000000,1720890097.527879,172.16.3.2,5101,172.16.1.2,40804,7500,14480,0,65728,65700,6,6,4,1460,559,1,992,70,33580,0,65700,0,0,0,0,0
o,0x00000000,1720890097.622049,10.0.2.15,22,10.0.2.2,57021,1073725440,14600,0,65535,65700,0,0,4,1460,1,0,4,24,33580,108,65700,0,0,0,0,0
i,0x00000000,1720890097.622651,10.0.2.15,22,10.0.2.2,57021,1073725440,14600,0,65535,65700,0,0,4,1460,1,0,4,24,33580,108,65700,0,108,0,0,0
i,0x00000000,1720890097.687311,172.16.3.2,5101,172.16.1.2,40804,7500,14480,0,65728,65700,6,6,4,1460,559,1,992,70,33580,0,65700,0,0,0,0,0
i,0x00000000,1720890097.697667,172.16.3.2,5101,172.16.1.2,40804,7500,14480,0,65728,65700,6,6,4,1460,559,1,992,70,33580,0,65700,0,0,0,0,0
o,0x00000000,1720890097.697689,172.16.3.2,5101,172.16.1.2,40804,7500,14480,0,65728,65700,6,6,4,1460,559,1,993,70,33580,0,65700,1448,0,0,0,0
i,0x00000000,1720890097.707090,172.16.3.2,5101,172.16.1.2,40804,7500,14480,0,65728,65700,6,6,4,1460,559,1,992,70,33580,0,65700,0,0,0,0,0
i,0x00000000,1720890097.717696,172.16.3.2,5101,172.16.1.2,40804,7500,14480,0,65728,65700,6,6,4,1460,559,1,992,70,33580,0,65700,0,0,0,0,0
o,0x00000000,1720890097.717713,172.16.3.2,5101,172.16.1.2,40804,7500,14480,0,65728,65700,6,6,4,1460,559,1,993,70,33580,0,65700,1448,0,0,0,0
i,0x00000000,1720890097.727209,172.16.3.2,5101,172.16.1.2,40804,7500,14480,0,65728,65700,6,6,4,1460,559,1,992,70,33580,0,65700,0,0,0,0,0
o,0x00000000,1720890097.761568,172.16.3.2,5101,172.16.1.2,40804,7500,14480,0,65728,65700,6,6,4,1460,559,1,993,70,33580,0,65700,0,0,0,0,0
i,0x00000000,1720890097.827058,172.16.3.2,5101,172.16.1.2,40804,7500,14480,0,65728,65700,6,6,4,1460,559,1,992,70,33580,0,65700,0,0,0,0,0
i,0x00000000,1720890097.846990,172.16.3.2,5101,172.16.1.2,40804,7500,14480,0,65728,65700,6,6,4,1460,559,1,992,70,33580,0,65700,0,0,0,0,0
o,0x00000000,1720890097.847006,172.16.3.2,5101,172.16.1.2,40804,7500,14480,0,65728,65700,6,6,4,1460,559,1,993,70,33580,0,65700,1448,0,0,0,0
i,0x00000000,1720890097.857283,172.16.3.2,5101,172.16.1.2,40804,7500,14480,0,65728,65700,6,6,4,1460,559,1,992,70,33580,0,65700,0,0,0,0,0
o,0x00000000,1720890097.892418,172.16.3.2,5101,172.16.1.2,40804,7500,14480,0,65728,65700,6,6,4,1460,559,1,993,70,33580,0,65700,0,0,0,0,0
i,0x00000000,1720890097.906572,172.16.3.2,5101,172.16.1.2,40804,7500,14480,0,65728,65700,6,6,4,1460,559,1,992,70,33580,0,65700,0,0,0,0,0
i,0x00000000,1720890097.916603,172.16.3.2,5101,172.16.1.2,40804,7500,14480,0,65728,65700,6,6,4,1460,559,1,992,70,33580,0,65700,0,0,0,0,0
o,0x00000000,1720890097.916619,172.16.3.2,5101,172.16.1.2,40804,7500,14480,0,65728,65700,6,6,4,1460,559,1,993,70,33580,0,65700,1448,0,0,0,0
i,0x00000000,1720890097.986603,172.16.3.2,5101,172.16.1.2,40804,7500,14480,0,65728,65700,6,6,4,1460,559,1,992,70,33580,0,65700,0,0,0,0,0
i,0x00000000,1720890098.006751,172.16.3.2,5101,172.16.1.2,40804,7500,14480,0,65728,65700,6,6,4,1460,559,1,992,70,33580,0,65700,0,0,0,0,0
o,0x00000000,1720890098.006767,172.16.3.2,5101,172.16.1.2,40804,7500,14480,0,65728,65700,6,6,4,1460,559,1,993,70,33580,0,65700,1448,0,0,0,0
i,0x00000000,1720890098.046941,172.16.3.2,5101,172.16.1.2,40804,7500,14480,0,65728,65700,6,6,4,1460,559,1,992,70,33580,0,65700,0,0,0,0,0
i,0x00000000,1720890098.067294,172.16.3.2,5101,172.16.1.2,40804,7500,14480,0,65728,65700,6,6,4,1460,559,1,992,70,33580,0,65700,0,0,0,0,0
o,0x00000000,1720890098.067312,172.16.3.2,5101,172.16.1.2,40804,7500,14480,0,65728,65700,6,6,4,1460,559,1,993,70,33580,0,65700,1448,0,0,0,0
i,0x00000000,1720890098.077155,172.16.3.2,5101,172.16.1.2,40804,7500,14480,0,65728,65700,6,6,4,1460,559,1,992,70,33580,0,65700,0,0,0,0,0
i,0x00000000,1720890098.087251,172.16.3.2,5101,172.16.1.2,40804,7500,14480,0,65728,65700,6,6,4,1460,559,1,992,70,33580,0,65700,0,0,0,0,0
o,0x00000000,1720890098.087263,172.16.3.2,5101,172.16.1.2,40804,7500,14480,0,65728,65700,6,6,4,1460,559,1,993,70,33580,0,65700,1448,0,0,0,0
i,0x00000000,1720890098.126330,172.16.3.2,5101,172.16.1.2,40804,7500,14480,0,65728,65700,6,6,4,1460,559,1,992,70,33580,0,65700,0,0,0,0,0
i,0x00000000,1720890098.156630,172.16.3.2,5101,172.16.1.2,40804,7500,14480,0,65728,65700,6,6,4,1460,559,1,992,70,33580,0,65700,0,0,0,0,0
o,0x00000000,1720890098.156642,172.16.3.2,5101,172.16.1.2,40804,7500,14480,0,65728,65700,6,6,4,1460,559,1,993,70,33580,0,65700,1448,0,0,0,0
i,0x00000000,1720890098.206510,172.16.3.2,5101,172.16.1.2,40804,7500,14480,0,65728,65700,6,6,4,1460,559,1,992,70,33580,0,65700,0,0,0,0,0
o,0x00000000,1720890098.241662,172.16.3.2,5101,172.16.1.2,40804,7500,14480,0,65728,65700,6,6,4,1460,559,1,993,70,33580,0,65700,0,0,0,0,0
i,0x00000000,1720890098.257322,172.16.3.2,5101,172.16.1.2,40804,7500,14480,0,65728,65700,6,6,4,1460,559,1,992,70,33580,0,65700,0,0,0,0,0
i,0x00000000,1720890098.266777,172.16.3.2,5101,172.16.1.2,40804,7500,14480,0,65728,65700,6,6,4,1460,559,1,992,70,33580,0,65700,0,0,0,0,0
o,0x00000000,1720890098.266797,172.16.3.2,5101,172.16.1.2,40804,7500,14480,0,65728,65700,6,6,4,1460,559,1,993,70,33580,0,65700,1448,0,0,0,0
i,0x00000000,1720890098.298896,172.16.3.2,5101,172.16.1.2,40804,7500,14480,0,65728,65700,6,6,4,1460,559,1,992,70,33580,0,65700,0,0,0,0,0
i,0x00000000,1720890098.317898,172.16.3.2,5101,172.16.1.2,40804,7500,14480,0,65728,65700,6,6,4,1460,559,1,992,70,33580,0,65700,0,0,0,0,0
o,0x00000000,1720890098.317920,172.16.3.2,5101,172.16.1.2,40804,7500,14480,0,65728,65700,6,6,4,1460,559,1,993,70,33580,0,65700,1448,0,0,0,0
i,0x00000000,1720890098.326617,172.16.3.2,5101,172.16.1.2,40804,7500,14480,0,65728,65700,6,6,4,1460,559,1,992,70,33580,0,65700,0,0,0,0,0
i,0x00000000,1720890098.336620,172.16.3.2,5101,172.16.1.2,40804,7500,14480,0,65728,65700,6,6,4,1460,559,1,992,70,33580,0,65700,0,0,0,0,0
o,0x00000000,1720890098.336634,172.16.3.2,5101,172.16.1.2,40804,7500,14480,0,65728,65700,6,6,4,1460,559,1,993,70,33580,0,65700,1448,0,0,0,0
i,0x00000000,1720890098.386715,172.16.3.2,5101,172.16.1.2,40804,7500,14480,0,65728,65700,6,6,4,1460,559,1,992,70,33580,0,65700,0,0,0,0,0
i,0x00000000,1720890098.396286,172.16.3.2,5101,172.16.1.2,40804,7500,14480,0,65728,65700,6,6,4,1460,559,1,992,70,33580,0,65700,0,0,0,0,0
o,0x00000000,1720890098.396307,172.16.3.2,5101,172.16.1.2,40804,7500,14480,0,65728,65700,6,6,4,1460,559,1,993,70,33580,0,65700,1448,0,0,0,0
i,0x00000000,1720890098.407524,172.16.3.2,5101,172.16.1.2,40804,7500,14480,0,65728,65700,6,6,4,1460,559,1,992,70,33580,0,65700,0,0,0,0,0
o,0x00000000,1720890098.441667,172.16.3.2,5101,172.16.1.2,40804,7500,14480,0,65728,65700,6,6,4,1460,559,1,993,70,33580,0,65700,0,0,0,0,0
i,0x00000000,1720890098.456665,172.16.3.2,5101,172.16.1.2,40804,7500,14480,0,65728,65700,6,6,4,1460,559,1,992,70,33580,0,65700,0,0,0,0,0
o,0x00000000,1720890098.492594,172.16.3.2,5101,172.16.1.2,40804,7500,14480,0,65728,65700,6,6,4,1460,559,1,993,70,33580,0,65700,0,0,0,0,0
i,0x00000000,1720890098.497246,172.16.3.2,5101,172.16.1.2,40804,7500,14480,0,65728,65700,6,6,4,1460,559,1,992,70,33580,0,65700,0,0,0,0,0
i,0x00000000,1720890098.507509,172.16.3.2,5101,172.16.1.2,40804,7500,14480,0,65728,65700,6,6,4,1460,559,1,992,70,33580,0,65700,0,0,0,0,0
o,0x00000000,1720890098.507531,172.16.3.2,5101,172.16.1.2,40804,7500,14480,0,65728,65700,6,6,4,1460,559,1,993,70,33580,0,65700,1448,0,0,0,0
i,0x00000000,1720890098.516747,172.16.3.2,5101,172.16.1.2,40804,7500,14480,0,65728,65700,6,6,4,1460,559,1,992,70,33580,0,65700,0,0,0,0,0
o,0x00000000,1720890098.551541,172.16.3.2,5101,172.16.1.2,40804,7500,14480,0,65728,65700,6,6,4,1460,559,1,993,70,33580,0,65700,0,0,0,0,0
i,0x00000000,1720890098.556082,172.16.3.2,5101,172.16.1.2,40804,7500,14480,0,65728,65700,6,6,4,1460,559,1,992,70,33580,0,65700,0,0,0,0,0
i,0x00000000,1720890098.586468,172.16.3.2,5101,172.16.1.2,40804,7500,14480,0,65728,65700,6,6,4,1460,559,1,992,70,33580,0,65700,0,0,0,0,0
o,0x00000000,1720890098.586483,172.16.3.2,5101,172.16.1.2,40804,7500,14480,0,65728,65700,6,6,4,1460,559,1,993,70,33580,0,65700,1448,0,0,0,0
i,0x00000000,1720890098.596329,172.16.3.2,5101,172.16.1.2,40804,7500,14480,0,65728,65700,6,6,4,1460,559,1,992,70,33580,0,65700,0,0,0,0,0
i,0x00000000,1720890098.616222,172.16.3.2,5101,172.16.1.2,40804,7500,14480,0,65728,65700,6,6,4,1460,559,1,992,70,33580,0,65700,0,0,0,0,0
o,0x00000000,1720890098.616237,172.16.3.2,5101,172.16.1.2,40804,7500,14480,0,65728,65700,6,6,4,1460,559,1,993,70,33580,0,65700,1448,0,0,0,0
o,0x00000000,1720890098.621658,10.0.2.15,22,10.0.2.2,57021,1073725440,14600,0,65535,65700,0,0,4,1460,1,0,4,24,33580,108,65700,0,0,0,0,0
i,0x00000000,1720890098.622502,10.0.2.15,22,10.0.2.2,57021,1073725440,14600,0,65535,65700,0,0,4,1460,1,0,4,24,33580,108,65700,0,108,0,0,0
i,0x00000000,1720890098.666843,172.16.3.2,5101,172.16.1.2,40804,7500,14480,0,65728,65700,6,6,4,1460,559,1,992,70,33580,0,65700,0,0,0,0,0
i,0x00000000,1720890098.696167,172.16.3.2,5101,172.16.1.2,40804,7500,14480,0,65728,65700,6,6,4,1460,559,1,992,70,33580,0,65700,0,0,0,0,0
o,0x00000000,1720890098.696184,172.16.3.2,5101,172.16.1.2,40804,7500,14480,0,65728,65700,6,6,4,1460,559,1,993,70,33580,0,65700,1448,0,0,0,0
i,0x00000000,1720890098.706219,172.16.3.2,5101,172.16.1.2,40804,7500,14480,0,65728,65700,6,6,4,1460,559,1,992,70,33580,0,65700,0,0,0,0,0
i,0x00000000,1720890098.737889,172.16.3.2,5101,172.16.1.2,40804,7500,14480,0,65728,65700,6,6,4,1460,559,1,992,70,33580,0,65700,0,0,0,0,0
o,0x00000000,1720890098.737918,172.16.3.2,5101,172.16.1.2,40804,7500,14480,0,65728,65700,6,6,4,1460,559,1,993,70,33580,0,65700,1448,0,0,0,0
i,0x00000000,1720890098.757249,172.16.3.2,5101,172.16.1.2,40804,7500,14480,0,65728,65700,6,6,4,1460,559,1,992,70,33580,0,65700,0,0,0,0,0
i,0x00000000,1720890098.786223,172.16.3.2,5101,172.16.1.2,40804,7500,14480,0,65728,65700,6,6,4,1460,559,1,992,70,33580,0,65700,0,0,0,0,0
o,0x00000000,1720890098.786239,172.16.3.2,5101,172.16.1.2,40804,7500,14480,0,65728,65700,6,6,4,1460,559,1,993,70,33580,0,65700,1448,0,0,0,0
i,0x00000000,1720890098.807014,172.16.3.2,5101,172.16.1.2,40804,7500,14480,0,65728,65700,6,6,4,1460,559,1,992,70,33580,0,65700,0,0,0,0,0
i,0x00000000,1720890098.836752,172.16.3.2,5101,172.16.1.2,40804,7500,14480,0,65728,65700,6,6,4,1460,559,1,992,70,33580,0,65700,0,0,0,0,0
o,0x00000000,1720890098.836770,172.16.3.2,5101,172.16.1.2,40804,7500,14480,0,65728,65700,6,6,4,1460,559,1,993,70,33580,0,65700,1448,0,0,0,0
i,0x00000000,1720890098.847465,172.16.3.2,5101,172.16.1.2,40804,7500,14480,0,65728,65700,6,6,4,1460,559,1,992,70,33580,0,65700,0,0,0,0,0
o,0x00000000,1720890098.881571,172.16.3.2,5101,172.16.1.2,40804,7500,14480,0,65728,65700,6,6,4,1460,559,1,993,70,33580,0,65700,0,0,0,0,0
i,0x00000000,1720890098.896519,172.16.3.2,5101,172.16.1.2,40804,7500,14480,0,65728,65700,6,6,4,1460,559,1,992,70,33580,0,65700,0,0,0,0,0
i,0x00000000,1720890098.916221,172.16.3.2,5101,172.16.1.2,40804,7500,14480,0,65728,65700,6,6,4,1460,559,1,992,70,33580,0,65700,0,0,0,0,0
o,0x00000000,1720890098.916241,172.16.3.2,5101,172.16.1.2,40804,7500,14480,0,65728,65700,6,6,4,1460,559,1,993,70,33580,0,65700,1448,0,0,0,0
i,0x00000000,1720890098.947282,172.16.3.2,5101,172.16.1.2,40804,7500,14480,0,65728,65700,6,6,4,1460,559,1,992,70,33580,0,65700,0,0,0,0,0
i,0x00000000,1720890098.966276,172.16.3.2,5101,172.16.1.2,40804,7500,14480,0,65728,65700,6,6,4,1460,559,1,992,70,33580,0,65700,0,0,0,0,0
o,0x00000000,1720890098.966294,172.16.3.2,5101,172.16.1.2,40804,7500,14480,0,65728,65700,6,6,4,1460,559,1,993,70,33580,0,65700,1448,0,0,0,0
i,0x00000000,1720890098.976126,172.16.3.2,5101,172.16.1.2,40804,7500,14480,0,65728,65700,6,6,4,1460,559,1,992,70,33580,0,65700,0,0,0,0,0
i,0x00000000,1720890099.006205,172.16.3.2,5101,172.16.1.2,40804,7500,14480,0,65728,65700,6,6,4,1460,559,1,992,70,33580,0,65700,0,0,0,0,0
o,0x00000000,1720890099.006225,172.16.3.2,5101,172.16.1.2,40804,7500,14480,0,65728,65700,6,6,4,1460,559,1,993,70,33580,0,65700,1448,0,0,0,0
i,0x00000000,1720890099.026327,172.16.3.2,5101,172.16.1.2,40804,7500,14480,0,65728,65700,6,6,4,1460,559,1,992,70,33580,0,65700,0,0,0,0,0
o,0x00000000,1720890099.061633,172.16.3.2,5101,172.16.1.2,40804,7500,14480,0,65728,65700,6,6,4,1460,559,1,993,70,33580,0,65700,0,0,0,0,0
i,0x00000000,1720890099.066380,172.16.3.2,5101,172.16.1.2,40804,7500,14480,0,65728,65700,6,6,4,1460,559,1,992,70,33580,0,65700,0,0,0,0,0
i,0x00000000,1720890099.085845,172.16.3.2,5101,172.16.1.2,40804,7500,14480,0,65728,65700,6,6,4,1460,559,1,992,70,33580,0,65700,0,0,0,0,0
o,0x00000000,1720890099.085860,172.16.3.2,5101,172.16.1.2,40804,7500,14480,0,65728,65700,6,6,4,1460,559,1,993,70,33580,0,65700,1448,0,0,0,0
i,0x00000000,1720890099.115876,172.16.3.2,5101,172.16.1.2,40804,7500,14480,0,65728,65700,6,6,4,1460,559,1,992,70,33580,0,65700,0,0,0,0,0
i,0x00000000,1720890099.137631,172.16.3.2,5101,172.16.1.2,40804,7500,14480,0,65728,65700,6,6,4,1460,559,1,992,70,33580,0,65700,0,0,0,0,0
o,0x00000000,1720890099.137662,172.16.3.2,5101,172.16.1.2,40804,7500,14480,0,65728,65700,6,6,4,1460,559,1,993,70,33580,0,65700,1448,0,0,0,0
i,0x00000000,1720890099.146767,172.16.3.2,5101,172.16.1.2,40804,7500,14480,0,65728,65700,6,6,4,1460,559,1,992,70,33580,0,65700,0,0,0,0,0
o,0x00000000,1720890099.181896,172.16.3.2,5101,172.16.1.2,40804,7500,14480,0,65728,65700,6,6,4,1460,559,1,993,70,33580,0,65700,0,0,0,0,0
i,0x00000000,1720890099.196830,172.16.3.2,5101,172.16.1.2,40804,7500,14480,0,65728,65700,6,6,4,1460,559,1,992,70,33580,0,65700,0,0,0,0,0
i,0x00000000,1720890099.206713,172.16.3.2,5101,172.16.1.2,40804,7500,14480,0,65728,65700,6,6,4,1460,559,1,992,70,33580,0,65700,0,0,0,0,0
o,0x00000000,1720890099.206730,172.16.3.2,5101,172.16.1.2,40804,7500,14480,0,65728,65700,6,6,4,1460,559,1,993,70,33580,0,65700,1448,0,0,0,0
i,0x00000000,1720890099.256624,172.16.3.2,5101,172.16.1.2,40804,7500,14480,0,65728,65700,6,6,4,1460,559,1,992,70,33580,0,65700,0,0,0,0,0
i,0x00000000,1720890099.266500,172.16.3.2,5101,172.16.1.2,40804,7500,14480,0,65728,65700,6,6,4,1460,559,1,992,70,33580,0,65700,0,0,0,0,0
o,0x00000000,1720890099.266516,172.16.3.2,5101,172.16.1.2,40804,7500,14480,0,65728,65700,6,6,4,1460,559,1,993,70,33580,0,65700,1448,0,0,0,0
i,0x00000000,1720890099.275831,172.16.3.2,5101,172.16.1.2,40804,7500,14480,0,65728,65700,6,6,4,1460,559,1,992,70,33580,0,65700,0,0,0,0,0
o,0x00000000,1720890099.311933,172.16.3.2,5101,172.16.1.2,40804,7500,14480,0,65728,65700,6,6,4,1460,559,1,993,70,33580,0,65700,0,0,0,0,0
i,0x00000000,1720890099.315843,172.16.3.2,5101,172.16.1.2,40804,7500,14480,0,65728,65700,6,6,4,1460,559,1,992,70,33580,0,65700,0,0,0,0,0
i,0x00000000,1720890099.325776,172.16.3.2,5101,172.16.1.2,40804,7500,14480,0,65728,65700,6,6,4,1460,559,1,992,70,33580,0,65700,0,0,0,0,0
o,0x00000000,1720890099.325791,172.16.3.2,5101,172.16.1.2,40804,7500,14480,0,65728,65700,6,6,4,1460,559,1,993,70,33580,0,65700,1448,0,0,0,0
i,0x00000000,1720890099.335633,172.16.3.2,5101,172.16.1.2,40804,7500,14480,0,65728,65700,6,6,4,1460,559,1,992,70,33580,0,65700,0,0,0,0,0
o,0x00000000,1720890099.372425,172.16.3.2,5101,172.16.1.2,40804,7500,14480,0,65728,65700,6,6,4,1460,559,1,993,70,33580,0,65700,0,0,0,0,0
