enable_time_secs=1720889888	enable_time_usecs=132167	siftrver=1.2.4	hz=100	tcp_rtt_scale=32	sysname=FreeBSD	sysver=1301000	ipmode=4
o,0x00000000,1720889888.132200,10.0.2.15,22,10.0.2.2,51026,1073725440,17770,0,65535,65700,0,0,4,1460,1,0,4,23,33580,44,65700,0,0,0,0,0
o,0x00000000,1720889888.132335,10.0.2.15,22,10.0.2.2,51026,1073725440,17770,0,65535,65700,0,0,4,1460,1,0,4,23,33580,80,65700,0,44,0,0,0
i,0x00000000,1720889888.133892,10.0.2.15,22,10.0.2.2,51026,1073725440,17770,0,65535,65700,0,0,4,1460,1,0,4,23,33580,80,65700,0,80,0,0,0
i,0x00000000,1720889888.133901,10.0.2.15,22,10.0.2.2,51026,1073725440,17814,0,65535,65700,0,0,4,1460,1,0,4,23,33580,36,65700,0,36,0,0,0
o,0x00000000,1720889888.134035,10.0.2.15,22,10.0.2.2,51026,1073725440,17850,0,65535,65700,0,0,4,1460,1,0,4,23,33580,36,65700,0,0,0,0,0
i,0x00000000,1720889888.134543,10.0.2.15,22,10.0.2.2,51026,1073725440,17850,0,65535,65700,0,0,4,1460,1,0,4,23,33580,36,65700,0,36,0,0,0
o,0x00000000,1720889888.134638,10.0.2.15,22,10.0.2.2,51026,1073725440,17886,0,65535,65700,0,0,4,1460,1,0,4,23,33580,36,65700,0,0,0,0,0
i,0x00000000,1720889888.135406,10.0.2.15,22,10.0.2.2,51026,1073725440,17886,0,65535,65700,0,0,4,1460,1,0,4,23,33580,36,65700,0,36,0,0,0
o,0x00000000,1720889888.135540,10.0.2.15,22,10.0.2.2,51026,1073725440,17922,0,65535,65700,0,0,4,1460,1,0,4,23,33580,140,65700,0,0,0,0,0
i,0x00000000,1720889888.136583,10.0.2.15,22,10.0.2.2,51026,1073725440,17922,0,65535,65700,0,0,4,1460,1,0,4,23,33580,140,65700,0,140,0,0,0
i,0x00000000,1720889888.136587,10.0.2.15,22,10.0.2.2,51026,1073725440,18062,0,65535,65700,0,0,4,1460,1,0,4,24,33580,0,65700,0,0,0,0,0
i,0x00000000,1720889888.136589,10.0.2.15,22,10.0.2.2,51026,1073725440,18062,0,65535,65700,0,0,4,1460,1,0,4,24,33580,0,65700,96,0,0,0,0
o,0x00000000,1720889888.136591,10.0.2.15,22,10.0.2.2,51026,1073725440,18062,0,65535,65604,0,0,5,1460,1,0,5,24,33580,0,65700,96,0,0,0,0
o,0x00000000,1720889888.137044,10.0.2.15,22,10.0.2.2,51026,1073725440,18062,0,65535,65604,0,0,8,1460,1,0,4,24,33580,0,65700,0,0,0,0,0
i,0x00000000,1720889888.137678,10.0.2.15,22,10.0.2.2,51026,1073725440,18062,0,65535,65604,0,0,8,1460,1,0,20,24,33580,0,65700,0,1,0,0,0
i,0x00000000,1720889890.307922,10.0.2.15,22,10.0.2.2,51036,1073725440,14600,0,65535,65700,0,0,4,1460,1,0,0,27,33580,0,65700,0,0,0,0,0
o,0x00000000,1720889890.327282,10.0.2.15,22,10.0.2.2,51036,1073725440,14600,0,65535,65700,0,0,4,1460,1,0,0,27,33580,38,65700,42,0,0,0,0
i,0x00000000,1720889890.332237,10.0.2.15,22,10.0.2.2,51036,1073725440,14600,0,65535,65700,0,0,4,1460,1,0,0,27,33580,38,65700,42,38,0,0,0
i,0x00000000,1720889890.332265,10.0.2.15,22,10.0.2.2,51036,1073725440,14638,0,65535,65700,0,0,4,1460,1,0,0,24,33580,0,65700,42,0,0,0,0
i,0x00000000,1720889890.332270,10.0.2.15,22,10.0.2.2,51036,1073725440,14638,0,65535,65700,0,0,4,1460,1,0,0,24,33580,0,65700,1502,0,0,0,0
o,0x00000000,1720889890.332283,10.0.2.15,22,10.0.2.2,51036,1073725440,14638,0,65535,65700,0,0,4,1460,1,0,1,24,33580,0,65700,1578,0,0,0,0
o,0x00000000,1720889890.334646,10.0.2.15,22,10.0.2.2,51036,1073725440,14638,0,65535,65700,0,0,4,1460,1,0,0,24,33580,1056,65700,1536,0,0,0,0
i,0x00000000,1720889890.340689,10.0.2.15,22,10.0.2.2,51036,1073725440,14638,0,65535,65700,0,0,4,1460,1,0,0,24,33580,1056,65700,1536,1056,0,0,0
i,0x00000000,1720889890.340711,10.0.2.15,22,10.0.2.2,51036,1073725440,15694,0,65535,65700,0,0,4,1460,1,0,0,24,33580,0,65700,1536,0,0,0,0
o,0x00000000,1720889890.350637,10.0.2.15,22,10.0.2.2,51036,1073725440,15694,0,65535,65700,0,0,4,1460,1,0,0,24,33580,484,65700,0,0,0,0,0
i,0x00000000,1720889890.352961,10.0.2.15,22,10.0.2.2,51036,1073725440,15694,0,65535,65700,0,0,4,1460,1,0,0,24,33580,484,65700,0,484,0,0,0
i,0x00000000,1720889890.364954,10.0.2.15,22,10.0.2.2,51036,1073725440,16178,0,65535,65700,0,0,4,1460,1,0,0,24,33580,0,65700,0,0,0,0,0
i,0x00000000,1720889890.364966,10.0.2.15,22,10.0.2.2,51036,1073725440,16178,0,65535,65700,0,0,4,1460,1,0,0,24,33580,0,65700,16,0,0,0,0
o,0x00000000,1720889890.364971,10.0.2.15,22,10.0.2.2,51036,1073725440,16178,0,65535,65700,0,0,4,1460,1,0,1,24,33580,0,65700,60,0,0,0,0
o,0x00000000,1720889890.365363,10.0.2.15,22,10.0.2.2,51036,1073725440,16178,0,65535,65700,0,0,4,1460,1,0,0,24,33580,44,65700,0,0,0,0,0
i,0x00000000,1720889890.366849,10.0.2.15,22,10.0.2.2,51036,1073725440,16178,0,65535,65700,0,0,4,1460,1,0,0,24,33580,44,65700,0,44,0,0,0
i,0x00000000,1720889890.366857,10.0.2.15,22,10.0.2.2,51036,1073725440,16222,0,65535,65700,0,0,4,1460,1,0,0,24,33580,0,65700,0,0,0,0,0
o,0x00000000,1720889890.377755,10.0.2.15,22,10.0.2.2,51036,1073725440,16222,0,65535,65700,0,0,4,1460,1,0,0,24,33580,68,65700,0,0,0,0,0
i,0x00000000,1720889890.380915,10.0.2.15,22,10.0.2.2,51036,1073725440,16222,0,65535,65700,0,0,4,1460,1,0,0,24,33580,68,65700,0,68,0,0,0
i,0x00000000,1720889890.380929,10.0.2.15,22,10.0.2.2,51036,1073725440,16290,0,65535,65700,0,0,4,1460,1,0,0,24,33580,0,65700,0,0,0,0,0
o,0x00000000,1720889890.383242,10.0.2.15,22,10.0.2.2,51036,1073725440,16290,0,65535,65700,0,0,4,1460,1,0,0,24,33580,332,65700,0,0,0,0,0
i,0x00000000,1720889890.386357,10.0.2.15,22,10.0.2.2,51036,1073725440,16290,0,65535,65700,0,0,4,1460,1,0,0,24,33580,332,65700,0,332,0,0,0
i,0x00000000,1720889890.389871,10.0.2.15,22,10.0.2.2,51036,1073725440,16622,0,65535,65700,0,0,4,1460,1,0,0,24,33580,0,65700,0,0,0,0,0
o,0x00000000,1720889890.402125,10.0.2.15,22,10.0.2.2,51036,1073725440,16622,0,65535,65700,0,0,4,1460,1,0,0,24,33580,28,65700,0,0,0,0,0
i,0x00000000,1720889890.408100,10.0.2.15,22,10.0.2.2,51036,1073725440,16622,0,65535,65700,0,0,4,1460,1,0,0,24,33580,28,65700,0,28,0,0,0
i,0x00000000,1720889890.408117,10.0.2.15,22,10.0.2.2,51036,1073725440,16650,0,65535,65700,0,0,4,1460,1,0,0,24,33580,0,65700,0,0,0,0,0
o,0x00000000,1720889890.411375,10.0.2.15,22,10.0.2.2,51036,1073725440,16650,0,65535,65700,0,0,4,1460,1,0,0,24,33580,768,65700,112,0,0,0,0
i,0x00000000,1720889890.414861,10.0.2.15,22,10.0.2.2,51036,1073725440,16650,0,65535,65700,0,0,4,1460,1,0,0,24,33580,768,65700,112,768,0,0,0
o,0x00000000,1720889890.415534,10.0.2.15,22,10.0.2.2,51036,1073725440,17418,0,65535,65700,0,0,4,1460,1,0,0,24,33580,140,65700,112,0,0,0,0
i,0x00000000,1720889890.420157,10.0.2.15,22,10.0.2.2,51036,1073725440,17418,0,65535,65700,0,0,4,1460,1,0,0,24,33580,140,65700,112,140,0,0,0
o,0x00000000,1720889890.421102,10.0.2.15,22,10.0.2.2,51036,1073725440,17558,0,65535,65700,0,0,4,1460,1,0,0,24,33580,44,65700,0,0,0,0,0
i,0x00000000,1720889890.423938,10.0.2.15,22,10.0.2.2,51036,1073725440,17558,0,65535,65700,0,0,4,1460,1,0,0,24,33580,44,65700,0,44,0,0,0
i,0x00000000,1720889890.423945,10.0.2.15,22,10.0.2.2,51036,1073725440,17602,0,65535,65700,0,0,4,1460,1,0,0,24,33580,0,65700,0,0,0,0,0
o,0x00000000,1720889890.424712,10.0.2.15,22,10.0.2.2,51036,1073725440,17602,0,65535,65700,0,0,4,1460,1,0,4,24,33580,72,65700,0,0,0,0,0
i,0x00000000,1720889890.427747,10.0.2.15,22,10.0.2.2,51036,1073725440,17602,0,65535,65700,0,0,4,1460,1,0,4,24,33580,72,65700,0,72,0,0,0
o,0x00000000,1720889890.438292,10.0.2.15,22,10.0.2.2,51036,1073725440,17674,0,65535,65700,0,0,4,1460,1,0,4,24,33580,44,65700,0,0,0,0,0
i,0x00000000,1720889890.442066,10.0.2.15,22,10.0.2.2,51036,1073725440,17674,0,65535,65700,0,0,4,1460,1,0,4,24,33580,44,65700,0,44,0,0,0
o,0x00000000,1720889890.443703,10.0.2.15,22,10.0.2.2,51036,1073725440,17718,0,65535,65700,0,0,4,1460,1,0,4,24,33580,44,65700,0,0,0,0,0
i,0x00000000,1720889890.449704,10.0.2.15,22,10.0.2.2,51036,1073725440,17718,0,65535,65700,0,0,4,1460,1,0,4,24,33580,44,65700,0,44,0,0,0
o,0x00000000,1720889890.454153,10.0.2.15,22,10.0.2.2,51036,1073725440,17762,0,65535,65700,0,0,4,1460,1,0,4,24,33580,176,65700,0,0,0,0,0
i,0x00000000,1720889890.457162,10.0.2.15,22,10.0.2.2,51036,1073725440,17762,0,65535,65700,0,0,4,1460,1,0,4,24,33580,176,65700,0,176,0,0,0
i,0x00000000,1720889890.457175,10.0.2.15,22,10.0.2.2,51036,1073725440,17938,0,65535,65700,0,0,4,1460,1,0,4,24,33580,0,65700,0,0,0,0,0
i,0x00000000,1720889890.457178,10.0.2.15,22,10.0.2.2,51036,1073725440,17938,0,65535,65700,0,0,4,1460,1,0,4,24,33580,0,65700,96,0,0,0,0
o,0x00000000,1720889890.457184,10.0.2.15,22,10.0.2.2,51036,1073725440,17938,0,65535,65604,0,0,5,1460,1,0,5,24,33580,0,65700,96,0,0,0,0
o,0x00000000,1720889890.471444,10.0.2.15,22,10.0.2.2,51036,1073725440,17938,0,65535,65604,0,0,8,1460,1,0,4,24,33580,0,65700,0,0,0,0,0
i,0x00000000,1720889890.473304,10.0.2.15,22,10.0.2.2,51036,1073725440,17938,0,65535,65604,0,0,8,1460,1,0,20,24,33580,0,65700,0,1,0,0,0
i,0x00000000,1720889890.754442,172.16.3.2,5101,172.16.1.2,58237,1073725440,14480,0,65728,65700,6,6,4,1460,454,1,992,45,33580,0,65700,0,0,0,0,0
o,0x00000000,1720889890.754888,172.16.3.2,5101,172.16.1.2,58237,1073725440,14480,0,65728,65700,6,6,4,1460,454,1,996,45,33580,1,65700,0,0,0,0,0
i,0x00000000,1720889890.882405,172.16.3.2,5101,172.16.1.2,58237,1073725440,14480,0,65728,65700,6,6,4,1460,454,1,996,45,33580,1,65700,0,1,0,0,0
i,0x00000000,1720889890.882444,172.16.3.2,5101,172.16.1.2,58237,1073725440,14481,0,65728,65728,6,6,4,1460,446,1,996,44,33580,0,65700,4,0,0,0,0
o,0x00000000,1720889890.882463,172.16.3.2,5101,172.16.1.2,58237,1073725440,14481,0,65728,65728,6,6,4,1460,446,1,997,44,33580,0,65700,128,0,0,0,0
o,0x00000000,1720889890.883582,172.16.3.2,5101,172.16.1.2,58237,1073725440,14481,0,65728,65728,6,6,4,1460,446,1,996,44,33580,1,65700,0,0,0,0,0
o,0x00000000,1720889890.886029,10.0.2.15,22,10.0.2.2,57021,1073725440,14600,0,65535,65700,0,0,4,1460,1,0,4,24,33580,84,65700,0,0,0,0,0
i,0x00000000,1720889890.891351,10.0.2.15,22,10.0.2.2,57021,1073725440,14600,0,65535,65700,0,0,4,1460,1,0,4,24,33580,84,65700,0,84,0,0,0
i,0x00000000,1720889891.045631,172.16.3.2,5101,172.16.1.2,58237,1073725440,14481,0,65728,65728,6,6,4,1460,446,1,996,44,33580,1,65700,0,1,0,0,0
i,0x00000000,1720889891.137141,172.16.3.2,5101,172.16.1.2,52042,1073725440,14480,0,65728,65700,6,6,4,1460,454,1,992,45,33580,0,65700,0,0,0,0,0
o,0x00000000,1720889891.151022,172.16.3.2,5101,172.16.1.2,58237,1073725440,14482,0,65728,65728,6,6,4,1460,455,1,996,44,33580,1,65700,0,0,0,0,0
o,0x00000000,1720889891.153670,172.16.3.2,5101,172.16.1.2,58237,1073725440,14482,0,65728,65728,6,6,4,1460,455,1,996,44,33580,2,65700,0,1,0,0,0
o,0x00000000,1720889891.154365,10.0.2.15,22,10.0.2.2,57021,1073725440,14600,0,65535,65700,0,0,4,1460,1,0,4,24,33580,108,65700,0,0,0,0,0
i,0x00000000,1720889891.157907,10.0.2.15,22,10.0.2.2,57021,1073725440,14600,0,65535,65700,0,0,4,1460,1,0,4,24,33580,108,65700,0,108,0,0,0
o,0x00000000,1720889891.172992,172.16.3.2,5101,172.16.1.2,52042,1073725440,14480,0,65728,65700,6,6,4,1460,454,1,993,45,33580,0,65700,0,0,0,0,0
i,0x00000000,1720889891.265072,172.16.3.2,5101,172.16.1.2,58237,1073725440,14482,0,65728,65728,6,6,4,1460,455,1,996,44,33580,2,65700,0,2,0,0,0
i,0x00000000,1720889891.365696,172.16.3.2,5101,172.16.1.2,52042,1073725440,14480,0,65728,65700,6,6,4,1460,454,1,992,45,33580,0,65700,0,0,0,0,0
i,0x00000000,1720889891.375696,172.16.3.2,5101,172.16.1.2,52042,1073725440,14480,0,65728,65700,6,6,4,1460,454,1,992,45,33580,0,65700,0,0,0,0,0
o,0x00000000,1720889891.375731,172.16.3.2,5101,172.16.1.2,52042,1073725440,14480,0,65728,65700,6,6,4,1460,454,1,993,45,33580,0,65700,1448,0,0,0,0
i,0x00000000,1720889891.383698,172.16.3.2,5101,172.16.1.2,52042,1073725440,14480,0,65728,65700,6,6,4,1460,454,1,992,45,33580,0,65700,0,0,0,0,0
i,0x00000000,1720889891.399546,172.16.3.2,5101,172.16.1.2,52042,1073725440,14480,0,65728,65700,6,6,4,1460,454,1,992,45,33580,0,65700,0,0,0,0,0
o,0x00000000,1720889891.399593,172.16.3.2,5101,172.16.1.2,52042,1073725440,14480,0,65728,65700,6,6,4,1460,454,1,993,45,33580,0,65700,1448,0,0,0,0
i,0x00000000,1720889891.413750,172.16.3.2,5101,172.16.1.2,52042,1073725440,14480,0,65728,65700,6,6,4,1460,454,1,992,45,33580,0,65700,0,0,0,0,0
i,0x00000000,1720889891.424054,172.16.3.2,5101,172.16.1.2,52042,1073725440,14480,0,65728,65700,6,6,4,1460,454,1,992,45,33580,0,65700,0,0,0,0,0
o,0x00000000,1720889891.424090,172.16.3.2,5101,172.16.1.2,52042,1073725440,14480,0,65728,65700,6,6,4,1460,454,1,993,45,33580,0,65700,1448,0,0,0,0
i,0x00000000,1720889891.444446,172.16.3.2,5101,172.16.1.2,52042,1073725440,14480,0,65728,65700,6,6,4,1460,454,1,992,45,33580,0,65700,0,0,0,0,0
i,0x00000000,1720889891.454542,172.16.3.2,5101,172.16.1.2,52042,1073725440,14480,0,65728,65700,6,6,4,1460,454,1,992,45,33580,0,65700,0,0,0,0,0
o,0x00000000,1720889891.454580,172.16.3.2,5101,172.16.1.2,52042,1073725440,14480,0,65728,65700,6,6,4,1460,454,1,993,45,33580,0,65700,1448,0,0,0,0
i,0x00000000,1720889891.466799,172.16.3.2,5101,172.16.1.2,52042,1073725440,14480,0,65728,65700,6,6,4,1460,454,1,992,45,33580,0,65700,0,0,0,0,0
i,0x00000000,1720889891.472530,172.16.3.2,5101,172.16.1.2,52042,1073725440,14480,0,65728,65700,6,6,4,1460,454,1,992,45,33580,0,65700,0,0,0,0,0
o,0x00000000,1720889891.472561,172.16.3.2,5101,172.16.1.2,52042,1073725440,14480,0,65728,65700,6,6,4,1460,454,1,993,45,33580,0,65700,1448,0,0,0,0
i,0x00000000,1720889891.584475,172.16.3.2,5101,172.16.1.2,52042,1073725440,14480,0,65728,65700,6,6,4,1460,454,1,992,45,33580,0,65700,0,0,0,0,0
i,0x00000000,1720889891.593834,172.16.3.2,5101,172.16.1.2,52042,1073725440,14480,0,65728,65700,6,6,4,1460,454,1,992,45,33580,0,65700,0,0,0,0,0
o,0x00000000,1720889891.593862,172.16.3.2,5101,172.16.1.2,52042,1073725440,14480,0,65728,65700,6,6,4,1460,454,1,993,45,33580,0,65700,1448,0,0,0,0
i,0x00000000,1720889891.661125,172.16.3.2,5101,172.16.1.2,52042,1073725440,14480,0,65728,65700,6,6,4,1460,454,1,992,45,33580,0,65700,0,0,0,0,0
i,0x00000000,1720889891.693590,172.16.3.2,5101,172.16.1.2,52042,1073725440,14480,0,65728,65700,6,6,4,1460,454,1,992,45,33580,0,65700,0,0,0,0,0
o,0x00000000,1720889891.693612,172.16.3.2,5101,172.16.1.2,52042,1073725440,14480,0,65728,65700,6,6,4,1460,454,1,993,45,33580,0,65700,1448,0,0,0,0
i,0x00000000,1720889891.701457,172.16.3.2,5101,172.16.1.2,52042,1073725440,14480,0,65728,65700,6,6,4,1460,454,1,992,45,33580,0,65700,0,0,0,0,0
i,0x00000000,1720889891.713711,172.16.3.2,5101,172.16.1.2,52042,1073725440,14480,0,65728,65700,6,6,4,1460,454,1,992,45,33580,0,65700,0,0,0,0,0
o,0x00000000,1720889891.713742,172.16.3.2,5101,172.16.1.2,52042,1073725440,14480,0,65728,65700,6,6,4,1460,454,1,993,45,33580,0,65700,1448,0,0,0,0
i,0x00000000,1720889891.774195,172.16.3.2,5101,172.16.1.2,52042,1073725440,14480,0,65728,65700,6,6,4,1460,454,1,992,45,33580,0,65700,0,0,0,0,0
i,0x00000000,1720889891.783134,172.16.3.2,5101,172.16.1.2,52042,1073725440,14480,0,65728,65700,6,6,4,1460,454,1,992,45,33580,0,65700,0,0,0,0,0
o,0x00000000,1720889891.783172,172.16.3.2,5101,172.16.1.2,52042,1073725440,14480,0,65728,65700,6,6,4,1460,454,1,993,45,33580,0,65700,1448,0,0,0,0
i,0x00000000,1720889891.783660,172.16.3.2,5101,172.16.1.2,52042,1073725440,14480,0,65728,65700,6,6,4,1460,454,1,992,45,33580,0,65700,1448,0,0,0,0
i,0x00000000,1720889891.783680,172.16.3.2,5101,172.16.1.2,52042,1073725440,14480,0,65728,65700,6,6,4,1460,454,1,992,45,33580,0,65700,2896,0,0,0,0
o,0x00000000,1720889891.783692,172.16.3.2,5101,172.16.1.2,52042,1073725440,14480,0,65728,65700,6,6,4,1460,454,1,993,45,33580,0,65700,4344,0,0,0,0
i,0x00000000,1720889891.807883,172.16.3.2,5101,172.16.1.2,52042,1073725440,14480,0,65728,65700,6,6,4,1460,454,1,992,45,33580,0,65700,0,0,0,0,0
i,0x00000000,1720889891.812469,172.16.3.2,5101,172.16.1.2,52042,1073725440,14480,0,65728,65700,6,6,4,1460,454,1,992,45,33580,0,65700,0,0,0,0,0
o,0x00000000,1720889891.812504,172.16.3.2,5101,172.16.1.2,52042,1073725440,14480,0,65728,65700,6,6,4,1460,454,1,993,45,33580,0,65700,1448,0,0,0,0
i,0x00000000,1720889891.824386,172.16.3.2,5101,172.16.1.2,52042,1073725440,14480,0,65728,65700,6,6,4,1460,454,1,992,45,33580,0,65700,0,0,0,0,0
o,0x00000000,1720889891.862879,172.16.3.2,5101,172.16.1.2,52042,1073725440,14480,0,65728,65700,6,6,4,1460,454,1,993,45,33580,0,65700,0,0,0,0,0
i,0x00000000,1720889891.869354,172.16.3.2,5101,172.16.1.2,52042,1073725440,14480,0,65728,65700,6,6,4,1460,454,1,992,45,33580,0,65700,0,0,0,0,0
i,0x00000000,1720889891.872159,172.16.3.2,5101,172.16.1.2,52042,1073725440,14480,0,65728,65700,6,6,4,1460,454,1,992,45,33580,0,65700,0,0,0,0,0
o,0x00000000,1720889891.872193,172.16.3.2,5101,172.16.1.2,52042,1073725440,14480,0,65728,65700,6,6,4,1460,454,1,993,45,33580,0,65700,1448,0,0,0,0
i,0x00000000,1720889891.883552,172.16.3.2,5101,172.16.1.2,52042,1073725440,14480,0,65728,65700,6,6,4,1460,454,1,992,45,33580,0,65700,0,0,0,0,0
o,0x00000000,1720889891.923087,172.16.3.2,5101,172.16.1.2,52042,1073725440,14480,0,65728,65700,6,6,4,1460,454,1,993,45,33580,0,65700,0,0,0,0,0
i,0x00000000,1720889891.955914,172.16.3.2,5101,172.16.1.2,52042,1073725440,14480,0,65728,65700,6,6,4,1460,454,1,992,45,33580,0,65700,0,0,0,0,0
i,0x00000000,1720889891.963171,172.16.3.2,5101,172.16.1.2,52042,1073725440,14480,0,65728,65700,6,6,4,1460,454,1,992,45,33580,0,65700,0,0,0,0,0
o,0x00000000,1720889891.963216,172.16.3.2,5101,172.16.1.2,52042,1073725440,14480,0,65728,65700,6,6,4,1460,454,1,993,45,33580,0,65700,1448,0,0,0,0
i,0x00000000,1720889892.033794,172.16.3.2,5101,172.16.1.2,52042,1073725440,14480,0,65728,65700,6,6,4,1460,454,1,992,45,33580,0,65700,0,0,0,0,0
i,0x00000000,1720889892.043327,172.16.3.2,5101,172.16.1.2,52042,1073725440,14480,0,65728,65700,6,6,4,1460,454,1,992,45,33580,0,65700,0,0,0,0,0
o,0x00000000,1720889892.043363,172.16.3.2,5101,172.16.1.2,52042,1073725440,14480,0,65728,65700,6,6,4,1460,454,1,993,45,33580,0,65700,1448,0,0,0,0
i,0x00000000,1720889892.052620,172.16.3.2,5101,172.16.1.2,52042,1073725440,14480,0,65728,65700,6,6,4,1460,454,1,992,45,33580,0,65700,0,0,0,0,0
i,0x00000000,1720889892.079361,172.16.3.2,5101,172.16.1.2,52042,1073725440,14480,0,65728,65700,6,6,4,1460,454,1,992,45,33580,0,65700,0,0,0,0,0
o,0x00000000,1720889892.079419,172.16.3.2,5101,172.16.1.2,52042,1073725440,14480,0,65728,65700,6,6,4,1460,454,1,993,45,33580,0,65700,1448,0,0,0,0
i,0x00000000,1720889892.134254,172.16.3.2,5101,172.16.1.2,52042,1073725440,14480,0,65728,65700,6,6,4,1460,454,1,992,45,33580,0,65700,0,0,0,0,0
i,0x00000000,1720889892.142208,172.16.3.2,5101,172.16.1.2,52042,1073725440,14480,0,65728,65700,6,6,4,1460,454,1,992,45,33580,0,65700,0,0,0,0,0
o,0x00000000,1720889892.142235,172.16.3.2,5101,172.16.1.2,52042,1073725440,14480,0,65728,65700,6,6,4,1460,454,1,993,45,33580,0,65700,0,0,1,0,0
i,0x00000000,1720889892.163698,172.16.3.2,5101,172.16.1.2,52042,1073725440,14480,0,65728,65700,6,6,4,1460,454,1,992,45,33580,0,65700,0,0,1,0,0
o,0x00000000,1720889892.163728,172.16.3.2,5101,172.16.1.2,52042,1073725440,14480,0,65728,65728,6,6,4,1460,454,1,993,45,33580,0,65700,0,0,1,0,0
o,0x00000000,1720889892.164559,10.0.2.15,22,10.0.2.2,57021,1073725440,14600,0,65535,65700,0,0,4,1460,1,0,4,24,33580,156,65700,0,0,0,0,0
i,0x00000000,1720889892.167143,10.0.2.15,22,10.0.2.2,57021,1073725440,14600,0,65535,65700,0,0,4,1460,1,0,4,24,33580,156,65700,0,156,0,0,0
i,0x00000000,1720889892.182694,172.16.3.2,5101,172.16.1.2,52042,1073725440,14480,0,65728,65728,6,6,4,1460,454,1,992,45,33580,0,65700,0,0,1,0,0
o,0x00000000,1720889892.182715,172.16.3.2,5101,172.16.1.2,52042,1073725440,14480,0,65728,65728,6,6,4,1460,454,1,993,45,33580,0,65700,0,0,1,0,0
i,0x00000000,1720889892.194244,172.16.3.2,5101,172.16.1.2,52042,1073725440,14480,0,65728,65728,6,6,4,1460,454,1,992,45,33580,0,65700,0,0,1,0,0
o,0x00000000,1720889892.194270,172.16.3.2,5101,172.16.1.2,52042,1073725440,14480,0,65728,65728,6,6,4,1460,454,1,993,45,33580,0,65700,0,0,1,0,0
i,0x00000000,1720889892.212468,172.16.3.2,5101,172.16.1.2,52042,1073725440,14480,0,65728,65728,6,6,4,1460,454,1,992,45,33580,0,65700,0,0,1,0,0
o,0x00000000,1720889892.212508,172.16.3.2,5101,172.16.1.2,52042,1073725440,14480,0,65728,65728,6,6,4,1460,454,1,993,45,33580,0,65700,0,0,1,0,0
i,0x00000000,1720889892.236317,172.16.3.2,5101,172.16.1.2,52042,1073725440,14480,0,65728,65728,6,6,4,1460,454,1,992,45,33580,0,65700,0,0,1,0,0
o,0x00000000,1720889892.236348,172.16.3.2,5101,172.16.1.2,52042,1073725440,14480,0,65728,65728,6,6,4,1460,454,1,993,45,33580,0,65700,0,0,1,0,0
i,0x00000000,1720889892.244769,172.16.3.2,5101,172.16.1.2,52042,1073725440,14480,0,65728,65728,6,6,4,1460,454,1,992,45,33580,0,65700,0,0,1,0,0
o,0x00000000,1720889892.244799,172.16.3.2,5101,172.16.1.2,52042,1073725440,14480,0,65728,65728,6,6,4,1460,454,1,993,45,33580,0,65700,0,0,1,0,0
i,0x00000000,1720889892.293683,172.16.3.2,5101,172.16.1.2,52042,1073725440,14480,0,65728,65728,6,6,4,1460,454,1,992,45,33580,0,65700,0,0,1,0,0
o,0x00000000,1720889892.293726,172.16.3.2,5101,172.16.1.2,52042,1073725440,14480,0,65728,65728,6,6,4,1460,454,1,993,45,33580,0,65700,0,0,1,0,0
i,0x00000000,1720889892.301779,172.16.3.2,5101,172.16.1.2,52042,1073725440,14480,0,65728,65728,6,6,4,1460,454,1,992,45,33580,0,65700,0,0,1,0,0
o,0x00000000,1720889892.301809,172.16.3.2,5101,172.16.1.2,52042,1073725440,14480,0,65728,65728,6,6,4,1460,454,1,993,45,33580,0,65700,0,0,1,0,0
i,0x00000000,1720889892.339840,172.16.3.2,5101,172.16.1.2,52042,1073725440,14480,0,65728,65728,6,6,4,1460,454,1,992,45,33580,0,65700,0,0,1,0,0
o,0x00000000,1720889892.339888,172.16.3.2,5101,172.16.1.2,52042,1073725440,14480,0,65728,65728,6,6,4,1460,454,1,993,45,33580,0,65700,14480,0,0,0,0
i,0x00000000,1720889892.343111,172.16.3.2,5101,172.16.1.2,52042,1073725440,14480,0,65728,65728,6,6,4,1460,454,1,992,45,33580,0,65700,0,0,0,0,0
o,0x00000000,1720889892.343134,172.16.3.2,5101,172.16.1.2,52042,1073725440,14480,0,65728,65700,6,6,4,1460,454,1,993,45,33580,0,65700,0,0,0,0,0
i,0x00000000,1720889892.391063,172.16.3.2,5101,172.16.1.2,52042,1073725440,14480,0,65728,65700,6,6,4,1460,454,1,992,45,33580,0,65700,0,0,0,0,0
o,0x00000000,1720889892.391073,172.16.3.2,5101,172.16.1.2,52042,1073725440,14480,0,65728,65728,6,6,4,1460,454,1,993,45,33580,0,65700,0,0,0,0,0
i,0x00000000,1720889892.413215,172.16.3.2,5101,172.16.1.2,52042,1073725440,14480,0,65728,65728,6,6,4,1460,454,1,992,45,33580,0,65700,0,0,0,0,0
o,0x00000000,1720889892.413246,172.16.3.2,5101,172.16.1.2,52042,1073725440,14480,0,65728,65728,6,6,4,1460,454,1,993,45,33580,0,65700,0,0,0,0,0
i,0x00000000,1720889892.433926,172.16.3.2,5101,172.16.1.2,52042,1073725440,14480,0,65728,65728,6,6,4,1460,454,1,992,45,33580,0,65700,0,0,0,0,0
o,0x00000000,1720889892.433957,172.16.3.2,5101,172.16.1.2,52042,1073725440,14480,0,65728,65728,6,6,4,1460,454,1,993,45,33580,0,65700,0,0,0,0,0
i,0x00000000,1720889892.441033,172.16.3.2,5101,172.16.1.2,52042,1073725440,14480,0,65728,65728,6,6,4,1460,454,1,992,45,33580,0,65700,0,0,0,0,0
o,0x00000000,1720889892.441064,172.16.3.2,5101,172.16.1.2,52042,1073725440,14480,0,65728,65728,6,6,4,1460,454,1,993,45,33580,0,65700,0,0,1,0,0
i,0x00000000,1720889892.475329,172.16.3.2,5101,172.16.1.2,52042,1073725440,14480,0,65728,65728,6,6,4,1460,454,1,992,45,33580,0,65700,0,0,1,0,0
o,0x00000000,1720889892.475371,172.16.3.2,5101,172.16.1.2,52042,1073725440,14480,0,65728,65728,6,6,4,1460,454,1,993,45,33580,0,65700,0,0,1,0,0
i,0x00000000,1720889892.483775,172.16.3.2,5101,172.16.1.2,52042,1073725440,14480,0,65728,65728,6,6,4,1460,454,1,992,45,33580,0,65700,0,0,1,0,0
o,0x00000000,1720889892.483811,172.16.3.2,5101,172.16.1.2,52042,1073725440,14480,0,65728,65728,6,6,4,1460,454,1,993,45,33580,0,65700,0,0,1,0,0
i,0x00000000,1720889892.485308,172.16.3.2,5101,172.16.1.2,52042,1073725440,14480,0,65728,65728,6,6,4,1460,454,1,992,45,33580,0,65700,0,0,1,0,0
i,0x00000000,1720889892.501979,172.16.3.2,5101,172.16.1.2,52042,1073725440,14480,0,65728,65728,6,6,4,1460,454,1,992,45,33580,0,65700,0,0,1,0,0
o,0x00000000,1720889892.502002,172.16.3.2,5101,172.16.1.2,52042,1073725440,14480,0,65728,65728,6,6,4,1460,454,1,993,45,33580,0,65700,0,0,1,0,0
i,0x00000000,1720889892.536921,172.16.3.2,5101,172.16.1.2,52042,1073725440,14480,0,65728,65728,6,6,4,1460,454,1,992,45,33580,0,65700,0,0,1,0,0
o,0x00000000,1720889892.536954,172.16.3.2,5101,172.16.1.2,52042,1073725440,14480,0,65728,65728,6,6,4,1460,454,1,993,45,33580,0,65700,0,0,1,0,0
i,0x00000000,1720889892.573225,172.16.3.2,5101,172.16.1.2,52042,1073725440,14480,0,65728,65728,6,6,4,1460,454,1,992,45,33580,0,65700,0,0,1,0,0
o,0x00000000,1720889892.573269,172.16.3.2,5101,172.16.1.2,52042,1073725440,14480,0,65728,65728,6,6,4,1460,454,1,993,45,33580,0,65700,0,0,1,0,0
i,0x00000000,1720889892.643431,172.16.3.2,5101,172.16.1.2,52042,1073725440,14480,0,65728,65728,6,6,4,1460,454,1,992,45,33580,0,65700,0,0,1,0,0
o,0x00000000,1720889892.643465,172.16.3.2,5101,172.16.1.2,52042,1073725440,14480,0,65728,65728,6,6,4,1460,454,1,993,45,33580,0,65700,1448,0,1,0,0
i,0x00000000,1720889892.652362,172.16.3.2,5101,172.16.1.2,52042,1073725440,14480,0,65728,65728,6,6,4,1460,454,1,992,45,33580,0,65700,0,0,1,0,0
o,0x00000000,1720889892.652405,172.16.3.2,5101,172.16.1.2,52042,1073725440,14480,0,65728,65700,6,6,4,1460,454,1,993,45,33580,0,65700,1448,0,1,0,0
i,0x00000000,1720889892.661137,172.16.3.2,5101,172.16.1.2,52042,1073725440,14480,0,65728,65700,6,6,4,1460,454,1,992,45,33580,0,65700,0,0,1,0,0
o,0x00000000,1720889892.661155,172.16.3.2,5101,172.16.1.2,52042,1073725440,14480,0,65728,65700,6,6,4,1460,454,1,993,45,33580,0,65700,1448,0,1,0,0
i,0x00000000,1720889892.697354,172.16.3.2,5101,172.16.1.2,52042,1073725440,14480,0,65728,65700,6,6,4,1460,454,1,992,45,33580,0,65700,0,0,1,0,0
o,0x00000000,1720889892.697388,172.16.3.2,5101,172.16.1.2,52042,1073725440,14480,0,65728,65700,6,6,4,1460,454,1,993,45,33580,0,65700,1448,0,1,0,0
i,0x00000000,1720889892.703192,172.16.3.2,5101,172.16.1.2,52042,1073725440,14480,0,65728,65700,6,6,4,1460,454,1,992,45,33580,0,65700,0,0,1,0,0
o,0x00000000,1720889892.703230,172.16.3.2,5101,172.16.1.2,52042,1073725440,14480,0,65728,65700,6,6,4,1460,454,1,993,45,33580,0,65700,1448,0,1,0,0
i,0x00000000,1720889892.712344,172.16.3.2,5101,172.16.1.2,52042,1073725440,14480,0,65728,65700,6,6,4,1460,454,1,992,45,33580,0,65700,0,0,1,0,0
o,0x00000000,1720889892.712382,172.16.3.2,5101,172.16.1.2,52042,1073725440,14480,0,65728,65700,6,6,4,1460,454,1,993,45,33580,0,65700,1448,0,1,0,0
i,0x00000000,1720889892.734001,172.16.3.2,5101,172.16.1.2,52042,1073725440,14480,0,65728,65700,6,6,4,1460,454,1,992,45,33580,0,65700,0,0,1,0,0
o,0x00000000,1720889892.734036,172.16.3.2,5101,172.16.1.2,52042,1073725440,14480,0,65728,65700,6,6,4,1460,454,1,993,45,33580,0,65700,0,0,1,0,0
i,0x00000000,1720889892.742497,172.16.3.2,5101,172.16.1.2,52042,1073725440,14480,0,65728,65700,6,6,4,1460,454,1,992,45,33580,0,65700,0,0,1,0,0
o,0x00000000,1720889892.742526,172.16.3.2,5101,172.16.1.2,52042,1073725440,14480,0,65728,65728,6,6,4,1460,454,1,993,45,33580,0,65700,11584,0,0,0,0
i,0x00000000,1720889892.832157,172.16.3.2,5101,172.16.1.2,52042,1073725440,14480,0,65728,65728,6,6,4,1460,454,1,992,45,33580,0,65700,0,0,0,0,0
i,0x00000000,1720889892.842621,172.16.3.2,5101,172.16.1.2,52042,1073725440,14480,0,65728,65728,6,6,4,1460,454,1,992,45,33580,0,65700,0,0,0,0,0
o,0x00000000,1720889892.842662,172.16.3.2,5101,172.16.1.2,52042,1073725440,14480,0,65728,65728,6,6,4,1460,454,1,993,45,33580,0,65700,1448,0,0,0,0
i,0x00000000,1720889892.874627,172.16.3.2,5101,172.16.1.2,52042,1073725440,14480,0,65728,65728,6,6,4,1460,454,1,992,45,33580,0,65700,0,0,0,0,0
i,0x00000000,1720889892.893484,172.16.3.2,5101,172.16.1.2,52042,1073725440,14480,0,65728,65728,6,6,4,1460,454,1,992,45,33580,0,65700,0,0,0,0,0
o,0x00000000,1720889892.893533,172.16.3.2,5101,172.16.1.2,52042,1073725440,14480,0,65728,65728,6,6,4,1460,454,1,993,45,33580,0,65700,1448,0,0,0,0
i,0x00000000,1720889892.922257,172.16.3.2,5101,172.16.1.2,52042,1073725440,14480,0,65728,65728,6,6,4,1460,454,1,992,45,33580,0,65700,0,0,0,0,0
i,0x00000000,1720889892.931323,172.16.3.2,5101,172.16.1.2,52042,1073725440,14480,0,65728,65728,6,6,4,1460,454,1,992,45,33580,0,65700,0,0,0,0,0
o,0x00000000,1720889892.931366,172.16.3.2,5101,172.16.1.2,52042,1073725440,14480,0,65728,65728,6,6,4,1460,454,1,993,45,33580,0,65700,1448,0,0,0,0
i,0x00000000,1720889892.953554,172.16.3.2,5101,172.16.1.2,52042,1073725440,14480,0,65728,65728,6,6,4,1460,454,1,992,45,33580,0,65700,0,0,0,0,0
i,0x00000000,1720889892.963651,172.16.3.2,5101,172.16.1.2,52042,1073725440,14480,0,65728,65728,6,6,4,1460,454,1,992,45,33580,0,65700,0,0,0,0,0
o,0x00000000,1720889892.963690,172.16.3.2,5101,172.16.1.2,52042,1073725440,14480,0,65728,65728,6,6,4,1460,454,1,993,45,33580,0,65700,1448,0,0,0,0
i,0x00000000,1720889893.003350,172.16.3.2,5101,172.16.1.2,52042,1073725440,14480,0,65728,65728,6,6,4,1460,454,1,992,45,33580,0,65700,0,0,0,0,0
i,0x00000000,1720889893.044538,172.16.3.2,5101,172.16.1.2,52042,1073725440,14480,0,65728,65728,6,6,4,1460,454,1,992,45,33580,0,65700,0,0,0,0,0
o,0x00000000,1720889893.044583,172.16.3.2,5101,172.16.1.2,52042,1073725440,14480,0,65728,65728,6,6,4,1460,454,1,993,45,33580,0,65700,1448,0,0,0,0
i,0x00000000,1720889893.050040,172.16.3.2,5101,172.16.1.2,52042,1073725440,14480,0,65728,65728,6,6,4,1460,454,1,992,45,33580,0,65700,0,0,0,0,0
o,0x00000000,1720889893.083509,172.16.3.2,5101,172.16.1.2,52042,1073725440,14480,0,65728,65728,6,6,4,1460,454,1,993,45,33580,0,65700,0,0,0,0,0
i,0x00000000,1720889893.090004,172.16.3.2,5101,172.16.1.2,52042,1073725440,14480,0,65728,65728,6,6,4,1460,454,1,992,45,33580,0,65700,0,0,0,0,0
i,0x00000000,1720889893.101122,172.16.3.2,5101,172.16.1.2,52042,1073725440,14480,0,65728,65728,6,6,4,1460,454,1,992,45,33580,0,65700,0,0,0,0,0
o,0x00000000,1720889893.101141,172.16.3.2,5101,172.16.1.2,52042,1073725440,14480,0,65728,65728,6,6,4,1460,454,1,993,45,33580,0,65700,1448,0,0,0,0
i,0x00000000,1720889893.130734,172.16.3.2,5101,172.16.1.2,52042,1073725440,14480,0,65728,65728,6,6,4,1460,454,1,992,45,33580,0,65700,0,0,0,0,0
i,0x00000000,1720889893.155449,172.16.3.2,5101,172.16.1.2,52042,1073725440,14480,0,65728,65728,6,6,4,1460,454,1,992,45,33580,0,65700,0,0,0,0,0
o,0x00000000,1720889893.155486,172.16.3.2,5101,172.16.1.2,52042,1073725440,14480,0,65728,65728,6,6,4,1460,454,1,993,45,33580,0,65700,1448,0,0,0,0
o,0x00000000,1720889893.162915,10.0.2.15,22,10.0.2.2,57021,1073725440,14600,0,65535,65700,0,0,4,1460,1,0,4,24,33580,108,65700,0,0,0,0,0
i,0x00000000,1720889893.165598,10.0.2.15,22,10.0.2.2,57021,1073725440,14600,0,65535,65700,0,0,4,1460,1,0,4,24,33580,108,65700,0,108,0,0,0
i,0x00000000,1720889893.203527,172.16.3.2,5101,172.16.1.2,52042,1073725440,14480,0,65728,65728,6,6,4,1460,454,1,992,45,33580,0,65700,0,0,0,0,0
i,0x00000000,1720889893.214343,172.16.3.2,5101,172.16.1.2,52042,1073725440,14480,0,65728,65728,6,6,4,1460,454,1,992,45,33580,0,65700,0,0,0,0,0
o,0x00000000,1720889893.214378,172.16.3.2,5101,172.16.1.2,52042,1073725440,14480,0,65728,65728,6,6,4,1460,454,1,993,45,33580,0,65700,1448,0,0,0,0
i,0x00000000,1720889893.232443,172.16.3.2,5101,172.16.1.2,52042,1073725440,14480,0,65728,65728,6,6,4,1460,454,1,992,45,33580,0,65700,0,0,0,0,0
i,0x00000000,1720889893.257538,172.16.3.2,5101,172.16.1.2,52042,1073725440,14480,0,65728,65728,6,6,4,1460,454,1,992,45,33580,0,65700,0,0,0,0,0
o,0x00000000,1720889893.257587,172.16.3.2,5101,172.16.1.2,52042,1073725440,14480,0,65728,65728,6,6,4,1460,454,1,993,45,33580,0,65700,1448,0,0,0,0
i,0x00000000,1720889893.288778,172.16.3.2,5101,172.16.1.2,52042,1073725440,14480,0,65728,65728,6,6,4,1460,454,1,992,45,33580,0,65700,0,0,0,0,0
i,0x00000000,1720889893.322889,172.16.3.2,5101,172.16.1.2,52042,1073725440,14480,0,65728,65728,6,6,4,1460,454,1,992,45,33580,0,65700,0,0,0,0,0
o,0x00000000,1720889893.322944,172.16.3.2,5101,172.16.1.2,52042,1073725440,14480,0,65728,65728,6,6,4,1460,454,1,993,45,33580,0,65700,1448,0,0,0,0
i,0x00000000,1720889893.331330,172.16.3.2,5101,172.16.1.2,52042,1073725440,14480,0,65728,65728,6,6,4,1460,454,1,992,45,33580,0,65700,0,0,0,0,0
i,0x00000000,1720889893.348051,172.16.3.2,5101,172.16.1.2,52042,1073725440,14480,0,65728,65728,6,6,4,1460,454,1,992,45,33580,0,65700,0,0,0,0,0
o,0x00000000,1720889893.348101,172.16.3.2,5101,172.16.1.2,52042,1073725440,14480,0,65728,65728,6,6,4,1460,454,1,993,45,33580,0,65700,1448,0,0,0,0
i,0x00000000,1720889893.353203,172.16.3.2,5101,172.16.1.2,52042,1073725440,14480,0,65728,65728,6,6,4,1460,454,1,992,45,33580,0,65700,0,0,0,0,0
i,0x00000000,1720889893.393513,172.16.3.2,5101,172.16.1.2,52042,1073725440,14480,0,65728,65728,6,6,4,1460,454,1,992,45,33580,0,65700,0,0,0,0,0
o,0x00000000,1720889893.393563,172.16.3.2,5101,172.16.1.2,52042,1073725440,14480,0,65728,65728,6,6,4,1460,454,1,993,45,33580,0,65700,1448,0,0,0,0
i,0x00000000,1720889893.436776,172.16.3.2,5101,172.16.1.2,52042,1073725440,14480,0,65728,65728,6,6,4,1460,454,1,992,45,33580,0,65700,0,0,0,0,0
i,0x00000000,1720889893.442660,172.16.3.2,5101,172.16.1.2,52042,1073725440,14480,0,65728,65728,6,6,4,1460,454,1,992,45,33580,0,65700,0,0,0,0,0
o,0x00000000,1720889893.442691,172.16.3.2,5101,172.16.1.2,52042,1073725440,14480,0,65728,65728,6,6,4,1460,454,1,993,45,33580,0,65700,1448,0,0,0,0
i,0x00000000,1720889893.472611,172.16.3.2,5101,172.16.1.2,52042,1073725440,14480,0,65728,65728,6,6,4,1460,454,1,992,45,33580,0,65700,0,0,0,0,0
o,0x00000000,1720889893.512907,172.16.3.2,5101,172.16.1.2,52042,1073725440,14480,0,65728,65728,6,6,4,1460,454,1,993,45,33580,0,65700,0,0,0,0,0
i,0x00000000,1720889893.535033,172.16.3.2,5101,172.16.1.2,52042,1073725440,14480,0,65728,65728,6,6,4,1460,454,1,992,45,33580,0,65700,0,0,0,0,0
i,0x00000000,1720889893.547970,172.16.3.2,5101,172.16.1.2,52042,1073725440,14480,0,65728,65728,6,6,4,1460,454,1,992,45,33580,0,65700,0,0,0,0,0
o,0x00000000,1720889893.548017,172.16.3.2,5101,172.16.1.2,52042,1073725440,14480,0,65728,65728,6,6,4,1460,454,1,993,45,33580,0,65700,1448,0,0,0,0
i,0x00000000,1720889893.571780,172.16.3.2,5101,172.16.1.2,52042,1073725440,14480,0,65728,65728,6,6,4,1460,454,1,992,45,33580,0,65700,0,0,0,0,0
i,0x00000000,1720889893.591103,172.16.3.2,5101,172.16.1.2,52042,1073725440,14480,0,65728,65728,6,6,4,1460,454,1,992,45,33580,0,65700,0,0,0,0,0
o,0x00000000,1720889893.591116,172.16.3.2,5101,172.16.1.2,52042,1073725440,14480,0,65728,65728,6,6,4,1460,454,1,993,45,33580,0,65700,1448,0,0,0,0
i,0x00000000,1720889893.609824,172.16.3.2,5101,172.16.1.2,52042,1073725440,14480,0,65728,65728,6,6,4,1460,454,1,992,45,33580,0,65700,0,0,0,0,0
o,0x00000000,1720889893.642783,172.16.3.2,5101,172.16.1.2,52042,1073725440,14480,0,65728,65728,6,6,4,1460,454,1,993,45,33580,0,65700,0,0,0,0,0
i,0x00000000,1720889893.643757,172.16.3.2,5101,172.16.1.2,52042,1073725440,14480,0,65728,65728,6,6,4,1460,454,1,992,45,33580,0,65700,0,0,0,0,0
i,0x00000000,1720889893.651298,172.16.3.2,5101,172.16.1.2,52042,1073725440,14480,0,65728,65728,6,6,4,1460,454,1,992,45,33580,0,65700,0,0,0,0,0
o,0x00000000,1720889893.651326,172.16.3.2,5101,172.16.1.2,52042,1073725440,14480,0,65728,65728,6,6,4,1460,454,1,993,45,33580,0,65700,1448,0,0,0,0
i,0x00000000,1720889893.659849,172.16.3.2,5101,172.16.1.2,52042,1073725440,14480,0,65728,65728,6,6,4,1460,454,1,992,45,33580,0,65700,0,0,0,0,0
i,0x00000000,1720889893.681206,172.16.3.2,5101,172.16.1.2,52042,1073725440,14480,0,65728,65728,6,6,4,1460,454,1,992,45,33580,0,65700,0,0,0,0,0
o,0x00000000,1720889893.681235,172.16.3.2,5101,172.16.1.2,52042,1073725440,14480,0,65728,65728,6,6,4,1460,454,1,993,45,33580,0,65700,1448,0,0,0,0
i,0x00000000,1720889893.724356,172.16.3.2,5101,172.16.1.2,52042,1073725440,14480,0,65728,65728,6,6,4,1460,454,1,992,45,33580,0,65700,0,0,0,0,0
o,0x00000000,1720889893.763066,172.16.3.2,5101,172.16.1.2,52042,1073725440,14480,0,65728,65728,6,6,4,1460,454,1,993,45,33580,0,65700,0,0,0,0,0
i,0x00000000,1720889893.774202,172.16.3.2,5101,172.16.1.2,52042,1073725440,14480,0,65728,65728,6,6,4,1460,454,1,992,45,33580,0,65700,0,0,0,0,0
i,0x00000000,1720889893.785055,172.16.3.2,5101,172.16.1.2,52042,1073725440,14480,0,65728,65728,6,6,4,1460,454,1,992,45,33580,0,65700,0,0,0,0,0
o,0x00000000,1720889893.785090,172.16.3.2,5101,172.16.1.2,52042,1073725440,14480,0,65728,65728,6,6,4,1460,454,1,993,45,33580,0,65700,1448,0,0,0,0
i,0x00000000,1720889893.816520,172.16.3.2,5101,172.16.1.2,52042,1073725440,14480,0,65728,65728,6,6,4,1460,454,1,992,45,33580,0,65700,0,0,0,0,0
i,0x00000000,1720889893.846529,172.16.3.2,5101,172.16.1.2,52042,1073725440,14480,0,65728,65728,6,6,4,1460,454,1,992,45,33580,0,65700,0,0,0,0,0
o,0x00000000,1720889893.846578,172.16.3.2,5101,172.16.1.2,52042,1073725440,14480,0,65728,65728,6,6,4,1460,454,1,993,45,33580,0,65700,1448,0,0,0,0
i,0x00000000,1720889893.862378,172.16.3.2,5101,172.16.1.2,52042,1073725440,14480,0,65728,65728,6,6,4,1460,454,1,992,45,33580,0,65700,0,0,0,0,0
i,0x00000000,1720889893.891494,172.16.3.2,5101,172.16.1.2,52042,1073725440,14480,0,65728,65728,6,6,4,1460,454,1,992,45,33580,0,65700,0,0,0,0,0
o,0x00000000,1720889893.891533,172.16.3.2,5101,172.16.1.2,52042,1073725440,14480,0,65728,65728,6,6,4,1460,454,1,993,45,33580,0,65700,1448,0,0,0,0
i,0x00000000,1720889893.910072,172.16.3.2,5101,172.16.1.2,52042,1073725440,14480,0,65728,65728,6,6,4,1460,454,1,992,45,33580,0,65700,0,0,0,0,0
i,0x00000000,1720889893.921975,172.16.3.2,5101,172.16.1.2,52042,1073725440,14480,0,65728,65728,6,6,4,1460,454,1,992,45,33580,0,65700,0,0,0,0,0
o,0x00000000,1720889893.922011,172.16.3.2,5101,172.16.1.2,52042,1073725440,14480,0,65728,65728,6,6,4,1460,454,1,993,45,33580,0,65700,1448,0,0,0,0
i,0x00000000,1720889893.932688,172.16.3.2,5101,172.16.1.2,52042,1073725440,14480,0,65728,65728,6,6,4,1460,454,1,992,45,33580,0,65700,0,0,0,0,0
o,0x00000000,1720889893.973135,172.16.3.2,5101,172.16.1.2,52042,1073725440,14480,0,65728,65728,6,6,4,1460,454,1,993,45,33580,0,65700,0,0,0,0,0
i,0x00000000,1720889893.980921,172.16.3.2,5101,172.16.1.2,52042,1073725440,14480,0,65728,65728,6,6,4,1460,454,1,992,45,33580,0,65700,0,0,0,0,0
i,0x00000000,1720889893.995117,172.16.3.2,5101,172.16.1.2,52042,1073725440,14480,0,65728,65728,6,6,4,1460,454,1,992,45,33580,0,65700,0,0,0,0,0
o,0x00000000,1720889893.995165,172.16.3.2,5101,172.16.1.2,52042,1073725440,14480,0,65728,65728,6,6,4,1460,454,1,993,45,33580,0,65700,1448,0,0,0,0
i,0x00000000,1720889894.037415,172.16.3.2,5101,172.16.1.2,52042,1073725440,14480,0,65728,65728,6,6,4,1460,454,1,992,45,33580,0,65700,0,0,0,0,0
i,0x00000000,1720889894.043578,172.16.3.2,5101,172.16.1.2,52042,1073725440,14480,0,65728,65728,6,6,4,1460,454,1,992,45,33580,0,65700,0,0,0,0,0
o,0x00000000,1720889894.043619,172.16.3.2,5101,172.16.1.2,52042,1073725440,14480,0,65728,65728,6,6,4,1460,454,1,993,45,33580,0,65700,1448,0,0,0,0
i,0x00000000,1720889894.094439,172.16.3.2,5101,172.16.1.2,52042,1073725440,14480,0,65728,65728,6,6,4,1460,454,1,992,45,33580,0,65700,0,0,0,0,0
o,0x00000000,1720889894.133351,172.16.3.2,5101,172.16.1.2,52042,1073725440,14480,0,65728,65728,6,6,4,1460,454,1,993,45,33580,0,65700,0,0,0,0,0
i,0x00000000,1720889894.136669,172.16.3.2,5101,172.16.1.2,52042,1073725440,14480,0,65728,65728,6,6,4,1460,454,1,992,45,33580,0,65700,0,0,0,0,0
i,0x00000000,1720889894.140806,172.16.3.2,5101,172.16.1.2,52042,1073725440,14480,0,65728,65728,6,6,4,1460,454,1,992,45,33580,0,65700,0,0,0,0,0
o,0x00000000,1720889894.140837,172.16.3.2,5101,172.16.1.2,52042,1073725440,14480,0,65728,65728,6,6,4,1460,454,1,993,45,33580,0,65700,1448,0,0,0,0
i,0x00000000,1720889894.161958,172.16.3.2,5101,172.16.1.2,52042,1073725440,14480,0,65728,65728,6,6,4,1460,454,1,992,45,33580,0,65700,0,0,0,0,0
o,0x00000000,1720889894.173650,10.0.2.15,22,10.0.2.2,57021,1073725440,14600,0,65535,65700,0,0,4,1460,1,0,4,24,33580,108,65700,0,0,0,0,0
i,0x00000000,1720889894.177535,10.0.2.15,22,10.0.2.2,57021,1073725440,14600,0,65535,65700,0,0,4,1460,1,0,4,24,33580,108,65700,0,108,0,0,0
i,0x00000000,1720889894.202190,172.16.3.2,5101,172.16.1.2,52042,1073725440,14480,0,65728,65728,6,6,4,1460,454,1,992,45,33580,0,65700,0,0,0,0,0
o,0x00000000,1720889894.202241,172.16.3.2,5101,172.16.1.2,52042,1073725440,14480,0,65728,65728,6,6,4,1460,454,1,993,45,33580,0,65700,1448,0,0,0,0
i,0x00000000,1720889894.213232,172.16.3.2,5101,172.16.1.2,52042,1073725440,14480,0,65728,65728,6,6,4,1460,454,1,992,45,33580,0,65700,0,0,0,0,0
i,0x00000000,1720889894.221443,172.16.3.2,5101,172.16.1.2,52042,1073725440,14480,0,65728,65728,6,6,4,1460,454,1,992,45,33580,0,65700,0,0,0,0,0
o,0x00000000,1720889894.221476,172.16.3.2,5101,172.16.1.2,52042,1073725440,14480,0,65728,65728,6,6,4,1460,454,1,993,45,33580,0,65700,1448,0,0,0,0
i,0x00000000,1720889894.242665,172.16.3.2,5101,172.16.1.2,52042,1073725440,14480,0,65728,65728,6,6,4,1460,454,1,992,45,33580,0,65700,0,0,0,0,0
i,0x00000000,1720889894.273315,172.16.3.2,5101,172.16.1.2,52042,1073725440,14480,0,65728,65728,6,6,4,1460,454,1,992,45,33580,0,65700,0,0,0,0,0
o,0x00000000,1720889894.273366,172.16.3.2,5101,172.16.1.2,52042,1073725440,14480,0,65728,65728,6,6,4,1460,454,1,993,45,33580,0,65700,1448,0,0,0,0
i,0x00000000,1720889894.281333,172.16.3.2,5101,172.16.1.2,52042,1073725440,14480,0,65728,65728,6,6,4,1460,454,1,992,45,33580,0,65700,0,0,0,0,0
i,0x00000000,1720889894.304035,172.16.3.2,5101,172.16.1.2,52042,1073725440,14480,0,65728,65728,6,6,4,1460,454,1,992,45,33580,0,65700,0,0,0,0,0
o,0x00000000,1720889894.304066,172.16.3.2,5101,172.16.1.2,52042,1073725440,14480,0,65728,65728,6,6,4,1460,454,1,993,45,33580,0,65700,1448,0,0,0,0
i,0x00000000,1720889894.352393,172.16.3.2,5101,172.16.1.2,52042,1073725440,14480,0,65728,65728,6,6,4,1460,454,1,992,45,33580,0,65700,0,0,0,0,0
i,0x00000000,1720889894.369272,172.16.3.2,5101,172.16.1.2,52042,1073725440,14480,0,65728,65728,6,6,4,1460,454,1,992,45,33580,0,65700,0,0,0,0,0
o,0x00000000,1720889894.369310,172.16.3.2,5101,172.16.1.2,52042,1073725440,14480,0,65728,65728,6,6,4,1460,454,1,993,45,33580,0,65700,1448,0,0,0,0
i,0x00000000,1720889894.433307,172.16.3.2,5101,172.16.1.2,52042,1073725440,14480,0,65728,65728,6,6,4,1460,454,1,992,45,33580,0,65700,0,0,0,0,0
i,0x00000000,1720889894.444417,172.16.3.2,5101,172.16.1.2,52042,1073725440,14480,0,65728,65728,6,6,4,1460,454,1,992,45,33580,0,65700,0,0,0,0,0
o,0x00000000,1720889894.444453,172.16.3.2,5101,172.16.1.2,52042,1073725440,14480,0,65728,65728,6,6,4,1460,454,1,993,45,33580,0,65700,1448,0,0,0,0
i,0x00000000,1720889894.465966,172.16.3.2,5101,172.16.1.2,52042,1073725440,14480,0,65728,65728,6,6,4,1460,454,1,992,45,33580,0,65700,0,0,0,0,0
o,0x00000000,1720889894.502971,172.16.3.2,5101,172.16.1.2,52042,1073725440,14480,0,65728,65728,6,6,4,1460,454,1,993,45,33580,0,65700,0,0,0,0,0
i,0x00000000,1720889894.527446,172.16.3.2,5101,172.16.1.2,52042,1073725440,14480,0,65728,65728,6,6,4,1460,454,1,992,45,33580,0,65700,0,0,0,0,0
i,0x00000000,1720889894.532436,172.16.3.2,5101,172.16.1.2,52042,1073725440,14480,0,65728,65728,6,6,4,1460,454,1,992,45,33580,0,65700,0,0,0,0,0
o,0x00000000,1720889894.532478,172.16.3.2,5101,172.16.1.2,52042,1073725440,14480,0,65728,65728,6,6,4,1460,454,1,993,45,33580,0,65700,1448,0,0,0,0
i,0x00000000,1720889894.542244,172.16.3.2,5101,172.16.1.2,52042,1073725440,14480,0,65728,65728,6,6,4,1460,454,1,992,45,33580,0,65700,0,0,0,0,0
i,0x00000000,1720889894.549934,172.16.3.2,5101,172.16.1.2,52042,1073725440,14480,0,65728,65728,6,6,4,1460,454,1,992,45,33580,0,65700,0,0,0,0,0
o,0x00000000,1720889894.549975,172.16.3.2,5101,172.16.1.2,52042,1073725440,14480,0,65728,65728,6,6,4,1460,454,1,993,45,33580,0,65700,1448,0,0,0,0
i,0x00000000,1720889894.560168,172.16.3.2,5101,172.16.1.2,52042,1073725440,14480,0,65728,65728,6,6,4,1460,454,1,992,45,33580,0,65700,0,0,0,0,0
o,0x00000000,1720889894.592412,172.16.3.2,5101,172.16.1.2,52042,1073725440,14480,0,65728,65728,6,6,4,1460,454,1,993,45,33580,0,65700,0,0,0,0,0
i,0x00000000,1720889894.601209,172.16.3.2,5101,172.16.1.2,52042,1073725440,14480,0,65728,65728,6,6,4,1460,454,1,992,45,33580,0,65700,0,0,0,0,0
i,0x00000000,1720889894.610872,172.16.3.2,5101,172.16.1.2,52042,1073725440,14480,0,65728,65728,6,6,4,1460,454,1,992,45,33580,0,65700,0,0,0,0,0
o,0x00000000,1720889894.610918,172.16.3.2,5101,172.16.1.2,52042,1073725440,14480,0,65728,65728,6,6,4,1460,454,1,993,45,33580,0,65700,1448,0,0,0,0
i,0x00000000,1720889894.630463,172.16.3.2,5101,172.16.1.2,52042,1073725440,14480,0,65728,65728,6,6,4,1460,454,1,992,45,33580,0,65700,0,0,0,0,0
i,0x00000000,1720889894.639790,172.16.3.2,5101,172.16.1.2,52042,1073725440,14480,0,65728,65728,6,6,4,1460,454,1,992,45,33580,0,65700,0,0,0,0,0
o,0x00000000,1720889894.639813,172.16.3.2,5101,172.16.1.2,52042,1073725440,14480,0,65728,65728,6,6,4,1460,454,1,993,45,33580,0,65700,1448,0,0,0,0
i,0x00000000,1720889894.690883,172.16.3.2,5101,172.16.1.2,52042,1073725440,14480,0,65728,65728,6,6,4,1460,454,1,992,45,33580,0,65700,0,0,0,0,0
i,0x00000000,1720889894.702259,172.16.3.2,5101,172.16.1.2,52042,1073725440,14480,0,65728,65728,6,6,4,1460,454,1,992,45,33580,0,65700,0,0,0,0,0
o,0x00000000,1720889894.702282,172.16.3.2,5101,172.16.1.2,52042,1073725440,14480,0,65728,65728,6,6,4,1460,454,1,993,45,33580,0,65700,1448,0,0,0,0
i,0x00000000,1720889894.774179,172.16.3.2,5101,172.16.1.2,52042,1073725440,14480,0,65728,65728,6,6,4,1460,454,1,992,45,33580,0,65700,0,0,0,0,0
i,0x00000000,1720889894.797853,172.16.3.2,5101,172.16.1.2,52042,1073725440,14480,0,65728,65728,6,6,4,1460,454,1,992,45,33580,0,65700,0,0,0,0,0
o,0x00000000,1720889894.797897,172.16.3.2,5101,172.16.1.2,52042,1073725440,14480,0,65728,65728,6,6,4,1460,454,1,993,45,33580,0,65700,1448,0,0,0,0
i,0x00000000,1720889894.812195,172.16.3.2,5101,172.16.1.2,52042,1073725440,14480,0,65728,65728,6,6,4,1460,454,1,992,45,33580,0,65700,0,0,0,0,0
o,0x00000000,1720889894.852812,172.16.3.2,5101,172.16.1.2,52042,1073725440,14480,0,65728,65728,6,6,4,1460,454,1,993,45,33580,0,65700,0,0,0,0,0
i,0x00000000,1720889894.857915,172.16.3.2,5101,172.16.1.2,52042,1073725440,14480,0,65728,65728,6,6,4,1460,454,1,992,45,33580,0,65700,0,0,0,0,0
i,0x00000000,1720889894.886952,172.16.3.2,5101,172.16.1.2,52042,1073725440,14480,0,65728,65728,6,6,4,1460,454,1,992,45,33580,0,65700,0,0,0,0,0
o,0x00000000,1720889894.886994,172.16.3.2,5101,172.16.1.2,52042,1073725440,14480,0,65728,65728,6,6,4,1460,454,1,993,45,33580,0,65700,1448,0,0,0,0
i,0x00000000,1720889894.900680,172.16.3.2,5101,172.16.1.2,52042,1073725440,14480,0,65728,65728,6,6,4,1460,454,1,992,45,33580,0,65700,0,0,0,0,0
i,0x00000000,1720889894.909748,172.16.3.2,5101,172.16.1.2,52042,1073725440,14480,0,65728,65728,6,6,4,1460,454,1,992,45,33580,0,65700,0,0,0,0,0
o,0x00000000,1720889894.909758,172.16.3.2,5101,172.16.1.2,52042,1073725440,14480,0,65728,65728,6,6,4,1460,454,1,993,45,33580,0,65700,1448,0,0,0,0
i,0x00000000,1720889894.922512,172.16.3.2,5101,172.16.1.2,52042,1073725440,14480,0,65728,65728,6,6,4,1460,454,1,992,45,33580,0,65700,0,0,0,0,0
i,0x00000000,1720889894.964939,172.16.3.2,5101,172.16.1.2,52042,1073725440,14480,0,65728,65728,6,6,4,1460,454,1,992,45,33580,0,65700,0,0,0,0,0
o,0x00000000,1720889894.964995,172.16.3.2,5101,172.16.1.2,52042,1073725440,14480,0,65728,65728,6,6,4,1460,454,1,993,45,33580,0,65700,1448,0,0,0,0
i,0x00000000,1720889894.973106,172.16.3.2,5101,172.16.1.2,52042,1073725440,14480,0,65728,65728,6,6,4,1460,454,1,992,45,33580,0,65700,0,0,0,0,0
i,0x00000000,1720889894.981106,172.16.3.2,5101,172.16.1.2,52042,1073725440,14480,0,65728,65728,6,6,4,1460,454,1,992,45,33580,0,65700,0,0,0,0,0
o,0x00000000,1720889894.981144,172.16.3.2,5101,172.16.1.2,52042,1073725440,14480,0,65728,65728,6,6,4,1460,454,1,993,45,33580,0,65700,1448,0,0,0,0
i,0x00000000,1720889894.992208,172.16.3.2,5101,172.16.1.2,52042,1073725440,14480,0,65728,65728,6,6,4,1460,454,1,992,45,33580,0,65700,0,0,0,0,0
i,0x00000000,1720889895.033779,172.16.3.2,5101,172.16.1.2,52042,1073725440,14480,0,65728,65728,6,6,4,1460,454,1,992,45,33580,0,65700,0,0,0,0,0
o,0x00000000,1720889895.033821,172.16.3.2,5101,172.16.1.2,52042,1073725440,14480,0,65728,65728,6,6,4,1460,454,1,993,45,33580,0,65700,1448,0,0,0,0
i,0x00000000,1720889895.072653,172.16.3.2,5101,172.16.1.2,52042,1073725440,14480,0,65728,65728,6,6,4,1460,454,1,992,45,33580,0,65700,0,0,0,0,0
i,0x00000000,1720889895.072817,172.16.3.2,5101,172.16.1.2,52042,1073725440,14480,0,65728,65728,6,6,4,1460,454,1,992,45,33580,0,65700,1448,0,0,0,0
o,0x00000000,1720889895.072841,172.16.3.2,5101,172.16.1.2,52042,1073725440,14480,0,65728,65728,6,6,4,1460,454,1,993,45,33580,0,65700,2896,0,0,0,0
i,0x00000000,1720889895.140872,172.16.3.2,5101,172.16.1.2,52042,1073725440,14480,0,65728,65728,6,6,4,1460,454,1,992,45,33580,0,65700,0,0,0,0,0
i,0x00000000,1720889895.151403,172.16.3.2,5101,172.16.1.2,52042,1073725440,14480,0,65728,65728,6,6,4,1460,454,1,992,45,33580,0,65700,0,0,0,0,0
o,0x00000000,1720889895.151444,172.16.3.2,5101,172.16.1.2,52042,1073725440,14480,0,65728,65728,6,6,4,1460,454,1,993,45,33580,0,65700,1448,0,0,0,0
o,0x00000000,1720889895.172645,10.0.2.15,22,10.0.2.2,57021,1073725440,14600,0,65535,65700,0,0,4,1460,1,0,4,24,33580,108,65700,0,0,0,0,0
i,0x00000000,1720889895.173822,10.0.2.15,22,10.0.2.2,57021,1073725440,14600,0,65535,65700,0,0,4,1460,1,0,4,24,33580,108,65700,0,108,0,0,0
i,0x00000000,1720889895.182283,172.16.3.2,5101,172.16.1.2,52042,1073725440,14480,0,65728,65728,6,6,4,1460,454,1,992,45,33580,0,65700,0,0,0,0,0
i,0x00000000,1720889895.214636,172.16.3.2,5101,172.16.1.2,52042,1073725440,14480,0,65728,65728,6,6,4,1460,454,1,992,45,33580,0,65700,0,0,0,0,0
o,0x00000000,1720889895.214688,172.16.3.2,5101,172.16.1.2,52042,1073725440,14480,0,65728,65728,6,6,4,1460,454,1,993,45,33580,0,65700,1448,0,0,0,0
i,0x00000000,1720889895.231692,172.16.3.2,5101,172.16.1.2,52042,1073725440,14480,0,65728,65728,6,6,4,1460,454,1,992,45,33580,0,65700,0,0,0,0,0
i,0x00000000,1720889895.262097,172.16.3.2,5101,172.16.1.2,52042,1073725440,14480,0,65728,65728,6,6,4,1460,454,1,992,45,33580,0,65700,0,0,0,0,0
o,0x00000000,1720889895.262144,172.16.3.2,5101,172.16.1.2,52042,1073725440,14480,0,65728,65700,6,6,4,1460,454,1,993,45,33580,0,65700,0,0,1,0,0
i,0x00000000,1720889895.270600,172.16.3.2,5101,172.16.1.2,52042,1073725440,14480,0,65728,65700,6,6,4,1460,454,1,992,45,33580,0,65700,0,0,1,0,0
o,0x00000000,1720889895.270631,172.16.3.2,5101,172.16.1.2,52042,1073725440,14480,0,65728,65728,6,6,4,1460,454,1,993,45,33580,0,65700,0,0,1,0,0
i,0x00000000,1720889895.383540,172.16.3.2,5101,172.16.1.2,52042,1073725440,14480,0,65728,65728,6,6,4,1460,454,1,992,45,33580,0,65700,0,0,1,0,0
o,0x00000000,1720889895.383573,172.16.3.2,5101,172.16.1.2,52042,1073725440,14480,0,65728,65728,6,6,4,1460,454,1,993,45,33580,0,65700,0,0,1,0,0
i,0x00000000,1720889895.401901,172.16.3.2,5101,172.16.1.2,52042,1073725440,14480,0,65728,65728,6,6,4,1460,454,1,992,45,33580,0,65700,0,0,1,0,0
o,0x00000000,1720889895.401940,172.16.3.2,5101,172.16.1.2,52042,1073725440,14480,0,65728,65728,6,6,4,1460,454,1,993,45,33580,0,65700,0,0,2,0,0
i,0x00000000,1720889895.410823,172.16.3.2,5101,172.16.1.2,52042,1073725440,14480,0,65728,65728,6,6,4,1460,454,1,992,45,33580,0,65700,0,0,2,0,0
o,0x00000000,1720889895.410854,172.16.3.2,5101,172.16.1.2,52042,1073725440,14480,0,65728,65728,6,6,4,1460,454,1,993,45,33580,0,65700,0,0,2,0,0
i,0x00000000,1720889895.433002,172.16.3.2,5101,172.16.1.2,52042,1073725440,14480,0,65728,65728,6,6,4,1460,454,1,992,45,33580,0,65700,0,0,2,0,0
o,0x00000000,1720889895.433034,172.16.3.2,5101,172.16.1.2,52042,1073725440,14480,0,65728,65728,6,6,4,1460,454,1,993,45,33580,0,65700,0,0,3,0,0
i,0x00000000,1720889895.459613,172.16.3.2,5101,172.16.1.2,52042,1073725440,14480,0,65728,65728,6,6,4,1460,454,1,992,45,33580,0,65700,0,0,3,0,0
o,0x00000000,1720889895.459655,172.16.3.2,5101,172.16.1.2,52042,1073725440,14480,0,65728,65728,6,6,4,1460,454,1,993,45,33580,0,65700,0,0,3,0,0
i,0x00000000,1720889895.474856,172.16.3.2,5101,172.16.1.2,52042,1073725440,14480,0,65728,65728,6,6,4,1460,454,1,992,45,33580,0,65700,0,0,3,0,0
o,0x00000000,1720889895.474898,172.16.3.2,5101,172.16.1.2,52042,1073725440,14480,0,65728,65728,6,6,4,1460,454,1,993,45,33580,0,65700,0,0,3,0,0
i,0x00000000,1720889895.482049,172.16.3.2,5101,172.16.1.2,52042,1073725440,14480,0,65728,65728,6,6,4,1460,454,1,992,45,33580,0,65700,0,0,3,0,0
o,0x00000000,1720889895.482077,172.16.3.2,5101,172.16.1.2,52042,1073725440,14480,0,65728,65728,6,6,4,1460,454,1,993,45,33580,0,65700,0,0,3,0,0
i,0x00000000,1720889895.528073,172.16.3.2,5101,172.16.1.2,52042,1073725440,14480,0,65728,65728,6,6,4,1460,454,1,992,45,33580,0,65700,0,0,3,0,0
o,0x00000000,1720889895.528115,172.16.3.2,5101,172.16.1.2,52042,1073725440,14480,0,65728,65728,6,6,4,1460,454,1,993,45,33580,0,65700,0,0,4,0,0
i,0x00000000,1720889895.540725,172.16.3.2,5101,172.16.1.2,52042,1073725440,14480,0,65728,65728,6,6,4,1460,454,1,992,45,33580,0,65700,0,0,4,0,0
o,0x00000000,1720889895.540756,172.16.3.2,5101,172.16.1.2,52042,1073725440,14480,0,65728,65728,6,6,4,1460,454,1,993,45,33580,0,65700,0,0,5,0,0
i,0x00000000,1720889895.551050,172.16.3.2,5101,172.16.1.2,52042,1073725440,14480,0,65728,65728,6,6,4,1460,454,1,992,45,33580,0,65700,0,0,5,0,0
o,0x00000000,1720889895.551108,172.16.3.2,5101,172.16.1.2,52042,1073725440,14480,0,65728,65728,6,6,4,1460,454,1,993,45,33580,0,65700,5792,0,4,0,0
i,0x00000000,1720889895.562635,172.16.3.2,5101,172.16.1.2,52042,1073725440,14480,0,65728,65728,6,6,4,1460,454,1,992,45,33580,0,65700,0,0,4,0,0
o,0x00000000,1720889895.562670,172.16.3.2,5101,172.16.1.2,52042,1073725440,14480,0,65728,65700,6,6,4,1460,454,1,993,45,33580,0,65700,0,0,4,0,0
i,0x00000000,1720889895.571193,172.16.3.2,5101,172.16.1.2,52042,1073725440,14480,0,65728,65700,6,6,4,1460,454,1,992,45,33580,0,65700,0,0,4,0,0
o,0x00000000,1720889895.571220,172.16.3.2,5101,172.16.1.2,52042,1073725440,14480,0,65728,65728,6,6,4,1460,454,1,993,45,33580,0,65700,0,0,4,0,0
i,0x00000000,1720889895.596856,172.16.3.2,5101,172.16.1.2,52042,1073725440,14480,0,65728,65728,6,6,4,1460,454,1,992,45,33580,0,65700,0,0,4,0,0
o,0x00000000,1720889895.596883,172.16.3.2,5101,172.16.1.2,52042,1073725440,14480,0,65728,65728,6,6,4,1460,454,1,993,45,33580,0,65700,0,0,4,0,0
i,0x00000000,1720889895.602516,172.16.3.2,5101,172.16.1.2,52042,1073725440,14480,0,65728,65728,6,6,4,1460,454,1,992,45,33580,0,65700,0,0,4,0,0
o,0x00000000,1720889895.602626,172.16.3.2,5101,172.16.1.2,52042,1073725440,14480,0,65728,65728,6,6,4,1460,454,1,993,45,33580,0,65700,0,0,4,0,0
i,0x00000000,1720889895.681687,172.16.3.2,5101,172.16.1.2,52042,1073725440,14480,0,65728,65728,6,6,4,1460,454,1,992,45,33580,0,65700,0,0,4,0,0
o,0x00000000,1720889895.681705,172.16.3.2,5101,172.16.1.2,52042,1073725440,14480,0,65728,65728,6,6,4,1460,454,1,993,45,33580,0,65700,4344,0,3,0,0
i,0x00000000,1720889895.690990,172.16.3.2,5101,172.16.1.2,52042,1073725440,14480,0,65728,65728,6,6,4,1460,454,1,992,45,33580,0,65700,0,0,3,0,0
o,0x00000000,1720889895.691029,172.16.3.2,5101,172.16.1.2,52042,1073725440,14480,0,65728,65700,6,6,4,1460,454,1,993,45,33580,0,65700,7240,0,2,0,0
i,0x00000000,1720889895.699756,172.16.3.2,5101,172.16.1.2,52042,1073725440,14480,0,65728,65700,6,6,4,1460,454,1,992,45,33580,0,65700,0,0,2,0,0
o,0x00000000,1720889895.699775,172.16.3.2,5101,172.16.1.2,52042,1073725440,14480,0,65728,65700,6,6,4,1460,454,1,993,45,33580,0,65700,2896,0,1,0,0
i,0x00000000,1720889895.725330,172.16.3.2,5101,172.16.1.2,52042,1073725440,14480,0,65728,65700,6,6,4,1460,454,1,992,45,33580,0,65700,0,0,1,0,0
o,0x00000000,1720889895.725366,172.16.3.2,5101,172.16.1.2,52042,1073725440,14480,0,65728,65700,6,6,4,1460,454,1,993,45,33580,0,65700,1448,0,1,0,0
i,0x00000000,1720889895.842960,172.16.3.2,5101,172.16.1.2,52042,1073725440,14480,0,65728,65700,6,6,4,1460,454,1,992,45,33580,0,65700,0,0,1,0,0
o,0x00000000,1720889895.843003,172.16.3.2,5101,172.16.1.2,52042,1073725440,14480,0,65728,65700,6,6,4,1460,454,1,993,45,33580,0,65700,2896,0,0,0,0
i,0x00000000,1720889895.850515,172.16.3.2,5101,172.16.1.2,52042,1073725440,14480,0,65728,65700,6,6,4,1460,454,1,992,45,33580,0,65700,0,0,0,0,0
o,0x00000000,1720889895.850543,172.16.3.2,5101,172.16.1.2,52042,1073725440,14480,0,65728,65700,6,6,4,1460,454,1,993,45,33580,0,65700,0,0,1,0,0
i,0x00000000,1720889895.859959,172.16.3.2,5101,172.16.1.2,52042,1073725440,14480,0,65728,65700,6,6,4,1460,454,1,992,45,33580,0,65700,0,0,1,0,0
o,0x00000000,1720889895.859999,172.16.3.2,5101,172.16.1.2,52042,1073725440,14480,0,65728,65728,6,6,4,1460,454,1,993,45,33580,0,65700,0,0,1,0,0
i,0x00000000,1720889895.871009,172.16.3.2,5101,172.16.1.2,52042,1073725440,14480,0,65728,65728,6,6,4,1460,454,1,992,45,33580,0,65700,0,0,1,0,0
o,0x00000000,1720889895.871040,172.16.3.2,5101,172.16.1.2,52042,1073725440,14480,0,65728,65728,6,6,4,1460,454,1,993,45,33580,0,65700,0,0,1,0,0
i,0x00000000,1720889896.000934,172.16.3.2,5101,172.16.1.2,52042,1073725440,14480,0,65728,65728,6,6,4,1460,454,1,992,45,33580,0,65700,0,0,1,0,0
i,0x00000000,1720889896.028504,172.16.3.2,5101,172.16.1.2,52042,1073725440,14480,0,65728,65728,6,6,4,1460,454,1,992,45,33580,0,65700,0,0,1,0,0
o,0x00000000,1720889896.028559,172.16.3.2,5101,172.16.1.2,52042,1073725440,14480,0,65728,65728,6,6,4,1460,454,1,993,45,33580,0,65700,1448,0,1,0,0
i,0x00000000,1720889896.041764,172.16.3.2,5101,172.16.1.2,52042,1073725440,14480,0,65728,65728,6,6,4,1460,454,1,992,45,33580,0,65700,0,0,1,0,0
o,0x00000000,1720889896.041792,172.16.3.2,5101,172.16.1.2,52042,1073725440,14480,0,65728,65700,6,6,4,1460,454,1,993,45,33580,0,65700,0,0,1,0,0
i,0x00000000,1720889896.051352,172.16.3.2,5101,172.16.1.2,52042,1073725440,14480,0,65728,65700,6,6,4,1460,454,1,992,45,33580,0,65700,0,0,1,0,0
o,0x00000000,1720889896.051385,172.16.3.2,5101,172.16.1.2,52042,1073725440,14480,0,65728,65728,6,6,4,1460,454,1,993,45,33580,0,65700,1448,0,1,0,0
i,0x00000000,1720889896.059937,172.16.3.2,5101,172.16.1.2,52042,1073725440,14480,0,65728,65728,6,6,4,1460,454,1,992,45,33580,0,65700,0,0,1,0,0
o,0x00000000,1720889896.059962,172.16.3.2,5101,172.16.1.2,52042,1073725440,14480,0,65728,65700,6,6,4,1460,454,1,993,45,33580,0,65700,0,0,1,0,0
i,0x00000000,1720889896.070814,172.16.3.2,5101,172.16.1.2,52042,1073725440,14480,0,65728,65700,6,6,4,1460,454,1,992,45,33580,0,65700,0,0,1,0,0
o,0x00000000,1720889896.070860,172.16.3.2,5101,172.16.1.2,52042,1073725440,14480,0,65728,65728,6,6,4,1460,454,1,993,45,33580,0,65700,1448,0,1,0,0
i,0x00000000,1720889896.090509,172.16.3.2,5101,172.16.1.2,52042,1073725440,14480,0,65728,65728,6,6,4,1460,454,1,992,45,33580,0,65700,0,0,1,0,0
o,0x00000000,1720889896.090555,172.16.3.2,5101,172.16.1.2,52042,1073725440,14480,0,65728,65700,6,6,4,1460,454,1,993,45,33580,0,65700,0,0,1,0,0
i,0x00000000,1720889896.100198,172.16.3.2,5101,172.16.1.2,52042,1073725440,14480,0,65728,65700,6,6,4,1460,454,1,992,45,33580,0,65700,0,0,1,0,0
o,0x00000000,1720889896.100236,172.16.3.2,5101,172.16.1.2,52042,1073725440,14480,0,65728,65728,6,6,4,1460,454,1,993,45,33580,0,65700,10136,0,0,0,0
i,0x00000000,1720889896.111510,172.16.3.2,5101,172.16.1.2,52042,1073725440,14480,0,65728,65728,6,6,4,1460,454,1,992,45,33580,0,65700,0,0,0,0,0
o,0x00000000,1720889896.143231,172.16.3.2,5101,172.16.1.2,52042,1073725440,14480,0,65728,65728,6,6,4,1460,454,1,993,45,33580,0,65700,0,0,0,0,0
o,0x00000000,1720889896.173061,10.0.2.15,22,10.0.2.2,57021,1073725440,14600,0,65535,65700,0,0,4,1460,1,0,4,24,33580,108,65700,0,0,0,0,0
i,0x00000000,1720889896.174595,10.0.2.15,22,10.0.2.2,57021,1073725440,14600,0,65535,65700,0,0,4,1460,1,0,4,24,33580,108,65700,0,108,0,0,0
i,0x00000000,1720889896.182775,172.16.3.2,5101,172.16.1.2,52042,1073725440,14480,0,65728,65728,6,6,4,1460,454,1,992,45,33580,0,65700,0,0,0,0,0
i,0x00000000,1720889896.189874,172.16.3.2,5101,172.16.1.2,52042,1073725440,14480,0,65728,65728,6,6,4,1460,454,1,992,45,33580,0,65700,0,0,0,0,0
o,0x00000000,1720889896.189906,172.16.3.2,5101,172.16.1.2,52042,1073725440,14480,0,65728,65728,6,6,4,1460,454,1,993,45,33580,0,65700,1448,0,0,0,0
i,0x00000000,1720889896.219049,172.16.3.2,5101,172.16.1.2,52042,1073725440,14480,0,65728,65728,6,6,4,1460,454,1,992,45,33580,0,65700,0,0,0,0,0
i,0x00000000,1720889896.248188,172.16.3.2,5101,172.16.1.2,52042,1073725440,14480,0,65728,65728,6,6,4,1460,454,1,992,45,33580,0,65700,0,0,0,0,0
o,0x00000000,1720889896.248242,172.16.3.2,5101,172.16.1.2,52042,1073725440,14480,0,65728,65728,6,6,4,1460,454,1,993,45,33580,0,65700,1448,0,0,0,0
i,0x00000000,1720889896.268490,172.16.3.2,5101,172.16.1.2,52042,1073725440,14480,0,65728,65728,6,6,4,1460,454,1,992,45,33580,0,65700,0,0,0,0,0
i,0x00000000,1720889896.274171,172.16.3.2,5101,172.16.1.2,52042,1073725440,14480,0,65728,65728,6,6,4,1460,454,1,992,45,33580,0,65700,0,0,0,0,0
o,0x00000000,1720889896.274210,172.16.3.2,5101,172.16.1.2,52042,1073725440,14480,0,65728,65728,6,6,4,1460,454,1,993,45,33580,0,65700,1448,0,0,0,0
i,0x00000000,1720889896.309305,172.16.3.2,5101,172.16.1.2,52042,1073725440,14480,0,65728,65728,6,6,4,1460,454,1,992,45,33580,0,65700,0,0,0,0,0
