enable_time_secs=1720895836	enable_time_usecs=341964	siftrver=1.2.4	hz=100	tcp_rtt_scale=32	sysname=FreeBSD	sysver=1301000	ipmode=4
o,0x00000000,1720895836.344031,10.0.2.15,22,10.0.2.2,51054,1073725440,17770,0,65535,65700,0,0,4,1460,1,0,4,24,33580,44,65700,0,0,0,0,0
o,0x00000000,1720895836.344437,10.0.2.15,22,10.0.2.2,51054,1073725440,17770,0,65535,65700,0,0,4,1460,1,0,4,24,33580,80,65700,0,44,0,0,0
i,0x00000000,1720895836.346349,10.0.2.15,22,10.0.2.2,51054,1073725440,17770,0,65535,65700,0,0,4,1460,1,0,4,24,33580,80,65700,0,80,0,0,0
i,0x00000000,1720895836.346365,10.0.2.15,22,10.0.2.2,51054,1073725440,17814,0,65535,65700,0,0,4,1460,1,0,4,24,33580,36,65700,0,36,0,0,0
o,0x00000000,1720895836.346573,10.0.2.15,22,10.0.2.2,51054,1073725440,17850,0,65535,65700,0,0,4,1460,1,0,4,24,33580,36,65700,0,0,0,0,0
i,0x00000000,1720895836.347826,10.0.2.15,22,10.0.2.2,51054,1073725440,17850,0,65535,65700,0,0,4,1460,1,0,4,24,33580,36,65700,0,36,0,0,0
o,0x00000000,1720895836.348014,10.0.2.15,22,10.0.2.2,51054,1073725440,17886,0,65535,65700,0,0,4,1460,1,0,4,24,33580,36,65700,0,0,0,0,0
i,0x00000000,1720895836.348947,10.0.2.15,22,10.0.2.2,51054,1073725440,17886,0,65535,65700,0,0,4,1460,1,0,4,24,33580,36,65700,0,36,0,0,0
o,0x00000000,1720895836.349215,10.0.2.15,22,10.0.2.2,51054,1073725440,17922,0,65535,65700,0,0,4,1460,1,0,4,24,33580,140,65700,0,0,0,0,0
i,0x00000000,1720895836.350328,10.0.2.15,22,10.0.2.2,51054,1073725440,17922,0,65535,65700,0,0,4,1460,1,0,4,24,33580,140,65700,0,140,0,0,0
i,0x00000000,1720895836.350871,10.0.2.15,22,10.0.2.2,51054,1073725440,18062,0,65535,65700,0,0,4,1460,1,0,4,24,33580,0,65700,0,0,0,0,0
i,0x00000000,1720895836.350877,10.0.2.15,22,10.0.2.2,51054,1073725440,18062,0,65535,65700,0,0,4,1460,1,0,4,24,33580,0,65700,96,0,0,0,0
o,0x00000000,1720895836.350882,10.0.2.15,22,10.0.2.2,51054,1073725440,18062,0,65535,65604,0,0,5,1460,1,0,5,24,33580,0,65700,96,0,0,0,0
o,0x00000000,1720895836.351422,10.0.2.15,22,10.0.2.2,51054,1073725440,18062,0,65535,65604,0,0,8,1460,1,0,4,24,33580,0,65700,0,0,0,0,0
i,0x00000000,1720895836.352653,10.0.2.15,22,10.0.2.2,51054,1073725440,18062,0,65535,65604,0,0,8,1460,1,0,20,24,33580,0,65700,0,1,0,0,0
i,0x00000000,1720895838.967371,10.0.2.15,22,10.0.2.2,51056,1073725440,14600,0,65535,65700,0,0,4,1460,1,0,0,27,33580,0,65700,0,0,0,0,0
o,0x00000000,1720895839.007205,10.0.2.15,22,10.0.2.2,51056,1073725440,14600,0,65535,65700,0,0,4,1460,1,0,1,27,33580,0,65700,42,0,0,0,0
o,0x00000000,1720895839.166791,10.0.2.15,22,10.0.2.2,51056,1073725440,14600,0,65535,65700,0,0,4,1460,1,0,0,27,33580,38,65700,42,0,0,0,0
i,0x00000000,1720895839.168107,10.0.2.15,22,10.0.2.2,51056,1073725440,14600,0,65535,65700,0,0,4,1460,1,0,0,27,33580,38,65700,0,38,0,0,0
i,0x00000000,1720895839.169179,10.0.2.15,22,10.0.2.2,51056,1073725440,14638,0,65535,65700,0,0,4,1460,1,0,0,24,33580,0,65700,0,0,0,0,0
i,0x00000000,1720895839.169183,10.0.2.15,22,10.0.2.2,51056,1073725440,14638,0,65535,65700,0,0,4,1460,1,0,0,24,33580,0,65700,1460,0,0,0,0
o,0x00000000,1720895839.169187,10.0.2.15,22,10.0.2.2,51056,1073725440,14638,0,65535,65700,0,0,4,1460,1,0,1,24,33580,0,65700,1536,0,0,0,0
o,0x00000000,1720895839.170424,10.0.2.15,22,10.0.2.2,51056,1073725440,14638,0,65535,65700,0,0,4,1460,1,0,0,24,33580,1056,65700,1536,0,0,0,0
i,0x00000000,1720895839.172689,10.0.2.15,22,10.0.2.2,51056,1073725440,14638,0,65535,65700,0,0,4,1460,1,0,0,24,33580,1056,65700,1536,1056,0,0,0
i,0x00000000,1720895839.173346,10.0.2.15,22,10.0.2.2,51056,1073725440,15694,0,65535,65700,0,0,4,1460,1,0,0,24,33580,0,65700,0,0,0,0,0
o,0x00000000,1720895839.177395,10.0.2.15,22,10.0.2.2,51056,1073725440,15694,0,65535,65700,0,0,4,1460,1,0,0,24,33580,484,65700,0,0,0,0,0
i,0x00000000,1720895839.178520,10.0.2.15,22,10.0.2.2,51056,1073725440,15694,0,65535,65700,0,0,4,1460,1,0,0,24,33580,484,65700,0,484,0,0,0
i,0x00000000,1720895839.183154,10.0.2.15,22,10.0.2.2,51056,1073725440,16178,0,65535,65700,0,0,4,1460,1,0,0,24,33580,0,65700,0,0,0,0,0
i,0x00000000,1720895839.183158,10.0.2.15,22,10.0.2.2,51056,1073725440,16178,0,65535,65700,0,0,4,1460,1,0,0,24,33580,0,65700,16,0,0,0,0
o,0x00000000,1720895839.183161,10.0.2.15,22,10.0.2.2,51056,1073725440,16178,0,65535,65700,0,0,4,1460,1,0,1,24,33580,0,65700,60,0,0,0,0
o,0x00000000,1720895839.183405,10.0.2.15,22,10.0.2.2,51056,1073725440,16178,0,65535,65700,0,0,4,1460,1,0,0,24,33580,44,65700,0,0,0,0,0
i,0x00000000,1720895839.184069,10.0.2.15,22,10.0.2.2,51056,1073725440,16178,0,65535,65700,0,0,4,1460,1,0,0,24,33580,44,65700,0,44,0,0,0
i,0x00000000,1720895839.184321,10.0.2.15,22,10.0.2.2,51056,1073725440,16222,0,65535,65700,0,0,4,1460,1,0,0,24,33580,0,65700,0,0,0,0,0
o,0x00000000,1720895839.194220,10.0.2.15,22,10.0.2.2,51056,1073725440,16222,0,65535,65700,0,0,4,1460,1,0,0,24,33580,68,65700,0,0,0,0,0
i,0x00000000,1720895839.196075,10.0.2.15,22,10.0.2.2,51056,1073725440,16222,0,65535,65700,0,0,4,1460,1,0,0,24,33580,68,65700,0,68,0,0,0
i,0x00000000,1720895839.196086,10.0.2.15,22,10.0.2.2,51056,1073725440,16290,0,65535,65700,0,0,4,1460,1,0,0,24,33580,0,65700,0,0,0,0,0
o,0x00000000,1720895839.197007,10.0.2.15,22,10.0.2.2,51056,1073725440,16290,0,65535,65700,0,0,4,1460,1,0,0,24,33580,332,65700,0,0,0,0,0
i,0x00000000,1720895839.199223,10.0.2.15,22,10.0.2.2,51056,1073725440,16290,0,65535,65700,0,0,4,1460,1,0,0,24,33580,332,65700,0,332,0,0,0
i,0x00000000,1720895839.202057,10.0.2.15,22,10.0.2.2,51056,1073725440,16622,0,65535,65700,0,0,4,1460,1,0,0,24,33580,0,65700,0,0,0,0,0
o,0x00000000,1720895839.217219,10.0.2.15,22,10.0.2.2,51056,1073725440,16622,0,65535,65700,0,0,4,1460,1,0,0,24,33580,28,65700,0,0,0,0,0
i,0x00000000,1720895839.221991,10.0.2.15,22,10.0.2.2,51056,1073725440,16622,0,65535,65700,0,0,4,1460,1,0,0,24,33580,28,65700,0,28,0,0,0
i,0x00000000,1720895839.222006,10.0.2.15,22,10.0.2.2,51056,1073725440,16650,0,65535,65700,0,0,4,1460,1,0,0,23,33580,0,65700,0,0,0,0,0
o,0x00000000,1720895839.224567,10.0.2.15,22,10.0.2.2,51056,1073725440,16650,0,65535,65700,0,0,4,1460,1,0,0,23,33580,768,65700,112,0,0,0,0
i,0x00000000,1720895839.226774,10.0.2.15,22,10.0.2.2,51056,1073725440,16650,0,65535,65700,0,0,4,1460,1,0,0,23,33580,768,65700,112,768,0,0,0
o,0x00000000,1720895839.227068,10.0.2.15,22,10.0.2.2,51056,1073725440,17418,0,65535,65700,0,0,4,1460,1,0,0,23,33580,140,65700,112,0,0,0,0
i,0x00000000,1720895839.229869,10.0.2.15,22,10.0.2.2,51056,1073725440,17418,0,65535,65700,0,0,4,1460,1,0,0,23,33580,140,65700,112,140,0,0,0
o,0x00000000,1720895839.230324,10.0.2.15,22,10.0.2.2,51056,1073725440,17558,0,65535,65700,0,0,4,1460,1,0,0,23,33580,44,65700,0,0,0,0,0
i,0x00000000,1720895839.233413,10.0.2.15,22,10.0.2.2,51056,1073725440,17558,0,65535,65700,0,0,4,1460,1,0,0,23,33580,44,65700,0,44,0,0,0
i,0x00000000,1720895839.233424,10.0.2.15,22,10.0.2.2,51056,1073725440,17602,0,65535,65700,0,0,4,1460,1,0,0,23,33580,0,65700,0,0,0,0,0
o,0x00000000,1720895839.234328,10.0.2.15,22,10.0.2.2,51056,1073725440,17602,0,65535,65700,0,0,4,1460,1,0,4,23,33580,72,65700,0,0,0,0,0
i,0x00000000,1720895839.236658,10.0.2.15,22,10.0.2.2,51056,1073725440,17602,0,65535,65700,0,0,4,1460,1,0,4,23,33580,72,65700,0,72,0,0,0
o,0x00000000,1720895839.242212,10.0.2.15,22,10.0.2.2,51056,1073725440,17674,0,65535,65700,0,0,4,1460,1,0,4,23,33580,44,65700,0,0,0,0,0
i,0x00000000,1720895839.243844,10.0.2.15,22,10.0.2.2,51056,1073725440,17674,0,65535,65700,0,0,4,1460,1,0,4,23,33580,44,65700,0,44,0,0,0
o,0x00000000,1720895839.287889,10.0.2.15,22,10.0.2.2,51056,1073725440,17718,0,65535,65700,0,0,4,1460,1,0,4,23,33580,104,65700,0,0,0,0,0
i,0x00000000,1720895839.289777,10.0.2.15,22,10.0.2.2,51056,1073725440,17718,0,65535,65700,0,0,4,1460,1,0,4,23,33580,104,65700,0,104,0,0,0
o,0x00000000,1720895839.291179,10.0.2.15,22,10.0.2.2,51056,1073725440,17822,0,65535,65700,0,0,4,1460,1,0,4,23,33580,44,65700,0,0,0,0,0
i,0x00000000,1720895839.292435,10.0.2.15,22,10.0.2.2,51056,1073725440,17822,0,65535,65700,0,0,4,1460,1,0,4,23,33580,44,65700,0,44,0,0,0
o,0x00000000,1720895839.354663,10.0.2.15,22,10.0.2.2,51056,1073725440,17866,0,65535,65700,0,0,4,1460,1,0,4,24,33580,72,65700,0,0,0,0,0
i,0x00000000,1720895839.356977,10.0.2.15,22,10.0.2.2,51056,1073725440,17866,0,65535,65700,0,0,4,1460,1,0,4,24,33580,72,65700,0,72,0,0,0
i,0x00000000,1720895839.356991,10.0.2.15,22,10.0.2.2,51056,1073725440,17938,0,65535,65700,0,0,4,1460,1,0,4,24,33580,0,65700,0,0,0,0,0
i,0x00000000,1720895839.356995,10.0.2.15,22,10.0.2.2,51056,1073725440,17938,0,65535,65700,0,0,4,1460,1,0,4,24,33580,0,65700,96,0,0,0,0
o,0x00000000,1720895839.357001,10.0.2.15,22,10.0.2.2,51056,1073725440,17938,0,65535,65604,0,0,5,1460,1,0,5,24,33580,0,65700,96,0,0,0,0
o,0x00000000,1720895839.408133,10.0.2.15,22,10.0.2.2,51056,1073725440,17938,0,65535,65604,0,0,8,1460,1,0,4,24,33580,0,65700,0,0,0,0,0
i,0x00000000,1720895839.412528,10.0.2.15,22,10.0.2.2,51056,1073725440,17938,0,65535,65604,0,0,8,1460,1,0,20,24,33580,0,65700,0,1,0,0,0
i,0x00000000,1720895840.529417,172.16.3.2,5101,172.16.1.2,10163,1073725440,14480,0,65728,65700,6,6,4,1460,416,1,992,59,33580,0,65700,0,0,0,0,0
o,0x00000000,1720895840.531413,172.16.3.2,5101,172.16.1.2,10163,1073725440,14480,0,65728,65700,6,6,4,1460,416,1,996,59,33580,1,65700,0,0,0,0,0
i,0x00000000,1720895840.703205,172.16.3.2,5101,172.16.1.2,10163,1073725440,14480,0,65728,65700,6,6,4,1460,416,1,996,59,33580,1,65700,0,1,0,0,0
i,0x00000000,1720895840.703311,172.16.3.2,5101,172.16.1.2,10163,1073725440,14481,0,65728,65728,6,6,4,1460,432,1,996,57,33580,0,65700,4,0,0,0,0
o,0x00000000,1720895840.703334,172.16.3.2,5101,172.16.1.2,10163,1073725440,14481,0,65728,65728,6,6,4,1460,432,1,997,57,33580,0,65700,128,0,0,0,0
o,0x00000000,1720895840.707346,172.16.3.2,5101,172.16.1.2,10163,1073725440,14481,0,65728,65728,6,6,4,1460,432,1,996,57,33580,1,65700,0,0,0,0,0
o,0x00000000,1720895840.710980,10.0.2.15,22,10.0.2.2,57021,1073725440,14600,0,65535,65700,0,0,4,1460,1,0,4,24,33580,84,65700,0,0,0,0,0
i,0x00000000,1720895840.714250,10.0.2.15,22,10.0.2.2,57021,1073725440,14600,0,65535,65700,0,0,4,1460,1,0,4,24,33580,84,65700,0,84,0,0,0
i,0x00000000,1720895840.869851,172.16.3.2,5101,172.16.1.2,10163,1073725440,14481,0,65728,65728,6,6,4,1460,432,1,996,57,33580,1,65700,0,1,0,0,0
i,0x00000000,1720895841.015780,172.16.3.2,5101,172.16.1.2,18192,1073725440,14480,0,65728,65700,6,6,4,1460,576,1,992,74,33580,0,65700,0,0,0,0,0
o,0x00000000,1720895841.049068,172.16.3.2,5101,172.16.1.2,10163,1073725440,14482,0,65728,65728,6,6,4,1460,442,1,996,54,33580,1,65700,0,0,0,0,0
o,0x00000000,1720895841.049509,172.16.3.2,5101,172.16.1.2,10163,1073725440,14482,0,65728,65728,6,6,4,1460,442,1,996,54,33580,2,65700,0,1,0,0,0
o,0x00000000,1720895841.062255,172.16.3.2,5101,172.16.1.2,18192,1073725440,14480,0,65728,65700,6,6,4,1460,576,1,993,74,33580,0,65700,0,0,0,0,0
o,0x00000000,1720895841.062895,10.0.2.15,22,10.0.2.2,57021,1073725440,14600,0,65535,65700,0,0,4,1460,1,0,4,24,33580,108,65700,0,0,0,0,0
i,0x00000000,1720895841.066079,10.0.2.15,22,10.0.2.2,57021,1073725440,14600,0,65535,65700,0,0,4,1460,1,0,4,24,33580,108,65700,0,108,0,0,0
i,0x00000000,1720895841.256037,172.16.3.2,5101,172.16.1.2,10163,1073725440,14482,0,65728,65728,6,6,4,1460,442,1,996,54,33580,2,65700,0,2,0,0,0
i,0x00000000,1720895841.282818,172.16.3.2,5101,172.16.1.2,18192,1073725440,14480,0,65728,65700,6,6,4,1460,576,1,992,74,33580,0,65700,0,0,0,0,0
i,0x00000000,1720895841.282839,172.16.3.2,5101,172.16.1.2,18192,1073725440,14480,0,65728,65700,6,6,4,1460,576,1,992,74,33580,0,65700,1448,0,0,0,0
o,0x00000000,1720895841.282846,172.16.3.2,5101,172.16.1.2,18192,1073725440,14480,0,65728,65700,6,6,4,1460,576,1,993,74,33580,0,65700,2896,0,0,0,0
i,0x00000000,1720895841.297488,172.16.3.2,5101,172.16.1.2,18192,1073725440,14480,0,65728,65700,6,6,4,1460,576,1,992,74,33580,0,65700,2896,0,0,0,0
i,0x00000000,1720895841.297508,172.16.3.2,5101,172.16.1.2,18192,1073725440,14480,0,65728,65700,6,6,4,1460,576,1,992,74,33580,0,65700,4344,0,0,0,0
o,0x00000000,1720895841.297514,172.16.3.2,5101,172.16.1.2,18192,1073725440,14480,0,65728,65700,6,6,4,1460,576,1,993,74,33580,0,65700,5792,0,0,0,0
i,0x00000000,1720895841.318160,172.16.3.2,5101,172.16.1.2,18192,1073725440,14480,0,65728,65700,6,6,4,1460,576,1,992,74,33580,0,65700,0,0,0,0,0
i,0x00000000,1720895841.325474,172.16.3.2,5101,172.16.1.2,18192,1073725440,14480,0,65728,65700,6,6,4,1460,576,1,992,74,33580,0,65700,0,0,0,0,0
o,0x00000000,1720895841.325497,172.16.3.2,5101,172.16.1.2,18192,1073725440,14480,0,65728,65700,6,6,4,1460,576,1,993,74,33580,0,65700,1448,0,0,0,0
i,0x00000000,1720895841.336146,172.16.3.2,5101,172.16.1.2,18192,1073725440,14480,0,65728,65700,6,6,4,1460,576,1,992,74,33580,0,65700,0,0,0,0,0
i,0x00000000,1720895841.349004,172.16.3.2,5101,172.16.1.2,18192,1073725440,14480,0,65728,65700,6,6,4,1460,576,1,992,74,33580,0,65700,0,0,0,0,0
o,0x00000000,1720895841.349036,172.16.3.2,5101,172.16.1.2,18192,1073725440,14480,0,65728,65700,6,6,4,1460,576,1,993,74,33580,0,65700,1448,0,0,0,0
i,0x00000000,1720895841.356647,172.16.3.2,5101,172.16.1.2,18192,1073725440,14480,0,65728,65700,6,6,4,1460,576,1,992,74,33580,0,65700,0,0,0,0,0
o,0x00000000,1720895841.393403,172.16.3.2,5101,172.16.1.2,18192,1073725440,14480,0,65728,65700,6,6,4,1460,576,1,993,74,33580,0,65700,0,0,0,0,0
i,0x00000000,1720895841.400174,172.16.3.2,5101,172.16.1.2,18192,1073725440,14480,0,65728,65700,6,6,4,1460,576,1,992,74,33580,0,65700,0,0,0,0,0
o,0x00000000,1720895841.433179,172.16.3.2,5101,172.16.1.2,18192,1073725440,14480,0,65728,65700,6,6,4,1460,576,1,993,74,33580,0,65700,0,0,0,0,0
i,0x00000000,1720895841.674987,172.16.3.2,5101,172.16.1.2,18192,1073725440,14480,0,65728,65700,6,6,4,1460,576,1,992,74,33580,0,65700,0,0,0,0,0
i,0x00000000,1720895841.689478,172.16.3.2,5101,172.16.1.2,18192,1073725440,14480,0,65728,65700,6,6,4,1460,576,1,992,74,33580,0,65700,0,0,0,0,0
o,0x00000000,1720895841.689517,172.16.3.2,5101,172.16.1.2,18192,1073725440,14480,0,65728,65700,6,6,4,1460,576,1,993,74,33580,0,65700,1448,0,0,0,0
i,0x00000000,1720895841.696533,172.16.3.2,5101,172.16.1.2,18192,1073725440,14480,0,65728,65700,6,6,4,1460,576,1,992,74,33580,0,65700,0,0,0,0,0
i,0x00000000,1720895841.708888,172.16.3.2,5101,172.16.1.2,18192,1073725440,14480,0,65728,65700,6,6,4,1460,576,1,992,74,33580,0,65700,0,0,0,0,0
o,0x00000000,1720895841.708927,172.16.3.2,5101,172.16.1.2,18192,1073725440,14480,0,65728,65700,6,6,4,1460,576,1,993,74,33580,0,65700,1448,0,0,0,0
i,0x00000000,1720895841.717143,172.16.3.2,5101,172.16.1.2,18192,1073725440,14480,0,65728,65700,6,6,4,1460,576,1,992,74,33580,0,65700,0,0,0,0,0
i,0x00000000,1720895841.740976,172.16.3.2,5101,172.16.1.2,18192,1073725440,14480,0,65728,65700,6,6,4,1460,576,1,992,74,33580,0,65700,0,0,0,0,0
o,0x00000000,1720895841.740989,172.16.3.2,5101,172.16.1.2,18192,1073725440,14480,0,65728,65700,6,6,4,1460,576,1,993,74,33580,0,65700,1448,0,0,0,0
i,0x00000000,1720895841.746733,172.16.3.2,5101,172.16.1.2,18192,1073725440,14480,0,65728,65700,6,6,4,1460,576,1,992,74,33580,0,65700,0,0,0,0,0
i,0x00000000,1720895841.756186,172.16.3.2,5101,172.16.1.2,18192,1073725440,14480,0,65728,65700,6,6,4,1460,576,1,992,74,33580,0,65700,0,0,0,0,0
o,0x00000000,1720895841.756206,172.16.3.2,5101,172.16.1.2,18192,1073725440,14480,0,65728,65700,6,6,4,1460,576,1,993,74,33580,0,65700,1448,0,0,0,0
i,0x00000000,1720895841.765593,172.16.3.2,5101,172.16.1.2,18192,1073725440,14480,0,65728,65700,6,6,4,1460,576,1,992,74,33580,0,65700,0,0,0,0,0
i,0x00000000,1720895841.783881,172.16.3.2,5101,172.16.1.2,18192,1073725440,14480,0,65728,65700,6,6,4,1460,576,1,992,74,33580,0,65700,0,0,0,0,0
o,0x00000000,1720895841.783899,172.16.3.2,5101,172.16.1.2,18192,1073725440,14480,0,65728,65700,6,6,4,1460,576,1,993,74,33580,0,65700,1448,0,0,0,0
i,0x00000000,1720895841.793952,172.16.3.2,5101,172.16.1.2,18192,1073725440,14480,0,65728,65700,6,6,4,1460,576,1,992,74,33580,0,65700,0,0,0,0,0
i,0x00000000,1720895841.804865,172.16.3.2,5101,172.16.1.2,18192,1073725440,14480,0,65728,65700,6,6,4,1460,576,1,992,74,33580,0,65700,0,0,0,0,0
o,0x00000000,1720895841.804881,172.16.3.2,5101,172.16.1.2,18192,1073725440,14480,0,65728,65700,6,6,4,1460,576,1,993,74,33580,0,65700,1448,0,0,0,0
i,0x00000000,1720895841.816645,172.16.3.2,5101,172.16.1.2,18192,1073725440,14480,0,65728,65700,6,6,4,1460,576,1,992,74,33580,0,65700,0,0,0,0,0
i,0x00000000,1720895841.827480,172.16.3.2,5101,172.16.1.2,18192,1073725440,14480,0,65728,65700,6,6,4,1460,576,1,992,74,33580,0,65700,0,0,0,0,0
o,0x00000000,1720895841.827512,172.16.3.2,5101,172.16.1.2,18192,1073725440,14480,0,65728,65700,6,6,4,1460,576,1,993,74,33580,0,65700,1448,0,0,0,0
i,0x00000000,1720895841.847257,172.16.3.2,5101,172.16.1.2,18192,1073725440,14480,0,65728,65700,6,6,4,1460,576,1,992,74,33580,0,65700,0,0,0,0,0
i,0x00000000,1720895841.849372,172.16.3.2,5101,172.16.1.2,18192,1073725440,14480,0,65728,65700,6,6,4,1460,576,1,992,74,33580,0,65700,0,0,0,0,0
o,0x00000000,1720895841.849379,172.16.3.2,5101,172.16.1.2,18192,1073725440,14480,0,65728,65700,6,6,4,1460,576,1,993,74,33580,0,65700,1448,0,0,0,0
i,0x00000000,1720895841.877939,172.16.3.2,5101,172.16.1.2,18192,1073725440,14480,0,65728,65700,6,6,4,1460,576,1,992,74,33580,0,65700,0,0,0,0,0
i,0x00000000,1720895841.887103,172.16.3.2,5101,172.16.1.2,18192,1073725440,14480,0,65728,65700,6,6,4,1460,576,1,992,74,33580,0,65700,0,0,0,0,0
o,0x00000000,1720895841.887144,172.16.3.2,5101,172.16.1.2,18192,1073725440,14480,0,65728,65700,6,6,4,1460,576,1,993,74,33580,0,65700,1448,0,0,0,0
i,0x00000000,1720895841.915579,172.16.3.2,5101,172.16.1.2,18192,1073725440,14480,0,65728,65700,6,6,4,1460,576,1,992,74,33580,0,65700,0,0,0,0,0
i,0x00000000,1720895841.927661,172.16.3.2,5101,172.16.1.2,18192,1073725440,14480,0,65728,65700,6,6,4,1460,576,1,992,74,33580,0,65700,0,0,0,0,0
o,0x00000000,1720895841.927685,172.16.3.2,5101,172.16.1.2,18192,1073725440,14480,0,65728,65700,6,6,4,1460,576,1,993,74,33580,0,65700,1448,0,0,0,0
o,0x00000000,1720895842.063443,10.0.2.15,22,10.0.2.2,57021,1073725440,14600,0,65535,65700,0,0,4,1460,1,0,4,24,33580,156,65700,0,0,0,0,0
i,0x00000000,1720895842.066853,10.0.2.15,22,10.0.2.2,57021,1073725440,14600,0,65535,65700,0,0,4,1460,1,0,4,24,33580,156,65700,0,156,0,0,0
i,0x00000000,1720895842.259273,172.16.3.2,5101,172.16.1.2,18192,1073725440,14480,0,65728,65700,6,6,4,1460,576,1,992,74,33580,0,65700,0,0,0,0,0
o,0x00000000,1720895842.292824,172.16.3.2,5101,172.16.1.2,18192,1073725440,14480,0,65728,65700,6,6,4,1460,576,1,993,74,33580,0,65700,0,0,0,0,0
i,0x00000000,1720895842.398532,172.16.3.2,5101,172.16.1.2,18192,1073725440,14480,0,65728,65700,6,6,4,1460,576,1,992,74,33580,0,65700,0,0,0,0,0
i,0x00000000,1720895842.416819,172.16.3.2,5101,172.16.1.2,18192,1073725440,14480,0,65728,65700,6,6,4,1460,576,1,992,74,33580,0,65700,0,0,0,0,0
o,0x00000000,1720895842.416849,172.16.3.2,5101,172.16.1.2,18192,1073725440,14480,0,65728,65700,6,6,4,1460,576,1,993,74,33580,0,65700,1448,0,0,0,0
i,0x00000000,1720895842.425647,172.16.3.2,5101,172.16.1.2,18192,1073725440,14480,0,65728,65700,6,6,4,1460,576,1,992,74,33580,0,65700,0,0,0,0,0
i,0x00000000,1720895842.437025,172.16.3.2,5101,172.16.1.2,18192,1073725440,14480,0,65728,65700,6,6,4,1460,576,1,992,74,33580,0,65700,0,0,0,0,0
o,0x00000000,1720895842.437064,172.16.3.2,5101,172.16.1.2,18192,1073725440,14480,0,65728,65700,6,6,4,1460,576,1,993,74,33580,0,65700,1448,0,0,0,0
i,0x00000000,1720895842.445436,172.16.3.2,5101,172.16.1.2,18192,1073725440,14480,0,65728,65700,6,6,4,1460,576,1,992,74,33580,0,65700,0,0,0,0,0
i,0x00000000,1720895842.460591,172.16.3.2,5101,172.16.1.2,18192,1073725440,14480,0,65728,65700,6,6,4,1460,576,1,992,74,33580,0,65700,0,0,0,0,0
o,0x00000000,1720895842.460614,172.16.3.2,5101,172.16.1.2,18192,1073725440,14480,0,65728,65700,6,6,4,1460,576,1,993,74,33580,0,65700,1448,0,0,0,0
i,0x00000000,1720895842.465677,172.16.3.2,5101,172.16.1.2,18192,1073725440,14480,0,65728,65700,6,6,4,1460,576,1,992,74,33580,0,65700,0,0,0,0,0
i,0x00000000,1720895842.488015,172.16.3.2,5101,172.16.1.2,18192,1073725440,14480,0,65728,65700,6,6,4,1460,576,1,992,74,33580,0,65700,0,0,0,0,0
o,0x00000000,1720895842.488054,172.16.3.2,5101,172.16.1.2,18192,1073725440,14480,0,65728,65700,6,6,4,1460,576,1,993,74,33580,0,65700,1448,0,0,0,0
i,0x00000000,1720895842.496370,172.16.3.2,5101,172.16.1.2,18192,1073725440,14480,0,65728,65700,6,6,4,1460,576,1,992,74,33580,0,65700,0,0,0,0,0
i,0x00000000,1720895842.508334,172.16.3.2,5101,172.16.1.2,18192,1073725440,14480,0,65728,65700,6,6,4,1460,576,1,992,74,33580,0,65700,0,0,0,0,0
o,0x00000000,1720895842.508379,172.16.3.2,5101,172.16.1.2,18192,1073725440,14480,0,65728,65700,6,6,4,1460,576,1,993,74,33580,0,65700,1448,0,0,0,0
i,0x00000000,1720895842.516879,172.16.3.2,5101,172.16.1.2,18192,1073725440,14480,0,65728,65700,6,6,4,1460,576,1,992,74,33580,0,65700,0,0,0,0,0
i,0x00000000,1720895842.528388,172.16.3.2,5101,172.16.1.2,18192,1073725440,14480,0,65728,65700,6,6,4,1460,576,1,992,74,33580,0,65700,0,0,0,0,0
o,0x00000000,1720895842.528427,172.16.3.2,5101,172.16.1.2,18192,1073725440,14480,0,65728,65700,6,6,4,1460,576,1,993,74,33580,0,65700,1448,0,0,0,0
i,0x00000000,1720895842.546700,172.16.3.2,5101,172.16.1.2,18192,1073725440,14480,0,65728,65700,6,6,4,1460,576,1,992,74,33580,0,65700,0,0,0,0,0
i,0x00000000,1720895842.557414,172.16.3.2,5101,172.16.1.2,18192,1073725440,14480,0,65728,65700,6,6,4,1460,576,1,992,74,33580,0,65700,0,0,0,0,0
o,0x00000000,1720895842.557436,172.16.3.2,5101,172.16.1.2,18192,1073725440,14480,0,65728,65700,6,6,4,1460,576,1,993,74,33580,0,65700,1448,0,0,0,0
i,0x00000000,1720895842.567125,172.16.3.2,5101,172.16.1.2,18192,1073725440,14480,0,65728,65700,6,6,4,1460,576,1,992,74,33580,0,65700,0,0,0,0,0
i,0x00000000,1720895842.584395,172.16.3.2,5101,172.16.1.2,18192,1073725440,14480,0,65728,65700,6,6,4,1460,576,1,992,74,33580,0,65700,0,0,0,0,0
o,0x00000000,1720895842.584411,172.16.3.2,5101,172.16.1.2,18192,1073725440,14480,0,65728,65700,6,6,4,1460,576,1,993,74,33580,0,65700,1448,0,0,0,0
i,0x00000000,1720895842.587472,172.16.3.2,5101,172.16.1.2,18192,1073725440,14480,0,65728,65700,6,6,4,1460,576,1,992,74,33580,0,65700,0,0,0,0,0
i,0x00000000,1720895842.607726,172.16.3.2,5101,172.16.1.2,18192,1073725440,14480,0,65728,65700,6,6,4,1460,576,1,992,74,33580,0,65700,0,0,0,0,0
o,0x00000000,1720895842.607766,172.16.3.2,5101,172.16.1.2,18192,1073725440,14480,0,65728,65700,6,6,4,1460,576,1,993,74,33580,0,65700,1448,0,0,0,0
i,0x00000000,1720895842.615745,172.16.3.2,5101,172.16.1.2,18192,1073725440,14480,0,65728,65700,6,6,4,1460,576,1,992,74,33580,0,65700,0,0,0,0,0
i,0x00000000,1720895842.627904,172.16.3.2,5101,172.16.1.2,18192,1073725440,14480,0,65728,65700,6,6,4,1460,576,1,992,74,33580,0,65700,0,0,0,0,0
o,0x00000000,1720895842.627941,172.16.3.2,5101,172.16.1.2,18192,1073725440,14480,0,65728,65700,6,6,4,1460,576,1,993,74,33580,0,65700,1448,0,0,0,0
i,0x00000000,1720895842.636045,172.16.3.2,5101,172.16.1.2,18192,1073725440,14480,0,65728,65700,6,6,4,1460,576,1,992,74,33580,0,65700,0,0,0,0,0
i,0x00000000,1720895842.648624,172.16.3.2,5101,172.16.1.2,18192,1073725440,14480,0,65728,65700,6,6,4,1460,576,1,992,74,33580,0,65700,0,0,0,0,0
o,0x00000000,1720895842.648651,172.16.3.2,5101,172.16.1.2,18192,1073725440,14480,0,65728,65700,6,6,4,1460,576,1,993,74,33580,0,65700,1448,0,0,0,0
i,0x00000000,1720895842.666192,172.16.3.2,5101,172.16.1.2,18192,1073725440,14480,0,65728,65700,6,6,4,1460,576,1,992,74,33580,0,65700,0,0,0,0,0
i,0x00000000,1720895842.677213,172.16.3.2,5101,172.16.1.2,18192,1073725440,14480,0,65728,65700,6,6,4,1460,576,1,992,74,33580,0,65700,0,0,0,0,0
o,0x00000000,1720895842.677257,172.16.3.2,5101,172.16.1.2,18192,1073725440,14480,0,65728,65700,6,6,4,1460,576,1,993,74,33580,0,65700,1448,0,0,0,0
i,0x00000000,1720895842.686453,172.16.3.2,5101,172.16.1.2,18192,1073725440,14480,0,65728,65700,6,6,4,1460,576,1,992,74,33580,0,65700,0,0,0,0,0
i,0x00000000,1720895842.714433,172.16.3.2,5101,172.16.1.2,18192,1073725440,14480,0,65728,65700,6,6,4,1460,576,1,992,74,33580,0,65700,0,0,0,0,0
o,0x00000000,1720895842.714474,172.16.3.2,5101,172.16.1.2,18192,1073725440,14480,0,65728,65700,6,6,4,1460,576,1,993,74,33580,0,65700,1448,0,0,0,0
i,0x00000000,1720895842.714900,172.16.3.2,5101,172.16.1.2,18192,1073725440,14480,0,65728,65700,6,6,4,1460,576,1,992,74,33580,0,65700,1448,0,0,0,0
i,0x00000000,1720895842.724003,172.16.3.2,5101,172.16.1.2,18192,1073725440,14480,0,65728,65700,6,6,4,1460,576,1,992,74,33580,0,65700,0,0,0,0,0
o,0x00000000,1720895842.724016,172.16.3.2,5101,172.16.1.2,18192,1073725440,14480,0,65728,65700,6,6,4,1460,576,1,993,74,33580,0,65700,1448,0,0,0,0
i,0x00000000,1720895842.735745,172.16.3.2,5101,172.16.1.2,18192,1073725440,14480,0,65728,65700,6,6,4,1460,576,1,992,74,33580,0,65700,0,0,0,0,0
i,0x00000000,1720895842.746987,172.16.3.2,5101,172.16.1.2,18192,1073725440,14480,0,65728,65700,6,6,4,1460,576,1,992,74,33580,0,65700,0,0,0,0,0
o,0x00000000,1720895842.747013,172.16.3.2,5101,172.16.1.2,18192,1073725440,14480,0,65728,65700,6,6,4,1460,576,1,993,74,33580,0,65700,1448,0,0,0,0
i,0x00000000,1720895842.755588,172.16.3.2,5101,172.16.1.2,18192,1073725440,14480,0,65728,65700,6,6,4,1460,576,1,992,74,33580,0,65700,0,0,0,0,0
i,0x00000000,1720895842.766469,172.16.3.2,5101,172.16.1.2,18192,1073725440,14480,0,65728,65700,6,6,4,1460,576,1,992,74,33580,0,65700,0,0,0,0,0
o,0x00000000,1720895842.766496,172.16.3.2,5101,172.16.1.2,18192,1073725440,14480,0,65728,65700,6,6,4,1460,576,1,993,74,33580,0,65700,1448,0,0,0,0
i,0x00000000,1720895842.785705,172.16.3.2,5101,172.16.1.2,18192,1073725440,14480,0,65728,65700,6,6,4,1460,576,1,992,74,33580,0,65700,0,0,0,0,0
i,0x00000000,1720895842.804211,172.16.3.2,5101,172.16.1.2,18192,1073725440,14480,0,65728,65700,6,6,4,1460,576,1,992,74,33580,0,65700,0,0,0,0,0
o,0x00000000,1720895842.804251,172.16.3.2,5101,172.16.1.2,18192,1073725440,14480,0,65728,65700,6,6,4,1460,576,1,993,74,33580,0,65700,1448,0,0,0,0
i,0x00000000,1720895842.810913,172.16.3.2,5101,172.16.1.2,18192,1073725440,14480,0,65728,65700,6,6,4,1460,576,1,992,74,33580,0,65700,0,0,0,0,0
o,0x00000000,1720895842.841852,172.16.3.2,5101,172.16.1.2,18192,1073725440,14480,0,65728,65700,6,6,4,1460,576,1,993,74,33580,0,65700,0,0,0,0,0
i,0x00000000,1720895842.880035,172.16.3.2,5101,172.16.1.2,18192,1073725440,14480,0,65728,65700,6,6,4,1460,576,1,992,74,33580,0,65700,0,0,0,0,0
i,0x00000000,1720895842.886822,172.16.3.2,5101,172.16.1.2,18192,1073725440,14480,0,65728,65700,6,6,4,1460,576,1,992,74,33580,0,65700,0,0,0,0,0
o,0x00000000,1720895842.886857,172.16.3.2,5101,172.16.1.2,18192,1073725440,14480,0,65728,65700,6,6,4,1460,576,1,993,74,33580,0,65700,1448,0,0,0,0
i,0x00000000,1720895842.896304,172.16.3.2,5101,172.16.1.2,18192,1073725440,14480,0,65728,65700,6,6,4,1460,576,1,992,74,33580,0,65700,0,0,0,0,0
i,0x00000000,1720895842.918958,172.16.3.2,5101,172.16.1.2,18192,1073725440,14480,0,65728,65700,6,6,4,1460,576,1,992,74,33580,0,65700,0,0,0,0,0
o,0x00000000,1720895842.919002,172.16.3.2,5101,172.16.1.2,18192,1073725440,14480,0,65728,65700,6,6,4,1460,576,1,993,74,33580,0,65700,1448,0,0,0,0
o,0x00000000,1720895843.062906,10.0.2.15,22,10.0.2.2,57021,1073725440,14600,0,65535,65700,0,0,4,1460,1,0,4,24,33580,108,65700,0,0,0,0,0
i,0x00000000,1720895843.065520,10.0.2.15,22,10.0.2.2,57021,1073725440,14600,0,65535,65700,0,0,4,1460,1,0,4,24,33580,108,65700,0,108,0,0,0
i,0x00000000,1720895843.097307,172.16.3.2,5101,172.16.1.2,18192,1073725440,14480,0,65728,65700,6,6,4,1460,576,1,992,74,33580,0,65700,0,0,0,0,0
o,0x00000000,1720895843.133260,172.16.3.2,5101,172.16.1.2,18192,1073725440,14480,0,65728,65700,6,6,4,1460,576,1,993,74,33580,0,65700,0,0,0,0,0
i,0x00000000,1720895843.186254,172.16.3.2,5101,172.16.1.2,18192,1073725440,14480,0,65728,65700,6,6,4,1460,576,1,992,74,33580,0,65700,0,0,0,0,0
o,0x00000000,1720895843.223960,172.16.3.2,5101,172.16.1.2,18192,1073725440,14480,0,65728,65700,6,6,4,1460,576,1,993,74,33580,0,65700,0,0,0,0,0
i,0x00000000,1720895843.386950,172.16.3.2,5101,172.16.1.2,18192,1073725440,14480,0,65728,65700,6,6,4,1460,576,1,992,74,33580,0,65700,0,0,0,0,0
i,0x00000000,1720895843.406222,172.16.3.2,5101,172.16.1.2,18192,1073725440,14480,0,65728,65700,6,6,4,1460,576,1,992,74,33580,0,65700,0,0,0,0,0
o,0x00000000,1720895843.406235,172.16.3.2,5101,172.16.1.2,18192,1073725440,14480,0,65728,65700,6,6,4,1460,576,1,993,74,33580,0,65700,1448,0,0,0,0
i,0x00000000,1720895843.407246,172.16.3.2,5101,172.16.1.2,18192,1073725440,14480,0,65728,65700,6,6,4,1460,576,1,992,74,33580,0,65700,0,0,0,0,0
i,0x00000000,1720895843.436191,172.16.3.2,5101,172.16.1.2,18192,1073725440,14480,0,65728,65700,6,6,4,1460,576,1,992,74,33580,0,65700,0,0,0,0,0
o,0x00000000,1720895843.436204,172.16.3.2,5101,172.16.1.2,18192,1073725440,14480,0,65728,65700,6,6,4,1460,576,1,993,74,33580,0,65700,1448,0,0,0,0
i,0x00000000,1720895843.437229,172.16.3.2,5101,172.16.1.2,18192,1073725440,14480,0,65728,65700,6,6,4,1460,576,1,992,74,33580,0,65700,0,0,0,0,0
i,0x00000000,1720895843.442394,172.16.3.2,5101,172.16.1.2,18192,1073725440,14480,0,65728,65700,6,6,4,1460,576,1,992,74,33580,0,65700,0,0,0,0,0
o,0x00000000,1720895843.442407,172.16.3.2,5101,172.16.1.2,18192,1073725440,14480,0,65728,65700,6,6,4,1460,576,1,993,74,33580,0,65700,1448,0,0,0,0
i,0x00000000,1720895843.453739,172.16.3.2,5101,172.16.1.2,18192,1073725440,14480,0,65728,65700,6,6,4,1460,576,1,992,74,33580,0,65700,0,0,0,0,0
i,0x00000000,1720895843.468336,172.16.3.2,5101,172.16.1.2,18192,1073725440,14480,0,65728,65700,6,6,4,1460,576,1,992,74,33580,0,65700,0,0,0,0,0
o,0x00000000,1720895843.468423,172.16.3.2,5101,172.16.1.2,18192,1073725440,14480,0,65728,65700,6,6,4,1460,576,1,993,74,33580,0,65700,0,0,1,0,0
i,0x00000000,1720895843.488730,172.16.3.2,5101,172.16.1.2,18192,1073725440,14480,0,65728,65700,6,6,4,1460,576,1,992,74,33580,0,65700,0,0,1,0,0
o,0x00000000,1720895843.488746,172.16.3.2,5101,172.16.1.2,18192,1073725440,14480,0,65728,65728,6,6,4,1460,576,1,993,74,33580,0,65700,0,0,2,0,0
i,0x00000000,1720895843.513225,172.16.3.2,5101,172.16.1.2,18192,1073725440,14480,0,65728,65728,6,6,4,1460,576,1,992,74,33580,0,65700,0,0,2,0,0
o,0x00000000,1720895843.513256,172.16.3.2,5101,172.16.1.2,18192,1073725440,14480,0,65728,65728,6,6,4,1460,576,1,993,74,33580,0,65700,0,0,3,0,0
i,0x00000000,1720895843.524152,172.16.3.2,5101,172.16.1.2,18192,1073725440,14480,0,65728,65728,6,6,4,1460,576,1,992,74,33580,0,65700,0,0,3,0,0
o,0x00000000,1720895843.524163,172.16.3.2,5101,172.16.1.2,18192,1073725440,14480,0,65728,65728,6,6,4,1460,576,1,993,74,33580,0,65700,0,0,4,0,0
i,0x00000000,1720895843.543799,172.16.3.2,5101,172.16.1.2,18192,1073725440,14480,0,65728,65728,6,6,4,1460,576,1,992,74,33580,0,65700,0,0,4,0,0
o,0x00000000,1720895843.543811,172.16.3.2,5101,172.16.1.2,18192,1073725440,14480,0,65728,65728,6,6,4,1460,576,1,993,74,33580,0,65700,0,0,4,0,0
i,0x00000000,1720895843.554750,172.16.3.2,5101,172.16.1.2,18192,1073725440,14480,0,65728,65728,6,6,4,1460,576,1,992,74,33580,0,65700,0,0,4,0,0
o,0x00000000,1720895843.554761,172.16.3.2,5101,172.16.1.2,18192,1073725440,14480,0,65728,65728,6,6,4,1460,576,1,993,74,33580,0,65700,0,0,4,0,0
i,0x00000000,1720895843.563400,172.16.3.2,5101,172.16.1.2,18192,1073725440,14480,0,65728,65728,6,6,4,1460,576,1,992,74,33580,0,65700,0,0,4,0,0
o,0x00000000,1720895843.563410,172.16.3.2,5101,172.16.1.2,18192,1073725440,14480,0,65728,65728,6,6,4,1460,576,1,993,74,33580,0,65700,0,0,4,0,0
i,0x00000000,1720895843.573475,172.16.3.2,5101,172.16.1.2,18192,1073725440,14480,0,65728,65728,6,6,4,1460,576,1,992,74,33580,0,65700,0,0,4,0,0
o,0x00000000,1720895843.573488,172.16.3.2,5101,172.16.1.2,18192,1073725440,14480,0,65728,65728,6,6,4,1460,576,1,993,74,33580,0,65700,0,0,4,0,0
i,0x00000000,1720895843.593235,172.16.3.2,5101,172.16.1.2,18192,1073725440,14480,0,65728,65728,6,6,4,1460,576,1,992,74,33580,0,65700,0,0,4,0,0
o,0x00000000,1720895843.593246,172.16.3.2,5101,172.16.1.2,18192,1073725440,14480,0,65728,65728,6,6,4,1460,576,1,993,74,33580,0,65700,0,0,5,0,0
i,0x00000000,1720895843.609798,172.16.3.2,5101,172.16.1.2,18192,1073725440,14480,0,65728,65728,6,6,4,1460,576,1,992,74,33580,0,65700,0,0,5,0,0
o,0x00000000,1720895843.609809,172.16.3.2,5101,172.16.1.2,18192,1073725440,14480,0,65728,65728,6,6,4,1460,576,1,993,74,33580,0,65700,0,0,5,0,0
i,0x00000000,1720895843.614373,172.16.3.2,5101,172.16.1.2,18192,1073725440,14480,0,65728,65728,6,6,4,1460,576,1,992,74,33580,0,65700,0,0,5,0,0
o,0x00000000,1720895843.614380,172.16.3.2,5101,172.16.1.2,18192,1073725440,14480,0,65728,65728,6,6,4,1460,576,1,993,74,33580,0,65700,0,0,6,0,0
i,0x00000000,1720895843.623708,172.16.3.2,5101,172.16.1.2,18192,1073725440,14480,0,65728,65728,6,6,4,1460,576,1,992,74,33580,0,65700,0,0,6,0,0
o,0x00000000,1720895843.623731,172.16.3.2,5101,172.16.1.2,18192,1073725440,14480,0,65728,65728,6,6,4,1460,576,1,993,74,33580,0,65700,0,0,6,0,0
i,0x00000000,1720895843.633975,172.16.3.2,5101,172.16.1.2,18192,1073725440,14480,0,65728,65728,6,6,4,1460,576,1,992,74,33580,0,65700,0,0,6,0,0
o,0x00000000,1720895843.633988,172.16.3.2,5101,172.16.1.2,18192,1073725440,14480,0,65728,65728,6,6,4,1460,576,1,993,74,33580,0,65700,0,0,6,0,0
i,0x00000000,1720895843.655172,172.16.3.2,5101,172.16.1.2,18192,1073725440,14480,0,65728,65728,6,6,4,1460,576,1,992,74,33580,0,65700,0,0,6,0,0
o,0x00000000,1720895843.655188,172.16.3.2,5101,172.16.1.2,18192,1073725440,14480,0,65728,65728,6,6,4,1460,576,1,993,74,33580,0,65700,0,0,6,0,0
i,0x00000000,1720895843.664743,172.16.3.2,5101,172.16.1.2,18192,1073725440,14480,0,65728,65728,6,6,4,1460,576,1,992,74,33580,0,65700,0,0,6,0,0
o,0x00000000,1720895843.664752,172.16.3.2,5101,172.16.1.2,18192,1073725440,14480,0,65728,65728,6,6,4,1460,576,1,993,74,33580,0,65700,0,0,7,0,0
i,0x00000000,1720895843.673485,172.16.3.2,5101,172.16.1.2,18192,1073725440,14480,0,65728,65728,6,6,4,1460,576,1,992,74,33580,0,65700,0,0,7,0,0
o,0x00000000,1720895843.673496,172.16.3.2,5101,172.16.1.2,18192,1073725440,14480,0,65728,65728,6,6,4,1460,576,1,993,74,33580,0,65700,0,0,8,0,0
i,0x00000000,1720895843.686082,172.16.3.2,5101,172.16.1.2,18192,1073725440,14480,0,65728,65728,6,6,4,1460,576,1,992,74,33580,0,65700,0,0,8,0,0
o,0x00000000,1720895843.686091,172.16.3.2,5101,172.16.1.2,18192,1073725440,14480,0,65728,65728,6,6,4,1460,576,1,993,74,33580,0,65700,0,0,9,0,0
i,0x00000000,1720895843.693541,172.16.3.2,5101,172.16.1.2,18192,1073725440,14480,0,65728,65728,6,6,4,1460,576,1,992,74,33580,0,65700,0,0,9,0,0
o,0x00000000,1720895843.693557,172.16.3.2,5101,172.16.1.2,18192,1073725440,14480,0,65728,65728,6,6,4,1460,576,1,993,74,33580,0,65700,0,0,10,0,0
i,0x00000000,1720895843.738140,172.16.3.2,5101,172.16.1.2,18192,1073725440,14480,0,65728,65728,6,6,4,1460,576,1,992,74,33580,0,65700,0,0,10,0,0
o,0x00000000,1720895843.738155,172.16.3.2,5101,172.16.1.2,18192,1073725440,14480,0,65728,65728,6,6,4,1460,576,1,993,74,33580,0,65700,0,0,11,0,0
i,0x00000000,1720895843.753152,172.16.3.2,5101,172.16.1.2,18192,1073725440,14480,0,65728,65728,6,6,4,1460,576,1,992,74,33580,0,65700,0,0,11,0,0
o,0x00000000,1720895843.753161,172.16.3.2,5101,172.16.1.2,18192,1073725440,14480,0,65728,65728,6,6,4,1460,576,1,993,74,33580,0,65700,0,0,12,0,0
i,0x00000000,1720895843.764128,172.16.3.2,5101,172.16.1.2,18192,1073725440,14480,0,65728,65728,6,6,4,1460,576,1,992,74,33580,0,65700,0,0,12,0,0
o,0x00000000,1720895843.764138,172.16.3.2,5101,172.16.1.2,18192,1073725440,14480,0,65728,65728,6,6,4,1460,576,1,993,74,33580,0,65700,0,0,12,0,0
i,0x00000000,1720895843.905026,172.16.3.2,5101,172.16.1.2,18192,1073725440,14480,0,65728,65728,6,6,4,1460,576,1,992,74,33580,0,65700,0,0,12,0,0
o,0x00000000,1720895843.905039,172.16.3.2,5101,172.16.1.2,18192,1073725440,14480,0,65728,65728,6,6,4,1460,576,1,993,74,33580,0,65700,0,0,13,0,0
i,0x00000000,1720895843.956367,172.16.3.2,5101,172.16.1.2,18192,1073725440,14480,0,65728,65728,6,6,4,1460,576,1,992,74,33580,0,65700,0,0,13,0,0
o,0x00000000,1720895843.956380,172.16.3.2,5101,172.16.1.2,18192,1073725440,14480,0,65728,65728,6,6,4,1460,576,1,993,74,33580,0,65700,0,0,14,0,0
i,0x00000000,1720895843.964757,172.16.3.2,5101,172.16.1.2,18192,1073725440,14480,0,65728,65728,6,6,4,1460,576,1,992,74,33580,0,65700,0,0,14,0,0
o,0x00000000,1720895843.964785,172.16.3.2,5101,172.16.1.2,18192,1073725440,14480,0,65728,65728,6,6,4,1460,576,1,993,74,33580,0,65700,0,0,14,0,0
i,0x00000000,1720895843.986393,172.16.3.2,5101,172.16.1.2,18192,1073725440,14480,0,65728,65728,6,6,4,1460,576,1,992,74,33580,0,65700,0,0,14,0,0
o,0x00000000,1720895843.986417,172.16.3.2,5101,172.16.1.2,18192,1073725440,14480,0,65728,65728,6,6,4,1460,576,1,993,74,33580,0,65700,0,0,15,0,0
i,0x00000000,1720895843.996772,172.16.3.2,5101,172.16.1.2,18192,1073725440,14480,0,65728,65728,6,6,4,1460,576,1,992,74,33580,0,65700,0,0,15,0,0
o,0x00000000,1720895843.996789,172.16.3.2,5101,172.16.1.2,18192,1073725440,14480,0,65728,65728,6,6,4,1460,576,1,993,74,33580,0,65700,0,0,14,0,0
i,0x00000000,1720895844.005363,172.16.3.2,5101,172.16.1.2,18192,1073725440,14480,0,65728,65728,6,6,4,1460,576,1,992,74,33580,0,65700,0,0,14,0,0
o,0x00000000,1720895844.005375,172.16.3.2,5101,172.16.1.2,18192,1073725440,14480,0,65728,65728,6,6,4,1460,576,1,993,74,33580,0,65700,0,0,13,0,0
i,0x00000000,1720895844.013846,172.16.3.2,5101,172.16.1.2,18192,1073725440,14480,0,65728,65728,6,6,4,1460,576,1,992,74,33580,0,65700,0,0,13,0,0
o,0x00000000,1720895844.013859,172.16.3.2,5101,172.16.1.2,18192,1073725440,14480,0,65728,65728,6,6,4,1460,576,1,993,74,33580,0,65700,0,0,12,0,0
o,0x00000000,1720895844.062807,10.0.2.15,22,10.0.2.2,57021,1073725440,14600,0,65535,65700,0,0,4,1460,1,0,4,24,33580,108,65700,0,0,0,0,0
i,0x00000000,1720895844.063468,10.0.2.15,22,10.0.2.2,57021,1073725440,14600,0,65535,65700,0,0,4,1460,1,0,4,24,33580,108,65700,0,108,0,0,0
i,0x00000000,1720895844.074613,172.16.3.2,5101,172.16.1.2,18192,1073725440,14480,0,65728,65728,6,6,4,1460,576,1,992,74,33580,0,65700,0,0,12,0,0
o,0x00000000,1720895844.074625,172.16.3.2,5101,172.16.1.2,18192,1073725440,14480,0,65728,65728,6,6,4,1460,576,1,993,74,33580,0,65700,0,0,11,0,0
i,0x00000000,1720895844.083195,172.16.3.2,5101,172.16.1.2,18192,1073725440,14480,0,65728,65728,6,6,4,1460,576,1,992,74,33580,0,65700,0,0,11,0,0
o,0x00000000,1720895844.083206,172.16.3.2,5101,172.16.1.2,18192,1073725440,14480,0,65728,65728,6,6,4,1460,576,1,993,74,33580,0,65700,0,0,10,0,0
i,0x00000000,1720895844.132819,172.16.3.2,5101,172.16.1.2,18192,1073725440,14480,0,65728,65728,6,6,4,1460,576,1,992,74,33580,0,65700,0,0,10,0,0
o,0x00000000,1720895844.132839,172.16.3.2,5101,172.16.1.2,18192,1073725440,14480,0,65728,65728,6,6,4,1460,576,1,993,74,33580,0,65700,0,0,9,0,0
i,0x00000000,1720895844.145663,172.16.3.2,5101,172.16.1.2,18192,1073725440,14480,0,65728,65728,6,6,4,1460,576,1,992,74,33580,0,65700,0,0,9,0,0
o,0x00000000,1720895844.145674,172.16.3.2,5101,172.16.1.2,18192,1073725440,14480,0,65728,65728,6,6,4,1460,576,1,993,74,33580,0,65700,0,0,9,0,0
i,0x00000000,1720895844.153202,172.16.3.2,5101,172.16.1.2,18192,1073725440,14480,0,65728,65728,6,6,4,1460,576,1,992,74,33580,0,65700,0,0,9,0,0
o,0x00000000,1720895844.153214,172.16.3.2,5101,172.16.1.2,18192,1073725440,14480,0,65728,65728,6,6,4,1460,576,1,993,74,33580,0,65700,0,0,9,0,0
o,0x00000000,1720895845.063547,10.0.2.15,22,10.0.2.2,57021,1073725440,14600,0,65535,65700,0,0,4,1460,1,0,4,24,33580,108,65700,0,0,0,0,0
i,0x00000000,1720895845.064382,10.0.2.15,22,10.0.2.2,57021,1073725440,14600,0,65535,65700,0,0,4,1460,1,0,4,24,33580,108,65700,0,108,0,0,0
i,0x00000000,1720895845.256873,172.16.3.2,5101,172.16.1.2,18192,1073725440,14480,0,65728,65728,6,6,4,1460,576,1,992,74,33580,0,65700,0,0,9,0,0
o,0x00000000,1720895845.256895,172.16.3.2,5101,172.16.1.2,18192,1073725440,14480,0,65728,65728,6,6,4,1460,576,1,993,74,33580,0,65700,5792,0,8,0,0
i,0x00000000,1720895845.394214,172.16.3.2,5101,172.16.1.2,18192,1073725440,14480,0,65728,65728,6,6,4,1460,576,1,992,74,33580,0,65700,0,0,8,0,0
o,0x00000000,1720895845.394242,172.16.3.2,5101,172.16.1.2,18192,1073725440,14480,0,65728,65700,6,6,4,1460,576,1,993,74,33580,0,65700,1448,0,8,0,0
i,0x00000000,1720895845.405996,172.16.3.2,5101,172.16.1.2,18192,1073725440,14480,0,65728,65700,6,6,4,1460,576,1,992,74,33580,0,65700,0,0,8,0,0
o,0x00000000,1720895845.406039,172.16.3.2,5101,172.16.1.2,18192,1073725440,14480,0,65728,65700,6,6,4,1460,576,1,993,74,33580,0,65700,11584,0,7,0,0
i,0x00000000,1720895845.407488,172.16.3.2,5101,172.16.1.2,18192,1073725440,14480,0,65728,65700,6,6,4,1460,576,1,992,74,33580,0,65700,11584,0,7,0,0
o,0x00000000,1720895845.407515,172.16.3.2,5101,172.16.1.2,18192,1073725440,14480,0,65728,54144,6,6,4,1460,576,1,993,74,33580,0,65700,11584,0,7,0,0
i,0x00000000,1720895845.526509,172.16.3.2,5101,172.16.1.2,18192,1073725440,14480,0,65728,54144,6,6,4,1460,576,1,992,74,33580,0,65700,0,0,7,0,0
o,0x00000000,1720895845.526521,172.16.3.2,5101,172.16.1.2,18192,1073725440,14480,0,65728,65700,6,6,4,1460,576,1,993,74,33580,0,65700,0,0,7,0,0
i,0x00000000,1720895845.526913,172.16.3.2,5101,172.16.1.2,18192,1073725440,14480,0,65728,65700,6,6,4,1460,576,1,992,74,33580,0,65700,0,0,7,0,0
i,0x00000000,1720895845.547625,172.16.3.2,5101,172.16.1.2,18192,1073725440,14480,0,65728,65728,6,6,4,1460,576,1,992,74,33580,0,65700,0,0,7,0,0
o,0x00000000,1720895845.547641,172.16.3.2,5101,172.16.1.2,18192,1073725440,14480,0,65728,65728,6,6,4,1460,576,1,993,74,33580,0,65700,11584,0,6,0,0
i,0x00000000,1720895845.553272,172.16.3.2,5101,172.16.1.2,18192,1073725440,14480,0,65728,65728,6,6,4,1460,576,1,992,74,33580,0,65700,0,0,6,0,0
o,0x00000000,1720895845.553282,172.16.3.2,5101,172.16.1.2,18192,1073725440,14480,0,65728,65700,6,6,4,1460,576,1,993,74,33580,0,65700,0,0,6,0,0
i,0x00000000,1720895845.684226,172.16.3.2,5101,172.16.1.2,18192,1073725440,14480,0,65728,65700,6,6,4,1460,576,1,992,74,33580,0,65700,0,0,6,0,0
o,0x00000000,1720895845.684240,172.16.3.2,5101,172.16.1.2,18192,1073725440,14480,0,65728,65728,6,6,4,1460,576,1,993,74,33580,0,65700,2896,0,5,0,0
i,0x00000000,1720895845.692231,172.16.3.2,5101,172.16.1.2,18192,1073725440,14480,0,65728,65728,6,6,4,1460,576,1,992,74,33580,0,65700,0,0,5,0,0
o,0x00000000,1720895845.692243,172.16.3.2,5101,172.16.1.2,18192,1073725440,14480,0,65728,65700,6,6,4,1460,576,1,993,74,33580,0,65700,0,0,5,0,0
i,0x00000000,1720895845.824549,172.16.3.2,5101,172.16.1.2,18192,1073725440,14480,0,65728,65700,6,6,4,1460,576,1,992,74,33580,0,65700,0,0,5,0,0
o,0x00000000,1720895845.824565,172.16.3.2,5101,172.16.1.2,18192,1073725440,14480,0,65728,65728,6,6,4,1460,576,1,993,74,33580,0,65700,8688,0,4,0,0
i,0x00000000,1720895845.832531,172.16.3.2,5101,172.16.1.2,18192,1073725440,14480,0,65728,65728,6,6,4,1460,576,1,992,74,33580,0,65700,0,0,4,0,0
o,0x00000000,1720895845.832542,172.16.3.2,5101,172.16.1.2,18192,1073725440,14480,0,65728,65700,6,6,4,1460,576,1,993,74,33580,0,65700,0,0,4,0,0
i,0x00000000,1720895845.963730,172.16.3.2,5101,172.16.1.2,18192,1073725440,14480,0,65728,65700,6,6,4,1460,576,1,992,74,33580,0,65700,0,0,4,0,0
o,0x00000000,1720895845.963744,172.16.3.2,5101,172.16.1.2,18192,1073725440,14480,0,65728,65728,6,6,4,1460,576,1,993,74,33580,0,65700,7240,0,3,0,0
i,0x00000000,1720895845.977523,172.16.3.2,5101,172.16.1.2,18192,1073725440,14480,0,65728,65728,6,6,4,1460,576,1,992,74,33580,0,65700,0,0,3,0,0
o,0x00000000,1720895845.977535,172.16.3.2,5101,172.16.1.2,18192,1073725440,14480,0,65728,65700,6,6,4,1460,576,1,993,74,33580,0,65700,0,0,3,0,0
o,0x00000000,1720895846.062215,10.0.2.15,22,10.0.2.2,57021,1073725440,14600,0,65535,65700,0,0,4,1460,1,0,4,24,33580,108,65700,0,0,0,0,0
i,0x00000000,1720895846.062964,10.0.2.15,22,10.0.2.2,57021,1073725440,14600,0,65535,65700,0,0,4,1460,1,0,4,24,33580,108,65700,0,108,0,0,0
i,0x00000000,1720895846.103958,172.16.3.2,5101,172.16.1.2,18192,1073725440,14480,0,65728,65700,6,6,4,1460,576,1,992,74,33580,0,65700,0,0,3,0,0
o,0x00000000,1720895846.103974,172.16.3.2,5101,172.16.1.2,18192,1073725440,14480,0,65728,65728,6,6,4,1460,576,1,993,74,33580,0,65700,4344,0,2,0,0
i,0x00000000,1720895846.113701,172.16.3.2,5101,172.16.1.2,18192,1073725440,14480,0,65728,65728,6,6,4,1460,576,1,992,74,33580,0,65700,0,0,2,0,0
o,0x00000000,1720895846.113711,172.16.3.2,5101,172.16.1.2,18192,1073725440,14480,0,65728,65700,6,6,4,1460,576,1,993,74,33580,0,65700,0,0,2,0,0
i,0x00000000,1720895846.113813,172.16.3.2,5101,172.16.1.2,18192,1073725440,14480,0,65728,65700,6,6,4,1460,576,1,992,74,33580,0,65700,0,0,2,0,0
o,0x00000000,1720895846.113819,172.16.3.2,5101,172.16.1.2,18192,1073725440,14480,0,65728,65728,6,6,4,1460,576,1,993,74,33580,0,65700,12,0,2,0,0
i,0x00000000,1720895846.242311,172.16.3.2,5101,172.16.1.2,18192,1073725440,14480,0,65728,65728,6,6,4,1460,576,1,992,74,33580,0,65700,0,0,2,0,0
o,0x00000000,1720895846.242328,172.16.3.2,5101,172.16.1.2,18192,1073725440,14480,0,65728,65728,6,6,4,1460,576,1,993,74,33580,0,65700,5780,0,1,0,0
i,0x00000000,1720895846.268221,172.16.3.2,5101,172.16.1.2,18192,1073725440,14480,0,65728,65728,6,6,4,1460,576,1,992,74,33580,0,65700,0,0,1,0,0
o,0x00000000,1720895846.268237,172.16.3.2,5101,172.16.1.2,18192,1073725440,14480,0,65728,65700,6,6,4,1460,576,1,993,74,33580,0,65700,0,0,1,0,0
i,0x00000000,1720895846.268539,172.16.3.2,5101,172.16.1.2,18192,1073725440,14480,0,65728,65700,6,6,4,1460,576,1,992,74,33580,0,65700,0,0,1,0,0
o,0x00000000,1720895846.268544,172.16.3.2,5101,172.16.1.2,18192,1073725440,14480,0,65728,65728,6,6,4,1460,576,1,993,74,33580,0,65700,0,0,1,0,0
i,0x00000000,1720895846.278360,172.16.3.2,5101,172.16.1.2,18192,1073725440,14480,0,65728,65728,6,6,4,1460,576,1,992,74,33580,0,65700,0,0,1,0,0
o,0x00000000,1720895846.278375,172.16.3.2,5101,172.16.1.2,18192,1073725440,14480,0,65728,65728,6,6,4,1460,576,1,993,74,33580,0,65700,12,0,1,0,0
i,0x00000000,1720895846.278618,172.16.3.2,5101,172.16.1.2,18192,1073725440,14480,0,65728,65728,6,6,4,1460,576,1,992,74,33580,0,65700,12,0,1,0,0
o,0x00000000,1720895846.278623,172.16.3.2,5101,172.16.1.2,18192,1073725440,14480,0,65728,65728,6,6,4,1460,576,1,993,74,33580,0,65700,36,0,1,0,0
i,0x00000000,1720895846.394054,172.16.3.2,5101,172.16.1.2,18192,1073725440,14480,0,65728,65728,6,6,4,1460,576,1,992,74,33580,0,65700,0,0,1,0,0
o,0x00000000,1720895846.394091,172.16.3.2,5101,172.16.1.2,18192,1073725440,14480,0,65728,65728,6,6,4,1460,576,1,993,74,33580,0,65700,2860,0,0,0,0
i,0x00000000,1720895846.404118,172.16.3.2,5101,172.16.1.2,18192,1073725440,14480,0,65728,65728,6,6,4,1460,576,1,992,74,33580,0,65700,0,0,0,0,0
o,0x00000000,1720895846.404133,172.16.3.2,5101,172.16.1.2,18192,1073725440,14480,0,65728,65700,6,6,4,1460,576,1,995,74,33580,0,65700,36,0,0,0,0
i,0x00000000,1720895846.413731,172.16.3.2,5101,172.16.1.2,18192,1073725440,14480,0,65728,65700,6,6,4,1460,576,1,992,74,33580,0,65700,0,0,0,0,0
i,0x00000000,1720895846.421819,172.16.3.2,5101,172.16.1.2,18192,1073725440,14480,0,65728,65700,6,6,4,1460,576,1,992,74,33580,0,65700,0,0,0,0,0
o,0x00000000,1720895846.421846,172.16.3.2,5101,172.16.1.2,18192,1073725440,14480,0,65728,65700,6,6,4,1460,576,1,993,74,33580,0,65700,1436,0,0,0,0
i,0x00000000,1720895846.443680,172.16.3.2,5101,172.16.1.2,18192,1073725440,14480,0,65728,65700,6,6,4,1460,576,1,992,74,33580,0,65700,0,0,0,0,0
o,0x00000000,1720895846.443750,172.16.3.2,5101,172.16.1.2,18192,1073725440,14480,0,65728,65700,6,6,4,1460,576,1,993,74,33580,0,65700,0,0,0,0,0
i,0x00000000,1720895846.581549,172.16.3.2,5101,172.16.1.2,18192,1073725440,14480,0,65728,65700,6,6,4,1460,576,1,992,74,33580,0,65700,0,0,0,0,0
i,0x00000000,1720895846.603402,172.16.3.2,5101,172.16.1.2,18192,1073725440,14480,0,65728,65700,6,6,4,1460,576,1,992,74,33580,0,65700,0,0,0,0,0
o,0x00000000,1720895846.603416,172.16.3.2,5101,172.16.1.2,18192,1073725440,14480,0,65728,65700,6,6,4,1460,576,1,993,74,33580,0,65700,1448,0,0,0,0
i,0x00000000,1720895846.606082,172.16.3.2,5101,172.16.1.2,18192,1073725440,14480,0,65728,65700,6,6,4,1460,576,1,992,74,33580,0,65700,0,0,0,0,0
i,0x00000000,1720895846.618161,172.16.3.2,5101,172.16.1.2,18192,1073725440,14480,0,65728,65700,6,6,4,1460,576,1,992,74,33580,0,65700,0,0,0,0,0
o,0x00000000,1720895846.618191,172.16.3.2,5101,172.16.1.2,18192,1073725440,14480,0,65728,65700,6,6,4,1460,576,1,993,74,33580,0,65700,1448,0,0,0,0
i,0x00000000,1720895846.624152,172.16.3.2,5101,172.16.1.2,18192,1073725440,14480,0,65728,65700,6,6,4,1460,576,1,992,74,33580,0,65700,0,0,0,0,0
o,0x00000000,1720895846.663025,172.16.3.2,5101,172.16.1.2,18192,1073725440,14480,0,65728,65700,6,6,4,1460,576,1,993,74,33580,0,65700,0,0,0,0,0
i,0x00000000,1720895846.724616,172.16.3.2,5101,172.16.1.2,18192,1073725440,14480,0,65728,65700,6,6,4,1460,576,1,992,74,33580,0,65700,0,0,0,0,0
i,0x00000000,1720895846.732761,172.16.3.2,5101,172.16.1.2,18192,1073725440,14480,0,65728,65700,6,6,4,1460,576,1,992,74,33580,0,65700,0,0,0,0,0
o,0x00000000,1720895846.732773,172.16.3.2,5101,172.16.1.2,18192,1073725440,14480,0,65728,65700,6,6,4,1460,576,1,993,74,33580,0,65700,1448,0,0,0,0
i,0x00000000,1720895846.776164,172.16.3.2,5101,172.16.1.2,18192,1073725440,14480,0,65728,65700,6,6,4,1460,576,1,992,74,33580,0,65700,0,0,0,0,0
i,0x00000000,1720895846.797749,172.16.3.2,5101,172.16.1.2,18192,1073725440,14480,0,65728,65700,6,6,4,1460,576,1,992,74,33580,0,65700,0,0,0,0,0
o,0x00000000,1720895846.797762,172.16.3.2,5101,172.16.1.2,18192,1073725440,14480,0,65728,65700,6,6,4,1460,576,1,993,74,33580,0,65700,1448,0,0,0,0
i,0x00000000,1720895846.801311,172.16.3.2,5101,172.16.1.2,18192,1073725440,14480,0,65728,65700,6,6,4,1460,576,1,992,74,33580,0,65700,0,0,0,0,0
i,0x00000000,1720895846.822489,172.16.3.2,5101,172.16.1.2,18192,1073725440,14480,0,65728,65700,6,6,4,1460,576,1,992,74,33580,0,65700,0,0,0,0,0
o,0x00000000,1720895846.822516,172.16.3.2,5101,172.16.1.2,18192,1073725440,14480,0,65728,65700,6,6,4,1460,576,1,993,74,33580,0,65700,1448,0,0,0,0
i,0x00000000,1720895846.925428,172.16.3.2,5101,172.16.1.2,18192,1073725440,14480,0,65728,65700,6,6,4,1460,576,1,992,74,33580,0,65700,0,0,0,0,0
i,0x00000000,1720895846.932182,172.16.3.2,5101,172.16.1.2,18192,1073725440,14480,0,65728,65700,6,6,4,1460,576,1,992,74,33580,0,65700,0,0,0,0,0
o,0x00000000,1720895846.932194,172.16.3.2,5101,172.16.1.2,18192,1073725440,14480,0,65728,65700,6,6,4,1460,576,1,993,74,33580,0,65700,1448,0,0,0,0
i,0x00000000,1720895846.941186,172.16.3.2,5101,172.16.1.2,18192,1073725440,14480,0,65728,65700,6,6,4,1460,576,1,992,74,33580,0,65700,0,0,0,0,0
o,0x00000000,1720895846.972809,172.16.3.2,5101,172.16.1.2,18192,1073725440,14480,0,65728,65700,6,6,4,1460,576,1,993,74,33580,0,65700,0,0,0,0,0
i,0x00000000,1720895846.982801,172.16.3.2,5101,172.16.1.2,18192,1073725440,14480,0,65728,65700,6,6,4,1460,576,1,992,74,33580,0,65700,0,0,0,0,0
i,0x00000000,1720895846.992378,172.16.3.2,5101,172.16.1.2,18192,1073725440,14480,0,65728,65700,6,6,4,1460,576,1,992,74,33580,0,65700,0,0,0,0,0
o,0x00000000,1720895846.992392,172.16.3.2,5101,172.16.1.2,18192,1073725440,14480,0,65728,65700,6,6,4,1460,576,1,993,74,33580,0,65700,1448,0,0,0,0
i,0x00000000,1720895847.003131,172.16.3.2,5101,172.16.1.2,18192,1073725440,14480,0,65728,65700,6,6,4,1460,576,1,992,74,33580,0,65700,0,0,0,0,0
i,0x00000000,1720895847.013129,172.16.3.2,5101,172.16.1.2,18192,1073725440,14480,0,65728,65700,6,6,4,1460,576,1,992,74,33580,0,65700,0,0,0,0,0
o,0x00000000,1720895847.013147,172.16.3.2,5101,172.16.1.2,18192,1073725440,14480,0,65728,65700,6,6,4,1460,576,1,993,74,33580,0,65700,1448,0,0,0,0
o,0x00000000,1720895847.062882,10.0.2.15,22,10.0.2.2,57021,1073725440,14600,0,65535,65700,0,0,4,1460,1,0,4,24,33580,108,65700,0,0,0,0,0
i,0x00000000,1720895847.063668,10.0.2.15,22,10.0.2.2,57021,1073725440,14600,0,65535,65700,0,0,4,1460,1,0,4,24,33580,108,65700,0,108,0,0,0
i,0x00000000,1720895847.127541,172.16.3.2,5101,172.16.1.2,18192,1073725440,14480,0,65728,65700,6,6,4,1460,576,1,992,74,33580,0,65700,0,0,0,0,0
i,0x00000000,1720895847.134349,172.16.3.2,5101,172.16.1.2,18192,1073725440,14480,0,65728,65700,6,6,4,1460,576,1,992,74,33580,0,65700,0,0,0,0,0
o,0x00000000,1720895847.134360,172.16.3.2,5101,172.16.1.2,18192,1073725440,14480,0,65728,65700,6,6,4,1460,576,1,993,74,33580,0,65700,1448,0,0,0,0
i,0x00000000,1720895847.172995,172.16.3.2,5101,172.16.1.2,18192,1073725440,14480,0,65728,65700,6,6,4,1460,576,1,992,74,33580,0,65700,0,0,0,0,0
i,0x00000000,1720895847.181657,172.16.3.2,5101,172.16.1.2,18192,1073725440,14480,0,65728,65700,6,6,4,1460,576,1,992,74,33580,0,65700,0,0,0,0,0
o,0x00000000,1720895847.181670,172.16.3.2,5101,172.16.1.2,18192,1073725440,14480,0,65728,65700,6,6,4,1460,576,1,993,74,33580,0,65700,1448,0,0,0,0
i,0x00000000,1720895847.191758,172.16.3.2,5101,172.16.1.2,18192,1073725440,14480,0,65728,65700,6,6,4,1460,576,1,992,74,33580,0,65700,0,0,0,0,0
i,0x00000000,1720895847.208866,172.16.3.2,5101,172.16.1.2,18192,1073725440,14480,0,65728,65700,6,6,4,1460,576,1,992,74,33580,0,65700,0,0,0,0,0
o,0x00000000,1720895847.208879,172.16.3.2,5101,172.16.1.2,18192,1073725440,14480,0,65728,65700,6,6,4,1460,576,1,993,74,33580,0,65700,1448,0,0,0,0
i,0x00000000,1720895847.222162,172.16.3.2,5101,172.16.1.2,18192,1073725440,14480,0,65728,65700,6,6,4,1460,576,1,992,74,33580,0,65700,0,0,0,0,0
i,0x00000000,1720895847.230850,172.16.3.2,5101,172.16.1.2,18192,1073725440,14480,0,65728,65700,6,6,4,1460,576,1,992,74,33580,0,65700,0,0,0,0,0
o,0x00000000,1720895847.230865,172.16.3.2,5101,172.16.1.2,18192,1073725440,14480,0,65728,65700,6,6,4,1460,576,1,993,74,33580,0,65700,1448,0,0,0,0
i,0x00000000,1720895847.302161,172.16.3.2,5101,172.16.1.2,18192,1073725440,14480,0,65728,65700,6,6,4,1460,576,1,992,74,33580,0,65700,0,0,0,0,0
o,0x00000000,1720895847.342367,172.16.3.2,5101,172.16.1.2,18192,1073725440,14480,0,65728,65700,6,6,4,1460,576,1,993,74,33580,0,65700,0,0,0,0,0
i,0x00000000,1720895847.343679,172.16.3.2,5101,172.16.1.2,18192,1073725440,14480,0,65728,65700,6,6,4,1460,576,1,992,74,33580,0,65700,0,0,0,0,0
o,0x00000000,1720895847.382486,172.16.3.2,5101,172.16.1.2,18192,1073725440,14480,0,65728,65700,6,6,4,1460,576,1,993,74,33580,0,65700,0,0,0,0,0
i,0x00000000,1720895847.401114,172.16.3.2,5101,172.16.1.2,18192,1073725440,14480,0,65728,65700,6,6,4,1460,576,1,992,74,33580,0,65700,0,0,0,0,0
i,0x00000000,1720895847.415705,172.16.3.2,5101,172.16.1.2,18192,1073725440,14480,0,65728,65700,6,6,4,1460,576,1,992,74,33580,0,65700,0,0,0,0,0
o,0x00000000,1720895847.415721,172.16.3.2,5101,172.16.1.2,18192,1073725440,14480,0,65728,65700,6,6,4,1460,576,1,993,74,33580,0,65700,1448,0,0,0,0
i,0x00000000,1720895847.421758,172.16.3.2,5101,172.16.1.2,18192,1073725440,14480,0,65728,65700,6,6,4,1460,576,1,992,74,33580,0,65700,0,0,0,0,0
i,0x00000000,1720895847.445529,172.16.3.2,5101,172.16.1.2,18192,1073725440,14480,0,65728,65700,6,6,4,1460,576,1,992,74,33580,0,65700,0,0,0,0,0
o,0x00000000,1720895847.445542,172.16.3.2,5101,172.16.1.2,18192,1073725440,14480,0,65728,65700,6,6,4,1460,576,1,993,74,33580,0,65700,1448,0,0,0,0
i,0x00000000,1720895847.451360,172.16.3.2,5101,172.16.1.2,18192,1073725440,14480,0,65728,65700,6,6,4,1460,576,1,992,74,33580,0,65700,0,0,0,0,0
i,0x00000000,1720895847.461392,172.16.3.2,5101,172.16.1.2,18192,1073725440,14480,0,65728,65700,6,6,4,1460,576,1,992,74,33580,0,65700,0,0,0,0,0
o,0x00000000,1720895847.461407,172.16.3.2,5101,172.16.1.2,18192,1073725440,14480,0,65728,65700,6,6,4,1460,576,1,993,74,33580,0,65700,1448,0,0,0,0
i,0x00000000,1720895847.472077,172.16.3.2,5101,172.16.1.2,18192,1073725440,14480,0,65728,65700,6,6,4,1460,576,1,992,74,33580,0,65700,0,0,0,0,0
o,0x00000000,1720895847.513112,172.16.3.2,5101,172.16.1.2,18192,1073725440,14480,0,65728,65700,6,6,4,1460,576,1,993,74,33580,0,65700,0,0,0,0,0
i,0x00000000,1720895847.600910,172.16.3.2,5101,172.16.1.2,18192,1073725440,14480,0,65728,65700,6,6,4,1460,576,1,992,74,33580,0,65700,0,0,0,0,0
o,0x00000000,1720895847.631469,172.16.3.2,5101,172.16.1.2,18192,1073725440,14480,0,65728,65700,6,6,4,1460,576,1,993,74,33580,0,65700,0,0,0,0,0
i,0x00000000,1720895847.641126,172.16.3.2,5101,172.16.1.2,18192,1073725440,14480,0,65728,65700,6,6,4,1460,576,1,992,74,33580,0,65700,0,0,0,0,0
i,0x00000000,1720895847.650802,172.16.3.2,5101,172.16.1.2,18192,1073725440,14480,0,65728,65700,6,6,4,1460,576,1,992,74,33580,0,65700,0,0,0,0,0
o,0x00000000,1720895847.650815,172.16.3.2,5101,172.16.1.2,18192,1073725440,14480,0,65728,65700,6,6,4,1460,576,1,993,74,33580,0,65700,1448,0,0,0,0
i,0x00000000,1720895847.661408,172.16.3.2,5101,172.16.1.2,18192,1073725440,14480,0,65728,65700,6,6,4,1460,576,1,992,74,33580,0,65700,0,0,0,0,0
i,0x00000000,1720895847.682204,172.16.3.2,5101,172.16.1.2,18192,1073725440,14480,0,65728,65700,6,6,4,1460,576,1,992,74,33580,0,65700,0,0,0,0,0
o,0x00000000,1720895847.682217,172.16.3.2,5101,172.16.1.2,18192,1073725440,14480,0,65728,65700,6,6,4,1460,576,1,993,74,33580,0,65700,1448,0,0,0,0
i,0x00000000,1720895847.682930,172.16.3.2,5101,172.16.1.2,18192,1073725440,14480,0,65728,65700,6,6,4,1460,576,1,992,74,33580,0,65700,0,0,0,0,0
i,0x00000000,1720895847.702875,172.16.3.2,5101,172.16.1.2,18192,1073725440,14480,0,65728,65700,6,6,4,1460,576,1,992,74,33580,0,65700,0,0,0,0,0
o,0x00000000,1720895847.702889,172.16.3.2,5101,172.16.1.2,18192,1073725440,14480,0,65728,65700,6,6,4,1460,576,1,993,74,33580,0,65700,1448,0,0,0,0
i,0x00000000,1720895847.711378,172.16.3.2,5101,172.16.1.2,18192,1073725440,14480,0,65728,65700,6,6,4,1460,576,1,992,74,33580,0,65700,0,0,0,0,0
i,0x00000000,1720895847.720527,172.16.3.2,5101,172.16.1.2,18192,1073725440,14480,0,65728,65700,6,6,4,1460,576,1,992,74,33580,0,65700,0,0,0,0,0
o,0x00000000,1720895847.720545,172.16.3.2,5101,172.16.1.2,18192,1073725440,14480,0,65728,65700,6,6,4,1460,576,1,993,74,33580,0,65700,1448,0,0,0,0
i,0x00000000,1720895847.766157,172.16.3.2,5101,172.16.1.2,18192,1073725440,14480,0,65728,65700,6,6,4,1460,576,1,992,74,33580,0,65700,0,0,0,0,0
o,0x00000000,1720895847.802948,172.16.3.2,5101,172.16.1.2,18192,1073725440,14480,0,65728,65700,6,6,4,1460,576,1,993,74,33580,0,65700,0,0,0,0,0
i,0x00000000,1720895847.918564,172.16.3.2,5101,172.16.1.2,18192,1073725440,14480,0,65728,65700,6,6,4,1460,576,1,992,74,33580,0,65700,0,0,0,0,0
i,0x00000000,1720895847.928696,172.16.3.2,5101,172.16.1.2,18192,1073725440,14480,0,65728,65700,6,6,4,1460,576,1,992,74,33580,0,65700,0,0,0,0,0
o,0x00000000,1720895847.928710,172.16.3.2,5101,172.16.1.2,18192,1073725440,14480,0,65728,65700,6,6,4,1460,576,1,993,74,33580,0,65700,1448,0,0,0,0
i,0x00000000,1720895847.930881,172.16.3.2,5101,172.16.1.2,18192,1073725440,14480,0,65728,65700,6,6,4,1460,576,1,992,74,33580,0,65700,0,0,0,0,0
i,0x00000000,1720895847.941443,172.16.3.2,5101,172.16.1.2,18192,1073725440,14480,0,65728,65700,6,6,4,1460,576,1,992,74,33580,0,65700,0,0,0,0,0
o,0x00000000,1720895847.941461,172.16.3.2,5101,172.16.1.2,18192,1073725440,14480,0,65728,65700,6,6,4,1460,576,1,993,74,33580,0,65700,1448,0,0,0,0
i,0x00000000,1720895847.961372,172.16.3.2,5101,172.16.1.2,18192,1073725440,14480,0,65728,65700,6,6,4,1460,576,1,992,74,33580,0,65700,0,0,0,0,0
i,0x00000000,1720895847.970773,172.16.3.2,5101,172.16.1.2,18192,1073725440,14480,0,65728,65700,6,6,4,1460,576,1,992,74,33580,0,65700,0,0,0,0,0
o,0x00000000,1720895847.970799,172.16.3.2,5101,172.16.1.2,18192,1073725440,14480,0,65728,65700,6,6,4,1460,576,1,993,74,33580,0,65700,1448,0,0,0,0
i,0x00000000,1720895847.988907,172.16.3.2,5101,172.16.1.2,18192,1073725440,14480,0,65728,65700,6,6,4,1460,576,1,992,74,33580,0,65700,0,0,0,0,0
i,0x00000000,1720895847.992909,172.16.3.2,5101,172.16.1.2,18192,1073725440,14480,0,65728,65700,6,6,4,1460,576,1,992,74,33580,0,65700,0,0,0,0,0
o,0x00000000,1720895847.992923,172.16.3.2,5101,172.16.1.2,18192,1073725440,14480,0,65728,65700,6,6,4,1460,576,1,993,74,33580,0,65700,1448,0,0,0,0
i,0x00000000,1720895848.000409,172.16.3.2,5101,172.16.1.2,18192,1073725440,14480,0,65728,65700,6,6,4,1460,576,1,992,74,33580,0,65700,0,0,0,0,0
i,0x00000000,1720895848.021415,172.16.3.2,5101,172.16.1.2,18192,1073725440,14480,0,65728,65700,6,6,4,1460,576,1,992,74,33580,0,65700,0,0,0,0,0
o,0x00000000,1720895848.021451,172.16.3.2,5101,172.16.1.2,18192,1073725440,14480,0,65728,65700,6,6,4,1460,576,1,993,74,33580,0,65700,1448,0,0,0,0
o,0x00000000,1720895848.062350,10.0.2.15,22,10.0.2.2,57021,1073725440,14600,0,65535,65700,0,0,4,1460,1,0,4,24,33580,108,65700,0,0,0,0,0
i,0x00000000,1720895848.063172,10.0.2.15,22,10.0.2.2,57021,1073725440,14600,0,65535,65700,0,0,4,1460,1,0,4,24,33580,108,65700,0,108,0,0,0
i,0x00000000,1720895848.200697,172.16.3.2,5101,172.16.1.2,18192,1073725440,14480,0,65728,65700,6,6,4,1460,576,1,992,74,33580,0,65700,0,0,0,0,0
