enable_time_secs=1720896043	enable_time_usecs=416433	siftrver=1.2.4	hz=100	tcp_rtt_scale=32	sysname=FreeBSD	sysver=1301000	ipmode=4
o,0x00000000,1720896043.416662,10.0.2.15,22,10.0.2.2,51052,1073725440,17770,0,65535,65700,0,0,4,1460,1,0,4,23,33580,44,65700,0,0,0,0,0
o,0x00000000,1720896043.417973,10.0.2.15,22,10.0.2.2,51052,1073725440,17770,0,65535,65700,0,0,4,1460,1,0,4,23,33580,80,65700,0,44,0,0,0
i,0x00000000,1720896043.422202,10.0.2.15,22,10.0.2.2,51052,1073725440,17770,0,65535,65700,0,0,4,1460,1,0,4,23,33580,80,65700,0,80,0,0,0
i,0x00000000,1720896043.422617,10.0.2.15,22,10.0.2.2,51052,1073725440,17814,0,65535,65700,0,0,4,1460,1,0,4,23,33580,36,65700,0,36,0,0,0
o,0x00000000,1720896043.423021,10.0.2.15,22,10.0.2.2,51052,1073725440,17850,0,65535,65700,0,0,4,1460,1,0,4,23,33580,36,65700,0,0,0,0,0
i,0x00000000,1720896043.426319,10.0.2.15,22,10.0.2.2,51052,1073725440,17850,0,65535,65700,0,0,4,1460,1,0,4,23,33580,36,65700,0,36,0,0,0
o,0x00000000,1720896043.427768,10.0.2.15,22,10.0.2.2,51052,1073725440,17886,0,65535,65700,0,0,4,1460,1,0,4,23,33580,176,65700,0,0,0,0,0
i,0x00000000,1720896043.430779,10.0.2.15,22,10.0.2.2,51052,1073725440,17886,0,65535,65700,0,0,4,1460,1,0,4,23,33580,176,65700,0,176,0,0,0
i,0x00000000,1720896043.430802,10.0.2.15,22,10.0.2.2,51052,1073725440,18062,0,65535,65700,0,0,4,1460,1,0,4,23,33580,0,65700,0,0,0,0,0
i,0x00000000,1720896043.430809,10.0.2.15,22,10.0.2.2,51052,1073725440,18062,0,65535,65700,0,0,4,1460,1,0,4,23,33580,0,65700,96,0,0,0,0
o,0x00000000,1720896043.430820,10.0.2.15,22,10.0.2.2,51052,1073725440,18062,0,65535,65604,0,0,5,1460,1,0,5,23,33580,0,65700,96,0,0,0,0
o,0x00000000,1720896043.431952,10.0.2.15,22,10.0.2.2,51052,1073725440,18062,0,65535,65604,0,0,8,1460,1,0,4,23,33580,0,65700,0,0,0,0,0
i,0x00000000,1720896043.434616,10.0.2.15,22,10.0.2.2,51052,1073725440,18062,0,65535,65604,0,0,8,1460,1,0,20,23,33580,0,65700,0,1,0,0,0
i,0x00000000,1720896045.583689,10.0.2.15,22,10.0.2.2,50964,1073725440,14600,0,65535,65700,0,0,4,1460,1,0,0,27,33580,0,65700,0,0,0,0,0
o,0x00000000,1720896045.590258,10.0.2.15,22,10.0.2.2,50964,1073725440,14600,0,65535,65700,0,0,4,1460,1,0,0,27,33580,38,65700,42,0,0,0,0
i,0x00000000,1720896045.591034,10.0.2.15,22,10.0.2.2,50964,1073725440,14600,0,65535,65700,0,0,4,1460,1,0,0,27,33580,38,65700,42,38,0,0,0
i,0x00000000,1720896045.591040,10.0.2.15,22,10.0.2.2,50964,1073725440,14638,0,65535,65700,0,0,4,1460,1,0,0,23,33580,0,65700,42,0,0,0,0
i,0x00000000,1720896045.591041,10.0.2.15,22,10.0.2.2,50964,1073725440,14638,0,65535,65700,0,0,4,1460,1,0,0,23,33580,0,65700,1502,0,0,0,0
o,0x00000000,1720896045.591043,10.0.2.15,22,10.0.2.2,50964,1073725440,14638,0,65535,65700,0,0,4,1460,1,0,1,23,33580,0,65700,1578,0,0,0,0
o,0x00000000,1720896045.592796,10.0.2.15,22,10.0.2.2,50964,1073725440,14638,0,65535,65700,0,0,4,1460,1,0,0,23,33580,1056,65700,1536,0,0,0,0
i,0x00000000,1720896045.593474,10.0.2.15,22,10.0.2.2,50964,1073725440,14638,0,65535,65700,0,0,4,1460,1,0,0,23,33580,1056,65700,1536,1056,0,0,0
i,0x00000000,1720896045.595115,10.0.2.15,22,10.0.2.2,50964,1073725440,15694,0,65535,65700,0,0,4,1460,1,0,0,24,33580,0,65700,0,0,0,0,0
o,0x00000000,1720896045.600797,10.0.2.15,22,10.0.2.2,50964,1073725440,15694,0,65535,65700,0,0,4,1460,1,0,0,24,33580,484,65700,0,0,0,0,0
i,0x00000000,1720896045.602489,10.0.2.15,22,10.0.2.2,50964,1073725440,15694,0,65535,65700,0,0,4,1460,1,0,0,24,33580,484,65700,0,484,0,0,0
i,0x00000000,1720896045.606706,10.0.2.15,22,10.0.2.2,50964,1073725440,16178,0,65535,65700,0,0,4,1460,1,0,0,24,33580,0,65700,0,0,0,0,0
i,0x00000000,1720896045.606712,10.0.2.15,22,10.0.2.2,50964,1073725440,16178,0,65535,65700,0,0,4,1460,1,0,0,24,33580,0,65700,16,0,0,0,0
o,0x00000000,1720896045.606715,10.0.2.15,22,10.0.2.2,50964,1073725440,16178,0,65535,65700,0,0,4,1460,1,0,1,24,33580,0,65700,60,0,0,0,0
o,0x00000000,1720896045.606895,10.0.2.15,22,10.0.2.2,50964,1073725440,16178,0,65535,65700,0,0,4,1460,1,0,0,24,33580,44,65700,0,0,0,0,0
i,0x00000000,1720896045.608271,10.0.2.15,22,10.0.2.2,50964,1073725440,16178,0,65535,65700,0,0,4,1460,1,0,0,24,33580,44,65700,0,44,0,0,0
i,0x00000000,1720896045.608280,10.0.2.15,22,10.0.2.2,50964,1073725440,16222,0,65535,65700,0,0,4,1460,1,0,0,24,33580,0,65700,0,0,0,0,0
o,0x00000000,1720896045.617701,10.0.2.15,22,10.0.2.2,50964,1073725440,16222,0,65535,65700,0,0,4,1460,1,0,0,24,33580,68,65700,0,0,0,0,0
i,0x00000000,1720896045.618339,10.0.2.15,22,10.0.2.2,50964,1073725440,16222,0,65535,65700,0,0,4,1460,1,0,0,24,33580,68,65700,0,68,0,0,0
i,0x00000000,1720896045.618345,10.0.2.15,22,10.0.2.2,50964,1073725440,16290,0,65535,65700,0,0,4,1460,1,0,0,24,33580,0,65700,0,0,0,0,0
o,0x00000000,1720896045.618921,10.0.2.15,22,10.0.2.2,50964,1073725440,16290,0,65535,65700,0,0,4,1460,1,0,0,24,33580,332,65700,0,0,0,0,0
i,0x00000000,1720896045.619600,10.0.2.15,22,10.0.2.2,50964,1073725440,16290,0,65535,65700,0,0,4,1460,1,0,0,24,33580,332,65700,0,332,0,0,0
i,0x00000000,1720896045.620918,10.0.2.15,22,10.0.2.2,50964,1073725440,16622,0,65535,65700,0,0,4,1460,1,0,0,24,33580,0,65700,0,0,0,0,0
o,0x00000000,1720896045.638479,10.0.2.15,22,10.0.2.2,50964,1073725440,16622,0,65535,65700,0,0,4,1460,1,0,0,24,33580,28,65700,0,0,0,0,0
i,0x00000000,1720896045.639213,10.0.2.15,22,10.0.2.2,50964,1073725440,16622,0,65535,65700,0,0,4,1460,1,0,0,24,33580,28,65700,0,28,0,0,0
i,0x00000000,1720896045.639217,10.0.2.15,22,10.0.2.2,50964,1073725440,16650,0,65535,65700,0,0,4,1460,1,0,0,24,33580,0,65700,0,0,0,0,0
o,0x00000000,1720896045.639848,10.0.2.15,22,10.0.2.2,50964,1073725440,16650,0,65535,65700,0,0,4,1460,1,0,0,24,33580,768,65700,112,0,0,0,0
i,0x00000000,1720896045.640476,10.0.2.15,22,10.0.2.2,50964,1073725440,16650,0,65535,65700,0,0,4,1460,1,0,0,24,33580,768,65700,112,768,0,0,0
o,0x00000000,1720896045.640579,10.0.2.15,22,10.0.2.2,50964,1073725440,17418,0,65535,65700,0,0,4,1460,1,0,0,24,33580,140,65700,112,0,0,0,0
i,0x00000000,1720896045.641297,10.0.2.15,22,10.0.2.2,50964,1073725440,17418,0,65535,65700,0,0,4,1460,1,0,0,24,33580,140,65700,112,140,0,0,0
o,0x00000000,1720896045.641417,10.0.2.15,22,10.0.2.2,50964,1073725440,17558,0,65535,65700,0,0,4,1460,1,0,0,24,33580,44,65700,0,0,0,0,0
i,0x00000000,1720896045.642219,10.0.2.15,22,10.0.2.2,50964,1073725440,17558,0,65535,65700,0,0,4,1460,1,0,0,24,33580,44,65700,0,44,0,0,0
i,0x00000000,1720896045.642222,10.0.2.15,22,10.0.2.2,50964,1073725440,17602,0,65535,65700,0,0,4,1460,1,0,0,24,33580,0,65700,0,0,0,0,0
o,0x00000000,1720896045.642530,10.0.2.15,22,10.0.2.2,50964,1073725440,17602,0,65535,65700,0,0,4,1460,1,0,4,24,33580,72,65700,0,0,0,0,0
i,0x00000000,1720896045.643226,10.0.2.15,22,10.0.2.2,50964,1073725440,17602,0,65535,65700,0,0,4,1460,1,0,4,24,33580,72,65700,0,72,0,0,0
o,0x00000000,1720896045.670841,10.0.2.15,22,10.0.2.2,50964,1073725440,17674,0,65535,65700,0,0,4,1460,1,0,4,24,33580,44,65700,0,0,0,0,0
i,0x00000000,1720896045.671937,10.0.2.15,22,10.0.2.2,50964,1073725440,17674,0,65535,65700,0,0,4,1460,1,0,4,24,33580,44,65700,0,44,0,0,0
o,0x00000000,1720896045.672576,10.0.2.15,22,10.0.2.2,50964,1073725440,17718,0,65535,65700,0,0,4,1460,1,0,4,24,33580,104,65700,0,0,0,0,0
i,0x00000000,1720896045.673291,10.0.2.15,22,10.0.2.2,50964,1073725440,17718,0,65535,65700,0,0,4,1460,1,0,4,24,33580,104,65700,0,104,0,0,0
o,0x00000000,1720896045.673395,10.0.2.15,22,10.0.2.2,50964,1073725440,17822,0,65535,65700,0,0,4,1460,1,0,4,24,33580,44,65700,0,0,0,0,0
i,0x00000000,1720896045.673821,10.0.2.15,22,10.0.2.2,50964,1073725440,17822,0,65535,65700,0,0,4,1460,1,0,4,24,33580,44,65700,0,44,0,0,0
o,0x00000000,1720896045.688532,10.0.2.15,22,10.0.2.2,50964,1073725440,17866,0,65535,65700,0,0,4,1460,1,0,4,24,33580,72,65700,0,0,0,0,0
i,0x00000000,1720896045.690823,10.0.2.15,22,10.0.2.2,50964,1073725440,17866,0,65535,65700,0,0,4,1460,1,0,4,24,33580,72,65700,0,72,0,0,0
i,0x00000000,1720896045.690831,10.0.2.15,22,10.0.2.2,50964,1073725440,17938,0,65535,65700,0,0,4,1460,1,0,4,24,33580,0,65700,0,0,0,0,0
i,0x00000000,1720896045.690833,10.0.2.15,22,10.0.2.2,50964,1073725440,17938,0,65535,65700,0,0,4,1460,1,0,4,24,33580,0,65700,96,0,0,0,0
o,0x00000000,1720896045.690837,10.0.2.15,22,10.0.2.2,50964,1073725440,17938,0,65535,65604,0,0,5,1460,1,0,5,24,33580,0,65700,96,0,0,0,0
o,0x00000000,1720896045.726356,10.0.2.15,22,10.0.2.2,50964,1073725440,17938,0,65535,65604,0,0,8,1460,1,0,4,24,33580,0,65700,0,0,0,0,0
i,0x00000000,1720896045.727139,10.0.2.15,22,10.0.2.2,50964,1073725440,17938,0,65535,65604,0,0,8,1460,1,0,20,24,33580,0,65700,0,1,0,0,0
i,0x00000000,1720896046.254671,172.16.3.2,5101,172.16.1.2,12626,7500,14480,0,65728,65700,6,6,4,1460,708,1,992,87,33580,0,65700,0,0,0,0,0
o,0x00000000,1720896046.254983,172.16.3.2,5101,172.16.1.2,12626,7500,14480,0,65728,65700,6,6,4,1460,708,1,996,87,33580,1,65700,0,0,0,0,0
i,0x00000000,1720896046.387907,172.16.3.2,5101,172.16.1.2,12626,7500,14480,0,65728,65700,6,6,4,1460,708,1,996,87,33580,1,65700,0,1,0,0,0
i,0x00000000,1720896046.387943,172.16.3.2,5101,172.16.1.2,12626,7500,14480,0,65728,65728,6,6,4,1460,668,1,996,85,33580,0,65700,4,0,0,0,0
o,0x00000000,1720896046.387961,172.16.3.2,5101,172.16.1.2,12626,7500,14480,0,65728,65728,6,6,4,1460,668,1,997,85,33580,0,65700,128,0,0,0,0
o,0x00000000,1720896046.392870,172.16.3.2,5101,172.16.1.2,12626,7500,14480,0,65728,65728,6,6,4,1460,668,1,996,85,33580,1,65700,0,0,0,0,0
o,0x00000000,1720896046.394583,10.0.2.15,22,10.0.2.2,57021,1073725440,14600,0,65535,65700,0,0,4,1460,1,0,4,24,33580,84,65700,0,0,0,0,0
i,0x00000000,1720896046.396916,10.0.2.15,22,10.0.2.2,57021,1073725440,14600,0,65535,65700,0,0,4,1460,1,0,4,24,33580,84,65700,0,84,0,0,0
i,0x00000000,1720896046.549703,172.16.3.2,5101,172.16.1.2,12626,7500,14480,0,65728,65728,6,6,4,1460,668,1,996,85,33580,1,65700,0,1,0,0,0
i,0x00000000,1720896046.669160,172.16.3.2,5101,172.16.1.2,34619,7500,14480,0,65728,65700,6,6,4,1460,712,1,992,87,33580,0,65700,0,0,0,0,0
o,0x00000000,1720896046.675067,172.16.3.2,5101,172.16.1.2,12626,7500,14480,0,65728,65728,6,6,4,1460,645,1,996,79,33580,1,65700,0,0,0,0,0
o,0x00000000,1720896046.675765,172.16.3.2,5101,172.16.1.2,12626,7500,14480,0,65728,65728,6,6,4,1460,645,1,996,79,33580,2,65700,0,1,0,0,0
o,0x00000000,1720896046.679439,10.0.2.15,22,10.0.2.2,57021,1073725440,14600,0,65535,65700,0,0,4,1460,1,0,4,24,33580,108,65700,0,0,0,0,0
i,0x00000000,1720896046.681378,10.0.2.15,22,10.0.2.2,57021,1073725440,14600,0,65535,65700,0,0,4,1460,1,0,4,24,33580,108,65700,0,108,0,0,0
o,0x00000000,1720896046.701956,172.16.3.2,5101,172.16.1.2,34619,7500,14480,0,65728,65700,6,6,4,1460,712,1,993,87,33580,0,65700,0,0,0,0,0
i,0x00000000,1720896046.869662,172.16.3.2,5101,172.16.1.2,12626,7500,14480,0,65728,65728,6,6,4,1460,645,1,996,79,33580,2,65700,0,2,0,0,0
i,0x00000000,1720896046.898166,172.16.3.2,5101,172.16.1.2,34619,7500,14480,0,65728,65700,6,6,4,1460,712,1,992,87,33580,0,65700,0,0,0,0,0
i,0x00000000,1720896046.905438,172.16.3.2,5101,172.16.1.2,34619,7500,14480,0,65728,65700,6,6,4,1460,712,1,992,87,33580,0,65700,0,0,0,0,0
o,0x00000000,1720896046.905475,172.16.3.2,5101,172.16.1.2,34619,7500,14480,0,65728,65700,6,6,4,1460,712,1,993,87,33580,0,65700,1448,0,0,0,0
i,0x00000000,1720896046.915780,172.16.3.2,5101,172.16.1.2,34619,7500,14480,0,65728,65700,6,6,4,1460,712,1,992,87,33580,0,65700,0,0,0,0,0
i,0x00000000,1720896046.927154,172.16.3.2,5101,172.16.1.2,34619,7500,14480,0,65728,65700,6,6,4,1460,712,1,992,87,33580,0,65700,0,0,0,0,0
o,0x00000000,1720896046.927196,172.16.3.2,5101,172.16.1.2,34619,7500,14480,0,65728,65700,6,6,4,1460,712,1,993,87,33580,0,65700,1448,0,0,0,0
i,0x00000000,1720896046.948663,172.16.3.2,5101,172.16.1.2,34619,7500,14480,0,65728,65700,6,6,4,1460,712,1,992,87,33580,0,65700,0,0,0,0,0
i,0x00000000,1720896046.957433,172.16.3.2,5101,172.16.1.2,34619,7500,14480,0,65728,65700,6,6,4,1460,712,1,992,87,33580,0,65700,0,0,0,0,0
o,0x00000000,1720896046.957442,172.16.3.2,5101,172.16.1.2,34619,7500,14480,0,65728,65700,6,6,4,1460,712,1,993,87,33580,0,65700,1448,0,0,0,0
i,0x00000000,1720896046.967493,172.16.3.2,5101,172.16.1.2,34619,7500,14480,0,65728,65700,6,6,4,1460,712,1,992,87,33580,0,65700,0,0,0,0,0
i,0x00000000,1720896046.977314,172.16.3.2,5101,172.16.1.2,34619,7500,14480,0,65728,65700,6,6,4,1460,712,1,992,87,33580,0,65700,0,0,0,0,0
o,0x00000000,1720896046.977357,172.16.3.2,5101,172.16.1.2,34619,7500,14480,0,65728,65700,6,6,4,1460,712,1,993,87,33580,0,65700,1448,0,0,0,0
i,0x00000000,1720896046.986308,172.16.3.2,5101,172.16.1.2,34619,7500,14480,0,65728,65700,6,6,4,1460,712,1,992,87,33580,0,65700,0,0,0,0,0
i,0x00000000,1720896047.004556,172.16.3.2,5101,172.16.1.2,34619,7500,14480,0,65728,65700,6,6,4,1460,712,1,992,87,33580,0,65700,0,0,0,0,0
o,0x00000000,1720896047.004606,172.16.3.2,5101,172.16.1.2,34619,7500,14480,0,65728,65700,6,6,4,1460,712,1,993,87,33580,0,65700,1448,0,0,0,0
i,0x00000000,1720896047.175248,172.16.3.2,5101,172.16.1.2,34619,7500,14480,0,65728,65700,6,6,4,1460,712,1,992,87,33580,0,65700,0,0,0,0,0
i,0x00000000,1720896047.191559,172.16.3.2,5101,172.16.1.2,34619,7500,14480,0,65728,65700,6,6,4,1460,712,1,992,87,33580,0,65700,0,0,0,0,0
o,0x00000000,1720896047.191595,172.16.3.2,5101,172.16.1.2,34619,7500,14480,0,65728,65700,6,6,4,1460,712,1,993,87,33580,0,65700,1448,0,0,0,0
i,0x00000000,1720896047.194587,172.16.3.2,5101,172.16.1.2,34619,7500,14480,0,65728,65700,6,6,4,1460,712,1,992,87,33580,0,65700,0,0,0,0,0
i,0x00000000,1720896047.206467,172.16.3.2,5101,172.16.1.2,34619,7500,14480,0,65728,65700,6,6,4,1460,712,1,992,87,33580,0,65700,0,0,0,0,0
o,0x00000000,1720896047.206502,172.16.3.2,5101,172.16.1.2,34619,7500,14480,0,65728,65700,6,6,4,1460,712,1,993,87,33580,0,65700,1448,0,0,0,0
i,0x00000000,1720896047.213200,172.16.3.2,5101,172.16.1.2,34619,7500,14480,0,65728,65700,6,6,4,1460,712,1,992,87,33580,0,65700,0,0,0,0,0
i,0x00000000,1720896047.228316,172.16.3.2,5101,172.16.1.2,34619,7500,14480,0,65728,65700,6,6,4,1460,712,1,992,87,33580,0,65700,0,0,0,0,0
o,0x00000000,1720896047.228352,172.16.3.2,5101,172.16.1.2,34619,7500,14480,0,65728,65700,6,6,4,1460,712,1,993,87,33580,0,65700,1448,0,0,0,0
i,0x00000000,1720896047.272077,172.16.3.2,5101,172.16.1.2,34619,7500,14480,0,65728,65700,6,6,4,1460,712,1,992,87,33580,0,65700,0,0,0,0,0
i,0x00000000,1720896047.281859,172.16.3.2,5101,172.16.1.2,34619,7500,14480,0,65728,65700,6,6,4,1460,712,1,992,87,33580,0,65700,0,0,0,0,0
o,0x00000000,1720896047.281871,172.16.3.2,5101,172.16.1.2,34619,7500,14480,0,65728,65700,6,6,4,1460,712,1,993,87,33580,0,65700,1448,0,0,0,0
i,0x00000000,1720896047.303505,172.16.3.2,5101,172.16.1.2,34619,7500,14480,0,65728,65700,6,6,4,1460,712,1,992,87,33580,0,65700,0,0,0,0,0
i,0x00000000,1720896047.314900,172.16.3.2,5101,172.16.1.2,34619,7500,14480,0,65728,65700,6,6,4,1460,712,1,992,87,33580,0,65700,0,0,0,0,0
o,0x00000000,1720896047.314919,172.16.3.2,5101,172.16.1.2,34619,7500,14480,0,65728,65700,6,6,4,1460,712,1,993,87,33580,0,65700,1448,0,0,0,0
i,0x00000000,1720896047.325517,172.16.3.2,5101,172.16.1.2,34619,7500,14480,0,65728,65700,6,6,4,1460,712,1,992,87,33580,0,65700,0,0,0,0,0
o,0x00000000,1720896047.362661,172.16.3.2,5101,172.16.1.2,34619,7500,14480,0,65728,65700,6,6,4,1460,712,1,993,87,33580,0,65700,0,0,0,0,0
i,0x00000000,1720896047.445671,172.16.3.2,5101,172.16.1.2,34619,7500,14480,0,65728,65700,6,6,4,1460,712,1,992,87,33580,0,65700,0,0,0,0,0
i,0x00000000,1720896047.465547,172.16.3.2,5101,172.16.1.2,34619,7500,14480,0,65728,65700,6,6,4,1460,712,1,992,87,33580,0,65700,0,0,0,0,0
o,0x00000000,1720896047.465566,172.16.3.2,5101,172.16.1.2,34619,7500,14480,0,65728,65700,6,6,4,1460,712,1,993,87,33580,0,65700,1448,0,0,0,0
i,0x00000000,1720896047.475952,172.16.3.2,5101,172.16.1.2,34619,7500,14480,0,65728,65700,6,6,4,1460,712,1,992,87,33580,0,65700,0,0,0,0,0
i,0x00000000,1720896047.487746,172.16.3.2,5101,172.16.1.2,34619,7500,14480,0,65728,65700,6,6,4,1460,712,1,992,87,33580,0,65700,0,0,0,0,0
o,0x00000000,1720896047.487794,172.16.3.2,5101,172.16.1.2,34619,7500,14480,0,65728,65700,6,6,4,1460,712,1,993,87,33580,0,65700,1448,0,0,0,0
i,0x00000000,1720896047.492700,172.16.3.2,5101,172.16.1.2,34619,7500,14480,0,65728,65700,6,6,4,1460,712,1,992,87,33580,0,65700,0,0,0,0,0
i,0x00000000,1720896047.509031,172.16.3.2,5101,172.16.1.2,34619,7500,14480,0,65728,65700,6,6,4,1460,712,1,992,87,33580,0,65700,0,0,0,0,0
o,0x00000000,1720896047.509069,172.16.3.2,5101,172.16.1.2,34619,7500,14480,0,65728,65700,6,6,4,1460,712,1,993,87,33580,0,65700,1448,0,0,0,0
i,0x00000000,1720896047.553580,172.16.3.2,5101,172.16.1.2,34619,7500,14480,0,65728,65700,6,6,4,1460,712,1,992,87,33580,0,65700,0,0,0,0,0
i,0x00000000,1720896047.553608,172.16.3.2,5101,172.16.1.2,34619,7500,14480,0,65728,65700,6,6,4,1460,712,1,992,87,33580,0,65700,1448,0,0,0,0
o,0x00000000,1720896047.553626,172.16.3.2,5101,172.16.1.2,34619,7500,14480,0,65728,65700,6,6,4,1460,712,1,993,87,33580,0,65700,2896,0,0,0,0
i,0x00000000,1720896047.582842,172.16.3.2,5101,172.16.1.2,34619,7500,14480,0,65728,65700,6,6,4,1460,712,1,992,87,33580,0,65700,0,0,0,0,0
i,0x00000000,1720896047.591392,172.16.3.2,5101,172.16.1.2,34619,7500,14480,0,65728,65700,6,6,4,1460,712,1,992,87,33580,0,65700,0,0,0,0,0
o,0x00000000,1720896047.591436,172.16.3.2,5101,172.16.1.2,34619,7500,14480,0,65728,65700,6,6,4,1460,712,1,993,87,33580,0,65700,1448,0,0,0,0
i,0x00000000,1720896047.644206,172.16.3.2,5101,172.16.1.2,34619,7500,14480,0,65728,65700,6,6,4,1460,712,1,992,87,33580,0,65700,0,0,0,0,0
o,0x00000000,1720896047.682630,172.16.3.2,5101,172.16.1.2,34619,7500,14480,0,65728,65700,6,6,4,1460,712,1,993,87,33580,0,65700,0,0,0,0,0
o,0x00000000,1720896047.686647,10.0.2.15,22,10.0.2.2,57021,1073725440,14600,0,65535,65700,0,0,4,1460,1,0,4,24,33580,156,65700,0,0,0,0,0
i,0x00000000,1720896047.691876,10.0.2.15,22,10.0.2.2,57021,1073725440,14600,0,65535,65700,0,0,4,1460,1,0,4,24,33580,156,65700,0,156,0,0,0
i,0x00000000,1720896047.714788,172.16.3.2,5101,172.16.1.2,34619,7500,14480,0,65728,65700,6,6,4,1460,712,1,992,87,33580,0,65700,0,0,0,0,0
i,0x00000000,1720896047.723090,172.16.3.2,5101,172.16.1.2,34619,7500,14480,0,65728,65700,6,6,4,1460,712,1,992,87,33580,0,65700,0,0,0,0,0
o,0x00000000,1720896047.723133,172.16.3.2,5101,172.16.1.2,34619,7500,14480,0,65728,65700,6,6,4,1460,712,1,993,87,33580,0,65700,1448,0,0,0,0
i,0x00000000,1720896047.745170,172.16.3.2,5101,172.16.1.2,34619,7500,14480,0,65728,65700,6,6,4,1460,712,1,992,87,33580,0,65700,0,0,0,0,0
i,0x00000000,1720896047.758667,172.16.3.2,5101,172.16.1.2,34619,7500,14480,0,65728,65700,6,6,4,1460,712,1,992,87,33580,0,65700,0,0,0,0,0
o,0x00000000,1720896047.758681,172.16.3.2,5101,172.16.1.2,34619,7500,14480,0,65728,65700,6,6,4,1460,712,1,993,87,33580,0,65700,1448,0,0,0,0
i,0x00000000,1720896047.766016,172.16.3.2,5101,172.16.1.2,34619,7500,14480,0,65728,65700,6,6,4,1460,712,1,992,87,33580,0,65700,0,0,0,0,0
i,0x00000000,1720896047.772769,172.16.3.2,5101,172.16.1.2,34619,7500,14480,0,65728,65700,6,6,4,1460,712,1,992,87,33580,0,65700,0,0,0,0,0
o,0x00000000,1720896047.772782,172.16.3.2,5101,172.16.1.2,34619,7500,14480,0,65728,65700,6,6,4,1460,712,1,993,87,33580,0,65700,1448,0,0,0,0
i,0x00000000,1720896047.787275,172.16.3.2,5101,172.16.1.2,34619,7500,14480,0,65728,65700,6,6,4,1460,712,1,992,87,33580,0,65700,0,0,0,0,0
o,0x00000000,1720896047.822796,172.16.3.2,5101,172.16.1.2,34619,7500,14480,0,65728,65700,6,6,4,1460,712,1,993,87,33580,0,65700,0,0,0,0,0
i,0x00000000,1720896047.853955,172.16.3.2,5101,172.16.1.2,34619,7500,14480,0,65728,65700,6,6,4,1460,712,1,992,87,33580,0,65700,0,0,0,0,0
i,0x00000000,1720896047.864427,172.16.3.2,5101,172.16.1.2,34619,7500,14480,0,65728,65700,6,6,4,1460,712,1,992,87,33580,0,65700,0,0,0,0,0
o,0x00000000,1720896047.864464,172.16.3.2,5101,172.16.1.2,34619,7500,14480,0,65728,65700,6,6,4,1460,712,1,993,87,33580,0,65700,1448,0,0,0,0
i,0x00000000,1720896047.875223,172.16.3.2,5101,172.16.1.2,34619,7500,14480,0,65728,65700,6,6,4,1460,712,1,992,87,33580,0,65700,0,0,0,0,0
i,0x00000000,1720896047.883943,172.16.3.2,5101,172.16.1.2,34619,7500,14480,0,65728,65700,6,6,4,1460,712,1,992,87,33580,0,65700,0,0,0,0,0
o,0x00000000,1720896047.883982,172.16.3.2,5101,172.16.1.2,34619,7500,14480,0,65728,65700,6,6,4,1460,712,1,993,87,33580,0,65700,1448,0,0,0,0
i,0x00000000,1720896048.016634,172.16.3.2,5101,172.16.1.2,34619,7500,14480,0,65728,65700,6,6,4,1460,712,1,992,87,33580,0,65700,0,0,0,0,0
i,0x00000000,1720896048.023890,172.16.3.2,5101,172.16.1.2,34619,7500,14480,0,65728,65700,6,6,4,1460,712,1,992,87,33580,0,65700,0,0,0,0,0
o,0x00000000,1720896048.023899,172.16.3.2,5101,172.16.1.2,34619,7500,14480,0,65728,65700,6,6,4,1460,712,1,993,87,33580,0,65700,1448,0,0,0,0
i,0x00000000,1720896048.032151,172.16.3.2,5101,172.16.1.2,34619,7500,14480,0,65728,65700,6,6,4,1460,712,1,992,87,33580,0,65700,0,0,0,0,0
i,0x00000000,1720896048.044502,172.16.3.2,5101,172.16.1.2,34619,7500,14480,0,65728,65700,6,6,4,1460,712,1,992,87,33580,0,65700,0,0,0,0,0
o,0x00000000,1720896048.044538,172.16.3.2,5101,172.16.1.2,34619,7500,14480,0,65728,65700,6,6,4,1460,712,1,993,87,33580,0,65700,1448,0,0,0,0
i,0x00000000,1720896048.053391,172.16.3.2,5101,172.16.1.2,34619,7500,14480,0,65728,65700,6,6,4,1460,712,1,992,87,33580,0,65700,0,0,0,0,0
i,0x00000000,1720896048.081971,172.16.3.2,5101,172.16.1.2,34619,7500,14480,0,65728,65700,6,6,4,1460,712,1,992,87,33580,0,65700,0,0,0,0,0
o,0x00000000,1720896048.082011,172.16.3.2,5101,172.16.1.2,34619,7500,14480,0,65728,65700,6,6,4,1460,712,1,993,87,33580,0,65700,1448,0,0,0,0
i,0x00000000,1720896048.087644,172.16.3.2,5101,172.16.1.2,34619,7500,14480,0,65728,65700,6,6,4,1460,712,1,992,87,33580,0,65700,0,0,0,0,0
i,0x00000000,1720896048.104873,172.16.3.2,5101,172.16.1.2,34619,7500,14480,0,65728,65700,6,6,4,1460,712,1,992,87,33580,0,65700,0,0,0,0,0
o,0x00000000,1720896048.104912,172.16.3.2,5101,172.16.1.2,34619,7500,14480,0,65728,65700,6,6,4,1460,712,1,993,87,33580,0,65700,1448,0,0,0,0
i,0x00000000,1720896048.106371,172.16.3.2,5101,172.16.1.2,34619,7500,14480,0,65728,65700,6,6,4,1460,712,1,992,87,33580,0,65700,1448,0,0,0,0
o,0x00000000,1720896048.142610,172.16.3.2,5101,172.16.1.2,34619,7500,14480,0,65728,65700,6,6,4,1460,712,1,993,87,33580,0,65700,0,0,0,0,0
i,0x00000000,1720896048.161260,172.16.3.2,5101,172.16.1.2,34619,7500,14480,0,65728,65700,6,6,4,1460,712,1,992,87,33580,0,65700,0,0,0,0,0
i,0x00000000,1720896048.184462,172.16.3.2,5101,172.16.1.2,34619,7500,14480,0,65728,65700,6,6,4,1460,712,1,992,87,33580,0,65700,0,0,0,0,0
o,0x00000000,1720896048.184516,172.16.3.2,5101,172.16.1.2,34619,7500,14480,0,65728,65700,6,6,4,1460,712,1,993,87,33580,0,65700,1448,0,0,0,0
i,0x00000000,1720896048.194489,172.16.3.2,5101,172.16.1.2,34619,7500,14480,0,65728,65700,6,6,4,1460,712,1,992,87,33580,0,65700,0,0,0,0,0
i,0x00000000,1720896048.205461,172.16.3.2,5101,172.16.1.2,34619,7500,14480,0,65728,65700,6,6,4,1460,712,1,992,87,33580,0,65700,0,0,0,0,0
o,0x00000000,1720896048.205494,172.16.3.2,5101,172.16.1.2,34619,7500,14480,0,65728,65700,6,6,4,1460,712,1,993,87,33580,0,65700,1448,0,0,0,0
i,0x00000000,1720896048.251690,172.16.3.2,5101,172.16.1.2,34619,7500,14480,0,65728,65700,6,6,4,1460,712,1,992,87,33580,0,65700,0,0,0,0,0
o,0x00000000,1720896048.294112,172.16.3.2,5101,172.16.1.2,34619,7500,14480,0,65728,65700,6,6,4,1460,712,1,993,87,33580,0,65700,0,0,0,0,0
i,0x00000000,1720896048.354143,172.16.3.2,5101,172.16.1.2,34619,7500,14480,0,65728,65700,6,6,4,1460,712,1,992,87,33580,0,65700,0,0,0,0,0
i,0x00000000,1720896048.361780,172.16.3.2,5101,172.16.1.2,34619,7500,14480,0,65728,65700,6,6,4,1460,712,1,992,87,33580,0,65700,0,0,0,0,0
o,0x00000000,1720896048.361793,172.16.3.2,5101,172.16.1.2,34619,7500,14480,0,65728,65700,6,6,4,1460,712,1,993,87,33580,0,65700,1448,0,0,0,0
i,0x00000000,1720896048.407440,172.16.3.2,5101,172.16.1.2,34619,7500,14480,0,65728,65700,6,6,4,1460,712,1,992,87,33580,0,65700,0,0,0,0,0
i,0x00000000,1720896048.411791,172.16.3.2,5101,172.16.1.2,34619,7500,14480,0,65728,65700,6,6,4,1460,712,1,992,87,33580,0,65700,0,0,0,0,0
o,0x00000000,1720896048.411803,172.16.3.2,5101,172.16.1.2,34619,7500,14480,0,65728,65700,6,6,4,1460,712,1,993,87,33580,0,65700,1448,0,0,0,0
i,0x00000000,1720896048.422371,172.16.3.2,5101,172.16.1.2,34619,7500,14480,0,65728,65700,6,6,4,1460,712,1,992,87,33580,0,65700,0,0,0,0,0
i,0x00000000,1720896048.432885,172.16.3.2,5101,172.16.1.2,34619,7500,14480,0,65728,65700,6,6,4,1460,712,1,992,87,33580,0,65700,0,0,0,0,0
o,0x00000000,1720896048.432914,172.16.3.2,5101,172.16.1.2,34619,7500,14480,0,65728,65700,6,6,4,1460,712,1,993,87,33580,0,65700,1448,0,0,0,0
i,0x00000000,1720896048.441676,172.16.3.2,5101,172.16.1.2,34619,7500,14480,0,65728,65700,6,6,4,1460,712,1,992,87,33580,0,65700,0,0,0,0,0
i,0x00000000,1720896048.462782,172.16.3.2,5101,172.16.1.2,34619,7500,14480,0,65728,65700,6,6,4,1460,712,1,992,87,33580,0,65700,0,0,0,0,0
o,0x00000000,1720896048.462826,172.16.3.2,5101,172.16.1.2,34619,7500,14480,0,65728,65700,6,6,4,1460,712,1,993,87,33580,0,65700,1448,0,0,0,0
i,0x00000000,1720896048.473847,172.16.3.2,5101,172.16.1.2,34619,7500,14480,0,65728,65700,6,6,4,1460,712,1,992,87,33580,0,65700,0,0,0,0,0
i,0x00000000,1720896048.505012,172.16.3.2,5101,172.16.1.2,34619,7500,14480,0,65728,65700,6,6,4,1460,712,1,992,87,33580,0,65700,0,0,0,0,0
o,0x00000000,1720896048.505036,172.16.3.2,5101,172.16.1.2,34619,7500,14480,0,65728,65700,6,6,4,1460,712,1,993,87,33580,0,65700,1448,0,0,0,0
i,0x00000000,1720896048.522035,172.16.3.2,5101,172.16.1.2,34619,7500,14480,0,65728,65700,6,6,4,1460,712,1,992,87,33580,0,65700,0,0,0,0,0
i,0x00000000,1720896048.531128,172.16.3.2,5101,172.16.1.2,34619,7500,14480,0,65728,65700,6,6,4,1460,712,1,992,87,33580,0,65700,0,0,0,0,0
o,0x00000000,1720896048.531140,172.16.3.2,5101,172.16.1.2,34619,7500,14480,0,65728,65700,6,6,4,1460,712,1,993,87,33580,0,65700,1448,0,0,0,0
i,0x00000000,1720896048.545720,172.16.3.2,5101,172.16.1.2,34619,7500,14480,0,65728,65700,6,6,4,1460,712,1,992,87,33580,0,65700,0,0,0,0,0
o,0x00000000,1720896048.583509,172.16.3.2,5101,172.16.1.2,34619,7500,14480,0,65728,65700,6,6,4,1460,712,1,993,87,33580,0,65700,0,0,0,0,0
i,0x00000000,1720896048.688167,172.16.3.2,5101,172.16.1.2,34619,7500,14480,0,65728,65700,6,6,4,1460,712,1,992,87,33580,0,65700,0,0,0,0,0
o,0x00000000,1720896048.694934,10.0.2.15,22,10.0.2.2,57021,1073725440,14600,0,65535,65700,0,0,4,1460,1,0,4,24,33580,108,65700,0,0,0,0,0
i,0x00000000,1720896048.697940,10.0.2.15,22,10.0.2.2,57021,1073725440,14600,0,65535,65700,0,0,4,1460,1,0,4,24,33580,108,65700,0,108,0,0,0
i,0x00000000,1720896048.715646,172.16.3.2,5101,172.16.1.2,34619,7500,14480,0,65728,65700,6,6,4,1460,712,1,992,87,33580,0,65700,0,0,0,0,0
o,0x00000000,1720896048.715693,172.16.3.2,5101,172.16.1.2,34619,7500,14480,0,65728,65700,6,6,4,1460,712,1,993,87,33580,0,65700,1448,0,0,0,0
i,0x00000000,1720896048.732908,172.16.3.2,5101,172.16.1.2,34619,7500,14480,0,65728,65700,6,6,4,1460,712,1,992,87,33580,0,65700,0,0,0,0,0
i,0x00000000,1720896048.746283,172.16.3.2,5101,172.16.1.2,34619,7500,14480,0,65728,65700,6,6,4,1460,712,1,992,87,33580,0,65700,0,0,0,0,0
o,0x00000000,1720896048.746300,172.16.3.2,5101,172.16.1.2,34619,7500,14480,0,65728,65700,6,6,4,1460,712,1,993,87,33580,0,65700,1448,0,0,0,0
i,0x00000000,1720896048.752625,172.16.3.2,5101,172.16.1.2,34619,7500,14480,0,65728,65700,6,6,4,1460,712,1,992,87,33580,0,65700,0,0,0,0,0
i,0x00000000,1720896048.765341,172.16.3.2,5101,172.16.1.2,34619,7500,14480,0,65728,65700,6,6,4,1460,712,1,992,87,33580,0,65700,0,0,0,0,0
o,0x00000000,1720896048.765350,172.16.3.2,5101,172.16.1.2,34619,7500,14480,0,65728,65700,6,6,4,1460,712,1,993,87,33580,0,65700,1448,0,0,0,0
i,0x00000000,1720896048.773740,172.16.3.2,5101,172.16.1.2,34619,7500,14480,0,65728,65700,6,6,4,1460,712,1,992,87,33580,0,65700,0,0,0,0,0
i,0x00000000,1720896048.793713,172.16.3.2,5101,172.16.1.2,34619,7500,14480,0,65728,65700,6,6,4,1460,712,1,992,87,33580,0,65700,0,0,0,0,0
o,0x00000000,1720896048.793766,172.16.3.2,5101,172.16.1.2,34619,7500,14480,0,65728,65700,6,6,4,1460,712,1,993,87,33580,0,65700,1448,0,0,0,0
i,0x00000000,1720896048.801530,172.16.3.2,5101,172.16.1.2,34619,7500,14480,0,65728,65700,6,6,4,1460,712,1,992,87,33580,0,65700,0,0,0,0,0
i,0x00000000,1720896048.818917,172.16.3.2,5101,172.16.1.2,34619,7500,14480,0,65728,65700,6,6,4,1460,712,1,992,87,33580,0,65700,0,0,0,0,0
o,0x00000000,1720896048.818961,172.16.3.2,5101,172.16.1.2,34619,7500,14480,0,65728,65700,6,6,4,1460,712,1,993,87,33580,0,65700,1448,0,0,0,0
i,0x00000000,1720896048.851805,172.16.3.2,5101,172.16.1.2,34619,7500,14480,0,65728,65700,6,6,4,1460,712,1,992,87,33580,0,65700,0,0,0,0,0
i,0x00000000,1720896048.872508,172.16.3.2,5101,172.16.1.2,34619,7500,14480,0,65728,65700,6,6,4,1460,712,1,992,87,33580,0,65700,0,0,0,0,0
o,0x00000000,1720896048.872554,172.16.3.2,5101,172.16.1.2,34619,7500,14480,0,65728,65700,6,6,4,1460,712,1,993,87,33580,0,65700,1448,0,0,0,0
i,0x00000000,1720896048.878413,172.16.3.2,5101,172.16.1.2,34619,7500,14480,0,65728,65700,6,6,4,1460,712,1,992,87,33580,0,65700,0,0,0,0,0
i,0x00000000,1720896048.883475,172.16.3.2,5101,172.16.1.2,34619,7500,14480,0,65728,65700,6,6,4,1460,712,1,992,87,33580,0,65700,0,0,0,0,0
o,0x00000000,1720896048.883508,172.16.3.2,5101,172.16.1.2,34619,7500,14480,0,65728,65700,6,6,4,1460,712,1,993,87,33580,0,65700,1448,0,0,0,0
i,0x00000000,1720896049.003470,172.16.3.2,5101,172.16.1.2,34619,7500,14480,0,65728,65700,6,6,4,1460,712,1,992,87,33580,0,65700,0,0,0,0,0
o,0x00000000,1720896049.043092,172.16.3.2,5101,172.16.1.2,34619,7500,14480,0,65728,65700,6,6,4,1460,712,1,993,87,33580,0,65700,0,0,0,0,0
i,0x00000000,1720896049.063052,172.16.3.2,5101,172.16.1.2,34619,7500,14480,0,65728,65700,6,6,4,1460,712,1,992,87,33580,0,65700,0,0,0,0,0
i,0x00000000,1720896049.080076,172.16.3.2,5101,172.16.1.2,34619,7500,14480,0,65728,65700,6,6,4,1460,712,1,992,87,33580,0,65700,0,0,0,0,0
o,0x00000000,1720896049.080107,172.16.3.2,5101,172.16.1.2,34619,7500,14480,0,65728,65700,6,6,4,1460,712,1,993,87,33580,0,65700,1448,0,0,0,0
i,0x00000000,1720896049.099759,172.16.3.2,5101,172.16.1.2,34619,7500,14480,0,65728,65700,6,6,4,1460,712,1,992,87,33580,0,65700,0,0,0,0,0
i,0x00000000,1720896049.121331,172.16.3.2,5101,172.16.1.2,34619,7500,14480,0,65728,65700,6,6,4,1460,712,1,992,87,33580,0,65700,0,0,0,0,0
o,0x00000000,1720896049.121344,172.16.3.2,5101,172.16.1.2,34619,7500,14480,0,65728,65700,6,6,4,1460,712,1,993,87,33580,0,65700,1448,0,0,0,0
i,0x00000000,1720896049.132684,172.16.3.2,5101,172.16.1.2,34619,7500,14480,0,65728,65700,6,6,4,1460,712,1,992,87,33580,0,65700,0,0,0,0,0
i,0x00000000,1720896049.143917,172.16.3.2,5101,172.16.1.2,34619,7500,14480,0,65728,65700,6,6,4,1460,712,1,992,87,33580,0,65700,0,0,0,0,0
o,0x00000000,1720896049.143954,172.16.3.2,5101,172.16.1.2,34619,7500,14480,0,65728,65700,6,6,4,1460,712,1,993,87,33580,0,65700,1448,0,0,0,0
i,0x00000000,1720896049.153676,172.16.3.2,5101,172.16.1.2,34619,7500,14480,0,65728,65700,6,6,4,1460,712,1,992,87,33580,0,65700,0,0,0,0,0
o,0x00000000,1720896049.192910,172.16.3.2,5101,172.16.1.2,34619,7500,14480,0,65728,65700,6,6,4,1460,712,1,993,87,33580,0,65700,0,0,0,0,0
i,0x00000000,1720896049.195246,172.16.3.2,5101,172.16.1.2,34619,7500,14480,0,65728,65700,6,6,4,1460,712,1,992,87,33580,0,65700,0,0,0,0,0
i,0x00000000,1720896049.206499,172.16.3.2,5101,172.16.1.2,34619,7500,14480,0,65728,65700,6,6,4,1460,712,1,992,87,33580,0,65700,0,0,0,0,0
o,0x00000000,1720896049.206548,172.16.3.2,5101,172.16.1.2,34619,7500,14480,0,65728,65700,6,6,4,1460,712,1,993,87,33580,0,65700,1448,0,0,0,0
i,0x00000000,1720896049.213837,172.16.3.2,5101,172.16.1.2,34619,7500,14480,0,65728,65700,6,6,4,1460,712,1,992,87,33580,0,65700,0,0,0,0,0
i,0x00000000,1720896049.223781,172.16.3.2,5101,172.16.1.2,34619,7500,14480,0,65728,65700,6,6,4,1460,712,1,992,87,33580,0,65700,0,0,0,0,0
o,0x00000000,1720896049.223795,172.16.3.2,5101,172.16.1.2,34619,7500,14480,0,65728,65700,6,6,4,1460,712,1,993,87,33580,0,65700,1448,0,0,0,0
i,0x00000000,1720896049.248231,172.16.3.2,5101,172.16.1.2,34619,7500,14480,0,65728,65700,6,6,4,1460,712,1,992,87,33580,0,65700,0,0,0,0,0
i,0x00000000,1720896049.255102,172.16.3.2,5101,172.16.1.2,34619,7500,14480,0,65728,65700,6,6,4,1460,712,1,992,87,33580,0,65700,0,0,0,0,0
o,0x00000000,1720896049.255134,172.16.3.2,5101,172.16.1.2,34619,7500,14480,0,65728,65700,6,6,4,1460,712,1,993,87,33580,0,65700,1448,0,0,0,0
i,0x00000000,1720896049.264905,172.16.3.2,5101,172.16.1.2,34619,7500,14480,0,65728,65700,6,6,4,1460,712,1,992,87,33580,0,65700,0,0,0,0,0
i,0x00000000,1720896049.278211,172.16.3.2,5101,172.16.1.2,34619,7500,14480,0,65728,65700,6,6,4,1460,712,1,992,87,33580,0,65700,0,0,0,0,0
o,0x00000000,1720896049.278252,172.16.3.2,5101,172.16.1.2,34619,7500,14480,0,65728,65700,6,6,4,1460,712,1,993,87,33580,0,65700,1448,0,0,0,0
i,0x00000000,1720896049.445264,172.16.3.2,5101,172.16.1.2,34619,7500,14480,0,65728,65700,6,6,4,1460,712,1,992,87,33580,0,65700,0,0,0,0,0
o,0x00000000,1720896049.481805,172.16.3.2,5101,172.16.1.2,34619,7500,14480,0,65728,65700,6,6,4,1460,712,1,993,87,33580,0,65700,0,0,0,0,0
i,0x00000000,1720896049.504342,172.16.3.2,5101,172.16.1.2,34619,7500,14480,0,65728,65700,6,6,4,1460,712,1,992,87,33580,0,65700,0,0,0,0,0
i,0x00000000,1720896049.517636,172.16.3.2,5101,172.16.1.2,34619,7500,14480,0,65728,65700,6,6,4,1460,712,1,992,87,33580,0,65700,0,0,0,0,0
o,0x00000000,1720896049.517678,172.16.3.2,5101,172.16.1.2,34619,7500,14480,0,65728,65700,6,6,4,1460,712,1,993,87,33580,0,65700,1448,0,0,0,0
i,0x00000000,1720896049.533760,172.16.3.2,5101,172.16.1.2,34619,7500,14480,0,65728,65700,6,6,4,1460,712,1,992,87,33580,0,65700,0,0,0,0,0
i,0x00000000,1720896049.550114,172.16.3.2,5101,172.16.1.2,34619,7500,14480,0,65728,65700,6,6,4,1460,712,1,992,87,33580,0,65700,0,0,0,0,0
o,0x00000000,1720896049.550138,172.16.3.2,5101,172.16.1.2,34619,7500,14480,0,65728,65700,6,6,4,1460,712,1,993,87,33580,0,65700,1448,0,0,0,0
i,0x00000000,1720896049.553232,172.16.3.2,5101,172.16.1.2,34619,7500,14480,0,65728,65700,6,6,4,1460,712,1,992,87,33580,0,65700,1448,0,0,0,0
i,0x00000000,1720896049.563563,172.16.3.2,5101,172.16.1.2,34619,7500,14480,0,65728,65700,6,6,4,1460,712,1,992,87,33580,0,65700,0,0,0,0,0
o,0x00000000,1720896049.563597,172.16.3.2,5101,172.16.1.2,34619,7500,14480,0,65728,65700,6,6,4,1460,712,1,993,87,33580,0,65700,1448,0,0,0,0
i,0x00000000,1720896049.614761,172.16.3.2,5101,172.16.1.2,34619,7500,14480,0,65728,65700,6,6,4,1460,712,1,992,87,33580,0,65700,0,0,0,0,0
i,0x00000000,1720896049.623375,172.16.3.2,5101,172.16.1.2,34619,7500,14480,0,65728,65700,6,6,4,1460,712,1,992,87,33580,0,65700,0,0,0,0,0
o,0x00000000,1720896049.623408,172.16.3.2,5101,172.16.1.2,34619,7500,14480,0,65728,65700,6,6,4,1460,712,1,993,87,33580,0,65700,1448,0,0,0,0
i,0x00000000,1720896049.625113,172.16.3.2,5101,172.16.1.2,34619,7500,14480,0,65728,65700,6,6,4,1460,712,1,992,87,33580,0,65700,1448,0,0,0,0
i,0x00000000,1720896049.633988,172.16.3.2,5101,172.16.1.2,34619,7500,14480,0,65728,65700,6,6,4,1460,712,1,992,87,33580,0,65700,0,0,0,0,0
o,0x00000000,1720896049.634028,172.16.3.2,5101,172.16.1.2,34619,7500,14480,0,65728,65700,6,6,4,1460,712,1,993,87,33580,0,65700,1448,0,0,0,0
i,0x00000000,1720896049.654204,172.16.3.2,5101,172.16.1.2,34619,7500,14480,0,65728,65700,6,6,4,1460,712,1,992,87,33580,0,65700,0,0,0,0,0
i,0x00000000,1720896049.664318,172.16.3.2,5101,172.16.1.2,34619,7500,14480,0,65728,65700,6,6,4,1460,712,1,992,87,33580,0,65700,0,0,0,0,0
o,0x00000000,1720896049.664352,172.16.3.2,5101,172.16.1.2,34619,7500,14480,0,65728,65700,6,6,4,1460,712,1,993,87,33580,0,65700,1448,0,0,0,0
i,0x00000000,1720896049.673901,172.16.3.2,5101,172.16.1.2,34619,7500,14480,0,65728,65700,6,6,4,1460,712,1,992,87,33580,0,65700,0,0,0,0,0
i,0x00000000,1720896049.686439,172.16.3.2,5101,172.16.1.2,34619,7500,14480,0,65728,65700,6,6,4,1460,712,1,992,87,33580,0,65700,0,0,0,0,0
o,0x00000000,1720896049.686480,172.16.3.2,5101,172.16.1.2,34619,7500,14480,0,65728,65700,6,6,4,1460,712,1,993,87,33580,0,65700,1448,0,0,0,0
o,0x00000000,1720896049.695481,10.0.2.15,22,10.0.2.2,57021,1073725440,14600,0,65535,65700,0,0,4,1460,1,0,4,24,33580,108,65700,0,0,0,0,0
i,0x00000000,1720896049.702343,10.0.2.15,22,10.0.2.2,57021,1073725440,14600,0,65535,65700,0,0,4,1460,1,0,4,24,33580,108,65700,0,108,0,0,0
i,0x00000000,1720896049.704591,172.16.3.2,5101,172.16.1.2,34619,7500,14480,0,65728,65700,6,6,4,1460,712,1,992,87,33580,0,65700,0,0,0,0,0
i,0x00000000,1720896049.713186,172.16.3.2,5101,172.16.1.2,34619,7500,14480,0,65728,65700,6,6,4,1460,712,1,992,87,33580,0,65700,0,0,0,0,0
o,0x00000000,1720896049.713220,172.16.3.2,5101,172.16.1.2,34619,7500,14480,0,65728,65700,6,6,4,1460,712,1,993,87,33580,0,65700,1448,0,0,0,0
i,0x00000000,1720896049.862545,172.16.3.2,5101,172.16.1.2,34619,7500,14480,0,65728,65700,6,6,4,1460,712,1,992,87,33580,0,65700,0,0,0,0,0
o,0x00000000,1720896049.902688,172.16.3.2,5101,172.16.1.2,34619,7500,14480,0,65728,65700,6,6,4,1460,712,1,993,87,33580,0,65700,0,0,0,0,0
i,0x00000000,1720896049.922728,172.16.3.2,5101,172.16.1.2,34619,7500,14480,0,65728,65700,6,6,4,1460,712,1,992,87,33580,0,65700,0,0,0,0,0
i,0x00000000,1720896049.943363,172.16.3.2,5101,172.16.1.2,34619,7500,14480,0,65728,65700,6,6,4,1460,712,1,992,87,33580,0,65700,0,0,0,0,0
o,0x00000000,1720896049.943402,172.16.3.2,5101,172.16.1.2,34619,7500,14480,0,65728,65700,6,6,4,1460,712,1,993,87,33580,0,65700,1448,0,0,0,0
i,0x00000000,1720896049.985195,172.16.3.2,5101,172.16.1.2,34619,7500,14480,0,65728,65700,6,6,4,1460,712,1,992,87,33580,0,65700,0,0,0,0,0
i,0x00000000,1720896049.997328,172.16.3.2,5101,172.16.1.2,34619,7500,14480,0,65728,65700,6,6,4,1460,712,1,992,87,33580,0,65700,0,0,0,0,0
o,0x00000000,1720896049.997368,172.16.3.2,5101,172.16.1.2,34619,7500,14480,0,65728,65700,6,6,4,1460,712,1,993,87,33580,0,65700,1448,0,0,0,0
i,0x00000000,1720896050.003873,172.16.3.2,5101,172.16.1.2,34619,7500,14480,0,65728,65700,6,6,4,1460,712,1,992,87,33580,0,65700,0,0,0,0,0
i,0x00000000,1720896050.014225,172.16.3.2,5101,172.16.1.2,34619,7500,14480,0,65728,65700,6,6,4,1460,712,1,992,87,33580,0,65700,0,0,0,0,0
o,0x00000000,1720896050.014258,172.16.3.2,5101,172.16.1.2,34619,7500,14480,0,65728,65700,6,6,4,1460,712,1,993,87,33580,0,65700,1448,0,0,0,0
i,0x00000000,1720896050.032497,172.16.3.2,5101,172.16.1.2,34619,7500,14480,0,65728,65700,6,6,4,1460,712,1,992,87,33580,0,65700,0,0,0,0,0
i,0x00000000,1720896050.042692,172.16.3.2,5101,172.16.1.2,34619,7500,14480,0,65728,65700,6,6,4,1460,712,1,992,87,33580,0,65700,0,0,0,0,0
o,0x00000000,1720896050.042739,172.16.3.2,5101,172.16.1.2,34619,7500,14480,0,65728,65700,6,6,4,1460,712,1,993,87,33580,0,65700,1448,0,0,0,0
i,0x00000000,1720896050.074946,172.16.3.2,5101,172.16.1.2,34619,7500,14480,0,65728,65700,6,6,4,1460,712,1,992,87,33580,0,65700,0,0,0,0,0
i,0x00000000,1720896050.102507,172.16.3.2,5101,172.16.1.2,34619,7500,14480,0,65728,65700,6,6,4,1460,712,1,992,87,33580,0,65700,0,0,0,0,0
o,0x00000000,1720896050.102558,172.16.3.2,5101,172.16.1.2,34619,7500,14480,0,65728,65700,6,6,4,1460,712,1,993,87,33580,0,65700,1448,0,0,0,0
i,0x00000000,1720896050.108214,172.16.3.2,5101,172.16.1.2,34619,7500,14480,0,65728,65700,6,6,4,1460,712,1,992,87,33580,0,65700,0,0,0,0,0
i,0x00000000,1720896050.114194,172.16.3.2,5101,172.16.1.2,34619,7500,14480,0,65728,65700,6,6,4,1460,712,1,992,87,33580,0,65700,0,0,0,0,0
o,0x00000000,1720896050.114240,172.16.3.2,5101,172.16.1.2,34619,7500,14480,0,65728,65700,6,6,4,1460,712,1,993,87,33580,0,65700,0,0,1,0,0
i,0x00000000,1720896050.124460,172.16.3.2,5101,172.16.1.2,34619,7500,14480,0,65728,65700,6,6,4,1460,712,1,992,87,33580,0,65700,0,0,1,0,0
o,0x00000000,1720896050.124501,172.16.3.2,5101,172.16.1.2,34619,7500,14480,0,65728,65728,6,6,4,1460,712,1,993,87,33580,0,65700,0,0,1,0,0
i,0x00000000,1720896050.132901,172.16.3.2,5101,172.16.1.2,34619,7500,14480,0,65728,65728,6,6,4,1460,712,1,992,87,33580,0,65700,0,0,1,0,0
o,0x00000000,1720896050.132931,172.16.3.2,5101,172.16.1.2,34619,7500,14480,0,65728,65728,6,6,4,1460,712,1,993,87,33580,0,65700,0,0,1,0,0
i,0x00000000,1720896050.151246,172.16.3.2,5101,172.16.1.2,34619,7500,14480,0,65728,65728,6,6,4,1460,712,1,992,87,33580,0,65700,0,0,1,0,0
o,0x00000000,1720896050.151267,172.16.3.2,5101,172.16.1.2,34619,7500,14480,0,65728,65728,6,6,4,1460,712,1,993,87,33580,0,65700,0,0,1,0,0
i,0x00000000,1720896050.163328,172.16.3.2,5101,172.16.1.2,34619,7500,14480,0,65728,65728,6,6,4,1460,712,1,992,87,33580,0,65700,0,0,1,0,0
o,0x00000000,1720896050.163366,172.16.3.2,5101,172.16.1.2,34619,7500,14480,0,65728,65728,6,6,4,1460,712,1,993,87,33580,0,65700,0,0,1,0,0
i,0x00000000,1720896050.383895,172.16.3.2,5101,172.16.1.2,34619,7500,14480,0,65728,65728,6,6,4,1460,712,1,992,87,33580,0,65700,0,0,1,0,0
o,0x00000000,1720896050.383929,172.16.3.2,5101,172.16.1.2,34619,7500,14480,0,65728,65728,6,6,4,1460,712,1,993,87,33580,0,65700,0,0,1,0,0
i,0x00000000,1720896050.393675,172.16.3.2,5101,172.16.1.2,34619,7500,14480,0,65728,65728,6,6,4,1460,712,1,992,87,33580,0,65700,0,0,1,0,0
o,0x00000000,1720896050.393711,172.16.3.2,5101,172.16.1.2,34619,7500,14480,0,65728,65728,6,6,4,1460,712,1,993,87,33580,0,65700,0,0,1,0,0
i,0x00000000,1720896050.414049,172.16.3.2,5101,172.16.1.2,34619,7500,14480,0,65728,65728,6,6,4,1460,712,1,992,87,33580,0,65700,0,0,1,0,0
o,0x00000000,1720896050.414077,172.16.3.2,5101,172.16.1.2,34619,7500,14480,0,65728,65728,6,6,4,1460,712,1,993,87,33580,0,65700,0,0,2,0,0
i,0x00000000,1720896050.421000,172.16.3.2,5101,172.16.1.2,34619,7500,14480,0,65728,65728,6,6,4,1460,712,1,992,87,33580,0,65700,0,0,2,0,0
o,0x00000000,1720896050.421008,172.16.3.2,5101,172.16.1.2,34619,7500,14480,0,65728,65728,6,6,4,1460,712,1,993,87,33580,0,65700,0,0,2,0,0
i,0x00000000,1720896050.430862,172.16.3.2,5101,172.16.1.2,34619,7500,14480,0,65728,65728,6,6,4,1460,712,1,992,87,33580,0,65700,0,0,2,0,0
o,0x00000000,1720896050.430872,172.16.3.2,5101,172.16.1.2,34619,7500,14480,0,65728,65728,6,6,4,1460,712,1,993,87,33580,0,65700,0,0,2,0,0
i,0x00000000,1720896050.444039,172.16.3.2,5101,172.16.1.2,34619,7500,14480,0,65728,65728,6,6,4,1460,712,1,992,87,33580,0,65700,0,0,2,0,0
o,0x00000000,1720896050.444088,172.16.3.2,5101,172.16.1.2,34619,7500,14480,0,65728,65728,6,6,4,1460,712,1,993,87,33580,0,65700,0,0,2,0,0
i,0x00000000,1720896050.455258,172.16.3.2,5101,172.16.1.2,34619,7500,14480,0,65728,65728,6,6,4,1460,712,1,992,87,33580,0,65700,0,0,2,0,0
o,0x00000000,1720896050.455290,172.16.3.2,5101,172.16.1.2,34619,7500,14480,0,65728,65728,6,6,4,1460,712,1,993,87,33580,0,65700,0,0,2,0,0
i,0x00000000,1720896050.476057,172.16.3.2,5101,172.16.1.2,34619,7500,14480,0,65728,65728,6,6,4,1460,712,1,992,87,33580,0,65700,0,0,2,0,0
o,0x00000000,1720896050.476101,172.16.3.2,5101,172.16.1.2,34619,7500,14480,0,65728,65728,6,6,4,1460,712,1,993,87,33580,0,65700,0,0,2,0,0
i,0x00000000,1720896050.493245,172.16.3.2,5101,172.16.1.2,34619,7500,14480,0,65728,65728,6,6,4,1460,712,1,992,87,33580,0,65700,0,0,2,0,0
o,0x00000000,1720896050.493277,172.16.3.2,5101,172.16.1.2,34619,7500,14480,0,65728,65728,6,6,4,1460,712,1,993,87,33580,0,65700,0,0,2,0,0
i,0x00000000,1720896050.501613,172.16.3.2,5101,172.16.1.2,34619,7500,14480,0,65728,65728,6,6,4,1460,712,1,992,87,33580,0,65700,0,0,2,0,0
o,0x00000000,1720896050.501625,172.16.3.2,5101,172.16.1.2,34619,7500,14480,0,65728,65728,6,6,4,1460,712,1,993,87,33580,0,65700,0,0,2,0,0
i,0x00000000,1720896050.515831,172.16.3.2,5101,172.16.1.2,34619,7500,14480,0,65728,65728,6,6,4,1460,712,1,992,87,33580,0,65700,0,0,2,0,0
o,0x00000000,1720896050.515867,172.16.3.2,5101,172.16.1.2,34619,7500,14480,0,65728,65728,6,6,4,1460,712,1,993,87,33580,0,65700,0,0,2,0,0
i,0x00000000,1720896050.536765,172.16.3.2,5101,172.16.1.2,34619,7500,14480,0,65728,65728,6,6,4,1460,712,1,992,87,33580,0,65700,0,0,2,0,0
o,0x00000000,1720896050.536809,172.16.3.2,5101,172.16.1.2,34619,7500,14480,0,65728,65728,6,6,4,1460,712,1,993,87,33580,0,65700,0,0,2,0,0
i,0x00000000,1720896050.544074,172.16.3.2,5101,172.16.1.2,34619,7500,14480,0,65728,65728,6,6,4,1460,712,1,992,87,33580,0,65700,0,0,2,0,0
o,0x00000000,1720896050.544106,172.16.3.2,5101,172.16.1.2,34619,7500,14480,0,65728,65728,6,6,4,1460,712,1,993,87,33580,0,65700,0,0,3,0,0
i,0x00000000,1720896050.550950,172.16.3.2,5101,172.16.1.2,34619,7500,14480,0,65728,65728,6,6,4,1460,712,1,992,87,33580,0,65700,0,0,3,0,0
o,0x00000000,1720896050.550980,172.16.3.2,5101,172.16.1.2,34619,7500,14480,0,65728,65728,6,6,4,1460,712,1,993,87,33580,0,65700,11584,0,2,0,0
i,0x00000000,1720896050.572889,172.16.3.2,5101,172.16.1.2,34619,7500,14480,0,65728,65728,6,6,4,1460,712,1,992,87,33580,0,65700,0,0,2,0,0
o,0x00000000,1720896050.572917,172.16.3.2,5101,172.16.1.2,34619,7500,14480,0,65728,65700,6,6,4,1460,712,1,993,87,33580,0,65700,0,0,2,0,0
i,0x00000000,1720896050.664300,172.16.3.2,5101,172.16.1.2,34619,7500,14480,0,65728,65700,6,6,4,1460,712,1,992,87,33580,0,65700,0,0,2,0,0
o,0x00000000,1720896050.664334,172.16.3.2,5101,172.16.1.2,34619,7500,14480,0,65728,65728,6,6,4,1460,712,1,993,87,33580,0,65700,0,0,2,0,0
o,0x00000000,1720896050.693559,10.0.2.15,22,10.0.2.2,57021,1073725440,14600,0,65535,65700,0,0,4,1460,1,0,4,24,33580,108,65700,0,0,0,0,0
i,0x00000000,1720896050.696521,10.0.2.15,22,10.0.2.2,57021,1073725440,14600,0,65535,65700,0,0,4,1460,1,0,4,24,33580,108,65700,0,108,0,0,0
i,0x00000000,1720896050.713369,172.16.3.2,5101,172.16.1.2,34619,7500,14480,0,65728,65728,6,6,4,1460,712,1,992,87,33580,0,65700,0,0,2,0,0
o,0x00000000,1720896050.713416,172.16.3.2,5101,172.16.1.2,34619,7500,14480,0,65728,65728,6,6,4,1460,712,1,993,87,33580,0,65700,15928,0,1,0,0
i,0x00000000,1720896050.724483,172.16.3.2,5101,172.16.1.2,34619,7500,14480,0,65728,65728,6,6,4,1460,712,1,992,87,33580,0,65700,0,0,1,0,0
o,0x00000000,1720896050.724515,172.16.3.2,5101,172.16.1.2,34619,7500,14480,0,65728,65700,6,6,4,1460,712,1,993,87,33580,0,65700,0,0,1,0,0
i,0x00000000,1720896050.733120,172.16.3.2,5101,172.16.1.2,34619,7500,14480,0,65728,65700,6,6,4,1460,712,1,992,87,33580,0,65700,0,0,1,0,0
o,0x00000000,1720896050.733147,172.16.3.2,5101,172.16.1.2,34619,7500,14480,0,65728,65728,6,6,4,1460,712,1,993,87,33580,0,65700,0,0,1,0,0
i,0x00000000,1720896050.766072,172.16.3.2,5101,172.16.1.2,34619,7500,14480,0,65728,65728,6,6,4,1460,712,1,992,87,33580,0,65700,0,0,1,0,0
o,0x00000000,1720896050.766106,172.16.3.2,5101,172.16.1.2,34619,7500,14480,0,65728,65728,6,6,4,1460,712,1,993,87,33580,0,65700,0,0,1,0,0
i,0x00000000,1720896050.771758,172.16.3.2,5101,172.16.1.2,34619,7500,14480,0,65728,65728,6,6,4,1460,712,1,992,87,33580,0,65700,0,0,1,0,0
o,0x00000000,1720896050.771797,172.16.3.2,5101,172.16.1.2,34619,7500,14480,0,65728,65728,6,6,4,1460,712,1,993,87,33580,0,65700,10136,0,0,0,0
i,0x00000000,1720896050.783244,172.16.3.2,5101,172.16.1.2,34619,7500,14480,0,65728,65728,6,6,4,1460,712,1,992,87,33580,0,65700,0,0,0,0,0
i,0x00000000,1720896050.800047,172.16.3.2,5101,172.16.1.2,34619,7500,14480,0,65728,65728,6,6,4,1460,712,1,992,87,33580,0,65700,0,0,0,0,0
o,0x00000000,1720896050.800089,172.16.3.2,5101,172.16.1.2,34619,7500,14480,0,65728,65728,6,6,4,1460,712,1,993,87,33580,0,65700,1448,0,0,0,0
i,0x00000000,1720896050.894395,172.16.3.2,5101,172.16.1.2,34619,7500,14480,0,65728,65728,6,6,4,1460,712,1,992,87,33580,0,65700,0,0,0,0,0
o,0x00000000,1720896050.894439,172.16.3.2,5101,172.16.1.2,34619,7500,14480,0,65728,65700,6,6,4,1460,712,1,993,87,33580,0,65700,0,0,1,0,0
i,0x00000000,1720896050.914873,172.16.3.2,5101,172.16.1.2,34619,7500,14480,0,65728,65700,6,6,4,1460,712,1,992,87,33580,0,65700,0,0,1,0,0
o,0x00000000,1720896050.914917,172.16.3.2,5101,172.16.1.2,34619,7500,14480,0,65728,65728,6,6,4,1460,712,1,993,87,33580,0,65700,0,0,2,0,0
i,0x00000000,1720896050.922581,172.16.3.2,5101,172.16.1.2,34619,7500,14480,0,65728,65728,6,6,4,1460,712,1,992,87,33580,0,65700,0,0,2,0,0
o,0x00000000,1720896050.922617,172.16.3.2,5101,172.16.1.2,34619,7500,14480,0,65728,65728,6,6,4,1460,712,1,993,87,33580,0,65700,0,0,2,0,0
i,0x00000000,1720896050.985545,172.16.3.2,5101,172.16.1.2,34619,7500,14480,0,65728,65728,6,6,4,1460,712,1,992,87,33580,0,65700,0,0,2,0,0
o,0x00000000,1720896050.985557,172.16.3.2,5101,172.16.1.2,34619,7500,14480,0,65728,65728,6,6,4,1460,712,1,993,87,33580,0,65700,0,0,2,0,0
i,0x00000000,1720896050.991219,172.16.3.2,5101,172.16.1.2,34619,7500,14480,0,65728,65728,6,6,4,1460,712,1,992,87,33580,0,65700,0,0,2,0,0
o,0x00000000,1720896050.991253,172.16.3.2,5101,172.16.1.2,34619,7500,14480,0,65728,65728,6,6,4,1460,712,1,993,87,33580,0,65700,0,0,2,0,0
i,0x00000000,1720896051.002636,172.16.3.2,5101,172.16.1.2,34619,7500,14480,0,65728,65728,6,6,4,1460,712,1,992,87,33580,0,65700,0,0,2,0,0
o,0x00000000,1720896051.002673,172.16.3.2,5101,172.16.1.2,34619,7500,14480,0,65728,65728,6,6,4,1460,712,1,993,87,33580,0,65700,0,0,2,0,0
i,0x00000000,1720896051.015460,172.16.3.2,5101,172.16.1.2,34619,7500,14480,0,65728,65728,6,6,4,1460,712,1,992,87,33580,0,65700,0,0,2,0,0
o,0x00000000,1720896051.015472,172.16.3.2,5101,172.16.1.2,34619,7500,14480,0,65728,65728,6,6,4,1460,712,1,993,87,33580,0,65700,0,0,2,0,0
i,0x00000000,1720896051.024654,172.16.3.2,5101,172.16.1.2,34619,7500,14480,0,65728,65728,6,6,4,1460,712,1,992,87,33580,0,65700,0,0,2,0,0
o,0x00000000,1720896051.024689,172.16.3.2,5101,172.16.1.2,34619,7500,14480,0,65728,65728,6,6,4,1460,712,1,993,87,33580,0,65700,0,0,2,0,0
i,0x00000000,1720896051.103242,172.16.3.2,5101,172.16.1.2,34619,7500,14480,0,65728,65728,6,6,4,1460,712,1,992,87,33580,0,65700,0,0,2,0,0
o,0x00000000,1720896051.103279,172.16.3.2,5101,172.16.1.2,34619,7500,14480,0,65728,65728,6,6,4,1460,712,1,993,87,33580,0,65700,0,0,2,0,0
i,0x00000000,1720896051.114507,172.16.3.2,5101,172.16.1.2,34619,7500,14480,0,65728,65728,6,6,4,1460,712,1,992,87,33580,0,65700,0,0,2,0,0
o,0x00000000,1720896051.114532,172.16.3.2,5101,172.16.1.2,34619,7500,14480,0,65728,65728,6,6,4,1460,712,1,993,87,33580,0,65700,0,0,2,0,0
i,0x00000000,1720896051.121562,172.16.3.2,5101,172.16.1.2,34619,7500,14480,0,65728,65728,6,6,4,1460,712,1,992,87,33580,0,65700,0,0,2,0,0
o,0x00000000,1720896051.121590,172.16.3.2,5101,172.16.1.2,34619,7500,14480,0,65728,65728,6,6,4,1460,712,1,993,87,33580,0,65700,2896,0,1,0,0
i,0x00000000,1720896051.165569,172.16.3.2,5101,172.16.1.2,34619,7500,14480,0,65728,65728,6,6,4,1460,712,1,992,87,33580,0,65700,0,0,1,0,0
o,0x00000000,1720896051.165617,172.16.3.2,5101,172.16.1.2,34619,7500,14480,0,65728,65700,6,6,4,1460,712,1,993,87,33580,0,65700,14480,0,0,0,0
i,0x00000000,1720896051.170326,172.16.3.2,5101,172.16.1.2,34619,7500,14480,0,65728,65700,6,6,4,1460,712,1,992,87,33580,0,65700,0,0,0,0,0
o,0x00000000,1720896051.202897,172.16.3.2,5101,172.16.1.2,34619,7500,14480,0,65728,65700,6,6,4,1460,712,1,993,87,33580,0,65700,0,0,0,0,0
i,0x00000000,1720896051.239543,172.16.3.2,5101,172.16.1.2,34619,7500,14480,0,65728,65700,6,6,4,1460,712,1,992,87,33580,0,65700,0,0,0,0,0
i,0x00000000,1720896051.269797,172.16.3.2,5101,172.16.1.2,34619,7500,14480,0,65728,65700,6,6,4,1460,712,1,992,87,33580,0,65700,0,0,0,0,0
o,0x00000000,1720896051.269846,172.16.3.2,5101,172.16.1.2,34619,7500,14480,0,65728,65700,6,6,4,1460,712,1,993,87,33580,0,65700,1448,0,0,0,0
i,0x00000000,1720896051.276917,172.16.3.2,5101,172.16.1.2,34619,7500,14480,0,65728,65700,6,6,4,1460,712,1,992,87,33580,0,65700,0,0,0,0,0
o,0x00000000,1720896051.312760,172.16.3.2,5101,172.16.1.2,34619,7500,14480,0,65728,65700,6,6,4,1460,712,1,993,87,33580,0,65700,0,0,0,0,0
i,0x00000000,1720896051.333867,172.16.3.2,5101,172.16.1.2,34619,7500,14480,0,65728,65700,6,6,4,1460,712,1,992,87,33580,0,65700,0,0,0,0,0
i,0x00000000,1720896051.343483,172.16.3.2,5101,172.16.1.2,34619,7500,14480,0,65728,65700,6,6,4,1460,712,1,992,87,33580,0,65700,0,0,0,0,0
o,0x00000000,1720896051.343518,172.16.3.2,5101,172.16.1.2,34619,7500,14480,0,65728,65700,6,6,4,1460,712,1,993,87,33580,0,65700,1448,0,0,0,0
i,0x00000000,1720896051.361988,172.16.3.2,5101,172.16.1.2,34619,7500,14480,0,65728,65700,6,6,4,1460,712,1,992,87,33580,0,65700,0,0,0,0,0
o,0x00000000,1720896051.403027,172.16.3.2,5101,172.16.1.2,34619,7500,14480,0,65728,65700,6,6,4,1460,712,1,993,87,33580,0,65700,0,0,0,0,0
i,0x00000000,1720896051.412785,172.16.3.2,5101,172.16.1.2,34619,7500,14480,0,65728,65700,6,6,4,1460,712,1,992,87,33580,0,65700,0,0,0,0,0
i,0x00000000,1720896051.423096,172.16.3.2,5101,172.16.1.2,34619,7500,14480,0,65728,65700,6,6,4,1460,712,1,992,87,33580,0,65700,0,0,0,0,0
o,0x00000000,1720896051.423146,172.16.3.2,5101,172.16.1.2,34619,7500,14480,0,65728,65700,6,6,4,1460,712,1,993,87,33580,0,65700,1448,0,0,0,0
i,0x00000000,1720896051.475106,172.16.3.2,5101,172.16.1.2,34619,7500,14480,0,65728,65700,6,6,4,1460,712,1,992,87,33580,0,65700,0,0,0,0,0
i,0x00000000,1720896051.490101,172.16.3.2,5101,172.16.1.2,34619,7500,14480,0,65728,65700,6,6,4,1460,712,1,992,87,33580,0,65700,0,0,0,0,0
o,0x00000000,1720896051.490114,172.16.3.2,5101,172.16.1.2,34619,7500,14480,0,65728,65700,6,6,4,1460,712,1,993,87,33580,0,65700,1448,0,0,0,0
i,0x00000000,1720896051.530604,172.16.3.2,5101,172.16.1.2,34619,7500,14480,0,65728,65700,6,6,4,1460,712,1,992,87,33580,0,65700,0,0,0,0,0
o,0x00000000,1720896051.562950,172.16.3.2,5101,172.16.1.2,34619,7500,14480,0,65728,65700,6,6,4,1460,712,1,993,87,33580,0,65700,0,0,0,0,0
i,0x00000000,1720896051.571990,172.16.3.2,5101,172.16.1.2,34619,7500,14480,0,65728,65700,6,6,4,1460,712,1,992,87,33580,0,65700,0,0,0,0,0
i,0x00000000,1720896051.586146,172.16.3.2,5101,172.16.1.2,34619,7500,14480,0,65728,65700,6,6,4,1460,712,1,992,87,33580,0,65700,0,0,0,0,0
o,0x00000000,1720896051.586167,172.16.3.2,5101,172.16.1.2,34619,7500,14480,0,65728,65700,6,6,4,1460,712,1,993,87,33580,0,65700,1448,0,0,0,0
i,0x00000000,1720896051.592696,172.16.3.2,5101,172.16.1.2,34619,7500,14480,0,65728,65700,6,6,4,1460,712,1,992,87,33580,0,65700,0,0,0,0,0
i,0x00000000,1720896051.603346,172.16.3.2,5101,172.16.1.2,34619,7500,14480,0,65728,65700,6,6,4,1460,712,1,992,87,33580,0,65700,0,0,0,0,0
o,0x00000000,1720896051.603391,172.16.3.2,5101,172.16.1.2,34619,7500,14480,0,65728,65700,6,6,4,1460,712,1,993,87,33580,0,65700,1448,0,0,0,0
o,0x00000000,1720896051.694825,10.0.2.15,22,10.0.2.2,57021,1073725440,14600,0,65535,65700,0,0,4,1460,1,0,4,24,33580,108,65700,0,0,0,0,0
i,0x00000000,1720896051.698557,10.0.2.15,22,10.0.2.2,57021,1073725440,14600,0,65535,65700,0,0,4,1460,1,0,4,24,33580,108,65700,0,108,0,0,0
i,0x00000000,1720896051.717964,172.16.3.2,5101,172.16.1.2,34619,7500,14480,0,65728,65700,6,6,4,1460,712,1,992,87,33580,0,65700,0,0,0,0,0
i,0x00000000,1720896051.727850,172.16.3.2,5101,172.16.1.2,34619,7500,14480,0,65728,65700,6,6,4,1460,712,1,992,87,33580,0,65700,0,0,0,0,0
o,0x00000000,1720896051.727893,172.16.3.2,5101,172.16.1.2,34619,7500,14480,0,65728,65700,6,6,4,1460,712,1,993,87,33580,0,65700,1448,0,0,0,0
i,0x00000000,1720896051.762481,172.16.3.2,5101,172.16.1.2,34619,7500,14480,0,65728,65700,6,6,4,1460,712,1,992,87,33580,0,65700,0,0,0,0,0
i,0x00000000,1720896051.779251,172.16.3.2,5101,172.16.1.2,34619,7500,14480,0,65728,65700,6,6,4,1460,712,1,992,87,33580,0,65700,0,0,0,0,0
o,0x00000000,1720896051.779267,172.16.3.2,5101,172.16.1.2,34619,7500,14480,0,65728,65700,6,6,4,1460,712,1,993,87,33580,0,65700,1448,0,0,0,0
i,0x00000000,1720896051.781658,172.16.3.2,5101,172.16.1.2,34619,7500,14480,0,65728,65700,6,6,4,1460,712,1,992,87,33580,0,65700,0,0,0,0,0
i,0x00000000,1720896051.798487,172.16.3.2,5101,172.16.1.2,34619,7500,14480,0,65728,65700,6,6,4,1460,712,1,992,87,33580,0,65700,0,0,0,0,0
o,0x00000000,1720896051.798522,172.16.3.2,5101,172.16.1.2,34619,7500,14480,0,65728,65700,6,6,4,1460,712,1,993,87,33580,0,65700,1448,0,0,0,0
i,0x00000000,1720896051.814369,172.16.3.2,5101,172.16.1.2,34619,7500,14480,0,65728,65700,6,6,4,1460,712,1,992,87,33580,0,65700,0,0,0,0,0
i,0x00000000,1720896051.828633,172.16.3.2,5101,172.16.1.2,34619,7500,14480,0,65728,65700,6,6,4,1460,712,1,992,87,33580,0,65700,0,0,0,0,0
o,0x00000000,1720896051.828674,172.16.3.2,5101,172.16.1.2,34619,7500,14480,0,65728,65700,6,6,4,1460,712,1,993,87,33580,0,65700,1448,0,0,0,0
i,0x00000000,1720896051.952414,172.16.3.2,5101,172.16.1.2,34619,7500,14480,0,65728,65700,6,6,4,1460,712,1,992,87,33580,0,65700,0,0,0,0,0
i,0x00000000,1720896051.961916,172.16.3.2,5101,172.16.1.2,34619,7500,14480,0,65728,65700,6,6,4,1460,712,1,992,87,33580,0,65700,0,0,0,0,0
o,0x00000000,1720896051.961956,172.16.3.2,5101,172.16.1.2,34619,7500,14480,0,65728,65700,6,6,4,1460,712,1,993,87,33580,0,65700,1448,0,0,0,0
i,0x00000000,1720896051.988741,172.16.3.2,5101,172.16.1.2,34619,7500,14480,0,65728,65700,6,6,4,1460,712,1,992,87,33580,0,65700,0,0,0,0,0
i,0x00000000,1720896051.992043,172.16.3.2,5101,172.16.1.2,34619,7500,14480,0,65728,65700,6,6,4,1460,712,1,992,87,33580,0,65700,0,0,0,0,0
o,0x00000000,1720896051.992081,172.16.3.2,5101,172.16.1.2,34619,7500,14480,0,65728,65700,6,6,4,1460,712,1,993,87,33580,0,65700,1448,0,0,0,0
i,0x00000000,1720896052.003141,172.16.3.2,5101,172.16.1.2,34619,7500,14480,0,65728,65700,6,6,4,1460,712,1,992,87,33580,0,65700,0,0,0,0,0
i,0x00000000,1720896052.018636,172.16.3.2,5101,172.16.1.2,34619,7500,14480,0,65728,65700,6,6,4,1460,712,1,992,87,33580,0,65700,0,0,0,0,0
o,0x00000000,1720896052.018674,172.16.3.2,5101,172.16.1.2,34619,7500,14480,0,65728,65700,6,6,4,1460,712,1,993,87,33580,0,65700,1448,0,0,0,0
i,0x00000000,1720896052.020889,172.16.3.2,5101,172.16.1.2,34619,7500,14480,0,65728,65700,6,6,4,1460,712,1,992,87,33580,0,65700,0,0,0,0,0
o,0x00000000,1720896052.052290,172.16.3.2,5101,172.16.1.2,34619,7500,14480,0,65728,65700,6,6,4,1460,712,1,993,87,33580,0,65700,0,0,0,0,0
i,0x00000000,1720896052.091072,172.16.3.2,5101,172.16.1.2,34619,7500,14480,0,65728,65700,6,6,4,1460,712,1,992,87,33580,0,65700,0,0,0,0,0
i,0x00000000,1720896052.102636,172.16.3.2,5101,172.16.1.2,34619,7500,14480,0,65728,65700,6,6,4,1460,712,1,992,87,33580,0,65700,0,0,0,0,0
o,0x00000000,1720896052.102682,172.16.3.2,5101,172.16.1.2,34619,7500,14480,0,65728,65700,6,6,4,1460,712,1,993,87,33580,0,65700,1448,0,0,0,0
i,0x00000000,1720896052.215900,172.16.3.2,5101,172.16.1.2,34619,7500,14480,0,65728,65700,6,6,4,1460,712,1,992,87,33580,0,65700,0,0,0,0,0
i,0x00000000,1720896052.226416,172.16.3.2,5101,172.16.1.2,34619,7500,14480,0,65728,65700,6,6,4,1460,712,1,992,87,33580,0,65700,0,0,0,0,0
o,0x00000000,1720896052.226453,172.16.3.2,5101,172.16.1.2,34619,7500,14480,0,65728,65700,6,6,4,1460,712,1,993,87,33580,0,65700,1448,0,0,0,0
i,0x00000000,1720896052.262527,172.16.3.2,5101,172.16.1.2,34619,7500,14480,0,65728,65700,6,6,4,1460,712,1,992,87,33580,0,65700,0,0,0,0,0
i,0x00000000,1720896052.272588,172.16.3.2,5101,172.16.1.2,34619,7500,14480,0,65728,65700,6,6,4,1460,712,1,992,87,33580,0,65700,0,0,0,0,0
o,0x00000000,1720896052.272638,172.16.3.2,5101,172.16.1.2,34619,7500,14480,0,65728,65700,6,6,4,1460,712,1,993,87,33580,0,65700,1448,0,0,0,0
i,0x00000000,1720896052.282065,172.16.3.2,5101,172.16.1.2,34619,7500,14480,0,65728,65700,6,6,4,1460,712,1,992,87,33580,0,65700,0,0,0,0,0
i,0x00000000,1720896052.292003,172.16.3.2,5101,172.16.1.2,34619,7500,14480,0,65728,65700,6,6,4,1460,712,1,992,87,33580,0,65700,0,0,0,0,0
o,0x00000000,1720896052.292049,172.16.3.2,5101,172.16.1.2,34619,7500,14480,0,65728,65700,6,6,4,1460,712,1,993,87,33580,0,65700,1448,0,0,0,0
i,0x00000000,1720896052.321220,172.16.3.2,5101,172.16.1.2,34619,7500,14480,0,65728,65700,6,6,4,1460,712,1,992,87,33580,0,65700,0,0,0,0,0
i,0x00000000,1720896052.329027,172.16.3.2,5101,172.16.1.2,34619,7500,14480,0,65728,65700,6,6,4,1460,712,1,992,87,33580,0,65700,0,0,0,0,0
o,0x00000000,1720896052.329041,172.16.3.2,5101,172.16.1.2,34619,7500,14480,0,65728,65700,6,6,4,1460,712,1,993,87,33580,0,65700,1448,0,0,0,0
i,0x00000000,1720896052.339811,172.16.3.2,5101,172.16.1.2,34619,7500,14480,0,65728,65700,6,6,4,1460,712,1,992,87,33580,0,65700,0,0,0,0,0
o,0x00000000,1720896052.373176,172.16.3.2,5101,172.16.1.2,34619,7500,14480,0,65728,65700,6,6,4,1460,712,1,993,87,33580,0,65700,0,0,0,0,0
i,0x00000000,1720896052.442189,172.16.3.2,5101,172.16.1.2,34619,7500,14480,0,65728,65700,6,6,4,1460,712,1,992,87,33580,0,65700,0,0,0,0,0
o,0x00000000,1720896052.442233,172.16.3.2,5101,172.16.1.2,34619,7500,14480,0,65728,65728,6,6,4,1460,712,1,993,87,33580,0,65700,0,0,1,0,0
i,0x00000000,1720896052.453300,172.16.3.2,5101,172.16.1.2,34619,7500,14480,0,65728,65728,6,6,4,1460,712,1,992,87,33580,0,65700,0,0,1,0,0
o,0x00000000,1720896052.453341,172.16.3.2,5101,172.16.1.2,34619,7500,14480,0,65728,65728,6,6,4,1460,712,1,993,87,33580,0,65700,0,0,1,0,0
i,0x00000000,1720896052.496034,172.16.3.2,5101,172.16.1.2,34619,7500,14480,0,65728,65728,6,6,4,1460,712,1,992,87,33580,0,65700,0,0,1,0,0
