enable_time_secs=1717751198	enable_time_usecs=796323	siftrver=1.3.0	sysname=FreeBSD	sysver=1400097	ipmode=4
o,1717751198.796362,10.0.2.15,22,10.0.2.2,52561,1073725440,17386,1026,65535,65700,0,0,4,1460,312,0,16777220,240000,33580,44,65700,0,0,0,3615759168,63
o,1717751198.796467,10.0.2.15,22,10.0.2.2,52561,1073725440,17386,1026,65535,65700,0,0,4,1460,312,0,16809988,240000,33580,80,65700,0,44,0,3615759168,63
i,1717751198.796877,10.0.2.15,22,10.0.2.2,52561,1073725440,17386,1026,65535,65700,0,0,4,1460,312,0,16809988,240000,33580,80,65700,0,80,0,3615759168,63
i,1717751198.796881,10.0.2.15,22,10.0.2.2,52561,1073725440,17430,1026,65535,65700,0,0,4,1460,312,0,4,240000,33580,36,65700,0,36,0,3615759168,63
o,1717751198.796941,10.0.2.15,22,10.0.2.2,52561,1073725440,17466,1026,65535,65700,0,0,4,1460,312,0,16777220,240000,33580,36,65700,0,0,0,3615759168,63
i,1717751198.797342,10.0.2.15,22,10.0.2.2,52561,1073725440,17466,1026,65535,65700,0,0,4,1460,312,0,16809988,240000,33580,36,65700,0,36,0,3615759168,63
o,1717751198.797441,10.0.2.15,22,10.0.2.2,52561,1073725440,17502,1026,65535,65700,0,0,4,1460,312,0,16777220,240000,33580,36,65700,0,0,0,3615759168,63
i,1717751198.798171,10.0.2.15,22,10.0.2.2,52561,1073725440,17502,1026,65535,65700,0,0,4,1460,312,0,16809988,240000,33580,36,65700,0,36,0,3615759168,63
o,1717751198.798388,10.0.2.15,22,10.0.2.2,52561,1073725440,17538,1026,65535,65700,0,0,4,1460,312,0,16777220,240000,33580,140,65700,0,0,0,3615759168,63
i,1717751198.799024,10.0.2.15,22,10.0.2.2,52561,1073725440,17538,1026,65535,65700,0,0,4,1460,312,0,16809988,240000,33580,140,65700,0,140,0,3615759168,63
i,1717751198.799849,10.0.2.15,22,10.0.2.2,52561,1073725440,17678,1026,65535,65700,0,0,4,1460,312,0,4,240000,33580,0,65700,0,0,0,3615759168,63
i,1717751198.799855,10.0.2.15,22,10.0.2.2,52561,1073725440,17678,1026,65535,65700,0,0,4,1460,312,0,4,240000,33580,0,65700,96,0,0,3615759168,63
o,1717751198.799860,10.0.2.15,22,10.0.2.2,52561,1073725440,17678,1026,65535,65604,0,0,5,1460,312,0,5,240000,33580,0,65700,96,0,0,3615759168,63
o,1717751198.800408,10.0.2.15,22,10.0.2.2,52561,1073725440,17678,1026,65535,65604,0,0,8,1460,312,0,4,240000,33580,0,65700,0,0,0,3615759168,63
i,1717751198.801184,10.0.2.15,22,10.0.2.2,52561,1073725440,17678,1026,65535,65604,0,0,8,1460,312,0,20,240000,33580,0,65700,0,1,0,3615759168,63
i,1717751201.083064,10.0.2.15,22,10.0.2.2,52566,1073725440,14600,0,65535,65700,0,0,4,1460,312,0,16777216,270000,33580,0,65700,0,0,0,2395557506,63
o,1717751201.090289,10.0.2.15,22,10.0.2.2,52566,1073725440,14600,1026,65535,65700,0,0,4,1460,312,0,16777216,270000,33580,38,65700,41,0,0,2395557506,63
i,1717751201.091248,10.0.2.15,22,10.0.2.2,52566,1073725440,14600,1026,65535,65700,0,0,4,1460,312,0,16809984,270000,33580,38,65700,41,38,0,2395557506,63
i,1717751201.092007,10.0.2.15,22,10.0.2.2,52566,1073725440,14638,1026,65535,65700,0,0,4,1460,312,0,0,240000,33580,0,65700,0,0,0,2395557506,63
i,1717751201.092009,10.0.2.15,22,10.0.2.2,52566,1073725440,14638,1026,65535,65700,0,0,4,1460,312,0,0,240000,33580,0,65700,1460,0,0,2395557506,63
o,1717751201.092013,10.0.2.15,22,10.0.2.2,52566,1073725440,14638,1026,65535,65700,0,0,4,1460,312,0,1,240000,33580,0,65700,1536,0,0,2395557506,63
o,1717751201.092490,10.0.2.15,22,10.0.2.2,52566,1073725440,14638,1026,65535,65700,0,0,4,1460,312,0,16777216,240000,33580,1080,65700,1536,0,0,2395557506,63
i,1717751201.093151,10.0.2.15,22,10.0.2.2,52566,1073725440,14638,1026,65535,65700,0,0,4,1460,312,0,16809984,240000,33580,1080,65700,1536,1080,0,2395557506,63
i,1717751201.094714,10.0.2.15,22,10.0.2.2,52566,1073725440,15718,1026,65535,65700,0,0,4,1460,312,0,0,240000,33580,0,65700,0,0,0,2395557506,63
o,1717751201.097070,10.0.2.15,22,10.0.2.2,52566,1073725440,15718,1026,65535,65700,0,0,4,1460,312,0,16777216,240000,33580,548,65700,0,0,0,2395557506,63
i,1717751201.097806,10.0.2.15,22,10.0.2.2,52566,1073725440,15718,1026,65535,65700,0,0,4,1460,312,0,16809984,240000,33580,548,65700,0,548,0,2395557506,63
i,1717751201.102528,10.0.2.15,22,10.0.2.2,52566,1073725440,16266,1026,65535,65700,0,0,4,1460,312,0,0,240000,33580,0,65700,0,0,0,2395557506,63
i,1717751201.107092,10.0.2.15,22,10.0.2.2,52566,1073725440,16266,1026,65535,65700,0,0,4,1460,312,0,0,240000,33580,0,65700,0,0,0,2395557506,63
o,1717751201.107097,10.0.2.15,22,10.0.2.2,52566,1073725440,16266,1026,65535,65700,0,0,4,1460,312,0,1,240000,33580,0,65700,44,0,0,2395557506,63
o,1717751201.107237,10.0.2.15,22,10.0.2.2,52566,1073725440,16266,1026,65535,65700,0,0,4,1460,312,0,16777216,240000,33580,44,65700,0,0,0,2395557506,63
i,1717751201.108335,10.0.2.15,22,10.0.2.2,52566,1073725440,16266,1026,65535,65700,0,0,4,1460,312,0,16809984,240000,33580,44,65700,0,44,0,2395557506,63
i,1717751201.108339,10.0.2.15,22,10.0.2.2,52566,1073725440,16310,1026,65535,65700,0,0,4,1460,312,0,0,240000,33580,0,65700,0,0,0,2395557506,63
o,1717751201.109507,10.0.2.15,22,10.0.2.2,52566,1073725440,16310,1026,65535,65700,0,0,4,1460,312,0,16777216,240000,33580,68,65700,0,0,0,2395557506,63
i,1717751201.110179,10.0.2.15,22,10.0.2.2,52566,1073725440,16310,1026,65535,65700,0,0,4,1460,312,0,16809984,240000,33580,68,65700,0,68,0,2395557506,63
i,1717751201.112327,10.0.2.15,22,10.0.2.2,52566,1073725440,16378,1026,65535,65700,0,0,4,1460,312,0,0,240000,33580,0,65700,0,0,0,2395557506,63
o,1717751201.121851,10.0.2.15,22,10.0.2.2,52566,1073725440,16378,1026,65535,65700,0,0,4,1460,312,0,16777216,240000,33580,28,65700,0,0,0,2395557506,63
i,1717751201.122494,10.0.2.15,22,10.0.2.2,52566,1073725440,16378,1026,65535,65700,0,0,4,1460,312,0,16809984,240000,33580,28,65700,0,28,0,2395557506,63
i,1717751201.123027,10.0.2.15,22,10.0.2.2,52566,1073725440,16406,1026,65535,65700,0,0,4,1460,312,0,0,240000,33580,0,65700,0,0,0,2395557506,63
o,1717751201.123703,10.0.2.15,22,10.0.2.2,52566,1073725440,16406,1026,65535,65700,0,0,4,1460,312,0,16777216,240000,33580,768,65700,112,0,0,2395557506,63
i,1717751201.124156,10.0.2.15,22,10.0.2.2,52566,1073725440,16406,1026,65535,65700,0,0,4,1460,312,0,16809984,240000,33580,768,65700,112,768,0,2395557506,63
o,1717751201.124317,10.0.2.15,22,10.0.2.2,52566,1073725440,17174,1026,65535,65700,0,0,4,1460,312,0,16777216,240000,33580,44,65700,0,0,0,2395557506,63
i,1717751201.124812,10.0.2.15,22,10.0.2.2,52566,1073725440,17174,1026,65535,65700,0,0,4,1460,312,0,16809984,240000,33580,44,65700,0,44,0,2395557506,63
i,1717751201.125738,10.0.2.15,22,10.0.2.2,52566,1073725440,17218,1026,65535,65700,0,0,4,1460,312,0,0,230000,33580,0,65700,0,0,0,2395557506,63
o,1717751201.126017,10.0.2.15,22,10.0.2.2,52566,1073725440,17218,1026,65535,65700,0,0,4,1460,312,0,16777220,230000,33580,72,65700,0,0,0,2395557506,63
i,1717751201.126718,10.0.2.15,22,10.0.2.2,52566,1073725440,17218,1026,65535,65700,0,0,4,1460,312,0,16809988,230000,33580,72,65700,0,72,0,2395557506,63
o,1717751201.128343,10.0.2.15,22,10.0.2.2,52566,1073725440,17290,1026,65535,65700,0,0,4,1460,312,0,16777220,230000,33580,76,65700,0,0,0,2395557506,63
i,1717751201.128913,10.0.2.15,22,10.0.2.2,52566,1073725440,17290,1026,65535,65700,0,0,4,1460,312,0,16809988,230000,33580,76,65700,0,76,0,2395557506,63
o,1717751201.129017,10.0.2.15,22,10.0.2.2,52566,1073725440,17366,1026,65535,65700,0,0,4,1460,312,0,16777220,230000,33580,36,65700,0,0,0,2395557506,63
i,1717751201.129678,10.0.2.15,22,10.0.2.2,52566,1073725440,17366,1026,65535,65700,0,0,4,1460,312,0,16809988,230000,33580,36,65700,0,36,0,2395557506,63
o,1717751201.129772,10.0.2.15,22,10.0.2.2,52566,1073725440,17402,1026,65535,65700,0,0,4,1460,312,0,16777220,230000,33580,140,65700,0,0,0,2395557506,63
i,1717751201.130601,10.0.2.15,22,10.0.2.2,52566,1073725440,17402,1026,65535,65700,0,0,4,1460,312,0,16809988,230000,33580,140,65700,0,140,0,2395557506,63
i,1717751201.131560,10.0.2.15,22,10.0.2.2,52566,1073725440,17542,1026,65535,65700,0,0,4,1460,312,0,4,240000,33580,0,65700,0,0,0,2395557506,63
i,1717751201.131562,10.0.2.15,22,10.0.2.2,52566,1073725440,17542,1026,65535,65700,0,0,4,1460,312,0,4,240000,33580,0,65700,36,0,0,2395557506,63
o,1717751201.131564,10.0.2.15,22,10.0.2.2,52566,1073725440,17542,1026,65535,65700,0,0,4,1460,312,0,5,240000,33580,0,65700,96,0,0,2395557506,63
i,1717751201.131638,10.0.2.15,22,10.0.2.2,52566,1073725440,17542,1026,65535,65700,0,0,4,1460,312,0,4,240000,33580,0,65700,96,0,0,2395557506,63
o,1717751201.131641,10.0.2.15,22,10.0.2.2,52566,1073725440,17542,1026,65535,65604,0,0,5,1460,312,0,7,240000,33580,0,65700,96,0,0,2395557506,63
o,1717751201.132253,10.0.2.15,22,10.0.2.2,52566,1073725440,17542,1026,65535,65604,0,0,8,1460,312,0,4,240000,33580,0,65700,0,0,0,2395557506,63
i,1717751201.132824,10.0.2.15,22,10.0.2.2,52566,1073725440,17542,1026,65535,65604,0,0,8,1460,312,0,67108884,240000,33580,0,65700,0,1,0,2395557506,63
i,1717751202.204885,10.0.2.15,22,10.0.2.2,52570,1073725440,14600,0,65535,65700,0,0,4,1460,312,0,16777216,270000,33580,0,65700,0,0,0,4068935567,63
o,1717751202.209987,10.0.2.15,22,10.0.2.2,52570,1073725440,14600,1026,65535,65700,0,0,4,1460,312,0,16777216,270000,33580,38,65700,41,0,0,4068935567,63
i,1717751202.210535,10.0.2.15,22,10.0.2.2,52570,1073725440,14600,1026,65535,65700,0,0,4,1460,312,0,16809984,270000,33580,38,65700,0,38,0,4068935567,63
o,1717751202.211416,10.0.2.15,22,10.0.2.2,52570,1073725440,14638,1026,65535,65700,0,0,4,1460,312,0,16777216,240000,33580,1080,65700,0,0,0,4068935567,63
i,1717751202.211885,10.0.2.15,22,10.0.2.2,52570,1073725440,14638,1026,65535,65700,0,0,4,1460,312,0,16809984,240000,33580,1080,65700,0,1080,0,4068935567,63
i,1717751202.217804,10.0.2.15,22,10.0.2.2,52570,1073725440,15718,1026,65535,65700,0,0,4,1460,312,0,0,240000,33580,0,65700,0,0,0,4068935567,63
i,1717751202.217810,10.0.2.15,22,10.0.2.2,52570,1073725440,15718,1026,65535,65700,0,0,4,1460,312,0,0,240000,33580,0,65700,1460,0,0,4068935567,63
o,1717751202.217814,10.0.2.15,22,10.0.2.2,52570,1073725440,15718,1026,65535,65700,0,0,4,1460,312,0,1,240000,33580,0,65700,1536,0,0,4068935567,63
i,1717751202.220032,10.0.2.15,22,10.0.2.2,52570,1073725440,15718,1026,65535,65700,0,0,4,1460,312,0,0,240000,33580,0,65700,0,0,0,4068935567,63
o,1717751202.222414,10.0.2.15,22,10.0.2.2,52570,1073725440,15718,1026,65535,65700,0,0,4,1460,312,0,16777216,240000,33580,548,65700,0,0,0,4068935567,63
i,1717751202.223258,10.0.2.15,22,10.0.2.2,52570,1073725440,15718,1026,65535,65700,0,0,4,1460,312,0,16809984,240000,33580,548,65700,0,548,0,4068935567,63
i,1717751202.227945,10.0.2.15,22,10.0.2.2,52570,1073725440,16266,1026,65535,65700,0,0,4,1460,312,0,0,240000,33580,0,65700,0,0,0,4068935567,63
i,1717751202.231624,10.0.2.15,22,10.0.2.2,52570,1073725440,16266,1026,65535,65700,0,0,4,1460,312,0,0,240000,33580,0,65700,0,0,0,4068935567,63
o,1717751202.231630,10.0.2.15,22,10.0.2.2,52570,1073725440,16266,1026,65535,65700,0,0,4,1460,312,0,1,240000,33580,0,65700,44,0,0,4068935567,63
o,1717751202.231785,10.0.2.15,22,10.0.2.2,52570,1073725440,16266,1026,65535,65700,0,0,4,1460,312,0,16777216,240000,33580,44,65700,0,0,0,4068935567,63
i,1717751202.232447,10.0.2.15,22,10.0.2.2,52570,1073725440,16266,1026,65535,65700,0,0,4,1460,312,0,16809984,240000,33580,44,65700,0,44,0,4068935567,63
i,1717751202.233131,10.0.2.15,22,10.0.2.2,52570,1073725440,16310,1026,65535,65700,0,0,4,1460,312,0,0,240000,33580,0,65700,0,0,0,4068935567,63
o,1717751202.234056,10.0.2.15,22,10.0.2.2,52570,1073725440,16310,1026,65535,65700,0,0,4,1460,312,0,16777216,240000,33580,68,65700,0,0,0,4068935567,63
i,1717751202.236036,10.0.2.15,22,10.0.2.2,52570,1073725440,16310,1026,65535,65700,0,0,4,1460,312,0,16809984,240000,33580,68,65700,0,68,0,4068935567,63
i,1717751202.239586,10.0.2.15,22,10.0.2.2,52570,1073725440,16378,1026,65535,65700,0,0,4,1460,312,0,0,230000,33580,0,65700,0,0,0,4068935567,63
o,1717751202.249665,10.0.2.15,22,10.0.2.2,52570,1073725440,16378,1026,65535,65700,0,0,4,1460,312,0,16777216,230000,33580,28,65700,0,0,0,4068935567,63
i,1717751202.250595,10.0.2.15,22,10.0.2.2,52570,1073725440,16378,1026,65535,65700,0,0,4,1460,312,0,16809984,230000,33580,28,65700,0,28,0,4068935567,63
i,1717751202.251490,10.0.2.15,22,10.0.2.2,52570,1073725440,16406,1026,65535,65700,0,0,4,1460,312,0,0,230000,33580,0,65700,0,0,0,4068935567,63
o,1717751202.252309,10.0.2.15,22,10.0.2.2,52570,1073725440,16406,1026,65535,65700,0,0,4,1460,312,0,16777216,230000,33580,768,65700,112,0,0,4068935567,63
i,1717751202.252999,10.0.2.15,22,10.0.2.2,52570,1073725440,16406,1026,65535,65700,0,0,4,1460,312,0,16809984,230000,33580,768,65700,112,768,0,4068935567,63
o,1717751202.253187,10.0.2.15,22,10.0.2.2,52570,1073725440,17174,1026,65535,65700,0,0,4,1460,312,0,16777216,230000,33580,44,65700,0,0,0,4068935567,63
i,1717751202.253743,10.0.2.15,22,10.0.2.2,52570,1073725440,17174,1026,65535,65700,0,0,4,1460,312,0,16809984,230000,33580,44,65700,0,44,0,4068935567,63
i,1717751202.254838,10.0.2.15,22,10.0.2.2,52570,1073725440,17218,1026,65535,65700,0,0,4,1460,312,0,0,230000,33580,0,65700,0,0,0,4068935567,63
o,1717751202.255204,10.0.2.15,22,10.0.2.2,52570,1073725440,17218,1026,65535,65700,0,0,4,1460,312,0,16777220,230000,33580,72,65700,0,0,0,4068935567,63
i,1717751202.255843,10.0.2.15,22,10.0.2.2,52570,1073725440,17218,1026,65535,65700,0,0,4,1460,312,0,16809988,230000,33580,72,65700,0,72,0,4068935567,63
i,1717751202.256319,10.0.2.15,22,10.0.2.2,52570,1073725440,17290,1026,65535,65700,0,0,4,1460,312,0,4,240000,33580,0,65700,0,0,0,4068935567,63
o,1717751202.278471,172.16.1.2,37695,172.16.3.2,5101,17156,14480,2,65535,65700,6,6,4,1460,164062,1,16778209,810000,33580,0,65700,0,0,0,2216075742,63
o,1717751202.278641,172.16.1.2,37695,172.16.3.2,5101,17156,14480,2,65535,65700,6,6,4,1460,164062,1,16778212,810000,33580,37,65700,0,0,0,2216075742,63
o,1717751202.294722,10.0.2.15,22,10.0.2.2,52570,1073725440,17290,1026,65535,65700,0,0,4,1460,312,0,5,240000,33580,0,65700,0,0,0,4068935567,63
i,1717751202.299340,172.16.1.2,37695,172.16.3.2,5101,17156,14480,2,65535,65700,6,6,4,1460,164062,1,16810980,810000,33580,37,65700,0,37,0,2216075742,63
o,1717751202.299522,172.16.1.2,37695,172.16.3.2,5101,17156,14517,1026,65728,65728,6,6,4,1460,145000,1,16778212,840000,33580,4,65700,0,0,0,2216075742,63
o,1717751202.299612,172.16.1.2,37695,172.16.3.2,5101,17156,14517,1026,65728,65728,6,6,4,1460,145000,1,16810980,840000,33580,128,65700,0,4,0,2216075742,63
i,1717751202.318926,172.16.1.2,37695,172.16.3.2,5101,17156,14517,1026,65728,65728,6,6,4,1460,145000,1,16810980,840000,33580,128,65700,0,128,0,2216075742,63
i,1717751202.319207,172.16.1.2,37695,172.16.3.2,5101,17156,14645,1026,65600,65728,6,6,4,1460,129375,1,996,820000,33580,0,65700,0,0,0,2216075742,63
o,1717751202.338594,172.16.1.2,45495,172.16.3.2,5101,17156,14480,2,65535,65700,6,6,4,1460,164062,1,16778209,810000,33580,0,65700,0,0,0,3442840322,63
o,1717751202.338950,172.16.1.2,45495,172.16.3.2,5101,17156,14480,2,65535,65700,6,6,4,1460,164062,1,16778208,810000,33580,37,65700,0,0,0,3442840322,63
o,1717751202.355900,172.16.1.2,37695,172.16.3.2,5101,17156,14645,1026,65728,65728,6,6,4,1460,129375,1,997,820000,33580,0,65700,0,0,0,2216075742,63
i,1717751202.358816,172.16.1.2,37695,172.16.3.2,5101,17156,14645,1026,65728,65728,6,6,4,1460,129375,1,996,820000,33580,0,65700,0,0,0,2216075742,63
i,1717751202.358823,172.16.1.2,37695,172.16.3.2,5101,17156,14645,1026,65728,65728,6,6,4,1460,129375,1,996,820000,33580,0,65700,1,0,0,2216075742,63
o,1717751202.358828,172.16.1.2,37695,172.16.3.2,5101,17156,14645,1026,65728,65728,6,6,4,1460,129375,1,997,820000,33580,0,65700,2,0,0,2216075742,63
o,1717751202.359070,172.16.1.2,45495,172.16.3.2,5101,17156,14480,6,65535,65700,6,6,4,1460,164062,1,16810976,810000,33580,33580,65700,0,37,0,3442840322,63
i,1717751202.379051,172.16.1.2,45495,172.16.3.2,5101,17156,14480,6,65535,65700,6,6,4,1460,164062,1,16810976,810000,33580,33580,65700,0,13069,0,3442840322,63
o,1717751202.379062,172.16.1.2,45495,172.16.3.2,5101,17156,15965,6,64256,65728,6,6,4,1460,147500,1,16778208,820000,33580,32095,65700,0,11584,0,3442840322,63
o,1717751202.379369,172.16.1.2,45495,172.16.3.2,5101,17156,15965,6,64256,65728,6,6,4,1460,147500,1,16810976,820000,33580,32095,65700,0,13032,0,3442840322,63
i,1717751202.380486,172.16.1.2,45495,172.16.3.2,5101,17156,15965,6,64256,65728,6,6,4,1460,147500,1,16810976,820000,33580,32095,65700,0,15928,0,3442840322,63
o,1717751202.380494,172.16.1.2,45495,172.16.3.2,5101,17156,18861,6,62848,65728,6,6,4,1460,130312,1,16810976,820000,33580,29199,65700,0,13032,0,3442840322,63
i,1717751202.408208,172.16.1.2,45495,172.16.3.2,5101,17156,18861,6,62848,65728,6,6,4,1460,130312,1,16810976,820000,41772,41772,65700,0,18824,0,3442840322,63
o,1717751202.408216,172.16.1.2,45495,172.16.3.2,5101,17156,21757,6,64256,65728,6,6,4,1460,120312,1,16810976,770000,41772,38876,65700,0,15928,0,3442840322,63
i,1717751202.409420,172.16.1.2,45495,172.16.3.2,5101,17156,21757,6,64256,65728,6,6,4,1460,120312,1,16810976,770000,49964,49964,65700,0,21720,0,3442840322,63
o,1717751202.409428,172.16.1.2,45495,172.16.3.2,5101,17156,24653,6,64256,65728,6,6,4,1460,111562,1,16810976,720000,49964,47068,65700,0,18824,0,3442840322,63
i,1717751202.429059,172.16.1.2,45495,172.16.3.2,5101,17156,24653,6,64256,65728,6,6,4,1460,111562,1,16810976,720000,58156,58156,65700,0,24616,0,3442840322,63
o,1717751202.429069,172.16.1.2,45495,172.16.3.2,5101,17156,27549,6,64256,65728,6,6,4,1460,105312,1,16810976,660000,58156,55260,65700,0,21720,0,3442840322,63
i,1717751202.430293,172.16.1.2,45495,172.16.3.2,5101,17156,27549,6,64256,65728,6,6,4,1460,105312,1,16810976,660000,58156,58156,65700,0,27512,0,3442840322,63
o,1717751202.430300,172.16.1.2,45495,172.16.3.2,5101,17156,30445,6,62848,65728,6,6,4,1460,98437,1,16810976,620000,58156,55260,65700,0,24616,0,3442840322,63
o,1717751202.430537,172.16.1.2,45495,172.16.3.2,5101,17156,30445,6,62848,65728,6,6,4,1460,98437,1,16810976,620000,66348,55260,65700,0,26064,0,3442840322,63
i,1717751202.448629,172.16.1.2,45495,172.16.3.2,5101,17156,30445,6,62848,65728,6,6,4,1460,98437,1,16810976,620000,66348,66348,65700,0,30408,0,3442840322,63
o,1717751202.448634,172.16.1.2,45495,172.16.3.2,5101,17156,30445,6,62848,65728,6,6,4,1460,93750,1,16810976,570000,66348,63452,65700,0,27512,0,3442840322,63
i,1717751202.468571,172.16.1.2,45495,172.16.3.2,5101,17156,30445,6,62848,65728,6,6,4,1460,93750,1,16810976,570000,66348,66348,65700,0,30408,0,3442840322,63
o,1717751202.468586,172.16.1.2,45495,172.16.3.2,5101,17156,30445,6,64256,65728,6,6,4,1460,93437,1,16810976,500000,66348,63452,65700,0,27512,0,3442840322,63
i,1717751202.469833,172.16.1.2,45495,172.16.3.2,5101,17156,30445,6,64256,65728,6,6,4,1460,93437,1,16810976,500000,66348,66348,65700,0,30408,0,3442840322,63
o,1717751202.469838,172.16.1.2,45495,172.16.3.2,5101,17156,30445,6,64256,65728,6,6,4,1460,93125,1,16810976,450000,66348,63452,65700,0,27512,0,3442840322,63
i,1717751202.488222,172.16.1.2,45495,172.16.3.2,5101,17156,30445,6,64256,65728,6,6,4,1460,93125,1,16810976,450000,66348,66348,65700,0,30408,0,3442840322,63
o,1717751202.488229,172.16.1.2,45495,172.16.3.2,5101,17156,30445,6,64256,65728,6,6,4,1460,90312,1,16810976,430000,66348,63452,65700,0,27512,0,3442840322,63
i,1717751202.489363,172.16.1.2,45495,172.16.3.2,5101,17156,30445,6,64256,65728,6,6,4,1460,90312,1,16810976,430000,66348,66348,65700,0,30408,0,3442840322,63
o,1717751202.489369,172.16.1.2,45495,172.16.3.2,5101,17156,30445,6,62848,65728,6,6,4,1460,87812,1,16778208,420000,66348,63452,65700,0,27512,0,3442840322,63
i,1717751202.508543,172.16.1.2,45495,172.16.3.2,5101,17156,30445,6,62848,65728,6,6,4,1460,87812,1,16810976,420000,66348,66348,65700,0,30408,0,3442840322,63
o,1717751202.508554,172.16.1.2,45495,172.16.3.2,5101,17156,30445,6,62848,65728,6,6,4,1460,89375,1,16810976,400000,66348,63452,65700,0,27512,0,3442840322,63
i,1717751202.528310,172.16.1.2,45495,172.16.3.2,5101,17156,30445,6,62848,65728,6,6,4,1460,89375,1,16810976,400000,66348,66348,65700,0,30408,0,3442840322,63
o,1717751202.528320,172.16.1.2,45495,172.16.3.2,5101,17156,30445,6,64256,65728,6,6,4,1460,92187,1,16810976,390000,66348,63452,65700,0,27512,0,3442840322,63
i,1717751202.529429,172.16.1.2,45495,172.16.3.2,5101,17156,30445,6,64256,65728,6,6,4,1460,92187,1,16810976,390000,66348,66348,65700,0,30408,0,3442840322,63
o,1717751202.529434,172.16.1.2,45495,172.16.3.2,5101,17156,30445,6,64256,65728,6,6,4,1460,93437,1,16810976,380000,66348,63452,65700,0,27512,0,3442840322,63
i,1717751202.549876,172.16.1.2,45495,172.16.3.2,5101,17156,30445,6,64256,65728,6,6,4,1460,93437,1,16810976,380000,66348,66348,65700,0,30408,0,3442840322,63
o,1717751202.549884,172.16.1.2,45495,172.16.3.2,5101,17156,30445,6,64256,65728,6,6,4,1460,96875,1,16810976,390000,66348,63452,65700,0,27512,0,3442840322,63
o,1717751202.550206,172.16.1.2,45495,172.16.3.2,5101,17156,30445,6,64256,65728,6,6,4,1460,96875,1,16810976,390000,66348,63452,65700,0,28960,0,3442840322,63
i,1717751202.551325,172.16.1.2,45495,172.16.3.2,5101,17156,30445,6,64256,65728,6,6,4,1460,96875,1,16810976,390000,66348,66348,65700,0,30408,0,3442840322,63
o,1717751202.551333,172.16.1.2,45495,172.16.3.2,5101,17156,30445,6,62848,65728,6,6,4,1460,100000,1,16810976,400000,66348,63452,65700,0,27512,0,3442840322,63
i,1717751202.568520,172.16.1.2,45495,172.16.3.2,5101,17156,30445,6,62848,65728,6,6,4,1460,100000,1,16810976,400000,66348,66348,65700,0,30408,0,3442840322,63
o,1717751202.568525,172.16.1.2,45495,172.16.3.2,5101,17156,30445,6,62848,65728,6,6,4,1460,105000,1,16810976,420000,66348,63452,65700,0,27512,0,3442840322,63
i,1717751202.588253,172.16.1.2,45495,172.16.3.2,5101,17156,30445,6,62848,65728,6,6,4,1460,105000,1,16810976,420000,66348,66348,65700,0,30408,0,3442840322,63
o,1717751202.588266,172.16.1.2,45495,172.16.3.2,5101,17156,30445,6,64256,65728,6,6,4,1460,109375,1,16810976,430000,66348,63452,65700,0,27512,0,3442840322,63
i,1717751202.589441,172.16.1.2,45495,172.16.3.2,5101,17156,30445,6,64256,65728,6,6,4,1460,109375,1,16810976,430000,66348,66348,65700,0,30408,0,3442840322,63
o,1717751202.589447,172.16.1.2,45495,172.16.3.2,5101,17156,30445,6,64256,65728,6,6,4,1460,110937,1,16810976,410000,66348,63452,65700,0,27512,0,3442840322,63
i,1717751202.608949,172.16.1.2,45495,172.16.3.2,5101,17156,30445,6,64256,65728,6,6,4,1460,110937,1,16810976,410000,66348,66348,65700,0,30408,0,3442840322,63
o,1717751202.608956,172.16.1.2,45495,172.16.3.2,5101,17156,30445,6,64256,65728,6,6,4,1460,113437,1,16810976,410000,66348,63452,65700,0,27512,0,3442840322,63
i,1717751202.610408,172.16.1.2,45495,172.16.3.2,5101,17156,30445,6,64256,65728,6,6,4,1460,113437,1,16810976,410000,66348,66348,65700,0,30408,0,3442840322,63
o,1717751202.610415,172.16.1.2,45495,172.16.3.2,5101,17156,30445,6,62848,65728,6,6,4,1460,113125,1,16810976,390000,66348,63452,65700,0,27512,0,3442840322,63
i,1717751202.628711,172.16.1.2,45495,172.16.3.2,5101,17156,30445,6,62848,65728,6,6,4,1460,113125,1,16810976,390000,66348,66348,65700,0,30408,0,3442840322,63
o,1717751202.628717,172.16.1.2,45495,172.16.3.2,5101,17156,30445,6,62848,65728,6,6,4,1460,116562,1,16810976,400000,66348,63452,65700,0,27512,0,3442840322,63
i,1717751202.648589,172.16.1.2,45495,172.16.3.2,5101,17156,30445,6,62848,65728,6,6,4,1460,116562,1,16810976,400000,66348,66348,65700,0,30408,0,3442840322,63
o,1717751202.648598,172.16.1.2,45495,172.16.3.2,5101,17156,30445,6,64256,65728,6,6,4,1460,119687,1,16810976,410000,66348,63452,65700,0,27512,0,3442840322,63
i,1717751202.649843,172.16.1.2,45495,172.16.3.2,5101,17156,30445,6,64256,65728,6,6,4,1460,119687,1,16810976,410000,66348,65912,65700,0,30408,0,3442840322,63
o,1717751202.649853,172.16.1.2,45495,172.16.3.2,5101,17156,30445,6,64256,65728,6,6,4,1460,120000,1,16810976,390000,66348,63016,65700,0,27512,0,3442840322,63
i,1717751202.668519,172.16.1.2,45495,172.16.3.2,5101,17156,30445,6,64256,65728,6,6,4,1460,120000,1,16810976,390000,66348,66348,65700,0,30408,0,3442840322,63
o,1717751202.668528,172.16.1.2,45495,172.16.3.2,5101,17156,30445,6,64256,65728,6,6,4,1460,122500,1,16810976,390000,66348,63452,65700,0,27512,0,3442840322,63
o,1717751202.668834,172.16.1.2,45495,172.16.3.2,5101,17156,30445,6,64256,65728,6,6,4,1460,122500,1,16810976,390000,66348,63452,65700,0,28960,0,3442840322,63
i,1717751202.669797,172.16.1.2,45495,172.16.3.2,5101,17156,30445,6,64256,65728,6,6,4,1460,122500,1,16810976,390000,66348,66348,65700,0,30408,0,3442840322,63
o,1717751202.669804,172.16.1.2,45495,172.16.3.2,5101,17156,30445,6,62848,65728,6,6,4,1460,122187,1,16810976,380000,66348,63452,65700,0,27512,0,3442840322,63
i,1717751202.688061,172.16.1.2,45495,172.16.3.2,5101,17156,30445,6,62848,65728,6,6,4,1460,122187,1,16810976,380000,66348,66348,65700,0,30408,0,3442840322,63
o,1717751202.688070,172.16.1.2,45495,172.16.3.2,5101,17156,30445,6,62848,65728,6,6,4,1460,124687,1,16810976,380000,66348,63452,65700,0,27512,0,3442840322,63
i,1717751202.707870,172.16.1.2,45495,172.16.3.2,5101,17156,30445,6,62848,65728,6,6,4,1460,124687,1,16810976,380000,66348,66348,65700,0,30408,0,3442840322,63
o,1717751202.707896,172.16.1.2,45495,172.16.3.2,5101,17156,30445,6,64256,65728,6,6,4,1460,126875,1,16810976,390000,66348,63452,65700,0,27512,0,3442840322,63
i,1717751202.709041,172.16.1.2,45495,172.16.3.2,5101,17156,30445,6,64256,65728,6,6,4,1460,126875,1,16810976,390000,66348,66348,65700,0,30408,0,3442840322,63
o,1717751202.709049,172.16.1.2,45495,172.16.3.2,5101,17156,30445,6,64256,65728,6,6,4,1460,125000,1,16810976,390000,66348,63452,65700,0,27512,0,3442840322,63
i,1717751202.728646,172.16.1.2,45495,172.16.3.2,5101,17156,30445,6,64256,65728,6,6,4,1460,125000,1,16810976,390000,66348,66348,65700,0,30408,0,3442840322,63
o,1717751202.728671,172.16.1.2,45495,172.16.3.2,5101,17156,30445,6,64256,65728,6,6,4,1460,126875,1,16810976,390000,66348,63452,65700,0,27512,0,3442840322,63
i,1717751202.729786,172.16.1.2,45495,172.16.3.2,5101,17156,30445,6,64256,65728,6,6,4,1460,126875,1,16810976,390000,66348,66348,65700,0,30408,0,3442840322,63
o,1717751202.729796,172.16.1.2,45495,172.16.3.2,5101,17156,30445,6,62848,65728,6,6,4,1460,126250,1,16810976,380000,66348,63452,65700,0,27512,0,3442840322,63
i,1717751202.748498,172.16.1.2,45495,172.16.3.2,5101,17156,30445,6,62848,65728,6,6,4,1460,126250,1,16810976,380000,66348,66348,65700,0,30408,0,3442840322,63
o,1717751202.748512,172.16.1.2,45495,172.16.3.2,5101,17156,30445,6,62848,65728,6,6,4,1460,128125,1,16778208,380000,66348,63452,65700,0,27512,0,3442840322,63
i,1717751202.768386,172.16.1.2,45495,172.16.3.2,5101,17156,30445,6,62848,65728,6,6,4,1460,128125,1,16810976,380000,66348,66348,65700,0,30408,0,3442840322,63
o,1717751202.768394,172.16.1.2,45495,172.16.3.2,5101,17156,30445,6,64256,65728,6,6,4,1460,128437,1,16810976,370000,66348,63452,65700,0,27512,0,3442840322,63
i,1717751202.769538,172.16.1.2,45495,172.16.3.2,5101,17156,30445,6,64256,65728,6,6,4,1460,128437,1,16810976,370000,66348,66348,65700,0,30408,0,3442840322,63
o,1717751202.769544,172.16.1.2,45495,172.16.3.2,5101,17156,30445,6,64256,65728,6,6,4,1460,126250,1,16810976,380000,66348,63452,65700,0,27512,0,3442840322,63
i,1717751202.788370,172.16.1.2,45495,172.16.3.2,5101,17156,30445,6,64256,65728,6,6,4,1460,126250,1,16810976,380000,66348,66348,65700,0,30408,0,3442840322,63
o,1717751202.788378,172.16.1.2,45495,172.16.3.2,5101,17156,30445,6,64256,65728,6,6,4,1460,128125,1,16810976,380000,66348,63452,65700,0,27512,0,3442840322,63
o,1717751202.788684,172.16.1.2,45495,172.16.3.2,5101,17156,30445,6,64256,65728,6,6,4,1460,128125,1,16810976,380000,66348,63452,65700,0,28960,0,3442840322,63
i,1717751202.789577,172.16.1.2,45495,172.16.3.2,5101,17156,30445,6,64256,65728,6,6,4,1460,128125,1,16810976,380000,66348,66348,65700,0,30408,0,3442840322,63
o,1717751202.789583,172.16.1.2,45495,172.16.3.2,5101,17156,30445,6,62848,65728,6,6,4,1460,127187,1,16810976,370000,66348,63452,65700,0,27512,0,3442840322,63
i,1717751202.809168,172.16.1.2,45495,172.16.3.2,5101,17156,30445,6,62848,65728,6,6,4,1460,127187,1,16810976,370000,66348,66348,65700,0,30408,0,3442840322,63
o,1717751202.809174,172.16.1.2,45495,172.16.3.2,5101,17156,30445,6,62848,65728,6,6,4,1460,127812,1,16810976,370000,66348,63452,65700,0,27512,0,3442840322,63
i,1717751202.828056,172.16.1.2,45495,172.16.3.2,5101,17156,30445,6,62848,65728,6,6,4,1460,127812,1,16810976,370000,66348,66348,65700,0,30408,0,3442840322,63
o,1717751202.828065,172.16.1.2,45495,172.16.3.2,5101,17156,30445,6,64256,65728,6,6,4,1460,129375,1,16810976,370000,66348,63452,65700,0,27512,0,3442840322,63
i,1717751202.829253,172.16.1.2,45495,172.16.3.2,5101,17156,30445,6,64256,65728,6,6,4,1460,129375,1,16810976,370000,66348,66348,65700,0,30408,0,3442840322,63
o,1717751202.829259,172.16.1.2,45495,172.16.3.2,5101,17156,30445,6,64256,65728,6,6,4,1460,128437,1,16810976,370000,66348,63452,65700,0,27512,0,3442840322,63
i,1717751202.847784,172.16.1.2,45495,172.16.3.2,5101,17156,30445,6,64256,65728,6,6,4,1460,128437,1,16810976,370000,66348,66348,65700,0,30408,0,3442840322,63
o,1717751202.847796,172.16.1.2,45495,172.16.3.2,5101,17156,30445,6,64256,65728,6,6,4,1460,130000,1,16810976,370000,66348,63452,65700,0,27512,0,3442840322,63
i,1717751202.849107,172.16.1.2,45495,172.16.3.2,5101,17156,30445,6,64256,65728,6,6,4,1460,130000,1,16810976,370000,66348,66348,65700,0,30408,0,3442840322,63
o,1717751202.849116,172.16.1.2,45495,172.16.3.2,5101,17156,30445,6,62848,65728,6,6,4,1460,127500,1,16810976,380000,66348,63452,65700,0,27512,0,3442840322,63
i,1717751202.868484,172.16.1.2,45495,172.16.3.2,5101,17156,30445,6,62848,65728,6,6,4,1460,127500,1,16810976,380000,66348,66348,65700,0,30408,0,3442840322,63
o,1717751202.868495,172.16.1.2,45495,172.16.3.2,5101,17156,30445,6,62848,65728,6,6,4,1460,129062,1,16810976,380000,66348,63452,65700,0,27512,0,3442840322,63
i,1717751202.888215,172.16.1.2,45495,172.16.3.2,5101,17156,30445,6,62848,65728,6,6,4,1460,129062,1,16810976,380000,66348,66348,65700,0,30408,0,3442840322,63
o,1717751202.888224,172.16.1.2,45495,172.16.3.2,5101,17156,30445,6,64256,65728,6,6,4,1460,130625,1,16810976,380000,66348,63452,65700,0,27512,0,3442840322,63
i,1717751202.889431,172.16.1.2,45495,172.16.3.2,5101,17156,30445,6,64256,65728,6,6,4,1460,130625,1,16810976,380000,66348,66348,65700,0,30408,0,3442840322,63
o,1717751202.889440,172.16.1.2,45495,172.16.3.2,5101,17156,30445,6,64256,65728,6,6,4,1460,129375,1,16810976,380000,66348,63452,65700,0,27512,0,3442840322,63
i,1717751202.909052,172.16.1.2,45495,172.16.3.2,5101,17156,30445,6,64256,65728,6,6,4,1460,129375,1,16810976,380000,66348,66348,65700,0,30408,0,3442840322,63
o,1717751202.909060,172.16.1.2,45495,172.16.3.2,5101,17156,30445,6,64256,65728,6,6,4,1460,130937,1,16810976,380000,66348,63452,65700,0,27512,0,3442840322,63
o,1717751202.909364,172.16.1.2,45495,172.16.3.2,5101,17156,30445,6,64256,65728,6,6,4,1460,130937,1,16810976,380000,66348,63452,65700,0,28960,0,3442840322,63
i,1717751202.910275,172.16.1.2,45495,172.16.3.2,5101,17156,30445,6,64256,65728,6,6,4,1460,130937,1,16810976,380000,66348,66348,65700,0,30408,0,3442840322,63
o,1717751202.910282,172.16.1.2,45495,172.16.3.2,5101,17156,30445,6,62848,65728,6,6,4,1460,128437,1,16810976,390000,66348,63452,65700,0,27512,0,3442840322,63
i,1717751202.928704,172.16.1.2,45495,172.16.3.2,5101,17156,30445,6,62848,65728,6,6,4,1460,128437,1,16810976,390000,66348,66348,65700,0,30408,0,3442840322,63
o,1717751202.928713,172.16.1.2,45495,172.16.3.2,5101,17156,30445,6,62848,65728,6,6,4,1460,130000,1,16810976,390000,66348,63452,65700,0,27512,0,3442840322,63
i,1717751202.948474,172.16.1.2,45495,172.16.3.2,5101,17156,30445,6,62848,65728,6,6,4,1460,130000,1,16810976,390000,66348,66348,65700,0,30408,0,3442840322,63
o,1717751202.948484,172.16.1.2,45495,172.16.3.2,5101,17156,30445,6,64256,65728,6,6,4,1460,131250,1,16810976,380000,66348,63452,65700,0,27512,0,3442840322,63
i,1717751202.949751,172.16.1.2,45495,172.16.3.2,5101,17156,30445,6,64256,65728,6,6,4,1460,131250,1,16810976,380000,66348,66348,65700,0,30408,0,3442840322,63
o,1717751202.949757,172.16.1.2,45495,172.16.3.2,5101,17156,30445,6,64256,65728,6,6,4,1460,130000,1,16810976,380000,66348,63452,65700,0,27512,0,3442840322,63
i,1717751202.968355,172.16.1.2,45495,172.16.3.2,5101,17156,30445,6,64256,65728,6,6,4,1460,130000,1,16810976,380000,66348,66348,65700,0,30408,0,3442840322,63
o,1717751202.968363,172.16.1.2,45495,172.16.3.2,5101,17156,30445,6,64256,65728,6,6,4,1460,130000,1,16810976,370000,66348,63452,65700,0,27512,0,3442840322,63
i,1717751202.969553,172.16.1.2,45495,172.16.3.2,5101,17156,30445,6,64256,65728,6,6,4,1460,130000,1,16810976,370000,66348,66348,65700,0,30408,0,3442840322,63
o,1717751202.969559,172.16.1.2,45495,172.16.3.2,5101,17156,30445,6,62848,65728,6,6,4,1460,127500,1,16810976,370000,66348,63452,65700,0,27512,0,3442840322,63
i,1717751202.989202,172.16.1.2,45495,172.16.3.2,5101,17156,30445,6,62848,65728,6,6,4,1460,127500,1,16810976,370000,66348,66348,65700,0,30408,0,3442840322,63
o,1717751202.989211,172.16.1.2,45495,172.16.3.2,5101,17156,30445,6,62848,65728,6,6,4,1460,129062,1,16810976,370000,66348,63452,65700,0,27512,0,3442840322,63
i,1717751203.008007,172.16.1.2,45495,172.16.3.2,5101,17156,30445,6,62848,65728,6,6,4,1460,129062,1,16810976,370000,66348,66348,65700,0,30408,0,3442840322,63
o,1717751203.008016,172.16.1.2,45495,172.16.3.2,5101,17156,30445,6,64256,65728,6,6,4,1460,130625,1,16778208,380000,66348,63452,65700,0,27512,0,3442840322,63
i,1717751203.009298,172.16.1.2,45495,172.16.3.2,5101,17156,30445,6,64256,65728,6,6,4,1460,130625,1,16810976,380000,66348,66348,65700,0,30408,0,3442840322,63
o,1717751203.009307,172.16.1.2,45495,172.16.3.2,5101,17156,30445,6,64256,65728,6,6,4,1460,129375,1,16810976,370000,66348,63452,65700,0,27512,0,3442840322,63
i,1717751203.027542,172.16.1.2,45495,172.16.3.2,5101,17156,30445,6,64256,65728,6,6,4,1460,129375,1,16810976,370000,66348,66348,65700,0,30408,0,3442840322,63
o,1717751203.027549,172.16.1.2,45495,172.16.3.2,5101,17156,30445,6,64256,65728,6,6,4,1460,130937,1,16810976,380000,66348,63452,65700,0,27512,0,3442840322,63
o,1717751203.027860,172.16.1.2,45495,172.16.3.2,5101,17156,30445,6,64256,65728,6,6,4,1460,130937,1,16810976,380000,66348,63452,65700,0,28960,0,3442840322,63
i,1717751203.028927,172.16.1.2,45495,172.16.3.2,5101,17156,30445,6,64256,65728,6,6,4,1460,130937,1,16810976,380000,66348,66348,65700,0,30408,0,3442840322,63
o,1717751203.028935,172.16.1.2,45495,172.16.3.2,5101,17156,30445,6,62848,65728,6,6,4,1460,129687,1,16810976,370000,66348,63452,65700,0,27512,0,3442840322,63
i,1717751203.048153,172.16.1.2,45495,172.16.3.2,5101,17156,30445,6,62848,65728,6,6,4,1460,129687,1,16810976,370000,66348,66348,65700,0,30408,0,3442840322,63
o,1717751203.048159,172.16.1.2,45495,172.16.3.2,5101,17156,30445,6,62848,65728,6,6,4,1460,131250,1,16810976,380000,66348,63452,65700,0,27512,0,3442840322,63
i,1717751203.068748,172.16.1.2,45495,172.16.3.2,5101,17156,30445,6,62848,65728,6,6,4,1460,131250,1,16810976,380000,66348,66348,65700,0,30408,0,3442840322,63
o,1717751203.068761,172.16.1.2,45495,172.16.3.2,5101,17156,30445,6,64256,65728,6,6,4,1460,131250,1,16810976,360000,66348,63452,65700,0,27512,0,3442840322,63
i,1717751203.069796,172.16.1.2,45495,172.16.3.2,5101,17156,30445,6,64256,65728,6,6,4,1460,131250,1,16810976,360000,66348,66348,65700,0,30408,0,3442840322,63
o,1717751203.069802,172.16.1.2,45495,172.16.3.2,5101,17156,30445,6,64256,65728,6,6,4,1460,130000,1,16810976,370000,66348,63452,65700,0,27512,0,3442840322,63
i,1717751203.088107,172.16.1.2,45495,172.16.3.2,5101,17156,30445,6,64256,65728,6,6,4,1460,130000,1,16810976,370000,66348,66348,65700,0,30408,0,3442840322,63
o,1717751203.088114,172.16.1.2,45495,172.16.3.2,5101,17156,30445,6,64256,65728,6,6,4,1460,130000,1,16810976,360000,66348,63452,65700,0,27512,0,3442840322,63
i,1717751203.089293,172.16.1.2,45495,172.16.3.2,5101,17156,30445,6,64256,65728,6,6,4,1460,130000,1,16810976,360000,66348,66348,65700,0,30408,0,3442840322,63
o,1717751203.089299,172.16.1.2,45495,172.16.3.2,5101,17156,30445,6,62848,65728,6,6,4,1460,128750,1,16810976,360000,66348,63452,65700,0,27512,0,3442840322,63
i,1717751203.107745,172.16.1.2,45495,172.16.3.2,5101,17156,30445,6,62848,65728,6,6,4,1460,128750,1,16810976,360000,66348,66348,65700,0,30408,0,3442840322,63
o,1717751203.107751,172.16.1.2,45495,172.16.3.2,5101,17156,30445,6,62848,65728,6,6,4,1460,130312,1,16810976,360000,66348,63452,65700,0,27512,0,3442840322,63
i,1717751203.128540,172.16.1.2,45495,172.16.3.2,5101,17156,30445,6,62848,65728,6,6,4,1460,130312,1,16810976,360000,66348,66348,65700,0,30408,0,3442840322,63
o,1717751203.128548,172.16.1.2,45495,172.16.3.2,5101,17156,30445,6,64256,65728,6,6,4,1460,131562,1,16810976,370000,66348,63452,65700,0,27512,0,3442840322,63
i,1717751203.129828,172.16.1.2,45495,172.16.3.2,5101,17156,30445,6,64256,65728,6,6,4,1460,131562,1,16810976,370000,66348,66348,65700,0,30408,0,3442840322,63
o,1717751203.129834,172.16.1.2,45495,172.16.3.2,5101,17156,30445,6,64256,65728,6,6,4,1460,130312,1,16810976,370000,66348,63452,65700,0,27512,0,3442840322,63
i,1717751203.148156,172.16.1.2,45495,172.16.3.2,5101,17156,30445,6,64256,65728,6,6,4,1460,130312,1,16810976,370000,66348,66348,65700,0,30408,0,3442840322,63
o,1717751203.148163,172.16.1.2,45495,172.16.3.2,5101,17156,30445,6,64256,65728,6,6,4,1460,130312,1,16810976,360000,66348,63452,65700,0,27512,0,3442840322,63
o,1717751203.148452,172.16.1.2,45495,172.16.3.2,5101,17156,30445,6,64256,65728,6,6,4,1460,130312,1,16810976,360000,66348,63452,65700,0,28960,0,3442840322,63
i,1717751203.149711,172.16.1.2,45495,172.16.3.2,5101,17156,30445,6,64256,65728,6,6,4,1460,130312,1,16810976,360000,66348,66348,65700,0,30408,0,3442840322,63
o,1717751203.149719,172.16.1.2,45495,172.16.3.2,5101,17156,30445,6,62848,65728,6,6,4,1460,127812,1,16810976,370000,66348,63452,65700,0,27512,0,3442840322,63
i,1717751203.168015,172.16.1.2,45495,172.16.3.2,5101,17156,30445,6,62848,65728,6,6,4,1460,127812,1,16810976,370000,66348,66348,65700,0,30408,0,3442840322,63
o,1717751203.168021,172.16.1.2,45495,172.16.3.2,5101,17156,30445,6,62848,65728,6,6,4,1460,129375,1,16810976,370000,66348,63452,65700,0,27512,0,3442840322,63
i,1717751203.188756,172.16.1.2,45495,172.16.3.2,5101,17156,30445,6,62848,65728,6,6,4,1460,129375,1,16810976,370000,66348,66348,65700,0,30408,0,3442840322,63
o,1717751203.188764,172.16.1.2,45495,172.16.3.2,5101,17156,30445,6,64256,65728,6,6,4,1460,130937,1,16810976,370000,66348,63452,65700,0,27512,0,3442840322,63
i,1717751203.189851,172.16.1.2,45495,172.16.3.2,5101,17156,30445,6,64256,65728,6,6,4,1460,130937,1,16810976,370000,66348,66348,65700,0,30408,0,3442840322,63
o,1717751203.189856,172.16.1.2,45495,172.16.3.2,5101,17156,30445,6,64256,65728,6,6,4,1460,129687,1,16810976,370000,66348,63452,65700,0,27512,0,3442840322,63
i,1717751203.207477,172.16.1.2,45495,172.16.3.2,5101,17156,30445,6,64256,65728,6,6,4,1460,129687,1,16810976,370000,66348,66348,65700,0,30408,0,3442840322,63
o,1717751203.207484,172.16.1.2,45495,172.16.3.2,5101,17156,30445,6,64256,65728,6,6,4,1460,131250,1,16810976,380000,66348,63452,65700,0,27512,0,3442840322,63
i,1717751203.208681,172.16.1.2,45495,172.16.3.2,5101,17156,30445,6,64256,65728,6,6,4,1460,131250,1,16810976,380000,66348,66348,65700,0,30408,0,3442840322,63
o,1717751203.208687,172.16.1.2,45495,172.16.3.2,5101,17156,30445,6,62848,65728,6,6,4,1460,130000,1,16810976,370000,66348,63452,65700,0,27512,0,3442840322,63
i,1717751203.228182,172.16.1.2,45495,172.16.3.2,5101,17156,30445,6,62848,65728,6,6,4,1460,130000,1,16810976,370000,66348,66348,65700,0,30408,0,3442840322,63
o,1717751203.228188,172.16.1.2,45495,172.16.3.2,5101,17156,30445,6,62848,65728,6,6,4,1460,131250,1,16810976,370000,66348,63452,65700,0,27512,0,3442840322,63
i,1717751203.248875,172.16.1.2,45495,172.16.3.2,5101,17156,30445,6,62848,65728,6,6,4,1460,131250,1,16810976,370000,66348,66348,65700,0,30408,0,3442840322,63
o,1717751203.248885,172.16.1.2,45495,172.16.3.2,5101,17156,30445,6,64256,65728,6,6,4,1460,132500,1,16810976,380000,66348,63452,65700,0,27512,0,3442840322,63
i,1717751203.251033,172.16.1.2,45495,172.16.3.2,5101,17156,30445,6,64256,65728,6,6,4,1460,132500,1,16810976,380000,66348,66348,65700,0,30408,0,3442840322,63
o,1717751203.251038,172.16.1.2,45495,172.16.3.2,5101,17156,30445,6,64256,65728,6,6,4,1460,129687,1,16778208,380000,66348,63452,65700,0,27512,0,3442840322,63
i,1717751203.267689,172.16.1.2,45495,172.16.3.2,5101,17156,30445,6,64256,65728,6,6,4,1460,129687,1,16810976,380000,66348,66348,65700,0,30408,0,3442840322,63
o,1717751203.267696,172.16.1.2,45495,172.16.3.2,5101,17156,30445,6,64256,65728,6,6,4,1460,131250,1,16810976,380000,66348,63452,65700,0,27512,0,3442840322,63
o,1717751203.268015,172.16.1.2,45495,172.16.3.2,5101,17156,30445,6,64256,65728,6,6,4,1460,131250,1,16810976,380000,66348,63452,65700,0,28960,0,3442840322,63
i,1717751203.269087,172.16.1.2,45495,172.16.3.2,5101,17156,30445,6,64256,65728,6,6,4,1460,131250,1,16810976,380000,66348,66348,65700,0,30408,0,3442840322,63
o,1717751203.269094,172.16.1.2,45495,172.16.3.2,5101,17156,30445,6,62848,65728,6,6,4,1460,130000,1,16810976,380000,66348,63452,65700,0,27512,0,3442840322,63
i,1717751203.287753,172.16.1.2,45495,172.16.3.2,5101,17156,30445,6,62848,65728,6,6,4,1460,130000,1,16810976,380000,66348,66348,65700,0,30408,0,3442840322,63
o,1717751203.287760,172.16.1.2,45495,172.16.3.2,5101,17156,30445,6,62848,65728,6,6,4,1460,131250,1,16810976,380000,66348,63452,65700,0,27512,0,3442840322,63
i,1717751203.307780,172.16.1.2,45495,172.16.3.2,5101,17156,30445,6,62848,65728,6,6,4,1460,131250,1,16810976,380000,66348,66348,65700,0,30408,0,3442840322,63
o,1717751203.307804,172.16.1.2,45495,172.16.3.2,5101,17156,30445,6,64256,65728,6,6,4,1460,132500,1,16810976,380000,66348,63452,65700,0,27512,0,3442840322,63
i,1717751203.308972,172.16.1.2,45495,172.16.3.2,5101,17156,30445,6,64256,65728,6,6,4,1460,132500,1,16810976,380000,66348,66348,65700,0,30408,0,3442840322,63
o,1717751203.308979,172.16.1.2,45495,172.16.3.2,5101,17156,30445,6,64256,65728,6,6,4,1460,130937,1,16810976,380000,66348,63452,65700,0,27512,0,3442840322,63
i,1717751203.328330,172.16.1.2,45495,172.16.3.2,5101,17156,30445,6,64256,65728,6,6,4,1460,130937,1,16810976,380000,66348,66348,65700,0,30408,0,3442840322,63
o,1717751203.328358,172.16.1.2,45495,172.16.3.2,5101,17156,30445,6,64256,65728,6,6,4,1460,132187,1,16810976,370000,66348,63452,65700,0,27512,0,3442840322,63
i,1717751203.329514,172.16.1.2,45495,172.16.3.2,5101,17156,30445,6,64256,65728,6,6,4,1460,132187,1,16810976,370000,66348,66348,65700,0,30408,0,3442840322,63
o,1717751203.329526,172.16.1.2,45495,172.16.3.2,5101,17156,30445,6,62848,65728,6,6,4,1460,130937,1,16810976,370000,66348,63452,65700,0,27512,0,3442840322,63
i,1717751203.347964,172.16.1.2,45495,172.16.3.2,5101,17156,30445,6,62848,65728,6,6,4,1460,130937,1,16810976,370000,66348,66348,65700,0,30408,0,3442840322,63
o,1717751203.347986,172.16.1.2,45495,172.16.3.2,5101,17156,30445,6,62848,65728,6,6,4,1460,132187,1,16810976,370000,66348,63452,65700,0,27512,0,3442840322,63
i,1717751203.367510,172.16.1.2,45495,172.16.3.2,5101,17156,30445,6,62848,65728,6,6,4,1460,132187,1,16810976,370000,66348,66348,65700,0,30408,0,3442840322,63
o,1717751203.367529,172.16.1.2,45495,172.16.3.2,5101,17156,30445,6,64256,65728,6,6,4,1460,133437,1,16810976,380000,66348,63452,65700,0,27512,0,3442840322,63
i,1717751203.368561,172.16.1.2,45495,172.16.3.2,5101,17156,30445,6,64256,65728,6,6,4,1460,133437,1,16810976,380000,66348,66348,65700,0,30408,0,3442840322,63
o,1717751203.368568,172.16.1.2,45495,172.16.3.2,5101,17156,30445,6,64256,65728,6,6,4,1460,131875,1,16810976,380000,66348,63452,65700,0,27512,0,3442840322,63
i,1717751203.388167,172.16.1.2,45495,172.16.3.2,5101,17156,30445,6,64256,65728,6,6,4,1460,131875,1,16810976,380000,66348,66348,65700,0,30408,0,3442840322,63
o,1717751203.388175,172.16.1.2,45495,172.16.3.2,5101,17156,30445,6,64256,65728,6,6,4,1460,133125,1,16810976,380000,66348,63452,65700,0,27512,0,3442840322,63
o,1717751203.388584,172.16.1.2,45495,172.16.3.2,5101,17156,30445,6,64256,65728,6,6,4,1460,133125,1,16810976,380000,66348,63452,65700,0,28960,0,3442840322,63
i,1717751203.389430,172.16.1.2,45495,172.16.3.2,5101,17156,30445,6,64256,65728,6,6,4,1460,133125,1,16810976,380000,66348,66348,65700,0,30408,0,3442840322,63
o,1717751203.389440,172.16.1.2,45495,172.16.3.2,5101,17156,30445,6,62848,65728,6,6,4,1460,130312,1,16810976,390000,66348,63452,65700,0,27512,0,3442840322,63
i,1717751203.408126,172.16.1.2,45495,172.16.3.2,5101,17156,30445,6,62848,65728,6,6,4,1460,130312,1,16810976,390000,66348,66348,65700,0,30408,0,3442840322,63
o,1717751203.408131,172.16.1.2,45495,172.16.3.2,5101,17156,30445,6,62848,65728,6,6,4,1460,131562,1,16810976,380000,66348,63452,65700,0,27512,0,3442840322,63
i,1717751203.427851,172.16.1.2,45495,172.16.3.2,5101,17156,30445,6,62848,65728,6,6,4,1460,131562,1,16810976,380000,66348,66348,65700,0,30408,0,3442840322,63
o,1717751203.427858,172.16.1.2,45495,172.16.3.2,5101,17156,30445,6,64256,65728,6,6,4,1460,132812,1,16810976,380000,66348,63452,65700,0,27512,0,3442840322,63
i,1717751203.429269,172.16.1.2,45495,172.16.3.2,5101,17156,30445,6,64256,65728,6,6,4,1460,132812,1,16810976,380000,66348,66348,65700,0,30408,0,3442840322,63
o,1717751203.429274,172.16.1.2,45495,172.16.3.2,5101,17156,30445,6,64256,65728,6,6,4,1460,131250,1,16810976,380000,66348,63452,65700,0,27512,0,3442840322,63
i,1717751203.448601,172.16.1.2,45495,172.16.3.2,5101,17156,30445,6,64256,65728,6,6,4,1460,131250,1,16810976,380000,66348,66348,65700,0,30408,0,3442840322,63
o,1717751203.448608,172.16.1.2,45495,172.16.3.2,5101,17156,30445,6,64256,65728,6,6,4,1460,132500,1,16810976,380000,66348,63452,65700,0,27512,0,3442840322,63
i,1717751203.449751,172.16.1.2,45495,172.16.3.2,5101,17156,30445,6,64256,65728,6,6,4,1460,132500,1,16810976,380000,66348,66348,65700,0,30408,0,3442840322,63
o,1717751203.449757,172.16.1.2,45495,172.16.3.2,5101,17156,30445,6,62848,65728,6,6,4,1460,130937,1,16810976,380000,66348,63452,65700,0,27512,0,3442840322,63
i,1717751203.468400,172.16.1.2,45495,172.16.3.2,5101,17156,30445,6,62848,65728,6,6,4,1460,130937,1,16810976,380000,66348,66348,65700,0,30408,0,3442840322,63
o,1717751203.468412,172.16.1.2,45495,172.16.3.2,5101,17156,30445,6,62848,65728,6,6,4,1460,132187,1,16810976,370000,66348,63452,65700,0,27512,0,3442840322,63
i,1717751203.488089,172.16.1.2,45495,172.16.3.2,5101,17156,30445,6,62848,65728,6,6,4,1460,132187,1,16810976,370000,66348,66348,65700,0,30408,0,3442840322,63
o,1717751203.488102,172.16.1.2,45495,172.16.3.2,5101,17156,30445,6,64256,65728,6,6,4,1460,133437,1,16810976,380000,66348,63452,65700,0,27512,0,3442840322,63
i,1717751203.489312,172.16.1.2,45495,172.16.3.2,5101,17156,30445,6,64256,65728,6,6,4,1460,133437,1,16810976,380000,66348,66348,65700,0,30408,0,3442840322,63
o,1717751203.489321,172.16.1.2,45495,172.16.3.2,5101,17156,30445,6,64256,65728,6,6,4,1460,130625,1,16810976,390000,66348,63452,65700,0,27512,0,3442840322,63
i,1717751203.507808,172.16.1.2,45495,172.16.3.2,5101,17156,30445,6,64256,65728,6,6,4,1460,130625,1,16810976,390000,66348,66348,65700,0,30408,0,3442840322,63
o,1717751203.507816,172.16.1.2,45495,172.16.3.2,5101,17156,30445,6,64256,65728,6,6,4,1460,130625,1,16778208,370000,66348,63452,65700,0,27512,0,3442840322,63
o,1717751203.508096,172.16.1.2,45495,172.16.3.2,5101,17156,30445,6,64256,65728,6,6,4,1460,130625,1,16810976,370000,66348,63452,65700,0,28960,0,3442840322,63
i,1717751203.509236,172.16.1.2,45495,172.16.3.2,5101,17156,30445,6,64256,65728,6,6,4,1460,130625,1,16810976,370000,66348,66348,65700,0,30408,0,3442840322,63
o,1717751203.509246,172.16.1.2,45495,172.16.3.2,5101,17156,30445,6,62848,65728,6,6,4,1460,129375,1,16810976,370000,66348,63452,65700,0,27512,0,3442840322,63
i,1717751203.527565,172.16.1.2,45495,172.16.3.2,5101,17156,30445,6,62848,65728,6,6,4,1460,129375,1,16810976,370000,66348,66348,65700,0,30408,0,3442840322,63
o,1717751203.527571,172.16.1.2,45495,172.16.3.2,5101,17156,30445,6,62848,65728,6,6,4,1460,130937,1,16810976,370000,66348,63452,65700,0,27512,0,3442840322,63
i,1717751203.547673,172.16.1.2,45495,172.16.3.2,5101,17156,30445,6,62848,65728,6,6,4,1460,130937,1,16810976,370000,66348,66348,65700,0,30408,0,3442840322,63
o,1717751203.547681,172.16.1.2,45495,172.16.3.2,5101,17156,30445,6,64256,65728,6,6,4,1460,130937,1,16810976,360000,66348,63452,65700,0,27512,0,3442840322,63
i,1717751203.548801,172.16.1.2,45495,172.16.3.2,5101,17156,30445,6,64256,65728,6,6,4,1460,130937,1,16810976,360000,66348,66348,65700,0,30408,0,3442840322,63
o,1717751203.548806,172.16.1.2,45495,172.16.3.2,5101,17156,30445,6,64256,65728,6,6,4,1460,128437,1,16810976,370000,66348,63452,65700,0,27512,0,3442840322,63
i,1717751203.567601,172.16.1.2,45495,172.16.3.2,5101,17156,30445,6,64256,65728,6,6,4,1460,128437,1,16810976,370000,66348,66348,65700,0,30408,0,3442840322,63
o,1717751203.567610,172.16.1.2,45495,172.16.3.2,5101,17156,30550,6,64256,65728,6,6,4,1460,130000,1,16810976,380000,66348,63452,65700,0,27512,0,3442840322,63
i,1717751203.568715,172.16.1.2,45495,172.16.3.2,5101,17156,30550,6,64256,65728,6,6,4,1460,130000,1,16810976,380000,66348,66348,65700,0,30408,0,3442840322,63
o,1717751203.568721,172.16.1.2,45495,172.16.3.2,5101,17156,30623,6,62848,65728,6,6,4,1460,128750,1,16810976,370000,66348,63452,65700,0,27512,0,3442840322,63
i,1717751203.588248,172.16.1.2,45495,172.16.3.2,5101,17156,30623,6,62848,65728,6,6,4,1460,128750,1,16810976,370000,66348,66348,65700,0,30408,0,3442840322,63
o,1717751203.588256,172.16.1.2,45495,172.16.3.2,5101,17156,30839,6,62848,65728,6,6,4,1460,130312,1,16810976,380000,66348,63452,65700,0,27512,0,3442840322,63
i,1717751203.607909,172.16.1.2,45495,172.16.3.2,5101,17156,30839,6,62848,65728,6,6,4,1460,130312,1,16810976,380000,66348,66348,65700,0,30408,0,3442840322,63
o,1717751203.607917,172.16.1.2,45495,172.16.3.2,5101,17156,31156,6,64256,65728,6,6,4,1460,131562,1,16810976,370000,66348,63452,65700,0,27512,0,3442840322,63
i,1717751203.609092,172.16.1.2,45495,172.16.3.2,5101,17156,31156,6,64256,65728,6,6,4,1460,131562,1,16810976,370000,66348,66348,65700,0,30408,0,3442840322,63
o,1717751203.609098,172.16.1.2,45495,172.16.3.2,5101,17156,31378,6,64256,65728,6,6,4,1460,130312,1,16810976,370000,66348,63452,65700,0,27512,0,3442840322,63
i,1717751203.627255,172.16.1.2,45495,172.16.3.2,5101,17156,31378,6,64256,65728,6,6,4,1460,130312,1,16810976,370000,66348,66348,65700,0,30408,0,3442840322,63
o,1717751203.627265,172.16.1.2,45495,172.16.3.2,5101,17156,31698,6,64256,65728,6,6,4,1460,131562,1,16810976,370000,66348,63452,65700,0,27512,0,3442840322,63
o,1717751203.627572,172.16.1.2,45495,172.16.3.2,5101,17156,31698,6,64256,65728,6,6,4,1460,131562,1,16810976,370000,66348,63452,65700,0,28960,0,3442840322,63
i,1717751203.628673,172.16.1.2,45495,172.16.3.2,5101,17156,31698,6,64256,65728,6,6,4,1460,131562,1,16810976,370000,66348,66348,65700,0,30408,0,3442840322,63
o,1717751203.628681,172.16.1.2,45495,172.16.3.2,5101,17156,31922,6,62848,65728,6,6,4,1460,130312,1,16810976,370000,66348,63452,65700,0,27512,0,3442840322,63
i,1717751203.649501,172.16.1.2,45495,172.16.3.2,5101,17156,31922,6,62848,65728,6,6,4,1460,130312,1,16810976,370000,74540,74540,65700,0,31856,0,3442840322,63
o,1717751203.649510,172.16.1.2,45495,172.16.3.2,5101,17156,32244,6,62848,65728,6,6,4,1460,131562,1,16810976,370000,74540,71644,65700,0,28960,0,3442840322,63
i,1717751203.667779,172.16.1.2,45495,172.16.3.2,5101,17156,32244,6,62848,65728,6,6,4,1460,131562,1,16810976,370000,74540,74540,65700,0,31856,0,3442840322,63
o,1717751203.667790,172.16.1.2,45495,172.16.3.2,5101,17156,32634,6,64256,65728,6,6,4,1460,132812,1,16810976,380000,74540,71644,65700,0,28960,0,3442840322,63
i,1717751203.668915,172.16.1.2,45495,172.16.3.2,5101,17156,32634,6,64256,65728,6,6,4,1460,132812,1,16810976,380000,74540,74540,65700,0,31856,0,3442840322,63
o,1717751203.668920,172.16.1.2,45495,172.16.3.2,5101,17156,32907,6,64256,65728,6,6,4,1460,131250,1,16810976,380000,74540,71644,65700,0,28960,0,3442840322,63
i,1717751203.688517,172.16.1.2,45495,172.16.3.2,5101,17156,32907,6,64256,65728,6,6,4,1460,131250,1,16810976,380000,74540,74540,65700,0,31856,0,3442840322,63
o,1717751203.688527,172.16.1.2,45495,172.16.3.2,5101,17156,33263,6,64256,65728,6,6,4,1460,132500,1,16810976,380000,74540,71644,65700,0,28960,0,3442840322,63
i,1717751203.689698,172.16.1.2,45495,172.16.3.2,5101,17156,33263,6,64256,65728,6,6,4,1460,132500,1,16810976,380000,74540,74540,65700,0,31856,0,3442840322,63
o,1717751203.689704,172.16.1.2,45495,172.16.3.2,5101,17156,33512,6,62848,65728,6,6,4,1460,129687,1,16810976,380000,74540,71644,65700,0,28960,0,3442840322,63
i,1717751203.707649,172.16.1.2,45495,172.16.3.2,5101,17156,33512,6,62848,65728,6,6,4,1460,129687,1,16810976,380000,74540,73208,65700,0,33304,0,3442840322,63
o,1717751203.707657,172.16.1.2,45495,172.16.3.2,5101,17156,33852,6,62848,65728,6,6,4,1460,131250,1,16810976,380000,74540,70312,65700,0,30408,0,3442840322,63
i,1717751203.728573,172.16.1.2,45495,172.16.3.2,5101,17156,33852,6,62848,65728,6,6,4,1460,131250,1,16810976,380000,74540,74540,65700,0,33304,0,3442840322,63
o,1717751203.728583,172.16.1.2,45495,172.16.3.2,5101,17156,34255,6,64256,65728,6,6,4,1460,132500,1,16810976,380000,74540,71644,65700,0,30408,0,3442840322,63
i,1717751203.729667,172.16.1.2,45495,172.16.3.2,5101,17156,34255,6,64256,65728,6,6,4,1460,132500,1,16810976,380000,74540,74540,65700,0,33304,0,3442840322,63
o,1717751203.729674,172.16.1.2,45495,172.16.3.2,5101,17156,34537,6,64256,65728,6,6,4,1460,129687,1,16810976,390000,74540,71644,65700,0,30408,0,3442840322,63
i,1717751203.748446,172.16.1.2,45495,172.16.3.2,5101,17156,34537,6,64256,65728,6,6,4,1460,129687,1,16810976,390000,74540,74540,65700,0,33304,0,3442840322,63
o,1717751203.748454,172.16.1.2,45495,172.16.3.2,5101,17156,34899,6,64256,65728,6,6,4,1460,130000,1,16810976,380000,74540,71644,65700,0,30408,0,3442840322,63
o,1717751203.748765,172.16.1.2,45495,172.16.3.2,5101,17156,34899,6,64256,65728,6,6,4,1460,130000,1,16810976,380000,74540,71644,65700,0,31856,0,3442840322,63
i,1717751203.750893,172.16.1.2,45495,172.16.3.2,5101,17156,34899,6,64256,65728,6,6,4,1460,130000,1,16810976,380000,74540,74540,65700,0,34752,0,3442840322,63
o,1717751203.750901,172.16.1.2,45495,172.16.3.2,5101,17156,35153,6,62848,65728,6,6,4,1460,127500,1,16778208,380000,74540,71644,65700,0,31856,0,3442840322,63
i,1717751203.767223,172.16.1.2,45495,172.16.3.2,5101,17156,35153,6,62848,65728,6,6,4,1460,127500,1,16810976,380000,74540,74540,65700,0,34752,0,3442840322,63
o,1717751203.767229,172.16.1.2,45495,172.16.3.2,5101,17156,35496,6,62848,65728,6,6,4,1460,127812,1,16810976,370000,74540,71644,65700,0,31856,0,3442840322,63
i,1717751203.788045,172.16.1.2,45495,172.16.3.2,5101,17156,35496,6,62848,65728,6,6,4,1460,127812,1,16810976,370000,74540,74540,65700,0,34752,0,3442840322,63
o,1717751203.788054,172.16.1.2,45495,172.16.3.2,5101,17156,35901,6,64256,65728,6,6,4,1460,129375,1,16810976,370000,74540,71644,65700,0,31856,0,3442840322,63
i,1717751203.789280,172.16.1.2,45495,172.16.3.2,5101,17156,35901,6,64256,65728,6,6,4,1460,129375,1,16810976,370000,74540,74540,65700,0,34752,0,3442840322,63
o,1717751203.789284,172.16.1.2,45495,172.16.3.2,5101,17156,36184,6,64256,65728,6,6,4,1460,128437,1,16810976,370000,74540,71644,65700,0,31856,0,3442840322,63
i,1717751203.807622,172.16.1.2,45495,172.16.3.2,5101,17156,36184,6,64256,65728,6,6,4,1460,128437,1,16810976,370000,74540,74540,65700,0,34752,0,3442840322,63
o,1717751203.807630,172.16.1.2,45495,172.16.3.2,5101,17156,36547,6,64256,65728,6,6,4,1460,130000,1,16810976,370000,74540,71644,65700,0,31856,0,3442840322,63
i,1717751203.808840,172.16.1.2,45495,172.16.3.2,5101,17156,36547,6,64256,65728,6,6,4,1460,130000,1,16810976,370000,82732,82732,65700,0,36200,0,3442840322,63
o,1717751203.808845,172.16.1.2,45495,172.16.3.2,5101,17156,36801,6,62848,65728,6,6,4,1460,128750,1,16810976,370000,82732,79836,65700,0,33304,0,3442840322,63
i,1717751203.827650,172.16.1.2,45495,172.16.3.2,5101,17156,36801,6,62848,65728,6,6,4,1460,128750,1,16810976,370000,82732,82732,65700,0,36200,0,3442840322,63
o,1717751203.827660,172.16.1.2,45495,172.16.3.2,5101,17156,37144,6,62848,65728,6,6,4,1460,130312,1,16810976,380000,82732,79836,65700,0,33304,0,3442840322,63
i,1717751203.847794,172.16.1.2,45495,172.16.3.2,5101,17156,37144,6,62848,65728,6,6,4,1460,130312,1,16810976,380000,82732,82732,65700,0,36200,0,3442840322,63
o,1717751203.847811,172.16.1.2,45495,172.16.3.2,5101,17156,37549,6,64256,65728,6,6,4,1460,132812,1,16810976,390000,82732,79836,65700,0,33304,0,3442840322,63
i,1717751203.849162,172.16.1.2,45495,172.16.3.2,5101,17156,37549,6,64256,65728,6,6,4,1460,132812,1,16810976,390000,82732,82732,65700,0,36200,0,3442840322,63
o,1717751203.849170,172.16.1.2,45495,172.16.3.2,5101,17156,37832,6,64256,65728,6,6,4,1460,132500,1,16810976,380000,82732,79836,65700,0,33304,0,3442840322,63
i,1717751203.868780,172.16.1.2,45495,172.16.3.2,5101,17156,37832,6,64256,65728,6,6,4,1460,132500,1,16810976,380000,82732,82732,65700,0,37648,0,3442840322,63
o,1717751203.868789,172.16.1.2,45495,172.16.3.2,5101,17156,38196,6,64256,65728,6,6,4,1460,133437,1,16810976,370000,82732,79836,65700,0,34752,0,3442840322,63
i,1717751203.870047,172.16.1.2,45495,172.16.3.2,5101,17156,38196,6,64256,65728,6,6,4,1460,133437,1,16810976,370000,82732,82732,65700,0,37648,0,3442840322,63
o,1717751203.870054,172.16.1.2,45495,172.16.3.2,5101,17156,38450,6,62848,65728,6,6,4,1460,134375,1,16810976,370000,82732,79836,65700,0,34752,0,3442840322,63
o,1717751203.870351,172.16.1.2,45495,172.16.3.2,5101,17156,38450,6,62848,65728,6,6,4,1460,134375,1,16810976,370000,82732,79836,65700,0,36200,0,3442840322,63
i,1717751203.887553,172.16.1.2,45495,172.16.3.2,5101,17156,38450,6,62848,65728,6,6,4,1460,134375,1,16810976,370000,82732,82732,65700,0,37648,0,3442840322,63
o,1717751203.887561,172.16.1.2,45495,172.16.3.2,5101,17156,38793,6,62848,65728,6,6,4,1460,135312,1,16810976,370000,82732,79836,65700,0,34752,0,3442840322,63
i,1717751203.908353,172.16.1.2,45495,172.16.3.2,5101,17156,38793,6,62848,65728,6,6,4,1460,135312,1,16810976,370000,82732,82732,65700,0,37648,0,3442840322,63
o,1717751203.908386,172.16.1.2,45495,172.16.3.2,5101,17156,39198,6,64256,65728,6,6,4,1460,138437,1,16810976,390000,82732,79836,65700,0,34752,0,3442840322,63
i,1717751203.909712,172.16.1.2,45495,172.16.3.2,5101,17156,39198,6,64256,65728,6,6,4,1460,138437,1,16810976,390000,82732,82732,65700,0,39096,0,3442840322,63
o,1717751203.909721,172.16.1.2,45495,172.16.3.2,5101,17156,39482,6,64256,65728,6,6,4,1460,138750,1,16810976,380000,82732,79836,65700,0,36200,0,3442840322,63
i,1717751203.928055,172.16.1.2,45495,172.16.3.2,5101,17156,39482,6,64256,65728,6,6,4,1460,138750,1,16810976,380000,82732,82732,65700,0,39096,0,3442840322,63
o,1717751203.928083,172.16.1.2,45495,172.16.3.2,5101,17156,39846,6,64256,65728,6,6,4,1460,139062,1,16810976,370000,82732,79836,65700,0,36200,0,3442840322,63
i,1717751203.929203,172.16.1.2,45495,172.16.3.2,5101,17156,39846,6,64256,65728,6,6,4,1460,139062,1,16810976,370000,82732,82732,65700,0,39096,0,3442840322,63
o,1717751203.929213,172.16.1.2,45495,172.16.3.2,5101,17156,40100,6,62848,65728,6,6,4,1460,139375,1,16810976,370000,82732,79836,65700,0,36200,0,3442840322,63
i,1717751203.947713,172.16.1.2,45495,172.16.3.2,5101,17156,40100,6,62848,65728,6,6,4,1460,139375,1,16810976,370000,82732,82732,65700,0,39096,0,3442840322,63
o,1717751203.947735,172.16.1.2,45495,172.16.3.2,5101,17156,40443,6,62848,65728,6,6,4,1460,139687,1,16810976,360000,82732,79836,65700,0,36200,0,3442840322,63
i,1717751203.968271,172.16.1.2,45495,172.16.3.2,5101,17156,40443,6,62848,65728,6,6,4,1460,139687,1,16810976,360000,82732,82732,65700,0,39096,0,3442840322,63
o,1717751203.968281,172.16.1.2,45495,172.16.3.2,5101,17156,40848,6,64256,65728,6,6,4,1460,142500,1,16810976,380000,82732,79836,65700,0,36200,0,3442840322,63
i,1717751203.969445,172.16.1.2,45495,172.16.3.2,5101,17156,40848,6,64256,65728,6,6,4,1460,142500,1,16810976,380000,82732,82732,65700,0,40544,0,3442840322,63
o,1717751203.969459,172.16.1.2,45495,172.16.3.2,5101,17156,41132,6,64256,65728,6,6,4,1460,144687,1,16810976,390000,82732,79836,65700,0,37648,0,3442840322,63
i,1717751203.988094,172.16.1.2,45495,172.16.3.2,5101,17156,41132,6,64256,65728,6,6,4,1460,144687,1,16810976,390000,82732,82732,65700,0,40544,0,3442840322,63
