enable_time_secs=1717751834	enable_time_usecs=363272	siftrver=1.3.0	sysname=FreeBSD	sysver=1400097	ipmode=4
o,1717751834.363301,10.0.2.15,22,10.0.2.2,53087,1073725440,17386,1026,65535,65700,0,0,4,1460,312,0,16777220,240000,33580,44,65700,0,0,0,3027392834,63
i,1717751834.363746,10.0.2.15,22,10.0.2.2,53087,1073725440,17386,1026,65535,65700,0,0,4,1460,312,0,16809988,240000,33580,44,65700,0,44,0,3027392834,63
o,1717751834.363815,10.0.2.15,22,10.0.2.2,53087,1073725440,17430,1026,65535,65700,0,0,4,1460,312,0,16777220,240000,33580,36,65700,0,0,0,3027392834,63
i,1717751834.365773,10.0.2.15,22,10.0.2.2,53087,1073725440,17430,1026,65535,65700,0,0,4,1460,312,0,16809988,240000,33580,36,65700,0,36,0,3027392834,63
o,1717751834.365897,10.0.2.15,22,10.0.2.2,53087,1073725440,17466,1026,65535,65700,0,0,4,1460,312,0,16777220,240000,33580,36,65700,0,0,0,3027392834,63
i,1717751834.366356,10.0.2.15,22,10.0.2.2,53087,1073725440,17466,1026,65535,65700,0,0,4,1460,312,0,16809988,240000,33580,36,65700,0,36,0,3027392834,63
o,1717751834.366464,10.0.2.15,22,10.0.2.2,53087,1073725440,17502,1026,65535,65700,0,0,4,1460,312,0,16777220,240000,33580,176,65700,0,0,0,3027392834,63
i,1717751834.367133,10.0.2.15,22,10.0.2.2,53087,1073725440,17502,1026,65535,65700,0,0,4,1460,312,0,16809988,240000,33580,176,65700,0,176,0,3027392834,63
i,1717751834.367585,10.0.2.15,22,10.0.2.2,53087,1073725440,17678,1026,65535,65700,0,0,4,1460,312,0,4,240000,33580,0,65700,0,0,0,3027392834,63
i,1717751834.367588,10.0.2.15,22,10.0.2.2,53087,1073725440,17678,1026,65535,65700,0,0,4,1460,312,0,4,240000,33580,0,65700,96,0,0,3027392834,63
o,1717751834.367591,10.0.2.15,22,10.0.2.2,53087,1073725440,17678,1026,65535,65604,0,0,5,1460,312,0,5,240000,33580,0,65700,96,0,0,3027392834,63
o,1717751834.367956,10.0.2.15,22,10.0.2.2,53087,1073725440,17678,1026,65535,65604,0,0,8,1460,312,0,4,240000,33580,0,65700,0,0,0,3027392834,63
i,1717751834.368675,10.0.2.15,22,10.0.2.2,53087,1073725440,17678,1026,65535,65604,0,0,8,1460,312,0,20,240000,33580,0,65700,0,1,0,3027392834,63
i,1717751836.503007,10.0.2.15,22,10.0.2.2,53093,1073725440,14600,0,65535,65700,0,0,4,1460,312,0,16777216,270000,33580,0,65700,0,0,0,800264214,63
o,1717751836.511266,10.0.2.15,22,10.0.2.2,53093,1073725440,14600,1026,65535,65700,0,0,4,1460,312,0,16777216,270000,33580,38,65700,41,0,0,800264214,63
i,1717751836.511982,10.0.2.15,22,10.0.2.2,53093,1073725440,14600,1026,65535,65700,0,0,4,1460,312,0,16809984,270000,33580,38,65700,41,38,0,800264214,63
i,1717751836.512875,10.0.2.15,22,10.0.2.2,53093,1073725440,14638,1026,65535,65700,0,0,4,1460,312,0,0,240000,33580,0,65700,0,0,0,800264214,63
i,1717751836.512878,10.0.2.15,22,10.0.2.2,53093,1073725440,14638,1026,65535,65700,0,0,4,1460,312,0,0,240000,33580,0,65700,1460,0,0,800264214,63
o,1717751836.512881,10.0.2.15,22,10.0.2.2,53093,1073725440,14638,1026,65535,65700,0,0,4,1460,312,0,1,240000,33580,0,65700,1536,0,0,800264214,63
o,1717751836.513343,10.0.2.15,22,10.0.2.2,53093,1073725440,14638,1026,65535,65700,0,0,4,1460,312,0,16777216,240000,33580,1080,65700,1536,0,0,800264214,63
i,1717751836.514035,10.0.2.15,22,10.0.2.2,53093,1073725440,14638,1026,65535,65700,0,0,4,1460,312,0,16809984,240000,33580,1080,65700,1536,1080,0,800264214,63
i,1717751836.515579,10.0.2.15,22,10.0.2.2,53093,1073725440,15718,1026,65535,65700,0,0,4,1460,312,0,0,240000,33580,0,65700,0,0,0,800264214,63
o,1717751836.517906,10.0.2.15,22,10.0.2.2,53093,1073725440,15718,1026,65535,65700,0,0,4,1460,312,0,16777216,240000,33580,548,65700,0,0,0,800264214,63
i,1717751836.518633,10.0.2.15,22,10.0.2.2,53093,1073725440,15718,1026,65535,65700,0,0,4,1460,312,0,16809984,240000,33580,548,65700,0,548,0,800264214,63
i,1717751836.523175,10.0.2.15,22,10.0.2.2,53093,1073725440,16266,1026,65535,65700,0,0,4,1460,312,0,0,240000,33580,0,65700,0,0,0,800264214,63
i,1717751836.527445,10.0.2.15,22,10.0.2.2,53093,1073725440,16266,1026,65535,65700,0,0,4,1460,312,0,0,240000,33580,0,65700,0,0,0,800264214,63
o,1717751836.527450,10.0.2.15,22,10.0.2.2,53093,1073725440,16266,1026,65535,65700,0,0,4,1460,312,0,1,240000,33580,0,65700,44,0,0,800264214,63
o,1717751836.527649,10.0.2.15,22,10.0.2.2,53093,1073725440,16266,1026,65535,65700,0,0,4,1460,312,0,16777216,240000,33580,44,65700,0,0,0,800264214,63
i,1717751836.528259,10.0.2.15,22,10.0.2.2,53093,1073725440,16266,1026,65535,65700,0,0,4,1460,312,0,16809984,240000,33580,44,65700,0,44,0,800264214,63
i,1717751836.528768,10.0.2.15,22,10.0.2.2,53093,1073725440,16310,1026,65535,65700,0,0,4,1460,312,0,0,240000,33580,0,65700,0,0,0,800264214,63
o,1717751836.529800,10.0.2.15,22,10.0.2.2,53093,1073725440,16310,1026,65535,65700,0,0,4,1460,312,0,16777216,240000,33580,68,65700,0,0,0,800264214,63
i,1717751836.530425,10.0.2.15,22,10.0.2.2,53093,1073725440,16310,1026,65535,65700,0,0,4,1460,312,0,16809984,240000,33580,68,65700,0,68,0,800264214,63
i,1717751836.532737,10.0.2.15,22,10.0.2.2,53093,1073725440,16378,1026,65535,65700,0,0,4,1460,312,0,0,240000,33580,0,65700,0,0,0,800264214,63
o,1717751836.543758,10.0.2.15,22,10.0.2.2,53093,1073725440,16378,1026,65535,65700,0,0,4,1460,312,0,16777216,240000,33580,28,65700,0,0,0,800264214,63
i,1717751836.544438,10.0.2.15,22,10.0.2.2,53093,1073725440,16378,1026,65535,65700,0,0,4,1460,312,0,16809984,240000,33580,28,65700,0,28,0,800264214,63
i,1717751836.544905,10.0.2.15,22,10.0.2.2,53093,1073725440,16406,1026,65535,65700,0,0,4,1460,312,0,0,240000,33580,0,65700,0,0,0,800264214,63
o,1717751836.545659,10.0.2.15,22,10.0.2.2,53093,1073725440,16406,1026,65535,65700,0,0,4,1460,312,0,16777216,240000,33580,768,65700,112,0,0,800264214,63
i,1717751836.546431,10.0.2.15,22,10.0.2.2,53093,1073725440,16406,1026,65535,65700,0,0,4,1460,312,0,16809984,240000,33580,768,65700,112,768,0,800264214,63
o,1717751836.546603,10.0.2.15,22,10.0.2.2,53093,1073725440,17174,1026,65535,65700,0,0,4,1460,312,0,16777216,240000,33580,44,65700,0,0,0,800264214,63
i,1717751836.547072,10.0.2.15,22,10.0.2.2,53093,1073725440,17174,1026,65535,65700,0,0,4,1460,312,0,16809984,240000,33580,44,65700,0,44,0,800264214,63
i,1717751836.547743,10.0.2.15,22,10.0.2.2,53093,1073725440,17218,1026,65535,65700,0,0,4,1460,312,0,0,240000,33580,0,65700,0,0,0,800264214,63
o,1717751836.548082,10.0.2.15,22,10.0.2.2,53093,1073725440,17218,1026,65535,65700,0,0,4,1460,312,0,16777220,240000,33580,72,65700,0,0,0,800264214,63
i,1717751836.548511,10.0.2.15,22,10.0.2.2,53093,1073725440,17218,1026,65535,65700,0,0,4,1460,312,0,16809988,240000,33580,72,65700,0,72,0,800264214,63
o,1717751836.550089,10.0.2.15,22,10.0.2.2,53093,1073725440,17290,1026,65535,65700,0,0,4,1460,312,0,16777220,240000,33580,76,65700,0,0,0,800264214,63
i,1717751836.550533,10.0.2.15,22,10.0.2.2,53093,1073725440,17290,1026,65535,65700,0,0,4,1460,312,0,16809988,240000,33580,76,65700,0,76,0,800264214,63
o,1717751836.550671,10.0.2.15,22,10.0.2.2,53093,1073725440,17366,1026,65535,65700,0,0,4,1460,312,0,16777220,240000,33580,176,65700,0,0,0,800264214,63
i,1717751836.551064,10.0.2.15,22,10.0.2.2,53093,1073725440,17366,1026,65535,65700,0,0,4,1460,312,0,16809988,240000,33580,176,65700,0,176,0,800264214,63
i,1717751836.551716,10.0.2.15,22,10.0.2.2,53093,1073725440,17542,1026,65535,65700,0,0,4,1460,312,0,4,240000,33580,0,65700,0,0,0,800264214,63
i,1717751836.551720,10.0.2.15,22,10.0.2.2,53093,1073725440,17542,1026,65535,65700,0,0,4,1460,312,0,4,240000,33580,0,65700,36,0,0,800264214,63
o,1717751836.551722,10.0.2.15,22,10.0.2.2,53093,1073725440,17542,1026,65535,65700,0,0,4,1460,312,0,5,240000,33580,0,65700,96,0,0,800264214,63
o,1717751836.552073,10.0.2.15,22,10.0.2.2,53093,1073725440,17542,1026,65535,65700,0,0,6,1460,312,0,4,240000,33580,0,65700,0,0,0,800264214,63
i,1717751836.552693,10.0.2.15,22,10.0.2.2,53093,1073725440,17542,1026,65535,65700,0,0,6,1460,312,0,20,240000,33580,0,65700,0,1,0,800264214,63
i,1717751836.554244,10.0.2.15,22,10.0.2.2,53093,1073725440,17543,1026,65535,65700,0,0,9,1460,312,0,67108884,240000,33580,0,65700,0,0,0,800264214,63
o,1717751836.554248,10.0.2.15,22,10.0.2.2,53093,1073725440,17543,1026,65535,65700,0,0,10,1460,312,0,67108887,240000,33580,0,65700,0,0,0,800264214,63
i,1717751837.618435,10.0.2.15,22,10.0.2.2,53095,1073725440,14600,0,65535,65700,0,0,4,1460,312,0,16777216,270000,33580,0,65700,0,0,0,2136732666,63
o,1717751837.626646,10.0.2.15,22,10.0.2.2,53095,1073725440,14600,1026,65535,65700,0,0,4,1460,312,0,16777216,270000,33580,38,65700,41,0,0,2136732666,63
i,1717751837.627255,10.0.2.15,22,10.0.2.2,53095,1073725440,14600,1026,65535,65700,0,0,4,1460,312,0,16809984,270000,33580,38,65700,0,38,0,2136732666,63
i,1717751837.627941,10.0.2.15,22,10.0.2.2,53095,1073725440,14638,1026,65535,65700,0,0,4,1460,312,0,0,240000,33580,0,65700,0,0,0,2136732666,63
i,1717751837.627945,10.0.2.15,22,10.0.2.2,53095,1073725440,14638,1026,65535,65700,0,0,4,1460,312,0,0,240000,33580,0,65700,1460,0,0,2136732666,63
o,1717751837.627948,10.0.2.15,22,10.0.2.2,53095,1073725440,14638,1026,65535,65700,0,0,4,1460,312,0,1,240000,33580,0,65700,1536,0,0,2136732666,63
o,1717751837.628725,10.0.2.15,22,10.0.2.2,53095,1073725440,14638,1026,65535,65700,0,0,4,1460,312,0,16777216,240000,33580,1080,65700,1536,0,0,2136732666,63
i,1717751837.629135,10.0.2.15,22,10.0.2.2,53095,1073725440,14638,1026,65535,65700,0,0,4,1460,312,0,16809984,240000,33580,1080,65700,1536,1080,0,2136732666,63
i,1717751837.630542,10.0.2.15,22,10.0.2.2,53095,1073725440,15718,1026,65535,65700,0,0,4,1460,312,0,0,240000,33580,0,65700,0,0,0,2136732666,63
o,1717751837.632835,10.0.2.15,22,10.0.2.2,53095,1073725440,15718,1026,65535,65700,0,0,4,1460,312,0,16777216,240000,33580,548,65700,0,0,0,2136732666,63
i,1717751837.633587,10.0.2.15,22,10.0.2.2,53095,1073725440,15718,1026,65535,65700,0,0,4,1460,312,0,16809984,240000,33580,548,65700,0,548,0,2136732666,63
i,1717751837.638229,10.0.2.15,22,10.0.2.2,53095,1073725440,16266,1026,65535,65700,0,0,4,1460,312,0,0,240000,33580,0,65700,0,0,0,2136732666,63
i,1717751837.642375,10.0.2.15,22,10.0.2.2,53095,1073725440,16266,1026,65535,65700,0,0,4,1460,312,0,0,240000,33580,0,65700,0,0,0,2136732666,63
o,1717751837.642380,10.0.2.15,22,10.0.2.2,53095,1073725440,16266,1026,65535,65700,0,0,4,1460,312,0,1,240000,33580,0,65700,44,0,0,2136732666,63
o,1717751837.642540,10.0.2.15,22,10.0.2.2,53095,1073725440,16266,1026,65535,65700,0,0,4,1460,312,0,16777216,240000,33580,44,65700,0,0,0,2136732666,63
i,1717751837.642946,10.0.2.15,22,10.0.2.2,53095,1073725440,16266,1026,65535,65700,0,0,4,1460,312,0,16809984,240000,33580,44,65700,0,44,0,2136732666,63
i,1717751837.643393,10.0.2.15,22,10.0.2.2,53095,1073725440,16310,1026,65535,65700,0,0,4,1460,312,0,0,240000,33580,0,65700,0,0,0,2136732666,63
o,1717751837.644703,10.0.2.15,22,10.0.2.2,53095,1073725440,16310,1026,65535,65700,0,0,4,1460,312,0,16777216,240000,33580,68,65700,0,0,0,2136732666,63
i,1717751837.645351,10.0.2.15,22,10.0.2.2,53095,1073725440,16310,1026,65535,65700,0,0,4,1460,312,0,16809984,240000,33580,68,65700,0,68,0,2136732666,63
i,1717751837.647538,10.0.2.15,22,10.0.2.2,53095,1073725440,16378,1026,65535,65700,0,0,4,1460,312,0,0,240000,33580,0,65700,0,0,0,2136732666,63
o,1717751837.658060,10.0.2.15,22,10.0.2.2,53095,1073725440,16378,1026,65535,65700,0,0,4,1460,312,0,16777216,240000,33580,28,65700,0,0,0,2136732666,63
i,1717751837.658741,10.0.2.15,22,10.0.2.2,53095,1073725440,16378,1026,65535,65700,0,0,4,1460,312,0,16809984,240000,33580,28,65700,0,28,0,2136732666,63
i,1717751837.659224,10.0.2.15,22,10.0.2.2,53095,1073725440,16406,1026,65535,65700,0,0,4,1460,312,0,0,240000,33580,0,65700,0,0,0,2136732666,63
o,1717751837.660096,10.0.2.15,22,10.0.2.2,53095,1073725440,16406,1026,65535,65700,0,0,4,1460,312,0,16777216,240000,33580,768,65700,112,0,0,2136732666,63
i,1717751837.660769,10.0.2.15,22,10.0.2.2,53095,1073725440,16406,1026,65535,65700,0,0,4,1460,312,0,16809984,240000,33580,768,65700,112,768,0,2136732666,63
o,1717751837.661762,10.0.2.15,22,10.0.2.2,53095,1073725440,17174,1026,65535,65700,0,0,4,1460,312,0,16777216,240000,33580,44,65700,0,0,0,2136732666,63
i,1717751837.662270,10.0.2.15,22,10.0.2.2,53095,1073725440,17174,1026,65535,65700,0,0,4,1460,312,0,16809984,240000,33580,44,65700,0,44,0,2136732666,63
i,1717751837.662973,10.0.2.15,22,10.0.2.2,53095,1073725440,17218,1026,65535,65700,0,0,4,1460,312,0,0,240000,33580,0,65700,0,0,0,2136732666,63
o,1717751837.663271,10.0.2.15,22,10.0.2.2,53095,1073725440,17218,1026,65535,65700,0,0,4,1460,312,0,16777220,240000,33580,72,65700,0,0,0,2136732666,63
i,1717751837.664330,10.0.2.15,22,10.0.2.2,53095,1073725440,17218,1026,65535,65700,0,0,4,1460,312,0,16809988,240000,33580,72,65700,0,72,0,2136732666,63
i,1717751837.664333,10.0.2.15,22,10.0.2.2,53095,1073725440,17290,1026,65535,65700,0,0,4,1460,312,0,4,240000,33580,0,65700,0,0,0,2136732666,63
o,1717751837.683845,172.16.1.2,15826,172.16.3.2,5101,22957,14480,2,65535,65700,6,6,4,1460,175312,1,16778209,840000,33580,0,65700,0,0,0,2451817583,63
o,1717751837.683990,172.16.1.2,15826,172.16.3.2,5101,22957,14480,2,65535,65700,6,6,4,1460,175312,1,16778212,840000,33580,37,65700,0,0,0,2451817583,63
o,1717751837.695888,10.0.2.15,22,10.0.2.2,53095,1073725440,17290,1026,65535,65700,0,0,4,1460,312,0,5,240000,33580,0,65700,0,0,0,2136732666,63
i,1717751837.704658,172.16.1.2,15826,172.16.3.2,5101,22957,14480,2,65535,65700,6,6,4,1460,175312,1,16810980,840000,33580,37,65700,0,37,0,2451817583,63
o,1717751837.704761,172.16.1.2,15826,172.16.3.2,5101,22957,14517,1026,65728,65728,6,6,4,1460,155937,1,16778212,860000,33580,4,65700,0,0,0,2451817583,63
o,1717751837.704842,172.16.1.2,15826,172.16.3.2,5101,22957,14517,1026,65728,65728,6,6,4,1460,155937,1,16810980,860000,33580,128,65700,0,4,0,2451817583,63
i,1717751837.725831,172.16.1.2,15826,172.16.3.2,5101,22957,14517,1026,65728,65728,6,6,4,1460,155937,1,16810980,860000,33580,128,65700,0,128,0,2451817583,63
i,1717751837.725836,172.16.1.2,15826,172.16.3.2,5101,22957,14645,1026,65600,65728,6,6,4,1460,139062,1,996,850000,33580,0,65700,0,0,0,2451817583,63
o,1717751837.744336,172.16.1.2,56835,172.16.3.2,5101,22957,14480,2,65535,65700,6,6,4,1460,175312,1,16778209,840000,33580,0,65700,0,0,0,3163939364,63
o,1717751837.744789,172.16.1.2,56835,172.16.3.2,5101,22957,14480,2,65535,65700,6,6,4,1460,175312,1,16778208,840000,33580,37,65700,0,0,0,3163939364,63
i,1717751837.764418,172.16.1.2,15826,172.16.3.2,5101,22957,14645,1026,65728,65728,6,6,4,1460,139062,1,996,850000,33580,0,65700,0,0,0,2451817583,63
o,1717751837.764427,172.16.1.2,15826,172.16.3.2,5101,22957,14645,1026,65728,65728,6,6,4,1460,139062,1,997,850000,33580,0,65700,1,0,0,2451817583,63
i,1717751837.764661,172.16.1.2,15826,172.16.3.2,5101,22957,14645,1026,65728,65728,6,6,4,1460,139062,1,996,850000,33580,0,65700,1,0,0,2451817583,63
o,1717751837.764820,172.16.1.2,56835,172.16.3.2,5101,22957,14480,6,65535,65700,6,6,4,1460,175312,1,16810976,840000,33580,33580,65700,0,37,0,3163939364,63
i,1717751837.785438,172.16.1.2,56835,172.16.3.2,5101,22957,14480,6,65535,65700,6,6,4,1460,175312,1,16810976,840000,33580,33580,65700,0,13069,0,3163939364,63
o,1717751837.785447,172.16.1.2,56835,172.16.3.2,5101,22957,15965,6,64256,65728,6,6,4,1460,158437,1,16778208,840000,33580,32095,65700,0,11584,0,3163939364,63
o,1717751837.785781,172.16.1.2,56835,172.16.3.2,5101,22957,15965,6,64256,65728,6,6,4,1460,158437,1,16810976,840000,33580,32095,65700,0,13032,0,3163939364,63
i,1717751837.786796,172.16.1.2,56835,172.16.3.2,5101,22957,15965,6,64256,65728,6,6,4,1460,158437,1,16810976,840000,33580,32095,65700,0,15928,0,3163939364,63
o,1717751837.786803,172.16.1.2,56835,172.16.3.2,5101,22957,18861,6,62848,65728,6,6,4,1460,142500,1,16810976,830000,33580,29199,65700,0,13032,0,3163939364,63
o,1717751837.795453,172.16.1.2,15826,172.16.3.2,5101,22957,14645,1026,65728,65728,6,6,4,1460,139062,1,997,850000,33580,0,65700,0,0,0,2451817583,63
i,1717751837.813998,172.16.1.2,56835,172.16.3.2,5101,22957,18861,6,62848,65728,6,6,4,1460,142500,1,16810976,830000,41772,41772,65700,0,18824,0,3163939364,63
o,1717751837.814012,172.16.1.2,56835,172.16.3.2,5101,22957,21757,6,64256,65728,6,6,4,1460,130937,1,16810976,790000,41772,38876,65700,0,15928,0,3163939364,63
i,1717751837.815516,172.16.1.2,56835,172.16.3.2,5101,22957,21757,6,64256,65728,6,6,4,1460,130937,1,16810976,790000,49964,49964,65700,0,21720,0,3163939364,63
o,1717751837.815524,172.16.1.2,56835,172.16.3.2,5101,22957,24653,6,64256,65728,6,6,4,1460,122187,1,16810976,740000,49964,47068,65700,0,18824,0,3163939364,63
i,1717751837.834950,172.16.1.2,56835,172.16.3.2,5101,22957,24653,6,64256,65728,6,6,4,1460,122187,1,16810976,740000,58156,58156,65700,0,24616,0,3163939364,63
o,1717751837.834957,172.16.1.2,56835,172.16.3.2,5101,22957,27549,6,64256,65728,6,6,4,1460,117187,1,16810976,670000,58156,55260,65700,0,21720,0,3163939364,63
i,1717751837.836120,172.16.1.2,56835,172.16.3.2,5101,22957,27549,6,64256,65728,6,6,4,1460,117187,1,16810976,670000,58156,58156,65700,0,27512,0,3163939364,63
o,1717751837.836127,172.16.1.2,56835,172.16.3.2,5101,22957,30445,6,62848,65728,6,6,4,1460,109062,1,16810976,640000,58156,55260,65700,0,24616,0,3163939364,63
o,1717751837.836367,172.16.1.2,56835,172.16.3.2,5101,22957,30445,6,62848,65728,6,6,4,1460,109062,1,16810976,640000,66348,55260,65700,0,26064,0,3163939364,63
i,1717751837.854921,172.16.1.2,56835,172.16.3.2,5101,22957,30445,6,62848,65728,6,6,4,1460,109062,1,16810976,640000,66348,66348,65700,0,30408,0,3163939364,63
o,1717751837.854927,172.16.1.2,56835,172.16.3.2,5101,22957,30445,6,62848,65728,6,6,4,1460,104375,1,16810976,590000,66348,63452,65700,0,27512,0,3163939364,63
i,1717751837.874318,172.16.1.2,56835,172.16.3.2,5101,22957,30445,6,62848,65728,6,6,4,1460,104375,1,16810976,590000,66348,66348,65700,0,30408,0,3163939364,63
o,1717751837.874325,172.16.1.2,56835,172.16.3.2,5101,22957,30445,6,64256,65728,6,6,4,1460,101562,1,16810976,540000,66348,63452,65700,0,27512,0,3163939364,63
i,1717751837.875610,172.16.1.2,56835,172.16.3.2,5101,22957,30445,6,64256,65728,6,6,4,1460,101562,1,16810976,540000,66348,66348,65700,0,30408,0,3163939364,63
o,1717751837.875617,172.16.1.2,56835,172.16.3.2,5101,22957,30445,6,64256,65728,6,6,4,1460,99062,1,16810976,490000,66348,63452,65700,0,27512,0,3163939364,63
i,1717751837.894335,172.16.1.2,56835,172.16.3.2,5101,22957,30445,6,64256,65728,6,6,4,1460,99062,1,16810976,490000,66348,66348,65700,0,30408,0,3163939364,63
o,1717751837.894355,172.16.1.2,56835,172.16.3.2,5101,22957,30445,6,64256,65728,6,6,4,1460,95625,1,16810976,470000,66348,63452,65700,0,27512,0,3163939364,63
i,1717751837.895392,172.16.1.2,56835,172.16.3.2,5101,22957,30445,6,64256,65728,6,6,4,1460,95625,1,16810976,470000,66348,66348,65700,0,30408,0,3163939364,63
o,1717751837.895401,172.16.1.2,56835,172.16.3.2,5101,22957,30445,6,62848,65728,6,6,4,1460,93750,1,16778208,440000,66348,63452,65700,0,27512,0,3163939364,63
i,1717751837.915103,172.16.1.2,56835,172.16.3.2,5101,22957,30445,6,62848,65728,6,6,4,1460,93750,1,16810976,440000,66348,66348,65700,0,30408,0,3163939364,63
o,1717751837.915110,172.16.1.2,56835,172.16.3.2,5101,22957,30445,6,62848,65728,6,6,4,1460,94687,1,16810976,410000,66348,63452,65700,0,27512,0,3163939364,63
i,1717751837.934278,172.16.1.2,56835,172.16.3.2,5101,22957,30445,6,62848,65728,6,6,4,1460,94687,1,16810976,410000,66348,66348,65700,0,30408,0,3163939364,63
o,1717751837.934285,172.16.1.2,56835,172.16.3.2,5101,22957,30445,6,64256,65728,6,6,4,1460,96875,1,16810976,400000,66348,63452,65700,0,27512,0,3163939364,63
i,1717751837.935636,172.16.1.2,56835,172.16.3.2,5101,22957,30445,6,64256,65728,6,6,4,1460,96875,1,16810976,400000,66348,66348,65700,0,30408,0,3163939364,63
o,1717751837.935643,172.16.1.2,56835,172.16.3.2,5101,22957,30445,6,64256,65728,6,6,4,1460,96250,1,16810976,380000,66348,63452,65700,0,27512,0,3163939364,63
i,1717751837.954399,172.16.1.2,56835,172.16.3.2,5101,22957,30445,6,64256,65728,6,6,4,1460,96250,1,16810976,380000,66348,66348,65700,0,30408,0,3163939364,63
o,1717751837.954406,172.16.1.2,56835,172.16.3.2,5101,22957,30445,6,64256,65728,6,6,4,1460,98125,1,16810976,380000,66348,63452,65700,0,27512,0,3163939364,63
o,1717751837.954799,172.16.1.2,56835,172.16.3.2,5101,22957,30445,6,64256,65728,6,6,4,1460,98125,1,16810976,380000,66348,63452,65700,0,28960,0,3163939364,63
i,1717751837.955676,172.16.1.2,56835,172.16.3.2,5101,22957,30445,6,64256,65728,6,6,4,1460,98125,1,16810976,380000,66348,66348,65700,0,30408,0,3163939364,63
o,1717751837.955683,172.16.1.2,56835,172.16.3.2,5101,22957,30445,6,62848,65728,6,6,4,1460,99687,1,16810976,370000,66348,63452,65700,0,27512,0,3163939364,63
i,1717751837.974730,172.16.1.2,56835,172.16.3.2,5101,22957,30445,6,62848,65728,6,6,4,1460,99687,1,16810976,370000,66348,66348,65700,0,30408,0,3163939364,63
o,1717751837.974745,172.16.1.2,56835,172.16.3.2,5101,22957,30445,6,62848,65728,6,6,4,1460,103750,1,16810976,390000,66348,63452,65700,0,27512,0,3163939364,63
i,1717751837.994819,172.16.1.2,56835,172.16.3.2,5101,22957,30445,6,62848,65728,6,6,4,1460,103750,1,16810976,390000,66348,66348,65700,0,30408,0,3163939364,63
o,1717751837.994825,172.16.1.2,56835,172.16.3.2,5101,22957,30445,6,64256,65728,6,6,4,1460,107187,1,16810976,400000,66348,63452,65700,0,27512,0,3163939364,63
i,1717751837.996149,172.16.1.2,56835,172.16.3.2,5101,22957,30445,6,64256,65728,6,6,4,1460,107187,1,16810976,400000,66348,66348,65700,0,30408,0,3163939364,63
o,1717751837.996156,172.16.1.2,56835,172.16.3.2,5101,22957,30445,6,64256,65728,6,6,4,1460,109062,1,16810976,390000,66348,63452,65700,0,27512,0,3163939364,63
i,1717751838.014630,172.16.1.2,56835,172.16.3.2,5101,22957,30445,6,64256,65728,6,6,4,1460,109062,1,16810976,390000,66348,66348,65700,0,30408,0,3163939364,63
o,1717751838.014637,172.16.1.2,56835,172.16.3.2,5101,22957,30445,6,64256,65728,6,6,4,1460,113125,1,16810976,410000,66348,63452,65700,0,27512,0,3163939364,63
i,1717751838.016533,172.16.1.2,56835,172.16.3.2,5101,22957,30445,6,64256,65728,6,6,4,1460,113125,1,16810976,410000,66348,66348,65700,0,30408,0,3163939364,63
o,1717751838.016540,172.16.1.2,56835,172.16.3.2,5101,22957,30445,6,62848,65728,6,6,4,1460,114062,1,16810976,390000,66348,63452,65700,0,27512,0,3163939364,63
i,1717751838.035516,172.16.1.2,56835,172.16.3.2,5101,22957,30445,6,62848,65728,6,6,4,1460,114062,1,16810976,390000,66348,66348,65700,0,30408,0,3163939364,63
o,1717751838.035524,172.16.1.2,56835,172.16.3.2,5101,22957,30445,6,62848,65728,6,6,4,1460,117500,1,16810976,400000,66348,63452,65700,0,27512,0,3163939364,63
i,1717751838.054325,172.16.1.2,56835,172.16.3.2,5101,22957,30445,6,62848,65728,6,6,4,1460,117500,1,16810976,400000,66348,66348,65700,0,30408,0,3163939364,63
o,1717751838.054333,172.16.1.2,56835,172.16.3.2,5101,22957,30445,6,64256,65728,6,6,4,1460,119062,1,16810976,390000,66348,63452,65700,0,27512,0,3163939364,63
i,1717751838.055475,172.16.1.2,56835,172.16.3.2,5101,22957,30445,6,64256,65728,6,6,4,1460,119062,1,16810976,390000,66348,65912,65700,0,30408,0,3163939364,63
o,1717751838.055482,172.16.1.2,56835,172.16.3.2,5101,22957,30445,6,64256,65728,6,6,4,1460,119375,1,16810976,380000,66348,63016,65700,0,27512,0,3163939364,63
i,1717751838.074002,172.16.1.2,56835,172.16.3.2,5101,22957,30445,6,64256,65728,6,6,4,1460,119375,1,16810976,380000,66348,66348,65700,0,30408,0,3163939364,63
o,1717751838.074009,172.16.1.2,56835,172.16.3.2,5101,22957,30445,6,64256,65728,6,6,4,1460,120937,1,16810976,380000,66348,63452,65700,0,27512,0,3163939364,63
o,1717751838.074248,172.16.1.2,56835,172.16.3.2,5101,22957,30445,6,64256,65728,6,6,4,1460,120937,1,16810976,380000,66348,63452,65700,0,28960,0,3163939364,63
i,1717751838.075128,172.16.1.2,56835,172.16.3.2,5101,22957,30445,6,64256,65728,6,6,4,1460,120937,1,16810976,380000,66348,66348,65700,0,30408,0,3163939364,63
o,1717751838.075135,172.16.1.2,56835,172.16.3.2,5101,22957,30445,6,62848,65728,6,6,4,1460,120937,1,16810976,360000,66348,63452,65700,0,27512,0,3163939364,63
i,1717751838.094904,172.16.1.2,56835,172.16.3.2,5101,22957,30445,6,62848,65728,6,6,4,1460,120937,1,16810976,360000,66348,66348,65700,0,30408,0,3163939364,63
o,1717751838.094911,172.16.1.2,56835,172.16.3.2,5101,22957,30445,6,62848,65728,6,6,4,1460,123437,1,16810976,370000,66348,63452,65700,0,27512,0,3163939364,63
i,1717751838.113831,172.16.1.2,56835,172.16.3.2,5101,22957,30445,6,62848,65728,6,6,4,1460,123437,1,16810976,370000,66348,66348,65700,0,30408,0,3163939364,63
o,1717751838.113839,172.16.1.2,56835,172.16.3.2,5101,22957,30445,6,64256,65728,6,6,4,1460,124375,1,16810976,370000,66348,63452,65700,0,27512,0,3163939364,63
i,1717751838.115293,172.16.1.2,56835,172.16.3.2,5101,22957,30445,6,64256,65728,6,6,4,1460,124375,1,16810976,370000,66348,66348,65700,0,30408,0,3163939364,63
o,1717751838.115301,172.16.1.2,56835,172.16.3.2,5101,22957,30445,6,64256,65728,6,6,4,1460,124062,1,16810976,360000,66348,63452,65700,0,27512,0,3163939364,63
i,1717751838.134671,172.16.1.2,56835,172.16.3.2,5101,22957,30445,6,64256,65728,6,6,4,1460,124062,1,16810976,360000,66348,66348,65700,0,30408,0,3163939364,63
o,1717751838.134678,172.16.1.2,56835,172.16.3.2,5101,22957,30445,6,64256,65728,6,6,4,1460,126250,1,16810976,370000,66348,63452,65700,0,27512,0,3163939364,63
i,1717751838.135728,172.16.1.2,56835,172.16.3.2,5101,22957,30445,6,64256,65728,6,6,4,1460,126250,1,16810976,370000,66348,66348,65700,0,30408,0,3163939364,63
o,1717751838.135734,172.16.1.2,56835,172.16.3.2,5101,22957,30445,6,62848,65728,6,6,4,1460,125625,1,16810976,360000,66348,63452,65700,0,27512,0,3163939364,63
i,1717751838.154527,172.16.1.2,56835,172.16.3.2,5101,22957,30445,6,62848,65728,6,6,4,1460,125625,1,16810976,360000,66348,66348,65700,0,30408,0,3163939364,63
o,1717751838.154533,172.16.1.2,56835,172.16.3.2,5101,22957,30445,6,62848,65728,6,6,4,1460,126250,1,16778208,360000,66348,63452,65700,0,27512,0,3163939364,63
i,1717751838.174696,172.16.1.2,56835,172.16.3.2,5101,22957,30445,6,62848,65728,6,6,4,1460,126250,1,16810976,360000,66348,66348,65700,0,30408,0,3163939364,63
o,1717751838.174703,172.16.1.2,56835,172.16.3.2,5101,22957,30445,6,64256,65728,6,6,4,1460,126875,1,16810976,360000,66348,63452,65700,0,27512,0,3163939364,63
i,1717751838.175901,172.16.1.2,56835,172.16.3.2,5101,22957,30445,6,64256,65728,6,6,4,1460,126875,1,16810976,360000,66348,66348,65700,0,30408,0,3163939364,63
o,1717751838.175908,172.16.1.2,56835,172.16.3.2,5101,22957,30445,6,64256,65728,6,6,4,1460,126250,1,16810976,350000,66348,63452,65700,0,27512,0,3163939364,63
i,1717751838.194825,172.16.1.2,56835,172.16.3.2,5101,22957,30445,6,64256,65728,6,6,4,1460,126250,1,16810976,350000,66348,66348,65700,0,30408,0,3163939364,63
o,1717751838.194839,172.16.1.2,56835,172.16.3.2,5101,22957,30445,6,64256,65728,6,6,4,1460,128125,1,16810976,360000,66348,63452,65700,0,27512,0,3163939364,63
o,1717751838.195115,172.16.1.2,56835,172.16.3.2,5101,22957,30445,6,64256,65728,6,6,4,1460,128125,1,16810976,360000,66348,63452,65700,0,28960,0,3163939364,63
i,1717751838.196002,172.16.1.2,56835,172.16.3.2,5101,22957,30445,6,64256,65728,6,6,4,1460,128125,1,16810976,360000,66348,66348,65700,0,30408,0,3163939364,63
o,1717751838.196010,172.16.1.2,56835,172.16.3.2,5101,22957,30445,6,62848,65728,6,6,4,1460,127187,1,16810976,360000,66348,63452,65700,0,27512,0,3163939364,63
i,1717751838.214654,172.16.1.2,56835,172.16.3.2,5101,22957,30445,6,62848,65728,6,6,4,1460,127187,1,16810976,360000,66348,66348,65700,0,30408,0,3163939364,63
o,1717751838.214664,172.16.1.2,56835,172.16.3.2,5101,22957,30445,6,62848,65728,6,6,4,1460,129062,1,16810976,370000,66348,63452,65700,0,27512,0,3163939364,63
i,1717751838.233917,172.16.1.2,56835,172.16.3.2,5101,22957,30445,6,62848,65728,6,6,4,1460,129062,1,16810976,370000,66348,66348,65700,0,30408,0,3163939364,63
o,1717751838.233925,172.16.1.2,56835,172.16.3.2,5101,22957,30445,6,64256,65728,6,6,4,1460,129375,1,16810976,360000,66348,63452,65700,0,27512,0,3163939364,63
i,1717751838.244070,172.16.1.2,56835,172.16.3.2,5101,22957,30445,6,64256,65728,6,6,4,1460,129375,1,16810976,360000,66348,66348,65700,0,30408,0,3163939364,63
o,1717751838.244077,172.16.1.2,56835,172.16.3.2,5101,22957,30445,6,64256,65728,6,6,4,1460,128437,1,16810976,360000,66348,63452,65700,0,27512,0,3163939364,63
i,1717751838.245458,172.16.1.2,56835,172.16.3.2,5101,22957,30445,6,64256,65728,6,6,4,1460,128437,1,16810976,360000,66348,66348,65700,0,30408,0,3163939364,63
o,1717751838.245464,172.16.1.2,56835,172.16.3.2,5101,22957,30445,6,64256,65728,6,6,4,1460,128750,1,16810976,360000,66348,63452,65700,0,27512,0,3163939364,63
i,1717751838.264532,172.16.1.2,56835,172.16.3.2,5101,22957,30445,6,64256,65728,6,6,4,1460,128750,1,16810976,360000,66348,66348,65700,0,30408,0,3163939364,63
o,1717751838.264547,172.16.1.2,56835,172.16.3.2,5101,22957,30445,6,62848,65728,6,6,4,1460,127812,1,16810976,360000,66348,63452,65700,0,27512,0,3163939364,63
i,1717751838.265777,172.16.1.2,56835,172.16.3.2,5101,22957,30445,6,62848,65728,6,6,4,1460,127812,1,16810976,360000,66348,66348,65700,0,30408,0,3163939364,63
o,1717751838.265783,172.16.1.2,56835,172.16.3.2,5101,22957,30445,6,62848,65728,6,6,4,1460,128125,1,16810976,350000,66348,63452,65700,0,27512,0,3163939364,63
i,1717751838.294029,172.16.1.2,56835,172.16.3.2,5101,22957,30445,6,62848,65728,6,6,4,1460,128125,1,16810976,350000,66348,66348,65700,0,30408,0,3163939364,63
o,1717751838.294037,172.16.1.2,56835,172.16.3.2,5101,22957,30445,6,64256,65728,6,6,4,1460,129687,1,16810976,360000,66348,63452,65700,0,27512,0,3163939364,63
i,1717751838.295122,172.16.1.2,56835,172.16.3.2,5101,22957,30445,6,64256,65728,6,6,4,1460,129687,1,16810976,360000,66348,66348,65700,0,30408,0,3163939364,63
o,1717751838.295129,172.16.1.2,56835,172.16.3.2,5101,22957,30445,6,64256,65728,6,6,4,1460,128750,1,16810976,360000,66348,63452,65700,0,27512,0,3163939364,63
i,1717751838.314905,172.16.1.2,56835,172.16.3.2,5101,22957,30445,6,64256,65728,6,6,4,1460,128750,1,16810976,360000,66348,66348,65700,0,30408,0,3163939364,63
o,1717751838.314918,172.16.1.2,56835,172.16.3.2,5101,22957,30445,6,64256,65728,6,6,4,1460,130312,1,16810976,370000,66348,63452,65700,0,27512,0,3163939364,63
o,1717751838.315156,172.16.1.2,56835,172.16.3.2,5101,22957,30445,6,64256,65728,6,6,4,1460,130312,1,16810976,370000,66348,63452,65700,0,28960,0,3163939364,63
i,1717751838.316142,172.16.1.2,56835,172.16.3.2,5101,22957,30445,6,64256,65728,6,6,4,1460,130312,1,16810976,370000,66348,66348,65700,0,30408,0,3163939364,63
o,1717751838.316156,172.16.1.2,56835,172.16.3.2,5101,22957,30445,6,62848,65728,6,6,4,1460,129062,1,16810976,360000,66348,63452,65700,0,27512,0,3163939364,63
i,1717751838.335383,172.16.1.2,56835,172.16.3.2,5101,22957,30445,6,62848,65728,6,6,4,1460,129062,1,16810976,360000,66348,66348,65700,0,30408,0,3163939364,63
o,1717751838.335389,172.16.1.2,56835,172.16.3.2,5101,22957,30445,6,62848,65728,6,6,4,1460,130625,1,16810976,370000,66348,63452,65700,0,27512,0,3163939364,63
i,1717751838.354441,172.16.1.2,56835,172.16.3.2,5101,22957,30445,6,62848,65728,6,6,4,1460,130625,1,16810976,370000,66348,66348,65700,0,30408,0,3163939364,63
o,1717751838.354447,172.16.1.2,56835,172.16.3.2,5101,22957,30445,6,64256,65728,6,6,4,1460,130625,1,16810976,360000,66348,63452,65700,0,27512,0,3163939364,63
i,1717751838.355964,172.16.1.2,56835,172.16.3.2,5101,22957,30445,6,64256,65728,6,6,4,1460,130625,1,16810976,360000,66348,66348,65700,0,30408,0,3163939364,63
o,1717751838.355968,172.16.1.2,56835,172.16.3.2,5101,22957,30445,6,64256,65728,6,6,4,1460,129375,1,16810976,360000,66348,63452,65700,0,27512,0,3163939364,63
i,1717751838.374008,172.16.1.2,56835,172.16.3.2,5101,22957,30445,6,64256,65728,6,6,4,1460,129375,1,16810976,360000,66348,66348,65700,0,30408,0,3163939364,63
o,1717751838.374015,172.16.1.2,56835,172.16.3.2,5101,22957,30445,6,64256,65728,6,6,4,1460,129687,1,16810976,350000,66348,63452,65700,0,27512,0,3163939364,63
i,1717751838.375042,172.16.1.2,56835,172.16.3.2,5101,22957,30445,6,64256,65728,6,6,4,1460,129687,1,16810976,350000,66348,66348,65700,0,30408,0,3163939364,63
o,1717751838.375049,172.16.1.2,56835,172.16.3.2,5101,22957,30445,6,62848,65728,6,6,4,1460,130000,1,16810976,350000,66348,63452,65700,0,27512,0,3163939364,63
i,1717751838.394107,172.16.1.2,56835,172.16.3.2,5101,22957,30445,6,62848,65728,6,6,4,1460,130000,1,16810976,350000,66348,66348,65700,0,30408,0,3163939364,63
o,1717751838.394116,172.16.1.2,56835,172.16.3.2,5101,22957,30445,6,62848,65728,6,6,4,1460,130000,1,16810976,350000,66348,63452,65700,0,27512,0,3163939364,63
i,1717751838.414097,172.16.1.2,56835,172.16.3.2,5101,22957,30445,6,62848,65728,6,6,4,1460,130000,1,16810976,350000,66348,66348,65700,0,30408,0,3163939364,63
o,1717751838.414111,172.16.1.2,56835,172.16.3.2,5101,22957,30445,6,64256,65728,6,6,4,1460,131250,1,16778208,350000,66348,63452,65700,0,27512,0,3163939364,63
i,1717751838.415925,172.16.1.2,56835,172.16.3.2,5101,22957,30445,6,64256,65728,6,6,4,1460,131250,1,16810976,350000,66348,66348,65700,0,30408,0,3163939364,63
o,1717751838.415932,172.16.1.2,56835,172.16.3.2,5101,22957,30445,6,64256,65728,6,6,4,1460,131250,1,16810976,350000,66348,63452,65700,0,27512,0,3163939364,63
i,1717751838.433916,172.16.1.2,56835,172.16.3.2,5101,22957,30445,6,64256,65728,6,6,4,1460,131250,1,16810976,350000,66348,66348,65700,0,30408,0,3163939364,63
o,1717751838.433923,172.16.1.2,56835,172.16.3.2,5101,22957,30445,6,64256,65728,6,6,4,1460,131250,1,16810976,340000,66348,63452,65700,0,27512,0,3163939364,63
o,1717751838.434162,172.16.1.2,56835,172.16.3.2,5101,22957,30445,6,64256,65728,6,6,4,1460,131250,1,16810976,340000,66348,63452,65700,0,28960,0,3163939364,63
i,1717751838.435280,172.16.1.2,56835,172.16.3.2,5101,22957,30445,6,64256,65728,6,6,4,1460,131250,1,16810976,340000,66348,66348,65700,0,30408,0,3163939364,63
o,1717751838.435288,172.16.1.2,56835,172.16.3.2,5101,22957,30445,6,62848,65728,6,6,4,1460,130000,1,16810976,350000,66348,63452,65700,0,27512,0,3163939364,63
i,1717751838.454055,172.16.1.2,56835,172.16.3.2,5101,22957,30445,6,62848,65728,6,6,4,1460,130000,1,16810976,350000,66348,66348,65700,0,30408,0,3163939364,63
o,1717751838.454062,172.16.1.2,56835,172.16.3.2,5101,22957,30445,6,62848,65728,6,6,4,1460,130000,1,16810976,340000,66348,63452,65700,0,27512,0,3163939364,63
i,1717751838.474101,172.16.1.2,56835,172.16.3.2,5101,22957,30445,6,62848,65728,6,6,4,1460,130000,1,16810976,340000,66348,66348,65700,0,30408,0,3163939364,63
o,1717751838.474108,172.16.1.2,56835,172.16.3.2,5101,22957,30445,6,64256,65728,6,6,4,1460,130000,1,16810976,340000,66348,63452,65700,0,27512,0,3163939364,63
i,1717751838.475356,172.16.1.2,56835,172.16.3.2,5101,22957,30445,6,64256,65728,6,6,4,1460,130000,1,16810976,340000,66348,66348,65700,0,30408,0,3163939364,63
o,1717751838.475363,172.16.1.2,56835,172.16.3.2,5101,22957,30445,6,64256,65728,6,6,4,1460,130000,1,16810976,340000,66348,63452,65700,0,27512,0,3163939364,63
i,1717751838.494180,172.16.1.2,56835,172.16.3.2,5101,22957,30445,6,64256,65728,6,6,4,1460,130000,1,16810976,340000,66348,66348,65700,0,30408,0,3163939364,63
o,1717751838.494186,172.16.1.2,56835,172.16.3.2,5101,22957,30445,6,64256,65728,6,6,4,1460,130000,1,16810976,340000,66348,63452,65700,0,27512,0,3163939364,63
i,1717751838.495249,172.16.1.2,56835,172.16.3.2,5101,22957,30445,6,64256,65728,6,6,4,1460,130000,1,16810976,340000,66348,66348,65700,0,30408,0,3163939364,63
o,1717751838.495256,172.16.1.2,56835,172.16.3.2,5101,22957,30445,6,62848,65728,6,6,4,1460,128750,1,16810976,340000,66348,63452,65700,0,27512,0,3163939364,63
i,1717751838.515382,172.16.1.2,56835,172.16.3.2,5101,22957,30445,6,62848,65728,6,6,4,1460,128750,1,16810976,340000,66348,66348,65700,0,30408,0,3163939364,63
o,1717751838.515388,172.16.1.2,56835,172.16.3.2,5101,22957,30445,6,62848,65728,6,6,4,1460,130312,1,16810976,350000,66348,63452,65700,0,27512,0,3163939364,63
i,1717751838.533467,172.16.1.2,56835,172.16.3.2,5101,22957,30445,6,62848,65728,6,6,4,1460,130312,1,16810976,350000,66348,66348,65700,0,30408,0,3163939364,63
o,1717751838.533474,172.16.1.2,56835,172.16.3.2,5101,22957,30445,6,64256,65728,6,6,4,1460,131562,1,16810976,360000,66348,63452,65700,0,27512,0,3163939364,63
i,1717751838.534672,172.16.1.2,56835,172.16.3.2,5101,22957,30445,6,64256,65728,6,6,4,1460,131562,1,16810976,360000,66348,66348,65700,0,30408,0,3163939364,63
o,1717751838.534679,172.16.1.2,56835,172.16.3.2,5101,22957,30445,6,64256,65728,6,6,4,1460,130312,1,16810976,360000,66348,63452,65700,0,27512,0,3163939364,63
i,1717751838.554339,172.16.1.2,56835,172.16.3.2,5101,22957,30445,6,64256,65728,6,6,4,1460,130312,1,16810976,360000,66348,66348,65700,0,30408,0,3163939364,63
o,1717751838.554345,172.16.1.2,56835,172.16.3.2,5101,22957,30445,6,64256,65728,6,6,4,1460,130312,1,16810976,350000,66348,63452,65700,0,27512,0,3163939364,63
o,1717751838.554689,172.16.1.2,56835,172.16.3.2,5101,22957,30445,6,64256,65728,6,6,4,1460,130312,1,16810976,350000,66348,63452,65700,0,28960,0,3163939364,63
i,1717751838.555670,172.16.1.2,56835,172.16.3.2,5101,22957,30445,6,64256,65728,6,6,4,1460,130312,1,16810976,350000,66348,66348,65700,0,30408,0,3163939364,63
o,1717751838.555678,172.16.1.2,56835,172.16.3.2,5101,22957,30445,6,62848,65728,6,6,4,1460,129062,1,16810976,360000,66348,63452,65700,0,27512,0,3163939364,63
i,1717751838.574169,172.16.1.2,56835,172.16.3.2,5101,22957,30445,6,62848,65728,6,6,4,1460,129062,1,16810976,360000,66348,66348,65700,0,30408,0,3163939364,63
o,1717751838.574175,172.16.1.2,56835,172.16.3.2,5101,22957,30445,6,62848,65728,6,6,4,1460,129375,1,16810976,350000,66348,63452,65700,0,27512,0,3163939364,63
i,1717751838.594021,172.16.1.2,56835,172.16.3.2,5101,22957,30445,6,62848,65728,6,6,4,1460,129375,1,16810976,350000,66348,66348,65700,0,30408,0,3163939364,63
o,1717751838.594030,172.16.1.2,56835,172.16.3.2,5101,22957,30445,6,64256,65728,6,6,4,1460,130937,1,16810976,360000,66348,63452,65700,0,27512,0,3163939364,63
i,1717751838.595445,172.16.1.2,56835,172.16.3.2,5101,22957,30445,6,64256,65728,6,6,4,1460,130937,1,16810976,360000,66348,66348,65700,0,30408,0,3163939364,63
o,1717751838.595452,172.16.1.2,56835,172.16.3.2,5101,22957,30445,6,64256,65728,6,6,4,1460,129687,1,16810976,360000,66348,63452,65700,0,27512,0,3163939364,63
i,1717751838.613863,172.16.1.2,56835,172.16.3.2,5101,22957,30445,6,64256,65728,6,6,4,1460,129687,1,16810976,360000,66348,66348,65700,0,30408,0,3163939364,63
o,1717751838.613873,172.16.1.2,56835,172.16.3.2,5101,22957,30445,6,64256,65728,6,6,4,1460,130000,1,16810976,360000,66348,63452,65700,0,27512,0,3163939364,63
i,1717751838.614978,172.16.1.2,56835,172.16.3.2,5101,22957,30445,6,64256,65728,6,6,4,1460,130000,1,16810976,360000,66348,66348,65700,0,30408,0,3163939364,63
o,1717751838.614985,172.16.1.2,56835,172.16.3.2,5101,22957,30445,6,62848,65728,6,6,4,1460,130000,1,16810976,350000,66348,63452,65700,0,27512,0,3163939364,63
i,1717751838.634661,172.16.1.2,56835,172.16.3.2,5101,22957,30445,6,62848,65728,6,6,4,1460,130000,1,16810976,350000,66348,66348,65700,0,30408,0,3163939364,63
o,1717751838.634669,172.16.1.2,56835,172.16.3.2,5101,22957,30445,6,62848,65728,6,6,4,1460,130000,1,16810976,350000,66348,63452,65700,0,27512,0,3163939364,63
i,1717751838.654691,172.16.1.2,56835,172.16.3.2,5101,22957,30445,6,62848,65728,6,6,4,1460,130000,1,16810976,350000,66348,66348,65700,0,30408,0,3163939364,63
o,1717751838.654700,172.16.1.2,56835,172.16.3.2,5101,22957,30445,6,64256,65728,6,6,4,1460,130000,1,16810976,340000,66348,63452,65700,0,27512,0,3163939364,63
i,1717751838.655922,172.16.1.2,56835,172.16.3.2,5101,22957,30445,6,64256,65728,6,6,4,1460,130000,1,16810976,340000,66348,66348,65700,0,30408,0,3163939364,63
o,1717751838.655929,172.16.1.2,56835,172.16.3.2,5101,22957,30445,6,64256,65728,6,6,4,1460,128750,1,16778208,350000,66348,63452,65700,0,27512,0,3163939364,63
i,1717751838.673368,172.16.1.2,56835,172.16.3.2,5101,22957,30445,6,64256,65728,6,6,4,1460,128750,1,16810976,350000,66348,66348,65700,0,30408,0,3163939364,63
o,1717751838.673376,172.16.1.2,56835,172.16.3.2,5101,22957,30445,6,64256,65728,6,6,4,1460,129062,1,16810976,340000,66348,63452,65700,0,27512,0,3163939364,63
o,1717751838.673632,172.16.1.2,56835,172.16.3.2,5101,22957,30445,6,64256,65728,6,6,4,1460,129062,1,16810976,340000,66348,63452,65700,0,28960,0,3163939364,63
i,1717751838.674681,172.16.1.2,56835,172.16.3.2,5101,22957,30445,6,64256,65728,6,6,4,1460,129062,1,16810976,340000,66348,66348,65700,0,30408,0,3163939364,63
o,1717751838.674689,172.16.1.2,56835,172.16.3.2,5101,22957,30445,6,62848,65728,6,6,4,1460,128125,1,16810976,350000,66348,63452,65700,0,27512,0,3163939364,63
i,1717751838.694198,172.16.1.2,56835,172.16.3.2,5101,22957,30445,6,62848,65728,6,6,4,1460,128125,1,16810976,350000,66348,66348,65700,0,30408,0,3163939364,63
o,1717751838.694205,172.16.1.2,56835,172.16.3.2,5101,22957,30445,6,62848,65728,6,6,4,1460,128437,1,16810976,340000,66348,63452,65700,0,27512,0,3163939364,63
i,1717751838.714860,172.16.1.2,56835,172.16.3.2,5101,22957,30445,6,62848,65728,6,6,4,1460,128437,1,16810976,340000,66348,66348,65700,0,30408,0,3163939364,63
o,1717751838.714867,172.16.1.2,56835,172.16.3.2,5101,22957,30445,6,64256,65728,6,6,4,1460,130000,1,16810976,350000,66348,63452,65700,0,27512,0,3163939364,63
i,1717751838.716043,172.16.1.2,56835,172.16.3.2,5101,22957,30445,6,64256,65728,6,6,4,1460,130000,1,16810976,350000,66348,66348,65700,0,30408,0,3163939364,63
o,1717751838.716050,172.16.1.2,56835,172.16.3.2,5101,22957,30445,6,64256,65728,6,6,4,1460,128750,1,16810976,360000,66348,63452,65700,0,27512,0,3163939364,63
i,1717751838.733777,172.16.1.2,56835,172.16.3.2,5101,22957,30445,6,64256,65728,6,6,4,1460,128750,1,16810976,360000,66348,66348,65700,0,30408,0,3163939364,63
o,1717751838.733786,172.16.1.2,56835,172.16.3.2,5101,22957,30445,6,64256,65728,6,6,4,1460,129062,1,16810976,350000,66348,63452,65700,0,27512,0,3163939364,63
i,1717751838.734932,172.16.1.2,56835,172.16.3.2,5101,22957,30445,6,64256,65728,6,6,4,1460,129062,1,16810976,350000,66348,66348,65700,0,30408,0,3163939364,63
o,1717751838.734940,172.16.1.2,56835,172.16.3.2,5101,22957,30445,6,62848,65728,6,6,4,1460,128125,1,16810976,350000,66348,63452,65700,0,27512,0,3163939364,63
i,1717751838.754647,172.16.1.2,56835,172.16.3.2,5101,22957,30445,6,62848,65728,6,6,4,1460,128125,1,16810976,350000,66348,66348,65700,0,30408,0,3163939364,63
o,1717751838.754654,172.16.1.2,56835,172.16.3.2,5101,22957,30445,6,62848,65728,6,6,4,1460,128437,1,16810976,350000,66348,63452,65700,0,27512,0,3163939364,63
i,1717751838.775198,172.16.1.2,56835,172.16.3.2,5101,22957,30445,6,62848,65728,6,6,4,1460,128437,1,16810976,350000,66348,66348,65700,0,30408,0,3163939364,63
o,1717751838.775206,172.16.1.2,56835,172.16.3.2,5101,22957,30445,6,64256,65728,6,6,4,1460,130000,1,16810976,360000,66348,63452,65700,0,27512,0,3163939364,63
i,1717751838.776205,172.16.1.2,56835,172.16.3.2,5101,22957,30445,6,64256,65728,6,6,4,1460,130000,1,16810976,360000,66348,66348,65700,0,30408,0,3163939364,63
o,1717751838.776210,172.16.1.2,56835,172.16.3.2,5101,22957,30445,6,64256,65728,6,6,4,1460,128750,1,16810976,360000,66348,63452,65700,0,27512,0,3163939364,63
i,1717751838.794648,172.16.1.2,56835,172.16.3.2,5101,22957,30445,6,64256,65728,6,6,4,1460,128750,1,16810976,360000,66348,66348,65700,0,30408,0,3163939364,63
o,1717751838.794656,172.16.1.2,56835,172.16.3.2,5101,22957,30445,6,64256,65728,6,6,4,1460,130312,1,16810976,370000,66348,63452,65700,0,27512,0,3163939364,63
o,1717751838.794950,172.16.1.2,56835,172.16.3.2,5101,22957,30445,6,64256,65728,6,6,4,1460,130312,1,16810976,370000,66348,63452,65700,0,28960,0,3163939364,63
i,1717751838.796157,172.16.1.2,56835,172.16.3.2,5101,22957,30445,6,64256,65728,6,6,4,1460,130312,1,16810976,370000,66348,66348,65700,0,30408,0,3163939364,63
o,1717751838.796164,172.16.1.2,56835,172.16.3.2,5101,22957,30445,6,62848,65728,6,6,4,1460,129062,1,16810976,360000,66348,63452,65700,0,27512,0,3163939364,63
i,1717751838.813247,172.16.1.2,56835,172.16.3.2,5101,22957,30445,6,62848,65728,6,6,4,1460,129062,1,16810976,360000,66348,66348,65700,0,30408,0,3163939364,63
o,1717751838.813256,172.16.1.2,56835,172.16.3.2,5101,22957,30445,6,62848,65728,6,6,4,1460,129375,1,16810976,360000,66348,63452,65700,0,27512,0,3163939364,63
i,1717751838.834037,172.16.1.2,56835,172.16.3.2,5101,22957,30445,6,62848,65728,6,6,4,1460,129375,1,16810976,360000,66348,66348,65700,0,30408,0,3163939364,63
o,1717751838.834046,172.16.1.2,56835,172.16.3.2,5101,22957,30445,6,64256,65728,6,6,4,1460,130937,1,16810976,360000,66348,63452,65700,0,27512,0,3163939364,63
i,1717751838.835396,172.16.1.2,56835,172.16.3.2,5101,22957,30445,6,64256,65728,6,6,4,1460,130937,1,16810976,360000,66348,66348,65700,0,30408,0,3163939364,63
o,1717751838.835402,172.16.1.2,56835,172.16.3.2,5101,22957,30445,6,64256,65728,6,6,4,1460,129687,1,16810976,360000,66348,63452,65700,0,27512,0,3163939364,63
i,1717751838.853767,172.16.1.2,56835,172.16.3.2,5101,22957,30445,6,64256,65728,6,6,4,1460,129687,1,16810976,360000,66348,66348,65700,0,30408,0,3163939364,63
o,1717751838.853774,172.16.1.2,56835,172.16.3.2,5101,22957,30445,6,64256,65728,6,6,4,1460,130000,1,16810976,360000,66348,63452,65700,0,27512,0,3163939364,63
i,1717751838.854846,172.16.1.2,56835,172.16.3.2,5101,22957,30445,6,64256,65728,6,6,4,1460,130000,1,16810976,360000,66348,66348,65700,0,30408,0,3163939364,63
o,1717751838.854853,172.16.1.2,56835,172.16.3.2,5101,22957,30445,6,62848,65728,6,6,4,1460,128750,1,16810976,360000,66348,63452,65700,0,27512,0,3163939364,63
i,1717751838.874307,172.16.1.2,56835,172.16.3.2,5101,22957,30445,6,62848,65728,6,6,4,1460,128750,1,16810976,360000,66348,66348,65700,0,30408,0,3163939364,63
o,1717751838.874314,172.16.1.2,56835,172.16.3.2,5101,22957,30445,6,62848,65728,6,6,4,1460,129062,1,16810976,350000,66348,63452,65700,0,27512,0,3163939364,63
i,1717751838.893642,172.16.1.2,56835,172.16.3.2,5101,22957,30445,6,62848,65728,6,6,4,1460,129062,1,16810976,350000,66348,66348,65700,0,30408,0,3163939364,63
o,1717751838.893650,172.16.1.2,56835,172.16.3.2,5101,22957,30445,6,64256,65728,6,6,4,1460,129375,1,16810976,350000,66348,63452,65700,0,27512,0,3163939364,63
i,1717751838.894821,172.16.1.2,56835,172.16.3.2,5101,22957,30445,6,64256,65728,6,6,4,1460,129375,1,16810976,350000,66348,66348,65700,0,30408,0,3163939364,63
o,1717751838.894828,172.16.1.2,56835,172.16.3.2,5101,22957,30445,6,64256,65728,6,6,4,1460,127187,1,16810976,360000,66348,63452,65700,0,27512,0,3163939364,63
i,1717751838.913367,172.16.1.2,56835,172.16.3.2,5101,22957,30445,6,64256,65728,6,6,4,1460,127187,1,16810976,360000,66348,66348,65700,0,30408,0,3163939364,63
o,1717751838.913377,172.16.1.2,56835,172.16.3.2,5101,22957,30445,6,64256,65728,6,6,4,1460,127812,1,16778208,360000,66348,63452,65700,0,27512,0,3163939364,63
o,1717751838.913620,172.16.1.2,56835,172.16.3.2,5101,22957,30445,6,64256,65728,6,6,4,1460,127812,1,16810976,360000,66348,63452,65700,0,28960,0,3163939364,63
i,1717751838.915436,172.16.1.2,56835,172.16.3.2,5101,22957,30445,6,64256,65728,6,6,4,1460,127812,1,16810976,360000,66348,66348,65700,0,30408,0,3163939364,63
o,1717751838.915443,172.16.1.2,56835,172.16.3.2,5101,22957,30445,6,62848,65728,6,6,4,1460,126875,1,16810976,360000,66348,63452,65700,0,27512,0,3163939364,63
i,1717751838.934185,172.16.1.2,56835,172.16.3.2,5101,22957,30445,6,62848,65728,6,6,4,1460,126875,1,16810976,360000,66348,66348,65700,0,30408,0,3163939364,63
o,1717751838.934192,172.16.1.2,56835,172.16.3.2,5101,22957,30445,6,62848,65728,6,6,4,1460,127500,1,16810976,360000,66348,63452,65700,0,27512,0,3163939364,63
i,1717751838.953987,172.16.1.2,56835,172.16.3.2,5101,22957,30445,6,62848,65728,6,6,4,1460,127500,1,16810976,360000,66348,66348,65700,0,30408,0,3163939364,63
o,1717751838.953994,172.16.1.2,56835,172.16.3.2,5101,22957,30445,6,64256,65728,6,6,4,1460,129062,1,16810976,360000,66348,63452,65700,0,27512,0,3163939364,63
i,1717751838.955397,172.16.1.2,56835,172.16.3.2,5101,22957,30445,6,64256,65728,6,6,4,1460,129062,1,16810976,360000,66348,66348,65700,0,30408,0,3163939364,63
o,1717751838.955404,172.16.1.2,56835,172.16.3.2,5101,22957,30445,6,64256,65728,6,6,4,1460,128125,1,16810976,360000,66348,63452,65700,0,27512,0,3163939364,63
i,1717751838.974627,172.16.1.2,56835,172.16.3.2,5101,22957,30445,6,64256,65728,6,6,4,1460,128125,1,16810976,360000,66348,66348,65700,0,30408,0,3163939364,63
o,1717751838.974633,172.16.1.2,56835,172.16.3.2,5101,22957,30445,6,64256,65728,6,6,4,1460,128437,1,16810976,360000,66348,63452,65700,0,27512,0,3163939364,63
i,1717751838.975751,172.16.1.2,56835,172.16.3.2,5101,22957,30445,6,64256,65728,6,6,4,1460,128437,1,16810976,360000,66348,66348,65700,0,30408,0,3163939364,63
o,1717751838.975759,172.16.1.2,56835,172.16.3.2,5101,22957,30445,6,62848,65728,6,6,4,1460,127500,1,16810976,360000,66348,63452,65700,0,27512,0,3163939364,63
i,1717751838.994129,172.16.1.2,56835,172.16.3.2,5101,22957,30445,6,62848,65728,6,6,4,1460,127500,1,16810976,360000,66348,66348,65700,0,30408,0,3163939364,63
o,1717751838.994136,172.16.1.2,56835,172.16.3.2,5101,22957,30445,6,62848,65728,6,6,4,1460,127812,1,16810976,350000,66348,63452,65700,0,27512,0,3163939364,63
i,1717751839.013771,172.16.1.2,56835,172.16.3.2,5101,22957,30445,6,62848,65728,6,6,4,1460,127812,1,16810976,350000,66348,66348,65700,0,30408,0,3163939364,63
o,1717751839.013780,172.16.1.2,56835,172.16.3.2,5101,22957,30445,6,64256,65728,6,6,4,1460,129375,1,16810976,360000,66348,63452,65700,0,27512,0,3163939364,63
i,1717751839.014974,172.16.1.2,56835,172.16.3.2,5101,22957,30445,6,64256,65728,6,6,4,1460,129375,1,16810976,360000,66348,66348,65700,0,30408,0,3163939364,63
o,1717751839.014981,172.16.1.2,56835,172.16.3.2,5101,22957,30445,6,64256,65728,6,6,4,1460,129687,1,16810976,350000,66348,63452,65700,0,27512,0,3163939364,63
i,1717751839.034375,172.16.1.2,56835,172.16.3.2,5101,22957,30445,6,64256,65728,6,6,4,1460,129687,1,16810976,350000,66348,66348,65700,0,30408,0,3163939364,63
o,1717751839.034382,172.16.1.2,56835,172.16.3.2,5101,22957,30445,6,64256,65728,6,6,4,1460,130000,1,16810976,350000,66348,63452,65700,0,27512,0,3163939364,63
o,1717751839.034792,172.16.1.2,56835,172.16.3.2,5101,22957,30445,6,64256,65728,6,6,4,1460,130000,1,16810976,350000,66348,63452,65700,0,28960,0,3163939364,63
i,1717751839.035717,172.16.1.2,56835,172.16.3.2,5101,22957,30445,6,64256,65728,6,6,4,1460,130000,1,16810976,350000,66348,66348,65700,0,30408,0,3163939364,63
o,1717751839.035725,172.16.1.2,56835,172.16.3.2,5101,22957,30445,6,62848,65728,6,6,4,1460,128750,1,16810976,350000,66348,63452,65700,0,27512,0,3163939364,63
i,1717751839.053132,172.16.1.2,56835,172.16.3.2,5101,22957,30445,6,62848,65728,6,6,4,1460,128750,1,16810976,350000,66348,66348,65700,0,30408,0,3163939364,63
o,1717751839.053139,172.16.1.2,56835,172.16.3.2,5101,22957,30445,6,62848,65728,6,6,4,1460,129062,1,16810976,350000,66348,63452,65700,0,27512,0,3163939364,63
i,1717751839.073966,172.16.1.2,56835,172.16.3.2,5101,22957,30445,6,62848,65728,6,6,4,1460,129062,1,16810976,350000,66348,66348,65700,0,30408,0,3163939364,63
o,1717751839.073973,172.16.1.2,56835,172.16.3.2,5101,22957,30445,6,64256,65728,6,6,4,1460,130625,1,16810976,360000,66348,63452,65700,0,27512,0,3163939364,63
i,1717751839.075519,172.16.1.2,56835,172.16.3.2,5101,22957,30445,6,64256,65728,6,6,4,1460,130625,1,16810976,360000,66348,66348,65700,0,30408,0,3163939364,63
o,1717751839.075525,172.16.1.2,56835,172.16.3.2,5101,22957,30445,6,64256,65728,6,6,4,1460,129375,1,16810976,360000,66348,63452,65700,0,27512,0,3163939364,63
i,1717751839.093961,172.16.1.2,56835,172.16.3.2,5101,22957,30445,6,64256,65728,6,6,4,1460,129375,1,16810976,360000,66348,66348,65700,0,30408,0,3163939364,63
o,1717751839.093968,172.16.1.2,56835,172.16.3.2,5101,22957,30445,6,64256,65728,6,6,4,1460,129687,1,16810976,350000,66348,63452,65700,0,27512,0,3163939364,63
i,1717751839.095214,172.16.1.2,56835,172.16.3.2,5101,22957,30445,6,64256,65728,6,6,4,1460,129687,1,16810976,350000,66348,66348,65700,0,30408,0,3163939364,63
o,1717751839.095222,172.16.1.2,56835,172.16.3.2,5101,22957,30498,6,62848,65728,6,6,4,1460,128750,1,16810976,350000,66348,63452,65700,0,27512,0,3163939364,63
i,1717751839.113928,172.16.1.2,56835,172.16.3.2,5101,22957,30498,6,62848,65728,6,6,4,1460,128750,1,16810976,350000,66348,66348,65700,0,30408,0,3163939364,63
o,1717751839.113941,172.16.1.2,56835,172.16.3.2,5101,22957,30609,6,62848,65728,6,6,4,1460,129062,1,16810976,350000,66348,63452,65700,0,27512,0,3163939364,63
i,1717751839.133939,172.16.1.2,56835,172.16.3.2,5101,22957,30609,6,62848,65728,6,6,4,1460,129062,1,16810976,350000,66348,66348,65700,0,30408,0,3163939364,63
o,1717751839.133946,172.16.1.2,56835,172.16.3.2,5101,22957,30836,6,64256,65728,6,6,4,1460,130625,1,16810976,360000,66348,63452,65700,0,27512,0,3163939364,63
i,1717751839.135240,172.16.1.2,56835,172.16.3.2,5101,22957,30836,6,64256,65728,6,6,4,1460,130625,1,16810976,360000,66348,66348,65700,0,30408,0,3163939364,63
o,1717751839.135247,172.16.1.2,56835,172.16.3.2,5101,22957,31069,6,64256,65728,6,6,4,1460,130625,1,16810976,350000,66348,63452,65700,0,27512,0,3163939364,63
i,1717751839.153872,172.16.1.2,56835,172.16.3.2,5101,22957,31069,6,64256,65728,6,6,4,1460,130625,1,16810976,350000,66348,64520,65700,0,30408,0,3163939364,63
o,1717751839.153881,172.16.1.2,56835,172.16.3.2,5101,22957,31306,6,64256,65728,6,6,4,1460,130625,1,16810976,350000,66348,61624,65700,0,27512,0,3163939364,63
o,1717751839.154164,172.16.1.2,56835,172.16.3.2,5101,22957,31306,6,64256,65728,6,6,4,1460,130625,1,16810976,350000,66348,61624,65700,0,28960,0,3163939364,63
i,1717751839.154940,172.16.1.2,56835,172.16.3.2,5101,22957,31306,6,64256,65728,6,6,4,1460,130625,1,16810976,350000,74540,74540,65700,0,30408,0,3163939364,63
o,1717751839.154946,172.16.1.2,56835,172.16.3.2,5101,22957,31546,6,62848,65728,6,6,4,1460,129375,1,16778208,350000,74540,71644,65700,0,27512,0,3163939364,63
i,1717751839.173660,172.16.1.2,56835,172.16.3.2,5101,22957,31546,6,62848,65728,6,6,4,1460,129375,1,16810976,350000,74540,74540,65700,0,30408,0,3163939364,63
o,1717751839.173688,172.16.1.2,56835,172.16.3.2,5101,22957,31788,6,62848,65728,6,6,4,1460,129687,1,16810976,350000,74540,71644,65700,0,27512,0,3163939364,63
i,1717751839.194451,172.16.1.2,56835,172.16.3.2,5101,22957,31788,6,62848,65728,6,6,4,1460,129687,1,16810976,350000,74540,74540,65700,0,30408,0,3163939364,63
o,1717751839.194475,172.16.1.2,56835,172.16.3.2,5101,22957,32106,6,64256,65728,6,6,4,1460,131250,1,16810976,360000,74540,71644,65700,0,27512,0,3163939364,63
i,1717751839.195605,172.16.1.2,56835,172.16.3.2,5101,22957,32106,6,64256,65728,6,6,4,1460,131250,1,16810976,360000,74540,74540,65700,0,31856,0,3163939364,63
o,1717751839.195619,172.16.1.2,56835,172.16.3.2,5101,22957,32402,6,64256,65728,6,6,4,1460,130000,1,16810976,360000,74540,71644,65700,0,28960,0,3163939364,63
i,1717751839.214159,172.16.1.2,56835,172.16.3.2,5101,22957,32402,6,64256,65728,6,6,4,1460,130000,1,16810976,360000,74540,74540,65700,0,31856,0,3163939364,63
o,1717751839.214204,172.16.1.2,56835,172.16.3.2,5101,22957,32684,6,64256,65728,6,6,4,1460,130000,1,16810976,350000,74540,71644,65700,0,28960,0,3163939364,63
i,1717751839.215545,172.16.1.2,56835,172.16.3.2,5101,22957,32684,6,64256,65728,6,6,4,1460,130000,1,16810976,350000,74540,74540,65700,0,31856,0,3163939364,63
o,1717751839.215557,172.16.1.2,56835,172.16.3.2,5101,22957,32955,6,62848,65728,6,6,4,1460,128750,1,16810976,350000,74540,71644,65700,0,28960,0,3163939364,63
i,1717751839.233997,172.16.1.2,56835,172.16.3.2,5101,22957,32955,6,62848,65728,6,6,4,1460,128750,1,16810976,350000,74540,74540,65700,0,31856,0,3163939364,63
o,1717751839.234016,172.16.1.2,56835,172.16.3.2,5101,22957,33219,6,62848,65728,6,6,4,1460,129062,1,16810976,350000,74540,71644,65700,0,28960,0,3163939364,63
i,1717751839.253831,172.16.1.2,56835,172.16.3.2,5101,22957,33219,6,62848,65728,6,6,4,1460,129062,1,16810976,350000,74540,74540,65700,0,31856,0,3163939364,63
o,1717751839.253852,172.16.1.2,56835,172.16.3.2,5101,22957,33552,6,64256,65728,6,6,4,1460,130625,1,16810976,360000,74540,71644,65700,0,28960,0,3163939364,63
i,1717751839.254844,172.16.1.2,56835,172.16.3.2,5101,22957,33552,6,64256,65728,6,6,4,1460,130625,1,16810976,360000,74540,74540,65700,0,33304,0,3163939364,63
o,1717751839.254856,172.16.1.2,56835,172.16.3.2,5101,22957,33859,6,64256,65728,6,6,4,1460,129375,1,16810976,360000,74540,71644,65700,0,30408,0,3163939364,63
i,1717751839.274768,172.16.1.2,56835,172.16.3.2,5101,22957,33859,6,64256,65728,6,6,4,1460,129375,1,16810976,360000,74540,74540,65700,0,33304,0,3163939364,63
o,1717751839.274791,172.16.1.2,56835,172.16.3.2,5101,22957,34222,6,64256,65728,6,6,4,1460,129687,1,16810976,350000,74540,71644,65700,0,30408,0,3163939364,63
o,1717751839.275066,172.16.1.2,56835,172.16.3.2,5101,22957,34222,6,64256,65728,6,6,4,1460,129687,1,16810976,350000,74540,71644,65700,0,31856,0,3163939364,63
i,1717751839.276142,172.16.1.2,56835,172.16.3.2,5101,22957,34222,6,64256,65728,6,6,4,1460,129687,1,16810976,350000,74540,74540,65700,0,33304,0,3163939364,63
o,1717751839.276152,172.16.1.2,56835,172.16.3.2,5101,22957,34476,6,62848,65728,6,6,4,1460,128750,1,16810976,350000,74540,71644,65700,0,30408,0,3163939364,63
i,1717751839.294146,172.16.1.2,56835,172.16.3.2,5101,22957,34476,6,62848,65728,6,6,4,1460,128750,1,16810976,350000,74540,74540,65700,0,33304,0,3163939364,63
o,1717751839.294168,172.16.1.2,56835,172.16.3.2,5101,22957,34728,6,62848,65728,6,6,4,1460,129062,1,16810976,350000,74540,71644,65700,0,30408,0,3163939364,63
i,1717751839.313903,172.16.1.2,56835,172.16.3.2,5101,22957,34728,6,62848,65728,6,6,4,1460,129062,1,16810976,350000,74540,74540,65700,0,33304,0,3163939364,63
o,1717751839.313933,172.16.1.2,56835,172.16.3.2,5101,22957,35053,6,64256,65728,6,6,4,1460,130625,1,16810976,360000,74540,71644,65700,0,30408,0,3163939364,63
i,1717751839.315656,172.16.1.2,56835,172.16.3.2,5101,22957,35053,6,64256,65728,6,6,4,1460,130625,1,16810976,360000,74540,74540,65700,0,34752,0,3163939364,63
o,1717751839.315671,172.16.1.2,56835,172.16.3.2,5101,22957,35354,6,64256,65728,6,6,4,1460,129375,1,16810976,360000,74540,71644,65700,0,31856,0,3163939364,63
i,1717751839.333540,172.16.1.2,56835,172.16.3.2,5101,22957,35354,6,64256,65728,6,6,4,1460,129375,1,16810976,360000,74540,74540,65700,0,34752,0,3163939364,63
o,1717751839.333562,172.16.1.2,56835,172.16.3.2,5101,22957,35639,6,64256,65728,6,6,4,1460,129687,1,16810976,350000,74540,71644,65700,0,31856,0,3163939364,63
i,1717751839.334710,172.16.1.2,56835,172.16.3.2,5101,22957,35639,6,64256,65728,6,6,4,1460,129687,1,16810976,350000,74540,74540,65700,0,34752,0,3163939364,63
o,1717751839.334717,172.16.1.2,56835,172.16.3.2,5101,22957,35913,6,62848,65728,6,6,4,1460,128750,1,16810976,350000,74540,71644,65700,0,31856,0,3163939364,63
i,1717751839.354286,172.16.1.2,56835,172.16.3.2,5101,22957,35913,6,62848,65728,6,6,4,1460,128750,1,16810976,350000,74540,74540,65700,0,34752,0,3163939364,63
o,1717751839.354307,172.16.1.2,56835,172.16.3.2,5101,22957,36178,6,62848,65728,6,6,4,1460,129062,1,16810976,350000,74540,71644,65700,0,31856,0,3163939364,63
i,1717751839.373415,172.16.1.2,56835,172.16.3.2,5101,22957,36178,6,62848,65728,6,6,4,1460,129062,1,16810976,350000,74540,74540,65700,0,34752,0,3163939364,63
o,1717751839.373439,172.16.1.2,56835,172.16.3.2,5101,22957,36512,6,64256,65728,6,6,4,1460,130625,1,16810976,360000,74540,71644,65700,0,31856,0,3163939364,63
i,1717751839.374643,172.16.1.2,56835,172.16.3.2,5101,22957,36512,6,64256,65728,6,6,4,1460,130625,1,16810976,360000,82732,82732,65700,0,36200,0,3163939364,63
o,1717751839.374657,172.16.1.2,56835,172.16.3.2,5101,22957,36820,6,64256,65728,6,6,4,1460,129375,1,16810976,360000,82732,79836,65700,0,33304,0,3163939364,63
i,1717751839.394128,172.16.1.2,56835,172.16.3.2,5101,22957,36820,6,64256,65728,6,6,4,1460,129375,1,16810976,360000,82732,82732,65700,0,36200,0,3163939364,63
o,1717751839.394150,172.16.1.2,56835,172.16.3.2,5101,22957,37110,6,64256,65728,6,6,4,1460,129687,1,16810976,350000,82732,79836,65700,0,33304,0,3163939364,63
i,1717751839.395200,172.16.1.2,56835,172.16.3.2,5101,22957,37110,6,64256,65728,6,6,4,1460,129687,1,16810976,350000,82732,82732,65700,0,36200,0,3163939364,63
o,1717751839.395211,172.16.1.2,56835,172.16.3.2,5101,22957,37387,6,62848,65728,6,6,4,1460,131250,1,16810976,360000,82732,79836,65700,0,33304,0,3163939364,63
o,1717751839.395466,172.16.1.2,56835,172.16.3.2,5101,22957,37387,6,62848,65728,6,6,4,1460,131250,1,16810976,360000,82732,79836,65700,0,34752,0,3163939364,63
