enable_time_secs=1717751623	enable_time_usecs=198120	siftrver=1.3.0	sysname=FreeBSD	sysver=1400097	ipmode=4
o,1717751623.198159,10.0.2.15,22,10.0.2.2,52907,1073725440,17386,1026,65535,65700,0,0,4,1460,312,0,16777220,240000,33580,44,65700,0,0,0,3664809888,63
o,1717751623.198264,10.0.2.15,22,10.0.2.2,52907,1073725440,17386,1026,65535,65700,0,0,4,1460,312,0,16809988,240000,33580,80,65700,0,44,0,3664809888,63
i,1717751623.199317,10.0.2.15,22,10.0.2.2,52907,1073725440,17386,1026,65535,65700,0,0,4,1460,312,0,16809988,240000,33580,80,65700,0,80,0,3664809888,63
i,1717751623.199322,10.0.2.15,22,10.0.2.2,52907,1073725440,17430,1026,65535,65700,0,0,4,1460,312,0,4,240000,33580,36,65700,0,36,0,3664809888,63
o,1717751623.199582,10.0.2.15,22,10.0.2.2,52907,1073725440,17466,1026,65535,65700,0,0,4,1460,312,0,16777220,240000,33580,36,65700,0,0,0,3664809888,63
i,1717751623.200065,10.0.2.15,22,10.0.2.2,52907,1073725440,17466,1026,65535,65700,0,0,4,1460,312,0,16809988,240000,33580,36,65700,0,36,0,3664809888,63
o,1717751623.200181,10.0.2.15,22,10.0.2.2,52907,1073725440,17502,1026,65535,65700,0,0,4,1460,312,0,16777220,240000,33580,36,65700,0,0,0,3664809888,63
o,1717751623.200658,10.0.2.15,22,10.0.2.2,52907,1073725440,17502,1026,65535,65700,0,0,4,1460,312,0,16809988,240000,33580,176,65700,0,36,0,3664809888,63
i,1717751623.202354,10.0.2.15,22,10.0.2.2,52907,1073725440,17502,1026,65535,65700,0,0,4,1460,312,0,16809988,240000,33580,176,65700,0,176,0,3664809888,63
i,1717751623.202362,10.0.2.15,22,10.0.2.2,52907,1073725440,17538,1026,65535,65700,0,0,4,1460,312,0,4,240000,33580,140,65700,0,140,0,3664809888,63
i,1717751623.203204,10.0.2.15,22,10.0.2.2,52907,1073725440,17678,1026,65535,65700,0,0,4,1460,312,0,4,240000,33580,0,65700,0,0,0,3664809888,63
i,1717751623.203210,10.0.2.15,22,10.0.2.2,52907,1073725440,17678,1026,65535,65700,0,0,4,1460,312,0,4,240000,33580,0,65700,96,0,0,3664809888,63
o,1717751623.203214,10.0.2.15,22,10.0.2.2,52907,1073725440,17678,1026,65535,65604,0,0,5,1460,312,0,5,240000,33580,0,65700,96,0,0,3664809888,63
o,1717751623.203685,10.0.2.15,22,10.0.2.2,52907,1073725440,17678,1026,65535,65604,0,0,8,1460,312,0,4,240000,33580,0,65700,0,0,0,3664809888,63
i,1717751623.204537,10.0.2.15,22,10.0.2.2,52907,1073725440,17678,1026,65535,65604,0,0,8,1460,312,0,20,240000,33580,0,65700,0,1,0,3664809888,63
i,1717751625.356433,10.0.2.15,22,10.0.2.2,52912,1073725440,14600,0,65535,65700,0,0,4,1460,312,0,16777216,270000,33580,0,65700,0,0,0,359567122,63
o,1717751625.363720,10.0.2.15,22,10.0.2.2,52912,1073725440,14600,1026,65535,65700,0,0,4,1460,312,0,16777216,270000,33580,38,65700,41,0,0,359567122,63
i,1717751625.364678,10.0.2.15,22,10.0.2.2,52912,1073725440,14600,1026,65535,65700,0,0,4,1460,312,0,16809984,270000,33580,38,65700,41,38,0,359567122,63
i,1717751625.366005,10.0.2.15,22,10.0.2.2,52912,1073725440,14638,1026,65535,65700,0,0,4,1460,312,0,0,240000,33580,0,65700,41,0,0,359567122,63
i,1717751625.366007,10.0.2.15,22,10.0.2.2,52912,1073725440,14638,1026,65535,65700,0,0,4,1460,312,0,0,240000,33580,0,65700,1501,0,0,359567122,63
o,1717751625.366011,10.0.2.15,22,10.0.2.2,52912,1073725440,14638,1026,65535,65700,0,0,4,1460,312,0,1,240000,33580,0,65700,1577,0,0,359567122,63
o,1717751625.367036,10.0.2.15,22,10.0.2.2,52912,1073725440,14638,1026,65535,65700,0,0,4,1460,312,0,16777216,240000,33580,1080,65700,1536,0,0,359567122,63
i,1717751625.367725,10.0.2.15,22,10.0.2.2,52912,1073725440,14638,1026,65535,65700,0,0,4,1460,312,0,16809984,240000,33580,1080,65700,1536,1080,0,359567122,63
i,1717751625.369455,10.0.2.15,22,10.0.2.2,52912,1073725440,15718,1026,65535,65700,0,0,4,1460,312,0,0,240000,33580,0,65700,0,0,0,359567122,63
o,1717751625.371853,10.0.2.15,22,10.0.2.2,52912,1073725440,15718,1026,65535,65700,0,0,4,1460,312,0,16777216,240000,33580,548,65700,0,0,0,359567122,63
i,1717751625.372299,10.0.2.15,22,10.0.2.2,52912,1073725440,15718,1026,65535,65700,0,0,4,1460,312,0,16809984,240000,33580,548,65700,0,548,0,359567122,63
i,1717751625.377297,10.0.2.15,22,10.0.2.2,52912,1073725440,16266,1026,65535,65700,0,0,4,1460,312,0,0,240000,33580,0,65700,0,0,0,359567122,63
i,1717751625.381339,10.0.2.15,22,10.0.2.2,52912,1073725440,16266,1026,65535,65700,0,0,4,1460,312,0,0,240000,33580,0,65700,0,0,0,359567122,63
o,1717751625.381343,10.0.2.15,22,10.0.2.2,52912,1073725440,16266,1026,65535,65700,0,0,4,1460,312,0,1,240000,33580,0,65700,44,0,0,359567122,63
o,1717751625.381488,10.0.2.15,22,10.0.2.2,52912,1073725440,16266,1026,65535,65700,0,0,4,1460,312,0,16777216,240000,33580,44,65700,0,0,0,359567122,63
i,1717751625.381939,10.0.2.15,22,10.0.2.2,52912,1073725440,16266,1026,65535,65700,0,0,4,1460,312,0,16809984,240000,33580,44,65700,0,44,0,359567122,63
i,1717751625.382885,10.0.2.15,22,10.0.2.2,52912,1073725440,16310,1026,65535,65700,0,0,4,1460,312,0,0,240000,33580,0,65700,0,0,0,359567122,63
o,1717751625.384642,10.0.2.15,22,10.0.2.2,52912,1073725440,16310,1026,65535,65700,0,0,4,1460,312,0,16777216,240000,33580,68,65700,0,0,0,359567122,63
i,1717751625.385357,10.0.2.15,22,10.0.2.2,52912,1073725440,16310,1026,65535,65700,0,0,4,1460,312,0,16809984,240000,33580,68,65700,0,68,0,359567122,63
i,1717751625.387911,10.0.2.15,22,10.0.2.2,52912,1073725440,16378,1026,65535,65700,0,0,4,1460,312,0,0,240000,33580,0,65700,0,0,0,359567122,63
o,1717751625.397780,10.0.2.15,22,10.0.2.2,52912,1073725440,16378,1026,65535,65700,0,0,4,1460,312,0,16777216,240000,33580,28,65700,0,0,0,359567122,63
i,1717751625.398446,10.0.2.15,22,10.0.2.2,52912,1073725440,16378,1026,65535,65700,0,0,4,1460,312,0,16809984,240000,33580,28,65700,0,28,0,359567122,63
i,1717751625.399003,10.0.2.15,22,10.0.2.2,52912,1073725440,16406,1026,65535,65700,0,0,4,1460,312,0,0,240000,33580,0,65700,0,0,0,359567122,63
o,1717751625.399659,10.0.2.15,22,10.0.2.2,52912,1073725440,16406,1026,65535,65700,0,0,4,1460,312,0,16777216,240000,33580,768,65700,112,0,0,359567122,63
i,1717751625.400375,10.0.2.15,22,10.0.2.2,52912,1073725440,16406,1026,65535,65700,0,0,4,1460,312,0,16809984,240000,33580,768,65700,112,768,0,359567122,63
o,1717751625.401266,10.0.2.15,22,10.0.2.2,52912,1073725440,17174,1026,65535,65700,0,0,4,1460,312,0,16777216,240000,33580,44,65700,0,0,0,359567122,63
i,1717751625.401899,10.0.2.15,22,10.0.2.2,52912,1073725440,17174,1026,65535,65700,0,0,4,1460,312,0,16809984,240000,33580,44,65700,0,44,0,359567122,63
i,1717751625.402649,10.0.2.15,22,10.0.2.2,52912,1073725440,17218,1026,65535,65700,0,0,4,1460,312,0,0,240000,33580,0,65700,0,0,0,359567122,63
o,1717751625.402946,10.0.2.15,22,10.0.2.2,52912,1073725440,17218,1026,65535,65700,0,0,4,1460,312,0,16777220,240000,33580,72,65700,0,0,0,359567122,63
i,1717751625.403615,10.0.2.15,22,10.0.2.2,52912,1073725440,17218,1026,65535,65700,0,0,4,1460,312,0,16809988,240000,33580,72,65700,0,72,0,359567122,63
o,1717751625.405311,10.0.2.15,22,10.0.2.2,52912,1073725440,17290,1026,65535,65700,0,0,4,1460,312,0,16777220,240000,33580,76,65700,0,0,0,359567122,63
i,1717751625.405800,10.0.2.15,22,10.0.2.2,52912,1073725440,17290,1026,65535,65700,0,0,4,1460,312,0,16809988,240000,33580,76,65700,0,76,0,359567122,63
o,1717751625.405920,10.0.2.15,22,10.0.2.2,52912,1073725440,17366,1026,65535,65700,0,0,4,1460,312,0,16777220,240000,33580,176,65700,0,0,0,359567122,63
i,1717751625.406602,10.0.2.15,22,10.0.2.2,52912,1073725440,17366,1026,65535,65700,0,0,4,1460,312,0,16809988,240000,33580,176,65700,0,176,0,359567122,63
i,1717751625.406605,10.0.2.15,22,10.0.2.2,52912,1073725440,17542,1026,65535,65700,0,0,4,1460,312,0,4,240000,33580,0,65700,0,0,0,359567122,63
i,1717751625.406606,10.0.2.15,22,10.0.2.2,52912,1073725440,17542,1026,65535,65700,0,0,4,1460,312,0,4,240000,33580,0,65700,36,0,0,359567122,63
o,1717751625.406608,10.0.2.15,22,10.0.2.2,52912,1073725440,17542,1026,65535,65700,0,0,4,1460,312,0,5,240000,33580,0,65700,96,0,0,359567122,63
i,1717751625.406681,10.0.2.15,22,10.0.2.2,52912,1073725440,17542,1026,65535,65700,0,0,4,1460,312,0,4,240000,33580,0,65700,96,0,0,359567122,63
o,1717751625.406684,10.0.2.15,22,10.0.2.2,52912,1073725440,17542,1026,65535,65604,0,0,5,1460,312,0,7,240000,33580,0,65700,96,0,0,359567122,63
o,1717751625.407326,10.0.2.15,22,10.0.2.2,52912,1073725440,17542,1026,65535,65604,0,0,8,1460,312,0,4,240000,33580,0,65700,0,0,0,359567122,63
i,1717751625.407948,10.0.2.15,22,10.0.2.2,52912,1073725440,17542,1026,65535,65604,0,0,8,1460,312,0,67108884,240000,33580,0,65700,0,1,0,359567122,63
i,1717751626.473973,10.0.2.15,22,10.0.2.2,52914,1073725440,14600,0,65535,65700,0,0,4,1460,312,0,16777216,270000,33580,0,65700,0,0,0,1166437630,63
o,1717751626.482012,10.0.2.15,22,10.0.2.2,52914,1073725440,14600,1026,65535,65700,0,0,4,1460,312,0,16777216,270000,33580,38,65700,41,0,0,1166437630,63
i,1717751626.482619,10.0.2.15,22,10.0.2.2,52914,1073725440,14600,1026,65535,65700,0,0,4,1460,312,0,16809984,270000,33580,38,65700,41,38,0,1166437630,63
o,1717751626.483496,10.0.2.15,22,10.0.2.2,52914,1073725440,14638,1026,65535,65700,0,0,4,1460,312,0,16777216,240000,33580,1080,65700,0,0,0,1166437630,63
i,1717751626.484314,10.0.2.15,22,10.0.2.2,52914,1073725440,14638,1026,65535,65700,0,0,4,1460,312,0,16809984,240000,33580,1080,65700,0,1080,0,1166437630,63
i,1717751626.489860,10.0.2.15,22,10.0.2.2,52914,1073725440,15718,1026,65535,65700,0,0,4,1460,312,0,0,240000,33580,0,65700,0,0,0,1166437630,63
i,1717751626.489872,10.0.2.15,22,10.0.2.2,52914,1073725440,15718,1026,65535,65700,0,0,4,1460,312,0,0,240000,33580,0,65700,1460,0,0,1166437630,63
o,1717751626.489877,10.0.2.15,22,10.0.2.2,52914,1073725440,15718,1026,65535,65700,0,0,4,1460,312,0,1,240000,33580,0,65700,1536,0,0,1166437630,63
i,1717751626.492197,10.0.2.15,22,10.0.2.2,52914,1073725440,15718,1026,65535,65700,0,0,4,1460,312,0,0,240000,33580,0,65700,0,0,0,1166437630,63
o,1717751626.495127,10.0.2.15,22,10.0.2.2,52914,1073725440,15718,1026,65535,65700,0,0,4,1460,312,0,16777216,240000,33580,548,65700,0,0,0,1166437630,63
i,1717751626.496034,10.0.2.15,22,10.0.2.2,52914,1073725440,15718,1026,65535,65700,0,0,4,1460,312,0,16809984,240000,33580,548,65700,0,548,0,1166437630,63
i,1717751626.502372,10.0.2.15,22,10.0.2.2,52914,1073725440,16266,1026,65535,65700,0,0,4,1460,312,0,0,240000,33580,0,65700,0,0,0,1166437630,63
i,1717751626.514409,10.0.2.15,22,10.0.2.2,52914,1073725440,16266,1026,65535,65700,0,0,4,1460,312,0,0,240000,33580,0,65700,0,0,0,1166437630,63
o,1717751626.514421,10.0.2.15,22,10.0.2.2,52914,1073725440,16266,1026,65535,65700,0,0,4,1460,312,0,1,240000,33580,0,65700,44,0,0,1166437630,63
o,1717751626.514758,10.0.2.15,22,10.0.2.2,52914,1073725440,16266,1026,65535,65700,0,0,4,1460,312,0,16777216,240000,33580,44,65700,0,0,0,1166437630,63
i,1717751626.515426,10.0.2.15,22,10.0.2.2,52914,1073725440,16266,1026,65535,65700,0,0,4,1460,312,0,16809984,240000,33580,44,65700,0,44,0,1166437630,63
i,1717751626.515811,10.0.2.15,22,10.0.2.2,52914,1073725440,16310,1026,65535,65700,0,0,4,1460,312,0,0,240000,33580,0,65700,0,0,0,1166437630,63
o,1717751626.517767,10.0.2.15,22,10.0.2.2,52914,1073725440,16310,1026,65535,65700,0,0,4,1460,312,0,16777216,240000,33580,68,65700,0,0,0,1166437630,63
i,1717751626.518337,10.0.2.15,22,10.0.2.2,52914,1073725440,16310,1026,65535,65700,0,0,4,1460,312,0,16809984,240000,33580,68,65700,0,68,0,1166437630,63
i,1717751626.520844,10.0.2.15,22,10.0.2.2,52914,1073725440,16378,1026,65535,65700,0,0,4,1460,312,0,0,240000,33580,0,65700,0,0,0,1166437630,63
o,1717751626.530662,10.0.2.15,22,10.0.2.2,52914,1073725440,16378,1026,65535,65700,0,0,4,1460,312,0,16777216,240000,33580,28,65700,0,0,0,1166437630,63
i,1717751626.531453,10.0.2.15,22,10.0.2.2,52914,1073725440,16378,1026,65535,65700,0,0,4,1460,312,0,16809984,240000,33580,28,65700,0,28,0,1166437630,63
i,1717751626.531994,10.0.2.15,22,10.0.2.2,52914,1073725440,16406,1026,65535,65700,0,0,4,1460,312,0,0,240000,33580,0,65700,0,0,0,1166437630,63
o,1717751626.533207,10.0.2.15,22,10.0.2.2,52914,1073725440,16406,1026,65535,65700,0,0,4,1460,312,0,16777216,240000,33580,768,65700,112,0,0,1166437630,63
i,1717751626.533901,10.0.2.15,22,10.0.2.2,52914,1073725440,16406,1026,65535,65700,0,0,4,1460,312,0,16809984,240000,33580,768,65700,112,768,0,1166437630,63
o,1717751626.534897,10.0.2.15,22,10.0.2.2,52914,1073725440,17174,1026,65535,65700,0,0,4,1460,312,0,16777216,240000,33580,44,65700,0,0,0,1166437630,63
i,1717751626.535551,10.0.2.15,22,10.0.2.2,52914,1073725440,17174,1026,65535,65700,0,0,4,1460,312,0,16809984,240000,33580,44,65700,0,44,0,1166437630,63
i,1717751626.538105,10.0.2.15,22,10.0.2.2,52914,1073725440,17218,1026,65535,65700,0,0,4,1460,312,0,0,240000,33580,0,65700,0,0,0,1166437630,63
o,1717751626.538441,10.0.2.15,22,10.0.2.2,52914,1073725440,17218,1026,65535,65700,0,0,4,1460,312,0,16777220,240000,33580,72,65700,0,0,0,1166437630,63
i,1717751626.539157,10.0.2.15,22,10.0.2.2,52914,1073725440,17218,1026,65535,65700,0,0,4,1460,312,0,16809988,240000,33580,72,65700,0,72,0,1166437630,63
i,1717751626.539650,10.0.2.15,22,10.0.2.2,52914,1073725440,17290,1026,65535,65700,0,0,4,1460,312,0,4,240000,33580,0,65700,0,0,0,1166437630,63
o,1717751626.576102,10.0.2.15,22,10.0.2.2,52914,1073725440,17290,1026,65535,65700,0,0,4,1460,312,0,5,240000,33580,0,65700,0,0,0,1166437630,63
o,1717751626.661823,172.16.1.2,46611,172.16.3.2,5101,17824,14480,2,65535,65700,6,6,4,1460,191250,1,16778209,730000,33580,0,65700,0,0,0,345802082,63
o,1717751626.661981,172.16.1.2,46611,172.16.3.2,5101,17824,14480,2,65535,65700,6,6,4,1460,191250,1,16778212,730000,33580,37,65700,0,0,0,345802082,63
i,1717751626.675945,172.16.1.2,46611,172.16.3.2,5101,17824,14480,2,65535,65700,6,6,4,1460,191250,1,16810980,730000,33580,37,65700,0,37,0,345802082,63
o,1717751626.676057,172.16.1.2,46611,172.16.3.2,5101,17824,14517,1026,65728,65728,6,6,4,1460,170000,1,16778212,790000,33580,4,65700,0,0,0,345802082,63
o,1717751626.676169,172.16.1.2,46611,172.16.3.2,5101,17824,14517,1026,65728,65728,6,6,4,1460,170000,1,16810980,790000,33580,128,65700,0,4,0,345802082,63
i,1717751626.696655,172.16.1.2,46611,172.16.3.2,5101,17824,14517,1026,65728,65728,6,6,4,1460,170000,1,16810980,790000,33580,128,65700,0,128,0,345802082,63
i,1717751626.696668,172.16.1.2,46611,172.16.3.2,5101,17824,14645,1026,65600,65728,6,6,4,1460,151250,1,996,820000,33580,0,65700,0,0,0,345802082,63
o,1717751626.715570,172.16.1.2,21847,172.16.3.2,5101,17824,14480,2,65535,65700,6,6,4,1460,177500,1,16778209,830000,33580,0,65700,0,0,0,304053714,63
o,1717751626.715891,172.16.1.2,21847,172.16.3.2,5101,17824,14480,2,65535,65700,6,6,4,1460,177500,1,16778208,830000,33580,37,65700,0,0,0,304053714,63
o,1717751626.735572,172.16.1.2,46611,172.16.3.2,5101,17824,14645,1026,65728,65728,6,6,4,1460,151250,1,997,820000,33580,0,65700,0,0,0,345802082,63
i,1717751626.735801,172.16.1.2,46611,172.16.3.2,5101,17824,14645,1026,65728,65728,6,6,4,1460,151250,1,996,820000,33580,0,65700,0,0,0,345802082,63
i,1717751626.735805,172.16.1.2,46611,172.16.3.2,5101,17824,14645,1026,65728,65728,6,6,4,1460,151250,1,996,820000,33580,0,65700,1,0,0,345802082,63
o,1717751626.735808,172.16.1.2,46611,172.16.3.2,5101,17824,14645,1026,65728,65728,6,6,4,1460,151250,1,997,820000,33580,0,65700,2,0,0,345802082,63
o,1717751626.736113,172.16.1.2,21847,172.16.3.2,5101,17824,14480,6,65535,65700,6,6,4,1460,177500,1,16810976,830000,33580,33580,65700,0,37,0,304053714,63
i,1717751626.755167,172.16.1.2,21847,172.16.3.2,5101,17824,14480,6,65535,65700,6,6,4,1460,177500,1,16810976,830000,33580,33580,65700,0,13069,0,304053714,63
o,1717751626.755180,172.16.1.2,21847,172.16.3.2,5101,17824,15965,6,64256,65728,6,6,4,1460,160312,1,16778208,830000,33580,32095,65700,0,11584,0,304053714,63
o,1717751626.755442,172.16.1.2,21847,172.16.3.2,5101,17824,15965,6,64256,65728,6,6,4,1460,160312,1,16810976,830000,33580,32095,65700,0,13032,0,304053714,63
i,1717751626.756792,172.16.1.2,21847,172.16.3.2,5101,17824,15965,6,64256,65728,6,6,4,1460,160312,1,16810976,830000,33580,32095,65700,0,15928,0,304053714,63
o,1717751626.756800,172.16.1.2,21847,172.16.3.2,5101,17824,18861,6,62848,65728,6,6,4,1460,142812,1,16810976,840000,33580,29199,65700,0,13032,0,304053714,63
i,1717751626.805337,172.16.1.2,21847,172.16.3.2,5101,17824,18861,6,62848,65728,6,6,4,1460,142812,1,16810976,840000,41772,41772,65700,0,18824,0,304053714,63
o,1717751626.805358,172.16.1.2,21847,172.16.3.2,5101,17824,21757,6,64256,65728,6,6,4,1460,132500,1,16810976,790000,41772,38876,65700,0,15928,0,304053714,63
i,1717751626.805446,172.16.1.2,21847,172.16.3.2,5101,17824,21757,6,64256,65728,6,6,4,1460,132500,1,16810976,790000,49964,38876,65700,0,21720,0,304053714,63
o,1717751626.805451,172.16.1.2,21847,172.16.3.2,5101,17824,24653,6,64256,65728,6,6,4,1460,123437,1,16810976,740000,49964,35980,65700,0,18824,0,304053714,63
i,1717751626.805537,172.16.1.2,21847,172.16.3.2,5101,17824,24653,6,64256,65728,6,6,4,1460,123437,1,16810976,740000,49964,35980,65700,0,24616,0,304053714,63
o,1717751626.805540,172.16.1.2,21847,172.16.3.2,5101,17824,27549,6,61376,65728,6,6,4,1460,115625,1,16810976,690000,49964,33084,65700,0,21720,0,304053714,63
i,1717751626.806656,172.16.1.2,21847,172.16.3.2,5101,17824,27549,6,61376,65728,6,6,4,1460,115625,1,16810976,690000,58156,58156,65700,0,27512,0,304053714,63
o,1717751626.806663,172.16.1.2,21847,172.16.3.2,5101,17824,30445,6,62848,65728,6,6,4,1460,106250,1,16810976,660000,58156,55260,65700,0,24616,0,304053714,63
o,1717751626.806945,172.16.1.2,21847,172.16.3.2,5101,17824,30445,6,62848,65728,6,6,4,1460,106250,1,16810976,660000,66348,55260,65700,0,26064,0,304053714,63
i,1717751626.825943,172.16.1.2,21847,172.16.3.2,5101,17824,30445,6,62848,65728,6,6,4,1460,106250,1,16810976,660000,66348,66348,65700,0,30408,0,304053714,63
o,1717751626.825953,172.16.1.2,21847,172.16.3.2,5101,17824,30445,6,62848,65728,6,6,4,1460,101875,1,16810976,600000,66348,63452,65700,0,27512,0,304053714,63
i,1717751626.847078,172.16.1.2,21847,172.16.3.2,5101,17824,30445,6,62848,65728,6,6,4,1460,101875,1,16810976,600000,66348,66348,65700,0,30408,0,304053714,63
o,1717751626.847119,172.16.1.2,21847,172.16.3.2,5101,17824,30445,6,64256,65728,6,6,4,1460,100625,1,16810976,540000,66348,63452,65700,0,27512,0,304053714,63
i,1717751626.848170,172.16.1.2,21847,172.16.3.2,5101,17824,30445,6,64256,65728,6,6,4,1460,100625,1,16810976,540000,66348,66348,65700,0,30408,0,304053714,63
o,1717751626.848178,172.16.1.2,21847,172.16.3.2,5101,17824,30445,6,64256,65728,6,6,4,1460,99375,1,16810976,480000,66348,63452,65700,0,27512,0,304053714,63
i,1717751626.865807,172.16.1.2,21847,172.16.3.2,5101,17824,30445,6,64256,65728,6,6,4,1460,99375,1,16810976,480000,66348,66348,65700,0,30408,0,304053714,63
o,1717751626.865821,172.16.1.2,21847,172.16.3.2,5101,17824,30445,6,64256,65728,6,6,4,1460,94687,1,16810976,470000,66348,63452,65700,0,27512,0,304053714,63
i,1717751626.866983,172.16.1.2,21847,172.16.3.2,5101,17824,30445,6,64256,65728,6,6,4,1460,94687,1,16810976,470000,66348,66348,65700,0,30408,0,304053714,63
o,1717751626.866990,172.16.1.2,21847,172.16.3.2,5101,17824,30445,6,62848,65728,6,6,4,1460,90625,1,16778208,450000,66348,63452,65700,0,27512,0,304053714,63
i,1717751626.885829,172.16.1.2,21847,172.16.3.2,5101,17824,30445,6,62848,65728,6,6,4,1460,90625,1,16810976,450000,66348,66348,65700,0,30408,0,304053714,63
o,1717751626.885853,172.16.1.2,21847,172.16.3.2,5101,17824,30445,6,62848,65728,6,6,4,1460,89375,1,16810976,420000,66348,63452,65700,0,27512,0,304053714,63
i,1717751626.905385,172.16.1.2,21847,172.16.3.2,5101,17824,30445,6,62848,65728,6,6,4,1460,89375,1,16810976,420000,66348,66348,65700,0,30408,0,304053714,63
o,1717751626.905408,172.16.1.2,21847,172.16.3.2,5101,17824,30445,6,64256,65728,6,6,4,1460,90937,1,16810976,400000,66348,63452,65700,0,27512,0,304053714,63
i,1717751626.906529,172.16.1.2,21847,172.16.3.2,5101,17824,30445,6,64256,65728,6,6,4,1460,90937,1,16810976,400000,66348,66348,65700,0,30408,0,304053714,63
o,1717751626.906538,172.16.1.2,21847,172.16.3.2,5101,17824,30445,6,64256,65728,6,6,4,1460,92187,1,16810976,390000,66348,63452,65700,0,27512,0,304053714,63
i,1717751626.925523,172.16.1.2,21847,172.16.3.2,5101,17824,30445,6,64256,65728,6,6,4,1460,92187,1,16810976,390000,66348,66348,65700,0,30408,0,304053714,63
o,1717751626.925531,172.16.1.2,21847,172.16.3.2,5101,17824,30445,6,64256,65728,6,6,4,1460,95937,1,16810976,400000,66348,63452,65700,0,27512,0,304053714,63
o,1717751626.925814,172.16.1.2,21847,172.16.3.2,5101,17824,30445,6,64256,65728,6,6,4,1460,95937,1,16810976,400000,66348,63452,65700,0,28960,0,304053714,63
i,1717751626.926914,172.16.1.2,21847,172.16.3.2,5101,17824,30445,6,64256,65728,6,6,4,1460,95937,1,16810976,400000,66348,66348,65700,0,30408,0,304053714,63
o,1717751626.926921,172.16.1.2,21847,172.16.3.2,5101,17824,30445,6,62848,65728,6,6,4,1460,99062,1,16810976,400000,66348,63452,65700,0,27512,0,304053714,63
i,1717751626.946499,172.16.1.2,21847,172.16.3.2,5101,17824,30445,6,62848,65728,6,6,4,1460,99062,1,16810976,400000,66348,66348,65700,0,30408,0,304053714,63
o,1717751626.946506,172.16.1.2,21847,172.16.3.2,5101,17824,30445,6,62848,65728,6,6,4,1460,104375,1,16810976,420000,66348,63452,65700,0,27512,0,304053714,63
i,1717751626.965209,172.16.1.2,21847,172.16.3.2,5101,17824,30445,6,62848,65728,6,6,4,1460,104375,1,16810976,420000,66348,66348,65700,0,30408,0,304053714,63
o,1717751626.965220,172.16.1.2,21847,172.16.3.2,5101,17824,30445,6,64256,65728,6,6,4,1460,109062,1,16810976,430000,66348,63452,65700,0,27512,0,304053714,63
i,1717751626.966266,172.16.1.2,21847,172.16.3.2,5101,17824,30445,6,64256,65728,6,6,4,1460,109062,1,16810976,430000,66348,66348,65700,0,30408,0,304053714,63
o,1717751626.966273,172.16.1.2,21847,172.16.3.2,5101,17824,30445,6,64256,65728,6,6,4,1460,109375,1,16810976,400000,66348,63452,65700,0,27512,0,304053714,63
i,1717751626.984877,172.16.1.2,21847,172.16.3.2,5101,17824,30445,6,64256,65728,6,6,4,1460,109375,1,16810976,400000,66348,66348,65700,0,30408,0,304053714,63
o,1717751626.984884,172.16.1.2,21847,172.16.3.2,5101,17824,30445,6,64256,65728,6,6,4,1460,112187,1,16810976,400000,66348,63452,65700,0,27512,0,304053714,63
i,1717751626.986101,172.16.1.2,21847,172.16.3.2,5101,17824,30445,6,64256,65728,6,6,4,1460,112187,1,16810976,400000,66348,66348,65700,0,30408,0,304053714,63
o,1717751626.986108,172.16.1.2,21847,172.16.3.2,5101,17824,30445,6,62848,65728,6,6,4,1460,113437,1,16810976,390000,66348,63452,65700,0,27512,0,304053714,63
i,1717751627.006552,172.16.1.2,21847,172.16.3.2,5101,17824,30445,6,62848,65728,6,6,4,1460,113437,1,16810976,390000,66348,66348,65700,0,30408,0,304053714,63
o,1717751627.006559,172.16.1.2,21847,172.16.3.2,5101,17824,30445,6,62848,65728,6,6,4,1460,116875,1,16810976,400000,66348,63452,65700,0,27512,0,304053714,63
i,1717751627.025335,172.16.1.2,21847,172.16.3.2,5101,17824,30445,6,62848,65728,6,6,4,1460,116875,1,16810976,400000,66348,66348,65700,0,30408,0,304053714,63
o,1717751627.025343,172.16.1.2,21847,172.16.3.2,5101,17824,30445,6,64256,65728,6,6,4,1460,120000,1,16810976,410000,66348,63452,65700,0,27512,0,304053714,63
i,1717751627.027527,172.16.1.2,21847,172.16.3.2,5101,17824,30445,6,64256,65728,6,6,4,1460,120000,1,16810976,410000,66348,65912,65700,0,30408,0,304053714,63
o,1717751627.027534,172.16.1.2,21847,172.16.3.2,5101,17824,30445,6,64256,65728,6,6,4,1460,120000,1,16810976,390000,66348,63016,65700,0,27512,0,304053714,63
i,1717751627.045921,172.16.1.2,21847,172.16.3.2,5101,17824,30445,6,64256,65728,6,6,4,1460,120000,1,16810976,390000,66348,66348,65700,0,30408,0,304053714,63
o,1717751627.045928,172.16.1.2,21847,172.16.3.2,5101,17824,30445,6,64256,65728,6,6,4,1460,122500,1,16810976,390000,66348,63452,65700,0,27512,0,304053714,63
o,1717751627.046200,172.16.1.2,21847,172.16.3.2,5101,17824,30445,6,64256,65728,6,6,4,1460,122500,1,16810976,390000,66348,63452,65700,0,28960,0,304053714,63
i,1717751627.047165,172.16.1.2,21847,172.16.3.2,5101,17824,30445,6,64256,65728,6,6,4,1460,122500,1,16810976,390000,66348,66348,65700,0,30408,0,304053714,63
o,1717751627.047171,172.16.1.2,21847,172.16.3.2,5101,17824,30445,6,62848,65728,6,6,4,1460,122187,1,16810976,380000,66348,63452,65700,0,27512,0,304053714,63
i,1717751627.065774,172.16.1.2,21847,172.16.3.2,5101,17824,30445,6,62848,65728,6,6,4,1460,122187,1,16810976,380000,66348,66348,65700,0,30408,0,304053714,63
o,1717751627.065781,172.16.1.2,21847,172.16.3.2,5101,17824,30445,6,62848,65728,6,6,4,1460,124687,1,16810976,380000,66348,63452,65700,0,27512,0,304053714,63
i,1717751627.085435,172.16.1.2,21847,172.16.3.2,5101,17824,30445,6,62848,65728,6,6,4,1460,124687,1,16810976,380000,66348,66348,65700,0,30408,0,304053714,63
o,1717751627.085447,172.16.1.2,21847,172.16.3.2,5101,17824,30445,6,64256,65728,6,6,4,1460,125625,1,16810976,380000,66348,63452,65700,0,27512,0,304053714,63
i,1717751627.086625,172.16.1.2,21847,172.16.3.2,5101,17824,30445,6,64256,65728,6,6,4,1460,125625,1,16810976,380000,66348,66348,65700,0,30408,0,304053714,63
o,1717751627.086632,172.16.1.2,21847,172.16.3.2,5101,17824,30445,6,64256,65728,6,6,4,1460,125000,1,16810976,370000,66348,63452,65700,0,27512,0,304053714,63
i,1717751627.105149,172.16.1.2,21847,172.16.3.2,5101,17824,30445,6,64256,65728,6,6,4,1460,125000,1,16810976,370000,66348,66348,65700,0,30408,0,304053714,63
o,1717751627.105157,172.16.1.2,21847,172.16.3.2,5101,17824,30445,6,64256,65728,6,6,4,1460,126875,1,16810976,370000,66348,63452,65700,0,27512,0,304053714,63
i,1717751627.106368,172.16.1.2,21847,172.16.3.2,5101,17824,30445,6,64256,65728,6,6,4,1460,126875,1,16810976,370000,66348,66348,65700,0,30408,0,304053714,63
o,1717751627.106376,172.16.1.2,21847,172.16.3.2,5101,17824,30445,6,62848,65728,6,6,4,1460,126250,1,16810976,370000,66348,63452,65700,0,27512,0,304053714,63
i,1717751627.125904,172.16.1.2,21847,172.16.3.2,5101,17824,30445,6,62848,65728,6,6,4,1460,126250,1,16810976,370000,66348,66348,65700,0,30408,0,304053714,63
o,1717751627.125910,172.16.1.2,21847,172.16.3.2,5101,17824,30445,6,62848,65728,6,6,4,1460,128125,1,16778208,370000,66348,63452,65700,0,27512,0,304053714,63
i,1717751627.145793,172.16.1.2,21847,172.16.3.2,5101,17824,30445,6,62848,65728,6,6,4,1460,128125,1,16810976,370000,66348,66348,65700,0,30408,0,304053714,63
o,1717751627.145800,172.16.1.2,21847,172.16.3.2,5101,17824,30445,6,64256,65728,6,6,4,1460,128437,1,16810976,360000,66348,63452,65700,0,27512,0,304053714,63
i,1717751627.155202,172.16.1.2,21847,172.16.3.2,5101,17824,30445,6,64256,65728,6,6,4,1460,128437,1,16810976,360000,66348,66348,65700,0,30408,0,304053714,63
o,1717751627.155209,172.16.1.2,21847,172.16.3.2,5101,17824,30445,6,64256,65728,6,6,4,1460,128750,1,16810976,360000,66348,63452,65700,0,27512,0,304053714,63
i,1717751627.156384,172.16.1.2,21847,172.16.3.2,5101,17824,30445,6,64256,65728,6,6,4,1460,128750,1,16810976,360000,66348,66348,65700,0,30408,0,304053714,63
o,1717751627.156392,172.16.1.2,21847,172.16.3.2,5101,17824,30445,6,64256,65728,6,6,4,1460,129062,1,16810976,350000,66348,63452,65700,0,27512,0,304053714,63
o,1717751627.156655,172.16.1.2,21847,172.16.3.2,5101,17824,30445,6,64256,65728,6,6,4,1460,129062,1,16810976,350000,66348,63452,65700,0,28960,0,304053714,63
i,1717751627.175126,172.16.1.2,21847,172.16.3.2,5101,17824,30445,6,64256,65728,6,6,4,1460,129062,1,16810976,350000,66348,66348,65700,0,30408,0,304053714,63
o,1717751627.175133,172.16.1.2,21847,172.16.3.2,5101,17824,30445,6,62848,65728,6,6,4,1460,129375,1,16810976,350000,66348,63452,65700,0,27512,0,304053714,63
i,1717751627.176351,172.16.1.2,21847,172.16.3.2,5101,17824,30445,6,62848,65728,6,6,4,1460,129375,1,16810976,350000,66348,66348,65700,0,30408,0,304053714,63
o,1717751627.176358,172.16.1.2,21847,172.16.3.2,5101,17824,30445,6,62848,65728,6,6,4,1460,129687,1,16810976,350000,66348,63452,65700,0,27512,0,304053714,63
i,1717751627.205565,172.16.1.2,21847,172.16.3.2,5101,17824,30445,6,62848,65728,6,6,4,1460,129687,1,16810976,350000,66348,66348,65700,0,30408,0,304053714,63
o,1717751627.205573,172.16.1.2,21847,172.16.3.2,5101,17824,30445,6,64256,65728,6,6,4,1460,131250,1,16810976,360000,66348,63452,65700,0,27512,0,304053714,63
i,1717751627.206627,172.16.1.2,21847,172.16.3.2,5101,17824,30445,6,64256,65728,6,6,4,1460,131250,1,16810976,360000,66348,66348,65700,0,30408,0,304053714,63
o,1717751627.206634,172.16.1.2,21847,172.16.3.2,5101,17824,30445,6,64256,65728,6,6,4,1460,130000,1,16810976,360000,66348,63452,65700,0,27512,0,304053714,63
i,1717751627.225404,172.16.1.2,21847,172.16.3.2,5101,17824,30445,6,64256,65728,6,6,4,1460,130000,1,16810976,360000,66348,66348,65700,0,30408,0,304053714,63
o,1717751627.225410,172.16.1.2,21847,172.16.3.2,5101,17824,30445,6,64256,65728,6,6,4,1460,131250,1,16810976,360000,66348,63452,65700,0,27512,0,304053714,63
i,1717751627.226679,172.16.1.2,21847,172.16.3.2,5101,17824,30445,6,64256,65728,6,6,4,1460,131250,1,16810976,360000,66348,66348,65700,0,30408,0,304053714,63
o,1717751627.226687,172.16.1.2,21847,172.16.3.2,5101,17824,30445,6,62848,65728,6,6,4,1460,130000,1,16810976,360000,66348,63452,65700,0,27512,0,304053714,63
i,1717751627.245721,172.16.1.2,21847,172.16.3.2,5101,17824,30445,6,62848,65728,6,6,4,1460,130000,1,16810976,360000,66348,66348,65700,0,30408,0,304053714,63
o,1717751627.245728,172.16.1.2,21847,172.16.3.2,5101,17824,30445,6,62848,65728,6,6,4,1460,131250,1,16810976,370000,66348,63452,65700,0,27512,0,304053714,63
i,1717751627.264997,172.16.1.2,21847,172.16.3.2,5101,17824,30445,6,62848,65728,6,6,4,1460,131250,1,16810976,370000,66348,66348,65700,0,30408,0,304053714,63
o,1717751627.265006,172.16.1.2,21847,172.16.3.2,5101,17824,30445,6,64256,65728,6,6,4,1460,132500,1,16810976,370000,66348,63452,65700,0,27512,0,304053714,63
i,1717751627.266097,172.16.1.2,21847,172.16.3.2,5101,17824,30445,6,64256,65728,6,6,4,1460,132500,1,16810976,370000,66348,66348,65700,0,30408,0,304053714,63
o,1717751627.266103,172.16.1.2,21847,172.16.3.2,5101,17824,30445,6,64256,65728,6,6,4,1460,130937,1,16810976,370000,66348,63452,65700,0,27512,0,304053714,63
i,1717751627.285504,172.16.1.2,21847,172.16.3.2,5101,17824,30445,6,64256,65728,6,6,4,1460,130937,1,16810976,370000,66348,66348,65700,0,30408,0,304053714,63
o,1717751627.285515,172.16.1.2,21847,172.16.3.2,5101,17824,30445,6,64256,65728,6,6,4,1460,130937,1,16810976,360000,66348,63452,65700,0,27512,0,304053714,63
o,1717751627.285782,172.16.1.2,21847,172.16.3.2,5101,17824,30445,6,64256,65728,6,6,4,1460,130937,1,16810976,360000,66348,63452,65700,0,28960,0,304053714,63
i,1717751627.287060,172.16.1.2,21847,172.16.3.2,5101,17824,30445,6,64256,65728,6,6,4,1460,130937,1,16810976,360000,66348,66348,65700,0,30408,0,304053714,63
o,1717751627.287075,172.16.1.2,21847,172.16.3.2,5101,17824,30445,6,62848,65728,6,6,4,1460,130937,1,16810976,350000,66348,63452,65700,0,27512,0,304053714,63
i,1717751627.305291,172.16.1.2,21847,172.16.3.2,5101,17824,30445,6,62848,65728,6,6,4,1460,130937,1,16810976,350000,66348,66348,65700,0,30408,0,304053714,63
o,1717751627.305299,172.16.1.2,21847,172.16.3.2,5101,17824,30445,6,62848,65728,6,6,4,1460,130937,1,16810976,350000,66348,63452,65700,0,27512,0,304053714,63
i,1717751627.325662,172.16.1.2,21847,172.16.3.2,5101,17824,30445,6,62848,65728,6,6,4,1460,130937,1,16810976,350000,66348,66348,65700,0,30408,0,304053714,63
o,1717751627.325670,172.16.1.2,21847,172.16.3.2,5101,17824,30445,6,64256,65728,6,6,4,1460,133437,1,16810976,360000,66348,63452,65700,0,27512,0,304053714,63
i,1717751627.326767,172.16.1.2,21847,172.16.3.2,5101,17824,30445,6,64256,65728,6,6,4,1460,133437,1,16810976,360000,66348,66348,65700,0,30408,0,304053714,63
o,1717751627.326773,172.16.1.2,21847,172.16.3.2,5101,17824,30445,6,64256,65728,6,6,4,1460,131875,1,16810976,370000,66348,63452,65700,0,27512,0,304053714,63
i,1717751627.345616,172.16.1.2,21847,172.16.3.2,5101,17824,30445,6,64256,65728,6,6,4,1460,131875,1,16810976,370000,66348,66348,65700,0,30408,0,304053714,63
o,1717751627.345632,172.16.1.2,21847,172.16.3.2,5101,17824,30445,6,64256,65728,6,6,4,1460,133125,1,16810976,370000,66348,63452,65700,0,27512,0,304053714,63
i,1717751627.346935,172.16.1.2,21847,172.16.3.2,5101,17824,30445,6,64256,65728,6,6,4,1460,133125,1,16810976,370000,66348,66348,65700,0,30408,0,304053714,63
o,1717751627.346943,172.16.1.2,21847,172.16.3.2,5101,17824,30445,6,62848,65728,6,6,4,1460,131562,1,16810976,370000,66348,63452,65700,0,27512,0,304053714,63
i,1717751627.365459,172.16.1.2,21847,172.16.3.2,5101,17824,30445,6,62848,65728,6,6,4,1460,131562,1,16810976,370000,66348,66348,65700,0,30408,0,304053714,63
o,1717751627.365466,172.16.1.2,21847,172.16.3.2,5101,17824,30445,6,62848,65728,6,6,4,1460,132812,1,16810976,370000,66348,63452,65700,0,27512,0,304053714,63
i,1717751627.385418,172.16.1.2,21847,172.16.3.2,5101,17824,30445,6,62848,65728,6,6,4,1460,132812,1,16810976,370000,66348,66348,65700,0,30408,0,304053714,63
o,1717751627.385425,172.16.1.2,21847,172.16.3.2,5101,17824,30445,6,64256,65728,6,6,4,1460,133750,1,16778208,370000,66348,63452,65700,0,27512,0,304053714,63
i,1717751627.386492,172.16.1.2,21847,172.16.3.2,5101,17824,30445,6,64256,65728,6,6,4,1460,133750,1,16810976,370000,66348,66348,65700,0,30408,0,304053714,63
o,1717751627.386498,172.16.1.2,21847,172.16.3.2,5101,17824,30445,6,64256,65728,6,6,4,1460,132187,1,16810976,370000,66348,63452,65700,0,27512,0,304053714,63
i,1717751627.405746,172.16.1.2,21847,172.16.3.2,5101,17824,30445,6,64256,65728,6,6,4,1460,132187,1,16810976,370000,66348,66348,65700,0,30408,0,304053714,63
o,1717751627.405753,172.16.1.2,21847,172.16.3.2,5101,17824,30445,6,64256,65728,6,6,4,1460,133437,1,16810976,370000,66348,63452,65700,0,27512,0,304053714,63
o,1717751627.406010,172.16.1.2,21847,172.16.3.2,5101,17824,30445,6,64256,65728,6,6,4,1460,133437,1,16810976,370000,66348,63452,65700,0,28960,0,304053714,63
i,1717751627.407122,172.16.1.2,21847,172.16.3.2,5101,17824,30445,6,64256,65728,6,6,4,1460,133437,1,16810976,370000,66348,66348,65700,0,30408,0,304053714,63
o,1717751627.407129,172.16.1.2,21847,172.16.3.2,5101,17824,30445,6,62848,65728,6,6,4,1460,131875,1,16810976,370000,66348,63452,65700,0,27512,0,304053714,63
i,1717751627.425586,172.16.1.2,21847,172.16.3.2,5101,17824,30445,6,62848,65728,6,6,4,1460,131875,1,16810976,370000,66348,66348,65700,0,30408,0,304053714,63
o,1717751627.425593,172.16.1.2,21847,172.16.3.2,5101,17824,30445,6,62848,65728,6,6,4,1460,133125,1,16810976,370000,66348,63452,65700,0,27512,0,304053714,63
i,1717751627.446177,172.16.1.2,21847,172.16.3.2,5101,17824,30445,6,62848,65728,6,6,4,1460,133125,1,16810976,370000,66348,66348,65700,0,30408,0,304053714,63
o,1717751627.446199,172.16.1.2,21847,172.16.3.2,5101,17824,30445,6,64256,65728,6,6,4,1460,134062,1,16810976,370000,66348,63452,65700,0,27512,0,304053714,63
i,1717751627.447355,172.16.1.2,21847,172.16.3.2,5101,17824,30445,6,64256,65728,6,6,4,1460,134062,1,16810976,370000,66348,66348,65700,0,30408,0,304053714,63
o,1717751627.447371,172.16.1.2,21847,172.16.3.2,5101,17824,30445,6,64256,65728,6,6,4,1460,132500,1,16810976,370000,66348,63452,65700,0,27512,0,304053714,63
i,1717751627.465699,172.16.1.2,21847,172.16.3.2,5101,17824,30445,6,64256,65728,6,6,4,1460,132500,1,16810976,370000,66348,66348,65700,0,30408,0,304053714,63
o,1717751627.465718,172.16.1.2,21847,172.16.3.2,5101,17824,30445,6,64256,65728,6,6,4,1460,133437,1,16810976,370000,66348,63452,65700,0,27512,0,304053714,63
i,1717751627.466657,172.16.1.2,21847,172.16.3.2,5101,17824,30445,6,64256,65728,6,6,4,1460,133437,1,16810976,370000,66348,66348,65700,0,30408,0,304053714,63
o,1717751627.466667,172.16.1.2,21847,172.16.3.2,5101,17824,30445,6,62848,65728,6,6,4,1460,131875,1,16810976,370000,66348,63452,65700,0,27512,0,304053714,63
i,1717751627.485944,172.16.1.2,21847,172.16.3.2,5101,17824,30445,6,62848,65728,6,6,4,1460,131875,1,16810976,370000,66348,66348,65700,0,30408,0,304053714,63
o,1717751627.485995,172.16.1.2,21847,172.16.3.2,5101,17824,30445,6,62848,65728,6,6,4,1460,133125,1,16810976,370000,66348,63452,65700,0,27512,0,304053714,63
i,1717751627.506734,172.16.1.2,21847,172.16.3.2,5101,17824,30445,6,62848,65728,6,6,4,1460,133125,1,16810976,370000,66348,66348,65700,0,30408,0,304053714,63
o,1717751627.506745,172.16.1.2,21847,172.16.3.2,5101,17824,30445,6,64256,65728,6,6,4,1460,134062,1,16810976,370000,66348,63452,65700,0,27512,0,304053714,63
i,1717751627.507973,172.16.1.2,21847,172.16.3.2,5101,17824,30445,6,64256,65728,6,6,4,1460,134062,1,16810976,370000,66348,66348,65700,0,30408,0,304053714,63
o,1717751627.507982,172.16.1.2,21847,172.16.3.2,5101,17824,30445,6,64256,65728,6,6,4,1460,132500,1,16810976,370000,66348,63452,65700,0,27512,0,304053714,63
i,1717751627.524378,172.16.1.2,21847,172.16.3.2,5101,17824,30445,6,64256,65728,6,6,4,1460,132500,1,16810976,370000,66348,66348,65700,0,30408,0,304053714,63
o,1717751627.524385,172.16.1.2,21847,172.16.3.2,5101,17824,30445,6,64256,65728,6,6,4,1460,132187,1,16810976,360000,66348,63452,65700,0,27512,0,304053714,63
o,1717751627.524772,172.16.1.2,21847,172.16.3.2,5101,17824,30445,6,64256,65728,6,6,4,1460,132187,1,16810976,360000,66348,63452,65700,0,28960,0,304053714,63
i,1717751627.526421,172.16.1.2,21847,172.16.3.2,5101,17824,30445,6,64256,65728,6,6,4,1460,132187,1,16810976,360000,66348,66348,65700,0,30408,0,304053714,63
o,1717751627.526428,172.16.1.2,21847,172.16.3.2,5101,17824,30445,6,62848,65728,6,6,4,1460,129687,1,16810976,370000,66348,63452,65700,0,27512,0,304053714,63
i,1717751627.545158,172.16.1.2,21847,172.16.3.2,5101,17824,30445,6,62848,65728,6,6,4,1460,129687,1,16810976,370000,66348,66348,65700,0,30408,0,304053714,63
o,1717751627.545165,172.16.1.2,21847,172.16.3.2,5101,17824,30445,6,62848,65728,6,6,4,1460,131250,1,16810976,380000,66348,63452,65700,0,27512,0,304053714,63
i,1717751627.564868,172.16.1.2,21847,172.16.3.2,5101,17824,30445,6,62848,65728,6,6,4,1460,131250,1,16810976,380000,66348,66348,65700,0,30408,0,304053714,63
o,1717751627.564875,172.16.1.2,21847,172.16.3.2,5101,17824,30445,6,64256,65728,6,6,4,1460,131250,1,16810976,360000,66348,63452,65700,0,27512,0,304053714,63
i,1717751627.565913,172.16.1.2,21847,172.16.3.2,5101,17824,30445,6,64256,65728,6,6,4,1460,131250,1,16810976,360000,66348,66348,65700,0,30408,0,304053714,63
o,1717751627.565918,172.16.1.2,21847,172.16.3.2,5101,17824,30445,6,64256,65728,6,6,4,1460,128750,1,16810976,370000,66348,63452,65700,0,27512,0,304053714,63
i,1717751627.585833,172.16.1.2,21847,172.16.3.2,5101,17824,30445,6,64256,65728,6,6,4,1460,128750,1,16810976,370000,66348,66348,65700,0,30408,0,304053714,63
o,1717751627.585840,172.16.1.2,21847,172.16.3.2,5101,17824,30445,6,64256,65728,6,6,4,1460,129062,1,16810976,360000,66348,63452,65700,0,27512,0,304053714,63
i,1717751627.586976,172.16.1.2,21847,172.16.3.2,5101,17824,30445,6,64256,65728,6,6,4,1460,129062,1,16810976,360000,66348,66348,65700,0,30408,0,304053714,63
o,1717751627.586983,172.16.1.2,21847,172.16.3.2,5101,17824,30445,6,62848,65728,6,6,4,1460,128125,1,16810976,360000,66348,63452,65700,0,27512,0,304053714,63
i,1717751627.605424,172.16.1.2,21847,172.16.3.2,5101,17824,30445,6,62848,65728,6,6,4,1460,128125,1,16810976,360000,66348,66348,65700,0,30408,0,304053714,63
o,1717751627.605430,172.16.1.2,21847,172.16.3.2,5101,17824,30445,6,62848,65728,6,6,4,1460,129687,1,16810976,370000,66348,63452,65700,0,27512,0,304053714,63
i,1717751627.625200,172.16.1.2,21847,172.16.3.2,5101,17824,30445,6,62848,65728,6,6,4,1460,129687,1,16810976,370000,66348,66348,65700,0,30408,0,304053714,63
o,1717751627.625207,172.16.1.2,21847,172.16.3.2,5101,17824,30445,6,64256,65728,6,6,4,1460,131250,1,16810976,370000,66348,63452,65700,0,27512,0,304053714,63
i,1717751627.626400,172.16.1.2,21847,172.16.3.2,5101,17824,30445,6,64256,65728,6,6,4,1460,131250,1,16810976,370000,66348,66348,65700,0,30408,0,304053714,63
o,1717751627.626406,172.16.1.2,21847,172.16.3.2,5101,17824,30445,6,64256,65728,6,6,4,1460,128750,1,16778208,380000,66348,63452,65700,0,27512,0,304053714,63
i,1717751627.644930,172.16.1.2,21847,172.16.3.2,5101,17824,30445,6,64256,65728,6,6,4,1460,128750,1,16810976,380000,66348,66348,65700,0,30408,0,304053714,63
o,1717751627.644936,172.16.1.2,21847,172.16.3.2,5101,17824,30445,6,64256,65728,6,6,4,1460,129062,1,16810976,370000,66348,63452,65700,0,27512,0,304053714,63
o,1717751627.645193,172.16.1.2,21847,172.16.3.2,5101,17824,30445,6,64256,65728,6,6,4,1460,129062,1,16810976,370000,66348,63452,65700,0,28960,0,304053714,63
i,1717751627.646357,172.16.1.2,21847,172.16.3.2,5101,17824,30445,6,64256,65728,6,6,4,1460,129062,1,16810976,370000,66348,66348,65700,0,30408,0,304053714,63
o,1717751627.646365,172.16.1.2,21847,172.16.3.2,5101,17824,30445,6,62848,65728,6,6,4,1460,128125,1,16810976,370000,66348,63452,65700,0,27512,0,304053714,63
i,1717751627.665792,172.16.1.2,21847,172.16.3.2,5101,17824,30445,6,62848,65728,6,6,4,1460,128125,1,16810976,370000,66348,66348,65700,0,30408,0,304053714,63
o,1717751627.665799,172.16.1.2,21847,172.16.3.2,5101,17824,30445,6,62848,65728,6,6,4,1460,129687,1,16810976,370000,66348,63452,65700,0,27512,0,304053714,63
i,1717751627.685506,172.16.1.2,21847,172.16.3.2,5101,17824,30445,6,62848,65728,6,6,4,1460,129687,1,16810976,370000,66348,66348,65700,0,30408,0,304053714,63
o,1717751627.685514,172.16.1.2,21847,172.16.3.2,5101,17824,30445,6,64256,65728,6,6,4,1460,131250,1,16810976,370000,66348,63452,65700,0,27512,0,304053714,63
i,1717751627.686660,172.16.1.2,21847,172.16.3.2,5101,17824,30445,6,64256,65728,6,6,4,1460,131250,1,16810976,370000,66348,66348,65700,0,30408,0,304053714,63
o,1717751627.686667,172.16.1.2,21847,172.16.3.2,5101,17824,30445,6,64256,65728,6,6,4,1460,130000,1,16810976,370000,66348,63452,65700,0,27512,0,304053714,63
i,1717751627.705089,172.16.1.2,21847,172.16.3.2,5101,17824,30445,6,64256,65728,6,6,4,1460,130000,1,16810976,370000,66348,66348,65700,0,30408,0,304053714,63
o,1717751627.705097,172.16.1.2,21847,172.16.3.2,5101,17824,30445,6,64256,65728,6,6,4,1460,131250,1,16810976,370000,66348,63452,65700,0,27512,0,304053714,63
i,1717751627.706148,172.16.1.2,21847,172.16.3.2,5101,17824,30445,6,64256,65728,6,6,4,1460,131250,1,16810976,370000,66348,66348,65700,0,30408,0,304053714,63
o,1717751627.706155,172.16.1.2,21847,172.16.3.2,5101,17824,30445,6,62848,65728,6,6,4,1460,130000,1,16810976,370000,66348,63452,65700,0,27512,0,304053714,63
i,1717751627.725811,172.16.1.2,21847,172.16.3.2,5101,17824,30445,6,62848,65728,6,6,4,1460,130000,1,16810976,370000,66348,66348,65700,0,30408,0,304053714,63
o,1717751627.725818,172.16.1.2,21847,172.16.3.2,5101,17824,30445,6,62848,65728,6,6,4,1460,131250,1,16810976,370000,66348,63452,65700,0,27512,0,304053714,63
i,1717751627.744462,172.16.1.2,21847,172.16.3.2,5101,17824,30445,6,62848,65728,6,6,4,1460,131250,1,16810976,370000,66348,66348,65700,0,30408,0,304053714,63
o,1717751627.744471,172.16.1.2,21847,172.16.3.2,5101,17824,30445,6,64256,65728,6,6,4,1460,131250,1,16810976,360000,66348,63452,65700,0,27512,0,304053714,63
i,1717751627.745789,172.16.1.2,21847,172.16.3.2,5101,17824,30445,6,64256,65728,6,6,4,1460,131250,1,16810976,360000,66348,66348,65700,0,30408,0,304053714,63
o,1717751627.745796,172.16.1.2,21847,172.16.3.2,5101,17824,30445,6,64256,65728,6,6,4,1460,128750,1,16810976,370000,66348,63452,65700,0,27512,0,304053714,63
i,1717751627.765103,172.16.1.2,21847,172.16.3.2,5101,17824,30445,6,64256,65728,6,6,4,1460,128750,1,16810976,370000,66348,66348,65700,0,30408,0,304053714,63
o,1717751627.765114,172.16.1.2,21847,172.16.3.2,5101,17824,30445,6,64256,65728,6,6,4,1460,130312,1,16810976,380000,66348,63452,65700,0,27512,0,304053714,63
o,1717751627.765376,172.16.1.2,21847,172.16.3.2,5101,17824,30445,6,64256,65728,6,6,4,1460,130312,1,16810976,380000,66348,63452,65700,0,28960,0,304053714,63
i,1717751627.766444,172.16.1.2,21847,172.16.3.2,5101,17824,30445,6,64256,65728,6,6,4,1460,130312,1,16810976,380000,66348,66348,65700,0,30408,0,304053714,63
o,1717751627.766451,172.16.1.2,21847,172.16.3.2,5101,17824,30445,6,62848,65728,6,6,4,1460,129062,1,16810976,370000,66348,63452,65700,0,27512,0,304053714,63
i,1717751627.785896,172.16.1.2,21847,172.16.3.2,5101,17824,30445,6,62848,65728,6,6,4,1460,129062,1,16810976,370000,66348,66348,65700,0,30408,0,304053714,63
o,1717751627.785907,172.16.1.2,21847,172.16.3.2,5101,17824,30445,6,62848,65728,6,6,4,1460,130625,1,16810976,380000,66348,63452,65700,0,27512,0,304053714,63
i,1717751627.804925,172.16.1.2,21847,172.16.3.2,5101,17824,30445,6,62848,65728,6,6,4,1460,130625,1,16810976,380000,66348,66348,65700,0,30408,0,304053714,63
o,1717751627.804933,172.16.1.2,21847,172.16.3.2,5101,17824,30445,6,64256,65728,6,6,4,1460,130625,1,16810976,360000,66348,63452,65700,0,27512,0,304053714,63
i,1717751627.806018,172.16.1.2,21847,172.16.3.2,5101,17824,30445,6,64256,65728,6,6,4,1460,130625,1,16810976,360000,66348,66348,65700,0,30408,0,304053714,63
o,1717751627.806025,172.16.1.2,21847,172.16.3.2,5101,17824,30445,6,64256,65728,6,6,4,1460,128125,1,16810976,370000,66348,63452,65700,0,27512,0,304053714,63
i,1717751627.824702,172.16.1.2,21847,172.16.3.2,5101,17824,30445,6,64256,65728,6,6,4,1460,128125,1,16810976,370000,66348,66348,65700,0,30408,0,304053714,63
o,1717751627.824710,172.16.1.2,21847,172.16.3.2,5101,17824,30445,6,64256,65728,6,6,4,1460,128437,1,16810976,360000,66348,63452,65700,0,27512,0,304053714,63
i,1717751627.825907,172.16.1.2,21847,172.16.3.2,5101,17824,30445,6,64256,65728,6,6,4,1460,128437,1,16810976,360000,66348,66348,65700,0,30408,0,304053714,63
o,1717751627.825913,172.16.1.2,21847,172.16.3.2,5101,17824,30445,6,62848,65728,6,6,4,1460,126250,1,16810976,370000,66348,63452,65700,0,27512,0,304053714,63
i,1717751627.844502,172.16.1.2,21847,172.16.3.2,5101,17824,30445,6,62848,65728,6,6,4,1460,126250,1,16810976,370000,66348,66348,65700,0,30408,0,304053714,63
o,1717751627.844508,172.16.1.2,21847,172.16.3.2,5101,17824,30445,6,64256,65728,6,6,4,1460,126875,1,16810976,360000,66348,63452,65700,0,27512,0,304053714,63
i,1717751627.864332,172.16.1.2,21847,172.16.3.2,5101,17824,30445,6,64256,65728,6,6,4,1460,126875,1,16810976,360000,66348,66348,65700,0,30408,0,304053714,63
o,1717751627.864339,172.16.1.2,21847,172.16.3.2,5101,17824,30445,6,64256,65728,6,6,4,1460,127500,1,16810976,360000,66348,63452,65700,0,27512,0,304053714,63
i,1717751627.865860,172.16.1.2,21847,172.16.3.2,5101,17824,30445,6,64256,65728,6,6,4,1460,127500,1,16810976,360000,66348,63452,65700,0,30408,0,304053714,63
o,1717751627.865865,172.16.1.2,21847,172.16.3.2,5101,17824,30445,6,64256,65728,6,6,4,1460,126562,1,16810976,360000,66348,60556,65700,0,27512,0,304053714,63
i,1717751627.885143,172.16.1.2,21847,172.16.3.2,5101,17824,30445,6,64256,65728,6,6,4,1460,126562,1,16810976,360000,74540,74540,65700,0,30408,0,304053714,63
o,1717751627.885151,172.16.1.2,21847,172.16.3.2,5101,17824,30445,6,64256,65728,6,6,4,1460,128437,1,16778208,370000,74540,71644,65700,0,27512,0,304053714,63
o,1717751627.885418,172.16.1.2,21847,172.16.3.2,5101,17824,30445,6,64256,65728,6,6,4,1460,128437,1,16810976,370000,74540,71644,65700,0,28960,0,304053714,63
i,1717751627.886453,172.16.1.2,21847,172.16.3.2,5101,17824,30445,6,64256,65728,6,6,4,1460,128437,1,16810976,370000,74540,74540,65700,0,30408,0,304053714,63
o,1717751627.886461,172.16.1.2,21847,172.16.3.2,5101,17824,30445,6,62848,65728,6,6,4,1460,127500,1,16810976,370000,74540,71644,65700,0,27512,0,304053714,63
i,1717751627.904833,172.16.1.2,21847,172.16.3.2,5101,17824,30445,6,62848,65728,6,6,4,1460,127500,1,16810976,370000,74540,74540,65700,0,30408,0,304053714,63
o,1717751627.904840,172.16.1.2,21847,172.16.3.2,5101,17824,30445,6,62848,65728,6,6,4,1460,127812,1,16810976,360000,74540,71644,65700,0,27512,0,304053714,63
i,1717751627.924701,172.16.1.2,21847,172.16.3.2,5101,17824,30445,6,62848,65728,6,6,4,1460,127812,1,16810976,360000,74540,74540,65700,0,30408,0,304053714,63
o,1717751627.924709,172.16.1.2,21847,172.16.3.2,5101,17824,30445,6,64256,65728,6,6,4,1460,128125,1,16810976,350000,74540,71644,65700,0,27512,0,304053714,63
i,1717751627.925737,172.16.1.2,21847,172.16.3.2,5101,17824,30445,6,64256,65728,6,6,4,1460,128125,1,16810976,350000,74540,74540,65700,0,30408,0,304053714,63
o,1717751627.925743,172.16.1.2,21847,172.16.3.2,5101,17824,30445,6,64256,65728,6,6,4,1460,127187,1,16810976,350000,74540,71644,65700,0,27512,0,304053714,63
i,1717751627.945688,172.16.1.2,21847,172.16.3.2,5101,17824,30445,6,64256,65728,6,6,4,1460,127187,1,16810976,350000,74540,74540,65700,0,30408,0,304053714,63
o,1717751627.945695,172.16.1.2,21847,172.16.3.2,5101,17824,30445,6,64256,65728,6,6,4,1460,129062,1,16810976,360000,74540,71644,65700,0,27512,0,304053714,63
i,1717751627.946768,172.16.1.2,21847,172.16.3.2,5101,17824,30445,6,64256,65728,6,6,4,1460,129062,1,16810976,360000,74540,74540,65700,0,30408,0,304053714,63
o,1717751627.946773,172.16.1.2,21847,172.16.3.2,5101,17824,30445,6,62848,65728,6,6,4,1460,128125,1,16810976,360000,74540,71644,65700,0,27512,0,304053714,63
i,1717751627.965523,172.16.1.2,21847,172.16.3.2,5101,17824,30445,6,62848,65728,6,6,4,1460,128125,1,16810976,360000,74540,74540,65700,0,30408,0,304053714,63
o,1717751627.965535,172.16.1.2,21847,172.16.3.2,5101,17824,30445,6,62848,65728,6,6,4,1460,129687,1,16810976,370000,74540,71644,65700,0,27512,0,304053714,63
i,1717751627.985410,172.16.1.2,21847,172.16.3.2,5101,17824,30445,6,62848,65728,6,6,4,1460,129687,1,16810976,370000,74540,74540,65700,0,30408,0,304053714,63
o,1717751627.985418,172.16.1.2,21847,172.16.3.2,5101,17824,30445,6,64256,65728,6,6,4,1460,131250,1,16810976,370000,74540,71644,65700,0,27512,0,304053714,63
i,1717751627.986535,172.16.1.2,21847,172.16.3.2,5101,17824,30445,6,64256,65728,6,6,4,1460,131250,1,16810976,370000,74540,74540,65700,0,30408,0,304053714,63
o,1717751627.986541,172.16.1.2,21847,172.16.3.2,5101,17824,30445,6,64256,65728,6,6,4,1460,131250,1,16810976,360000,74540,71644,65700,0,27512,0,304053714,63
i,1717751628.004977,172.16.1.2,21847,172.16.3.2,5101,17824,30445,6,64256,65728,6,6,4,1460,131250,1,16810976,360000,74540,74540,65700,0,30408,0,304053714,63
o,1717751628.004983,172.16.1.2,21847,172.16.3.2,5101,17824,30445,6,64256,65728,6,6,4,1460,132500,1,16810976,370000,74540,71644,65700,0,27512,0,304053714,63
o,1717751628.005258,172.16.1.2,21847,172.16.3.2,5101,17824,30445,6,64256,65728,6,6,4,1460,132500,1,16810976,370000,74540,71644,65700,0,28960,0,304053714,63
i,1717751628.006298,172.16.1.2,21847,172.16.3.2,5101,17824,30445,6,64256,65728,6,6,4,1460,132500,1,16810976,370000,74540,74540,65700,0,30408,0,304053714,63
o,1717751628.006303,172.16.1.2,21847,172.16.3.2,5101,17824,30445,6,62848,65728,6,6,4,1460,130937,1,16810976,370000,74540,71644,65700,0,27512,0,304053714,63
i,1717751628.024821,172.16.1.2,21847,172.16.3.2,5101,17824,30445,6,62848,65728,6,6,4,1460,130937,1,16810976,370000,74540,74540,65700,0,30408,0,304053714,63
o,1717751628.024828,172.16.1.2,21847,172.16.3.2,5101,17824,30445,6,62848,65728,6,6,4,1460,130937,1,16810976,360000,74540,71644,65700,0,27512,0,304053714,63
i,1717751628.045282,172.16.1.2,21847,172.16.3.2,5101,17824,30445,6,62848,65728,6,6,4,1460,130937,1,16810976,360000,74540,74540,65700,0,30408,0,304053714,63
o,1717751628.045319,172.16.1.2,21847,172.16.3.2,5101,17824,30572,6,64256,65728,6,6,4,1460,132187,1,16810976,360000,74540,71644,65700,0,27512,0,304053714,63
i,1717751628.046524,172.16.1.2,21847,172.16.3.2,5101,17824,30572,6,64256,65728,6,6,4,1460,132187,1,16810976,360000,74540,74540,65700,0,30408,0,304053714,63
o,1717751628.046530,172.16.1.2,21847,172.16.3.2,5101,17824,30661,6,64256,65728,6,6,4,1460,130937,1,16810976,360000,74540,71644,65700,0,27512,0,304053714,63
i,1717751628.064767,172.16.1.2,21847,172.16.3.2,5101,17824,30661,6,64256,65728,6,6,4,1460,130937,1,16810976,360000,74540,74540,65700,0,30408,0,304053714,63
o,1717751628.064777,172.16.1.2,21847,172.16.3.2,5101,17824,30875,6,64256,65728,6,6,4,1460,132187,1,16810976,370000,74540,71644,65700,0,27512,0,304053714,63
i,1717751628.065916,172.16.1.2,21847,172.16.3.2,5101,17824,30875,6,64256,65728,6,6,4,1460,132187,1,16810976,370000,74540,71644,65700,0,30408,0,304053714,63
o,1717751628.065922,172.16.1.2,21847,172.16.3.2,5101,17824,31025,6,62848,65728,6,6,4,1460,129687,1,16810976,370000,74540,68748,65700,0,27512,0,304053714,63
i,1717751628.084903,172.16.1.2,21847,172.16.3.2,5101,17824,31025,6,62848,65728,6,6,4,1460,129687,1,16810976,370000,74540,73208,65700,0,30408,0,304053714,63
o,1717751628.084932,172.16.1.2,21847,172.16.3.2,5101,17824,31282,6,62848,65728,6,6,4,1460,130000,1,16810976,370000,74540,70312,65700,0,27512,0,304053714,63
i,1717751628.105232,172.16.1.2,21847,172.16.3.2,5101,17824,31282,6,62848,65728,6,6,4,1460,130000,1,16810976,370000,74540,74540,65700,0,30408,0,304053714,63
o,1717751628.105247,172.16.1.2,21847,172.16.3.2,5101,17824,31614,6,64256,65728,6,6,4,1460,131250,1,16810976,370000,74540,71644,65700,0,27512,0,304053714,63
i,1717751628.106535,172.16.1.2,21847,172.16.3.2,5101,17824,31614,6,64256,65728,6,6,4,1460,131250,1,16810976,370000,74540,74540,65700,0,30408,0,304053714,63
o,1717751628.106545,172.16.1.2,21847,172.16.3.2,5101,17824,31846,6,64256,65728,6,6,4,1460,130000,1,16810976,370000,74540,71644,65700,0,27512,0,304053714,63
i,1717751628.124871,172.16.1.2,21847,172.16.3.2,5101,17824,31846,6,64256,65728,6,6,4,1460,130000,1,16810976,370000,74540,74540,65700,0,30408,0,304053714,63
o,1717751628.124879,172.16.1.2,21847,172.16.3.2,5101,17824,32160,6,64256,65728,6,6,4,1460,130000,1,16810976,360000,74540,71644,65700,0,27512,0,304053714,63
o,1717751628.125125,172.16.1.2,21847,172.16.3.2,5101,17824,32160,6,64256,65728,6,6,4,1460,130000,1,16810976,360000,74540,71644,65700,0,28960,0,304053714,63
i,1717751628.126107,172.16.1.2,21847,172.16.3.2,5101,17824,32160,6,64256,65728,6,6,4,1460,130000,1,16810976,360000,74540,74540,65700,0,31856,0,304053714,63
o,1717751628.126115,172.16.1.2,21847,172.16.3.2,5101,17824,32380,6,62848,65728,6,6,4,1460,127500,1,16778208,370000,74540,71644,65700,0,28960,0,304053714,63
i,1717751628.144697,172.16.1.2,21847,172.16.3.2,5101,17824,32380,6,62848,65728,6,6,4,1460,127500,1,16810976,370000,74540,74540,65700,0,31856,0,304053714,63
o,1717751628.144704,172.16.1.2,21847,172.16.3.2,5101,17824,32686,6,62848,65728,6,6,4,1460,127812,1,16810976,360000,74540,71644,65700,0,28960,0,304053714,63
i,1717751628.164359,172.16.1.2,21847,172.16.3.2,5101,17824,32686,6,62848,65728,6,6,4,1460,127812,1,16810976,360000,74540,74540,65700,0,31856,0,304053714,63
o,1717751628.164366,172.16.1.2,21847,172.16.3.2,5101,17824,32976,6,64256,65728,6,6,4,1460,128125,1,16810976,350000,74540,71644,65700,0,28960,0,304053714,63
i,1717751628.165538,172.16.1.2,21847,172.16.3.2,5101,17824,32976,6,64256,65728,6,6,4,1460,128125,1,16810976,350000,74540,74540,65700,0,31856,0,304053714,63
o,1717751628.165544,172.16.1.2,21847,172.16.3.2,5101,17824,33255,6,64256,65728,6,6,4,1460,125937,1,16810976,360000,74540,71644,65700,0,28960,0,304053714,63
i,1717751628.185036,172.16.1.2,21847,172.16.3.2,5101,17824,33255,6,64256,65728,6,6,4,1460,125937,1,16810976,360000,74540,74540,65700,0,31856,0,304053714,63
o,1717751628.185043,172.16.1.2,21847,172.16.3.2,5101,17824,33602,6,64256,65728,6,6,4,1460,127812,1,16810976,370000,74540,71644,65700,0,28960,0,304053714,63
i,1717751628.186237,172.16.1.2,21847,172.16.3.2,5101,17824,33602,6,64256,65728,6,6,4,1460,127812,1,16810976,370000,74540,74540,65700,0,33304,0,304053714,63
o,1717751628.186244,172.16.1.2,21847,172.16.3.2,5101,17824,33845,6,62848,65728,6,6,4,1460,126875,1,16810976,360000,74540,71644,65700,0,30408,0,304053714,63
i,1717751628.204736,172.16.1.2,21847,172.16.3.2,5101,17824,33845,6,62848,65728,6,6,4,1460,126875,1,16810976,360000,74540,74540,65700,0,33304,0,304053714,63
o,1717751628.204743,172.16.1.2,21847,172.16.3.2,5101,17824,34167,6,62848,65728,6,6,4,1460,128750,1,16810976,370000,74540,71644,65700,0,30408,0,304053714,63
i,1717751628.224788,172.16.1.2,21847,172.16.3.2,5101,17824,34167,6,62848,65728,6,6,4,1460,128750,1,16810976,370000,74540,74540,65700,0,33304,0,304053714,63
o,1717751628.224797,172.16.1.2,21847,172.16.3.2,5101,17824,34544,6,64256,65728,6,6,4,1460,130312,1,16810976,380000,74540,71644,65700,0,30408,0,304053714,63
i,1717751628.225842,172.16.1.2,21847,172.16.3.2,5101,17824,34544,6,64256,65728,6,6,4,1460,130312,1,16810976,380000,74540,74540,65700,0,33304,0,304053714,63
o,1717751628.225848,172.16.1.2,21847,172.16.3.2,5101,17824,34808,6,64256,65728,6,6,4,1460,127812,1,16810976,380000,74540,71644,65700,0,30408,0,304053714,63
i,1717751628.244663,172.16.1.2,21847,172.16.3.2,5101,17824,34808,6,64256,65728,6,6,4,1460,127812,1,16810976,380000,74540,74540,65700,0,34752,0,304053714,63
o,1717751628.244669,172.16.1.2,21847,172.16.3.2,5101,17824,35145,6,64256,65728,6,6,4,1460,128125,1,16810976,370000,74540,71644,65700,0,31856,0,304053714,63
o,1717751628.244935,172.16.1.2,21847,172.16.3.2,5101,17824,35145,6,64256,65728,6,6,4,1460,128125,1,16810976,370000,74540,71644,65700,0,33304,0,304053714,63
i,1717751628.246045,172.16.1.2,21847,172.16.3.2,5101,17824,35145,6,64256,65728,6,6,4,1460,128125,1,16810976,370000,74540,74540,65700,0,34752,0,304053714,63
o,1717751628.246053,172.16.1.2,21847,172.16.3.2,5101,17824,35380,6,62848,65728,6,6,4,1460,127187,1,16810976,370000,74540,71644,65700,0,31856,0,304053714,63
i,1717751628.265362,172.16.1.2,21847,172.16.3.2,5101,17824,35380,6,62848,65728,6,6,4,1460,127187,1,16810976,370000,74540,74540,65700,0,34752,0,304053714,63
o,1717751628.265369,172.16.1.2,21847,172.16.3.2,5101,17824,35697,6,62848,65728,6,6,4,1460,129062,1,16810976,370000,74540,71644,65700,0,31856,0,304053714,63
i,1717751628.285196,172.16.1.2,21847,172.16.3.2,5101,17824,35697,6,62848,65728,6,6,4,1460,129062,1,16810976,370000,74540,74540,65700,0,34752,0,304053714,63
o,1717751628.285215,172.16.1.2,21847,172.16.3.2,5101,17824,36071,6,64256,65728,6,6,4,1460,130625,1,16810976,380000,74540,71644,65700,0,31856,0,304053714,63
i,1717751628.286589,172.16.1.2,21847,172.16.3.2,5101,17824,36071,6,64256,65728,6,6,4,1460,130625,1,16810976,380000,74540,74540,65700,0,34752,0,304053714,63
o,1717751628.286601,172.16.1.2,21847,172.16.3.2,5101,17824,36332,6,64256,65728,6,6,4,1460,130625,1,16810976,360000,74540,71644,65700,0,31856,0,304053714,63
i,1717751628.304498,172.16.1.2,21847,172.16.3.2,5101,17824,36332,6,64256,65728,6,6,4,1460,130625,1,16810976,360000,82732,82732,65700,0,36200,0,304053714,63
o,1717751628.304506,172.16.1.2,21847,172.16.3.2,5101,17824,36591,6,64256,65728,6,6,4,1460,130625,1,16810976,360000,82732,79836,65700,0,33304,0,304053714,63
i,1717751628.305568,172.16.1.2,21847,172.16.3.2,5101,17824,36591,6,64256,65728,6,6,4,1460,130625,1,16810976,360000,82732,82732,65700,0,36200,0,304053714,63
o,1717751628.305576,172.16.1.2,21847,172.16.3.2,5101,17824,36848,6,62848,65728,6,6,4,1460,128125,1,16810976,370000,82732,79836,65700,0,33304,0,304053714,63
i,1717751628.325253,172.16.1.2,21847,172.16.3.2,5101,17824,36848,6,62848,65728,6,6,4,1460,128125,1,16810976,370000,82732,82732,65700,0,36200,0,304053714,63
o,1717751628.325260,172.16.1.2,21847,172.16.3.2,5101,17824,37180,6,62848,65728,6,6,4,1460,129687,1,16810976,370000,82732,79836,65700,0,33304,0,304053714,63
i,1717751628.344666,172.16.1.2,21847,172.16.3.2,5101,17824,37180,6,62848,65728,6,6,4,1460,129687,1,16810976,370000,82732,82732,65700,0,36200,0,304053714,63
o,1717751628.344673,172.16.1.2,21847,172.16.3.2,5101,17824,37564,6,64256,65728,6,6,4,1460,132500,1,16810976,390000,82732,79836,65700,0,33304,0,304053714,63
i,1717751628.345857,172.16.1.2,21847,172.16.3.2,5101,17824,37564,6,64256,65728,6,6,4,1460,132500,1,16810976,390000,82732,82732,65700,0,36200,0,304053714,63
o,1717751628.345864,172.16.1.2,21847,172.16.3.2,5101,17824,37833,6,64256,65728,6,6,4,1460,133437,1,16810976,380000,82732,79836,65700,0,33304,0,304053714,63
i,1717751628.365061,172.16.1.2,21847,172.16.3.2,5101,17824,37833,6,64256,65728,6,6,4,1460,133437,1,16810976,380000,82732,82732,65700,0,37648,0,304053714,63
o,1717751628.365069,172.16.1.2,21847,172.16.3.2,5101,17824,38173,6,64256,65728,6,6,4,1460,134375,1,16810976,380000,82732,79836,65700,0,34752,0,304053714,63
i,1717751628.366645,172.16.1.2,21847,172.16.3.2,5101,17824,38173,6,64256,65728,6,6,4,1460,134375,1,16810976,380000,82732,79836,65700,0,37648,0,304053714,63
o,1717751628.366651,172.16.1.2,21847,172.16.3.2,5101,17824,38411,6,62848,65728,6,6,4,1460,135312,1,16810976,380000,82732,76940,65700,0,34752,0,304053714,63
i,1717751628.384691,172.16.1.2,21847,172.16.3.2,5101,17824,38411,6,62848,65728,6,6,4,1460,135312,1,16810976,380000,82732,82732,65700,0,37648,0,304053714,63
