enable_time_secs=1717752468	enable_time_usecs=186338	siftrver=1.3.0	sysname=FreeBSD	sysver=1400097	ipmode=4
o,1717752468.186448,10.0.2.15,22,10.0.2.2,53595,1073725440,17290,1026,65535,65700,0,0,4,1460,312,0,16777220,240000,33580,104,65700,0,0,0,2394985218,63
o,1717752468.186574,10.0.2.15,22,10.0.2.2,53595,1073725440,17290,1026,65535,65700,0,0,4,1460,312,0,16809988,240000,33580,172,65700,0,104,0,2394985218,63
i,1717752468.186964,10.0.2.15,22,10.0.2.2,53595,1073725440,17290,1026,65535,65700,0,0,4,1460,312,0,16809988,240000,33580,172,65700,0,172,0,2394985218,63
i,1717752468.186968,10.0.2.15,22,10.0.2.2,53595,1073725440,17394,1026,65535,65700,0,0,4,1460,312,0,4,240000,33580,68,65700,0,68,0,2394985218,63
o,1717752468.187027,10.0.2.15,22,10.0.2.2,53595,1073725440,17462,1026,65535,65700,0,0,4,1460,312,0,16777220,240000,33580,72,65700,0,0,0,2394985218,63
i,1717752468.187617,10.0.2.15,22,10.0.2.2,53595,1073725440,17462,1026,65535,65700,0,0,4,1460,312,0,16809988,240000,33580,72,65700,0,72,0,2394985218,63
i,1717752468.188116,10.0.2.15,22,10.0.2.2,53595,1073725440,17534,1026,65535,65700,0,0,4,1460,312,0,4,240000,33580,0,65700,0,0,0,2394985218,63
i,1717752468.188119,10.0.2.15,22,10.0.2.2,53595,1073725440,17534,1026,65535,65700,0,0,4,1460,312,0,4,240000,33580,0,65700,96,0,0,2394985218,63
o,1717752468.188122,10.0.2.15,22,10.0.2.2,53595,1073725440,17534,1026,65535,65604,0,0,5,1460,312,0,5,240000,33580,0,65700,96,0,0,2394985218,63
o,1717752468.188752,10.0.2.15,22,10.0.2.2,53595,1073725440,17534,1026,65535,65604,0,0,8,1460,312,0,4,240000,33580,0,65700,0,0,0,2394985218,63
i,1717752468.189359,10.0.2.15,22,10.0.2.2,53595,1073725440,17534,1026,65535,65604,0,0,8,1460,312,0,67108884,240000,33580,0,65700,0,1,0,2394985218,63
i,1717752470.450196,10.0.2.15,22,10.0.2.2,53600,1073725440,14600,0,65535,65700,0,0,4,1460,312,0,16777216,270000,33580,0,65700,0,0,0,3033537934,63
o,1717752470.457231,10.0.2.15,22,10.0.2.2,53600,1073725440,14600,1026,65535,65700,0,0,4,1460,312,0,16777216,270000,33580,38,65700,41,0,0,3033537934,63
i,1717752470.457879,10.0.2.15,22,10.0.2.2,53600,1073725440,14600,1026,65535,65700,0,0,4,1460,312,0,16809984,270000,33580,38,65700,0,38,0,3033537934,63
i,1717752470.458844,10.0.2.15,22,10.0.2.2,53600,1073725440,14638,1026,65535,65700,0,0,4,1460,312,0,0,240000,33580,0,65700,0,0,0,3033537934,63
i,1717752470.458847,10.0.2.15,22,10.0.2.2,53600,1073725440,14638,1026,65535,65700,0,0,4,1460,312,0,0,240000,33580,0,65700,1460,0,0,3033537934,63
o,1717752470.458851,10.0.2.15,22,10.0.2.2,53600,1073725440,14638,1026,65535,65700,0,0,4,1460,312,0,1,240000,33580,0,65700,1536,0,0,3033537934,63
o,1717752470.459655,10.0.2.15,22,10.0.2.2,53600,1073725440,14638,1026,65535,65700,0,0,4,1460,312,0,16777216,240000,33580,1080,65700,1536,0,0,3033537934,63
i,1717752470.460413,10.0.2.15,22,10.0.2.2,53600,1073725440,14638,1026,65535,65700,0,0,4,1460,312,0,16809984,240000,33580,1080,65700,1536,1080,0,3033537934,63
i,1717752470.461835,10.0.2.15,22,10.0.2.2,53600,1073725440,15718,1026,65535,65700,0,0,4,1460,312,0,0,240000,33580,0,65700,0,0,0,3033537934,63
o,1717752470.464321,10.0.2.15,22,10.0.2.2,53600,1073725440,15718,1026,65535,65700,0,0,4,1460,312,0,16777216,240000,33580,548,65700,0,0,0,3033537934,63
i,1717752470.465088,10.0.2.15,22,10.0.2.2,53600,1073725440,15718,1026,65535,65700,0,0,4,1460,312,0,16809984,240000,33580,548,65700,0,548,0,3033537934,63
i,1717752470.469706,10.0.2.15,22,10.0.2.2,53600,1073725440,16266,1026,65535,65700,0,0,4,1460,312,0,0,240000,33580,0,65700,0,0,0,3033537934,63
i,1717752470.473849,10.0.2.15,22,10.0.2.2,53600,1073725440,16266,1026,65535,65700,0,0,4,1460,312,0,0,240000,33580,0,65700,0,0,0,3033537934,63
o,1717752470.473853,10.0.2.15,22,10.0.2.2,53600,1073725440,16266,1026,65535,65700,0,0,4,1460,312,0,1,240000,33580,0,65700,44,0,0,3033537934,63
o,1717752470.474017,10.0.2.15,22,10.0.2.2,53600,1073725440,16266,1026,65535,65700,0,0,4,1460,312,0,16777216,240000,33580,44,65700,0,0,0,3033537934,63
i,1717752470.475343,10.0.2.15,22,10.0.2.2,53600,1073725440,16266,1026,65535,65700,0,0,4,1460,312,0,16809984,240000,33580,44,65700,0,44,0,3033537934,63
i,1717752470.475347,10.0.2.15,22,10.0.2.2,53600,1073725440,16310,1026,65535,65700,0,0,4,1460,312,0,0,240000,33580,0,65700,0,0,0,3033537934,63
o,1717752470.476715,10.0.2.15,22,10.0.2.2,53600,1073725440,16310,1026,65535,65700,0,0,4,1460,312,0,16777216,240000,33580,68,65700,0,0,0,3033537934,63
i,1717752470.477216,10.0.2.15,22,10.0.2.2,53600,1073725440,16310,1026,65535,65700,0,0,4,1460,312,0,16809984,240000,33580,68,65700,0,68,0,3033537934,63
i,1717752470.479449,10.0.2.15,22,10.0.2.2,53600,1073725440,16378,1026,65535,65700,0,0,4,1460,312,0,0,240000,33580,0,65700,0,0,0,3033537934,63
o,1717752470.489931,10.0.2.15,22,10.0.2.2,53600,1073725440,16378,1026,65535,65700,0,0,4,1460,312,0,16777216,240000,33580,28,65700,0,0,0,3033537934,63
i,1717752470.490823,10.0.2.15,22,10.0.2.2,53600,1073725440,16378,1026,65535,65700,0,0,4,1460,312,0,16809984,240000,33580,28,65700,0,28,0,3033537934,63
i,1717752470.491160,10.0.2.15,22,10.0.2.2,53600,1073725440,16406,1026,65535,65700,0,0,4,1460,312,0,0,240000,33580,0,65700,0,0,0,3033537934,63
o,1717752470.491988,10.0.2.15,22,10.0.2.2,53600,1073725440,16406,1026,65535,65700,0,0,4,1460,312,0,16777216,240000,33580,768,65700,112,0,0,3033537934,63
i,1717752470.492681,10.0.2.15,22,10.0.2.2,53600,1073725440,16406,1026,65535,65700,0,0,4,1460,312,0,16809984,240000,33580,768,65700,112,768,0,3033537934,63
o,1717752470.493592,10.0.2.15,22,10.0.2.2,53600,1073725440,17174,1026,65535,65700,0,0,4,1460,312,0,16777216,240000,33580,44,65700,0,0,0,3033537934,63
i,1717752470.494215,10.0.2.15,22,10.0.2.2,53600,1073725440,17174,1026,65535,65700,0,0,4,1460,312,0,16809984,240000,33580,44,65700,0,44,0,3033537934,63
i,1717752470.494917,10.0.2.15,22,10.0.2.2,53600,1073725440,17218,1026,65535,65700,0,0,4,1460,312,0,0,240000,33580,0,65700,0,0,0,3033537934,63
o,1717752470.495207,10.0.2.15,22,10.0.2.2,53600,1073725440,17218,1026,65535,65700,0,0,4,1460,312,0,16777220,240000,33580,72,65700,0,0,0,3033537934,63
i,1717752470.495886,10.0.2.15,22,10.0.2.2,53600,1073725440,17218,1026,65535,65700,0,0,4,1460,312,0,16809988,240000,33580,72,65700,0,72,0,3033537934,63
o,1717752470.497462,10.0.2.15,22,10.0.2.2,53600,1073725440,17290,1026,65535,65700,0,0,4,1460,312,0,16777220,240000,33580,76,65700,0,0,0,3033537934,63
i,1717752470.497932,10.0.2.15,22,10.0.2.2,53600,1073725440,17290,1026,65535,65700,0,0,4,1460,312,0,16809988,240000,33580,76,65700,0,76,0,3033537934,63
o,1717752470.498041,10.0.2.15,22,10.0.2.2,53600,1073725440,17366,1026,65535,65700,0,0,4,1460,312,0,16777220,240000,33580,176,65700,0,0,0,3033537934,63
i,1717752470.498793,10.0.2.15,22,10.0.2.2,53600,1073725440,17366,1026,65535,65700,0,0,4,1460,312,0,16809988,240000,33580,176,65700,0,176,0,3033537934,63
i,1717752470.499657,10.0.2.15,22,10.0.2.2,53600,1073725440,17542,1026,65535,65700,0,0,4,1460,312,0,4,240000,33580,0,65700,0,0,0,3033537934,63
i,1717752470.499659,10.0.2.15,22,10.0.2.2,53600,1073725440,17542,1026,65535,65700,0,0,4,1460,312,0,4,240000,33580,0,65700,36,0,0,3033537934,63
o,1717752470.499661,10.0.2.15,22,10.0.2.2,53600,1073725440,17542,1026,65535,65700,0,0,4,1460,312,0,5,240000,33580,0,65700,96,0,0,3033537934,63
i,1717752470.499733,10.0.2.15,22,10.0.2.2,53600,1073725440,17542,1026,65535,65700,0,0,4,1460,312,0,4,240000,33580,0,65700,96,0,0,3033537934,63
o,1717752470.499736,10.0.2.15,22,10.0.2.2,53600,1073725440,17542,1026,65535,65604,0,0,5,1460,312,0,7,240000,33580,0,65700,96,0,0,3033537934,63
o,1717752470.500368,10.0.2.15,22,10.0.2.2,53600,1073725440,17542,1026,65535,65604,0,0,8,1460,312,0,4,240000,33580,0,65700,0,0,0,3033537934,63
i,1717752470.500809,10.0.2.15,22,10.0.2.2,53600,1073725440,17542,1026,65535,65604,0,0,8,1460,312,0,67108884,240000,33580,0,65700,0,1,0,3033537934,63
i,1717752471.573964,10.0.2.15,22,10.0.2.2,53602,1073725440,14600,0,65535,65700,0,0,4,1460,312,0,16777216,270000,33580,0,65700,0,0,0,3828940386,63
o,1717752471.580753,10.0.2.15,22,10.0.2.2,53602,1073725440,14600,1026,65535,65700,0,0,4,1460,312,0,16777216,270000,33580,38,65700,41,0,0,3828940386,63
i,1717752471.581329,10.0.2.15,22,10.0.2.2,53602,1073725440,14600,1026,65535,65700,0,0,4,1460,312,0,16809984,270000,33580,38,65700,0,38,0,3828940386,63
i,1717752471.582151,10.0.2.15,22,10.0.2.2,53602,1073725440,14638,1026,65535,65700,0,0,4,1460,312,0,0,240000,33580,0,65700,0,0,0,3828940386,63
i,1717752471.582154,10.0.2.15,22,10.0.2.2,53602,1073725440,14638,1026,65535,65700,0,0,4,1460,312,0,0,240000,33580,0,65700,1460,0,0,3828940386,63
o,1717752471.582157,10.0.2.15,22,10.0.2.2,53602,1073725440,14638,1026,65535,65700,0,0,4,1460,312,0,1,240000,33580,0,65700,1536,0,0,3828940386,63
o,1717752471.583125,10.0.2.15,22,10.0.2.2,53602,1073725440,14638,1026,65535,65700,0,0,4,1460,312,0,16777216,240000,33580,1080,65700,1536,0,0,3828940386,63
i,1717752471.583522,10.0.2.15,22,10.0.2.2,53602,1073725440,14638,1026,65535,65700,0,0,4,1460,312,0,16809984,240000,33580,1080,65700,1536,1080,0,3828940386,63
i,1717752471.585564,10.0.2.15,22,10.0.2.2,53602,1073725440,15718,1026,65535,65700,0,0,4,1460,312,0,0,240000,33580,0,65700,0,0,0,3828940386,63
o,1717752471.587948,10.0.2.15,22,10.0.2.2,53602,1073725440,15718,1026,65535,65700,0,0,4,1460,312,0,16777216,240000,33580,548,65700,0,0,0,3828940386,63
i,1717752471.588646,10.0.2.15,22,10.0.2.2,53602,1073725440,15718,1026,65535,65700,0,0,4,1460,312,0,16809984,240000,33580,548,65700,0,548,0,3828940386,63
i,1717752471.593200,10.0.2.15,22,10.0.2.2,53602,1073725440,16266,1026,65535,65700,0,0,4,1460,312,0,0,240000,33580,0,65700,0,0,0,3828940386,63
i,1717752471.598328,10.0.2.15,22,10.0.2.2,53602,1073725440,16266,1026,65535,65700,0,0,4,1460,312,0,0,240000,33580,0,65700,0,0,0,3828940386,63
o,1717752471.598333,10.0.2.15,22,10.0.2.2,53602,1073725440,16266,1026,65535,65700,0,0,4,1460,312,0,1,240000,33580,0,65700,44,0,0,3828940386,63
o,1717752471.598472,10.0.2.15,22,10.0.2.2,53602,1073725440,16266,1026,65535,65700,0,0,4,1460,312,0,16777216,240000,33580,44,65700,0,0,0,3828940386,63
i,1717752471.599168,10.0.2.15,22,10.0.2.2,53602,1073725440,16266,1026,65535,65700,0,0,4,1460,312,0,16809984,240000,33580,44,65700,0,44,0,3828940386,63
i,1717752471.599653,10.0.2.15,22,10.0.2.2,53602,1073725440,16310,1026,65535,65700,0,0,4,1460,312,0,0,240000,33580,0,65700,0,0,0,3828940386,63
o,1717752471.600654,10.0.2.15,22,10.0.2.2,53602,1073725440,16310,1026,65535,65700,0,0,4,1460,312,0,16777216,240000,33580,68,65700,0,0,0,3828940386,63
i,1717752471.601163,10.0.2.15,22,10.0.2.2,53602,1073725440,16310,1026,65535,65700,0,0,4,1460,312,0,16809984,240000,33580,68,65700,0,68,0,3828940386,63
i,1717752471.603528,10.0.2.15,22,10.0.2.2,53602,1073725440,16378,1026,65535,65700,0,0,4,1460,312,0,0,240000,33580,0,65700,0,0,0,3828940386,63
o,1717752471.614071,10.0.2.15,22,10.0.2.2,53602,1073725440,16378,1026,65535,65700,0,0,4,1460,312,0,16777216,240000,33580,28,65700,0,0,0,3828940386,63
i,1717752471.614776,10.0.2.15,22,10.0.2.2,53602,1073725440,16378,1026,65535,65700,0,0,4,1460,312,0,16809984,240000,33580,28,65700,0,28,0,3828940386,63
i,1717752471.615201,10.0.2.15,22,10.0.2.2,53602,1073725440,16406,1026,65535,65700,0,0,4,1460,312,0,0,240000,33580,0,65700,0,0,0,3828940386,63
o,1717752471.616160,10.0.2.15,22,10.0.2.2,53602,1073725440,16406,1026,65535,65700,0,0,4,1460,312,0,16777216,240000,33580,768,65700,112,0,0,3828940386,63
i,1717752471.617006,10.0.2.15,22,10.0.2.2,53602,1073725440,16406,1026,65535,65700,0,0,4,1460,312,0,16809984,240000,33580,768,65700,112,768,0,3828940386,63
o,1717752471.617915,10.0.2.15,22,10.0.2.2,53602,1073725440,17174,1026,65535,65700,0,0,4,1460,312,0,16777216,240000,33580,44,65700,0,0,0,3828940386,63
i,1717752471.618650,10.0.2.15,22,10.0.2.2,53602,1073725440,17174,1026,65535,65700,0,0,4,1460,312,0,16809984,240000,33580,44,65700,0,44,0,3828940386,63
i,1717752471.619632,10.0.2.15,22,10.0.2.2,53602,1073725440,17218,1026,65535,65700,0,0,4,1460,312,0,0,240000,33580,0,65700,0,0,0,3828940386,63
o,1717752471.619893,10.0.2.15,22,10.0.2.2,53602,1073725440,17218,1026,65535,65700,0,0,4,1460,312,0,16777220,240000,33580,72,65700,0,0,0,3828940386,63
i,1717752471.620569,10.0.2.15,22,10.0.2.2,53602,1073725440,17218,1026,65535,65700,0,0,4,1460,312,0,16809988,240000,33580,72,65700,0,72,0,3828940386,63
i,1717752471.620949,10.0.2.15,22,10.0.2.2,53602,1073725440,17290,1026,65535,65700,0,0,4,1460,312,0,4,240000,33580,0,65700,0,0,0,3828940386,63
o,1717752471.641716,172.16.1.2,60827,172.16.3.2,5101,42912,14480,2,65535,65700,6,6,4,1460,191562,1,16778209,840000,33580,0,65700,0,0,0,1949601198,63
o,1717752471.642053,172.16.1.2,60827,172.16.3.2,5101,42912,14480,2,65535,65700,6,6,4,1460,191562,1,16778212,840000,33580,37,65700,0,0,0,1949601198,63
o,1717752471.655548,10.0.2.15,22,10.0.2.2,53602,1073725440,17290,1026,65535,65700,0,0,4,1460,312,0,5,240000,33580,0,65700,0,0,0,3828940386,63
i,1717752471.661571,172.16.1.2,60827,172.16.3.2,5101,42912,14480,2,65535,65700,6,6,4,1460,191562,1,16810980,840000,33580,37,65700,0,37,0,1949601198,63
o,1717752471.661688,172.16.1.2,60827,172.16.3.2,5101,42912,14517,1026,65728,65728,6,6,4,1460,170312,1,16778212,870000,33580,4,65700,0,0,0,1949601198,63
o,1717752471.662049,172.16.1.2,60827,172.16.3.2,5101,42912,14517,1026,65728,65728,6,6,4,1460,170312,1,16810980,870000,33580,128,65700,0,4,0,1949601198,63
i,1717752471.682503,172.16.1.2,60827,172.16.3.2,5101,42912,14517,1026,65728,65728,6,6,4,1460,170312,1,16810980,870000,33580,128,65700,0,128,0,1949601198,63
i,1717752471.682514,172.16.1.2,60827,172.16.3.2,5101,42912,14645,1026,65600,65728,6,6,4,1460,151562,1,996,880000,33580,0,65700,0,0,0,1949601198,63
o,1717752471.701439,172.16.1.2,64938,172.16.3.2,5101,42912,14480,2,65535,65700,6,6,4,1460,191562,1,16778209,840000,33580,0,65700,0,0,0,1210980998,63
o,1717752471.701779,172.16.1.2,64938,172.16.3.2,5101,42912,14480,2,65535,65700,6,6,4,1460,191562,1,16778208,840000,33580,37,65700,0,0,0,1210980998,63
o,1717752471.715959,172.16.1.2,60827,172.16.3.2,5101,42912,14645,1026,65728,65728,6,6,4,1460,151562,1,997,880000,33580,0,65700,0,0,0,1949601198,63
i,1717752471.721459,172.16.1.2,60827,172.16.3.2,5101,42912,14645,1026,65728,65728,6,6,4,1460,151562,1,996,880000,33580,0,65700,0,0,0,1949601198,63
i,1717752471.721463,172.16.1.2,60827,172.16.3.2,5101,42912,14645,1026,65728,65728,6,6,4,1460,151562,1,996,880000,33580,0,65700,1,0,0,1949601198,63
o,1717752471.721466,172.16.1.2,60827,172.16.3.2,5101,42912,14645,1026,65728,65728,6,6,4,1460,151562,1,997,880000,33580,0,65700,2,0,0,1949601198,63
o,1717752471.721653,172.16.1.2,64938,172.16.3.2,5101,42912,14480,6,65535,65700,6,6,4,1460,191562,1,16810976,840000,33580,33580,65700,0,37,0,1210980998,63
i,1717752471.741253,172.16.1.2,64938,172.16.3.2,5101,42912,14480,6,65535,65700,6,6,4,1460,191562,1,16810976,840000,33580,33580,65700,0,13069,0,1210980998,63
o,1717752471.741261,172.16.1.2,64938,172.16.3.2,5101,42912,15965,6,64256,65728,6,6,4,1460,171562,1,16778208,860000,33580,32095,65700,0,11584,0,1210980998,63
o,1717752471.741560,172.16.1.2,64938,172.16.3.2,5101,42912,15965,6,64256,65728,6,6,4,1460,171562,1,16810976,860000,33580,32095,65700,0,13032,0,1210980998,63
i,1717752471.743939,172.16.1.2,64938,172.16.3.2,5101,42912,15965,6,64256,65728,6,6,4,1460,171562,1,16810976,860000,33580,32095,65700,0,15928,0,1210980998,63
o,1717752471.743954,172.16.1.2,64938,172.16.3.2,5101,42912,18861,6,62848,65728,6,6,4,1460,151562,1,16810976,880000,33580,29199,65700,0,13032,0,1210980998,63
i,1717752471.771388,172.16.1.2,64938,172.16.3.2,5101,42912,18861,6,62848,65728,6,6,4,1460,151562,1,16810976,880000,41772,41772,65700,0,18824,0,1210980998,63
o,1717752471.771397,172.16.1.2,64938,172.16.3.2,5101,42912,21757,6,64256,65728,6,6,4,1460,139062,1,16810976,840000,41772,38876,65700,0,15928,0,1210980998,63
i,1717752471.772560,172.16.1.2,64938,172.16.3.2,5101,42912,21757,6,64256,65728,6,6,4,1460,139062,1,16810976,840000,49964,49964,65700,0,21720,0,1210980998,63
o,1717752471.772568,172.16.1.2,64938,172.16.3.2,5101,42912,24653,6,64256,65728,6,6,4,1460,128125,1,16810976,790000,49964,47068,65700,0,18824,0,1210980998,63
i,1717752471.791165,172.16.1.2,64938,172.16.3.2,5101,42912,24653,6,64256,65728,6,6,4,1460,128125,1,16810976,790000,58156,58156,65700,0,24616,0,1210980998,63
o,1717752471.791172,172.16.1.2,64938,172.16.3.2,5101,42912,27549,6,64256,65728,6,6,4,1460,119687,1,16810976,730000,58156,55260,65700,0,21720,0,1210980998,63
i,1717752471.792365,172.16.1.2,64938,172.16.3.2,5101,42912,27549,6,64256,65728,6,6,4,1460,119687,1,16810976,730000,58156,58156,65700,0,27512,0,1210980998,63
o,1717752471.792372,172.16.1.2,64938,172.16.3.2,5101,42912,30445,6,62848,65728,6,6,4,1460,111250,1,16810976,690000,58156,55260,65700,0,24616,0,1210980998,63
o,1717752471.792608,172.16.1.2,64938,172.16.3.2,5101,42912,30445,6,62848,65728,6,6,4,1460,111250,1,16810976,690000,66348,55260,65700,0,26064,0,1210980998,63
i,1717752471.810936,172.16.1.2,64938,172.16.3.2,5101,42912,30445,6,62848,65728,6,6,4,1460,111250,1,16810976,690000,66348,66348,65700,0,30408,0,1210980998,63
o,1717752471.810943,172.16.1.2,64938,172.16.3.2,5101,42912,33341,6,62848,65728,6,6,4,1460,106250,1,16810976,630000,66348,63452,65700,0,27512,0,1210980998,63
i,1717752471.831757,172.16.1.2,64938,172.16.3.2,5101,42912,33341,6,62848,65728,6,6,4,1460,106250,1,16810976,630000,74540,74540,65700,0,33304,0,1210980998,63
o,1717752471.831764,172.16.1.2,64938,172.16.3.2,5101,42912,36237,6,64256,65728,6,6,4,1460,104375,1,16810976,560000,74540,71644,65700,0,30408,0,1210980998,63
i,1717752471.832927,172.16.1.2,64938,172.16.3.2,5101,42912,36237,6,64256,65728,6,6,4,1460,104375,1,16810976,560000,82732,82732,65700,0,36200,0,1210980998,63
o,1717752471.832935,172.16.1.2,64938,172.16.3.2,5101,42912,39133,6,64256,65728,6,6,4,1460,102812,1,16810976,510000,82732,79836,65700,0,33304,0,1210980998,63
i,1717752471.851525,172.16.1.2,64938,172.16.3.2,5101,42912,39133,6,64256,65728,6,6,4,1460,102812,1,16810976,510000,82732,82732,65700,0,39096,0,1210980998,63
o,1717752471.851532,172.16.1.2,64938,172.16.3.2,5101,42912,42029,6,64256,65728,6,6,4,1460,98750,1,16810976,480000,82732,79836,65700,0,36200,0,1210980998,63
i,1717752471.852697,172.16.1.2,64938,172.16.3.2,5101,42912,42029,6,64256,65728,6,6,4,1460,98750,1,16810976,480000,82732,82732,65700,0,41992,0,1210980998,63
o,1717752471.852706,172.16.1.2,64938,172.16.3.2,5101,42912,44925,6,62848,65728,6,6,4,1460,95312,1,16778208,460000,82732,79836,65700,0,39096,0,1210980998,63
i,1717752471.871327,172.16.1.2,64938,172.16.3.2,5101,42912,44925,6,62848,65728,6,6,4,1460,95312,1,16810976,460000,82732,82732,65700,0,44888,0,1210980998,63
o,1717752471.871334,172.16.1.2,64938,172.16.3.2,5101,42912,44925,6,62848,65728,6,6,4,1460,94687,1,16810976,420000,82732,79836,65700,0,41992,0,1210980998,63
i,1717752471.891142,172.16.1.2,64938,172.16.3.2,5101,42912,44925,6,62848,65728,6,6,4,1460,94687,1,16810976,420000,82732,82732,65700,0,44888,0,1210980998,63
o,1717752471.891149,172.16.1.2,64938,172.16.3.2,5101,42912,44925,6,64256,65728,6,6,4,1460,96875,1,16810976,410000,82732,79836,65700,0,41992,0,1210980998,63
i,1717752471.892395,172.16.1.2,64938,172.16.3.2,5101,42912,44925,6,64256,65728,6,6,4,1460,96875,1,16810976,410000,82732,82732,65700,0,44888,0,1210980998,63
o,1717752471.892402,172.16.1.2,64938,172.16.3.2,5101,42912,44925,6,64256,65728,6,6,4,1460,97500,1,16810976,390000,82732,79836,65700,0,41992,0,1210980998,63
i,1717752471.911010,172.16.1.2,64938,172.16.3.2,5101,42912,44925,6,64256,65728,6,6,4,1460,97500,1,16810976,390000,82732,82732,65700,0,44888,0,1210980998,63
o,1717752471.911016,172.16.1.2,64938,172.16.3.2,5101,42912,44925,6,64256,65728,6,6,4,1460,100312,1,16810976,390000,82732,79836,65700,0,41992,0,1210980998,63
o,1717752471.911306,172.16.1.2,64938,172.16.3.2,5101,42912,44925,6,64256,65728,6,6,4,1460,100312,1,16810976,390000,82732,79836,65700,0,43440,0,1210980998,63
i,1717752471.912410,172.16.1.2,64938,172.16.3.2,5101,42912,44925,6,64256,65728,6,6,4,1460,100312,1,16810976,390000,82732,82732,65700,0,44888,0,1210980998,63
o,1717752471.912418,172.16.1.2,64938,172.16.3.2,5101,42912,44925,6,62848,65728,6,6,4,1460,102812,1,16810976,390000,82732,79836,65700,0,41992,0,1210980998,63
i,1717752471.931861,172.16.1.2,64938,172.16.3.2,5101,42912,44925,6,62848,65728,6,6,4,1460,102812,1,16810976,390000,82732,82732,65700,0,44888,0,1210980998,63
o,1717752471.931872,172.16.1.2,64938,172.16.3.2,5101,42912,44925,6,62848,65728,6,6,4,1460,107500,1,16810976,410000,82732,79836,65700,0,41992,0,1210980998,63
i,1717752471.950961,172.16.1.2,64938,172.16.3.2,5101,42912,44925,6,62848,65728,6,6,4,1460,107500,1,16810976,410000,82732,82732,65700,0,44888,0,1210980998,63
o,1717752471.950981,172.16.1.2,64938,172.16.3.2,5101,42912,44925,6,64256,65728,6,6,4,1460,111562,1,16810976,420000,82732,79836,65700,0,41992,0,1210980998,63
i,1717752471.952316,172.16.1.2,64938,172.16.3.2,5101,42912,44925,6,64256,65728,6,6,4,1460,111562,1,16810976,420000,82732,82732,65700,0,44888,0,1210980998,63
o,1717752471.952328,172.16.1.2,64938,172.16.3.2,5101,42912,44925,6,64256,65728,6,6,4,1460,115312,1,16810976,430000,82732,79836,65700,0,41992,0,1210980998,63
i,1717752471.970548,172.16.1.2,64938,172.16.3.2,5101,42912,44925,6,64256,65728,6,6,4,1460,115312,1,16810976,430000,82732,82732,65700,0,44888,0,1210980998,63
o,1717752471.970567,172.16.1.2,64938,172.16.3.2,5101,42912,44925,6,64256,65728,6,6,4,1460,118437,1,16810976,430000,82732,79836,65700,0,41992,0,1210980998,63
i,1717752471.971932,172.16.1.2,64938,172.16.3.2,5101,42912,44925,6,64256,65728,6,6,4,1460,118437,1,16810976,430000,82732,82732,65700,0,44888,0,1210980998,63
o,1717752471.971943,172.16.1.2,64938,172.16.3.2,5101,42912,44925,6,64256,65728,6,6,4,1460,121250,1,16810976,430000,82732,79836,65700,0,41992,0,1210980998,63
i,1717752471.991504,172.16.1.2,64938,172.16.3.2,5101,42912,44925,6,64256,65728,6,6,4,1460,121250,1,16810976,430000,82732,82732,65700,0,44888,0,1210980998,63
o,1717752471.991512,172.16.1.2,64938,172.16.3.2,5101,42912,44925,6,62848,65728,6,6,4,1460,126250,1,16810976,440000,82732,79836,65700,0,41992,0,1210980998,63
i,1717752472.011363,172.16.1.2,64938,172.16.3.2,5101,42912,44925,6,62848,65728,6,6,4,1460,126250,1,16810976,440000,82732,82732,65700,0,44888,0,1210980998,63
o,1717752472.011372,172.16.1.2,64938,172.16.3.2,5101,42912,44925,6,64256,65728,6,6,4,1460,133125,1,16810976,480000,82732,79836,65700,0,41992,0,1210980998,63
i,1717752472.012545,172.16.1.2,64938,172.16.3.2,5101,42912,44925,6,64256,65728,6,6,4,1460,133125,1,16810976,480000,82732,82732,65700,0,44888,0,1210980998,63
o,1717752472.012552,172.16.1.2,64938,172.16.3.2,5101,42912,44925,6,64256,65728,6,6,4,1460,136562,1,16810976,470000,82732,79836,65700,0,41992,0,1210980998,63
i,1717752472.031104,172.16.1.2,64938,172.16.3.2,5101,42912,44925,6,64256,65728,6,6,4,1460,136562,1,16810976,470000,82732,82732,65700,0,44888,0,1210980998,63
o,1717752472.031111,172.16.1.2,64938,172.16.3.2,5101,42912,44925,6,64256,65728,6,6,4,1460,142187,1,16810976,490000,82732,79836,65700,0,41992,0,1210980998,63
i,1717752472.032214,172.16.1.2,64938,172.16.3.2,5101,42912,44925,6,64256,65728,6,6,4,1460,142187,1,16810976,490000,82732,82732,65700,0,44888,0,1210980998,63
o,1717752472.032221,172.16.1.2,64938,172.16.3.2,5101,42912,44925,6,62848,65728,6,6,4,1460,147187,1,16810976,490000,82732,79836,65700,0,41992,0,1210980998,63
i,1717752472.050919,172.16.1.2,64938,172.16.3.2,5101,42912,44925,6,62848,65728,6,6,4,1460,147187,1,16810976,490000,82732,82732,65700,0,44888,0,1210980998,63
o,1717752472.050926,172.16.1.2,64938,172.16.3.2,5101,42912,44925,6,62848,65728,6,6,4,1460,154062,1,16810976,520000,82732,79836,65700,0,41992,0,1210980998,63
i,1717752472.071694,172.16.1.2,64938,172.16.3.2,5101,42912,44925,6,62848,65728,6,6,4,1460,154062,1,16810976,520000,82732,82732,65700,0,44888,0,1210980998,63
o,1717752472.071702,172.16.1.2,64938,172.16.3.2,5101,42912,44925,6,64256,65728,6,6,4,1460,158750,1,16810976,520000,82732,79836,65700,0,41992,0,1210980998,63
i,1717752472.072670,172.16.1.2,64938,172.16.3.2,5101,42912,44925,6,64256,65728,6,6,4,1460,158750,1,16810976,520000,82732,82732,65700,0,44888,0,1210980998,63
o,1717752472.072676,172.16.1.2,64938,172.16.3.2,5101,42912,44925,6,64256,65728,6,6,4,1460,160312,1,16810976,490000,82732,79836,65700,0,41992,0,1210980998,63
i,1717752472.091483,172.16.1.2,64938,172.16.3.2,5101,42912,44925,6,64256,65728,6,6,4,1460,160312,1,16810976,490000,82732,82732,65700,0,44888,0,1210980998,63
o,1717752472.091490,172.16.1.2,64938,172.16.3.2,5101,42912,44925,6,64256,65728,6,6,4,1460,165312,1,16810976,510000,82732,79836,65700,0,41992,0,1210980998,63
o,1717752472.091732,172.16.1.2,64938,172.16.3.2,5101,42912,44925,6,64256,65728,6,6,4,1460,165312,1,16810976,510000,82732,79836,65700,0,43440,0,1210980998,63
i,1717752472.092825,172.16.1.2,64938,172.16.3.2,5101,42912,44925,6,64256,65728,6,6,4,1460,165312,1,16810976,510000,82732,82732,65700,0,44888,0,1210980998,63
o,1717752472.092832,172.16.1.2,64938,172.16.3.2,5101,42912,44925,6,62848,65728,6,6,4,1460,165937,1,16810976,480000,82732,79836,65700,0,41992,0,1210980998,63
i,1717752472.111211,172.16.1.2,64938,172.16.3.2,5101,42912,44925,6,62848,65728,6,6,4,1460,165937,1,16810976,480000,82732,82732,65700,0,44888,0,1210980998,63
o,1717752472.111218,172.16.1.2,64938,172.16.3.2,5101,42912,44925,6,62848,65728,6,6,4,1460,169062,1,16810976,480000,82732,79836,65700,0,41992,0,1210980998,63
i,1717752472.131040,172.16.1.2,64938,172.16.3.2,5101,42912,44925,6,62848,65728,6,6,4,1460,169062,1,16810976,480000,82732,82732,65700,0,44888,0,1210980998,63
o,1717752472.131047,172.16.1.2,64938,172.16.3.2,5101,42912,44925,6,64256,65728,6,6,4,1460,173125,1,16810976,490000,82732,79836,65700,0,41992,0,1210980998,63
i,1717752472.132218,172.16.1.2,64938,172.16.3.2,5101,42912,44925,6,64256,65728,6,6,4,1460,173125,1,16810976,490000,82732,82732,65700,0,44888,0,1210980998,63
o,1717752472.132225,172.16.1.2,64938,172.16.3.2,5101,42912,44925,6,64256,65728,6,6,4,1460,174062,1,16810976,470000,82732,79836,65700,0,41992,0,1210980998,63
i,1717752472.150847,172.16.1.2,64938,172.16.3.2,5101,42912,44925,6,64256,65728,6,6,4,1460,174062,1,16810976,470000,82732,82732,65700,0,44888,0,1210980998,63
o,1717752472.150856,172.16.1.2,64938,172.16.3.2,5101,42912,44925,6,64256,65728,6,6,4,1460,177500,1,16810976,480000,82732,79836,65700,0,41992,0,1210980998,63
i,1717752472.152282,172.16.1.2,64938,172.16.3.2,5101,42912,44925,6,64256,65728,6,6,4,1460,177500,1,16810976,480000,82732,82732,65700,0,44888,0,1210980998,63
o,1717752472.152289,172.16.1.2,64938,172.16.3.2,5101,42912,44925,6,62848,65728,6,6,4,1460,177812,1,16810976,450000,82732,79836,65700,0,41992,0,1210980998,63
i,1717752472.170798,172.16.1.2,64938,172.16.3.2,5101,42912,44925,6,62848,65728,6,6,4,1460,177812,1,16810976,450000,82732,82732,65700,0,44888,0,1210980998,63
o,1717752472.170805,172.16.1.2,64938,172.16.3.2,5101,42912,44925,6,62848,65728,6,6,4,1460,180625,1,16810976,460000,82732,79836,65700,0,41992,0,1210980998,63
i,1717752472.191666,172.16.1.2,64938,172.16.3.2,5101,42912,44925,6,62848,65728,6,6,4,1460,180625,1,16810976,460000,82732,82732,65700,0,44888,0,1210980998,63
o,1717752472.191680,172.16.1.2,64938,172.16.3.2,5101,42912,44925,6,64256,65728,6,6,4,1460,181875,1,16810976,450000,82732,79836,65700,0,41992,0,1210980998,63
i,1717752472.192800,172.16.1.2,64938,172.16.3.2,5101,42912,44925,6,64256,65728,6,6,4,1460,181875,1,16810976,450000,82732,82732,65700,0,44888,0,1210980998,63
o,1717752472.192807,172.16.1.2,64938,172.16.3.2,5101,42912,44925,6,64256,65728,6,6,4,1460,181875,1,16778208,430000,82732,79836,65700,0,41992,0,1210980998,63
i,1717752472.211049,172.16.1.2,64938,172.16.3.2,5101,42912,44925,6,64256,65728,6,6,4,1460,181875,1,16810976,430000,82732,82732,65700,0,44888,0,1210980998,63
o,1717752472.211056,172.16.1.2,64938,172.16.3.2,5101,42912,44925,6,64256,65728,6,6,4,1460,184375,1,16810976,440000,82732,79836,65700,0,41992,0,1210980998,63
i,1717752472.212444,172.16.1.2,64938,172.16.3.2,5101,42912,44925,6,64256,65728,6,6,4,1460,184375,1,16810976,440000,82732,82732,65700,0,44888,0,1210980998,63
o,1717752472.212451,172.16.1.2,64938,172.16.3.2,5101,42912,44925,6,62848,65728,6,6,4,1460,184062,1,16810976,430000,82732,79836,65700,0,41992,0,1210980998,63
i,1717752472.230482,172.16.1.2,64938,172.16.3.2,5101,42912,44925,6,62848,65728,6,6,4,1460,184062,1,16810976,430000,82732,82732,65700,0,44888,0,1210980998,63
o,1717752472.230489,172.16.1.2,64938,172.16.3.2,5101,42912,44925,6,62848,65728,6,6,4,1460,186250,1,16810976,440000,82732,79836,65700,0,41992,0,1210980998,63
i,1717752472.251288,172.16.1.2,64938,172.16.3.2,5101,42912,44925,6,62848,65728,6,6,4,1460,186250,1,16810976,440000,82732,82732,65700,0,44888,0,1210980998,63
o,1717752472.251296,172.16.1.2,64938,172.16.3.2,5101,42912,44925,6,64256,65728,6,6,4,1460,188125,1,16810976,440000,82732,79836,65700,0,41992,0,1210980998,63
i,1717752472.252395,172.16.1.2,64938,172.16.3.2,5101,42912,44925,6,64256,65728,6,6,4,1460,188125,1,16810976,440000,82732,82732,65700,0,44888,0,1210980998,63
o,1717752472.252402,172.16.1.2,64938,172.16.3.2,5101,42912,44925,6,64256,65728,6,6,4,1460,187187,1,16810976,430000,82732,79836,65700,0,41992,0,1210980998,63
i,1717752472.271044,172.16.1.2,64938,172.16.3.2,5101,42912,44925,6,64256,65728,6,6,4,1460,187187,1,16810976,430000,82732,82732,65700,0,44888,0,1210980998,63
o,1717752472.271051,172.16.1.2,64938,172.16.3.2,5101,42912,44925,6,64256,65728,6,6,4,1460,189062,1,16810976,440000,82732,79836,65700,0,41992,0,1210980998,63
o,1717752472.271290,172.16.1.2,64938,172.16.3.2,5101,42912,44925,6,64256,65728,6,6,4,1460,189062,1,16810976,440000,82732,79836,65700,0,43440,0,1210980998,63
i,1717752472.272462,172.16.1.2,64938,172.16.3.2,5101,42912,44925,6,64256,65728,6,6,4,1460,189062,1,16810976,440000,82732,82732,65700,0,44888,0,1210980998,63
o,1717752472.272471,172.16.1.2,64938,172.16.3.2,5101,42912,44925,6,62848,65728,6,6,4,1460,188125,1,16810976,430000,82732,79836,65700,0,41992,0,1210980998,63
i,1717752472.290728,172.16.1.2,64938,172.16.3.2,5101,42912,44925,6,62848,65728,6,6,4,1460,188125,1,16810976,430000,82732,82732,65700,0,44888,0,1210980998,63
o,1717752472.290734,172.16.1.2,64938,172.16.3.2,5101,42912,44925,6,62848,65728,6,6,4,1460,189687,1,16810976,430000,82732,79836,65700,0,41992,0,1210980998,63
i,1717752472.311612,172.16.1.2,64938,172.16.3.2,5101,42912,44925,6,62848,65728,6,6,4,1460,189687,1,16810976,430000,82732,82732,65700,0,44888,0,1210980998,63
o,1717752472.311620,172.16.1.2,64938,172.16.3.2,5101,42912,44925,6,64256,65728,6,6,4,1460,191250,1,16810976,440000,82732,79836,65700,0,41992,0,1210980998,63
i,1717752472.312935,172.16.1.2,64938,172.16.3.2,5101,42912,44925,6,64256,65728,6,6,4,1460,191250,1,16810976,440000,82732,82732,65700,0,44888,0,1210980998,63
o,1717752472.312942,172.16.1.2,64938,172.16.3.2,5101,42912,44925,6,64256,65728,6,6,4,1460,190000,1,16810976,430000,82732,79836,65700,0,41992,0,1210980998,63
i,1717752472.331302,172.16.1.2,64938,172.16.3.2,5101,42912,44925,6,64256,65728,6,6,4,1460,190000,1,16810976,430000,82732,82732,65700,0,44888,0,1210980998,63
o,1717752472.331309,172.16.1.2,64938,172.16.3.2,5101,42912,44925,6,64256,65728,6,6,4,1460,191250,1,16810976,430000,82732,79836,65700,0,41992,0,1210980998,63
i,1717752472.332408,172.16.1.2,64938,172.16.3.2,5101,42912,44925,6,64256,65728,6,6,4,1460,191250,1,16810976,430000,82732,82732,65700,0,44888,0,1210980998,63
o,1717752472.332415,172.16.1.2,64938,172.16.3.2,5101,42912,44925,6,62848,65728,6,6,4,1460,190000,1,16810976,430000,82732,79836,65700,0,41992,0,1210980998,63
i,1717752472.351137,172.16.1.2,64938,172.16.3.2,5101,42912,44925,6,62848,65728,6,6,4,1460,190000,1,16810976,430000,82732,82732,65700,0,44888,0,1210980998,63
o,1717752472.351145,172.16.1.2,64938,172.16.3.2,5101,42912,44925,6,62848,65728,6,6,4,1460,191250,1,16810976,430000,82732,79836,65700,0,41992,0,1210980998,63
i,1717752472.370973,172.16.1.2,64938,172.16.3.2,5101,42912,44925,6,62848,65728,6,6,4,1460,191250,1,16810976,430000,82732,82732,65700,0,44888,0,1210980998,63
o,1717752472.370982,172.16.1.2,64938,172.16.3.2,5101,42912,44925,6,64256,65728,6,6,4,1460,192500,1,16810976,440000,82732,79836,65700,0,41992,0,1210980998,63
i,1717752472.372266,172.16.1.2,64938,172.16.3.2,5101,42912,44925,6,64256,65728,6,6,4,1460,192500,1,16810976,440000,82732,82732,65700,0,44888,0,1210980998,63
o,1717752472.372273,172.16.1.2,64938,172.16.3.2,5101,42912,44925,6,64256,65728,6,6,4,1460,190937,1,16810976,440000,82732,79836,65700,0,41992,0,1210980998,63
i,1717752472.390667,172.16.1.2,64938,172.16.3.2,5101,42912,44925,6,64256,65728,6,6,4,1460,190937,1,16810976,440000,82732,82732,65700,0,44888,0,1210980998,63
o,1717752472.390674,172.16.1.2,64938,172.16.3.2,5101,42912,44925,6,64256,65728,6,6,4,1460,192187,1,16810976,430000,82732,79836,65700,0,41992,0,1210980998,63
i,1717752472.391764,172.16.1.2,64938,172.16.3.2,5101,42912,44925,6,64256,65728,6,6,4,1460,192187,1,16810976,430000,82732,82732,65700,0,44888,0,1210980998,63
o,1717752472.391771,172.16.1.2,64938,172.16.3.2,5101,42912,44925,6,62848,65728,6,6,4,1460,190937,1,16810976,430000,82732,79836,65700,0,41992,0,1210980998,63
i,1717752472.411437,172.16.1.2,64938,172.16.3.2,5101,42912,44925,6,62848,65728,6,6,4,1460,190937,1,16810976,430000,82732,82732,65700,0,44888,0,1210980998,63
o,1717752472.411448,172.16.1.2,64938,172.16.3.2,5101,42912,44925,6,62848,65728,6,6,4,1460,192187,1,16810976,430000,82732,79836,65700,0,41992,0,1210980998,63
i,1717752472.430167,172.16.1.2,64938,172.16.3.2,5101,42912,44925,6,62848,65728,6,6,4,1460,192187,1,16810976,430000,82732,82732,65700,0,44888,0,1210980998,63
o,1717752472.430175,172.16.1.2,64938,172.16.3.2,5101,42912,44925,6,64256,65728,6,6,4,1460,192187,1,16810976,420000,82732,79836,65700,0,41992,0,1210980998,63
i,1717752472.431420,172.16.1.2,64938,172.16.3.2,5101,42912,44925,6,64256,65728,6,6,4,1460,192187,1,16810976,420000,82732,82732,65700,0,44888,0,1210980998,63
o,1717752472.431429,172.16.1.2,64938,172.16.3.2,5101,42912,44925,6,64256,65728,6,6,4,1460,189687,1,16810976,430000,82732,79836,65700,0,41992,0,1210980998,63
i,1717752472.451107,172.16.1.2,64938,172.16.3.2,5101,42912,44925,6,64256,65728,6,6,4,1460,189687,1,16810976,430000,82732,82732,65700,0,44888,0,1210980998,63
o,1717752472.451114,172.16.1.2,64938,172.16.3.2,5101,42912,44925,6,64256,65728,6,6,4,1460,191250,1,16810976,440000,82732,79836,65700,0,41992,0,1210980998,63
o,1717752472.451510,172.16.1.2,64938,172.16.3.2,5101,42912,44925,6,64256,65728,6,6,4,1460,191250,1,16810976,440000,82732,79836,65700,0,43440,0,1210980998,63
i,1717752472.452503,172.16.1.2,64938,172.16.3.2,5101,42912,44925,6,64256,65728,6,6,4,1460,191250,1,16810976,440000,82732,82732,65700,0,44888,0,1210980998,63
o,1717752472.452510,172.16.1.2,64938,172.16.3.2,5101,42912,44925,6,62848,65728,6,6,4,1460,190000,1,16810976,430000,82732,79836,65700,0,41992,0,1210980998,63
i,1717752472.471880,172.16.1.2,64938,172.16.3.2,5101,42912,44925,6,62848,65728,6,6,4,1460,190000,1,16810976,430000,82732,82732,65700,0,44888,0,1210980998,63
o,1717752472.471887,172.16.1.2,64938,172.16.3.2,5101,42912,44925,6,62848,65728,6,6,4,1460,191250,1,16810976,430000,82732,79836,65700,0,41992,0,1210980998,63
i,1717752472.491133,172.16.1.2,64938,172.16.3.2,5101,42912,44925,6,62848,65728,6,6,4,1460,191250,1,16810976,430000,82732,82732,65700,0,44888,0,1210980998,63
o,1717752472.491140,172.16.1.2,64938,172.16.3.2,5101,42912,44925,6,64256,65728,6,6,4,1460,192500,1,16810976,440000,82732,79836,65700,0,41992,0,1210980998,63
i,1717752472.492192,172.16.1.2,64938,172.16.3.2,5101,42912,44925,6,64256,65728,6,6,4,1460,192500,1,16810976,440000,82732,81144,65700,0,44888,0,1210980998,63
o,1717752472.492196,172.16.1.2,64938,172.16.3.2,5101,42912,44925,6,64256,65728,6,6,4,1460,189687,1,16810976,440000,82732,78248,65700,0,41992,0,1210980998,63
i,1717752472.510859,172.16.1.2,64938,172.16.3.2,5101,42912,44925,6,64256,65728,6,6,4,1460,189687,1,16810976,440000,82732,82732,65700,0,44888,0,1210980998,63
o,1717752472.510866,172.16.1.2,64938,172.16.3.2,5101,42912,44925,6,64256,65728,6,6,4,1460,190000,1,16810976,430000,82732,79836,65700,0,41992,0,1210980998,63
i,1717752472.512052,172.16.1.2,64938,172.16.3.2,5101,42912,44925,6,64256,65728,6,6,4,1460,190000,1,16810976,430000,82732,82732,65700,0,44888,0,1210980998,63
o,1717752472.512059,172.16.1.2,64938,172.16.3.2,5101,42912,44925,6,62848,65728,6,6,4,1460,187500,1,16810976,440000,82732,79836,65700,0,41992,0,1210980998,63
i,1717752472.530535,172.16.1.2,64938,172.16.3.2,5101,42912,44925,6,62848,65728,6,6,4,1460,187500,1,16810976,440000,82732,82732,65700,0,44888,0,1210980998,63
o,1717752472.530542,172.16.1.2,64938,172.16.3.2,5101,42912,44925,6,62848,65728,6,6,4,1460,187812,1,16778208,430000,82732,79836,65700,0,41992,0,1210980998,63
i,1717752472.550609,172.16.1.2,64938,172.16.3.2,5101,42912,44925,6,62848,65728,6,6,4,1460,187812,1,16810976,430000,82732,82732,65700,0,44888,0,1210980998,63
o,1717752472.550618,172.16.1.2,64938,172.16.3.2,5101,42912,44925,6,64256,65728,6,6,4,1460,189375,1,16810976,430000,82732,79836,65700,0,41992,0,1210980998,63
i,1717752472.551964,172.16.1.2,64938,172.16.3.2,5101,42912,44925,6,64256,65728,6,6,4,1460,189375,1,16810976,430000,82732,82732,65700,0,44888,0,1210980998,63
o,1717752472.551971,172.16.1.2,64938,172.16.3.2,5101,42912,44925,6,64256,65728,6,6,4,1460,187187,1,16810976,440000,82732,79836,65700,0,41992,0,1210980998,63
i,1717752472.570831,172.16.1.2,64938,172.16.3.2,5101,42912,44925,6,64256,65728,6,6,4,1460,187187,1,16810976,440000,82732,82732,65700,0,44888,0,1210980998,63
o,1717752472.570840,172.16.1.2,64938,172.16.3.2,5101,42912,44925,6,64256,65728,6,6,4,1460,187812,1,16810976,430000,82732,79836,65700,0,41992,0,1210980998,63
i,1717752472.572050,172.16.1.2,64938,172.16.3.2,5101,42912,44925,6,64256,65728,6,6,4,1460,187812,1,16810976,430000,82732,82732,65700,0,44888,0,1210980998,63
o,1717752472.572056,172.16.1.2,64938,172.16.3.2,5101,42912,44925,6,62848,65728,6,6,4,1460,186875,1,16810976,430000,82732,79836,65700,0,41992,0,1210980998,63
i,1717752472.590684,172.16.1.2,64938,172.16.3.2,5101,42912,44925,6,62848,65728,6,6,4,1460,186875,1,16810976,430000,82732,82732,65700,0,44888,0,1210980998,63
o,1717752472.590691,172.16.1.2,64938,172.16.3.2,5101,42912,44925,6,62848,65728,6,6,4,1460,188750,1,16810976,430000,82732,79836,65700,0,41992,0,1210980998,63
i,1717752472.610766,172.16.1.2,64938,172.16.3.2,5101,42912,44925,6,62848,65728,6,6,4,1460,188750,1,16810976,430000,82732,82732,65700,0,44888,0,1210980998,63
o,1717752472.610773,172.16.1.2,64938,172.16.3.2,5101,42912,44925,6,64256,65728,6,6,4,1460,190312,1,16810976,440000,82732,79836,65700,0,41992,0,1210980998,63
i,1717752472.611921,172.16.1.2,64938,172.16.3.2,5101,42912,44925,6,64256,65728,6,6,4,1460,190312,1,16810976,440000,82732,82732,65700,0,44888,0,1210980998,63
o,1717752472.611927,172.16.1.2,64938,172.16.3.2,5101,42912,44925,6,64256,65728,6,6,4,1460,189062,1,16810976,430000,82732,79836,65700,0,41992,0,1210980998,63
i,1717752472.631593,172.16.1.2,64938,172.16.3.2,5101,42912,44925,6,64256,65728,6,6,4,1460,189062,1,16810976,430000,82732,82732,65700,0,44888,0,1210980998,63
o,1717752472.631600,172.16.1.2,64938,172.16.3.2,5101,42912,44925,6,64256,65728,6,6,4,1460,190625,1,16810976,440000,82732,79836,65700,0,41992,0,1210980998,63
o,1717752472.631839,172.16.1.2,64938,172.16.3.2,5101,42912,44925,6,64256,65728,6,6,4,1460,190625,1,16810976,440000,82732,79836,65700,0,43440,0,1210980998,63
i,1717752472.633004,172.16.1.2,64938,172.16.3.2,5101,42912,44925,6,64256,65728,6,6,4,1460,190625,1,16810976,440000,82732,82732,65700,0,44888,0,1210980998,63
o,1717752472.633012,172.16.1.2,64938,172.16.3.2,5101,42912,44925,6,62848,65728,6,6,4,1460,189375,1,16810976,430000,82732,79836,65700,0,41992,0,1210980998,63
i,1717752472.650435,172.16.1.2,64938,172.16.3.2,5101,42912,44925,6,62848,65728,6,6,4,1460,189375,1,16810976,430000,82732,82732,65700,0,44888,0,1210980998,63
o,1717752472.650444,172.16.1.2,64938,172.16.3.2,5101,42912,44925,6,62848,65728,6,6,4,1460,189687,1,16810976,420000,82732,79836,65700,0,41992,0,1210980998,63
i,1717752472.670312,172.16.1.2,64938,172.16.3.2,5101,42912,44925,6,62848,65728,6,6,4,1460,189687,1,16810976,420000,82732,82732,65700,0,44888,0,1210980998,63
o,1717752472.670320,172.16.1.2,64938,172.16.3.2,5101,42912,44925,6,64256,65728,6,6,4,1460,190000,1,16810976,420000,82732,79836,65700,0,41992,0,1210980998,63
i,1717752472.671444,172.16.1.2,64938,172.16.3.2,5101,42912,44925,6,64256,65728,6,6,4,1460,190000,1,16810976,420000,82732,82732,65700,0,44888,0,1210980998,63
o,1717752472.671451,172.16.1.2,64938,172.16.3.2,5101,42912,44925,6,64256,65728,6,6,4,1460,188750,1,16810976,420000,82732,79836,65700,0,41992,0,1210980998,63
i,1717752472.691244,172.16.1.2,64938,172.16.3.2,5101,42912,44925,6,64256,65728,6,6,4,1460,188750,1,16810976,420000,82732,82732,65700,0,44888,0,1210980998,63
o,1717752472.691253,172.16.1.2,64938,172.16.3.2,5101,42912,44925,6,64256,65728,6,6,4,1460,190312,1,16810976,430000,82732,79836,65700,0,41992,0,1210980998,63
i,1717752472.692362,172.16.1.2,64938,172.16.3.2,5101,42912,44925,6,64256,65728,6,6,4,1460,190312,1,16810976,430000,82732,82732,65700,0,44888,0,1210980998,63
o,1717752472.692369,172.16.1.2,64938,172.16.3.2,5101,42912,44925,6,62848,65728,6,6,4,1460,189062,1,16810976,420000,82732,79836,65700,0,41992,0,1210980998,63
i,1717752472.710930,172.16.1.2,64938,172.16.3.2,5101,42912,44925,6,62848,65728,6,6,4,1460,189062,1,16810976,420000,82732,82732,65700,0,44888,0,1210980998,63
o,1717752472.710937,172.16.1.2,64938,172.16.3.2,5101,42912,44925,6,62848,65728,6,6,4,1460,190625,1,16810976,430000,82732,79836,65700,0,41992,0,1210980998,63
i,1717752472.730835,172.16.1.2,64938,172.16.3.2,5101,42912,44925,6,62848,65728,6,6,4,1460,190625,1,16810976,430000,82732,82732,65700,0,44888,0,1210980998,63
o,1717752472.730844,172.16.1.2,64938,172.16.3.2,5101,42912,44925,6,64256,65728,6,6,4,1460,191875,1,16810976,430000,82732,79836,65700,0,41992,0,1210980998,63
i,1717752472.731851,172.16.1.2,64938,172.16.3.2,5101,42912,44925,6,64256,65728,6,6,4,1460,191875,1,16810976,430000,82732,82732,65700,0,44888,0,1210980998,63
o,1717752472.731859,172.16.1.2,64938,172.16.3.2,5101,42912,44925,6,64256,65728,6,6,4,1460,190625,1,16810976,430000,82732,79836,65700,0,41992,0,1210980998,63
i,1717752472.751522,172.16.1.2,64938,172.16.3.2,5101,42912,44925,6,64256,65728,6,6,4,1460,190625,1,16810976,430000,82732,82732,65700,0,44888,0,1210980998,63
o,1717752472.751529,172.16.1.2,64938,172.16.3.2,5101,42912,44925,6,64256,65728,6,6,4,1460,191875,1,16810976,430000,82732,79836,65700,0,41992,0,1210980998,63
i,1717752472.752933,172.16.1.2,64938,172.16.3.2,5101,42912,44925,6,64256,65728,6,6,4,1460,191875,1,16810976,430000,82732,82732,65700,0,44888,0,1210980998,63
o,1717752472.752940,172.16.1.2,64938,172.16.3.2,5101,42912,44925,6,62848,65728,6,6,4,1460,190625,1,16810976,430000,82732,79836,65700,0,41992,0,1210980998,63
i,1717752472.770748,172.16.1.2,64938,172.16.3.2,5101,42912,44925,6,62848,65728,6,6,4,1460,190625,1,16810976,430000,82732,82732,65700,0,44888,0,1210980998,63
o,1717752472.770755,172.16.1.2,64938,172.16.3.2,5101,42912,44925,6,62848,65728,6,6,4,1460,191875,1,16810976,430000,82732,79836,65700,0,41992,0,1210980998,63
i,1717752472.790493,172.16.1.2,64938,172.16.3.2,5101,42912,44925,6,62848,65728,6,6,4,1460,191875,1,16810976,430000,82732,82732,65700,0,44888,0,1210980998,63
o,1717752472.790499,172.16.1.2,64938,172.16.3.2,5101,42912,44925,6,64256,65728,6,6,4,1460,193125,1,16810976,430000,82732,79836,65700,0,41992,0,1210980998,63
i,1717752472.791598,172.16.1.2,64938,172.16.3.2,5101,42912,44925,6,64256,65728,6,6,4,1460,193125,1,16810976,430000,82732,82732,65700,0,44888,0,1210980998,63
o,1717752472.791603,172.16.1.2,64938,172.16.3.2,5101,42912,44925,6,64256,65728,6,6,4,1460,191562,1,16810976,430000,82732,79836,65700,0,41992,0,1210980998,63
i,1717752472.810232,172.16.1.2,64938,172.16.3.2,5101,42912,44925,6,64256,65728,6,6,4,1460,191562,1,16810976,430000,82732,82732,65700,0,44888,0,1210980998,63
o,1717752472.810237,172.16.1.2,64938,172.16.3.2,5101,42912,44925,6,64256,65728,6,6,4,1460,192812,1,16810976,430000,82732,79836,65700,0,41992,0,1210980998,63
o,1717752472.810470,172.16.1.2,64938,172.16.3.2,5101,42912,44925,6,64256,65728,6,6,4,1460,192812,1,16810976,430000,82732,79836,65700,0,43440,0,1210980998,63
i,1717752472.811491,172.16.1.2,64938,172.16.3.2,5101,42912,44925,6,64256,65728,6,6,4,1460,192812,1,16810976,430000,82732,82732,65700,0,44888,0,1210980998,63
o,1717752472.811495,172.16.1.2,64938,172.16.3.2,5101,42912,44925,6,62848,65728,6,6,4,1460,191250,1,16810976,430000,82732,79836,65700,0,41992,0,1210980998,63
i,1717752472.831073,172.16.1.2,64938,172.16.3.2,5101,42912,44925,6,62848,65728,6,6,4,1460,191250,1,16810976,430000,82732,82732,65700,0,44888,0,1210980998,63
o,1717752472.831078,172.16.1.2,64938,172.16.3.2,5101,42912,44925,6,62848,65728,6,6,4,1460,191250,1,16810976,420000,82732,79836,65700,0,41992,0,1210980998,63
i,1717752472.849908,172.16.1.2,64938,172.16.3.2,5101,42912,44925,6,62848,65728,6,6,4,1460,191250,1,16810976,420000,82732,82732,65700,0,44888,0,1210980998,63
o,1717752472.849914,172.16.1.2,64938,172.16.3.2,5101,42912,44925,6,64256,65728,6,6,4,1460,192500,1,16810976,430000,82732,79836,65700,0,41992,0,1210980998,63
i,1717752472.850913,172.16.1.2,64938,172.16.3.2,5101,42912,44925,6,64256,65728,6,6,4,1460,192500,1,16810976,430000,82732,82732,65700,0,44888,0,1210980998,63
o,1717752472.850917,172.16.1.2,64938,172.16.3.2,5101,42912,44925,6,64256,65728,6,6,4,1460,190937,1,16810976,430000,82732,79836,65700,0,41992,0,1210980998,63
i,1717752472.870743,172.16.1.2,64938,172.16.3.2,5101,42912,44925,6,64256,65728,6,6,4,1460,190937,1,16810976,430000,82732,82732,65700,0,44888,0,1210980998,63
o,1717752472.870748,172.16.1.2,64938,172.16.3.2,5101,42912,44925,6,64256,65728,6,6,4,1460,192187,1,16778208,430000,82732,79836,65700,0,41992,0,1210980998,63
i,1717752472.871793,172.16.1.2,64938,172.16.3.2,5101,42912,44925,6,64256,65728,6,6,4,1460,192187,1,16810976,430000,82732,82732,65700,0,44888,0,1210980998,63
o,1717752472.871799,172.16.1.2,64938,172.16.3.2,5101,42912,44925,6,62848,65728,6,6,4,1460,190937,1,16810976,430000,82732,79836,65700,0,41992,0,1210980998,63
i,1717752472.890671,172.16.1.2,64938,172.16.3.2,5101,42912,44925,6,62848,65728,6,6,4,1460,190937,1,16810976,430000,82732,82732,65700,0,44888,0,1210980998,63
o,1717752472.890679,172.16.1.2,64938,172.16.3.2,5101,42912,44925,6,62848,65728,6,6,4,1460,192187,1,16810976,430000,82732,79836,65700,0,41992,0,1210980998,63
i,1717752472.911671,172.16.1.2,64938,172.16.3.2,5101,42912,44925,6,62848,65728,6,6,4,1460,192187,1,16810976,430000,82732,82732,65700,0,44888,0,1210980998,63
o,1717752472.911682,172.16.1.2,64938,172.16.3.2,5101,42912,44925,6,64256,65728,6,6,4,1460,192187,1,16810976,420000,82732,79836,65700,0,41992,0,1210980998,63
i,1717752472.912647,172.16.1.2,64938,172.16.3.2,5101,42912,44925,6,64256,65728,6,6,4,1460,192187,1,16810976,420000,82732,82732,65700,0,44888,0,1210980998,63
o,1717752472.912654,172.16.1.2,64938,172.16.3.2,5101,42912,44925,6,64256,65728,6,6,4,1460,190937,1,16810976,420000,82732,79836,65700,0,41992,0,1210980998,63
i,1717752472.930308,172.16.1.2,64938,172.16.3.2,5101,42912,44925,6,64256,65728,6,6,4,1460,190937,1,16810976,420000,82732,82732,65700,0,44888,0,1210980998,63
o,1717752472.930316,172.16.1.2,64938,172.16.3.2,5101,42912,44925,6,64256,65728,6,6,4,1460,192187,1,16810976,420000,82732,79836,65700,0,41992,0,1210980998,63
i,1717752472.931607,172.16.1.2,64938,172.16.3.2,5101,42912,44925,6,64256,65728,6,6,4,1460,192187,1,16810976,420000,82732,82732,65700,0,44888,0,1210980998,63
o,1717752472.931614,172.16.1.2,64938,172.16.3.2,5101,42912,44925,6,62848,65728,6,6,4,1460,189687,1,16810976,430000,82732,79836,65700,0,41992,0,1210980998,63
i,1717752472.950397,172.16.1.2,64938,172.16.3.2,5101,42912,44925,6,62848,65728,6,6,4,1460,189687,1,16810976,430000,82732,82732,65700,0,44888,0,1210980998,63
o,1717752472.950406,172.16.1.2,64938,172.16.3.2,5101,42912,44925,6,62848,65728,6,6,4,1460,190000,1,16810976,430000,82732,79836,65700,0,41992,0,1210980998,63
i,1717752472.969832,172.16.1.2,64938,172.16.3.2,5101,42912,44925,6,62848,65728,6,6,4,1460,190000,1,16810976,430000,82732,82732,65700,0,44888,0,1210980998,63
o,1717752472.969841,172.16.1.2,64938,172.16.3.2,5101,42912,44925,6,64256,65728,6,6,4,1460,191250,1,16810976,430000,82732,79836,65700,0,41992,0,1210980998,63
i,1717752472.970909,172.16.1.2,64938,172.16.3.2,5101,42912,44925,6,64256,65728,6,6,4,1460,191250,1,16810976,430000,82732,82732,65700,0,44888,0,1210980998,63
o,1717752472.970914,172.16.1.2,64938,172.16.3.2,5101,42912,44925,6,64256,65728,6,6,4,1460,190000,1,16810976,430000,82732,79836,65700,0,41992,0,1210980998,63
i,1717752472.990669,172.16.1.2,64938,172.16.3.2,5101,42912,44925,6,64256,65728,6,6,4,1460,190000,1,16810976,430000,82732,82732,65700,0,44888,0,1210980998,63
o,1717752472.990675,172.16.1.2,64938,172.16.3.2,5101,42912,44925,6,64256,65728,6,6,4,1460,191250,1,16810976,430000,82732,79836,65700,0,41992,0,1210980998,63
o,1717752472.990908,172.16.1.2,64938,172.16.3.2,5101,42912,44925,6,64256,65728,6,6,4,1460,191250,1,16810976,430000,82732,79836,65700,0,43440,0,1210980998,63
i,1717752472.992149,172.16.1.2,64938,172.16.3.2,5101,42912,44925,6,64256,65728,6,6,4,1460,191250,1,16810976,430000,82732,82732,65700,0,44888,0,1210980998,63
o,1717752472.992157,172.16.1.2,64938,172.16.3.2,5101,42912,44925,6,62848,65728,6,6,4,1460,188750,1,16810976,430000,82732,79836,65700,0,41992,0,1210980998,63
i,1717752473.009852,172.16.1.2,64938,172.16.3.2,5101,42912,44925,6,62848,65728,6,6,4,1460,188750,1,16810976,430000,82732,82732,65700,0,44888,0,1210980998,63
o,1717752473.009859,172.16.1.2,64938,172.16.3.2,5101,42912,44925,6,62848,65728,6,6,4,1460,189062,1,16810976,420000,82732,79836,65700,0,41992,0,1210980998,63
i,1717752473.029817,172.16.1.2,64938,172.16.3.2,5101,42912,44925,6,62848,65728,6,6,4,1460,189062,1,16810976,420000,82732,82732,65700,0,44888,0,1210980998,63
o,1717752473.029824,172.16.1.2,64938,172.16.3.2,5101,42912,44925,6,64256,65728,6,6,4,1460,190625,1,16810976,430000,82732,79836,65700,0,41992,0,1210980998,63
i,1717752473.030830,172.16.1.2,64938,172.16.3.2,5101,42912,44925,6,64256,65728,6,6,4,1460,190625,1,16810976,430000,82732,81896,65700,0,44888,0,1210980998,63
o,1717752473.030837,172.16.1.2,64938,172.16.3.2,5101,42912,44925,6,64256,65728,6,6,4,1460,189375,1,16810976,430000,82732,79000,65700,0,41992,0,1210980998,63
i,1717752473.050388,172.16.1.2,64938,172.16.3.2,5101,42912,44925,6,64256,65728,6,6,4,1460,189375,1,16810976,430000,82732,82732,65700,0,44888,0,1210980998,63
o,1717752473.050396,172.16.1.2,64938,172.16.3.2,5101,42912,44925,6,64256,65728,6,6,4,1460,190937,1,16810976,430000,82732,79836,65700,0,41992,0,1210980998,63
i,1717752473.051817,172.16.1.2,64938,172.16.3.2,5101,42912,44925,6,64256,65728,6,6,4,1460,190937,1,16810976,430000,82732,82732,65700,0,44888,0,1210980998,63
o,1717752473.051824,172.16.1.2,64938,172.16.3.2,5101,42912,44925,6,62848,65728,6,6,4,1460,189687,1,16810976,430000,82732,79836,65700,0,41992,0,1210980998,63
i,1717752473.071077,172.16.1.2,64938,172.16.3.2,5101,42912,44925,6,62848,65728,6,6,4,1460,189687,1,16810976,430000,82732,82732,65700,0,44888,0,1210980998,63
o,1717752473.071084,172.16.1.2,64938,172.16.3.2,5101,42912,44925,6,62848,65728,6,6,4,1460,191250,1,16810976,430000,82732,79836,65700,0,41992,0,1210980998,63
i,1717752473.090943,172.16.1.2,64938,172.16.3.2,5101,42912,44925,6,62848,65728,6,6,4,1460,191250,1,16810976,430000,82732,82732,65700,0,44888,0,1210980998,63
o,1717752473.090950,172.16.1.2,64938,172.16.3.2,5101,42912,44925,6,64256,65728,6,6,4,1460,192500,1,16810976,440000,82732,79836,65700,0,41992,0,1210980998,63
i,1717752473.092113,172.16.1.2,64938,172.16.3.2,5101,42912,44925,6,64256,65728,6,6,4,1460,192500,1,16810976,440000,82732,82732,65700,0,44888,0,1210980998,63
o,1717752473.092120,172.16.1.2,64938,172.16.3.2,5101,42912,44925,6,64256,65728,6,6,4,1460,190937,1,16810976,440000,82732,79836,65700,0,41992,0,1210980998,63
i,1717752473.110760,172.16.1.2,64938,172.16.3.2,5101,42912,44925,6,64256,65728,6,6,4,1460,190937,1,16810976,440000,82732,82732,65700,0,44888,0,1210980998,63
o,1717752473.110767,172.16.1.2,64938,172.16.3.2,5101,42912,44925,6,64256,65728,6,6,4,1460,192187,1,16810976,430000,82732,79836,65700,0,41992,0,1210980998,63
i,1717752473.112004,172.16.1.2,64938,172.16.3.2,5101,42912,44925,6,64256,65728,6,6,4,1460,192187,1,16810976,430000,82732,82732,65700,0,44888,0,1210980998,63
o,1717752473.112010,172.16.1.2,64938,172.16.3.2,5101,42912,44925,6,62848,65728,6,6,4,1460,190937,1,16810976,430000,82732,79836,65700,0,41992,0,1210980998,63
i,1717752473.130576,172.16.1.2,64938,172.16.3.2,5101,42912,44925,6,62848,65728,6,6,4,1460,190937,1,16810976,430000,82732,82732,65700,0,44888,0,1210980998,63
o,1717752473.130582,172.16.1.2,64938,172.16.3.2,5101,42912,44925,6,62848,65728,6,6,4,1460,192187,1,16810976,430000,82732,79836,65700,0,41992,0,1210980998,63
i,1717752473.150441,172.16.1.2,64938,172.16.3.2,5101,42912,44925,6,62848,65728,6,6,4,1460,192187,1,16810976,430000,82732,82732,65700,0,44888,0,1210980998,63
o,1717752473.150448,172.16.1.2,64938,172.16.3.2,5101,42912,44925,6,64256,65728,6,6,4,1460,193437,1,16810976,440000,82732,79836,65700,0,41992,0,1210980998,63
i,1717752473.151588,172.16.1.2,64938,172.16.3.2,5101,42912,44925,6,64256,65728,6,6,4,1460,193437,1,16810976,440000,82732,82732,65700,0,44888,0,1210980998,63
o,1717752473.151602,172.16.1.2,64938,172.16.3.2,5101,42912,44925,6,64256,65728,6,6,4,1460,191875,1,16810976,440000,82732,79836,65700,0,41992,0,1210980998,63
i,1717752473.171110,172.16.1.2,64938,172.16.3.2,5101,42912,44925,6,64256,65728,6,6,4,1460,191875,1,16810976,440000,82732,82732,65700,0,44888,0,1210980998,63
o,1717752473.171120,172.16.1.2,64938,172.16.3.2,5101,42912,44925,6,64256,65728,6,6,4,1460,191875,1,16810976,420000,82732,79836,65700,0,41992,0,1210980998,63
o,1717752473.171362,172.16.1.2,64938,172.16.3.2,5101,42912,44925,6,64256,65728,6,6,4,1460,191875,1,16810976,420000,82732,79836,65700,0,43440,0,1210980998,63
i,1717752473.172313,172.16.1.2,64938,172.16.3.2,5101,42912,44925,6,64256,65728,6,6,4,1460,191875,1,16810976,420000,82732,82732,65700,0,44888,0,1210980998,63
o,1717752473.172321,172.16.1.2,64938,172.16.3.2,5101,42912,44925,6,62848,65728,6,6,4,1460,190625,1,16810976,430000,82732,79836,65700,0,41992,0,1210980998,63
i,1717752473.189986,172.16.1.2,64938,172.16.3.2,5101,42912,44925,6,62848,65728,6,6,4,1460,190625,1,16810976,430000,82732,82732,65700,0,44888,0,1210980998,63
o,1717752473.189993,172.16.1.2,64938,172.16.3.2,5101,42912,44925,6,62848,65728,6,6,4,1460,191875,1,16810976,430000,82732,79836,65700,0,41992,0,1210980998,63
i,1717752473.209850,172.16.1.2,64938,172.16.3.2,5101,42912,44925,6,62848,65728,6,6,4,1460,191875,1,16810976,430000,82732,82732,65700,0,44888,0,1210980998,63
o,1717752473.209862,172.16.1.2,64938,172.16.3.2,5101,42912,44925,6,64256,65728,6,6,4,1460,191875,1,16778208,420000,82732,79836,65700,0,41992,0,1210980998,63
i,1717752473.210917,172.16.1.2,64938,172.16.3.2,5101,42912,44925,6,64256,65728,6,6,4,1460,191875,1,16810976,420000,82732,82732,65700,0,44888,0,1210980998,63
o,1717752473.210924,172.16.1.2,64938,172.16.3.2,5101,42912,44925,6,64256,65728,6,6,4,1460,189375,1,16810976,430000,82732,79836,65700,0,41992,0,1210980998,63
i,1717752473.230870,172.16.1.2,64938,172.16.3.2,5101,42912,44925,6,64256,65728,6,6,4,1460,189375,1,16810976,430000,82732,82732,65700,0,44888,0,1210980998,63
o,1717752473.230876,172.16.1.2,64938,172.16.3.2,5101,42912,44925,6,64256,65728,6,6,4,1460,189687,1,16810976,420000,82732,79836,65700,0,41992,0,1210980998,63
i,1717752473.232039,172.16.1.2,64938,172.16.3.2,5101,42912,44925,6,64256,65728,6,6,4,1460,189687,1,16810976,420000,82732,82732,65700,0,44888,0,1210980998,63
o,1717752473.232044,172.16.1.2,64938,172.16.3.2,5101,42912,44925,6,62848,65728,6,6,4,1460,188750,1,16810976,420000,82732,79836,65700,0,41992,0,1210980998,63
i,1717752473.250648,172.16.1.2,64938,172.16.3.2,5101,42912,44925,6,62848,65728,6,6,4,1460,188750,1,16810976,420000,82732,82732,65700,0,44888,0,1210980998,63
o,1717752473.250653,172.16.1.2,64938,172.16.3.2,5101,42912,44925,6,64256,65728,6,6,4,1460,190312,1,16810976,430000,82732,79836,65700,0,41992,0,1210980998,63
i,1717752473.269728,172.16.1.2,64938,172.16.3.2,5101,42912,44925,6,64256,65728,6,6,4,1460,190312,1,16810976,430000,82732,82732,65700,0,44888,0,1210980998,63
o,1717752473.269736,172.16.1.2,64938,172.16.3.2,5101,42912,44925,6,64256,65728,6,6,4,1460,190312,1,16810976,420000,82732,79836,65700,0,41992,0,1210980998,63
i,1717752473.270797,172.16.1.2,64938,172.16.3.2,5101,42912,44925,6,64256,65728,6,6,4,1460,190312,1,16810976,420000,82732,82732,65700,0,44888,0,1210980998,63
o,1717752473.270804,172.16.1.2,64938,172.16.3.2,5101,42912,44925,6,64256,65728,6,6,4,1460,189062,1,16810976,420000,82732,79836,65700,0,41992,0,1210980998,63
i,1717752473.290703,172.16.1.2,64938,172.16.3.2,5101,42912,44925,6,64256,65728,6,6,4,1460,189062,1,16810976,420000,82732,82732,65700,0,44888,0,1210980998,63
o,1717752473.290711,172.16.1.2,64938,172.16.3.2,5101,42912,44925,6,64256,65728,6,6,4,1460,190625,1,16810976,420000,82732,79836,65700,0,41992,0,1210980998,63
i,1717752473.291821,172.16.1.2,64938,172.16.3.2,5101,42912,44925,6,64256,65728,6,6,4,1460,190625,1,16810976,420000,82732,82732,65700,0,44888,0,1210980998,63
o,1717752473.291826,172.16.1.2,64938,172.16.3.2,5101,42912,44925,6,62848,65728,6,6,4,1460,189375,1,16810976,420000,82732,79836,65700,0,41992,0,1210980998,63
i,1717752473.310506,172.16.1.2,64938,172.16.3.2,5101,42912,44925,6,62848,65728,6,6,4,1460,189375,1,16810976,420000,82732,82732,65700,0,44888,0,1210980998,63
o,1717752473.310512,172.16.1.2,64938,172.16.3.2,5101,42912,44925,6,62848,65728,6,6,4,1460,190937,1,16810976,430000,82732,79836,65700,0,41992,0,1210980998,63
i,1717752473.330224,172.16.1.2,64938,172.16.3.2,5101,42912,44925,6,62848,65728,6,6,4,1460,190937,1,16810976,430000,82732,82732,65700,0,44888,0,1210980998,63
o,1717752473.330231,172.16.1.2,64938,172.16.3.2,5101,42912,44925,6,64256,65728,6,6,4,1460,192187,1,16810976,430000,82732,79836,65700,0,41992,0,1210980998,63
i,1717752473.331321,172.16.1.2,64938,172.16.3.2,5101,42912,44925,6,64256,65728,6,6,4,1460,192187,1,16810976,430000,82732,82732,65700,0,44888,0,1210980998,63
o,1717752473.331328,172.16.1.2,64938,172.16.3.2,5101,42912,44925,6,64256,65728,6,6,4,1460,190937,1,16810976,430000,82732,79836,65700,0,41992,0,1210980998,63
i,1717752473.350040,172.16.1.2,64938,172.16.3.2,5101,42912,44925,6,64256,65728,6,6,4,1460,190937,1,16810976,430000,82732,82732,65700,0,44888,0,1210980998,63
o,1717752473.350049,172.16.1.2,64938,172.16.3.2,5101,42912,44925,6,64256,65728,6,6,4,1460,192187,1,16810976,430000,82732,79836,65700,0,41992,0,1210980998,63
o,1717752473.350289,172.16.1.2,64938,172.16.3.2,5101,42912,44925,6,64256,65728,6,6,4,1460,192187,1,16810976,430000,82732,79836,65700,0,43440,0,1210980998,63
i,1717752473.351413,172.16.1.2,64938,172.16.3.2,5101,42912,44925,6,64256,65728,6,6,4,1460,192187,1,16810976,430000,82732,82732,65700,0,44888,0,1210980998,63
o,1717752473.351421,172.16.1.2,64938,172.16.3.2,5101,42912,44925,6,62848,65728,6,6,4,1460,190937,1,16810976,430000,82732,79836,65700,0,41992,0,1210980998,63
i,1717752473.371064,172.16.1.2,64938,172.16.3.2,5101,42912,44925,6,62848,65728,6,6,4,1460,190937,1,16810976,430000,82732,82732,65700,0,44888,0,1210980998,63
o,1717752473.371071,172.16.1.2,64938,172.16.3.2,5101,42912,44925,6,62848,65728,6,6,4,1460,192187,1,16810976,430000,82732,79836,65700,0,41992,0,1210980998,63
i,1717752473.390788,172.16.1.2,64938,172.16.3.2,5101,42912,44925,6,62848,65728,6,6,4,1460,192187,1,16810976,430000,82732,82732,65700,0,44888,0,1210980998,63
o,1717752473.390796,172.16.1.2,64938,172.16.3.2,5101,42912,44925,6,64256,65728,6,6,4,1460,193437,1,16810976,430000,82732,79836,65700,0,41992,0,1210980998,63
i,1717752473.391965,172.16.1.2,64938,172.16.3.2,5101,42912,44925,6,64256,65728,6,6,4,1460,193437,1,16810976,430000,82732,82732,65700,0,44888,0,1210980998,63
o,1717752473.391971,172.16.1.2,64938,172.16.3.2,5101,42912,44925,6,64256,65728,6,6,4,1460,191875,1,16810976,430000,82732,79836,65700,0,41992,0,1210980998,63
