enable_time_secs=1717733480	enable_time_usecs=028707	siftrver=1.3.0	sysname=FreeBSD	sysver=1400097	ipmode=4
o,1717733480.028752,10.0.2.15,22,10.0.2.2,54858,1073725440,17386,1026,65535,65700,0,0,4,1460,312,0,16777220,240000,33580,44,65700,0,0,0,3008693746,63
o,1717733480.028868,10.0.2.15,22,10.0.2.2,54858,1073725440,17386,1026,65535,65700,0,0,4,1460,312,0,16809988,240000,33580,80,65700,0,44,0,3008693746,63
i,1717733480.029467,10.0.2.15,22,10.0.2.2,54858,1073725440,17386,1026,65535,65700,0,0,4,1460,312,0,16809988,240000,33580,80,65700,0,80,0,3008693746,63
i,1717733480.029678,10.0.2.15,22,10.0.2.2,54858,1073725440,17430,1026,65535,65700,0,0,4,1460,312,0,4,240000,33580,36,65700,0,36,0,3008693746,63
o,1717733480.029767,10.0.2.15,22,10.0.2.2,54858,1073725440,17466,1026,65535,65700,0,0,4,1460,312,0,16777220,240000,33580,36,65700,0,0,0,3008693746,63
i,1717733480.030203,10.0.2.15,22,10.0.2.2,54858,1073725440,17466,1026,65535,65700,0,0,4,1460,312,0,16809988,240000,33580,36,65700,0,36,0,3008693746,63
o,1717733480.030323,10.0.2.15,22,10.0.2.2,54858,1073725440,17502,1026,65535,65700,0,0,4,1460,312,0,16777220,240000,33580,36,65700,0,0,0,3008693746,63
i,1717733480.030738,10.0.2.15,22,10.0.2.2,54858,1073725440,17502,1026,65535,65700,0,0,4,1460,312,0,16809988,240000,33580,36,65700,0,36,0,3008693746,63
o,1717733480.030881,10.0.2.15,22,10.0.2.2,54858,1073725440,17538,1026,65535,65700,0,0,4,1460,312,0,16777220,240000,33580,140,65700,0,0,0,3008693746,63
i,1717733480.032162,10.0.2.15,22,10.0.2.2,54858,1073725440,17538,1026,65535,65700,0,0,4,1460,312,0,16809988,240000,33580,140,65700,0,140,0,3008693746,63
i,1717733480.032220,10.0.2.15,22,10.0.2.2,54858,1073725440,17678,1026,65535,65700,0,0,4,1460,312,0,4,240000,33580,0,65700,0,0,0,3008693746,63
i,1717733480.032223,10.0.2.15,22,10.0.2.2,54858,1073725440,17678,1026,65535,65700,0,0,4,1460,312,0,4,240000,33580,0,65700,36,0,0,3008693746,63
o,1717733480.032225,10.0.2.15,22,10.0.2.2,54858,1073725440,17678,1026,65535,65700,0,0,4,1460,312,0,5,240000,33580,0,65700,96,0,0,3008693746,63
i,1717733480.032318,10.0.2.15,22,10.0.2.2,54858,1073725440,17678,1026,65535,65700,0,0,4,1460,312,0,4,240000,33580,0,65700,96,0,0,3008693746,63
o,1717733480.032322,10.0.2.15,22,10.0.2.2,54858,1073725440,17678,1026,65535,65604,0,0,5,1460,312,0,7,240000,33580,0,65700,96,0,0,3008693746,63
o,1717733480.033799,10.0.2.15,22,10.0.2.2,54858,1073725440,17678,1026,65535,65604,0,0,8,1460,312,0,4,240000,33580,0,65700,0,0,0,3008693746,63
i,1717733480.034284,10.0.2.15,22,10.0.2.2,54858,1073725440,17678,1026,65535,65604,0,0,8,1460,312,0,67108884,240000,33580,0,65700,0,1,0,3008693746,63
i,1717733482.196791,10.0.2.15,22,10.0.2.2,54866,1073725440,14600,0,65535,65700,0,0,4,1460,312,0,16777216,280000,33580,0,65700,0,0,0,2373067124,63
o,1717733482.204337,10.0.2.15,22,10.0.2.2,54866,1073725440,14600,1026,65535,65700,0,0,4,1460,312,0,16777216,280000,33580,38,65700,41,0,0,2373067124,63
i,1717733482.204969,10.0.2.15,22,10.0.2.2,54866,1073725440,14600,1026,65535,65700,0,0,4,1460,312,0,16809984,280000,33580,38,65700,0,38,0,2373067124,63
i,1717733482.205711,10.0.2.15,22,10.0.2.2,54866,1073725440,14638,1026,65535,65700,0,0,4,1460,312,0,0,240000,33580,0,65700,0,0,0,2373067124,63
i,1717733482.205715,10.0.2.15,22,10.0.2.2,54866,1073725440,14638,1026,65535,65700,0,0,4,1460,312,0,0,240000,33580,0,65700,1460,0,0,2373067124,63
o,1717733482.205718,10.0.2.15,22,10.0.2.2,54866,1073725440,14638,1026,65535,65700,0,0,4,1460,312,0,1,240000,33580,0,65700,1536,0,0,2373067124,63
o,1717733482.206754,10.0.2.15,22,10.0.2.2,54866,1073725440,14638,1026,65535,65700,0,0,4,1460,312,0,16777216,240000,33580,1080,65700,1536,0,0,2373067124,63
i,1717733482.207217,10.0.2.15,22,10.0.2.2,54866,1073725440,14638,1026,65535,65700,0,0,4,1460,312,0,16809984,240000,33580,1080,65700,1536,1080,0,2373067124,63
i,1717733482.208998,10.0.2.15,22,10.0.2.2,54866,1073725440,15718,1026,65535,65700,0,0,4,1460,312,0,0,240000,33580,0,65700,0,0,0,2373067124,63
o,1717733482.212075,10.0.2.15,22,10.0.2.2,54866,1073725440,15718,1026,65535,65700,0,0,4,1460,312,0,16777216,240000,33580,548,65700,0,0,0,2373067124,63
i,1717733482.213077,10.0.2.15,22,10.0.2.2,54866,1073725440,15718,1026,65535,65700,0,0,4,1460,312,0,16809984,240000,33580,548,65700,0,548,0,2373067124,63
i,1717733482.217849,10.0.2.15,22,10.0.2.2,54866,1073725440,16266,1026,65535,65700,0,0,4,1460,312,0,0,240000,33580,0,65700,0,0,0,2373067124,63
i,1717733482.222283,10.0.2.15,22,10.0.2.2,54866,1073725440,16266,1026,65535,65700,0,0,4,1460,312,0,0,240000,33580,0,65700,0,0,0,2373067124,63
o,1717733482.222293,10.0.2.15,22,10.0.2.2,54866,1073725440,16266,1026,65535,65700,0,0,4,1460,312,0,1,240000,33580,0,65700,44,0,0,2373067124,63
o,1717733482.222512,10.0.2.15,22,10.0.2.2,54866,1073725440,16266,1026,65535,65700,0,0,4,1460,312,0,16777216,240000,33580,44,65700,0,0,0,2373067124,63
i,1717733482.223038,10.0.2.15,22,10.0.2.2,54866,1073725440,16266,1026,65535,65700,0,0,4,1460,312,0,16809984,240000,33580,44,65700,0,44,0,2373067124,63
i,1717733482.223636,10.0.2.15,22,10.0.2.2,54866,1073725440,16310,1026,65535,65700,0,0,4,1460,312,0,0,240000,33580,0,65700,0,0,0,2373067124,63
o,1717733482.225445,10.0.2.15,22,10.0.2.2,54866,1073725440,16310,1026,65535,65700,0,0,4,1460,312,0,16777216,240000,33580,68,65700,0,0,0,2373067124,63
i,1717733482.226128,10.0.2.15,22,10.0.2.2,54866,1073725440,16310,1026,65535,65700,0,0,4,1460,312,0,16809984,240000,33580,68,65700,0,68,0,2373067124,63
i,1717733482.228429,10.0.2.15,22,10.0.2.2,54866,1073725440,16378,1026,65535,65700,0,0,4,1460,312,0,0,240000,33580,0,65700,0,0,0,2373067124,63
o,1717733482.239416,10.0.2.15,22,10.0.2.2,54866,1073725440,16378,1026,65535,65700,0,0,4,1460,312,0,16777216,240000,33580,28,65700,0,0,0,2373067124,63
i,1717733482.240321,10.0.2.15,22,10.0.2.2,54866,1073725440,16378,1026,65535,65700,0,0,4,1460,312,0,16809984,240000,33580,28,65700,0,28,0,2373067124,63
i,1717733482.240331,10.0.2.15,22,10.0.2.2,54866,1073725440,16406,1026,65535,65700,0,0,4,1460,312,0,0,240000,33580,0,65700,0,0,0,2373067124,63
o,1717733482.242180,10.0.2.15,22,10.0.2.2,54866,1073725440,16406,1026,65535,65700,0,0,4,1460,312,0,16777216,240000,33580,768,65700,112,0,0,2373067124,63
i,1717733482.242895,10.0.2.15,22,10.0.2.2,54866,1073725440,16406,1026,65535,65700,0,0,4,1460,312,0,16809984,240000,33580,768,65700,112,768,0,2373067124,63
o,1717733482.243123,10.0.2.15,22,10.0.2.2,54866,1073725440,17174,1026,65535,65700,0,0,4,1460,312,0,16777216,240000,33580,44,65700,0,0,0,2373067124,63
i,1717733482.243735,10.0.2.15,22,10.0.2.2,54866,1073725440,17174,1026,65535,65700,0,0,4,1460,312,0,16809984,240000,33580,44,65700,0,44,0,2373067124,63
i,1717733482.244130,10.0.2.15,22,10.0.2.2,54866,1073725440,17218,1026,65535,65700,0,0,4,1460,312,0,0,240000,33580,0,65700,0,0,0,2373067124,63
o,1717733482.244546,10.0.2.15,22,10.0.2.2,54866,1073725440,17218,1026,65535,65700,0,0,4,1460,312,0,16777220,240000,33580,72,65700,0,0,0,2373067124,63
i,1717733482.245350,10.0.2.15,22,10.0.2.2,54866,1073725440,17218,1026,65535,65700,0,0,4,1460,312,0,16809988,240000,33580,72,65700,0,72,0,2373067124,63
o,1717733482.249200,10.0.2.15,22,10.0.2.2,54866,1073725440,17290,1026,65535,65700,0,0,4,1460,312,0,16777220,240000,33580,104,65700,0,0,0,2373067124,63
i,1717733482.250113,10.0.2.15,22,10.0.2.2,54866,1073725440,17290,1026,65535,65700,0,0,4,1460,312,0,16809988,240000,33580,104,65700,0,104,0,2373067124,63
o,1717733482.250222,10.0.2.15,22,10.0.2.2,54866,1073725440,17394,1026,65535,65700,0,0,4,1460,312,0,16777220,240000,33580,76,65700,0,0,0,2373067124,63
i,1717733482.251089,10.0.2.15,22,10.0.2.2,54866,1073725440,17394,1026,65535,65700,0,0,4,1460,312,0,16809988,240000,33580,76,65700,0,76,0,2373067124,63
o,1717733482.251239,10.0.2.15,22,10.0.2.2,54866,1073725440,17470,1026,65535,65700,0,0,4,1460,312,0,16777220,240000,33580,72,65700,0,0,0,2373067124,63
i,1717733482.252460,10.0.2.15,22,10.0.2.2,54866,1073725440,17470,1026,65535,65700,0,0,4,1460,312,0,16809988,240000,33580,72,65700,0,72,0,2373067124,63
i,1717733482.252471,10.0.2.15,22,10.0.2.2,54866,1073725440,17542,1026,65535,65700,0,0,4,1460,312,0,4,240000,33580,0,65700,0,0,0,2373067124,63
i,1717733482.252475,10.0.2.15,22,10.0.2.2,54866,1073725440,17542,1026,65535,65700,0,0,4,1460,312,0,4,240000,33580,0,65700,36,0,0,2373067124,63
o,1717733482.252479,10.0.2.15,22,10.0.2.2,54866,1073725440,17542,1026,65535,65700,0,0,4,1460,312,0,5,240000,33580,0,65700,96,0,0,2373067124,63
i,1717733482.252867,10.0.2.15,22,10.0.2.2,54866,1073725440,17542,1026,65535,65700,0,0,4,1460,312,0,4,240000,33580,0,65700,96,0,0,2373067124,63
o,1717733482.252872,10.0.2.15,22,10.0.2.2,54866,1073725440,17542,1026,65535,65604,0,0,5,1460,312,0,7,240000,33580,0,65700,96,0,0,2373067124,63
o,1717733482.253894,10.0.2.15,22,10.0.2.2,54866,1073725440,17542,1026,65535,65604,0,0,8,1460,312,0,4,240000,33580,0,65700,0,0,0,2373067124,63
i,1717733482.254706,10.0.2.15,22,10.0.2.2,54866,1073725440,17542,1026,65535,65604,0,0,8,1460,312,0,20,240000,33580,0,65700,0,1,0,2373067124,63
i,1717733483.341174,10.0.2.15,22,10.0.2.2,54868,1073725440,14600,0,65535,65700,0,0,4,1460,312,0,16777216,280000,33580,0,65700,0,0,0,1978577774,63
o,1717733483.350342,10.0.2.15,22,10.0.2.2,54868,1073725440,14600,1026,65535,65700,0,0,4,1460,312,0,16777216,280000,33580,38,65700,41,0,0,1978577774,63
i,1717733483.351413,10.0.2.15,22,10.0.2.2,54868,1073725440,14600,1026,65535,65700,0,0,4,1460,312,0,16809984,280000,33580,38,65700,41,38,0,1978577774,63
i,1717733483.352104,10.0.2.15,22,10.0.2.2,54868,1073725440,14638,1026,65535,65700,0,0,4,1460,312,0,0,240000,33580,0,65700,41,0,0,1978577774,63
i,1717733483.352110,10.0.2.15,22,10.0.2.2,54868,1073725440,14638,1026,65535,65700,0,0,4,1460,312,0,0,240000,33580,0,65700,1501,0,0,1978577774,63
o,1717733483.352115,10.0.2.15,22,10.0.2.2,54868,1073725440,14638,1026,65535,65700,0,0,4,1460,312,0,1,240000,33580,0,65700,1577,0,0,1978577774,63
o,1717733483.357851,10.0.2.15,22,10.0.2.2,54868,1073725440,14638,1026,65535,65700,0,0,4,1460,312,0,16777216,240000,33580,1080,65700,1536,0,0,1978577774,63
i,1717733483.359427,10.0.2.15,22,10.0.2.2,54868,1073725440,14638,1026,65535,65700,0,0,4,1460,312,0,16809984,240000,33580,1080,65700,1536,1080,0,1978577774,63
i,1717733483.360896,10.0.2.15,22,10.0.2.2,54868,1073725440,15718,1026,65535,65700,0,0,4,1460,312,0,0,240000,33580,0,65700,0,0,0,1978577774,63
o,1717733483.363602,10.0.2.15,22,10.0.2.2,54868,1073725440,15718,1026,65535,65700,0,0,4,1460,312,0,16777216,240000,33580,548,65700,0,0,0,1978577774,63
i,1717733483.364592,10.0.2.15,22,10.0.2.2,54868,1073725440,15718,1026,65535,65700,0,0,4,1460,312,0,16809984,240000,33580,548,65700,0,548,0,1978577774,63
i,1717733483.371991,10.0.2.15,22,10.0.2.2,54868,1073725440,16266,1026,65535,65700,0,0,4,1460,312,0,0,240000,33580,0,65700,0,0,0,1978577774,63
i,1717733483.376780,10.0.2.15,22,10.0.2.2,54868,1073725440,16266,1026,65535,65700,0,0,4,1460,312,0,0,240000,33580,0,65700,0,0,0,1978577774,63
o,1717733483.376802,10.0.2.15,22,10.0.2.2,54868,1073725440,16266,1026,65535,65700,0,0,4,1460,312,0,1,240000,33580,0,65700,44,0,0,1978577774,63
o,1717733483.377036,10.0.2.15,22,10.0.2.2,54868,1073725440,16266,1026,65535,65700,0,0,4,1460,312,0,16777216,240000,33580,44,65700,0,0,0,1978577774,63
i,1717733483.378161,10.0.2.15,22,10.0.2.2,54868,1073725440,16266,1026,65535,65700,0,0,4,1460,312,0,16809984,240000,33580,44,65700,0,44,0,1978577774,63
i,1717733483.378169,10.0.2.15,22,10.0.2.2,54868,1073725440,16310,1026,65535,65700,0,0,4,1460,312,0,0,240000,33580,0,65700,0,0,0,1978577774,63
o,1717733483.379844,10.0.2.15,22,10.0.2.2,54868,1073725440,16310,1026,65535,65700,0,0,4,1460,312,0,16777216,240000,33580,68,65700,0,0,0,1978577774,63
i,1717733483.383378,10.0.2.15,22,10.0.2.2,54868,1073725440,16310,1026,65535,65700,0,0,4,1460,312,0,16809984,240000,33580,68,65700,0,68,0,1978577774,63
i,1717733483.386787,10.0.2.15,22,10.0.2.2,54868,1073725440,16378,1026,65535,65700,0,0,4,1460,312,0,0,230000,33580,0,65700,0,0,0,1978577774,63
o,1717733483.397084,10.0.2.15,22,10.0.2.2,54868,1073725440,16378,1026,65535,65700,0,0,4,1460,312,0,16777216,230000,33580,28,65700,0,0,0,1978577774,63
i,1717733483.398064,10.0.2.15,22,10.0.2.2,54868,1073725440,16378,1026,65535,65700,0,0,4,1460,312,0,16809984,230000,33580,28,65700,0,28,0,1978577774,63
i,1717733483.398548,10.0.2.15,22,10.0.2.2,54868,1073725440,16406,1026,65535,65700,0,0,4,1460,312,0,0,230000,33580,0,65700,0,0,0,1978577774,63
o,1717733483.399755,10.0.2.15,22,10.0.2.2,54868,1073725440,16406,1026,65535,65700,0,0,4,1460,312,0,16777216,230000,33580,768,65700,112,0,0,1978577774,63
i,1717733483.400397,10.0.2.15,22,10.0.2.2,54868,1073725440,16406,1026,65535,65700,0,0,4,1460,312,0,16809984,230000,33580,768,65700,112,768,0,1978577774,63
o,1717733483.401438,10.0.2.15,22,10.0.2.2,54868,1073725440,17174,1026,65535,65700,0,0,4,1460,312,0,16777216,230000,33580,44,65700,0,0,0,1978577774,63
i,1717733483.402140,10.0.2.15,22,10.0.2.2,54868,1073725440,17174,1026,65535,65700,0,0,4,1460,312,0,16809984,230000,33580,44,65700,0,44,0,1978577774,63
i,1717733483.402787,10.0.2.15,22,10.0.2.2,54868,1073725440,17218,1026,65535,65700,0,0,4,1460,312,0,0,230000,33580,0,65700,0,0,0,1978577774,63
o,1717733483.403441,10.0.2.15,22,10.0.2.2,54868,1073725440,17218,1026,65535,65700,0,0,4,1460,312,0,16777220,230000,33580,72,65700,0,0,0,1978577774,63
i,1717733483.404571,10.0.2.15,22,10.0.2.2,54868,1073725440,17218,1026,65535,65700,0,0,4,1460,312,0,16809988,230000,33580,72,65700,0,72,0,1978577774,63
i,1717733483.404576,10.0.2.15,22,10.0.2.2,54868,1073725440,17290,1026,65535,65700,0,0,4,1460,312,0,4,240000,33580,0,65700,0,0,0,1978577774,63
o,1717733483.443289,10.0.2.15,22,10.0.2.2,54868,1073725440,17290,1026,65535,65700,0,0,4,1460,312,0,5,240000,33580,0,65700,0,0,0,1978577774,63
o,1717733483.523173,172.16.1.2,12085,172.16.3.2,5101,14625,14480,2,65535,65700,6,6,4,1460,126250,1,16778209,400000,33580,0,65700,0,0,0,1247693138,63
o,1717733483.523655,172.16.1.2,12085,172.16.3.2,5101,14625,14480,2,65535,65700,6,6,4,1460,126250,1,16778212,400000,33580,37,65700,0,0,0,1247693138,63
i,1717733483.643789,172.16.1.2,12085,172.16.3.2,5101,14625,14480,2,65535,65700,6,6,4,1460,126250,1,16810980,400000,33580,37,65700,0,37,0,1247693138,63
o,1717733483.643945,172.16.1.2,12085,172.16.3.2,5101,14625,14517,1026,65728,65728,6,6,4,1460,125625,1,16778212,390000,33580,4,65700,0,0,0,1247693138,63
o,1717733483.644379,172.16.1.2,12085,172.16.3.2,5101,14625,14517,1026,65728,65728,6,6,4,1460,125625,1,16810980,390000,33580,128,65700,0,4,0,1247693138,63
i,1717733483.764203,172.16.1.2,12085,172.16.3.2,5101,14625,14517,1026,65728,65728,6,6,4,1460,125625,1,16810980,390000,33580,128,65700,0,128,0,1247693138,63
i,1717733483.764542,172.16.1.2,12085,172.16.3.2,5101,14625,14645,1026,65600,65728,6,6,4,1460,125000,1,996,380000,33580,0,65700,0,0,0,1247693138,63
o,1717733483.803206,172.16.1.2,12085,172.16.3.2,5101,14625,14645,1026,65728,65728,6,6,4,1460,125000,1,997,380000,33580,0,65700,0,0,0,1247693138,63
o,1717733483.882975,172.16.1.2,31459,172.16.3.2,5101,14625,14480,2,65535,65700,6,6,4,1460,126250,1,16778209,400000,33580,0,65700,0,0,0,3782297230,63
o,1717733483.883167,172.16.1.2,31459,172.16.3.2,5101,14625,14480,2,65535,65700,6,6,4,1460,126250,1,16778208,400000,33580,37,65700,0,0,0,3782297230,63
i,1717733484.003317,172.16.1.2,12085,172.16.3.2,5101,14625,14645,1026,65728,65728,6,6,4,1460,125000,1,996,380000,33580,0,65700,0,0,0,1247693138,63
i,1717733484.003331,172.16.1.2,12085,172.16.3.2,5101,14625,14645,1026,65728,65728,6,6,4,1460,125000,1,996,380000,33580,0,65700,1,0,0,1247693138,63
o,1717733484.003340,172.16.1.2,12085,172.16.3.2,5101,14625,14645,1026,65728,65728,6,6,4,1460,125000,1,997,380000,33580,0,65700,2,0,0,1247693138,63
o,1717733484.003678,172.16.1.2,31459,172.16.3.2,5101,14625,14480,6,65535,65700,6,6,4,1460,126250,1,16810976,400000,33580,33580,65700,0,37,0,3782297230,63
i,1717733484.033628,172.16.1.2,31459,172.16.3.2,5101,14625,14480,6,65535,65700,6,6,4,1460,126250,1,16810976,400000,33580,33580,65700,0,13069,0,3782297230,63
o,1717733484.033650,172.16.1.2,31459,172.16.3.2,5101,14625,14517,6,65728,65728,6,6,4,1460,128125,1,16778208,400000,33580,33543,65700,0,13032,0,3782297230,63
i,1717733484.244157,172.16.1.2,31459,172.16.3.2,5101,14625,14517,6,65728,65728,6,6,4,1460,128125,1,16810976,400000,33580,33543,65700,0,14480,0,3782297230,63
o,1717733484.244179,172.16.1.2,31459,172.16.3.2,5101,14625,17413,6,64256,65728,6,6,4,1460,142187,1,16810976,510000,33580,30647,65700,0,11584,0,3782297230,63
i,1717733484.263509,172.16.1.2,31459,172.16.3.2,5101,14625,17413,6,64256,65728,6,6,4,1460,142187,1,16810976,510000,41772,41772,65700,0,17376,0,3782297230,63
o,1717733484.263535,172.16.1.2,31459,172.16.3.2,5101,14625,20309,6,64256,65728,6,6,4,1460,157187,1,16810976,600000,41772,38876,65700,0,14480,0,3782297230,63
i,1717733484.293405,172.16.1.2,31459,172.16.3.2,5101,14625,20309,6,64256,65728,6,6,4,1460,157187,1,16810976,600000,49964,49964,65700,0,20272,0,3782297230,63
o,1717733484.293455,172.16.1.2,31459,172.16.3.2,5101,14625,23205,6,64256,65728,6,6,4,1460,174062,1,16810976,690000,49964,47068,65700,0,17376,0,3782297230,63
i,1717733484.313497,172.16.1.2,31459,172.16.3.2,5101,14625,23205,6,64256,65728,6,6,4,1460,174062,1,16810976,690000,49964,49964,65700,0,23168,0,3782297230,63
o,1717733484.313519,172.16.1.2,31459,172.16.3.2,5101,14625,26101,6,64256,65728,6,6,4,1460,191250,1,16810976,770000,49964,47068,65700,0,20272,0,3782297230,63
i,1717733484.343494,172.16.1.2,31459,172.16.3.2,5101,14625,26101,6,64256,65728,6,6,4,1460,191250,1,16810976,770000,58156,58156,65700,0,26064,0,3782297230,63
o,1717733484.343514,172.16.1.2,31459,172.16.3.2,5101,14625,28997,6,64256,65728,6,6,4,1460,210000,1,16810976,840000,58156,55260,65700,0,23168,0,3782297230,63
o,1717733484.343766,172.16.1.2,31459,172.16.3.2,5101,14625,28997,6,64256,65728,6,6,4,1460,210000,1,16810976,840000,58156,55260,65700,0,24616,0,3782297230,63
i,1717733484.462991,172.16.1.2,31459,172.16.3.2,5101,14625,28997,6,64256,65728,6,6,4,1460,210000,1,16810976,840000,66348,66348,65700,0,28960,0,3782297230,63
o,1717733484.463010,172.16.1.2,31459,172.16.3.2,5101,14625,28997,6,64256,65728,6,6,4,1460,211250,1,16810976,740000,66348,63452,65700,0,26064,0,3782297230,63
i,1717733484.553443,172.16.1.2,31459,172.16.3.2,5101,14625,28997,6,64256,65728,6,6,4,1460,211250,1,16810976,740000,66348,66348,65700,0,28960,0,3782297230,63
o,1717733484.553470,172.16.1.2,31459,172.16.3.2,5101,14625,28997,6,65728,65728,6,6,4,1460,223750,1,16810976,770000,66348,64900,65700,0,27512,0,3782297230,63
i,1717733484.582599,172.16.1.2,31459,172.16.3.2,5101,14625,28997,6,65728,65728,6,6,4,1460,223750,1,16810976,770000,66348,64900,65700,0,28960,0,3782297230,63
o,1717733484.582619,172.16.1.2,31459,172.16.3.2,5101,14625,28997,6,64256,65728,6,6,4,1460,238437,1,16810976,820000,66348,62004,65700,0,26064,0,3782297230,63
i,1717733484.653916,172.16.1.2,31459,172.16.3.2,5101,14625,28997,6,64256,65728,6,6,4,1460,238437,1,16810976,820000,66348,66348,65700,0,28960,0,3782297230,63
o,1717733484.653936,172.16.1.2,31459,172.16.3.2,5101,14625,28997,6,65728,65728,6,6,4,1460,257500,1,16810976,900000,66348,64900,65700,0,27512,0,3782297230,63
i,1717733484.682581,172.16.1.2,31459,172.16.3.2,5101,14625,28997,6,65728,65728,6,6,4,1460,257500,1,16810976,900000,66348,64900,65700,0,28960,0,3782297230,63
o,1717733484.682590,172.16.1.2,31459,172.16.3.2,5101,14625,28997,6,64256,65728,6,6,4,1460,277812,1,16810976,970000,66348,62004,65700,0,26064,0,3782297230,63
i,1717733484.703441,172.16.1.2,31459,172.16.3.2,5101,14625,28997,6,64256,65728,6,6,4,1460,277812,1,16810976,970000,66348,66348,65700,0,28960,0,3782297230,63
o,1717733484.703451,172.16.1.2,31459,172.16.3.2,5101,14625,28997,6,64256,65728,6,6,4,1460,293125,1,16778208,980000,66348,63452,65700,0,26064,0,3782297230,63
i,1717733484.732817,172.16.1.2,31459,172.16.3.2,5101,14625,28997,6,64256,65728,6,6,4,1460,293125,1,16810976,980000,66348,66348,65700,0,28960,0,3782297230,63
o,1717733484.732826,172.16.1.2,31459,172.16.3.2,5101,14625,28997,6,64256,65728,6,6,4,1460,310312,1,16810976,1020000,66348,63452,65700,0,26064,0,3782297230,63
i,1717733484.763988,172.16.1.2,31459,172.16.3.2,5101,14625,28997,6,64256,65728,6,6,4,1460,310312,1,16810976,1020000,66348,66348,65700,0,28960,0,3782297230,63
o,1717733484.763997,172.16.1.2,31459,172.16.3.2,5101,14625,28997,6,65728,65728,6,6,4,1460,327812,1,16810976,1050000,66348,64900,65700,0,27512,0,3782297230,63
i,1717733484.792513,172.16.1.2,31459,172.16.3.2,5101,14625,28997,6,65728,65728,6,6,4,1460,327812,1,16810976,1050000,66348,64900,65700,0,28960,0,3782297230,63
o,1717733484.792525,172.16.1.2,31459,172.16.3.2,5101,14625,28997,6,64256,65728,6,6,4,1460,345625,1,16810976,1080000,66348,62004,65700,0,26064,0,3782297230,63
i,1717733484.813291,172.16.1.2,31459,172.16.3.2,5101,14625,28997,6,64256,65728,6,6,4,1460,345625,1,16810976,1080000,66348,66348,65700,0,28960,0,3782297230,63
o,1717733484.813301,172.16.1.2,31459,172.16.3.2,5101,14625,28997,6,64256,65728,6,6,4,1460,365000,1,16810976,1120000,66348,63452,65700,0,26064,0,3782297230,63
o,1717733484.813598,172.16.1.2,31459,172.16.3.2,5101,14625,28997,6,64256,65728,6,6,4,1460,365000,1,16810976,1120000,66348,63452,65700,0,27512,0,3782297230,63
i,1717733484.843465,172.16.1.2,31459,172.16.3.2,5101,14625,28997,6,64256,65728,6,6,4,1460,365000,1,16810976,1120000,66348,66348,65700,0,28960,0,3782297230,63
o,1717733484.843473,172.16.1.2,31459,172.16.3.2,5101,14625,28997,6,64256,65728,6,6,4,1460,380625,1,16810976,1120000,66348,63452,65700,0,26064,0,3782297230,63
i,1717733484.892694,172.16.1.2,31459,172.16.3.2,5101,14625,28997,6,64256,65728,6,6,4,1460,380625,1,16810976,1120000,66348,66348,65700,0,28960,0,3782297230,63
o,1717733484.892701,172.16.1.2,31459,172.16.3.2,5101,14625,30408,2,64256,65728,6,6,4,1460,380625,1,16810976,1120000,66348,66348,65700,0,28960,0,3782297230,63
i,1717733484.922883,172.16.1.2,31459,172.16.3.2,5101,14625,28997,2,64256,65728,6,6,4,1460,380625,1,16810976,1120000,66348,66348,65700,0,30408,0,3782297230,63
o,1717733484.922888,172.16.1.2,31459,172.16.3.2,5101,14625,31856,2,64256,65728,6,6,4,1460,380625,1,16810976,1120000,66348,66348,65700,0,30408,0,3782297230,63
i,1717733484.972799,172.16.1.2,31459,172.16.3.2,5101,14625,28997,2,64256,65728,6,6,4,1460,380625,1,16810976,1120000,66348,66348,65700,0,31856,0,3782297230,63
o,1717733484.972813,172.16.1.2,31459,172.16.3.2,5101,14498,1448,2,64256,65728,6,6,4,1460,380625,1,554730464,1120000,66348,66348,65700,0,31856,0,3782297230,63
i,1717733485.003001,172.16.1.2,31459,172.16.3.2,5101,14498,1448,2,64256,65728,6,6,4,1460,380625,1,554730464,1120000,66348,66348,65700,0,31856,0,3782297230,63
i,1717733485.023971,172.16.1.2,31459,172.16.3.2,5101,14498,1448,2,64256,65728,6,6,4,1460,380625,1,554730464,1120000,66348,66348,65700,0,31856,0,3782297230,63
o,1717733485.023980,172.16.1.2,31459,172.16.3.2,5101,14498,2896,2,64256,65728,6,6,4,1460,380625,1,554730464,1120000,66348,66348,65700,0,31856,0,3782297230,63
i,1717733485.053592,172.16.1.2,31459,172.16.3.2,5101,14498,2896,2,64256,65728,6,6,4,1460,380625,1,554730464,1120000,66348,66348,65700,0,33304,0,3782297230,63
i,1717733485.104076,172.16.1.2,31459,172.16.3.2,5101,14498,2896,2,64256,65728,6,6,4,1460,380625,1,554730464,1120000,66348,66348,65700,0,33304,0,3782297230,63
o,1717733485.104094,172.16.1.2,31459,172.16.3.2,5101,14498,4344,6,64256,65728,6,6,4,1460,380625,1,554730464,1120000,66348,66348,65700,0,33304,0,3782297230,63
o,1717733485.104320,172.16.1.2,31459,172.16.3.2,5101,14498,4344,2,64256,65728,6,6,4,1460,380625,1,554730464,1120000,66348,66348,65700,0,33304,0,3782297230,63
i,1717733485.104619,172.16.1.2,31459,172.16.3.2,5101,14498,4344,2,64256,65728,6,6,4,1460,380625,1,554730464,1120000,66348,66348,65700,0,33304,0,3782297230,63
o,1717733485.104624,172.16.1.2,31459,172.16.3.2,5101,14498,5792,2,64256,65728,6,6,4,1460,380625,1,554730464,1120000,66348,66348,65700,0,33304,0,3782297230,63
i,1717733485.133139,172.16.1.2,31459,172.16.3.2,5101,14498,5792,2,64256,65728,6,6,4,1460,380625,1,554730464,1120000,66348,66348,65700,0,33304,0,3782297230,63
o,1717733485.133159,172.16.1.2,31459,172.16.3.2,5101,14498,7240,2,64256,65728,6,6,4,1460,380625,1,554730464,1120000,66348,66348,65700,0,33304,0,3782297230,63
i,1717733485.163201,172.16.1.2,31459,172.16.3.2,5101,14498,7240,2,64256,65728,6,6,4,1460,380625,1,554730464,1120000,66348,66348,65700,0,33304,0,3782297230,63
i,1717733485.163217,172.16.1.2,31459,172.16.3.2,5101,14498,8688,2,64256,65728,6,6,4,1460,380625,1,554730464,1120000,66348,66348,65700,0,33304,0,3782297230,63
o,1717733485.163227,172.16.1.2,31459,172.16.3.2,5101,14498,8688,2,64256,65728,6,6,4,1460,380625,1,554730464,1120000,66348,66348,65700,0,33304,0,3782297230,63
i,1717733485.163889,172.16.1.2,31459,172.16.3.2,5101,14498,8688,2,64256,65728,6,6,4,1460,380625,1,554730464,1120000,66348,66348,65700,0,33304,0,3782297230,63
i,1717733485.202985,172.16.1.2,31459,172.16.3.2,5101,14498,10136,2,64256,65728,6,6,4,1460,380625,1,554730464,1120000,66348,66348,65700,0,33304,0,3782297230,63
i,1717733485.202991,172.16.1.2,31459,172.16.3.2,5101,14498,10136,2,64256,65728,6,6,4,1460,380625,1,554730464,1120000,66348,66348,65700,0,33304,0,3782297230,63
o,1717733485.202997,172.16.1.2,31459,172.16.3.2,5101,14498,10136,2,64256,65728,6,6,4,1460,380625,1,554730464,1120000,66348,66348,65700,0,33304,0,3782297230,63
i,1717733485.253208,172.16.1.2,31459,172.16.3.2,5101,14498,10136,2,64256,65728,6,6,4,1460,380625,1,554730464,1120000,66348,66348,65700,0,33304,0,3782297230,63
o,1717733485.253219,172.16.1.2,31459,172.16.3.2,5101,14498,11584,2,64256,65728,6,6,4,1460,380625,1,554730464,1120000,66348,66348,65700,0,33304,0,3782297230,63
i,1717733485.273709,172.16.1.2,31459,172.16.3.2,5101,14498,11584,2,64256,65728,6,6,4,1460,380625,1,554730464,1120000,66348,66348,65700,0,33304,0,3782297230,63
i,1717733485.303749,172.16.1.2,31459,172.16.3.2,5101,14498,11584,2,64256,65728,6,6,4,1460,380625,1,537953248,1120000,66348,66348,65700,0,33304,0,3782297230,63
i,1717733485.303822,172.16.1.2,31459,172.16.3.2,5101,14498,10136,2,64256,65728,6,6,4,1460,380625,1,537953248,1120000,66348,66348,65700,0,33304,0,3782297230,63
i,1717733485.333413,172.16.1.2,31459,172.16.3.2,5101,14498,8688,2,64256,65728,6,6,4,1460,380625,1,537953248,1120000,66348,66348,65700,0,33304,0,3782297230,63
o,1717733485.333429,172.16.1.2,31459,172.16.3.2,5101,14498,10136,6,64256,65728,6,6,4,1460,380625,1,554730464,1120000,66348,66348,65700,0,33304,0,3782297230,63
o,1717733485.333747,172.16.1.2,31459,172.16.3.2,5101,14498,10136,2,64256,65728,6,6,4,1460,380625,1,554730464,1120000,66348,66348,65700,0,34752,0,3782297230,63
i,1717733485.362622,172.16.1.2,31459,172.16.3.2,5101,14498,10136,2,64256,65728,6,6,4,1460,380625,1,554730464,1120000,66348,66348,65700,0,36200,0,3782297230,63
o,1717733485.362654,172.16.1.2,31459,172.16.3.2,5101,14498,11584,6,64256,65728,6,6,4,1460,380625,1,554730464,1120000,66348,66348,65700,0,36200,0,3782297230,63
i,1717733485.362960,172.16.1.2,31459,172.16.3.2,5101,14498,11584,6,64256,65728,6,6,4,1460,380625,1,554730464,1120000,66348,66348,65700,0,39096,0,3782297230,63
o,1717733485.362963,172.16.1.2,31459,172.16.3.2,5101,14498,13032,6,64256,65728,6,6,4,1460,380625,1,554730464,1120000,66348,66348,65700,0,39096,0,3782297230,63
i,1717733485.502832,172.16.1.2,31459,172.16.3.2,5101,14498,13032,6,64256,65728,6,6,4,1460,380625,1,554730464,1120000,66348,66348,65700,0,41992,0,3782297230,63
o,1717733485.502848,172.16.1.2,31459,172.16.3.2,5101,14498,14480,2,64256,65728,6,6,4,1460,380625,1,554730464,1120000,66348,66348,65700,0,41992,0,3782297230,63
i,1717733485.503103,172.16.1.2,31459,172.16.3.2,5101,14498,14480,2,64256,65728,6,6,4,1460,380625,1,554730464,1120000,66348,66348,65700,0,43440,0,3782297230,63
o,1717733485.503106,172.16.1.2,31459,172.16.3.2,5101,14498,15928,2,64256,65728,6,6,4,1460,380625,1,554730464,1120000,66348,66348,65700,0,43440,0,3782297230,63
i,1717733485.523076,172.16.1.2,31459,172.16.3.2,5101,14498,15928,2,64256,65728,6,6,4,1460,380625,1,554730464,1120000,66348,66348,65700,0,44888,0,3782297230,63
o,1717733485.523082,172.16.1.2,31459,172.16.3.2,5101,14498,17376,2,64256,65728,6,6,4,1460,380625,1,554730464,1120000,66348,66348,65700,0,44888,0,3782297230,63
i,1717733485.523378,172.16.1.2,31459,172.16.3.2,5101,14498,17376,2,64256,65728,6,6,4,1460,380625,1,554730464,1120000,66348,66348,65700,0,46336,0,3782297230,63
o,1717733485.523381,172.16.1.2,31459,172.16.3.2,5101,14498,18824,2,64256,65728,6,6,4,1460,380625,1,554730464,1120000,66348,66348,65700,0,46336,0,3782297230,63
i,1717733485.543921,172.16.1.2,31459,172.16.3.2,5101,14498,18824,2,64256,65728,6,6,4,1460,380625,1,554730464,1120000,66348,66348,65700,0,47784,0,3782297230,63
o,1717733485.543928,172.16.1.2,31459,172.16.3.2,5101,14498,20272,2,64256,65728,6,6,4,1460,380625,1,554730464,1120000,74540,66348,65700,0,47784,0,3782297230,63
i,1717733485.544229,172.16.1.2,31459,172.16.3.2,5101,14498,20272,2,64256,65728,6,6,4,1460,380625,1,554730464,1120000,74540,66348,65700,0,49232,0,3782297230,63
o,1717733485.544235,172.16.1.2,31459,172.16.3.2,5101,14498,21720,2,64256,65728,6,6,4,1460,380625,1,554730464,1120000,82732,66348,65700,0,49232,0,3782297230,63
i,1717733485.654010,172.16.1.2,31459,172.16.3.2,5101,14498,21720,2,64256,65728,6,6,4,1460,380625,1,554730464,1120000,82732,66348,65700,0,50680,0,3782297230,63
o,1717733485.654026,172.16.1.2,31459,172.16.3.2,5101,14498,23168,2,64256,65728,6,6,4,1460,380625,1,554730464,1120000,82732,66348,65700,0,50680,0,3782297230,63
i,1717733485.654343,172.16.1.2,31459,172.16.3.2,5101,14498,23168,2,64256,65728,6,6,4,1460,380625,1,554730464,1120000,82732,66348,65700,0,52128,0,3782297230,63
o,1717733485.654348,172.16.1.2,31459,172.16.3.2,5101,14498,24616,2,64256,65728,6,6,4,1460,380625,1,554730464,1120000,82732,66348,65700,0,52128,0,3782297230,63
i,1717733485.693089,172.16.1.2,31459,172.16.3.2,5101,14498,24616,2,64256,65728,6,6,4,1460,380625,1,554730464,1120000,82732,66348,65700,0,53576,0,3782297230,63
o,1717733485.693099,172.16.1.2,31459,172.16.3.2,5101,14498,26064,2,64256,65728,6,6,4,1460,380625,1,554730464,1120000,82732,66348,65700,0,53576,0,3782297230,63
i,1717733485.693214,172.16.1.2,31459,172.16.3.2,5101,14498,26064,2,64256,65728,6,6,4,1460,380625,1,554730464,1120000,82732,66348,65700,0,55024,0,3782297230,63
o,1717733485.693218,172.16.1.2,31459,172.16.3.2,5101,14498,27512,2,64256,65728,6,6,4,1460,380625,1,554730464,1120000,82732,66348,65700,0,55024,0,3782297230,63
i,1717733485.693327,172.16.1.2,31459,172.16.3.2,5101,14498,27512,2,64256,65728,6,6,4,1460,380625,1,554730464,1120000,82732,66348,65700,0,56472,0,3782297230,63
o,1717733485.693330,172.16.1.2,31459,172.16.3.2,5101,14498,28960,2,64256,65728,6,6,4,1460,380625,1,554730464,1120000,82732,66348,65700,0,56472,0,3782297230,63
i,1717733485.733125,172.16.1.2,31459,172.16.3.2,5101,14498,28960,2,64256,65728,6,6,4,1460,380625,1,554730464,1120000,82732,66348,65700,0,57920,0,3782297230,63
o,1717733485.733146,172.16.1.2,31459,172.16.3.2,5101,14498,30408,2,64256,65728,6,6,4,1460,380625,1,554730464,1120000,82732,66348,65700,0,57920,0,3782297230,63
i,1717733485.783141,172.16.1.2,31459,172.16.3.2,5101,14498,30408,2,64256,65728,6,6,4,1460,380625,1,554730464,1120000,82732,66348,65700,0,59368,0,3782297230,63
o,1717733485.783159,172.16.1.2,31459,172.16.3.2,5101,14498,31856,2,64256,65728,6,6,4,1460,380625,1,554730464,1120000,82732,66348,65700,0,59368,0,3782297230,63
i,1717733485.804005,172.16.1.2,31459,172.16.3.2,5101,14498,31856,2,64256,65728,6,6,4,1460,380625,1,554730464,1120000,82732,66348,65700,0,60816,0,3782297230,63
o,1717733485.804018,172.16.1.2,31459,172.16.3.2,5101,14498,33304,2,64256,65728,6,6,4,1460,380625,1,554730464,1120000,82732,66348,65700,0,60816,0,3782297230,63
i,1717733485.853301,172.16.1.2,31459,172.16.3.2,5101,14498,33304,2,64256,65728,6,6,4,1460,380625,1,554730464,1120000,82732,66348,65700,0,62264,0,3782297230,63
o,1717733485.853313,172.16.1.2,31459,172.16.3.2,5101,14498,34752,2,64256,65728,6,6,4,1460,380625,1,554730464,1120000,82732,66348,65700,0,62264,0,3782297230,63
i,1717733485.853647,172.16.1.2,31459,172.16.3.2,5101,14498,34752,2,64256,65728,6,6,4,1460,380625,1,554730464,1120000,82732,66348,65700,0,63712,0,3782297230,63
i,1717733485.892806,172.16.1.2,31459,172.16.3.2,5101,14498,36200,2,64256,65728,6,6,4,1460,380625,1,554730464,1120000,82732,66348,65700,0,63712,0,3782297230,63
i,1717733485.892814,172.16.1.2,31459,172.16.3.2,5101,14498,37648,2,64256,65728,6,6,4,1460,380625,1,554730464,1120000,82732,66348,65700,0,63712,0,3782297230,63
i,1717733485.923204,172.16.1.2,31459,172.16.3.2,5101,14498,39096,2,64256,65728,6,6,4,1460,380625,1,554730464,1120000,82732,66348,65700,0,63712,0,3782297230,63
i,1717733485.942787,172.16.1.2,31459,172.16.3.2,5101,14498,40544,2,64256,65728,6,6,4,1460,380625,1,537953248,1120000,82732,66348,65700,0,63712,0,3782297230,63
i,1717733485.972951,172.16.1.2,31459,172.16.3.2,5101,14498,41992,2,64256,65728,6,6,4,1460,380625,1,537953248,1120000,82732,66348,65700,0,63712,0,3782297230,63
o,1717733486.092159,172.16.1.2,31459,172.16.3.2,5101,30374,1448,2,64256,65728,6,6,4,1460,380625,1,1092658145,2040000,82732,66348,65700,0,63712,0,3782297230,63
i,1717733486.233454,172.16.1.2,31459,172.16.3.2,5101,30374,1448,2,64256,65728,6,6,4,1460,380625,1,1092658144,2040000,82732,66348,65700,0,63712,0,3782297230,63
o,1717733486.233477,172.16.1.2,31459,172.16.3.2,5101,2896,2920,6,51264,65728,6,6,4,1460,350625,1,1092658144,1200000,82732,51868,65700,0,49232,0,3782297230,63
i,1717733486.372962,172.16.1.2,31459,172.16.3.2,5101,2896,2920,6,51264,65728,6,6,4,1460,350625,1,1092658144,1200000,82732,82732,65700,0,49232,0,3782297230,63
o,1717733486.372993,172.16.1.2,31459,172.16.3.2,5101,2896,2920,6,16512,65728,6,6,4,1460,324375,1,1092625376,1220000,82732,33500,65700,0,0,0,3782297230,63
o,1717733486.373362,172.16.1.2,31459,172.16.3.2,5101,2896,2920,6,16512,65728,6,6,4,1460,324375,1,1092658144,1220000,82732,33500,65700,0,1448,0,3782297230,63
i,1717733486.373693,172.16.1.2,31459,172.16.3.2,5101,2896,2920,6,16512,65728,6,6,4,1460,324375,1,1092658144,1220000,82732,33500,65700,0,2896,0,3782297230,63
o,1717733486.373698,172.16.1.2,31459,172.16.3.2,5101,2896,4344,2,16512,65728,6,6,4,1460,324375,1,1092658144,1220000,82732,33500,65700,0,2896,0,3782297230,63
i,1717733486.503393,172.16.1.2,31459,172.16.3.2,5101,2896,2920,2,16512,65728,6,6,4,1460,324375,1,1092658144,1220000,82732,82732,65700,0,4344,0,3782297230,63
o,1717733486.503416,172.16.1.2,31459,172.16.3.2,5101,2896,2920,6,64256,65728,6,6,4,1460,300312,1,1092658144,1210000,82732,79836,65700,0,1448,0,3782297230,63
i,1717733486.563539,172.16.1.2,31459,172.16.3.2,5101,2896,2920,6,64256,65728,6,6,4,1460,300312,1,1092658144,1210000,82732,82732,65700,0,2896,0,3782297230,63
o,1717733486.563557,172.16.1.2,31459,172.16.3.2,5101,2896,2920,6,65728,65728,6,6,4,1460,286562,1,1092625376,1130000,82732,81284,65700,0,1448,0,3782297230,63
i,1717733486.672836,172.16.1.2,31459,172.16.3.2,5101,2896,2920,6,65728,65728,6,6,4,1460,286562,1,1092658144,1130000,82732,81284,65700,0,2896,0,3782297230,63
o,1717733486.672855,172.16.1.2,31459,172.16.3.2,5101,2896,2920,6,65728,65728,6,6,4,1460,270937,1,1092658144,1080000,82732,79836,65700,0,1448,0,3782297230,63
i,1717733486.753106,172.16.1.2,31459,172.16.3.2,5101,2896,2920,6,65728,65728,6,6,4,1460,270937,1,1092658144,1080000,82732,82732,65700,0,2896,0,3782297230,63
o,1717733486.753123,172.16.1.2,31459,172.16.3.2,5101,2896,2920,6,65728,65728,6,6,4,1460,259687,1,1092658144,1000000,82732,81284,65700,0,1448,0,3782297230,63
i,1717733486.862757,172.16.1.2,31459,172.16.3.2,5101,2896,2920,6,65728,65728,6,6,4,1460,259687,1,1092658144,1000000,82732,81284,65700,0,2896,0,3782297230,63
o,1717733486.862776,172.16.1.2,31459,172.16.3.2,5101,2896,2920,6,65728,65728,6,6,4,1460,251250,1,1092658144,930000,82732,79836,65700,0,1448,0,3782297230,63
i,1717733486.943350,172.16.1.2,31459,172.16.3.2,5101,2896,2920,6,65728,65728,6,6,4,1460,251250,1,1092658144,930000,82732,82732,65700,0,2896,0,3782297230,63
o,1717733486.943397,172.16.1.2,31459,172.16.3.2,5101,2896,2920,6,65728,65728,6,6,4,1460,243750,1,1092625376,860000,82732,81284,65700,0,1448,0,3782297230,63
i,1717733487.052970,172.16.1.2,31459,172.16.3.2,5101,2896,2920,6,65728,65728,6,6,4,1460,243750,1,1092658144,860000,82732,81284,65700,0,2896,0,3782297230,63
o,1717733487.052988,172.16.1.2,31459,172.16.3.2,5101,2896,2920,6,65728,65728,6,6,4,1460,237187,1,1092658144,800000,82732,79836,65700,0,1448,0,3782297230,63
i,1717733487.134295,172.16.1.2,31459,172.16.3.2,5101,2896,2920,6,65728,65728,6,6,4,1460,237187,1,1092658144,800000,82732,82732,65700,0,2896,0,3782297230,63
o,1717733487.134317,172.16.1.2,31459,172.16.3.2,5101,2896,2920,6,65728,65728,6,6,4,1460,231562,1,1092658144,750000,82732,81284,65700,0,1448,0,3782297230,63
i,1717733487.242346,172.16.1.2,31459,172.16.3.2,5101,2896,2920,6,65728,65728,6,6,4,1460,231562,1,1092658144,750000,82732,81284,65700,0,2896,0,3782297230,63
o,1717733487.242366,172.16.1.2,31459,172.16.3.2,5101,2896,3015,6,65728,65728,6,6,4,1460,226562,1,1092658144,700000,82732,79836,65700,0,1448,0,3782297230,63
i,1717733487.322466,172.16.1.2,31459,172.16.3.2,5101,2896,3015,6,65728,65728,6,6,4,1460,226562,1,1092658144,700000,82732,82732,65700,0,2896,0,3782297230,63
o,1717733487.322485,172.16.1.2,31459,172.16.3.2,5101,2896,3186,6,65728,65728,6,6,4,1460,222187,1,1092625376,660000,82732,81284,65700,0,1448,0,3782297230,63
i,1717733487.412637,172.16.1.2,31459,172.16.3.2,5101,2896,3186,6,65728,65728,6,6,4,1460,222187,1,1092658144,660000,82732,81284,65700,0,2896,0,3782297230,63
o,1717733487.412660,172.16.1.2,31459,172.16.3.2,5101,2896,3378,6,65728,65728,6,6,4,1460,215937,1,1092658144,650000,82732,79836,65700,0,1448,0,3782297230,63
i,1717733487.493244,172.16.1.2,31459,172.16.3.2,5101,2896,3378,6,65728,65728,6,6,4,1460,215937,1,1092658144,650000,82732,82732,65700,0,2896,0,3782297230,63
o,1717733487.493264,172.16.1.2,31459,172.16.3.2,5101,2896,3549,6,65728,65728,6,6,4,1460,210312,1,1092658144,630000,82732,81284,65700,0,1448,0,3782297230,63
i,1717733487.603318,172.16.1.2,31459,172.16.3.2,5101,2896,3549,6,65728,65728,6,6,4,1460,210312,1,1092658144,630000,82732,81284,65700,0,2896,0,3782297230,63
o,1717733487.603337,172.16.1.2,31459,172.16.3.2,5101,2896,3784,6,65728,65728,6,6,4,1460,207812,1,1092658144,590000,82732,79836,65700,0,1448,0,3782297230,63
i,1717733487.682333,172.16.1.2,31459,172.16.3.2,5101,2896,3784,6,65728,65728,6,6,4,1460,207812,1,1092658144,590000,82732,82732,65700,0,2896,0,3782297230,63
o,1717733487.682352,172.16.1.2,31459,172.16.3.2,5101,2896,3955,6,65728,65728,6,6,4,1460,205625,1,1092625376,560000,82732,81284,65700,0,1448,0,3782297230,63
i,1717733487.774035,172.16.1.2,31459,172.16.3.2,5101,2896,3955,6,65728,65728,6,6,4,1460,205625,1,1092658144,560000,82732,81284,65700,0,2896,0,3782297230,63
o,1717733487.774055,172.16.1.2,31459,172.16.3.2,5101,2896,4147,6,65728,65728,6,6,4,1460,200000,1,1092658144,560000,82732,79836,65700,0,1448,0,3782297230,63
i,1717733487.853416,172.16.1.2,31459,172.16.3.2,5101,2896,4147,6,65728,65728,6,6,4,1460,200000,1,1092658144,560000,82732,82732,65700,0,2896,0,3782297230,63
o,1717733487.853435,172.16.1.2,31459,172.16.3.2,5101,2896,4318,6,65728,65728,6,6,4,1460,196250,1,1092658144,550000,82732,81284,65700,0,1448,0,3782297230,63
i,1717733487.961922,172.16.1.2,31459,172.16.3.2,5101,2896,4318,6,65728,65728,6,6,4,1460,196250,1,1092658144,550000,82732,81284,65700,0,2896,0,3782297230,63
o,1717733487.961935,172.16.1.2,31459,172.16.3.2,5101,2896,4553,6,65728,65728,6,6,4,1460,195625,1,1092658144,510000,82732,79836,65700,0,1448,0,3782297230,63
o,1717733487.962215,172.16.1.2,31459,172.16.3.2,5101,2896,4553,6,65728,65728,6,6,4,1460,195625,1,1092658144,510000,82732,79836,65700,0,2896,0,3782297230,63
i,1717733488.052684,172.16.1.2,31459,172.16.3.2,5101,2896,4553,6,65728,65728,6,6,4,1460,195625,1,1092658144,510000,82732,82732,65700,0,4344,0,3782297230,63
o,1717733488.052701,172.16.1.2,31459,172.16.3.2,5101,2896,4745,6,65728,65728,6,6,4,1460,196250,1,1092625376,490000,82732,81284,65700,0,2896,0,3782297230,63
i,1717733488.113948,172.16.1.2,31459,172.16.3.2,5101,2896,4745,6,65728,65728,6,6,4,1460,196250,1,1092658144,490000,82732,81284,65700,0,4344,0,3782297230,63
o,1717733488.114044,172.16.1.2,31459,172.16.3.2,5101,2896,4874,6,64256,65728,6,6,4,1460,190625,1,1092658144,510000,82732,78388,65700,0,1448,0,3782297230,63
o,1717733488.114456,172.16.1.2,31459,172.16.3.2,5101,2896,4874,6,64256,65728,6,6,4,1460,190625,1,1092658144,510000,82732,78388,65700,0,2896,0,3782297230,63
i,1717733488.232999,172.16.1.2,31459,172.16.3.2,5101,2896,4874,6,64256,65728,6,6,4,1460,190625,1,1092658144,510000,82732,82732,65700,0,4344,0,3782297230,63
o,1717733488.233020,172.16.1.2,31459,172.16.3.2,5101,2896,5607,6,65728,65728,6,6,4,1460,189375,1,1092658144,480000,82732,81284,65700,0,2896,0,3782297230,63
i,1717733488.262052,172.16.1.2,31459,172.16.3.2,5101,2896,5607,6,65728,65728,6,6,4,1460,189375,1,1092658144,480000,82732,81284,65700,0,4344,0,3782297230,63
o,1717733488.262066,172.16.1.2,31459,172.16.3.2,5101,2896,5607,6,64256,65728,6,6,4,1460,183437,1,1092658144,500000,82732,78388,65700,0,1448,0,3782297230,63
o,1717733488.262337,172.16.1.2,31459,172.16.3.2,5101,2896,5607,6,64256,65728,6,6,4,1460,183437,1,1092658144,500000,82732,78388,65700,0,2896,0,3782297230,63
i,1717733488.392870,172.16.1.2,31459,172.16.3.2,5101,2896,5607,6,64256,65728,6,6,4,1460,183437,1,1092658144,500000,82732,82732,65700,0,4344,0,3782297230,63
o,1717733488.392889,172.16.1.2,31459,172.16.3.2,5101,2896,5607,6,64256,65728,6,6,4,1460,180625,1,1092625376,490000,82732,79836,65700,0,1448,0,3782297230,63
o,1717733488.393176,172.16.1.2,31459,172.16.3.2,5101,2896,5607,6,64256,65728,6,6,4,1460,180625,1,1092658144,490000,82732,79836,65700,0,2896,0,3782297230,63
i,1717733488.422549,172.16.1.2,31459,172.16.3.2,5101,2896,5607,6,64256,65728,6,6,4,1460,180625,1,1092658144,490000,82732,82732,65700,0,4344,0,3782297230,63
o,1717733488.422572,172.16.1.2,31459,172.16.3.2,5101,2896,7067,6,65728,65728,6,6,4,1460,178125,1,1092658144,480000,82732,81284,65700,0,2896,0,3782297230,63
i,1717733488.542739,172.16.1.2,31459,172.16.3.2,5101,2896,7067,6,65728,65728,6,6,4,1460,178125,1,1092658144,480000,82732,81284,65700,0,5792,0,3782297230,63
o,1717733488.542758,172.16.1.2,31459,172.16.3.2,5101,2896,7067,6,64256,65728,6,6,4,1460,174687,1,1092658144,480000,82732,78388,65700,0,2896,0,3782297230,63
o,1717733488.543042,172.16.1.2,31459,172.16.3.2,5101,2896,7067,6,64256,65728,6,6,4,1460,174687,1,1092658144,480000,82732,78388,65700,0,4344,0,3782297230,63
i,1717733488.573055,172.16.1.2,31459,172.16.3.2,5101,2896,7067,6,64256,65728,6,6,4,1460,174687,1,1092658144,480000,82732,82732,65700,0,5792,0,3782297230,63
o,1717733488.573071,172.16.1.2,31459,172.16.3.2,5101,2896,7067,6,64256,65728,6,6,4,1460,171875,1,1092625376,470000,82732,79836,65700,0,2896,0,3782297230,63
i,1717733488.693077,172.16.1.2,31459,172.16.3.2,5101,2896,7067,6,64256,65728,6,6,4,1460,171875,1,1092658144,470000,82732,82732,65700,0,5792,0,3782297230,63
o,1717733488.693095,172.16.1.2,31459,172.16.3.2,5101,2896,8527,6,64256,65728,6,6,4,1460,168125,1,1092658144,470000,82732,79836,65700,0,2896,0,3782297230,63
o,1717733488.693380,172.16.1.2,31459,172.16.3.2,5101,2896,8527,6,64256,65728,6,6,4,1460,168125,1,1092658144,470000,82732,79836,65700,0,4344,0,3782297230,63
i,1717733488.722896,172.16.1.2,31459,172.16.3.2,5101,2896,8527,6,64256,65728,6,6,4,1460,168125,1,1092658144,470000,82732,82732,65700,0,7240,0,3782297230,63
o,1717733488.722919,172.16.1.2,31459,172.16.3.2,5101,2896,8527,6,64256,65728,6,6,4,1460,165937,1,1092658144,460000,82732,79836,65700,0,4344,0,3782297230,63
i,1717733488.873270,172.16.1.2,31459,172.16.3.2,5101,2896,8527,6,64256,65728,6,6,4,1460,165937,1,1092658144,460000,82732,82732,65700,0,7240,0,3782297230,63
o,1717733488.873290,172.16.1.2,31459,172.16.3.2,5101,2896,11447,6,64256,65728,6,6,4,1460,167812,1,1092658144,450000,82732,79836,65700,0,4344,0,3782297230,63
o,1717733488.873375,172.16.1.2,31459,172.16.3.2,5101,2896,11447,6,64256,65728,6,6,4,1460,167812,1,1092658144,450000,82732,79836,65700,0,5792,0,3782297230,63
i,1717733488.873468,172.16.1.2,31459,172.16.3.2,5101,2896,11447,6,64256,65728,6,6,4,1460,167812,1,1092658144,450000,82732,79836,65700,0,10136,0,3782297230,63
o,1717733488.873473,172.16.1.2,31459,172.16.3.2,5101,2896,11447,6,64256,65728,6,6,4,1460,169375,1,1092625376,440000,82732,76940,65700,0,7240,0,3782297230,63
i,1717733488.962890,172.16.1.2,31459,172.16.3.2,5101,2896,11447,6,64256,65728,6,6,4,1460,169375,1,1092658144,440000,82732,82732,65700,0,10136,0,3782297230,63
o,1717733488.962908,172.16.1.2,31459,172.16.3.2,5101,2896,11447,6,65728,65728,6,6,4,1460,178437,1,1092658144,510000,82732,81284,65700,0,8688,0,3782297230,63
i,1717733489.052602,172.16.1.2,31459,172.16.3.2,5101,2896,11447,6,65728,65728,6,6,4,1460,178437,1,1092658144,510000,82732,81284,65700,0,10136,0,3782297230,63
o,1717733489.052623,172.16.1.2,31459,172.16.3.2,5101,2896,12907,6,64256,65728,6,6,4,1460,178750,1,1092658144,480000,82732,78388,65700,0,7240,0,3782297230,63
o,1717733489.052926,172.16.1.2,31459,172.16.3.2,5101,2896,12907,6,64256,65728,6,6,4,1460,178750,1,1092658144,480000,82732,78388,65700,0,8688,0,3782297230,63
i,1717733489.091649,172.16.1.2,31459,172.16.3.2,5101,2896,12907,6,64256,65728,6,6,4,1460,178750,1,1092658144,480000,82732,82732,65700,0,11584,0,3782297230,63
o,1717733489.091662,172.16.1.2,31459,172.16.3.2,5101,2896,14367,6,64256,65728,6,6,4,1460,182812,1,1092658144,490000,82732,79836,65700,0,8688,0,3782297230,63
i,1717733489.142650,172.16.1.2,31459,172.16.3.2,5101,2896,14367,6,64256,65728,6,6,4,1460,182812,1,1092658144,490000,82732,82732,65700,0,13032,0,3782297230,63
o,1717733489.142664,172.16.1.2,31459,172.16.3.2,5101,2896,14367,6,64256,65728,6,6,4,1460,193750,1,1092658144,560000,82732,79836,65700,0,10136,0,3782297230,63
i,1717733489.182626,172.16.1.2,31459,172.16.3.2,5101,2896,14367,6,64256,65728,6,6,4,1460,193750,1,1092658144,560000,82732,82732,65700,0,13032,0,3782297230,63
o,1717733489.182637,172.16.1.2,31459,172.16.3.2,5101,2896,15827,6,65728,65728,6,6,4,1460,197187,1,1092658144,550000,82732,81284,65700,0,11584,0,3782297230,63
i,1717733489.221811,172.16.1.2,31459,172.16.3.2,5101,2896,15827,6,65728,65728,6,6,4,1460,197187,1,1092658144,550000,82732,81284,65700,0,14480,0,3782297230,63
o,1717733489.221828,172.16.1.2,31459,172.16.3.2,5101,2896,15827,6,65728,65728,6,6,4,1460,192812,1,1092658144,540000,82732,79836,65700,0,13032,0,3782297230,63
i,1717733489.253131,172.16.1.2,31459,172.16.3.2,5101,2896,15827,6,65728,65728,6,6,4,1460,192812,1,1092658144,540000,82732,82732,65700,0,14480,0,3782297230,63
o,1717733489.253148,172.16.1.2,31459,172.16.3.2,5101,2896,15827,6,64256,65728,6,6,4,1460,193750,1,1092658144,510000,82732,79836,65700,0,11584,0,3782297230,63
i,1717733489.293169,172.16.1.2,31459,172.16.3.2,5101,2896,15827,6,64256,65728,6,6,4,1460,193750,1,1092658144,510000,82732,82732,65700,0,14480,0,3782297230,63
o,1717733489.293181,172.16.1.2,31459,172.16.3.2,5101,2896,17287,6,65728,65728,6,6,4,1460,194687,1,1092658144,490000,82732,81284,65700,0,13032,0,3782297230,63
i,1717733489.322659,172.16.1.2,31459,172.16.3.2,5101,2896,17287,6,65728,65728,6,6,4,1460,194687,1,1092658144,490000,82732,82592,65700,0,15928,0,3782297230,63
o,1717733489.322687,172.16.1.2,31459,172.16.3.2,5101,2896,17287,6,64256,65728,6,6,4,1460,199375,1,1092625376,510000,82732,79696,65700,0,13032,0,3782297230,63
i,1717733489.363097,172.16.1.2,31459,172.16.3.2,5101,2896,17287,6,64256,65728,6,6,4,1460,199375,1,1092658144,510000,82732,82732,65700,0,15928,0,3782297230,63
o,1717733489.363122,172.16.1.2,31459,172.16.3.2,5101,2896,17287,6,64256,65728,6,6,4,1460,202187,1,1092658144,500000,82732,79836,65700,0,13032,0,3782297230,63
i,1717733489.432733,172.16.1.2,31459,172.16.3.2,5101,2896,17287,6,64256,65728,6,6,4,1460,202187,1,1092658144,500000,82732,82732,65700,0,15928,0,3782297230,63
o,1717733489.432752,172.16.1.2,31459,172.16.3.2,5101,2896,18747,6,64256,65728,6,6,4,1460,208437,1,1092658144,540000,82732,79836,65700,0,13032,0,3782297230,63
i,1717733489.472520,172.16.1.2,31459,172.16.3.2,5101,2896,18747,6,64256,65728,6,6,4,1460,208437,1,1092658144,540000,82732,82732,65700,0,17376,0,3782297230,63
o,1717733489.472531,172.16.1.2,31459,172.16.3.2,5101,2896,20207,6,64256,65728,6,6,4,1460,213750,1,1092658144,550000,82732,79836,65700,0,14480,0,3782297230,63
o,1717733489.472798,172.16.1.2,31459,172.16.3.2,5101,2896,20207,6,64256,65728,6,6,4,1460,213750,1,1092658144,550000,82732,79836,65700,0,15928,0,3782297230,63
i,1717733489.541728,172.16.1.2,31459,172.16.3.2,5101,2896,20207,6,64256,65728,6,6,4,1460,213750,1,1092658144,550000,82732,82732,65700,0,18824,0,3782297230,63
o,1717733489.541739,172.16.1.2,31459,172.16.3.2,5101,2896,21667,6,65728,65728,6,6,4,1460,222187,1,1092658144,590000,82732,81284,65700,0,17376,0,3782297230,63
i,1717733489.551996,172.16.1.2,31459,172.16.3.2,5101,2896,21667,6,65728,65728,6,6,4,1460,222187,1,1092658144,590000,82732,81284,65700,0,20272,0,3782297230,63
o,1717733489.552004,172.16.1.2,31459,172.16.3.2,5101,2896,21667,6,64256,65728,6,6,4,1460,227187,1,1092658144,590000,82732,78388,65700,0,17376,0,3782297230,63
i,1717733489.582655,172.16.1.2,31459,172.16.3.2,5101,2896,21667,6,64256,65728,6,6,4,1460,227187,1,1092658144,590000,82732,82732,65700,0,20272,0,3782297230,63
o,1717733489.582665,172.16.1.2,31459,172.16.3.2,5101,2896,21667,6,64256,65728,6,6,4,1460,231562,1,1092658144,590000,82732,79836,65700,0,17376,0,3782297230,63
i,1717733489.651929,172.16.1.2,31459,172.16.3.2,5101,2896,21667,6,64256,65728,6,6,4,1460,231562,1,1092658144,590000,82732,82732,65700,0,20272,0,3782297230,63
o,1717733489.651940,172.16.1.2,31459,172.16.3.2,5101,2896,23127,6,64256,65728,6,6,4,1460,239062,1,1092658144,620000,82732,79836,65700,0,17376,0,3782297230,63
i,1717733489.712201,172.16.1.2,31459,172.16.3.2,5101,2896,23127,6,64256,65728,6,6,4,1460,239062,1,1092658144,620000,82732,82732,65700,0,21720,0,3782297230,63
o,1717733489.712215,172.16.1.2,31459,172.16.3.2,5101,2896,24587,6,64256,65728,6,6,4,1460,243125,1,1092658144,610000,82732,79836,65700,0,18824,0,3782297230,63
i,1717733489.773116,172.16.1.2,31459,172.16.3.2,5101,2896,24587,6,64256,65728,6,6,4,1460,243125,1,1092658144,610000,82732,82732,65700,0,23168,0,3782297230,63
o,1717733489.773128,172.16.1.2,31459,172.16.3.2,5101,2896,26047,6,65728,65728,6,6,4,1460,255312,1,1092658144,680000,82732,81284,65700,0,21720,0,3782297230,63
i,1717733489.823008,172.16.1.2,31459,172.16.3.2,5101,2896,26047,6,65728,65728,6,6,4,1460,255312,1,1092658144,680000,82732,81284,65700,0,24616,0,3782297230,63
o,1717733489.823021,172.16.1.2,31459,172.16.3.2,5101,2896,27507,6,64256,65728,6,6,4,1460,267187,1,1092658144,730000,82732,78388,65700,0,21720,0,3782297230,63
o,1717733489.823291,172.16.1.2,31459,172.16.3.2,5101,2896,27507,6,64256,65728,6,6,4,1460,267187,1,1092658144,730000,82732,78388,65700,0,23168,0,3782297230,63
i,1717733489.842546,172.16.1.2,31459,172.16.3.2,5101,2896,27507,6,64256,65728,6,6,4,1460,267187,1,1092658144,730000,82732,82732,65700,0,26064,0,3782297230,63
o,1717733489.842555,172.16.1.2,31459,172.16.3.2,5101,2896,27507,6,64256,65728,6,6,4,1460,280312,1,1092658144,780000,82732,79836,65700,0,23168,0,3782297230,63
i,1717733489.901597,172.16.1.2,31459,172.16.3.2,5101,2896,27507,6,64256,65728,6,6,4,1460,280312,1,1092658144,780000,82732,82732,65700,0,26064,0,3782297230,63
o,1717733489.901611,172.16.1.2,31459,172.16.3.2,5101,2896,28967,6,64256,65728,6,6,4,1460,290312,1,1092625376,800000,82732,79836,65700,0,23168,0,3782297230,63
i,1717733489.931620,172.16.1.2,31459,172.16.3.2,5101,2896,28967,6,64256,65728,6,6,4,1460,290312,1,1092658144,800000,82732,82732,65700,0,28960,0,3782297230,63
o,1717733489.931640,172.16.1.2,31459,172.16.3.2,5101,2896,28967,6,64256,65728,6,6,4,1460,300312,1,1092658144,810000,82732,79836,65700,0,26064,0,3782297230,63
i,1717733490.011656,172.16.1.2,31459,172.16.3.2,5101,2896,28967,6,64256,65728,6,6,4,1460,300312,1,1092658144,810000,82732,82732,65700,0,28960,0,3782297230,63
o,1717733490.011675,172.16.1.2,31459,172.16.3.2,5101,2896,31887,6,64256,65728,6,6,4,1460,315312,1,1092658144,870000,82732,79836,65700,0,26064,0,3782297230,63
i,1717733490.042526,172.16.1.2,31459,172.16.3.2,5101,2896,31887,6,64256,65728,6,6,4,1460,315312,1,1092658144,870000,82732,82732,65700,0,31856,0,3782297230,63
o,1717733490.042540,172.16.1.2,31459,172.16.3.2,5101,2896,31887,6,64256,65728,6,6,4,1460,324687,1,1092658144,860000,82732,79836,65700,0,28960,0,3782297230,63
i,1717733490.122034,172.16.1.2,31459,172.16.3.2,5101,2896,31887,6,64256,65728,6,6,4,1460,324687,1,1092658144,860000,82732,82732,65700,0,31856,0,3782297230,63
o,1717733490.122047,172.16.1.2,31459,172.16.3.2,5101,2896,34807,6,64256,65728,6,6,4,1460,335625,1,1092658144,880000,82732,79836,65700,0,28960,0,3782297230,63
i,1717733490.162622,172.16.1.2,31459,172.16.3.2,5101,2896,34807,6,64256,65728,6,6,4,1460,335625,1,1092658144,880000,82732,82732,65700,0,34752,0,3782297230,63
o,1717733490.162635,172.16.1.2,31459,172.16.3.2,5101,2896,34807,6,65728,65728,6,6,4,1460,350000,1,1092658144,920000,82732,81284,65700,0,33304,0,3782297230,63
i,1717733490.212374,172.16.1.2,31459,172.16.3.2,5101,2896,34807,6,65728,65728,6,6,4,1460,350000,1,1092658144,920000,82732,81284,65700,0,34752,0,3782297230,63
o,1717733490.212383,172.16.1.2,31459,172.16.3.2,5101,2896,36267,6,64256,65728,6,6,4,1460,361250,1,1092658144,930000,82732,78388,65700,0,31856,0,3782297230,63
i,1717733490.242371,172.16.1.2,31459,172.16.3.2,5101,2896,36267,6,64256,65728,6,6,4,1460,361250,1,1092658144,930000,82732,82732,65700,0,36200,0,3782297230,63
o,1717733490.242378,172.16.1.2,31459,172.16.3.2,5101,2896,37727,6,64256,65728,6,6,4,1460,368750,1,1092658144,910000,82732,79836,65700,0,33304,0,3782297230,63
o,1717733490.242645,172.16.1.2,31459,172.16.3.2,5101,2896,37727,6,64256,65728,6,6,4,1460,368750,1,1092658144,910000,82732,79836,65700,0,34752,0,3782297230,63
i,1717733490.291601,172.16.1.2,31459,172.16.3.2,5101,2896,37727,6,64256,65728,6,6,4,1460,368750,1,1092658144,910000,82732,82732,65700,0,37648,0,3782297230,63
o,1717733490.291608,172.16.1.2,31459,172.16.3.2,5101,2896,39187,6,65728,65728,6,6,4,1460,380312,1,1092658144,930000,82732,81284,65700,0,36200,0,3782297230,63
i,1717733490.322711,172.16.1.2,31459,172.16.3.2,5101,2896,39187,6,65728,65728,6,6,4,1460,380312,1,1092658144,930000,82732,81284,65700,0,39096,0,3782297230,63
o,1717733490.322723,172.16.1.2,31459,172.16.3.2,5101,2896,39187,6,64256,65728,6,6,4,1460,392812,1,1092658144,950000,82732,78388,65700,0,36200,0,3782297230,63
i,1717733490.372086,172.16.1.2,31459,172.16.3.2,5101,2896,39187,6,64256,65728,6,6,4,1460,392812,1,1092658144,950000,82732,82732,65700,0,39096,0,3782297230,63
o,1717733490.372107,172.16.1.2,31459,172.16.3.2,5101,2896,40647,6,64256,65728,6,6,4,1460,402500,1,1092658144,950000,82732,79836,65700,0,36200,0,3782297230,63
i,1717733490.421839,172.16.1.2,31459,172.16.3.2,5101,2896,40647,6,64256,65728,6,6,4,1460,402500,1,1092658144,950000,82732,82732,65700,0,40544,0,3782297230,63
o,1717733490.421856,172.16.1.2,31459,172.16.3.2,5101,2896,42107,6,65728,65728,6,6,4,1460,417187,1,1092658144,990000,82732,81284,65700,0,39096,0,3782297230,63
i,1717733490.451862,172.16.1.2,31459,172.16.3.2,5101,2896,42107,6,65728,65728,6,6,4,1460,417187,1,1092658144,990000,82732,81284,65700,0,41992,0,3782297230,63
o,1717733490.451872,172.16.1.2,31459,172.16.3.2,5101,2896,43440,2,65728,65728,6,6,4,1460,417187,1,1092658144,990000,82732,81284,65700,0,41992,0,3782297230,63
i,1717733490.462683,172.16.1.2,31459,172.16.3.2,5101,2896,42107,2,65728,65728,6,6,4,1460,417187,1,1092658144,990000,82732,81284,65700,0,43440,0,3782297230,63
o,1717733490.462691,172.16.1.2,31459,172.16.3.2,5101,2896,44888,2,65728,65728,6,6,4,1460,417187,1,1092658144,990000,82732,81284,65700,0,43440,0,3782297230,63
i,1717733490.481977,172.16.1.2,31459,172.16.3.2,5101,2896,42107,2,65728,65728,6,6,4,1460,417187,1,1092658144,990000,82732,81284,65700,0,44888,0,3782297230,63
o,1717733490.481984,172.16.1.2,31459,172.16.3.2,5101,29442,1448,2,65728,65728,6,6,4,1460,417187,1,1630577632,990000,82732,81284,65700,0,44888,0,3782297230,63
i,1717733490.531916,172.16.1.2,31459,172.16.3.2,5101,29442,1448,2,65728,65728,6,6,4,1460,417187,1,1630577632,990000,82732,81284,65700,0,44888,0,3782297230,63
o,1717733490.531934,172.16.1.2,31459,172.16.3.2,5101,29442,2896,2,65728,65728,6,6,4,1460,417187,1,1630577632,990000,82732,81284,65700,0,44888,0,3782297230,63
i,1717733490.562460,172.16.1.2,31459,172.16.3.2,5101,29442,2896,2,65728,65728,6,6,4,1460,417187,1,1630577632,990000,82732,81284,65700,0,44888,0,3782297230,63
o,1717733490.562478,172.16.1.2,31459,172.16.3.2,5101,29442,4344,2,65728,65728,6,6,4,1460,417187,1,1630577632,990000,82732,81284,65700,0,44888,0,3782297230,63
i,1717733490.582151,172.16.1.2,31459,172.16.3.2,5101,29442,4344,2,65728,65728,6,6,4,1460,417187,1,1630577632,990000,82732,81284,65700,0,44888,0,3782297230,63
i,1717733490.642698,172.16.1.2,31459,172.16.3.2,5101,29442,4344,2,65728,65728,6,6,4,1460,417187,1,1630577632,990000,82732,81284,65700,0,44888,0,3782297230,63
o,1717733490.642714,172.16.1.2,31459,172.16.3.2,5101,29442,5792,2,65728,65728,6,6,4,1460,417187,1,1630577632,990000,82732,81284,65700,0,44888,0,3782297230,63
i,1717733490.643147,172.16.1.2,31459,172.16.3.2,5101,29442,5792,2,65728,65728,6,6,4,1460,417187,1,1630577632,990000,82732,81284,65700,0,46336,0,3782297230,63
o,1717733490.643151,172.16.1.2,31459,172.16.3.2,5101,29442,7240,2,65728,65728,6,6,4,1460,417187,1,1630577632,990000,82732,81284,65700,0,46336,0,3782297230,63
i,1717733490.643247,172.16.1.2,31459,172.16.3.2,5101,29442,7240,2,65728,65728,6,6,4,1460,417187,1,1630577632,990000,82732,81284,65700,0,47784,0,3782297230,63
o,1717733490.643252,172.16.1.2,31459,172.16.3.2,5101,29442,7240,2,65728,65728,6,6,4,1460,417187,1,1630577632,990000,82732,81284,65700,0,47784,0,3782297230,63
i,1717733490.692262,172.16.1.2,31459,172.16.3.2,5101,29442,7240,2,65728,65728,6,6,4,1460,417187,1,1630577632,990000,82732,81284,65700,0,47784,0,3782297230,63
o,1717733490.692272,172.16.1.2,31459,172.16.3.2,5101,29442,8688,2,65728,65728,6,6,4,1460,417187,1,1630577632,990000,82732,81284,65700,0,47784,0,3782297230,63
i,1717733490.742144,172.16.1.2,31459,172.16.3.2,5101,29442,8688,2,65728,65728,6,6,4,1460,417187,1,1630577632,990000,82732,81284,65700,0,47784,0,3782297230,63
o,1717733490.742154,172.16.1.2,31459,172.16.3.2,5101,29442,10136,2,65728,65728,6,6,4,1460,417187,1,1630577632,990000,82732,81284,65700,0,47784,0,3782297230,63
i,1717733490.772147,172.16.1.2,31459,172.16.3.2,5101,29442,10136,2,65728,65728,6,6,4,1460,417187,1,1630577632,990000,82732,81284,65700,0,47784,0,3782297230,63
i,1717733490.792161,172.16.1.2,31459,172.16.3.2,5101,29442,11584,2,65728,65728,6,6,4,1460,417187,1,1613800416,990000,82732,81284,65700,0,47784,0,3782297230,63
o,1717733490.792169,172.16.1.2,31459,172.16.3.2,5101,29442,11584,6,65728,65728,6,6,4,1460,417187,1,1630577632,990000,82732,81284,65700,0,47784,0,3782297230,63
o,1717733490.792253,172.16.1.2,31459,172.16.3.2,5101,29442,11584,2,65728,65728,6,6,4,1460,417187,1,1630577632,990000,82732,81284,65700,0,47784,0,3782297230,63
i,1717733490.792328,172.16.1.2,31459,172.16.3.2,5101,29442,11584,2,65728,65728,6,6,4,1460,417187,1,1630577632,990000,82732,81284,65700,0,47784,0,3782297230,63
o,1717733490.792331,172.16.1.2,31459,172.16.3.2,5101,29442,14480,2,65728,65728,6,6,4,1460,417187,1,1630577632,990000,82732,81284,65700,0,47784,0,3782297230,63
o,1717733490.792404,172.16.1.2,31459,172.16.3.2,5101,29442,14480,2,65728,65728,6,6,4,1460,417187,1,1630577632,990000,82732,81284,65700,0,47784,0,3782297230,63
i,1717733490.822164,172.16.1.2,31459,172.16.3.2,5101,29442,14480,2,65728,65728,6,6,4,1460,417187,1,1630577632,990000,82732,81284,65700,0,47784,0,3782297230,63
i,1717733490.832583,172.16.1.2,31459,172.16.3.2,5101,29442,17376,2,65728,65728,6,6,4,1460,417187,1,1630577632,990000,82732,81284,65700,0,47784,0,3782297230,63
i,1717733490.862654,172.16.1.2,31459,172.16.3.2,5101,29442,17376,2,65728,65728,6,6,4,1460,417187,1,1630577632,990000,82732,81284,65700,0,47784,0,3782297230,63
