enable_time_secs=1716934747	enable_time_usecs=187456	siftrver=1.2.4	hz=100	tcp_rtt_scale=32	sysname=FreeBSD	sysver=1301000	ipmode=4
o,0x00000000,1716934747.187517,10.0.2.15,22,10.0.2.2,55836,1073725440,17298,0,65535,65700,0,0,4,1460,1,0,4,24,33580,44,65700,0,0,0,0,0
i,0x00000000,1716934747.187950,10.0.2.15,22,10.0.2.2,55836,1073725440,17298,0,65535,65700,0,0,4,1460,1,0,4,24,33580,44,65700,0,44,0,0,0
o,0x00000000,1716934747.188006,10.0.2.15,22,10.0.2.2,55836,1073725440,17342,0,65535,65700,0,0,4,1460,1,0,4,24,33580,36,65700,0,0,0,0,0
i,0x00000000,1716934747.188740,10.0.2.15,22,10.0.2.2,55836,1073725440,17342,0,65535,65700,0,0,4,1460,1,0,4,24,33580,36,65700,0,36,0,0,0
o,0x00000000,1716934747.188867,10.0.2.15,22,10.0.2.2,55836,1073725440,17378,0,65535,65700,0,0,4,1460,1,0,4,24,33580,36,65700,0,0,0,0,0
i,0x00000000,1716934747.189371,10.0.2.15,22,10.0.2.2,55836,1073725440,17378,0,65535,65700,0,0,4,1460,1,0,4,24,33580,36,65700,0,36,0,0,0
o,0x00000000,1716934747.189516,10.0.2.15,22,10.0.2.2,55836,1073725440,17414,0,65535,65700,0,0,4,1460,1,0,4,24,33580,176,65700,0,0,0,0,0
i,0x00000000,1716934747.189928,10.0.2.15,22,10.0.2.2,55836,1073725440,17414,0,65535,65700,0,0,4,1460,1,0,4,24,33580,176,65700,0,176,0,0,0
i,0x00000000,1716934747.191159,10.0.2.15,22,10.0.2.2,55836,1073725440,17590,0,65535,65700,0,0,4,1460,1,0,4,24,33580,0,65700,0,0,0,0,0
i,0x00000000,1716934747.191163,10.0.2.15,22,10.0.2.2,55836,1073725440,17590,0,65535,65700,0,0,4,1460,1,0,4,24,33580,0,65700,96,0,0,0,0
o,0x00000000,1716934747.191167,10.0.2.15,22,10.0.2.2,55836,1073725440,17590,0,65535,65604,0,0,5,1460,1,0,5,24,33580,0,65700,96,0,0,0,0
o,0x00000000,1716934747.191537,10.0.2.15,22,10.0.2.2,55836,1073725440,17590,0,65535,65604,0,0,8,1460,1,0,4,24,33580,0,65700,0,0,0,0,0
i,0x00000000,1716934747.192507,10.0.2.15,22,10.0.2.2,55836,1073725440,17590,0,65535,65604,0,0,8,1460,1,0,20,24,33580,0,65700,0,1,0,0,0
i,0x00000000,1716934749.358945,10.0.2.15,22,10.0.2.2,55843,1073725440,14600,0,65535,65700,0,0,4,1460,1,0,0,27,33580,0,65700,0,0,0,0,0
o,0x00000000,1716934749.365477,10.0.2.15,22,10.0.2.2,55843,1073725440,14600,0,65535,65700,0,0,4,1460,1,0,0,27,33580,38,65700,41,0,0,0,0
i,0x00000000,1716934749.366450,10.0.2.15,22,10.0.2.2,55843,1073725440,14600,0,65535,65700,0,0,4,1460,1,0,0,27,33580,38,65700,41,38,0,0,0
i,0x00000000,1716934749.367226,10.0.2.15,22,10.0.2.2,55843,1073725440,14638,0,65535,65700,0,0,4,1460,1,0,0,24,33580,0,65700,0,0,0,0,0
i,0x00000000,1716934749.367229,10.0.2.15,22,10.0.2.2,55843,1073725440,14638,0,65535,65700,0,0,4,1460,1,0,0,24,33580,0,65700,1460,0,0,0,0
o,0x00000000,1716934749.367233,10.0.2.15,22,10.0.2.2,55843,1073725440,14638,0,65535,65700,0,0,4,1460,1,0,1,24,33580,0,65700,1536,0,0,0,0
o,0x00000000,1716934749.367988,10.0.2.15,22,10.0.2.2,55843,1073725440,14638,0,65535,65700,0,0,4,1460,1,0,0,24,33580,1056,65700,1536,0,0,0,0
i,0x00000000,1716934749.368653,10.0.2.15,22,10.0.2.2,55843,1073725440,14638,0,65535,65700,0,0,4,1460,1,0,0,24,33580,1056,65700,1536,1056,0,0,0
i,0x00000000,1716934749.370385,10.0.2.15,22,10.0.2.2,55843,1073725440,15694,0,65535,65700,0,0,4,1460,1,0,0,24,33580,0,65700,0,0,0,0,0
o,0x00000000,1716934749.373061,10.0.2.15,22,10.0.2.2,55843,1073725440,15694,0,65535,65700,0,0,4,1460,1,0,0,24,33580,484,65700,0,0,0,0,0
i,0x00000000,1716934749.373876,10.0.2.15,22,10.0.2.2,55843,1073725440,15694,0,65535,65700,0,0,4,1460,1,0,0,24,33580,484,65700,0,484,0,0,0
i,0x00000000,1716934749.378664,10.0.2.15,22,10.0.2.2,55843,1073725440,16178,0,65535,65700,0,0,4,1460,1,0,0,24,33580,0,65700,0,0,0,0,0
i,0x00000000,1716934749.382779,10.0.2.15,22,10.0.2.2,55843,1073725440,16178,0,65535,65700,0,0,4,1460,1,0,0,24,33580,0,65700,0,0,0,0,0
o,0x00000000,1716934749.382784,10.0.2.15,22,10.0.2.2,55843,1073725440,16178,0,65535,65700,0,0,4,1460,1,0,1,24,33580,0,65700,44,0,0,0,0
o,0x00000000,1716934749.382922,10.0.2.15,22,10.0.2.2,55843,1073725440,16178,0,65535,65700,0,0,4,1460,1,0,0,24,33580,44,65700,0,0,0,0,0
i,0x00000000,1716934749.383575,10.0.2.15,22,10.0.2.2,55843,1073725440,16178,0,65535,65700,0,0,4,1460,1,0,0,24,33580,44,65700,0,44,0,0,0
i,0x00000000,1716934749.384366,10.0.2.15,22,10.0.2.2,55843,1073725440,16222,0,65535,65700,0,0,4,1460,1,0,0,24,33580,0,65700,0,0,0,0,0
o,0x00000000,1716934749.393867,10.0.2.15,22,10.0.2.2,55843,1073725440,16222,0,65535,65700,0,0,4,1460,1,0,0,24,33580,68,65700,0,0,0,0,0
i,0x00000000,1716934749.394369,10.0.2.15,22,10.0.2.2,55843,1073725440,16222,0,65535,65700,0,0,4,1460,1,0,0,24,33580,68,65700,0,68,0,0,0
i,0x00000000,1716934749.396816,10.0.2.15,22,10.0.2.2,55843,1073725440,16290,0,65535,65700,0,0,4,1460,1,0,0,24,33580,0,65700,0,0,0,0,0
o,0x00000000,1716934749.406217,10.0.2.15,22,10.0.2.2,55843,1073725440,16290,0,65535,65700,0,0,4,1460,1,0,0,24,33580,28,65700,0,0,0,0,0
i,0x00000000,1716934749.407183,10.0.2.15,22,10.0.2.2,55843,1073725440,16290,0,65535,65700,0,0,4,1460,1,0,0,24,33580,28,65700,0,28,0,0,0
i,0x00000000,1716934749.407795,10.0.2.15,22,10.0.2.2,55843,1073725440,16318,0,65535,65700,0,0,4,1460,1,0,0,24,33580,0,65700,0,0,0,0,0
o,0x00000000,1716934749.408436,10.0.2.15,22,10.0.2.2,55843,1073725440,16318,0,65535,65700,0,0,4,1460,1,0,0,24,33580,768,65700,112,0,0,0,0
i,0x00000000,1716934749.409167,10.0.2.15,22,10.0.2.2,55843,1073725440,16318,0,65535,65700,0,0,4,1460,1,0,0,24,33580,768,65700,112,768,0,0,0
o,0x00000000,1716934749.409271,10.0.2.15,22,10.0.2.2,55843,1073725440,17086,0,65535,65700,0,0,4,1460,1,0,0,24,33580,44,65700,0,0,0,0,0
i,0x00000000,1716934749.409836,10.0.2.15,22,10.0.2.2,55843,1073725440,17086,0,65535,65700,0,0,4,1460,1,0,0,24,33580,44,65700,0,44,0,0,0
i,0x00000000,1716934749.410455,10.0.2.15,22,10.0.2.2,55843,1073725440,17130,0,65535,65700,0,0,4,1460,1,0,0,24,33580,0,65700,0,0,0,0,0
o,0x00000000,1716934749.410912,10.0.2.15,22,10.0.2.2,55843,1073725440,17130,0,65535,65700,0,0,4,1460,1,0,4,24,33580,72,65700,0,0,0,0,0
i,0x00000000,1716934749.411597,10.0.2.15,22,10.0.2.2,55843,1073725440,17130,0,65535,65700,0,0,4,1460,1,0,4,24,33580,72,65700,0,72,0,0,0
o,0x00000000,1716934749.414744,10.0.2.15,22,10.0.2.2,55843,1073725440,17202,0,65535,65700,0,0,4,1460,1,0,4,24,33580,44,65700,0,0,0,0,0
i,0x00000000,1716934749.415308,10.0.2.15,22,10.0.2.2,55843,1073725440,17202,0,65535,65700,0,0,4,1460,1,0,4,24,33580,44,65700,0,44,0,0,0
o,0x00000000,1716934749.415725,10.0.2.15,22,10.0.2.2,55843,1073725440,17246,0,65535,65700,0,0,4,1460,1,0,4,24,33580,44,65700,0,0,0,0,0
i,0x00000000,1716934749.416749,10.0.2.15,22,10.0.2.2,55843,1073725440,17246,0,65535,65700,0,0,4,1460,1,0,4,24,33580,44,65700,0,44,0,0,0
o,0x00000000,1716934749.420343,10.0.2.15,22,10.0.2.2,55843,1073725440,17290,0,65535,65700,0,0,4,1460,1,0,4,24,33580,176,65700,0,0,0,0,0
i,0x00000000,1716934749.421089,10.0.2.15,22,10.0.2.2,55843,1073725440,17290,0,65535,65700,0,0,4,1460,1,0,4,24,33580,176,65700,0,176,0,0,0
i,0x00000000,1716934749.421436,10.0.2.15,22,10.0.2.2,55843,1073725440,17466,0,65535,65700,0,0,4,1460,1,0,4,24,33580,0,65700,0,0,0,0,0
i,0x00000000,1716934749.421438,10.0.2.15,22,10.0.2.2,55843,1073725440,17466,0,65535,65700,0,0,4,1460,1,0,4,24,33580,0,65700,36,0,0,0,0
o,0x00000000,1716934749.421440,10.0.2.15,22,10.0.2.2,55843,1073725440,17466,0,65535,65700,0,0,4,1460,1,0,5,24,33580,0,65700,96,0,0,0,0
i,0x00000000,1716934749.421513,10.0.2.15,22,10.0.2.2,55843,1073725440,17466,0,65535,65700,0,0,4,1460,1,0,4,24,33580,0,65700,96,0,0,0,0
o,0x00000000,1716934749.421516,10.0.2.15,22,10.0.2.2,55843,1073725440,17466,0,65535,65604,0,0,5,1460,1,0,7,24,33580,0,65700,96,0,0,0,0
o,0x00000000,1716934749.428764,10.0.2.15,22,10.0.2.2,55843,1073725440,17466,0,65535,65604,0,0,8,1460,1,0,4,24,33580,0,65700,0,0,0,0,0
i,0x00000000,1716934749.429437,10.0.2.15,22,10.0.2.2,55843,1073725440,17466,0,65535,65604,0,0,8,1460,1,0,20,24,33580,0,65700,0,1,0,0,0
i,0x00000000,1716934750.505108,10.0.2.15,22,10.0.2.2,55845,1073725440,14600,0,65535,65700,0,0,4,1460,1,0,0,27,33580,0,65700,0,0,0,0,0
o,0x00000000,1716934750.515633,10.0.2.15,22,10.0.2.2,55845,1073725440,14600,0,65535,65700,0,0,4,1460,1,0,0,27,33580,38,65700,41,0,0,0,0
i,0x00000000,1716934750.516624,10.0.2.15,22,10.0.2.2,55845,1073725440,14600,0,65535,65700,0,0,4,1460,1,0,0,27,33580,38,65700,41,38,0,0,0
i,0x00000000,1716934750.517222,10.0.2.15,22,10.0.2.2,55845,1073725440,14638,0,65535,65700,0,0,4,1460,1,0,0,24,33580,0,65700,0,0,0,0,0
i,0x00000000,1716934750.517225,10.0.2.15,22,10.0.2.2,55845,1073725440,14638,0,65535,65700,0,0,4,1460,1,0,0,24,33580,0,65700,1460,0,0,0,0
o,0x00000000,1716934750.517228,10.0.2.15,22,10.0.2.2,55845,1073725440,14638,0,65535,65700,0,0,4,1460,1,0,1,24,33580,0,65700,1536,0,0,0,0
o,0x00000000,1716934750.518381,10.0.2.15,22,10.0.2.2,55845,1073725440,14638,0,65535,65700,0,0,4,1460,1,0,0,24,33580,1056,65700,1536,0,0,0,0
i,0x00000000,1716934750.519825,10.0.2.15,22,10.0.2.2,55845,1073725440,14638,0,65535,65700,0,0,4,1460,1,0,0,24,33580,1056,65700,0,1056,0,0,0
i,0x00000000,1716934750.521265,10.0.2.15,22,10.0.2.2,55845,1073725440,15694,0,65535,65700,0,0,4,1460,1,0,0,24,33580,0,65700,0,0,0,0,0
o,0x00000000,1716934750.524208,10.0.2.15,22,10.0.2.2,55845,1073725440,15694,0,65535,65700,0,0,4,1460,1,0,0,24,33580,484,65700,0,0,0,0,0
i,0x00000000,1716934750.525100,10.0.2.15,22,10.0.2.2,55845,1073725440,15694,0,65535,65700,0,0,4,1460,1,0,0,24,33580,484,65700,0,484,0,0,0
i,0x00000000,1716934750.529603,10.0.2.15,22,10.0.2.2,55845,1073725440,16178,0,65535,65700,0,0,4,1460,1,0,0,24,33580,0,65700,0,0,0,0,0
i,0x00000000,1716934750.533760,10.0.2.15,22,10.0.2.2,55845,1073725440,16178,0,65535,65700,0,0,4,1460,1,0,0,24,33580,0,65700,0,0,0,0,0
o,0x00000000,1716934750.533765,10.0.2.15,22,10.0.2.2,55845,1073725440,16178,0,65535,65700,0,0,4,1460,1,0,1,24,33580,0,65700,44,0,0,0,0
o,0x00000000,1716934750.533907,10.0.2.15,22,10.0.2.2,55845,1073725440,16178,0,65535,65700,0,0,4,1460,1,0,0,24,33580,44,65700,0,0,0,0,0
i,0x00000000,1716934750.534688,10.0.2.15,22,10.0.2.2,55845,1073725440,16178,0,65535,65700,0,0,4,1460,1,0,0,24,33580,44,65700,0,44,0,0,0
i,0x00000000,1716934750.535009,10.0.2.15,22,10.0.2.2,55845,1073725440,16222,0,65535,65700,0,0,4,1460,1,0,0,24,33580,0,65700,0,0,0,0,0
o,0x00000000,1716934750.543877,10.0.2.15,22,10.0.2.2,55845,1073725440,16222,0,65535,65700,0,0,4,1460,1,0,0,24,33580,68,65700,0,0,0,0,0
i,0x00000000,1716934750.544520,10.0.2.15,22,10.0.2.2,55845,1073725440,16222,0,65535,65700,0,0,4,1460,1,0,0,24,33580,68,65700,0,68,0,0,0
i,0x00000000,1716934750.546982,10.0.2.15,22,10.0.2.2,55845,1073725440,16290,0,65535,65700,0,0,4,1460,1,0,0,24,33580,0,65700,0,0,0,0,0
o,0x00000000,1716934750.556429,10.0.2.15,22,10.0.2.2,55845,1073725440,16290,0,65535,65700,0,0,4,1460,1,0,0,24,33580,28,65700,0,0,0,0,0
i,0x00000000,1716934750.557116,10.0.2.15,22,10.0.2.2,55845,1073725440,16290,0,65535,65700,0,0,4,1460,1,0,0,24,33580,28,65700,0,28,0,0,0
i,0x00000000,1716934750.557676,10.0.2.15,22,10.0.2.2,55845,1073725440,16318,0,65535,65700,0,0,4,1460,1,0,0,24,33580,0,65700,0,0,0,0,0
o,0x00000000,1716934750.558298,10.0.2.15,22,10.0.2.2,55845,1073725440,16318,0,65535,65700,0,0,4,1460,1,0,0,24,33580,768,65700,112,0,0,0,0
i,0x00000000,1716934750.558994,10.0.2.15,22,10.0.2.2,55845,1073725440,16318,0,65535,65700,0,0,4,1460,1,0,0,24,33580,768,65700,112,768,0,0,0
o,0x00000000,1716934750.559138,10.0.2.15,22,10.0.2.2,55845,1073725440,17086,0,65535,65700,0,0,4,1460,1,0,0,24,33580,44,65700,0,0,0,0,0
i,0x00000000,1716934750.559787,10.0.2.15,22,10.0.2.2,55845,1073725440,17086,0,65535,65700,0,0,4,1460,1,0,0,24,33580,44,65700,0,44,0,0,0
i,0x00000000,1716934750.560170,10.0.2.15,22,10.0.2.2,55845,1073725440,17130,0,65535,65700,0,0,4,1460,1,0,0,24,33580,0,65700,0,0,0,0,0
o,0x00000000,1716934750.560556,10.0.2.15,22,10.0.2.2,55845,1073725440,17130,0,65535,65700,0,0,4,1460,1,0,4,24,33580,72,65700,0,0,0,0,0
i,0x00000000,1716934750.561583,10.0.2.15,22,10.0.2.2,55845,1073725440,17130,0,65535,65700,0,0,4,1460,1,0,4,24,33580,72,65700,0,72,0,0,0
i,0x00000000,1716934750.561609,10.0.2.15,22,10.0.2.2,55845,1073725440,17202,0,65535,65700,0,0,4,1460,1,0,4,24,33580,0,65700,0,0,0,0,0
o,0x00000000,1716934750.568623,172.16.1.2,24262,172.16.3.2,5101,1073725440,1073725440,0,0,0,0,0,2,536,0,1,672,100,32768,0,65536,0,0,0,0,0
o,0x00000000,1716934750.597334,10.0.2.15,22,10.0.2.2,55845,1073725440,17202,0,65535,65700,0,0,4,1460,1,0,5,24,33580,0,65700,0,0,0,0,0
i,0x00000000,1716934750.689357,172.16.1.2,24262,172.16.3.2,5101,1073725440,1073725440,0,0,0,0,0,2,536,0,1,672,100,32768,0,65536,0,1,0,0,0
o,0x00000000,1716934750.689376,172.16.1.2,24262,172.16.3.2,5101,22003,14480,0,65535,65700,6,6,4,1460,435,1,993,44,33580,0,65700,0,0,0,0,0
o,0x00000000,1716934750.689741,172.16.1.2,24262,172.16.3.2,5101,22003,14480,0,65535,65700,6,6,4,1460,435,1,996,44,33580,37,65700,0,0,0,0,0
i,0x00000000,1716934750.809545,172.16.1.2,24262,172.16.3.2,5101,22003,14480,0,65535,65700,6,6,4,1460,435,1,996,44,33580,37,65700,0,37,0,0,0
o,0x00000000,1716934750.809713,172.16.1.2,24262,172.16.3.2,5101,22003,14517,0,65728,65728,6,6,4,1460,429,1,996,43,33580,4,65700,0,0,0,0,0
o,0x00000000,1716934750.810067,172.16.1.2,24262,172.16.3.2,5101,22003,14517,0,65728,65728,6,6,4,1460,429,1,996,43,33580,128,65700,0,4,0,0,0
i,0x00000000,1716934750.930169,172.16.1.2,24262,172.16.3.2,5101,22003,14517,0,65728,65728,6,6,4,1460,429,1,996,43,33580,128,65700,0,128,0,0,0
i,0x00000000,1716934750.930201,172.16.1.2,24262,172.16.3.2,5101,22003,14645,0,65600,65728,6,6,4,1460,424,1,996,42,33580,0,65700,0,0,0,0,0
o,0x00000000,1716934750.930492,172.16.1.2,25456,172.16.3.2,5101,1073725440,1073725440,0,0,0,0,0,2,536,0,1,672,100,32768,0,65536,0,0,0,0,0
o,0x00000000,1716934750.967392,172.16.1.2,24262,172.16.3.2,5101,22003,14645,0,65728,65728,6,6,4,1460,424,1,997,42,33580,0,65700,0,0,0,0,0
i,0x00000000,1716934751.049970,172.16.1.2,25456,172.16.3.2,5101,1073725440,1073725440,0,0,0,0,0,2,536,0,1,672,100,32768,0,65536,0,1,0,0,0
o,0x00000000,1716934751.049989,172.16.1.2,25456,172.16.3.2,5101,22003,14480,0,65535,65700,6,6,4,1460,439,1,993,43,33580,0,65700,0,0,0,0,0
o,0x00000000,1716934751.050145,172.16.1.2,25456,172.16.3.2,5101,22003,14480,0,65535,65700,6,6,4,1460,439,1,992,43,33580,37,65700,0,0,0,0,0
i,0x00000000,1716934751.170362,172.16.1.2,24262,172.16.3.2,5101,22003,14645,0,65728,65728,6,6,4,1460,424,1,996,42,33580,0,65700,0,0,0,0,0
i,0x00000000,1716934751.170376,172.16.1.2,24262,172.16.3.2,5101,22003,14645,0,65728,65728,6,6,4,1460,424,1,996,42,33580,0,65700,1,0,0,0,0
o,0x00000000,1716934751.170381,172.16.1.2,24262,172.16.3.2,5101,22003,14645,0,65728,65728,6,6,4,1460,424,1,997,42,33580,0,65700,2,0,0,0,0
o,0x00000000,1716934751.170727,172.16.1.2,25456,172.16.3.2,5101,22003,14480,0,65535,65700,6,6,4,1460,439,1,992,43,33580,33580,65700,0,37,0,0,0
o,0x00000000,1716934751.171079,172.16.1.2,25456,172.16.3.2,5101,22003,14480,0,65535,65700,6,6,4,1460,439,1,992,43,33580,33580,65700,0,1485,0,0,0
o,0x00000000,1716934751.171407,172.16.1.2,25456,172.16.3.2,5101,22003,14480,0,65535,65700,6,6,4,1460,439,1,992,43,33580,33580,65700,0,2933,0,0,0
o,0x00000000,1716934751.171791,172.16.1.2,25456,172.16.3.2,5101,22003,14480,0,65535,65700,6,6,4,1460,439,1,992,43,33580,33580,65700,0,4381,0,0,0
o,0x00000000,1716934751.172137,172.16.1.2,25456,172.16.3.2,5101,22003,14480,0,65535,65700,6,6,4,1460,439,1,992,43,33580,33580,65700,0,5829,0,0,0
o,0x00000000,1716934751.172519,172.16.1.2,25456,172.16.3.2,5101,22003,14480,0,65535,65700,6,6,4,1460,439,1,992,43,33580,33580,65700,0,7277,0,0,0
o,0x00000000,1716934751.172865,172.16.1.2,25456,172.16.3.2,5101,22003,14480,0,65535,65700,6,6,4,1460,439,1,992,43,33580,33580,65700,0,8725,0,0,0
o,0x00000000,1716934751.173190,172.16.1.2,25456,172.16.3.2,5101,22003,14480,0,65535,65700,6,6,4,1460,439,1,992,43,33580,33580,65700,0,10173,0,0,0
o,0x00000000,1716934751.173531,172.16.1.2,25456,172.16.3.2,5101,22003,14480,0,65535,65700,6,6,4,1460,439,1,992,43,33580,33580,65700,0,11621,0,0,0
i,0x00000000,1716934751.199303,172.16.1.2,25456,172.16.3.2,5101,22003,14480,0,65535,65700,6,6,4,1460,439,1,992,43,33580,33580,65700,0,13069,0,0,0
o,0x00000000,1716934751.199313,172.16.1.2,25456,172.16.3.2,5101,22003,14517,0,65728,65728,6,6,4,1460,445,1,992,43,33580,33543,65700,0,13032,0,0,0
i,0x00000000,1716934751.409317,172.16.1.2,25456,172.16.3.2,5101,22003,14517,0,65728,65728,6,6,4,1460,445,1,992,43,33580,33543,65700,0,14480,0,0,0
o,0x00000000,1716934751.409340,172.16.1.2,25456,172.16.3.2,5101,22003,17413,0,64256,65728,6,6,4,1460,486,1,992,52,33580,30647,65700,0,11584,0,0,0
o,0x00000000,1716934751.409612,172.16.1.2,25456,172.16.3.2,5101,22003,17413,0,64256,65728,6,6,4,1460,486,1,992,52,33580,30647,65700,0,13032,0,0,0
o,0x00000000,1716934751.409850,172.16.1.2,25456,172.16.3.2,5101,22003,17413,0,64256,65728,6,6,4,1460,486,1,992,52,41772,30647,65700,0,14480,0,0,0
o,0x00000000,1716934751.410082,172.16.1.2,25456,172.16.3.2,5101,22003,17413,0,64256,65728,6,6,4,1460,486,1,992,52,41772,30647,65700,0,15928,0,0,0
i,0x00000000,1716934751.429335,172.16.1.2,25456,172.16.3.2,5101,22003,17413,0,64256,65728,6,6,4,1460,486,1,992,52,41772,41772,65700,0,17376,0,0,0
o,0x00000000,1716934751.429343,172.16.1.2,25456,172.16.3.2,5101,22003,20309,0,64256,65728,6,6,4,1460,526,1,992,59,41772,38876,65700,0,14480,0,0,0
o,0x00000000,1716934751.429608,172.16.1.2,25456,172.16.3.2,5101,22003,20309,0,64256,65728,6,6,4,1460,526,1,992,59,41772,38876,65700,0,15928,0,0,0
o,0x00000000,1716934751.429842,172.16.1.2,25456,172.16.3.2,5101,22003,20309,0,64256,65728,6,6,4,1460,526,1,992,59,41772,38876,65700,0,17376,0,0,0
o,0x00000000,1716934751.430071,172.16.1.2,25456,172.16.3.2,5101,22003,20309,0,64256,65728,6,6,4,1460,526,1,992,59,49964,38876,65700,0,18824,0,0,0
i,0x00000000,1716934751.459147,172.16.1.2,25456,172.16.3.2,5101,22003,20309,0,64256,65728,6,6,4,1460,526,1,992,59,49964,49964,65700,0,20272,0,0,0
o,0x00000000,1716934751.459161,172.16.1.2,25456,172.16.3.2,5101,22003,23205,0,64256,65728,6,6,4,1460,577,1,992,68,49964,47068,65700,0,17376,0,0,0
o,0x00000000,1716934751.459406,172.16.1.2,25456,172.16.3.2,5101,22003,23205,0,64256,65728,6,6,4,1460,577,1,992,68,49964,47068,65700,0,18824,0,0,0
o,0x00000000,1716934751.459642,172.16.1.2,25456,172.16.3.2,5101,22003,23205,0,64256,65728,6,6,4,1460,577,1,992,68,49964,47068,65700,0,20272,0,0,0
o,0x00000000,1716934751.459985,172.16.1.2,25456,172.16.3.2,5101,22003,23205,0,64256,65728,6,6,4,1460,577,1,992,68,49964,47068,65700,0,21720,0,0,0
i,0x00000000,1716934751.480270,172.16.1.2,25456,172.16.3.2,5101,22003,23205,0,64256,65728,6,6,4,1460,577,1,992,68,49964,49964,65700,0,23168,0,0,0
o,0x00000000,1716934751.480293,172.16.1.2,25456,172.16.3.2,5101,22003,23205,0,64256,65728,6,6,4,1460,629,1,992,75,49964,47068,65700,0,20272,0,0,0
o,0x00000000,1716934751.480620,172.16.1.2,25456,172.16.3.2,5101,22003,23205,0,64256,65728,6,6,4,1460,629,1,992,75,49964,47068,65700,0,21720,0,0,0
i,0x00000000,1716934751.509124,172.16.1.2,25456,172.16.3.2,5101,22003,23205,0,64256,65728,6,6,4,1460,629,1,992,75,49964,49964,65700,0,23168,0,0,0
o,0x00000000,1716934751.509160,172.16.1.2,25456,172.16.3.2,5101,22003,23205,0,64256,65728,6,6,4,1460,687,1,992,82,49964,47068,65700,0,20272,0,0,0
o,0x00000000,1716934751.509434,172.16.1.2,25456,172.16.3.2,5101,22003,23205,0,64256,65728,6,6,4,1460,687,1,992,82,49964,47068,65700,0,21720,0,0,0
i,0x00000000,1716934751.629910,172.16.1.2,25456,172.16.3.2,5101,22003,23205,0,64256,65728,6,6,4,1460,687,1,992,82,49964,49964,65700,0,23168,0,0,0
o,0x00000000,1716934751.629930,172.16.1.2,25456,172.16.3.2,5101,22003,23205,0,64256,65728,6,6,4,1460,690,1,992,73,49964,47068,65700,0,20272,0,0,0
o,0x00000000,1716934751.630190,172.16.1.2,25456,172.16.3.2,5101,22003,23205,0,64256,65728,6,6,4,1460,690,1,992,73,49964,47068,65700,0,21720,0,0,0
i,0x00000000,1716934751.708917,172.16.1.2,25456,172.16.3.2,5101,22003,23205,0,64256,65728,6,6,4,1460,690,1,992,73,49964,49964,65700,0,23168,0,0,0
o,0x00000000,1716934751.708942,172.16.1.2,25456,172.16.3.2,5101,22003,23205,0,65728,65728,6,6,4,1460,724,1,992,75,49964,48516,65700,0,21720,0,0,0
i,0x00000000,1716934751.739339,172.16.1.2,25456,172.16.3.2,5101,22003,23205,0,65728,65728,6,6,4,1460,724,1,992,75,49964,48516,65700,0,23168,0,0,0
o,0x00000000,1716934751.739353,172.16.1.2,25456,172.16.3.2,5101,22003,23205,0,64256,65728,6,6,4,1460,762,1,992,77,49964,45620,65700,0,20272,0,0,0
o,0x00000000,1716934751.739596,172.16.1.2,25456,172.16.3.2,5101,22003,23205,0,64256,65728,6,6,4,1460,762,1,992,77,49964,45620,65700,0,21720,0,0,0
i,0x00000000,1716934751.769277,172.16.1.2,25456,172.16.3.2,5101,22003,23205,0,64256,65728,6,6,4,1460,762,1,992,77,58156,58156,65700,0,23168,0,0,0
o,0x00000000,1716934751.769289,172.16.1.2,25456,172.16.3.2,5101,22003,23205,0,65728,65728,6,6,4,1460,803,1,992,80,58156,56708,65700,0,21720,0,0,0
i,0x00000000,1716934751.790013,172.16.1.2,25456,172.16.3.2,5101,22003,23205,0,65728,65728,6,6,4,1460,803,1,992,80,58156,56708,65700,0,23168,0,0,0
o,0x00000000,1716934751.790021,172.16.1.2,25456,172.16.3.2,5101,22003,23205,0,64256,65728,6,6,4,1460,847,1,992,84,58156,53812,65700,0,20272,0,0,0
o,0x00000000,1716934751.790271,172.16.1.2,25456,172.16.3.2,5101,22003,23205,0,64256,65728,6,6,4,1460,847,1,992,84,58156,53812,65700,0,21720,0,0,0
i,0x00000000,1716934751.818447,172.16.1.2,25456,172.16.3.2,5101,22003,23205,0,64256,65728,6,6,4,1460,847,1,992,84,58156,58156,65700,0,23168,0,0,0
o,0x00000000,1716934751.818459,172.16.1.2,25456,172.16.3.2,5101,22003,23205,0,64256,65728,6,6,4,1460,882,1,992,84,58156,55260,65700,0,20272,0,0,0
o,0x00000000,1716934751.818705,172.16.1.2,25456,172.16.3.2,5101,22003,23205,0,64256,65728,6,6,4,1460,882,1,992,84,58156,55260,65700,0,21720,0,0,0
i,0x00000000,1716934751.849733,172.16.1.2,25456,172.16.3.2,5101,22003,23205,0,64256,65728,6,6,4,1460,882,1,992,84,58156,58156,65700,0,23168,0,0,0
o,0x00000000,1716934751.849743,172.16.1.2,25456,172.16.3.2,5101,22003,23205,0,64256,65728,6,6,4,1460,924,1,992,87,58156,55260,65700,0,20272,0,0,0
o,0x00000000,1716934751.849981,172.16.1.2,25456,172.16.3.2,5101,22003,23205,0,64256,65728,6,6,4,1460,924,1,992,87,58156,55260,65700,0,21720,0,0,0
i,0x00000000,1716934751.879453,172.16.1.2,25456,172.16.3.2,5101,22003,23205,0,64256,65728,6,6,4,1460,924,1,992,87,58156,58156,65700,0,23168,0,0,0
o,0x00000000,1716934751.879460,172.16.1.2,25456,172.16.3.2,5101,22003,24665,0,65728,65728,6,6,4,1460,969,1,992,90,58156,56708,65700,0,21720,0,0,0
o,0x00000000,1716934751.879694,172.16.1.2,25456,172.16.3.2,5101,22003,24665,0,65728,65728,6,6,4,1460,969,1,992,90,58156,56708,65700,0,23168,0,0,0
i,0x00000000,1716934751.899219,172.16.1.2,25456,172.16.3.2,5101,22003,24665,0,65728,65728,6,6,4,1460,969,1,992,90,58156,56708,65700,0,24616,0,0,0
o,0x00000000,1716934751.899227,172.16.1.2,25456,172.16.3.2,5101,22003,24665,0,64256,65728,6,6,4,1460,1016,1,992,93,58156,53812,65700,0,21720,0,0,0
o,0x00000000,1716934751.899490,172.16.1.2,25456,172.16.3.2,5101,22003,24665,0,64256,65728,6,6,4,1460,1016,1,992,93,58156,53812,65700,0,23168,0,0,0
i,0x00000000,1716934751.949023,172.16.1.2,25456,172.16.3.2,5101,22003,24665,0,64256,65728,6,6,4,1460,1016,1,992,93,58156,58156,65700,0,24616,0,0,0
o,0x00000000,1716934751.949042,172.16.1.2,25456,172.16.3.2,5101,22003,24665,0,65728,65728,6,6,4,1460,1061,1,992,95,58156,56708,65700,0,23168,0,0,0
i,0x00000000,1716934752.009398,172.16.1.2,25456,172.16.3.2,5101,22003,24665,0,65728,65728,6,6,4,1460,1061,1,992,95,58156,56708,65700,0,24616,0,0,0
o,0x00000000,1716934752.009409,172.16.1.2,25456,172.16.3.2,5101,22003,24665,0,64256,65728,6,6,4,1460,1081,1,992,91,58156,53812,65700,0,21720,0,0,0
o,0x00000000,1716934752.009678,172.16.1.2,25456,172.16.3.2,5101,22003,24665,0,64256,65728,6,6,4,1460,1081,1,992,91,58156,53812,65700,0,23168,0,0,0
i,0x00000000,1716934752.098898,172.16.1.2,25456,172.16.3.2,5101,22003,24665,0,64256,65728,6,6,4,1460,1081,1,992,91,58156,58156,65700,0,24616,0,0,0
o,0x00000000,1716934752.098978,172.16.1.2,25456,172.16.3.2,5101,22003,24665,0,65728,65728,6,6,4,1460,1098,1,992,86,58156,56708,65700,0,23168,0,0,0
i,0x00000000,1716934752.119091,172.16.1.2,25456,172.16.3.2,5101,22003,24665,0,65728,65728,6,6,4,1460,1098,1,992,86,58156,56708,65700,0,24616,0,0,0
o,0x00000000,1716934752.119302,172.16.1.2,25456,172.16.3.2,5101,22003,26064,0,65728,65728,6,6,4,1460,1098,1,992,86,58156,56708,65700,0,24616,0,0,0
i,0x00000000,1716934752.119662,172.16.1.2,25456,172.16.3.2,5101,22003,24665,0,65728,65728,6,6,4,1460,1098,1,992,86,58156,56708,65700,0,26064,0,0,0
o,0x00000000,1716934752.119666,172.16.1.2,25456,172.16.3.2,5101,22003,27512,0,65728,65728,6,6,4,1460,1098,1,992,86,58156,56708,65700,0,26064,0,0,0
i,0x00000000,1716934752.169537,172.16.1.2,25456,172.16.3.2,5101,22003,24665,0,65728,65728,6,6,4,1460,1098,1,992,86,58156,56708,65700,0,27512,0,0,0
o,0x00000000,1716934752.169557,172.16.1.2,25456,172.16.3.2,5101,11584,1448,0,65728,65728,6,6,4,1460,1098,1,537920480,86,58156,56708,65700,0,27512,0,0,0
i,0x00000000,1716934752.169801,172.16.1.2,25456,172.16.3.2,5101,11584,1448,0,65728,65728,6,6,4,1460,1098,1,537920480,86,58156,56708,65700,0,27512,0,0,0
i,0x00000000,1716934752.199233,172.16.1.2,25456,172.16.3.2,5101,11584,1448,0,65728,65728,6,6,4,1460,1098,1,537920480,86,58156,56708,65700,0,27512,0,0,0
o,0x00000000,1716934752.199254,172.16.1.2,25456,172.16.3.2,5101,11584,2896,0,65728,65728,6,6,4,1460,1098,1,537920480,86,58156,56708,65700,0,27512,0,0,0
i,0x00000000,1716934752.229722,172.16.1.2,25456,172.16.3.2,5101,11584,2896,0,65728,65728,6,6,4,1460,1098,1,537920480,86,58156,56708,65700,0,28960,0,0,0
i,0x00000000,1716934752.229729,172.16.1.2,25456,172.16.3.2,5101,11584,2896,0,65728,65728,6,6,4,1460,1098,1,537920480,86,58156,56708,65700,0,28960,0,0,0
i,0x00000000,1716934752.259334,172.16.1.2,25456,172.16.3.2,5101,11584,2896,0,65728,65728,6,6,4,1460,1098,1,537920480,86,58156,56708,65700,0,28960,0,0,0
o,0x00000000,1716934752.259349,172.16.1.2,25456,172.16.3.2,5101,11584,4344,0,65728,65728,6,6,4,1460,1098,1,537920480,86,58156,56708,65700,0,28960,0,0,0
i,0x00000000,1716934752.279816,172.16.1.2,25456,172.16.3.2,5101,11584,4344,0,65728,65728,6,6,4,1460,1098,1,537920480,86,58156,56708,65700,0,28960,0,0,0
i,0x00000000,1716934752.279821,172.16.1.2,25456,172.16.3.2,5101,11584,4344,0,65728,65728,6,6,4,1460,1098,1,537920480,86,58156,56708,65700,0,28960,0,0,0
o,0x00000000,1716934752.279825,172.16.1.2,25456,172.16.3.2,5101,11584,5792,0,65728,65728,6,6,4,1460,1098,1,537920480,86,58156,56708,65700,0,28960,0,0,0
i,0x00000000,1716934752.309611,172.16.1.2,25456,172.16.3.2,5101,11584,5792,0,65728,65728,6,6,4,1460,1098,1,537920480,86,58156,56708,65700,0,30408,0,0,0
i,0x00000000,1716934752.328697,172.16.1.2,25456,172.16.3.2,5101,11584,5792,0,65728,65728,6,6,4,1460,1098,1,537920480,86,58156,56708,65700,0,30408,0,0,0
o,0x00000000,1716934752.328706,172.16.1.2,25456,172.16.3.2,5101,11584,7240,0,65728,65728,6,6,4,1460,1098,1,537920480,86,58156,56708,65700,0,30408,0,0,0
i,0x00000000,1716934752.359465,172.16.1.2,25456,172.16.3.2,5101,11584,7240,0,65728,65728,6,6,4,1460,1098,1,537920480,86,58156,56708,65700,0,31856,0,0,0
i,0x00000000,1716934752.398999,172.16.1.2,25456,172.16.3.2,5101,11584,7240,0,65728,65728,6,6,4,1460,1098,1,537920480,86,58156,56708,65700,0,31856,0,0,0
i,0x00000000,1716934752.399007,172.16.1.2,25456,172.16.3.2,5101,11584,7240,0,65728,65728,6,6,4,1460,1098,1,537920480,86,58156,56708,65700,0,31856,0,0,0
o,0x00000000,1716934752.399012,172.16.1.2,25456,172.16.3.2,5101,11584,8688,0,65728,65728,6,6,4,1460,1098,1,537920480,86,58156,56708,65700,0,31856,0,0,0
i,0x00000000,1716934752.449398,172.16.1.2,25456,172.16.3.2,5101,11584,8688,0,65728,65728,6,6,4,1460,1098,1,537920480,86,58156,56708,65700,0,33304,0,0,0
o,0x00000000,1716934752.449414,172.16.1.2,25456,172.16.3.2,5101,11584,11584,0,65728,65728,6,6,4,1460,1098,1,537920480,86,58156,56708,65700,0,33304,0,0,0
o,0x00000000,1716934752.449684,172.16.1.2,25456,172.16.3.2,5101,11584,11584,0,65728,65728,6,6,4,1460,1098,1,537920480,86,58156,56708,65700,0,33304,0,0,0
i,0x00000000,1716934752.449972,172.16.1.2,25456,172.16.3.2,5101,11584,11584,0,65728,65728,6,6,4,1460,1098,1,537920480,86,58156,56708,65700,0,34752,0,0,0
o,0x00000000,1716934752.449976,172.16.1.2,25456,172.16.3.2,5101,11584,11584,0,65728,65728,6,6,4,1460,1098,1,537920481,86,58156,56708,65700,0,34752,0,0,0
i,0x00000000,1716934752.470097,172.16.1.2,25456,172.16.3.2,5101,11584,11584,0,54144,65728,6,6,4,1460,1073,1,537920480,84,58156,58156,65700,0,24616,0,0,0
o,0x00000000,1716934752.470106,172.16.1.2,25456,172.16.3.2,5101,11584,11584,0,54144,65728,6,6,4,1460,1073,1,537920481,84,58156,58156,65700,0,24616,0,0,0
i,0x00000000,1716934752.489881,172.16.1.2,25456,172.16.3.2,5101,11584,11584,0,52672,65728,6,6,4,1460,1023,1,537920480,87,58156,58156,65700,0,13032,0,0,0
o,0x00000000,1716934752.489892,172.16.1.2,25456,172.16.3.2,5101,11584,14480,0,52672,65728,6,6,4,1460,1023,1,537920480,87,58156,58156,65700,0,13032,0,0,0
o,0x00000000,1716934752.490158,172.16.1.2,25456,172.16.3.2,5101,11584,14480,0,52672,65728,6,6,4,1460,1023,1,537920480,87,58156,58156,65700,0,14480,0,0,0
i,0x00000000,1716934752.499001,172.16.1.2,25456,172.16.3.2,5101,11584,14480,0,52672,65728,6,6,4,1460,1023,1,537920480,87,58156,58156,65700,0,15928,0,0,0
o,0x00000000,1716934752.499006,172.16.1.2,25456,172.16.3.2,5101,11584,15928,0,52672,65728,6,6,4,1460,1023,1,537920480,87,58156,58156,65700,0,15928,0,0,0
i,0x00000000,1716934752.549829,172.16.1.2,25456,172.16.3.2,5101,11584,15928,0,52672,65728,6,6,4,1460,1023,1,537920480,87,58156,58156,65700,0,17376,0,0,0
o,0x00000000,1716934752.549837,172.16.1.2,25456,172.16.3.2,5101,11584,17376,0,52672,65728,6,6,4,1460,1023,1,537920480,87,58156,58156,65700,0,17376,0,0,0
i,0x00000000,1716934752.609153,172.16.1.2,25456,172.16.3.2,5101,11584,17376,0,52672,65728,6,6,4,1460,1023,1,537920480,87,58156,58156,65700,0,18824,0,0,0
i,0x00000000,1716934752.639092,172.16.1.2,25456,172.16.3.2,5101,11584,11584,0,62848,65728,6,6,4,1460,960,1,992,92,58156,58156,65700,0,15928,0,0,0
i,0x00000000,1716934752.659142,172.16.1.2,25456,172.16.3.2,5101,11584,11584,0,62848,65728,6,6,4,1460,960,1,992,92,58156,58156,65700,0,15928,0,0,0
o,0x00000000,1716934752.659159,172.16.1.2,25456,172.16.3.2,5101,5792,1448,0,62848,65728,6,6,4,1460,960,1,537920480,92,58156,58156,65700,0,15928,0,0,0
i,0x00000000,1716934752.679835,172.16.1.2,25456,172.16.3.2,5101,5792,1448,0,62848,65728,6,6,4,1460,960,1,537920480,92,58156,58156,65700,0,15928,0,0,0
o,0x00000000,1716934752.679852,172.16.1.2,25456,172.16.3.2,5101,5792,2896,0,62848,65728,6,6,4,1460,960,1,537920480,92,58156,58156,65700,0,15928,0,0,0
i,0x00000000,1716934752.679967,172.16.1.2,25456,172.16.3.2,5101,5792,2896,0,62848,65728,6,6,4,1460,960,1,537920480,92,58156,58156,65700,0,17376,0,0,0
i,0x00000000,1716934752.709397,172.16.1.2,25456,172.16.3.2,5101,5792,2896,0,62848,65728,6,6,4,1460,960,1,537920480,92,58156,58156,65700,0,17376,0,0,0
i,0x00000000,1716934752.709407,172.16.1.2,25456,172.16.3.2,5101,5792,2896,0,62848,65728,6,6,4,1460,960,1,537920480,92,58156,58156,65700,0,17376,0,0,0
o,0x00000000,1716934752.709414,172.16.1.2,25456,172.16.3.2,5101,5792,4344,0,62848,65728,6,6,4,1460,960,1,537920480,92,58156,58156,65700,0,17376,0,0,0
i,0x00000000,1716934752.729469,172.16.1.2,25456,172.16.3.2,5101,5792,4344,0,62848,65728,6,6,4,1460,960,1,537920480,92,58156,58156,65700,0,18824,0,0,0
o,0x00000000,1716934752.729542,172.16.1.2,25456,172.16.3.2,5101,5792,5792,0,62848,65728,6,6,4,1460,960,1,537920480,92,58156,58156,65700,0,18824,0,0,0
i,0x00000000,1716934752.809001,172.16.1.2,25456,172.16.3.2,5101,5792,5792,0,62848,65728,6,6,4,1460,960,1,537920480,92,58156,58156,65700,0,20272,0,0,0
o,0x00000000,1716934752.809025,172.16.1.2,25456,172.16.3.2,5101,5792,5804,0,49856,65728,6,6,4,1460,900,1,992,95,58156,42228,65700,0,4344,0,0,0
i,0x00000000,1716934752.809362,172.16.1.2,25456,172.16.3.2,5101,5792,5804,0,49856,65728,6,6,4,1460,900,1,992,95,58156,42228,65700,0,5792,0,0,0
o,0x00000000,1716934752.809367,172.16.1.2,25456,172.16.3.2,5101,5792,7264,0,65728,65728,6,6,4,1460,836,1,992,97,58156,40780,65700,0,4344,0,0,0
o,0x00000000,1716934752.809596,172.16.1.2,25456,172.16.3.2,5101,5792,7264,0,65728,65728,6,6,4,1460,836,1,992,97,58156,40780,65700,0,5792,0,0,0
i,0x00000000,1716934752.868987,172.16.1.2,25456,172.16.3.2,5101,5792,7264,0,65728,65728,6,6,4,1460,836,1,992,97,58156,58156,65700,0,7240,0,0,0
o,0x00000000,1716934752.868994,172.16.1.2,25456,172.16.3.2,5101,5792,8724,0,64256,65728,6,6,4,1460,792,1,992,94,58156,55260,65700,0,4344,0,0,0
o,0x00000000,1716934752.869237,172.16.1.2,25456,172.16.3.2,5101,5792,8724,0,64256,65728,6,6,4,1460,792,1,992,94,58156,55260,65700,0,5792,0,0,0
o,0x00000000,1716934752.869571,172.16.1.2,25456,172.16.3.2,5101,5792,8724,0,64256,65728,6,6,4,1460,792,1,992,94,58156,55260,65700,0,7240,0,0,0
i,0x00000000,1716934752.969952,172.16.1.2,25456,172.16.3.2,5101,5792,8724,0,64256,65728,6,6,4,1460,792,1,992,94,58156,58156,65700,0,8688,0,0,0
o,0x00000000,1716934752.969970,172.16.1.2,25456,172.16.3.2,5101,5792,8724,0,64256,65728,6,6,4,1460,757,1,992,89,58156,55260,65700,0,5792,0,0,0
o,0x00000000,1716934752.970225,172.16.1.2,25456,172.16.3.2,5101,5792,8724,0,64256,65728,6,6,4,1460,757,1,992,89,58156,55260,65700,0,7240,0,0,0
i,0x00000000,1716934752.999302,172.16.1.2,25456,172.16.3.2,5101,5792,8724,0,64256,65728,6,6,4,1460,757,1,992,89,58156,58156,65700,0,8688,0,0,0
o,0x00000000,1716934752.999315,172.16.1.2,25456,172.16.3.2,5101,5792,8724,0,65728,65728,6,6,4,1460,739,1,992,82,58156,56708,65700,0,7240,0,0,0
i,0x00000000,1716934753.019224,172.16.1.2,25456,172.16.3.2,5101,5792,8724,0,65728,65728,6,6,4,1460,739,1,992,82,58156,56708,65700,0,8688,0,0,0
o,0x00000000,1716934753.019237,172.16.1.2,25456,172.16.3.2,5101,5792,8724,0,64256,65728,6,6,4,1460,703,1,992,80,58156,53812,65700,0,5792,0,0,0
o,0x00000000,1716934753.019588,172.16.1.2,25456,172.16.3.2,5101,5792,8724,0,64256,65728,6,6,4,1460,703,1,992,80,58156,53812,65700,0,7240,0,0,0
i,0x00000000,1716934753.068808,172.16.1.2,25456,172.16.3.2,5101,5792,8724,0,64256,65728,6,6,4,1460,703,1,992,80,58156,58156,65700,0,8688,0,0,0
o,0x00000000,1716934753.068815,172.16.1.2,25456,172.16.3.2,5101,5792,10184,0,65728,65728,6,6,4,1460,696,1,992,72,58156,56708,65700,0,7240,0,0,0
o,0x00000000,1716934753.069050,172.16.1.2,25456,172.16.3.2,5101,5792,10184,0,65728,65728,6,6,4,1460,696,1,992,72,58156,56708,65700,0,8688,0,0,0
i,0x00000000,1716934753.118624,172.16.1.2,25456,172.16.3.2,5101,5792,10184,0,65728,65728,6,6,4,1460,696,1,992,72,58156,56708,65700,0,10136,0,0,0
o,0x00000000,1716934753.118638,172.16.1.2,25456,172.16.3.2,5101,5792,10184,0,64256,65728,6,6,4,1460,665,1,992,71,58156,53812,65700,0,7240,0,0,0
o,0x00000000,1716934753.118913,172.16.1.2,25456,172.16.3.2,5101,5792,10184,0,64256,65728,6,6,4,1460,665,1,992,71,58156,53812,65700,0,8688,0,0,0
i,0x00000000,1716934753.169585,172.16.1.2,25456,172.16.3.2,5101,5792,10184,0,64256,65728,6,6,4,1460,665,1,992,71,58156,58156,65700,0,10136,0,0,0
o,0x00000000,1716934753.169602,172.16.1.2,25456,172.16.3.2,5101,5792,10184,0,64256,65728,6,6,4,1460,646,1,992,68,58156,55260,65700,0,7240,0,0,0
o,0x00000000,1716934753.169853,172.16.1.2,25456,172.16.3.2,5101,5792,10184,0,64256,65728,6,6,4,1460,646,1,992,68,58156,55260,65700,0,8688,0,0,0
i,0x00000000,1716934753.218354,172.16.1.2,25456,172.16.3.2,5101,5792,10184,0,64256,65728,6,6,4,1460,646,1,992,68,58156,58156,65700,0,10136,0,0,0
o,0x00000000,1716934753.218364,172.16.1.2,25456,172.16.3.2,5101,5792,10184,0,64256,65728,6,6,4,1460,646,1,992,61,58156,55260,65700,0,7240,0,0,0
o,0x00000000,1716934753.218602,172.16.1.2,25456,172.16.3.2,5101,5792,10184,0,64256,65728,6,6,4,1460,646,1,992,61,58156,55260,65700,0,8688,0,0,0
i,0x00000000,1716934753.258420,172.16.1.2,25456,172.16.3.2,5101,5792,10184,0,64256,65728,6,6,4,1460,646,1,992,61,58156,58156,65700,0,10136,0,0,0
o,0x00000000,1716934753.258434,172.16.1.2,25456,172.16.3.2,5101,5792,11644,0,64256,65728,6,6,4,1460,642,1,992,56,58156,55260,65700,0,7240,0,0,0
o,0x00000000,1716934753.258677,172.16.1.2,25456,172.16.3.2,5101,5792,11644,0,64256,65728,6,6,4,1460,642,1,992,56,58156,55260,65700,0,8688,0,0,0
o,0x00000000,1716934753.258949,172.16.1.2,25456,172.16.3.2,5101,5792,11644,0,64256,65728,6,6,4,1460,642,1,992,56,58156,55260,65700,0,10136,0,0,0
i,0x00000000,1716934753.309134,172.16.1.2,25456,172.16.3.2,5101,5792,11644,0,64256,65728,6,6,4,1460,642,1,992,56,58156,58156,65700,0,11584,0,0,0
o,0x00000000,1716934753.309152,172.16.1.2,25456,172.16.3.2,5101,5792,11644,0,64256,65728,6,6,4,1460,638,1,992,53,58156,55260,65700,0,8688,0,0,0
o,0x00000000,1716934753.309406,172.16.1.2,25456,172.16.3.2,5101,5792,11644,0,64256,65728,6,6,4,1460,638,1,992,53,58156,55260,65700,0,10136,0,0,0
i,0x00000000,1716934753.359200,172.16.1.2,25456,172.16.3.2,5101,5792,11644,0,64256,65728,6,6,4,1460,638,1,992,53,58156,58156,65700,0,11584,0,0,0
o,0x00000000,1716934753.359248,172.16.1.2,25456,172.16.3.2,5101,5792,11644,0,64256,65728,6,6,4,1460,635,1,992,51,58156,55260,65700,0,8688,0,0,0
o,0x00000000,1716934753.359544,172.16.1.2,25456,172.16.3.2,5101,5792,11644,0,64256,65728,6,6,4,1460,635,1,992,51,58156,55260,65700,0,10136,0,0,0
i,0x00000000,1716934753.418310,172.16.1.2,25456,172.16.3.2,5101,5792,11644,0,64256,65728,6,6,4,1460,635,1,992,51,58156,58156,65700,0,11584,0,0,0
o,0x00000000,1716934753.418325,172.16.1.2,25456,172.16.3.2,5101,5792,11644,0,64256,65728,6,6,4,1460,636,1,992,48,58156,55260,65700,0,8688,0,0,0
o,0x00000000,1716934753.418566,172.16.1.2,25456,172.16.3.2,5101,5792,11644,0,64256,65728,6,6,4,1460,636,1,992,48,58156,55260,65700,0,10136,0,0,0
i,0x00000000,1716934753.478419,172.16.1.2,25456,172.16.3.2,5101,5792,11644,0,64256,65728,6,6,4,1460,636,1,992,48,58156,58156,65700,0,11584,0,0,0
o,0x00000000,1716934753.478434,172.16.1.2,25456,172.16.3.2,5101,5792,13104,0,64256,65728,6,6,4,1460,645,1,992,49,58156,55260,65700,0,8688,0,0,0
o,0x00000000,1716934753.478676,172.16.1.2,25456,172.16.3.2,5101,5792,13104,0,64256,65728,6,6,4,1460,645,1,992,49,58156,55260,65700,0,10136,0,0,0
o,0x00000000,1716934753.478908,172.16.1.2,25456,172.16.3.2,5101,5792,13104,0,64256,65728,6,6,4,1460,645,1,992,49,58156,55260,65700,0,11584,0,0,0
i,0x00000000,1716934753.529219,172.16.1.2,25456,172.16.3.2,5101,5792,13104,0,64256,65728,6,6,4,1460,645,1,992,49,58156,58156,65700,0,13032,0,0,0
o,0x00000000,1716934753.529231,172.16.1.2,25456,172.16.3.2,5101,5792,13104,0,64256,65728,6,6,4,1460,653,1,992,49,58156,55260,65700,0,10136,0,0,0
o,0x00000000,1716934753.529471,172.16.1.2,25456,172.16.3.2,5101,5792,13104,0,64256,65728,6,6,4,1460,653,1,992,49,58156,55260,65700,0,11584,0,0,0
i,0x00000000,1716934753.558810,172.16.1.2,25456,172.16.3.2,5101,5792,13104,0,64256,65728,6,6,4,1460,653,1,992,49,58156,58156,65700,0,13032,0,0,0
o,0x00000000,1716934753.558819,172.16.1.2,25456,172.16.3.2,5101,5792,13104,0,65728,65728,6,6,4,1460,652,1,992,47,58156,56708,65700,0,11584,0,0,0
i,0x00000000,1716934753.588488,172.16.1.2,25456,172.16.3.2,5101,5792,13104,0,65728,65728,6,6,4,1460,652,1,992,47,58156,56708,65700,0,13032,0,0,0
o,0x00000000,1716934753.588495,172.16.1.2,25456,172.16.3.2,5101,5792,13104,0,64256,65728,6,6,4,1460,663,1,992,48,58156,53812,65700,0,10136,0,0,0
o,0x00000000,1716934753.588730,172.16.1.2,25456,172.16.3.2,5101,5792,13104,0,64256,65728,6,6,4,1460,663,1,992,48,58156,53812,65700,0,11584,0,0,0
i,0x00000000,1716934753.638818,172.16.1.2,25456,172.16.3.2,5101,5792,13104,0,64256,65728,6,6,4,1460,663,1,992,48,58156,58156,65700,0,13032,0,0,0
o,0x00000000,1716934753.638827,172.16.1.2,25456,172.16.3.2,5101,5792,13104,0,64256,65728,6,6,4,1460,665,1,992,47,58156,55260,65700,0,10136,0,0,0
o,0x00000000,1716934753.639064,172.16.1.2,25456,172.16.3.2,5101,5792,13104,0,64256,65728,6,6,4,1460,665,1,992,47,58156,55260,65700,0,11584,0,0,0
i,0x00000000,1716934753.689039,172.16.1.2,25456,172.16.3.2,5101,5792,13104,0,64256,65728,6,6,4,1460,665,1,992,47,58156,58156,65700,0,13032,0,0,0
o,0x00000000,1716934753.689056,172.16.1.2,25456,172.16.3.2,5101,5792,14564,0,64256,65728,6,6,4,1460,662,1,992,46,58156,55260,65700,0,10136,0,0,0
o,0x00000000,1716934753.689364,172.16.1.2,25456,172.16.3.2,5101,5792,14564,0,64256,65728,6,6,4,1460,662,1,992,46,58156,55260,65700,0,11584,0,0,0
o,0x00000000,1716934753.689597,172.16.1.2,25456,172.16.3.2,5101,5792,14564,0,64256,65728,6,6,4,1460,662,1,992,46,58156,55260,65700,0,13032,0,0,0
i,0x00000000,1716934753.749034,172.16.1.2,25456,172.16.3.2,5101,5792,14564,0,64256,65728,6,6,4,1460,662,1,992,46,58156,58156,65700,0,14480,0,0,0
o,0x00000000,1716934753.749045,172.16.1.2,25456,172.16.3.2,5101,5792,14564,0,64256,65728,6,6,4,1460,668,1,992,46,58156,55260,65700,0,11584,0,0,0
o,0x00000000,1716934753.749351,172.16.1.2,25456,172.16.3.2,5101,5792,14564,0,64256,65728,6,6,4,1460,668,1,992,46,58156,55260,65700,0,13032,0,0,0
i,0x00000000,1716934753.798909,172.16.1.2,25456,172.16.3.2,5101,5792,14564,0,64256,65728,6,6,4,1460,668,1,992,46,58156,58156,65700,0,14480,0,0,0
o,0x00000000,1716934753.798918,172.16.1.2,25456,172.16.3.2,5101,5792,14564,0,65728,65728,6,6,4,1460,681,1,992,49,58156,56708,65700,0,13032,0,0,0
i,0x00000000,1716934753.809082,172.16.1.2,25456,172.16.3.2,5101,5792,14564,0,65728,65728,6,6,4,1460,681,1,992,49,58156,56708,65700,0,14480,0,0,0
o,0x00000000,1716934753.809089,172.16.1.2,25456,172.16.3.2,5101,5792,14564,0,64256,65728,6,6,4,1460,680,1,992,47,58156,53812,65700,0,11584,0,0,0
o,0x00000000,1716934753.809374,172.16.1.2,25456,172.16.3.2,5101,5792,14564,0,64256,65728,6,6,4,1460,680,1,992,47,58156,53812,65700,0,13032,0,0,0
i,0x00000000,1716934753.879970,172.16.1.2,25456,172.16.3.2,5101,5792,14564,0,64256,65728,6,6,4,1460,680,1,992,47,58156,58156,65700,0,14480,0,0,0
o,0x00000000,1716934753.879978,172.16.1.2,25456,172.16.3.2,5101,5792,14564,0,64256,65728,6,6,4,1460,691,1,992,49,58156,55260,65700,0,11584,0,0,0
o,0x00000000,1716934753.880219,172.16.1.2,25456,172.16.3.2,5101,5792,14564,0,64256,65728,6,6,4,1460,691,1,992,49,58156,55260,65700,0,13032,0,0,0
i,0x00000000,1716934753.919305,172.16.1.2,25456,172.16.3.2,5101,5792,14564,0,64256,65728,6,6,4,1460,691,1,992,49,58156,58156,65700,0,14480,0,0,0
o,0x00000000,1716934753.919318,172.16.1.2,25456,172.16.3.2,5101,5792,16024,0,64256,65728,6,6,4,1460,697,1,992,49,58156,55260,65700,0,11584,0,0,0
o,0x00000000,1716934753.919585,172.16.1.2,25456,172.16.3.2,5101,5792,16024,0,64256,65728,6,6,4,1460,697,1,992,49,58156,55260,65700,0,13032,0,0,0
o,0x00000000,1716934753.919816,172.16.1.2,25456,172.16.3.2,5101,5792,16024,0,64256,65728,6,6,4,1460,697,1,992,49,58156,55260,65700,0,14480,0,0,0
i,0x00000000,1716934753.969266,172.16.1.2,25456,172.16.3.2,5101,5792,16024,0,64256,65728,6,6,4,1460,697,1,992,49,58156,58156,65700,0,15928,0,0,0
o,0x00000000,1716934753.969275,172.16.1.2,25456,172.16.3.2,5101,5792,16024,0,65728,65728,6,6,4,1460,722,1,992,54,58156,56708,65700,0,14480,0,0,0
i,0x00000000,1716934753.998460,172.16.1.2,25456,172.16.3.2,5101,5792,16024,0,65728,65728,6,6,4,1460,722,1,992,54,58156,56708,65700,0,15928,0,0,0
o,0x00000000,1716934753.998467,172.16.1.2,25456,172.16.3.2,5101,5792,16024,0,64256,65728,6,6,4,1460,732,1,992,54,58156,53812,65700,0,13032,0,0,0
o,0x00000000,1716934753.998761,172.16.1.2,25456,172.16.3.2,5101,5792,16024,0,64256,65728,6,6,4,1460,732,1,992,54,58156,53812,65700,0,14480,0,0,0
i,0x00000000,1716934754.049330,172.16.1.2,25456,172.16.3.2,5101,5792,16024,0,64256,65728,6,6,4,1460,732,1,992,54,58156,58156,65700,0,15928,0,0,0
o,0x00000000,1716934754.049337,172.16.1.2,25456,172.16.3.2,5101,5792,16024,0,64256,65728,6,6,4,1460,741,1,992,54,58156,55260,65700,0,13032,0,0,0
o,0x00000000,1716934754.049577,172.16.1.2,25456,172.16.3.2,5101,5792,16024,0,64256,65728,6,6,4,1460,741,1,992,54,58156,55260,65700,0,14480,0,0,0
i,0x00000000,1716934754.098962,172.16.1.2,25456,172.16.3.2,5101,5792,16024,0,64256,65728,6,6,4,1460,741,1,992,54,58156,58156,65700,0,15928,0,0,0
o,0x00000000,1716934754.098983,172.16.1.2,25456,172.16.3.2,5101,5792,16024,0,65728,65728,6,6,4,1460,765,1,992,58,58156,56708,65700,0,14480,0,0,0
i,0x00000000,1716934754.128973,172.16.1.2,25456,172.16.3.2,5101,5792,16024,0,65728,65728,6,6,4,1460,765,1,992,58,58156,56708,65700,0,15928,0,0,0
o,0x00000000,1716934754.129058,172.16.1.2,25456,172.16.3.2,5101,5792,16024,0,64256,65728,6,6,4,1460,770,1,992,56,58156,53812,65700,0,13032,0,0,0
o,0x00000000,1716934754.129497,172.16.1.2,25456,172.16.3.2,5101,5792,16024,0,64256,65728,6,6,4,1460,770,1,992,56,58156,53812,65700,0,14480,0,0,0
i,0x00000000,1716934754.188251,172.16.1.2,25456,172.16.3.2,5101,5792,16024,0,64256,65728,6,6,4,1460,770,1,992,56,58156,58156,65700,0,15928,0,0,0
o,0x00000000,1716934754.188273,172.16.1.2,25456,172.16.3.2,5101,5792,16024,0,64256,65728,6,6,4,1460,782,1,992,56,58156,55260,65700,0,13032,0,0,0
o,0x00000000,1716934754.188548,172.16.1.2,25456,172.16.3.2,5101,5792,16024,0,64256,65728,6,6,4,1460,782,1,992,56,58156,55260,65700,0,14480,0,0,0
i,0x00000000,1716934754.218840,172.16.1.2,25456,172.16.3.2,5101,5792,16024,0,64256,65728,6,6,4,1460,782,1,992,56,58156,58156,65700,0,15928,0,0,0
o,0x00000000,1716934754.218851,172.16.1.2,25456,172.16.3.2,5101,5792,17484,0,65728,65728,6,6,4,1460,801,1,992,58,58156,56708,65700,0,14480,0,0,0
o,0x00000000,1716934754.219097,172.16.1.2,25456,172.16.3.2,5101,5792,17484,0,65728,65728,6,6,4,1460,801,1,992,58,58156,56708,65700,0,15928,0,0,0
i,0x00000000,1716934754.239777,172.16.1.2,25456,172.16.3.2,5101,5792,17484,0,65728,65728,6,6,4,1460,801,1,992,58,58156,56708,65700,0,17376,0,0,0
o,0x00000000,1716934754.239787,172.16.1.2,25456,172.16.3.2,5101,5792,17484,0,64256,65728,6,6,4,1460,805,1,992,56,58156,53812,65700,0,14480,0,0,0
o,0x00000000,1716934754.240029,172.16.1.2,25456,172.16.3.2,5101,5792,17484,0,64256,65728,6,6,4,1460,805,1,992,56,58156,53812,65700,0,15928,0,0,0
i,0x00000000,1716934754.289802,172.16.1.2,25456,172.16.3.2,5101,5792,17484,0,64256,65728,6,6,4,1460,805,1,992,56,58156,58156,65700,0,17376,0,0,0
o,0x00000000,1716934754.289819,172.16.1.2,25456,172.16.3.2,5101,5792,17484,0,65728,65728,6,6,4,1460,821,1,992,58,58156,56708,65700,0,15928,0,0,0
i,0x00000000,1716934754.318564,172.16.1.2,25456,172.16.3.2,5101,5792,17484,0,65728,65728,6,6,4,1460,821,1,992,58,58156,56708,65700,0,17376,0,0,0
o,0x00000000,1716934754.318579,172.16.1.2,25456,172.16.3.2,5101,5792,17484,0,64256,65728,6,6,4,1460,827,1,992,57,58156,53812,65700,0,14480,0,0,0
o,0x00000000,1716934754.318822,172.16.1.2,25456,172.16.3.2,5101,5792,17484,0,64256,65728,6,6,4,1460,827,1,992,57,58156,53812,65700,0,15928,0,0,0
i,0x00000000,1716934754.369486,172.16.1.2,25456,172.16.3.2,5101,5792,17484,0,64256,65728,6,6,4,1460,827,1,992,57,58156,58156,65700,0,17376,0,0,0
o,0x00000000,1716934754.369503,172.16.1.2,25456,172.16.3.2,5101,5792,17484,0,64256,65728,6,6,4,1460,828,1,992,54,58156,55260,65700,0,14480,0,0,0
o,0x00000000,1716934754.369799,172.16.1.2,25456,172.16.3.2,5101,5792,17484,0,64256,65728,6,6,4,1460,828,1,992,54,58156,55260,65700,0,15928,0,0,0
i,0x00000000,1716934754.428987,172.16.1.2,25456,172.16.3.2,5101,5792,17484,0,64256,65728,6,6,4,1460,828,1,992,54,58156,58156,65700,0,17376,0,0,0
o,0x00000000,1716934754.429002,172.16.1.2,25456,172.16.3.2,5101,5792,17484,0,65728,65728,6,6,4,1460,845,1,992,57,58156,56708,65700,0,15928,0,0,0
i,0x00000000,1716934754.458418,172.16.1.2,25456,172.16.3.2,5101,5792,17484,0,65728,65728,6,6,4,1460,845,1,992,57,58156,56708,65700,0,17376,0,0,0
o,0x00000000,1716934754.458438,172.16.1.2,25456,172.16.3.2,5101,5792,17484,0,64256,65728,6,6,4,1460,844,1,992,54,58156,53812,65700,0,14480,0,0,0
o,0x00000000,1716934754.458778,172.16.1.2,25456,172.16.3.2,5101,5792,17484,0,64256,65728,6,6,4,1460,844,1,992,54,58156,53812,65700,0,15928,0,0,0
i,0x00000000,1716934754.509177,172.16.1.2,25456,172.16.3.2,5101,5792,17484,0,64256,65728,6,6,4,1460,844,1,992,54,58156,58156,65700,0,17376,0,0,0
o,0x00000000,1716934754.509191,172.16.1.2,25456,172.16.3.2,5101,5792,17484,0,65728,65728,6,6,4,1460,855,1,992,55,58156,56708,65700,0,15928,0,0,0
i,0x00000000,1716934754.519786,172.16.1.2,25456,172.16.3.2,5101,5792,17484,0,65728,65728,6,6,4,1460,855,1,992,55,58156,56708,65700,0,17376,0,0,0
o,0x00000000,1716934754.519793,172.16.1.2,25456,172.16.3.2,5101,5792,18944,0,64256,65728,6,6,4,1460,869,1,992,57,58156,53812,65700,0,14480,0,0,0
o,0x00000000,1716934754.520034,172.16.1.2,25456,172.16.3.2,5101,5792,18944,0,64256,65728,6,6,4,1460,869,1,992,57,58156,53812,65700,0,15928,0,0,0
o,0x00000000,1716934754.520262,172.16.1.2,25456,172.16.3.2,5101,5792,18944,0,64256,65728,6,6,4,1460,869,1,992,57,58156,53812,65700,0,17376,0,0,0
i,0x00000000,1716934754.569454,172.16.1.2,25456,172.16.3.2,5101,5792,18944,0,64256,65728,6,6,4,1460,869,1,992,57,58156,58156,65700,0,18824,0,0,0
o,0x00000000,1716934754.569462,172.16.1.2,25456,172.16.3.2,5101,5792,18944,0,65728,65728,6,6,4,1460,893,1,992,61,58156,56708,65700,0,17376,0,0,0
i,0x00000000,1716934754.589174,172.16.1.2,25456,172.16.3.2,5101,5792,18944,0,65728,65728,6,6,4,1460,893,1,992,61,58156,56708,65700,0,18824,0,0,0
o,0x00000000,1716934754.589184,172.16.1.2,25456,172.16.3.2,5101,5792,18944,0,64256,65728,6,6,4,1460,902,1,992,60,58156,53812,65700,0,15928,0,0,0
o,0x00000000,1716934754.589474,172.16.1.2,25456,172.16.3.2,5101,5792,18944,0,64256,65728,6,6,4,1460,902,1,992,60,58156,53812,65700,0,17376,0,0,0
i,0x00000000,1716934754.639328,172.16.1.2,25456,172.16.3.2,5101,5792,18944,0,64256,65728,6,6,4,1460,902,1,992,60,58156,58156,65700,0,18824,0,0,0
o,0x00000000,1716934754.639348,172.16.1.2,25456,172.16.3.2,5101,5792,18944,0,65728,65728,6,6,4,1460,918,1,992,62,58156,56708,65700,0,17376,0,0,0
i,0x00000000,1716934754.668837,172.16.1.2,25456,172.16.3.2,5101,5792,18944,0,65728,65728,6,6,4,1460,918,1,992,62,58156,56708,65700,0,18824,0,0,0
o,0x00000000,1716934754.668856,172.16.1.2,25456,172.16.3.2,5101,5792,18944,0,64256,65728,6,6,4,1460,924,1,992,60,58156,53812,65700,0,15928,0,0,0
o,0x00000000,1716934754.669192,172.16.1.2,25456,172.16.3.2,5101,5792,18944,0,64256,65728,6,6,4,1460,924,1,992,60,58156,53812,65700,0,17376,0,0,0
i,0x00000000,1716934754.730102,172.16.1.2,25456,172.16.3.2,5101,5792,18944,0,64256,65728,6,6,4,1460,924,1,992,60,58156,58156,65700,0,18824,0,0,0
o,0x00000000,1716934754.730138,172.16.1.2,25456,172.16.3.2,5101,5792,18944,0,64256,65728,6,6,4,1460,929,1,992,59,58156,55260,65700,0,15928,0,0,0
o,0x00000000,1716934754.730497,172.16.1.2,25456,172.16.3.2,5101,5792,18944,0,64256,65728,6,6,4,1460,929,1,992,59,58156,55260,65700,0,17376,0,0,0
i,0x00000000,1716934754.778680,172.16.1.2,25456,172.16.3.2,5101,5792,18944,0,64256,65728,6,6,4,1460,929,1,992,59,58156,58156,65700,0,18824,0,0,0
o,0x00000000,1716934754.778699,172.16.1.2,25456,172.16.3.2,5101,5792,18944,0,65728,65728,6,6,4,1460,941,1,992,60,58156,56708,65700,0,17376,0,0,0
i,0x00000000,1716934754.808651,172.16.1.2,25456,172.16.3.2,5101,5792,18944,0,65728,65728,6,6,4,1460,941,1,992,60,58156,56708,65700,0,18824,0,0,0
o,0x00000000,1716934754.808662,172.16.1.2,25456,172.16.3.2,5101,5792,18944,0,64256,65728,6,6,4,1460,944,1,992,58,58156,53812,65700,0,15928,0,0,0
o,0x00000000,1716934754.808965,172.16.1.2,25456,172.16.3.2,5101,5792,18944,0,64256,65728,6,6,4,1460,944,1,992,58,58156,53812,65700,0,17376,0,0,0
i,0x00000000,1716934754.838948,172.16.1.2,25456,172.16.3.2,5101,5792,18944,0,64256,65728,6,6,4,1460,944,1,992,58,58156,58156,65700,0,18824,0,0,0
o,0x00000000,1716934754.838956,172.16.1.2,25456,172.16.3.2,5101,5792,20404,0,64256,65728,6,6,4,1460,950,1,992,57,58156,55260,65700,0,15928,0,0,0
o,0x00000000,1716934754.839213,172.16.1.2,25456,172.16.3.2,5101,5792,20404,0,64256,65728,6,6,4,1460,950,1,992,57,58156,55260,65700,0,17376,0,0,0
o,0x00000000,1716934754.839448,172.16.1.2,25456,172.16.3.2,5101,5792,20404,0,64256,65728,6,6,4,1460,950,1,992,57,58156,55260,65700,0,18824,0,0,0
i,0x00000000,1716934754.888999,172.16.1.2,25456,172.16.3.2,5101,5792,20404,0,64256,65728,6,6,4,1460,950,1,992,57,58156,58156,65700,0,20272,0,0,0
o,0x00000000,1716934754.889007,172.16.1.2,25456,172.16.3.2,5101,5792,20404,0,64256,65728,6,6,4,1460,960,1,992,58,58156,55260,65700,0,17376,0,0,0
o,0x00000000,1716934754.889242,172.16.1.2,25456,172.16.3.2,5101,5792,20404,0,64256,65728,6,6,4,1460,960,1,992,58,58156,55260,65700,0,18824,0,0,0
i,0x00000000,1716934754.929330,172.16.1.2,25456,172.16.3.2,5101,5792,20404,0,64256,65728,6,6,4,1460,960,1,992,58,58156,57976,65700,0,20272,0,0,0
o,0x00000000,1716934754.929340,172.16.1.2,25456,172.16.3.2,5101,5792,20404,0,65728,65728,6,6,4,1460,976,1,992,61,58156,56528,65700,0,18824,0,0,0
i,0x00000000,1716934754.968247,172.16.1.2,25456,172.16.3.2,5101,5792,20404,0,65728,65728,6,6,4,1460,976,1,992,61,58156,56528,65700,0,20272,0,0,0
o,0x00000000,1716934754.968253,172.16.1.2,25456,172.16.3.2,5101,5792,20404,0,64256,65728,6,6,4,1460,986,1,992,61,58156,53632,65700,0,17376,0,0,0
o,0x00000000,1716934754.968486,172.16.1.2,25456,172.16.3.2,5101,5792,20404,0,64256,65728,6,6,4,1460,986,1,992,61,58156,53632,65700,0,18824,0,0,0
i,0x00000000,1716934755.008596,172.16.1.2,25456,172.16.3.2,5101,5792,20404,0,64256,65728,6,6,4,1460,986,1,992,61,58156,58156,65700,0,20272,0,0,0
o,0x00000000,1716934755.008603,172.16.1.2,25456,172.16.3.2,5101,5792,20404,0,65728,65728,6,6,4,1460,995,1,992,61,58156,56708,65700,0,18824,0,0,0
i,0x00000000,1716934755.058699,172.16.1.2,25456,172.16.3.2,5101,5792,20404,0,65728,65728,6,6,4,1460,995,1,992,61,58156,56708,65700,0,20272,0,0,0
o,0x00000000,1716934755.058718,172.16.1.2,25456,172.16.3.2,5101,5792,20404,0,64256,65728,6,6,4,1460,1003,1,992,61,58156,53812,65700,0,17376,0,0,0
o,0x00000000,1716934755.059059,172.16.1.2,25456,172.16.3.2,5101,5792,20404,0,64256,65728,6,6,4,1460,1003,1,992,61,58156,53812,65700,0,18824,0,0,0
i,0x00000000,1716934755.088332,172.16.1.2,25456,172.16.3.2,5101,5792,20404,0,64256,65728,6,6,4,1460,1003,1,992,61,58156,58156,65700,0,20272,0,0,0
o,0x00000000,1716934755.088350,172.16.1.2,25456,172.16.3.2,5101,5792,20404,0,65728,65728,6,6,4,1460,998,1,992,59,58156,56708,65700,0,18824,0,0,0
i,0x00000000,1716934755.129117,172.16.1.2,25456,172.16.3.2,5101,5792,20404,0,65728,65728,6,6,4,1460,998,1,992,59,58156,56708,65700,0,20272,0,0,0
o,0x00000000,1716934755.129145,172.16.1.2,25456,172.16.3.2,5101,5792,20404,0,65728,65728,6,6,4,1460,1002,1,992,59,58156,55260,65700,0,18824,0,0,0
i,0x00000000,1716934755.138622,172.16.1.2,25456,172.16.3.2,5101,5792,20404,0,65728,65728,6,6,4,1460,1002,1,992,59,58156,58156,65700,0,20272,0,0,0
i,0x00000000,1716934755.158094,172.16.1.2,25456,172.16.3.2,5101,5792,20404,0,65728,65728,6,6,4,1460,1002,1,992,59,58156,58156,65700,0,20272,0,0,0
o,0x00000000,1716934755.158106,172.16.1.2,25456,172.16.3.2,5101,10136,1448,0,65728,65728,6,6,4,1460,1002,1,537920480,59,58156,58156,65700,0,20272,0,0,0
i,0x00000000,1716934755.178824,172.16.1.2,25456,172.16.3.2,5101,10136,1448,0,65728,65728,6,6,4,1460,1002,1,537920480,59,58156,58156,65700,0,20272,0,0,0
o,0x00000000,1716934755.178835,172.16.1.2,25456,172.16.3.2,5101,10136,2896,0,65728,65728,6,6,4,1460,1002,1,537920480,59,58156,58156,65700,0,20272,0,0,0
i,0x00000000,1716934755.209365,172.16.1.2,25456,172.16.3.2,5101,10136,2896,0,65728,65728,6,6,4,1460,1002,1,537920480,59,58156,58156,65700,0,21720,0,0,0
i,0x00000000,1716934755.209372,172.16.1.2,25456,172.16.3.2,5101,10136,2896,0,65728,65728,6,6,4,1460,1002,1,537920480,59,58156,58156,65700,0,21720,0,0,0
o,0x00000000,1716934755.209376,172.16.1.2,25456,172.16.3.2,5101,10136,4344,0,65728,65728,6,6,4,1460,1002,1,537920480,59,58156,58156,65700,0,21720,0,0,0
i,0x00000000,1716934755.258407,172.16.1.2,25456,172.16.3.2,5101,10136,4344,0,65728,65728,6,6,4,1460,1002,1,537920480,59,58156,58156,65700,0,23168,0,0,0
i,0x00000000,1716934755.279298,172.16.1.2,25456,172.16.3.2,5101,10136,4344,0,65728,65728,6,6,4,1460,1002,1,537920480,59,58156,58156,65700,0,23168,0,0,0
o,0x00000000,1716934755.279308,172.16.1.2,25456,172.16.3.2,5101,10136,5792,0,65728,65728,6,6,4,1460,1002,1,537920480,59,58156,58156,65700,0,23168,0,0,0
i,0x00000000,1716934755.309584,172.16.1.2,25456,172.16.3.2,5101,10136,5792,0,65728,65728,6,6,4,1460,1002,1,537920480,59,58156,58156,65700,0,23168,0,0,0
i,0x00000000,1716934755.339216,172.16.1.2,25456,172.16.3.2,5101,10136,5792,0,65728,65728,6,6,4,1460,1002,1,537920480,59,58156,58156,65700,0,23168,0,0,0
o,0x00000000,1716934755.339238,172.16.1.2,25456,172.16.3.2,5101,10136,8688,0,65728,65728,6,6,4,1460,1002,1,537920480,59,58156,58156,65700,0,23168,0,0,0
o,0x00000000,1716934755.339595,172.16.1.2,25456,172.16.3.2,5101,10136,8688,0,65728,65728,6,6,4,1460,1002,1,537920480,59,58156,58156,65700,0,23168,0,0,0
i,0x00000000,1716934755.349935,172.16.1.2,25456,172.16.3.2,5101,10136,8688,0,65728,65728,6,6,4,1460,1002,1,537920480,59,58156,58156,65700,0,24616,0,0,0
o,0x00000000,1716934755.349978,172.16.1.2,25456,172.16.3.2,5101,10136,10136,0,65728,65728,6,6,4,1460,1002,1,537920480,59,58156,58156,65700,0,24616,0,0,0
i,0x00000000,1716934755.390536,172.16.1.2,25456,172.16.3.2,5101,10136,10136,0,65728,65728,6,6,4,1460,1002,1,537920480,59,58156,58156,65700,0,26064,0,0,0
o,0x00000000,1716934755.390554,172.16.1.2,25456,172.16.3.2,5101,10136,10136,0,65728,65728,6,6,4,1460,1002,1,537920481,59,58156,58156,65700,0,26064,0,0,0
i,0x00000000,1716934755.390650,172.16.1.2,25456,172.16.3.2,5101,10136,10136,0,54144,65728,6,6,4,1460,969,1,537920480,64,58156,46572,65700,0,15928,0,0,0
o,0x00000000,1716934755.390653,172.16.1.2,25456,172.16.3.2,5101,10136,11584,0,54144,65728,6,6,4,1460,969,1,537920480,64,58156,46572,65700,0,15928,0,0,0
i,0x00000000,1716934755.418181,172.16.1.2,25456,172.16.3.2,5101,10136,11584,0,54144,65728,6,6,4,1460,969,1,537920480,64,58156,58156,65700,0,17376,0,0,0
o,0x00000000,1716934755.418196,172.16.1.2,25456,172.16.3.2,5101,10136,13032,0,54144,65728,6,6,4,1460,969,1,537920480,64,58156,58156,65700,0,17376,0,0,0
i,0x00000000,1716934755.449166,172.16.1.2,25456,172.16.3.2,5101,10136,13032,0,54144,65728,6,6,4,1460,969,1,537920480,64,58156,58156,65700,0,18824,0,0,0
o,0x00000000,1716934755.449176,172.16.1.2,25456,172.16.3.2,5101,10136,13032,0,54144,65728,6,6,4,1460,969,1,537920481,64,58156,58156,65700,0,18824,0,0,0
i,0x00000000,1716934755.488615,172.16.1.2,25456,172.16.3.2,5101,10136,13032,0,61440,65728,6,6,4,1460,916,1,537920480,72,58156,58156,65700,0,15928,0,0,0
o,0x00000000,1716934755.488626,172.16.1.2,25456,172.16.3.2,5101,10136,10148,0,58496,65728,6,6,4,1460,862,1,992,78,58156,50916,65700,0,8688,0,0,0
i,0x00000000,1716934755.539046,172.16.1.2,25456,172.16.3.2,5101,10136,10148,0,58496,65728,6,6,4,1460,862,1,992,78,58156,58156,65700,0,10136,0,0,0
o,0x00000000,1716934755.539061,172.16.1.2,25456,172.16.3.2,5101,10136,10148,0,64256,65728,6,6,4,1460,835,1,992,76,58156,55260,65700,0,7240,0,0,0
o,0x00000000,1716934755.539344,172.16.1.2,25456,172.16.3.2,5101,10136,10148,0,64256,65728,6,6,4,1460,835,1,992,76,58156,55260,65700,0,8688,0,0,0
i,0x00000000,1716934755.559128,172.16.1.2,25456,172.16.3.2,5101,10136,10148,0,64256,65728,6,6,4,1460,835,1,992,76,58156,58156,65700,0,10136,0,0,0
o,0x00000000,1716934755.559137,172.16.1.2,25456,172.16.3.2,5101,10136,11608,0,64256,65728,6,6,4,1460,795,1,992,77,58156,55260,65700,0,7240,0,0,0
o,0x00000000,1716934755.559413,172.16.1.2,25456,172.16.3.2,5101,10136,11608,0,64256,65728,6,6,4,1460,795,1,992,77,58156,55260,65700,0,8688,0,0,0
o,0x00000000,1716934755.559686,172.16.1.2,25456,172.16.3.2,5101,10136,11608,0,64256,65728,6,6,4,1460,795,1,992,77,58156,55260,65700,0,10136,0,0,0
i,0x00000000,1716934755.618831,172.16.1.2,25456,172.16.3.2,5101,10136,11608,0,64256,65728,6,6,4,1460,795,1,992,77,58156,58156,65700,0,11584,0,0,0
o,0x00000000,1716934755.618840,172.16.1.2,25456,172.16.3.2,5101,10136,11608,0,64256,65728,6,6,4,1460,772,1,992,74,58156,55260,65700,0,8688,0,0,0
o,0x00000000,1716934755.619089,172.16.1.2,25456,172.16.3.2,5101,10136,11608,0,64256,65728,6,6,4,1460,772,1,992,74,58156,55260,65700,0,10136,0,0,0
i,0x00000000,1716934755.698797,172.16.1.2,25456,172.16.3.2,5101,10136,11608,0,64256,65728,6,6,4,1460,772,1,992,74,58156,58156,65700,0,11584,0,0,0
o,0x00000000,1716934755.698817,172.16.1.2,25456,172.16.3.2,5101,10136,11608,0,65728,65728,6,6,4,1460,756,1,992,70,58156,56708,65700,0,10136,0,0,0
i,0x00000000,1716934755.748673,172.16.1.2,25456,172.16.3.2,5101,10136,11608,0,65728,65728,6,6,4,1460,756,1,992,70,58156,56708,65700,0,11584,0,0,0
o,0x00000000,1716934755.748689,172.16.1.2,25456,172.16.3.2,5101,10136,11608,0,64256,65728,6,6,4,1460,746,1,992,66,58156,53812,65700,0,8688,0,0,0
