enable_time_secs=1716936380	enable_time_usecs=244235	siftrver=1.2.4	hz=100	tcp_rtt_scale=32	sysname=FreeBSD	sysver=1301000	ipmode=4
o,0x00000000,1716936380.244276,10.0.2.15,22,10.0.2.2,57224,1073725440,17298,0,65535,65700,0,0,4,1460,1,0,4,24,33580,44,65700,0,0,0,0,0
o,0x00000000,1716936380.244382,10.0.2.15,22,10.0.2.2,57224,1073725440,17298,0,65535,65700,0,0,4,1460,1,0,4,24,33580,80,65700,0,44,0,0,0
i,0x00000000,1716936380.244867,10.0.2.15,22,10.0.2.2,57224,1073725440,17298,0,65535,65700,0,0,4,1460,1,0,4,24,33580,80,65700,0,80,0,0,0
i,0x00000000,1716936380.244870,10.0.2.15,22,10.0.2.2,57224,1073725440,17342,0,65535,65700,0,0,4,1460,1,0,4,24,33580,36,65700,0,36,0,0,0
o,0x00000000,1716936380.244932,10.0.2.15,22,10.0.2.2,57224,1073725440,17378,0,65535,65700,0,0,4,1460,1,0,4,24,33580,36,65700,0,0,0,0,0
i,0x00000000,1716936380.245431,10.0.2.15,22,10.0.2.2,57224,1073725440,17378,0,65535,65700,0,0,4,1460,1,0,4,24,33580,36,65700,0,36,0,0,0
o,0x00000000,1716936380.245615,10.0.2.15,22,10.0.2.2,57224,1073725440,17414,0,65535,65700,0,0,4,1460,1,0,4,24,33580,176,65700,0,0,0,0,0
i,0x00000000,1716936380.246422,10.0.2.15,22,10.0.2.2,57224,1073725440,17414,0,65535,65700,0,0,4,1460,1,0,4,24,33580,176,65700,0,176,0,0,0
i,0x00000000,1716936380.247142,10.0.2.15,22,10.0.2.2,57224,1073725440,17590,0,65535,65700,0,0,4,1460,1,0,4,24,33580,0,65700,0,0,0,0,0
i,0x00000000,1716936380.247149,10.0.2.15,22,10.0.2.2,57224,1073725440,17590,0,65535,65700,0,0,4,1460,1,0,4,24,33580,0,65700,36,0,0,0,0
o,0x00000000,1716936380.247154,10.0.2.15,22,10.0.2.2,57224,1073725440,17590,0,65535,65700,0,0,4,1460,1,0,5,24,33580,0,65700,96,0,0,0,0
i,0x00000000,1716936380.247263,10.0.2.15,22,10.0.2.2,57224,1073725440,17590,0,65535,65700,0,0,4,1460,1,0,4,24,33580,0,65700,96,0,0,0,0
o,0x00000000,1716936380.247275,10.0.2.15,22,10.0.2.2,57224,1073725440,17590,0,65535,65604,0,0,5,1460,1,0,7,24,33580,0,65700,96,0,0,0,0
o,0x00000000,1716936380.248274,10.0.2.15,22,10.0.2.2,57224,1073725440,17590,0,65535,65604,0,0,8,1460,1,0,4,24,33580,0,65700,0,0,0,0,0
i,0x00000000,1716936380.248740,10.0.2.15,22,10.0.2.2,57224,1073725440,17590,0,65535,65604,0,0,8,1460,1,0,20,24,33580,0,65700,0,1,0,0,0
i,0x00000000,1716936382.407496,10.0.2.15,22,10.0.2.2,57229,1073725440,14600,0,65535,65700,0,0,4,1460,1,0,0,27,33580,0,65700,0,0,0,0,0
o,0x00000000,1716936382.413931,10.0.2.15,22,10.0.2.2,57229,1073725440,14600,0,65535,65700,0,0,4,1460,1,0,0,27,33580,38,65700,41,0,0,0,0
i,0x00000000,1716936382.414599,10.0.2.15,22,10.0.2.2,57229,1073725440,14600,0,65535,65700,0,0,4,1460,1,0,0,27,33580,38,65700,0,38,0,0,0
i,0x00000000,1716936382.415448,10.0.2.15,22,10.0.2.2,57229,1073725440,14638,0,65535,65700,0,0,4,1460,1,0,0,24,33580,0,65700,0,0,0,0,0
i,0x00000000,1716936382.415451,10.0.2.15,22,10.0.2.2,57229,1073725440,14638,0,65535,65700,0,0,4,1460,1,0,0,24,33580,0,65700,1460,0,0,0,0
o,0x00000000,1716936382.415454,10.0.2.15,22,10.0.2.2,57229,1073725440,14638,0,65535,65700,0,0,4,1460,1,0,1,24,33580,0,65700,1536,0,0,0,0
o,0x00000000,1716936382.415971,10.0.2.15,22,10.0.2.2,57229,1073725440,14638,0,65535,65700,0,0,4,1460,1,0,0,24,33580,1056,65700,1536,0,0,0,0
i,0x00000000,1716936382.416716,10.0.2.15,22,10.0.2.2,57229,1073725440,14638,0,65535,65700,0,0,4,1460,1,0,0,24,33580,1056,65700,1536,1056,0,0,0
i,0x00000000,1716936382.418053,10.0.2.15,22,10.0.2.2,57229,1073725440,15694,0,65535,65700,0,0,4,1460,1,0,0,24,33580,0,65700,0,0,0,0,0
o,0x00000000,1716936382.420446,10.0.2.15,22,10.0.2.2,57229,1073725440,15694,0,65535,65700,0,0,4,1460,1,0,0,24,33580,484,65700,0,0,0,0,0
i,0x00000000,1716936382.421224,10.0.2.15,22,10.0.2.2,57229,1073725440,15694,0,65535,65700,0,0,4,1460,1,0,0,24,33580,484,65700,0,484,0,0,0
i,0x00000000,1716936382.425675,10.0.2.15,22,10.0.2.2,57229,1073725440,16178,0,65535,65700,0,0,4,1460,1,0,0,24,33580,0,65700,0,0,0,0,0
i,0x00000000,1716936382.430122,10.0.2.15,22,10.0.2.2,57229,1073725440,16178,0,65535,65700,0,0,4,1460,1,0,0,24,33580,0,65700,0,0,0,0,0
o,0x00000000,1716936382.430126,10.0.2.15,22,10.0.2.2,57229,1073725440,16178,0,65535,65700,0,0,4,1460,1,0,1,24,33580,0,65700,44,0,0,0,0
o,0x00000000,1716936382.430262,10.0.2.15,22,10.0.2.2,57229,1073725440,16178,0,65535,65700,0,0,4,1460,1,0,0,24,33580,44,65700,0,0,0,0,0
i,0x00000000,1716936382.431161,10.0.2.15,22,10.0.2.2,57229,1073725440,16178,0,65535,65700,0,0,4,1460,1,0,0,24,33580,44,65700,0,44,0,0,0
i,0x00000000,1716936382.431230,10.0.2.15,22,10.0.2.2,57229,1073725440,16222,0,65535,65700,0,0,4,1460,1,0,0,24,33580,0,65700,0,0,0,0,0
o,0x00000000,1716936382.441089,10.0.2.15,22,10.0.2.2,57229,1073725440,16222,0,65535,65700,0,0,4,1460,1,0,0,24,33580,68,65700,0,0,0,0,0
i,0x00000000,1716936382.441708,10.0.2.15,22,10.0.2.2,57229,1073725440,16222,0,65535,65700,0,0,4,1460,1,0,0,24,33580,68,65700,0,68,0,0,0
i,0x00000000,1716936382.444197,10.0.2.15,22,10.0.2.2,57229,1073725440,16290,0,65535,65700,0,0,4,1460,1,0,0,24,33580,0,65700,0,0,0,0,0
o,0x00000000,1716936382.453558,10.0.2.15,22,10.0.2.2,57229,1073725440,16290,0,65535,65700,0,0,4,1460,1,0,0,24,33580,28,65700,0,0,0,0,0
i,0x00000000,1716936382.454261,10.0.2.15,22,10.0.2.2,57229,1073725440,16290,0,65535,65700,0,0,4,1460,1,0,0,24,33580,28,65700,0,28,0,0,0
i,0x00000000,1716936382.454841,10.0.2.15,22,10.0.2.2,57229,1073725440,16318,0,65535,65700,0,0,4,1460,1,0,0,24,33580,0,65700,0,0,0,0,0
o,0x00000000,1716936382.455397,10.0.2.15,22,10.0.2.2,57229,1073725440,16318,0,65535,65700,0,0,4,1460,1,0,0,24,33580,768,65700,112,0,0,0,0
i,0x00000000,1716936382.456021,10.0.2.15,22,10.0.2.2,57229,1073725440,16318,0,65535,65700,0,0,4,1460,1,0,0,24,33580,768,65700,112,768,0,0,0
o,0x00000000,1716936382.456141,10.0.2.15,22,10.0.2.2,57229,1073725440,17086,0,65535,65700,0,0,4,1460,1,0,0,24,33580,44,65700,0,0,0,0,0
i,0x00000000,1716936382.456692,10.0.2.15,22,10.0.2.2,57229,1073725440,17086,0,65535,65700,0,0,4,1460,1,0,0,24,33580,44,65700,0,44,0,0,0
i,0x00000000,1716936382.457609,10.0.2.15,22,10.0.2.2,57229,1073725440,17130,0,65535,65700,0,0,4,1460,1,0,0,24,33580,0,65700,0,0,0,0,0
o,0x00000000,1716936382.457903,10.0.2.15,22,10.0.2.2,57229,1073725440,17130,0,65535,65700,0,0,4,1460,1,0,4,24,33580,72,65700,0,0,0,0,0
i,0x00000000,1716936382.458571,10.0.2.15,22,10.0.2.2,57229,1073725440,17130,0,65535,65700,0,0,4,1460,1,0,4,24,33580,72,65700,0,72,0,0,0
o,0x00000000,1716936382.461647,10.0.2.15,22,10.0.2.2,57229,1073725440,17202,0,65535,65700,0,0,4,1460,1,0,4,24,33580,44,65700,0,0,0,0,0
i,0x00000000,1716936382.462177,10.0.2.15,22,10.0.2.2,57229,1073725440,17202,0,65535,65700,0,0,4,1460,1,0,4,24,33580,44,65700,0,44,0,0,0
o,0x00000000,1716936382.462609,10.0.2.15,22,10.0.2.2,57229,1073725440,17246,0,65535,65700,0,0,4,1460,1,0,4,24,33580,44,65700,0,0,0,0,0
i,0x00000000,1716936382.463339,10.0.2.15,22,10.0.2.2,57229,1073725440,17246,0,65535,65700,0,0,4,1460,1,0,4,24,33580,44,65700,0,44,0,0,0
o,0x00000000,1716936382.466687,10.0.2.15,22,10.0.2.2,57229,1073725440,17290,0,65535,65700,0,0,4,1460,1,0,4,24,33580,176,65700,0,0,0,0,0
i,0x00000000,1716936382.467525,10.0.2.15,22,10.0.2.2,57229,1073725440,17290,0,65535,65700,0,0,4,1460,1,0,4,24,33580,176,65700,0,176,0,0,0
i,0x00000000,1716936382.467978,10.0.2.15,22,10.0.2.2,57229,1073725440,17466,0,65535,65700,0,0,4,1460,1,0,4,24,33580,0,65700,0,0,0,0,0
i,0x00000000,1716936382.467980,10.0.2.15,22,10.0.2.2,57229,1073725440,17466,0,65535,65700,0,0,4,1460,1,0,4,24,33580,0,65700,96,0,0,0,0
o,0x00000000,1716936382.467983,10.0.2.15,22,10.0.2.2,57229,1073725440,17466,0,65535,65604,0,0,5,1460,1,0,5,24,33580,0,65700,96,0,0,0,0
o,0x00000000,1716936382.473811,10.0.2.15,22,10.0.2.2,57229,1073725440,17466,0,65535,65604,0,0,8,1460,1,0,4,24,33580,0,65700,0,0,0,0,0
i,0x00000000,1716936382.474555,10.0.2.15,22,10.0.2.2,57229,1073725440,17466,0,65535,65604,0,0,8,1460,1,0,20,24,33580,0,65700,0,1,0,0,0
i,0x00000000,1716936383.549129,10.0.2.15,22,10.0.2.2,57232,1073725440,14600,0,65535,65700,0,0,4,1460,1,0,0,27,33580,0,65700,0,0,0,0,0
o,0x00000000,1716936383.555463,10.0.2.15,22,10.0.2.2,57232,1073725440,14600,0,65535,65700,0,0,4,1460,1,0,0,27,33580,38,65700,41,0,0,0,0
i,0x00000000,1716936383.556513,10.0.2.15,22,10.0.2.2,57232,1073725440,14600,0,65535,65700,0,0,4,1460,1,0,0,27,33580,38,65700,41,38,0,0,0
i,0x00000000,1716936383.557209,10.0.2.15,22,10.0.2.2,57232,1073725440,14638,0,65535,65700,0,0,4,1460,1,0,0,24,33580,0,65700,0,0,0,0,0
i,0x00000000,1716936383.557212,10.0.2.15,22,10.0.2.2,57232,1073725440,14638,0,65535,65700,0,0,4,1460,1,0,0,24,33580,0,65700,1460,0,0,0,0
o,0x00000000,1716936383.557216,10.0.2.15,22,10.0.2.2,57232,1073725440,14638,0,65535,65700,0,0,4,1460,1,0,1,24,33580,0,65700,1536,0,0,0,0
o,0x00000000,1716936383.557834,10.0.2.15,22,10.0.2.2,57232,1073725440,14638,0,65535,65700,0,0,4,1460,1,0,0,24,33580,1056,65700,1536,0,0,0,0
i,0x00000000,1716936383.558552,10.0.2.15,22,10.0.2.2,57232,1073725440,14638,0,65535,65700,0,0,4,1460,1,0,0,24,33580,1056,65700,1536,1056,0,0,0
i,0x00000000,1716936383.560058,10.0.2.15,22,10.0.2.2,57232,1073725440,15694,0,65535,65700,0,0,4,1460,1,0,0,24,33580,0,65700,0,0,0,0,0
o,0x00000000,1716936383.562648,10.0.2.15,22,10.0.2.2,57232,1073725440,15694,0,65535,65700,0,0,4,1460,1,0,0,24,33580,484,65700,0,0,0,0,0
i,0x00000000,1716936383.563470,10.0.2.15,22,10.0.2.2,57232,1073725440,15694,0,65535,65700,0,0,4,1460,1,0,0,24,33580,484,65700,0,484,0,0,0
i,0x00000000,1716936383.568193,10.0.2.15,22,10.0.2.2,57232,1073725440,16178,0,65535,65700,0,0,4,1460,1,0,0,24,33580,0,65700,0,0,0,0,0
i,0x00000000,1716936383.572528,10.0.2.15,22,10.0.2.2,57232,1073725440,16178,0,65535,65700,0,0,4,1460,1,0,0,24,33580,0,65700,0,0,0,0,0
o,0x00000000,1716936383.572532,10.0.2.15,22,10.0.2.2,57232,1073725440,16178,0,65535,65700,0,0,4,1460,1,0,1,24,33580,0,65700,44,0,0,0,0
o,0x00000000,1716936383.572683,10.0.2.15,22,10.0.2.2,57232,1073725440,16178,0,65535,65700,0,0,4,1460,1,0,0,24,33580,44,65700,0,0,0,0,0
i,0x00000000,1716936383.573610,10.0.2.15,22,10.0.2.2,57232,1073725440,16178,0,65535,65700,0,0,4,1460,1,0,0,24,33580,44,65700,0,44,0,0,0
i,0x00000000,1716936383.573636,10.0.2.15,22,10.0.2.2,57232,1073725440,16222,0,65535,65700,0,0,4,1460,1,0,0,24,33580,0,65700,0,0,0,0,0
o,0x00000000,1716936383.582762,10.0.2.15,22,10.0.2.2,57232,1073725440,16222,0,65535,65700,0,0,4,1460,1,0,0,24,33580,68,65700,0,0,0,0,0
i,0x00000000,1716936383.583474,10.0.2.15,22,10.0.2.2,57232,1073725440,16222,0,65535,65700,0,0,4,1460,1,0,0,24,33580,68,65700,0,68,0,0,0
i,0x00000000,1716936383.585702,10.0.2.15,22,10.0.2.2,57232,1073725440,16290,0,65535,65700,0,0,4,1460,1,0,0,24,33580,0,65700,0,0,0,0,0
o,0x00000000,1716936383.595593,10.0.2.15,22,10.0.2.2,57232,1073725440,16290,0,65535,65700,0,0,4,1460,1,0,0,24,33580,28,65700,0,0,0,0,0
i,0x00000000,1716936383.596517,10.0.2.15,22,10.0.2.2,57232,1073725440,16290,0,65535,65700,0,0,4,1460,1,0,0,24,33580,28,65700,0,28,0,0,0
i,0x00000000,1716936383.596521,10.0.2.15,22,10.0.2.2,57232,1073725440,16318,0,65535,65700,0,0,4,1460,1,0,0,24,33580,0,65700,0,0,0,0,0
o,0x00000000,1716936383.597631,10.0.2.15,22,10.0.2.2,57232,1073725440,16318,0,65535,65700,0,0,4,1460,1,0,0,24,33580,768,65700,112,0,0,0,0
i,0x00000000,1716936383.598282,10.0.2.15,22,10.0.2.2,57232,1073725440,16318,0,65535,65700,0,0,4,1460,1,0,0,24,33580,768,65700,112,768,0,0,0
o,0x00000000,1716936383.598381,10.0.2.15,22,10.0.2.2,57232,1073725440,17086,0,65535,65700,0,0,4,1460,1,0,0,24,33580,44,65700,0,0,0,0,0
i,0x00000000,1716936383.598938,10.0.2.15,22,10.0.2.2,57232,1073725440,17086,0,65535,65700,0,0,4,1460,1,0,0,24,33580,44,65700,0,44,0,0,0
i,0x00000000,1716936383.599824,10.0.2.15,22,10.0.2.2,57232,1073725440,17130,0,65535,65700,0,0,4,1460,1,0,0,24,33580,0,65700,0,0,0,0,0
o,0x00000000,1716936383.600177,10.0.2.15,22,10.0.2.2,57232,1073725440,17130,0,65535,65700,0,0,4,1460,1,0,4,24,33580,72,65700,0,0,0,0,0
i,0x00000000,1716936383.600856,10.0.2.15,22,10.0.2.2,57232,1073725440,17130,0,65535,65700,0,0,4,1460,1,0,4,24,33580,72,65700,0,72,0,0,0
i,0x00000000,1716936383.601236,10.0.2.15,22,10.0.2.2,57232,1073725440,17202,0,65535,65700,0,0,4,1460,1,0,4,24,33580,0,65700,0,0,0,0,0
o,0x00000000,1716936383.605829,172.16.1.2,50114,172.16.3.2,5101,1073725440,1073725440,0,0,0,0,0,2,536,0,1,672,100,32768,0,65536,0,0,0,0,0
o,0x00000000,1716936383.637314,10.0.2.15,22,10.0.2.2,57232,1073725440,17202,0,65535,65700,0,0,4,1460,1,0,5,24,33580,0,65700,0,0,0,0,0
i,0x00000000,1716936383.726226,172.16.1.2,50114,172.16.3.2,5101,1073725440,1073725440,0,0,0,0,0,2,536,0,1,672,100,32768,0,65536,0,1,0,0,0
o,0x00000000,1716936383.726243,172.16.1.2,50114,172.16.3.2,5101,13069,14480,0,65535,65700,6,6,4,1460,638,1,993,75,33580,0,65700,0,0,0,0,0
o,0x00000000,1716936383.726648,172.16.1.2,50114,172.16.3.2,5101,13069,14480,0,65535,65700,6,6,4,1460,638,1,996,75,33580,37,65700,0,0,0,0,0
i,0x00000000,1716936383.845706,172.16.1.2,50114,172.16.3.2,5101,13069,14480,0,65535,65700,6,6,4,1460,638,1,996,75,33580,37,65700,0,37,0,0,0
o,0x00000000,1716936383.845968,172.16.1.2,50114,172.16.3.2,5101,13069,14480,0,65728,65728,6,6,4,1460,603,1,996,74,33580,4,65700,0,0,0,0,0
o,0x00000000,1716936383.846433,172.16.1.2,50114,172.16.3.2,5101,13069,14480,0,65728,65728,6,6,4,1460,603,1,996,74,33580,128,65700,0,4,0,0,0
i,0x00000000,1716936383.966547,172.16.1.2,50114,172.16.3.2,5101,13069,14480,0,65728,65728,6,6,4,1460,603,1,996,74,33580,128,65700,0,128,0,0,0
i,0x00000000,1716936383.966562,172.16.1.2,50114,172.16.3.2,5101,13069,14480,0,65600,65728,6,6,4,1460,576,1,996,71,33580,0,65700,0,0,0,0,0
o,0x00000000,1716936383.966978,172.16.1.2,21760,172.16.3.2,5101,1073725440,1073725440,0,0,0,0,0,2,536,0,1,672,100,32768,0,65536,0,0,0,0,0
o,0x00000000,1716936384.007530,172.16.1.2,50114,172.16.3.2,5101,13069,14480,0,65728,65728,6,6,4,1460,576,1,997,71,33580,0,65700,0,0,0,0,0
i,0x00000000,1716936384.086771,172.16.1.2,21760,172.16.3.2,5101,1073725440,1073725440,0,0,0,0,0,2,536,0,1,672,100,32768,0,65536,0,1,0,0,0
o,0x00000000,1716936384.086788,172.16.1.2,21760,172.16.3.2,5101,13069,14480,0,65535,65700,6,6,4,1460,634,1,993,76,33580,0,65700,0,0,0,0,0
o,0x00000000,1716936384.086932,172.16.1.2,21760,172.16.3.2,5101,13069,14480,0,65535,65700,6,6,4,1460,634,1,992,76,33580,37,65700,0,0,0,0,0
i,0x00000000,1716936384.207172,172.16.1.2,50114,172.16.3.2,5101,13069,14480,0,65728,65728,6,6,4,1460,576,1,996,71,33580,0,65700,0,0,0,0,0
i,0x00000000,1716936384.207184,172.16.1.2,50114,172.16.3.2,5101,13069,14480,0,65728,65728,6,6,4,1460,576,1,996,71,33580,0,65700,1,0,0,0,0
o,0x00000000,1716936384.207191,172.16.1.2,50114,172.16.3.2,5101,13069,14480,0,65728,65728,6,6,4,1460,576,1,997,71,33580,0,65700,2,0,0,0,0
o,0x00000000,1716936384.207495,172.16.1.2,21760,172.16.3.2,5101,13069,14480,0,65535,65700,6,6,4,1460,634,1,992,76,33580,33580,65700,0,37,0,0,0
o,0x00000000,1716936384.207870,172.16.1.2,21760,172.16.3.2,5101,13069,14480,0,65535,65700,6,6,4,1460,634,1,992,76,33580,33580,65700,0,1485,0,0,0
o,0x00000000,1716936384.208307,172.16.1.2,21760,172.16.3.2,5101,13069,14480,0,65535,65700,6,6,4,1460,634,1,992,76,33580,33580,65700,0,2933,0,0,0
o,0x00000000,1716936384.208623,172.16.1.2,21760,172.16.3.2,5101,13069,14480,0,65535,65700,6,6,4,1460,634,1,992,76,33580,33580,65700,0,4381,0,0,0
o,0x00000000,1716936384.208944,172.16.1.2,21760,172.16.3.2,5101,13069,14480,0,65535,65700,6,6,4,1460,634,1,992,76,33580,33580,65700,0,5829,0,0,0
o,0x00000000,1716936384.209291,172.16.1.2,21760,172.16.3.2,5101,13069,14480,0,65535,65700,6,6,4,1460,634,1,992,76,33580,33580,65700,0,7277,0,0,0
o,0x00000000,1716936384.209609,172.16.1.2,21760,172.16.3.2,5101,13069,14480,0,65535,65700,6,6,4,1460,634,1,992,76,33580,33580,65700,0,8725,0,0,0
o,0x00000000,1716936384.209953,172.16.1.2,21760,172.16.3.2,5101,13069,14480,0,65535,65700,6,6,4,1460,634,1,992,76,33580,33580,65700,0,10173,0,0,0
o,0x00000000,1716936384.210266,172.16.1.2,21760,172.16.3.2,5101,13069,14480,0,65535,65700,6,6,4,1460,634,1,992,76,33580,33580,65700,0,11621,0,0,0
i,0x00000000,1716936384.235846,172.16.1.2,21760,172.16.3.2,5101,13069,14480,0,65535,65700,6,6,4,1460,634,1,992,76,33580,33580,65700,0,13069,0,0,0
o,0x00000000,1716936384.235853,172.16.1.2,21760,172.16.3.2,5101,13069,14480,0,65728,65728,6,6,4,1460,611,1,992,72,33580,33543,65700,0,13032,0,0,0
i,0x00000000,1716936384.446665,172.16.1.2,21760,172.16.3.2,5101,13069,14480,0,65728,65728,6,6,4,1460,611,1,992,72,33580,33543,65700,0,14480,0,0,0
o,0x00000000,1716936384.446689,172.16.1.2,21760,172.16.3.2,5101,13069,14480,0,64256,65728,6,6,4,1460,627,1,992,68,33580,30647,65700,0,11584,0,0,0
o,0x00000000,1716936384.447005,172.16.1.2,21760,172.16.3.2,5101,13069,14480,0,64256,65728,6,6,4,1460,627,1,992,68,33580,30647,65700,0,13032,0,0,0
i,0x00000000,1716936384.466565,172.16.1.2,21760,172.16.3.2,5101,13069,14480,0,64256,65728,6,6,4,1460,627,1,992,68,33580,33580,65700,0,14480,0,0,0
o,0x00000000,1716936384.466578,172.16.1.2,21760,172.16.3.2,5101,13069,14480,0,64256,65728,6,6,4,1460,649,1,992,67,33580,30684,65700,0,11584,0,0,0
o,0x00000000,1716936384.466874,172.16.1.2,21760,172.16.3.2,5101,13069,14480,0,64256,65728,6,6,4,1460,649,1,992,67,33580,30684,65700,0,13032,0,0,0
i,0x00000000,1716936384.496992,172.16.1.2,21760,172.16.3.2,5101,13069,14480,0,64256,65728,6,6,4,1460,649,1,992,67,33580,33580,65700,0,14480,0,0,0
o,0x00000000,1716936384.497002,172.16.1.2,21760,172.16.3.2,5101,13069,14480,0,64256,65728,6,6,4,1460,684,1,992,70,33580,30684,65700,0,11584,0,0,0
o,0x00000000,1716936384.497235,172.16.1.2,21760,172.16.3.2,5101,13069,14480,0,64256,65728,6,6,4,1460,684,1,992,70,33580,30684,65700,0,13032,0,0,0
i,0x00000000,1716936384.515477,172.16.1.2,21760,172.16.3.2,5101,13069,14480,0,64256,65728,6,6,4,1460,684,1,992,70,33580,33580,65700,0,14480,0,0,0
o,0x00000000,1716936384.515483,172.16.1.2,21760,172.16.3.2,5101,13069,14480,0,64256,65728,6,6,4,1460,719,1,992,73,33580,30684,65700,0,11584,0,0,0
o,0x00000000,1716936384.515717,172.16.1.2,21760,172.16.3.2,5101,13069,14480,0,64256,65728,6,6,4,1460,719,1,992,73,33580,30684,65700,0,13032,0,0,0
i,0x00000000,1716936384.546762,172.16.1.2,21760,172.16.3.2,5101,13069,14480,0,64256,65728,6,6,4,1460,719,1,992,73,33580,33580,65700,0,14480,0,0,0
o,0x00000000,1716936384.546773,172.16.1.2,21760,172.16.3.2,5101,13069,15940,0,64256,65728,6,6,4,1460,766,1,992,78,33580,30684,65700,0,11584,0,0,0
o,0x00000000,1716936384.547044,172.16.1.2,21760,172.16.3.2,5101,13069,15940,0,64256,65728,6,6,4,1460,766,1,992,78,33580,30684,65700,0,13032,0,0,0
o,0x00000000,1716936384.547301,172.16.1.2,21760,172.16.3.2,5101,13069,15940,0,64256,65728,6,6,4,1460,766,1,992,78,33580,30684,65700,0,14480,0,0,0
i,0x00000000,1716936384.605789,172.16.1.2,21760,172.16.3.2,5101,13069,15940,0,64256,65728,6,6,4,1460,766,1,992,78,41772,41772,65700,0,15928,0,0,0
o,0x00000000,1716936384.605809,172.16.1.2,21760,172.16.3.2,5101,13069,15940,0,64256,65728,6,6,4,1460,731,1,992,77,41772,38876,65700,0,13032,0,0,0
o,0x00000000,1716936384.606059,172.16.1.2,21760,172.16.3.2,5101,13069,15940,0,64256,65728,6,6,4,1460,731,1,992,77,41772,38876,65700,0,14480,0,0,0
i,0x00000000,1716936384.686967,172.16.1.2,21760,172.16.3.2,5101,13069,15940,0,64256,65728,6,6,4,1460,731,1,992,77,41772,41772,65700,0,15928,0,0,0
o,0x00000000,1716936384.686985,172.16.1.2,21760,172.16.3.2,5101,13069,15940,0,65728,65728,6,6,4,1460,728,1,992,69,41772,40324,65700,0,14480,0,0,0
i,0x00000000,1716936384.715840,172.16.1.2,21760,172.16.3.2,5101,13069,15940,0,65728,65728,6,6,4,1460,728,1,992,69,41772,40324,65700,0,15928,0,0,0
o,0x00000000,1716936384.715848,172.16.1.2,21760,172.16.3.2,5101,13069,15940,0,65728,65728,6,6,4,1460,733,1,992,64,41772,38876,65700,0,14480,0,0,0
i,0x00000000,1716936384.746472,172.16.1.2,21760,172.16.3.2,5101,13069,15940,0,65728,65728,6,6,4,1460,733,1,992,64,41772,41772,65700,0,15928,0,0,0
o,0x00000000,1716936384.746483,172.16.1.2,21760,172.16.3.2,5101,13069,15940,0,64256,65728,6,6,4,1460,738,1,992,60,41772,38876,65700,0,13032,0,0,0
o,0x00000000,1716936384.746746,172.16.1.2,21760,172.16.3.2,5101,13069,15940,0,64256,65728,6,6,4,1460,738,1,992,60,41772,38876,65700,0,14480,0,0,0
i,0x00000000,1716936384.767324,172.16.1.2,21760,172.16.3.2,5101,13069,15940,0,64256,65728,6,6,4,1460,738,1,992,60,41772,41772,65700,0,15928,0,0,0
o,0x00000000,1716936384.767343,172.16.1.2,21760,172.16.3.2,5101,13069,15940,0,64256,65728,6,6,4,1460,750,1,992,59,41772,38876,65700,0,13032,0,0,0
o,0x00000000,1716936384.767587,172.16.1.2,21760,172.16.3.2,5101,13069,15940,0,64256,65728,6,6,4,1460,750,1,992,59,41772,38876,65700,0,14480,0,0,0
i,0x00000000,1716936384.826514,172.16.1.2,21760,172.16.3.2,5101,13069,15940,0,64256,65728,6,6,4,1460,750,1,992,59,41772,41772,65700,0,15928,0,0,0
o,0x00000000,1716936384.826522,172.16.1.2,21760,172.16.3.2,5101,13069,15940,0,64256,65728,6,6,4,1460,765,1,992,59,41772,38876,65700,0,13032,0,0,0
o,0x00000000,1716936384.826756,172.16.1.2,21760,172.16.3.2,5101,13069,15940,0,64256,65728,6,6,4,1460,765,1,992,59,41772,38876,65700,0,14480,0,0,0
i,0x00000000,1716936384.856683,172.16.1.2,21760,172.16.3.2,5101,13069,15940,0,64256,65728,6,6,4,1460,765,1,992,59,41772,41772,65700,0,15928,0,0,0
o,0x00000000,1716936384.856690,172.16.1.2,21760,172.16.3.2,5101,13069,17400,0,64256,65728,6,6,4,1460,790,1,992,62,41772,38876,65700,0,13032,0,0,0
o,0x00000000,1716936384.856923,172.16.1.2,21760,172.16.3.2,5101,13069,17400,0,64256,65728,6,6,4,1460,790,1,992,62,41772,38876,65700,0,14480,0,0,0
o,0x00000000,1716936384.857203,172.16.1.2,21760,172.16.3.2,5101,13069,17400,0,64256,65728,6,6,4,1460,790,1,992,62,41772,38876,65700,0,15928,0,0,0
i,0x00000000,1716936384.906667,172.16.1.2,21760,172.16.3.2,5101,13069,17400,0,64256,65728,6,6,4,1460,790,1,992,62,41772,41772,65700,0,17376,0,0,0
o,0x00000000,1716936384.906676,172.16.1.2,21760,172.16.3.2,5101,13069,17400,0,65728,65728,6,6,4,1460,812,1,992,64,41772,40324,65700,0,15928,0,0,0
i,0x00000000,1716936384.955609,172.16.1.2,21760,172.16.3.2,5101,13069,17400,0,65728,65728,6,6,4,1460,812,1,992,64,41772,40324,65700,0,17376,0,0,0
o,0x00000000,1716936384.955625,172.16.1.2,21760,172.16.3.2,5101,13069,17400,0,64256,65728,6,6,4,1460,811,1,992,60,41772,37428,65700,0,14480,0,0,0
o,0x00000000,1716936384.955908,172.16.1.2,21760,172.16.3.2,5101,13069,17400,0,64256,65728,6,6,4,1460,811,1,992,60,41772,37428,65700,0,15928,0,0,0
i,0x00000000,1716936384.996287,172.16.1.2,21760,172.16.3.2,5101,13069,17400,0,64256,65728,6,6,4,1460,811,1,992,60,41772,41772,65700,0,17376,0,0,0
o,0x00000000,1716936384.996294,172.16.1.2,21760,172.16.3.2,5101,13069,17400,0,64256,65728,6,6,4,1460,810,1,992,56,41772,38876,65700,0,14480,0,0,0
o,0x00000000,1716936384.996585,172.16.1.2,21760,172.16.3.2,5101,13069,17400,0,64256,65728,6,6,4,1460,810,1,992,56,41772,38876,65700,0,15928,0,0,0
i,0x00000000,1716936385.046339,172.16.1.2,21760,172.16.3.2,5101,13069,17400,0,64256,65728,6,6,4,1460,810,1,992,56,41772,41772,65700,0,17376,0,0,0
o,0x00000000,1716936385.046348,172.16.1.2,21760,172.16.3.2,5101,13069,17400,0,65728,65728,6,6,4,1460,817,1,992,56,41772,40324,65700,0,15928,0,0,0
i,0x00000000,1716936385.096664,172.16.1.2,21760,172.16.3.2,5101,13069,17400,0,65728,65728,6,6,4,1460,817,1,992,56,41772,40324,65700,0,17376,0,0,0
o,0x00000000,1716936385.096673,172.16.1.2,21760,172.16.3.2,5101,13069,17400,0,64256,65728,6,6,4,1460,843,1,992,60,41772,37428,65700,0,14480,0,0,0
o,0x00000000,1716936385.096926,172.16.1.2,21760,172.16.3.2,5101,13069,17400,0,64256,65728,6,6,4,1460,843,1,992,60,41772,37428,65700,0,15928,0,0,0
i,0x00000000,1716936385.126054,172.16.1.2,21760,172.16.3.2,5101,13069,17400,0,64256,65728,6,6,4,1460,843,1,992,60,41772,41772,65700,0,17376,0,0,0
o,0x00000000,1716936385.126059,172.16.1.2,21760,172.16.3.2,5101,13069,17400,0,65728,65728,6,6,4,1460,854,1,992,60,41772,40324,65700,0,15928,0,0,0
i,0x00000000,1716936385.156392,172.16.1.2,21760,172.16.3.2,5101,13069,17400,0,65728,65728,6,6,4,1460,854,1,992,60,41772,40324,65700,0,17376,0,0,0
o,0x00000000,1716936385.156402,172.16.1.2,21760,172.16.3.2,5101,13069,18860,0,64256,65728,6,6,4,1460,868,1,992,61,41772,37428,65700,0,14480,0,0,0
o,0x00000000,1716936385.156636,172.16.1.2,21760,172.16.3.2,5101,13069,18860,0,64256,65728,6,6,4,1460,868,1,992,61,41772,37428,65700,0,15928,0,0,0
o,0x00000000,1716936385.156946,172.16.1.2,21760,172.16.3.2,5101,13069,18860,0,64256,65728,6,6,4,1460,868,1,992,61,41772,37428,65700,0,17376,0,0,0
i,0x00000000,1716936385.185374,172.16.1.2,21760,172.16.3.2,5101,13069,18860,0,64256,65728,6,6,4,1460,868,1,992,61,49964,49964,65700,0,18824,0,0,0
o,0x00000000,1716936385.185381,172.16.1.2,21760,172.16.3.2,5101,13069,18860,0,65728,65728,6,6,4,1460,888,1,992,63,49964,48516,65700,0,17376,0,0,0
i,0x00000000,1716936385.206371,172.16.1.2,21760,172.16.3.2,5101,13069,18860,0,65728,65728,6,6,4,1460,888,1,992,63,49964,48516,65700,0,18824,0,0,0
o,0x00000000,1716936385.206377,172.16.1.2,21760,172.16.3.2,5101,13069,18860,0,64256,65728,6,6,4,1460,897,1,992,62,49964,45620,65700,0,15928,0,0,0
o,0x00000000,1716936385.206684,172.16.1.2,21760,172.16.3.2,5101,13069,18860,0,64256,65728,6,6,4,1460,897,1,992,62,49964,45620,65700,0,17376,0,0,0
i,0x00000000,1716936385.266367,172.16.1.2,21760,172.16.3.2,5101,13069,18860,0,64256,65728,6,6,4,1460,897,1,992,62,49964,49964,65700,0,18824,0,0,0
o,0x00000000,1716936385.266385,172.16.1.2,21760,172.16.3.2,5101,13069,18860,0,64256,65728,6,6,4,1460,913,1,992,63,49964,47068,65700,0,15928,0,0,0
o,0x00000000,1716936385.266677,172.16.1.2,21760,172.16.3.2,5101,13069,18860,0,64256,65728,6,6,4,1460,913,1,992,63,49964,47068,65700,0,17376,0,0,0
i,0x00000000,1716936385.317354,172.16.1.2,21760,172.16.3.2,5101,13069,18860,0,64256,65728,6,6,4,1460,913,1,992,63,49964,49964,65700,0,18824,0,0,0
o,0x00000000,1716936385.317372,172.16.1.2,21760,172.16.3.2,5101,13069,18860,0,64256,65728,6,6,4,1460,927,1,992,63,49964,47068,65700,0,15928,0,0,0
o,0x00000000,1716936385.317680,172.16.1.2,21760,172.16.3.2,5101,13069,18860,0,64256,65728,6,6,4,1460,927,1,992,63,49964,47068,65700,0,17376,0,0,0
i,0x00000000,1716936385.377238,172.16.1.2,21760,172.16.3.2,5101,13069,18860,0,64256,65728,6,6,4,1460,927,1,992,63,49964,49964,65700,0,18824,0,0,0
o,0x00000000,1716936385.377258,172.16.1.2,21760,172.16.3.2,5101,13069,18860,0,64256,65728,6,6,4,1460,924,1,992,60,49964,47068,65700,0,15928,0,0,0
o,0x00000000,1716936385.377532,172.16.1.2,21760,172.16.3.2,5101,13069,18860,0,64256,65728,6,6,4,1460,924,1,992,60,49964,47068,65700,0,17376,0,0,0
i,0x00000000,1716936385.425960,172.16.1.2,21760,172.16.3.2,5101,13069,18860,0,64256,65728,6,6,4,1460,924,1,992,60,49964,49964,65700,0,18824,0,0,0
o,0x00000000,1716936385.425972,172.16.1.2,21760,172.16.3.2,5101,13069,18860,0,64256,65728,6,6,4,1460,929,1,992,59,49964,47068,65700,0,15928,0,0,0
o,0x00000000,1716936385.426327,172.16.1.2,21760,172.16.3.2,5101,13069,18860,0,64256,65728,6,6,4,1460,929,1,992,59,49964,47068,65700,0,17376,0,0,0
i,0x00000000,1716936385.476939,172.16.1.2,21760,172.16.3.2,5101,13069,18860,0,64256,65728,6,6,4,1460,929,1,992,59,49964,49964,65700,0,18824,0,0,0
o,0x00000000,1716936385.476961,172.16.1.2,21760,172.16.3.2,5101,13069,18860,0,65728,65728,6,6,4,1460,941,1,992,60,49964,48516,65700,0,17376,0,0,0
i,0x00000000,1716936385.487136,172.16.1.2,21760,172.16.3.2,5101,13069,18860,0,65728,65728,6,6,4,1460,941,1,992,60,49964,48516,65700,0,18824,0,0,0
o,0x00000000,1716936385.487155,172.16.1.2,21760,172.16.3.2,5101,13069,20320,0,64256,65728,6,6,4,1460,956,1,992,61,49964,45620,65700,0,15928,0,0,0
o,0x00000000,1716936385.487565,172.16.1.2,21760,172.16.3.2,5101,13069,20320,0,64256,65728,6,6,4,1460,956,1,992,61,49964,45620,65700,0,17376,0,0,0
o,0x00000000,1716936385.487893,172.16.1.2,21760,172.16.3.2,5101,13069,20320,0,64256,65728,6,6,4,1460,956,1,992,61,49964,45620,65700,0,18824,0,0,0
i,0x00000000,1716936385.536721,172.16.1.2,21760,172.16.3.2,5101,13069,20320,0,64256,65728,6,6,4,1460,956,1,992,61,49964,49964,65700,0,20272,0,0,0
o,0x00000000,1716936385.536731,172.16.1.2,21760,172.16.3.2,5101,13069,20320,0,64256,65728,6,6,4,1460,969,1,992,62,49964,47068,65700,0,17376,0,0,0
o,0x00000000,1716936385.536968,172.16.1.2,21760,172.16.3.2,5101,13069,20320,0,64256,65728,6,6,4,1460,969,1,992,62,49964,47068,65700,0,18824,0,0,0
i,0x00000000,1716936385.586449,172.16.1.2,21760,172.16.3.2,5101,13069,20320,0,64256,65728,6,6,4,1460,969,1,992,62,49964,49964,65700,0,20272,0,0,0
o,0x00000000,1716936385.586468,172.16.1.2,21760,172.16.3.2,5101,13069,20320,0,64256,65728,6,6,4,1460,976,1,992,61,49964,47068,65700,0,17376,0,0,0
o,0x00000000,1716936385.586710,172.16.1.2,21760,172.16.3.2,5101,13069,20320,0,64256,65728,6,6,4,1460,976,1,992,61,49964,47068,65700,0,18824,0,0,0
i,0x00000000,1716936385.646370,172.16.1.2,21760,172.16.3.2,5101,13069,20320,0,64256,65728,6,6,4,1460,976,1,992,61,49964,49964,65700,0,20272,0,0,0
i,0x00000000,1716936385.696885,172.16.1.2,21760,172.16.3.2,5101,10136,15928,0,64256,65728,6,6,4,1460,982,1,536871904,60,49964,49964,65700,0,17376,0,0,0
i,0x00000000,1716936385.726096,172.16.1.2,21760,172.16.3.2,5101,10136,15928,0,65728,65728,6,6,4,1460,984,1,536871904,58,49964,48516,65700,0,15928,0,0,0
i,0x00000000,1716936385.786433,172.16.1.2,21760,172.16.3.2,5101,10136,13032,0,64256,65728,6,6,4,1460,997,1,536871904,60,49964,49964,65700,0,13032,0,0,0
o,0x00000000,1716936385.786451,172.16.1.2,21760,172.16.3.2,5101,10136,14480,0,64256,65728,6,6,4,1460,997,1,536871904,60,49964,49964,65700,0,13032,0,0,0
o,0x00000000,1716936385.786805,172.16.1.2,21760,172.16.3.2,5101,10136,14480,0,65728,65728,6,6,4,1460,1017,1,536871904,63,49964,48516,65700,0,13032,0,0,0
i,0x00000000,1716936385.797283,172.16.1.2,21760,172.16.3.2,5101,10136,14480,0,65728,65728,6,6,4,1460,1017,1,536871904,63,49964,48536,65700,0,14480,0,0,0
o,0x00000000,1716936385.797289,172.16.1.2,21760,172.16.3.2,5101,10136,15928,0,65728,65728,6,6,4,1460,1017,1,536871904,63,49964,48536,65700,0,14480,0,0,0
i,0x00000000,1716936385.797367,172.16.1.2,21760,172.16.3.2,5101,10136,14480,0,65728,65728,6,6,4,1460,1017,1,536871904,63,49964,48536,65700,0,15928,0,0,0
o,0x00000000,1716936385.797370,172.16.1.2,21760,172.16.3.2,5101,10136,17376,0,65728,65728,6,6,4,1460,1017,1,536871904,63,49964,48536,65700,0,15928,0,0,0
i,0x00000000,1716936385.816509,172.16.1.2,21760,172.16.3.2,5101,10136,14480,0,65728,65728,6,6,4,1460,1017,1,536871904,63,49964,48536,65700,0,17376,0,0,0
o,0x00000000,1716936385.816515,172.16.1.2,21760,172.16.3.2,5101,10136,1448,0,65728,65728,6,6,4,1460,1017,1,537920480,63,49964,48536,65700,0,17376,0,0,0
i,0x00000000,1716936385.835295,172.16.1.2,21760,172.16.3.2,5101,10136,1448,0,65728,65728,6,6,4,1460,1017,1,537920480,63,49964,48536,65700,0,17376,0,0,0
i,0x00000000,1716936385.845460,172.16.1.2,21760,172.16.3.2,5101,10136,1448,0,65728,65728,6,6,4,1460,1017,1,537920480,63,49964,48536,65700,0,17376,0,0,0
o,0x00000000,1716936385.845466,172.16.1.2,21760,172.16.3.2,5101,10136,2896,0,65728,65728,6,6,4,1460,1017,1,537920480,63,49964,48536,65700,0,17376,0,0,0
i,0x00000000,1716936385.867150,172.16.1.2,21760,172.16.3.2,5101,10136,2896,0,65728,65728,6,6,4,1460,1017,1,537920480,63,49964,48536,65700,0,17376,0,0,0
o,0x00000000,1716936385.867154,172.16.1.2,21760,172.16.3.2,5101,10136,4344,0,65728,65728,6,6,4,1460,1017,1,537920480,63,49964,48536,65700,0,17376,0,0,0
i,0x00000000,1716936385.956155,172.16.1.2,21760,172.16.3.2,5101,10136,4344,0,65728,65728,6,6,4,1460,1017,1,537920480,63,49964,48536,65700,0,18824,0,0,0
o,0x00000000,1716936385.956164,172.16.1.2,21760,172.16.3.2,5101,10136,5792,0,65728,65728,6,6,4,1460,1017,1,537920480,63,49964,48536,65700,0,18824,0,0,0
i,0x00000000,1716936385.966469,172.16.1.2,21760,172.16.3.2,5101,10136,5792,0,65728,65728,6,6,4,1460,1017,1,537920480,63,49964,48536,65700,0,20272,0,0,0
o,0x00000000,1716936385.966477,172.16.1.2,21760,172.16.3.2,5101,10136,7240,0,65728,65728,6,6,4,1460,1017,1,537920480,63,49964,48536,65700,0,20272,0,0,0
i,0x00000000,1716936385.966721,172.16.1.2,21760,172.16.3.2,5101,10136,7240,0,65728,65728,6,6,4,1460,1017,1,537920480,63,49964,48536,65700,0,21720,0,0,0
o,0x00000000,1716936385.966724,172.16.1.2,21760,172.16.3.2,5101,10136,8688,0,65728,65728,6,6,4,1460,1017,1,537920480,63,49964,48536,65700,0,21720,0,0,0
i,0x00000000,1716936385.996042,172.16.1.2,21760,172.16.3.2,5101,10136,8688,0,65728,65728,6,6,4,1460,1017,1,537920480,63,49964,48536,65700,0,23168,0,0,0
o,0x00000000,1716936385.996047,172.16.1.2,21760,172.16.3.2,5101,10136,10136,0,65728,65728,6,6,4,1460,1017,1,537920480,63,49964,48536,65700,0,23168,0,0,0
i,0x00000000,1716936386.016036,172.16.1.2,21760,172.16.3.2,5101,10136,10136,0,65728,65728,6,6,4,1460,1017,1,537920480,63,49964,48536,65700,0,24616,0,0,0
o,0x00000000,1716936386.016041,172.16.1.2,21760,172.16.3.2,5101,10136,10136,0,65728,65728,6,6,4,1460,1017,1,537920481,63,49964,48536,65700,0,24616,0,0,0
i,0x00000000,1716936386.046089,172.16.1.2,21760,172.16.3.2,5101,10136,10136,0,59968,65728,6,6,4,1460,970,1,537920480,71,49964,49964,65700,0,20272,0,0,0
o,0x00000000,1716936386.046096,172.16.1.2,21760,172.16.3.2,5101,10136,10148,0,54144,65728,6,6,4,1460,925,1,992,75,49964,38380,65700,0,8688,0,0,0
i,0x00000000,1716936386.046440,172.16.1.2,21760,172.16.3.2,5101,10136,10148,0,54144,65728,6,6,4,1460,925,1,992,75,49964,38380,65700,0,10136,0,0,0
o,0x00000000,1716936386.046444,172.16.1.2,21760,172.16.3.2,5101,10136,11608,0,65728,65728,6,6,4,1460,878,1,992,79,49964,36932,65700,0,8688,0,0,0
o,0x00000000,1716936386.046756,172.16.1.2,21760,172.16.3.2,5101,10136,11608,0,65728,65728,6,6,4,1460,878,1,992,79,49964,36932,65700,0,10136,0,0,0
i,0x00000000,1716936386.125828,172.16.1.2,21760,172.16.3.2,5101,10136,11608,0,65728,65728,6,6,4,1460,878,1,992,79,49964,49964,65700,0,11584,0,0,0
o,0x00000000,1716936386.125835,172.16.1.2,21760,172.16.3.2,5101,10136,11608,0,64256,65728,6,6,4,1460,837,1,992,80,49964,47068,65700,0,8688,0,0,0
o,0x00000000,1716936386.126075,172.16.1.2,21760,172.16.3.2,5101,10136,11608,0,64256,65728,6,6,4,1460,837,1,992,80,49964,47068,65700,0,10136,0,0,0
i,0x00000000,1716936386.155928,172.16.1.2,21760,172.16.3.2,5101,10136,11608,0,64256,65728,6,6,4,1460,837,1,992,80,49964,49964,65700,0,11584,0,0,0
o,0x00000000,1716936386.155945,172.16.1.2,21760,172.16.3.2,5101,10136,11608,0,64256,65728,6,6,4,1460,805,1,992,78,49964,47068,65700,0,8688,0,0,0
o,0x00000000,1716936386.156386,172.16.1.2,21760,172.16.3.2,5101,10136,11608,0,64256,65728,6,6,4,1460,805,1,992,78,49964,47068,65700,0,10136,0,0,0
i,0x00000000,1716936386.215306,172.16.1.2,21760,172.16.3.2,5101,10136,11608,0,64256,65728,6,6,4,1460,805,1,992,78,49964,49964,65700,0,11584,0,0,0
o,0x00000000,1716936386.215317,172.16.1.2,21760,172.16.3.2,5101,10136,11608,0,64256,65728,6,6,4,1460,785,1,992,75,49964,47068,65700,0,8688,0,0,0
o,0x00000000,1716936386.215558,172.16.1.2,21760,172.16.3.2,5101,10136,11608,0,64256,65728,6,6,4,1460,785,1,992,75,49964,47068,65700,0,10136,0,0,0
i,0x00000000,1716936386.266287,172.16.1.2,21760,172.16.3.2,5101,10136,11608,0,64256,65728,6,6,4,1460,785,1,992,75,49964,49964,65700,0,11584,0,0,0
o,0x00000000,1716936386.266311,172.16.1.2,21760,172.16.3.2,5101,10136,13068,0,64256,65728,6,6,4,1460,775,1,992,69,49964,47068,65700,0,8688,0,0,0
o,0x00000000,1716936386.266562,172.16.1.2,21760,172.16.3.2,5101,10136,13068,0,64256,65728,6,6,4,1460,775,1,992,69,49964,47068,65700,0,10136,0,0,0
o,0x00000000,1716936386.266790,172.16.1.2,21760,172.16.3.2,5101,10136,13068,0,64256,65728,6,6,4,1460,775,1,992,69,49964,47068,65700,0,11584,0,0,0
i,0x00000000,1716936386.315736,172.16.1.2,21760,172.16.3.2,5101,10136,13068,0,64256,65728,6,6,4,1460,775,1,992,69,49964,49964,65700,0,13032,0,0,0
o,0x00000000,1716936386.315752,172.16.1.2,21760,172.16.3.2,5101,10136,13068,0,64256,65728,6,6,4,1460,755,1,992,67,49964,47068,65700,0,10136,0,0,0
o,0x00000000,1716936386.315994,172.16.1.2,21760,172.16.3.2,5101,10136,13068,0,64256,65728,6,6,4,1460,755,1,992,67,49964,47068,65700,0,11584,0,0,0
i,0x00000000,1716936386.356256,172.16.1.2,21760,172.16.3.2,5101,10136,13068,0,64256,65728,6,6,4,1460,755,1,992,67,49964,49964,65700,0,13032,0,0,0
o,0x00000000,1716936386.356271,172.16.1.2,21760,172.16.3.2,5101,10136,13068,0,65728,65728,6,6,4,1460,741,1,992,64,49964,48516,65700,0,11584,0,0,0
i,0x00000000,1716936386.396276,172.16.1.2,21760,172.16.3.2,5101,10136,13068,0,65728,65728,6,6,4,1460,741,1,992,64,49964,48516,65700,0,13032,0,0,0
o,0x00000000,1716936386.396290,172.16.1.2,21760,172.16.3.2,5101,10136,13068,0,65728,65728,6,6,4,1460,745,1,992,60,49964,47068,65700,0,11584,0,0,0
i,0x00000000,1716936386.426554,172.16.1.2,21760,172.16.3.2,5101,10136,13068,0,65728,65728,6,6,4,1460,745,1,992,60,49964,49964,65700,0,13032,0,0,0
o,0x00000000,1716936386.426564,172.16.1.2,21760,172.16.3.2,5101,10136,13068,0,64256,65728,6,6,4,1460,736,1,992,58,49964,47068,65700,0,10136,0,0,0
o,0x00000000,1716936386.426890,172.16.1.2,21760,172.16.3.2,5101,10136,13068,0,64256,65728,6,6,4,1460,736,1,992,58,49964,47068,65700,0,11584,0,0,0
i,0x00000000,1716936386.465694,172.16.1.2,21760,172.16.3.2,5101,10136,13068,0,64256,65728,6,6,4,1460,736,1,992,58,49964,49964,65700,0,13032,0,0,0
o,0x00000000,1716936386.465711,172.16.1.2,21760,172.16.3.2,5101,10136,13068,0,65728,65728,6,6,4,1460,720,1,992,58,49964,48516,65700,0,11584,0,0,0
i,0x00000000,1716936386.485892,172.16.1.2,21760,172.16.3.2,5101,10136,13068,0,65728,65728,6,6,4,1460,720,1,992,58,49964,48516,65700,0,13032,0,0,0
o,0x00000000,1716936386.485900,172.16.1.2,21760,172.16.3.2,5101,10136,14528,0,64256,65728,6,6,4,1460,714,1,992,55,49964,45620,65700,0,10136,0,0,0
o,0x00000000,1716936386.486309,172.16.1.2,21760,172.16.3.2,5101,10136,14528,0,64256,65728,6,6,4,1460,714,1,992,55,49964,45620,65700,0,11584,0,0,0
o,0x00000000,1716936386.486543,172.16.1.2,21760,172.16.3.2,5101,10136,14528,0,64256,65728,6,6,4,1460,714,1,992,55,49964,45620,65700,0,13032,0,0,0
i,0x00000000,1716936386.535392,172.16.1.2,21760,172.16.3.2,5101,10136,14528,0,64256,65728,6,6,4,1460,714,1,992,55,49964,49964,65700,0,14480,0,0,0
o,0x00000000,1716936386.535398,172.16.1.2,21760,172.16.3.2,5101,10136,14528,0,64256,65728,6,6,4,1460,713,1,992,52,49964,47068,65700,0,11584,0,0,0
o,0x00000000,1716936386.535637,172.16.1.2,21760,172.16.3.2,5101,10136,14528,0,64256,65728,6,6,4,1460,713,1,992,52,49964,47068,65700,0,13032,0,0,0
i,0x00000000,1716936386.595677,172.16.1.2,21760,172.16.3.2,5101,10136,14528,0,64256,65728,6,6,4,1460,713,1,992,52,49964,49964,65700,0,14480,0,0,0
o,0x00000000,1716936386.595693,172.16.1.2,21760,172.16.3.2,5101,10136,14528,0,64256,65728,6,6,4,1460,716,1,992,51,49964,47068,65700,0,11584,0,0,0
o,0x00000000,1716936386.595971,172.16.1.2,21760,172.16.3.2,5101,10136,14528,0,64256,65728,6,6,4,1460,716,1,992,51,49964,47068,65700,0,13032,0,0,0
i,0x00000000,1716936386.645613,172.16.1.2,21760,172.16.3.2,5101,10136,14528,0,64256,65728,6,6,4,1460,716,1,992,51,49964,49964,65700,0,14480,0,0,0
o,0x00000000,1716936386.645627,172.16.1.2,21760,172.16.3.2,5101,10136,14528,0,65728,65728,6,6,4,1460,711,1,992,50,49964,48516,65700,0,13032,0,0,0
i,0x00000000,1716936386.675643,172.16.1.2,21760,172.16.3.2,5101,10136,14528,0,65728,65728,6,6,4,1460,711,1,992,50,49964,48516,65700,0,14480,0,0,0
o,0x00000000,1716936386.675655,172.16.1.2,21760,172.16.3.2,5101,10136,14528,0,64256,65728,6,6,4,1460,719,1,992,50,49964,45620,65700,0,11584,0,0,0
o,0x00000000,1716936386.675920,172.16.1.2,21760,172.16.3.2,5101,10136,14528,0,64256,65728,6,6,4,1460,719,1,992,50,49964,45620,65700,0,13032,0,0,0
i,0x00000000,1716936386.726295,172.16.1.2,21760,172.16.3.2,5101,10136,14528,0,64256,65728,6,6,4,1460,719,1,992,50,49964,49964,65700,0,14480,0,0,0
o,0x00000000,1716936386.726302,172.16.1.2,21760,172.16.3.2,5101,10136,15988,0,64256,65728,6,6,4,1460,726,1,992,50,49964,47068,65700,0,11584,0,0,0
o,0x00000000,1716936386.726560,172.16.1.2,21760,172.16.3.2,5101,10136,15988,0,64256,65728,6,6,4,1460,726,1,992,50,49964,47068,65700,0,13032,0,0,0
o,0x00000000,1716936386.726798,172.16.1.2,21760,172.16.3.2,5101,10136,15988,0,64256,65728,6,6,4,1460,726,1,992,50,49964,47068,65700,0,14480,0,0,0
i,0x00000000,1716936386.765539,172.16.1.2,21760,172.16.3.2,5101,10136,15988,0,64256,65728,6,6,4,1460,726,1,992,50,49964,49964,65700,0,15928,0,0,0
o,0x00000000,1716936386.765556,172.16.1.2,21760,172.16.3.2,5101,10136,15988,0,64256,65728,6,6,4,1460,744,1,992,53,49964,47068,65700,0,13032,0,0,0
o,0x00000000,1716936386.765853,172.16.1.2,21760,172.16.3.2,5101,10136,15988,0,64256,65728,6,6,4,1460,744,1,992,53,49964,47068,65700,0,14480,0,0,0
i,0x00000000,1716936386.817210,172.16.1.2,21760,172.16.3.2,5101,10136,15988,0,64256,65728,6,6,4,1460,744,1,992,53,49964,49964,65700,0,15928,0,0,0
o,0x00000000,1716936386.817223,172.16.1.2,21760,172.16.3.2,5101,10136,15988,0,65728,65728,6,6,4,1460,767,1,992,57,49964,48516,65700,0,14480,0,0,0
i,0x00000000,1716936386.845944,172.16.1.2,21760,172.16.3.2,5101,10136,15988,0,65728,65728,6,6,4,1460,767,1,992,57,49964,48516,65700,0,15928,0,0,0
o,0x00000000,1716936386.845952,172.16.1.2,21760,172.16.3.2,5101,10136,15988,0,64256,65728,6,6,4,1460,772,1,992,55,49964,45620,65700,0,13032,0,0,0
o,0x00000000,1716936386.846307,172.16.1.2,21760,172.16.3.2,5101,10136,15988,0,64256,65728,6,6,4,1460,772,1,992,55,49964,45620,65700,0,14480,0,0,0
i,0x00000000,1716936386.916319,172.16.1.2,21760,172.16.3.2,5101,10136,15988,0,64256,65728,6,6,4,1460,772,1,992,55,49964,49964,65700,0,15928,0,0,0
o,0x00000000,1716936386.916329,172.16.1.2,21760,172.16.3.2,5101,10136,15988,0,64256,65728,6,6,4,1460,784,1,992,56,49964,47068,65700,0,13032,0,0,0
o,0x00000000,1716936386.916597,172.16.1.2,21760,172.16.3.2,5101,10136,15988,0,64256,65728,6,6,4,1460,784,1,992,56,49964,47068,65700,0,14480,0,0,0
i,0x00000000,1716936386.946109,172.16.1.2,21760,172.16.3.2,5101,10136,15988,0,64256,65728,6,6,4,1460,784,1,992,56,49964,49964,65700,0,15928,0,0,0
o,0x00000000,1716936386.946119,172.16.1.2,21760,172.16.3.2,5101,10136,15988,0,65728,65728,6,6,4,1460,794,1,992,56,49964,48516,65700,0,14480,0,0,0
i,0x00000000,1716936386.975567,172.16.1.2,21760,172.16.3.2,5101,10136,15988,0,65728,65728,6,6,4,1460,794,1,992,56,49964,48516,65700,0,15928,0,0,0
o,0x00000000,1716936386.975578,172.16.1.2,21760,172.16.3.2,5101,10136,15988,0,64256,65728,6,6,4,1460,791,1,992,54,49964,45620,65700,0,13032,0,0,0
o,0x00000000,1716936386.975845,172.16.1.2,21760,172.16.3.2,5101,10136,15988,0,64256,65728,6,6,4,1460,791,1,992,54,49964,45620,65700,0,14480,0,0,0
i,0x00000000,1716936387.006336,172.16.1.2,21760,172.16.3.2,5101,10136,15988,0,64256,65728,6,6,4,1460,791,1,992,54,49964,49964,65700,0,15928,0,0,0
o,0x00000000,1716936387.006342,172.16.1.2,21760,172.16.3.2,5101,10136,17448,0,65728,65728,6,6,4,1460,805,1,992,55,49964,48516,65700,0,14480,0,0,0
o,0x00000000,1716936387.006578,172.16.1.2,21760,172.16.3.2,5101,10136,17448,0,65728,65728,6,6,4,1460,805,1,992,55,49964,48516,65700,0,15928,0,0,0
i,0x00000000,1716936387.036321,172.16.1.2,21760,172.16.3.2,5101,10136,17448,0,65728,65728,6,6,4,1460,805,1,992,55,49964,48516,65700,0,17376,0,0,0
o,0x00000000,1716936387.036332,172.16.1.2,21760,172.16.3.2,5101,10136,17448,0,64256,65728,6,6,4,1460,813,1,992,55,49964,45620,65700,0,14480,0,0,0
o,0x00000000,1716936387.036570,172.16.1.2,21760,172.16.3.2,5101,10136,17448,0,64256,65728,6,6,4,1460,813,1,992,55,49964,45620,65700,0,15928,0,0,0
i,0x00000000,1716936387.086345,172.16.1.2,21760,172.16.3.2,5101,10136,17448,0,64256,65728,6,6,4,1460,813,1,992,55,49964,49964,65700,0,17376,0,0,0
o,0x00000000,1716936387.086371,172.16.1.2,21760,172.16.3.2,5101,10136,17448,0,64256,65728,6,6,4,1460,816,1,992,54,49964,47068,65700,0,14480,0,0,0
o,0x00000000,1716936387.086635,172.16.1.2,21760,172.16.3.2,5101,10136,17448,0,64256,65728,6,6,4,1460,816,1,992,54,49964,47068,65700,0,15928,0,0,0
i,0x00000000,1716936387.145391,172.16.1.2,21760,172.16.3.2,5101,10136,17448,0,64256,65728,6,6,4,1460,816,1,992,54,49964,49964,65700,0,17376,0,0,0
o,0x00000000,1716936387.145399,172.16.1.2,21760,172.16.3.2,5101,10136,17448,0,64256,65728,6,6,4,1460,830,1,992,55,49964,47068,65700,0,14480,0,0,0
o,0x00000000,1716936387.145650,172.16.1.2,21760,172.16.3.2,5101,10136,17448,0,64256,65728,6,6,4,1460,830,1,992,55,49964,47068,65700,0,15928,0,0,0
i,0x00000000,1716936387.196635,172.16.1.2,21760,172.16.3.2,5101,10136,17448,0,64256,65728,6,6,4,1460,830,1,992,55,49964,49964,65700,0,17376,0,0,0
o,0x00000000,1716936387.196648,172.16.1.2,21760,172.16.3.2,5101,10136,17448,0,64256,65728,6,6,4,1460,839,1,992,55,49964,47068,65700,0,14480,0,0,0
o,0x00000000,1716936387.196900,172.16.1.2,21760,172.16.3.2,5101,10136,17448,0,64256,65728,6,6,4,1460,839,1,992,55,49964,47068,65700,0,15928,0,0,0
i,0x00000000,1716936387.245764,172.16.1.2,21760,172.16.3.2,5101,10136,17448,0,64256,65728,6,6,4,1460,839,1,992,55,49964,49964,65700,0,17376,0,0,0
o,0x00000000,1716936387.245771,172.16.1.2,21760,172.16.3.2,5101,10136,17448,0,64256,65728,6,6,4,1460,843,1,992,54,49964,47068,65700,0,14480,0,0,0
o,0x00000000,1716936387.246023,172.16.1.2,21760,172.16.3.2,5101,10136,17448,0,64256,65728,6,6,4,1460,843,1,992,54,49964,47068,65700,0,15928,0,0,0
i,0x00000000,1716936387.305738,172.16.1.2,21760,172.16.3.2,5101,10136,17448,0,64256,65728,6,6,4,1460,843,1,992,54,49964,49964,65700,0,17376,0,0,0
o,0x00000000,1716936387.305756,172.16.1.2,21760,172.16.3.2,5101,10136,18908,0,64256,65728,6,6,4,1460,854,1,992,55,49964,47068,65700,0,14480,0,0,0
o,0x00000000,1716936387.306010,172.16.1.2,21760,172.16.3.2,5101,10136,18908,0,64256,65728,6,6,4,1460,854,1,992,55,49964,47068,65700,0,15928,0,0,0
o,0x00000000,1716936387.306356,172.16.1.2,21760,172.16.3.2,5101,10136,18908,0,64256,65728,6,6,4,1460,854,1,992,55,49964,47068,65700,0,17376,0,0,0
i,0x00000000,1716936387.336471,172.16.1.2,21760,172.16.3.2,5101,10136,18908,0,64256,65728,6,6,4,1460,854,1,992,55,49964,49964,65700,0,18824,0,0,0
o,0x00000000,1716936387.336483,172.16.1.2,21760,172.16.3.2,5101,10136,18908,0,65728,65728,6,6,4,1460,868,1,992,57,49964,48516,65700,0,17376,0,0,0
i,0x00000000,1716936387.355482,172.16.1.2,21760,172.16.3.2,5101,10136,18908,0,65728,65728,6,6,4,1460,868,1,992,57,49964,48516,65700,0,18824,0,0,0
o,0x00000000,1716936387.355498,172.16.1.2,21760,172.16.3.2,5101,10136,18908,0,64256,65728,6,6,4,1460,884,1,992,59,49964,45620,65700,0,15928,0,0,0
o,0x00000000,1716936387.355766,172.16.1.2,21760,172.16.3.2,5101,10136,18908,0,64256,65728,6,6,4,1460,884,1,992,59,49964,45620,65700,0,17376,0,0,0
i,0x00000000,1716936387.437061,172.16.1.2,21760,172.16.3.2,5101,10136,18908,0,64256,65728,6,6,4,1460,884,1,992,59,49964,49964,65700,0,18824,0,0,0
o,0x00000000,1716936387.437082,172.16.1.2,21760,172.16.3.2,5101,10136,18908,0,64256,65728,6,6,4,1460,914,1,992,65,49964,47068,65700,0,15928,0,0,0
o,0x00000000,1716936387.437352,172.16.1.2,21760,172.16.3.2,5101,10136,18908,0,64256,65728,6,6,4,1460,914,1,992,65,49964,47068,65700,0,17376,0,0,0
i,0x00000000,1716936387.466589,172.16.1.2,21760,172.16.3.2,5101,10136,18908,0,64256,65728,6,6,4,1460,914,1,992,65,49964,49964,65700,0,18824,0,0,0
o,0x00000000,1716936387.466616,172.16.1.2,21760,172.16.3.2,5101,10136,18908,0,64256,65728,6,6,4,1460,928,1,992,65,49964,47068,65700,0,15928,0,0,0
o,0x00000000,1716936387.467014,172.16.1.2,21760,172.16.3.2,5101,10136,18908,0,64256,65728,6,6,4,1460,928,1,992,65,49964,47068,65700,0,17376,0,0,0
i,0x00000000,1716936387.526691,172.16.1.2,21760,172.16.3.2,5101,10136,18908,0,64256,65728,6,6,4,1460,928,1,992,65,49964,49964,65700,0,18824,0,0,0
o,0x00000000,1716936387.526702,172.16.1.2,21760,172.16.3.2,5101,10136,18908,0,64256,65728,6,6,4,1460,944,1,992,65,49964,47068,65700,0,15928,0,0,0
o,0x00000000,1716936387.526945,172.16.1.2,21760,172.16.3.2,5101,10136,18908,0,64256,65728,6,6,4,1460,944,1,992,65,49964,47068,65700,0,17376,0,0,0
i,0x00000000,1716936387.576433,172.16.1.2,21760,172.16.3.2,5101,10136,18908,0,64256,65728,6,6,4,1460,944,1,992,65,49964,49964,65700,0,18824,0,0,0
o,0x00000000,1716936387.576476,172.16.1.2,21760,172.16.3.2,5101,10136,18908,0,65728,65728,6,6,4,1460,958,1,992,65,49964,48516,65700,0,17376,0,0,0
i,0x00000000,1716936387.586327,172.16.1.2,21760,172.16.3.2,5101,10136,18908,0,65728,65728,6,6,4,1460,958,1,992,65,49964,48516,65700,0,18824,0,0,0
o,0x00000000,1716936387.586339,172.16.1.2,21760,172.16.3.2,5101,10136,18908,0,64256,65728,6,6,4,1460,955,1,992,62,49964,45620,65700,0,15928,0,0,0
o,0x00000000,1716936387.586578,172.16.1.2,21760,172.16.3.2,5101,10136,18908,0,64256,65728,6,6,4,1460,955,1,992,62,49964,45620,65700,0,17376,0,0,0
i,0x00000000,1716936387.637008,172.16.1.2,21760,172.16.3.2,5101,10136,18908,0,64256,65728,6,6,4,1460,955,1,992,62,49964,49964,65700,0,18824,0,0,0
o,0x00000000,1716936387.637018,172.16.1.2,21760,172.16.3.2,5101,10136,20368,0,64256,65728,6,6,4,1460,968,1,992,63,49964,47068,65700,0,15928,0,0,0
o,0x00000000,1716936387.637259,172.16.1.2,21760,172.16.3.2,5101,10136,20368,0,64256,65728,6,6,4,1460,968,1,992,63,49964,47068,65700,0,17376,0,0,0
o,0x00000000,1716936387.637488,172.16.1.2,21760,172.16.3.2,5101,10136,20368,0,64256,65728,6,6,4,1460,968,1,992,63,49964,47068,65700,0,18824,0,0,0
i,0x00000000,1716936387.685153,172.16.1.2,21760,172.16.3.2,5101,10136,20368,0,64256,65728,6,6,4,1460,968,1,992,63,49964,49964,65700,0,20272,0,0,0
o,0x00000000,1716936387.685174,172.16.1.2,21760,172.16.3.2,5101,10136,20368,0,64256,65728,6,6,4,1460,979,1,992,63,49964,47068,65700,0,17376,0,0,0
o,0x00000000,1716936387.685438,172.16.1.2,21760,172.16.3.2,5101,10136,20368,0,64256,65728,6,6,4,1460,979,1,992,63,49964,47068,65700,0,18824,0,0,0
i,0x00000000,1716936387.746871,172.16.1.2,21760,172.16.3.2,5101,10136,20368,0,64256,65728,6,6,4,1460,979,1,992,63,49964,49964,65700,0,20272,0,0,0
o,0x00000000,1716936387.746890,172.16.1.2,21760,172.16.3.2,5101,10136,20368,0,64256,65728,6,6,4,1460,977,1,992,60,49964,47068,65700,0,17376,0,0,0
o,0x00000000,1716936387.747180,172.16.1.2,21760,172.16.3.2,5101,10136,20368,0,64256,65728,6,6,4,1460,977,1,992,60,49964,47068,65700,0,18824,0,0,0
i,0x00000000,1716936387.796662,172.16.1.2,21760,172.16.3.2,5101,10136,20368,0,64256,65728,6,6,4,1460,977,1,992,60,49964,49964,65700,0,20272,0,0,0
o,0x00000000,1716936387.796672,172.16.1.2,21760,172.16.3.2,5101,10136,21720,0,64256,65728,6,6,4,1460,977,1,992,60,49964,49964,65700,0,20272,0,0,0
i,0x00000000,1716936387.796986,172.16.1.2,21760,172.16.3.2,5101,10136,20368,0,64256,65728,6,6,4,1460,977,1,992,60,49964,49964,65700,0,21720,0,0,0
o,0x00000000,1716936387.796990,172.16.1.2,21760,172.16.3.2,5101,10136,23168,0,64256,65728,6,6,4,1460,977,1,992,60,49964,49964,65700,0,21720,0,0,0
i,0x00000000,1716936387.845717,172.16.1.2,21760,172.16.3.2,5101,10136,20368,0,64256,65728,6,6,4,1460,977,1,992,60,49964,49964,65700,0,23168,0,0,0
o,0x00000000,1716936387.845733,172.16.1.2,21760,172.16.3.2,5101,10136,1448,0,64256,65728,6,6,4,1460,977,1,537920480,60,49964,49964,65700,0,23168,0,0,0
i,0x00000000,1716936387.866123,172.16.1.2,21760,172.16.3.2,5101,10136,1448,0,64256,65728,6,6,4,1460,977,1,537920480,60,49964,49964,65700,0,23168,0,0,0
i,0x00000000,1716936387.896649,172.16.1.2,21760,172.16.3.2,5101,10136,1448,0,64256,65728,6,6,4,1460,977,1,537920480,60,49964,49964,65700,0,23168,0,0,0
o,0x00000000,1716936387.896656,172.16.1.2,21760,172.16.3.2,5101,10136,2896,0,64256,65728,6,6,4,1460,977,1,537920480,60,49964,49964,65700,0,23168,0,0,0
i,0x00000000,1716936387.914999,172.16.1.2,21760,172.16.3.2,5101,10136,2896,0,64256,65728,6,6,4,1460,977,1,537920480,60,49964,49964,65700,0,24616,0,0,0
i,0x00000000,1716936387.946089,172.16.1.2,21760,172.16.3.2,5101,10136,2896,0,64256,65728,6,6,4,1460,977,1,537920480,60,49964,49964,65700,0,24616,0,0,0
o,0x00000000,1716936387.946097,172.16.1.2,21760,172.16.3.2,5101,10136,4344,0,64256,65728,6,6,4,1460,977,1,537920480,60,49964,49964,65700,0,24616,0,0,0
i,0x00000000,1716936387.965968,172.16.1.2,21760,172.16.3.2,5101,10136,4344,0,64256,65728,6,6,4,1460,977,1,537920480,60,49964,49964,65700,0,24616,0,0,0
i,0x00000000,1716936387.996000,172.16.1.2,21760,172.16.3.2,5101,10136,4344,0,64256,65728,6,6,4,1460,977,1,537920480,60,49964,49964,65700,0,24616,0,0,0
i,0x00000000,1716936387.996018,172.16.1.2,21760,172.16.3.2,5101,10136,4344,0,64256,65728,6,6,4,1460,977,1,537920480,60,49964,49964,65700,0,24616,0,0,0
o,0x00000000,1716936387.996026,172.16.1.2,21760,172.16.3.2,5101,10136,5792,0,64256,65728,6,6,4,1460,977,1,537920480,60,49964,49964,65700,0,24616,0,0,0
i,0x00000000,1716936388.026020,172.16.1.2,21760,172.16.3.2,5101,10136,5792,0,64256,65728,6,6,4,1460,977,1,537920480,60,49964,49964,65700,0,26064,0,0,0
i,0x00000000,1716936388.057247,172.16.1.2,21760,172.16.3.2,5101,10136,5792,0,64256,65728,6,6,4,1460,977,1,537920480,60,49964,49964,65700,0,26064,0,0,0
o,0x00000000,1716936388.057259,172.16.1.2,21760,172.16.3.2,5101,10136,8688,0,64256,65728,6,6,4,1460,977,1,537920480,60,49964,49964,65700,0,26064,0,0,0
o,0x00000000,1716936388.057352,172.16.1.2,21760,172.16.3.2,5101,10136,8688,0,64256,65728,6,6,4,1460,977,1,537920480,60,49964,49964,65700,0,26064,0,0,0
i,0x00000000,1716936388.057427,172.16.1.2,21760,172.16.3.2,5101,10136,8688,0,64256,65728,6,6,4,1460,977,1,537920480,60,49964,49964,65700,0,27512,0,0,0
o,0x00000000,1716936388.057431,172.16.1.2,21760,172.16.3.2,5101,10136,8688,0,64256,65728,6,6,4,1460,977,1,537920481,60,49964,49964,65700,0,27512,0,0,0
i,0x00000000,1716936388.085138,172.16.1.2,21760,172.16.3.2,5101,10136,8688,0,55616,65728,6,6,4,1460,943,1,537920480,65,49964,49964,65700,0,18824,0,0,0
o,0x00000000,1716936388.085144,172.16.1.2,21760,172.16.3.2,5101,10136,11584,0,55616,65728,6,6,4,1460,943,1,537920480,65,49964,49964,65700,0,18824,0,0,0
o,0x00000000,1716936388.085393,172.16.1.2,21760,172.16.3.2,5101,10136,11584,0,55616,65728,6,6,4,1460,943,1,537920480,65,49964,49964,65700,0,18824,0,0,0
i,0x00000000,1716936388.105923,172.16.1.2,21760,172.16.3.2,5101,10136,11584,0,55616,65728,6,6,4,1460,943,1,537920480,65,49964,49964,65700,0,20272,0,0,0
o,0x00000000,1716936388.105928,172.16.1.2,21760,172.16.3.2,5101,10136,11584,0,55616,65728,6,6,4,1460,943,1,537920481,65,49964,49964,65700,0,20272,0,0,0
i,0x00000000,1716936388.145248,172.16.1.2,21760,172.16.3.2,5101,10136,11584,0,57088,65728,6,6,4,1460,890,1,537920480,73,49964,49964,65700,0,13032,0,0,0
o,0x00000000,1716936388.145256,172.16.1.2,21760,172.16.3.2,5101,10136,13032,0,57088,65728,6,6,4,1460,890,1,537920480,73,49964,49964,65700,0,13032,0,0,0
i,0x00000000,1716936388.225824,172.16.1.2,21760,172.16.3.2,5101,10136,13032,0,57088,65728,6,6,4,1460,890,1,537920480,73,49964,49964,65700,0,14480,0,0,0
o,0x00000000,1716936388.225834,172.16.1.2,21760,172.16.3.2,5101,10136,13032,0,57088,65728,6,6,4,1460,890,1,537920481,73,49964,49964,65700,0,14480,0,0,0
i,0x00000000,1716936388.226082,172.16.1.2,21760,172.16.3.2,5101,10136,13032,0,62848,65728,6,6,4,1460,843,1,537920480,77,49964,47068,65700,0,13032,0,0,0
o,0x00000000,1716936388.226085,172.16.1.2,21760,172.16.3.2,5101,10136,14480,0,62848,65728,6,6,4,1460,843,1,537920480,77,49964,47068,65700,0,13032,0,0,0
i,0x00000000,1716936388.266310,172.16.1.2,21760,172.16.3.2,5101,10136,14480,0,62848,65728,6,6,4,1460,843,1,537920480,77,49964,49964,65700,0,14480,0,0,0
o,0x00000000,1716936388.266324,172.16.1.2,21760,172.16.3.2,5101,10136,15928,0,62848,65728,6,6,4,1460,843,1,537920480,77,49964,49964,65700,0,14480,0,0,0
i,0x00000000,1716936388.275446,172.16.1.2,21760,172.16.3.2,5101,10136,15928,0,62848,65728,6,6,4,1460,843,1,537920480,77,49964,49964,65700,0,15928,0,0,0
o,0x00000000,1716936388.275453,172.16.1.2,21760,172.16.3.2,5101,10136,10148,0,58496,65728,6,6,4,1460,810,1,992,76,49964,42724,65700,0,8688,0,0,0
i,0x00000000,1716936388.315846,172.16.1.2,21760,172.16.3.2,5101,10136,10148,0,58496,65728,6,6,4,1460,810,1,992,76,49964,49964,65700,0,10136,0,0,0
o,0x00000000,1716936388.315859,172.16.1.2,21760,172.16.3.2,5101,10136,10148,0,64256,65728,6,6,4,1460,801,1,992,71,49964,47068,65700,0,7240,0,0,0
o,0x00000000,1716936388.316358,172.16.1.2,21760,172.16.3.2,5101,10136,10148,0,64256,65728,6,6,4,1460,801,1,992,71,49964,47068,65700,0,8688,0,0,0
i,0x00000000,1716936388.365548,172.16.1.2,21760,172.16.3.2,5101,10136,10148,0,64256,65728,6,6,4,1460,801,1,992,71,49964,49964,65700,0,10136,0,0,0
o,0x00000000,1716936388.365567,172.16.1.2,21760,172.16.3.2,5101,10136,11608,0,65728,65728,6,6,4,1460,789,1,992,67,49964,48516,65700,0,8688,0,0,0
o,0x00000000,1716936388.365812,172.16.1.2,21760,172.16.3.2,5101,10136,11608,0,65728,65728,6,6,4,1460,789,1,992,67,49964,48516,65700,0,10136,0,0,0
i,0x00000000,1716936388.415967,172.16.1.2,21760,172.16.3.2,5101,10136,11608,0,65728,65728,6,6,4,1460,789,1,992,67,49964,48516,65700,0,11584,0,0,0
o,0x00000000,1716936388.415980,172.16.1.2,21760,172.16.3.2,5101,10136,11608,0,64256,65728,6,6,4,1460,767,1,992,66,49964,45620,65700,0,8688,0,0,0
o,0x00000000,1716936388.416330,172.16.1.2,21760,172.16.3.2,5101,10136,11608,0,64256,65728,6,6,4,1460,767,1,992,66,49964,45620,65700,0,10136,0,0,0
i,0x00000000,1716936388.465648,172.16.1.2,21760,172.16.3.2,5101,10136,11608,0,64256,65728,6,6,4,1460,767,1,992,66,49964,49964,65700,0,11584,0,0,0
o,0x00000000,1716936388.465658,172.16.1.2,21760,172.16.3.2,5101,10136,11608,0,64256,65728,6,6,4,1460,748,1,992,65,49964,47068,65700,0,8688,0,0,0
o,0x00000000,1716936388.465926,172.16.1.2,21760,172.16.3.2,5101,10136,11608,0,64256,65728,6,6,4,1460,748,1,992,65,49964,47068,65700,0,10136,0,0,0
i,0x00000000,1716936388.516349,172.16.1.2,21760,172.16.3.2,5101,10136,11608,0,64256,65728,6,6,4,1460,748,1,992,65,49964,49964,65700,0,11584,0,0,0
o,0x00000000,1716936388.516357,172.16.1.2,21760,172.16.3.2,5101,10136,11608,0,65728,65728,6,6,4,1460,735,1,992,62,49964,48516,65700,0,10136,0,0,0
i,0x00000000,1716936388.516597,172.16.1.2,21760,172.16.3.2,5101,10136,11608,0,65728,65728,6,6,4,1460,735,1,992,62,49964,48516,65700,0,11584,0,0,0
o,0x00000000,1716936388.516600,172.16.1.2,21760,172.16.3.2,5101,10136,11608,0,64256,65728,6,6,4,1460,724,1,992,60,49964,45620,65700,0,8688,0,0,0
o,0x00000000,1716936388.516836,172.16.1.2,21760,172.16.3.2,5101,10136,11608,0,64256,65728,6,6,4,1460,724,1,992,60,49964,45620,65700,0,10136,0,0,0
i,0x00000000,1716936388.555640,172.16.1.2,21760,172.16.3.2,5101,10136,11608,0,64256,65728,6,6,4,1460,724,1,992,60,49964,49964,65700,0,11584,0,0,0
o,0x00000000,1716936388.555651,172.16.1.2,21760,172.16.3.2,5101,10136,13068,0,64256,65728,6,6,4,1460,710,1,992,59,49964,47068,65700,0,8688,0,0,0
o,0x00000000,1716936388.555891,172.16.1.2,21760,172.16.3.2,5101,10136,13068,0,64256,65728,6,6,4,1460,710,1,992,59,49964,47068,65700,0,10136,0,0,0
o,0x00000000,1716936388.556311,172.16.1.2,21760,172.16.3.2,5101,10136,13068,0,64256,65728,6,6,4,1460,710,1,992,59,49964,47068,65700,0,11584,0,0,0
i,0x00000000,1716936388.606672,172.16.1.2,21760,172.16.3.2,5101,10136,13068,0,64256,65728,6,6,4,1460,710,1,992,59,49964,49964,65700,0,13032,0,0,0
o,0x00000000,1716936388.606689,172.16.1.2,21760,172.16.3.2,5101,10136,13068,0,64256,65728,6,6,4,1460,698,1,992,57,49964,47068,65700,0,10136,0,0,0
o,0x00000000,1716936388.606929,172.16.1.2,21760,172.16.3.2,5101,10136,13068,0,64256,65728,6,6,4,1460,698,1,992,57,49964,47068,65700,0,11584,0,0,0
i,0x00000000,1716936388.666568,172.16.1.2,21760,172.16.3.2,5101,10136,13068,0,64256,65728,6,6,4,1460,698,1,992,57,49964,49964,65700,0,13032,0,0,0
o,0x00000000,1716936388.666583,172.16.1.2,21760,172.16.3.2,5101,10136,13068,0,64256,65728,6,6,4,1460,691,1,992,55,49964,47068,65700,0,10136,0,0,0
o,0x00000000,1716936388.666894,172.16.1.2,21760,172.16.3.2,5101,10136,13068,0,64256,65728,6,6,4,1460,691,1,992,55,49964,47068,65700,0,11584,0,0,0
i,0x00000000,1716936388.725897,172.16.1.2,21760,172.16.3.2,5101,10136,13068,0,64256,65728,6,6,4,1460,691,1,992,55,49964,49964,65700,0,13032,0,0,0
o,0x00000000,1716936388.725905,172.16.1.2,21760,172.16.3.2,5101,10136,13068,0,64256,65728,6,6,4,1460,685,1,992,53,49964,47068,65700,0,10136,0,0,0
o,0x00000000,1716936388.726412,172.16.1.2,21760,172.16.3.2,5101,10136,13068,0,64256,65728,6,6,4,1460,685,1,992,53,49964,47068,65700,0,11584,0,0,0
i,0x00000000,1716936388.775665,172.16.1.2,21760,172.16.3.2,5101,10136,13068,0,64256,65728,6,6,4,1460,685,1,992,53,49964,49964,65700,0,13032,0,0,0
o,0x00000000,1716936388.775680,172.16.1.2,21760,172.16.3.2,5101,10136,14528,0,64256,65728,6,6,4,1460,688,1,992,51,49964,47068,65700,0,10136,0,0,0
o,0x00000000,1716936388.776001,172.16.1.2,21760,172.16.3.2,5101,10136,14528,0,64256,65728,6,6,4,1460,688,1,992,51,49964,47068,65700,0,11584,0,0,0
o,0x00000000,1716936388.776342,172.16.1.2,21760,172.16.3.2,5101,10136,14528,0,64256,65728,6,6,4,1460,688,1,992,51,49964,47068,65700,0,13032,0,0,0
