enable_time_secs=1716935157	enable_time_usecs=540296	siftrver=1.2.4	hz=100	tcp_rtt_scale=32	sysname=FreeBSD	sysver=1301000	ipmode=4
o,0x00000000,1716935157.540335,10.0.2.15,22,10.0.2.2,56176,1073725440,17298,0,65535,65700,0,0,4,1460,1,0,4,24,33580,44,65700,0,0,0,0,0
o,0x00000000,1716935157.540450,10.0.2.15,22,10.0.2.2,56176,1073725440,17298,0,65535,65700,0,0,4,1460,1,0,4,24,33580,80,65700,0,44,0,0,0
i,0x00000000,1716935157.541367,10.0.2.15,22,10.0.2.2,56176,1073725440,17298,0,65535,65700,0,0,4,1460,1,0,4,24,33580,80,65700,0,80,0,0,0
i,0x00000000,1716935157.541448,10.0.2.15,22,10.0.2.2,56176,1073725440,17342,0,65535,65700,0,0,4,1460,1,0,4,24,33580,36,65700,0,36,0,0,0
o,0x00000000,1716935157.541516,10.0.2.15,22,10.0.2.2,56176,1073725440,17378,0,65535,65700,0,0,4,1460,1,0,4,24,33580,36,65700,0,0,0,0,0
i,0x00000000,1716935157.542018,10.0.2.15,22,10.0.2.2,56176,1073725440,17378,0,65535,65700,0,0,4,1460,1,0,4,24,33580,36,65700,0,36,0,0,0
o,0x00000000,1716935157.542179,10.0.2.15,22,10.0.2.2,56176,1073725440,17414,0,65535,65700,0,0,4,1460,1,0,4,24,33580,176,65700,0,0,0,0,0
i,0x00000000,1716935157.542861,10.0.2.15,22,10.0.2.2,56176,1073725440,17414,0,65535,65700,0,0,4,1460,1,0,4,24,33580,176,65700,0,176,0,0,0
i,0x00000000,1716935157.543507,10.0.2.15,22,10.0.2.2,56176,1073725440,17590,0,65535,65700,0,0,4,1460,1,0,4,24,33580,0,65700,0,0,0,0,0
i,0x00000000,1716935157.543509,10.0.2.15,22,10.0.2.2,56176,1073725440,17590,0,65535,65700,0,0,4,1460,1,0,4,24,33580,0,65700,36,0,0,0,0
o,0x00000000,1716935157.543511,10.0.2.15,22,10.0.2.2,56176,1073725440,17590,0,65535,65700,0,0,4,1460,1,0,5,24,33580,0,65700,96,0,0,0,0
i,0x00000000,1716935157.543585,10.0.2.15,22,10.0.2.2,56176,1073725440,17590,0,65535,65700,0,0,4,1460,1,0,4,24,33580,0,65700,96,0,0,0,0
o,0x00000000,1716935157.543588,10.0.2.15,22,10.0.2.2,56176,1073725440,17590,0,65535,65604,0,0,5,1460,1,0,7,24,33580,0,65700,96,0,0,0,0
o,0x00000000,1716935157.544211,10.0.2.15,22,10.0.2.2,56176,1073725440,17590,0,65535,65604,0,0,8,1460,1,0,4,24,33580,0,65700,0,0,0,0,0
i,0x00000000,1716935157.544748,10.0.2.15,22,10.0.2.2,56176,1073725440,17590,0,65535,65604,0,0,8,1460,1,0,20,24,33580,0,65700,0,1,0,0,0
i,0x00000000,1716935159.695413,10.0.2.15,22,10.0.2.2,56180,1073725440,14600,0,65535,65700,0,0,4,1460,1,0,0,27,33580,0,65700,0,0,0,0,0
o,0x00000000,1716935159.701483,10.0.2.15,22,10.0.2.2,56180,1073725440,14600,0,65535,65700,0,0,4,1460,1,0,0,27,33580,38,65700,41,0,0,0,0
i,0x00000000,1716935159.702082,10.0.2.15,22,10.0.2.2,56180,1073725440,14600,0,65535,65700,0,0,4,1460,1,0,0,27,33580,38,65700,0,38,0,0,0
i,0x00000000,1716935159.702975,10.0.2.15,22,10.0.2.2,56180,1073725440,14638,0,65535,65700,0,0,4,1460,1,0,0,24,33580,0,65700,0,0,0,0,0
i,0x00000000,1716935159.702979,10.0.2.15,22,10.0.2.2,56180,1073725440,14638,0,65535,65700,0,0,4,1460,1,0,0,24,33580,0,65700,1460,0,0,0,0
o,0x00000000,1716935159.702982,10.0.2.15,22,10.0.2.2,56180,1073725440,14638,0,65535,65700,0,0,4,1460,1,0,1,24,33580,0,65700,1536,0,0,0,0
o,0x00000000,1716935159.703732,10.0.2.15,22,10.0.2.2,56180,1073725440,14638,0,65535,65700,0,0,4,1460,1,0,0,24,33580,1056,65700,1536,0,0,0,0
i,0x00000000,1716935159.704626,10.0.2.15,22,10.0.2.2,56180,1073725440,14638,0,65535,65700,0,0,4,1460,1,0,0,24,33580,1056,65700,1536,1056,0,0,0
i,0x00000000,1716935159.706333,10.0.2.15,22,10.0.2.2,56180,1073725440,15694,0,65535,65700,0,0,4,1460,1,0,0,24,33580,0,65700,0,0,0,0,0
o,0x00000000,1716935159.709077,10.0.2.15,22,10.0.2.2,56180,1073725440,15694,0,65535,65700,0,0,4,1460,1,0,0,24,33580,484,65700,0,0,0,0,0
i,0x00000000,1716935159.709729,10.0.2.15,22,10.0.2.2,56180,1073725440,15694,0,65535,65700,0,0,4,1460,1,0,0,24,33580,484,65700,0,484,0,0,0
i,0x00000000,1716935159.714335,10.0.2.15,22,10.0.2.2,56180,1073725440,16178,0,65535,65700,0,0,4,1460,1,0,0,24,33580,0,65700,0,0,0,0,0
i,0x00000000,1716935159.718513,10.0.2.15,22,10.0.2.2,56180,1073725440,16178,0,65535,65700,0,0,4,1460,1,0,0,24,33580,0,65700,0,0,0,0,0
o,0x00000000,1716935159.718517,10.0.2.15,22,10.0.2.2,56180,1073725440,16178,0,65535,65700,0,0,4,1460,1,0,1,24,33580,0,65700,44,0,0,0,0
o,0x00000000,1716935159.718659,10.0.2.15,22,10.0.2.2,56180,1073725440,16178,0,65535,65700,0,0,4,1460,1,0,0,24,33580,44,65700,0,0,0,0,0
i,0x00000000,1716935159.719840,10.0.2.15,22,10.0.2.2,56180,1073725440,16178,0,65535,65700,0,0,4,1460,1,0,0,24,33580,44,65700,0,44,0,0,0
i,0x00000000,1716935159.719909,10.0.2.15,22,10.0.2.2,56180,1073725440,16222,0,65535,65700,0,0,4,1460,1,0,0,24,33580,0,65700,0,0,0,0,0
o,0x00000000,1716935159.729511,10.0.2.15,22,10.0.2.2,56180,1073725440,16222,0,65535,65700,0,0,4,1460,1,0,0,24,33580,68,65700,0,0,0,0,0
i,0x00000000,1716935159.730036,10.0.2.15,22,10.0.2.2,56180,1073725440,16222,0,65535,65700,0,0,4,1460,1,0,0,24,33580,68,65700,0,68,0,0,0
i,0x00000000,1716935159.732311,10.0.2.15,22,10.0.2.2,56180,1073725440,16290,0,65535,65700,0,0,4,1460,1,0,0,24,33580,0,65700,0,0,0,0,0
o,0x00000000,1716935159.741786,10.0.2.15,22,10.0.2.2,56180,1073725440,16290,0,65535,65700,0,0,4,1460,1,0,0,24,33580,28,65700,0,0,0,0,0
i,0x00000000,1716935159.742413,10.0.2.15,22,10.0.2.2,56180,1073725440,16290,0,65535,65700,0,0,4,1460,1,0,0,24,33580,28,65700,0,28,0,0,0
i,0x00000000,1716935159.743022,10.0.2.15,22,10.0.2.2,56180,1073725440,16318,0,65535,65700,0,0,4,1460,1,0,0,24,33580,0,65700,0,0,0,0,0
o,0x00000000,1716935159.751474,10.0.2.15,22,10.0.2.2,56180,1073725440,16318,0,65535,65700,0,0,4,1460,1,0,0,24,33580,768,65700,112,0,0,0,0
i,0x00000000,1716935159.752151,10.0.2.15,22,10.0.2.2,56180,1073725440,16318,0,65535,65700,0,0,4,1460,1,0,0,24,33580,768,65700,112,768,0,0,0
o,0x00000000,1716935159.752253,10.0.2.15,22,10.0.2.2,56180,1073725440,17086,0,65535,65700,0,0,4,1460,1,0,0,24,33580,44,65700,0,0,0,0,0
i,0x00000000,1716935159.752860,10.0.2.15,22,10.0.2.2,56180,1073725440,17086,0,65535,65700,0,0,4,1460,1,0,0,24,33580,44,65700,0,44,0,0,0
i,0x00000000,1716935159.753735,10.0.2.15,22,10.0.2.2,56180,1073725440,17130,0,65535,65700,0,0,4,1460,1,0,0,24,33580,0,65700,0,0,0,0,0
o,0x00000000,1716935159.754142,10.0.2.15,22,10.0.2.2,56180,1073725440,17130,0,65535,65700,0,0,4,1460,1,0,4,24,33580,72,65700,0,0,0,0,0
i,0x00000000,1716935159.754787,10.0.2.15,22,10.0.2.2,56180,1073725440,17130,0,65535,65700,0,0,4,1460,1,0,4,24,33580,72,65700,0,72,0,0,0
o,0x00000000,1716935159.757395,10.0.2.15,22,10.0.2.2,56180,1073725440,17202,0,65535,65700,0,0,4,1460,1,0,4,24,33580,44,65700,0,0,0,0,0
i,0x00000000,1716935159.758195,10.0.2.15,22,10.0.2.2,56180,1073725440,17202,0,65535,65700,0,0,4,1460,1,0,4,24,33580,44,65700,0,44,0,0,0
o,0x00000000,1716935159.758439,10.0.2.15,22,10.0.2.2,56180,1073725440,17246,0,65535,65700,0,0,4,1460,1,0,4,24,33580,44,65700,0,0,0,0,0
i,0x00000000,1716935159.759350,10.0.2.15,22,10.0.2.2,56180,1073725440,17246,0,65535,65700,0,0,4,1460,1,0,4,24,33580,44,65700,0,44,0,0,0
o,0x00000000,1716935159.763356,10.0.2.15,22,10.0.2.2,56180,1073725440,17290,0,65535,65700,0,0,4,1460,1,0,4,24,33580,176,65700,0,0,0,0,0
i,0x00000000,1716935159.763988,10.0.2.15,22,10.0.2.2,56180,1073725440,17290,0,65535,65700,0,0,4,1460,1,0,4,24,33580,176,65700,0,176,0,0,0
i,0x00000000,1716935159.764636,10.0.2.15,22,10.0.2.2,56180,1073725440,17466,0,65535,65700,0,0,4,1460,1,0,4,24,33580,0,65700,0,0,0,0,0
i,0x00000000,1716935159.767505,10.0.2.15,22,10.0.2.2,56180,1073725440,17466,0,65535,65700,0,0,4,1460,1,0,4,24,33580,0,65700,0,0,0,0,0
o,0x00000000,1716935159.767509,10.0.2.15,22,10.0.2.2,56180,1073725440,17466,0,65535,65700,0,0,4,1460,1,0,5,24,33580,0,65700,60,0,0,0,0
i,0x00000000,1716935159.767582,10.0.2.15,22,10.0.2.2,56180,1073725440,17466,0,65535,65700,0,0,4,1460,1,0,4,24,33580,0,65700,60,0,0,0,0
o,0x00000000,1716935159.767585,10.0.2.15,22,10.0.2.2,56180,1073725440,17466,0,65535,65640,0,0,5,1460,1,0,7,24,33580,0,65700,60,0,0,0,0
o,0x00000000,1716935159.772597,10.0.2.15,22,10.0.2.2,56180,1073725440,17466,0,65535,65640,0,0,8,1460,1,0,4,24,33580,0,65700,0,0,0,0,0
i,0x00000000,1716935159.773258,10.0.2.15,22,10.0.2.2,56180,1073725440,17466,0,65535,65640,0,0,8,1460,1,0,20,24,33580,0,65700,0,1,0,0,0
i,0x00000000,1716935160.846730,10.0.2.15,22,10.0.2.2,56183,1073725440,14600,0,65535,65700,0,0,4,1460,1,0,0,27,33580,0,65700,0,0,0,0,0
o,0x00000000,1716935160.853448,10.0.2.15,22,10.0.2.2,56183,1073725440,14600,0,65535,65700,0,0,4,1460,1,0,0,27,33580,38,65700,41,0,0,0,0
i,0x00000000,1716935160.854217,10.0.2.15,22,10.0.2.2,56183,1073725440,14600,0,65535,65700,0,0,4,1460,1,0,0,27,33580,38,65700,0,38,0,0,0
i,0x00000000,1716935160.855106,10.0.2.15,22,10.0.2.2,56183,1073725440,14638,0,65535,65700,0,0,4,1460,1,0,0,24,33580,0,65700,0,0,0,0,0
i,0x00000000,1716935160.855109,10.0.2.15,22,10.0.2.2,56183,1073725440,14638,0,65535,65700,0,0,4,1460,1,0,0,24,33580,0,65700,1460,0,0,0,0
o,0x00000000,1716935160.855112,10.0.2.15,22,10.0.2.2,56183,1073725440,14638,0,65535,65700,0,0,4,1460,1,0,1,24,33580,0,65700,1536,0,0,0,0
o,0x00000000,1716935160.855604,10.0.2.15,22,10.0.2.2,56183,1073725440,14638,0,65535,65700,0,0,4,1460,1,0,0,24,33580,1056,65700,1536,0,0,0,0
i,0x00000000,1716935160.856484,10.0.2.15,22,10.0.2.2,56183,1073725440,14638,0,65535,65700,0,0,4,1460,1,0,0,24,33580,1056,65700,1536,1056,0,0,0
i,0x00000000,1716935160.857711,10.0.2.15,22,10.0.2.2,56183,1073725440,15694,0,65535,65700,0,0,4,1460,1,0,0,24,33580,0,65700,0,0,0,0,0
o,0x00000000,1716935160.860304,10.0.2.15,22,10.0.2.2,56183,1073725440,15694,0,65535,65700,0,0,4,1460,1,0,0,24,33580,484,65700,0,0,0,0,0
i,0x00000000,1716935160.861131,10.0.2.15,22,10.0.2.2,56183,1073725440,15694,0,65535,65700,0,0,4,1460,1,0,0,24,33580,484,65700,0,484,0,0,0
i,0x00000000,1716935160.865981,10.0.2.15,22,10.0.2.2,56183,1073725440,16178,0,65535,65700,0,0,4,1460,1,0,0,24,33580,0,65700,0,0,0,0,0
i,0x00000000,1716935160.869931,10.0.2.15,22,10.0.2.2,56183,1073725440,16178,0,65535,65700,0,0,4,1460,1,0,0,24,33580,0,65700,0,0,0,0,0
o,0x00000000,1716935160.869936,10.0.2.15,22,10.0.2.2,56183,1073725440,16178,0,65535,65700,0,0,4,1460,1,0,1,24,33580,0,65700,44,0,0,0,0
o,0x00000000,1716935160.870190,10.0.2.15,22,10.0.2.2,56183,1073725440,16178,0,65535,65700,0,0,4,1460,1,0,0,24,33580,44,65700,0,0,0,0,0
i,0x00000000,1716935160.870860,10.0.2.15,22,10.0.2.2,56183,1073725440,16178,0,65535,65700,0,0,4,1460,1,0,0,24,33580,44,65700,0,44,0,0,0
i,0x00000000,1716935160.871191,10.0.2.15,22,10.0.2.2,56183,1073725440,16222,0,65535,65700,0,0,4,1460,1,0,0,24,33580,0,65700,0,0,0,0,0
o,0x00000000,1716935160.880994,10.0.2.15,22,10.0.2.2,56183,1073725440,16222,0,65535,65700,0,0,4,1460,1,0,0,24,33580,68,65700,0,0,0,0,0
i,0x00000000,1716935160.881626,10.0.2.15,22,10.0.2.2,56183,1073725440,16222,0,65535,65700,0,0,4,1460,1,0,0,24,33580,68,65700,0,68,0,0,0
i,0x00000000,1716935160.883665,10.0.2.15,22,10.0.2.2,56183,1073725440,16290,0,65535,65700,0,0,4,1460,1,0,0,24,33580,0,65700,0,0,0,0,0
o,0x00000000,1716935160.893345,10.0.2.15,22,10.0.2.2,56183,1073725440,16290,0,65535,65700,0,0,4,1460,1,0,0,24,33580,28,65700,0,0,0,0,0
i,0x00000000,1716935160.894005,10.0.2.15,22,10.0.2.2,56183,1073725440,16290,0,65535,65700,0,0,4,1460,1,0,0,24,33580,28,65700,0,28,0,0,0
i,0x00000000,1716935160.894361,10.0.2.15,22,10.0.2.2,56183,1073725440,16318,0,65535,65700,0,0,4,1460,1,0,0,24,33580,0,65700,0,0,0,0,0
o,0x00000000,1716935160.895097,10.0.2.15,22,10.0.2.2,56183,1073725440,16318,0,65535,65700,0,0,4,1460,1,0,0,24,33580,768,65700,112,0,0,0,0
i,0x00000000,1716935160.895889,10.0.2.15,22,10.0.2.2,56183,1073725440,16318,0,65535,65700,0,0,4,1460,1,0,0,24,33580,768,65700,112,768,0,0,0
o,0x00000000,1716935160.895994,10.0.2.15,22,10.0.2.2,56183,1073725440,17086,0,65535,65700,0,0,4,1460,1,0,0,24,33580,44,65700,0,0,0,0,0
i,0x00000000,1716935160.896622,10.0.2.15,22,10.0.2.2,56183,1073725440,17086,0,65535,65700,0,0,4,1460,1,0,0,24,33580,44,65700,0,44,0,0,0
i,0x00000000,1716935160.898993,10.0.2.15,22,10.0.2.2,56183,1073725440,17130,0,65535,65700,0,0,4,1460,1,0,0,24,33580,0,65700,0,0,0,0,0
o,0x00000000,1716935160.899262,10.0.2.15,22,10.0.2.2,56183,1073725440,17130,0,65535,65700,0,0,4,1460,1,0,4,24,33580,72,65700,0,0,0,0,0
i,0x00000000,1716935160.899940,10.0.2.15,22,10.0.2.2,56183,1073725440,17130,0,65535,65700,0,0,4,1460,1,0,4,24,33580,72,65700,0,72,0,0,0
i,0x00000000,1716935160.900262,10.0.2.15,22,10.0.2.2,56183,1073725440,17202,0,65535,65700,0,0,4,1460,1,0,4,24,33580,0,65700,0,0,0,0,0
o,0x00000000,1716935160.905757,172.16.1.2,24972,172.16.3.2,5101,1073725440,1073725440,0,0,0,0,0,2,536,0,1,672,100,32768,0,65536,0,0,0,0,0
o,0x00000000,1716935160.937409,10.0.2.15,22,10.0.2.2,56183,1073725440,17202,0,65535,65700,0,0,4,1460,1,0,5,24,33580,0,65700,0,0,0,0,0
i,0x00000000,1716935161.020485,172.16.1.2,24972,172.16.3.2,5101,1073725440,1073725440,0,0,0,0,0,2,536,0,1,672,100,32768,0,65536,0,1,0,0,0
o,0x00000000,1716935161.020503,172.16.1.2,24972,172.16.3.2,5101,10345,14480,0,65535,65700,6,6,4,1460,902,1,993,75,33580,0,65700,0,0,0,0,0
o,0x00000000,1716935161.020661,172.16.1.2,24972,172.16.3.2,5101,10345,14480,0,65535,65700,6,6,4,1460,902,1,996,75,33580,37,65700,0,0,0,0,0
i,0x00000000,1716935161.140485,172.16.1.2,24972,172.16.3.2,5101,10345,14480,0,65535,65700,6,6,4,1460,902,1,996,75,33580,37,65700,0,37,0,0,0
o,0x00000000,1716935161.140700,172.16.1.2,24972,172.16.3.2,5101,10345,14480,0,65728,65728,6,6,4,1460,838,1,996,83,33580,4,65700,0,0,0,0,0
o,0x00000000,1716935161.140847,172.16.1.2,24972,172.16.3.2,5101,10345,14480,0,65728,65728,6,6,4,1460,838,1,996,83,33580,128,65700,0,4,0,0,0
i,0x00000000,1716935161.261773,172.16.1.2,24972,172.16.3.2,5101,10345,14480,0,65728,65728,6,6,4,1460,838,1,996,83,33580,128,65700,0,128,0,0,0
i,0x00000000,1716935161.261784,172.16.1.2,24972,172.16.3.2,5101,10345,14480,0,65600,65728,6,6,4,1460,778,1,996,87,33580,0,65700,0,0,0,0,0
o,0x00000000,1716935161.261964,172.16.1.2,29606,172.16.3.2,5101,1073725440,1073725440,0,0,0,0,0,2,536,0,1,672,100,32768,0,65536,0,0,0,0,0
o,0x00000000,1716935161.296980,172.16.1.2,24972,172.16.3.2,5101,10345,14480,0,65728,65728,6,6,4,1460,778,1,997,87,33580,0,65700,0,0,0,0,0
i,0x00000000,1716935161.381507,172.16.1.2,29606,172.16.3.2,5101,1073725440,1073725440,0,0,0,0,0,2,536,0,1,672,100,32768,0,65536,0,1,0,0,0
o,0x00000000,1716935161.381522,172.16.1.2,29606,172.16.3.2,5101,10345,14480,0,65535,65700,6,6,4,1460,902,1,993,75,33580,0,65700,0,0,0,0,0
o,0x00000000,1716935161.381662,172.16.1.2,29606,172.16.3.2,5101,10345,14480,0,65535,65700,6,6,4,1460,902,1,992,75,33580,37,65700,0,0,0,0,0
i,0x00000000,1716935161.500361,172.16.1.2,24972,172.16.3.2,5101,10345,14480,0,65728,65728,6,6,4,1460,778,1,996,87,33580,0,65700,0,0,0,0,0
i,0x00000000,1716935161.500373,172.16.1.2,24972,172.16.3.2,5101,10345,14480,0,65728,65728,6,6,4,1460,778,1,996,87,33580,0,65700,1,0,0,0,0
o,0x00000000,1716935161.500380,172.16.1.2,24972,172.16.3.2,5101,10345,14480,0,65728,65728,6,6,4,1460,778,1,997,87,33580,0,65700,2,0,0,0,0
o,0x00000000,1716935161.500675,172.16.1.2,29606,172.16.3.2,5101,10345,14480,0,65535,65700,6,6,4,1460,902,1,992,75,33580,33580,65700,0,37,0,0,0
o,0x00000000,1716935161.501041,172.16.1.2,29606,172.16.3.2,5101,10345,14480,0,65535,65700,6,6,4,1460,902,1,992,75,33580,33580,65700,0,1485,0,0,0
o,0x00000000,1716935161.501360,172.16.1.2,29606,172.16.3.2,5101,10345,14480,0,65535,65700,6,6,4,1460,902,1,992,75,33580,33580,65700,0,2933,0,0,0
o,0x00000000,1716935161.501684,172.16.1.2,29606,172.16.3.2,5101,10345,14480,0,65535,65700,6,6,4,1460,902,1,992,75,33580,33580,65700,0,4381,0,0,0
o,0x00000000,1716935161.501998,172.16.1.2,29606,172.16.3.2,5101,10345,14480,0,65535,65700,6,6,4,1460,902,1,992,75,33580,33580,65700,0,5829,0,0,0
o,0x00000000,1716935161.502312,172.16.1.2,29606,172.16.3.2,5101,10345,14480,0,65535,65700,6,6,4,1460,902,1,992,75,33580,33580,65700,0,7277,0,0,0
o,0x00000000,1716935161.502630,172.16.1.2,29606,172.16.3.2,5101,10345,14480,0,65535,65700,6,6,4,1460,902,1,992,75,33580,33580,65700,0,8725,0,0,0
o,0x00000000,1716935161.502978,172.16.1.2,29606,172.16.3.2,5101,10345,14480,0,65535,65700,6,6,4,1460,902,1,992,75,33580,33580,65700,0,10173,0,0,0
o,0x00000000,1716935161.503294,172.16.1.2,29606,172.16.3.2,5101,10345,14480,0,65535,65700,6,6,4,1460,902,1,992,75,33580,33580,65700,0,11621,0,0,0
i,0x00000000,1716935161.530381,172.16.1.2,29606,172.16.3.2,5101,10345,14480,0,65535,65700,6,6,4,1460,902,1,992,75,33580,33580,65700,0,13069,0,0,0
o,0x00000000,1716935161.530390,172.16.1.2,29606,172.16.3.2,5101,10345,14480,0,65728,65728,6,6,4,1460,850,1,992,80,33580,33543,65700,0,13032,0,0,0
i,0x00000000,1716935161.741263,172.16.1.2,29606,172.16.3.2,5101,10345,14480,0,65728,65728,6,6,4,1460,850,1,992,80,33580,33543,65700,0,14480,0,0,0
o,0x00000000,1716935161.741281,172.16.1.2,29606,172.16.3.2,5101,10345,14480,0,64256,65728,6,6,4,1460,836,1,992,75,33580,30647,65700,0,11584,0,0,0
o,0x00000000,1716935161.741523,172.16.1.2,29606,172.16.3.2,5101,10345,14480,0,64256,65728,6,6,4,1460,836,1,992,75,33580,30647,65700,0,13032,0,0,0
i,0x00000000,1716935161.760809,172.16.1.2,29606,172.16.3.2,5101,10345,14480,0,64256,65728,6,6,4,1460,836,1,992,75,33580,33580,65700,0,14480,0,0,0
o,0x00000000,1716935161.760824,172.16.1.2,29606,172.16.3.2,5101,10345,14480,0,64256,65728,6,6,4,1460,832,1,992,68,33580,30684,65700,0,11584,0,0,0
o,0x00000000,1716935161.761125,172.16.1.2,29606,172.16.3.2,5101,10345,14480,0,64256,65728,6,6,4,1460,832,1,992,68,33580,30684,65700,0,13032,0,0,0
i,0x00000000,1716935161.790568,172.16.1.2,29606,172.16.3.2,5101,10345,14480,0,64256,65728,6,6,4,1460,832,1,992,68,33580,33580,65700,0,14480,0,0,0
o,0x00000000,1716935161.790578,172.16.1.2,29606,172.16.3.2,5101,10345,14480,0,64256,65728,6,6,4,1460,840,1,992,65,33580,30684,65700,0,11584,0,0,0
o,0x00000000,1716935161.790963,172.16.1.2,29606,172.16.3.2,5101,10345,14480,0,64256,65728,6,6,4,1460,840,1,992,65,33580,30684,65700,0,13032,0,0,0
i,0x00000000,1716935161.811302,172.16.1.2,29606,172.16.3.2,5101,10345,14480,0,64256,65728,6,6,4,1460,840,1,992,65,33580,33580,65700,0,14480,0,0,0
i,0x00000000,1716935161.841631,172.16.1.2,29606,172.16.3.2,5101,7240,10136,0,64256,65728,6,6,4,1460,859,1,536871904,66,33580,33580,65700,0,11584,0,0,0
i,0x00000000,1716935161.900604,172.16.1.2,29606,172.16.3.2,5101,7240,8688,0,64256,65728,6,6,4,1460,884,1,536871904,68,33580,33580,65700,0,8688,0,0,0
i,0x00000000,1716935161.950433,172.16.1.2,29606,172.16.3.2,5101,7240,4344,0,64256,65728,6,6,4,1460,838,1,536871904,73,33580,33580,65700,0,5792,0,0,0
o,0x00000000,1716935161.950443,172.16.1.2,29606,172.16.3.2,5101,7240,4344,0,64256,65728,6,6,4,1460,810,1,536871904,72,33580,30684,65700,0,2896,0,0,0
i,0x00000000,1716935161.981593,172.16.1.2,29606,172.16.3.2,5101,7240,4344,0,64256,65728,6,6,4,1460,810,1,536871904,72,33580,33580,65700,0,4344,0,0,0
o,0x00000000,1716935161.981610,172.16.1.2,29606,172.16.3.2,5101,7240,4344,0,64256,65728,6,6,4,1460,785,1,536871904,71,33580,30684,65700,0,1448,0,0,0
o,0x00000000,1716935161.981870,172.16.1.2,29606,172.16.3.2,5101,7240,4344,0,64256,65728,6,6,4,1460,785,1,536871904,71,33580,30684,65700,0,2896,0,0,0
i,0x00000000,1716935162.090338,172.16.1.2,29606,172.16.3.2,5101,7240,4344,0,64256,65728,6,6,4,1460,785,1,536871904,71,33580,33580,65700,0,4344,0,0,0
o,0x00000000,1716935162.090352,172.16.1.2,29606,172.16.3.2,5101,7240,4344,0,65728,65728,6,6,4,1460,743,1,992,73,33580,32132,65700,0,2896,0,0,0
i,0x00000000,1716935162.121407,172.16.1.2,29606,172.16.3.2,5101,7240,4344,0,65728,65728,6,6,4,1460,743,1,992,73,33580,32132,65700,0,4344,0,0,0
o,0x00000000,1716935162.121415,172.16.1.2,29606,172.16.3.2,5101,7240,7240,0,64256,65728,6,6,4,1460,707,1,992,74,33580,29236,65700,0,1448,0,0,0
o,0x00000000,1716935162.121669,172.16.1.2,29606,172.16.3.2,5101,7240,7240,0,64256,65728,6,6,4,1460,707,1,992,74,33580,29236,65700,0,2896,0,0,0
o,0x00000000,1716935162.121905,172.16.1.2,29606,172.16.3.2,5101,7240,7240,0,64256,65728,6,6,4,1460,707,1,992,74,33580,29236,65700,0,4344,0,0,0
o,0x00000000,1716935162.122133,172.16.1.2,29606,172.16.3.2,5101,7240,7240,0,64256,65728,6,6,4,1460,707,1,992,74,33580,29236,65700,0,5792,0,0,0
i,0x00000000,1716935162.271213,172.16.1.2,29606,172.16.3.2,5101,7240,7240,0,64256,65728,6,6,4,1460,707,1,992,74,33580,33580,65700,0,7240,0,0,0
o,0x00000000,1716935162.271231,172.16.1.2,29606,172.16.3.2,5101,7240,10136,0,64256,65728,6,6,4,1460,691,1,992,69,33580,30684,65700,0,4344,0,0,0
o,0x00000000,1716935162.271499,172.16.1.2,29606,172.16.3.2,5101,7240,10136,0,64256,65728,6,6,4,1460,691,1,992,69,33580,30684,65700,0,5792,0,0,0
o,0x00000000,1716935162.271739,172.16.1.2,29606,172.16.3.2,5101,7240,10136,0,64256,65728,6,6,4,1460,691,1,992,69,33580,30684,65700,0,7240,0,0,0
o,0x00000000,1716935162.271974,172.16.1.2,29606,172.16.3.2,5101,7240,10136,0,64256,65728,6,6,4,1460,691,1,992,69,33580,30684,65700,0,8688,0,0,0
i,0x00000000,1716935162.300712,172.16.1.2,29606,172.16.3.2,5101,7240,10136,0,64256,65728,6,6,4,1460,691,1,992,69,33580,33580,65700,0,10136,0,0,0
o,0x00000000,1716935162.300722,172.16.1.2,29606,172.16.3.2,5101,7240,10136,0,64256,65728,6,6,4,1460,677,1,992,65,33580,30684,65700,0,7240,0,0,0
o,0x00000000,1716935162.300955,172.16.1.2,29606,172.16.3.2,5101,7240,10136,0,64256,65728,6,6,4,1460,677,1,992,65,33580,30684,65700,0,8688,0,0,0
i,0x00000000,1716935162.361328,172.16.1.2,29606,172.16.3.2,5101,7240,10136,0,64256,65728,6,6,4,1460,677,1,992,65,33580,33580,65700,0,10136,0,0,0
o,0x00000000,1716935162.361338,172.16.1.2,29606,172.16.3.2,5101,7240,10136,0,65728,65728,6,6,4,1460,685,1,992,62,33580,32132,65700,0,8688,0,0,0
i,0x00000000,1716935162.452921,172.16.1.2,29606,172.16.3.2,5101,7240,10136,0,65728,65728,6,6,4,1460,685,1,992,62,33580,32132,65700,0,10136,0,0,0
o,0x00000000,1716935162.452939,172.16.1.2,29606,172.16.3.2,5101,7240,10136,0,64256,65728,6,6,4,1460,668,1,992,60,33580,29236,65700,0,7240,0,0,0
o,0x00000000,1716935162.453200,172.16.1.2,29606,172.16.3.2,5101,7240,10136,0,64256,65728,6,6,4,1460,668,1,992,60,33580,29236,65700,0,8688,0,0,0
i,0x00000000,1716935162.490983,172.16.1.2,29606,172.16.3.2,5101,7240,10136,0,64256,65728,6,6,4,1460,668,1,992,60,33580,33580,65700,0,10136,0,0,0
o,0x00000000,1716935162.490999,172.16.1.2,29606,172.16.3.2,5101,7240,11596,0,64256,65728,6,6,4,1460,669,1,992,56,33580,30684,65700,0,7240,0,0,0
o,0x00000000,1716935162.491238,172.16.1.2,29606,172.16.3.2,5101,7240,11596,0,64256,65728,6,6,4,1460,669,1,992,56,33580,30684,65700,0,8688,0,0,0
o,0x00000000,1716935162.491579,172.16.1.2,29606,172.16.3.2,5101,7240,11596,0,64256,65728,6,6,4,1460,669,1,992,56,33580,30684,65700,0,10136,0,0,0
i,0x00000000,1716935162.540515,172.16.1.2,29606,172.16.3.2,5101,7240,11596,0,64256,65728,6,6,4,1460,669,1,992,56,33580,33580,65700,0,11584,0,0,0
o,0x00000000,1716935162.540524,172.16.1.2,29606,172.16.3.2,5101,7240,11596,0,64256,65728,6,6,4,1460,678,1,992,54,33580,30684,65700,0,8688,0,0,0
o,0x00000000,1716935162.540758,172.16.1.2,29606,172.16.3.2,5101,7240,11596,0,64256,65728,6,6,4,1460,678,1,992,54,33580,30684,65700,0,10136,0,0,0
i,0x00000000,1716935162.581167,172.16.1.2,29606,172.16.3.2,5101,7240,11596,0,64256,65728,6,6,4,1460,678,1,992,54,33580,33580,65700,0,11584,0,0,0
o,0x00000000,1716935162.581183,172.16.1.2,29606,172.16.3.2,5101,7240,11596,0,65728,65728,6,6,4,1460,678,1,992,51,33580,32132,65700,0,10136,0,0,0
i,0x00000000,1716935162.630420,172.16.1.2,29606,172.16.3.2,5101,7240,11596,0,65728,65728,6,6,4,1460,678,1,992,51,33580,32132,65700,0,11584,0,0,0
o,0x00000000,1716935162.630427,172.16.1.2,29606,172.16.3.2,5101,7240,11596,0,65728,65728,6,6,4,1460,662,1,992,52,33580,30684,65700,0,10136,0,0,0
i,0x00000000,1716935162.661020,172.16.1.2,29606,172.16.3.2,5101,7240,11596,0,65728,65728,6,6,4,1460,662,1,992,52,33580,33580,65700,0,11584,0,0,0
o,0x00000000,1716935162.661039,172.16.1.2,29606,172.16.3.2,5101,7240,11596,0,64256,65728,6,6,4,1460,664,1,992,50,33580,30684,65700,0,8688,0,0,0
o,0x00000000,1716935162.661292,172.16.1.2,29606,172.16.3.2,5101,7240,11596,0,64256,65728,6,6,4,1460,664,1,992,50,33580,30684,65700,0,10136,0,0,0
i,0x00000000,1716935162.701486,172.16.1.2,29606,172.16.3.2,5101,7240,11596,0,64256,65728,6,6,4,1460,664,1,992,50,33580,33580,65700,0,11584,0,0,0
o,0x00000000,1716935162.701500,172.16.1.2,29606,172.16.3.2,5101,7240,11596,0,64256,65728,6,6,4,1460,665,1,992,48,33580,30684,65700,0,8688,0,0,0
o,0x00000000,1716935162.701749,172.16.1.2,29606,172.16.3.2,5101,7240,11596,0,64256,65728,6,6,4,1460,665,1,992,48,33580,30684,65700,0,10136,0,0,0
i,0x00000000,1716935162.740284,172.16.1.2,29606,172.16.3.2,5101,7240,11596,0,64256,65728,6,6,4,1460,665,1,992,48,33580,33580,65700,0,11584,0,0,0
o,0x00000000,1716935162.740291,172.16.1.2,29606,172.16.3.2,5101,7240,13056,0,64256,65728,6,6,4,1460,662,1,992,47,33580,30684,65700,0,8688,0,0,0
o,0x00000000,1716935162.740524,172.16.1.2,29606,172.16.3.2,5101,7240,13056,0,64256,65728,6,6,4,1460,662,1,992,47,33580,30684,65700,0,10136,0,0,0
o,0x00000000,1716935162.740752,172.16.1.2,29606,172.16.3.2,5101,7240,13056,0,64256,65728,6,6,4,1460,662,1,992,47,33580,30684,65700,0,11584,0,0,0
i,0x00000000,1716935162.800192,172.16.1.2,29606,172.16.3.2,5101,7240,13056,0,64256,65728,6,6,4,1460,662,1,992,47,33580,33580,65700,0,13032,0,0,0
o,0x00000000,1716935162.800202,172.16.1.2,29606,172.16.3.2,5101,7240,13056,0,65728,65728,6,6,4,1460,668,1,992,47,33580,32132,65700,0,11584,0,0,0
i,0x00000000,1716935162.831518,172.16.1.2,29606,172.16.3.2,5101,7240,13056,0,65728,65728,6,6,4,1460,668,1,992,47,33580,32132,65700,0,13032,0,0,0
o,0x00000000,1716935162.831526,172.16.1.2,29606,172.16.3.2,5101,7240,13056,0,64256,65728,6,6,4,1460,665,1,992,46,33580,29236,65700,0,10136,0,0,0
o,0x00000000,1716935162.831782,172.16.1.2,29606,172.16.3.2,5101,7240,13056,0,64256,65728,6,6,4,1460,665,1,992,46,33580,29236,65700,0,11584,0,0,0
i,0x00000000,1716935162.881237,172.16.1.2,29606,172.16.3.2,5101,7240,13056,0,64256,65728,6,6,4,1460,665,1,992,46,33580,33580,65700,0,13032,0,0,0
o,0x00000000,1716935162.881244,172.16.1.2,29606,172.16.3.2,5101,7240,13056,0,65728,65728,6,6,4,1460,670,1,992,46,33580,32132,65700,0,11584,0,0,0
i,0x00000000,1716935162.911267,172.16.1.2,29606,172.16.3.2,5101,7240,13056,0,65728,65728,6,6,4,1460,670,1,992,46,33580,32132,65700,0,13032,0,0,0
o,0x00000000,1716935162.911273,172.16.1.2,29606,172.16.3.2,5101,7240,13056,0,64256,65728,6,6,4,1460,667,1,992,46,33580,29236,65700,0,10136,0,0,0
o,0x00000000,1716935162.911515,172.16.1.2,29606,172.16.3.2,5101,7240,13056,0,64256,65728,6,6,4,1460,667,1,992,46,33580,29236,65700,0,11584,0,0,0
i,0x00000000,1716935162.941122,172.16.1.2,29606,172.16.3.2,5101,7240,13056,0,64256,65728,6,6,4,1460,667,1,992,46,33580,33580,65700,0,13032,0,0,0
o,0x00000000,1716935162.941127,172.16.1.2,29606,172.16.3.2,5101,7240,14516,0,64256,65728,6,6,4,1460,664,1,992,45,33580,30684,65700,0,10136,0,0,0
o,0x00000000,1716935162.941356,172.16.1.2,29606,172.16.3.2,5101,7240,14516,0,64256,65728,6,6,4,1460,664,1,992,45,33580,30684,65700,0,11584,0,0,0
o,0x00000000,1716935162.941594,172.16.1.2,29606,172.16.3.2,5101,7240,14516,0,64256,65728,6,6,4,1460,664,1,992,45,33580,30684,65700,0,13032,0,0,0
i,0x00000000,1716935162.991258,172.16.1.2,29606,172.16.3.2,5101,7240,14516,0,64256,65728,6,6,4,1460,664,1,992,45,33580,33580,65700,0,14480,0,0,0
o,0x00000000,1716935162.991274,172.16.1.2,29606,172.16.3.2,5101,7240,14516,0,65728,65728,6,6,4,1460,681,1,992,49,33580,32132,65700,0,13032,0,0,0
i,0x00000000,1716935163.021003,172.16.1.2,29606,172.16.3.2,5101,7240,14516,0,65728,65728,6,6,4,1460,681,1,992,49,33580,32132,65700,0,14480,0,0,0
o,0x00000000,1716935163.021012,172.16.1.2,29606,172.16.3.2,5101,7240,14516,0,64256,65728,6,6,4,1460,680,1,992,47,33580,29236,65700,0,11584,0,0,0
o,0x00000000,1716935163.021250,172.16.1.2,29606,172.16.3.2,5101,7240,14516,0,64256,65728,6,6,4,1460,680,1,992,47,33580,29236,65700,0,13032,0,0,0
i,0x00000000,1716935163.071065,172.16.1.2,29606,172.16.3.2,5101,7240,14516,0,64256,65728,6,6,4,1460,680,1,992,47,33580,33580,65700,0,14480,0,0,0
o,0x00000000,1716935163.071074,172.16.1.2,29606,172.16.3.2,5101,7240,14516,0,64256,65728,6,6,4,1460,691,1,992,49,33580,30684,65700,0,11584,0,0,0
o,0x00000000,1716935163.071342,172.16.1.2,29606,172.16.3.2,5101,7240,14516,0,64256,65728,6,6,4,1460,691,1,992,49,33580,30684,65700,0,13032,0,0,0
i,0x00000000,1716935163.130840,172.16.1.2,29606,172.16.3.2,5101,7240,14516,0,64256,65728,6,6,4,1460,691,1,992,49,33580,33580,65700,0,14480,0,0,0
o,0x00000000,1716935163.130847,172.16.1.2,29606,172.16.3.2,5101,7240,17376,0,64256,65728,6,6,4,1460,691,1,536871904,49,33580,33580,65700,0,14480,0,0,0
o,0x00000000,1716935163.131113,172.16.1.2,29606,172.16.3.2,5101,7240,17376,0,64256,65728,6,6,4,1460,691,1,536871904,49,33580,33580,65700,0,15928,0,0,0
o,0x00000000,1716935163.131357,172.16.1.2,29606,172.16.3.2,5101,7240,17376,0,64256,65728,6,6,4,1460,693,1,536871904,47,41772,30684,65700,0,14480,0,0,0
o,0x00000000,1716935163.131581,172.16.1.2,29606,172.16.3.2,5101,7240,17376,0,64256,65728,6,6,4,1460,693,1,536871904,47,41772,30684,65700,0,15928,0,0,0
i,0x00000000,1716935163.180916,172.16.1.2,29606,172.16.3.2,5101,7240,17376,0,64256,65728,6,6,4,1460,693,1,536871904,47,41772,41772,65700,0,17376,0,0,0
o,0x00000000,1716935163.180962,172.16.1.2,29606,172.16.3.2,5101,7240,17376,0,65728,65728,6,6,4,1460,703,1,536871904,49,41772,40324,65700,0,15928,0,0,0
i,0x00000000,1716935163.211637,172.16.1.2,29606,172.16.3.2,5101,7240,17376,0,65728,65728,6,6,4,1460,703,1,536871904,49,41772,40324,65700,0,17376,0,0,0
i,0x00000000,1716935163.260817,172.16.1.2,29606,172.16.3.2,5101,7240,14480,0,64256,65728,6,6,4,1460,724,1,536871904,53,41772,41772,65700,0,14480,0,0,0
o,0x00000000,1716935163.260824,172.16.1.2,29606,172.16.3.2,5101,7240,13032,0,64256,65728,6,6,4,1460,742,1,536871904,55,41772,38876,65700,0,11584,0,0,0
i,0x00000000,1716935163.301259,172.16.1.2,29606,172.16.3.2,5101,7240,13032,0,64256,65728,6,6,4,1460,742,1,536871904,55,41772,41772,65700,0,13032,0,0,0
o,0x00000000,1716935163.301265,172.16.1.2,29606,172.16.3.2,5101,7240,14480,0,64256,65728,6,6,4,1460,742,1,536871904,55,41772,41772,65700,0,13032,0,0,0
o,0x00000000,1716935163.301525,172.16.1.2,29606,172.16.3.2,5101,7240,14480,0,65728,65728,6,6,4,1460,762,1,536871904,58,41772,40324,65700,0,13032,0,0,0
i,0x00000000,1716935163.340815,172.16.1.2,29606,172.16.3.2,5101,7240,14480,0,65728,65728,6,6,4,1460,762,1,536871904,58,41772,40324,65700,0,14480,0,0,0
i,0x00000000,1716935163.370203,172.16.1.2,29606,172.16.3.2,5101,7240,11584,0,64256,65728,6,6,4,1460,775,1,536871904,58,41772,41772,65700,0,11584,0,0,0
o,0x00000000,1716935163.370214,172.16.1.2,29606,172.16.3.2,5101,7240,11584,0,65728,65728,6,6,4,1460,775,1,992,55,41772,40324,65700,0,10136,0,0,0
i,0x00000000,1716935163.380607,172.16.1.2,29606,172.16.3.2,5101,7240,11584,0,65728,65728,6,6,4,1460,775,1,992,55,41772,41296,65700,0,11584,0,0,0
o,0x00000000,1716935163.380612,172.16.1.2,29606,172.16.3.2,5101,5792,17376,0,65728,65728,6,6,4,1460,775,1,536871904,55,41772,41296,65700,0,11584,0,0,0
o,0x00000000,1716935163.380848,172.16.1.2,29606,172.16.3.2,5101,5792,17376,0,65728,65728,6,6,4,1460,775,1,536871904,55,41772,41296,65700,0,13032,0,0,0
o,0x00000000,1716935163.381077,172.16.1.2,29606,172.16.3.2,5101,5792,17376,0,65728,65728,6,6,4,1460,775,1,536871904,55,41772,41296,65700,0,14480,0,0,0
o,0x00000000,1716935163.381403,172.16.1.2,29606,172.16.3.2,5101,5792,17376,0,65728,65728,6,6,4,1460,775,1,536871904,55,41772,41296,65700,0,15928,0,0,0
o,0x00000000,1716935163.381768,172.16.1.2,29606,172.16.3.2,5101,5792,17376,0,64256,65728,6,6,4,1460,779,1,536871904,53,41772,38400,65700,0,14480,0,0,0
o,0x00000000,1716935163.382080,172.16.1.2,29606,172.16.3.2,5101,5792,17376,0,64256,65728,6,6,4,1460,779,1,536871904,53,41772,38400,65700,0,15928,0,0,0
i,0x00000000,1716935163.431646,172.16.1.2,29606,172.16.3.2,5101,5792,17376,0,64256,65728,6,6,4,1460,779,1,536871904,53,41772,41772,65700,0,17376,0,0,0
o,0x00000000,1716935163.431664,172.16.1.2,29606,172.16.3.2,5101,5792,15928,0,64256,65728,6,6,4,1460,802,1,536871904,57,41772,38876,65700,0,14480,0,0,0
i,0x00000000,1716935163.481144,172.16.1.2,29606,172.16.3.2,5101,5792,15928,0,64256,65728,6,6,4,1460,802,1,536871904,57,41772,41772,65700,0,15928,0,0,0
o,0x00000000,1716935163.481160,172.16.1.2,29606,172.16.3.2,5101,5792,14480,0,64256,65728,6,6,4,1460,790,1,536871904,57,41772,38876,65700,0,13032,0,0,0
i,0x00000000,1716935163.540306,172.16.1.2,29606,172.16.3.2,5101,5792,14480,0,64256,65728,6,6,4,1460,790,1,536871904,57,41772,41772,65700,0,14480,0,0,0
o,0x00000000,1716935163.540318,172.16.1.2,29606,172.16.3.2,5101,5792,14480,0,65728,65728,6,6,4,1460,788,1,536871904,54,41772,40324,65700,0,13032,0,0,0
i,0x00000000,1716935163.601103,172.16.1.2,29606,172.16.3.2,5101,5792,14480,0,65728,65728,6,6,4,1460,788,1,536871904,54,41772,40324,65700,0,14480,0,0,0
o,0x00000000,1716935163.601126,172.16.1.2,29606,172.16.3.2,5101,5792,14480,0,64256,65728,6,6,4,1460,778,1,992,54,41772,37428,65700,0,11584,0,0,0
o,0x00000000,1716935163.601463,172.16.1.2,29606,172.16.3.2,5101,5792,14480,0,64256,65728,6,6,4,1460,778,1,992,54,41772,37428,65700,0,13032,0,0,0
i,0x00000000,1716935163.631246,172.16.1.2,29606,172.16.3.2,5101,5792,14480,0,64256,65728,6,6,4,1460,778,1,992,54,41772,41772,65700,0,14480,0,0,0
o,0x00000000,1716935163.631263,172.16.1.2,29606,172.16.3.2,5101,5792,15940,0,64256,65728,6,6,4,1460,781,1,992,52,41772,38876,65700,0,11584,0,0,0
o,0x00000000,1716935163.631530,172.16.1.2,29606,172.16.3.2,5101,5792,15940,0,64256,65728,6,6,4,1460,781,1,992,52,41772,38876,65700,0,13032,0,0,0
o,0x00000000,1716935163.631756,172.16.1.2,29606,172.16.3.2,5101,5792,15940,0,64256,65728,6,6,4,1460,781,1,992,52,41772,38876,65700,0,14480,0,0,0
i,0x00000000,1716935163.671358,172.16.1.2,29606,172.16.3.2,5101,5792,15940,0,64256,65728,6,6,4,1460,781,1,992,52,41772,41772,65700,0,15928,0,0,0
o,0x00000000,1716935163.671369,172.16.1.2,29606,172.16.3.2,5101,7240,30408,0,64256,65728,6,6,4,1460,781,1,536871904,52,49964,41772,65700,0,15928,0,0,0
o,0x00000000,1716935163.671614,172.16.1.2,29606,172.16.3.2,5101,7240,30408,0,64256,65728,6,6,4,1460,781,1,536871904,52,49964,41772,65700,0,17376,0,0,0
o,0x00000000,1716935163.671850,172.16.1.2,29606,172.16.3.2,5101,7240,30408,0,64256,65728,6,6,4,1460,781,1,536871904,52,49964,41772,65700,0,18824,0,0,0
o,0x00000000,1716935163.672077,172.16.1.2,29606,172.16.3.2,5101,7240,30408,0,64256,65728,6,6,4,1460,781,1,536871904,52,49964,41772,65700,0,20272,0,0,0
o,0x00000000,1716935163.672304,172.16.1.2,29606,172.16.3.2,5101,7240,30408,0,64256,65728,6,6,4,1460,781,1,536871904,52,49964,41772,65700,0,21720,0,0,0
o,0x00000000,1716935163.672637,172.16.1.2,29606,172.16.3.2,5101,7240,30408,0,64256,65728,6,6,4,1460,781,1,536871904,52,49964,41772,65700,0,23168,0,0,0
o,0x00000000,1716935163.672968,172.16.1.2,29606,172.16.3.2,5101,7240,30408,0,64256,65728,6,6,4,1460,781,1,536871904,52,49964,41772,65700,0,24616,0,0,0
o,0x00000000,1716935163.673286,172.16.1.2,29606,172.16.3.2,5101,7240,30408,0,64256,65728,6,6,4,1460,781,1,536871904,52,49964,41772,65700,0,26064,0,0,0
o,0x00000000,1716935163.673577,172.16.1.2,29606,172.16.3.2,5101,7240,30408,0,64256,65728,6,6,4,1460,781,1,536871904,52,49964,41772,65700,0,27512,0,0,0
o,0x00000000,1716935163.673856,172.16.1.2,29606,172.16.3.2,5101,7240,30408,0,64256,65728,6,6,4,1460,781,1,536871904,52,49964,41772,65700,0,28960,0,0,0
o,0x00000000,1716935163.674125,172.16.1.2,29606,172.16.3.2,5101,7240,30408,0,64256,65728,6,6,4,1460,800,1,536871904,56,49964,38876,65700,0,27512,0,0,0
o,0x00000000,1716935163.674396,172.16.1.2,29606,172.16.3.2,5101,7240,30408,0,64256,65728,6,6,4,1460,800,1,536871904,56,49964,38876,65700,0,28960,0,0,0
i,0x00000000,1716935163.700994,172.16.1.2,29606,172.16.3.2,5101,7240,30408,0,64256,65728,6,6,4,1460,800,1,536871904,56,66348,66348,65700,0,30408,0,0,0
o,0x00000000,1716935163.701008,172.16.1.2,29606,172.16.3.2,5101,7240,28960,0,64256,65728,6,6,4,1460,828,1,536871904,61,66348,63452,65700,0,27512,0,0,0
i,0x00000000,1716935163.750578,172.16.1.2,29606,172.16.3.2,5101,7240,28960,0,64256,65728,6,6,4,1460,828,1,536871904,61,66348,66348,65700,0,28960,0,0,0
o,0x00000000,1716935163.750585,172.16.1.2,29606,172.16.3.2,5101,7240,30408,0,64256,65728,6,6,4,1460,828,1,536871904,61,66348,66348,65700,0,28960,0,0,0
o,0x00000000,1716935163.750826,172.16.1.2,29606,172.16.3.2,5101,7240,30408,0,65728,65728,6,6,4,1460,833,1,536871904,59,66348,64900,65700,0,28960,0,0,0
i,0x00000000,1716935163.810681,172.16.1.2,29606,172.16.3.2,5101,7240,30408,0,65728,65728,6,6,4,1460,833,1,536871904,59,66348,64900,65700,0,30408,0,0,0
i,0x00000000,1716935163.969850,172.16.1.2,29606,172.16.3.2,5101,7240,27512,0,64256,65728,6,6,4,1460,837,1,536871904,56,66348,66348,65700,0,27512,0,0,0
o,0x00000000,1716935163.969868,172.16.1.2,29606,172.16.3.2,5101,7240,26064,0,64256,65728,6,6,4,1460,877,1,536871904,65,66348,63452,65700,0,24616,0,0,0
i,0x00000000,1716935164.010588,172.16.1.2,29606,172.16.3.2,5101,7240,26064,0,64256,65728,6,6,4,1460,877,1,536871904,65,66348,66348,65700,0,26064,0,0,0
o,0x00000000,1716935164.010607,172.16.1.2,29606,172.16.3.2,5101,7240,24616,0,64256,65728,6,6,4,1460,920,1,536871904,73,66348,63452,65700,0,23168,0,0,0
i,0x00000000,1716935164.021155,172.16.1.2,29606,172.16.3.2,5101,7240,24616,0,64256,65728,6,6,4,1460,920,1,536871904,73,66348,66348,65700,0,24616,0,0,0
o,0x00000000,1716935164.021163,172.16.1.2,29606,172.16.3.2,5101,7240,24616,0,65728,65728,6,6,4,1460,945,1,992,74,66348,64900,65700,0,23168,0,0,0
i,0x00000000,1716935164.070953,172.16.1.2,29606,172.16.3.2,5101,7240,24616,0,65728,65728,6,6,4,1460,945,1,992,74,66348,64900,65700,0,24616,0,0,0
o,0x00000000,1716935164.070959,172.16.1.2,29606,172.16.3.2,5101,7240,24616,0,64256,65728,6,6,4,1460,987,1,992,80,66348,62004,65700,0,21720,0,0,0
o,0x00000000,1716935164.071208,172.16.1.2,29606,172.16.3.2,5101,7240,24616,0,64256,65728,6,6,4,1460,987,1,992,80,66348,62004,65700,0,23168,0,0,0
i,0x00000000,1716935164.091580,172.16.1.2,29606,172.16.3.2,5101,7240,24616,0,64256,65728,6,6,4,1460,987,1,992,80,66348,66348,65700,0,24616,0,0,0
o,0x00000000,1716935164.091586,172.16.1.2,29606,172.16.3.2,5101,11584,65160,0,64256,65728,6,6,4,1460,987,1,536871904,80,74540,66348,65700,0,24616,0,0,0
o,0x00000000,1716935164.091825,172.16.1.2,29606,172.16.3.2,5101,11584,65160,0,64256,65728,6,6,4,1460,987,1,536871904,80,82732,66348,65700,0,26064,0,0,0
o,0x00000000,1716935164.092052,172.16.1.2,29606,172.16.3.2,5101,11584,65160,0,64256,65728,6,6,4,1460,987,1,536871904,80,82732,66348,65700,0,27512,0,0,0
o,0x00000000,1716935164.092284,172.16.1.2,29606,172.16.3.2,5101,11584,65160,0,64256,65728,6,6,4,1460,987,1,536871904,80,82732,66348,65700,0,28960,0,0,0
o,0x00000000,1716935164.092511,172.16.1.2,29606,172.16.3.2,5101,11584,65160,0,64256,65728,6,6,4,1460,987,1,536871904,80,82732,66348,65700,0,30408,0,0,0
o,0x00000000,1716935164.092774,172.16.1.2,29606,172.16.3.2,5101,11584,65160,0,64256,65728,6,6,4,1460,987,1,536871904,80,82732,66348,65700,0,31856,0,0,0
o,0x00000000,1716935164.093009,172.16.1.2,29606,172.16.3.2,5101,11584,65160,0,64256,65728,6,6,4,1460,987,1,536871904,80,82732,66348,65700,0,33304,0,0,0
o,0x00000000,1716935164.093233,172.16.1.2,29606,172.16.3.2,5101,11584,65160,0,64256,65728,6,6,4,1460,987,1,536871904,80,82732,66348,65700,0,34752,0,0,0
o,0x00000000,1716935164.093478,172.16.1.2,29606,172.16.3.2,5101,11584,65160,0,64256,65728,6,6,4,1460,987,1,536871904,80,82732,66348,65700,0,36200,0,0,0
o,0x00000000,1716935164.093741,172.16.1.2,29606,172.16.3.2,5101,11584,65160,0,64256,65728,6,6,4,1460,987,1,536871904,80,82732,66348,65700,0,37648,0,0,0
o,0x00000000,1716935164.093996,172.16.1.2,29606,172.16.3.2,5101,11584,65160,0,64256,65728,6,6,4,1460,987,1,536871904,80,82732,66348,65700,0,39096,0,0,0
o,0x00000000,1716935164.094222,172.16.1.2,29606,172.16.3.2,5101,11584,65160,0,64256,65728,6,6,4,1460,987,1,536871904,80,82732,66348,65700,0,40544,0,0,0
o,0x00000000,1716935164.094448,172.16.1.2,29606,172.16.3.2,5101,11584,65160,0,64256,65728,6,6,4,1460,987,1,536871904,80,82732,66348,65700,0,41992,0,0,0
o,0x00000000,1716935164.094675,172.16.1.2,29606,172.16.3.2,5101,11584,65160,0,64256,65728,6,6,4,1460,987,1,536871904,80,82732,66348,65700,0,43440,0,0,0
o,0x00000000,1716935164.094912,172.16.1.2,29606,172.16.3.2,5101,11584,65160,0,64256,65728,6,6,4,1460,987,1,536871904,80,82732,66348,65700,0,44888,0,0,0
o,0x00000000,1716935164.095142,172.16.1.2,29606,172.16.3.2,5101,11584,65160,0,64256,65728,6,6,4,1460,987,1,536871904,80,82732,66348,65700,0,46336,0,0,0
o,0x00000000,1716935164.095592,172.16.1.2,29606,172.16.3.2,5101,11584,65160,0,64256,65728,6,6,4,1460,987,1,536871904,80,82732,66348,65700,0,47784,0,0,0
o,0x00000000,1716935164.095822,172.16.1.2,29606,172.16.3.2,5101,11584,65160,0,64256,65728,6,6,4,1460,987,1,536871904,80,82732,66348,65700,0,49232,0,0,0
o,0x00000000,1716935164.096175,172.16.1.2,29606,172.16.3.2,5101,11584,65160,0,64256,65728,6,6,4,1460,987,1,536871904,80,82732,66348,65700,0,50680,0,0,0
o,0x00000000,1716935164.096519,172.16.1.2,29606,172.16.3.2,5101,11584,65160,0,64256,65728,6,6,4,1460,987,1,536871904,80,82732,66348,65700,0,52128,0,0,0
o,0x00000000,1716935164.096747,172.16.1.2,29606,172.16.3.2,5101,11584,65160,0,64256,65728,6,6,4,1460,987,1,536871904,80,82732,66348,65700,0,53576,0,0,0
o,0x00000000,1716935164.096971,172.16.1.2,29606,172.16.3.2,5101,11584,65160,0,64256,65728,6,6,4,1460,987,1,536871904,80,82732,66348,65700,0,55024,0,0,0
o,0x00000000,1716935164.097199,172.16.1.2,29606,172.16.3.2,5101,11584,65160,0,64256,65728,6,6,4,1460,987,1,536871904,80,82732,66348,65700,0,56472,0,0,0
o,0x00000000,1716935164.097423,172.16.1.2,29606,172.16.3.2,5101,11584,65160,0,64256,65728,6,6,4,1460,987,1,536871904,80,82732,66348,65700,0,57920,0,0,0
o,0x00000000,1716935164.097653,172.16.1.2,29606,172.16.3.2,5101,11584,65160,0,64256,65728,6,6,4,1460,987,1,536871904,80,82732,66348,65700,0,59368,0,0,0
o,0x00000000,1716935164.097983,172.16.1.2,29606,172.16.3.2,5101,11584,65160,0,64256,65728,6,6,4,1460,987,1,536871904,80,82732,66348,65700,0,60816,0,0,0
o,0x00000000,1716935164.098216,172.16.1.2,29606,172.16.3.2,5101,11584,65160,0,64256,65728,6,6,4,1460,987,1,536871904,80,82732,66348,65700,0,62264,0,0,0
o,0x00000000,1716935164.098442,172.16.1.2,29606,172.16.3.2,5101,11584,65160,0,64256,65728,6,6,4,1460,1032,1,536871904,85,82732,63452,65700,0,60816,0,0,0
o,0x00000000,1716935164.098817,172.16.1.2,29606,172.16.3.2,5101,11584,65160,0,64256,65728,6,6,4,1460,1032,1,536871904,85,82732,82732,65700,0,62264,0,0,0
i,0x00000000,1716935164.120647,172.16.1.2,29606,172.16.3.2,5101,11584,65160,0,64256,65728,6,6,4,1460,1032,1,536871904,85,82732,82732,65700,0,63712,0,0,0
o,0x00000000,1716935164.120654,172.16.1.2,29606,172.16.3.2,5101,11584,63712,0,64256,65728,6,6,4,1460,1083,1,536871904,91,82732,79836,65700,0,60816,0,0,0
o,0x00000000,1716935164.120893,172.16.1.2,29606,172.16.3.2,5101,11584,63712,0,64256,65728,6,6,4,1460,1083,1,536871904,91,82732,79836,65700,0,62264,0,0,0
i,0x00000000,1716935164.150389,172.16.1.2,29606,172.16.3.2,5101,11584,63712,0,64256,65728,6,6,4,1460,1083,1,536871904,91,82732,82732,65700,0,63712,0,0,0
o,0x00000000,1716935164.150395,172.16.1.2,29606,172.16.3.2,5101,11584,63712,0,64256,65728,6,6,4,1460,1140,1,536871904,98,82732,79836,65700,0,60816,0,0,0
o,0x00000000,1716935164.150630,172.16.1.2,29606,172.16.3.2,5101,11584,63712,0,64256,65728,6,6,4,1460,1140,1,536871904,98,82732,79836,65700,0,62264,0,0,0
i,0x00000000,1716935164.171189,172.16.1.2,29606,172.16.3.2,5101,11584,63712,0,64256,65728,6,6,4,1460,1140,1,536871904,98,82732,82732,65700,0,63712,0,0,0
o,0x00000000,1716935164.171197,172.16.1.2,29606,172.16.3.2,5101,11584,62264,0,64256,65728,6,6,4,1460,1194,1,536871904,103,82732,79836,65700,0,60816,0,0,0
i,0x00000000,1716935164.201152,172.16.1.2,29606,172.16.3.2,5101,11584,62264,0,64256,65728,6,6,4,1460,1194,1,536871904,103,82732,82732,65700,0,62264,0,0,0
o,0x00000000,1716935164.201165,172.16.1.2,29606,172.16.3.2,5101,11584,62264,0,64256,65728,6,6,4,1460,1257,1,536871904,109,82732,79836,65700,0,59368,0,0,0
o,0x00000000,1716935164.201419,172.16.1.2,29606,172.16.3.2,5101,11584,62264,0,64256,65728,6,6,4,1460,1257,1,536871904,109,82732,79836,65700,0,60816,0,0,0
i,0x00000000,1716935164.231075,172.16.1.2,29606,172.16.3.2,5101,11584,62264,0,64256,65728,6,6,4,1460,1257,1,536871904,109,82732,82732,65700,0,62264,0,0,0
o,0x00000000,1716935164.231080,172.16.1.2,29606,172.16.3.2,5101,11584,62264,0,64256,65728,6,6,4,1460,1292,1,536871904,106,82732,79836,65700,0,59368,0,0,0
o,0x00000000,1716935164.231316,172.16.1.2,29606,172.16.3.2,5101,11584,62264,0,64256,65728,6,6,4,1460,1292,1,536871904,106,82732,79836,65700,0,60816,0,0,0
i,0x00000000,1716935164.701040,172.16.1.2,29606,172.16.3.2,5101,11584,62264,0,64256,65728,6,6,4,1460,1292,1,536871904,106,82732,82732,65700,0,62264,0,0,0
o,0x00000000,1716935164.701062,172.16.1.2,29606,172.16.3.2,5101,11584,62264,0,65728,65728,6,6,4,1460,1423,1,536871904,132,82732,81284,65700,0,60816,0,0,0
i,0x00000000,1716935164.720841,172.16.1.2,29606,172.16.3.2,5101,11584,62264,0,65728,65728,6,6,4,1460,1423,1,536871904,132,82732,81284,65700,0,62264,0,0,0
o,0x00000000,1716935164.720853,172.16.1.2,29606,172.16.3.2,5101,11584,60816,0,64256,65728,6,6,4,1460,1530,1,536871904,145,82732,78388,65700,0,59368,0,0,0
i,0x00000000,1716935164.781087,172.16.1.2,29606,172.16.3.2,5101,11584,60816,0,64256,65728,6,6,4,1460,1530,1,536871904,145,82732,82732,65700,0,60816,0,0,0
o,0x00000000,1716935164.781097,172.16.1.2,29606,172.16.3.2,5101,11584,62264,0,64256,65728,6,6,4,1460,1530,1,536871904,145,82732,82732,65700,0,60816,0,0,0
o,0x00000000,1716935164.781189,172.16.1.2,29606,172.16.3.2,5101,11584,62264,0,65728,65728,6,6,4,1460,1623,1,536871904,152,82732,81284,65700,0,60816,0,0,0
i,0x00000000,1716935164.781262,172.16.1.2,29606,172.16.3.2,5101,11584,62264,0,65728,65728,6,6,4,1460,1623,1,536871904,152,82732,81284,65700,0,62264,0,0,0
o,0x00000000,1716935164.781264,172.16.1.2,29606,172.16.3.2,5101,30408,165072,0,65728,65728,6,6,4,1460,1623,1,536871904,152,82732,81284,65700,0,62264,0,0,0
o,0x00000000,1716935164.781337,172.16.1.2,29606,172.16.3.2,5101,30408,165072,0,65728,65728,6,6,4,1460,1623,1,536871904,152,82732,81284,65700,0,63712,0,0,0
o,0x00000000,1716935164.781411,172.16.1.2,29606,172.16.3.2,5101,30408,165072,0,64256,65728,6,6,4,1460,1705,1,536871904,155,82732,78388,65700,0,62264,0,0,0
i,0x00000000,1716935164.830637,172.16.1.2,29606,172.16.3.2,5101,30408,165072,0,64256,65728,6,6,4,1460,1705,1,536871904,155,82732,82732,65700,0,63712,0,0,0
o,0x00000000,1716935164.830645,172.16.1.2,29606,172.16.3.2,5101,30408,167968,0,64256,65728,6,6,4,1460,1788,1,536871904,158,82732,79836,65700,0,60816,0,0,0
o,0x00000000,1716935164.830939,172.16.1.2,29606,172.16.3.2,5101,30408,167968,0,64256,65728,6,6,4,1460,1788,1,536871904,158,82732,79836,65700,0,62264,0,0,0
i,0x00000000,1716935164.860961,172.16.1.2,29606,172.16.3.2,5101,30408,167968,0,64256,65728,6,6,4,1460,1788,1,536871904,158,82732,82732,65700,0,63712,0,0,0
o,0x00000000,1716935164.860977,172.16.1.2,29606,172.16.3.2,5101,30408,172312,0,64256,65728,6,6,4,1460,1869,1,536871904,160,82732,79836,65700,0,60816,0,0,0
o,0x00000000,1716935164.861246,172.16.1.2,29606,172.16.3.2,5101,30408,172312,0,64256,65728,6,6,4,1460,1869,1,536871904,160,82732,79836,65700,0,62264,0,0,0
i,0x00000000,1716935164.881737,172.16.1.2,29606,172.16.3.2,5101,30408,172312,0,64256,65728,6,6,4,1460,1869,1,536871904,160,82732,82732,65700,0,63712,0,0,0
o,0x00000000,1716935164.881744,172.16.1.2,29606,172.16.3.2,5101,30408,175208,0,64256,65728,6,6,4,1460,1948,1,536871904,162,82732,79836,65700,0,60816,0,0,0
o,0x00000000,1716935164.882038,172.16.1.2,29606,172.16.3.2,5101,30408,175208,0,64256,65728,6,6,4,1460,1948,1,536871904,162,82732,79836,65700,0,62264,0,0,0
i,0x00000000,1716935164.910843,172.16.1.2,29606,172.16.3.2,5101,30408,175208,0,64256,65728,6,6,4,1460,1948,1,536871904,162,82732,82732,65700,0,63712,0,0,0
o,0x00000000,1716935164.910851,172.16.1.2,29606,172.16.3.2,5101,30408,178104,0,64256,65728,6,6,4,1460,2033,1,536871904,165,82732,79836,65700,0,60816,0,0,0
o,0x00000000,1716935164.911155,172.16.1.2,29606,172.16.3.2,5101,30408,178104,0,64256,65728,6,6,4,1460,2033,1,536871904,165,82732,79836,65700,0,62264,0,0,0
i,0x00000000,1716935164.940126,172.16.1.2,29606,172.16.3.2,5101,30408,178104,0,64256,65728,6,6,4,1460,2033,1,536871904,165,82732,82732,65700,0,63712,0,0,0
o,0x00000000,1716935164.940133,172.16.1.2,29606,172.16.3.2,5101,30408,181000,0,64256,65728,6,6,4,1460,2115,1,536871904,168,82732,79836,65700,0,60816,0,0,0
o,0x00000000,1716935164.940518,172.16.1.2,29606,172.16.3.2,5101,30408,181000,0,64256,65728,6,6,4,1460,2115,1,536871904,168,82732,79836,65700,0,62264,0,0,0
i,0x00000000,1716935164.960938,172.16.1.2,29606,172.16.3.2,5101,30408,181000,0,64256,65728,6,6,4,1460,2115,1,536871904,168,82732,82732,65700,0,63712,0,0,0
o,0x00000000,1716935164.960944,172.16.1.2,29606,172.16.3.2,5101,30408,183896,0,64256,65728,6,6,4,1460,2199,1,536871904,171,82732,79836,65700,0,60816,0,0,0
o,0x00000000,1716935164.961185,172.16.1.2,29606,172.16.3.2,5101,30408,183896,0,64256,65728,6,6,4,1460,2199,1,536871904,171,82732,79836,65700,0,62264,0,0,0
i,0x00000000,1716935164.990972,172.16.1.2,29606,172.16.3.2,5101,30408,183896,0,64256,65728,6,6,4,1460,2199,1,536871904,171,82732,82732,65700,0,63712,0,0,0
o,0x00000000,1716935164.990993,172.16.1.2,29606,172.16.3.2,5101,30408,188240,0,64256,65728,6,6,4,1460,2285,1,536871904,175,82732,79836,65700,0,60816,0,0,0
o,0x00000000,1716935164.991267,172.16.1.2,29606,172.16.3.2,5101,30408,188240,0,64256,65728,6,6,4,1460,2285,1,536871904,175,82732,79836,65700,0,62264,0,0,0
i,0x00000000,1716935165.010728,172.16.1.2,29606,172.16.3.2,5101,30408,188240,0,64256,65728,6,6,4,1460,2285,1,536871904,175,82732,82732,65700,0,63712,0,0,0
o,0x00000000,1716935165.010737,172.16.1.2,29606,172.16.3.2,5101,30408,191136,0,64256,65728,6,6,4,1460,2368,1,536871904,177,82732,79836,65700,0,60816,0,0,0
o,0x00000000,1716935165.011023,172.16.1.2,29606,172.16.3.2,5101,30408,191136,0,64256,65728,6,6,4,1460,2368,1,536871904,177,82732,79836,65700,0,62264,0,0,0
i,0x00000000,1716935165.040604,172.16.1.2,29606,172.16.3.2,5101,30408,191136,0,64256,65728,6,6,4,1460,2368,1,536871904,177,82732,82732,65700,0,63712,0,0,0
o,0x00000000,1716935165.040652,172.16.1.2,29606,172.16.3.2,5101,30408,194032,0,64256,65728,6,6,4,1460,2452,1,536871904,180,82732,79836,65700,0,60816,0,0,0
o,0x00000000,1716935165.040912,172.16.1.2,29606,172.16.3.2,5101,30408,194032,0,64256,65728,6,6,4,1460,2452,1,536871904,180,82732,79836,65700,0,62264,0,0,0
i,0x00000000,1716935165.060380,172.16.1.2,29606,172.16.3.2,5101,30408,194032,0,64256,65728,6,6,4,1460,2452,1,536871904,180,82732,82732,65700,0,63712,0,0,0
o,0x00000000,1716935165.060388,172.16.1.2,29606,172.16.3.2,5101,30408,196928,0,64256,65728,6,6,4,1460,2530,1,536871904,181,82732,79836,65700,0,60816,0,0,0
o,0x00000000,1716935165.060630,172.16.1.2,29606,172.16.3.2,5101,30408,196928,0,64256,65728,6,6,4,1460,2530,1,536871904,181,82732,79836,65700,0,62264,0,0,0
i,0x00000000,1716935165.091192,172.16.1.2,29606,172.16.3.2,5101,30408,196928,0,64256,65728,6,6,4,1460,2530,1,536871904,181,82732,81144,65700,0,63712,0,0,0
o,0x00000000,1716935165.091203,172.16.1.2,29606,172.16.3.2,5101,30408,199824,0,64256,65728,6,6,4,1460,2610,1,536871904,183,82732,78248,65700,0,60816,0,0,0
o,0x00000000,1716935165.091496,172.16.1.2,29606,172.16.3.2,5101,30408,199824,0,64256,65728,6,6,4,1460,2610,1,536871904,183,82732,78248,65700,0,62264,0,0,0
i,0x00000000,1716935165.111059,172.16.1.2,29606,172.16.3.2,5101,30408,199824,0,64256,65728,6,6,4,1460,2610,1,536871904,183,82732,82732,65700,0,63712,0,0,0
o,0x00000000,1716935165.111064,172.16.1.2,29606,172.16.3.2,5101,30408,204168,0,64256,65728,6,6,4,1460,2688,1,536871904,185,82732,79836,65700,0,60816,0,0,0
o,0x00000000,1716935165.111314,172.16.1.2,29606,172.16.3.2,5101,30408,204168,0,64256,65728,6,6,4,1460,2688,1,536871904,185,82732,79836,65700,0,62264,0,0,0
i,0x00000000,1716935165.140162,172.16.1.2,29606,172.16.3.2,5101,30408,204168,0,64256,65728,6,6,4,1460,2688,1,536871904,185,82732,82732,65700,0,63712,0,0,0
o,0x00000000,1716935165.140169,172.16.1.2,29606,172.16.3.2,5101,30408,207064,0,64256,65728,6,6,4,1460,2768,1,536871904,187,82732,79836,65700,0,60816,0,0,0
o,0x00000000,1716935165.140458,172.16.1.2,29606,172.16.3.2,5101,30408,207064,0,64256,65728,6,6,4,1460,2768,1,536871904,187,82732,79836,65700,0,62264,0,0,0
i,0x00000000,1716935165.160987,172.16.1.2,29606,172.16.3.2,5101,30408,207064,0,64256,65728,6,6,4,1460,2768,1,536871904,187,82732,82732,65700,0,63712,0,0,0
o,0x00000000,1716935165.160994,172.16.1.2,29606,172.16.3.2,5101,30408,209960,0,64256,65728,6,6,4,1460,2846,1,536871904,189,82732,79836,65700,0,60816,0,0,0
o,0x00000000,1716935165.161226,172.16.1.2,29606,172.16.3.2,5101,30408,209960,0,64256,65728,6,6,4,1460,2846,1,536871904,189,82732,79836,65700,0,62264,0,0,0
i,0x00000000,1716935165.190187,172.16.1.2,29606,172.16.3.2,5101,30408,209960,0,64256,65728,6,6,4,1460,2846,1,536871904,189,82732,82732,65700,0,63712,0,0,0
o,0x00000000,1716935165.190194,172.16.1.2,29606,172.16.3.2,5101,30408,212856,0,64256,65728,6,6,4,1460,2919,1,536871904,189,82732,79836,65700,0,60816,0,0,0
o,0x00000000,1716935165.190431,172.16.1.2,29606,172.16.3.2,5101,30408,212856,0,64256,65728,6,6,4,1460,2919,1,536871904,189,82732,79836,65700,0,62264,0,0,0
i,0x00000000,1716935165.211013,172.16.1.2,29606,172.16.3.2,5101,30408,212856,0,64256,65728,6,6,4,1460,2919,1,536871904,189,82732,82732,65700,0,63712,0,0,0
o,0x00000000,1716935165.211025,172.16.1.2,29606,172.16.3.2,5101,30408,215752,0,64256,65728,6,6,4,1460,2979,1,536871904,187,82732,79836,65700,0,60816,0,0,0
o,0x00000000,1716935165.211261,172.16.1.2,29606,172.16.3.2,5101,30408,215752,0,64256,65728,6,6,4,1460,2979,1,536871904,187,82732,79836,65700,0,62264,0,0,0
i,0x00000000,1716935165.240897,172.16.1.2,29606,172.16.3.2,5101,30408,215752,0,64256,65728,6,6,4,1460,2979,1,536871904,187,82732,82732,65700,0,63712,0,0,0
o,0x00000000,1716935165.240907,172.16.1.2,29606,172.16.3.2,5101,30408,220096,0,64256,65728,6,6,4,1460,3035,1,536871904,184,82732,79836,65700,0,60816,0,0,0
o,0x00000000,1716935165.241141,172.16.1.2,29606,172.16.3.2,5101,30408,220096,0,64256,65728,6,6,4,1460,3035,1,536871904,184,82732,79836,65700,0,62264,0,0,0
i,0x00000000,1716935165.280178,172.16.1.2,29606,172.16.3.2,5101,30408,220096,0,64256,65728,6,6,4,1460,3035,1,536871904,184,82732,82732,65700,0,63712,0,0,0
o,0x00000000,1716935165.280185,172.16.1.2,29606,172.16.3.2,5101,30408,222992,0,65728,65728,6,6,4,1460,3088,1,536871904,182,82732,81284,65700,0,62264,0,0,0
o,0x00000000,1716935165.280420,172.16.1.2,29606,172.16.3.2,5101,30408,222992,0,65728,65728,6,6,4,1460,3088,1,536871904,182,82732,81284,65700,0,63712,0,0,0
i,0x00000000,1716935165.300849,172.16.1.2,29606,172.16.3.2,5101,30408,222992,0,65728,65728,6,6,4,1460,3088,1,536871904,182,82732,81284,65700,0,65160,0,0,0
o,0x00000000,1716935165.300855,172.16.1.2,29606,172.16.3.2,5101,30408,224440,0,64256,65728,6,6,4,1460,3130,1,536871904,177,82732,78388,65700,0,62264,0,0,0
i,0x00000000,1716935165.740466,172.16.1.2,29606,172.16.3.2,5101,30408,224440,0,64256,65728,6,6,4,1460,3130,1,536871904,177,82732,82732,65700,0,63712,0,0,0
o,0x00000000,1716935165.740485,172.16.1.2,29606,172.16.3.2,5101,30408,227336,0,65728,65728,6,6,4,1460,3155,1,536871904,169,82732,81284,65700,0,62264,0,0,0
o,0x00000000,1716935165.740742,172.16.1.2,29606,172.16.3.2,5101,30408,227336,0,65728,65728,6,6,4,1460,3155,1,536871904,169,82732,81284,65700,0,63712,0,0,0
i,0x00000000,1716935165.770742,172.16.1.2,29606,172.16.3.2,5101,30408,227336,0,65728,65728,6,6,4,1460,3155,1,536871904,169,82732,81284,65700,0,65160,0,0,0
o,0x00000000,1716935165.770755,172.16.1.2,29606,172.16.3.2,5101,30408,228784,0,64256,65728,6,6,4,1460,3181,1,536871904,164,82732,78388,65700,0,62264,0,0,0
i,0x00000000,1716935165.820704,172.16.1.2,29606,172.16.3.2,5101,30408,228784,0,64256,65728,6,6,4,1460,3181,1,536871904,164,82732,82732,65700,0,63712,0,0,0
o,0x00000000,1716935165.820712,172.16.1.2,29606,172.16.3.2,5101,114392,78192,0,64256,65728,6,6,4,1460,3200,1,536871904,158,82732,79836,65700,0,60816,0,0,0
o,0x00000000,1716935165.820956,172.16.1.2,29606,172.16.3.2,5101,114392,78192,0,64256,65728,6,6,4,1460,3200,1,536871904,158,82732,79836,65700,0,62264,0,0,0
i,0x00000000,1716935165.880887,172.16.1.2,29606,172.16.3.2,5101,114392,78192,0,64256,65728,6,6,4,1460,3200,1,536871904,158,82732,82732,65700,0,63712,0,0,0
o,0x00000000,1716935165.880896,172.16.1.2,29606,172.16.3.2,5101,114392,79640,0,65728,65728,6,6,4,1460,3240,1,536871904,160,82732,81284,65700,0,62264,0,0,0
o,0x00000000,1716935165.880976,172.16.1.2,29606,172.16.3.2,5101,114392,79640,0,65728,65728,6,6,4,1460,3240,1,536871904,160,82732,81284,65700,0,63712,0,0,0
i,0x00000000,1716935165.881052,172.16.1.2,29606,172.16.3.2,5101,114392,79640,0,65728,65728,6,6,4,1460,3240,1,536871904,160,82732,81284,65700,0,65160,0,0,0
o,0x00000000,1716935165.881056,172.16.1.2,29606,172.16.3.2,5101,114392,78192,0,64256,65728,6,6,4,1460,3275,1,536871904,160,82732,78388,65700,0,62264,0,0,0
i,0x00000000,1716935165.930373,172.16.1.2,29606,172.16.3.2,5101,114392,78192,0,64256,65728,6,6,4,1460,3275,1,536871904,160,82732,82732,65700,0,63712,0,0,0
o,0x00000000,1716935165.930380,172.16.1.2,29606,172.16.3.2,5101,114392,78192,0,64256,65728,6,6,4,1460,3306,1,536871904,159,82732,79836,65700,0,60816,0,0,0
o,0x00000000,1716935165.930630,172.16.1.2,29606,172.16.3.2,5101,114392,78192,0,64256,65728,6,6,4,1460,3306,1,536871904,159,82732,79836,65700,0,62264,0,0,0
i,0x00000000,1716935165.949872,172.16.1.2,29606,172.16.3.2,5101,114392,78192,0,64256,65728,6,6,4,1460,3306,1,536871904,159,82732,82732,65700,0,63712,0,0,0
o,0x00000000,1716935165.949878,172.16.1.2,29606,172.16.3.2,5101,114392,78192,0,64256,65728,6,6,4,1460,3329,1,536871904,157,82732,79836,65700,0,60816,0,0,0
o,0x00000000,1716935165.950111,172.16.1.2,29606,172.16.3.2,5101,114392,78192,0,64256,65728,6,6,4,1460,3329,1,536871904,157,82732,79836,65700,0,62264,0,0,0
i,0x00000000,1716935165.980999,172.16.1.2,29606,172.16.3.2,5101,114392,78192,0,64256,65728,6,6,4,1460,3329,1,536871904,157,82732,82732,65700,0,63712,0,0,0
o,0x00000000,1716935165.981015,172.16.1.2,29606,172.16.3.2,5101,114392,78192,0,64256,65728,6,6,4,1460,3353,1,536871904,155,82732,79836,65700,0,60816,0,0,0
o,0x00000000,1716935165.981309,172.16.1.2,29606,172.16.3.2,5101,114392,78192,0,64256,65728,6,6,4,1460,3353,1,536871904,155,82732,79836,65700,0,62264,0,0,0
i,0x00000000,1716935166.000385,172.16.1.2,29606,172.16.3.2,5101,114392,78192,0,64256,65728,6,6,4,1460,3353,1,536871904,155,82732,82732,65700,0,63712,0,0,0
o,0x00000000,1716935166.000397,172.16.1.2,29606,172.16.3.2,5101,114392,78192,0,64256,65728,6,6,4,1460,3370,1,536871904,152,82732,79836,65700,0,60816,0,0,0
o,0x00000000,1716935166.000636,172.16.1.2,29606,172.16.3.2,5101,114392,78192,0,64256,65728,6,6,4,1460,3370,1,536871904,152,82732,79836,65700,0,62264,0,0,0
i,0x00000000,1716935166.030627,172.16.1.2,29606,172.16.3.2,5101,114392,78192,0,64256,65728,6,6,4,1460,3370,1,536871904,152,82732,82732,65700,0,63712,0,0,0
o,0x00000000,1716935166.030637,172.16.1.2,29606,172.16.3.2,5101,114392,78192,0,64256,65728,6,6,4,1460,3385,1,536871904,150,82732,79836,65700,0,60816,0,0,0
o,0x00000000,1716935166.030910,172.16.1.2,29606,172.16.3.2,5101,114392,78192,0,64256,65728,6,6,4,1460,3385,1,536871904,150,82732,79836,65700,0,62264,0,0,0
i,0x00000000,1716935166.039787,172.16.1.2,29606,172.16.3.2,5101,114392,78192,0,64256,65728,6,6,4,1460,3385,1,536871904,150,82732,82732,65700,0,63712,0,0,0
o,0x00000000,1716935166.039794,172.16.1.2,29606,172.16.3.2,5101,114392,78192,0,64256,65728,6,6,4,1460,3394,1,536871904,146,82732,79836,65700,0,60816,0,0,0
o,0x00000000,1716935166.040034,172.16.1.2,29606,172.16.3.2,5101,114392,78192,0,64256,65728,6,6,4,1460,3394,1,536871904,146,82732,79836,65700,0,62264,0,0,0
i,0x00000000,1716935166.080463,172.16.1.2,29606,172.16.3.2,5101,114392,78192,0,64256,65728,6,6,4,1460,3394,1,536871904,146,82732,82732,65700,0,63712,0,0,0
o,0x00000000,1716935166.080474,172.16.1.2,29606,172.16.3.2,5101,114392,78192,0,64256,65728,6,6,4,1460,3406,1,536871904,145,82732,79836,65700,0,60816,0,0,0
o,0x00000000,1716935166.080710,172.16.1.2,29606,172.16.3.2,5101,114392,78192,0,64256,65728,6,6,4,1460,3406,1,536871904,145,82732,79836,65700,0,62264,0,0,0
i,0x00000000,1716935166.090547,172.16.1.2,29606,172.16.3.2,5101,114392,78192,0,64256,65728,6,6,4,1460,3406,1,536871904,145,82732,82732,65700,0,63712,0,0,0
