enable_time_secs=1716936790	enable_time_usecs=069976	siftrver=1.2.4	hz=100	tcp_rtt_scale=32	sysname=FreeBSD	sysver=1301000	ipmode=4
o,0x00000000,1716936790.070009,10.0.2.15,22,10.0.2.2,57576,1073725440,17298,0,65535,65700,0,0,4,1460,1,0,4,24,33580,44,65700,0,0,0,0,0
o,0x00000000,1716936790.070113,10.0.2.15,22,10.0.2.2,57576,1073725440,17298,0,65535,65700,0,0,4,1460,1,0,4,24,33580,80,65700,0,44,0,0,0
i,0x00000000,1716936790.070503,10.0.2.15,22,10.0.2.2,57576,1073725440,17298,0,65535,65700,0,0,4,1460,1,0,4,24,33580,80,65700,0,80,0,0,0
i,0x00000000,1716936790.070506,10.0.2.15,22,10.0.2.2,57576,1073725440,17342,0,65535,65700,0,0,4,1460,1,0,4,24,33580,36,65700,0,36,0,0,0
o,0x00000000,1716936790.070564,10.0.2.15,22,10.0.2.2,57576,1073725440,17378,0,65535,65700,0,0,4,1460,1,0,4,24,33580,36,65700,0,0,0,0,0
i,0x00000000,1716936790.071071,10.0.2.15,22,10.0.2.2,57576,1073725440,17378,0,65535,65700,0,0,4,1460,1,0,4,24,33580,36,65700,0,36,0,0,0
o,0x00000000,1716936790.071198,10.0.2.15,22,10.0.2.2,57576,1073725440,17414,0,65535,65700,0,0,4,1460,1,0,4,24,33580,36,65700,0,0,0,0,0
i,0x00000000,1716936790.071843,10.0.2.15,22,10.0.2.2,57576,1073725440,17414,0,65535,65700,0,0,4,1460,1,0,4,24,33580,36,65700,0,36,0,0,0
o,0x00000000,1716936790.071982,10.0.2.15,22,10.0.2.2,57576,1073725440,17450,0,65535,65700,0,0,4,1460,1,0,4,24,33580,140,65700,0,0,0,0,0
i,0x00000000,1716936790.072667,10.0.2.15,22,10.0.2.2,57576,1073725440,17450,0,65535,65700,0,0,4,1460,1,0,4,24,33580,140,65700,0,140,0,0,0
i,0x00000000,1716936790.072997,10.0.2.15,22,10.0.2.2,57576,1073725440,17590,0,65535,65700,0,0,4,1460,1,0,4,24,33580,0,65700,0,0,0,0,0
i,0x00000000,1716936790.073001,10.0.2.15,22,10.0.2.2,57576,1073725440,17590,0,65535,65700,0,0,4,1460,1,0,4,24,33580,0,65700,36,0,0,0,0
o,0x00000000,1716936790.073003,10.0.2.15,22,10.0.2.2,57576,1073725440,17590,0,65535,65700,0,0,4,1460,1,0,5,24,33580,0,65700,96,0,0,0,0
i,0x00000000,1716936790.073088,10.0.2.15,22,10.0.2.2,57576,1073725440,17590,0,65535,65700,0,0,4,1460,1,0,4,24,33580,0,65700,96,0,0,0,0
o,0x00000000,1716936790.073091,10.0.2.15,22,10.0.2.2,57576,1073725440,17590,0,65535,65604,0,0,5,1460,1,0,7,24,33580,0,65700,96,0,0,0,0
o,0x00000000,1716936790.073713,10.0.2.15,22,10.0.2.2,57576,1073725440,17590,0,65535,65604,0,0,8,1460,1,0,4,24,33580,0,65700,0,0,0,0,0
i,0x00000000,1716936790.074420,10.0.2.15,22,10.0.2.2,57576,1073725440,17590,0,65535,65604,0,0,8,1460,1,0,20,24,33580,0,65700,0,1,0,0,0
i,0x00000000,1716936792.223931,10.0.2.15,22,10.0.2.2,57581,1073725440,14600,0,65535,65700,0,0,4,1460,1,0,0,27,33580,0,65700,0,0,0,0,0
o,0x00000000,1716936792.229950,10.0.2.15,22,10.0.2.2,57581,1073725440,14600,0,65535,65700,0,0,4,1460,1,0,0,27,33580,38,65700,41,0,0,0,0
i,0x00000000,1716936792.230504,10.0.2.15,22,10.0.2.2,57581,1073725440,14600,0,65535,65700,0,0,4,1460,1,0,0,27,33580,38,65700,0,38,0,0,0
o,0x00000000,1716936792.231039,10.0.2.15,22,10.0.2.2,57581,1073725440,14638,0,65535,65700,0,0,4,1460,1,0,0,24,33580,1056,65700,0,0,0,0,0
i,0x00000000,1716936792.231807,10.0.2.15,22,10.0.2.2,57581,1073725440,14638,0,65535,65700,0,0,4,1460,1,0,0,24,33580,1056,65700,0,1056,0,0,0
i,0x00000000,1716936792.231812,10.0.2.15,22,10.0.2.2,57581,1073725440,14638,0,65535,65700,0,0,4,1460,1,0,0,24,33580,1056,65700,1460,1056,0,0,0
o,0x00000000,1716936792.231816,10.0.2.15,22,10.0.2.2,57581,1073725440,14638,0,65535,65700,0,0,4,1460,1,0,1,24,33580,1056,65700,1536,1056,0,0,0
i,0x00000000,1716936792.231898,10.0.2.15,22,10.0.2.2,57581,1073725440,14638,0,65535,65700,0,0,4,1460,1,0,0,24,33580,1056,65700,1536,1056,0,0,0
i,0x00000000,1716936792.233087,10.0.2.15,22,10.0.2.2,57581,1073725440,15694,0,65535,65700,0,0,4,1460,1,0,0,24,33580,0,65700,0,0,0,0,0
o,0x00000000,1716936792.235408,10.0.2.15,22,10.0.2.2,57581,1073725440,15694,0,65535,65700,0,0,4,1460,1,0,0,24,33580,484,65700,0,0,0,0,0
i,0x00000000,1716936792.236115,10.0.2.15,22,10.0.2.2,57581,1073725440,15694,0,65535,65700,0,0,4,1460,1,0,0,24,33580,484,65700,0,484,0,0,0
i,0x00000000,1716936792.240729,10.0.2.15,22,10.0.2.2,57581,1073725440,16178,0,65535,65700,0,0,4,1460,1,0,0,24,33580,0,65700,0,0,0,0,0
i,0x00000000,1716936792.245085,10.0.2.15,22,10.0.2.2,57581,1073725440,16178,0,65535,65700,0,0,4,1460,1,0,0,24,33580,0,65700,0,0,0,0,0
o,0x00000000,1716936792.245090,10.0.2.15,22,10.0.2.2,57581,1073725440,16178,0,65535,65700,0,0,4,1460,1,0,1,24,33580,0,65700,44,0,0,0,0
o,0x00000000,1716936792.245261,10.0.2.15,22,10.0.2.2,57581,1073725440,16178,0,65535,65700,0,0,4,1460,1,0,0,24,33580,44,65700,0,0,0,0,0
i,0x00000000,1716936792.245869,10.0.2.15,22,10.0.2.2,57581,1073725440,16178,0,65535,65700,0,0,4,1460,1,0,0,24,33580,44,65700,0,44,0,0,0
i,0x00000000,1716936792.246347,10.0.2.15,22,10.0.2.2,57581,1073725440,16222,0,65535,65700,0,0,4,1460,1,0,0,24,33580,0,65700,0,0,0,0,0
o,0x00000000,1716936792.256746,10.0.2.15,22,10.0.2.2,57581,1073725440,16222,0,65535,65700,0,0,4,1460,1,0,0,24,33580,68,65700,0,0,0,0,0
i,0x00000000,1716936792.257376,10.0.2.15,22,10.0.2.2,57581,1073725440,16222,0,65535,65700,0,0,4,1460,1,0,0,24,33580,68,65700,0,68,0,0,0
i,0x00000000,1716936792.259619,10.0.2.15,22,10.0.2.2,57581,1073725440,16290,0,65535,65700,0,0,4,1460,1,0,0,24,33580,0,65700,0,0,0,0,0
o,0x00000000,1716936792.269136,10.0.2.15,22,10.0.2.2,57581,1073725440,16290,0,65535,65700,0,0,4,1460,1,0,0,24,33580,28,65700,0,0,0,0,0
i,0x00000000,1716936792.269811,10.0.2.15,22,10.0.2.2,57581,1073725440,16290,0,65535,65700,0,0,4,1460,1,0,0,24,33580,28,65700,0,28,0,0,0
i,0x00000000,1716936792.270226,10.0.2.15,22,10.0.2.2,57581,1073725440,16318,0,65535,65700,0,0,4,1460,1,0,0,24,33580,0,65700,0,0,0,0,0
o,0x00000000,1716936792.270899,10.0.2.15,22,10.0.2.2,57581,1073725440,16318,0,65535,65700,0,0,4,1460,1,0,0,24,33580,768,65700,112,0,0,0,0
i,0x00000000,1716936792.271726,10.0.2.15,22,10.0.2.2,57581,1073725440,16318,0,65535,65700,0,0,4,1460,1,0,0,24,33580,768,65700,112,768,0,0,0
o,0x00000000,1716936792.271825,10.0.2.15,22,10.0.2.2,57581,1073725440,17086,0,65535,65700,0,0,4,1460,1,0,0,24,33580,44,65700,0,0,0,0,0
i,0x00000000,1716936792.272442,10.0.2.15,22,10.0.2.2,57581,1073725440,17086,0,65535,65700,0,0,4,1460,1,0,0,24,33580,44,65700,0,44,0,0,0
i,0x00000000,1716936792.273376,10.0.2.15,22,10.0.2.2,57581,1073725440,17130,0,65535,65700,0,0,4,1460,1,0,0,24,33580,0,65700,0,0,0,0,0
o,0x00000000,1716936792.273650,10.0.2.15,22,10.0.2.2,57581,1073725440,17130,0,65535,65700,0,0,4,1460,1,0,4,24,33580,72,65700,0,0,0,0,0
i,0x00000000,1716936792.274293,10.0.2.15,22,10.0.2.2,57581,1073725440,17130,0,65535,65700,0,0,4,1460,1,0,4,24,33580,72,65700,0,72,0,0,0
o,0x00000000,1716936792.277165,10.0.2.15,22,10.0.2.2,57581,1073725440,17202,0,65535,65700,0,0,4,1460,1,0,4,24,33580,44,65700,0,0,0,0,0
i,0x00000000,1716936792.277965,10.0.2.15,22,10.0.2.2,57581,1073725440,17202,0,65535,65700,0,0,4,1460,1,0,4,24,33580,44,65700,0,44,0,0,0
o,0x00000000,1716936792.278195,10.0.2.15,22,10.0.2.2,57581,1073725440,17246,0,65535,65700,0,0,4,1460,1,0,4,24,33580,44,65700,0,0,0,0,0
i,0x00000000,1716936792.279020,10.0.2.15,22,10.0.2.2,57581,1073725440,17246,0,65535,65700,0,0,4,1460,1,0,4,24,33580,44,65700,0,44,0,0,0
o,0x00000000,1716936792.282151,10.0.2.15,22,10.0.2.2,57581,1073725440,17290,0,65535,65700,0,0,4,1460,1,0,4,24,33580,176,65700,0,0,0,0,0
i,0x00000000,1716936792.282796,10.0.2.15,22,10.0.2.2,57581,1073725440,17290,0,65535,65700,0,0,4,1460,1,0,4,24,33580,176,65700,0,176,0,0,0
i,0x00000000,1716936792.283699,10.0.2.15,22,10.0.2.2,57581,1073725440,17466,0,65535,65700,0,0,4,1460,1,0,4,24,33580,0,65700,0,0,0,0,0
i,0x00000000,1716936792.283702,10.0.2.15,22,10.0.2.2,57581,1073725440,17466,0,65535,65700,0,0,4,1460,1,0,4,24,33580,0,65700,36,0,0,0,0
o,0x00000000,1716936792.283704,10.0.2.15,22,10.0.2.2,57581,1073725440,17466,0,65535,65700,0,0,4,1460,1,0,5,24,33580,0,65700,96,0,0,0,0
i,0x00000000,1716936792.283806,10.0.2.15,22,10.0.2.2,57581,1073725440,17466,0,65535,65700,0,0,4,1460,1,0,4,24,33580,0,65700,96,0,0,0,0
o,0x00000000,1716936792.283809,10.0.2.15,22,10.0.2.2,57581,1073725440,17466,0,65535,65604,0,0,5,1460,1,0,7,24,33580,0,65700,96,0,0,0,0
o,0x00000000,1716936792.288643,10.0.2.15,22,10.0.2.2,57581,1073725440,17466,0,65535,65604,0,0,8,1460,1,0,4,24,33580,0,65700,0,0,0,0,0
i,0x00000000,1716936792.289218,10.0.2.15,22,10.0.2.2,57581,1073725440,17466,0,65535,65604,0,0,8,1460,1,0,20,24,33580,0,65700,0,1,0,0,0
i,0x00000000,1716936793.381527,10.0.2.15,22,10.0.2.2,57583,1073725440,14600,0,65535,65700,0,0,4,1460,1,0,0,27,33580,0,65700,0,0,0,0,0
o,0x00000000,1716936793.388400,10.0.2.15,22,10.0.2.2,57583,1073725440,14600,0,65535,65700,0,0,4,1460,1,0,0,27,33580,38,65700,41,0,0,0,0
i,0x00000000,1716936793.389369,10.0.2.15,22,10.0.2.2,57583,1073725440,14600,0,65535,65700,0,0,4,1460,1,0,0,27,33580,38,65700,0,38,0,0,0
i,0x00000000,1716936793.389873,10.0.2.15,22,10.0.2.2,57583,1073725440,14638,0,65535,65700,0,0,4,1460,1,0,0,24,33580,0,65700,0,0,0,0,0
i,0x00000000,1716936793.389876,10.0.2.15,22,10.0.2.2,57583,1073725440,14638,0,65535,65700,0,0,4,1460,1,0,0,24,33580,0,65700,1460,0,0,0,0
o,0x00000000,1716936793.389879,10.0.2.15,22,10.0.2.2,57583,1073725440,14638,0,65535,65700,0,0,4,1460,1,0,1,24,33580,0,65700,1536,0,0,0,0
o,0x00000000,1716936793.390649,10.0.2.15,22,10.0.2.2,57583,1073725440,14638,0,65535,65700,0,0,4,1460,1,0,0,24,33580,1056,65700,1536,0,0,0,0
i,0x00000000,1716936793.391309,10.0.2.15,22,10.0.2.2,57583,1073725440,14638,0,65535,65700,0,0,4,1460,1,0,0,24,33580,1056,65700,1536,1056,0,0,0
i,0x00000000,1716936793.392718,10.0.2.15,22,10.0.2.2,57583,1073725440,15694,0,65535,65700,0,0,4,1460,1,0,0,24,33580,0,65700,0,0,0,0,0
o,0x00000000,1716936793.395299,10.0.2.15,22,10.0.2.2,57583,1073725440,15694,0,65535,65700,0,0,4,1460,1,0,0,24,33580,484,65700,0,0,0,0,0
i,0x00000000,1716936793.396214,10.0.2.15,22,10.0.2.2,57583,1073725440,15694,0,65535,65700,0,0,4,1460,1,0,0,24,33580,484,65700,0,484,0,0,0
i,0x00000000,1716936793.400810,10.0.2.15,22,10.0.2.2,57583,1073725440,16178,0,65535,65700,0,0,4,1460,1,0,0,24,33580,0,65700,0,0,0,0,0
i,0x00000000,1716936793.404142,10.0.2.15,22,10.0.2.2,57583,1073725440,16178,0,65535,65700,0,0,4,1460,1,0,0,24,33580,0,65700,0,0,0,0,0
o,0x00000000,1716936793.404147,10.0.2.15,22,10.0.2.2,57583,1073725440,16178,0,65535,65700,0,0,4,1460,1,0,1,24,33580,0,65700,44,0,0,0,0
o,0x00000000,1716936793.404290,10.0.2.15,22,10.0.2.2,57583,1073725440,16178,0,65535,65700,0,0,4,1460,1,0,0,24,33580,44,65700,0,0,0,0,0
i,0x00000000,1716936793.405277,10.0.2.15,22,10.0.2.2,57583,1073725440,16178,0,65535,65700,0,0,4,1460,1,0,0,24,33580,44,65700,0,44,0,0,0
i,0x00000000,1716936793.405280,10.0.2.15,22,10.0.2.2,57583,1073725440,16222,0,65535,65700,0,0,4,1460,1,0,0,24,33580,0,65700,0,0,0,0,0
o,0x00000000,1716936793.414247,10.0.2.15,22,10.0.2.2,57583,1073725440,16222,0,65535,65700,0,0,4,1460,1,0,0,24,33580,68,65700,0,0,0,0,0
i,0x00000000,1716936793.414887,10.0.2.15,22,10.0.2.2,57583,1073725440,16222,0,65535,65700,0,0,4,1460,1,0,0,24,33580,68,65700,0,68,0,0,0
i,0x00000000,1716936793.417131,10.0.2.15,22,10.0.2.2,57583,1073725440,16290,0,65535,65700,0,0,4,1460,1,0,0,24,33580,0,65700,0,0,0,0,0
o,0x00000000,1716936793.426709,10.0.2.15,22,10.0.2.2,57583,1073725440,16290,0,65535,65700,0,0,4,1460,1,0,0,24,33580,28,65700,0,0,0,0,0
i,0x00000000,1716936793.427418,10.0.2.15,22,10.0.2.2,57583,1073725440,16290,0,65535,65700,0,0,4,1460,1,0,0,24,33580,28,65700,0,28,0,0,0
i,0x00000000,1716936793.427742,10.0.2.15,22,10.0.2.2,57583,1073725440,16318,0,65535,65700,0,0,4,1460,1,0,0,24,33580,0,65700,0,0,0,0,0
o,0x00000000,1716936793.428670,10.0.2.15,22,10.0.2.2,57583,1073725440,16318,0,65535,65700,0,0,4,1460,1,0,0,24,33580,768,65700,112,0,0,0,0
i,0x00000000,1716936793.429477,10.0.2.15,22,10.0.2.2,57583,1073725440,16318,0,65535,65700,0,0,4,1460,1,0,0,24,33580,768,65700,112,768,0,0,0
o,0x00000000,1716936793.429578,10.0.2.15,22,10.0.2.2,57583,1073725440,17086,0,65535,65700,0,0,4,1460,1,0,0,24,33580,44,65700,0,0,0,0,0
i,0x00000000,1716936793.432459,10.0.2.15,22,10.0.2.2,57583,1073725440,17086,0,65535,65700,0,0,4,1460,1,0,0,24,33580,44,65700,0,44,0,0,0
i,0x00000000,1716936793.432777,10.0.2.15,22,10.0.2.2,57583,1073725440,17130,0,65535,65700,0,0,4,1460,1,0,0,24,33580,0,65700,0,0,0,0,0
o,0x00000000,1716936793.433063,10.0.2.15,22,10.0.2.2,57583,1073725440,17130,0,65535,65700,0,0,4,1460,1,0,4,24,33580,72,65700,0,0,0,0,0
i,0x00000000,1716936793.433738,10.0.2.15,22,10.0.2.2,57583,1073725440,17130,0,65535,65700,0,0,4,1460,1,0,4,24,33580,72,65700,0,72,0,0,0
i,0x00000000,1716936793.434224,10.0.2.15,22,10.0.2.2,57583,1073725440,17202,0,65535,65700,0,0,4,1460,1,0,4,24,33580,0,65700,0,0,0,0,0
o,0x00000000,1716936793.438646,172.16.1.2,34673,172.16.3.2,5101,1073725440,1073725440,0,0,0,0,0,2,536,0,1,672,100,32768,0,65536,0,0,0,0,0
o,0x00000000,1716936793.466896,10.0.2.15,22,10.0.2.2,57583,1073725440,17202,0,65535,65700,0,0,4,1460,1,0,5,24,33580,0,65700,0,0,0,0,0
i,0x00000000,1716936793.557949,172.16.1.2,34673,172.16.3.2,5101,1073725440,1073725440,0,0,0,0,0,2,536,0,1,672,100,32768,0,65536,0,1,0,0,0
o,0x00000000,1716936793.557964,172.16.1.2,34673,172.16.3.2,5101,19879,14480,0,65535,65700,6,6,4,1460,440,1,993,49,33580,0,65700,0,0,0,0,0
o,0x00000000,1716936793.558338,172.16.1.2,34673,172.16.3.2,5101,19879,14480,0,65535,65700,6,6,4,1460,440,1,996,49,33580,37,65700,0,0,0,0,0
i,0x00000000,1716936793.677903,172.16.1.2,34673,172.16.3.2,5101,19879,14480,0,65535,65700,6,6,4,1460,440,1,996,49,33580,37,65700,0,37,0,0,0
o,0x00000000,1716936793.678069,172.16.1.2,34673,172.16.3.2,5101,19879,14517,0,65728,65728,6,6,4,1460,429,1,996,48,33580,4,65700,0,0,0,0,0
o,0x00000000,1716936793.678420,172.16.1.2,34673,172.16.3.2,5101,19879,14517,0,65728,65728,6,6,4,1460,429,1,996,48,33580,128,65700,0,4,0,0,0
i,0x00000000,1716936793.798071,172.16.1.2,34673,172.16.3.2,5101,19879,14517,0,65728,65728,6,6,4,1460,429,1,996,48,33580,128,65700,0,128,0,0,0
i,0x00000000,1716936793.798084,172.16.1.2,34673,172.16.3.2,5101,19879,14645,0,65600,65728,6,6,4,1460,424,1,996,45,33580,0,65700,0,0,0,0,0
o,0x00000000,1716936793.798189,172.16.1.2,45509,172.16.3.2,5101,1073725440,1073725440,0,0,0,0,0,2,536,0,1,672,100,32768,0,65536,0,0,0,0,0
o,0x00000000,1716936793.837163,172.16.1.2,34673,172.16.3.2,5101,19879,14645,0,65728,65728,6,6,4,1460,424,1,997,45,33580,0,65700,0,0,0,0,0
i,0x00000000,1716936793.918233,172.16.1.2,45509,172.16.3.2,5101,1073725440,1073725440,0,0,0,0,0,2,536,0,1,672,100,32768,0,65536,0,1,0,0,0
o,0x00000000,1716936793.918245,172.16.1.2,45509,172.16.3.2,5101,19879,14480,0,65535,65700,6,6,4,1460,444,1,993,48,33580,0,65700,0,0,0,0,0
o,0x00000000,1716936793.918707,172.16.1.2,45509,172.16.3.2,5101,19879,14480,0,65535,65700,6,6,4,1460,444,1,992,48,33580,37,65700,0,0,0,0,0
i,0x00000000,1716936794.038020,172.16.1.2,34673,172.16.3.2,5101,19879,14645,0,65728,65728,6,6,4,1460,424,1,996,45,33580,0,65700,0,0,0,0,0
i,0x00000000,1716936794.038032,172.16.1.2,34673,172.16.3.2,5101,19879,14645,0,65728,65728,6,6,4,1460,424,1,996,45,33580,0,65700,1,0,0,0,0
o,0x00000000,1716936794.038038,172.16.1.2,34673,172.16.3.2,5101,19879,14645,0,65728,65728,6,6,4,1460,424,1,997,45,33580,0,65700,2,0,0,0,0
o,0x00000000,1716936794.038333,172.16.1.2,45509,172.16.3.2,5101,19879,14480,0,65535,65700,6,6,4,1460,444,1,992,48,33580,33580,65700,0,37,0,0,0
o,0x00000000,1716936794.038664,172.16.1.2,45509,172.16.3.2,5101,19879,14480,0,65535,65700,6,6,4,1460,444,1,992,48,33580,33580,65700,0,1485,0,0,0
o,0x00000000,1716936794.038979,172.16.1.2,45509,172.16.3.2,5101,19879,14480,0,65535,65700,6,6,4,1460,444,1,992,48,33580,33580,65700,0,2933,0,0,0
o,0x00000000,1716936794.039363,172.16.1.2,45509,172.16.3.2,5101,19879,14480,0,65535,65700,6,6,4,1460,444,1,992,48,33580,33580,65700,0,4381,0,0,0
o,0x00000000,1716936794.039688,172.16.1.2,45509,172.16.3.2,5101,19879,14480,0,65535,65700,6,6,4,1460,444,1,992,48,33580,33580,65700,0,5829,0,0,0
o,0x00000000,1716936794.039999,172.16.1.2,45509,172.16.3.2,5101,19879,14480,0,65535,65700,6,6,4,1460,444,1,992,48,33580,33580,65700,0,7277,0,0,0
o,0x00000000,1716936794.040313,172.16.1.2,45509,172.16.3.2,5101,19879,14480,0,65535,65700,6,6,4,1460,444,1,992,48,33580,33580,65700,0,8725,0,0,0
o,0x00000000,1716936794.040622,172.16.1.2,45509,172.16.3.2,5101,19879,14480,0,65535,65700,6,6,4,1460,444,1,992,48,33580,33580,65700,0,10173,0,0,0
o,0x00000000,1716936794.040934,172.16.1.2,45509,172.16.3.2,5101,19879,14480,0,65535,65700,6,6,4,1460,444,1,992,48,33580,33580,65700,0,11621,0,0,0
i,0x00000000,1716936794.067769,172.16.1.2,45509,172.16.3.2,5101,19879,14480,0,65535,65700,6,6,4,1460,444,1,992,48,33580,33580,65700,0,13069,0,0,0
o,0x00000000,1716936794.067776,172.16.1.2,45509,172.16.3.2,5101,19879,14517,0,65728,65728,6,6,4,1460,445,1,992,45,33580,33543,65700,0,13032,0,0,0
i,0x00000000,1716936794.258526,172.16.1.2,45509,172.16.3.2,5101,19879,14517,0,65728,65728,6,6,4,1460,445,1,992,45,33580,33543,65700,0,14480,0,0,0
o,0x00000000,1716936794.258548,172.16.1.2,45509,172.16.3.2,5101,19879,17413,0,64256,65728,6,6,4,1460,478,1,992,51,33580,30647,65700,0,11584,0,0,0
o,0x00000000,1716936794.258879,172.16.1.2,45509,172.16.3.2,5101,19879,17413,0,64256,65728,6,6,4,1460,478,1,992,51,33580,30647,65700,0,13032,0,0,0
o,0x00000000,1716936794.259109,172.16.1.2,45509,172.16.3.2,5101,19879,17413,0,64256,65728,6,6,4,1460,478,1,992,51,41772,30647,65700,0,14480,0,0,0
o,0x00000000,1716936794.259336,172.16.1.2,45509,172.16.3.2,5101,19879,17413,0,64256,65728,6,6,4,1460,478,1,992,51,41772,30647,65700,0,15928,0,0,0
i,0x00000000,1716936794.277173,172.16.1.2,45509,172.16.3.2,5101,19879,17413,0,64256,65728,6,6,4,1460,478,1,992,51,41772,41772,65700,0,17376,0,0,0
o,0x00000000,1716936794.277181,172.16.1.2,45509,172.16.3.2,5101,19879,20309,0,64256,65728,6,6,4,1460,515,1,992,58,41772,38876,65700,0,14480,0,0,0
o,0x00000000,1716936794.277455,172.16.1.2,45509,172.16.3.2,5101,19879,20309,0,64256,65728,6,6,4,1460,515,1,992,58,41772,38876,65700,0,15928,0,0,0
o,0x00000000,1716936794.277683,172.16.1.2,45509,172.16.3.2,5101,19879,20309,0,64256,65728,6,6,4,1460,515,1,992,58,41772,38876,65700,0,17376,0,0,0
o,0x00000000,1716936794.277907,172.16.1.2,45509,172.16.3.2,5101,19879,20309,0,64256,65728,6,6,4,1460,515,1,992,58,49964,38876,65700,0,18824,0,0,0
i,0x00000000,1716936794.307160,172.16.1.2,45509,172.16.3.2,5101,19879,20309,0,64256,65728,6,6,4,1460,515,1,992,58,49964,49964,65700,0,20272,0,0,0
o,0x00000000,1716936794.307167,172.16.1.2,45509,172.16.3.2,5101,19879,20309,0,64256,65728,6,6,4,1460,559,1,992,64,49964,47068,65700,0,17376,0,0,0
o,0x00000000,1716936794.307400,172.16.1.2,45509,172.16.3.2,5101,19879,20309,0,64256,65728,6,6,4,1460,559,1,992,64,49964,47068,65700,0,18824,0,0,0
i,0x00000000,1716936794.347676,172.16.1.2,45509,172.16.3.2,5101,19879,20309,0,64256,65728,6,6,4,1460,559,1,992,64,49964,49964,65700,0,20272,0,0,0
o,0x00000000,1716936794.347684,172.16.1.2,45509,172.16.3.2,5101,19879,20309,0,64256,65728,6,6,4,1460,614,1,992,73,49964,47068,65700,0,17376,0,0,0
o,0x00000000,1716936794.347920,172.16.1.2,45509,172.16.3.2,5101,19879,20309,0,64256,65728,6,6,4,1460,614,1,992,73,49964,47068,65700,0,18824,0,0,0
i,0x00000000,1716936794.377717,172.16.1.2,45509,172.16.3.2,5101,19879,20309,0,64256,65728,6,6,4,1460,614,1,992,73,49964,49964,65700,0,20272,0,0,0
o,0x00000000,1716936794.377723,172.16.1.2,45509,172.16.3.2,5101,19879,20309,0,65728,65728,6,6,4,1460,670,1,992,80,49964,48516,65700,0,18824,0,0,0
i,0x00000000,1716936794.458897,172.16.1.2,45509,172.16.3.2,5101,19879,20309,0,65728,65728,6,6,4,1460,670,1,992,80,49964,48516,65700,0,20272,0,0,0
o,0x00000000,1716936794.458914,172.16.1.2,45509,172.16.3.2,5101,19879,21720,0,65728,65728,6,6,4,1460,670,1,992,80,49964,48516,65700,0,20272,0,0,0
i,0x00000000,1716936794.467918,172.16.1.2,45509,172.16.3.2,5101,19879,20309,0,65728,65728,6,6,4,1460,670,1,992,80,49964,48516,65700,0,21720,0,0,0
o,0x00000000,1716936794.467923,172.16.1.2,45509,172.16.3.2,5101,19879,23168,0,65728,65728,6,6,4,1460,670,1,992,80,49964,48516,65700,0,21720,0,0,0
i,0x00000000,1716936794.488686,172.16.1.2,45509,172.16.3.2,5101,19879,20309,0,65728,65728,6,6,4,1460,670,1,992,80,49964,48516,65700,0,23168,0,0,0
o,0x00000000,1716936794.488698,172.16.1.2,45509,172.16.3.2,5101,10136,1448,0,65728,65728,6,6,4,1460,670,1,537920480,80,49964,48516,65700,0,23168,0,0,0
i,0x00000000,1716936794.508427,172.16.1.2,45509,172.16.3.2,5101,10136,1448,0,65728,65728,6,6,4,1460,670,1,537920480,80,49964,48516,65700,0,23168,0,0,0
i,0x00000000,1716936794.517846,172.16.1.2,45509,172.16.3.2,5101,10136,1448,0,65728,65728,6,6,4,1460,670,1,537920480,80,49964,48516,65700,0,23168,0,0,0
o,0x00000000,1716936794.517850,172.16.1.2,45509,172.16.3.2,5101,10136,2896,0,65728,65728,6,6,4,1460,670,1,537920480,80,49964,48516,65700,0,23168,0,0,0
i,0x00000000,1716936794.558142,172.16.1.2,45509,172.16.3.2,5101,10136,2896,0,65728,65728,6,6,4,1460,670,1,537920480,80,49964,48516,65700,0,24616,0,0,0
i,0x00000000,1716936794.567177,172.16.1.2,45509,172.16.3.2,5101,10136,2896,0,65728,65728,6,6,4,1460,670,1,537920480,80,49964,48516,65700,0,24616,0,0,0
o,0x00000000,1716936794.567181,172.16.1.2,45509,172.16.3.2,5101,10136,4344,0,65728,65728,6,6,4,1460,670,1,537920480,80,49964,48516,65700,0,24616,0,0,0
i,0x00000000,1716936794.587984,172.16.1.2,45509,172.16.3.2,5101,10136,4344,0,65728,65728,6,6,4,1460,670,1,537920480,80,49964,48516,65700,0,26064,0,0,0
o,0x00000000,1716936794.587989,172.16.1.2,45509,172.16.3.2,5101,10136,4344,0,65728,65728,6,6,4,1460,670,1,537920480,80,49964,48516,65700,0,26064,0,0,0
o,0x00000000,1716936794.588221,172.16.1.2,45509,172.16.3.2,5101,10136,4344,0,65728,65728,6,6,4,1460,670,1,537920480,80,49964,48516,65700,0,26064,0,0,0
i,0x00000000,1716936794.628704,172.16.1.2,45509,172.16.3.2,5101,10136,4344,0,65728,65728,6,6,4,1460,670,1,537920480,80,49964,48516,65700,0,26064,0,0,0
i,0x00000000,1716936794.648359,172.16.1.2,45509,172.16.3.2,5101,10136,7240,0,65728,65728,6,6,4,1460,670,1,537920480,80,49964,48516,65700,0,26064,0,0,0
i,0x00000000,1716936794.678701,172.16.1.2,45509,172.16.3.2,5101,10136,7240,0,65728,65728,6,6,4,1460,670,1,537920480,80,49964,48516,65700,0,26064,0,0,0
o,0x00000000,1716936794.678711,172.16.1.2,45509,172.16.3.2,5101,10136,8688,0,65728,65728,6,6,4,1460,670,1,537920480,80,49964,48516,65700,0,26064,0,0,0
i,0x00000000,1716936794.698104,172.16.1.2,45509,172.16.3.2,5101,10136,8688,0,65728,65728,6,6,4,1460,670,1,537920480,80,49964,48516,65700,0,26064,0,0,0
o,0x00000000,1716936794.698109,172.16.1.2,45509,172.16.3.2,5101,10136,10136,0,65728,65728,6,6,4,1460,670,1,537920480,80,49964,48516,65700,0,26064,0,0,0
i,0x00000000,1716936794.747585,172.16.1.2,45509,172.16.3.2,5101,10136,10136,0,65728,65728,6,6,4,1460,670,1,537920480,80,49964,48516,65700,0,27512,0,0,0
o,0x00000000,1716936794.747590,172.16.1.2,45509,172.16.3.2,5101,10136,11584,0,65728,65728,6,6,4,1460,670,1,537920480,80,49964,48516,65700,0,27512,0,0,0
i,0x00000000,1716936794.747891,172.16.1.2,45509,172.16.3.2,5101,10136,11584,0,65728,65728,6,6,4,1460,670,1,537920480,80,49964,48516,65700,0,28960,0,0,0
o,0x00000000,1716936794.747894,172.16.1.2,45509,172.16.3.2,5101,10136,13032,0,65728,65728,6,6,4,1460,670,1,537920480,80,49964,48516,65700,0,28960,0,0,0
i,0x00000000,1716936794.768391,172.16.1.2,45509,172.16.3.2,5101,10136,13032,0,65728,65728,6,6,4,1460,670,1,537920480,80,49964,48516,65700,0,30408,0,0,0
o,0x00000000,1716936794.768399,172.16.1.2,45509,172.16.3.2,5101,10136,13032,0,65728,65728,6,6,4,1460,670,1,537920480,80,49964,48516,65700,0,30408,0,0,0
i,0x00000000,1716936794.768490,172.16.1.2,45509,172.16.3.2,5101,10136,13032,0,65728,65728,6,6,4,1460,670,1,537920480,80,49964,48516,65700,0,31856,0,0,0
o,0x00000000,1716936794.768506,172.16.1.2,45509,172.16.3.2,5101,10136,13032,0,65728,65728,6,6,4,1460,670,1,537920480,80,49964,48516,65700,0,31856,0,0,0
i,0x00000000,1716936794.827721,172.16.1.2,45509,172.16.3.2,5101,10136,13032,0,65728,65728,6,6,4,1460,670,1,537920480,80,49964,48516,65700,0,33304,0,0,0
o,0x00000000,1716936794.827734,172.16.1.2,45509,172.16.3.2,5101,10136,13032,0,65728,65728,6,6,4,1460,670,1,537920480,80,49964,48516,65700,0,33304,0,0,0
i,0x00000000,1716936794.828250,172.16.1.2,45509,172.16.3.2,5101,10136,13032,0,65728,65728,6,6,4,1460,670,1,537920480,80,49964,48516,65700,0,34752,0,0,0
o,0x00000000,1716936794.828255,172.16.1.2,45509,172.16.3.2,5101,10136,14480,0,65728,65728,6,6,4,1460,670,1,537920480,80,58156,48516,65700,0,34752,0,0,0
i,0x00000000,1716936794.897944,172.16.1.2,45509,172.16.3.2,5101,10136,14480,0,65728,65728,6,6,4,1460,670,1,537920480,80,58156,48516,65700,0,36200,0,0,0
o,0x00000000,1716936794.897960,172.16.1.2,45509,172.16.3.2,5101,10136,15928,0,65728,65728,6,6,4,1460,670,1,537920480,80,58156,48516,65700,0,36200,0,0,0
i,0x00000000,1716936794.907657,172.16.1.2,45509,172.16.3.2,5101,10136,15928,0,65728,65728,6,6,4,1460,670,1,537920480,80,58156,48516,65700,0,37648,0,0,0
o,0x00000000,1716936794.907668,172.16.1.2,45509,172.16.3.2,5101,10136,17376,0,65728,65728,6,6,4,1460,670,1,537920480,80,58156,48516,65700,0,37648,0,0,0
i,0x00000000,1716936794.947855,172.16.1.2,45509,172.16.3.2,5101,10136,17376,0,65728,65728,6,6,4,1460,670,1,537920480,80,58156,48516,65700,0,39096,0,0,0
o,0x00000000,1716936794.947860,172.16.1.2,45509,172.16.3.2,5101,10136,18824,0,65728,65728,6,6,4,1460,670,1,537920480,80,58156,48516,65700,0,39096,0,0,0
i,0x00000000,1716936794.948263,172.16.1.2,45509,172.16.3.2,5101,10136,18824,0,65728,65728,6,6,4,1460,670,1,537920480,80,58156,48516,65700,0,40544,0,0,0
o,0x00000000,1716936794.948265,172.16.1.2,45509,172.16.3.2,5101,10136,20272,0,65728,65728,6,6,4,1460,670,1,537920480,80,58156,48516,65700,0,40544,0,0,0
i,0x00000000,1716936794.998135,172.16.1.2,45509,172.16.3.2,5101,10136,20272,0,65728,65728,6,6,4,1460,670,1,537920480,80,58156,48516,65700,0,41992,0,0,0
o,0x00000000,1716936794.998153,172.16.1.2,45509,172.16.3.2,5101,10136,21720,0,65728,65728,6,6,4,1460,670,1,537920480,80,58156,48516,65700,0,41992,0,0,0
i,0x00000000,1716936794.998261,172.16.1.2,45509,172.16.3.2,5101,10136,21720,0,65728,65728,6,6,4,1460,670,1,537920480,80,58156,48516,65700,0,43440,0,0,0
o,0x00000000,1716936794.998264,172.16.1.2,45509,172.16.3.2,5101,10136,23168,0,65728,65728,6,6,4,1460,670,1,537920480,80,58156,48516,65700,0,43440,0,0,0
i,0x00000000,1716936795.047198,172.16.1.2,45509,172.16.3.2,5101,10136,23168,0,65728,65728,6,6,4,1460,670,1,537920480,80,58156,48516,65700,0,44888,0,0,0
o,0x00000000,1716936795.047214,172.16.1.2,45509,172.16.3.2,5101,10136,24616,0,65728,65728,6,6,4,1460,670,1,537920480,80,58156,48516,65700,0,44888,0,0,0
i,0x00000000,1716936795.097982,172.16.1.2,45509,172.16.3.2,5101,10136,24616,0,65728,65728,6,6,4,1460,670,1,537920480,80,58156,48516,65700,0,46336,0,0,0
o,0x00000000,1716936795.097989,172.16.1.2,45509,172.16.3.2,5101,10136,26064,0,65728,65728,6,6,4,1460,670,1,537920480,80,58156,48516,65700,0,46336,0,0,0
i,0x00000000,1716936795.098071,172.16.1.2,45509,172.16.3.2,5101,10136,26064,0,65728,65728,6,6,4,1460,670,1,537920480,80,58156,48516,65700,0,47784,0,0,0
i,0x00000000,1716936795.147599,172.16.1.2,45509,172.16.3.2,5101,10136,27512,0,65728,65728,6,6,4,1460,670,1,537920480,80,58156,48516,65700,0,47784,0,0,0
i,0x00000000,1716936795.147604,172.16.1.2,45509,172.16.3.2,5101,10136,28960,0,65728,65728,6,6,4,1460,670,1,537920480,80,58156,48516,65700,0,47784,0,0,0
i,0x00000000,1716936795.178846,172.16.1.2,45509,172.16.3.2,5101,10136,30408,0,65728,65728,6,6,4,1460,670,1,537920480,80,58156,48516,65700,0,47784,0,0,0
i,0x00000000,1716936795.197562,172.16.1.2,45509,172.16.3.2,5101,10136,31856,0,65728,65728,6,6,4,1460,670,1,537920480,80,58156,48516,65700,0,47784,0,0,0
i,0x00000000,1716936795.227789,172.16.1.2,45509,172.16.3.2,5101,10136,33304,0,65728,65728,6,6,4,1460,670,1,537920480,80,58156,48516,65700,0,47784,0,0,0
o,0x00000000,1716936795.287861,172.16.1.2,45509,172.16.3.2,5101,17376,1448,0,65728,65728,6,6,4,1460,670,1,1075848161,140,58156,48516,65700,0,47784,0,0,0
i,0x00000000,1716936795.428325,172.16.1.2,45509,172.16.3.2,5101,17376,1448,0,65728,65728,6,6,4,1460,670,1,1075848160,140,58156,48516,65700,0,47784,0,0,0
o,0x00000000,1716936795.428347,172.16.1.2,45509,172.16.3.2,5101,17376,2908,0,17984,65728,6,6,4,1460,639,1,1075848160,77,58156,732,65700,0,0,0,0,0
i,0x00000000,1716936795.428815,172.16.1.2,45509,172.16.3.2,5101,17376,2908,0,17984,65728,6,6,4,1460,639,1,1075848160,77,58156,732,65700,0,732,0,0,0
o,0x00000000,1716936795.428923,172.16.1.2,45509,172.16.3.2,5101,17376,2908,0,17984,65728,6,6,4,1460,639,1,1075848160,77,58156,58156,65700,0,732,0,0,0
i,0x00000000,1716936795.547559,172.16.1.2,45509,172.16.3.2,5101,17376,2908,0,17984,65728,6,6,4,1460,639,1,1075848160,77,58156,58156,65700,0,2180,0,0,0
o,0x00000000,1716936795.547575,172.16.1.2,45509,172.16.3.2,5101,17376,3640,0,65728,65728,6,6,4,1460,608,1,1075848160,75,58156,57424,65700,0,1448,0,0,0
i,0x00000000,1716936795.597998,172.16.1.2,45509,172.16.3.2,5101,17376,3640,0,65728,65728,6,6,4,1460,608,1,1075848160,75,58156,57424,65700,0,2896,0,0,0
o,0x00000000,1716936795.598006,172.16.1.2,45509,172.16.3.2,5101,17376,5088,0,65728,65728,6,6,4,1460,600,1,1075848160,68,58156,55976,65700,0,1448,0,0,0
o,0x00000000,1716936795.598309,172.16.1.2,45509,172.16.3.2,5101,17376,5088,0,65728,65728,6,6,4,1460,600,1,1075848160,68,58156,55976,65700,0,2896,0,0,0
i,0x00000000,1716936795.717519,172.16.1.2,45509,172.16.3.2,5101,17376,5088,0,65728,65728,6,6,4,1460,600,1,1075848160,68,58156,58156,65700,0,4344,0,0,0
o,0x00000000,1716936795.717538,172.16.1.2,45509,172.16.3.2,5101,17376,6536,0,65728,65728,6,6,4,1460,593,1,1075848160,62,58156,56708,65700,0,2896,0,0,0
o,0x00000000,1716936795.717781,172.16.1.2,45509,172.16.3.2,5101,17376,6536,0,65728,65728,6,6,4,1460,593,1,1075848160,62,58156,56708,65700,0,4344,0,0,0
i,0x00000000,1716936795.747537,172.16.1.2,45509,172.16.3.2,5101,17376,6536,0,65728,65728,6,6,4,1460,593,1,1075848160,62,58156,56708,65700,0,5792,0,0,0
o,0x00000000,1716936795.747543,172.16.1.2,45509,172.16.3.2,5101,17376,9432,0,64256,65728,6,6,4,1460,575,1,1075848160,60,58156,53812,65700,0,2896,0,0,0
o,0x00000000,1716936795.747780,172.16.1.2,45509,172.16.3.2,5101,17376,9432,0,64256,65728,6,6,4,1460,575,1,1075848160,60,58156,53812,65700,0,4344,0,0,0
o,0x00000000,1716936795.748031,172.16.1.2,45509,172.16.3.2,5101,17376,9432,0,64256,65728,6,6,4,1460,575,1,1075848160,60,58156,53812,65700,0,5792,0,0,0
o,0x00000000,1716936795.748291,172.16.1.2,45509,172.16.3.2,5101,17376,9432,0,64256,65728,6,6,4,1460,575,1,1075848160,60,58156,53812,65700,0,7240,0,0,0
i,0x00000000,1716936795.888358,172.16.1.2,45509,172.16.3.2,5101,17376,9432,0,64256,65728,6,6,4,1460,575,1,1075848160,60,58156,58156,65700,0,8688,0,0,0
o,0x00000000,1716936795.888378,172.16.1.2,45509,172.16.3.2,5101,17376,12328,0,64256,65728,6,6,4,1460,572,1,1075848160,55,58156,55260,65700,0,5792,0,0,0
o,0x00000000,1716936795.888695,172.16.1.2,45509,172.16.3.2,5101,17376,12328,0,64256,65728,6,6,4,1460,572,1,1075848160,55,58156,55260,65700,0,7240,0,0,0
o,0x00000000,1716936795.888968,172.16.1.2,45509,172.16.3.2,5101,17376,12328,0,64256,65728,6,6,4,1460,572,1,1075848160,55,58156,55260,65700,0,8688,0,0,0
o,0x00000000,1716936795.889221,172.16.1.2,45509,172.16.3.2,5101,17376,12328,0,64256,65728,6,6,4,1460,572,1,1075848160,55,58156,55260,65700,0,10136,0,0,0
i,0x00000000,1716936795.917798,172.16.1.2,45509,172.16.3.2,5101,17376,12328,0,64256,65728,6,6,4,1460,572,1,1075848160,55,58156,58156,65700,0,11584,0,0,0
o,0x00000000,1716936795.917805,172.16.1.2,45509,172.16.3.2,5101,17376,15224,0,64256,65728,6,6,4,1460,565,1,1075848160,52,58156,55260,65700,0,8688,0,0,0
o,0x00000000,1716936795.918039,172.16.1.2,45509,172.16.3.2,5101,17376,15224,0,64256,65728,6,6,4,1460,565,1,1075848160,52,58156,55260,65700,0,10136,0,0,0
o,0x00000000,1716936795.918264,172.16.1.2,45509,172.16.3.2,5101,17376,15224,0,64256,65728,6,6,4,1460,565,1,1075848160,52,58156,55260,65700,0,11584,0,0,0
o,0x00000000,1716936795.918490,172.16.1.2,45509,172.16.3.2,5101,17376,15224,0,64256,65728,6,6,4,1460,565,1,1075848160,52,58156,55260,65700,0,13032,0,0,0
i,0x00000000,1716936795.947323,172.16.1.2,45509,172.16.3.2,5101,17376,15224,0,64256,65728,6,6,4,1460,565,1,1075848160,52,58156,57940,65700,0,14480,0,0,0
o,0x00000000,1716936795.947329,172.16.1.2,45509,172.16.3.2,5101,17376,18120,0,64256,65728,6,6,4,1460,575,1,1075848160,51,58156,55044,65700,0,11584,0,0,0
o,0x00000000,1716936795.947564,172.16.1.2,45509,172.16.3.2,5101,17376,18120,0,64256,65728,6,6,4,1460,575,1,1075848160,51,58156,55044,65700,0,13032,0,0,0
o,0x00000000,1716936795.947794,172.16.1.2,45509,172.16.3.2,5101,17376,18120,0,64256,65728,6,6,4,1460,575,1,1075848160,51,58156,55044,65700,0,14480,0,0,0
o,0x00000000,1716936795.948020,172.16.1.2,45509,172.16.3.2,5101,17376,18120,0,64256,65728,6,6,4,1460,575,1,1075848160,51,58156,55044,65700,0,15928,0,0,0
i,0x00000000,1716936796.097905,172.16.1.2,45509,172.16.3.2,5101,17376,18120,0,64256,65728,6,6,4,1460,575,1,1075848160,51,58156,58156,65700,0,17376,0,0,0
o,0x00000000,1716936796.097925,172.16.1.2,45509,172.16.3.2,5101,17376,18120,0,64256,65728,6,6,4,1460,588,1,1075848160,52,58156,55260,65700,0,14480,0,0,0
o,0x00000000,1716936796.098174,172.16.1.2,45509,172.16.3.2,5101,17376,18120,0,64256,65728,6,6,4,1460,588,1,1075848160,52,58156,55260,65700,0,15928,0,0,0
i,0x00000000,1716936796.147495,172.16.1.2,45509,172.16.3.2,5101,17376,18120,0,64256,65728,6,6,4,1460,588,1,1075848160,52,58156,58156,65700,0,17376,0,0,0
o,0x00000000,1716936796.147507,172.16.1.2,45509,172.16.3.2,5101,17376,18120,0,65728,65728,6,6,4,1460,619,1,1075848160,57,58156,56708,65700,0,15928,0,0,0
i,0x00000000,1716936796.177185,172.16.1.2,45509,172.16.3.2,5101,17376,18120,0,65728,65728,6,6,4,1460,619,1,1075848160,57,58156,56708,65700,0,17376,0,0,0
o,0x00000000,1716936796.177191,172.16.1.2,45509,172.16.3.2,5101,17376,18120,0,64256,65728,6,6,4,1460,658,1,1075848160,64,58156,53812,65700,0,14480,0,0,0
o,0x00000000,1716936796.177430,172.16.1.2,45509,172.16.3.2,5101,17376,18120,0,64256,65728,6,6,4,1460,658,1,1075848160,64,58156,53812,65700,0,15928,0,0,0
i,0x00000000,1716936796.197107,172.16.1.2,45509,172.16.3.2,5101,17376,18120,0,64256,65728,6,6,4,1460,658,1,1075848160,64,58156,58156,65700,0,17376,0,0,0
o,0x00000000,1716936796.197114,172.16.1.2,45509,172.16.3.2,5101,17376,18120,0,64256,65728,6,6,4,1460,688,1,1075848160,66,58156,55260,65700,0,14480,0,0,0
o,0x00000000,1716936796.197372,172.16.1.2,45509,172.16.3.2,5101,17376,18120,0,64256,65728,6,6,4,1460,688,1,1075848160,66,58156,55260,65700,0,15928,0,0,0
i,0x00000000,1716936796.227043,172.16.1.2,45509,172.16.3.2,5101,17376,18120,0,64256,65728,6,6,4,1460,688,1,1075848160,66,58156,58156,65700,0,17376,0,0,0
o,0x00000000,1716936796.227057,172.16.1.2,45509,172.16.3.2,5101,17376,18120,0,65728,65728,6,6,4,1460,726,1,1075848160,71,58156,56708,65700,0,15928,0,0,0
i,0x00000000,1716936796.227296,172.16.1.2,45509,172.16.3.2,5101,17376,18120,0,65728,65728,6,6,4,1460,726,1,1075848160,71,58156,56708,65700,0,17376,0,0,0
o,0x00000000,1716936796.227299,172.16.1.2,45509,172.16.3.2,5101,17376,20272,0,65728,65728,6,6,4,1460,726,1,1075848160,71,58156,56708,65700,0,17376,0,0,0
o,0x00000000,1716936796.227625,172.16.1.2,45509,172.16.3.2,5101,17376,20272,0,65728,65728,6,6,4,1460,726,1,1075848160,71,58156,56708,65700,0,18824,0,0,0
i,0x00000000,1716936796.277816,172.16.1.2,45509,172.16.3.2,5101,17376,18120,0,65728,65728,6,6,4,1460,726,1,1075848160,71,58156,56708,65700,0,20272,0,0,0
o,0x00000000,1716936796.277822,172.16.1.2,45509,172.16.3.2,5101,8688,1448,0,65728,65728,6,6,4,1460,726,1,1613767648,71,58156,56708,65700,0,20272,0,0,0
i,0x00000000,1716936796.328657,172.16.1.2,45509,172.16.3.2,5101,8688,1448,0,65728,65728,6,6,4,1460,726,1,1613767648,71,58156,56708,65700,0,20272,0,0,0
i,0x00000000,1716936796.356916,172.16.1.2,45509,172.16.3.2,5101,8688,1448,0,65728,65728,6,6,4,1460,726,1,1613767648,71,58156,56708,65700,0,20272,0,0,0
i,0x00000000,1716936796.368475,172.16.1.2,45509,172.16.3.2,5101,8688,1448,0,65728,65728,6,6,4,1460,726,1,1613767648,71,58156,56708,65700,0,20272,0,0,0
i,0x00000000,1716936796.408140,172.16.1.2,45509,172.16.3.2,5101,8688,1448,0,65728,65728,6,6,4,1460,726,1,1613767648,71,58156,56708,65700,0,20272,0,0,0
i,0x00000000,1716936796.417132,172.16.1.2,45509,172.16.3.2,5101,8688,1448,0,65728,65728,6,6,4,1460,726,1,1613767648,71,58156,56708,65700,0,20272,0,0,0
o,0x00000000,1716936796.417143,172.16.1.2,45509,172.16.3.2,5101,8688,2896,0,65728,65728,6,6,4,1460,726,1,1613767648,71,58156,56708,65700,0,20272,0,0,0
i,0x00000000,1716936796.437753,172.16.1.2,45509,172.16.3.2,5101,8688,2896,0,65728,65728,6,6,4,1460,726,1,1613767648,71,58156,56708,65700,0,20272,0,0,0
o,0x00000000,1716936796.437760,172.16.1.2,45509,172.16.3.2,5101,8688,4344,0,65728,65728,6,6,4,1460,726,1,1613767648,71,58156,56708,65700,0,20272,0,0,0
i,0x00000000,1716936796.437839,172.16.1.2,45509,172.16.3.2,5101,8688,4344,0,65728,65728,6,6,4,1460,726,1,1613767648,71,58156,56708,65700,0,21720,0,0,0
o,0x00000000,1716936796.437841,172.16.1.2,45509,172.16.3.2,5101,8688,5792,0,65728,65728,6,6,4,1460,726,1,1613767648,71,58156,56708,65700,0,21720,0,0,0
i,0x00000000,1716936796.467547,172.16.1.2,45509,172.16.3.2,5101,8688,5792,0,65728,65728,6,6,4,1460,726,1,1613767648,71,58156,56708,65700,0,23168,0,0,0
o,0x00000000,1716936796.467553,172.16.1.2,45509,172.16.3.2,5101,8688,7240,0,65728,65728,6,6,4,1460,726,1,1613767648,71,58156,56708,65700,0,23168,0,0,0
i,0x00000000,1716936796.467897,172.16.1.2,45509,172.16.3.2,5101,8688,7240,0,65728,65728,6,6,4,1460,726,1,1613767648,71,58156,56708,65700,0,24616,0,0,0
o,0x00000000,1716936796.467900,172.16.1.2,45509,172.16.3.2,5101,8688,7240,0,65728,65728,6,6,4,1460,726,1,1613767649,71,58156,56708,65700,0,24616,0,0,0
i,0x00000000,1716936796.557737,172.16.1.2,45509,172.16.3.2,5101,8688,7240,0,64320,65728,6,6,4,1460,712,1,1613767648,67,58156,58156,65700,0,24616,0,0,0
o,0x00000000,1716936796.557753,172.16.1.2,45509,172.16.3.2,5101,8688,8688,0,64320,65728,6,6,4,1460,712,1,1613767649,67,58156,58156,65700,0,24616,0,0,0
o,0x00000000,1716936796.557863,172.16.1.2,45509,172.16.3.2,5101,8688,8688,0,48384,65728,6,6,4,1460,679,1,1613767648,68,58156,40780,65700,0,7240,0,0,0
i,0x00000000,1716936796.558221,172.16.1.2,45509,172.16.3.2,5101,8688,8688,0,48384,65728,6,6,4,1460,679,1,1613767648,68,58156,40780,65700,0,8688,0,0,0
i,0x00000000,1716936796.608073,172.16.1.2,45509,172.16.3.2,5101,8688,8688,0,48384,65728,6,6,4,1460,679,1,1613767648,68,58156,58156,65700,0,8688,0,0,0
o,0x00000000,1716936796.608082,172.16.1.2,45509,172.16.3.2,5101,8688,10136,0,48384,65728,6,6,4,1460,679,1,1613767648,68,58156,58156,65700,0,8688,0,0,0
o,0x00000000,1716936796.608176,172.16.1.2,45509,172.16.3.2,5101,8688,10136,0,48384,65728,6,6,4,1460,679,1,1613767648,68,58156,58156,65700,0,8688,0,0,0
i,0x00000000,1716936796.608282,172.16.1.2,45509,172.16.3.2,5101,8688,10136,0,48384,65728,6,6,4,1460,679,1,1613767648,68,58156,58156,65700,0,10136,0,0,0
o,0x00000000,1716936796.608285,172.16.1.2,45509,172.16.3.2,5101,8688,11584,0,48384,65728,6,6,4,1460,679,1,1613767648,68,58156,58156,65700,0,10136,0,0,0
i,0x00000000,1716936796.608409,172.16.1.2,45509,172.16.3.2,5101,8688,11584,0,48384,65728,6,6,4,1460,679,1,1613767648,68,58156,58156,65700,0,11584,0,0,0
o,0x00000000,1716936796.608414,172.16.1.2,45509,172.16.3.2,5101,8688,13032,0,48384,65728,6,6,4,1460,679,1,1613767648,68,58156,58156,65700,0,11584,0,0,0
i,0x00000000,1716936796.638300,172.16.1.2,45509,172.16.3.2,5101,8688,13032,0,48384,65728,6,6,4,1460,679,1,1613767648,68,58156,58156,65700,0,13032,0,0,0
o,0x00000000,1716936796.638306,172.16.1.2,45509,172.16.3.2,5101,8688,14480,0,48384,65728,6,6,4,1460,679,1,1613767648,68,58156,58156,65700,0,13032,0,0,0
i,0x00000000,1716936796.698351,172.16.1.2,45509,172.16.3.2,5101,8688,14480,0,48384,65728,6,6,4,1460,679,1,1613767648,68,58156,58156,65700,0,14480,0,0,0
o,0x00000000,1716936796.698359,172.16.1.2,45509,172.16.3.2,5101,8688,15928,0,48384,65728,6,6,4,1460,679,1,1613767648,68,58156,58156,65700,0,14480,0,0,0
i,0x00000000,1716936796.767843,172.16.1.2,45509,172.16.3.2,5101,8688,15928,0,48384,65728,6,6,4,1460,679,1,1613767648,68,58156,58156,65700,0,15928,0,0,0
o,0x00000000,1716936796.767852,172.16.1.2,45509,172.16.3.2,5101,8688,8700,0,57088,65728,6,6,4,1460,659,1,1075848160,65,58156,49468,65700,0,7240,0,0,0
i,0x00000000,1716936796.787688,172.16.1.2,45509,172.16.3.2,5101,8688,8700,0,57088,65728,6,6,4,1460,659,1,1075848160,65,58156,58156,65700,0,8688,0,0,0
o,0x00000000,1716936796.787696,172.16.1.2,45509,172.16.3.2,5101,8688,10160,0,64256,65728,6,6,4,1460,649,1,1075848160,61,58156,55260,65700,0,5792,0,0,0
o,0x00000000,1716936796.787935,172.16.1.2,45509,172.16.3.2,5101,8688,10160,0,64256,65728,6,6,4,1460,649,1,1075848160,61,58156,55260,65700,0,7240,0,0,0
o,0x00000000,1716936796.788232,172.16.1.2,45509,172.16.3.2,5101,8688,10160,0,64256,65728,6,6,4,1460,649,1,1075848160,61,58156,55260,65700,0,8688,0,0,0
i,0x00000000,1716936796.807587,172.16.1.2,45509,172.16.3.2,5101,8688,10160,0,64256,65728,6,6,4,1460,649,1,1075848160,61,58156,58156,65700,0,10136,0,0,0
o,0x00000000,1716936796.807595,172.16.1.2,45509,172.16.3.2,5101,8688,10160,0,64256,65728,6,6,4,1460,648,1,1075848160,56,58156,55260,65700,0,7240,0,0,0
o,0x00000000,1716936796.807830,172.16.1.2,45509,172.16.3.2,5101,8688,10160,0,64256,65728,6,6,4,1460,648,1,1075848160,56,58156,55260,65700,0,8688,0,0,0
i,0x00000000,1716936796.908151,172.16.1.2,45509,172.16.3.2,5101,8688,10160,0,64256,65728,6,6,4,1460,648,1,1075848160,56,58156,58156,65700,0,10136,0,0,0
o,0x00000000,1716936796.908164,172.16.1.2,45509,172.16.3.2,5101,8688,10160,0,65728,65728,6,6,4,1460,651,1,1075848160,53,58156,56708,65700,0,8688,0,0,0
i,0x00000000,1716936796.957380,172.16.1.2,45509,172.16.3.2,5101,8688,10160,0,65728,65728,6,6,4,1460,651,1,1075848160,53,58156,56708,65700,0,10136,0,0,0
o,0x00000000,1716936796.957388,172.16.1.2,45509,172.16.3.2,5101,8688,10160,0,64256,65728,6,6,4,1460,646,1,1075848160,51,58156,53812,65700,0,7240,0,0,0
o,0x00000000,1716936796.957622,172.16.1.2,45509,172.16.3.2,5101,8688,10160,0,64256,65728,6,6,4,1460,646,1,1075848160,51,58156,53812,65700,0,8688,0,0,0
i,0x00000000,1716936797.008019,172.16.1.2,45509,172.16.3.2,5101,8688,10160,0,64256,65728,6,6,4,1460,646,1,1075848160,51,58156,58156,65700,0,10136,0,0,0
o,0x00000000,1716936797.008028,172.16.1.2,45509,172.16.3.2,5101,8688,11620,0,64256,65728,6,6,4,1460,654,1,1075848160,50,58156,55260,65700,0,7240,0,0,0
o,0x00000000,1716936797.008110,172.16.1.2,45509,172.16.3.2,5101,8688,11620,0,64256,65728,6,6,4,1460,654,1,1075848160,50,58156,55260,65700,0,8688,0,0,0
o,0x00000000,1716936797.008192,172.16.1.2,45509,172.16.3.2,5101,8688,11620,0,64256,65728,6,6,4,1460,654,1,1075848160,50,58156,55260,65700,0,10136,0,0,0
i,0x00000000,1716936797.008288,172.16.1.2,45509,172.16.3.2,5101,8688,11620,0,64256,65728,6,6,4,1460,654,1,1075848160,50,58156,55260,65700,0,11584,0,0,0
o,0x00000000,1716936797.008292,172.16.1.2,45509,172.16.3.2,5101,8688,11620,0,64256,65728,6,6,4,1460,653,1,1075848160,48,58156,52364,65700,0,8688,0,0,0
o,0x00000000,1716936797.008388,172.16.1.2,45509,172.16.3.2,5101,8688,11620,0,64256,65728,6,6,4,1460,653,1,1075848160,48,58156,52364,65700,0,10136,0,0,0
i,0x00000000,1716936797.096781,172.16.1.2,45509,172.16.3.2,5101,8688,11620,0,64256,65728,6,6,4,1460,653,1,1075848160,48,58156,58156,65700,0,11584,0,0,0
o,0x00000000,1716936797.096798,172.16.1.2,45509,172.16.3.2,5101,8688,11620,0,65728,65728,6,6,4,1460,648,1,1075848160,47,58156,56708,65700,0,10136,0,0,0
i,0x00000000,1716936797.157951,172.16.1.2,45509,172.16.3.2,5101,8688,11620,0,65728,65728,6,6,4,1460,648,1,1075848160,47,58156,56708,65700,0,11584,0,0,0
o,0x00000000,1716936797.157965,172.16.1.2,45509,172.16.3.2,5101,8688,11620,0,65728,65728,6,6,4,1460,647,1,1075848160,46,58156,55260,65700,0,10136,0,0,0
i,0x00000000,1716936797.177610,172.16.1.2,45509,172.16.3.2,5101,8688,11620,0,65728,65728,6,6,4,1460,647,1,1075848160,46,58156,58156,65700,0,11584,0,0,0
o,0x00000000,1716936797.177618,172.16.1.2,45509,172.16.3.2,5101,8688,11620,0,64256,65728,6,6,4,1460,655,1,1075848160,46,58156,55260,65700,0,8688,0,0,0
o,0x00000000,1716936797.177944,172.16.1.2,45509,172.16.3.2,5101,8688,11620,0,64256,65728,6,6,4,1460,655,1,1075848160,46,58156,55260,65700,0,10136,0,0,0
i,0x00000000,1716936797.218347,172.16.1.2,45509,172.16.3.2,5101,8688,11620,0,64256,65728,6,6,4,1460,655,1,1075848160,46,58156,58156,65700,0,11584,0,0,0
o,0x00000000,1716936797.218357,172.16.1.2,45509,172.16.3.2,5101,8688,13080,0,64256,65728,6,6,4,1460,658,1,1075848160,46,58156,55260,65700,0,8688,0,0,0
o,0x00000000,1716936797.218601,172.16.1.2,45509,172.16.3.2,5101,8688,13080,0,64256,65728,6,6,4,1460,658,1,1075848160,46,58156,55260,65700,0,10136,0,0,0
o,0x00000000,1716936797.218829,172.16.1.2,45509,172.16.3.2,5101,8688,13080,0,64256,65728,6,6,4,1460,658,1,1075848160,46,58156,55260,65700,0,11584,0,0,0
i,0x00000000,1716936797.267089,172.16.1.2,45509,172.16.3.2,5101,8688,13080,0,64256,65728,6,6,4,1460,658,1,1075848160,46,58156,58156,65700,0,13032,0,0,0
o,0x00000000,1716936797.267094,172.16.1.2,45509,172.16.3.2,5101,8688,14480,0,64256,65728,6,6,4,1460,658,1,1075848160,46,58156,58156,65700,0,13032,0,0,0
i,0x00000000,1716936797.267323,172.16.1.2,45509,172.16.3.2,5101,8688,13080,0,64256,65728,6,6,4,1460,658,1,1075848160,46,58156,58156,65700,0,14480,0,0,0
o,0x00000000,1716936797.267325,172.16.1.2,45509,172.16.3.2,5101,8688,15928,0,64256,65728,6,6,4,1460,658,1,1075848160,46,58156,58156,65700,0,14480,0,0,0
i,0x00000000,1716936797.307938,172.16.1.2,45509,172.16.3.2,5101,8688,13080,0,64256,65728,6,6,4,1460,658,1,1075848160,46,58156,58156,65700,0,15928,0,0,0
o,0x00000000,1716936797.307980,172.16.1.2,45509,172.16.3.2,5101,5792,1448,0,64256,65728,6,6,4,1460,658,1,1613767648,46,58156,58156,65700,0,15928,0,0,0
i,0x00000000,1716936797.318317,172.16.1.2,45509,172.16.3.2,5101,5792,1448,0,64256,65728,6,6,4,1460,658,1,1613767648,46,58156,58156,65700,0,15928,0,0,0
i,0x00000000,1716936797.367863,172.16.1.2,45509,172.16.3.2,5101,5792,1448,0,64256,65728,6,6,4,1460,658,1,1613767648,46,58156,58156,65700,0,15928,0,0,0
i,0x00000000,1716936797.387535,172.16.1.2,45509,172.16.3.2,5101,5792,1448,0,64256,65728,6,6,4,1460,658,1,1613767648,46,58156,58156,65700,0,15928,0,0,0
o,0x00000000,1716936797.387556,172.16.1.2,45509,172.16.3.2,5101,5792,2896,0,64256,65728,6,6,4,1460,658,1,1613767648,46,58156,58156,65700,0,15928,0,0,0
i,0x00000000,1716936797.407182,172.16.1.2,45509,172.16.3.2,5101,5792,2896,0,64256,65728,6,6,4,1460,658,1,1613767648,46,58156,58156,65700,0,17376,0,0,0
i,0x00000000,1716936797.426779,172.16.1.2,45509,172.16.3.2,5101,5792,2896,0,64256,65728,6,6,4,1460,658,1,1613767648,46,58156,58156,65700,0,17376,0,0,0
i,0x00000000,1716936797.447379,172.16.1.2,45509,172.16.3.2,5101,5792,2896,0,64256,65728,6,6,4,1460,658,1,1613767648,46,58156,58156,65700,0,17376,0,0,0
o,0x00000000,1716936797.447389,172.16.1.2,45509,172.16.3.2,5101,5792,4344,0,64256,65728,6,6,4,1460,658,1,1613767648,46,58156,58156,65700,0,17376,0,0,0
i,0x00000000,1716936797.458358,172.16.1.2,45509,172.16.3.2,5101,5792,4344,0,64256,65728,6,6,4,1460,658,1,1613767648,46,58156,58156,65700,0,18824,0,0,0
o,0x00000000,1716936797.458364,172.16.1.2,45509,172.16.3.2,5101,5792,5792,0,64256,65728,6,6,4,1460,658,1,1613767648,46,58156,58156,65700,0,18824,0,0,0
i,0x00000000,1716936797.477511,172.16.1.2,45509,172.16.3.2,5101,5792,5792,0,64256,65728,6,6,4,1460,658,1,1613767648,46,58156,58156,65700,0,20272,0,0,0
o,0x00000000,1716936797.477519,172.16.1.2,45509,172.16.3.2,5101,5792,5804,0,49856,65728,6,6,4,1460,644,1,1075848160,48,58156,42228,65700,0,4344,0,0,0
i,0x00000000,1716936797.547669,172.16.1.2,45509,172.16.3.2,5101,5792,5804,0,49856,65728,6,6,4,1460,644,1,1075848160,48,58156,58156,65700,0,5792,0,0,0
o,0x00000000,1716936797.547687,172.16.1.2,45509,172.16.3.2,5101,5792,7264,0,65728,65728,6,6,4,1460,628,1,1075848160,49,58156,56708,65700,0,4344,0,0,0
o,0x00000000,1716936797.547935,172.16.1.2,45509,172.16.3.2,5101,5792,7264,0,65728,65728,6,6,4,1460,628,1,1075848160,49,58156,56708,65700,0,5792,0,0,0
i,0x00000000,1716936797.587401,172.16.1.2,45509,172.16.3.2,5101,5792,7264,0,65728,65728,6,6,4,1460,628,1,1075848160,49,58156,56708,65700,0,7240,0,0,0
o,0x00000000,1716936797.587411,172.16.1.2,45509,172.16.3.2,5101,5792,8724,0,64256,65728,6,6,4,1460,606,1,1075848160,51,58156,53812,65700,0,4344,0,0,0
o,0x00000000,1716936797.587699,172.16.1.2,45509,172.16.3.2,5101,5792,8724,0,64256,65728,6,6,4,1460,606,1,1075848160,51,58156,53812,65700,0,5792,0,0,0
o,0x00000000,1716936797.587992,172.16.1.2,45509,172.16.3.2,5101,5792,8724,0,64256,65728,6,6,4,1460,606,1,1075848160,51,58156,53812,65700,0,7240,0,0,0
i,0x00000000,1716936797.667260,172.16.1.2,45509,172.16.3.2,5101,5792,8724,0,64256,65728,6,6,4,1460,606,1,1075848160,51,58156,58156,65700,0,8688,0,0,0
o,0x00000000,1716936797.667279,172.16.1.2,45509,172.16.3.2,5101,5792,8724,0,65728,65728,6,6,4,1460,607,1,1075848160,48,58156,56708,65700,0,7240,0,0,0
i,0x00000000,1716936797.707556,172.16.1.2,45509,172.16.3.2,5101,5792,8724,0,65728,65728,6,6,4,1460,607,1,1075848160,48,58156,56708,65700,0,8688,0,0,0
o,0x00000000,1716936797.707570,172.16.1.2,45509,172.16.3.2,5101,5792,8724,0,64256,65728,6,6,4,1460,596,1,1075848160,48,58156,53812,65700,0,5792,0,0,0
o,0x00000000,1716936797.707808,172.16.1.2,45509,172.16.3.2,5101,5792,8724,0,64256,65728,6,6,4,1460,596,1,1075848160,48,58156,53812,65700,0,7240,0,0,0
i,0x00000000,1716936797.757375,172.16.1.2,45509,172.16.3.2,5101,5792,8724,0,64256,65728,6,6,4,1460,596,1,1075848160,48,58156,58156,65700,0,8688,0,0,0
o,0x00000000,1716936797.757384,172.16.1.2,45509,172.16.3.2,5101,5792,8724,0,64256,65728,6,6,4,1460,586,1,1075848160,48,58156,55260,65700,0,5792,0,0,0
o,0x00000000,1716936797.757640,172.16.1.2,45509,172.16.3.2,5101,5792,8724,0,64256,65728,6,6,4,1460,586,1,1075848160,48,58156,55260,65700,0,7240,0,0,0
i,0x00000000,1716936797.807793,172.16.1.2,45509,172.16.3.2,5101,5792,8724,0,64256,65728,6,6,4,1460,586,1,1075848160,48,58156,58156,65700,0,8688,0,0,0
o,0x00000000,1716936797.807805,172.16.1.2,45509,172.16.3.2,5101,5792,10184,0,65728,65728,6,6,4,1460,601,1,1075848160,50,58156,56708,65700,0,7240,0,0,0
o,0x00000000,1716936797.808054,172.16.1.2,45509,172.16.3.2,5101,5792,10184,0,65728,65728,6,6,4,1460,601,1,1075848160,50,58156,56708,65700,0,8688,0,0,0
i,0x00000000,1716936797.857658,172.16.1.2,45509,172.16.3.2,5101,5792,10184,0,65728,65728,6,6,4,1460,601,1,1075848160,50,58156,56708,65700,0,10136,0,0,0
o,0x00000000,1716936797.857693,172.16.1.2,45509,172.16.3.2,5101,5792,10184,0,65728,65728,6,6,4,1460,602,1,1075848160,47,58156,55260,65700,0,8688,0,0,0
i,0x00000000,1716936797.907536,172.16.1.2,45509,172.16.3.2,5101,5792,10184,0,65728,65728,6,6,4,1460,602,1,1075848160,47,58156,58156,65700,0,10136,0,0,0
o,0x00000000,1716936797.907557,172.16.1.2,45509,172.16.3.2,5101,5792,10184,0,64256,65728,6,6,4,1460,607,1,1075848160,46,58156,55260,65700,0,7240,0,0,0
o,0x00000000,1716936797.907828,172.16.1.2,45509,172.16.3.2,5101,5792,10184,0,64256,65728,6,6,4,1460,607,1,1075848160,46,58156,55260,65700,0,8688,0,0,0
i,0x00000000,1716936797.957261,172.16.1.2,45509,172.16.3.2,5101,5792,10184,0,64256,65728,6,6,4,1460,607,1,1075848160,46,58156,58156,65700,0,10136,0,0,0
o,0x00000000,1716936797.957274,172.16.1.2,45509,172.16.3.2,5101,5792,10184,0,64256,65728,6,6,4,1460,612,1,1075848160,46,58156,55260,65700,0,7240,0,0,0
o,0x00000000,1716936797.957516,172.16.1.2,45509,172.16.3.2,5101,5792,10184,0,64256,65728,6,6,4,1460,612,1,1075848160,46,58156,55260,65700,0,8688,0,0,0
i,0x00000000,1716936798.008485,172.16.1.2,45509,172.16.3.2,5101,5792,10184,0,64256,65728,6,6,4,1460,612,1,1075848160,46,58156,58156,65700,0,10136,0,0,0
o,0x00000000,1716936798.008510,172.16.1.2,45509,172.16.3.2,5101,5792,11644,0,64256,65728,6,6,4,1460,616,1,1075848160,45,58156,55260,65700,0,7240,0,0,0
o,0x00000000,1716936798.008784,172.16.1.2,45509,172.16.3.2,5101,5792,11644,0,64256,65728,6,6,4,1460,616,1,1075848160,45,58156,55260,65700,0,8688,0,0,0
o,0x00000000,1716936798.009013,172.16.1.2,45509,172.16.3.2,5101,5792,11644,0,64256,65728,6,6,4,1460,616,1,1075848160,45,58156,55260,65700,0,10136,0,0,0
i,0x00000000,1716936798.057219,172.16.1.2,45509,172.16.3.2,5101,5792,11644,0,64256,65728,6,6,4,1460,616,1,1075848160,45,58156,58156,65700,0,11584,0,0,0
o,0x00000000,1716936798.057237,172.16.1.2,45509,172.16.3.2,5101,5792,11644,0,65728,65728,6,6,4,1460,619,1,1075848160,45,58156,56708,65700,0,10136,0,0,0
i,0x00000000,1716936798.097630,172.16.1.2,45509,172.16.3.2,5101,5792,11644,0,65728,65728,6,6,4,1460,619,1,1075848160,45,58156,56708,65700,0,11584,0,0,0
o,0x00000000,1716936798.097637,172.16.1.2,45509,172.16.3.2,5101,5792,11644,0,64256,65728,6,6,4,1460,618,1,1075848160,44,58156,53812,65700,0,8688,0,0,0
o,0x00000000,1716936798.097987,172.16.1.2,45509,172.16.3.2,5101,5792,11644,0,64256,65728,6,6,4,1460,618,1,1075848160,44,58156,53812,65700,0,10136,0,0,0
i,0x00000000,1716936798.157376,172.16.1.2,45509,172.16.3.2,5101,5792,11644,0,64256,65728,6,6,4,1460,618,1,1075848160,44,58156,58156,65700,0,11584,0,0,0
o,0x00000000,1716936798.157384,172.16.1.2,45509,172.16.3.2,5101,5792,11644,0,64256,65728,6,6,4,1460,621,1,1075848160,43,58156,55260,65700,0,8688,0,0,0
o,0x00000000,1716936798.157621,172.16.1.2,45509,172.16.3.2,5101,5792,11644,0,64256,65728,6,6,4,1460,621,1,1075848160,43,58156,55260,65700,0,10136,0,0,0
i,0x00000000,1716936798.196957,172.16.1.2,45509,172.16.3.2,5101,5792,11644,0,64256,65728,6,6,4,1460,621,1,1075848160,43,58156,58156,65700,0,11584,0,0,0
o,0x00000000,1716936798.196965,172.16.1.2,45509,172.16.3.2,5101,5792,11644,0,64256,65728,6,6,4,1460,616,1,1075848160,44,58156,55260,65700,0,8688,0,0,0
o,0x00000000,1716936798.197202,172.16.1.2,45509,172.16.3.2,5101,5792,11644,0,64256,65728,6,6,4,1460,616,1,1075848160,44,58156,55260,65700,0,10136,0,0,0
i,0x00000000,1716936798.247684,172.16.1.2,45509,172.16.3.2,5101,5792,11644,0,64256,65728,6,6,4,1460,616,1,1075848160,44,58156,58156,65700,0,11584,0,0,0
o,0x00000000,1716936798.247692,172.16.1.2,45509,172.16.3.2,5101,5792,13104,0,64256,65728,6,6,4,1460,631,1,1075848160,47,58156,55260,65700,0,8688,0,0,0
o,0x00000000,1716936798.247935,172.16.1.2,45509,172.16.3.2,5101,5792,13104,0,64256,65728,6,6,4,1460,631,1,1075848160,47,58156,55260,65700,0,10136,0,0,0
o,0x00000000,1716936798.248167,172.16.1.2,45509,172.16.3.2,5101,5792,13104,0,64256,65728,6,6,4,1460,631,1,1075848160,47,58156,55260,65700,0,11584,0,0,0
i,0x00000000,1716936798.297440,172.16.1.2,45509,172.16.3.2,5101,5792,13104,0,64256,65728,6,6,4,1460,631,1,1075848160,47,58156,58156,65700,0,13032,0,0,0
o,0x00000000,1716936798.297445,172.16.1.2,45509,172.16.3.2,5101,5792,13104,0,64256,65728,6,6,4,1460,633,1,1075848160,46,58156,55260,65700,0,10136,0,0,0
o,0x00000000,1716936798.297677,172.16.1.2,45509,172.16.3.2,5101,5792,13104,0,64256,65728,6,6,4,1460,633,1,1075848160,46,58156,55260,65700,0,11584,0,0,0
i,0x00000000,1716936798.337995,172.16.1.2,45509,172.16.3.2,5101,5792,13104,0,64256,65728,6,6,4,1460,633,1,1075848160,46,58156,58156,65700,0,13032,0,0,0
o,0x00000000,1716936798.338004,172.16.1.2,45509,172.16.3.2,5101,5792,13104,0,64256,65728,6,6,4,1460,626,1,1075848160,46,58156,55260,65700,0,10136,0,0,0
o,0x00000000,1716936798.338251,172.16.1.2,45509,172.16.3.2,5101,5792,13104,0,64256,65728,6,6,4,1460,626,1,1075848160,46,58156,55260,65700,0,11584,0,0,0
i,0x00000000,1716936798.377986,172.16.1.2,45509,172.16.3.2,5101,5792,13104,0,64256,65728,6,6,4,1460,626,1,1075848160,46,58156,58156,65700,0,13032,0,0,0
o,0x00000000,1716936798.377993,172.16.1.2,45509,172.16.3.2,5101,5792,13104,0,65728,65728,6,6,4,1460,620,1,1075848160,45,58156,56708,65700,0,11584,0,0,0
i,0x00000000,1716936798.407156,172.16.1.2,45509,172.16.3.2,5101,5792,13104,0,65728,65728,6,6,4,1460,620,1,1075848160,45,58156,56708,65700,0,13032,0,0,0
o,0x00000000,1716936798.407165,172.16.1.2,45509,172.16.3.2,5101,5792,13104,0,64256,65728,6,6,4,1460,627,1,1075848160,46,58156,53812,65700,0,10136,0,0,0
o,0x00000000,1716936798.407400,172.16.1.2,45509,172.16.3.2,5101,5792,13104,0,64256,65728,6,6,4,1460,627,1,1075848160,46,58156,53812,65700,0,11584,0,0,0
i,0x00000000,1716936798.467428,172.16.1.2,45509,172.16.3.2,5101,5792,13104,0,64256,65728,6,6,4,1460,627,1,1075848160,46,58156,58156,65700,0,13032,0,0,0
o,0x00000000,1716936798.467437,172.16.1.2,45509,172.16.3.2,5101,5792,14564,0,64256,65728,6,6,4,1460,637,1,1075848160,47,58156,55260,65700,0,10136,0,0,0
o,0x00000000,1716936798.467671,172.16.1.2,45509,172.16.3.2,5101,5792,14564,0,64256,65728,6,6,4,1460,637,1,1075848160,47,58156,55260,65700,0,11584,0,0,0
o,0x00000000,1716936798.468016,172.16.1.2,45509,172.16.3.2,5101,5792,14564,0,64256,65728,6,6,4,1460,637,1,1075848160,47,58156,55260,65700,0,13032,0,0,0
i,0x00000000,1716936798.518186,172.16.1.2,45509,172.16.3.2,5101,5792,14564,0,64256,65728,6,6,4,1460,637,1,1075848160,47,58156,57244,65700,0,14480,0,0,0
o,0x00000000,1716936798.518194,172.16.1.2,45509,172.16.3.2,5101,5792,14564,0,65728,65728,6,6,4,1460,642,1,1075848160,47,58156,55796,65700,0,13032,0,0,0
i,0x00000000,1716936798.567293,172.16.1.2,45509,172.16.3.2,5101,5792,14564,0,65728,65728,6,6,4,1460,642,1,1075848160,47,58156,58156,65700,0,14480,0,0,0
i,0x00000000,1716936798.567303,172.16.1.2,45509,172.16.3.2,5101,5792,14564,0,65728,65728,6,6,4,1460,642,1,1075848160,47,58156,58156,65700,0,14480,0,0,0
o,0x00000000,1716936798.567310,172.16.1.2,45509,172.16.3.2,5101,7240,1448,0,65728,65728,6,6,4,1460,642,1,1613767648,47,58156,58156,65700,0,14480,0,0,0
i,0x00000000,1716936798.587944,172.16.1.2,45509,172.16.3.2,5101,7240,1448,0,65728,65728,6,6,4,1460,642,1,1613767648,47,58156,58156,65700,0,14480,0,0,0
o,0x00000000,1716936798.587950,172.16.1.2,45509,172.16.3.2,5101,7240,2896,0,65728,65728,6,6,4,1460,642,1,1613767648,47,58156,58156,65700,0,14480,0,0,0
i,0x00000000,1716936798.627142,172.16.1.2,45509,172.16.3.2,5101,7240,2896,0,65728,65728,6,6,4,1460,642,1,1613767648,47,58156,58156,65700,0,15928,0,0,0
i,0x00000000,1716936798.668048,172.16.1.2,45509,172.16.3.2,5101,7240,2896,0,65728,65728,6,6,4,1460,642,1,1613767648,47,58156,58156,65700,0,15928,0,0,0
o,0x00000000,1716936798.668064,172.16.1.2,45509,172.16.3.2,5101,7240,4344,0,65728,65728,6,6,4,1460,642,1,1613767648,47,58156,58156,65700,0,15928,0,0,0
i,0x00000000,1716936798.668149,172.16.1.2,45509,172.16.3.2,5101,7240,4344,0,65728,65728,6,6,4,1460,642,1,1613767648,47,58156,58156,65700,0,17376,0,0,0
i,0x00000000,1716936798.668151,172.16.1.2,45509,172.16.3.2,5101,7240,4344,0,65728,65728,6,6,4,1460,642,1,1613767648,47,58156,58156,65700,0,17376,0,0,0
o,0x00000000,1716936798.668152,172.16.1.2,45509,172.16.3.2,5101,7240,5792,0,65728,65728,6,6,4,1460,642,1,1613767648,47,58156,58156,65700,0,17376,0,0,0
i,0x00000000,1716936798.707909,172.16.1.2,45509,172.16.3.2,5101,7240,5792,0,65728,65728,6,6,4,1460,642,1,1613767648,47,58156,58156,65700,0,18824,0,0,0
o,0x00000000,1716936798.707917,172.16.1.2,45509,172.16.3.2,5101,7240,7240,0,65728,65728,6,6,4,1460,642,1,1613767648,47,58156,58156,65700,0,18824,0,0,0
i,0x00000000,1716936798.756836,172.16.1.2,45509,172.16.3.2,5101,7240,7240,0,65728,65728,6,6,4,1460,642,1,1613767648,47,58156,58156,65700,0,20272,0,0,0
o,0x00000000,1716936798.756846,172.16.1.2,45509,172.16.3.2,5101,7240,7252,0,51264,65728,6,6,4,1460,634,1,1075848160,47,58156,43676,65700,0,5792,0,0,0
i,0x00000000,1716936798.756926,172.16.1.2,45509,172.16.3.2,5101,7240,7252,0,51264,65728,6,6,4,1460,634,1,1075848160,47,58156,43676,65700,0,7240,0,0,0
o,0x00000000,1716936798.756929,172.16.1.2,45509,172.16.3.2,5101,7240,8712,0,65728,65728,6,6,4,1460,619,1,1075848160,48,58156,42228,65700,0,5792,0,0,0
o,0x00000000,1716936798.757002,172.16.1.2,45509,172.16.3.2,5101,7240,8712,0,65728,65728,6,6,4,1460,619,1,1075848160,48,58156,42228,65700,0,7240,0,0,0
i,0x00000000,1716936798.857761,172.16.1.2,45509,172.16.3.2,5101,7240,8712,0,65728,65728,6,6,4,1460,619,1,1075848160,48,58156,58156,65700,0,8688,0,0,0
o,0x00000000,1716936798.857776,172.16.1.2,45509,172.16.3.2,5101,7240,8712,0,64256,65728,6,6,4,1460,618,1,1075848160,46,58156,55260,65700,0,5792,0,0,0
o,0x00000000,1716936798.858047,172.16.1.2,45509,172.16.3.2,5101,7240,8712,0,64256,65728,6,6,4,1460,618,1,1075848160,46,58156,55260,65700,0,7240,0,0,0
i,0x00000000,1716936798.887479,172.16.1.2,45509,172.16.3.2,5101,7240,8712,0,64256,65728,6,6,4,1460,618,1,1075848160,46,58156,58156,65700,0,8688,0,0,0
