enable_time_secs=1716935568	enable_time_usecs=061598	siftrver=1.2.4	hz=100	tcp_rtt_scale=32	sysname=FreeBSD	sysver=1301000	ipmode=4
o,0x00000000,1716935568.061645,10.0.2.15,22,10.0.2.2,56508,1073725440,17298,0,65535,65700,0,0,4,1460,1,0,4,24,33580,44,65700,0,0,0,0,0
o,0x00000000,1716935568.061756,10.0.2.15,22,10.0.2.2,56508,1073725440,17298,0,65535,65700,0,0,4,1460,1,0,4,24,33580,80,65700,0,44,0,0,0
i,0x00000000,1716935568.062399,10.0.2.15,22,10.0.2.2,56508,1073725440,17298,0,65535,65700,0,0,4,1460,1,0,4,24,33580,80,65700,0,80,0,0,0
i,0x00000000,1716935568.062404,10.0.2.15,22,10.0.2.2,56508,1073725440,17342,0,65535,65700,0,0,4,1460,1,0,4,24,33580,36,65700,0,36,0,0,0
o,0x00000000,1716935568.062518,10.0.2.15,22,10.0.2.2,56508,1073725440,17378,0,65535,65700,0,0,4,1460,1,0,4,24,33580,36,65700,0,0,0,0,0
i,0x00000000,1716935568.063006,10.0.2.15,22,10.0.2.2,56508,1073725440,17378,0,65535,65700,0,0,4,1460,1,0,4,24,33580,36,65700,0,36,0,0,0
o,0x00000000,1716935568.063079,10.0.2.15,22,10.0.2.2,56508,1073725440,17414,0,65535,65700,0,0,4,1460,1,0,4,24,33580,36,65700,0,0,0,0,0
i,0x00000000,1716935568.063782,10.0.2.15,22,10.0.2.2,56508,1073725440,17414,0,65535,65700,0,0,4,1460,1,0,4,24,33580,36,65700,0,36,0,0,0
o,0x00000000,1716935568.063895,10.0.2.15,22,10.0.2.2,56508,1073725440,17450,0,65535,65700,0,0,4,1460,1,0,4,24,33580,140,65700,0,0,0,0,0
i,0x00000000,1716935568.065045,10.0.2.15,22,10.0.2.2,56508,1073725440,17450,0,65535,65700,0,0,4,1460,1,0,4,24,33580,140,65700,0,140,0,0,0
i,0x00000000,1716935568.065072,10.0.2.15,22,10.0.2.2,56508,1073725440,17590,0,65535,65700,0,0,4,1460,1,0,4,24,33580,0,65700,0,0,0,0,0
i,0x00000000,1716935568.065074,10.0.2.15,22,10.0.2.2,56508,1073725440,17590,0,65535,65700,0,0,4,1460,1,0,4,24,33580,0,65700,36,0,0,0,0
o,0x00000000,1716935568.065076,10.0.2.15,22,10.0.2.2,56508,1073725440,17590,0,65535,65700,0,0,4,1460,1,0,5,24,33580,0,65700,96,0,0,0,0
i,0x00000000,1716935568.065148,10.0.2.15,22,10.0.2.2,56508,1073725440,17590,0,65535,65700,0,0,4,1460,1,0,4,24,33580,0,65700,96,0,0,0,0
o,0x00000000,1716935568.065151,10.0.2.15,22,10.0.2.2,56508,1073725440,17590,0,65535,65604,0,0,5,1460,1,0,7,24,33580,0,65700,96,0,0,0,0
o,0x00000000,1716935568.065770,10.0.2.15,22,10.0.2.2,56508,1073725440,17590,0,65535,65604,0,0,8,1460,1,0,4,24,33580,0,65700,0,0,0,0,0
i,0x00000000,1716935568.066427,10.0.2.15,22,10.0.2.2,56508,1073725440,17590,0,65535,65604,0,0,8,1460,1,0,20,24,33580,0,65700,0,1,0,0,0
i,0x00000000,1716935570.671922,10.0.2.15,22,10.0.2.2,56513,1073725440,14600,0,65535,65700,0,0,4,1460,1,0,0,27,33580,0,65700,0,0,0,0,0
o,0x00000000,1716935570.677600,10.0.2.15,22,10.0.2.2,56513,1073725440,14600,0,65535,65700,0,0,4,1460,1,0,0,27,33580,38,65700,41,0,0,0,0
i,0x00000000,1716935570.678355,10.0.2.15,22,10.0.2.2,56513,1073725440,14600,0,65535,65700,0,0,4,1460,1,0,0,27,33580,38,65700,0,38,0,0,0
o,0x00000000,1716935570.679121,10.0.2.15,22,10.0.2.2,56513,1073725440,14638,0,65535,65700,0,0,4,1460,1,0,0,24,33580,1056,65700,0,0,0,0,0
i,0x00000000,1716935570.679775,10.0.2.15,22,10.0.2.2,56513,1073725440,14638,0,65535,65700,0,0,4,1460,1,0,0,24,33580,1056,65700,0,1056,0,0,0
i,0x00000000,1716935570.679779,10.0.2.15,22,10.0.2.2,56513,1073725440,14638,0,65535,65700,0,0,4,1460,1,0,0,24,33580,1056,65700,1460,1056,0,0,0
o,0x00000000,1716935570.679782,10.0.2.15,22,10.0.2.2,56513,1073725440,14638,0,65535,65700,0,0,4,1460,1,0,1,24,33580,1056,65700,1536,1056,0,0,0
i,0x00000000,1716935570.679859,10.0.2.15,22,10.0.2.2,56513,1073725440,14638,0,65535,65700,0,0,4,1460,1,0,0,24,33580,1056,65700,1536,1056,0,0,0
i,0x00000000,1716935570.682323,10.0.2.15,22,10.0.2.2,56513,1073725440,15694,0,65535,65700,0,0,4,1460,1,0,0,24,33580,0,65700,0,0,0,0,0
o,0x00000000,1716935570.684891,10.0.2.15,22,10.0.2.2,56513,1073725440,15694,0,65535,65700,0,0,4,1460,1,0,0,24,33580,484,65700,0,0,0,0,0
i,0x00000000,1716935570.685561,10.0.2.15,22,10.0.2.2,56513,1073725440,15694,0,65535,65700,0,0,4,1460,1,0,0,24,33580,484,65700,0,484,0,0,0
i,0x00000000,1716935570.690195,10.0.2.15,22,10.0.2.2,56513,1073725440,16178,0,65535,65700,0,0,4,1460,1,0,0,24,33580,0,65700,0,0,0,0,0
i,0x00000000,1716935570.694139,10.0.2.15,22,10.0.2.2,56513,1073725440,16178,0,65535,65700,0,0,4,1460,1,0,0,24,33580,0,65700,0,0,0,0,0
o,0x00000000,1716935570.694144,10.0.2.15,22,10.0.2.2,56513,1073725440,16178,0,65535,65700,0,0,4,1460,1,0,1,24,33580,0,65700,44,0,0,0,0
o,0x00000000,1716935570.694281,10.0.2.15,22,10.0.2.2,56513,1073725440,16178,0,65535,65700,0,0,4,1460,1,0,0,24,33580,44,65700,0,0,0,0,0
i,0x00000000,1716935570.694935,10.0.2.15,22,10.0.2.2,56513,1073725440,16178,0,65535,65700,0,0,4,1460,1,0,0,24,33580,44,65700,0,44,0,0,0
i,0x00000000,1716935570.695432,10.0.2.15,22,10.0.2.2,56513,1073725440,16222,0,65535,65700,0,0,4,1460,1,0,0,24,33580,0,65700,0,0,0,0,0
o,0x00000000,1716935570.704511,10.0.2.15,22,10.0.2.2,56513,1073725440,16222,0,65535,65700,0,0,4,1460,1,0,0,24,33580,68,65700,0,0,0,0,0
i,0x00000000,1716935570.705182,10.0.2.15,22,10.0.2.2,56513,1073725440,16222,0,65535,65700,0,0,4,1460,1,0,0,24,33580,68,65700,0,68,0,0,0
i,0x00000000,1716935570.707533,10.0.2.15,22,10.0.2.2,56513,1073725440,16290,0,65535,65700,0,0,4,1460,1,0,0,24,33580,0,65700,0,0,0,0,0
o,0x00000000,1716935570.716720,10.0.2.15,22,10.0.2.2,56513,1073725440,16290,0,65535,65700,0,0,4,1460,1,0,0,24,33580,28,65700,0,0,0,0,0
i,0x00000000,1716935570.717425,10.0.2.15,22,10.0.2.2,56513,1073725440,16290,0,65535,65700,0,0,4,1460,1,0,0,24,33580,28,65700,0,28,0,0,0
i,0x00000000,1716935570.718185,10.0.2.15,22,10.0.2.2,56513,1073725440,16318,0,65535,65700,0,0,4,1460,1,0,0,24,33580,0,65700,0,0,0,0,0
o,0x00000000,1716935570.718837,10.0.2.15,22,10.0.2.2,56513,1073725440,16318,0,65535,65700,0,0,4,1460,1,0,0,24,33580,768,65700,112,0,0,0,0
i,0x00000000,1716935570.719634,10.0.2.15,22,10.0.2.2,56513,1073725440,16318,0,65535,65700,0,0,4,1460,1,0,0,24,33580,768,65700,112,768,0,0,0
o,0x00000000,1716935570.719731,10.0.2.15,22,10.0.2.2,56513,1073725440,17086,0,65535,65700,0,0,4,1460,1,0,0,24,33580,44,65700,0,0,0,0,0
i,0x00000000,1716935570.720347,10.0.2.15,22,10.0.2.2,56513,1073725440,17086,0,65535,65700,0,0,4,1460,1,0,0,24,33580,44,65700,0,44,0,0,0
i,0x00000000,1716935570.721183,10.0.2.15,22,10.0.2.2,56513,1073725440,17130,0,65535,65700,0,0,4,1460,1,0,0,24,33580,0,65700,0,0,0,0,0
o,0x00000000,1716935570.721476,10.0.2.15,22,10.0.2.2,56513,1073725440,17130,0,65535,65700,0,0,4,1460,1,0,4,24,33580,72,65700,0,0,0,0,0
i,0x00000000,1716935570.722193,10.0.2.15,22,10.0.2.2,56513,1073725440,17130,0,65535,65700,0,0,4,1460,1,0,4,24,33580,72,65700,0,72,0,0,0
o,0x00000000,1716935570.724864,10.0.2.15,22,10.0.2.2,56513,1073725440,17202,0,65535,65700,0,0,4,1460,1,0,4,24,33580,44,65700,0,0,0,0,0
i,0x00000000,1716935570.725428,10.0.2.15,22,10.0.2.2,56513,1073725440,17202,0,65535,65700,0,0,4,1460,1,0,4,24,33580,44,65700,0,44,0,0,0
o,0x00000000,1716935570.725683,10.0.2.15,22,10.0.2.2,56513,1073725440,17246,0,65535,65700,0,0,4,1460,1,0,4,24,33580,44,65700,0,0,0,0,0
i,0x00000000,1716935570.726630,10.0.2.15,22,10.0.2.2,56513,1073725440,17246,0,65535,65700,0,0,4,1460,1,0,4,24,33580,44,65700,0,44,0,0,0
o,0x00000000,1716935570.728260,10.0.2.15,22,10.0.2.2,56513,1073725440,17290,0,65535,65700,0,0,4,1460,1,0,4,24,33580,176,65700,0,0,0,0,0
i,0x00000000,1716935570.729102,10.0.2.15,22,10.0.2.2,56513,1073725440,17290,0,65535,65700,0,0,4,1460,1,0,4,24,33580,176,65700,0,176,0,0,0
i,0x00000000,1716935570.729403,10.0.2.15,22,10.0.2.2,56513,1073725440,17466,0,65535,65700,0,0,4,1460,1,0,4,24,33580,0,65700,0,0,0,0,0
i,0x00000000,1716935570.729406,10.0.2.15,22,10.0.2.2,56513,1073725440,17466,0,65535,65700,0,0,4,1460,1,0,4,24,33580,0,65700,36,0,0,0,0
o,0x00000000,1716935570.729407,10.0.2.15,22,10.0.2.2,56513,1073725440,17466,0,65535,65700,0,0,4,1460,1,0,5,24,33580,0,65700,96,0,0,0,0
i,0x00000000,1716935570.729483,10.0.2.15,22,10.0.2.2,56513,1073725440,17466,0,65535,65700,0,0,4,1460,1,0,4,24,33580,0,65700,96,0,0,0,0
o,0x00000000,1716935570.729486,10.0.2.15,22,10.0.2.2,56513,1073725440,17466,0,65535,65604,0,0,5,1460,1,0,7,24,33580,0,65700,96,0,0,0,0
o,0x00000000,1716935570.736060,10.0.2.15,22,10.0.2.2,56513,1073725440,17466,0,65535,65604,0,0,8,1460,1,0,4,24,33580,0,65700,0,0,0,0,0
i,0x00000000,1716935570.736738,10.0.2.15,22,10.0.2.2,56513,1073725440,17466,0,65535,65604,0,0,8,1460,1,0,20,24,33580,0,65700,0,1,0,0,0
i,0x00000000,1716935571.808435,10.0.2.15,22,10.0.2.2,56517,1073725440,14600,0,65535,65700,0,0,4,1460,1,0,0,27,33580,0,65700,0,0,0,0,0
o,0x00000000,1716935571.818333,10.0.2.15,22,10.0.2.2,56517,1073725440,14600,0,65535,65700,0,0,4,1460,1,0,0,27,33580,38,65700,41,0,0,0,0
i,0x00000000,1716935571.819009,10.0.2.15,22,10.0.2.2,56517,1073725440,14600,0,65535,65700,0,0,4,1460,1,0,0,27,33580,38,65700,0,38,0,0,0
i,0x00000000,1716935571.819894,10.0.2.15,22,10.0.2.2,56517,1073725440,14638,0,65535,65700,0,0,4,1460,1,0,0,24,33580,0,65700,0,0,0,0,0
i,0x00000000,1716935571.819897,10.0.2.15,22,10.0.2.2,56517,1073725440,14638,0,65535,65700,0,0,4,1460,1,0,0,24,33580,0,65700,1460,0,0,0,0
o,0x00000000,1716935571.819900,10.0.2.15,22,10.0.2.2,56517,1073725440,14638,0,65535,65700,0,0,4,1460,1,0,1,24,33580,0,65700,1536,0,0,0,0
o,0x00000000,1716935571.820419,10.0.2.15,22,10.0.2.2,56517,1073725440,14638,0,65535,65700,0,0,4,1460,1,0,0,24,33580,1056,65700,1536,0,0,0,0
i,0x00000000,1716935571.821162,10.0.2.15,22,10.0.2.2,56517,1073725440,14638,0,65535,65700,0,0,4,1460,1,0,0,24,33580,1056,65700,1536,1056,0,0,0
i,0x00000000,1716935571.822553,10.0.2.15,22,10.0.2.2,56517,1073725440,15694,0,65535,65700,0,0,4,1460,1,0,0,24,33580,0,65700,0,0,0,0,0
o,0x00000000,1716935571.825007,10.0.2.15,22,10.0.2.2,56517,1073725440,15694,0,65535,65700,0,0,4,1460,1,0,0,24,33580,484,65700,0,0,0,0,0
i,0x00000000,1716935571.825670,10.0.2.15,22,10.0.2.2,56517,1073725440,15694,0,65535,65700,0,0,4,1460,1,0,0,24,33580,484,65700,0,484,0,0,0
i,0x00000000,1716935571.830576,10.0.2.15,22,10.0.2.2,56517,1073725440,16178,0,65535,65700,0,0,4,1460,1,0,0,24,33580,0,65700,0,0,0,0,0
i,0x00000000,1716935571.834718,10.0.2.15,22,10.0.2.2,56517,1073725440,16178,0,65535,65700,0,0,4,1460,1,0,0,24,33580,0,65700,0,0,0,0,0
o,0x00000000,1716935571.834723,10.0.2.15,22,10.0.2.2,56517,1073725440,16178,0,65535,65700,0,0,4,1460,1,0,1,24,33580,0,65700,44,0,0,0,0
o,0x00000000,1716935571.834869,10.0.2.15,22,10.0.2.2,56517,1073725440,16178,0,65535,65700,0,0,4,1460,1,0,0,24,33580,44,65700,0,0,0,0,0
i,0x00000000,1716935571.835519,10.0.2.15,22,10.0.2.2,56517,1073725440,16178,0,65535,65700,0,0,4,1460,1,0,0,24,33580,44,65700,0,44,0,0,0
i,0x00000000,1716935571.835878,10.0.2.15,22,10.0.2.2,56517,1073725440,16222,0,65535,65700,0,0,4,1460,1,0,0,24,33580,0,65700,0,0,0,0,0
o,0x00000000,1716935571.845603,10.0.2.15,22,10.0.2.2,56517,1073725440,16222,0,65535,65700,0,0,4,1460,1,0,0,24,33580,68,65700,0,0,0,0,0
i,0x00000000,1716935571.846153,10.0.2.15,22,10.0.2.2,56517,1073725440,16222,0,65535,65700,0,0,4,1460,1,0,0,24,33580,68,65700,0,68,0,0,0
i,0x00000000,1716935571.848526,10.0.2.15,22,10.0.2.2,56517,1073725440,16290,0,65535,65700,0,0,4,1460,1,0,0,24,33580,0,65700,0,0,0,0,0
o,0x00000000,1716935571.857454,10.0.2.15,22,10.0.2.2,56517,1073725440,16290,0,65535,65700,0,0,4,1460,1,0,0,24,33580,28,65700,0,0,0,0,0
i,0x00000000,1716935571.858113,10.0.2.15,22,10.0.2.2,56517,1073725440,16290,0,65535,65700,0,0,4,1460,1,0,0,24,33580,28,65700,0,28,0,0,0
i,0x00000000,1716935571.858541,10.0.2.15,22,10.0.2.2,56517,1073725440,16318,0,65535,65700,0,0,4,1460,1,0,0,24,33580,0,65700,0,0,0,0,0
o,0x00000000,1716935571.859407,10.0.2.15,22,10.0.2.2,56517,1073725440,16318,0,65535,65700,0,0,4,1460,1,0,0,24,33580,768,65700,112,0,0,0,0
i,0x00000000,1716935571.860130,10.0.2.15,22,10.0.2.2,56517,1073725440,16318,0,65535,65700,0,0,4,1460,1,0,0,24,33580,768,65700,112,768,0,0,0
o,0x00000000,1716935571.860227,10.0.2.15,22,10.0.2.2,56517,1073725440,17086,0,65535,65700,0,0,4,1460,1,0,0,24,33580,44,65700,0,0,0,0,0
i,0x00000000,1716935571.860691,10.0.2.15,22,10.0.2.2,56517,1073725440,17086,0,65535,65700,0,0,4,1460,1,0,0,24,33580,44,65700,0,44,0,0,0
i,0x00000000,1716935571.861241,10.0.2.15,22,10.0.2.2,56517,1073725440,17130,0,65535,65700,0,0,4,1460,1,0,0,24,33580,0,65700,0,0,0,0,0
o,0x00000000,1716935571.861632,10.0.2.15,22,10.0.2.2,56517,1073725440,17130,0,65535,65700,0,0,4,1460,1,0,4,24,33580,72,65700,0,0,0,0,0
i,0x00000000,1716935571.862480,10.0.2.15,22,10.0.2.2,56517,1073725440,17130,0,65535,65700,0,0,4,1460,1,0,4,24,33580,72,65700,0,72,0,0,0
i,0x00000000,1716935571.862989,10.0.2.15,22,10.0.2.2,56517,1073725440,17202,0,65535,65700,0,0,4,1460,1,0,4,24,33580,0,65700,0,0,0,0,0
o,0x00000000,1716935571.868206,172.16.1.2,62417,172.16.3.2,5101,1073725440,1073725440,0,0,0,0,0,2,536,0,1,672,100,32768,0,65536,0,0,0,0,0
o,0x00000000,1716935571.897133,10.0.2.15,22,10.0.2.2,56517,1073725440,17202,0,65535,65700,0,0,4,1460,1,0,5,24,33580,0,65700,0,0,0,0,0
i,0x00000000,1716935571.981906,172.16.1.2,62417,172.16.3.2,5101,1073725440,1073725440,0,0,0,0,0,2,536,0,1,672,100,32768,0,65536,0,1,0,0,0
o,0x00000000,1716935571.981920,172.16.1.2,62417,172.16.3.2,5101,15169,14480,0,65535,65700,6,6,4,1460,1157,1,993,186,33580,0,65700,0,0,0,0,0
o,0x00000000,1716935571.982280,172.16.1.2,62417,172.16.3.2,5101,15169,14480,0,65535,65700,6,6,4,1460,1157,1,996,186,33580,37,65700,0,0,0,0,0
i,0x00000000,1716935572.102246,172.16.1.2,62417,172.16.3.2,5101,15169,14480,0,65535,65700,6,6,4,1460,1157,1,996,186,33580,37,65700,0,37,0,0,0
o,0x00000000,1716935572.102420,172.16.1.2,62417,172.16.3.2,5101,15169,14517,0,65728,65728,6,6,4,1460,1061,1,996,175,33580,4,65700,0,0,0,0,0
o,0x00000000,1716935572.102779,172.16.1.2,62417,172.16.3.2,5101,15169,14517,0,65728,65728,6,6,4,1460,1061,1,996,175,33580,128,65700,0,4,0,0,0
i,0x00000000,1716935572.222326,172.16.1.2,62417,172.16.3.2,5101,15169,14517,0,65728,65728,6,6,4,1460,1061,1,996,175,33580,128,65700,0,128,0,0,0
i,0x00000000,1716935572.222339,172.16.1.2,62417,172.16.3.2,5101,15169,14645,0,65600,65728,6,6,4,1460,973,1,996,164,33580,0,65700,0,0,0,0,0
o,0x00000000,1716935572.222514,172.16.1.2,55823,172.16.3.2,5101,1073725440,1073725440,0,0,0,0,0,2,536,0,1,672,100,32768,0,65536,0,0,0,0,0
o,0x00000000,1716935572.257589,172.16.1.2,62417,172.16.3.2,5101,15169,14645,0,65728,65728,6,6,4,1460,973,1,997,164,33580,0,65700,0,0,0,0,0
i,0x00000000,1716935572.342102,172.16.1.2,55823,172.16.3.2,5101,1073725440,1073725440,0,0,0,0,0,2,536,0,1,672,100,32768,0,65536,0,1,0,0,0
o,0x00000000,1716935572.342114,172.16.1.2,55823,172.16.3.2,5101,15169,14480,0,65535,65700,6,6,4,1460,1161,1,993,186,33580,0,65700,0,0,0,0,0
o,0x00000000,1716935572.342255,172.16.1.2,55823,172.16.3.2,5101,15169,14480,0,65535,65700,6,6,4,1460,1161,1,992,186,33580,37,65700,0,0,0,0,0
i,0x00000000,1716935572.463261,172.16.1.2,62417,172.16.3.2,5101,15169,14645,0,65728,65728,6,6,4,1460,973,1,996,164,33580,0,65700,0,0,0,0,0
i,0x00000000,1716935572.463273,172.16.1.2,62417,172.16.3.2,5101,15169,14645,0,65728,65728,6,6,4,1460,973,1,996,164,33580,0,65700,1,0,0,0,0
o,0x00000000,1716935572.463281,172.16.1.2,62417,172.16.3.2,5101,15169,14645,0,65728,65728,6,6,4,1460,973,1,997,164,33580,0,65700,2,0,0,0,0
o,0x00000000,1716935572.463622,172.16.1.2,55823,172.16.3.2,5101,15169,14480,0,65535,65700,6,6,4,1460,1161,1,992,186,33580,33580,65700,0,37,0,0,0
o,0x00000000,1716935572.463964,172.16.1.2,55823,172.16.3.2,5101,15169,14480,0,65535,65700,6,6,4,1460,1161,1,992,186,33580,33580,65700,0,1485,0,0,0
o,0x00000000,1716935572.464303,172.16.1.2,55823,172.16.3.2,5101,15169,14480,0,65535,65700,6,6,4,1460,1161,1,992,186,33580,33580,65700,0,2933,0,0,0
o,0x00000000,1716935572.464620,172.16.1.2,55823,172.16.3.2,5101,15169,14480,0,65535,65700,6,6,4,1460,1161,1,992,186,33580,33580,65700,0,4381,0,0,0
o,0x00000000,1716935572.464938,172.16.1.2,55823,172.16.3.2,5101,15169,14480,0,65535,65700,6,6,4,1460,1161,1,992,186,33580,33580,65700,0,5829,0,0,0
o,0x00000000,1716935572.465266,172.16.1.2,55823,172.16.3.2,5101,15169,14480,0,65535,65700,6,6,4,1460,1161,1,992,186,33580,33580,65700,0,7277,0,0,0
o,0x00000000,1716935572.465582,172.16.1.2,55823,172.16.3.2,5101,15169,14480,0,65535,65700,6,6,4,1460,1161,1,992,186,33580,33580,65700,0,8725,0,0,0
o,0x00000000,1716935572.465899,172.16.1.2,55823,172.16.3.2,5101,15169,14480,0,65535,65700,6,6,4,1460,1161,1,992,186,33580,33580,65700,0,10173,0,0,0
o,0x00000000,1716935572.466435,172.16.1.2,55823,172.16.3.2,5101,15169,14480,0,65535,65700,6,6,4,1460,1161,1,992,186,33580,33580,65700,0,11621,0,0,0
i,0x00000000,1716935572.492042,172.16.1.2,55823,172.16.3.2,5101,15169,14480,0,65535,65700,6,6,4,1460,1161,1,992,186,33580,33580,65700,0,13069,0,0,0
o,0x00000000,1716935572.492053,172.16.1.2,55823,172.16.3.2,5101,15169,14517,0,65728,65728,6,6,4,1460,1076,1,992,172,33580,33543,65700,0,13032,0,0,0
i,0x00000000,1716935572.702559,172.16.1.2,55823,172.16.3.2,5101,15169,14517,0,65728,65728,6,6,4,1460,1076,1,992,172,33580,33543,65700,0,14480,0,0,0
o,0x00000000,1716935572.702585,172.16.1.2,55823,172.16.3.2,5101,15169,17413,0,64256,65728,6,6,4,1460,1034,1,992,152,33580,30647,65700,0,11584,0,0,0
o,0x00000000,1716935572.702887,172.16.1.2,55823,172.16.3.2,5101,15169,17413,0,64256,65728,6,6,4,1460,1034,1,992,152,33580,30647,65700,0,13032,0,0,0
o,0x00000000,1716935572.703120,172.16.1.2,55823,172.16.3.2,5101,15169,17413,0,64256,65728,6,6,4,1460,1034,1,992,152,41772,30647,65700,0,14480,0,0,0
o,0x00000000,1716935572.703346,172.16.1.2,55823,172.16.3.2,5101,15169,17413,0,64256,65728,6,6,4,1460,1034,1,992,152,41772,30647,65700,0,15928,0,0,0
i,0x00000000,1716935572.722327,172.16.1.2,55823,172.16.3.2,5101,15169,17413,0,64256,65728,6,6,4,1460,1034,1,992,152,41772,41772,65700,0,17376,0,0,0
o,0x00000000,1716935572.722341,172.16.1.2,55823,172.16.3.2,5101,15169,17413,0,64256,65728,6,6,4,1460,1005,1,992,133,41772,38876,65700,0,14480,0,0,0
o,0x00000000,1716935572.722595,172.16.1.2,55823,172.16.3.2,5101,15169,17413,0,64256,65728,6,6,4,1460,1005,1,992,133,41772,38876,65700,0,15928,0,0,0
i,0x00000000,1716935572.752029,172.16.1.2,55823,172.16.3.2,5101,15169,17413,0,64256,65728,6,6,4,1460,1005,1,992,133,41772,41772,65700,0,17376,0,0,0
o,0x00000000,1716935572.752041,172.16.1.2,55823,172.16.3.2,5101,15169,17413,0,64256,65728,6,6,4,1460,992,1,992,116,41772,38876,65700,0,14480,0,0,0
o,0x00000000,1716935572.752283,172.16.1.2,55823,172.16.3.2,5101,15169,17413,0,64256,65728,6,6,4,1460,992,1,992,116,41772,38876,65700,0,15928,0,0,0
i,0x00000000,1716935572.771756,172.16.1.2,55823,172.16.3.2,5101,15169,17413,0,64256,65728,6,6,4,1460,992,1,992,116,41772,41772,65700,0,17376,0,0,0
o,0x00000000,1716935572.771764,172.16.1.2,55823,172.16.3.2,5101,15169,17413,0,64256,65728,6,6,4,1460,988,1,992,100,41772,38876,65700,0,14480,0,0,0
o,0x00000000,1716935572.772002,172.16.1.2,55823,172.16.3.2,5101,15169,17413,0,64256,65728,6,6,4,1460,988,1,992,100,41772,38876,65700,0,15928,0,0,0
i,0x00000000,1716935572.801762,172.16.1.2,55823,172.16.3.2,5101,15169,17413,0,64256,65728,6,6,4,1460,988,1,992,100,41772,41772,65700,0,17376,0,0,0
o,0x00000000,1716935572.801770,172.16.1.2,55823,172.16.3.2,5101,15169,17413,0,64256,65728,6,6,4,1460,997,1,992,90,41772,38876,65700,0,14480,0,0,0
o,0x00000000,1716935572.802006,172.16.1.2,55823,172.16.3.2,5101,15169,17413,0,64256,65728,6,6,4,1460,997,1,992,90,41772,38876,65700,0,15928,0,0,0
i,0x00000000,1716935572.891791,172.16.1.2,55823,172.16.3.2,5101,15169,17413,0,64256,65728,6,6,4,1460,997,1,992,90,41772,41772,65700,0,17376,0,0,0
o,0x00000000,1716935572.891804,172.16.1.2,55823,172.16.3.2,5101,15169,17413,0,64256,65728,6,6,4,1460,949,1,992,91,41772,38876,65700,0,14480,0,0,0
o,0x00000000,1716935572.892048,172.16.1.2,55823,172.16.3.2,5101,15169,17413,0,64256,65728,6,6,4,1460,949,1,992,91,41772,38876,65700,0,15928,0,0,0
i,0x00000000,1716935572.952905,172.16.1.2,55823,172.16.3.2,5101,15169,17413,0,64256,65728,6,6,4,1460,949,1,992,91,41772,41772,65700,0,17376,0,0,0
o,0x00000000,1716935572.952914,172.16.1.2,55823,172.16.3.2,5101,15169,17413,0,65728,65728,6,6,4,1460,931,1,992,85,41772,40324,65700,0,15928,0,0,0
i,0x00000000,1716935572.971933,172.16.1.2,55823,172.16.3.2,5101,15169,17413,0,65728,65728,6,6,4,1460,931,1,992,85,41772,40324,65700,0,17376,0,0,0
o,0x00000000,1716935572.971940,172.16.1.2,55823,172.16.3.2,5101,15169,18873,0,64256,65728,6,6,4,1460,923,1,992,77,41772,37428,65700,0,14480,0,0,0
o,0x00000000,1716935572.972223,172.16.1.2,55823,172.16.3.2,5101,15169,18873,0,64256,65728,6,6,4,1460,923,1,992,77,41772,37428,65700,0,15928,0,0,0
o,0x00000000,1716935572.972451,172.16.1.2,55823,172.16.3.2,5101,15169,18873,0,64256,65728,6,6,4,1460,923,1,992,77,41772,37428,65700,0,17376,0,0,0
i,0x00000000,1716935573.022454,172.16.1.2,55823,172.16.3.2,5101,15169,18873,0,64256,65728,6,6,4,1460,923,1,992,77,49964,49964,65700,0,18824,0,0,0
o,0x00000000,1716935573.022468,172.16.1.2,55823,172.16.3.2,5101,15169,18873,0,65728,65728,6,6,4,1460,928,1,992,72,49964,48516,65700,0,17376,0,0,0
i,0x00000000,1716935573.033105,172.16.1.2,55823,172.16.3.2,5101,15169,18873,0,65728,65728,6,6,4,1460,928,1,992,72,49964,48516,65700,0,18824,0,0,0
o,0x00000000,1716935573.033125,172.16.1.2,55823,172.16.3.2,5101,15169,18873,0,64256,65728,6,6,4,1460,924,1,992,67,49964,45620,65700,0,15928,0,0,0
o,0x00000000,1716935573.033395,172.16.1.2,55823,172.16.3.2,5101,15169,18873,0,64256,65728,6,6,4,1460,924,1,992,67,49964,45620,65700,0,17376,0,0,0
i,0x00000000,1716935573.061741,172.16.1.2,55823,172.16.3.2,5101,15169,18873,0,64256,65728,6,6,4,1460,924,1,992,67,49964,49964,65700,0,18824,0,0,0
o,0x00000000,1716935573.061747,172.16.1.2,55823,172.16.3.2,5101,15169,18873,0,64256,65728,6,6,4,1460,925,1,992,62,49964,47068,65700,0,15928,0,0,0
o,0x00000000,1716935573.061995,172.16.1.2,55823,172.16.3.2,5101,15169,18873,0,64256,65728,6,6,4,1460,925,1,992,62,49964,47068,65700,0,17376,0,0,0
i,0x00000000,1716935573.111765,172.16.1.2,55823,172.16.3.2,5101,15169,18873,0,64256,65728,6,6,4,1460,925,1,992,62,49964,49964,65700,0,18824,0,0,0
o,0x00000000,1716935573.111770,172.16.1.2,55823,172.16.3.2,5101,15169,18873,0,64256,65728,6,6,4,1460,934,1,992,61,49964,47068,65700,0,15928,0,0,0
o,0x00000000,1716935573.112015,172.16.1.2,55823,172.16.3.2,5101,15169,18873,0,64256,65728,6,6,4,1460,934,1,992,61,49964,47068,65700,0,17376,0,0,0
i,0x00000000,1716935573.192405,172.16.1.2,55823,172.16.3.2,5101,15169,18873,0,64256,65728,6,6,4,1460,934,1,992,61,49964,49964,65700,0,18824,0,0,0
o,0x00000000,1716935573.192413,172.16.1.2,55823,172.16.3.2,5101,15169,18873,0,64256,65728,6,6,4,1460,938,1,992,60,49964,47068,65700,0,15928,0,0,0
o,0x00000000,1716935573.192654,172.16.1.2,55823,172.16.3.2,5101,15169,18873,0,64256,65728,6,6,4,1460,938,1,992,60,49964,47068,65700,0,17376,0,0,0
i,0x00000000,1716935573.273322,172.16.1.2,55823,172.16.3.2,5101,15169,18873,0,64256,65728,6,6,4,1460,938,1,992,60,49964,49964,65700,0,18824,0,0,0
o,0x00000000,1716935573.273340,172.16.1.2,55823,172.16.3.2,5101,15169,18873,0,65728,65728,6,6,4,1460,945,1,992,59,49964,48516,65700,0,17376,0,0,0
i,0x00000000,1716935573.281880,172.16.1.2,55823,172.16.3.2,5101,15169,18873,0,65728,65728,6,6,4,1460,945,1,992,59,49964,48516,65700,0,18824,0,0,0
o,0x00000000,1716935573.281887,172.16.1.2,55823,172.16.3.2,5101,15169,18873,0,64256,65728,6,6,4,1460,951,1,992,58,49964,45620,65700,0,15928,0,0,0
o,0x00000000,1716935573.282147,172.16.1.2,55823,172.16.3.2,5101,15169,18873,0,64256,65728,6,6,4,1460,951,1,992,58,49964,45620,65700,0,17376,0,0,0
i,0x00000000,1716935573.332450,172.16.1.2,55823,172.16.3.2,5101,15169,18873,0,64256,65728,6,6,4,1460,951,1,992,58,49964,49964,65700,0,18824,0,0,0
o,0x00000000,1716935573.332458,172.16.1.2,55823,172.16.3.2,5101,15169,20333,0,64256,65728,6,6,4,1460,977,1,992,63,49964,47068,65700,0,15928,0,0,0
o,0x00000000,1716935573.332698,172.16.1.2,55823,172.16.3.2,5101,15169,20333,0,64256,65728,6,6,4,1460,977,1,992,63,49964,47068,65700,0,17376,0,0,0
o,0x00000000,1716935573.332934,172.16.1.2,55823,172.16.3.2,5101,15169,20333,0,64256,65728,6,6,4,1460,977,1,992,63,49964,47068,65700,0,18824,0,0,0
i,0x00000000,1716935573.352233,172.16.1.2,55823,172.16.3.2,5101,15169,20333,0,64256,65728,6,6,4,1460,977,1,992,63,49964,49964,65700,0,20272,0,0,0
o,0x00000000,1716935573.352238,172.16.1.2,55823,172.16.3.2,5101,15169,20333,0,64256,65728,6,6,4,1460,983,1,992,62,49964,47068,65700,0,17376,0,0,0
o,0x00000000,1716935573.352495,172.16.1.2,55823,172.16.3.2,5101,15169,20333,0,64256,65728,6,6,4,1460,983,1,992,62,49964,47068,65700,0,18824,0,0,0
i,0x00000000,1716935573.382118,172.16.1.2,55823,172.16.3.2,5101,15169,20333,0,64256,65728,6,6,4,1460,983,1,992,62,49964,49964,65700,0,20272,0,0,0
o,0x00000000,1716935573.382124,172.16.1.2,55823,172.16.3.2,5101,15169,20333,0,64256,65728,6,6,4,1460,989,1,992,61,49964,47068,65700,0,17376,0,0,0
o,0x00000000,1716935573.382363,172.16.1.2,55823,172.16.3.2,5101,15169,20333,0,64256,65728,6,6,4,1460,989,1,992,61,49964,47068,65700,0,18824,0,0,0
i,0x00000000,1716935573.431825,172.16.1.2,55823,172.16.3.2,5101,15169,20333,0,64256,65728,6,6,4,1460,989,1,992,61,49964,49964,65700,0,20272,0,0,0
o,0x00000000,1716935573.431841,172.16.1.2,55823,172.16.3.2,5101,15169,20333,0,64256,65728,6,6,4,1460,994,1,992,60,49964,47068,65700,0,17376,0,0,0
o,0x00000000,1716935573.432102,172.16.1.2,55823,172.16.3.2,5101,15169,20333,0,64256,65728,6,6,4,1460,994,1,992,60,49964,47068,65700,0,18824,0,0,0
i,0x00000000,1716935573.502238,172.16.1.2,55823,172.16.3.2,5101,15169,20333,0,64256,65728,6,6,4,1460,994,1,992,60,49964,49964,65700,0,20272,0,0,0
o,0x00000000,1716935573.502254,172.16.1.2,55823,172.16.3.2,5101,15169,20333,0,65728,65728,6,6,4,1460,994,1,992,57,49964,48516,65700,0,18824,0,0,0
i,0x00000000,1716935573.552021,172.16.1.2,55823,172.16.3.2,5101,15169,20333,0,65728,65728,6,6,4,1460,994,1,992,57,49964,48516,65700,0,20272,0,0,0
o,0x00000000,1716935573.552041,172.16.1.2,55823,172.16.3.2,5101,15169,20333,0,65728,65728,6,6,4,1460,1014,1,992,61,49964,47068,65700,0,18824,0,0,0
i,0x00000000,1716935573.601940,172.16.1.2,55823,172.16.3.2,5101,15169,20333,0,65728,65728,6,6,4,1460,1014,1,992,61,49964,49964,65700,0,20272,0,0,0
o,0x00000000,1716935573.601950,172.16.1.2,55823,172.16.3.2,5101,15169,20333,0,65728,65728,6,6,4,1460,1016,1,992,60,49964,48516,65700,0,18824,0,0,0
i,0x00000000,1716935573.611548,172.16.1.2,55823,172.16.3.2,5101,15169,20333,0,65728,65728,6,6,4,1460,1016,1,992,60,49964,48516,65700,0,20272,0,0,0
o,0x00000000,1716935573.611557,172.16.1.2,55823,172.16.3.2,5101,15169,20333,0,64256,65728,6,6,4,1460,1021,1,992,59,49964,45620,65700,0,17376,0,0,0
o,0x00000000,1716935573.611834,172.16.1.2,55823,172.16.3.2,5101,15169,20333,0,64256,65728,6,6,4,1460,1021,1,992,59,49964,45620,65700,0,18824,0,0,0
i,0x00000000,1716935573.652466,172.16.1.2,55823,172.16.3.2,5101,15169,20333,0,64256,65728,6,6,4,1460,1021,1,992,59,49964,49964,65700,0,20272,0,0,0
o,0x00000000,1716935573.652479,172.16.1.2,55823,172.16.3.2,5101,15169,20333,0,65728,65728,6,6,4,1460,1022,1,992,57,49964,48516,65700,0,18824,0,0,0
i,0x00000000,1716935573.681594,172.16.1.2,55823,172.16.3.2,5101,15169,20333,0,65728,65728,6,6,4,1460,1022,1,992,57,49964,48516,65700,0,20272,0,0,0
o,0x00000000,1716935573.681600,172.16.1.2,55823,172.16.3.2,5101,15169,21793,0,64256,65728,6,6,4,1460,1035,1,992,60,49964,45620,65700,0,17376,0,0,0
o,0x00000000,1716935573.681836,172.16.1.2,55823,172.16.3.2,5101,15169,21793,0,64256,65728,6,6,4,1460,1035,1,992,60,49964,45620,65700,0,18824,0,0,0
o,0x00000000,1716935573.682068,172.16.1.2,55823,172.16.3.2,5101,15169,21793,0,64256,65728,6,6,4,1460,1035,1,992,60,49964,45620,65700,0,20272,0,0,0
i,0x00000000,1716935573.702204,172.16.1.2,55823,172.16.3.2,5101,15169,21793,0,64256,65728,6,6,4,1460,1035,1,992,60,49964,49964,65700,0,21720,0,0,0
o,0x00000000,1716935573.702209,172.16.1.2,55823,172.16.3.2,5101,15169,21793,0,64256,65728,6,6,4,1460,1046,1,992,61,49964,47068,65700,0,18824,0,0,0
o,0x00000000,1716935573.702442,172.16.1.2,55823,172.16.3.2,5101,15169,21793,0,64256,65728,6,6,4,1460,1046,1,992,61,49964,47068,65700,0,20272,0,0,0
i,0x00000000,1716935573.731301,172.16.1.2,55823,172.16.3.2,5101,15169,21793,0,64256,65728,6,6,4,1460,1046,1,992,61,49964,49964,65700,0,21720,0,0,0
o,0x00000000,1716935573.731312,172.16.1.2,55823,172.16.3.2,5101,15169,21793,0,64256,65728,6,6,4,1460,1056,1,992,62,49964,47068,65700,0,18824,0,0,0
o,0x00000000,1716935573.731566,172.16.1.2,55823,172.16.3.2,5101,15169,21793,0,64256,65728,6,6,4,1460,1056,1,992,62,49964,47068,65700,0,20272,0,0,0
i,0x00000000,1716935573.783014,172.16.1.2,55823,172.16.3.2,5101,15169,21793,0,64256,65728,6,6,4,1460,1056,1,992,62,49964,49964,65700,0,21720,0,0,0
o,0x00000000,1716935573.783032,172.16.1.2,55823,172.16.3.2,5101,15169,21793,0,64256,65728,6,6,4,1460,1064,1,992,62,49964,47068,65700,0,18824,0,0,0
o,0x00000000,1716935573.783303,172.16.1.2,55823,172.16.3.2,5101,15169,21793,0,64256,65728,6,6,4,1460,1064,1,992,62,49964,47068,65700,0,20272,0,0,0
i,0x00000000,1716935573.841813,172.16.1.2,55823,172.16.3.2,5101,15169,21793,0,64256,65728,6,6,4,1460,1064,1,992,62,49964,49964,65700,0,21720,0,0,0
o,0x00000000,1716935573.841831,172.16.1.2,55823,172.16.3.2,5101,15169,21793,0,64256,65728,6,6,4,1460,1067,1,992,60,49964,47068,65700,0,18824,0,0,0
o,0x00000000,1716935573.842080,172.16.1.2,55823,172.16.3.2,5101,15169,21793,0,64256,65728,6,6,4,1460,1067,1,992,60,49964,47068,65700,0,20272,0,0,0
i,0x00000000,1716935573.932213,172.16.1.2,55823,172.16.3.2,5101,15169,21793,0,64256,65728,6,6,4,1460,1067,1,992,60,49964,49964,65700,0,21720,0,0,0
o,0x00000000,1716935573.932225,172.16.1.2,55823,172.16.3.2,5101,15169,21793,0,64256,65728,6,6,4,1460,1066,1,992,59,49964,47068,65700,0,18824,0,0,0
o,0x00000000,1716935573.932692,172.16.1.2,55823,172.16.3.2,5101,15169,21793,0,64256,65728,6,6,4,1460,1066,1,992,59,49964,47068,65700,0,20272,0,0,0
i,0x00000000,1716935573.982924,172.16.1.2,55823,172.16.3.2,5101,15169,21793,0,64256,65728,6,6,4,1460,1066,1,992,59,49964,49964,65700,0,21720,0,0,0
o,0x00000000,1716935573.982937,172.16.1.2,55823,172.16.3.2,5101,15169,21793,0,64256,65728,6,6,4,1460,1077,1,992,60,49964,47068,65700,0,18824,0,0,0
o,0x00000000,1716935573.983243,172.16.1.2,55823,172.16.3.2,5101,15169,21793,0,64256,65728,6,6,4,1460,1077,1,992,60,49964,47068,65700,0,20272,0,0,0
i,0x00000000,1716935574.022157,172.16.1.2,55823,172.16.3.2,5101,15169,21793,0,64256,65728,6,6,4,1460,1077,1,992,60,49964,49964,65700,0,21720,0,0,0
o,0x00000000,1716935574.022168,172.16.1.2,55823,172.16.3.2,5101,15169,23253,0,64256,65728,6,6,4,1460,1079,1,992,59,49964,47068,65700,0,18824,0,0,0
o,0x00000000,1716935574.022412,172.16.1.2,55823,172.16.3.2,5101,15169,23253,0,64256,65728,6,6,4,1460,1079,1,992,59,49964,47068,65700,0,20272,0,0,0
o,0x00000000,1716935574.022643,172.16.1.2,55823,172.16.3.2,5101,15169,23253,0,64256,65728,6,6,4,1460,1079,1,992,59,49964,47068,65700,0,21720,0,0,0
i,0x00000000,1716935574.061737,172.16.1.2,55823,172.16.3.2,5101,15169,23253,0,64256,65728,6,6,4,1460,1079,1,992,59,49964,48536,65700,0,23168,0,0,0
o,0x00000000,1716935574.061755,172.16.1.2,55823,172.16.3.2,5101,15169,23253,0,64256,65728,6,6,4,1460,1097,1,992,63,49964,45640,65700,0,20272,0,0,0
o,0x00000000,1716935574.062000,172.16.1.2,55823,172.16.3.2,5101,15169,23253,0,64256,65728,6,6,4,1460,1097,1,992,63,49964,45640,65700,0,21720,0,0,0
i,0x00000000,1716935574.092694,172.16.1.2,55823,172.16.3.2,5101,15169,23253,0,64256,65728,6,6,4,1460,1097,1,992,63,58156,58156,65700,0,23168,0,0,0
o,0x00000000,1716935574.092701,172.16.1.2,55823,172.16.3.2,5101,15169,23253,0,65728,65728,6,6,4,1460,1116,1,992,66,58156,56708,65700,0,21720,0,0,0
i,0x00000000,1716935574.121851,172.16.1.2,55823,172.16.3.2,5101,15169,23253,0,65728,65728,6,6,4,1460,1116,1,992,66,58156,56708,65700,0,23168,0,0,0
o,0x00000000,1716935574.121858,172.16.1.2,55823,172.16.3.2,5101,15169,23253,0,64256,65728,6,6,4,1460,1133,1,992,68,58156,53812,65700,0,20272,0,0,0
o,0x00000000,1716935574.122160,172.16.1.2,55823,172.16.3.2,5101,15169,23253,0,64256,65728,6,6,4,1460,1133,1,992,68,58156,53812,65700,0,21720,0,0,0
i,0x00000000,1716935574.151685,172.16.1.2,55823,172.16.3.2,5101,15169,23253,0,64256,65728,6,6,4,1460,1133,1,992,68,58156,58156,65700,0,23168,0,0,0
o,0x00000000,1716935574.151691,172.16.1.2,55823,172.16.3.2,5101,15169,23253,0,65728,65728,6,6,4,1460,1140,1,992,67,58156,56708,65700,0,21720,0,0,0
i,0x00000000,1716935574.192313,172.16.1.2,55823,172.16.3.2,5101,15169,23253,0,65728,65728,6,6,4,1460,1140,1,992,67,58156,56708,65700,0,23168,0,0,0
o,0x00000000,1716935574.192318,172.16.1.2,55823,172.16.3.2,5101,15169,24616,0,65728,65728,6,6,4,1460,1140,1,992,67,58156,56708,65700,0,23168,0,0,0
i,0x00000000,1716935574.202476,172.16.1.2,55823,172.16.3.2,5101,15169,23253,0,65728,65728,6,6,4,1460,1140,1,992,67,58156,56708,65700,0,24616,0,0,0
o,0x00000000,1716935574.202481,172.16.1.2,55823,172.16.3.2,5101,15169,26064,0,65728,65728,6,6,4,1460,1140,1,992,67,58156,56708,65700,0,24616,0,0,0
i,0x00000000,1716935574.261762,172.16.1.2,55823,172.16.3.2,5101,15169,23253,0,65728,65728,6,6,4,1460,1140,1,992,67,58156,56708,65700,0,26064,0,0,0
o,0x00000000,1716935574.261774,172.16.1.2,55823,172.16.3.2,5101,11584,1448,0,65728,65728,6,6,4,1460,1140,1,537920480,67,58156,56708,65700,0,26064,0,0,0
i,0x00000000,1716935574.281499,172.16.1.2,55823,172.16.3.2,5101,11584,1448,0,65728,65728,6,6,4,1460,1140,1,537920480,67,58156,56708,65700,0,26064,0,0,0
i,0x00000000,1716935574.302397,172.16.1.2,55823,172.16.3.2,5101,11584,1448,0,65728,65728,6,6,4,1460,1140,1,537920480,67,58156,56708,65700,0,26064,0,0,0
o,0x00000000,1716935574.302404,172.16.1.2,55823,172.16.3.2,5101,11584,2896,0,65728,65728,6,6,4,1460,1140,1,537920480,67,58156,56708,65700,0,26064,0,0,0
i,0x00000000,1716935574.332252,172.16.1.2,55823,172.16.3.2,5101,11584,2896,0,65728,65728,6,6,4,1460,1140,1,537920480,67,58156,56708,65700,0,26064,0,0,0
i,0x00000000,1716935574.371636,172.16.1.2,55823,172.16.3.2,5101,11584,2896,0,65728,65728,6,6,4,1460,1140,1,537920480,67,58156,56708,65700,0,26064,0,0,0
o,0x00000000,1716935574.371646,172.16.1.2,55823,172.16.3.2,5101,11584,4344,0,65728,65728,6,6,4,1460,1140,1,537920480,67,58156,56708,65700,0,26064,0,0,0
i,0x00000000,1716935574.371900,172.16.1.2,55823,172.16.3.2,5101,11584,4344,0,65728,65728,6,6,4,1460,1140,1,537920480,67,58156,56708,65700,0,27512,0,0,0
i,0x00000000,1716935574.421704,172.16.1.2,55823,172.16.3.2,5101,11584,4344,0,65728,65728,6,6,4,1460,1140,1,537920480,67,58156,56708,65700,0,27512,0,0,0
o,0x00000000,1716935574.421715,172.16.1.2,55823,172.16.3.2,5101,11584,5792,0,65728,65728,6,6,4,1460,1140,1,537920480,67,58156,56708,65700,0,27512,0,0,0
o,0x00000000,1716935574.421817,172.16.1.2,55823,172.16.3.2,5101,11584,5792,0,65728,65728,6,6,4,1460,1140,1,537920480,67,58156,56708,65700,0,27512,0,0,0
i,0x00000000,1716935574.421914,172.16.1.2,55823,172.16.3.2,5101,11584,5792,0,65728,65728,6,6,4,1460,1140,1,537920480,67,58156,56708,65700,0,27512,0,0,0
i,0x00000000,1716935574.442314,172.16.1.2,55823,172.16.3.2,5101,11584,7240,0,65728,65728,6,6,4,1460,1140,1,537920480,67,58156,56708,65700,0,27512,0,0,0
o,0x00000000,1716935574.442327,172.16.1.2,55823,172.16.3.2,5101,11584,8688,0,65728,65728,6,6,4,1460,1140,1,537920480,67,58156,56708,65700,0,27512,0,0,0
i,0x00000000,1716935574.471980,172.16.1.2,55823,172.16.3.2,5101,11584,8688,0,65728,65728,6,6,4,1460,1140,1,537920480,67,58156,56708,65700,0,27512,0,0,0
o,0x00000000,1716935574.471989,172.16.1.2,55823,172.16.3.2,5101,11584,10136,0,65728,65728,6,6,4,1460,1140,1,537920480,67,58156,56708,65700,0,27512,0,0,0
i,0x00000000,1716935574.482267,172.16.1.2,55823,172.16.3.2,5101,11584,10136,0,65728,65728,6,6,4,1460,1140,1,537920480,67,58156,56708,65700,0,28960,0,0,0
o,0x00000000,1716935574.482274,172.16.1.2,55823,172.16.3.2,5101,11584,11584,0,65728,65728,6,6,4,1460,1140,1,537920480,67,58156,56708,65700,0,28960,0,0,0
i,0x00000000,1716935574.512602,172.16.1.2,55823,172.16.3.2,5101,11584,11584,0,65728,65728,6,6,4,1460,1140,1,537920480,67,58156,56708,65700,0,30408,0,0,0
o,0x00000000,1716935574.512611,172.16.1.2,55823,172.16.3.2,5101,11584,11584,0,65728,65728,6,6,4,1460,1140,1,537920481,67,58156,56708,65700,0,30408,0,0,0
i,0x00000000,1716935574.532888,172.16.1.2,55823,172.16.3.2,5101,11584,11584,0,58496,65728,6,6,4,1460,1098,1,537920480,73,58156,58156,65700,0,24616,0,0,0
o,0x00000000,1716935574.532895,172.16.1.2,55823,172.16.3.2,5101,11584,11584,0,58496,65728,6,6,4,1460,1098,1,537920481,73,58156,58156,65700,0,24616,0,0,0
i,0x00000000,1716935574.561478,172.16.1.2,55823,172.16.3.2,5101,11584,11584,0,58496,65728,6,6,4,1460,1053,1,537920480,78,58156,58156,65700,0,18824,0,0,0
o,0x00000000,1716935574.561488,172.16.1.2,55823,172.16.3.2,5101,11584,13032,0,58496,65728,6,6,4,1460,1053,1,537920480,78,58156,58156,65700,0,18824,0,0,0
i,0x00000000,1716935574.582133,172.16.1.2,55823,172.16.3.2,5101,11584,13032,0,58496,65728,6,6,4,1460,1053,1,537920480,78,58156,58156,65700,0,20272,0,0,0
o,0x00000000,1716935574.582140,172.16.1.2,55823,172.16.3.2,5101,11584,13032,0,58496,65728,6,6,4,1460,1053,1,537920481,78,58156,58156,65700,0,20272,0,0,0
i,0x00000000,1716935574.612046,172.16.1.2,55823,172.16.3.2,5101,11584,13032,0,64320,65728,6,6,4,1460,986,1,537920480,87,58156,56708,65700,0,20272,0,0,0
o,0x00000000,1716935574.612051,172.16.1.2,55823,172.16.3.2,5101,11584,13032,0,64320,65728,6,6,4,1460,986,1,537920480,87,58156,56708,65700,0,20272,0,0,0
i,0x00000000,1716935574.642188,172.16.1.2,55823,172.16.3.2,5101,11584,13032,0,64320,65728,6,6,4,1460,986,1,537920480,87,58156,56708,65700,0,21720,0,0,0
o,0x00000000,1716935574.642199,172.16.1.2,55823,172.16.3.2,5101,11584,14480,0,64320,65728,6,6,4,1460,986,1,537920480,87,58156,56708,65700,0,21720,0,0,0
i,0x00000000,1716935574.661617,172.16.1.2,55823,172.16.3.2,5101,11584,14480,0,64320,65728,6,6,4,1460,986,1,537920480,87,58156,56708,65700,0,23168,0,0,0
o,0x00000000,1716935574.661622,172.16.1.2,55823,172.16.3.2,5101,11584,15928,0,64320,65728,6,6,4,1460,986,1,537920480,87,58156,56708,65700,0,23168,0,0,0
i,0x00000000,1716935574.682441,172.16.1.2,55823,172.16.3.2,5101,11584,15928,0,64320,65728,6,6,4,1460,986,1,537920480,87,58156,56708,65700,0,24616,0,0,0
o,0x00000000,1716935574.682445,172.16.1.2,55823,172.16.3.2,5101,11584,17376,0,64320,65728,6,6,4,1460,986,1,537920480,87,58156,56708,65700,0,24616,0,0,0
i,0x00000000,1716935574.712430,172.16.1.2,55823,172.16.3.2,5101,11584,17376,0,64320,65728,6,6,4,1460,986,1,537920480,87,58156,56708,65700,0,26064,0,0,0
o,0x00000000,1716935574.712435,172.16.1.2,55823,172.16.3.2,5101,11584,18824,0,64320,65728,6,6,4,1460,986,1,537920480,87,58156,56708,65700,0,26064,0,0,0
i,0x00000000,1716935574.741349,172.16.1.2,55823,172.16.3.2,5101,11584,18824,0,64320,65728,6,6,4,1460,986,1,537920480,87,58156,56708,65700,0,27512,0,0,0
o,0x00000000,1716935574.741360,172.16.1.2,55823,172.16.3.2,5101,11584,20272,0,64320,65728,6,6,4,1460,986,1,537920480,87,58156,56708,65700,0,27512,0,0,0
i,0x00000000,1716935574.761981,172.16.1.2,55823,172.16.3.2,5101,11584,20272,0,64320,65728,6,6,4,1460,986,1,537920480,87,58156,56708,65700,0,28960,0,0,0
o,0x00000000,1716935574.761990,172.16.1.2,55823,172.16.3.2,5101,11584,21720,0,64320,65728,6,6,4,1460,986,1,537920480,87,58156,56708,65700,0,28960,0,0,0
i,0x00000000,1716935574.781733,172.16.1.2,55823,172.16.3.2,5101,11584,21720,0,64320,65728,6,6,4,1460,986,1,537920480,87,58156,56708,65700,0,30408,0,0,0
o,0x00000000,1716935574.781742,172.16.1.2,55823,172.16.3.2,5101,11584,23168,0,64320,65728,6,6,4,1460,986,1,537920480,87,58156,56708,65700,0,30408,0,0,0
i,0x00000000,1716935574.811946,172.16.1.2,55823,172.16.3.2,5101,11584,23168,0,64320,65728,6,6,4,1460,986,1,537920480,87,58156,56708,65700,0,31856,0,0,0
o,0x00000000,1716935574.811952,172.16.1.2,55823,172.16.3.2,5101,11584,24616,0,64320,65728,6,6,4,1460,986,1,537920480,87,58156,56708,65700,0,31856,0,0,0
i,0x00000000,1716935574.841220,172.16.1.2,55823,172.16.3.2,5101,11584,24616,0,64320,65728,6,6,4,1460,986,1,537920480,87,58156,56708,65700,0,33304,0,0,0
o,0x00000000,1716935574.841232,172.16.1.2,55823,172.16.3.2,5101,11584,26064,0,64320,65728,6,6,4,1460,986,1,537920480,87,66348,56708,65700,0,33304,0,0,0
i,0x00000000,1716935574.863266,172.16.1.2,55823,172.16.3.2,5101,11584,26064,0,64320,65728,6,6,4,1460,986,1,537920480,87,66348,56708,65700,0,34752,0,0,0
o,0x00000000,1716935574.863271,172.16.1.2,55823,172.16.3.2,5101,11584,27512,0,64320,65728,6,6,4,1460,986,1,537920480,87,66348,56708,65700,0,34752,0,0,0
i,0x00000000,1716935574.882492,172.16.1.2,55823,172.16.3.2,5101,11584,27512,0,64320,65728,6,6,4,1460,986,1,537920480,87,66348,56708,65700,0,36200,0,0,0
o,0x00000000,1716935574.882498,172.16.1.2,55823,172.16.3.2,5101,11584,28960,0,64320,65728,6,6,4,1460,986,1,537920480,87,66348,56708,65700,0,36200,0,0,0
i,0x00000000,1716935574.911521,172.16.1.2,55823,172.16.3.2,5101,11584,28960,0,64320,65728,6,6,4,1460,986,1,537920480,87,66348,56708,65700,0,37648,0,0,0
o,0x00000000,1716935574.911526,172.16.1.2,55823,172.16.3.2,5101,11584,30408,0,64320,65728,6,6,4,1460,986,1,537920480,87,66348,56708,65700,0,37648,0,0,0
i,0x00000000,1716935574.941399,172.16.1.2,55823,172.16.3.2,5101,11584,30408,0,64320,65728,6,6,4,1460,986,1,537920480,87,66348,56708,65700,0,39096,0,0,0
o,0x00000000,1716935574.941405,172.16.1.2,55823,172.16.3.2,5101,11584,31856,0,64320,65728,6,6,4,1460,986,1,537920480,87,66348,56708,65700,0,39096,0,0,0
i,0x00000000,1716935574.962015,172.16.1.2,55823,172.16.3.2,5101,11584,31856,0,64320,65728,6,6,4,1460,986,1,537920480,87,66348,56708,65700,0,40544,0,0,0
o,0x00000000,1716935574.962020,172.16.1.2,55823,172.16.3.2,5101,11584,33304,0,64320,65728,6,6,4,1460,986,1,537920480,87,66348,56708,65700,0,40544,0,0,0
i,0x00000000,1716935574.982753,172.16.1.2,55823,172.16.3.2,5101,11584,33304,0,64320,65728,6,6,4,1460,986,1,537920480,87,66348,56708,65700,0,41992,0,0,0
o,0x00000000,1716935574.982758,172.16.1.2,55823,172.16.3.2,5101,11584,34752,0,64320,65728,6,6,4,1460,986,1,537920480,87,66348,56708,65700,0,41992,0,0,0
i,0x00000000,1716935575.011899,172.16.1.2,55823,172.16.3.2,5101,11584,34752,0,64320,65728,6,6,4,1460,986,1,537920480,87,66348,56708,65700,0,43440,0,0,0
o,0x00000000,1716935575.011908,172.16.1.2,55823,172.16.3.2,5101,11584,36200,0,64320,65728,6,6,4,1460,986,1,537920480,87,66348,56708,65700,0,43440,0,0,0
i,0x00000000,1716935575.041759,172.16.1.2,55823,172.16.3.2,5101,11584,36200,0,64320,65728,6,6,4,1460,986,1,537920480,87,66348,56708,65700,0,44888,0,0,0
o,0x00000000,1716935575.041766,172.16.1.2,55823,172.16.3.2,5101,11584,37648,0,64320,65728,6,6,4,1460,986,1,537920480,87,66348,56708,65700,0,44888,0,0,0
i,0x00000000,1716935575.062362,172.16.1.2,55823,172.16.3.2,5101,11584,37648,0,64320,65728,6,6,4,1460,986,1,537920480,87,66348,56708,65700,0,46336,0,0,0
o,0x00000000,1716935575.062371,172.16.1.2,55823,172.16.3.2,5101,11584,39096,0,64320,65728,6,6,4,1460,986,1,537920480,87,66348,56708,65700,0,46336,0,0,0
i,0x00000000,1716935575.081316,172.16.1.2,55823,172.16.3.2,5101,11584,39096,0,64320,65728,6,6,4,1460,986,1,537920480,87,66348,56708,65700,0,47784,0,0,0
o,0x00000000,1716935575.081322,172.16.1.2,55823,172.16.3.2,5101,11584,40544,0,64320,65728,6,6,4,1460,986,1,537920480,87,66348,56708,65700,0,47784,0,0,0
i,0x00000000,1716935575.112125,172.16.1.2,55823,172.16.3.2,5101,11584,40544,0,64320,65728,6,6,4,1460,986,1,537920480,87,66348,56708,65700,0,49232,0,0,0
o,0x00000000,1716935575.112131,172.16.1.2,55823,172.16.3.2,5101,11584,41992,0,64320,65728,6,6,4,1460,986,1,537920480,87,66348,56708,65700,0,49232,0,0,0
i,0x00000000,1716935575.142226,172.16.1.2,55823,172.16.3.2,5101,11584,41992,0,64320,65728,6,6,4,1460,986,1,537920480,87,66348,56708,65700,0,50680,0,0,0
o,0x00000000,1716935575.142231,172.16.1.2,55823,172.16.3.2,5101,11584,43440,0,64320,65728,6,6,4,1460,986,1,537920480,87,66348,56708,65700,0,50680,0,0,0
i,0x00000000,1716935575.161187,172.16.1.2,55823,172.16.3.2,5101,11584,43440,0,64320,65728,6,6,4,1460,986,1,537920480,87,66348,56708,65700,0,52128,0,0,0
o,0x00000000,1716935575.161192,172.16.1.2,55823,172.16.3.2,5101,11584,44888,0,64320,65728,6,6,4,1460,986,1,537920480,87,66348,56708,65700,0,52128,0,0,0
i,0x00000000,1716935575.181828,172.16.1.2,55823,172.16.3.2,5101,11584,44888,0,64320,65728,6,6,4,1460,986,1,537920480,87,66348,56708,65700,0,53576,0,0,0
o,0x00000000,1716935575.181832,172.16.1.2,55823,172.16.3.2,5101,11584,46336,0,64320,65728,6,6,4,1460,986,1,537920480,87,66348,56708,65700,0,53576,0,0,0
i,0x00000000,1716935575.211957,172.16.1.2,55823,172.16.3.2,5101,11584,46336,0,64320,65728,6,6,4,1460,986,1,537920480,87,66348,56708,65700,0,55024,0,0,0
o,0x00000000,1716935575.211963,172.16.1.2,55823,172.16.3.2,5101,11584,47784,0,64320,65728,6,6,4,1460,986,1,537920480,87,66348,56708,65700,0,55024,0,0,0
i,0x00000000,1716935575.241753,172.16.1.2,55823,172.16.3.2,5101,11584,47784,0,64320,65728,6,6,4,1460,986,1,537920480,87,66348,56708,65700,0,56472,0,0,0
i,0x00000000,1716935575.262383,172.16.1.2,55823,172.16.3.2,5101,11584,49232,0,64320,65728,6,6,4,1460,986,1,537920480,87,66348,56708,65700,0,56472,0,0,0
i,0x00000000,1716935575.281231,172.16.1.2,55823,172.16.3.2,5101,11584,50680,0,64320,65728,6,6,4,1460,986,1,537920480,87,66348,56708,65700,0,56472,0,0,0
i,0x00000000,1716935575.301891,172.16.1.2,55823,172.16.3.2,5101,11584,52128,0,64320,65728,6,6,4,1460,986,1,537920480,87,66348,56708,65700,0,56472,0,0,0
i,0x00000000,1716935575.322435,172.16.1.2,55823,172.16.3.2,5101,11584,53576,0,64320,65728,6,6,4,1460,986,1,537920480,87,66348,56708,65700,0,56472,0,0,0
i,0x00000000,1716935575.351690,172.16.1.2,55823,172.16.3.2,5101,11584,55024,0,64320,65728,6,6,4,1460,986,1,537920480,87,66348,56708,65700,0,56472,0,0,0
i,0x00000000,1716935575.351694,172.16.1.2,55823,172.16.3.2,5101,11584,56472,0,64320,65728,6,6,4,1460,986,1,537920480,87,66348,56708,65700,0,56472,0,0,0
o,0x00000000,1716935575.446947,172.16.1.2,55823,172.16.3.2,5101,28960,1448,0,64320,65728,6,6,4,1460,986,1,1075848161,154,66348,56708,65700,0,56472,0,0,0
i,0x00000000,1716935575.581732,172.16.1.2,55823,172.16.3.2,5101,28960,1448,0,64320,65728,6,6,4,1460,986,1,1075848160,154,66348,56708,65700,0,56472,0,0,0
o,0x00000000,1716935575.581754,172.16.1.2,55823,172.16.3.2,5101,28960,2908,0,9280,65728,6,6,4,1460,915,1,1075848160,93,66348,236,65700,0,0,0,0,0
i,0x00000000,1716935575.582004,172.16.1.2,55823,172.16.3.2,5101,28960,2908,0,9280,65728,6,6,4,1460,915,1,1075848160,93,66348,236,65700,0,236,0,0,0
i,0x00000000,1716935575.582007,172.16.1.2,55823,172.16.3.2,5101,28960,2908,0,9280,65728,6,6,4,1460,915,1,1075848160,93,66348,236,65700,0,236,0,0,0
o,0x00000000,1716935575.582112,172.16.1.2,55823,172.16.3.2,5101,28960,2908,0,9280,65728,6,6,4,1460,915,1,1075848160,93,66348,66348,65700,0,236,0,0,0
i,0x00000000,1716935575.702719,172.16.1.2,55823,172.16.3.2,5101,28960,2908,0,9280,65728,6,6,4,1460,915,1,1075848160,93,66348,66348,65700,0,1684,0,0,0
o,0x00000000,1716935575.702735,172.16.1.2,55823,172.16.3.2,5101,28960,3144,0,65728,65728,6,6,4,1460,849,1,1075848160,96,66348,66112,65700,0,1448,0,0,0
i,0x00000000,1716935575.731709,172.16.1.2,55823,172.16.3.2,5101,28960,3144,0,65728,65728,6,6,4,1460,849,1,1075848160,96,66348,66112,65700,0,2896,0,0,0
o,0x00000000,1716935575.731722,172.16.1.2,55823,172.16.3.2,5101,28960,4592,0,65728,65728,6,6,4,1460,803,1,1075848160,94,66348,64664,65700,0,1448,0,0,0
o,0x00000000,1716935575.731970,172.16.1.2,55823,172.16.3.2,5101,28960,4592,0,65728,65728,6,6,4,1460,803,1,1075848160,94,66348,64664,65700,0,2896,0,0,0
i,0x00000000,1716935575.862525,172.16.1.2,55823,172.16.3.2,5101,28960,4592,0,65728,65728,6,6,4,1460,803,1,1075848160,94,66348,64664,65700,0,4344,0,0,0
o,0x00000000,1716935575.862545,172.16.1.2,55823,172.16.3.2,5101,28960,7488,0,64256,65728,6,6,4,1460,767,1,1075848160,89,66348,61768,65700,0,1448,0,0,0
o,0x00000000,1716935575.862792,172.16.1.2,55823,172.16.3.2,5101,28960,7488,0,64256,65728,6,6,4,1460,767,1,1075848160,89,66348,61768,65700,0,2896,0,0,0
o,0x00000000,1716935575.863021,172.16.1.2,55823,172.16.3.2,5101,28960,7488,0,64256,65728,6,6,4,1460,767,1,1075848160,89,66348,61768,65700,0,4344,0,0,0
o,0x00000000,1716935575.863252,172.16.1.2,55823,172.16.3.2,5101,28960,7488,0,64256,65728,6,6,4,1460,767,1,1075848160,89,66348,61768,65700,0,5792,0,0,0
i,0x00000000,1716935575.891426,172.16.1.2,55823,172.16.3.2,5101,28960,7488,0,64256,65728,6,6,4,1460,767,1,1075848160,89,66348,66348,65700,0,7240,0,0,0
o,0x00000000,1716935575.891437,172.16.1.2,55823,172.16.3.2,5101,28960,8936,0,65728,65728,6,6,4,1460,736,1,1075848160,85,66348,64900,65700,0,5792,0,0,0
o,0x00000000,1716935575.891680,172.16.1.2,55823,172.16.3.2,5101,28960,8936,0,65728,65728,6,6,4,1460,736,1,1075848160,85,66348,64900,65700,0,7240,0,0,0
i,0x00000000,1716935576.033067,172.16.1.2,55823,172.16.3.2,5101,28960,8936,0,65728,65728,6,6,4,1460,736,1,1075848160,85,66348,64900,65700,0,8688,0,0,0
o,0x00000000,1716935576.033089,172.16.1.2,55823,172.16.3.2,5101,28960,11832,0,64256,65728,6,6,4,1460,712,1,1075848160,80,66348,62004,65700,0,5792,0,0,0
o,0x00000000,1716935576.033400,172.16.1.2,55823,172.16.3.2,5101,28960,11832,0,64256,65728,6,6,4,1460,712,1,1075848160,80,66348,62004,65700,0,7240,0,0,0
o,0x00000000,1716935576.033635,172.16.1.2,55823,172.16.3.2,5101,28960,11832,0,64256,65728,6,6,4,1460,712,1,1075848160,80,66348,62004,65700,0,8688,0,0,0
o,0x00000000,1716935576.033860,172.16.1.2,55823,172.16.3.2,5101,28960,11832,0,64256,65728,6,6,4,1460,712,1,1075848160,80,66348,62004,65700,0,10136,0,0,0
i,0x00000000,1716935576.062036,172.16.1.2,55823,172.16.3.2,5101,28960,11832,0,64256,65728,6,6,4,1460,712,1,1075848160,80,66348,66348,65700,0,11584,0,0,0
o,0x00000000,1716935576.062047,172.16.1.2,55823,172.16.3.2,5101,28960,14728,0,64256,65728,6,6,4,1460,703,1,1075848160,72,66348,63452,65700,0,8688,0,0,0
o,0x00000000,1716935576.062291,172.16.1.2,55823,172.16.3.2,5101,28960,14728,0,64256,65728,6,6,4,1460,703,1,1075848160,72,66348,63452,65700,0,10136,0,0,0
o,0x00000000,1716935576.062548,172.16.1.2,55823,172.16.3.2,5101,28960,14728,0,64256,65728,6,6,4,1460,703,1,1075848160,72,66348,63452,65700,0,11584,0,0,0
o,0x00000000,1716935576.062782,172.16.1.2,55823,172.16.3.2,5101,28960,14728,0,64256,65728,6,6,4,1460,703,1,1075848160,72,66348,63452,65700,0,13032,0,0,0
i,0x00000000,1716935576.092303,172.16.1.2,55823,172.16.3.2,5101,28960,14728,0,64256,65728,6,6,4,1460,703,1,1075848160,72,66348,66348,65700,0,14480,0,0,0
o,0x00000000,1716935576.092314,172.16.1.2,55823,172.16.3.2,5101,28960,17624,0,64256,65728,6,6,4,1460,692,1,1075848160,67,66348,63452,65700,0,11584,0,0,0
o,0x00000000,1716935576.092574,172.16.1.2,55823,172.16.3.2,5101,28960,17624,0,64256,65728,6,6,4,1460,692,1,1075848160,67,66348,63452,65700,0,13032,0,0,0
o,0x00000000,1716935576.092807,172.16.1.2,55823,172.16.3.2,5101,28960,17624,0,64256,65728,6,6,4,1460,692,1,1075848160,67,66348,63452,65700,0,14480,0,0,0
o,0x00000000,1716935576.093035,172.16.1.2,55823,172.16.3.2,5101,28960,17624,0,64256,65728,6,6,4,1460,692,1,1075848160,67,66348,63452,65700,0,15928,0,0,0
i,0x00000000,1716935576.241571,172.16.1.2,55823,172.16.3.2,5101,28960,17624,0,64256,65728,6,6,4,1460,692,1,1075848160,67,66348,66348,65700,0,17376,0,0,0
o,0x00000000,1716935576.241589,172.16.1.2,55823,172.16.3.2,5101,28960,20520,0,64256,65728,6,6,4,1460,690,1,1075848160,61,66348,63452,65700,0,14480,0,0,0
o,0x00000000,1716935576.241832,172.16.1.2,55823,172.16.3.2,5101,28960,20520,0,64256,65728,6,6,4,1460,690,1,1075848160,61,66348,63452,65700,0,15928,0,0,0
o,0x00000000,1716935576.242065,172.16.1.2,55823,172.16.3.2,5101,28960,20520,0,64256,65728,6,6,4,1460,690,1,1075848160,61,66348,63452,65700,0,17376,0,0,0
o,0x00000000,1716935576.242293,172.16.1.2,55823,172.16.3.2,5101,28960,20520,0,64256,65728,6,6,4,1460,690,1,1075848160,61,66348,63452,65700,0,18824,0,0,0
i,0x00000000,1716935576.292031,172.16.1.2,55823,172.16.3.2,5101,28960,20520,0,64256,65728,6,6,4,1460,690,1,1075848160,61,66348,66348,65700,0,20272,0,0,0
o,0x00000000,1716935576.292041,172.16.1.2,55823,172.16.3.2,5101,28960,21968,0,65728,65728,6,6,4,1460,708,1,1075848160,61,66348,64900,65700,0,18824,0,0,0
o,0x00000000,1716935576.292327,172.16.1.2,55823,172.16.3.2,5101,28960,21968,0,65728,65728,6,6,4,1460,708,1,1075848160,61,66348,64900,65700,0,20272,0,0,0
i,0x00000000,1716935576.321392,172.16.1.2,55823,172.16.3.2,5101,28960,21968,0,65728,65728,6,6,4,1460,708,1,1075848160,61,66348,64900,65700,0,21720,0,0,0
o,0x00000000,1716935576.321404,172.16.1.2,55823,172.16.3.2,5101,28960,24864,0,64256,65728,6,6,4,1460,736,1,1075848160,64,66348,62004,65700,0,18824,0,0,0
o,0x00000000,1716935576.321654,172.16.1.2,55823,172.16.3.2,5101,28960,24864,0,64256,65728,6,6,4,1460,736,1,1075848160,64,66348,62004,65700,0,20272,0,0,0
o,0x00000000,1716935576.321878,172.16.1.2,55823,172.16.3.2,5101,28960,24864,0,64256,65728,6,6,4,1460,736,1,1075848160,64,66348,62004,65700,0,21720,0,0,0
o,0x00000000,1716935576.322122,172.16.1.2,55823,172.16.3.2,5101,28960,24864,0,64256,65728,6,6,4,1460,736,1,1075848160,64,66348,62004,65700,0,23168,0,0,0
i,0x00000000,1716935576.351369,172.16.1.2,55823,172.16.3.2,5101,28960,24864,0,64256,65728,6,6,4,1460,736,1,1075848160,64,66348,66348,65700,0,24616,0,0,0
o,0x00000000,1716935576.351375,172.16.1.2,55823,172.16.3.2,5101,28960,27760,0,64256,65728,6,6,4,1460,760,1,1075848160,66,66348,63452,65700,0,21720,0,0,0
o,0x00000000,1716935576.351639,172.16.1.2,55823,172.16.3.2,5101,28960,27760,0,64256,65728,6,6,4,1460,760,1,1075848160,66,66348,63452,65700,0,23168,0,0,0
o,0x00000000,1716935576.351890,172.16.1.2,55823,172.16.3.2,5101,28960,27760,0,64256,65728,6,6,4,1460,760,1,1075848160,66,66348,63452,65700,0,24616,0,0,0
o,0x00000000,1716935576.352118,172.16.1.2,55823,172.16.3.2,5101,28960,27760,0,64256,65728,6,6,4,1460,760,1,1075848160,66,66348,63452,65700,0,26064,0,0,0
i,0x00000000,1716935576.371944,172.16.1.2,55823,172.16.3.2,5101,28960,27760,0,64256,65728,6,6,4,1460,760,1,1075848160,66,66348,66348,65700,0,27512,0,0,0
o,0x00000000,1716935576.371950,172.16.1.2,55823,172.16.3.2,5101,28960,30656,0,64256,65728,6,6,4,1460,789,1,1075848160,68,66348,63452,65700,0,24616,0,0,0
o,0x00000000,1716935576.372188,172.16.1.2,55823,172.16.3.2,5101,28960,30656,0,64256,65728,6,6,4,1460,789,1,1075848160,68,66348,63452,65700,0,26064,0,0,0
o,0x00000000,1716935576.372454,172.16.1.2,55823,172.16.3.2,5101,28960,30656,0,64256,65728,6,6,4,1460,789,1,1075848160,68,66348,63452,65700,0,27512,0,0,0
o,0x00000000,1716935576.372681,172.16.1.2,55823,172.16.3.2,5101,28960,30656,0,64256,65728,6,6,4,1460,789,1,1075848160,68,66348,63452,65700,0,28960,0,0,0
i,0x00000000,1716935576.402070,172.16.1.2,55823,172.16.3.2,5101,28960,30656,0,64256,65728,6,6,4,1460,789,1,1075848160,68,66348,66348,65700,0,30408,0,0,0
o,0x00000000,1716935576.402076,172.16.1.2,55823,172.16.3.2,5101,28960,30656,0,64256,65728,6,6,4,1460,815,1,1075848160,70,66348,63452,65700,0,27512,0,0,0
o,0x00000000,1716935576.402320,172.16.1.2,55823,172.16.3.2,5101,28960,30656,0,64256,65728,6,6,4,1460,815,1,1075848160,70,66348,63452,65700,0,28960,0,0,0
i,0x00000000,1716935576.452189,172.16.1.2,55823,172.16.3.2,5101,28960,30656,0,64256,65728,6,6,4,1460,815,1,1075848160,70,66348,66348,65700,0,30408,0,0,0
o,0x00000000,1716935576.452207,172.16.1.2,55823,172.16.3.2,5101,28960,30656,0,65728,65728,6,6,4,1460,858,1,1075848160,76,66348,64900,65700,0,28960,0,0,0
i,0x00000000,1716935576.602264,172.16.1.2,55823,172.16.3.2,5101,28960,30656,0,65728,65728,6,6,4,1460,858,1,1075848160,76,66348,64900,65700,0,30408,0,0,0
o,0x00000000,1716935576.602282,172.16.1.2,55823,172.16.3.2,5101,28960,30656,0,64256,65728,6,6,4,1460,895,1,1075848160,79,66348,62004,65700,0,27512,0,0,0
o,0x00000000,1716935576.602537,172.16.1.2,55823,172.16.3.2,5101,28960,30656,0,64256,65728,6,6,4,1460,895,1,1075848160,79,66348,62004,65700,0,28960,0,0,0
i,0x00000000,1716935576.681815,172.16.1.2,55823,172.16.3.2,5101,28960,30656,0,64256,65728,6,6,4,1460,895,1,1075848160,79,66348,66348,65700,0,30408,0,0,0
o,0x00000000,1716935576.681832,172.16.1.2,55823,172.16.3.2,5101,28960,30656,0,64256,65728,6,6,4,1460,960,1,1075848160,90,66348,63452,65700,0,27512,0,0,0
o,0x00000000,1716935576.682097,172.16.1.2,55823,172.16.3.2,5101,28960,30656,0,64256,65728,6,6,4,1460,960,1,1075848160,90,66348,63452,65700,0,28960,0,0,0
i,0x00000000,1716935576.722105,172.16.1.2,55823,172.16.3.2,5101,28960,30656,0,64256,65728,6,6,4,1460,960,1,1075848160,90,66348,66348,65700,0,30408,0,0,0
o,0x00000000,1716935576.722121,172.16.1.2,55823,172.16.3.2,5101,28960,30656,0,64256,65728,6,6,4,1460,1008,1,1075848160,93,66348,63452,65700,0,27512,0,0,0
o,0x00000000,1716935576.722455,172.16.1.2,55823,172.16.3.2,5101,28960,30656,0,64256,65728,6,6,4,1460,1008,1,1075848160,93,66348,63452,65700,0,28960,0,0,0
i,0x00000000,1716935576.751476,172.16.1.2,55823,172.16.3.2,5101,28960,30656,0,64256,65728,6,6,4,1460,1008,1,1075848160,93,66348,66348,65700,0,30408,0,0,0
o,0x00000000,1716935576.751492,172.16.1.2,55823,172.16.3.2,5101,28960,30656,0,64256,65728,6,6,4,1460,1054,1,1075848160,95,66348,63452,65700,0,27512,0,0,0
o,0x00000000,1716935576.751754,172.16.1.2,55823,172.16.3.2,5101,28960,30656,0,64256,65728,6,6,4,1460,1054,1,1075848160,95,66348,63452,65700,0,28960,0,0,0
i,0x00000000,1716935576.791886,172.16.1.2,55823,172.16.3.2,5101,28960,30656,0,64256,65728,6,6,4,1460,1054,1,1075848160,95,66348,66348,65700,0,30408,0,0,0
o,0x00000000,1716935576.791899,172.16.1.2,55823,172.16.3.2,5101,28960,30656,0,64256,65728,6,6,4,1460,1111,1,1075848160,101,66348,63452,65700,0,27512,0,0,0
o,0x00000000,1716935576.792140,172.16.1.2,55823,172.16.3.2,5101,28960,30656,0,64256,65728,6,6,4,1460,1111,1,1075848160,101,66348,63452,65700,0,28960,0,0,0
i,0x00000000,1716935576.821624,172.16.1.2,55823,172.16.3.2,5101,28960,30656,0,64256,65728,6,6,4,1460,1111,1,1075848160,101,66348,66348,65700,0,30408,0,0,0
o,0x00000000,1716935576.821633,172.16.1.2,55823,172.16.3.2,5101,28960,30656,0,64256,65728,6,6,4,1460,1161,1,1075848160,103,66348,63452,65700,0,27512,0,0,0
o,0x00000000,1716935576.821872,172.16.1.2,55823,172.16.3.2,5101,28960,30656,0,64256,65728,6,6,4,1460,1161,1,1075848160,103,66348,63452,65700,0,28960,0,0,0
i,0x00000000,1716935576.841349,172.16.1.2,55823,172.16.3.2,5101,28960,30656,0,64256,65728,6,6,4,1460,1161,1,1075848160,103,66348,66348,65700,0,30408,0,0,0
o,0x00000000,1716935576.841362,172.16.1.2,55823,172.16.3.2,5101,28960,30656,0,64256,65728,6,6,4,1460,1212,1,1075848160,106,66348,63452,65700,0,27512,0,0,0
o,0x00000000,1716935576.841604,172.16.1.2,55823,172.16.3.2,5101,28960,30656,0,64256,65728,6,6,4,1460,1212,1,1075848160,106,66348,63452,65700,0,28960,0,0,0
i,0x00000000,1716935576.871495,172.16.1.2,55823,172.16.3.2,5101,28960,30656,0,64256,65728,6,6,4,1460,1212,1,1075848160,106,66348,66348,65700,0,30408,0,0,0
o,0x00000000,1716935576.871504,172.16.1.2,55823,172.16.3.2,5101,28960,30656,0,65728,65728,6,6,4,1460,1261,1,1075848160,108,66348,64900,65700,0,28960,0,0,0
i,0x00000000,1716935576.871583,172.16.1.2,55823,172.16.3.2,5101,28960,30656,0,65728,65728,6,6,4,1460,1261,1,1075848160,108,66348,64900,65700,0,30408,0,0,0
o,0x00000000,1716935576.871585,172.16.1.2,55823,172.16.3.2,5101,28960,33304,0,65728,65728,6,6,4,1460,1261,1,1075848160,108,66348,64900,65700,0,30408,0,0,0
o,0x00000000,1716935576.871667,172.16.1.2,55823,172.16.3.2,5101,28960,33304,0,65728,65728,6,6,4,1460,1261,1,1075848160,108,74540,64900,65700,0,31856,0,0,0
i,0x00000000,1716935576.922207,172.16.1.2,55823,172.16.3.2,5101,28960,30656,0,65728,65728,6,6,4,1460,1261,1,1075848160,108,74540,74540,65700,0,33304,0,0,0
o,0x00000000,1716935576.922213,172.16.1.2,55823,172.16.3.2,5101,14480,1448,0,65728,65728,6,6,4,1460,1261,1,1613767648,108,74540,74540,65700,0,33304,0,0,0
i,0x00000000,1716935576.922294,172.16.1.2,55823,172.16.3.2,5101,14480,1448,0,65728,65728,6,6,4,1460,1261,1,1613767648,108,74540,74540,65700,0,33304,0,0,0
i,0x00000000,1716935576.951069,172.16.1.2,55823,172.16.3.2,5101,14480,1448,0,65728,65728,6,6,4,1460,1261,1,1613767648,108,74540,74540,65700,0,33304,0,0,0
i,0x00000000,1716935577.031835,172.16.1.2,55823,172.16.3.2,5101,14480,1448,0,65728,65728,6,6,4,1460,1261,1,1613767648,108,74540,74540,65700,0,33304,0,0,0
i,0x00000000,1716935577.062751,172.16.1.2,55823,172.16.3.2,5101,14480,1448,0,65728,65728,6,6,4,1460,1261,1,1613767648,108,74540,74540,65700,0,33304,0,0,0
i,0x00000000,1716935577.091148,172.16.1.2,55823,172.16.3.2,5101,14480,1448,0,65728,65728,6,6,4,1460,1261,1,1613767648,108,74540,74540,65700,0,33304,0,0,0
