enable_time_secs=1716937201	enable_time_usecs=109838	siftrver=1.2.4	hz=100	tcp_rtt_scale=32	sysname=FreeBSD	sysver=1301000	ipmode=4
o,0x00000000,1716937201.109889,10.0.2.15,22,10.0.2.2,57946,1073725440,17298,0,65535,65700,0,0,4,1460,1,0,4,24,33580,44,65700,0,0,0,0,0
o,0x00000000,1716937201.110004,10.0.2.15,22,10.0.2.2,57946,1073725440,17298,0,65535,65700,0,0,4,1460,1,0,4,24,33580,80,65700,0,44,0,0,0
i,0x00000000,1716937201.110649,10.0.2.15,22,10.0.2.2,57946,1073725440,17298,0,65535,65700,0,0,4,1460,1,0,4,24,33580,80,65700,0,80,0,0,0
i,0x00000000,1716937201.110652,10.0.2.15,22,10.0.2.2,57946,1073725440,17342,0,65535,65700,0,0,4,1460,1,0,4,24,33580,36,65700,0,36,0,0,0
o,0x00000000,1716937201.110756,10.0.2.15,22,10.0.2.2,57946,1073725440,17378,0,65535,65700,0,0,4,1460,1,0,4,24,33580,36,65700,0,0,0,0,0
i,0x00000000,1716937201.111276,10.0.2.15,22,10.0.2.2,57946,1073725440,17378,0,65535,65700,0,0,4,1460,1,0,4,24,33580,36,65700,0,36,0,0,0
o,0x00000000,1716937201.111349,10.0.2.15,22,10.0.2.2,57946,1073725440,17414,0,65535,65700,0,0,4,1460,1,0,4,24,33580,36,65700,0,0,0,0,0
i,0x00000000,1716937201.112014,10.0.2.15,22,10.0.2.2,57946,1073725440,17414,0,65535,65700,0,0,4,1460,1,0,4,24,33580,36,65700,0,36,0,0,0
o,0x00000000,1716937201.112121,10.0.2.15,22,10.0.2.2,57946,1073725440,17450,0,65535,65700,0,0,4,1460,1,0,4,24,33580,140,65700,0,0,0,0,0
i,0x00000000,1716937201.113023,10.0.2.15,22,10.0.2.2,57946,1073725440,17450,0,65535,65700,0,0,4,1460,1,0,4,24,33580,140,65700,0,140,0,0,0
i,0x00000000,1716937201.113199,10.0.2.15,22,10.0.2.2,57946,1073725440,17590,0,65535,65700,0,0,4,1460,1,0,4,24,33580,0,65700,0,0,0,0,0
i,0x00000000,1716937201.113201,10.0.2.15,22,10.0.2.2,57946,1073725440,17590,0,65535,65700,0,0,4,1460,1,0,4,24,33580,0,65700,36,0,0,0,0
o,0x00000000,1716937201.113203,10.0.2.15,22,10.0.2.2,57946,1073725440,17590,0,65535,65700,0,0,4,1460,1,0,5,24,33580,0,65700,96,0,0,0,0
i,0x00000000,1716937201.113273,10.0.2.15,22,10.0.2.2,57946,1073725440,17590,0,65535,65700,0,0,4,1460,1,0,4,24,33580,0,65700,96,0,0,0,0
o,0x00000000,1716937201.113276,10.0.2.15,22,10.0.2.2,57946,1073725440,17590,0,65535,65604,0,0,5,1460,1,0,7,24,33580,0,65700,96,0,0,0,0
o,0x00000000,1716937201.113883,10.0.2.15,22,10.0.2.2,57946,1073725440,17590,0,65535,65604,0,0,8,1460,1,0,4,24,33580,0,65700,0,0,0,0,0
i,0x00000000,1716937201.116546,10.0.2.15,22,10.0.2.2,57946,1073725440,17590,0,65535,65604,0,0,8,1460,1,0,20,24,33580,0,65700,0,1,0,0,0
i,0x00000000,1716937203.261324,10.0.2.15,22,10.0.2.2,57951,1073725440,14600,0,65535,65700,0,0,4,1460,1,0,0,26,33580,0,65700,0,0,0,0,0
o,0x00000000,1716937203.267724,10.0.2.15,22,10.0.2.2,57951,1073725440,14600,0,65535,65700,0,0,4,1460,1,0,0,26,33580,38,65700,41,0,0,0,0
i,0x00000000,1716937203.268495,10.0.2.15,22,10.0.2.2,57951,1073725440,14600,0,65535,65700,0,0,4,1460,1,0,0,26,33580,38,65700,0,38,0,0,0
i,0x00000000,1716937203.269342,10.0.2.15,22,10.0.2.2,57951,1073725440,14638,0,65535,65700,0,0,4,1460,1,0,0,23,33580,0,65700,0,0,0,0,0
i,0x00000000,1716937203.269345,10.0.2.15,22,10.0.2.2,57951,1073725440,14638,0,65535,65700,0,0,4,1460,1,0,0,23,33580,0,65700,1460,0,0,0,0
o,0x00000000,1716937203.269348,10.0.2.15,22,10.0.2.2,57951,1073725440,14638,0,65535,65700,0,0,4,1460,1,0,1,23,33580,0,65700,1536,0,0,0,0
o,0x00000000,1716937203.269805,10.0.2.15,22,10.0.2.2,57951,1073725440,14638,0,65535,65700,0,0,4,1460,1,0,0,23,33580,1056,65700,1536,0,0,0,0
i,0x00000000,1716937203.270668,10.0.2.15,22,10.0.2.2,57951,1073725440,14638,0,65535,65700,0,0,4,1460,1,0,0,23,33580,1056,65700,1536,1056,0,0,0
i,0x00000000,1716937203.272085,10.0.2.15,22,10.0.2.2,57951,1073725440,15694,0,65535,65700,0,0,4,1460,1,0,0,23,33580,0,65700,0,0,0,0,0
o,0x00000000,1716937203.274828,10.0.2.15,22,10.0.2.2,57951,1073725440,15694,0,65535,65700,0,0,4,1460,1,0,0,23,33580,484,65700,0,0,0,0,0
i,0x00000000,1716937203.275477,10.0.2.15,22,10.0.2.2,57951,1073725440,15694,0,65535,65700,0,0,4,1460,1,0,0,23,33580,484,65700,0,484,0,0,0
i,0x00000000,1716937203.280134,10.0.2.15,22,10.0.2.2,57951,1073725440,16178,0,65535,65700,0,0,4,1460,1,0,0,24,33580,0,65700,0,0,0,0,0
i,0x00000000,1716937203.286975,10.0.2.15,22,10.0.2.2,57951,1073725440,16178,0,65535,65700,0,0,4,1460,1,0,0,24,33580,0,65700,0,0,0,0,0
o,0x00000000,1716937203.286982,10.0.2.15,22,10.0.2.2,57951,1073725440,16178,0,65535,65700,0,0,4,1460,1,0,1,24,33580,0,65700,44,0,0,0,0
o,0x00000000,1716937203.287154,10.0.2.15,22,10.0.2.2,57951,1073725440,16178,0,65535,65700,0,0,4,1460,1,0,0,24,33580,44,65700,0,0,0,0,0
i,0x00000000,1716937203.287990,10.0.2.15,22,10.0.2.2,57951,1073725440,16178,0,65535,65700,0,0,4,1460,1,0,0,24,33580,44,65700,0,44,0,0,0
i,0x00000000,1716937203.287993,10.0.2.15,22,10.0.2.2,57951,1073725440,16222,0,65535,65700,0,0,4,1460,1,0,0,24,33580,0,65700,0,0,0,0,0
o,0x00000000,1716937203.298425,10.0.2.15,22,10.0.2.2,57951,1073725440,16222,0,65535,65700,0,0,4,1460,1,0,0,24,33580,68,65700,0,0,0,0,0
i,0x00000000,1716937203.299062,10.0.2.15,22,10.0.2.2,57951,1073725440,16222,0,65535,65700,0,0,4,1460,1,0,0,24,33580,68,65700,0,68,0,0,0
i,0x00000000,1716937203.301316,10.0.2.15,22,10.0.2.2,57951,1073725440,16290,0,65535,65700,0,0,4,1460,1,0,0,24,33580,0,65700,0,0,0,0,0
o,0x00000000,1716937203.310746,10.0.2.15,22,10.0.2.2,57951,1073725440,16290,0,65535,65700,0,0,4,1460,1,0,0,24,33580,28,65700,0,0,0,0,0
i,0x00000000,1716937203.311456,10.0.2.15,22,10.0.2.2,57951,1073725440,16290,0,65535,65700,0,0,4,1460,1,0,0,24,33580,28,65700,0,28,0,0,0
i,0x00000000,1716937203.311985,10.0.2.15,22,10.0.2.2,57951,1073725440,16318,0,65535,65700,0,0,4,1460,1,0,0,24,33580,0,65700,0,0,0,0,0
o,0x00000000,1716937203.312689,10.0.2.15,22,10.0.2.2,57951,1073725440,16318,0,65535,65700,0,0,4,1460,1,0,0,24,33580,768,65700,112,0,0,0,0
i,0x00000000,1716937203.313366,10.0.2.15,22,10.0.2.2,57951,1073725440,16318,0,65535,65700,0,0,4,1460,1,0,0,24,33580,768,65700,112,768,0,0,0
o,0x00000000,1716937203.313461,10.0.2.15,22,10.0.2.2,57951,1073725440,17086,0,65535,65700,0,0,4,1460,1,0,0,24,33580,44,65700,0,0,0,0,0
i,0x00000000,1716937203.314107,10.0.2.15,22,10.0.2.2,57951,1073725440,17086,0,65535,65700,0,0,4,1460,1,0,0,24,33580,44,65700,0,44,0,0,0
i,0x00000000,1716937203.316485,10.0.2.15,22,10.0.2.2,57951,1073725440,17130,0,65535,65700,0,0,4,1460,1,0,0,24,33580,0,65700,0,0,0,0,0
o,0x00000000,1716937203.316799,10.0.2.15,22,10.0.2.2,57951,1073725440,17130,0,65535,65700,0,0,4,1460,1,0,4,24,33580,72,65700,0,0,0,0,0
i,0x00000000,1716937203.317483,10.0.2.15,22,10.0.2.2,57951,1073725440,17130,0,65535,65700,0,0,4,1460,1,0,4,24,33580,72,65700,0,72,0,0,0
o,0x00000000,1716937203.320012,10.0.2.15,22,10.0.2.2,57951,1073725440,17202,0,65535,65700,0,0,4,1460,1,0,4,24,33580,44,65700,0,0,0,0,0
i,0x00000000,1716937203.320620,10.0.2.15,22,10.0.2.2,57951,1073725440,17202,0,65535,65700,0,0,4,1460,1,0,4,24,33580,44,65700,0,44,0,0,0
o,0x00000000,1716937203.320899,10.0.2.15,22,10.0.2.2,57951,1073725440,17246,0,65535,65700,0,0,4,1460,1,0,4,24,33580,44,65700,0,0,0,0,0
i,0x00000000,1716937203.321588,10.0.2.15,22,10.0.2.2,57951,1073725440,17246,0,65535,65700,0,0,4,1460,1,0,4,24,33580,44,65700,0,44,0,0,0
o,0x00000000,1716937203.324699,10.0.2.15,22,10.0.2.2,57951,1073725440,17290,0,65535,65700,0,0,4,1460,1,0,4,24,33580,176,65700,0,0,0,0,0
i,0x00000000,1716937203.325442,10.0.2.15,22,10.0.2.2,57951,1073725440,17290,0,65535,65700,0,0,4,1460,1,0,4,24,33580,176,65700,0,176,0,0,0
i,0x00000000,1716937203.326578,10.0.2.15,22,10.0.2.2,57951,1073725440,17466,0,65535,65700,0,0,4,1460,1,0,4,24,33580,0,65700,0,0,0,0,0
i,0x00000000,1716937203.326581,10.0.2.15,22,10.0.2.2,57951,1073725440,17466,0,65535,65700,0,0,4,1460,1,0,4,24,33580,0,65700,36,0,0,0,0
o,0x00000000,1716937203.326583,10.0.2.15,22,10.0.2.2,57951,1073725440,17466,0,65535,65700,0,0,4,1460,1,0,5,24,33580,0,65700,96,0,0,0,0
i,0x00000000,1716937203.326659,10.0.2.15,22,10.0.2.2,57951,1073725440,17466,0,65535,65700,0,0,4,1460,1,0,4,24,33580,0,65700,96,0,0,0,0
o,0x00000000,1716937203.326662,10.0.2.15,22,10.0.2.2,57951,1073725440,17466,0,65535,65604,0,0,5,1460,1,0,7,24,33580,0,65700,96,0,0,0,0
o,0x00000000,1716937203.331585,10.0.2.15,22,10.0.2.2,57951,1073725440,17466,0,65535,65604,0,0,8,1460,1,0,4,24,33580,0,65700,0,0,0,0,0
i,0x00000000,1716937203.332151,10.0.2.15,22,10.0.2.2,57951,1073725440,17466,0,65535,65604,0,0,8,1460,1,0,20,24,33580,0,65700,0,1,0,0,0
i,0x00000000,1716937204.420918,10.0.2.15,22,10.0.2.2,57953,1073725440,14600,0,65535,65700,0,0,4,1460,1,0,0,27,33580,0,65700,0,0,0,0,0
o,0x00000000,1716937204.428160,10.0.2.15,22,10.0.2.2,57953,1073725440,14600,0,65535,65700,0,0,4,1460,1,0,0,27,33580,38,65700,41,0,0,0,0
i,0x00000000,1716937204.428903,10.0.2.15,22,10.0.2.2,57953,1073725440,14600,0,65535,65700,0,0,4,1460,1,0,0,27,33580,38,65700,41,38,0,0,0
i,0x00000000,1716937204.429818,10.0.2.15,22,10.0.2.2,57953,1073725440,14638,0,65535,65700,0,0,4,1460,1,0,0,23,33580,0,65700,0,0,0,0,0
i,0x00000000,1716937204.429822,10.0.2.15,22,10.0.2.2,57953,1073725440,14638,0,65535,65700,0,0,4,1460,1,0,0,23,33580,0,65700,1460,0,0,0,0
o,0x00000000,1716937204.429826,10.0.2.15,22,10.0.2.2,57953,1073725440,14638,0,65535,65700,0,0,4,1460,1,0,1,23,33580,0,65700,1536,0,0,0,0
o,0x00000000,1716937204.430437,10.0.2.15,22,10.0.2.2,57953,1073725440,14638,0,65535,65700,0,0,4,1460,1,0,0,23,33580,1056,65700,1536,0,0,0,0
i,0x00000000,1716937204.431335,10.0.2.15,22,10.0.2.2,57953,1073725440,14638,0,65535,65700,0,0,4,1460,1,0,0,23,33580,1056,65700,1536,1056,0,0,0
i,0x00000000,1716937204.432697,10.0.2.15,22,10.0.2.2,57953,1073725440,15694,0,65535,65700,0,0,4,1460,1,0,0,24,33580,0,65700,0,0,0,0,0
o,0x00000000,1716937204.435081,10.0.2.15,22,10.0.2.2,57953,1073725440,15694,0,65535,65700,0,0,4,1460,1,0,0,24,33580,484,65700,0,0,0,0,0
i,0x00000000,1716937204.435779,10.0.2.15,22,10.0.2.2,57953,1073725440,15694,0,65535,65700,0,0,4,1460,1,0,0,24,33580,484,65700,0,484,0,0,0
i,0x00000000,1716937204.440354,10.0.2.15,22,10.0.2.2,57953,1073725440,16178,0,65535,65700,0,0,4,1460,1,0,0,24,33580,0,65700,0,0,0,0,0
i,0x00000000,1716937204.444540,10.0.2.15,22,10.0.2.2,57953,1073725440,16178,0,65535,65700,0,0,4,1460,1,0,0,24,33580,0,65700,0,0,0,0,0
o,0x00000000,1716937204.444545,10.0.2.15,22,10.0.2.2,57953,1073725440,16178,0,65535,65700,0,0,4,1460,1,0,1,24,33580,0,65700,44,0,0,0,0
o,0x00000000,1716937204.444680,10.0.2.15,22,10.0.2.2,57953,1073725440,16178,0,65535,65700,0,0,4,1460,1,0,0,24,33580,44,65700,0,0,0,0,0
i,0x00000000,1716937204.445352,10.0.2.15,22,10.0.2.2,57953,1073725440,16178,0,65535,65700,0,0,4,1460,1,0,0,24,33580,44,65700,0,44,0,0,0
i,0x00000000,1716937204.445787,10.0.2.15,22,10.0.2.2,57953,1073725440,16222,0,65535,65700,0,0,4,1460,1,0,0,24,33580,0,65700,0,0,0,0,0
o,0x00000000,1716937204.455687,10.0.2.15,22,10.0.2.2,57953,1073725440,16222,0,65535,65700,0,0,4,1460,1,0,0,24,33580,68,65700,0,0,0,0,0
i,0x00000000,1716937204.456361,10.0.2.15,22,10.0.2.2,57953,1073725440,16222,0,65535,65700,0,0,4,1460,1,0,0,24,33580,68,65700,0,68,0,0,0
i,0x00000000,1716937204.458828,10.0.2.15,22,10.0.2.2,57953,1073725440,16290,0,65535,65700,0,0,4,1460,1,0,0,23,33580,0,65700,0,0,0,0,0
o,0x00000000,1716937204.469027,10.0.2.15,22,10.0.2.2,57953,1073725440,16290,0,65535,65700,0,0,4,1460,1,0,0,23,33580,28,65700,0,0,0,0,0
i,0x00000000,1716937204.469697,10.0.2.15,22,10.0.2.2,57953,1073725440,16290,0,65535,65700,0,0,4,1460,1,0,0,23,33580,28,65700,0,28,0,0,0
i,0x00000000,1716937204.470230,10.0.2.15,22,10.0.2.2,57953,1073725440,16318,0,65535,65700,0,0,4,1460,1,0,0,23,33580,0,65700,0,0,0,0,0
o,0x00000000,1716937204.470924,10.0.2.15,22,10.0.2.2,57953,1073725440,16318,0,65535,65700,0,0,4,1460,1,0,0,23,33580,768,65700,112,0,0,0,0
i,0x00000000,1716937204.471576,10.0.2.15,22,10.0.2.2,57953,1073725440,16318,0,65535,65700,0,0,4,1460,1,0,0,23,33580,768,65700,112,768,0,0,0
o,0x00000000,1716937204.471673,10.0.2.15,22,10.0.2.2,57953,1073725440,17086,0,65535,65700,0,0,4,1460,1,0,0,23,33580,44,65700,0,0,0,0,0
i,0x00000000,1716937204.472522,10.0.2.15,22,10.0.2.2,57953,1073725440,17086,0,65535,65700,0,0,4,1460,1,0,0,23,33580,44,65700,0,44,0,0,0
i,0x00000000,1716937204.473143,10.0.2.15,22,10.0.2.2,57953,1073725440,17130,0,65535,65700,0,0,4,1460,1,0,0,23,33580,0,65700,0,0,0,0,0
o,0x00000000,1716937204.473573,10.0.2.15,22,10.0.2.2,57953,1073725440,17130,0,65535,65700,0,0,4,1460,1,0,4,23,33580,72,65700,0,0,0,0,0
i,0x00000000,1716937204.474107,10.0.2.15,22,10.0.2.2,57953,1073725440,17130,0,65535,65700,0,0,4,1460,1,0,4,23,33580,72,65700,0,72,0,0,0
i,0x00000000,1716937204.474618,10.0.2.15,22,10.0.2.2,57953,1073725440,17202,0,65535,65700,0,0,4,1460,1,0,4,24,33580,0,65700,0,0,0,0,0
o,0x00000000,1716937204.480737,172.16.1.2,53419,172.16.3.2,5101,1073725440,1073725440,0,0,0,0,0,2,536,0,1,672,100,32768,0,65536,0,0,0,0,0
o,0x00000000,1716937204.507281,10.0.2.15,22,10.0.2.2,57953,1073725440,17202,0,65535,65700,0,0,4,1460,1,0,5,24,33580,0,65700,0,0,0,0,0
i,0x00000000,1716937204.599569,172.16.1.2,53419,172.16.3.2,5101,1073725440,1073725440,0,0,0,0,0,2,536,0,1,672,100,32768,0,65536,0,1,0,0,0
o,0x00000000,1716937204.599587,172.16.1.2,53419,172.16.3.2,5101,23182,14480,0,65535,65700,6,6,4,1460,467,1,993,44,33580,0,65700,0,0,0,0,0
o,0x00000000,1716937204.599971,172.16.1.2,53419,172.16.3.2,5101,23182,14480,0,65535,65700,6,6,4,1460,467,1,996,44,33580,37,65700,0,0,0,0,0
i,0x00000000,1716937204.719057,172.16.1.2,53419,172.16.3.2,5101,23182,14480,0,65535,65700,6,6,4,1460,467,1,996,44,33580,37,65700,0,37,0,0,0
o,0x00000000,1716937204.719203,172.16.1.2,53419,172.16.3.2,5101,23182,14517,0,65728,65728,6,6,4,1460,457,1,996,44,33580,4,65700,0,0,0,0,0
o,0x00000000,1716937204.719547,172.16.1.2,53419,172.16.3.2,5101,23182,14517,0,65728,65728,6,6,4,1460,457,1,996,44,33580,128,65700,0,4,0,0,0
i,0x00000000,1716937204.839217,172.16.1.2,53419,172.16.3.2,5101,23182,14517,0,65728,65728,6,6,4,1460,457,1,996,44,33580,128,65700,0,128,0,0,0
i,0x00000000,1716937204.839231,172.16.1.2,53419,172.16.3.2,5101,23182,14645,0,65600,65728,6,6,4,1460,444,1,996,44,33580,0,65700,0,0,0,0,0
o,0x00000000,1716937204.839338,172.16.1.2,41464,172.16.3.2,5101,1073725440,1073725440,0,0,0,0,0,2,536,0,1,672,100,32768,0,65536,0,0,0,0,0
o,0x00000000,1716937204.876971,172.16.1.2,53419,172.16.3.2,5101,23182,14645,0,65728,65728,6,6,4,1460,444,1,997,44,33580,0,65700,0,0,0,0,0
i,0x00000000,1716937204.960043,172.16.1.2,41464,172.16.3.2,5101,1073725440,1073725440,0,0,0,0,0,2,536,0,1,672,100,32768,0,65536,0,1,0,0,0
o,0x00000000,1716937204.960058,172.16.1.2,41464,172.16.3.2,5101,23182,14480,0,65535,65700,6,6,4,1460,467,1,993,44,33580,0,65700,0,0,0,0,0
o,0x00000000,1716937204.960199,172.16.1.2,41464,172.16.3.2,5101,23182,14480,0,65535,65700,6,6,4,1460,467,1,992,44,33580,37,65700,0,0,0,0,0
i,0x00000000,1716937205.079803,172.16.1.2,53419,172.16.3.2,5101,23182,14645,0,65728,65728,6,6,4,1460,444,1,996,44,33580,0,65700,0,0,0,0,0
i,0x00000000,1716937205.079815,172.16.1.2,53419,172.16.3.2,5101,23182,14645,0,65728,65728,6,6,4,1460,444,1,996,44,33580,0,65700,1,0,0,0,0
o,0x00000000,1716937205.079822,172.16.1.2,53419,172.16.3.2,5101,23182,14645,0,65728,65728,6,6,4,1460,444,1,997,44,33580,0,65700,2,0,0,0,0
o,0x00000000,1716937205.080092,172.16.1.2,41464,172.16.3.2,5101,23182,14480,0,65535,65700,6,6,4,1460,467,1,992,44,33580,33580,65700,0,37,0,0,0
o,0x00000000,1716937205.080426,172.16.1.2,41464,172.16.3.2,5101,23182,14480,0,65535,65700,6,6,4,1460,467,1,992,44,33580,33580,65700,0,1485,0,0,0
o,0x00000000,1716937205.080748,172.16.1.2,41464,172.16.3.2,5101,23182,14480,0,65535,65700,6,6,4,1460,467,1,992,44,33580,33580,65700,0,2933,0,0,0
o,0x00000000,1716937205.081065,172.16.1.2,41464,172.16.3.2,5101,23182,14480,0,65535,65700,6,6,4,1460,467,1,992,44,33580,33580,65700,0,4381,0,0,0
o,0x00000000,1716937205.081380,172.16.1.2,41464,172.16.3.2,5101,23182,14480,0,65535,65700,6,6,4,1460,467,1,992,44,33580,33580,65700,0,5829,0,0,0
o,0x00000000,1716937205.081727,172.16.1.2,41464,172.16.3.2,5101,23182,14480,0,65535,65700,6,6,4,1460,467,1,992,44,33580,33580,65700,0,7277,0,0,0
o,0x00000000,1716937205.082169,172.16.1.2,41464,172.16.3.2,5101,23182,14480,0,65535,65700,6,6,4,1460,467,1,992,44,33580,33580,65700,0,8725,0,0,0
o,0x00000000,1716937205.082488,172.16.1.2,41464,172.16.3.2,5101,23182,14480,0,65535,65700,6,6,4,1460,467,1,992,44,33580,33580,65700,0,10173,0,0,0
o,0x00000000,1716937205.082803,172.16.1.2,41464,172.16.3.2,5101,23182,14480,0,65535,65700,6,6,4,1460,467,1,992,44,33580,33580,65700,0,11621,0,0,0
i,0x00000000,1716937205.109611,172.16.1.2,41464,172.16.3.2,5101,23182,14480,0,65535,65700,6,6,4,1460,467,1,992,44,33580,33580,65700,0,13069,0,0,0
o,0x00000000,1716937205.109619,172.16.1.2,41464,172.16.3.2,5101,23182,14517,0,65728,65728,6,6,4,1460,465,1,992,42,33580,33543,65700,0,13032,0,0,0
i,0x00000000,1716937205.320216,172.16.1.2,41464,172.16.3.2,5101,23182,14517,0,65728,65728,6,6,4,1460,465,1,992,42,33580,33543,65700,0,14480,0,0,0
o,0x00000000,1716937205.320233,172.16.1.2,41464,172.16.3.2,5101,23182,17413,0,64256,65728,6,6,4,1460,503,1,992,51,33580,30647,65700,0,11584,0,0,0
o,0x00000000,1716937205.320544,172.16.1.2,41464,172.16.3.2,5101,23182,17413,0,64256,65728,6,6,4,1460,503,1,992,51,33580,30647,65700,0,13032,0,0,0
o,0x00000000,1716937205.320774,172.16.1.2,41464,172.16.3.2,5101,23182,17413,0,64256,65728,6,6,4,1460,503,1,992,51,41772,30647,65700,0,14480,0,0,0
o,0x00000000,1716937205.320999,172.16.1.2,41464,172.16.3.2,5101,23182,17413,0,64256,65728,6,6,4,1460,503,1,992,51,41772,30647,65700,0,15928,0,0,0
i,0x00000000,1716937205.339244,172.16.1.2,41464,172.16.3.2,5101,23182,17413,0,64256,65728,6,6,4,1460,503,1,992,51,41772,41772,65700,0,17376,0,0,0
o,0x00000000,1716937205.339254,172.16.1.2,41464,172.16.3.2,5101,23182,20309,0,64256,65728,6,6,4,1460,541,1,992,58,41772,38876,65700,0,14480,0,0,0
o,0x00000000,1716937205.339486,172.16.1.2,41464,172.16.3.2,5101,23182,20309,0,64256,65728,6,6,4,1460,541,1,992,58,41772,38876,65700,0,15928,0,0,0
o,0x00000000,1716937205.339716,172.16.1.2,41464,172.16.3.2,5101,23182,20309,0,64256,65728,6,6,4,1460,541,1,992,58,41772,38876,65700,0,17376,0,0,0
o,0x00000000,1716937205.339964,172.16.1.2,41464,172.16.3.2,5101,23182,20309,0,64256,65728,6,6,4,1460,541,1,992,58,49964,38876,65700,0,18824,0,0,0
i,0x00000000,1716937205.368883,172.16.1.2,41464,172.16.3.2,5101,23182,20309,0,64256,65728,6,6,4,1460,541,1,992,58,49964,49964,65700,0,20272,0,0,0
o,0x00000000,1716937205.368890,172.16.1.2,41464,172.16.3.2,5101,23182,23205,0,64256,65728,6,6,4,1460,590,1,992,66,49964,47068,65700,0,17376,0,0,0
o,0x00000000,1716937205.369127,172.16.1.2,41464,172.16.3.2,5101,23182,23205,0,64256,65728,6,6,4,1460,590,1,992,66,49964,47068,65700,0,18824,0,0,0
o,0x00000000,1716937205.369370,172.16.1.2,41464,172.16.3.2,5101,23182,23205,0,64256,65728,6,6,4,1460,590,1,992,66,49964,47068,65700,0,20272,0,0,0
o,0x00000000,1716937205.369597,172.16.1.2,41464,172.16.3.2,5101,23182,23205,0,64256,65728,6,6,4,1460,590,1,992,66,49964,47068,65700,0,21720,0,0,0
i,0x00000000,1716937205.388646,172.16.1.2,41464,172.16.3.2,5101,23182,23205,0,64256,65728,6,6,4,1460,590,1,992,66,49964,49964,65700,0,23168,0,0,0
o,0x00000000,1716937205.388653,172.16.1.2,41464,172.16.3.2,5101,23182,23205,0,64256,65728,6,6,4,1460,641,1,992,74,49964,47068,65700,0,20272,0,0,0
o,0x00000000,1716937205.388889,172.16.1.2,41464,172.16.3.2,5101,23182,23205,0,64256,65728,6,6,4,1460,641,1,992,74,49964,47068,65700,0,21720,0,0,0
i,0x00000000,1716937205.419574,172.16.1.2,41464,172.16.3.2,5101,23182,23205,0,64256,65728,6,6,4,1460,641,1,992,74,49964,49964,65700,0,23168,0,0,0
o,0x00000000,1716937205.419581,172.16.1.2,41464,172.16.3.2,5101,23182,23205,0,64256,65728,6,6,4,1460,697,1,992,81,49964,47068,65700,0,20272,0,0,0
o,0x00000000,1716937205.419817,172.16.1.2,41464,172.16.3.2,5101,23182,23205,0,64256,65728,6,6,4,1460,697,1,992,81,49964,47068,65700,0,21720,0,0,0
i,0x00000000,1716937205.539903,172.16.1.2,41464,172.16.3.2,5101,23182,23205,0,64256,65728,6,6,4,1460,697,1,992,81,49964,49964,65700,0,23168,0,0,0
o,0x00000000,1716937205.539920,172.16.1.2,41464,172.16.3.2,5101,23182,23205,0,64256,65728,6,6,4,1460,698,1,992,71,49964,47068,65700,0,20272,0,0,0
o,0x00000000,1716937205.540160,172.16.1.2,41464,172.16.3.2,5101,23182,23205,0,64256,65728,6,6,4,1460,698,1,992,71,49964,47068,65700,0,21720,0,0,0
i,0x00000000,1716937205.620013,172.16.1.2,41464,172.16.3.2,5101,23182,23205,0,64256,65728,6,6,4,1460,698,1,992,71,49964,49964,65700,0,23168,0,0,0
o,0x00000000,1716937205.620029,172.16.1.2,41464,172.16.3.2,5101,23182,23205,0,65728,65728,6,6,4,1460,731,1,992,73,49964,48516,65700,0,21720,0,0,0
i,0x00000000,1716937205.648605,172.16.1.2,41464,172.16.3.2,5101,23182,23205,0,65728,65728,6,6,4,1460,731,1,992,73,49964,48516,65700,0,23168,0,0,0
o,0x00000000,1716937205.648616,172.16.1.2,41464,172.16.3.2,5101,23182,23205,0,64256,65728,6,6,4,1460,772,1,992,77,49964,45620,65700,0,20272,0,0,0
o,0x00000000,1716937205.648870,172.16.1.2,41464,172.16.3.2,5101,23182,23205,0,64256,65728,6,6,4,1460,772,1,992,77,49964,45620,65700,0,21720,0,0,0
i,0x00000000,1716937205.679715,172.16.1.2,41464,172.16.3.2,5101,23182,23205,0,64256,65728,6,6,4,1460,772,1,992,77,58156,58156,65700,0,23168,0,0,0
o,0x00000000,1716937205.679731,172.16.1.2,41464,172.16.3.2,5101,23182,23205,0,65728,65728,6,6,4,1460,812,1,992,80,58156,56708,65700,0,21720,0,0,0
i,0x00000000,1716937205.699374,172.16.1.2,41464,172.16.3.2,5101,23182,23205,0,65728,65728,6,6,4,1460,812,1,992,80,58156,56708,65700,0,23168,0,0,0
o,0x00000000,1716937205.699393,172.16.1.2,41464,172.16.3.2,5101,23182,23205,0,64256,65728,6,6,4,1460,855,1,992,83,58156,53812,65700,0,20272,0,0,0
o,0x00000000,1716937205.699707,172.16.1.2,41464,172.16.3.2,5101,23182,23205,0,64256,65728,6,6,4,1460,855,1,992,83,58156,53812,65700,0,21720,0,0,0
i,0x00000000,1716937205.729289,172.16.1.2,41464,172.16.3.2,5101,23182,23205,0,64256,65728,6,6,4,1460,855,1,992,83,58156,58156,65700,0,23168,0,0,0
o,0x00000000,1716937205.729298,172.16.1.2,41464,172.16.3.2,5101,23182,23205,0,64256,65728,6,6,4,1460,893,1,992,85,58156,55260,65700,0,20272,0,0,0
o,0x00000000,1716937205.729534,172.16.1.2,41464,172.16.3.2,5101,23182,23205,0,64256,65728,6,6,4,1460,893,1,992,85,58156,55260,65700,0,21720,0,0,0
i,0x00000000,1716937205.760744,172.16.1.2,41464,172.16.3.2,5101,23182,23205,0,64256,65728,6,6,4,1460,893,1,992,85,58156,58156,65700,0,23168,0,0,0
o,0x00000000,1716937205.760752,172.16.1.2,41464,172.16.3.2,5101,23182,23205,0,64256,65728,6,6,4,1460,938,1,992,88,58156,55260,65700,0,20272,0,0,0
o,0x00000000,1716937205.761003,172.16.1.2,41464,172.16.3.2,5101,23182,23205,0,64256,65728,6,6,4,1460,938,1,992,88,58156,55260,65700,0,21720,0,0,0
i,0x00000000,1716937205.788539,172.16.1.2,41464,172.16.3.2,5101,23182,23205,0,64256,65728,6,6,4,1460,938,1,992,88,58156,58156,65700,0,23168,0,0,0
o,0x00000000,1716937205.788556,172.16.1.2,41464,172.16.3.2,5101,23182,24665,0,65728,65728,6,6,4,1460,981,1,992,91,58156,56708,65700,0,21720,0,0,0
o,0x00000000,1716937205.788798,172.16.1.2,41464,172.16.3.2,5101,23182,24665,0,65728,65728,6,6,4,1460,981,1,992,91,58156,56708,65700,0,23168,0,0,0
i,0x00000000,1716937205.810139,172.16.1.2,41464,172.16.3.2,5101,23182,24665,0,65728,65728,6,6,4,1460,981,1,992,91,58156,56708,65700,0,24616,0,0,0
o,0x00000000,1716937205.810147,172.16.1.2,41464,172.16.3.2,5101,23182,24665,0,64256,65728,6,6,4,1460,1027,1,992,94,58156,53812,65700,0,21720,0,0,0
o,0x00000000,1716937205.810402,172.16.1.2,41464,172.16.3.2,5101,23182,24665,0,64256,65728,6,6,4,1460,1027,1,992,94,58156,53812,65700,0,23168,0,0,0
i,0x00000000,1716937205.860193,172.16.1.2,41464,172.16.3.2,5101,23182,24665,0,64256,65728,6,6,4,1460,1027,1,992,94,58156,58156,65700,0,24616,0,0,0
o,0x00000000,1716937205.860202,172.16.1.2,41464,172.16.3.2,5101,23182,24665,0,65728,65728,6,6,4,1460,1075,1,992,97,58156,56708,65700,0,23168,0,0,0
i,0x00000000,1716937205.921113,172.16.1.2,41464,172.16.3.2,5101,23182,24665,0,65728,65728,6,6,4,1460,1075,1,992,97,58156,56708,65700,0,24616,0,0,0
o,0x00000000,1716937205.921127,172.16.1.2,41464,172.16.3.2,5101,23182,24665,0,64256,65728,6,6,4,1460,1093,1,992,91,58156,53812,65700,0,21720,0,0,0
o,0x00000000,1716937205.921369,172.16.1.2,41464,172.16.3.2,5101,23182,24665,0,64256,65728,6,6,4,1460,1093,1,992,91,58156,53812,65700,0,23168,0,0,0
i,0x00000000,1716937205.978938,172.16.1.2,41464,172.16.3.2,5101,23182,24665,0,64256,65728,6,6,4,1460,1093,1,992,91,58156,58156,65700,0,24616,0,0,0
o,0x00000000,1716937205.978945,172.16.1.2,41464,172.16.3.2,5101,23182,24665,0,64256,65728,6,6,4,1460,1101,1,992,84,58156,55260,65700,0,21720,0,0,0
o,0x00000000,1716937205.979187,172.16.1.2,41464,172.16.3.2,5101,23182,24665,0,64256,65728,6,6,4,1460,1101,1,992,84,58156,55260,65700,0,23168,0,0,0
i,0x00000000,1716937206.028829,172.16.1.2,41464,172.16.3.2,5101,23182,24665,0,64256,65728,6,6,4,1460,1101,1,992,84,58156,58156,65700,0,24616,0,0,0
o,0x00000000,1716937206.028895,172.16.1.2,41464,172.16.3.2,5101,23182,24665,0,64256,65728,6,6,4,1460,1116,1,992,81,58156,55260,65700,0,21720,0,0,0
o,0x00000000,1716937206.029205,172.16.1.2,41464,172.16.3.2,5101,23182,24665,0,64256,65728,6,6,4,1460,1116,1,992,81,58156,55260,65700,0,23168,0,0,0
i,0x00000000,1716937206.079330,172.16.1.2,41464,172.16.3.2,5101,23182,24665,0,64256,65728,6,6,4,1460,1116,1,992,81,58156,58156,65700,0,24616,0,0,0
o,0x00000000,1716937206.079348,172.16.1.2,41464,172.16.3.2,5101,23182,24665,0,64256,65728,6,6,4,1460,1125,1,992,77,58156,55260,65700,0,21720,0,0,0
o,0x00000000,1716937206.079590,172.16.1.2,41464,172.16.3.2,5101,23182,24665,0,64256,65728,6,6,4,1460,1125,1,992,77,58156,55260,65700,0,23168,0,0,0
i,0x00000000,1716937206.120071,172.16.1.2,41464,172.16.3.2,5101,23182,24665,0,64256,65728,6,6,4,1460,1125,1,992,77,58156,58156,65700,0,24616,0,0,0
o,0x00000000,1716937206.120082,172.16.1.2,41464,172.16.3.2,5101,23182,24665,0,64256,65728,6,6,4,1460,1141,1,992,76,58156,55260,65700,0,21720,0,0,0
o,0x00000000,1716937206.120399,172.16.1.2,41464,172.16.3.2,5101,23182,24665,0,64256,65728,6,6,4,1460,1141,1,992,76,58156,55260,65700,0,23168,0,0,0
i,0x00000000,1716937206.159101,172.16.1.2,41464,172.16.3.2,5101,23182,24665,0,64256,65728,6,6,4,1460,1141,1,992,76,58156,58156,65700,0,24616,0,0,0
o,0x00000000,1716937206.159111,172.16.1.2,41464,172.16.3.2,5101,23182,24665,0,65728,65728,6,6,4,1460,1159,1,992,76,58156,56708,65700,0,23168,0,0,0
i,0x00000000,1716937206.169448,172.16.1.2,41464,172.16.3.2,5101,23182,24665,0,65728,65728,6,6,4,1460,1159,1,992,76,58156,56708,65700,0,24616,0,0,0
o,0x00000000,1716937206.169453,172.16.1.2,41464,172.16.3.2,5101,23182,27512,0,65728,65728,6,6,4,1460,1159,1,992,76,58156,56708,65700,0,24616,0,0,0
o,0x00000000,1716937206.169703,172.16.1.2,41464,172.16.3.2,5101,23182,27512,0,65728,65728,6,6,4,1460,1159,1,992,76,58156,56708,65700,0,26064,0,0,0
i,0x00000000,1716937206.189431,172.16.1.2,41464,172.16.3.2,5101,23182,24665,0,65728,65728,6,6,4,1460,1159,1,992,76,58156,56708,65700,0,27512,0,0,0
o,0x00000000,1716937206.189436,172.16.1.2,41464,172.16.3.2,5101,11584,1448,0,65728,65728,6,6,4,1460,1159,1,537920480,76,58156,56708,65700,0,27512,0,0,0
i,0x00000000,1716937206.210018,172.16.1.2,41464,172.16.3.2,5101,11584,1448,0,65728,65728,6,6,4,1460,1159,1,537920480,76,58156,56708,65700,0,27512,0,0,0
i,0x00000000,1716937206.239257,172.16.1.2,41464,172.16.3.2,5101,11584,1448,0,65728,65728,6,6,4,1460,1159,1,537920480,76,58156,56708,65700,0,27512,0,0,0
o,0x00000000,1716937206.239262,172.16.1.2,41464,172.16.3.2,5101,11584,2896,0,65728,65728,6,6,4,1460,1159,1,537920480,76,58156,56708,65700,0,27512,0,0,0
i,0x00000000,1716937206.289825,172.16.1.2,41464,172.16.3.2,5101,11584,2896,0,65728,65728,6,6,4,1460,1159,1,537920480,76,58156,56708,65700,0,27512,0,0,0
i,0x00000000,1716937206.358619,172.16.1.2,41464,172.16.3.2,5101,11584,2896,0,65728,65728,6,6,4,1460,1159,1,537920480,76,58156,56708,65700,0,27512,0,0,0
o,0x00000000,1716937206.358629,172.16.1.2,41464,172.16.3.2,5101,11584,5792,0,65728,65728,6,6,4,1460,1159,1,537920480,76,58156,56708,65700,0,27512,0,0,0
o,0x00000000,1716937206.358841,172.16.1.2,41464,172.16.3.2,5101,11584,5792,0,65728,65728,6,6,4,1460,1159,1,537920480,76,58156,56708,65700,0,27512,0,0,0
i,0x00000000,1716937206.359201,172.16.1.2,41464,172.16.3.2,5101,11584,5792,0,65728,65728,6,6,4,1460,1159,1,537920480,76,58156,56708,65700,0,27512,0,0,0
o,0x00000000,1716937206.359214,172.16.1.2,41464,172.16.3.2,5101,11584,8688,0,65728,65728,6,6,4,1460,1159,1,537920480,76,58156,56708,65700,0,27512,0,0,0
o,0x00000000,1716937206.359314,172.16.1.2,41464,172.16.3.2,5101,11584,8688,0,65728,65728,6,6,4,1460,1159,1,537920480,76,58156,56708,65700,0,27512,0,0,0
i,0x00000000,1716937206.379351,172.16.1.2,41464,172.16.3.2,5101,11584,8688,0,65728,65728,6,6,4,1460,1159,1,537920480,76,58156,56708,65700,0,27512,0,0,0
o,0x00000000,1716937206.379359,172.16.1.2,41464,172.16.3.2,5101,11584,10136,0,65728,65728,6,6,4,1460,1159,1,537920480,76,58156,56708,65700,0,27512,0,0,0
i,0x00000000,1716937206.379618,172.16.1.2,41464,172.16.3.2,5101,11584,10136,0,65728,65728,6,6,4,1460,1159,1,537920480,76,58156,56708,65700,0,27512,0,0,0
o,0x00000000,1716937206.379622,172.16.1.2,41464,172.16.3.2,5101,11584,10136,0,65728,65728,6,6,4,1460,1159,1,537920481,76,58156,56708,65700,0,27512,0,0,0
i,0x00000000,1716937206.409334,172.16.1.2,41464,172.16.3.2,5101,11584,10136,0,58496,65728,6,6,4,1460,1087,1,537920480,86,58156,58156,65700,0,20272,0,0,0
o,0x00000000,1716937206.409341,172.16.1.2,41464,172.16.3.2,5101,11584,10136,0,58496,65728,6,6,4,1460,1087,1,537920481,86,58156,58156,65700,0,20272,0,0,0
i,0x00000000,1716937206.520642,172.16.1.2,41464,172.16.3.2,5101,11584,10136,0,64256,65728,6,6,4,1460,1020,1,537920480,93,58156,56708,65700,0,18824,0,0,0
o,0x00000000,1716937206.520662,172.16.1.2,41464,172.16.3.2,5101,11584,10136,0,64256,65728,6,6,4,1460,1020,1,537920481,93,58156,56708,65700,0,18824,0,0,0
i,0x00000000,1716937206.539585,172.16.1.2,41464,172.16.3.2,5101,11584,10136,0,62848,65728,6,6,4,1460,957,1,537920480,96,58156,58156,65700,0,17376,0,0,0
o,0x00000000,1716937206.539592,172.16.1.2,41464,172.16.3.2,5101,11584,10136,0,62848,65728,6,6,4,1460,957,1,537920481,96,58156,58156,65700,0,17376,0,0,0
i,0x00000000,1716937206.548813,172.16.1.2,41464,172.16.3.2,5101,11584,10136,0,64256,65728,6,6,4,1460,910,1,537920480,95,58156,56708,65700,0,17376,0,0,0
o,0x00000000,1716937206.548819,172.16.1.2,41464,172.16.3.2,5101,11584,10136,0,64256,65728,6,6,4,1460,910,1,537920481,95,58156,56708,65700,0,17376,0,0,0
i,0x00000000,1716937206.559034,172.16.1.2,41464,172.16.3.2,5101,11584,10136,0,62848,65728,6,6,4,1460,873,1,537920480,91,58156,58156,65700,0,15928,0,0,0
o,0x00000000,1716937206.559039,172.16.1.2,41464,172.16.3.2,5101,11584,10136,0,62848,65728,6,6,4,1460,873,1,537920481,91,58156,58156,65700,0,15928,0,0,0
i,0x00000000,1716937206.588296,172.16.1.2,41464,172.16.3.2,5101,11584,10136,0,64256,65728,6,6,4,1460,844,1,537920480,87,58156,56708,65700,0,15928,0,0,0
o,0x00000000,1716937206.588303,172.16.1.2,41464,172.16.3.2,5101,11584,10136,0,64256,65728,6,6,4,1460,844,1,537920481,87,58156,56708,65700,0,15928,0,0,0
i,0x00000000,1716937206.588546,172.16.1.2,41464,172.16.3.2,5101,11584,10136,0,64256,65728,6,6,4,1460,823,1,537920480,81,58156,55260,65700,0,15928,0,0,0
o,0x00000000,1716937206.588549,172.16.1.2,41464,172.16.3.2,5101,11584,10136,0,64256,65728,6,6,4,1460,823,1,537920481,81,58156,55260,65700,0,15928,0,0,0
i,0x00000000,1716937206.630467,172.16.1.2,41464,172.16.3.2,5101,11584,10136,0,62848,65728,6,6,4,1460,805,1,537920480,76,58156,58156,65700,0,14480,0,0,0
o,0x00000000,1716937206.630472,172.16.1.2,41464,172.16.3.2,5101,11584,11584,0,62848,65728,6,6,4,1460,805,1,537920481,76,58156,58156,65700,0,14480,0,0,0
o,0x00000000,1716937206.630572,172.16.1.2,41464,172.16.3.2,5101,11584,11584,0,61376,65728,6,6,4,1460,793,1,537920480,71,58156,53812,65700,0,10136,0,0,0
i,0x00000000,1716937206.659140,172.16.1.2,41464,172.16.3.2,5101,11584,11584,0,61376,65728,6,6,4,1460,793,1,537920480,71,58156,58156,65700,0,11584,0,0,0
o,0x00000000,1716937206.659146,172.16.1.2,41464,172.16.3.2,5101,11584,13032,0,61376,65728,6,6,4,1460,793,1,537920480,71,58156,58156,65700,0,11584,0,0,0
o,0x00000000,1716937206.659386,172.16.1.2,41464,172.16.3.2,5101,11584,13032,0,61376,65728,6,6,4,1460,793,1,537920480,71,58156,58156,65700,0,11584,0,0,0
i,0x00000000,1716937206.689166,172.16.1.2,41464,172.16.3.2,5101,11584,13032,0,61376,65728,6,6,4,1460,793,1,537920480,71,58156,58156,65700,0,13032,0,0,0
o,0x00000000,1716937206.689182,172.16.1.2,41464,172.16.3.2,5101,11584,14480,0,61376,65728,6,6,4,1460,793,1,537920480,71,58156,58156,65700,0,13032,0,0,0
i,0x00000000,1716937206.709091,172.16.1.2,41464,172.16.3.2,5101,11584,14480,0,61376,65728,6,6,4,1460,793,1,537920480,71,58156,58156,65700,0,14480,0,0,0
o,0x00000000,1716937206.709100,172.16.1.2,41464,172.16.3.2,5101,11584,15928,0,61376,65728,6,6,4,1460,793,1,537920480,71,58156,58156,65700,0,14480,0,0,0
i,0x00000000,1716937206.729557,172.16.1.2,41464,172.16.3.2,5101,11584,15928,0,61376,65728,6,6,4,1460,793,1,537920480,71,58156,58156,65700,0,15928,0,0,0
o,0x00000000,1716937206.729566,172.16.1.2,41464,172.16.3.2,5101,11584,17376,0,61376,65728,6,6,4,1460,793,1,537920480,71,58156,58156,65700,0,15928,0,0,0
i,0x00000000,1716937206.758713,172.16.1.2,41464,172.16.3.2,5101,11584,17376,0,61376,65728,6,6,4,1460,793,1,537920480,71,58156,58156,65700,0,17376,0,0,0
o,0x00000000,1716937206.758719,172.16.1.2,41464,172.16.3.2,5101,11584,18824,0,61376,65728,6,6,4,1460,793,1,537920480,71,58156,58156,65700,0,17376,0,0,0
i,0x00000000,1716937206.779216,172.16.1.2,41464,172.16.3.2,5101,11584,18824,0,61376,65728,6,6,4,1460,793,1,537920480,71,58156,58156,65700,0,18824,0,0,0
o,0x00000000,1716937206.779224,172.16.1.2,41464,172.16.3.2,5101,11584,20272,0,61376,65728,6,6,4,1460,793,1,537920480,71,58156,58156,65700,0,18824,0,0,0
i,0x00000000,1716937206.809527,172.16.1.2,41464,172.16.3.2,5101,11584,20272,0,61376,65728,6,6,4,1460,793,1,537920480,71,58156,58156,65700,0,20272,0,0,0
o,0x00000000,1716937206.809537,172.16.1.2,41464,172.16.3.2,5101,11584,21720,0,61376,65728,6,6,4,1460,793,1,537920480,71,58156,58156,65700,0,20272,0,0,0
i,0x00000000,1716937206.858356,172.16.1.2,41464,172.16.3.2,5101,11584,21720,0,61376,65728,6,6,4,1460,793,1,537920480,71,58156,58156,65700,0,21720,0,0,0
o,0x00000000,1716937206.858365,172.16.1.2,41464,172.16.3.2,5101,11584,11596,0,54144,65728,6,6,4,1460,774,1,992,69,58156,46572,65700,0,10136,0,0,0
i,0x00000000,1716937206.889096,172.16.1.2,41464,172.16.3.2,5101,11584,11596,0,54144,65728,6,6,4,1460,774,1,992,69,58156,58156,65700,0,11584,0,0,0
o,0x00000000,1716937206.889109,172.16.1.2,41464,172.16.3.2,5101,11584,13056,0,64256,65728,6,6,4,1460,766,1,992,64,58156,55260,65700,0,8688,0,0,0
o,0x00000000,1716937206.889355,172.16.1.2,41464,172.16.3.2,5101,11584,13056,0,64256,65728,6,6,4,1460,766,1,992,64,58156,55260,65700,0,10136,0,0,0
o,0x00000000,1716937206.889582,172.16.1.2,41464,172.16.3.2,5101,11584,13056,0,64256,65728,6,6,4,1460,766,1,992,64,58156,55260,65700,0,11584,0,0,0
i,0x00000000,1716937206.939115,172.16.1.2,41464,172.16.3.2,5101,11584,13056,0,64256,65728,6,6,4,1460,766,1,992,64,58156,58156,65700,0,13032,0,0,0
o,0x00000000,1716937206.939124,172.16.1.2,41464,172.16.3.2,5101,11584,13056,0,64256,65728,6,6,4,1460,763,1,992,60,58156,55260,65700,0,10136,0,0,0
o,0x00000000,1716937206.939400,172.16.1.2,41464,172.16.3.2,5101,11584,13056,0,64256,65728,6,6,4,1460,763,1,992,60,58156,55260,65700,0,11584,0,0,0
i,0x00000000,1716937206.969265,172.16.1.2,41464,172.16.3.2,5101,11584,13056,0,64256,65728,6,6,4,1460,763,1,992,60,58156,58156,65700,0,13032,0,0,0
o,0x00000000,1716937206.969272,172.16.1.2,41464,172.16.3.2,5101,11584,13056,0,64256,65728,6,6,4,1460,752,1,992,58,58156,55260,65700,0,10136,0,0,0
o,0x00000000,1716937206.969523,172.16.1.2,41464,172.16.3.2,5101,11584,13056,0,64256,65728,6,6,4,1460,752,1,992,58,58156,55260,65700,0,11584,0,0,0
i,0x00000000,1716937207.028546,172.16.1.2,41464,172.16.3.2,5101,11584,13056,0,64256,65728,6,6,4,1460,752,1,992,58,58156,58156,65700,0,13032,0,0,0
o,0x00000000,1716937207.028566,172.16.1.2,41464,172.16.3.2,5101,11584,13056,0,65728,65728,6,6,4,1460,746,1,992,56,58156,56708,65700,0,11584,0,0,0
i,0x00000000,1716937207.079300,172.16.1.2,41464,172.16.3.2,5101,11584,13056,0,65728,65728,6,6,4,1460,746,1,992,56,58156,56708,65700,0,13032,0,0,0
o,0x00000000,1716937207.079324,172.16.1.2,41464,172.16.3.2,5101,11584,13056,0,65728,65728,6,6,4,1460,741,1,992,54,58156,55260,65700,0,11584,0,0,0
i,0x00000000,1716937207.098744,172.16.1.2,41464,172.16.3.2,5101,11584,13056,0,65728,65728,6,6,4,1460,741,1,992,54,58156,58156,65700,0,13032,0,0,0
o,0x00000000,1716937207.098752,172.16.1.2,41464,172.16.3.2,5101,11584,14516,0,64256,65728,6,6,4,1460,733,1,992,53,58156,55260,65700,0,10136,0,0,0
o,0x00000000,1716937207.099005,172.16.1.2,41464,172.16.3.2,5101,11584,14516,0,64256,65728,6,6,4,1460,733,1,992,53,58156,55260,65700,0,11584,0,0,0
o,0x00000000,1716937207.099240,172.16.1.2,41464,172.16.3.2,5101,11584,14516,0,64256,65728,6,6,4,1460,733,1,992,53,58156,55260,65700,0,13032,0,0,0
i,0x00000000,1716937207.138454,172.16.1.2,41464,172.16.3.2,5101,11584,14516,0,64256,65728,6,6,4,1460,733,1,992,53,58156,58156,65700,0,14480,0,0,0
o,0x00000000,1716937207.138474,172.16.1.2,41464,172.16.3.2,5101,11584,14516,0,64256,65728,6,6,4,1460,742,1,992,53,58156,55260,65700,0,11584,0,0,0
o,0x00000000,1716937207.138722,172.16.1.2,41464,172.16.3.2,5101,11584,14516,0,64256,65728,6,6,4,1460,742,1,992,53,58156,55260,65700,0,13032,0,0,0
i,0x00000000,1716937207.189939,172.16.1.2,41464,172.16.3.2,5101,11584,14516,0,64256,65728,6,6,4,1460,742,1,992,53,58156,58156,65700,0,14480,0,0,0
o,0x00000000,1716937207.189966,172.16.1.2,41464,172.16.3.2,5101,11584,14516,0,64256,65728,6,6,4,1460,750,1,992,52,58156,55260,65700,0,11584,0,0,0
o,0x00000000,1716937207.190233,172.16.1.2,41464,172.16.3.2,5101,11584,14516,0,64256,65728,6,6,4,1460,750,1,992,52,58156,55260,65700,0,13032,0,0,0
i,0x00000000,1716937207.218173,172.16.1.2,41464,172.16.3.2,5101,11584,14516,0,64256,65728,6,6,4,1460,750,1,992,52,58156,58156,65700,0,14480,0,0,0
o,0x00000000,1716937207.218184,172.16.1.2,41464,172.16.3.2,5101,11584,14516,0,65728,65728,6,6,4,1460,757,1,992,52,58156,56708,65700,0,13032,0,0,0
i,0x00000000,1716937207.268896,172.16.1.2,41464,172.16.3.2,5101,11584,14516,0,65728,65728,6,6,4,1460,757,1,992,52,58156,56708,65700,0,14480,0,0,0
o,0x00000000,1716937207.268914,172.16.1.2,41464,172.16.3.2,5101,11584,14516,0,64256,65728,6,6,4,1460,755,1,992,50,58156,53812,65700,0,11584,0,0,0
o,0x00000000,1716937207.269207,172.16.1.2,41464,172.16.3.2,5101,11584,14516,0,64256,65728,6,6,4,1460,755,1,992,50,58156,53812,65700,0,13032,0,0,0
i,0x00000000,1716937207.319293,172.16.1.2,41464,172.16.3.2,5101,11584,14516,0,64256,65728,6,6,4,1460,755,1,992,50,58156,58156,65700,0,14480,0,0,0
o,0x00000000,1716937207.319307,172.16.1.2,41464,172.16.3.2,5101,11584,14516,0,64256,65728,6,6,4,1460,749,1,992,50,58156,55260,65700,0,11584,0,0,0
o,0x00000000,1716937207.319551,172.16.1.2,41464,172.16.3.2,5101,11584,14516,0,64256,65728,6,6,4,1460,749,1,992,50,58156,55260,65700,0,13032,0,0,0
i,0x00000000,1716937207.358787,172.16.1.2,41464,172.16.3.2,5101,11584,14516,0,64256,65728,6,6,4,1460,749,1,992,50,58156,58156,65700,0,14480,0,0,0
o,0x00000000,1716937207.358803,172.16.1.2,41464,172.16.3.2,5101,11584,15976,0,64256,65728,6,6,4,1460,760,1,992,51,58156,55260,65700,0,11584,0,0,0
o,0x00000000,1716937207.359122,172.16.1.2,41464,172.16.3.2,5101,11584,15976,0,64256,65728,6,6,4,1460,760,1,992,51,58156,55260,65700,0,13032,0,0,0
o,0x00000000,1716937207.359388,172.16.1.2,41464,172.16.3.2,5101,11584,15976,0,64256,65728,6,6,4,1460,760,1,992,51,58156,55260,65700,0,14480,0,0,0
i,0x00000000,1716937207.429338,172.16.1.2,41464,172.16.3.2,5101,11584,15976,0,64256,65728,6,6,4,1460,760,1,992,51,58156,58156,65700,0,15928,0,0,0
o,0x00000000,1716937207.429353,172.16.1.2,41464,172.16.3.2,5101,11584,15976,0,64256,65728,6,6,4,1460,781,1,992,55,58156,55260,65700,0,13032,0,0,0
o,0x00000000,1716937207.429598,172.16.1.2,41464,172.16.3.2,5101,11584,15976,0,64256,65728,6,6,4,1460,781,1,992,55,58156,55260,65700,0,14480,0,0,0
i,0x00000000,1716937207.458721,172.16.1.2,41464,172.16.3.2,5101,11584,15976,0,64256,65728,6,6,4,1460,781,1,992,55,58156,58156,65700,0,15928,0,0,0
o,0x00000000,1716937207.458731,172.16.1.2,41464,172.16.3.2,5101,11584,15976,0,64256,65728,6,6,4,1460,788,1,992,54,58156,55260,65700,0,13032,0,0,0
o,0x00000000,1716937207.458967,172.16.1.2,41464,172.16.3.2,5101,11584,15976,0,64256,65728,6,6,4,1460,788,1,992,54,58156,55260,65700,0,14480,0,0,0
i,0x00000000,1716937207.499228,172.16.1.2,41464,172.16.3.2,5101,11584,15976,0,64256,65728,6,6,4,1460,788,1,992,54,58156,58156,65700,0,15928,0,0,0
o,0x00000000,1716937207.499245,172.16.1.2,41464,172.16.3.2,5101,11584,15976,0,64256,65728,6,6,4,1460,782,1,992,53,58156,55260,65700,0,13032,0,0,0
o,0x00000000,1716937207.499621,172.16.1.2,41464,172.16.3.2,5101,11584,15976,0,64256,65728,6,6,4,1460,782,1,992,53,58156,55260,65700,0,14480,0,0,0
i,0x00000000,1716937207.568743,172.16.1.2,41464,172.16.3.2,5101,11584,15976,0,64256,65728,6,6,4,1460,782,1,992,53,58156,58156,65700,0,15928,0,0,0
o,0x00000000,1716937207.568761,172.16.1.2,41464,172.16.3.2,5101,11584,15976,0,64256,65728,6,6,4,1460,781,1,992,51,58156,55260,65700,0,13032,0,0,0
o,0x00000000,1716937207.569001,172.16.1.2,41464,172.16.3.2,5101,11584,15976,0,64256,65728,6,6,4,1460,781,1,992,51,58156,55260,65700,0,14480,0,0,0
i,0x00000000,1716937207.608273,172.16.1.2,41464,172.16.3.2,5101,11584,15976,0,64256,65728,6,6,4,1460,781,1,992,51,58156,58156,65700,0,15928,0,0,0
o,0x00000000,1716937207.608281,172.16.1.2,41464,172.16.3.2,5101,11584,17436,0,64256,65728,6,6,4,1460,784,1,992,50,58156,55260,65700,0,13032,0,0,0
o,0x00000000,1716937207.608523,172.16.1.2,41464,172.16.3.2,5101,11584,17436,0,64256,65728,6,6,4,1460,784,1,992,50,58156,55260,65700,0,14480,0,0,0
o,0x00000000,1716937207.608763,172.16.1.2,41464,172.16.3.2,5101,11584,17436,0,64256,65728,6,6,4,1460,784,1,992,50,58156,55260,65700,0,15928,0,0,0
i,0x00000000,1716937207.669476,172.16.1.2,41464,172.16.3.2,5101,11584,17436,0,64256,65728,6,6,4,1460,784,1,992,50,58156,58156,65700,0,17376,0,0,0
o,0x00000000,1716937207.669509,172.16.1.2,41464,172.16.3.2,5101,11584,17436,0,65728,65728,6,6,4,1460,810,1,992,56,58156,56708,65700,0,15928,0,0,0
i,0x00000000,1716937207.688729,172.16.1.2,41464,172.16.3.2,5101,11584,17436,0,65728,65728,6,6,4,1460,810,1,992,56,58156,56708,65700,0,17376,0,0,0
o,0x00000000,1716937207.688742,172.16.1.2,41464,172.16.3.2,5101,11584,17436,0,64256,65728,6,6,4,1460,813,1,992,54,58156,53812,65700,0,14480,0,0,0
o,0x00000000,1716937207.688990,172.16.1.2,41464,172.16.3.2,5101,11584,17436,0,64256,65728,6,6,4,1460,813,1,992,54,58156,53812,65700,0,15928,0,0,0
i,0x00000000,1716937207.719511,172.16.1.2,41464,172.16.3.2,5101,11584,17436,0,64256,65728,6,6,4,1460,813,1,992,54,58156,58156,65700,0,17376,0,0,0
o,0x00000000,1716937207.719526,172.16.1.2,41464,172.16.3.2,5101,11584,17436,0,64256,65728,6,6,4,1460,816,1,992,53,58156,55260,65700,0,14480,0,0,0
o,0x00000000,1716937207.719908,172.16.1.2,41464,172.16.3.2,5101,11584,17436,0,64256,65728,6,6,4,1460,816,1,992,53,58156,55260,65700,0,15928,0,0,0
i,0x00000000,1716937207.768409,172.16.1.2,41464,172.16.3.2,5101,11584,17436,0,64256,65728,6,6,4,1460,816,1,992,53,58156,58156,65700,0,17376,0,0,0
o,0x00000000,1716937207.768424,172.16.1.2,41464,172.16.3.2,5101,11584,17436,0,64256,65728,6,6,4,1460,822,1,992,53,58156,55260,65700,0,14480,0,0,0
o,0x00000000,1716937207.768670,172.16.1.2,41464,172.16.3.2,5101,11584,17436,0,64256,65728,6,6,4,1460,822,1,992,53,58156,55260,65700,0,15928,0,0,0
i,0x00000000,1716937207.848552,172.16.1.2,41464,172.16.3.2,5101,11584,17436,0,64256,65728,6,6,4,1460,822,1,992,53,58156,58156,65700,0,17376,0,0,0
o,0x00000000,1716937207.848573,172.16.1.2,41464,172.16.3.2,5101,11584,17436,0,64256,65728,6,6,4,1460,832,1,992,54,58156,55260,65700,0,14480,0,0,0
o,0x00000000,1716937207.848902,172.16.1.2,41464,172.16.3.2,5101,11584,17436,0,64256,65728,6,6,4,1460,832,1,992,54,58156,55260,65700,0,15928,0,0,0
i,0x00000000,1716937207.909300,172.16.1.2,41464,172.16.3.2,5101,11584,17436,0,64256,65728,6,6,4,1460,832,1,992,54,58156,58156,65700,0,17376,0,0,0
o,0x00000000,1716937207.909324,172.16.1.2,41464,172.16.3.2,5101,11584,17436,0,64256,65728,6,6,4,1460,848,1,992,56,58156,55260,65700,0,14480,0,0,0
o,0x00000000,1716937207.909599,172.16.1.2,41464,172.16.3.2,5101,11584,17436,0,64256,65728,6,6,4,1460,848,1,992,56,58156,55260,65700,0,15928,0,0,0
i,0x00000000,1716937207.938310,172.16.1.2,41464,172.16.3.2,5101,11584,17436,0,64256,65728,6,6,4,1460,848,1,992,56,58156,58156,65700,0,17376,0,0,0
o,0x00000000,1716937207.938321,172.16.1.2,41464,172.16.3.2,5101,11584,18896,0,64256,65728,6,6,4,1460,874,1,992,61,58156,55260,65700,0,14480,0,0,0
o,0x00000000,1716937207.938580,172.16.1.2,41464,172.16.3.2,5101,11584,18896,0,64256,65728,6,6,4,1460,874,1,992,61,58156,55260,65700,0,15928,0,0,0
o,0x00000000,1716937207.938821,172.16.1.2,41464,172.16.3.2,5101,11584,18896,0,64256,65728,6,6,4,1460,874,1,992,61,58156,55260,65700,0,17376,0,0,0
i,0x00000000,1716937207.989508,172.16.1.2,41464,172.16.3.2,5101,11584,18896,0,64256,65728,6,6,4,1460,874,1,992,61,58156,58156,65700,0,18824,0,0,0
o,0x00000000,1716937207.989524,172.16.1.2,41464,172.16.3.2,5101,11584,18896,0,64256,65728,6,6,4,1460,881,1,992,60,58156,55260,65700,0,15928,0,0,0
o,0x00000000,1716937207.989780,172.16.1.2,41464,172.16.3.2,5101,11584,18896,0,64256,65728,6,6,4,1460,881,1,992,60,58156,55260,65700,0,17376,0,0,0
i,0x00000000,1716937208.018787,172.16.1.2,41464,172.16.3.2,5101,11584,18896,0,64256,65728,6,6,4,1460,881,1,992,60,58156,58156,65700,0,18824,0,0,0
o,0x00000000,1716937208.018799,172.16.1.2,41464,172.16.3.2,5101,11584,18896,0,64256,65728,6,6,4,1460,891,1,992,59,58156,55260,65700,0,15928,0,0,0
o,0x00000000,1716937208.019151,172.16.1.2,41464,172.16.3.2,5101,11584,18896,0,64256,65728,6,6,4,1460,891,1,992,59,58156,55260,65700,0,17376,0,0,0
i,0x00000000,1716937208.069013,172.16.1.2,41464,172.16.3.2,5101,11584,18896,0,64256,65728,6,6,4,1460,891,1,992,59,58156,58156,65700,0,18824,0,0,0
o,0x00000000,1716937208.069036,172.16.1.2,41464,172.16.3.2,5101,11584,18896,0,64256,65728,6,6,4,1460,896,1,992,58,58156,55260,65700,0,15928,0,0,0
o,0x00000000,1716937208.069329,172.16.1.2,41464,172.16.3.2,5101,11584,18896,0,64256,65728,6,6,4,1460,896,1,992,58,58156,55260,65700,0,17376,0,0,0
i,0x00000000,1716937208.149613,172.16.1.2,41464,172.16.3.2,5101,11584,18896,0,64256,65728,6,6,4,1460,896,1,992,58,58156,58156,65700,0,18824,0,0,0
o,0x00000000,1716937208.149635,172.16.1.2,41464,172.16.3.2,5101,11584,18896,0,64256,65728,6,6,4,1460,904,1,992,58,58156,55260,65700,0,15928,0,0,0
o,0x00000000,1716937208.149911,172.16.1.2,41464,172.16.3.2,5101,11584,18896,0,64256,65728,6,6,4,1460,904,1,992,58,58156,55260,65700,0,17376,0,0,0
i,0x00000000,1716937208.189566,172.16.1.2,41464,172.16.3.2,5101,11584,18896,0,64256,65728,6,6,4,1460,904,1,992,58,58156,58156,65700,0,18824,0,0,0
o,0x00000000,1716937208.189593,172.16.1.2,41464,172.16.3.2,5101,11584,18896,0,64256,65728,6,6,4,1460,903,1,992,55,58156,55260,65700,0,15928,0,0,0
o,0x00000000,1716937208.189876,172.16.1.2,41464,172.16.3.2,5101,11584,18896,0,64256,65728,6,6,4,1460,903,1,992,55,58156,55260,65700,0,17376,0,0,0
i,0x00000000,1716937208.238641,172.16.1.2,41464,172.16.3.2,5101,11584,18896,0,64256,65728,6,6,4,1460,903,1,992,55,58156,58156,65700,0,18824,0,0,0
o,0x00000000,1716937208.238684,172.16.1.2,41464,172.16.3.2,5101,11584,20356,0,64256,65728,6,6,4,1460,907,1,992,55,58156,55260,65700,0,15928,0,0,0
o,0x00000000,1716937208.239003,172.16.1.2,41464,172.16.3.2,5101,11584,20356,0,64256,65728,6,6,4,1460,907,1,992,55,58156,55260,65700,0,17376,0,0,0
o,0x00000000,1716937208.239252,172.16.1.2,41464,172.16.3.2,5101,11584,20356,0,64256,65728,6,6,4,1460,907,1,992,55,58156,55260,65700,0,18824,0,0,0
i,0x00000000,1716937208.288418,172.16.1.2,41464,172.16.3.2,5101,11584,20356,0,64256,65728,6,6,4,1460,907,1,992,55,58156,58156,65700,0,20272,0,0,0
o,0x00000000,1716937208.288441,172.16.1.2,41464,172.16.3.2,5101,11584,20356,0,65728,65728,6,6,4,1460,930,1,992,60,58156,56708,65700,0,18824,0,0,0
i,0x00000000,1716937208.299611,172.16.1.2,41464,172.16.3.2,5101,11584,20356,0,65728,65728,6,6,4,1460,930,1,992,60,58156,56708,65700,0,20272,0,0,0
o,0x00000000,1716937208.299620,172.16.1.2,41464,172.16.3.2,5101,11584,20356,0,64256,65728,6,6,4,1460,938,1,992,59,58156,53812,65700,0,17376,0,0,0
o,0x00000000,1716937208.299858,172.16.1.2,41464,172.16.3.2,5101,11584,20356,0,64256,65728,6,6,4,1460,938,1,992,59,58156,53812,65700,0,18824,0,0,0
i,0x00000000,1716937208.349278,172.16.1.2,41464,172.16.3.2,5101,11584,20356,0,64256,65728,6,6,4,1460,938,1,992,59,58156,58156,65700,0,20272,0,0,0
o,0x00000000,1716937208.349294,172.16.1.2,41464,172.16.3.2,5101,11584,20356,0,64256,65728,6,6,4,1460,949,1,992,60,58156,55260,65700,0,17376,0,0,0
o,0x00000000,1716937208.349545,172.16.1.2,41464,172.16.3.2,5101,11584,20356,0,64256,65728,6,6,4,1460,949,1,992,60,58156,55260,65700,0,18824,0,0,0
i,0x00000000,1716937208.398520,172.16.1.2,41464,172.16.3.2,5101,11584,20356,0,64256,65728,6,6,4,1460,949,1,992,60,58156,58156,65700,0,20272,0,0,0
o,0x00000000,1716937208.398542,172.16.1.2,41464,172.16.3.2,5101,11584,20356,0,64256,65728,6,6,4,1460,963,1,992,61,58156,55260,65700,0,17376,0,0,0
o,0x00000000,1716937208.398874,172.16.1.2,41464,172.16.3.2,5101,11584,20356,0,64256,65728,6,6,4,1460,963,1,992,61,58156,55260,65700,0,18824,0,0,0
i,0x00000000,1716937208.458580,172.16.1.2,41464,172.16.3.2,5101,11584,20356,0,64256,65728,6,6,4,1460,963,1,992,61,58156,58156,65700,0,20272,0,0,0
o,0x00000000,1716937208.458605,172.16.1.2,41464,172.16.3.2,5101,11584,20356,0,64256,65728,6,6,4,1460,967,1,992,59,58156,55260,65700,0,17376,0,0,0
o,0x00000000,1716937208.458910,172.16.1.2,41464,172.16.3.2,5101,11584,20356,0,64256,65728,6,6,4,1460,967,1,992,59,58156,55260,65700,0,18824,0,0,0
i,0x00000000,1716937208.518640,172.16.1.2,41464,172.16.3.2,5101,11584,20356,0,64256,65728,6,6,4,1460,967,1,992,59,58156,58156,65700,0,20272,0,0,0
o,0x00000000,1716937208.518657,172.16.1.2,41464,172.16.3.2,5101,11584,20356,0,64256,65728,6,6,4,1460,979,1,992,61,58156,55260,65700,0,17376,0,0,0
o,0x00000000,1716937208.518935,172.16.1.2,41464,172.16.3.2,5101,11584,20356,0,64256,65728,6,6,4,1460,979,1,992,61,58156,55260,65700,0,18824,0,0,0
i,0x00000000,1716937208.569319,172.16.1.2,41464,172.16.3.2,5101,11584,20356,0,64256,65728,6,6,4,1460,979,1,992,61,58156,58156,65700,0,20272,0,0,0
o,0x00000000,1716937208.569340,172.16.1.2,41464,172.16.3.2,5101,11584,20356,0,64256,65728,6,6,4,1460,989,1,992,61,58156,55260,65700,0,17376,0,0,0
o,0x00000000,1716937208.569887,172.16.1.2,41464,172.16.3.2,5101,11584,20356,0,64256,65728,6,6,4,1460,989,1,992,61,58156,55260,65700,0,18824,0,0,0
i,0x00000000,1716937208.618394,172.16.1.2,41464,172.16.3.2,5101,11584,20356,0,64256,65728,6,6,4,1460,989,1,992,61,58156,58156,65700,0,20272,0,0,0
o,0x00000000,1716937208.618401,172.16.1.2,41464,172.16.3.2,5101,11584,21816,0,65728,65728,6,6,4,1460,1018,1,992,67,58156,56708,65700,0,18824,0,0,0
o,0x00000000,1716937208.618641,172.16.1.2,41464,172.16.3.2,5101,11584,21816,0,65728,65728,6,6,4,1460,1018,1,992,67,58156,56708,65700,0,20272,0,0,0
i,0x00000000,1716937208.628906,172.16.1.2,41464,172.16.3.2,5101,11584,21816,0,65728,65728,6,6,4,1460,1018,1,992,67,58156,56708,65700,0,21720,0,0,0
o,0x00000000,1716937208.628913,172.16.1.2,41464,172.16.3.2,5101,11584,21816,0,64256,65728,6,6,4,1460,1027,1,992,65,58156,53812,65700,0,18824,0,0,0
o,0x00000000,1716937208.629237,172.16.1.2,41464,172.16.3.2,5101,11584,21816,0,64256,65728,6,6,4,1460,1027,1,992,65,58156,53812,65700,0,20272,0,0,0
i,0x00000000,1716937208.678732,172.16.1.2,41464,172.16.3.2,5101,11584,21816,0,64256,65728,6,6,4,1460,1027,1,992,65,58156,58156,65700,0,21720,0,0,0
o,0x00000000,1716937208.678754,172.16.1.2,41464,172.16.3.2,5101,11584,21816,0,64256,65728,6,6,4,1460,1051,1,992,69,58156,55260,65700,0,18824,0,0,0
o,0x00000000,1716937208.679154,172.16.1.2,41464,172.16.3.2,5101,11584,21816,0,64256,65728,6,6,4,1460,1051,1,992,69,58156,55260,65700,0,20272,0,0,0
i,0x00000000,1716937208.729310,172.16.1.2,41464,172.16.3.2,5101,11584,21816,0,64256,65728,6,6,4,1460,1051,1,992,69,58156,58156,65700,0,21720,0,0,0
o,0x00000000,1716937208.729330,172.16.1.2,41464,172.16.3.2,5101,11584,21816,0,65728,65728,6,6,4,1460,1072,1,992,71,58156,56708,65700,0,20272,0,0,0
i,0x00000000,1716937208.748894,172.16.1.2,41464,172.16.3.2,5101,11584,21816,0,65728,65728,6,6,4,1460,1072,1,992,71,58156,56708,65700,0,21720,0,0,0
o,0x00000000,1716937208.748905,172.16.1.2,41464,172.16.3.2,5101,11584,21816,0,64256,65728,6,6,4,1460,1078,1,992,68,58156,53812,65700,0,18824,0,0,0
o,0x00000000,1716937208.749142,172.16.1.2,41464,172.16.3.2,5101,11584,21816,0,64256,65728,6,6,4,1460,1078,1,992,68,58156,53812,65700,0,20272,0,0,0
i,0x00000000,1716937208.789614,172.16.1.2,41464,172.16.3.2,5101,11584,21816,0,64256,65728,6,6,4,1460,1078,1,992,68,58156,58156,65700,0,21720,0,0,0
o,0x00000000,1716937208.789629,172.16.1.2,41464,172.16.3.2,5101,11584,21816,0,64256,65728,6,6,4,1460,1076,1,992,65,58156,55260,65700,0,18824,0,0,0
o,0x00000000,1716937208.789913,172.16.1.2,41464,172.16.3.2,5101,11584,21816,0,64256,65728,6,6,4,1460,1076,1,992,65,58156,55260,65700,0,20272,0,0,0
i,0x00000000,1716937208.869523,172.16.1.2,41464,172.16.3.2,5101,11584,21816,0,64256,65728,6,6,4,1460,1076,1,992,65,58156,56528,65700,0,21720,0,0,0
o,0x00000000,1716937208.869562,172.16.1.2,41464,172.16.3.2,5101,11584,21816,0,64256,65728,6,6,4,1460,1082,1,992,64,58156,53632,65700,0,18824,0,0,0
o,0x00000000,1716937208.869822,172.16.1.2,41464,172.16.3.2,5101,11584,21816,0,64256,65728,6,6,4,1460,1082,1,992,64,58156,53632,65700,0,20272,0,0,0
i,0x00000000,1716937208.919368,172.16.1.2,41464,172.16.3.2,5101,11584,21816,0,64256,65728,6,6,4,1460,1082,1,992,64,58156,58156,65700,0,21720,0,0,0
o,0x00000000,1716937208.919380,172.16.1.2,41464,172.16.3.2,5101,11584,21816,0,64256,65728,6,6,4,1460,1087,1,992,63,58156,55260,65700,0,18824,0,0,0
o,0x00000000,1716937208.919668,172.16.1.2,41464,172.16.3.2,5101,11584,21816,0,64256,65728,6,6,4,1460,1087,1,992,63,58156,55260,65700,0,20272,0,0,0
i,0x00000000,1716937208.959820,172.16.1.2,41464,172.16.3.2,5101,11584,21816,0,64256,65728,6,6,4,1460,1087,1,992,63,58156,58156,65700,0,21720,0,0,0
o,0x00000000,1716937208.959826,172.16.1.2,41464,172.16.3.2,5101,11584,23276,0,64256,65728,6,6,4,1460,1084,1,992,61,58156,55260,65700,0,18824,0,0,0
o,0x00000000,1716937208.960060,172.16.1.2,41464,172.16.3.2,5101,11584,23276,0,64256,65728,6,6,4,1460,1084,1,992,61,58156,55260,65700,0,20272,0,0,0
o,0x00000000,1716937208.960285,172.16.1.2,41464,172.16.3.2,5101,11584,23276,0,64256,65728,6,6,4,1460,1084,1,992,61,58156,55260,65700,0,21720,0,0,0
i,0x00000000,1716937208.988896,172.16.1.2,41464,172.16.3.2,5101,11584,23276,0,64256,65728,6,6,4,1460,1084,1,992,61,58156,58156,65700,0,23168,0,0,0
o,0x00000000,1716937208.988905,172.16.1.2,41464,172.16.3.2,5101,11584,23276,0,64256,65728,6,6,4,1460,1089,1,992,61,58156,55260,65700,0,20272,0,0,0
o,0x00000000,1716937208.989140,172.16.1.2,41464,172.16.3.2,5101,11584,23276,0,64256,65728,6,6,4,1460,1089,1,992,61,58156,55260,65700,0,21720,0,0,0
i,0x00000000,1716937209.038877,172.16.1.2,41464,172.16.3.2,5101,11584,23276,0,64256,65728,6,6,4,1460,1089,1,992,61,58156,58156,65700,0,23168,0,0,0
o,0x00000000,1716937209.038914,172.16.1.2,41464,172.16.3.2,5101,11584,23276,0,64256,65728,6,6,4,1460,1093,1,992,60,58156,55260,65700,0,20272,0,0,0
o,0x00000000,1716937209.039195,172.16.1.2,41464,172.16.3.2,5101,11584,23276,0,64256,65728,6,6,4,1460,1093,1,992,60,58156,55260,65700,0,21720,0,0,0
i,0x00000000,1716937209.079188,172.16.1.2,41464,172.16.3.2,5101,11584,23276,0,64256,65728,6,6,4,1460,1093,1,992,60,58156,58156,65700,0,23168,0,0,0
o,0x00000000,1716937209.079202,172.16.1.2,41464,172.16.3.2,5101,11584,24616,0,64256,65728,6,6,4,1460,1093,1,992,60,58156,58156,65700,0,23168,0,0,0
i,0x00000000,1716937209.108158,172.16.1.2,41464,172.16.3.2,5101,11584,23276,0,64256,65728,6,6,4,1460,1093,1,992,60,58156,58156,65700,0,24616,0,0,0
o,0x00000000,1716937209.108163,172.16.1.2,41464,172.16.3.2,5101,11584,26064,0,64256,65728,6,6,4,1460,1093,1,992,60,58156,58156,65700,0,24616,0,0,0
i,0x00000000,1716937209.128829,172.16.1.2,41464,172.16.3.2,5101,11584,23276,0,64256,65728,6,6,4,1460,1093,1,992,60,58156,58156,65700,0,26064,0,0,0
o,0x00000000,1716937209.128835,172.16.1.2,41464,172.16.3.2,5101,11584,1448,0,64256,65728,6,6,4,1460,1093,1,537920480,60,58156,58156,65700,0,26064,0,0,0
i,0x00000000,1716937209.159300,172.16.1.2,41464,172.16.3.2,5101,11584,1448,0,64256,65728,6,6,4,1460,1093,1,537920480,60,58156,58156,65700,0,26064,0,0,0
i,0x00000000,1716937209.199504,172.16.1.2,41464,172.16.3.2,5101,11584,1448,0,64256,65728,6,6,4,1460,1093,1,537920480,60,58156,58156,65700,0,26064,0,0,0
o,0x00000000,1716937209.199512,172.16.1.2,41464,172.16.3.2,5101,11584,2896,0,64256,65728,6,6,4,1460,1093,1,537920480,60,58156,58156,65700,0,26064,0,0,0
i,0x00000000,1716937209.219118,172.16.1.2,41464,172.16.3.2,5101,11584,2896,0,64256,65728,6,6,4,1460,1093,1,537920480,60,58156,58156,65700,0,26064,0,0,0
i,0x00000000,1716937209.228424,172.16.1.2,41464,172.16.3.2,5101,11584,2896,0,64256,65728,6,6,4,1460,1093,1,537920480,60,58156,58156,65700,0,26064,0,0,0
o,0x00000000,1716937209.228430,172.16.1.2,41464,172.16.3.2,5101,11584,4344,0,64256,65728,6,6,4,1460,1093,1,537920480,60,58156,58156,65700,0,26064,0,0,0
i,0x00000000,1716937209.260067,172.16.1.2,41464,172.16.3.2,5101,11584,4344,0,64256,65728,6,6,4,1460,1093,1,537920480,60,58156,58156,65700,0,27512,0,0,0
i,0x00000000,1716937209.278904,172.16.1.2,41464,172.16.3.2,5101,11584,4344,0,64256,65728,6,6,4,1460,1093,1,537920480,60,58156,58156,65700,0,27512,0,0,0
o,0x00000000,1716937209.278915,172.16.1.2,41464,172.16.3.2,5101,11584,5792,0,64256,65728,6,6,4,1460,1093,1,537920480,60,58156,58156,65700,0,27512,0,0,0
o,0x00000000,1716937209.279152,172.16.1.2,41464,172.16.3.2,5101,11584,5792,0,64256,65728,6,6,4,1460,1093,1,537920480,60,58156,58156,65700,0,27512,0,0,0
i,0x00000000,1716937209.309106,172.16.1.2,41464,172.16.3.2,5101,11584,5792,0,64256,65728,6,6,4,1460,1093,1,537920480,60,58156,58156,65700,0,27512,0,0,0
i,0x00000000,1716937209.328510,172.16.1.2,41464,172.16.3.2,5101,11584,7240,0,64256,65728,6,6,4,1460,1093,1,537920480,60,58156,58156,65700,0,27512,0,0,0
o,0x00000000,1716937209.328516,172.16.1.2,41464,172.16.3.2,5101,11584,8688,0,64256,65728,6,6,4,1460,1093,1,537920480,60,58156,58156,65700,0,27512,0,0,0
i,0x00000000,1716937209.328868,172.16.1.2,41464,172.16.3.2,5101,11584,8688,0,64256,65728,6,6,4,1460,1093,1,537920480,60,58156,58156,65700,0,27512,0,0,0
o,0x00000000,1716937209.328872,172.16.1.2,41464,172.16.3.2,5101,11584,10136,0,64256,65728,6,6,4,1460,1093,1,537920480,60,58156,58156,65700,0,27512,0,0,0
i,0x00000000,1716937209.379277,172.16.1.2,41464,172.16.3.2,5101,11584,10136,0,64256,65728,6,6,4,1460,1093,1,537920480,60,58156,58156,65700,0,28960,0,0,0
o,0x00000000,1716937209.379284,172.16.1.2,41464,172.16.3.2,5101,11584,10136,0,64256,65728,6,6,4,1460,1093,1,537920481,60,58156,58156,65700,0,28960,0,0,0
i,0x00000000,1716937209.409241,172.16.1.2,41464,172.16.3.2,5101,11584,10136,0,64320,65728,6,6,4,1460,1057,1,537920480,67,58156,56708,65700,0,28960,0,0,0
o,0x00000000,1716937209.409255,172.16.1.2,41464,172.16.3.2,5101,11584,10136,0,64320,65728,6,6,4,1460,1057,1,537920481,67,58156,56708,65700,0,28960,0,0,0
i,0x00000000,1716937209.429631,172.16.1.2,41464,172.16.3.2,5101,11584,10136,0,52672,65728,6,6,4,1460,1009,1,537920480,74,58156,58156,65700,0,17376,0,0,0
o,0x00000000,1716937209.429637,172.16.1.2,41464,172.16.3.2,5101,11584,13032,0,52672,65728,6,6,4,1460,1009,1,537920480,74,58156,58156,65700,0,17376,0,0,0
o,0x00000000,1716937209.429872,172.16.1.2,41464,172.16.3.2,5101,11584,13032,0,52672,65728,6,6,4,1460,1009,1,537920480,74,58156,58156,65700,0,17376,0,0,0
i,0x00000000,1716937209.438067,172.16.1.2,41464,172.16.3.2,5101,11584,13032,0,52672,65728,6,6,4,1460,1009,1,537920480,74,58156,58156,65700,0,18824,0,0,0
o,0x00000000,1716937209.438073,172.16.1.2,41464,172.16.3.2,5101,11584,13032,0,52672,65728,6,6,4,1460,1009,1,537920481,74,58156,58156,65700,0,18824,0,0,0
