enable_time_secs=1716939372	enable_time_usecs=818839	siftrver=1.2.4	hz=100	tcp_rtt_scale=32	sysname=FreeBSD	sysver=1301000	ipmode=4
o,0x00000000,1716939372.818874,10.0.2.15,22,10.0.2.2,59706,1073725440,17298,0,65535,65700,0,0,4,1460,1,0,4,24,33580,44,65700,0,0,0,0,0
o,0x00000000,1716939372.818992,10.0.2.15,22,10.0.2.2,59706,1073725440,17298,0,65535,65700,0,0,4,1460,1,0,4,24,33580,80,65700,0,44,0,0,0
i,0x00000000,1716939372.819650,10.0.2.15,22,10.0.2.2,59706,1073725440,17298,0,65535,65700,0,0,4,1460,1,0,4,24,33580,80,65700,0,80,0,0,0
i,0x00000000,1716939372.819654,10.0.2.15,22,10.0.2.2,59706,1073725440,17342,0,65535,65700,0,0,4,1460,1,0,4,24,33580,36,65700,0,36,0,0,0
o,0x00000000,1716939372.819761,10.0.2.15,22,10.0.2.2,59706,1073725440,17378,0,65535,65700,0,0,4,1460,1,0,4,24,33580,36,65700,0,0,0,0,0
i,0x00000000,1716939372.820191,10.0.2.15,22,10.0.2.2,59706,1073725440,17378,0,65535,65700,0,0,4,1460,1,0,4,24,33580,36,65700,0,36,0,0,0
o,0x00000000,1716939372.820380,10.0.2.15,22,10.0.2.2,59706,1073725440,17414,0,65535,65700,0,0,4,1460,1,0,4,24,33580,176,65700,0,0,0,0,0
i,0x00000000,1716939372.820788,10.0.2.15,22,10.0.2.2,59706,1073725440,17414,0,65535,65700,0,0,4,1460,1,0,4,24,33580,176,65700,0,176,0,0,0
i,0x00000000,1716939372.821384,10.0.2.15,22,10.0.2.2,59706,1073725440,17590,0,65535,65700,0,0,4,1460,1,0,4,24,33580,0,65700,0,0,0,0,0
i,0x00000000,1716939372.821388,10.0.2.15,22,10.0.2.2,59706,1073725440,17590,0,65535,65700,0,0,4,1460,1,0,4,24,33580,0,65700,96,0,0,0,0
o,0x00000000,1716939372.821391,10.0.2.15,22,10.0.2.2,59706,1073725440,17590,0,65535,65604,0,0,5,1460,1,0,5,24,33580,0,65700,96,0,0,0,0
o,0x00000000,1716939372.821763,10.0.2.15,22,10.0.2.2,59706,1073725440,17590,0,65535,65604,0,0,8,1460,1,0,4,24,33580,0,65700,0,0,0,0,0
i,0x00000000,1716939372.822651,10.0.2.15,22,10.0.2.2,59706,1073725440,17590,0,65535,65604,0,0,8,1460,1,0,20,24,33580,0,65700,0,1,0,0,0
i,0x00000000,1716939374.979689,10.0.2.15,22,10.0.2.2,59711,1073725440,14600,0,65535,65700,0,0,4,1460,1,0,0,27,33580,0,65700,0,0,0,0,0
o,0x00000000,1716939374.985612,10.0.2.15,22,10.0.2.2,59711,1073725440,14600,0,65535,65700,0,0,4,1460,1,0,0,27,33580,38,65700,41,0,0,0,0
i,0x00000000,1716939374.986609,10.0.2.15,22,10.0.2.2,59711,1073725440,14600,0,65535,65700,0,0,4,1460,1,0,0,27,33580,38,65700,41,38,0,0,0
o,0x00000000,1716939374.987279,10.0.2.15,22,10.0.2.2,59711,1073725440,14638,0,65535,65700,0,0,4,1460,1,0,0,24,33580,1056,65700,0,0,0,0,0
i,0x00000000,1716939374.988273,10.0.2.15,22,10.0.2.2,59711,1073725440,14638,0,65535,65700,0,0,4,1460,1,0,0,24,33580,1056,65700,0,1056,0,0,0
i,0x00000000,1716939374.988277,10.0.2.15,22,10.0.2.2,59711,1073725440,14638,0,65535,65700,0,0,4,1460,1,0,0,24,33580,1056,65700,1460,1056,0,0,0
o,0x00000000,1716939374.988279,10.0.2.15,22,10.0.2.2,59711,1073725440,14638,0,65535,65700,0,0,4,1460,1,0,1,24,33580,1056,65700,1536,1056,0,0,0
i,0x00000000,1716939374.988414,10.0.2.15,22,10.0.2.2,59711,1073725440,14638,0,65535,65700,0,0,4,1460,1,0,0,24,33580,1056,65700,1536,1056,0,0,0
i,0x00000000,1716939374.989857,10.0.2.15,22,10.0.2.2,59711,1073725440,15694,0,65535,65700,0,0,4,1460,1,0,0,24,33580,0,65700,0,0,0,0,0
o,0x00000000,1716939374.992464,10.0.2.15,22,10.0.2.2,59711,1073725440,15694,0,65535,65700,0,0,4,1460,1,0,0,24,33580,484,65700,0,0,0,0,0
i,0x00000000,1716939374.993247,10.0.2.15,22,10.0.2.2,59711,1073725440,15694,0,65535,65700,0,0,4,1460,1,0,0,24,33580,484,65700,0,484,0,0,0
i,0x00000000,1716939374.997956,10.0.2.15,22,10.0.2.2,59711,1073725440,16178,0,65535,65700,0,0,4,1460,1,0,0,24,33580,0,65700,0,0,0,0,0
i,0x00000000,1716939375.002376,10.0.2.15,22,10.0.2.2,59711,1073725440,16178,0,65535,65700,0,0,4,1460,1,0,0,24,33580,0,65700,0,0,0,0,0
o,0x00000000,1716939375.002381,10.0.2.15,22,10.0.2.2,59711,1073725440,16178,0,65535,65700,0,0,4,1460,1,0,1,24,33580,0,65700,44,0,0,0,0
o,0x00000000,1716939375.002538,10.0.2.15,22,10.0.2.2,59711,1073725440,16178,0,65535,65700,0,0,4,1460,1,0,0,24,33580,44,65700,0,0,0,0,0
i,0x00000000,1716939375.003375,10.0.2.15,22,10.0.2.2,59711,1073725440,16178,0,65535,65700,0,0,4,1460,1,0,0,24,33580,44,65700,0,44,0,0,0
i,0x00000000,1716939375.003378,10.0.2.15,22,10.0.2.2,59711,1073725440,16222,0,65535,65700,0,0,4,1460,1,0,0,24,33580,0,65700,0,0,0,0,0
o,0x00000000,1716939375.013479,10.0.2.15,22,10.0.2.2,59711,1073725440,16222,0,65535,65700,0,0,4,1460,1,0,0,24,33580,68,65700,0,0,0,0,0
i,0x00000000,1716939375.014139,10.0.2.15,22,10.0.2.2,59711,1073725440,16222,0,65535,65700,0,0,4,1460,1,0,0,24,33580,68,65700,0,68,0,0,0
i,0x00000000,1716939375.016417,10.0.2.15,22,10.0.2.2,59711,1073725440,16290,0,65535,65700,0,0,4,1460,1,0,0,24,33580,0,65700,0,0,0,0,0
o,0x00000000,1716939375.025880,10.0.2.15,22,10.0.2.2,59711,1073725440,16290,0,65535,65700,0,0,4,1460,1,0,0,24,33580,28,65700,0,0,0,0,0
i,0x00000000,1716939375.026717,10.0.2.15,22,10.0.2.2,59711,1073725440,16290,0,65535,65700,0,0,4,1460,1,0,0,24,33580,28,65700,0,28,0,0,0
i,0x00000000,1716939375.027295,10.0.2.15,22,10.0.2.2,59711,1073725440,16318,0,65535,65700,0,0,4,1460,1,0,0,24,33580,0,65700,0,0,0,0,0
o,0x00000000,1716939375.028098,10.0.2.15,22,10.0.2.2,59711,1073725440,16318,0,65535,65700,0,0,4,1460,1,0,0,24,33580,768,65700,112,0,0,0,0
i,0x00000000,1716939375.028820,10.0.2.15,22,10.0.2.2,59711,1073725440,16318,0,65535,65700,0,0,4,1460,1,0,0,24,33580,768,65700,112,768,0,0,0
o,0x00000000,1716939375.028943,10.0.2.15,22,10.0.2.2,59711,1073725440,17086,0,65535,65700,0,0,4,1460,1,0,0,24,33580,44,65700,0,0,0,0,0
i,0x00000000,1716939375.029597,10.0.2.15,22,10.0.2.2,59711,1073725440,17086,0,65535,65700,0,0,4,1460,1,0,0,24,33580,44,65700,0,44,0,0,0
i,0x00000000,1716939375.030199,10.0.2.15,22,10.0.2.2,59711,1073725440,17130,0,65535,65700,0,0,4,1460,1,0,0,24,33580,0,65700,0,0,0,0,0
o,0x00000000,1716939375.030756,10.0.2.15,22,10.0.2.2,59711,1073725440,17130,0,65535,65700,0,0,4,1460,1,0,4,24,33580,72,65700,0,0,0,0,0
i,0x00000000,1716939375.031451,10.0.2.15,22,10.0.2.2,59711,1073725440,17130,0,65535,65700,0,0,4,1460,1,0,4,24,33580,72,65700,0,72,0,0,0
o,0x00000000,1716939375.034652,10.0.2.15,22,10.0.2.2,59711,1073725440,17202,0,65535,65700,0,0,4,1460,1,0,4,24,33580,44,65700,0,0,0,0,0
i,0x00000000,1716939375.035283,10.0.2.15,22,10.0.2.2,59711,1073725440,17202,0,65535,65700,0,0,4,1460,1,0,4,24,33580,44,65700,0,44,0,0,0
o,0x00000000,1716939375.035635,10.0.2.15,22,10.0.2.2,59711,1073725440,17246,0,65535,65700,0,0,4,1460,1,0,4,24,33580,44,65700,0,0,0,0,0
i,0x00000000,1716939375.036520,10.0.2.15,22,10.0.2.2,59711,1073725440,17246,0,65535,65700,0,0,4,1460,1,0,4,24,33580,44,65700,0,44,0,0,0
o,0x00000000,1716939375.039712,10.0.2.15,22,10.0.2.2,59711,1073725440,17290,0,65535,65700,0,0,4,1460,1,0,4,24,33580,176,65700,0,0,0,0,0
i,0x00000000,1716939375.040397,10.0.2.15,22,10.0.2.2,59711,1073725440,17290,0,65535,65700,0,0,4,1460,1,0,4,24,33580,176,65700,0,176,0,0,0
i,0x00000000,1716939375.040800,10.0.2.15,22,10.0.2.2,59711,1073725440,17466,0,65535,65700,0,0,4,1460,1,0,4,24,33580,0,65700,0,0,0,0,0
i,0x00000000,1716939375.043191,10.0.2.15,22,10.0.2.2,59711,1073725440,17466,0,65535,65700,0,0,4,1460,1,0,4,24,33580,0,65700,0,0,0,0,0
o,0x00000000,1716939375.043196,10.0.2.15,22,10.0.2.2,59711,1073725440,17466,0,65535,65700,0,0,4,1460,1,0,5,24,33580,0,65700,60,0,0,0,0
i,0x00000000,1716939375.043279,10.0.2.15,22,10.0.2.2,59711,1073725440,17466,0,65535,65700,0,0,4,1460,1,0,4,24,33580,0,65700,60,0,0,0,0
o,0x00000000,1716939375.043284,10.0.2.15,22,10.0.2.2,59711,1073725440,17466,0,65535,65640,0,0,5,1460,1,0,7,24,33580,0,65700,60,0,0,0,0
o,0x00000000,1716939375.046757,10.0.2.15,22,10.0.2.2,59711,1073725440,17466,0,65535,65640,0,0,8,1460,1,0,4,24,33580,0,65700,0,0,0,0,0
i,0x00000000,1716939375.047290,10.0.2.15,22,10.0.2.2,59711,1073725440,17466,0,65535,65640,0,0,8,1460,1,0,20,24,33580,0,65700,0,1,0,0,0
i,0x00000000,1716939376.119024,10.0.2.15,22,10.0.2.2,59713,1073725440,14600,0,65535,65700,0,0,4,1460,1,0,0,27,33580,0,65700,0,0,0,0,0
o,0x00000000,1716939376.125475,10.0.2.15,22,10.0.2.2,59713,1073725440,14600,0,65535,65700,0,0,4,1460,1,0,0,27,33580,38,65700,41,0,0,0,0
i,0x00000000,1716939376.126020,10.0.2.15,22,10.0.2.2,59713,1073725440,14600,0,65535,65700,0,0,4,1460,1,0,0,27,33580,38,65700,0,38,0,0,0
i,0x00000000,1716939376.126928,10.0.2.15,22,10.0.2.2,59713,1073725440,14638,0,65535,65700,0,0,4,1460,1,0,0,24,33580,0,65700,0,0,0,0,0
i,0x00000000,1716939376.126930,10.0.2.15,22,10.0.2.2,59713,1073725440,14638,0,65535,65700,0,0,4,1460,1,0,0,24,33580,0,65700,1460,0,0,0,0
o,0x00000000,1716939376.126935,10.0.2.15,22,10.0.2.2,59713,1073725440,14638,0,65535,65700,0,0,4,1460,1,0,1,24,33580,0,65700,1536,0,0,0,0
o,0x00000000,1716939376.127604,10.0.2.15,22,10.0.2.2,59713,1073725440,14638,0,65535,65700,0,0,4,1460,1,0,0,24,33580,1056,65700,1536,0,0,0,0
i,0x00000000,1716939376.128290,10.0.2.15,22,10.0.2.2,59713,1073725440,14638,0,65535,65700,0,0,4,1460,1,0,0,24,33580,1056,65700,1536,1056,0,0,0
i,0x00000000,1716939376.129824,10.0.2.15,22,10.0.2.2,59713,1073725440,15694,0,65535,65700,0,0,4,1460,1,0,0,24,33580,0,65700,0,0,0,0,0
o,0x00000000,1716939376.132446,10.0.2.15,22,10.0.2.2,59713,1073725440,15694,0,65535,65700,0,0,4,1460,1,0,0,24,33580,484,65700,0,0,0,0,0
i,0x00000000,1716939376.133168,10.0.2.15,22,10.0.2.2,59713,1073725440,15694,0,65535,65700,0,0,4,1460,1,0,0,24,33580,484,65700,0,484,0,0,0
i,0x00000000,1716939376.138096,10.0.2.15,22,10.0.2.2,59713,1073725440,16178,0,65535,65700,0,0,4,1460,1,0,0,24,33580,0,65700,0,0,0,0,0
i,0x00000000,1716939376.142204,10.0.2.15,22,10.0.2.2,59713,1073725440,16178,0,65535,65700,0,0,4,1460,1,0,0,24,33580,0,65700,0,0,0,0,0
o,0x00000000,1716939376.142209,10.0.2.15,22,10.0.2.2,59713,1073725440,16178,0,65535,65700,0,0,4,1460,1,0,1,24,33580,0,65700,44,0,0,0,0
o,0x00000000,1716939376.142358,10.0.2.15,22,10.0.2.2,59713,1073725440,16178,0,65535,65700,0,0,4,1460,1,0,0,24,33580,44,65700,0,0,0,0,0
i,0x00000000,1716939376.143276,10.0.2.15,22,10.0.2.2,59713,1073725440,16178,0,65535,65700,0,0,4,1460,1,0,0,24,33580,44,65700,0,44,0,0,0
i,0x00000000,1716939376.143348,10.0.2.15,22,10.0.2.2,59713,1073725440,16222,0,65535,65700,0,0,4,1460,1,0,0,24,33580,0,65700,0,0,0,0,0
o,0x00000000,1716939376.152337,10.0.2.15,22,10.0.2.2,59713,1073725440,16222,0,65535,65700,0,0,4,1460,1,0,0,24,33580,68,65700,0,0,0,0,0
i,0x00000000,1716939376.153016,10.0.2.15,22,10.0.2.2,59713,1073725440,16222,0,65535,65700,0,0,4,1460,1,0,0,24,33580,68,65700,0,68,0,0,0
i,0x00000000,1716939376.155241,10.0.2.15,22,10.0.2.2,59713,1073725440,16290,0,65535,65700,0,0,4,1460,1,0,0,24,33580,0,65700,0,0,0,0,0
o,0x00000000,1716939376.165069,10.0.2.15,22,10.0.2.2,59713,1073725440,16290,0,65535,65700,0,0,4,1460,1,0,0,24,33580,28,65700,0,0,0,0,0
i,0x00000000,1716939376.165844,10.0.2.15,22,10.0.2.2,59713,1073725440,16290,0,65535,65700,0,0,4,1460,1,0,0,24,33580,28,65700,0,28,0,0,0
i,0x00000000,1716939376.166342,10.0.2.15,22,10.0.2.2,59713,1073725440,16318,0,65535,65700,0,0,4,1460,1,0,0,24,33580,0,65700,0,0,0,0,0
o,0x00000000,1716939376.167055,10.0.2.15,22,10.0.2.2,59713,1073725440,16318,0,65535,65700,0,0,4,1460,1,0,0,24,33580,768,65700,112,0,0,0,0
i,0x00000000,1716939376.167756,10.0.2.15,22,10.0.2.2,59713,1073725440,16318,0,65535,65700,0,0,4,1460,1,0,0,24,33580,768,65700,112,768,0,0,0
o,0x00000000,1716939376.167860,10.0.2.15,22,10.0.2.2,59713,1073725440,17086,0,65535,65700,0,0,4,1460,1,0,0,24,33580,44,65700,0,0,0,0,0
i,0x00000000,1716939376.168918,10.0.2.15,22,10.0.2.2,59713,1073725440,17086,0,65535,65700,0,0,4,1460,1,0,0,24,33580,44,65700,0,44,0,0,0
i,0x00000000,1716939376.168922,10.0.2.15,22,10.0.2.2,59713,1073725440,17130,0,65535,65700,0,0,4,1460,1,0,0,24,33580,0,65700,0,0,0,0,0
o,0x00000000,1716939376.169198,10.0.2.15,22,10.0.2.2,59713,1073725440,17130,0,65535,65700,0,0,4,1460,1,0,4,24,33580,72,65700,0,0,0,0,0
i,0x00000000,1716939376.169899,10.0.2.15,22,10.0.2.2,59713,1073725440,17130,0,65535,65700,0,0,4,1460,1,0,4,24,33580,72,65700,0,72,0,0,0
i,0x00000000,1716939376.170387,10.0.2.15,22,10.0.2.2,59713,1073725440,17202,0,65535,65700,0,0,4,1460,1,0,4,24,33580,0,65700,0,0,0,0,0
o,0x00000000,1716939376.173862,172.16.1.2,42724,172.16.3.2,5101,1073725440,1073725440,0,0,0,0,0,2,536,0,1,672,100,32768,0,65536,0,0,0,0,0
o,0x00000000,1716939376.206521,10.0.2.15,22,10.0.2.2,59713,1073725440,17202,0,65535,65700,0,0,4,1460,1,0,5,24,33580,0,65700,0,0,0,0,0
i,0x00000000,1716939376.292438,172.16.1.2,42724,172.16.3.2,5101,1073725440,1073725440,0,0,0,0,0,2,536,0,1,672,100,32768,0,65536,0,1,0,0,0
o,0x00000000,1716939376.292458,172.16.1.2,42724,172.16.3.2,5101,22140,14480,0,65535,65700,6,6,4,1460,501,1,993,53,33580,0,65700,0,0,0,0,0
o,0x00000000,1716939376.292634,172.16.1.2,42724,172.16.3.2,5101,22140,14480,0,65535,65700,6,6,4,1460,501,1,996,53,33580,37,65700,0,0,0,0,0
i,0x00000000,1716939376.410400,172.16.1.2,42724,172.16.3.2,5101,22140,14480,0,65535,65700,6,6,4,1460,501,1,996,53,33580,37,65700,0,37,0,0,0
o,0x00000000,1716939376.410541,172.16.1.2,42724,172.16.3.2,5101,22140,14517,0,65728,65728,6,6,4,1460,487,1,996,52,33580,4,65700,0,0,0,0,0
o,0x00000000,1716939376.410643,172.16.1.2,42724,172.16.3.2,5101,22140,14517,0,65728,65728,6,6,4,1460,487,1,996,52,33580,128,65700,0,4,0,0,0
i,0x00000000,1716939376.530884,172.16.1.2,42724,172.16.3.2,5101,22140,14517,0,65728,65728,6,6,4,1460,487,1,996,52,33580,128,65700,0,128,0,0,0
i,0x00000000,1716939376.530896,172.16.1.2,42724,172.16.3.2,5101,22140,14645,0,65600,65728,6,6,4,1460,475,1,996,50,33580,0,65700,0,0,0,0,0
o,0x00000000,1716939376.531005,172.16.1.2,52162,172.16.3.2,5101,1073725440,1073725440,0,0,0,0,0,2,536,0,1,672,100,32768,0,65536,0,0,0,0,0
o,0x00000000,1716939376.566559,172.16.1.2,42724,172.16.3.2,5101,22140,14645,0,65728,65728,6,6,4,1460,475,1,997,50,33580,0,65700,0,0,0,0,0
i,0x00000000,1716939376.650481,172.16.1.2,52162,172.16.3.2,5101,1073725440,1073725440,0,0,0,0,0,2,536,0,1,672,100,32768,0,65536,0,1,0,0,0
o,0x00000000,1716939376.650496,172.16.1.2,52162,172.16.3.2,5101,22140,14480,0,65535,65700,6,6,4,1460,497,1,993,54,33580,0,65700,0,0,0,0,0
o,0x00000000,1716939376.650642,172.16.1.2,52162,172.16.3.2,5101,22140,14480,0,65535,65700,6,6,4,1460,497,1,992,54,33580,37,65700,0,0,0,0,0
i,0x00000000,1716939376.770401,172.16.1.2,42724,172.16.3.2,5101,22140,14645,0,65728,65728,6,6,4,1460,475,1,996,50,33580,0,65700,0,0,0,0,0
i,0x00000000,1716939376.770413,172.16.1.2,42724,172.16.3.2,5101,22140,14645,0,65728,65728,6,6,4,1460,475,1,996,50,33580,0,65700,1,0,0,0,0
o,0x00000000,1716939376.770420,172.16.1.2,42724,172.16.3.2,5101,22140,14645,0,65728,65728,6,6,4,1460,475,1,997,50,33580,0,65700,2,0,0,0,0
o,0x00000000,1716939376.770678,172.16.1.2,52162,172.16.3.2,5101,22140,14480,0,65535,65700,6,6,4,1460,497,1,992,54,33580,33580,65700,0,37,0,0,0
o,0x00000000,1716939376.771059,172.16.1.2,52162,172.16.3.2,5101,22140,14480,0,65535,65700,6,6,4,1460,497,1,992,54,33580,33580,65700,0,1485,0,0,0
o,0x00000000,1716939376.771376,172.16.1.2,52162,172.16.3.2,5101,22140,14480,0,65535,65700,6,6,4,1460,497,1,992,54,33580,33580,65700,0,2933,0,0,0
o,0x00000000,1716939376.771703,172.16.1.2,52162,172.16.3.2,5101,22140,14480,0,65535,65700,6,6,4,1460,497,1,992,54,33580,33580,65700,0,4381,0,0,0
o,0x00000000,1716939376.772019,172.16.1.2,52162,172.16.3.2,5101,22140,14480,0,65535,65700,6,6,4,1460,497,1,992,54,33580,33580,65700,0,5829,0,0,0
o,0x00000000,1716939376.772336,172.16.1.2,52162,172.16.3.2,5101,22140,14480,0,65535,65700,6,6,4,1460,497,1,992,54,33580,33580,65700,0,7277,0,0,0
o,0x00000000,1716939376.772659,172.16.1.2,52162,172.16.3.2,5101,22140,14480,0,65535,65700,6,6,4,1460,497,1,992,54,33580,33580,65700,0,8725,0,0,0
o,0x00000000,1716939376.773021,172.16.1.2,52162,172.16.3.2,5101,22140,14480,0,65535,65700,6,6,4,1460,497,1,992,54,33580,33580,65700,0,10173,0,0,0
o,0x00000000,1716939376.773338,172.16.1.2,52162,172.16.3.2,5101,22140,14480,0,65535,65700,6,6,4,1460,497,1,992,54,33580,33580,65700,0,11621,0,0,0
i,0x00000000,1716939376.800473,172.16.1.2,52162,172.16.3.2,5101,22140,14480,0,65535,65700,6,6,4,1460,497,1,992,54,33580,33580,65700,0,13069,0,0,0
o,0x00000000,1716939376.800482,172.16.1.2,52162,172.16.3.2,5101,22140,14517,0,65728,65728,6,6,4,1460,495,1,992,50,33580,33543,65700,0,13032,0,0,0
i,0x00000000,1716939377.010069,172.16.1.2,52162,172.16.3.2,5101,22140,14517,0,65728,65728,6,6,4,1460,495,1,992,50,33580,33543,65700,0,14480,0,0,0
o,0x00000000,1716939377.010090,172.16.1.2,52162,172.16.3.2,5101,22140,17413,0,64256,65728,6,6,4,1460,526,1,992,55,33580,30647,65700,0,11584,0,0,0
o,0x00000000,1716939377.010419,172.16.1.2,52162,172.16.3.2,5101,22140,17413,0,64256,65728,6,6,4,1460,526,1,992,55,33580,30647,65700,0,13032,0,0,0
o,0x00000000,1716939377.010650,172.16.1.2,52162,172.16.3.2,5101,22140,17413,0,64256,65728,6,6,4,1460,526,1,992,55,41772,30647,65700,0,14480,0,0,0
o,0x00000000,1716939377.010875,172.16.1.2,52162,172.16.3.2,5101,22140,17413,0,64256,65728,6,6,4,1460,526,1,992,55,41772,30647,65700,0,15928,0,0,0
i,0x00000000,1716939377.030911,172.16.1.2,52162,172.16.3.2,5101,22140,17413,0,64256,65728,6,6,4,1460,526,1,992,55,41772,41772,65700,0,17376,0,0,0
o,0x00000000,1716939377.030940,172.16.1.2,52162,172.16.3.2,5101,22140,20309,0,64256,65728,6,6,4,1460,561,1,992,60,41772,38876,65700,0,14480,0,0,0
o,0x00000000,1716939377.031302,172.16.1.2,52162,172.16.3.2,5101,22140,20309,0,64256,65728,6,6,4,1460,561,1,992,60,41772,38876,65700,0,15928,0,0,0
o,0x00000000,1716939377.031550,172.16.1.2,52162,172.16.3.2,5101,22140,20309,0,64256,65728,6,6,4,1460,561,1,992,60,41772,38876,65700,0,17376,0,0,0
o,0x00000000,1716939377.031797,172.16.1.2,52162,172.16.3.2,5101,22140,20309,0,64256,65728,6,6,4,1460,561,1,992,60,49964,38876,65700,0,18824,0,0,0
i,0x00000000,1716939377.060903,172.16.1.2,52162,172.16.3.2,5101,22140,20309,0,64256,65728,6,6,4,1460,561,1,992,60,49964,49964,65700,0,20272,0,0,0
o,0x00000000,1716939377.060933,172.16.1.2,52162,172.16.3.2,5101,22140,23205,0,64256,65728,6,6,4,1460,603,1,992,66,49964,47068,65700,0,17376,0,0,0
o,0x00000000,1716939377.061235,172.16.1.2,52162,172.16.3.2,5101,22140,23205,0,64256,65728,6,6,4,1460,603,1,992,66,49964,47068,65700,0,18824,0,0,0
o,0x00000000,1716939377.061475,172.16.1.2,52162,172.16.3.2,5101,22140,23205,0,64256,65728,6,6,4,1460,603,1,992,66,49964,47068,65700,0,20272,0,0,0
o,0x00000000,1716939377.061730,172.16.1.2,52162,172.16.3.2,5101,22140,23205,0,64256,65728,6,6,4,1460,603,1,992,66,49964,47068,65700,0,21720,0,0,0
i,0x00000000,1716939377.080770,172.16.1.2,52162,172.16.3.2,5101,22140,23205,0,64256,65728,6,6,4,1460,603,1,992,66,49964,49964,65700,0,23168,0,0,0
o,0x00000000,1716939377.080801,172.16.1.2,52162,172.16.3.2,5101,22140,23205,0,64256,65728,6,6,4,1460,648,1,992,72,49964,47068,65700,0,20272,0,0,0
o,0x00000000,1716939377.081071,172.16.1.2,52162,172.16.3.2,5101,22140,23205,0,64256,65728,6,6,4,1460,648,1,992,72,49964,47068,65700,0,21720,0,0,0
i,0x00000000,1716939377.109726,172.16.1.2,52162,172.16.3.2,5101,22140,23205,0,64256,65728,6,6,4,1460,648,1,992,72,49964,49964,65700,0,23168,0,0,0
o,0x00000000,1716939377.109737,172.16.1.2,52162,172.16.3.2,5101,22140,23205,0,64256,65728,6,6,4,1460,699,1,992,78,49964,47068,65700,0,20272,0,0,0
o,0x00000000,1716939377.110005,172.16.1.2,52162,172.16.3.2,5101,22140,23205,0,64256,65728,6,6,4,1460,699,1,992,78,49964,47068,65700,0,21720,0,0,0
i,0x00000000,1716939377.230706,172.16.1.2,52162,172.16.3.2,5101,22140,23205,0,64256,65728,6,6,4,1460,699,1,992,78,49964,49964,65700,0,23168,0,0,0
o,0x00000000,1716939377.230724,172.16.1.2,52162,172.16.3.2,5101,22140,23205,0,64256,65728,6,6,4,1460,700,1,992,69,49964,47068,65700,0,20272,0,0,0
o,0x00000000,1716939377.230971,172.16.1.2,52162,172.16.3.2,5101,22140,23205,0,64256,65728,6,6,4,1460,700,1,992,69,49964,47068,65700,0,21720,0,0,0
i,0x00000000,1716939377.309783,172.16.1.2,52162,172.16.3.2,5101,22140,23205,0,64256,65728,6,6,4,1460,700,1,992,69,49964,49964,65700,0,23168,0,0,0
o,0x00000000,1716939377.309799,172.16.1.2,52162,172.16.3.2,5101,22140,23205,0,65728,65728,6,6,4,1460,733,1,992,72,49964,48516,65700,0,21720,0,0,0
i,0x00000000,1716939377.339873,172.16.1.2,52162,172.16.3.2,5101,22140,23205,0,65728,65728,6,6,4,1460,733,1,992,72,49964,48516,65700,0,23168,0,0,0
o,0x00000000,1716939377.339881,172.16.1.2,52162,172.16.3.2,5101,22140,23205,0,64256,65728,6,6,4,1460,774,1,992,76,49964,45620,65700,0,20272,0,0,0
o,0x00000000,1716939377.340116,172.16.1.2,52162,172.16.3.2,5101,22140,23205,0,64256,65728,6,6,4,1460,774,1,992,76,49964,45620,65700,0,21720,0,0,0
i,0x00000000,1716939377.370033,172.16.1.2,52162,172.16.3.2,5101,22140,23205,0,64256,65728,6,6,4,1460,774,1,992,76,58156,58156,65700,0,23168,0,0,0
o,0x00000000,1716939377.370040,172.16.1.2,52162,172.16.3.2,5101,22140,23205,0,65728,65728,6,6,4,1460,810,1,992,78,58156,56708,65700,0,21720,0,0,0
i,0x00000000,1716939377.390706,172.16.1.2,52162,172.16.3.2,5101,22140,23205,0,65728,65728,6,6,4,1460,810,1,992,78,58156,56708,65700,0,23168,0,0,0
o,0x00000000,1716939377.390713,172.16.1.2,52162,172.16.3.2,5101,22140,23205,0,64256,65728,6,6,4,1460,853,1,992,82,58156,53812,65700,0,20272,0,0,0
o,0x00000000,1716939377.390948,172.16.1.2,52162,172.16.3.2,5101,22140,23205,0,64256,65728,6,6,4,1460,853,1,992,82,58156,53812,65700,0,21720,0,0,0
i,0x00000000,1716939377.419925,172.16.1.2,52162,172.16.3.2,5101,22140,23205,0,64256,65728,6,6,4,1460,853,1,992,82,58156,58156,65700,0,23168,0,0,0
o,0x00000000,1716939377.419934,172.16.1.2,52162,172.16.3.2,5101,22140,23205,0,64256,65728,6,6,4,1460,891,1,992,84,58156,55260,65700,0,20272,0,0,0
o,0x00000000,1716939377.420186,172.16.1.2,52162,172.16.3.2,5101,22140,23205,0,64256,65728,6,6,4,1460,891,1,992,84,58156,55260,65700,0,21720,0,0,0
i,0x00000000,1716939377.450188,172.16.1.2,52162,172.16.3.2,5101,22140,23205,0,64256,65728,6,6,4,1460,891,1,992,84,58156,58156,65700,0,23168,0,0,0
o,0x00000000,1716939377.450194,172.16.1.2,52162,172.16.3.2,5101,22140,23205,0,64256,65728,6,6,4,1460,936,1,992,88,58156,55260,65700,0,20272,0,0,0
o,0x00000000,1716939377.450444,172.16.1.2,52162,172.16.3.2,5101,22140,23205,0,64256,65728,6,6,4,1460,936,1,992,88,58156,55260,65700,0,21720,0,0,0
i,0x00000000,1716939377.480139,172.16.1.2,52162,172.16.3.2,5101,22140,23205,0,64256,65728,6,6,4,1460,936,1,992,88,58156,58156,65700,0,23168,0,0,0
o,0x00000000,1716939377.480146,172.16.1.2,52162,172.16.3.2,5101,22140,24665,0,65728,65728,6,6,4,1460,979,1,992,90,58156,56708,65700,0,21720,0,0,0
o,0x00000000,1716939377.480387,172.16.1.2,52162,172.16.3.2,5101,22140,24665,0,65728,65728,6,6,4,1460,979,1,992,90,58156,56708,65700,0,23168,0,0,0
i,0x00000000,1716939377.500427,172.16.1.2,52162,172.16.3.2,5101,22140,24665,0,65728,65728,6,6,4,1460,979,1,992,90,58156,56708,65700,0,24616,0,0,0
o,0x00000000,1716939377.500435,172.16.1.2,52162,172.16.3.2,5101,22140,24665,0,64256,65728,6,6,4,1460,1025,1,992,93,58156,53812,65700,0,21720,0,0,0
o,0x00000000,1716939377.500675,172.16.1.2,52162,172.16.3.2,5101,22140,24665,0,64256,65728,6,6,4,1460,1025,1,992,93,58156,53812,65700,0,23168,0,0,0
i,0x00000000,1716939377.549785,172.16.1.2,52162,172.16.3.2,5101,22140,24665,0,64256,65728,6,6,4,1460,1025,1,992,93,58156,58156,65700,0,24616,0,0,0
o,0x00000000,1716939377.549792,172.16.1.2,52162,172.16.3.2,5101,22140,24665,0,65728,65728,6,6,4,1460,1073,1,992,96,58156,56708,65700,0,23168,0,0,0
i,0x00000000,1716939377.610036,172.16.1.2,52162,172.16.3.2,5101,22140,24665,0,65728,65728,6,6,4,1460,1073,1,992,96,58156,56708,65700,0,24616,0,0,0
o,0x00000000,1716939377.610061,172.16.1.2,52162,172.16.3.2,5101,22140,24665,0,64256,65728,6,6,4,1460,1087,1,992,89,58156,53812,65700,0,21720,0,0,0
o,0x00000000,1716939377.610373,172.16.1.2,52162,172.16.3.2,5101,22140,24665,0,64256,65728,6,6,4,1460,1087,1,992,89,58156,53812,65700,0,23168,0,0,0
i,0x00000000,1716939377.670047,172.16.1.2,52162,172.16.3.2,5101,22140,24665,0,64256,65728,6,6,4,1460,1087,1,992,89,58156,58156,65700,0,24616,0,0,0
o,0x00000000,1716939377.670067,172.16.1.2,52162,172.16.3.2,5101,22140,24665,0,64256,65728,6,6,4,1460,1096,1,992,83,58156,55260,65700,0,21720,0,0,0
o,0x00000000,1716939377.670319,172.16.1.2,52162,172.16.3.2,5101,22140,24665,0,64256,65728,6,6,4,1460,1096,1,992,83,58156,55260,65700,0,23168,0,0,0
i,0x00000000,1716939377.719901,172.16.1.2,52162,172.16.3.2,5101,22140,24665,0,64256,65728,6,6,4,1460,1096,1,992,83,58156,58156,65700,0,24616,0,0,0
o,0x00000000,1716939377.719912,172.16.1.2,52162,172.16.3.2,5101,22140,24665,0,64256,65728,6,6,4,1460,1111,1,992,80,58156,55260,65700,0,21720,0,0,0
o,0x00000000,1716939377.720155,172.16.1.2,52162,172.16.3.2,5101,22140,24665,0,64256,65728,6,6,4,1460,1111,1,992,80,58156,55260,65700,0,23168,0,0,0
i,0x00000000,1716939377.770279,172.16.1.2,52162,172.16.3.2,5101,22140,24665,0,64256,65728,6,6,4,1460,1111,1,992,80,58156,58156,65700,0,24616,0,0,0
o,0x00000000,1716939377.770296,172.16.1.2,52162,172.16.3.2,5101,22140,24665,0,64256,65728,6,6,4,1460,1125,1,992,78,58156,55260,65700,0,21720,0,0,0
o,0x00000000,1716939377.770564,172.16.1.2,52162,172.16.3.2,5101,22140,24665,0,64256,65728,6,6,4,1460,1125,1,992,78,58156,55260,65700,0,23168,0,0,0
i,0x00000000,1716939377.809719,172.16.1.2,52162,172.16.3.2,5101,22140,24665,0,64256,65728,6,6,4,1460,1125,1,992,78,58156,58156,65700,0,24616,0,0,0
o,0x00000000,1716939377.809736,172.16.1.2,52162,172.16.3.2,5101,22140,24665,0,65728,65728,6,6,4,1460,1137,1,992,75,58156,56708,65700,0,23168,0,0,0
i,0x00000000,1716939377.849184,172.16.1.2,52162,172.16.3.2,5101,22140,24665,0,65728,65728,6,6,4,1460,1137,1,992,75,58156,56708,65700,0,24616,0,0,0
o,0x00000000,1716939377.849190,172.16.1.2,52162,172.16.3.2,5101,22140,27512,0,65728,65728,6,6,4,1460,1137,1,992,75,58156,56708,65700,0,24616,0,0,0
o,0x00000000,1716939377.849466,172.16.1.2,52162,172.16.3.2,5101,22140,27512,0,65728,65728,6,6,4,1460,1137,1,992,75,58156,56708,65700,0,26064,0,0,0
i,0x00000000,1716939377.859340,172.16.1.2,52162,172.16.3.2,5101,22140,24665,0,65728,65728,6,6,4,1460,1137,1,992,75,58156,56708,65700,0,27512,0,0,0
o,0x00000000,1716939377.859347,172.16.1.2,52162,172.16.3.2,5101,11584,1448,0,65728,65728,6,6,4,1460,1137,1,537920480,75,58156,56708,65700,0,27512,0,0,0
i,0x00000000,1716939377.898827,172.16.1.2,52162,172.16.3.2,5101,11584,1448,0,65728,65728,6,6,4,1460,1137,1,537920480,75,58156,56708,65700,0,27512,0,0,0
i,0x00000000,1716939377.909253,172.16.1.2,52162,172.16.3.2,5101,11584,1448,0,65728,65728,6,6,4,1460,1137,1,537920480,75,58156,56708,65700,0,27512,0,0,0
o,0x00000000,1716939377.909278,172.16.1.2,52162,172.16.3.2,5101,11584,2896,0,65728,65728,6,6,4,1460,1137,1,537920480,75,58156,56708,65700,0,27512,0,0,0
i,0x00000000,1716939377.959395,172.16.1.2,52162,172.16.3.2,5101,11584,2896,0,65728,65728,6,6,4,1460,1137,1,537920480,75,58156,56708,65700,0,27512,0,0,0
i,0x00000000,1716939377.959682,172.16.1.2,52162,172.16.3.2,5101,11584,2896,0,65728,65728,6,6,4,1460,1137,1,537920480,75,58156,56708,65700,0,27512,0,0,0
i,0x00000000,1716939378.009048,172.16.1.2,52162,172.16.3.2,5101,11584,2896,0,65728,65728,6,6,4,1460,1137,1,537920480,75,58156,56708,65700,0,27512,0,0,0
o,0x00000000,1716939378.009064,172.16.1.2,52162,172.16.3.2,5101,11584,4344,0,65728,65728,6,6,4,1460,1137,1,537920480,75,58156,56708,65700,0,27512,0,0,0
i,0x00000000,1716939378.029756,172.16.1.2,52162,172.16.3.2,5101,11584,4344,0,65728,65728,6,6,4,1460,1137,1,537920480,75,58156,56708,65700,0,27512,0,0,0
o,0x00000000,1716939378.029771,172.16.1.2,52162,172.16.3.2,5101,11584,2896,0,65728,65728,6,6,4,1460,1137,1,537920481,75,58156,56708,65700,0,27512,0,0,0
i,0x00000000,1716939378.050389,172.16.1.2,52162,172.16.3.2,5101,11584,2896,0,64320,65728,6,6,4,1460,1063,1,537920480,86,58156,58156,65700,0,26064,0,0,0
i,0x00000000,1716939378.068969,172.16.1.2,52162,172.16.3.2,5101,11584,2896,0,65728,65728,6,6,4,1460,1063,1,537920480,86,58156,58156,65700,0,26064,0,0,0
o,0x00000000,1716939378.068977,172.16.1.2,52162,172.16.3.2,5101,11584,2896,0,65728,65728,6,6,4,1460,1063,1,537920481,86,58156,58156,65700,0,26064,0,0,0
i,0x00000000,1716939378.098959,172.16.1.2,52162,172.16.3.2,5101,11584,2896,0,61440,65728,6,6,4,1460,991,1,537920480,94,58156,58156,65700,0,23168,0,0,0
i,0x00000000,1716939378.109858,172.16.1.2,52162,172.16.3.2,5101,11584,2896,0,65728,65728,6,6,4,1460,991,1,537920480,94,58156,58156,65700,0,23168,0,0,0
i,0x00000000,1716939378.109861,172.16.1.2,52162,172.16.3.2,5101,11584,2896,0,65728,65728,6,6,4,1460,991,1,537920480,94,58156,58156,65700,0,23168,0,0,0
i,0x00000000,1716939378.138701,172.16.1.2,52162,172.16.3.2,5101,11584,2896,0,65728,65728,6,6,4,1460,991,1,537920480,94,58156,58156,65700,0,23168,0,0,0
i,0x00000000,1716939378.159521,172.16.1.2,52162,172.16.3.2,5101,11584,2896,0,65728,65728,6,6,4,1460,991,1,537920480,94,58156,58156,65700,0,23168,0,0,0
o,0x00000000,1716939378.159528,172.16.1.2,52162,172.16.3.2,5101,11584,4344,0,65728,65728,6,6,4,1460,991,1,537920481,94,58156,58156,65700,0,23168,0,0,0
i,0x00000000,1716939378.189666,172.16.1.2,52162,172.16.3.2,5101,11584,4344,0,55616,65728,6,6,4,1460,924,1,537920480,98,58156,58156,65700,0,13032,0,0,0
o,0x00000000,1716939378.189675,172.16.1.2,52162,172.16.3.2,5101,11584,13032,0,55616,65728,6,6,4,1460,924,1,537920480,98,58156,58156,65700,0,13032,0,0,0
o,0x00000000,1716939378.189921,172.16.1.2,52162,172.16.3.2,5101,11584,13032,0,55616,65728,6,6,4,1460,924,1,537920480,98,58156,58156,65700,0,13032,0,0,0
o,0x00000000,1716939378.190175,172.16.1.2,52162,172.16.3.2,5101,11584,13032,0,55616,65728,6,6,4,1460,924,1,537920480,98,58156,58156,65700,0,13032,0,0,0
o,0x00000000,1716939378.190405,172.16.1.2,52162,172.16.3.2,5101,11584,13032,0,55616,65728,6,6,4,1460,924,1,537920480,98,58156,58156,65700,0,13032,0,0,0
o,0x00000000,1716939378.190640,172.16.1.2,52162,172.16.3.2,5101,11584,13032,0,55616,65728,6,6,4,1460,924,1,537920480,98,58156,58156,65700,0,13032,0,0,0
o,0x00000000,1716939378.190868,172.16.1.2,52162,172.16.3.2,5101,11584,13032,0,55616,65728,6,6,4,1460,924,1,537920480,98,58156,58156,65700,0,13032,0,0,0
o,0x00000000,1716939378.191094,172.16.1.2,52162,172.16.3.2,5101,11584,13032,0,55616,65728,6,6,4,1460,924,1,537920480,98,58156,58156,65700,0,13032,0,0,0
o,0x00000000,1716939378.191323,172.16.1.2,52162,172.16.3.2,5101,11584,13032,0,55616,65728,6,6,4,1460,924,1,537920480,98,58156,58156,65700,0,13032,0,0,0
i,0x00000000,1716939378.429621,172.16.1.2,52162,172.16.3.2,5101,11584,13032,0,55616,65728,6,6,4,1460,924,1,537920480,98,58156,58156,65700,0,13032,0,0,0
o,0x00000000,1716939378.429638,172.16.1.2,52162,172.16.3.2,5101,11584,13032,0,55616,65728,6,6,4,1460,924,1,537920481,98,58156,58156,65700,0,13032,0,0,0
i,0x00000000,1716939378.429746,172.16.1.2,52162,172.16.3.2,5101,11584,13032,0,64320,65728,6,6,4,1460,905,1,537920480,90,58156,56708,65700,0,13032,0,0,0
o,0x00000000,1716939378.429749,172.16.1.2,52162,172.16.3.2,5101,11584,13032,0,64320,65728,6,6,4,1460,905,1,537920481,90,58156,56708,65700,0,13032,0,0,0
i,0x00000000,1716939378.429823,172.16.1.2,52162,172.16.3.2,5101,11584,13032,0,64256,65728,6,6,4,1460,888,1,537920480,83,58156,55260,65700,0,13032,0,0,0
o,0x00000000,1716939378.429826,172.16.1.2,52162,172.16.3.2,5101,11584,13032,0,64256,65728,6,6,4,1460,888,1,537920481,83,58156,55260,65700,0,13032,0,0,0
i,0x00000000,1716939378.429900,172.16.1.2,52162,172.16.3.2,5101,11584,13032,0,64256,65728,6,6,4,1460,873,1,537920480,78,58156,53812,65700,0,13032,0,0,0
o,0x00000000,1716939378.429903,172.16.1.2,52162,172.16.3.2,5101,11584,13032,0,64256,65728,6,6,4,1460,873,1,537920481,78,58156,53812,65700,0,13032,0,0,0
i,0x00000000,1716939378.430219,172.16.1.2,52162,172.16.3.2,5101,11584,13032,0,64256,65728,6,6,4,1460,860,1,537920480,73,58156,52364,65700,0,13032,0,0,0
o,0x00000000,1716939378.430221,172.16.1.2,52162,172.16.3.2,5101,11584,13032,0,64256,65728,6,6,4,1460,860,1,537920481,73,58156,52364,65700,0,13032,0,0,0
i,0x00000000,1716939378.430297,172.16.1.2,52162,172.16.3.2,5101,11584,13032,0,64256,65728,6,6,4,1460,849,1,537920480,69,58156,50916,65700,0,13032,0,0,0
o,0x00000000,1716939378.430299,172.16.1.2,52162,172.16.3.2,5101,11584,13032,0,64256,65728,6,6,4,1460,849,1,537920481,69,58156,50916,65700,0,13032,0,0,0
i,0x00000000,1716939378.458297,172.16.1.2,52162,172.16.3.2,5101,11584,13032,0,64256,65728,6,6,4,1460,839,1,537920480,65,58156,58156,65700,0,13032,0,0,0
o,0x00000000,1716939378.458449,172.16.1.2,52162,172.16.3.2,5101,11584,13032,0,64256,65728,6,6,4,1460,839,1,537920481,65,58156,58156,65700,0,13032,0,0,0
i,0x00000000,1716939378.458769,172.16.1.2,52162,172.16.3.2,5101,11584,13032,0,64256,65728,6,6,4,1460,843,1,537920480,62,58156,56708,65700,0,13032,0,0,0
o,0x00000000,1716939378.458774,172.16.1.2,52162,172.16.3.2,5101,11584,11596,0,62848,65728,6,6,4,1460,846,1,992,59,58156,53812,65700,0,10136,0,0,0
i,0x00000000,1716939378.639188,172.16.1.2,52162,172.16.3.2,5101,11584,11596,0,62848,65728,6,6,4,1460,846,1,992,59,58156,58156,65700,0,11584,0,0,0
o,0x00000000,1716939378.639207,172.16.1.2,52162,172.16.3.2,5101,11584,11596,0,64256,65728,6,6,4,1460,821,1,992,61,58156,55260,65700,0,8688,0,0,0
o,0x00000000,1716939378.639458,172.16.1.2,52162,172.16.3.2,5101,11584,11596,0,64256,65728,6,6,4,1460,821,1,992,61,58156,55260,65700,0,10136,0,0,0
i,0x00000000,1716939378.668290,172.16.1.2,52162,172.16.3.2,5101,11584,11596,0,64256,65728,6,6,4,1460,821,1,992,61,58156,58156,65700,0,11584,0,0,0
o,0x00000000,1716939378.668299,172.16.1.2,52162,172.16.3.2,5101,11584,11596,0,64256,65728,6,6,4,1460,815,1,992,58,58156,55260,65700,0,8688,0,0,0
o,0x00000000,1716939378.668545,172.16.1.2,52162,172.16.3.2,5101,11584,11596,0,64256,65728,6,6,4,1460,815,1,992,58,58156,55260,65700,0,10136,0,0,0
i,0x00000000,1716939378.689058,172.16.1.2,52162,172.16.3.2,5101,11584,11596,0,64256,65728,6,6,4,1460,815,1,992,58,58156,58156,65700,0,11584,0,0,0
o,0x00000000,1716939378.689064,172.16.1.2,52162,172.16.3.2,5101,11584,11596,0,64256,65728,6,6,4,1460,818,1,992,56,58156,55260,65700,0,8688,0,0,0
o,0x00000000,1716939378.689313,172.16.1.2,52162,172.16.3.2,5101,11584,11596,0,64256,65728,6,6,4,1460,818,1,992,56,58156,55260,65700,0,10136,0,0,0
i,0x00000000,1716939378.728561,172.16.1.2,52162,172.16.3.2,5101,11584,11596,0,64256,65728,6,6,4,1460,818,1,992,56,58156,58156,65700,0,11584,0,0,0
o,0x00000000,1716939378.728604,172.16.1.2,52162,172.16.3.2,5101,11584,13056,0,64256,65728,6,6,4,1460,824,1,992,55,58156,55260,65700,0,8688,0,0,0
o,0x00000000,1716939378.728897,172.16.1.2,52162,172.16.3.2,5101,11584,13056,0,64256,65728,6,6,4,1460,824,1,992,55,58156,55260,65700,0,10136,0,0,0
o,0x00000000,1716939378.729139,172.16.1.2,52162,172.16.3.2,5101,11584,13056,0,64256,65728,6,6,4,1460,824,1,992,55,58156,55260,65700,0,11584,0,0,0
i,0x00000000,1716939378.808235,172.16.1.2,52162,172.16.3.2,5101,11584,13056,0,64256,65728,6,6,4,1460,824,1,992,55,58156,58156,65700,0,13032,0,0,0
o,0x00000000,1716939378.808255,172.16.1.2,52162,172.16.3.2,5101,11584,13056,0,64256,65728,6,6,4,1460,789,1,992,60,58156,55260,65700,0,10136,0,0,0
o,0x00000000,1716939378.808504,172.16.1.2,52162,172.16.3.2,5101,11584,13056,0,64256,65728,6,6,4,1460,789,1,992,60,58156,55260,65700,0,11584,0,0,0
i,0x00000000,1716939378.849201,172.16.1.2,52162,172.16.3.2,5101,11584,13056,0,64256,65728,6,6,4,1460,789,1,992,60,58156,58156,65700,0,13032,0,0,0
o,0x00000000,1716939378.849237,172.16.1.2,52162,172.16.3.2,5101,11584,13056,0,64256,65728,6,6,4,1460,759,1,992,63,58156,55260,65700,0,10136,0,0,0
o,0x00000000,1716939378.849566,172.16.1.2,52162,172.16.3.2,5101,11584,13056,0,64256,65728,6,6,4,1460,759,1,992,63,58156,55260,65700,0,11584,0,0,0
i,0x00000000,1716939378.908992,172.16.1.2,52162,172.16.3.2,5101,11584,13056,0,64256,65728,6,6,4,1460,759,1,992,63,58156,58156,65700,0,13032,0,0,0
o,0x00000000,1716939378.909011,172.16.1.2,52162,172.16.3.2,5101,11584,13056,0,64256,65728,6,6,4,1460,753,1,992,60,58156,55260,65700,0,10136,0,0,0
o,0x00000000,1716939378.909268,172.16.1.2,52162,172.16.3.2,5101,11584,13056,0,64256,65728,6,6,4,1460,753,1,992,60,58156,55260,65700,0,11584,0,0,0
i,0x00000000,1716939378.928588,172.16.1.2,52162,172.16.3.2,5101,11584,13056,0,64256,65728,6,6,4,1460,753,1,992,60,58156,58156,65700,0,13032,0,0,0
o,0x00000000,1716939378.928599,172.16.1.2,52162,172.16.3.2,5101,11584,14516,0,64256,65728,6,6,4,1460,739,1,992,59,58156,55260,65700,0,10136,0,0,0
o,0x00000000,1716939378.928857,172.16.1.2,52162,172.16.3.2,5101,11584,14516,0,64256,65728,6,6,4,1460,739,1,992,59,58156,55260,65700,0,11584,0,0,0
o,0x00000000,1716939378.929144,172.16.1.2,52162,172.16.3.2,5101,11584,14516,0,64256,65728,6,6,4,1460,739,1,992,59,58156,55260,65700,0,13032,0,0,0
i,0x00000000,1716939379.008531,172.16.1.2,52162,172.16.3.2,5101,11584,14516,0,64256,65728,6,6,4,1460,739,1,992,59,58156,58156,65700,0,14480,0,0,0
o,0x00000000,1716939379.008549,172.16.1.2,52162,172.16.3.2,5101,11584,14516,0,65728,65728,6,6,4,1460,759,1,992,60,58156,56708,65700,0,13032,0,0,0
i,0x00000000,1716939379.017776,172.16.1.2,52162,172.16.3.2,5101,11584,14516,0,65728,65728,6,6,4,1460,759,1,992,60,58156,56708,65700,0,14480,0,0,0
o,0x00000000,1716939379.017785,172.16.1.2,52162,172.16.3.2,5101,11584,14516,0,64256,65728,6,6,4,1460,749,1,992,58,58156,53812,65700,0,11584,0,0,0
o,0x00000000,1716939379.018027,172.16.1.2,52162,172.16.3.2,5101,11584,14516,0,64256,65728,6,6,4,1460,749,1,992,58,58156,53812,65700,0,13032,0,0,0
i,0x00000000,1716939379.067639,172.16.1.2,52162,172.16.3.2,5101,11584,14516,0,64256,65728,6,6,4,1460,749,1,992,58,58156,58156,65700,0,14480,0,0,0
o,0x00000000,1716939379.067658,172.16.1.2,52162,172.16.3.2,5101,11584,14516,0,64256,65728,6,6,4,1460,744,1,992,56,58156,55260,65700,0,11584,0,0,0
o,0x00000000,1716939379.067905,172.16.1.2,52162,172.16.3.2,5101,11584,14516,0,64256,65728,6,6,4,1460,744,1,992,56,58156,55260,65700,0,13032,0,0,0
i,0x00000000,1716939379.127690,172.16.1.2,52162,172.16.3.2,5101,11584,14516,0,64256,65728,6,6,4,1460,744,1,992,56,58156,58156,65700,0,14480,0,0,0
o,0x00000000,1716939379.127703,172.16.1.2,52162,172.16.3.2,5101,11584,14516,0,64256,65728,6,6,4,1460,739,1,992,54,58156,55260,65700,0,11584,0,0,0
o,0x00000000,1716939379.127946,172.16.1.2,52162,172.16.3.2,5101,11584,14516,0,64256,65728,6,6,4,1460,739,1,992,54,58156,55260,65700,0,13032,0,0,0
i,0x00000000,1716939379.177691,172.16.1.2,52162,172.16.3.2,5101,11584,14516,0,64256,65728,6,6,4,1460,739,1,992,54,58156,58156,65700,0,14480,0,0,0
o,0x00000000,1716939379.177702,172.16.1.2,52162,172.16.3.2,5101,11584,14516,0,65728,65728,6,6,4,1460,747,1,992,53,58156,56708,65700,0,13032,0,0,0
i,0x00000000,1716939379.198039,172.16.1.2,52162,172.16.3.2,5101,11584,14516,0,65728,65728,6,6,4,1460,747,1,992,53,58156,56708,65700,0,14480,0,0,0
o,0x00000000,1716939379.198055,172.16.1.2,52162,172.16.3.2,5101,11584,15976,0,64256,65728,6,6,4,1460,758,1,992,54,58156,53812,65700,0,11584,0,0,0
o,0x00000000,1716939379.198344,172.16.1.2,52162,172.16.3.2,5101,11584,15976,0,64256,65728,6,6,4,1460,758,1,992,54,58156,53812,65700,0,13032,0,0,0
o,0x00000000,1716939379.198601,172.16.1.2,52162,172.16.3.2,5101,11584,15976,0,64256,65728,6,6,4,1460,758,1,992,54,58156,53812,65700,0,14480,0,0,0
i,0x00000000,1716939379.258367,172.16.1.2,52162,172.16.3.2,5101,11584,15976,0,64256,65728,6,6,4,1460,758,1,992,54,58156,58156,65700,0,15928,0,0,0
o,0x00000000,1716939379.258374,172.16.1.2,52162,172.16.3.2,5101,11584,15976,0,64256,65728,6,6,4,1460,764,1,992,53,58156,55260,65700,0,13032,0,0,0
o,0x00000000,1716939379.258624,172.16.1.2,52162,172.16.3.2,5101,11584,15976,0,64256,65728,6,6,4,1460,764,1,992,53,58156,55260,65700,0,14480,0,0,0
i,0x00000000,1716939379.288240,172.16.1.2,52162,172.16.3.2,5101,11584,15976,0,64256,65728,6,6,4,1460,764,1,992,53,58156,58156,65700,0,15928,0,0,0
o,0x00000000,1716939379.288246,172.16.1.2,52162,172.16.3.2,5101,11584,15976,0,65728,65728,6,6,4,1460,777,1,992,54,58156,56708,65700,0,14480,0,0,0
i,0x00000000,1716939379.308341,172.16.1.2,52162,172.16.3.2,5101,11584,15976,0,65728,65728,6,6,4,1460,777,1,992,54,58156,56708,65700,0,15928,0,0,0
o,0x00000000,1716939379.308353,172.16.1.2,52162,172.16.3.2,5101,11584,15976,0,64256,65728,6,6,4,1460,776,1,992,52,58156,53812,65700,0,13032,0,0,0
o,0x00000000,1716939379.308623,172.16.1.2,52162,172.16.3.2,5101,11584,15976,0,64256,65728,6,6,4,1460,776,1,992,52,58156,53812,65700,0,14480,0,0,0
i,0x00000000,1716939379.389021,172.16.1.2,52162,172.16.3.2,5101,11584,15976,0,64256,65728,6,6,4,1460,776,1,992,52,58156,58156,65700,0,15928,0,0,0
o,0x00000000,1716939379.389035,172.16.1.2,52162,172.16.3.2,5101,11584,15976,0,64256,65728,6,6,4,1460,783,1,992,52,58156,55260,65700,0,13032,0,0,0
o,0x00000000,1716939379.389399,172.16.1.2,52162,172.16.3.2,5101,11584,15976,0,64256,65728,6,6,4,1460,783,1,992,52,58156,55260,65700,0,14480,0,0,0
i,0x00000000,1716939379.437289,172.16.1.2,52162,172.16.3.2,5101,11584,15976,0,64256,65728,6,6,4,1460,783,1,992,52,58156,58156,65700,0,15928,0,0,0
o,0x00000000,1716939379.437327,172.16.1.2,52162,172.16.3.2,5101,11584,15976,0,64256,65728,6,6,4,1460,790,1,992,52,58156,55260,65700,0,13032,0,0,0
o,0x00000000,1716939379.437654,172.16.1.2,52162,172.16.3.2,5101,11584,15976,0,64256,65728,6,6,4,1460,790,1,992,52,58156,55260,65700,0,14480,0,0,0
i,0x00000000,1716939379.468143,172.16.1.2,52162,172.16.3.2,5101,11584,15976,0,64256,65728,6,6,4,1460,790,1,992,52,58156,58156,65700,0,15928,0,0,0
o,0x00000000,1716939379.468162,172.16.1.2,52162,172.16.3.2,5101,11584,17436,0,64256,65728,6,6,4,1460,800,1,992,53,58156,55260,65700,0,13032,0,0,0
o,0x00000000,1716939379.468412,172.16.1.2,52162,172.16.3.2,5101,11584,17436,0,64256,65728,6,6,4,1460,800,1,992,53,58156,55260,65700,0,14480,0,0,0
o,0x00000000,1716939379.468688,172.16.1.2,52162,172.16.3.2,5101,11584,17436,0,64256,65728,6,6,4,1460,800,1,992,53,58156,55260,65700,0,15928,0,0,0
i,0x00000000,1716939379.528227,172.16.1.2,52162,172.16.3.2,5101,11584,17436,0,64256,65728,6,6,4,1460,800,1,992,53,58156,58156,65700,0,17376,0,0,0
o,0x00000000,1716939379.528242,172.16.1.2,52162,172.16.3.2,5101,11584,17436,0,64256,65728,6,6,4,1460,808,1,992,53,58156,55260,65700,0,14480,0,0,0
o,0x00000000,1716939379.528486,172.16.1.2,52162,172.16.3.2,5101,11584,17436,0,64256,65728,6,6,4,1460,808,1,992,53,58156,55260,65700,0,15928,0,0,0
i,0x00000000,1716939379.577920,172.16.1.2,52162,172.16.3.2,5101,11584,17436,0,64256,65728,6,6,4,1460,808,1,992,53,58156,58156,65700,0,17376,0,0,0
o,0x00000000,1716939379.577934,172.16.1.2,52162,172.16.3.2,5101,11584,17436,0,64256,65728,6,6,4,1460,823,1,992,55,58156,55260,65700,0,14480,0,0,0
o,0x00000000,1716939379.578224,172.16.1.2,52162,172.16.3.2,5101,11584,17436,0,64256,65728,6,6,4,1460,823,1,992,55,58156,55260,65700,0,15928,0,0,0
i,0x00000000,1716939379.607265,172.16.1.2,52162,172.16.3.2,5101,11584,17436,0,64256,65728,6,6,4,1460,823,1,992,55,58156,58156,65700,0,17376,0,0,0
o,0x00000000,1716939379.607278,172.16.1.2,52162,172.16.3.2,5101,11584,17436,0,65728,65728,6,6,4,1460,837,1,992,57,58156,56708,65700,0,15928,0,0,0
i,0x00000000,1716939379.657946,172.16.1.2,52162,172.16.3.2,5101,11584,17436,0,65728,65728,6,6,4,1460,837,1,992,57,58156,56708,65700,0,17376,0,0,0
o,0x00000000,1716939379.657987,172.16.1.2,52162,172.16.3.2,5101,11584,17436,0,65728,65728,6,6,4,1460,841,1,992,55,58156,55260,65700,0,15928,0,0,0
i,0x00000000,1716939379.688809,172.16.1.2,52162,172.16.3.2,5101,11584,17436,0,65728,65728,6,6,4,1460,841,1,992,55,58156,58156,65700,0,17376,0,0,0
o,0x00000000,1716939379.688840,172.16.1.2,52162,172.16.3.2,5101,11584,17436,0,64256,65728,6,6,4,1460,856,1,992,57,58156,55260,65700,0,14480,0,0,0
o,0x00000000,1716939379.689157,172.16.1.2,52162,172.16.3.2,5101,11584,17436,0,64256,65728,6,6,4,1460,856,1,992,57,58156,55260,65700,0,15928,0,0,0
i,0x00000000,1716939379.727515,172.16.1.2,52162,172.16.3.2,5101,11584,17436,0,64256,65728,6,6,4,1460,856,1,992,57,58156,58156,65700,0,17376,0,0,0
o,0x00000000,1716939379.727533,172.16.1.2,52162,172.16.3.2,5101,11584,17436,0,64256,65728,6,6,4,1460,865,1,992,57,58156,55260,65700,0,14480,0,0,0
o,0x00000000,1716939379.727902,172.16.1.2,52162,172.16.3.2,5101,11584,17436,0,64256,65728,6,6,4,1460,865,1,992,57,58156,55260,65700,0,15928,0,0,0
i,0x00000000,1716939379.767894,172.16.1.2,52162,172.16.3.2,5101,11584,17436,0,64256,65728,6,6,4,1460,865,1,992,57,58156,58156,65700,0,17376,0,0,0
o,0x00000000,1716939379.767903,172.16.1.2,52162,172.16.3.2,5101,11584,17436,0,65728,65728,6,6,4,1460,877,1,992,58,58156,56708,65700,0,15928,0,0,0
i,0x00000000,1716939379.797970,172.16.1.2,52162,172.16.3.2,5101,11584,17436,0,65728,65728,6,6,4,1460,877,1,992,58,58156,56708,65700,0,17376,0,0,0
o,0x00000000,1716939379.797990,172.16.1.2,52162,172.16.3.2,5101,11584,18896,0,64256,65728,6,6,4,1460,900,1,992,62,58156,53812,65700,0,14480,0,0,0
o,0x00000000,1716939379.798279,172.16.1.2,52162,172.16.3.2,5101,11584,18896,0,64256,65728,6,6,4,1460,900,1,992,62,58156,53812,65700,0,15928,0,0,0
o,0x00000000,1716939379.798637,172.16.1.2,52162,172.16.3.2,5101,11584,18896,0,64256,65728,6,6,4,1460,900,1,992,62,58156,53812,65700,0,17376,0,0,0
i,0x00000000,1716939379.847385,172.16.1.2,52162,172.16.3.2,5101,11584,18896,0,64256,65728,6,6,4,1460,900,1,992,62,58156,58156,65700,0,18824,0,0,0
o,0x00000000,1716939379.847399,172.16.1.2,52162,172.16.3.2,5101,11584,18896,0,64256,65728,6,6,4,1460,916,1,992,63,58156,55260,65700,0,15928,0,0,0
o,0x00000000,1716939379.847679,172.16.1.2,52162,172.16.3.2,5101,11584,18896,0,64256,65728,6,6,4,1460,916,1,992,63,58156,55260,65700,0,17376,0,0,0
i,0x00000000,1716939379.887031,172.16.1.2,52162,172.16.3.2,5101,11584,18896,0,64256,65728,6,6,4,1460,916,1,992,63,58156,58156,65700,0,18824,0,0,0
o,0x00000000,1716939379.887039,172.16.1.2,52162,172.16.3.2,5101,11584,18896,0,64256,65728,6,6,4,1460,926,1,992,62,58156,55260,65700,0,15928,0,0,0
o,0x00000000,1716939379.887291,172.16.1.2,52162,172.16.3.2,5101,11584,18896,0,64256,65728,6,6,4,1460,926,1,992,62,58156,55260,65700,0,17376,0,0,0
i,0x00000000,1716939379.947141,172.16.1.2,52162,172.16.3.2,5101,11584,18896,0,64256,65728,6,6,4,1460,926,1,992,62,58156,58156,65700,0,18824,0,0,0
o,0x00000000,1716939379.947159,172.16.1.2,52162,172.16.3.2,5101,11584,18896,0,64256,65728,6,6,4,1460,923,1,992,59,58156,55260,65700,0,15928,0,0,0
o,0x00000000,1716939379.947411,172.16.1.2,52162,172.16.3.2,5101,11584,18896,0,64256,65728,6,6,4,1460,923,1,992,59,58156,55260,65700,0,17376,0,0,0
i,0x00000000,1716939379.986740,172.16.1.2,52162,172.16.3.2,5101,11584,18896,0,64256,65728,6,6,4,1460,923,1,992,59,58156,58156,65700,0,18824,0,0,0
o,0x00000000,1716939379.986750,172.16.1.2,52162,172.16.3.2,5101,11584,18896,0,65728,65728,6,6,4,1460,924,1,992,57,58156,56708,65700,0,17376,0,0,0
i,0x00000000,1716939380.017024,172.16.1.2,52162,172.16.3.2,5101,11584,18896,0,65728,65728,6,6,4,1460,924,1,992,57,58156,56708,65700,0,18824,0,0,0
o,0x00000000,1716939380.017033,172.16.1.2,52162,172.16.3.2,5101,11584,18896,0,64256,65728,6,6,4,1460,925,1,992,55,58156,53812,65700,0,15928,0,0,0
o,0x00000000,1716939380.017282,172.16.1.2,52162,172.16.3.2,5101,11584,18896,0,64256,65728,6,6,4,1460,925,1,992,55,58156,53812,65700,0,17376,0,0,0
i,0x00000000,1716939380.096690,172.16.1.2,52162,172.16.3.2,5101,11584,18896,0,64256,65728,6,6,4,1460,925,1,992,55,58156,58156,65700,0,18824,0,0,0
o,0x00000000,1716939380.096710,172.16.1.2,52162,172.16.3.2,5101,11584,18896,0,64256,65728,6,6,4,1460,938,1,992,57,58156,55260,65700,0,15928,0,0,0
o,0x00000000,1716939380.096965,172.16.1.2,52162,172.16.3.2,5101,11584,18896,0,64256,65728,6,6,4,1460,938,1,992,57,58156,55260,65700,0,17376,0,0,0
i,0x00000000,1716939380.128041,172.16.1.2,52162,172.16.3.2,5101,11584,18896,0,64256,65728,6,6,4,1460,938,1,992,57,58156,58156,65700,0,18824,0,0,0
o,0x00000000,1716939380.128053,172.16.1.2,52162,172.16.3.2,5101,11584,20356,0,64256,65728,6,6,4,1460,953,1,992,60,58156,55260,65700,0,15928,0,0,0
o,0x00000000,1716939380.128358,172.16.1.2,52162,172.16.3.2,5101,11584,20356,0,64256,65728,6,6,4,1460,953,1,992,60,58156,55260,65700,0,17376,0,0,0
o,0x00000000,1716939380.128588,172.16.1.2,52162,172.16.3.2,5101,11584,20356,0,64256,65728,6,6,4,1460,953,1,992,60,58156,55260,65700,0,18824,0,0,0
i,0x00000000,1716939380.167108,172.16.1.2,52162,172.16.3.2,5101,11584,20356,0,64256,65728,6,6,4,1460,953,1,992,60,58156,58156,65700,0,20272,0,0,0
o,0x00000000,1716939380.167116,172.16.1.2,52162,172.16.3.2,5101,11584,20356,0,64256,65728,6,6,4,1460,962,1,992,60,58156,55260,65700,0,17376,0,0,0
o,0x00000000,1716939380.167352,172.16.1.2,52162,172.16.3.2,5101,11584,20356,0,64256,65728,6,6,4,1460,962,1,992,60,58156,55260,65700,0,18824,0,0,0
i,0x00000000,1716939380.207513,172.16.1.2,52162,172.16.3.2,5101,11584,20356,0,64256,65728,6,6,4,1460,962,1,992,60,58156,58156,65700,0,20272,0,0,0
o,0x00000000,1716939380.207534,172.16.1.2,52162,172.16.3.2,5101,11584,20356,0,64256,65728,6,6,4,1460,970,1,992,59,58156,55260,65700,0,17376,0,0,0
o,0x00000000,1716939380.207827,172.16.1.2,52162,172.16.3.2,5101,11584,20356,0,64256,65728,6,6,4,1460,970,1,992,59,58156,55260,65700,0,18824,0,0,0
i,0x00000000,1716939380.247626,172.16.1.2,52162,172.16.3.2,5101,11584,20356,0,64256,65728,6,6,4,1460,970,1,992,59,58156,58156,65700,0,20272,0,0,0
o,0x00000000,1716939380.247633,172.16.1.2,52162,172.16.3.2,5101,11584,20356,0,64256,65728,6,6,4,1460,969,1,992,57,58156,55260,65700,0,17376,0,0,0
o,0x00000000,1716939380.247871,172.16.1.2,52162,172.16.3.2,5101,11584,20356,0,64256,65728,6,6,4,1460,969,1,992,57,58156,55260,65700,0,18824,0,0,0
i,0x00000000,1716939380.317571,172.16.1.2,52162,172.16.3.2,5101,11584,20356,0,64256,65728,6,6,4,1460,969,1,992,57,58156,58156,65700,0,20272,0,0,0
o,0x00000000,1716939380.317584,172.16.1.2,52162,172.16.3.2,5101,11584,20356,0,65728,65728,6,6,4,1460,980,1,992,59,58156,56708,65700,0,18824,0,0,0
i,0x00000000,1716939380.347689,172.16.1.2,52162,172.16.3.2,5101,11584,20356,0,65728,65728,6,6,4,1460,980,1,992,59,58156,56708,65700,0,20272,0,0,0
o,0x00000000,1716939380.347697,172.16.1.2,52162,172.16.3.2,5101,11584,20356,0,64256,65728,6,6,4,1460,990,1,992,59,58156,53812,65700,0,17376,0,0,0
o,0x00000000,1716939380.347960,172.16.1.2,52162,172.16.3.2,5101,11584,20356,0,64256,65728,6,6,4,1460,990,1,992,59,58156,53812,65700,0,18824,0,0,0
i,0x00000000,1716939380.406746,172.16.1.2,52162,172.16.3.2,5101,11584,20356,0,64256,65728,6,6,4,1460,990,1,992,59,58156,58156,65700,0,20272,0,0,0
o,0x00000000,1716939380.406762,172.16.1.2,52162,172.16.3.2,5101,11584,20356,0,65728,65728,6,6,4,1460,991,1,992,57,58156,56708,65700,0,18824,0,0,0
i,0x00000000,1716939380.417718,172.16.1.2,52162,172.16.3.2,5101,11584,20356,0,65728,65728,6,6,4,1460,991,1,992,57,58156,56708,65700,0,20272,0,0,0
i,0x00000000,1716939380.417722,172.16.1.2,52162,172.16.3.2,5101,11584,20356,0,65728,65728,6,6,4,1460,991,1,992,57,58156,56708,65700,0,20272,0,0,0
o,0x00000000,1716939380.417725,172.16.1.2,52162,172.16.3.2,5101,10136,1448,0,65728,65728,6,6,4,1460,991,1,537920480,57,58156,56708,65700,0,20272,0,0,0
i,0x00000000,1716939380.466485,172.16.1.2,52162,172.16.3.2,5101,10136,1448,0,65728,65728,6,6,4,1460,991,1,537920480,57,58156,56708,65700,0,20272,0,0,0
o,0x00000000,1716939380.466493,172.16.1.2,52162,172.16.3.2,5101,10136,2896,0,65728,65728,6,6,4,1460,991,1,537920480,57,58156,56708,65700,0,20272,0,0,0
i,0x00000000,1716939380.466736,172.16.1.2,52162,172.16.3.2,5101,10136,2896,0,65728,65728,6,6,4,1460,991,1,537920480,57,58156,56708,65700,0,21720,0,0,0
i,0x00000000,1716939380.496689,172.16.1.2,52162,172.16.3.2,5101,10136,2896,0,65728,65728,6,6,4,1460,991,1,537920480,57,58156,56708,65700,0,21720,0,0,0
o,0x00000000,1716939380.496697,172.16.1.2,52162,172.16.3.2,5101,10136,4344,0,65728,65728,6,6,4,1460,991,1,537920480,57,58156,56708,65700,0,21720,0,0,0
i,0x00000000,1716939380.546414,172.16.1.2,52162,172.16.3.2,5101,10136,4344,0,65728,65728,6,6,4,1460,991,1,537920480,57,58156,56708,65700,0,21720,0,0,0
i,0x00000000,1716939380.546419,172.16.1.2,52162,172.16.3.2,5101,10136,4344,0,65728,65728,6,6,4,1460,991,1,537920480,57,58156,56708,65700,0,21720,0,0,0
o,0x00000000,1716939380.546423,172.16.1.2,52162,172.16.3.2,5101,10136,5792,0,65728,65728,6,6,4,1460,991,1,537920480,57,58156,56708,65700,0,21720,0,0,0
i,0x00000000,1716939380.567338,172.16.1.2,52162,172.16.3.2,5101,10136,5792,0,65728,65728,6,6,4,1460,991,1,537920480,57,58156,56708,65700,0,23168,0,0,0
o,0x00000000,1716939380.567344,172.16.1.2,52162,172.16.3.2,5101,10136,4344,0,65728,65728,6,6,4,1460,991,1,537920481,57,58156,56708,65700,0,23168,0,0,0
i,0x00000000,1716939380.596982,172.16.1.2,52162,172.16.3.2,5101,10136,4344,0,57088,65728,6,6,4,1460,928,1,537920480,70,58156,58156,65700,0,14480,0,0,0
i,0x00000000,1716939380.626476,172.16.1.2,52162,172.16.3.2,5101,10136,4344,0,65728,65728,6,6,4,1460,928,1,537920480,70,58156,58156,65700,0,14480,0,0,0
i,0x00000000,1716939380.626911,172.16.1.2,52162,172.16.3.2,5101,10136,4344,0,65728,65728,6,6,4,1460,928,1,537920480,70,58156,58156,65700,0,14480,0,0,0
o,0x00000000,1716939380.626918,172.16.1.2,52162,172.16.3.2,5101,10136,5792,0,65728,65728,6,6,4,1460,928,1,537920481,70,58156,58156,65700,0,14480,0,0,0
i,0x00000000,1716939380.646031,172.16.1.2,52162,172.16.3.2,5101,10136,5792,0,59968,65728,6,6,4,1460,864,1,537920480,78,58156,58156,65700,0,8688,0,0,0
o,0x00000000,1716939380.646047,172.16.1.2,52162,172.16.3.2,5101,10136,11584,0,59968,65728,6,6,4,1460,864,1,537920480,78,58156,58156,65700,0,8688,0,0,0
o,0x00000000,1716939380.646437,172.16.1.2,52162,172.16.3.2,5101,10136,11584,0,59968,65728,6,6,4,1460,864,1,537920480,78,58156,58156,65700,0,10136,0,0,0
i,0x00000000,1716939380.676287,172.16.1.2,52162,172.16.3.2,5101,10136,11584,0,59968,65728,6,6,4,1460,864,1,537920480,78,58156,58156,65700,0,11584,0,0,0
o,0x00000000,1716939380.676304,172.16.1.2,52162,172.16.3.2,5101,10136,13032,0,59968,65728,6,6,4,1460,864,1,537920480,78,58156,58156,65700,0,11584,0,0,0
o,0x00000000,1716939380.676568,172.16.1.2,52162,172.16.3.2,5101,10136,13032,0,59968,65728,6,6,4,1460,864,1,537920480,78,58156,58156,65700,0,11584,0,0,0
o,0x00000000,1716939380.676798,172.16.1.2,52162,172.16.3.2,5101,10136,13032,0,59968,65728,6,6,4,1460,864,1,537920480,78,58156,58156,65700,0,11584,0,0,0
o,0x00000000,1716939380.677027,172.16.1.2,52162,172.16.3.2,5101,10136,13032,0,59968,65728,6,6,4,1460,864,1,537920480,78,58156,58156,65700,0,11584,0,0,0
o,0x00000000,1716939380.677255,172.16.1.2,52162,172.16.3.2,5101,10136,13032,0,59968,65728,6,6,4,1460,864,1,537920480,78,58156,58156,65700,0,11584,0,0,0
i,0x00000000,1716939380.846883,172.16.1.2,52162,172.16.3.2,5101,10136,13032,0,59968,65728,6,6,4,1460,864,1,537920480,78,58156,58156,65700,0,13032,0,0,0
o,0x00000000,1716939380.846899,172.16.1.2,52162,172.16.3.2,5101,10136,14480,0,59968,65728,6,6,4,1460,864,1,537920480,78,58156,58156,65700,0,13032,0,0,0
i,0x00000000,1716939380.846984,172.16.1.2,52162,172.16.3.2,5101,10136,14480,0,59968,65728,6,6,4,1460,864,1,537920480,78,58156,58156,65700,0,14480,0,0,0
o,0x00000000,1716939380.846986,172.16.1.2,52162,172.16.3.2,5101,10136,15928,0,59968,65728,6,6,4,1460,864,1,537920480,78,58156,58156,65700,0,14480,0,0,0
i,0x00000000,1716939380.866640,172.16.1.2,52162,172.16.3.2,5101,10136,15928,0,59968,65728,6,6,4,1460,864,1,537920480,78,58156,58156,65700,0,15928,0,0,0
o,0x00000000,1716939380.866647,172.16.1.2,52162,172.16.3.2,5101,10136,17376,0,59968,65728,6,6,4,1460,864,1,537920480,78,58156,58156,65700,0,15928,0,0,0
i,0x00000000,1716939380.866733,172.16.1.2,52162,172.16.3.2,5101,10136,17376,0,59968,65728,6,6,4,1460,864,1,537920480,78,58156,58156,65700,0,17376,0,0,0
o,0x00000000,1716939380.866735,172.16.1.2,52162,172.16.3.2,5101,10136,17376,0,59968,65728,6,6,4,1460,864,1,537920481,78,58156,58156,65700,0,17376,0,0,0
i,0x00000000,1716939380.866811,172.16.1.2,52162,172.16.3.2,5101,10136,17376,0,64320,65728,6,6,4,1460,832,1,537920480,78,58156,56708,65700,0,17376,0,0,0
o,0x00000000,1716939380.866814,172.16.1.2,52162,172.16.3.2,5101,10136,17376,0,64320,65728,6,6,4,1460,832,1,537920481,78,58156,56708,65700,0,17376,0,0,0
i,0x00000000,1716939380.867102,172.16.1.2,52162,172.16.3.2,5101,10136,17376,0,64256,65728,6,6,4,1460,804,1,537920480,76,58156,55260,65700,0,17376,0,0,0
o,0x00000000,1716939380.867105,172.16.1.2,52162,172.16.3.2,5101,10136,17376,0,64256,65728,6,6,4,1460,804,1,537920481,76,58156,55260,65700,0,17376,0,0,0
i,0x00000000,1716939380.887180,172.16.1.2,52162,172.16.3.2,5101,10136,17376,0,64256,65728,6,6,4,1460,780,1,537920480,73,58156,57976,65700,0,17376,0,0,0
i,0x00000000,1716939381.006781,172.16.1.2,52162,172.16.3.2,5101,10136,10136,0,64256,65728,6,6,4,1460,767,1,992,69,58156,56528,65700,0,15928,0,0,0
i,0x00000000,1716939381.006810,172.16.1.2,52162,172.16.3.2,5101,10136,10136,0,64256,65728,6,6,4,1460,767,1,992,69,58156,56528,65700,0,15928,0,0,0
o,0x00000000,1716939381.006818,172.16.1.2,52162,172.16.3.2,5101,4344,1448,0,64256,65728,6,6,4,1460,767,1,537920480,69,58156,56528,65700,0,15928,0,0,0
i,0x00000000,1716939381.035439,172.16.1.2,52162,172.16.3.2,5101,4344,1448,0,64256,65728,6,6,4,1460,767,1,537920480,69,58156,56528,65700,0,15928,0,0,0
i,0x00000000,1716939381.046074,172.16.1.2,52162,172.16.3.2,5101,4344,1448,0,64256,65728,6,6,4,1460,767,1,537920480,69,58156,56528,65700,0,15928,0,0,0
o,0x00000000,1716939381.046098,172.16.1.2,52162,172.16.3.2,5101,4344,2896,0,64256,65728,6,6,4,1460,767,1,537920480,69,58156,56528,65700,0,15928,0,0,0
i,0x00000000,1716939381.046374,172.16.1.2,52162,172.16.3.2,5101,4344,2896,0,64256,65728,6,6,4,1460,767,1,537920480,69,58156,56528,65700,0,17376,0,0,0
i,0x00000000,1716939381.066405,172.16.1.2,52162,172.16.3.2,5101,4344,2896,0,64256,65728,6,6,4,1460,767,1,537920480,69,58156,56528,65700,0,17376,0,0,0
o,0x00000000,1716939381.066411,172.16.1.2,52162,172.16.3.2,5101,4344,4344,0,64256,65728,6,6,4,1460,767,1,537920480,69,58156,56528,65700,0,17376,0,0,0
i,0x00000000,1716939381.135835,172.16.1.2,52162,172.16.3.2,5101,4344,4344,0,64256,65728,6,6,4,1460,767,1,537920480,69,58156,56528,65700,0,18824,0,0,0
o,0x00000000,1716939381.135849,172.16.1.2,52162,172.16.3.2,5101,4344,4356,0,49856,65728,6,6,4,1460,720,1,992,73,58156,40600,65700,0,2896,0,0,0
i,0x00000000,1716939381.186665,172.16.1.2,52162,172.16.3.2,5101,4344,4356,0,49856,65728,6,6,4,1460,720,1,992,73,58156,58156,65700,0,4344,0,0,0
o,0x00000000,1716939381.186675,172.16.1.2,52162,172.16.3.2,5101,4344,5816,0,65728,65728,6,6,4,1460,686,1,992,73,58156,56708,65700,0,2896,0,0,0
o,0x00000000,1716939381.186919,172.16.1.2,52162,172.16.3.2,5101,4344,5816,0,65728,65728,6,6,4,1460,686,1,992,73,58156,56708,65700,0,4344,0,0,0
i,0x00000000,1716939381.236067,172.16.1.2,52162,172.16.3.2,5101,4344,5816,0,65728,65728,6,6,4,1460,686,1,992,73,58156,56708,65700,0,5792,0,0,0
o,0x00000000,1716939381.236092,172.16.1.2,52162,172.16.3.2,5101,4344,7276,0,65728,65728,6,6,4,1460,665,1,992,70,58156,55260,65700,0,4344,0,0,0
o,0x00000000,1716939381.236481,172.16.1.2,52162,172.16.3.2,5101,4344,7276,0,65728,65728,6,6,4,1460,665,1,992,70,58156,55260,65700,0,5792,0,0,0
i,0x00000000,1716939381.297008,172.16.1.2,52162,172.16.3.2,5101,4344,7276,0,65728,65728,6,6,4,1460,665,1,992,70,58156,58156,65700,0,7240,0,0,0
o,0x00000000,1716939381.297029,172.16.1.2,52162,172.16.3.2,5101,4344,7276,0,65728,65728,6,6,4,1460,650,1,992,66,58156,56708,65700,0,5792,0,0,0
i,0x00000000,1716939381.336416,172.16.1.2,52162,172.16.3.2,5101,4344,7276,0,65728,65728,6,6,4,1460,650,1,992,66,58156,56708,65700,0,7240,0,0,0
o,0x00000000,1716939381.336434,172.16.1.2,52162,172.16.3.2,5101,4344,8736,0,64256,65728,6,6,4,1460,629,1,992,64,58156,53812,65700,0,4344,0,0,0
o,0x00000000,1716939381.336726,172.16.1.2,52162,172.16.3.2,5101,4344,8736,0,64256,65728,6,6,4,1460,629,1,992,64,58156,53812,65700,0,5792,0,0,0
o,0x00000000,1716939381.336958,172.16.1.2,52162,172.16.3.2,5101,4344,8736,0,64256,65728,6,6,4,1460,629,1,992,64,58156,53812,65700,0,7240,0,0,0
i,0x00000000,1716939381.395346,172.16.1.2,52162,172.16.3.2,5101,4344,8736,0,64256,65728,6,6,4,1460,629,1,992,64,58156,58156,65700,0,8688,0,0,0
o,0x00000000,1716939381.395357,172.16.1.2,52162,172.16.3.2,5101,4344,8736,0,64256,65728,6,6,4,1460,611,1,992,62,58156,55260,65700,0,5792,0,0,0
o,0x00000000,1716939381.395596,172.16.1.2,52162,172.16.3.2,5101,4344,8736,0,64256,65728,6,6,4,1460,611,1,992,62,58156,55260,65700,0,7240,0,0,0
i,0x00000000,1716939381.505068,172.16.1.2,52162,172.16.3.2,5101,4344,8736,0,64256,65728,6,6,4,1460,611,1,992,62,58156,58156,65700,0,8688,0,0,0
o,0x00000000,1716939381.505085,172.16.1.2,52162,172.16.3.2,5101,4344,8736,0,64256,65728,6,6,4,1460,611,1,992,56,58156,55260,65700,0,5792,0,0,0
o,0x00000000,1716939381.505336,172.16.1.2,52162,172.16.3.2,5101,4344,8736,0,64256,65728,6,6,4,1460,611,1,992,56,58156,55260,65700,0,7240,0,0,0
