enable_time_secs=1716938964	enable_time_usecs=526498	siftrver=1.2.4	hz=100	tcp_rtt_scale=32	sysname=FreeBSD	sysver=1301000	ipmode=4
o,0x00000000,1716938964.526534,10.0.2.15,22,10.0.2.2,59370,1073725440,17298,0,65535,65700,0,0,4,1460,1,0,4,23,33580,44,65700,0,0,0,0,0
o,0x00000000,1716938964.526678,10.0.2.15,22,10.0.2.2,59370,1073725440,17298,0,65535,65700,0,0,4,1460,1,0,4,23,33580,80,65700,0,44,0,0,0
i,0x00000000,1716938964.527587,10.0.2.15,22,10.0.2.2,59370,1073725440,17298,0,65535,65700,0,0,4,1460,1,0,4,23,33580,80,65700,0,80,0,0,0
i,0x00000000,1716938964.527594,10.0.2.15,22,10.0.2.2,59370,1073725440,17342,0,65535,65700,0,0,4,1460,1,0,4,23,33580,36,65700,0,36,0,0,0
o,0x00000000,1716938964.527729,10.0.2.15,22,10.0.2.2,59370,1073725440,17378,0,65535,65700,0,0,4,1460,1,0,4,23,33580,36,65700,0,0,0,0,0
i,0x00000000,1716938964.528208,10.0.2.15,22,10.0.2.2,59370,1073725440,17378,0,65535,65700,0,0,4,1460,1,0,4,23,33580,36,65700,0,36,0,0,0
o,0x00000000,1716938964.528481,10.0.2.15,22,10.0.2.2,59370,1073725440,17414,0,65535,65700,0,0,4,1460,1,0,4,23,33580,176,65700,0,0,0,0,0
i,0x00000000,1716938964.528908,10.0.2.15,22,10.0.2.2,59370,1073725440,17414,0,65535,65700,0,0,4,1460,1,0,4,23,33580,176,65700,0,176,0,0,0
i,0x00000000,1716938964.529950,10.0.2.15,22,10.0.2.2,59370,1073725440,17590,0,65535,65700,0,0,4,1460,1,0,4,23,33580,0,65700,0,0,0,0,0
i,0x00000000,1716938964.529958,10.0.2.15,22,10.0.2.2,59370,1073725440,17590,0,65535,65700,0,0,4,1460,1,0,4,23,33580,0,65700,96,0,0,0,0
o,0x00000000,1716938964.529963,10.0.2.15,22,10.0.2.2,59370,1073725440,17590,0,65535,65604,0,0,5,1460,1,0,5,23,33580,0,65700,96,0,0,0,0
o,0x00000000,1716938964.530587,10.0.2.15,22,10.0.2.2,59370,1073725440,17590,0,65535,65604,0,0,8,1460,1,0,4,23,33580,0,65700,0,0,0,0,0
i,0x00000000,1716938964.531554,10.0.2.15,22,10.0.2.2,59370,1073725440,17590,0,65535,65604,0,0,8,1460,1,0,20,23,33580,0,65700,0,1,0,0,0
i,0x00000000,1716938966.695772,10.0.2.15,22,10.0.2.2,59375,1073725440,14600,0,65535,65700,0,0,4,1460,1,0,0,27,33580,0,65700,0,0,0,0,0
o,0x00000000,1716938966.701856,10.0.2.15,22,10.0.2.2,59375,1073725440,14600,0,65535,65700,0,0,4,1460,1,0,0,27,33580,38,65700,41,0,0,0,0
i,0x00000000,1716938966.702545,10.0.2.15,22,10.0.2.2,59375,1073725440,14600,0,65535,65700,0,0,4,1460,1,0,0,27,33580,38,65700,41,38,0,0,0
o,0x00000000,1716938966.703354,10.0.2.15,22,10.0.2.2,59375,1073725440,14638,0,65535,65700,0,0,4,1460,1,0,0,24,33580,1056,65700,0,0,0,0,0
i,0x00000000,1716938966.703990,10.0.2.15,22,10.0.2.2,59375,1073725440,14638,0,65535,65700,0,0,4,1460,1,0,0,24,33580,1056,65700,0,1056,0,0,0
i,0x00000000,1716938966.704858,10.0.2.15,22,10.0.2.2,59375,1073725440,15694,0,65535,65700,0,0,4,1460,1,0,0,24,33580,0,65700,0,0,0,0,0
i,0x00000000,1716938966.704863,10.0.2.15,22,10.0.2.2,59375,1073725440,15694,0,65535,65700,0,0,4,1460,1,0,0,24,33580,0,65700,1460,0,0,0,0
o,0x00000000,1716938966.704866,10.0.2.15,22,10.0.2.2,59375,1073725440,15694,0,65535,65700,0,0,4,1460,1,0,1,24,33580,0,65700,1536,0,0,0,0
i,0x00000000,1716938966.706341,10.0.2.15,22,10.0.2.2,59375,1073725440,15694,0,65535,65700,0,0,4,1460,1,0,0,24,33580,0,65700,0,0,0,0,0
o,0x00000000,1716938966.708895,10.0.2.15,22,10.0.2.2,59375,1073725440,15694,0,65535,65700,0,0,4,1460,1,0,0,24,33580,484,65700,0,0,0,0,0
i,0x00000000,1716938966.709611,10.0.2.15,22,10.0.2.2,59375,1073725440,15694,0,65535,65700,0,0,4,1460,1,0,0,24,33580,484,65700,0,484,0,0,0
i,0x00000000,1716938966.714457,10.0.2.15,22,10.0.2.2,59375,1073725440,16178,0,65535,65700,0,0,4,1460,1,0,0,24,33580,0,65700,0,0,0,0,0
i,0x00000000,1716938966.718399,10.0.2.15,22,10.0.2.2,59375,1073725440,16178,0,65535,65700,0,0,4,1460,1,0,0,24,33580,0,65700,0,0,0,0,0
o,0x00000000,1716938966.718405,10.0.2.15,22,10.0.2.2,59375,1073725440,16178,0,65535,65700,0,0,4,1460,1,0,1,24,33580,0,65700,44,0,0,0,0
o,0x00000000,1716938966.718554,10.0.2.15,22,10.0.2.2,59375,1073725440,16178,0,65535,65700,0,0,4,1460,1,0,0,24,33580,44,65700,0,0,0,0,0
i,0x00000000,1716938966.719264,10.0.2.15,22,10.0.2.2,59375,1073725440,16178,0,65535,65700,0,0,4,1460,1,0,0,24,33580,44,65700,0,44,0,0,0
i,0x00000000,1716938966.722306,10.0.2.15,22,10.0.2.2,59375,1073725440,16222,0,65535,65700,0,0,4,1460,1,0,0,24,33580,0,65700,0,0,0,0,0
o,0x00000000,1716938966.732351,10.0.2.15,22,10.0.2.2,59375,1073725440,16222,0,65535,65700,0,0,4,1460,1,0,0,24,33580,68,65700,0,0,0,0,0
i,0x00000000,1716938966.733001,10.0.2.15,22,10.0.2.2,59375,1073725440,16222,0,65535,65700,0,0,4,1460,1,0,0,24,33580,68,65700,0,68,0,0,0
i,0x00000000,1716938966.735102,10.0.2.15,22,10.0.2.2,59375,1073725440,16290,0,65535,65700,0,0,4,1460,1,0,0,24,33580,0,65700,0,0,0,0,0
o,0x00000000,1716938966.744819,10.0.2.15,22,10.0.2.2,59375,1073725440,16290,0,65535,65700,0,0,4,1460,1,0,0,24,33580,28,65700,0,0,0,0,0
i,0x00000000,1716938966.745478,10.0.2.15,22,10.0.2.2,59375,1073725440,16290,0,65535,65700,0,0,4,1460,1,0,0,24,33580,28,65700,0,28,0,0,0
i,0x00000000,1716938966.746237,10.0.2.15,22,10.0.2.2,59375,1073725440,16318,0,65535,65700,0,0,4,1460,1,0,0,24,33580,0,65700,0,0,0,0,0
o,0x00000000,1716938966.746953,10.0.2.15,22,10.0.2.2,59375,1073725440,16318,0,65535,65700,0,0,4,1460,1,0,0,24,33580,768,65700,112,0,0,0,0
i,0x00000000,1716938966.747415,10.0.2.15,22,10.0.2.2,59375,1073725440,16318,0,65535,65700,0,0,4,1460,1,0,0,24,33580,768,65700,112,768,0,0,0
o,0x00000000,1716938966.747522,10.0.2.15,22,10.0.2.2,59375,1073725440,17086,0,65535,65700,0,0,4,1460,1,0,0,24,33580,44,65700,0,0,0,0,0
i,0x00000000,1716938966.748265,10.0.2.15,22,10.0.2.2,59375,1073725440,17086,0,65535,65700,0,0,4,1460,1,0,0,24,33580,44,65700,0,44,0,0,0
i,0x00000000,1716938966.749173,10.0.2.15,22,10.0.2.2,59375,1073725440,17130,0,65535,65700,0,0,4,1460,1,0,0,24,33580,0,65700,0,0,0,0,0
o,0x00000000,1716938966.749496,10.0.2.15,22,10.0.2.2,59375,1073725440,17130,0,65535,65700,0,0,4,1460,1,0,4,24,33580,72,65700,0,0,0,0,0
i,0x00000000,1716938966.750210,10.0.2.15,22,10.0.2.2,59375,1073725440,17130,0,65535,65700,0,0,4,1460,1,0,4,24,33580,72,65700,0,72,0,0,0
o,0x00000000,1716938966.753191,10.0.2.15,22,10.0.2.2,59375,1073725440,17202,0,65535,65700,0,0,4,1460,1,0,4,24,33580,44,65700,0,0,0,0,0
i,0x00000000,1716938966.753701,10.0.2.15,22,10.0.2.2,59375,1073725440,17202,0,65535,65700,0,0,4,1460,1,0,4,24,33580,44,65700,0,44,0,0,0
o,0x00000000,1716938966.753971,10.0.2.15,22,10.0.2.2,59375,1073725440,17246,0,65535,65700,0,0,4,1460,1,0,4,24,33580,44,65700,0,0,0,0,0
i,0x00000000,1716938966.754785,10.0.2.15,22,10.0.2.2,59375,1073725440,17246,0,65535,65700,0,0,4,1460,1,0,4,24,33580,44,65700,0,44,0,0,0
o,0x00000000,1716938966.758642,10.0.2.15,22,10.0.2.2,59375,1073725440,17290,0,65535,65700,0,0,4,1460,1,0,4,24,33580,176,65700,0,0,0,0,0
i,0x00000000,1716938966.759782,10.0.2.15,22,10.0.2.2,59375,1073725440,17290,0,65535,65700,0,0,4,1460,1,0,4,24,33580,176,65700,0,176,0,0,0
i,0x00000000,1716938966.760416,10.0.2.15,22,10.0.2.2,59375,1073725440,17466,0,65535,65700,0,0,4,1460,1,0,4,24,33580,0,65700,0,0,0,0,0
i,0x00000000,1716938966.760419,10.0.2.15,22,10.0.2.2,59375,1073725440,17466,0,65535,65700,0,0,4,1460,1,0,4,24,33580,0,65700,36,0,0,0,0
o,0x00000000,1716938966.760421,10.0.2.15,22,10.0.2.2,59375,1073725440,17466,0,65535,65700,0,0,4,1460,1,0,5,24,33580,0,65700,96,0,0,0,0
i,0x00000000,1716938966.760511,10.0.2.15,22,10.0.2.2,59375,1073725440,17466,0,65535,65700,0,0,4,1460,1,0,4,24,33580,0,65700,96,0,0,0,0
o,0x00000000,1716938966.760514,10.0.2.15,22,10.0.2.2,59375,1073725440,17466,0,65535,65604,0,0,5,1460,1,0,7,24,33580,0,65700,96,0,0,0,0
o,0x00000000,1716938966.767327,10.0.2.15,22,10.0.2.2,59375,1073725440,17466,0,65535,65604,0,0,8,1460,1,0,4,24,33580,0,65700,0,0,0,0,0
i,0x00000000,1716938966.767870,10.0.2.15,22,10.0.2.2,59375,1073725440,17466,0,65535,65604,0,0,8,1460,1,0,20,24,33580,0,65700,0,1,0,0,0
i,0x00000000,1716938967.842531,10.0.2.15,22,10.0.2.2,59377,1073725440,14600,0,65535,65700,0,0,4,1460,1,0,0,27,33580,0,65700,0,0,0,0,0
o,0x00000000,1716938967.849919,10.0.2.15,22,10.0.2.2,59377,1073725440,14600,0,65535,65700,0,0,4,1460,1,0,0,27,33580,38,65700,41,0,0,0,0
i,0x00000000,1716938967.850491,10.0.2.15,22,10.0.2.2,59377,1073725440,14600,0,65535,65700,0,0,4,1460,1,0,0,27,33580,38,65700,0,38,0,0,0
i,0x00000000,1716938967.851257,10.0.2.15,22,10.0.2.2,59377,1073725440,14638,0,65535,65700,0,0,4,1460,1,0,0,24,33580,0,65700,0,0,0,0,0
i,0x00000000,1716938967.851261,10.0.2.15,22,10.0.2.2,59377,1073725440,14638,0,65535,65700,0,0,4,1460,1,0,0,24,33580,0,65700,1460,0,0,0,0
o,0x00000000,1716938967.851265,10.0.2.15,22,10.0.2.2,59377,1073725440,14638,0,65535,65700,0,0,4,1460,1,0,1,24,33580,0,65700,1536,0,0,0,0
o,0x00000000,1716938967.852136,10.0.2.15,22,10.0.2.2,59377,1073725440,14638,0,65535,65700,0,0,4,1460,1,0,0,24,33580,1056,65700,1536,0,0,0,0
i,0x00000000,1716938967.852812,10.0.2.15,22,10.0.2.2,59377,1073725440,14638,0,65535,65700,0,0,4,1460,1,0,0,24,33580,1056,65700,1536,1056,0,0,0
i,0x00000000,1716938967.854346,10.0.2.15,22,10.0.2.2,59377,1073725440,15694,0,65535,65700,0,0,4,1460,1,0,0,24,33580,0,65700,0,0,0,0,0
o,0x00000000,1716938967.856836,10.0.2.15,22,10.0.2.2,59377,1073725440,15694,0,65535,65700,0,0,4,1460,1,0,0,24,33580,484,65700,0,0,0,0,0
i,0x00000000,1716938967.857671,10.0.2.15,22,10.0.2.2,59377,1073725440,15694,0,65535,65700,0,0,4,1460,1,0,0,24,33580,484,65700,0,484,0,0,0
i,0x00000000,1716938967.862234,10.0.2.15,22,10.0.2.2,59377,1073725440,16178,0,65535,65700,0,0,4,1460,1,0,0,24,33580,0,65700,0,0,0,0,0
i,0x00000000,1716938967.865655,10.0.2.15,22,10.0.2.2,59377,1073725440,16178,0,65535,65700,0,0,4,1460,1,0,0,24,33580,0,65700,0,0,0,0,0
o,0x00000000,1716938967.865659,10.0.2.15,22,10.0.2.2,59377,1073725440,16178,0,65535,65700,0,0,4,1460,1,0,1,24,33580,0,65700,44,0,0,0,0
o,0x00000000,1716938967.865794,10.0.2.15,22,10.0.2.2,59377,1073725440,16178,0,65535,65700,0,0,4,1460,1,0,0,24,33580,44,65700,0,0,0,0,0
i,0x00000000,1716938967.866500,10.0.2.15,22,10.0.2.2,59377,1073725440,16178,0,65535,65700,0,0,4,1460,1,0,0,24,33580,44,65700,0,44,0,0,0
i,0x00000000,1716938967.869520,10.0.2.15,22,10.0.2.2,59377,1073725440,16222,0,65535,65700,0,0,4,1460,1,0,0,24,33580,0,65700,0,0,0,0,0
o,0x00000000,1716938967.879022,10.0.2.15,22,10.0.2.2,59377,1073725440,16222,0,65535,65700,0,0,4,1460,1,0,0,24,33580,68,65700,0,0,0,0,0
i,0x00000000,1716938967.879577,10.0.2.15,22,10.0.2.2,59377,1073725440,16222,0,65535,65700,0,0,4,1460,1,0,0,24,33580,68,65700,0,68,0,0,0
i,0x00000000,1716938967.881885,10.0.2.15,22,10.0.2.2,59377,1073725440,16290,0,65535,65700,0,0,4,1460,1,0,0,24,33580,0,65700,0,0,0,0,0
o,0x00000000,1716938967.891522,10.0.2.15,22,10.0.2.2,59377,1073725440,16290,0,65535,65700,0,0,4,1460,1,0,0,24,33580,28,65700,0,0,0,0,0
i,0x00000000,1716938967.892225,10.0.2.15,22,10.0.2.2,59377,1073725440,16290,0,65535,65700,0,0,4,1460,1,0,0,24,33580,28,65700,0,28,0,0,0
i,0x00000000,1716938967.892605,10.0.2.15,22,10.0.2.2,59377,1073725440,16318,0,65535,65700,0,0,4,1460,1,0,0,24,33580,0,65700,0,0,0,0,0
o,0x00000000,1716938967.893377,10.0.2.15,22,10.0.2.2,59377,1073725440,16318,0,65535,65700,0,0,4,1460,1,0,0,24,33580,768,65700,112,0,0,0,0
i,0x00000000,1716938967.894180,10.0.2.15,22,10.0.2.2,59377,1073725440,16318,0,65535,65700,0,0,4,1460,1,0,0,24,33580,768,65700,112,768,0,0,0
o,0x00000000,1716938967.894290,10.0.2.15,22,10.0.2.2,59377,1073725440,17086,0,65535,65700,0,0,4,1460,1,0,0,24,33580,44,65700,0,0,0,0,0
i,0x00000000,1716938967.894843,10.0.2.15,22,10.0.2.2,59377,1073725440,17086,0,65535,65700,0,0,4,1460,1,0,0,24,33580,44,65700,0,44,0,0,0
i,0x00000000,1716938967.895272,10.0.2.15,22,10.0.2.2,59377,1073725440,17130,0,65535,65700,0,0,4,1460,1,0,0,24,33580,0,65700,0,0,0,0,0
o,0x00000000,1716938967.895571,10.0.2.15,22,10.0.2.2,59377,1073725440,17130,0,65535,65700,0,0,4,1460,1,0,4,24,33580,72,65700,0,0,0,0,0
i,0x00000000,1716938967.896579,10.0.2.15,22,10.0.2.2,59377,1073725440,17130,0,65535,65700,0,0,4,1460,1,0,4,24,33580,72,65700,0,72,0,0,0
i,0x00000000,1716938967.896582,10.0.2.15,22,10.0.2.2,59377,1073725440,17202,0,65535,65700,0,0,4,1460,1,0,4,24,33580,0,65700,0,0,0,0,0
o,0x00000000,1716938967.900469,172.16.1.2,48692,172.16.3.2,5101,1073725440,1073725440,0,0,0,0,0,2,536,0,1,672,100,32768,0,65536,0,0,0,0,0
o,0x00000000,1716938967.936859,10.0.2.15,22,10.0.2.2,59377,1073725440,17202,0,65535,65700,0,0,4,1460,1,0,5,24,33580,0,65700,0,0,0,0,0
i,0x00000000,1716938968.013652,172.16.1.2,48692,172.16.3.2,5101,1073725440,1073725440,0,0,0,0,0,2,536,0,1,672,100,32768,0,65536,0,1,0,0,0
o,0x00000000,1716938968.013672,172.16.1.2,48692,172.16.3.2,5101,9590,14480,0,65535,65700,6,6,4,1460,436,1,993,42,33580,0,65700,0,0,0,0,0
o,0x00000000,1716938968.014086,172.16.1.2,48692,172.16.3.2,5101,9590,14480,0,65535,65700,6,6,4,1460,436,1,996,42,33580,37,65700,0,0,0,0,0
i,0x00000000,1716938968.134160,172.16.1.2,48692,172.16.3.2,5101,9590,14480,0,65535,65700,6,6,4,1460,436,1,996,42,33580,37,65700,0,37,0,0,0
o,0x00000000,1716938968.134313,172.16.1.2,48692,172.16.3.2,5101,9590,14480,0,65728,65728,6,6,4,1460,426,1,996,42,33580,4,65700,0,0,0,0,0
o,0x00000000,1716938968.134664,172.16.1.2,48692,172.16.3.2,5101,9590,14480,0,65728,65728,6,6,4,1460,426,1,996,42,33580,128,65700,0,4,0,0,0
i,0x00000000,1716938968.254062,172.16.1.2,48692,172.16.3.2,5101,9590,14480,0,65728,65728,6,6,4,1460,426,1,996,42,33580,128,65700,0,128,0,0,0
i,0x00000000,1716938968.254075,172.16.1.2,48692,172.16.3.2,5101,9590,14480,0,65600,65728,6,6,4,1460,421,1,996,41,33580,0,65700,0,0,0,0,0
o,0x00000000,1716938968.254259,172.16.1.2,56267,172.16.3.2,5101,1073725440,1073725440,0,0,0,0,0,2,536,0,1,672,100,32768,0,65536,0,0,0,0,0
o,0x00000000,1716938968.287602,172.16.1.2,48692,172.16.3.2,5101,9590,14480,0,65728,65728,6,6,4,1460,421,1,997,41,33580,0,65700,0,0,0,0,0
i,0x00000000,1716938968.373410,172.16.1.2,56267,172.16.3.2,5101,1073725440,1073725440,0,0,0,0,0,2,536,0,1,672,100,32768,0,65536,0,1,0,0,0
o,0x00000000,1716938968.373429,172.16.1.2,56267,172.16.3.2,5101,9590,14480,0,65535,65700,6,6,4,1460,440,1,993,41,33580,0,65700,0,0,0,0,0
o,0x00000000,1716938968.373586,172.16.1.2,56267,172.16.3.2,5101,9590,14480,0,65535,65700,6,6,4,1460,440,1,992,41,33580,37,65700,0,0,0,0,0
i,0x00000000,1716938968.494134,172.16.1.2,48692,172.16.3.2,5101,9590,14480,0,65728,65728,6,6,4,1460,421,1,996,41,33580,0,65700,0,0,0,0,0
i,0x00000000,1716938968.494146,172.16.1.2,48692,172.16.3.2,5101,9590,14480,0,65728,65728,6,6,4,1460,421,1,996,41,33580,0,65700,1,0,0,0,0
o,0x00000000,1716938968.494154,172.16.1.2,48692,172.16.3.2,5101,9590,14480,0,65728,65728,6,6,4,1460,421,1,997,41,33580,0,65700,2,0,0,0,0
o,0x00000000,1716938968.494412,172.16.1.2,56267,172.16.3.2,5101,9590,14480,0,65535,65700,6,6,4,1460,440,1,992,41,33580,33580,65700,0,37,0,0,0
o,0x00000000,1716938968.494755,172.16.1.2,56267,172.16.3.2,5101,9590,14480,0,65535,65700,6,6,4,1460,440,1,992,41,33580,33580,65700,0,1485,0,0,0
o,0x00000000,1716938968.495069,172.16.1.2,56267,172.16.3.2,5101,9590,14480,0,65535,65700,6,6,4,1460,440,1,992,41,33580,33580,65700,0,2933,0,0,0
o,0x00000000,1716938968.495383,172.16.1.2,56267,172.16.3.2,5101,9590,14480,0,65535,65700,6,6,4,1460,440,1,992,41,33580,33580,65700,0,4381,0,0,0
o,0x00000000,1716938968.495718,172.16.1.2,56267,172.16.3.2,5101,9590,14480,0,65535,65700,6,6,4,1460,440,1,992,41,33580,33580,65700,0,5829,0,0,0
o,0x00000000,1716938968.496188,172.16.1.2,56267,172.16.3.2,5101,9590,14480,0,65535,65700,6,6,4,1460,440,1,992,41,33580,33580,65700,0,7277,0,0,0
o,0x00000000,1716938968.496535,172.16.1.2,56267,172.16.3.2,5101,9590,14480,0,65535,65700,6,6,4,1460,440,1,992,41,33580,33580,65700,0,8725,0,0,0
o,0x00000000,1716938968.496849,172.16.1.2,56267,172.16.3.2,5101,9590,14480,0,65535,65700,6,6,4,1460,440,1,992,41,33580,33580,65700,0,10173,0,0,0
o,0x00000000,1716938968.497165,172.16.1.2,56267,172.16.3.2,5101,9590,14480,0,65535,65700,6,6,4,1460,440,1,992,41,33580,33580,65700,0,11621,0,0,0
i,0x00000000,1716938968.524568,172.16.1.2,56267,172.16.3.2,5101,9590,14480,0,65535,65700,6,6,4,1460,440,1,992,41,33580,33580,65700,0,13069,0,0,0
o,0x00000000,1716938968.524576,172.16.1.2,56267,172.16.3.2,5101,9590,14480,0,65728,65728,6,6,4,1460,441,1,992,40,33580,33543,65700,0,13032,0,0,0
i,0x00000000,1716938968.733826,172.16.1.2,56267,172.16.3.2,5101,9590,14480,0,65728,65728,6,6,4,1460,441,1,992,40,33580,33543,65700,0,14480,0,0,0
o,0x00000000,1716938968.733859,172.16.1.2,56267,172.16.3.2,5101,9590,14480,0,64256,65728,6,6,4,1460,478,1,992,48,33580,30647,65700,0,11584,0,0,0
o,0x00000000,1716938968.734147,172.16.1.2,56267,172.16.3.2,5101,9590,14480,0,64256,65728,6,6,4,1460,478,1,992,48,33580,30647,65700,0,13032,0,0,0
i,0x00000000,1716938968.754070,172.16.1.2,56267,172.16.3.2,5101,9590,14480,0,64256,65728,6,6,4,1460,478,1,992,48,33580,33580,65700,0,14480,0,0,0
o,0x00000000,1716938968.754079,172.16.1.2,56267,172.16.3.2,5101,9590,14480,0,64256,65728,6,6,4,1460,523,1,992,58,33580,30684,65700,0,11584,0,0,0
o,0x00000000,1716938968.754346,172.16.1.2,56267,172.16.3.2,5101,9590,14480,0,64256,65728,6,6,4,1460,523,1,992,58,33580,30684,65700,0,13032,0,0,0
i,0x00000000,1716938968.784056,172.16.1.2,56267,172.16.3.2,5101,9590,14480,0,64256,65728,6,6,4,1460,523,1,992,58,33580,33580,65700,0,14480,0,0,0
o,0x00000000,1716938968.784065,172.16.1.2,56267,172.16.3.2,5101,9590,14480,0,64256,65728,6,6,4,1460,574,1,992,67,33580,30684,65700,0,11584,0,0,0
o,0x00000000,1716938968.784319,172.16.1.2,56267,172.16.3.2,5101,9590,14480,0,64256,65728,6,6,4,1460,574,1,992,67,33580,30684,65700,0,13032,0,0,0
i,0x00000000,1716938968.803301,172.16.1.2,56267,172.16.3.2,5101,9590,14480,0,64256,65728,6,6,4,1460,574,1,992,67,33580,33580,65700,0,14480,0,0,0
o,0x00000000,1716938968.803306,172.16.1.2,56267,172.16.3.2,5101,9590,14480,0,64256,65728,6,6,4,1460,623,1,992,73,33580,30684,65700,0,11584,0,0,0
o,0x00000000,1716938968.803540,172.16.1.2,56267,172.16.3.2,5101,9590,14480,0,64256,65728,6,6,4,1460,623,1,992,73,33580,30684,65700,0,13032,0,0,0
i,0x00000000,1716938968.833729,172.16.1.2,56267,172.16.3.2,5101,9590,14480,0,64256,65728,6,6,4,1460,623,1,992,73,33580,33580,65700,0,14480,0,0,0
o,0x00000000,1716938968.833735,172.16.1.2,56267,172.16.3.2,5101,9590,15940,0,64256,65728,6,6,4,1460,678,1,992,80,33580,30684,65700,0,11584,0,0,0
o,0x00000000,1716938968.834005,172.16.1.2,56267,172.16.3.2,5101,9590,15940,0,64256,65728,6,6,4,1460,678,1,992,80,33580,30684,65700,0,13032,0,0,0
o,0x00000000,1716938968.834262,172.16.1.2,56267,172.16.3.2,5101,9590,15940,0,64256,65728,6,6,4,1460,678,1,992,80,33580,30684,65700,0,14480,0,0,0
i,0x00000000,1716938968.892948,172.16.1.2,56267,172.16.3.2,5101,9590,15940,0,64256,65728,6,6,4,1460,678,1,992,80,41772,41772,65700,0,15928,0,0,0
o,0x00000000,1716938968.892958,172.16.1.2,56267,172.16.3.2,5101,9590,15940,0,64256,65728,6,6,4,1460,658,1,992,75,41772,38876,65700,0,13032,0,0,0
o,0x00000000,1716938968.893319,172.16.1.2,56267,172.16.3.2,5101,9590,15940,0,64256,65728,6,6,4,1460,658,1,992,75,41772,38876,65700,0,14480,0,0,0
i,0x00000000,1716938968.973429,172.16.1.2,56267,172.16.3.2,5101,9590,15940,0,64256,65728,6,6,4,1460,658,1,992,75,41772,41772,65700,0,15928,0,0,0
o,0x00000000,1716938968.973446,172.16.1.2,56267,172.16.3.2,5101,9590,15940,0,65728,65728,6,6,4,1460,664,1,992,68,41772,40324,65700,0,14480,0,0,0
i,0x00000000,1716938969.003552,172.16.1.2,56267,172.16.3.2,5101,9590,15940,0,65728,65728,6,6,4,1460,664,1,992,68,41772,40324,65700,0,15928,0,0,0
o,0x00000000,1716938969.003563,172.16.1.2,56267,172.16.3.2,5101,9590,15940,0,65728,65728,6,6,4,1460,681,1,992,66,41772,38876,65700,0,14480,0,0,0
i,0x00000000,1716938969.033672,172.16.1.2,56267,172.16.3.2,5101,9590,15940,0,65728,65728,6,6,4,1460,681,1,992,66,41772,41772,65700,0,15928,0,0,0
o,0x00000000,1716938969.033678,172.16.1.2,56267,172.16.3.2,5101,9590,15940,0,64256,65728,6,6,4,1460,696,1,992,64,41772,38876,65700,0,13032,0,0,0
o,0x00000000,1716938969.033915,172.16.1.2,56267,172.16.3.2,5101,9590,15940,0,64256,65728,6,6,4,1460,696,1,992,64,41772,38876,65700,0,14480,0,0,0
i,0x00000000,1716938969.052917,172.16.1.2,56267,172.16.3.2,5101,9590,15940,0,64256,65728,6,6,4,1460,696,1,992,64,41772,41772,65700,0,15928,0,0,0
o,0x00000000,1716938969.052923,172.16.1.2,56267,172.16.3.2,5101,9590,15940,0,64256,65728,6,6,4,1460,709,1,992,62,41772,38876,65700,0,13032,0,0,0
o,0x00000000,1716938969.053158,172.16.1.2,56267,172.16.3.2,5101,9590,15940,0,64256,65728,6,6,4,1460,709,1,992,62,41772,38876,65700,0,14480,0,0,0
i,0x00000000,1716938969.112829,172.16.1.2,56267,172.16.3.2,5101,9590,15940,0,64256,65728,6,6,4,1460,709,1,992,62,41772,41772,65700,0,15928,0,0,0
o,0x00000000,1716938969.112838,172.16.1.2,56267,172.16.3.2,5101,9590,15940,0,64256,65728,6,6,4,1460,733,1,992,64,41772,38876,65700,0,13032,0,0,0
o,0x00000000,1716938969.113080,172.16.1.2,56267,172.16.3.2,5101,9590,15940,0,64256,65728,6,6,4,1460,733,1,992,64,41772,38876,65700,0,14480,0,0,0
i,0x00000000,1716938969.143564,172.16.1.2,56267,172.16.3.2,5101,9590,15940,0,64256,65728,6,6,4,1460,733,1,992,64,41772,41772,65700,0,15928,0,0,0
o,0x00000000,1716938969.143577,172.16.1.2,56267,172.16.3.2,5101,9590,17400,0,64256,65728,6,6,4,1460,766,1,992,68,41772,38876,65700,0,13032,0,0,0
o,0x00000000,1716938969.143831,172.16.1.2,56267,172.16.3.2,5101,9590,17400,0,64256,65728,6,6,4,1460,766,1,992,68,41772,38876,65700,0,14480,0,0,0
o,0x00000000,1716938969.144074,172.16.1.2,56267,172.16.3.2,5101,9590,17400,0,64256,65728,6,6,4,1460,766,1,992,68,41772,38876,65700,0,15928,0,0,0
i,0x00000000,1716938969.193799,172.16.1.2,56267,172.16.3.2,5101,9590,17400,0,64256,65728,6,6,4,1460,766,1,992,68,41772,41772,65700,0,17376,0,0,0
o,0x00000000,1716938969.193814,172.16.1.2,56267,172.16.3.2,5101,9590,17400,0,65728,65728,6,6,4,1460,787,1,992,68,41772,40324,65700,0,15928,0,0,0
i,0x00000000,1716938969.243693,172.16.1.2,56267,172.16.3.2,5101,9590,17400,0,65728,65728,6,6,4,1460,787,1,992,68,41772,40324,65700,0,17376,0,0,0
o,0x00000000,1716938969.243709,172.16.1.2,56267,172.16.3.2,5101,9590,17400,0,64256,65728,6,6,4,1460,797,1,992,65,41772,37428,65700,0,14480,0,0,0
o,0x00000000,1716938969.243974,172.16.1.2,56267,172.16.3.2,5101,9590,17400,0,64256,65728,6,6,4,1460,797,1,992,65,41772,37428,65700,0,15928,0,0,0
i,0x00000000,1716938969.283205,172.16.1.2,56267,172.16.3.2,5101,9590,17400,0,64256,65728,6,6,4,1460,797,1,992,65,41772,41772,65700,0,17376,0,0,0
o,0x00000000,1716938969.283213,172.16.1.2,56267,172.16.3.2,5101,9590,17400,0,64256,65728,6,6,4,1460,794,1,992,61,41772,38876,65700,0,14480,0,0,0
o,0x00000000,1716938969.283480,172.16.1.2,56267,172.16.3.2,5101,9590,17400,0,64256,65728,6,6,4,1460,794,1,992,61,41772,38876,65700,0,15928,0,0,0
i,0x00000000,1716938969.332519,172.16.1.2,56267,172.16.3.2,5101,9590,17400,0,64256,65728,6,6,4,1460,794,1,992,61,41772,41772,65700,0,17376,0,0,0
o,0x00000000,1716938969.332535,172.16.1.2,56267,172.16.3.2,5101,9590,17400,0,65728,65728,6,6,4,1460,807,1,992,60,41772,40324,65700,0,15928,0,0,0
i,0x00000000,1716938969.382723,172.16.1.2,56267,172.16.3.2,5101,9590,17400,0,65728,65728,6,6,4,1460,807,1,992,60,41772,40324,65700,0,17376,0,0,0
o,0x00000000,1716938969.382738,172.16.1.2,56267,172.16.3.2,5101,9590,17400,0,64256,65728,6,6,4,1460,839,1,992,65,41772,37428,65700,0,14480,0,0,0
o,0x00000000,1716938969.383020,172.16.1.2,56267,172.16.3.2,5101,9590,17400,0,64256,65728,6,6,4,1460,839,1,992,65,41772,37428,65700,0,15928,0,0,0
i,0x00000000,1716938969.412789,172.16.1.2,56267,172.16.3.2,5101,9590,17400,0,64256,65728,6,6,4,1460,839,1,992,65,41772,41772,65700,0,17376,0,0,0
o,0x00000000,1716938969.412798,172.16.1.2,56267,172.16.3.2,5101,9590,17400,0,65728,65728,6,6,4,1460,855,1,992,65,41772,40324,65700,0,15928,0,0,0
i,0x00000000,1716938969.442966,172.16.1.2,56267,172.16.3.2,5101,9590,17400,0,65728,65728,6,6,4,1460,855,1,992,65,41772,40324,65700,0,17376,0,0,0
o,0x00000000,1716938969.442976,172.16.1.2,56267,172.16.3.2,5101,9590,18860,0,64256,65728,6,6,4,1460,869,1,992,64,41772,37428,65700,0,14480,0,0,0
o,0x00000000,1716938969.443222,172.16.1.2,56267,172.16.3.2,5101,9590,18860,0,64256,65728,6,6,4,1460,869,1,992,64,41772,37428,65700,0,15928,0,0,0
o,0x00000000,1716938969.443474,172.16.1.2,56267,172.16.3.2,5101,9590,18860,0,64256,65728,6,6,4,1460,869,1,992,64,41772,37428,65700,0,17376,0,0,0
i,0x00000000,1716938969.472823,172.16.1.2,56267,172.16.3.2,5101,9590,18860,0,64256,65728,6,6,4,1460,869,1,992,64,49964,49964,65700,0,18824,0,0,0
o,0x00000000,1716938969.472832,172.16.1.2,56267,172.16.3.2,5101,9590,18860,0,65728,65728,6,6,4,1460,893,1,992,67,49964,48516,65700,0,17376,0,0,0
i,0x00000000,1716938969.492890,172.16.1.2,56267,172.16.3.2,5101,9590,18860,0,65728,65728,6,6,4,1460,893,1,992,67,49964,48516,65700,0,18824,0,0,0
o,0x00000000,1716938969.492896,172.16.1.2,56267,172.16.3.2,5101,9590,18860,0,64256,65728,6,6,4,1460,902,1,992,65,49964,45620,65700,0,15928,0,0,0
o,0x00000000,1716938969.493136,172.16.1.2,56267,172.16.3.2,5101,9590,18860,0,64256,65728,6,6,4,1460,902,1,992,65,49964,45620,65700,0,17376,0,0,0
i,0x00000000,1716938969.553043,172.16.1.2,56267,172.16.3.2,5101,9590,18860,0,64256,65728,6,6,4,1460,902,1,992,65,49964,49964,65700,0,18824,0,0,0
o,0x00000000,1716938969.553054,172.16.1.2,56267,172.16.3.2,5101,9590,18860,0,64256,65728,6,6,4,1460,914,1,992,64,49964,47068,65700,0,15928,0,0,0
o,0x00000000,1716938969.553294,172.16.1.2,56267,172.16.3.2,5101,9590,18860,0,64256,65728,6,6,4,1460,914,1,992,64,49964,47068,65700,0,17376,0,0,0
i,0x00000000,1716938969.602692,172.16.1.2,56267,172.16.3.2,5101,9590,18860,0,64256,65728,6,6,4,1460,914,1,992,64,49964,49964,65700,0,18824,0,0,0
o,0x00000000,1716938969.602699,172.16.1.2,56267,172.16.3.2,5101,9590,18860,0,64256,65728,6,6,4,1460,924,1,992,63,49964,47068,65700,0,15928,0,0,0
o,0x00000000,1716938969.602939,172.16.1.2,56267,172.16.3.2,5101,9590,18860,0,64256,65728,6,6,4,1460,924,1,992,63,49964,47068,65700,0,17376,0,0,0
i,0x00000000,1716938969.663218,172.16.1.2,56267,172.16.3.2,5101,9590,18860,0,64256,65728,6,6,4,1460,924,1,992,63,49964,49964,65700,0,18824,0,0,0
o,0x00000000,1716938969.663228,172.16.1.2,56267,172.16.3.2,5101,9590,18860,0,64256,65728,6,6,4,1460,921,1,992,60,49964,47068,65700,0,15928,0,0,0
o,0x00000000,1716938969.663465,172.16.1.2,56267,172.16.3.2,5101,9590,18860,0,64256,65728,6,6,4,1460,921,1,992,60,49964,47068,65700,0,17376,0,0,0
i,0x00000000,1716938969.712406,172.16.1.2,56267,172.16.3.2,5101,9590,18860,0,64256,65728,6,6,4,1460,921,1,992,60,49964,49964,65700,0,18824,0,0,0
o,0x00000000,1716938969.712412,172.16.1.2,56267,172.16.3.2,5101,9590,18860,0,64256,65728,6,6,4,1460,922,1,992,58,49964,47068,65700,0,15928,0,0,0
o,0x00000000,1716938969.712670,172.16.1.2,56267,172.16.3.2,5101,9590,18860,0,64256,65728,6,6,4,1460,922,1,992,58,49964,47068,65700,0,17376,0,0,0
i,0x00000000,1716938969.762423,172.16.1.2,56267,172.16.3.2,5101,9590,18860,0,64256,65728,6,6,4,1460,922,1,992,58,49964,49964,65700,0,18824,0,0,0
o,0x00000000,1716938969.762441,172.16.1.2,56267,172.16.3.2,5101,9590,18860,0,65728,65728,6,6,4,1460,931,1,992,58,49964,48516,65700,0,17376,0,0,0
i,0x00000000,1716938969.772372,172.16.1.2,56267,172.16.3.2,5101,9590,18860,0,65728,65728,6,6,4,1460,931,1,992,58,49964,48516,65700,0,18824,0,0,0
o,0x00000000,1716938969.772379,172.16.1.2,56267,172.16.3.2,5101,9590,20320,0,64256,65728,6,6,4,1460,947,1,992,60,49964,45620,65700,0,15928,0,0,0
o,0x00000000,1716938969.772617,172.16.1.2,56267,172.16.3.2,5101,9590,20320,0,64256,65728,6,6,4,1460,947,1,992,60,49964,45620,65700,0,17376,0,0,0
o,0x00000000,1716938969.772845,172.16.1.2,56267,172.16.3.2,5101,9590,20320,0,64256,65728,6,6,4,1460,947,1,992,60,49964,45620,65700,0,18824,0,0,0
i,0x00000000,1716938969.822470,172.16.1.2,56267,172.16.3.2,5101,9590,20320,0,64256,65728,6,6,4,1460,947,1,992,60,49964,49964,65700,0,20272,0,0,0
o,0x00000000,1716938969.822476,172.16.1.2,56267,172.16.3.2,5101,9590,20320,0,64256,65728,6,6,4,1460,961,1,992,61,49964,47068,65700,0,17376,0,0,0
o,0x00000000,1716938969.822711,172.16.1.2,56267,172.16.3.2,5101,9590,20320,0,64256,65728,6,6,4,1460,961,1,992,61,49964,47068,65700,0,18824,0,0,0
i,0x00000000,1716938969.872403,172.16.1.2,56267,172.16.3.2,5101,9590,20320,0,64256,65728,6,6,4,1460,961,1,992,61,49964,49964,65700,0,20272,0,0,0
o,0x00000000,1716938969.872416,172.16.1.2,56267,172.16.3.2,5101,9590,20320,0,64256,65728,6,6,4,1460,969,1,992,61,49964,47068,65700,0,17376,0,0,0
o,0x00000000,1716938969.872660,172.16.1.2,56267,172.16.3.2,5101,9590,20320,0,64256,65728,6,6,4,1460,969,1,992,61,49964,47068,65700,0,18824,0,0,0
i,0x00000000,1716938969.931943,172.16.1.2,56267,172.16.3.2,5101,9590,20320,0,64256,65728,6,6,4,1460,969,1,992,61,49964,49964,65700,0,20272,0,0,0
o,0x00000000,1716938969.931956,172.16.1.2,56267,172.16.3.2,5101,9590,20320,0,64256,65728,6,6,4,1460,980,1,992,61,49964,47068,65700,0,17376,0,0,0
o,0x00000000,1716938969.932200,172.16.1.2,56267,172.16.3.2,5101,9590,20320,0,64256,65728,6,6,4,1460,980,1,992,61,49964,47068,65700,0,18824,0,0,0
i,0x00000000,1716938969.982053,172.16.1.2,56267,172.16.3.2,5101,9590,20320,0,64256,65728,6,6,4,1460,980,1,992,61,49964,49964,65700,0,20272,0,0,0
o,0x00000000,1716938969.982075,172.16.1.2,56267,172.16.3.2,5101,9590,20320,0,65728,65728,6,6,4,1460,986,1,992,60,49964,48516,65700,0,18824,0,0,0
i,0x00000000,1716938970.012081,172.16.1.2,56267,172.16.3.2,5101,9590,20320,0,65728,65728,6,6,4,1460,986,1,992,60,49964,48516,65700,0,20272,0,0,0
o,0x00000000,1716938970.012090,172.16.1.2,56267,172.16.3.2,5101,9590,20320,0,64256,65728,6,6,4,1460,1003,1,992,63,49964,45620,65700,0,17376,0,0,0
o,0x00000000,1716938970.012353,172.16.1.2,56267,172.16.3.2,5101,9590,20320,0,64256,65728,6,6,4,1460,1003,1,992,63,49964,45620,65700,0,18824,0,0,0
i,0x00000000,1716938970.062050,172.16.1.2,56267,172.16.3.2,5101,9590,20320,0,64256,65728,6,6,4,1460,1003,1,992,63,49964,49964,65700,0,20272,0,0,0
o,0x00000000,1716938970.062061,172.16.1.2,56267,172.16.3.2,5101,9590,20320,0,64256,65728,6,6,4,1460,1014,1,992,63,49964,47068,65700,0,17376,0,0,0
o,0x00000000,1716938970.062301,172.16.1.2,56267,172.16.3.2,5101,9590,20320,0,64256,65728,6,6,4,1460,1014,1,992,63,49964,47068,65700,0,18824,0,0,0
i,0x00000000,1716938970.102489,172.16.1.2,56267,172.16.3.2,5101,9590,20320,0,64256,65728,6,6,4,1460,1014,1,992,63,49964,49964,65700,0,20272,0,0,0
o,0x00000000,1716938970.102497,172.16.1.2,56267,172.16.3.2,5101,9590,20320,0,64256,65728,6,6,4,1460,1020,1,992,62,49964,47068,65700,0,17376,0,0,0
o,0x00000000,1716938970.102758,172.16.1.2,56267,172.16.3.2,5101,9590,20320,0,64256,65728,6,6,4,1460,1020,1,992,62,49964,47068,65700,0,18824,0,0,0
i,0x00000000,1716938970.153033,172.16.1.2,56267,172.16.3.2,5101,9590,20320,0,64256,65728,6,6,4,1460,1020,1,992,62,49964,49964,65700,0,20272,0,0,0
o,0x00000000,1716938970.153052,172.16.1.2,56267,172.16.3.2,5101,9590,21780,0,65728,65728,6,6,4,1460,1045,1,992,66,49964,48516,65700,0,18824,0,0,0
o,0x00000000,1716938970.153332,172.16.1.2,56267,172.16.3.2,5101,9590,21780,0,65728,65728,6,6,4,1460,1045,1,992,66,49964,48516,65700,0,20272,0,0,0
i,0x00000000,1716938970.182086,172.16.1.2,56267,172.16.3.2,5101,9590,21780,0,65728,65728,6,6,4,1460,1045,1,992,66,49964,48516,65700,0,21720,0,0,0
o,0x00000000,1716938970.182101,172.16.1.2,56267,172.16.3.2,5101,9590,24616,0,65728,65728,6,6,4,1460,1045,1,992,66,49964,48516,65700,0,21720,0,0,0
o,0x00000000,1716938970.182352,172.16.1.2,56267,172.16.3.2,5101,9590,24616,0,65728,65728,6,6,4,1460,1045,1,992,66,49964,48516,65700,0,23168,0,0,0
i,0x00000000,1716938970.222683,172.16.1.2,56267,172.16.3.2,5101,9590,21780,0,65728,65728,6,6,4,1460,1045,1,992,66,49964,48516,65700,0,24616,0,0,0
o,0x00000000,1716938970.222688,172.16.1.2,56267,172.16.3.2,5101,10136,1448,0,65728,65728,6,6,4,1460,1045,1,537920480,66,49964,48516,65700,0,24616,0,0,0
i,0x00000000,1716938970.251807,172.16.1.2,56267,172.16.3.2,5101,10136,1448,0,65728,65728,6,6,4,1460,1045,1,537920480,66,49964,48516,65700,0,24616,0,0,0
i,0x00000000,1716938970.272021,172.16.1.2,56267,172.16.3.2,5101,10136,1448,0,65728,65728,6,6,4,1460,1045,1,537920480,66,49964,48516,65700,0,24616,0,0,0
o,0x00000000,1716938970.272028,172.16.1.2,56267,172.16.3.2,5101,10136,2896,0,65728,65728,6,6,4,1460,1045,1,537920480,66,49964,48516,65700,0,24616,0,0,0
i,0x00000000,1716938970.282276,172.16.1.2,56267,172.16.3.2,5101,10136,2896,0,65728,65728,6,6,4,1460,1045,1,537920480,66,49964,48516,65700,0,26064,0,0,0
i,0x00000000,1716938970.321575,172.16.1.2,56267,172.16.3.2,5101,10136,2896,0,65728,65728,6,6,4,1460,1045,1,537920480,66,49964,48516,65700,0,26064,0,0,0
i,0x00000000,1716938970.351840,172.16.1.2,56267,172.16.3.2,5101,10136,2896,0,65728,65728,6,6,4,1460,1045,1,537920480,66,49964,48516,65700,0,26064,0,0,0
o,0x00000000,1716938970.351848,172.16.1.2,56267,172.16.3.2,5101,10136,4344,0,65728,65728,6,6,4,1460,1045,1,537920480,66,49964,48516,65700,0,26064,0,0,0
i,0x00000000,1716938970.371586,172.16.1.2,56267,172.16.3.2,5101,10136,4344,0,65728,65728,6,6,4,1460,1045,1,537920480,66,49964,48516,65700,0,27512,0,0,0
i,0x00000000,1716938970.382215,172.16.1.2,56267,172.16.3.2,5101,10136,4344,0,65728,65728,6,6,4,1460,1045,1,537920480,66,49964,48516,65700,0,27512,0,0,0
o,0x00000000,1716938970.382220,172.16.1.2,56267,172.16.3.2,5101,10136,5792,0,65728,65728,6,6,4,1460,1045,1,537920481,66,49964,48516,65700,0,27512,0,0,0
i,0x00000000,1716938970.402175,172.16.1.2,56267,172.16.3.2,5101,10136,5792,0,51264,65728,6,6,4,1460,979,1,537920480,77,49964,49964,65700,0,13032,0,0,0
o,0x00000000,1716938970.402182,172.16.1.2,56267,172.16.3.2,5101,10136,14480,0,51264,65728,6,6,4,1460,979,1,537920480,77,49964,49964,65700,0,13032,0,0,0
i,0x00000000,1716938970.432417,172.16.1.2,56267,172.16.3.2,5101,10136,14480,0,51264,65728,6,6,4,1460,979,1,537920480,77,49964,49964,65700,0,14480,0,0,0
i,0x00000000,1716938970.452262,172.16.1.2,56267,172.16.3.2,5101,10136,14480,0,51264,65728,6,6,4,1460,979,1,537920480,77,49964,49964,65700,0,14480,0,0,0
i,0x00000000,1716938970.472240,172.16.1.2,56267,172.16.3.2,5101,10136,14480,0,51264,65728,6,6,4,1460,979,1,537920480,77,49964,49964,65700,0,14480,0,0,0
o,0x00000000,1716938970.472249,172.16.1.2,56267,172.16.3.2,5101,10136,15928,0,51264,65728,6,6,4,1460,979,1,537920480,77,49964,49964,65700,0,14480,0,0,0
i,0x00000000,1716938970.481495,172.16.1.2,56267,172.16.3.2,5101,10136,15928,0,51264,65728,6,6,4,1460,979,1,537920480,77,49964,49964,65700,0,15928,0,0,0
o,0x00000000,1716938970.481499,172.16.1.2,56267,172.16.3.2,5101,10136,17376,0,51264,65728,6,6,4,1460,979,1,537920480,77,49964,49964,65700,0,15928,0,0,0
i,0x00000000,1716938970.501724,172.16.1.2,56267,172.16.3.2,5101,10136,17376,0,51264,65728,6,6,4,1460,979,1,537920480,77,49964,49964,65700,0,17376,0,0,0
o,0x00000000,1716938970.501730,172.16.1.2,56267,172.16.3.2,5101,10136,11584,0,51264,65728,6,6,4,1460,979,1,537920480,77,49964,49964,65700,0,17376,0,0,0
o,0x00000000,1716938970.501993,172.16.1.2,56267,172.16.3.2,5101,10136,11584,0,51264,65728,6,6,4,1460,979,1,537920480,77,49964,49964,65700,0,17376,0,0,0
o,0x00000000,1716938970.502247,172.16.1.2,56267,172.16.3.2,5101,10136,11584,0,51264,65728,6,6,4,1460,979,1,537920480,77,49964,49964,65700,0,17376,0,0,0
o,0x00000000,1716938970.502476,172.16.1.2,56267,172.16.3.2,5101,10136,11584,0,51264,65728,6,6,4,1460,979,1,537920480,77,49964,49964,65700,0,17376,0,0,0
o,0x00000000,1716938970.502703,172.16.1.2,56267,172.16.3.2,5101,10136,11584,0,51264,65728,6,6,4,1460,979,1,537920480,77,49964,49964,65700,0,17376,0,0,0
o,0x00000000,1716938970.502930,172.16.1.2,56267,172.16.3.2,5101,10136,11584,0,51264,65728,6,6,4,1460,979,1,537920480,77,49964,49964,65700,0,17376,0,0,0
o,0x00000000,1716938970.503158,172.16.1.2,56267,172.16.3.2,5101,10136,11584,0,51264,65728,6,6,4,1460,979,1,537920480,77,49964,49964,65700,0,17376,0,0,0
i,0x00000000,1716938970.522700,172.16.1.2,56267,172.16.3.2,5101,10136,11584,0,51264,65728,6,6,4,1460,979,1,537920480,77,49964,49964,65700,0,17376,0,0,0
i,0x00000000,1716938970.572354,172.16.1.2,56267,172.16.3.2,5101,10136,17376,0,51264,65728,6,6,4,1460,979,1,537920480,77,49964,49964,65700,0,17376,0,0,0
i,0x00000000,1716938970.621466,172.16.1.2,56267,172.16.3.2,5101,10136,17376,0,51264,65728,6,6,4,1460,979,1,537920480,77,49964,49964,65700,0,17376,0,0,0
i,0x00000000,1716938970.642240,172.16.1.2,56267,172.16.3.2,5101,10136,17376,0,51264,65728,6,6,4,1460,979,1,537920480,77,49964,49964,65700,0,17376,0,0,0
i,0x00000000,1716938970.712017,172.16.1.2,56267,172.16.3.2,5101,10136,17376,0,51264,65728,6,6,4,1460,979,1,537920480,77,49964,49964,65700,0,17376,0,0,0
o,0x00000000,1716938970.712031,172.16.1.2,56267,172.16.3.2,5101,10136,17376,0,51264,65728,6,6,4,1460,979,1,537920481,77,49964,49964,65700,0,17376,0,0,0
i,0x00000000,1716938970.721224,172.16.1.2,56267,172.16.3.2,5101,10136,17376,0,64320,65728,6,6,4,1460,941,1,537920480,79,49964,48516,65700,0,17376,0,0,0
o,0x00000000,1716938970.721233,172.16.1.2,56267,172.16.3.2,5101,10136,17376,0,64320,65728,6,6,4,1460,941,1,537920481,79,49964,48516,65700,0,17376,0,0,0
i,0x00000000,1716938970.742063,172.16.1.2,56267,172.16.3.2,5101,10136,17376,0,64256,65728,6,6,4,1460,908,1,537920480,79,49964,49964,65700,0,17376,0,0,0
o,0x00000000,1716938970.742105,172.16.1.2,56267,172.16.3.2,5101,10136,17376,0,64256,65728,6,6,4,1460,908,1,537920481,79,49964,49964,65700,0,17376,0,0,0
i,0x00000000,1716938970.742221,172.16.1.2,56267,172.16.3.2,5101,10136,17376,0,64256,65728,6,6,4,1460,887,1,537920480,76,49964,48516,65700,0,17376,0,0,0
o,0x00000000,1716938970.742224,172.16.1.2,56267,172.16.3.2,5101,10136,17376,0,64256,65728,6,6,4,1460,887,1,537920481,76,49964,48516,65700,0,17376,0,0,0
i,0x00000000,1716938970.762356,172.16.1.2,56267,172.16.3.2,5101,10136,17376,0,64256,65728,6,6,4,1460,869,1,537920480,73,49964,49964,65700,0,17376,0,0,0
o,0x00000000,1716938970.762372,172.16.1.2,56267,172.16.3.2,5101,10136,17376,0,64256,65728,6,6,4,1460,869,1,537920481,73,49964,49964,65700,0,17376,0,0,0
i,0x00000000,1716938970.762462,172.16.1.2,56267,172.16.3.2,5101,10136,17376,0,64256,65728,6,6,4,1460,865,1,537920480,67,49964,48516,65700,0,17376,0,0,0
o,0x00000000,1716938970.762464,172.16.1.2,56267,172.16.3.2,5101,10136,17376,0,64256,65728,6,6,4,1460,865,1,537920481,67,49964,48516,65700,0,17376,0,0,0
i,0x00000000,1716938970.791759,172.16.1.2,56267,172.16.3.2,5101,10136,17376,0,64256,65728,6,6,4,1460,861,1,537920480,63,49964,49964,65700,0,17376,0,0,0
o,0x00000000,1716938970.791771,172.16.1.2,56267,172.16.3.2,5101,10136,10148,0,57024,65728,6,6,4,1460,870,1,992,61,49964,41276,65700,0,8688,0,0,0
i,0x00000000,1716938970.881939,172.16.1.2,56267,172.16.3.2,5101,10136,10148,0,57024,65728,6,6,4,1460,870,1,992,61,49964,49964,65700,0,10136,0,0,0
o,0x00000000,1716938970.881955,172.16.1.2,56267,172.16.3.2,5101,10136,11608,0,64256,65728,6,6,4,1460,826,1,992,68,49964,47068,65700,0,7240,0,0,0
o,0x00000000,1716938970.882198,172.16.1.2,56267,172.16.3.2,5101,10136,11608,0,64256,65728,6,6,4,1460,826,1,992,68,49964,47068,65700,0,8688,0,0,0
o,0x00000000,1716938970.882428,172.16.1.2,56267,172.16.3.2,5101,10136,11608,0,64256,65728,6,6,4,1460,826,1,992,68,49964,47068,65700,0,10136,0,0,0
i,0x00000000,1716938970.931993,172.16.1.2,56267,172.16.3.2,5101,10136,11608,0,64256,65728,6,6,4,1460,826,1,992,68,49964,49964,65700,0,11584,0,0,0
o,0x00000000,1716938970.932009,172.16.1.2,56267,172.16.3.2,5101,10136,11608,0,64256,65728,6,6,4,1460,799,1,992,68,49964,47068,65700,0,8688,0,0,0
o,0x00000000,1716938970.932256,172.16.1.2,56267,172.16.3.2,5101,10136,11608,0,64256,65728,6,6,4,1460,799,1,992,68,49964,47068,65700,0,10136,0,0,0
i,0x00000000,1716938970.971369,172.16.1.2,56267,172.16.3.2,5101,10136,11608,0,64256,65728,6,6,4,1460,799,1,992,68,49964,49964,65700,0,11584,0,0,0
o,0x00000000,1716938970.971383,172.16.1.2,56267,172.16.3.2,5101,10136,11608,0,64256,65728,6,6,4,1460,784,1,992,66,49964,47068,65700,0,8688,0,0,0
o,0x00000000,1716938970.971626,172.16.1.2,56267,172.16.3.2,5101,10136,11608,0,64256,65728,6,6,4,1460,784,1,992,66,49964,47068,65700,0,10136,0,0,0
i,0x00000000,1716938971.012350,172.16.1.2,56267,172.16.3.2,5101,10136,11608,0,64256,65728,6,6,4,1460,784,1,992,66,49964,49964,65700,0,11584,0,0,0
o,0x00000000,1716938971.012374,172.16.1.2,56267,172.16.3.2,5101,10136,11608,0,65728,65728,6,6,4,1460,774,1,992,62,49964,48516,65700,0,10136,0,0,0
i,0x00000000,1716938971.041374,172.16.1.2,56267,172.16.3.2,5101,10136,11608,0,65728,65728,6,6,4,1460,774,1,992,62,49964,48516,65700,0,11584,0,0,0
o,0x00000000,1716938971.041388,172.16.1.2,56267,172.16.3.2,5101,10136,11608,0,64256,65728,6,6,4,1460,742,1,992,65,49964,45620,65700,0,8688,0,0,0
o,0x00000000,1716938971.041678,172.16.1.2,56267,172.16.3.2,5101,10136,11608,0,64256,65728,6,6,4,1460,742,1,992,65,49964,45620,65700,0,10136,0,0,0
i,0x00000000,1716938971.101234,172.16.1.2,56267,172.16.3.2,5101,10136,11608,0,64256,65728,6,6,4,1460,742,1,992,65,49964,49964,65700,0,11584,0,0,0
o,0x00000000,1716938971.101254,172.16.1.2,56267,172.16.3.2,5101,10136,13068,0,65728,65728,6,6,4,1460,738,1,992,60,49964,48516,65700,0,10136,0,0,0
o,0x00000000,1716938971.101511,172.16.1.2,56267,172.16.3.2,5101,10136,13068,0,65728,65728,6,6,4,1460,738,1,992,60,49964,48516,65700,0,11584,0,0,0
i,0x00000000,1716938971.121383,172.16.1.2,56267,172.16.3.2,5101,10136,13068,0,65728,65728,6,6,4,1460,738,1,992,60,49964,48516,65700,0,13032,0,0,0
o,0x00000000,1716938971.121392,172.16.1.2,56267,172.16.3.2,5101,10136,13068,0,64256,65728,6,6,4,1460,718,1,992,60,49964,45620,65700,0,10136,0,0,0
o,0x00000000,1716938971.121632,172.16.1.2,56267,172.16.3.2,5101,10136,13068,0,64256,65728,6,6,4,1460,718,1,992,60,49964,45620,65700,0,11584,0,0,0
i,0x00000000,1716938971.151739,172.16.1.2,56267,172.16.3.2,5101,10136,13068,0,64256,65728,6,6,4,1460,718,1,992,60,49964,49964,65700,0,13032,0,0,0
o,0x00000000,1716938971.151750,172.16.1.2,56267,172.16.3.2,5101,10136,13068,0,64256,65728,6,6,4,1460,701,1,992,60,49964,47068,65700,0,10136,0,0,0
o,0x00000000,1716938971.151989,172.16.1.2,56267,172.16.3.2,5101,10136,13068,0,64256,65728,6,6,4,1460,701,1,992,60,49964,47068,65700,0,11584,0,0,0
i,0x00000000,1716938971.211183,172.16.1.2,56267,172.16.3.2,5101,10136,13068,0,64256,65728,6,6,4,1460,701,1,992,60,49964,49964,65700,0,13032,0,0,0
o,0x00000000,1716938971.211198,172.16.1.2,56267,172.16.3.2,5101,10136,13068,0,64256,65728,6,6,4,1460,694,1,992,57,49964,47068,65700,0,10136,0,0,0
o,0x00000000,1716938971.211448,172.16.1.2,56267,172.16.3.2,5101,10136,13068,0,64256,65728,6,6,4,1460,694,1,992,57,49964,47068,65700,0,11584,0,0,0
i,0x00000000,1716938971.271592,172.16.1.2,56267,172.16.3.2,5101,10136,13068,0,64256,65728,6,6,4,1460,694,1,992,57,49964,49964,65700,0,13032,0,0,0
o,0x00000000,1716938971.271608,172.16.1.2,56267,172.16.3.2,5101,10136,13068,0,64256,65728,6,6,4,1460,700,1,992,55,49964,47068,65700,0,10136,0,0,0
o,0x00000000,1716938971.271857,172.16.1.2,56267,172.16.3.2,5101,10136,13068,0,64256,65728,6,6,4,1460,700,1,992,55,49964,47068,65700,0,11584,0,0,0
i,0x00000000,1716938971.320468,172.16.1.2,56267,172.16.3.2,5101,10136,13068,0,64256,65728,6,6,4,1460,700,1,992,55,49964,49964,65700,0,13032,0,0,0
o,0x00000000,1716938971.320478,172.16.1.2,56267,172.16.3.2,5101,10136,14528,0,64256,65728,6,6,4,1460,701,1,992,52,49964,47068,65700,0,10136,0,0,0
o,0x00000000,1716938971.320725,172.16.1.2,56267,172.16.3.2,5101,10136,14528,0,64256,65728,6,6,4,1460,701,1,992,52,49964,47068,65700,0,11584,0,0,0
o,0x00000000,1716938971.320960,172.16.1.2,56267,172.16.3.2,5101,10136,14528,0,64256,65728,6,6,4,1460,701,1,992,52,49964,47068,65700,0,13032,0,0,0
i,0x00000000,1716938971.371585,172.16.1.2,56267,172.16.3.2,5101,10136,14528,0,64256,65728,6,6,4,1460,701,1,992,52,49964,49964,65700,0,14480,0,0,0
o,0x00000000,1716938971.371596,172.16.1.2,56267,172.16.3.2,5101,10136,14528,0,65728,65728,6,6,4,1460,714,1,992,53,49964,48516,65700,0,13032,0,0,0
i,0x00000000,1716938971.380778,172.16.1.2,56267,172.16.3.2,5101,10136,14528,0,65728,65728,6,6,4,1460,714,1,992,53,49964,48516,65700,0,14480,0,0,0
o,0x00000000,1716938971.380789,172.16.1.2,56267,172.16.3.2,5101,10136,14528,0,64256,65728,6,6,4,1460,717,1,992,51,49964,45620,65700,0,11584,0,0,0
o,0x00000000,1716938971.381028,172.16.1.2,56267,172.16.3.2,5101,10136,14528,0,64256,65728,6,6,4,1460,717,1,992,51,49964,45620,65700,0,13032,0,0,0
i,0x00000000,1716938971.431233,172.16.1.2,56267,172.16.3.2,5101,10136,14528,0,64256,65728,6,6,4,1460,717,1,992,51,49964,49964,65700,0,14480,0,0,0
o,0x00000000,1716938971.431244,172.16.1.2,56267,172.16.3.2,5101,10136,14528,0,64256,65728,6,6,4,1460,716,1,992,49,49964,47068,65700,0,11584,0,0,0
o,0x00000000,1716938971.431504,172.16.1.2,56267,172.16.3.2,5101,10136,14528,0,64256,65728,6,6,4,1460,716,1,992,49,49964,47068,65700,0,13032,0,0,0
i,0x00000000,1716938971.491826,172.16.1.2,56267,172.16.3.2,5101,10136,14528,0,64256,65728,6,6,4,1460,716,1,992,49,49964,49964,65700,0,14480,0,0,0
o,0x00000000,1716938971.491846,172.16.1.2,56267,172.16.3.2,5101,10136,14528,0,64256,65728,6,6,4,1460,715,1,992,47,49964,47068,65700,0,11584,0,0,0
o,0x00000000,1716938971.492117,172.16.1.2,56267,172.16.3.2,5101,10136,14528,0,64256,65728,6,6,4,1460,715,1,992,47,49964,47068,65700,0,13032,0,0,0
i,0x00000000,1716938971.561167,172.16.1.2,56267,172.16.3.2,5101,10136,14528,0,64256,65728,6,6,4,1460,715,1,992,47,49964,49964,65700,0,14480,0,0,0
o,0x00000000,1716938971.561210,172.16.1.2,56267,172.16.3.2,5101,10136,15988,0,64256,65728,6,6,4,1460,722,1,992,48,49964,47068,65700,0,11584,0,0,0
o,0x00000000,1716938971.561485,172.16.1.2,56267,172.16.3.2,5101,10136,15988,0,64256,65728,6,6,4,1460,722,1,992,48,49964,47068,65700,0,13032,0,0,0
o,0x00000000,1716938971.561722,172.16.1.2,56267,172.16.3.2,5101,10136,15988,0,64256,65728,6,6,4,1460,722,1,992,48,49964,47068,65700,0,14480,0,0,0
i,0x00000000,1716938971.600320,172.16.1.2,56267,172.16.3.2,5101,10136,15988,0,64256,65728,6,6,4,1460,722,1,992,48,49964,49964,65700,0,15928,0,0,0
o,0x00000000,1716938971.600333,172.16.1.2,56267,172.16.3.2,5101,10136,15988,0,64256,65728,6,6,4,1460,744,1,992,53,49964,47068,65700,0,13032,0,0,0
o,0x00000000,1716938971.600578,172.16.1.2,56267,172.16.3.2,5101,10136,15988,0,64256,65728,6,6,4,1460,744,1,992,53,49964,47068,65700,0,14480,0,0,0
i,0x00000000,1716938971.630534,172.16.1.2,56267,172.16.3.2,5101,10136,15988,0,64256,65728,6,6,4,1460,744,1,992,53,49964,49964,65700,0,15928,0,0,0
o,0x00000000,1716938971.630552,172.16.1.2,56267,172.16.3.2,5101,10136,15988,0,64256,65728,6,6,4,1460,751,1,992,52,49964,47068,65700,0,13032,0,0,0
o,0x00000000,1716938971.630800,172.16.1.2,56267,172.16.3.2,5101,10136,15988,0,64256,65728,6,6,4,1460,751,1,992,52,49964,47068,65700,0,14480,0,0,0
i,0x00000000,1716938971.680817,172.16.1.2,56267,172.16.3.2,5101,10136,15988,0,64256,65728,6,6,4,1460,751,1,992,52,49964,49964,65700,0,15928,0,0,0
o,0x00000000,1716938971.680832,172.16.1.2,56267,172.16.3.2,5101,10136,15988,0,64256,65728,6,6,4,1460,758,1,992,52,49964,47068,65700,0,13032,0,0,0
o,0x00000000,1716938971.681077,172.16.1.2,56267,172.16.3.2,5101,10136,15988,0,64256,65728,6,6,4,1460,758,1,992,52,49964,47068,65700,0,14480,0,0,0
i,0x00000000,1716938971.741135,172.16.1.2,56267,172.16.3.2,5101,10136,15988,0,64256,65728,6,6,4,1460,758,1,992,52,49964,49964,65700,0,15928,0,0,0
o,0x00000000,1716938971.741147,172.16.1.2,56267,172.16.3.2,5101,10136,15988,0,64256,65728,6,6,4,1460,764,1,992,52,49964,47068,65700,0,13032,0,0,0
o,0x00000000,1716938971.741388,172.16.1.2,56267,172.16.3.2,5101,10136,15988,0,64256,65728,6,6,4,1460,764,1,992,52,49964,47068,65700,0,14480,0,0,0
i,0x00000000,1716938971.800128,172.16.1.2,56267,172.16.3.2,5101,10136,15988,0,64256,65728,6,6,4,1460,764,1,992,52,49964,49964,65700,0,15928,0,0,0
o,0x00000000,1716938971.800140,172.16.1.2,56267,172.16.3.2,5101,10136,15988,0,65728,65728,6,6,4,1460,765,1,992,50,49964,48516,65700,0,14480,0,0,0
i,0x00000000,1716938971.821002,172.16.1.2,56267,172.16.3.2,5101,10136,15988,0,65728,65728,6,6,4,1460,765,1,992,50,49964,48516,65700,0,15928,0,0,0
o,0x00000000,1716938971.821011,172.16.1.2,56267,172.16.3.2,5101,10136,17448,0,64256,65728,6,6,4,1460,774,1,992,51,49964,45620,65700,0,13032,0,0,0
o,0x00000000,1716938971.821246,172.16.1.2,56267,172.16.3.2,5101,10136,17448,0,64256,65728,6,6,4,1460,774,1,992,51,49964,45620,65700,0,14480,0,0,0
o,0x00000000,1716938971.821489,172.16.1.2,56267,172.16.3.2,5101,10136,17448,0,64256,65728,6,6,4,1460,774,1,992,51,49964,45620,65700,0,15928,0,0,0
i,0x00000000,1716938971.870074,172.16.1.2,56267,172.16.3.2,5101,10136,17448,0,64256,65728,6,6,4,1460,774,1,992,51,49964,49964,65700,0,17376,0,0,0
o,0x00000000,1716938971.870083,172.16.1.2,56267,172.16.3.2,5101,10136,17448,0,64256,65728,6,6,4,1460,782,1,992,51,49964,47068,65700,0,14480,0,0,0
o,0x00000000,1716938971.870336,172.16.1.2,56267,172.16.3.2,5101,10136,17448,0,64256,65728,6,6,4,1460,782,1,992,51,49964,47068,65700,0,15928,0,0,0
i,0x00000000,1716938971.900033,172.16.1.2,56267,172.16.3.2,5101,10136,17448,0,64256,65728,6,6,4,1460,782,1,992,51,49964,49964,65700,0,17376,0,0,0
o,0x00000000,1716938971.900039,172.16.1.2,56267,172.16.3.2,5101,10136,17448,0,64256,65728,6,6,4,1460,793,1,992,53,49964,47068,65700,0,14480,0,0,0
o,0x00000000,1716938971.900277,172.16.1.2,56267,172.16.3.2,5101,10136,17448,0,64256,65728,6,6,4,1460,793,1,992,53,49964,47068,65700,0,15928,0,0,0
i,0x00000000,1716938971.950598,172.16.1.2,56267,172.16.3.2,5101,10136,17448,0,64256,65728,6,6,4,1460,793,1,992,53,49964,49964,65700,0,17376,0,0,0
o,0x00000000,1716938971.950614,172.16.1.2,56267,172.16.3.2,5101,10136,17448,0,64256,65728,6,6,4,1460,798,1,992,52,49964,47068,65700,0,14480,0,0,0
o,0x00000000,1716938971.950909,172.16.1.2,56267,172.16.3.2,5101,10136,17448,0,64256,65728,6,6,4,1460,798,1,992,52,49964,47068,65700,0,15928,0,0,0
i,0x00000000,1716938972.029612,172.16.1.2,56267,172.16.3.2,5101,10136,17448,0,64256,65728,6,6,4,1460,798,1,992,52,49964,49964,65700,0,17376,0,0,0
o,0x00000000,1716938972.029631,172.16.1.2,56267,172.16.3.2,5101,10136,17448,0,64256,65728,6,6,4,1460,815,1,992,55,49964,47068,65700,0,14480,0,0,0
o,0x00000000,1716938972.029885,172.16.1.2,56267,172.16.3.2,5101,10136,17448,0,64256,65728,6,6,4,1460,815,1,992,55,49964,47068,65700,0,15928,0,0,0
i,0x00000000,1716938972.090972,172.16.1.2,56267,172.16.3.2,5101,10136,17448,0,64256,65728,6,6,4,1460,815,1,992,55,49964,49964,65700,0,17376,0,0,0
o,0x00000000,1716938972.090986,172.16.1.2,56267,172.16.3.2,5101,10136,17448,0,65728,65728,6,6,4,1460,830,1,992,57,49964,48516,65700,0,15928,0,0,0
i,0x00000000,1716938972.109490,172.16.1.2,56267,172.16.3.2,5101,10136,17448,0,65728,65728,6,6,4,1460,830,1,992,57,49964,48516,65700,0,17376,0,0,0
o,0x00000000,1716938972.109498,172.16.1.2,56267,172.16.3.2,5101,10136,17448,0,64256,65728,6,6,4,1460,843,1,992,58,49964,45620,65700,0,14480,0,0,0
o,0x00000000,1716938972.109737,172.16.1.2,56267,172.16.3.2,5101,10136,17448,0,64256,65728,6,6,4,1460,843,1,992,58,49964,45620,65700,0,15928,0,0,0
i,0x00000000,1716938972.150341,172.16.1.2,56267,172.16.3.2,5101,10136,17448,0,64256,65728,6,6,4,1460,843,1,992,58,49964,49964,65700,0,17376,0,0,0
o,0x00000000,1716938972.150357,172.16.1.2,56267,172.16.3.2,5101,10136,18908,0,64256,65728,6,6,4,1460,870,1,992,62,49964,47068,65700,0,14480,0,0,0
o,0x00000000,1716938972.150599,172.16.1.2,56267,172.16.3.2,5101,10136,18908,0,64256,65728,6,6,4,1460,870,1,992,62,49964,47068,65700,0,15928,0,0,0
o,0x00000000,1716938972.150862,172.16.1.2,56267,172.16.3.2,5101,10136,18908,0,64256,65728,6,6,4,1460,870,1,992,62,49964,47068,65700,0,17376,0,0,0
i,0x00000000,1716938972.180559,172.16.1.2,56267,172.16.3.2,5101,10136,18908,0,64256,65728,6,6,4,1460,870,1,992,62,49964,49964,65700,0,18824,0,0,0
o,0x00000000,1716938972.180589,172.16.1.2,56267,172.16.3.2,5101,10136,18908,0,64256,65728,6,6,4,1460,886,1,992,63,49964,47068,65700,0,15928,0,0,0
o,0x00000000,1716938972.180884,172.16.1.2,56267,172.16.3.2,5101,10136,18908,0,64256,65728,6,6,4,1460,886,1,992,63,49964,47068,65700,0,17376,0,0,0
i,0x00000000,1716938972.231055,172.16.1.2,56267,172.16.3.2,5101,10136,18908,0,64256,65728,6,6,4,1460,886,1,992,63,49964,49964,65700,0,18824,0,0,0
o,0x00000000,1716938972.231064,172.16.1.2,56267,172.16.3.2,5101,10136,18908,0,65728,65728,6,6,4,1460,908,1,992,65,49964,48516,65700,0,17376,0,0,0
i,0x00000000,1716938972.249840,172.16.1.2,56267,172.16.3.2,5101,10136,18908,0,65728,65728,6,6,4,1460,908,1,992,65,49964,48516,65700,0,18824,0,0,0
o,0x00000000,1716938972.249847,172.16.1.2,56267,172.16.3.2,5101,10136,18908,0,64256,65728,6,6,4,1460,915,1,992,63,49964,45620,65700,0,15928,0,0,0
o,0x00000000,1716938972.250082,172.16.1.2,56267,172.16.3.2,5101,10136,18908,0,64256,65728,6,6,4,1460,915,1,992,63,49964,45620,65700,0,17376,0,0,0
i,0x00000000,1716938972.310532,172.16.1.2,56267,172.16.3.2,5101,10136,18908,0,64256,65728,6,6,4,1460,915,1,992,63,49964,49964,65700,0,18824,0,0,0
o,0x00000000,1716938972.310551,172.16.1.2,56267,172.16.3.2,5101,10136,18908,0,64256,65728,6,6,4,1460,913,1,992,60,49964,47068,65700,0,15928,0,0,0
o,0x00000000,1716938972.310795,172.16.1.2,56267,172.16.3.2,5101,10136,18908,0,64256,65728,6,6,4,1460,913,1,992,60,49964,47068,65700,0,17376,0,0,0
i,0x00000000,1716938972.389616,172.16.1.2,56267,172.16.3.2,5101,10136,18908,0,64256,65728,6,6,4,1460,913,1,992,60,49964,49964,65700,0,18824,0,0,0
o,0x00000000,1716938972.389636,172.16.1.2,56267,172.16.3.2,5101,10136,18908,0,64256,65728,6,6,4,1460,915,1,992,58,49964,47068,65700,0,15928,0,0,0
o,0x00000000,1716938972.389907,172.16.1.2,56267,172.16.3.2,5101,10136,18908,0,64256,65728,6,6,4,1460,915,1,992,58,49964,47068,65700,0,17376,0,0,0
i,0x00000000,1716938972.420282,172.16.1.2,56267,172.16.3.2,5101,10136,18908,0,64256,65728,6,6,4,1460,915,1,992,58,49964,49964,65700,0,18824,0,0,0
o,0x00000000,1716938972.420298,172.16.1.2,56267,172.16.3.2,5101,10136,18908,0,64256,65728,6,6,4,1460,925,1,992,58,49964,47068,65700,0,15928,0,0,0
o,0x00000000,1716938972.420720,172.16.1.2,56267,172.16.3.2,5101,10136,18908,0,64256,65728,6,6,4,1460,925,1,992,58,49964,47068,65700,0,17376,0,0,0
i,0x00000000,1716938972.480606,172.16.1.2,56267,172.16.3.2,5101,10136,18908,0,64256,65728,6,6,4,1460,925,1,992,58,49964,49288,65700,0,18824,0,0,0
o,0x00000000,1716938972.480625,172.16.1.2,56267,172.16.3.2,5101,10136,20368,0,64256,65728,6,6,4,1460,938,1,992,60,49964,46392,65700,0,15928,0,0,0
o,0x00000000,1716938972.480920,172.16.1.2,56267,172.16.3.2,5101,10136,20368,0,64256,65728,6,6,4,1460,938,1,992,60,49964,46392,65700,0,17376,0,0,0
o,0x00000000,1716938972.481160,172.16.1.2,56267,172.16.3.2,5101,10136,20368,0,64256,65728,6,6,4,1460,938,1,992,60,49964,46392,65700,0,18824,0,0,0
i,0x00000000,1716938972.499989,172.16.1.2,56267,172.16.3.2,5101,10136,20368,0,64256,65728,6,6,4,1460,938,1,992,60,49964,49964,65700,0,20272,0,0,0
o,0x00000000,1716938972.499997,172.16.1.2,56267,172.16.3.2,5101,10136,20368,0,64256,65728,6,6,4,1460,949,1,992,60,49964,47068,65700,0,17376,0,0,0
o,0x00000000,1716938972.500246,172.16.1.2,56267,172.16.3.2,5101,10136,20368,0,64256,65728,6,6,4,1460,949,1,992,60,49964,47068,65700,0,18824,0,0,0
i,0x00000000,1716938972.549765,172.16.1.2,56267,172.16.3.2,5101,10136,20368,0,64256,65728,6,6,4,1460,949,1,992,60,49964,49964,65700,0,20272,0,0,0
o,0x00000000,1716938972.549783,172.16.1.2,56267,172.16.3.2,5101,10136,20368,0,64256,65728,6,6,4,1460,955,1,992,59,49964,47068,65700,0,17376,0,0,0
o,0x00000000,1716938972.550030,172.16.1.2,56267,172.16.3.2,5101,10136,20368,0,64256,65728,6,6,4,1460,955,1,992,59,49964,47068,65700,0,18824,0,0,0
i,0x00000000,1716938972.609286,172.16.1.2,56267,172.16.3.2,5101,10136,20368,0,64256,65728,6,6,4,1460,955,1,992,59,49964,49964,65700,0,20272,0,0,0
o,0x00000000,1716938972.609298,172.16.1.2,56267,172.16.3.2,5101,10136,20368,0,65728,65728,6,6,4,1460,980,1,992,64,49964,48516,65700,0,18824,0,0,0
i,0x00000000,1716938972.639804,172.16.1.2,56267,172.16.3.2,5101,10136,20368,0,65728,65728,6,6,4,1460,980,1,992,64,49964,48516,65700,0,20272,0,0,0
o,0x00000000,1716938972.639843,172.16.1.2,56267,172.16.3.2,5101,10136,20368,0,64256,65728,6,6,4,1460,990,1,992,63,49964,45620,65700,0,17376,0,0,0
o,0x00000000,1716938972.640096,172.16.1.2,56267,172.16.3.2,5101,10136,20368,0,64256,65728,6,6,4,1460,990,1,992,63,49964,45620,65700,0,18824,0,0,0
i,0x00000000,1716938972.720114,172.16.1.2,56267,172.16.3.2,5101,10136,20368,0,64256,65728,6,6,4,1460,990,1,992,63,49964,49964,65700,0,20272,0,0,0
o,0x00000000,1716938972.720130,172.16.1.2,56267,172.16.3.2,5101,10136,20368,0,64256,65728,6,6,4,1460,999,1,992,63,49964,47068,65700,0,17376,0,0,0
o,0x00000000,1716938972.720382,172.16.1.2,56267,172.16.3.2,5101,10136,20368,0,64256,65728,6,6,4,1460,999,1,992,63,49964,47068,65700,0,18824,0,0,0
i,0x00000000,1716938972.751380,172.16.1.2,56267,172.16.3.2,5101,10136,20368,0,64256,65728,6,6,4,1460,999,1,992,63,49964,49964,65700,0,20272,0,0,0
o,0x00000000,1716938972.751396,172.16.1.2,56267,172.16.3.2,5101,10136,20368,0,64256,65728,6,6,4,1460,1007,1,992,62,49964,47068,65700,0,17376,0,0,0
o,0x00000000,1716938972.751664,172.16.1.2,56267,172.16.3.2,5101,10136,20368,0,64256,65728,6,6,4,1460,1007,1,992,62,49964,47068,65700,0,18824,0,0,0
i,0x00000000,1716938972.799932,172.16.1.2,56267,172.16.3.2,5101,10136,20368,0,64256,65728,6,6,4,1460,1007,1,992,62,49964,49964,65700,0,20272,0,0,0
o,0x00000000,1716938972.799945,172.16.1.2,56267,172.16.3.2,5101,10136,27512,0,64256,65728,6,6,4,1460,1007,1,536871904,62,49964,49964,65700,0,20272,0,0,0
o,0x00000000,1716938972.800238,172.16.1.2,56267,172.16.3.2,5101,10136,27512,0,64256,65728,6,6,4,1460,1007,1,536871904,62,49964,49964,65700,0,21720,0,0,0
o,0x00000000,1716938972.800471,172.16.1.2,56267,172.16.3.2,5101,10136,27512,0,64256,65728,6,6,4,1460,1007,1,536871904,62,58156,49964,65700,0,23168,0,0,0
o,0x00000000,1716938972.800700,172.16.1.2,56267,172.16.3.2,5101,10136,27512,0,64256,65728,6,6,4,1460,1007,1,536871904,62,58156,49964,65700,0,24616,0,0,0
o,0x00000000,1716938972.800928,172.16.1.2,56267,172.16.3.2,5101,10136,27512,0,64256,65728,6,6,4,1460,1007,1,536871904,62,58156,49964,65700,0,26064,0,0,0
o,0x00000000,1716938972.801158,172.16.1.2,56267,172.16.3.2,5101,10136,27512,0,64256,65728,6,6,4,1460,1010,1,536871904,60,58156,47068,65700,0,24616,0,0,0
o,0x00000000,1716938972.801386,172.16.1.2,56267,172.16.3.2,5101,10136,27512,0,64256,65728,6,6,4,1460,1010,1,536871904,60,58156,47068,65700,0,26064,0,0,0
i,0x00000000,1716938972.830174,172.16.1.2,56267,172.16.3.2,5101,10136,27512,0,64256,65728,6,6,4,1460,1010,1,536871904,60,58156,58156,65700,0,27512,0,0,0
o,0x00000000,1716938972.830181,172.16.1.2,56267,172.16.3.2,5101,10136,26064,0,64256,65728,6,6,4,1460,1024,1,536871904,62,58156,55260,65700,0,24616,0,0,0
i,0x00000000,1716938972.860220,172.16.1.2,56267,172.16.3.2,5101,10136,26064,0,64256,65728,6,6,4,1460,1024,1,536871904,62,58156,58156,65700,0,26064,0,0,0
o,0x00000000,1716938972.860234,172.16.1.2,56267,172.16.3.2,5101,10136,24616,0,64256,65728,6,6,4,1460,1040,1,536871904,64,58156,55260,65700,0,23168,0,0,0
i,0x00000000,1716938972.909334,172.16.1.2,56267,172.16.3.2,5101,10136,24616,0,64256,65728,6,6,4,1460,1040,1,536871904,64,58156,58156,65700,0,24616,0,0,0
i,0x00000000,1716938972.939219,172.16.1.2,56267,172.16.3.2,5101,10136,21720,0,64256,65728,6,6,4,1460,1054,1,536871904,65,58156,58156,65700,0,21720,0,0,0
o,0x00000000,1716938972.939237,172.16.1.2,56267,172.16.3.2,5101,10136,23168,0,64256,65728,6,6,4,1460,1054,1,536871904,65,58156,58156,65700,0,21720,0,0,0
i,0x00000000,1716938973.028968,172.16.1.2,56267,172.16.3.2,5101,10136,21720,0,64256,65728,6,6,4,1460,1054,1,536871904,65,58156,58156,65700,0,23168,0,0,0
o,0x00000000,1716938973.028987,172.16.1.2,56267,172.16.3.2,5101,10136,24616,0,64256,65728,6,6,4,1460,1054,1,536871904,65,58156,58156,65700,0,23168,0,0,0
i,0x00000000,1716938973.048683,172.16.1.2,56267,172.16.3.2,5101,10136,21720,0,64256,65728,6,6,4,1460,1054,1,536871904,65,58156,58156,65700,0,24616,0,0,0
o,0x00000000,1716938973.048694,172.16.1.2,56267,172.16.3.2,5101,10136,1448,0,64256,65728,6,6,4,1460,1054,1,537920480,65,58156,58156,65700,0,24616,0,0,0
i,0x00000000,1716938973.089917,172.16.1.2,56267,172.16.3.2,5101,10136,1448,0,64256,65728,6,6,4,1460,1054,1,537920480,65,58156,58156,65700,0,24616,0,0,0
i,0x00000000,1716938973.089922,172.16.1.2,56267,172.16.3.2,5101,10136,1448,0,64256,65728,6,6,4,1460,1054,1,537920480,65,58156,58156,65700,0,24616,0,0,0
i,0x00000000,1716938973.089922,172.16.1.2,56267,172.16.3.2,5101,10136,1448,0,64256,65728,6,6,4,1460,1054,1,537920480,65,58156,58156,65700,0,24616,0,0,0
i,0x00000000,1716938973.118866,172.16.1.2,56267,172.16.3.2,5101,10136,1448,0,64256,65728,6,6,4,1460,1054,1,537920480,65,58156,58156,65700,0,24616,0,0,0
