enable_time_secs=1716937607	enable_time_usecs=421184	siftrver=1.2.4	hz=100	tcp_rtt_scale=32	sysname=FreeBSD	sysver=1301000	ipmode=4
o,0x00000000,1716937607.421217,10.0.2.15,22,10.0.2.2,58273,1073725440,17298,0,65535,65700,0,0,4,1460,1,0,4,24,33580,44,65700,0,0,0,0,0
o,0x00000000,1716937607.421313,10.0.2.15,22,10.0.2.2,58273,1073725440,17298,0,65535,65700,0,0,4,1460,1,0,4,24,33580,80,65700,0,44,0,0,0
i,0x00000000,1716937607.422009,10.0.2.15,22,10.0.2.2,58273,1073725440,17298,0,65535,65700,0,0,4,1460,1,0,4,24,33580,80,65700,0,80,0,0,0
i,0x00000000,1716937607.422013,10.0.2.15,22,10.0.2.2,58273,1073725440,17342,0,65535,65700,0,0,4,1460,1,0,4,24,33580,36,65700,0,36,0,0,0
o,0x00000000,1716937607.422116,10.0.2.15,22,10.0.2.2,58273,1073725440,17378,0,65535,65700,0,0,4,1460,1,0,4,24,33580,36,65700,0,0,0,0,0
i,0x00000000,1716937607.422637,10.0.2.15,22,10.0.2.2,58273,1073725440,17378,0,65535,65700,0,0,4,1460,1,0,4,24,33580,36,65700,0,36,0,0,0
o,0x00000000,1716937607.422714,10.0.2.15,22,10.0.2.2,58273,1073725440,17414,0,65535,65700,0,0,4,1460,1,0,4,24,33580,176,65700,0,0,0,0,0
i,0x00000000,1716937607.423357,10.0.2.15,22,10.0.2.2,58273,1073725440,17414,0,65535,65700,0,0,4,1460,1,0,4,24,33580,176,65700,0,176,0,0,0
i,0x00000000,1716937607.423743,10.0.2.15,22,10.0.2.2,58273,1073725440,17590,0,65535,65700,0,0,4,1460,1,0,4,24,33580,0,65700,0,0,0,0,0
i,0x00000000,1716937607.423745,10.0.2.15,22,10.0.2.2,58273,1073725440,17590,0,65535,65700,0,0,4,1460,1,0,4,24,33580,0,65700,36,0,0,0,0
o,0x00000000,1716937607.423747,10.0.2.15,22,10.0.2.2,58273,1073725440,17590,0,65535,65700,0,0,4,1460,1,0,5,24,33580,0,65700,96,0,0,0,0
i,0x00000000,1716937607.423825,10.0.2.15,22,10.0.2.2,58273,1073725440,17590,0,65535,65700,0,0,4,1460,1,0,4,24,33580,0,65700,96,0,0,0,0
o,0x00000000,1716937607.423828,10.0.2.15,22,10.0.2.2,58273,1073725440,17590,0,65535,65604,0,0,5,1460,1,0,7,24,33580,0,65700,96,0,0,0,0
o,0x00000000,1716937607.424421,10.0.2.15,22,10.0.2.2,58273,1073725440,17590,0,65535,65604,0,0,8,1460,1,0,4,24,33580,0,65700,0,0,0,0,0
i,0x00000000,1716937607.424939,10.0.2.15,22,10.0.2.2,58273,1073725440,17590,0,65535,65604,0,0,8,1460,1,0,20,24,33580,0,65700,0,1,0,0,0
i,0x00000000,1716937609.569239,10.0.2.15,22,10.0.2.2,58279,1073725440,14600,0,65535,65700,0,0,4,1460,1,0,0,27,33580,0,65700,0,0,0,0,0
o,0x00000000,1716937609.575697,10.0.2.15,22,10.0.2.2,58279,1073725440,14600,0,65535,65700,0,0,4,1460,1,0,0,27,33580,38,65700,41,0,0,0,0
i,0x00000000,1716937609.576401,10.0.2.15,22,10.0.2.2,58279,1073725440,14600,0,65535,65700,0,0,4,1460,1,0,0,27,33580,38,65700,0,38,0,0,0
i,0x00000000,1716937609.577320,10.0.2.15,22,10.0.2.2,58279,1073725440,14638,0,65535,65700,0,0,4,1460,1,0,0,23,33580,0,65700,0,0,0,0,0
i,0x00000000,1716937609.577323,10.0.2.15,22,10.0.2.2,58279,1073725440,14638,0,65535,65700,0,0,4,1460,1,0,0,23,33580,0,65700,1460,0,0,0,0
o,0x00000000,1716937609.577326,10.0.2.15,22,10.0.2.2,58279,1073725440,14638,0,65535,65700,0,0,4,1460,1,0,1,23,33580,0,65700,1536,0,0,0,0
o,0x00000000,1716937609.577896,10.0.2.15,22,10.0.2.2,58279,1073725440,14638,0,65535,65700,0,0,4,1460,1,0,0,23,33580,1056,65700,1536,0,0,0,0
i,0x00000000,1716937609.578637,10.0.2.15,22,10.0.2.2,58279,1073725440,14638,0,65535,65700,0,0,4,1460,1,0,0,23,33580,1056,65700,1536,1056,0,0,0
i,0x00000000,1716937609.580248,10.0.2.15,22,10.0.2.2,58279,1073725440,15694,0,65535,65700,0,0,4,1460,1,0,0,23,33580,0,65700,0,0,0,0,0
o,0x00000000,1716937609.582670,10.0.2.15,22,10.0.2.2,58279,1073725440,15694,0,65535,65700,0,0,4,1460,1,0,0,23,33580,484,65700,0,0,0,0,0
i,0x00000000,1716937609.583349,10.0.2.15,22,10.0.2.2,58279,1073725440,15694,0,65535,65700,0,0,4,1460,1,0,0,23,33580,484,65700,0,484,0,0,0
i,0x00000000,1716937609.587993,10.0.2.15,22,10.0.2.2,58279,1073725440,16178,0,65535,65700,0,0,4,1460,1,0,0,23,33580,0,65700,0,0,0,0,0
i,0x00000000,1716937609.592475,10.0.2.15,22,10.0.2.2,58279,1073725440,16178,0,65535,65700,0,0,4,1460,1,0,0,23,33580,0,65700,0,0,0,0,0
o,0x00000000,1716937609.592480,10.0.2.15,22,10.0.2.2,58279,1073725440,16178,0,65535,65700,0,0,4,1460,1,0,1,23,33580,0,65700,44,0,0,0,0
o,0x00000000,1716937609.592615,10.0.2.15,22,10.0.2.2,58279,1073725440,16178,0,65535,65700,0,0,4,1460,1,0,0,23,33580,44,65700,0,0,0,0,0
i,0x00000000,1716937609.593374,10.0.2.15,22,10.0.2.2,58279,1073725440,16178,0,65535,65700,0,0,4,1460,1,0,0,23,33580,44,65700,0,44,0,0,0
i,0x00000000,1716937609.593936,10.0.2.15,22,10.0.2.2,58279,1073725440,16222,0,65535,65700,0,0,4,1460,1,0,0,23,33580,0,65700,0,0,0,0,0
o,0x00000000,1716937609.603726,10.0.2.15,22,10.0.2.2,58279,1073725440,16222,0,65535,65700,0,0,4,1460,1,0,0,23,33580,68,65700,0,0,0,0,0
i,0x00000000,1716937609.604452,10.0.2.15,22,10.0.2.2,58279,1073725440,16222,0,65535,65700,0,0,4,1460,1,0,0,23,33580,68,65700,0,68,0,0,0
i,0x00000000,1716937609.606875,10.0.2.15,22,10.0.2.2,58279,1073725440,16290,0,65535,65700,0,0,4,1460,1,0,0,24,33580,0,65700,0,0,0,0,0
o,0x00000000,1716937609.617235,10.0.2.15,22,10.0.2.2,58279,1073725440,16290,0,65535,65700,0,0,4,1460,1,0,0,24,33580,28,65700,0,0,0,0,0
i,0x00000000,1716937609.618341,10.0.2.15,22,10.0.2.2,58279,1073725440,16290,0,65535,65700,0,0,4,1460,1,0,0,24,33580,28,65700,0,28,0,0,0
i,0x00000000,1716937609.618345,10.0.2.15,22,10.0.2.2,58279,1073725440,16318,0,65535,65700,0,0,4,1460,1,0,0,24,33580,0,65700,0,0,0,0,0
o,0x00000000,1716937609.619178,10.0.2.15,22,10.0.2.2,58279,1073725440,16318,0,65535,65700,0,0,4,1460,1,0,0,24,33580,768,65700,112,0,0,0,0
i,0x00000000,1716937609.619904,10.0.2.15,22,10.0.2.2,58279,1073725440,16318,0,65535,65700,0,0,4,1460,1,0,0,24,33580,768,65700,112,768,0,0,0
o,0x00000000,1716937609.620008,10.0.2.15,22,10.0.2.2,58279,1073725440,17086,0,65535,65700,0,0,4,1460,1,0,0,24,33580,44,65700,0,0,0,0,0
i,0x00000000,1716937609.620641,10.0.2.15,22,10.0.2.2,58279,1073725440,17086,0,65535,65700,0,0,4,1460,1,0,0,24,33580,44,65700,0,44,0,0,0
i,0x00000000,1716937609.621282,10.0.2.15,22,10.0.2.2,58279,1073725440,17130,0,65535,65700,0,0,4,1460,1,0,0,24,33580,0,65700,0,0,0,0,0
o,0x00000000,1716937609.621629,10.0.2.15,22,10.0.2.2,58279,1073725440,17130,0,65535,65700,0,0,4,1460,1,0,4,24,33580,72,65700,0,0,0,0,0
i,0x00000000,1716937609.622311,10.0.2.15,22,10.0.2.2,58279,1073725440,17130,0,65535,65700,0,0,4,1460,1,0,4,24,33580,72,65700,0,72,0,0,0
o,0x00000000,1716937609.624961,10.0.2.15,22,10.0.2.2,58279,1073725440,17202,0,65535,65700,0,0,4,1460,1,0,4,24,33580,44,65700,0,0,0,0,0
i,0x00000000,1716937609.625669,10.0.2.15,22,10.0.2.2,58279,1073725440,17202,0,65535,65700,0,0,4,1460,1,0,4,24,33580,44,65700,0,44,0,0,0
o,0x00000000,1716937609.625916,10.0.2.15,22,10.0.2.2,58279,1073725440,17246,0,65535,65700,0,0,4,1460,1,0,4,24,33580,44,65700,0,0,0,0,0
i,0x00000000,1716937609.626821,10.0.2.15,22,10.0.2.2,58279,1073725440,17246,0,65535,65700,0,0,4,1460,1,0,4,24,33580,44,65700,0,44,0,0,0
o,0x00000000,1716937609.630304,10.0.2.15,22,10.0.2.2,58279,1073725440,17290,0,65535,65700,0,0,4,1460,1,0,4,24,33580,176,65700,0,0,0,0,0
i,0x00000000,1716937609.631025,10.0.2.15,22,10.0.2.2,58279,1073725440,17290,0,65535,65700,0,0,4,1460,1,0,4,24,33580,176,65700,0,176,0,0,0
i,0x00000000,1716937609.631636,10.0.2.15,22,10.0.2.2,58279,1073725440,17466,0,65535,65700,0,0,4,1460,1,0,4,24,33580,0,65700,0,0,0,0,0
i,0x00000000,1716937609.631638,10.0.2.15,22,10.0.2.2,58279,1073725440,17466,0,65535,65700,0,0,4,1460,1,0,4,24,33580,0,65700,36,0,0,0,0
o,0x00000000,1716937609.631640,10.0.2.15,22,10.0.2.2,58279,1073725440,17466,0,65535,65700,0,0,4,1460,1,0,5,24,33580,0,65700,96,0,0,0,0
i,0x00000000,1716937609.631729,10.0.2.15,22,10.0.2.2,58279,1073725440,17466,0,65535,65700,0,0,4,1460,1,0,4,24,33580,0,65700,96,0,0,0,0
o,0x00000000,1716937609.631732,10.0.2.15,22,10.0.2.2,58279,1073725440,17466,0,65535,65604,0,0,5,1460,1,0,7,24,33580,0,65700,96,0,0,0,0
o,0x00000000,1716937609.636961,10.0.2.15,22,10.0.2.2,58279,1073725440,17466,0,65535,65604,0,0,8,1460,1,0,4,24,33580,0,65700,0,0,0,0,0
i,0x00000000,1716937609.637593,10.0.2.15,22,10.0.2.2,58279,1073725440,17466,0,65535,65604,0,0,8,1460,1,0,20,24,33580,0,65700,0,1,0,0,0
i,0x00000000,1716937610.716424,10.0.2.15,22,10.0.2.2,58282,1073725440,14600,0,65535,65700,0,0,4,1460,1,0,0,27,33580,0,65700,0,0,0,0,0
o,0x00000000,1716937610.722915,10.0.2.15,22,10.0.2.2,58282,1073725440,14600,0,65535,65700,0,0,4,1460,1,0,0,27,33580,38,65700,41,0,0,0,0
i,0x00000000,1716937610.723685,10.0.2.15,22,10.0.2.2,58282,1073725440,14600,0,65535,65700,0,0,4,1460,1,0,0,27,33580,38,65700,0,38,0,0,0
i,0x00000000,1716937610.724520,10.0.2.15,22,10.0.2.2,58282,1073725440,14638,0,65535,65700,0,0,4,1460,1,0,0,24,33580,0,65700,0,0,0,0,0
i,0x00000000,1716937610.724525,10.0.2.15,22,10.0.2.2,58282,1073725440,14638,0,65535,65700,0,0,4,1460,1,0,0,24,33580,0,65700,1460,0,0,0,0
o,0x00000000,1716937610.724528,10.0.2.15,22,10.0.2.2,58282,1073725440,14638,0,65535,65700,0,0,4,1460,1,0,1,24,33580,0,65700,1536,0,0,0,0
o,0x00000000,1716937610.725005,10.0.2.15,22,10.0.2.2,58282,1073725440,14638,0,65535,65700,0,0,4,1460,1,0,0,24,33580,1056,65700,1536,0,0,0,0
i,0x00000000,1716937610.725835,10.0.2.15,22,10.0.2.2,58282,1073725440,14638,0,65535,65700,0,0,4,1460,1,0,0,24,33580,1056,65700,1536,1056,0,0,0
i,0x00000000,1716937610.727161,10.0.2.15,22,10.0.2.2,58282,1073725440,15694,0,65535,65700,0,0,4,1460,1,0,0,24,33580,0,65700,0,0,0,0,0
o,0x00000000,1716937610.729572,10.0.2.15,22,10.0.2.2,58282,1073725440,15694,0,65535,65700,0,0,4,1460,1,0,0,24,33580,484,65700,0,0,0,0,0
i,0x00000000,1716937610.730437,10.0.2.15,22,10.0.2.2,58282,1073725440,15694,0,65535,65700,0,0,4,1460,1,0,0,24,33580,484,65700,0,484,0,0,0
i,0x00000000,1716937610.735060,10.0.2.15,22,10.0.2.2,58282,1073725440,16178,0,65535,65700,0,0,4,1460,1,0,0,24,33580,0,65700,0,0,0,0,0
i,0x00000000,1716937610.739275,10.0.2.15,22,10.0.2.2,58282,1073725440,16178,0,65535,65700,0,0,4,1460,1,0,0,24,33580,0,65700,0,0,0,0,0
o,0x00000000,1716937610.739281,10.0.2.15,22,10.0.2.2,58282,1073725440,16178,0,65535,65700,0,0,4,1460,1,0,1,24,33580,0,65700,44,0,0,0,0
o,0x00000000,1716937610.739441,10.0.2.15,22,10.0.2.2,58282,1073725440,16178,0,65535,65700,0,0,4,1460,1,0,0,24,33580,44,65700,0,0,0,0,0
i,0x00000000,1716937610.740152,10.0.2.15,22,10.0.2.2,58282,1073725440,16178,0,65535,65700,0,0,4,1460,1,0,0,24,33580,44,65700,0,44,0,0,0
i,0x00000000,1716937610.740590,10.0.2.15,22,10.0.2.2,58282,1073725440,16222,0,65535,65700,0,0,4,1460,1,0,0,24,33580,0,65700,0,0,0,0,0
o,0x00000000,1716937610.750260,10.0.2.15,22,10.0.2.2,58282,1073725440,16222,0,65535,65700,0,0,4,1460,1,0,0,24,33580,68,65700,0,0,0,0,0
i,0x00000000,1716937610.750893,10.0.2.15,22,10.0.2.2,58282,1073725440,16222,0,65535,65700,0,0,4,1460,1,0,0,24,33580,68,65700,0,68,0,0,0
i,0x00000000,1716937610.753045,10.0.2.15,22,10.0.2.2,58282,1073725440,16290,0,65535,65700,0,0,4,1460,1,0,0,24,33580,0,65700,0,0,0,0,0
o,0x00000000,1716937610.762754,10.0.2.15,22,10.0.2.2,58282,1073725440,16290,0,65535,65700,0,0,4,1460,1,0,0,24,33580,28,65700,0,0,0,0,0
i,0x00000000,1716937610.763777,10.0.2.15,22,10.0.2.2,58282,1073725440,16290,0,65535,65700,0,0,4,1460,1,0,0,24,33580,28,65700,0,28,0,0,0
i,0x00000000,1716937610.763803,10.0.2.15,22,10.0.2.2,58282,1073725440,16318,0,65535,65700,0,0,4,1460,1,0,0,24,33580,0,65700,0,0,0,0,0
o,0x00000000,1716937610.764618,10.0.2.15,22,10.0.2.2,58282,1073725440,16318,0,65535,65700,0,0,4,1460,1,0,0,24,33580,768,65700,112,0,0,0,0
i,0x00000000,1716937610.765283,10.0.2.15,22,10.0.2.2,58282,1073725440,16318,0,65535,65700,0,0,4,1460,1,0,0,24,33580,768,65700,112,768,0,0,0
o,0x00000000,1716937610.765459,10.0.2.15,22,10.0.2.2,58282,1073725440,17086,0,65535,65700,0,0,4,1460,1,0,0,24,33580,44,65700,0,0,0,0,0
i,0x00000000,1716937610.766560,10.0.2.15,22,10.0.2.2,58282,1073725440,17086,0,65535,65700,0,0,4,1460,1,0,0,24,33580,44,65700,0,44,0,0,0
i,0x00000000,1716937610.766562,10.0.2.15,22,10.0.2.2,58282,1073725440,17130,0,65535,65700,0,0,4,1460,1,0,0,23,33580,0,65700,0,0,0,0,0
o,0x00000000,1716937610.766980,10.0.2.15,22,10.0.2.2,58282,1073725440,17130,0,65535,65700,0,0,4,1460,1,0,4,23,33580,72,65700,0,0,0,0,0
i,0x00000000,1716937610.767753,10.0.2.15,22,10.0.2.2,58282,1073725440,17130,0,65535,65700,0,0,4,1460,1,0,4,23,33580,72,65700,0,72,0,0,0
i,0x00000000,1716937610.768250,10.0.2.15,22,10.0.2.2,58282,1073725440,17202,0,65535,65700,0,0,4,1460,1,0,4,23,33580,0,65700,0,0,0,0,0
o,0x00000000,1716937610.772455,172.16.1.2,45955,172.16.3.2,5101,1073725440,1073725440,0,0,0,0,0,2,536,0,1,672,100,32768,0,65536,0,0,0,0,0
o,0x00000000,1716937610.807105,10.0.2.15,22,10.0.2.2,58282,1073725440,17202,0,65535,65700,0,0,4,1460,1,0,5,23,33580,0,65700,0,0,0,0,0
i,0x00000000,1716937610.891979,172.16.1.2,45955,172.16.3.2,5101,1073725440,1073725440,0,0,0,0,0,2,536,0,1,672,100,32768,0,65536,0,1,0,0,0
o,0x00000000,1716937610.891990,172.16.1.2,45955,172.16.3.2,5101,23120,14480,0,65535,65700,6,6,4,1460,558,1,993,62,33580,0,65700,0,0,0,0,0
o,0x00000000,1716937610.892333,172.16.1.2,45955,172.16.3.2,5101,23120,14480,0,65535,65700,6,6,4,1460,558,1,996,62,33580,37,65700,0,0,0,0,0
i,0x00000000,1716937611.010984,172.16.1.2,45955,172.16.3.2,5101,23120,14480,0,65535,65700,6,6,4,1460,558,1,996,62,33580,37,65700,0,37,0,0,0
o,0x00000000,1716937611.011112,172.16.1.2,45955,172.16.3.2,5101,23120,14517,0,65728,65728,6,6,4,1460,537,1,996,60,33580,4,65700,0,0,0,0,0
o,0x00000000,1716937611.011618,172.16.1.2,45955,172.16.3.2,5101,23120,14517,0,65728,65728,6,6,4,1460,537,1,996,60,33580,128,65700,0,4,0,0,0
i,0x00000000,1716937611.130742,172.16.1.2,45955,172.16.3.2,5101,23120,14517,0,65728,65728,6,6,4,1460,537,1,996,60,33580,128,65700,0,128,0,0,0
i,0x00000000,1716937611.130768,172.16.1.2,45955,172.16.3.2,5101,23120,14645,0,65600,65728,6,6,4,1460,514,1,996,59,33580,0,65700,0,0,0,0,0
o,0x00000000,1716937611.130978,172.16.1.2,62290,172.16.3.2,5101,1073725440,1073725440,0,0,0,0,0,2,536,0,1,672,100,32768,0,65536,0,0,0,0,0
o,0x00000000,1716937611.167172,172.16.1.2,45955,172.16.3.2,5101,23120,14645,0,65728,65728,6,6,4,1460,514,1,997,59,33580,0,65700,0,0,0,0,0
i,0x00000000,1716937611.250618,172.16.1.2,62290,172.16.3.2,5101,1073725440,1073725440,0,0,0,0,0,2,536,0,1,672,100,32768,0,65536,0,1,0,0,0
o,0x00000000,1716937611.250637,172.16.1.2,62290,172.16.3.2,5101,23120,14480,0,65535,65700,6,6,4,1460,558,1,993,62,33580,0,65700,0,0,0,0,0
o,0x00000000,1716937611.250784,172.16.1.2,62290,172.16.3.2,5101,23120,14480,0,65535,65700,6,6,4,1460,558,1,992,62,33580,37,65700,0,0,0,0,0
i,0x00000000,1716937611.371768,172.16.1.2,45955,172.16.3.2,5101,23120,14645,0,65728,65728,6,6,4,1460,514,1,996,59,33580,0,65700,0,0,0,0,0
i,0x00000000,1716937611.371781,172.16.1.2,45955,172.16.3.2,5101,23120,14645,0,65728,65728,6,6,4,1460,514,1,996,59,33580,0,65700,1,0,0,0,0
o,0x00000000,1716937611.371787,172.16.1.2,45955,172.16.3.2,5101,23120,14645,0,65728,65728,6,6,4,1460,514,1,997,59,33580,0,65700,2,0,0,0,0
o,0x00000000,1716937611.372102,172.16.1.2,62290,172.16.3.2,5101,23120,14480,0,65535,65700,6,6,4,1460,558,1,992,62,33580,33580,65700,0,37,0,0,0
o,0x00000000,1716937611.372443,172.16.1.2,62290,172.16.3.2,5101,23120,14480,0,65535,65700,6,6,4,1460,558,1,992,62,33580,33580,65700,0,1485,0,0,0
o,0x00000000,1716937611.372760,172.16.1.2,62290,172.16.3.2,5101,23120,14480,0,65535,65700,6,6,4,1460,558,1,992,62,33580,33580,65700,0,2933,0,0,0
o,0x00000000,1716937611.373083,172.16.1.2,62290,172.16.3.2,5101,23120,14480,0,65535,65700,6,6,4,1460,558,1,992,62,33580,33580,65700,0,4381,0,0,0
o,0x00000000,1716937611.373509,172.16.1.2,62290,172.16.3.2,5101,23120,14480,0,65535,65700,6,6,4,1460,558,1,992,62,33580,33580,65700,0,5829,0,0,0
o,0x00000000,1716937611.373829,172.16.1.2,62290,172.16.3.2,5101,23120,14480,0,65535,65700,6,6,4,1460,558,1,992,62,33580,33580,65700,0,7277,0,0,0
o,0x00000000,1716937611.374162,172.16.1.2,62290,172.16.3.2,5101,23120,14480,0,65535,65700,6,6,4,1460,558,1,992,62,33580,33580,65700,0,8725,0,0,0
o,0x00000000,1716937611.374478,172.16.1.2,62290,172.16.3.2,5101,23120,14480,0,65535,65700,6,6,4,1460,558,1,992,62,33580,33580,65700,0,10173,0,0,0
o,0x00000000,1716937611.374795,172.16.1.2,62290,172.16.3.2,5101,23120,14480,0,65535,65700,6,6,4,1460,558,1,992,62,33580,33580,65700,0,11621,0,0,0
i,0x00000000,1716937611.401674,172.16.1.2,62290,172.16.3.2,5101,23120,14480,0,65535,65700,6,6,4,1460,558,1,992,62,33580,33580,65700,0,13069,0,0,0
o,0x00000000,1716937611.401682,172.16.1.2,62290,172.16.3.2,5101,23120,14517,0,65728,65728,6,6,4,1460,549,1,992,58,33580,33543,65700,0,13032,0,0,0
i,0x00000000,1716937611.611290,172.16.1.2,62290,172.16.3.2,5101,23120,14517,0,65728,65728,6,6,4,1460,549,1,992,58,33580,33543,65700,0,14480,0,0,0
o,0x00000000,1716937611.611310,172.16.1.2,62290,172.16.3.2,5101,23120,17413,0,64256,65728,6,6,4,1460,577,1,992,60,33580,30647,65700,0,11584,0,0,0
o,0x00000000,1716937611.611582,172.16.1.2,62290,172.16.3.2,5101,23120,17413,0,64256,65728,6,6,4,1460,577,1,992,60,33580,30647,65700,0,13032,0,0,0
o,0x00000000,1716937611.611811,172.16.1.2,62290,172.16.3.2,5101,23120,17413,0,64256,65728,6,6,4,1460,577,1,992,60,41772,30647,65700,0,14480,0,0,0
o,0x00000000,1716937611.612050,172.16.1.2,62290,172.16.3.2,5101,23120,17413,0,64256,65728,6,6,4,1460,577,1,992,60,41772,30647,65700,0,15928,0,0,0
i,0x00000000,1716937611.630990,172.16.1.2,62290,172.16.3.2,5101,23120,17413,0,64256,65728,6,6,4,1460,577,1,992,60,41772,41772,65700,0,17376,0,0,0
o,0x00000000,1716937611.631007,172.16.1.2,62290,172.16.3.2,5101,23120,20309,0,64256,65728,6,6,4,1460,609,1,992,64,41772,38876,65700,0,14480,0,0,0
o,0x00000000,1716937611.631351,172.16.1.2,62290,172.16.3.2,5101,23120,20309,0,64256,65728,6,6,4,1460,609,1,992,64,41772,38876,65700,0,15928,0,0,0
o,0x00000000,1716937611.631601,172.16.1.2,62290,172.16.3.2,5101,23120,20309,0,64256,65728,6,6,4,1460,609,1,992,64,41772,38876,65700,0,17376,0,0,0
o,0x00000000,1716937611.631842,172.16.1.2,62290,172.16.3.2,5101,23120,20309,0,64256,65728,6,6,4,1460,609,1,992,64,49964,38876,65700,0,18824,0,0,0
i,0x00000000,1716937611.660802,172.16.1.2,62290,172.16.3.2,5101,23120,20309,0,64256,65728,6,6,4,1460,609,1,992,64,49964,49964,65700,0,20272,0,0,0
o,0x00000000,1716937611.660807,172.16.1.2,62290,172.16.3.2,5101,23120,23205,0,64256,65728,6,6,4,1460,649,1,992,69,49964,47068,65700,0,17376,0,0,0
o,0x00000000,1716937611.661040,172.16.1.2,62290,172.16.3.2,5101,23120,23205,0,64256,65728,6,6,4,1460,649,1,992,69,49964,47068,65700,0,18824,0,0,0
o,0x00000000,1716937611.661272,172.16.1.2,62290,172.16.3.2,5101,23120,23205,0,64256,65728,6,6,4,1460,649,1,992,69,49964,47068,65700,0,20272,0,0,0
o,0x00000000,1716937611.661500,172.16.1.2,62290,172.16.3.2,5101,23120,23205,0,64256,65728,6,6,4,1460,649,1,992,69,49964,47068,65700,0,21720,0,0,0
i,0x00000000,1716937611.680470,172.16.1.2,62290,172.16.3.2,5101,23120,23205,0,64256,65728,6,6,4,1460,649,1,992,69,49964,49964,65700,0,23168,0,0,0
o,0x00000000,1716937611.680475,172.16.1.2,62290,172.16.3.2,5101,23120,23205,0,64256,65728,6,6,4,1460,688,1,992,73,49964,47068,65700,0,20272,0,0,0
o,0x00000000,1716937611.680715,172.16.1.2,62290,172.16.3.2,5101,23120,23205,0,64256,65728,6,6,4,1460,688,1,992,73,49964,47068,65700,0,21720,0,0,0
i,0x00000000,1716937611.710570,172.16.1.2,62290,172.16.3.2,5101,23120,23205,0,64256,65728,6,6,4,1460,688,1,992,73,49964,49964,65700,0,23168,0,0,0
o,0x00000000,1716937611.710575,172.16.1.2,62290,172.16.3.2,5101,23120,23205,0,64256,65728,6,6,4,1460,738,1,992,79,49964,47068,65700,0,20272,0,0,0
o,0x00000000,1716937611.710812,172.16.1.2,62290,172.16.3.2,5101,23120,23205,0,64256,65728,6,6,4,1460,738,1,992,79,49964,47068,65700,0,21720,0,0,0
i,0x00000000,1716937611.830667,172.16.1.2,62290,172.16.3.2,5101,23120,23205,0,64256,65728,6,6,4,1460,738,1,992,79,49964,49964,65700,0,23168,0,0,0
o,0x00000000,1716937611.830687,172.16.1.2,62290,172.16.3.2,5101,23120,23205,0,64256,65728,6,6,4,1460,734,1,992,71,49964,47068,65700,0,20272,0,0,0
o,0x00000000,1716937611.830931,172.16.1.2,62290,172.16.3.2,5101,23120,23205,0,64256,65728,6,6,4,1460,734,1,992,71,49964,47068,65700,0,21720,0,0,0
i,0x00000000,1716937611.911483,172.16.1.2,62290,172.16.3.2,5101,23120,23205,0,64256,65728,6,6,4,1460,734,1,992,71,49964,49964,65700,0,23168,0,0,0
o,0x00000000,1716937611.911493,172.16.1.2,62290,172.16.3.2,5101,23120,23205,0,65728,65728,6,6,4,1460,763,1,992,72,49964,48516,65700,0,21720,0,0,0
i,0x00000000,1716937611.940840,172.16.1.2,62290,172.16.3.2,5101,23120,23205,0,65728,65728,6,6,4,1460,763,1,992,72,49964,48516,65700,0,23168,0,0,0
o,0x00000000,1716937611.940858,172.16.1.2,62290,172.16.3.2,5101,23120,23205,0,64256,65728,6,6,4,1460,800,1,992,75,49964,45620,65700,0,20272,0,0,0
o,0x00000000,1716937611.941142,172.16.1.2,62290,172.16.3.2,5101,23120,23205,0,64256,65728,6,6,4,1460,800,1,992,75,49964,45620,65700,0,21720,0,0,0
i,0x00000000,1716937611.970863,172.16.1.2,62290,172.16.3.2,5101,23120,23205,0,64256,65728,6,6,4,1460,800,1,992,75,58156,58156,65700,0,23168,0,0,0
o,0x00000000,1716937611.970870,172.16.1.2,62290,172.16.3.2,5101,23120,23205,0,65728,65728,6,6,4,1460,836,1,992,78,58156,56708,65700,0,21720,0,0,0
i,0x00000000,1716937611.991557,172.16.1.2,62290,172.16.3.2,5101,23120,23205,0,65728,65728,6,6,4,1460,836,1,992,78,58156,56708,65700,0,23168,0,0,0
o,0x00000000,1716937611.991563,172.16.1.2,62290,172.16.3.2,5101,23120,23205,0,64256,65728,6,6,4,1460,872,1,992,80,58156,53812,65700,0,20272,0,0,0
o,0x00000000,1716937611.991830,172.16.1.2,62290,172.16.3.2,5101,23120,23205,0,64256,65728,6,6,4,1460,872,1,992,80,58156,53812,65700,0,21720,0,0,0
i,0x00000000,1716937612.021564,172.16.1.2,62290,172.16.3.2,5101,23120,23205,0,64256,65728,6,6,4,1460,872,1,992,80,58156,58156,65700,0,23168,0,0,0
o,0x00000000,1716937612.021570,172.16.1.2,62290,172.16.3.2,5101,23120,23205,0,64256,65728,6,6,4,1460,907,1,992,82,58156,55260,65700,0,20272,0,0,0
o,0x00000000,1716937612.021808,172.16.1.2,62290,172.16.3.2,5101,23120,23205,0,64256,65728,6,6,4,1460,907,1,992,82,58156,55260,65700,0,21720,0,0,0
i,0x00000000,1716937612.051512,172.16.1.2,62290,172.16.3.2,5101,23120,23205,0,64256,65728,6,6,4,1460,907,1,992,82,58156,58156,65700,0,23168,0,0,0
o,0x00000000,1716937612.051522,172.16.1.2,62290,172.16.3.2,5101,23120,23205,0,64256,65728,6,6,4,1460,950,1,992,85,58156,55260,65700,0,20272,0,0,0
o,0x00000000,1716937612.051780,172.16.1.2,62290,172.16.3.2,5101,23120,23205,0,64256,65728,6,6,4,1460,950,1,992,85,58156,55260,65700,0,21720,0,0,0
i,0x00000000,1716937612.081405,172.16.1.2,62290,172.16.3.2,5101,23120,23205,0,64256,65728,6,6,4,1460,950,1,992,85,58156,58156,65700,0,23168,0,0,0
o,0x00000000,1716937612.081412,172.16.1.2,62290,172.16.3.2,5101,23120,24665,0,65728,65728,6,6,4,1460,992,1,992,88,58156,56708,65700,0,21720,0,0,0
o,0x00000000,1716937612.081661,172.16.1.2,62290,172.16.3.2,5101,23120,24665,0,65728,65728,6,6,4,1460,992,1,992,88,58156,56708,65700,0,23168,0,0,0
i,0x00000000,1716937612.101335,172.16.1.2,62290,172.16.3.2,5101,23120,24665,0,65728,65728,6,6,4,1460,992,1,992,88,58156,56708,65700,0,24616,0,0,0
o,0x00000000,1716937612.101341,172.16.1.2,62290,172.16.3.2,5101,23120,24665,0,64256,65728,6,6,4,1460,1036,1,992,91,58156,53812,65700,0,21720,0,0,0
o,0x00000000,1716937612.101577,172.16.1.2,62290,172.16.3.2,5101,23120,24665,0,64256,65728,6,6,4,1460,1036,1,992,91,58156,53812,65700,0,23168,0,0,0
i,0x00000000,1716937612.152293,172.16.1.2,62290,172.16.3.2,5101,23120,24665,0,64256,65728,6,6,4,1460,1036,1,992,91,58156,58156,65700,0,24616,0,0,0
o,0x00000000,1716937612.152308,172.16.1.2,62290,172.16.3.2,5101,23120,24665,0,65728,65728,6,6,4,1460,1083,1,992,95,58156,56708,65700,0,23168,0,0,0
i,0x00000000,1716937612.211311,172.16.1.2,62290,172.16.3.2,5101,23120,24665,0,65728,65728,6,6,4,1460,1083,1,992,95,58156,56708,65700,0,24616,0,0,0
o,0x00000000,1716937612.211318,172.16.1.2,62290,172.16.3.2,5101,23120,24665,0,64256,65728,6,6,4,1460,1100,1,992,89,58156,53812,65700,0,21720,0,0,0
o,0x00000000,1716937612.211568,172.16.1.2,62290,172.16.3.2,5101,23120,24665,0,64256,65728,6,6,4,1460,1100,1,992,89,58156,53812,65700,0,23168,0,0,0
i,0x00000000,1716937612.291153,172.16.1.2,62290,172.16.3.2,5101,23120,24665,0,64256,65728,6,6,4,1460,1100,1,992,89,58156,58156,65700,0,24616,0,0,0
o,0x00000000,1716937612.291169,172.16.1.2,62290,172.16.3.2,5101,23120,24665,0,64256,65728,6,6,4,1460,1115,1,992,85,58156,55260,65700,0,21720,0,0,0
o,0x00000000,1716937612.291418,172.16.1.2,62290,172.16.3.2,5101,23120,24665,0,64256,65728,6,6,4,1460,1115,1,992,85,58156,55260,65700,0,23168,0,0,0
i,0x00000000,1716937612.341710,172.16.1.2,62290,172.16.3.2,5101,23120,24665,0,64256,65728,6,6,4,1460,1115,1,992,85,58156,58156,65700,0,24616,0,0,0
o,0x00000000,1716937612.341737,172.16.1.2,62290,172.16.3.2,5101,23120,24665,0,64256,65728,6,6,4,1460,1136,1,992,83,58156,55260,65700,0,21720,0,0,0
o,0x00000000,1716937612.342097,172.16.1.2,62290,172.16.3.2,5101,23120,24665,0,64256,65728,6,6,4,1460,1136,1,992,83,58156,55260,65700,0,23168,0,0,0
i,0x00000000,1716937612.381045,172.16.1.2,62290,172.16.3.2,5101,23120,24665,0,64256,65728,6,6,4,1460,1136,1,992,83,58156,58156,65700,0,24616,0,0,0
o,0x00000000,1716937612.381052,172.16.1.2,62290,172.16.3.2,5101,23120,24665,0,64256,65728,6,6,4,1460,1150,1,992,80,58156,55260,65700,0,21720,0,0,0
o,0x00000000,1716937612.381388,172.16.1.2,62290,172.16.3.2,5101,23120,24665,0,64256,65728,6,6,4,1460,1150,1,992,80,58156,55260,65700,0,23168,0,0,0
i,0x00000000,1716937612.431132,172.16.1.2,62290,172.16.3.2,5101,23120,24665,0,64256,65728,6,6,4,1460,1150,1,992,80,58156,58156,65700,0,24616,0,0,0
o,0x00000000,1716937612.431140,172.16.1.2,62290,172.16.3.2,5101,23120,24665,0,65728,65728,6,6,4,1460,1171,1,992,80,58156,56708,65700,0,23168,0,0,0
i,0x00000000,1716937612.431455,172.16.1.2,62290,172.16.3.2,5101,23120,24665,0,65728,65728,6,6,4,1460,1171,1,992,80,58156,56708,65700,0,24616,0,0,0
o,0x00000000,1716937612.431460,172.16.1.2,62290,172.16.3.2,5101,23120,27512,0,65728,65728,6,6,4,1460,1171,1,992,80,58156,56708,65700,0,24616,0,0,0
o,0x00000000,1716937612.431542,172.16.1.2,62290,172.16.3.2,5101,23120,27512,0,65728,65728,6,6,4,1460,1171,1,992,80,58156,56708,65700,0,26064,0,0,0
i,0x00000000,1716937612.481107,172.16.1.2,62290,172.16.3.2,5101,23120,24665,0,65728,65728,6,6,4,1460,1171,1,992,80,58156,56708,65700,0,27512,0,0,0
o,0x00000000,1716937612.481115,172.16.1.2,62290,172.16.3.2,5101,11584,1448,0,65728,65728,6,6,4,1460,1171,1,537920480,80,58156,56708,65700,0,27512,0,0,0
i,0x00000000,1716937612.481196,172.16.1.2,62290,172.16.3.2,5101,11584,1448,0,65728,65728,6,6,4,1460,1171,1,537920480,80,58156,56708,65700,0,27512,0,0,0
i,0x00000000,1716937612.531140,172.16.1.2,62290,172.16.3.2,5101,11584,1448,0,65728,65728,6,6,4,1460,1171,1,537920480,80,58156,56708,65700,0,27512,0,0,0
o,0x00000000,1716937612.531153,172.16.1.2,62290,172.16.3.2,5101,11584,2896,0,65728,65728,6,6,4,1460,1171,1,537920480,80,58156,56708,65700,0,27512,0,0,0
i,0x00000000,1716937612.531472,172.16.1.2,62290,172.16.3.2,5101,11584,2896,0,65728,65728,6,6,4,1460,1171,1,537920480,80,58156,56708,65700,0,27512,0,0,0
i,0x00000000,1716937612.601347,172.16.1.2,62290,172.16.3.2,5101,11584,2896,0,65728,65728,6,6,4,1460,1171,1,537920480,80,58156,56708,65700,0,27512,0,0,0
i,0x00000000,1716937612.631409,172.16.1.2,62290,172.16.3.2,5101,11584,2896,0,65728,65728,6,6,4,1460,1171,1,537920480,80,58156,56708,65700,0,27512,0,0,0
o,0x00000000,1716937612.631432,172.16.1.2,62290,172.16.3.2,5101,11584,4344,0,65728,65728,6,6,4,1460,1171,1,537920480,80,58156,56708,65700,0,27512,0,0,0
i,0x00000000,1716937612.661511,172.16.1.2,62290,172.16.3.2,5101,11584,4344,0,65728,65728,6,6,4,1460,1171,1,537920480,80,58156,56708,65700,0,27512,0,0,0
i,0x00000000,1716937612.670649,172.16.1.2,62290,172.16.3.2,5101,11584,4344,0,65728,65728,6,6,4,1460,1171,1,537920480,80,58156,56708,65700,0,27512,0,0,0
o,0x00000000,1716937612.670661,172.16.1.2,62290,172.16.3.2,5101,11584,5792,0,65728,65728,6,6,4,1460,1171,1,537920480,80,58156,56708,65700,0,27512,0,0,0
i,0x00000000,1716937612.691411,172.16.1.2,62290,172.16.3.2,5101,11584,5792,0,65728,65728,6,6,4,1460,1171,1,537920480,80,58156,56708,65700,0,27512,0,0,0
o,0x00000000,1716937612.691427,172.16.1.2,62290,172.16.3.2,5101,11584,8688,0,65728,65728,6,6,4,1460,1171,1,537920480,80,58156,56708,65700,0,27512,0,0,0
o,0x00000000,1716937612.691694,172.16.1.2,62290,172.16.3.2,5101,11584,8688,0,65728,65728,6,6,4,1460,1171,1,537920480,80,58156,56708,65700,0,27512,0,0,0
i,0x00000000,1716937612.711051,172.16.1.2,62290,172.16.3.2,5101,11584,8688,0,65728,65728,6,6,4,1460,1171,1,537920480,80,58156,56708,65700,0,27512,0,0,0
o,0x00000000,1716937612.711065,172.16.1.2,62290,172.16.3.2,5101,11584,11584,0,65728,65728,6,6,4,1460,1171,1,537920480,80,58156,56708,65700,0,27512,0,0,0
o,0x00000000,1716937612.711316,172.16.1.2,62290,172.16.3.2,5101,11584,11584,0,65728,65728,6,6,4,1460,1171,1,537920480,80,58156,56708,65700,0,27512,0,0,0
i,0x00000000,1716937612.711559,172.16.1.2,62290,172.16.3.2,5101,11584,11584,0,65728,65728,6,6,4,1460,1171,1,537920480,80,58156,56708,65700,0,28960,0,0,0
o,0x00000000,1716937612.711562,172.16.1.2,62290,172.16.3.2,5101,11584,11584,0,65728,65728,6,6,4,1460,1171,1,537920480,80,58156,56708,65700,0,28960,0,0,0
i,0x00000000,1716937612.771688,172.16.1.2,62290,172.16.3.2,5101,11584,11584,0,65728,65728,6,6,4,1460,1171,1,537920480,80,58156,56708,65700,0,30408,0,0,0
o,0x00000000,1716937612.771706,172.16.1.2,62290,172.16.3.2,5101,11584,11584,0,65728,65728,6,6,4,1460,1171,1,537920480,80,58156,56708,65700,0,30408,0,0,0
i,0x00000000,1716937612.820626,172.16.1.2,62290,172.16.3.2,5101,11584,11584,0,65728,65728,6,6,4,1460,1171,1,537920480,80,58156,56708,65700,0,31856,0,0,0
o,0x00000000,1716937612.820640,172.16.1.2,62290,172.16.3.2,5101,11584,11584,0,65728,65728,6,6,4,1460,1171,1,537920480,80,58156,56708,65700,0,31856,0,0,0
i,0x00000000,1716937612.861104,172.16.1.2,62290,172.16.3.2,5101,11584,11584,0,65728,65728,6,6,4,1460,1171,1,537920480,80,58156,56708,65700,0,33304,0,0,0
o,0x00000000,1716937612.861114,172.16.1.2,62290,172.16.3.2,5101,11584,11584,0,65728,65728,6,6,4,1460,1171,1,537920480,80,58156,56708,65700,0,33304,0,0,0
i,0x00000000,1716937612.891970,172.16.1.2,62290,172.16.3.2,5101,11584,11584,0,65728,65728,6,6,4,1460,1171,1,537920480,80,58156,56708,65700,0,34752,0,0,0
o,0x00000000,1716937612.891977,172.16.1.2,62290,172.16.3.2,5101,11584,11584,0,65728,65728,6,6,4,1460,1171,1,537920480,80,58156,56708,65700,0,34752,0,0,0
i,0x00000000,1716937612.892066,172.16.1.2,62290,172.16.3.2,5101,11584,11584,0,65728,65728,6,6,4,1460,1171,1,537920480,80,58156,56708,65700,0,36200,0,0,0
o,0x00000000,1716937612.892069,172.16.1.2,62290,172.16.3.2,5101,11584,11584,0,65728,65728,6,6,4,1460,1171,1,537920480,80,58156,56708,65700,0,36200,0,0,0
i,0x00000000,1716937612.892143,172.16.1.2,62290,172.16.3.2,5101,11584,11584,0,65728,65728,6,6,4,1460,1171,1,537920480,80,58156,56708,65700,0,37648,0,0,0
o,0x00000000,1716937612.892145,172.16.1.2,62290,172.16.3.2,5101,11584,13032,0,65728,65728,6,6,4,1460,1171,1,537920480,80,58156,56708,65700,0,37648,0,0,0
i,0x00000000,1716937612.911443,172.16.1.2,62290,172.16.3.2,5101,11584,13032,0,65728,65728,6,6,4,1460,1171,1,537920480,80,58156,56708,65700,0,39096,0,0,0
o,0x00000000,1716937612.911449,172.16.1.2,62290,172.16.3.2,5101,11584,14480,0,65728,65728,6,6,4,1460,1171,1,537920480,80,58156,56708,65700,0,39096,0,0,0
i,0x00000000,1716937612.940433,172.16.1.2,62290,172.16.3.2,5101,11584,14480,0,65728,65728,6,6,4,1460,1171,1,537920480,80,58156,56708,65700,0,40544,0,0,0
o,0x00000000,1716937612.940444,172.16.1.2,62290,172.16.3.2,5101,11584,15928,0,65728,65728,6,6,4,1460,1171,1,537920480,80,58156,56708,65700,0,40544,0,0,0
i,0x00000000,1716937612.971527,172.16.1.2,62290,172.16.3.2,5101,11584,15928,0,65728,65728,6,6,4,1460,1171,1,537920480,80,58156,56708,65700,0,41992,0,0,0
o,0x00000000,1716937612.971532,172.16.1.2,62290,172.16.3.2,5101,11584,17376,0,65728,65728,6,6,4,1460,1171,1,537920480,80,66348,56708,65700,0,41992,0,0,0
i,0x00000000,1716937613.021391,172.16.1.2,62290,172.16.3.2,5101,11584,17376,0,65728,65728,6,6,4,1460,1171,1,537920480,80,66348,56708,65700,0,43440,0,0,0
o,0x00000000,1716937613.021397,172.16.1.2,62290,172.16.3.2,5101,11584,18824,0,65728,65728,6,6,4,1460,1171,1,537920480,80,66348,56708,65700,0,43440,0,0,0
i,0x00000000,1716937613.051466,172.16.1.2,62290,172.16.3.2,5101,11584,18824,0,65728,65728,6,6,4,1460,1171,1,537920480,80,66348,56708,65700,0,44888,0,0,0
o,0x00000000,1716937613.051473,172.16.1.2,62290,172.16.3.2,5101,11584,20272,0,65728,65728,6,6,4,1460,1171,1,537920480,80,66348,56708,65700,0,44888,0,0,0
i,0x00000000,1716937613.071208,172.16.1.2,62290,172.16.3.2,5101,11584,20272,0,65728,65728,6,6,4,1460,1171,1,537920480,80,66348,56708,65700,0,46336,0,0,0
o,0x00000000,1716937613.071211,172.16.1.2,62290,172.16.3.2,5101,11584,21720,0,65728,65728,6,6,4,1460,1171,1,537920480,80,66348,56708,65700,0,46336,0,0,0
i,0x00000000,1716937613.101138,172.16.1.2,62290,172.16.3.2,5101,11584,21720,0,65728,65728,6,6,4,1460,1171,1,537920480,80,66348,56708,65700,0,47784,0,0,0
o,0x00000000,1716937613.101143,172.16.1.2,62290,172.16.3.2,5101,11584,23168,0,65728,65728,6,6,4,1460,1171,1,537920480,80,66348,56708,65700,0,47784,0,0,0
i,0x00000000,1716937613.101377,172.16.1.2,62290,172.16.3.2,5101,11584,23168,0,65728,65728,6,6,4,1460,1171,1,537920480,80,66348,56708,65700,0,49232,0,0,0
o,0x00000000,1716937613.101379,172.16.1.2,62290,172.16.3.2,5101,11584,24616,0,65728,65728,6,6,4,1460,1171,1,537920480,80,66348,56708,65700,0,49232,0,0,0
i,0x00000000,1716937613.151110,172.16.1.2,62290,172.16.3.2,5101,11584,24616,0,65728,65728,6,6,4,1460,1171,1,537920480,80,66348,56708,65700,0,50680,0,0,0
o,0x00000000,1716937613.151120,172.16.1.2,62290,172.16.3.2,5101,11584,26064,0,65728,65728,6,6,4,1460,1171,1,537920480,80,66348,56708,65700,0,50680,0,0,0
i,0x00000000,1716937613.151364,172.16.1.2,62290,172.16.3.2,5101,11584,26064,0,65728,65728,6,6,4,1460,1171,1,537920480,80,66348,56708,65700,0,52128,0,0,0
o,0x00000000,1716937613.151367,172.16.1.2,62290,172.16.3.2,5101,11584,27512,0,65728,65728,6,6,4,1460,1171,1,537920480,80,66348,56708,65700,0,52128,0,0,0
i,0x00000000,1716937613.201345,172.16.1.2,62290,172.16.3.2,5101,11584,27512,0,65728,65728,6,6,4,1460,1171,1,537920480,80,66348,56708,65700,0,53576,0,0,0
o,0x00000000,1716937613.201350,172.16.1.2,62290,172.16.3.2,5101,11584,28960,0,65728,65728,6,6,4,1460,1171,1,537920480,80,66348,56708,65700,0,53576,0,0,0
i,0x00000000,1716937613.201427,172.16.1.2,62290,172.16.3.2,5101,11584,28960,0,65728,65728,6,6,4,1460,1171,1,537920480,80,66348,56708,65700,0,55024,0,0,0
o,0x00000000,1716937613.201430,172.16.1.2,62290,172.16.3.2,5101,11584,30408,0,65728,65728,6,6,4,1460,1171,1,537920480,80,66348,56708,65700,0,55024,0,0,0
i,0x00000000,1716937613.251172,172.16.1.2,62290,172.16.3.2,5101,11584,30408,0,65728,65728,6,6,4,1460,1171,1,537920480,80,66348,56708,65700,0,56472,0,0,0
i,0x00000000,1716937613.251176,172.16.1.2,62290,172.16.3.2,5101,11584,31856,0,65728,65728,6,6,4,1460,1171,1,537920480,80,66348,56708,65700,0,56472,0,0,0
o,0x00000000,1716937613.276892,172.16.1.2,62290,172.16.3.2,5101,15928,1448,0,65728,65728,6,6,4,1460,1171,1,1075848161,140,66348,56708,65700,0,56472,0,0,0
i,0x00000000,1716937613.301079,172.16.1.2,62290,172.16.3.2,5101,15928,1448,0,65728,65728,6,6,4,1460,1171,1,1075848160,140,66348,56708,65700,0,56472,0,0,0
o,0x00000000,1716937613.301087,172.16.1.2,62290,172.16.3.2,5101,11584,34752,0,65728,65728,6,6,4,1460,1171,1,1613759456,140,66348,56708,65700,0,56472,0,0,0
o,0x00000000,1716937613.301413,172.16.1.2,62290,172.16.3.2,5101,11584,34752,0,65728,65728,6,6,4,1460,1171,1,1613759456,140,66348,56708,65700,0,56472,0,0,0
o,0x00000000,1716937613.301693,172.16.1.2,62290,172.16.3.2,5101,11584,34752,0,65728,65728,6,6,4,1460,1171,1,1613759456,140,66348,56708,65700,0,56472,0,0,0
o,0x00000000,1716937613.301920,172.16.1.2,62290,172.16.3.2,5101,11584,34752,0,65728,65728,6,6,4,1460,1171,1,1613759456,140,66348,56708,65700,0,56472,0,0,0
i,0x00000000,1716937613.302144,172.16.1.2,62290,172.16.3.2,5101,11584,34752,0,65728,65728,6,6,4,1460,1171,1,1613759456,140,66348,56708,65700,0,56472,0,0,0
i,0x00000000,1716937613.331514,172.16.1.2,62290,172.16.3.2,5101,11584,36200,0,65728,65728,6,6,4,1460,1171,1,1613759456,140,66348,56708,65700,0,56472,0,0,0
i,0x00000000,1716937613.350803,172.16.1.2,62290,172.16.3.2,5101,11584,37648,0,65728,65728,6,6,4,1460,1171,1,1613759456,140,66348,56708,65700,0,56472,0,0,0
i,0x00000000,1716937613.361075,172.16.1.2,62290,172.16.3.2,5101,11584,39096,0,65728,65728,6,6,4,1460,1171,1,1613759456,140,66348,56708,65700,0,56472,0,0,0
i,0x00000000,1716937613.440953,172.16.1.2,62290,172.16.3.2,5101,11584,40544,0,65728,65728,6,6,4,1460,1171,1,1613759456,140,66348,56708,65700,0,56472,0,0,0
o,0x00000000,1716937613.440979,172.16.1.2,62290,172.16.3.2,5101,11584,2920,0,9280,65728,6,6,4,1460,1089,1,1075839968,92,66348,236,65700,0,0,0,0,0
i,0x00000000,1716937613.441443,172.16.1.2,62290,172.16.3.2,5101,11584,2920,0,9280,65728,6,6,4,1460,1089,1,1075839968,92,66348,236,65700,0,236,0,0,0
o,0x00000000,1716937613.441555,172.16.1.2,62290,172.16.3.2,5101,11584,2920,0,9280,65728,6,6,4,1460,1089,1,1075839968,92,66348,23920,65700,0,236,0,0,0
i,0x00000000,1716937613.471859,172.16.1.2,62290,172.16.3.2,5101,11584,2920,0,9280,65728,6,6,4,1460,1089,1,1075839968,92,66348,66348,65700,0,1684,0,0,0
i,0x00000000,1716937613.471862,172.16.1.2,62290,172.16.3.2,5101,11584,2920,0,65728,65728,6,6,4,1460,1089,1,1075839968,92,66348,66348,65700,0,1684,0,0,0
i,0x00000000,1716937613.471862,172.16.1.2,62290,172.16.3.2,5101,11584,2920,0,65728,65728,6,6,4,1460,1089,1,1075839968,92,66348,66348,65700,0,1684,0,0,0
i,0x00000000,1716937613.501840,172.16.1.2,62290,172.16.3.2,5101,11584,2920,0,65728,65728,6,6,4,1460,1089,1,1075839968,92,66348,66348,65700,0,1684,0,0,0
i,0x00000000,1716937613.561768,172.16.1.2,62290,172.16.3.2,5101,11584,2920,0,65728,65728,6,6,4,1460,1089,1,1075839968,92,66348,66348,65700,0,1684,0,0,0
o,0x00000000,1716937613.561787,172.16.1.2,62290,172.16.3.2,5101,11584,3156,0,65728,65728,6,6,4,1460,1001,1,1075839968,102,66348,66112,65700,0,1448,0,0,0
i,0x00000000,1716937613.590996,172.16.1.2,62290,172.16.3.2,5101,11584,3156,0,65728,65728,6,6,4,1460,1001,1,1075839968,102,66348,66112,65700,0,2896,0,0,0
o,0x00000000,1716937613.591004,172.16.1.2,62290,172.16.3.2,5101,11584,4604,0,65728,65728,6,6,4,1460,936,1,1075839968,103,66348,64664,65700,0,1448,0,0,0
o,0x00000000,1716937613.591261,172.16.1.2,62290,172.16.3.2,5101,11584,4604,0,65728,65728,6,6,4,1460,936,1,1075839968,103,66348,64664,65700,0,2896,0,0,0
i,0x00000000,1716937613.720761,172.16.1.2,62290,172.16.3.2,5101,11584,4604,0,65728,65728,6,6,4,1460,936,1,1075839968,103,66348,64664,65700,0,4344,0,0,0
o,0x00000000,1716937613.720779,172.16.1.2,62290,172.16.3.2,5101,11584,7500,0,64256,65728,6,6,4,1460,883,1,1075839968,101,66348,61768,65700,0,1448,0,0,0
o,0x00000000,1716937613.721031,172.16.1.2,62290,172.16.3.2,5101,11584,7500,0,64256,65728,6,6,4,1460,883,1,1075839968,101,66348,61768,65700,0,2896,0,0,0
o,0x00000000,1716937613.721282,172.16.1.2,62290,172.16.3.2,5101,11584,7500,0,64256,65728,6,6,4,1460,883,1,1075839968,101,66348,61768,65700,0,4344,0,0,0
o,0x00000000,1716937613.721515,172.16.1.2,62290,172.16.3.2,5101,11584,7500,0,64256,65728,6,6,4,1460,883,1,1075839968,101,66348,61768,65700,0,5792,0,0,0
i,0x00000000,1716937613.751426,172.16.1.2,62290,172.16.3.2,5101,11584,7500,0,64256,65728,6,6,4,1460,883,1,1075839968,101,66348,66348,65700,0,7240,0,0,0
o,0x00000000,1716937613.751435,172.16.1.2,62290,172.16.3.2,5101,11584,8948,0,65728,65728,6,6,4,1460,837,1,1075839968,98,66348,64900,65700,0,5792,0,0,0
o,0x00000000,1716937613.751680,172.16.1.2,62290,172.16.3.2,5101,11584,8948,0,65728,65728,6,6,4,1460,837,1,1075839968,98,66348,64900,65700,0,7240,0,0,0
i,0x00000000,1716937613.920832,172.16.1.2,62290,172.16.3.2,5101,11584,8948,0,65728,65728,6,6,4,1460,837,1,1075839968,98,66348,64900,65700,0,8688,0,0,0
o,0x00000000,1716937613.920998,172.16.1.2,62290,172.16.3.2,5101,11584,11844,0,64256,65728,6,6,4,1460,813,1,1075839968,90,66348,62004,65700,0,5792,0,0,0
o,0x00000000,1716937613.921082,172.16.1.2,62290,172.16.3.2,5101,11584,11844,0,64256,65728,6,6,4,1460,813,1,1075839968,90,66348,62004,65700,0,7240,0,0,0
o,0x00000000,1716937613.921166,172.16.1.2,62290,172.16.3.2,5101,11584,11844,0,64256,65728,6,6,4,1460,813,1,1075839968,90,66348,62004,65700,0,8688,0,0,0
o,0x00000000,1716937613.921256,172.16.1.2,62290,172.16.3.2,5101,11584,11844,0,64256,65728,6,6,4,1460,813,1,1075839968,90,66348,62004,65700,0,10136,0,0,0
i,0x00000000,1716937613.921552,172.16.1.2,62290,172.16.3.2,5101,11584,11844,0,64256,65728,6,6,4,1460,813,1,1075839968,90,66348,62004,65700,0,11584,0,0,0
o,0x00000000,1716937613.921556,172.16.1.2,62290,172.16.3.2,5101,11584,11844,0,64256,65728,6,6,4,1460,792,1,1075839968,84,66348,59108,65700,0,8688,0,0,0
o,0x00000000,1716937613.921630,172.16.1.2,62290,172.16.3.2,5101,11584,11844,0,64256,65728,6,6,4,1460,792,1,1075839968,84,66348,59108,65700,0,10136,0,0,0
i,0x00000000,1716937613.950723,172.16.1.2,62290,172.16.3.2,5101,11584,11844,0,64256,65728,6,6,4,1460,792,1,1075839968,84,66348,66348,65700,0,11584,0,0,0
o,0x00000000,1716937613.950737,172.16.1.2,62290,172.16.3.2,5101,11584,11844,0,64256,65728,6,6,4,1460,773,1,1075839968,78,66348,63452,65700,0,8688,0,0,0
o,0x00000000,1716937613.950982,172.16.1.2,62290,172.16.3.2,5101,11584,11844,0,64256,65728,6,6,4,1460,773,1,1075839968,78,66348,63452,65700,0,10136,0,0,0
i,0x00000000,1716937614.170510,172.16.1.2,62290,172.16.3.2,5101,11584,11844,0,64256,65728,6,6,4,1460,773,1,1075839968,78,66348,66348,65700,0,11584,0,0,0
o,0x00000000,1716937614.170528,172.16.1.2,62290,172.16.3.2,5101,11584,11844,0,64256,65728,6,6,4,1460,777,1,1075839968,71,66348,63452,65700,0,8688,0,0,0
o,0x00000000,1716937614.170613,172.16.1.2,62290,172.16.3.2,5101,11584,11844,0,64256,65728,6,6,4,1460,777,1,1075839968,71,66348,63452,65700,0,10136,0,0,0
i,0x00000000,1716937614.170687,172.16.1.2,62290,172.16.3.2,5101,11584,11844,0,64256,65728,6,6,4,1460,777,1,1075839968,71,66348,63452,65700,0,11584,0,0,0
o,0x00000000,1716937614.170690,172.16.1.2,62290,172.16.3.2,5101,11584,11844,0,64256,65728,6,6,4,1460,780,1,1075839968,65,66348,60556,65700,0,8688,0,0,0
o,0x00000000,1716937614.170777,172.16.1.2,62290,172.16.3.2,5101,11584,11844,0,64256,65728,6,6,4,1460,780,1,1075839968,65,66348,60556,65700,0,10136,0,0,0
i,0x00000000,1716937614.171100,172.16.1.2,62290,172.16.3.2,5101,11584,11844,0,64256,65728,6,6,4,1460,780,1,1075839968,65,66348,60556,65700,0,11584,0,0,0
o,0x00000000,1716937614.171103,172.16.1.2,62290,172.16.3.2,5101,11584,13304,0,64256,65728,6,6,4,1460,783,1,1075839968,60,66348,57660,65700,0,8688,0,0,0
o,0x00000000,1716937614.171177,172.16.1.2,62290,172.16.3.2,5101,11584,13304,0,64256,65728,6,6,4,1460,783,1,1075839968,60,66348,57660,65700,0,10136,0,0,0
o,0x00000000,1716937614.171249,172.16.1.2,62290,172.16.3.2,5101,11584,13304,0,64256,65728,6,6,4,1460,783,1,1075839968,60,66348,57660,65700,0,11584,0,0,0
i,0x00000000,1716937614.201496,172.16.1.2,62290,172.16.3.2,5101,11584,13304,0,64256,65728,6,6,4,1460,783,1,1075839968,60,66348,66348,65700,0,13032,0,0,0
o,0x00000000,1716937614.201501,172.16.1.2,62290,172.16.3.2,5101,11584,13304,0,64256,65728,6,6,4,1460,786,1,1075839968,57,66348,63452,65700,0,10136,0,0,0
o,0x00000000,1716937614.201738,172.16.1.2,62290,172.16.3.2,5101,11584,13304,0,64256,65728,6,6,4,1460,786,1,1075839968,57,66348,63452,65700,0,11584,0,0,0
i,0x00000000,1716937614.430635,172.16.1.2,62290,172.16.3.2,5101,11584,13304,0,64256,65728,6,6,4,1460,786,1,1075839968,57,66348,66348,65700,0,13032,0,0,0
o,0x00000000,1716937614.430665,172.16.1.2,62290,172.16.3.2,5101,11584,13304,0,64256,65728,6,6,4,1460,792,1,1075839968,56,66348,63452,65700,0,10136,0,0,0
o,0x00000000,1716937614.430761,172.16.1.2,62290,172.16.3.2,5101,11584,13304,0,64256,65728,6,6,4,1460,792,1,1075839968,56,66348,63452,65700,0,11584,0,0,0
i,0x00000000,1716937614.430880,172.16.1.2,62290,172.16.3.2,5101,11584,13304,0,64256,65728,6,6,4,1460,792,1,1075839968,56,66348,63452,65700,0,13032,0,0,0
o,0x00000000,1716937614.430887,172.16.1.2,62290,172.16.3.2,5101,11584,13304,0,64256,65728,6,6,4,1460,797,1,1075839968,54,66348,60556,65700,0,10136,0,0,0
o,0x00000000,1716937614.430968,172.16.1.2,62290,172.16.3.2,5101,11584,13304,0,64256,65728,6,6,4,1460,797,1,1075839968,54,66348,60556,65700,0,11584,0,0,0
i,0x00000000,1716937614.431351,172.16.1.2,62290,172.16.3.2,5101,11584,13304,0,64256,65728,6,6,4,1460,797,1,1075839968,54,66348,60556,65700,0,13032,0,0,0
o,0x00000000,1716937614.431355,172.16.1.2,62290,172.16.3.2,5101,11584,14764,0,64256,65728,6,6,4,1460,802,1,1075839968,53,66348,57660,65700,0,10136,0,0,0
o,0x00000000,1716937614.431437,172.16.1.2,62290,172.16.3.2,5101,11584,14764,0,64256,65728,6,6,4,1460,802,1,1075839968,53,66348,57660,65700,0,11584,0,0,0
o,0x00000000,1716937614.431515,172.16.1.2,62290,172.16.3.2,5101,11584,14764,0,64256,65728,6,6,4,1460,802,1,1075839968,53,66348,57660,65700,0,13032,0,0,0
i,0x00000000,1716937614.461423,172.16.1.2,62290,172.16.3.2,5101,11584,14764,0,64256,65728,6,6,4,1460,802,1,1075839968,53,66348,66348,65700,0,14480,0,0,0
o,0x00000000,1716937614.461442,172.16.1.2,62290,172.16.3.2,5101,11584,14764,0,64256,65728,6,6,4,1460,818,1,1075839968,56,66348,63452,65700,0,11584,0,0,0
o,0x00000000,1716937614.461702,172.16.1.2,62290,172.16.3.2,5101,11584,14764,0,64256,65728,6,6,4,1460,818,1,1075839968,56,66348,63452,65700,0,13032,0,0,0
i,0x00000000,1716937614.650927,172.16.1.2,62290,172.16.3.2,5101,11584,14764,0,64256,65728,6,6,4,1460,818,1,1075839968,56,66348,66348,65700,0,14480,0,0,0
o,0x00000000,1716937614.650946,172.16.1.2,62290,172.16.3.2,5101,11584,14764,0,65728,65728,6,6,4,1460,896,1,1075839968,75,66348,64900,65700,0,13032,0,0,0
i,0x00000000,1716937614.690492,172.16.1.2,62290,172.16.3.2,5101,11584,14764,0,65728,65728,6,6,4,1460,896,1,1075839968,75,66348,64900,65700,0,14480,0,0,0
o,0x00000000,1716937614.690500,172.16.1.2,62290,172.16.3.2,5101,11584,14764,0,64256,65728,6,6,4,1460,888,1,1075839968,70,66348,62004,65700,0,11584,0,0,0
o,0x00000000,1716937614.690600,172.16.1.2,62290,172.16.3.2,5101,11584,14764,0,64256,65728,6,6,4,1460,888,1,1075839968,70,66348,62004,65700,0,13032,0,0,0
i,0x00000000,1716937614.690696,172.16.1.2,62290,172.16.3.2,5101,11584,14764,0,64256,65728,6,6,4,1460,888,1,1075839968,70,66348,62004,65700,0,14480,0,0,0
o,0x00000000,1716937614.690700,172.16.1.2,62290,172.16.3.2,5101,11584,14764,0,64256,65728,6,6,4,1460,881,1,1075839968,66,66348,59108,65700,0,11584,0,0,0
o,0x00000000,1716937614.690827,172.16.1.2,62290,172.16.3.2,5101,11584,14764,0,64256,65728,6,6,4,1460,881,1,1075839968,66,66348,59108,65700,0,13032,0,0,0
i,0x00000000,1716937614.690934,172.16.1.2,62290,172.16.3.2,5101,11584,14764,0,64256,65728,6,6,4,1460,881,1,1075839968,66,66348,59108,65700,0,14480,0,0,0
o,0x00000000,1716937614.690937,172.16.1.2,62290,172.16.3.2,5101,11584,14764,0,64256,65728,6,6,4,1460,875,1,1075839968,63,66348,56212,65700,0,11584,0,0,0
o,0x00000000,1716937614.691033,172.16.1.2,62290,172.16.3.2,5101,11584,14764,0,64256,65728,6,6,4,1460,875,1,1075839968,63,66348,56212,65700,0,13032,0,0,0
i,0x00000000,1716937614.732104,172.16.1.2,62290,172.16.3.2,5101,11584,14764,0,64256,65728,6,6,4,1460,875,1,1075839968,63,66348,66348,65700,0,14480,0,0,0
o,0x00000000,1716937614.732123,172.16.1.2,62290,172.16.3.2,5101,11584,16224,0,64256,65728,6,6,4,1460,886,1,1075839968,62,66348,63452,65700,0,11584,0,0,0
o,0x00000000,1716937614.732389,172.16.1.2,62290,172.16.3.2,5101,11584,16224,0,64256,65728,6,6,4,1460,886,1,1075839968,62,66348,63452,65700,0,13032,0,0,0
o,0x00000000,1716937614.732616,172.16.1.2,62290,172.16.3.2,5101,11584,16224,0,64256,65728,6,6,4,1460,886,1,1075839968,62,66348,63452,65700,0,14480,0,0,0
i,0x00000000,1716937614.911238,172.16.1.2,62290,172.16.3.2,5101,11584,16224,0,64256,65728,6,6,4,1460,886,1,1075839968,62,66348,66348,65700,0,15928,0,0,0
o,0x00000000,1716937614.911276,172.16.1.2,62290,172.16.3.2,5101,11584,16224,0,65728,65728,6,6,4,1460,956,1,1075839968,78,66348,64900,65700,0,14480,0,0,0
i,0x00000000,1716937614.951229,172.16.1.2,62290,172.16.3.2,5101,11584,16224,0,65728,65728,6,6,4,1460,956,1,1075839968,78,66348,64900,65700,0,15928,0,0,0
o,0x00000000,1716937614.951245,172.16.1.2,62290,172.16.3.2,5101,11584,16224,0,65728,65728,6,6,4,1460,957,1,1075839968,71,66348,63452,65700,0,14480,0,0,0
i,0x00000000,1716937614.981325,172.16.1.2,62290,172.16.3.2,5101,11584,16224,0,65728,65728,6,6,4,1460,957,1,1075839968,71,66348,66348,65700,0,15928,0,0,0
o,0x00000000,1716937614.981332,172.16.1.2,62290,172.16.3.2,5101,11584,16224,0,64256,65728,6,6,4,1460,954,1,1075839968,67,66348,63452,65700,0,13032,0,0,0
o,0x00000000,1716937614.981697,172.16.1.2,62290,172.16.3.2,5101,11584,16224,0,64256,65728,6,6,4,1460,954,1,1075839968,67,66348,63452,65700,0,14480,0,0,0
i,0x00000000,1716937614.981812,172.16.1.2,62290,172.16.3.2,5101,11584,16224,0,64256,65728,6,6,4,1460,954,1,1075839968,67,66348,63452,65700,0,15928,0,0,0
o,0x00000000,1716937614.981816,172.16.1.2,62290,172.16.3.2,5101,11584,16224,0,64256,65728,6,6,4,1460,951,1,1075839968,63,66348,60556,65700,0,13032,0,0,0
o,0x00000000,1716937614.981910,172.16.1.2,62290,172.16.3.2,5101,11584,16224,0,64256,65728,6,6,4,1460,951,1,1075839968,63,66348,60556,65700,0,14480,0,0,0
i,0x00000000,1716937614.982007,172.16.1.2,62290,172.16.3.2,5101,11584,16224,0,64256,65728,6,6,4,1460,951,1,1075839968,63,66348,60556,65700,0,15928,0,0,0
o,0x00000000,1716937614.982011,172.16.1.2,62290,172.16.3.2,5101,11584,16224,0,64256,65728,6,6,4,1460,949,1,1075839968,60,66348,57660,65700,0,13032,0,0,0
o,0x00000000,1716937614.982104,172.16.1.2,62290,172.16.3.2,5101,11584,16224,0,64256,65728,6,6,4,1460,949,1,1075839968,60,66348,57660,65700,0,14480,0,0,0
i,0x00000000,1716937615.001382,172.16.1.2,62290,172.16.3.2,5101,11584,16224,0,64256,65728,6,6,4,1460,949,1,1075839968,60,66348,66348,65700,0,15928,0,0,0
o,0x00000000,1716937615.001393,172.16.1.2,62290,172.16.3.2,5101,11584,17684,0,64256,65728,6,6,4,1460,939,1,1075839968,60,66348,63452,65700,0,13032,0,0,0
o,0x00000000,1716937615.001631,172.16.1.2,62290,172.16.3.2,5101,11584,17684,0,64256,65728,6,6,4,1460,939,1,1075839968,60,66348,63452,65700,0,14480,0,0,0
o,0x00000000,1716937615.001857,172.16.1.2,62290,172.16.3.2,5101,11584,17684,0,64256,65728,6,6,4,1460,939,1,1075839968,60,66348,63452,65700,0,15928,0,0,0
i,0x00000000,1716937615.090698,172.16.1.2,62290,172.16.3.2,5101,11584,17684,0,64256,65728,6,6,4,1460,939,1,1075839968,60,66348,66348,65700,0,17376,0,0,0
o,0x00000000,1716937615.090718,172.16.1.2,62290,172.16.3.2,5101,11584,17684,0,65728,65728,6,6,4,1460,966,1,1075839968,65,66348,64900,65700,0,15928,0,0,0
i,0x00000000,1716937615.241335,172.16.1.2,62290,172.16.3.2,5101,11584,17684,0,65728,65728,6,6,4,1460,966,1,1075839968,65,66348,64900,65700,0,17376,0,0,0
o,0x00000000,1716937615.241351,172.16.1.2,62290,172.16.3.2,5101,11584,17684,0,65728,65728,6,6,4,1460,978,1,1075839968,64,66348,63452,65700,0,15928,0,0,0
i,0x00000000,1716937615.261334,172.16.1.2,62290,172.16.3.2,5101,11584,17684,0,65728,65728,6,6,4,1460,978,1,1075839968,64,66348,66348,65700,0,17376,0,0,0
o,0x00000000,1716937615.261344,172.16.1.2,62290,172.16.3.2,5101,11584,17684,0,65728,65728,6,6,4,1460,980,1,1075839968,61,66348,64900,65700,0,15928,0,0,0
i,0x00000000,1716937615.261460,172.16.1.2,62290,172.16.3.2,5101,11584,17684,0,65728,65728,6,6,4,1460,980,1,1075839968,61,66348,64900,65700,0,17376,0,0,0
o,0x00000000,1716937615.261466,172.16.1.2,62290,172.16.3.2,5101,11584,17684,0,64256,65728,6,6,4,1460,970,1,1075839968,61,66348,62004,65700,0,14480,0,0,0
o,0x00000000,1716937615.261571,172.16.1.2,62290,172.16.3.2,5101,11584,17684,0,64256,65728,6,6,4,1460,970,1,1075839968,61,66348,62004,65700,0,15928,0,0,0
i,0x00000000,1716937615.261648,172.16.1.2,62290,172.16.3.2,5101,11584,17684,0,64256,65728,6,6,4,1460,970,1,1075839968,61,66348,62004,65700,0,17376,0,0,0
o,0x00000000,1716937615.261651,172.16.1.2,62290,172.16.3.2,5101,11584,17684,0,64256,65728,6,6,4,1460,961,1,1075839968,60,66348,59108,65700,0,14480,0,0,0
o,0x00000000,1716937615.261723,172.16.1.2,62290,172.16.3.2,5101,11584,17684,0,64256,65728,6,6,4,1460,961,1,1075839968,60,66348,59108,65700,0,15928,0,0,0
i,0x00000000,1716937615.262007,172.16.1.2,62290,172.16.3.2,5101,11584,17684,0,64256,65728,6,6,4,1460,961,1,1075839968,60,66348,59108,65700,0,17376,0,0,0
o,0x00000000,1716937615.262010,172.16.1.2,62290,172.16.3.2,5101,11584,17684,0,64256,65728,6,6,4,1460,953,1,1075839968,59,66348,56212,65700,0,14480,0,0,0
o,0x00000000,1716937615.262085,172.16.1.2,62290,172.16.3.2,5101,11584,17684,0,64256,65728,6,6,4,1460,953,1,1075839968,59,66348,56212,65700,0,15928,0,0,0
i,0x00000000,1716937615.290999,172.16.1.2,62290,172.16.3.2,5101,11584,17684,0,64256,65728,6,6,4,1460,953,1,1075839968,59,66348,66348,65700,0,17376,0,0,0
o,0x00000000,1716937615.291010,172.16.1.2,62290,172.16.3.2,5101,11584,17684,0,64256,65728,6,6,4,1460,950,1,1075839968,57,66348,63452,65700,0,14480,0,0,0
o,0x00000000,1716937615.291329,172.16.1.2,62290,172.16.3.2,5101,11584,17684,0,64256,65728,6,6,4,1460,950,1,1075839968,57,66348,63452,65700,0,15928,0,0,0
i,0x00000000,1716937615.381350,172.16.1.2,62290,172.16.3.2,5101,11584,17684,0,64256,65728,6,6,4,1460,950,1,1075839968,57,66348,66348,65700,0,17376,0,0,0
o,0x00000000,1716937615.381383,172.16.1.2,62290,172.16.3.2,5101,11584,19144,0,64256,65728,6,6,4,1460,984,1,1075839968,65,66348,63452,65700,0,14480,0,0,0
o,0x00000000,1716937615.381660,172.16.1.2,62290,172.16.3.2,5101,11584,19144,0,64256,65728,6,6,4,1460,984,1,1075839968,65,66348,63452,65700,0,15928,0,0,0
o,0x00000000,1716937615.381912,172.16.1.2,62290,172.16.3.2,5101,11584,19144,0,64256,65728,6,6,4,1460,984,1,1075839968,65,66348,63452,65700,0,17376,0,0,0
i,0x00000000,1716937615.591175,172.16.1.2,62290,172.16.3.2,5101,11584,19144,0,64256,65728,6,6,4,1460,984,1,1075839968,65,66348,66348,65700,0,18824,0,0,0
o,0x00000000,1716937615.591196,172.16.1.2,62290,172.16.3.2,5101,11584,19144,0,65728,65728,6,6,4,1460,997,1,1075839968,65,66348,64900,65700,0,17376,0,0,0
i,0x00000000,1716937615.591318,172.16.1.2,62290,172.16.3.2,5101,11584,19144,0,65728,65728,6,6,4,1460,997,1,1075839968,65,66348,64900,65700,0,18824,0,0,0
o,0x00000000,1716937615.591323,172.16.1.2,62290,172.16.3.2,5101,11584,19144,0,64256,65728,6,6,4,1460,1001,1,1075839968,63,66348,62004,65700,0,15928,0,0,0
o,0x00000000,1716937615.591408,172.16.1.2,62290,172.16.3.2,5101,11584,19144,0,64256,65728,6,6,4,1460,1001,1,1075839968,63,66348,62004,65700,0,17376,0,0,0
i,0x00000000,1716937615.591492,172.16.1.2,62290,172.16.3.2,5101,11584,19144,0,64256,65728,6,6,4,1460,1001,1,1075839968,63,66348,62004,65700,0,18824,0,0,0
o,0x00000000,1716937615.591496,172.16.1.2,62290,172.16.3.2,5101,11584,19144,0,64256,65728,6,6,4,1460,1004,1,1075839968,61,66348,59108,65700,0,15928,0,0,0
o,0x00000000,1716937615.591581,172.16.1.2,62290,172.16.3.2,5101,11584,19144,0,64256,65728,6,6,4,1460,1004,1,1075839968,61,66348,59108,65700,0,17376,0,0,0
i,0x00000000,1716937615.591665,172.16.1.2,62290,172.16.3.2,5101,11584,19144,0,64256,65728,6,6,4,1460,1004,1,1075839968,61,66348,59108,65700,0,18824,0,0,0
o,0x00000000,1716937615.591668,172.16.1.2,62290,172.16.3.2,5101,11584,19144,0,64256,65728,6,6,4,1460,1007,1,1075839968,59,66348,56212,65700,0,15928,0,0,0
o,0x00000000,1716937615.591802,172.16.1.2,62290,172.16.3.2,5101,11584,19144,0,64256,65728,6,6,4,1460,1007,1,1075839968,59,66348,56212,65700,0,17376,0,0,0
i,0x00000000,1716937615.611408,172.16.1.2,62290,172.16.3.2,5101,11584,19144,0,64256,65728,6,6,4,1460,1007,1,1075839968,59,66348,66348,65700,0,18824,0,0,0
o,0x00000000,1716937615.611415,172.16.1.2,62290,172.16.3.2,5101,11584,19144,0,65728,65728,6,6,4,1460,1022,1,1075839968,61,66348,64900,65700,0,17376,0,0,0
i,0x00000000,1716937615.611729,172.16.1.2,62290,172.16.3.2,5101,11584,19144,0,65728,65728,6,6,4,1460,1022,1,1075839968,61,66348,64900,65700,0,18824,0,0,0
o,0x00000000,1716937615.611733,172.16.1.2,62290,172.16.3.2,5101,11584,19144,0,64256,65728,6,6,4,1460,1023,1,1075839968,59,66348,62004,65700,0,15928,0,0,0
o,0x00000000,1716937615.611832,172.16.1.2,62290,172.16.3.2,5101,11584,19144,0,64256,65728,6,6,4,1460,1023,1,1075839968,59,66348,62004,65700,0,17376,0,0,0
i,0x00000000,1716937615.690062,172.16.1.2,62290,172.16.3.2,5101,11584,19144,0,64256,65728,6,6,4,1460,1023,1,1075839968,59,66348,66348,65700,0,18824,0,0,0
o,0x00000000,1716937615.690076,172.16.1.2,62290,172.16.3.2,5101,11584,19144,0,64256,65728,6,6,4,1460,1020,1,1075839968,58,66348,63452,65700,0,15928,0,0,0
o,0x00000000,1716937615.690339,172.16.1.2,62290,172.16.3.2,5101,11584,19144,0,64256,65728,6,6,4,1460,1020,1,1075839968,58,66348,63452,65700,0,17376,0,0,0
i,0x00000000,1716937615.871011,172.16.1.2,62290,172.16.3.2,5101,11584,19144,0,64256,65728,6,6,4,1460,1020,1,1075839968,58,66348,66348,65700,0,18824,0,0,0
o,0x00000000,1716937615.871030,172.16.1.2,62290,172.16.3.2,5101,11584,20604,0,65728,65728,6,6,4,1460,1085,1,1075839968,75,66348,64900,65700,0,17376,0,0,0
o,0x00000000,1716937615.871279,172.16.1.2,62290,172.16.3.2,5101,11584,20604,0,65728,65728,6,6,4,1460,1085,1,1075839968,75,66348,64900,65700,0,18824,0,0,0
i,0x00000000,1716937615.901121,172.16.1.2,62290,172.16.3.2,5101,11584,20604,0,65728,65728,6,6,4,1460,1085,1,1075839968,75,66348,64900,65700,0,20272,0,0,0
o,0x00000000,1716937615.901127,172.16.1.2,62290,172.16.3.2,5101,11584,20604,0,64256,65728,6,6,4,1460,1074,1,1075839968,72,66348,62004,65700,0,17376,0,0,0
o,0x00000000,1716937615.901223,172.16.1.2,62290,172.16.3.2,5101,11584,20604,0,64256,65728,6,6,4,1460,1074,1,1075839968,72,66348,62004,65700,0,18824,0,0,0
i,0x00000000,1716937615.901321,172.16.1.2,62290,172.16.3.2,5101,11584,20604,0,64256,65728,6,6,4,1460,1074,1,1075839968,72,66348,62004,65700,0,20272,0,0,0
o,0x00000000,1716937615.901325,172.16.1.2,62290,172.16.3.2,5101,11584,20604,0,64256,65728,6,6,4,1460,1064,1,1075839968,70,66348,59108,65700,0,17376,0,0,0
o,0x00000000,1716937615.901412,172.16.1.2,62290,172.16.3.2,5101,11584,20604,0,64256,65728,6,6,4,1460,1064,1,1075839968,70,66348,59108,65700,0,18824,0,0,0
i,0x00000000,1716937615.901487,172.16.1.2,62290,172.16.3.2,5101,11584,20604,0,64256,65728,6,6,4,1460,1064,1,1075839968,70,66348,59108,65700,0,20272,0,0,0
o,0x00000000,1716937615.901489,172.16.1.2,62290,172.16.3.2,5101,11584,20604,0,64256,65728,6,6,4,1460,1055,1,1075839968,67,66348,56212,65700,0,17376,0,0,0
o,0x00000000,1716937615.901572,172.16.1.2,62290,172.16.3.2,5101,11584,20604,0,64256,65728,6,6,4,1460,1055,1,1075839968,67,66348,56212,65700,0,18824,0,0,0
i,0x00000000,1716937615.921427,172.16.1.2,62290,172.16.3.2,5101,11584,20604,0,64256,65728,6,6,4,1460,1055,1,1075839968,67,66348,66348,65700,0,20272,0,0,0
o,0x00000000,1716937615.921435,172.16.1.2,62290,172.16.3.2,5101,11584,20604,0,65728,65728,6,6,4,1460,1056,1,1075839968,64,66348,64900,65700,0,18824,0,0,0
i,0x00000000,1716937615.921675,172.16.1.2,62290,172.16.3.2,5101,11584,20604,0,65728,65728,6,6,4,1460,1056,1,1075839968,64,66348,64900,65700,0,20272,0,0,0
o,0x00000000,1716937615.921679,172.16.1.2,62290,172.16.3.2,5101,11584,20604,0,64256,65728,6,6,4,1460,1048,1,1075839968,63,66348,62004,65700,0,17376,0,0,0
o,0x00000000,1716937615.921906,172.16.1.2,62290,172.16.3.2,5101,11584,20604,0,64256,65728,6,6,4,1460,1048,1,1075839968,63,66348,62004,65700,0,18824,0,0,0
i,0x00000000,1716937616.021113,172.16.1.2,62290,172.16.3.2,5101,11584,20604,0,64256,65728,6,6,4,1460,1048,1,1075839968,63,66348,66348,65700,0,20272,0,0,0
o,0x00000000,1716937616.021128,172.16.1.2,62290,172.16.3.2,5101,11584,20604,0,64256,65728,6,6,4,1460,1081,1,1075839968,70,66348,63452,65700,0,17376,0,0,0
o,0x00000000,1716937616.021435,172.16.1.2,62290,172.16.3.2,5101,11584,20604,0,64256,65728,6,6,4,1460,1081,1,1075839968,70,66348,63452,65700,0,18824,0,0,0
i,0x00000000,1716937616.190424,172.16.1.2,62290,172.16.3.2,5101,11584,20604,0,64256,65728,6,6,4,1460,1081,1,1075839968,70,66348,66348,65700,0,20272,0,0,0
o,0x00000000,1716937616.190441,172.16.1.2,62290,172.16.3.2,5101,11584,20604,0,65728,65728,6,6,4,1460,1146,1,1075839968,84,66348,64900,65700,0,18824,0,0,0
i,0x00000000,1716937616.190526,172.16.1.2,62290,172.16.3.2,5101,11584,20604,0,65728,65728,6,6,4,1460,1146,1,1075839968,84,66348,64900,65700,0,20272,0,0,0
o,0x00000000,1716937616.190528,172.16.1.2,62290,172.16.3.2,5101,11584,22064,0,64256,65728,6,6,4,1460,1131,1,1075839968,80,66348,62004,65700,0,17376,0,0,0
