enable_time_secs=1716935973	enable_time_usecs=344012	siftrver=1.2.4	hz=100	tcp_rtt_scale=32	sysname=FreeBSD	sysver=1301000	ipmode=4
o,0x00000000,1716935973.344041,10.0.2.15,22,10.0.2.2,56833,1073725440,17298,0,65535,65700,0,0,4,1460,1,0,4,24,33580,44,65700,0,0,0,0,0
o,0x00000000,1716935973.344150,10.0.2.15,22,10.0.2.2,56833,1073725440,17298,0,65535,65700,0,0,4,1460,1,0,4,24,33580,80,65700,0,44,0,0,0
i,0x00000000,1716935973.344563,10.0.2.15,22,10.0.2.2,56833,1073725440,17298,0,65535,65700,0,0,4,1460,1,0,4,24,33580,80,65700,0,80,0,0,0
i,0x00000000,1716935973.344566,10.0.2.15,22,10.0.2.2,56833,1073725440,17342,0,65535,65700,0,0,4,1460,1,0,4,24,33580,36,65700,0,36,0,0,0
o,0x00000000,1716935973.344633,10.0.2.15,22,10.0.2.2,56833,1073725440,17378,0,65535,65700,0,0,4,1460,1,0,4,24,33580,36,65700,0,0,0,0,0
i,0x00000000,1716935973.345090,10.0.2.15,22,10.0.2.2,56833,1073725440,17378,0,65535,65700,0,0,4,1460,1,0,4,24,33580,36,65700,0,36,0,0,0
o,0x00000000,1716935973.345260,10.0.2.15,22,10.0.2.2,56833,1073725440,17414,0,65535,65700,0,0,4,1460,1,0,4,24,33580,176,65700,0,0,0,0,0
i,0x00000000,1716935973.346259,10.0.2.15,22,10.0.2.2,56833,1073725440,17414,0,65535,65700,0,0,4,1460,1,0,4,24,33580,176,65700,0,176,0,0,0
i,0x00000000,1716935973.346262,10.0.2.15,22,10.0.2.2,56833,1073725440,17590,0,65535,65700,0,0,4,1460,1,0,4,24,33580,0,65700,0,0,0,0,0
i,0x00000000,1716935973.346263,10.0.2.15,22,10.0.2.2,56833,1073725440,17590,0,65535,65700,0,0,4,1460,1,0,4,24,33580,0,65700,36,0,0,0,0
o,0x00000000,1716935973.346265,10.0.2.15,22,10.0.2.2,56833,1073725440,17590,0,65535,65700,0,0,4,1460,1,0,5,24,33580,0,65700,96,0,0,0,0
i,0x00000000,1716935973.346665,10.0.2.15,22,10.0.2.2,56833,1073725440,17590,0,65535,65700,0,0,4,1460,1,0,4,24,33580,0,65700,96,0,0,0,0
o,0x00000000,1716935973.346668,10.0.2.15,22,10.0.2.2,56833,1073725440,17590,0,65535,65604,0,0,5,1460,1,0,7,24,33580,0,65700,96,0,0,0,0
o,0x00000000,1716935973.347293,10.0.2.15,22,10.0.2.2,56833,1073725440,17590,0,65535,65604,0,0,8,1460,1,0,4,24,33580,0,65700,0,0,0,0,0
i,0x00000000,1716935973.347739,10.0.2.15,22,10.0.2.2,56833,1073725440,17590,0,65535,65604,0,0,8,1460,1,0,20,24,33580,0,65700,0,1,0,0,0
i,0x00000000,1716935975.496964,10.0.2.15,22,10.0.2.2,56839,1073725440,14600,0,65535,65700,0,0,4,1460,1,0,0,27,33580,0,65700,0,0,0,0,0
o,0x00000000,1716935975.502561,10.0.2.15,22,10.0.2.2,56839,1073725440,14600,0,65535,65700,0,0,4,1460,1,0,0,27,33580,38,65700,41,0,0,0,0
i,0x00000000,1716935975.503243,10.0.2.15,22,10.0.2.2,56839,1073725440,14600,0,65535,65700,0,0,4,1460,1,0,0,27,33580,38,65700,0,38,0,0,0
o,0x00000000,1716935975.503772,10.0.2.15,22,10.0.2.2,56839,1073725440,14638,0,65535,65700,0,0,4,1460,1,0,0,24,33580,1056,65700,0,0,0,0,0
i,0x00000000,1716935975.504413,10.0.2.15,22,10.0.2.2,56839,1073725440,14638,0,65535,65700,0,0,4,1460,1,0,0,24,33580,1056,65700,0,1056,0,0,0
i,0x00000000,1716935975.504416,10.0.2.15,22,10.0.2.2,56839,1073725440,14638,0,65535,65700,0,0,4,1460,1,0,0,24,33580,1056,65700,1460,1056,0,0,0
o,0x00000000,1716935975.504419,10.0.2.15,22,10.0.2.2,56839,1073725440,14638,0,65535,65700,0,0,4,1460,1,0,1,24,33580,1056,65700,1536,1056,0,0,0
i,0x00000000,1716935975.504493,10.0.2.15,22,10.0.2.2,56839,1073725440,14638,0,65535,65700,0,0,4,1460,1,0,0,24,33580,1056,65700,1536,1056,0,0,0
i,0x00000000,1716935975.506205,10.0.2.15,22,10.0.2.2,56839,1073725440,15694,0,65535,65700,0,0,4,1460,1,0,0,24,33580,0,65700,0,0,0,0,0
o,0x00000000,1716935975.508674,10.0.2.15,22,10.0.2.2,56839,1073725440,15694,0,65535,65700,0,0,4,1460,1,0,0,24,33580,484,65700,0,0,0,0,0
i,0x00000000,1716935975.509500,10.0.2.15,22,10.0.2.2,56839,1073725440,15694,0,65535,65700,0,0,4,1460,1,0,0,24,33580,484,65700,0,484,0,0,0
i,0x00000000,1716935975.513899,10.0.2.15,22,10.0.2.2,56839,1073725440,16178,0,65535,65700,0,0,4,1460,1,0,0,24,33580,0,65700,0,0,0,0,0
i,0x00000000,1716935975.518296,10.0.2.15,22,10.0.2.2,56839,1073725440,16178,0,65535,65700,0,0,4,1460,1,0,0,24,33580,0,65700,0,0,0,0,0
o,0x00000000,1716935975.518301,10.0.2.15,22,10.0.2.2,56839,1073725440,16178,0,65535,65700,0,0,4,1460,1,0,1,24,33580,0,65700,44,0,0,0,0
o,0x00000000,1716935975.518458,10.0.2.15,22,10.0.2.2,56839,1073725440,16178,0,65535,65700,0,0,4,1460,1,0,0,24,33580,44,65700,0,0,0,0,0
i,0x00000000,1716935975.518881,10.0.2.15,22,10.0.2.2,56839,1073725440,16178,0,65535,65700,0,0,4,1460,1,0,0,24,33580,44,65700,0,44,0,0,0
i,0x00000000,1716935975.519569,10.0.2.15,22,10.0.2.2,56839,1073725440,16222,0,65535,65700,0,0,4,1460,1,0,0,24,33580,0,65700,0,0,0,0,0
o,0x00000000,1716935975.528969,10.0.2.15,22,10.0.2.2,56839,1073725440,16222,0,65535,65700,0,0,4,1460,1,0,0,24,33580,68,65700,0,0,0,0,0
i,0x00000000,1716935975.529503,10.0.2.15,22,10.0.2.2,56839,1073725440,16222,0,65535,65700,0,0,4,1460,1,0,0,24,33580,68,65700,0,68,0,0,0
i,0x00000000,1716935975.531992,10.0.2.15,22,10.0.2.2,56839,1073725440,16290,0,65535,65700,0,0,4,1460,1,0,0,24,33580,0,65700,0,0,0,0,0
o,0x00000000,1716935975.541479,10.0.2.15,22,10.0.2.2,56839,1073725440,16290,0,65535,65700,0,0,4,1460,1,0,0,24,33580,28,65700,0,0,0,0,0
i,0x00000000,1716935975.542151,10.0.2.15,22,10.0.2.2,56839,1073725440,16290,0,65535,65700,0,0,4,1460,1,0,0,24,33580,28,65700,0,28,0,0,0
i,0x00000000,1716935975.542704,10.0.2.15,22,10.0.2.2,56839,1073725440,16318,0,65535,65700,0,0,4,1460,1,0,0,24,33580,0,65700,0,0,0,0,0
o,0x00000000,1716935975.543249,10.0.2.15,22,10.0.2.2,56839,1073725440,16318,0,65535,65700,0,0,4,1460,1,0,0,24,33580,768,65700,112,0,0,0,0
i,0x00000000,1716935975.543923,10.0.2.15,22,10.0.2.2,56839,1073725440,16318,0,65535,65700,0,0,4,1460,1,0,0,24,33580,768,65700,112,768,0,0,0
o,0x00000000,1716935975.544024,10.0.2.15,22,10.0.2.2,56839,1073725440,17086,0,65535,65700,0,0,4,1460,1,0,0,24,33580,44,65700,0,0,0,0,0
i,0x00000000,1716935975.546827,10.0.2.15,22,10.0.2.2,56839,1073725440,17086,0,65535,65700,0,0,4,1460,1,0,0,24,33580,44,65700,0,44,0,0,0
i,0x00000000,1716935975.547379,10.0.2.15,22,10.0.2.2,56839,1073725440,17130,0,65535,65700,0,0,4,1460,1,0,0,23,33580,0,65700,0,0,0,0,0
o,0x00000000,1716935975.547685,10.0.2.15,22,10.0.2.2,56839,1073725440,17130,0,65535,65700,0,0,4,1460,1,0,4,23,33580,72,65700,0,0,0,0,0
i,0x00000000,1716935975.548431,10.0.2.15,22,10.0.2.2,56839,1073725440,17130,0,65535,65700,0,0,4,1460,1,0,4,23,33580,72,65700,0,72,0,0,0
o,0x00000000,1716935975.551088,10.0.2.15,22,10.0.2.2,56839,1073725440,17202,0,65535,65700,0,0,4,1460,1,0,4,23,33580,44,65700,0,0,0,0,0
i,0x00000000,1716935975.551674,10.0.2.15,22,10.0.2.2,56839,1073725440,17202,0,65535,65700,0,0,4,1460,1,0,4,23,33580,44,65700,0,44,0,0,0
o,0x00000000,1716935975.551956,10.0.2.15,22,10.0.2.2,56839,1073725440,17246,0,65535,65700,0,0,4,1460,1,0,4,23,33580,44,65700,0,0,0,0,0
i,0x00000000,1716935975.552641,10.0.2.15,22,10.0.2.2,56839,1073725440,17246,0,65535,65700,0,0,4,1460,1,0,4,23,33580,44,65700,0,44,0,0,0
o,0x00000000,1716935975.556014,10.0.2.15,22,10.0.2.2,56839,1073725440,17290,0,65535,65700,0,0,4,1460,1,0,4,23,33580,176,65700,0,0,0,0,0
i,0x00000000,1716935975.557153,10.0.2.15,22,10.0.2.2,56839,1073725440,17290,0,65535,65700,0,0,4,1460,1,0,4,23,33580,176,65700,0,176,0,0,0
i,0x00000000,1716935975.557193,10.0.2.15,22,10.0.2.2,56839,1073725440,17466,0,65535,65700,0,0,4,1460,1,0,4,24,33580,0,65700,0,0,0,0,0
i,0x00000000,1716935975.557196,10.0.2.15,22,10.0.2.2,56839,1073725440,17466,0,65535,65700,0,0,4,1460,1,0,4,24,33580,0,65700,36,0,0,0,0
o,0x00000000,1716935975.557199,10.0.2.15,22,10.0.2.2,56839,1073725440,17466,0,65535,65700,0,0,4,1460,1,0,5,24,33580,0,65700,96,0,0,0,0
i,0x00000000,1716935975.557319,10.0.2.15,22,10.0.2.2,56839,1073725440,17466,0,65535,65700,0,0,4,1460,1,0,4,24,33580,0,65700,96,0,0,0,0
o,0x00000000,1716935975.557323,10.0.2.15,22,10.0.2.2,56839,1073725440,17466,0,65535,65604,0,0,5,1460,1,0,7,24,33580,0,65700,96,0,0,0,0
o,0x00000000,1716935975.561468,10.0.2.15,22,10.0.2.2,56839,1073725440,17466,0,65535,65604,0,0,8,1460,1,0,4,24,33580,0,65700,0,0,0,0,0
i,0x00000000,1716935975.562111,10.0.2.15,22,10.0.2.2,56839,1073725440,17466,0,65535,65604,0,0,8,1460,1,0,20,24,33580,0,65700,0,1,0,0,0
i,0x00000000,1716935976.634988,10.0.2.15,22,10.0.2.2,56842,1073725440,14600,0,65535,65700,0,0,4,1460,1,0,0,27,33580,0,65700,0,0,0,0,0
o,0x00000000,1716935976.641277,10.0.2.15,22,10.0.2.2,56842,1073725440,14600,0,65535,65700,0,0,4,1460,1,0,0,27,33580,38,65700,41,0,0,0,0
i,0x00000000,1716935976.641964,10.0.2.15,22,10.0.2.2,56842,1073725440,14600,0,65535,65700,0,0,4,1460,1,0,0,27,33580,38,65700,0,38,0,0,0
o,0x00000000,1716935976.642530,10.0.2.15,22,10.0.2.2,56842,1073725440,14638,0,65535,65700,0,0,4,1460,1,0,0,24,33580,1056,65700,0,0,0,0,0
i,0x00000000,1716935976.643246,10.0.2.15,22,10.0.2.2,56842,1073725440,14638,0,65535,65700,0,0,4,1460,1,0,0,24,33580,1056,65700,0,1056,0,0,0
i,0x00000000,1716935976.644679,10.0.2.15,22,10.0.2.2,56842,1073725440,15694,0,65535,65700,0,0,4,1460,1,0,0,24,33580,0,65700,0,0,0,0,0
i,0x00000000,1716935976.644683,10.0.2.15,22,10.0.2.2,56842,1073725440,15694,0,65535,65700,0,0,4,1460,1,0,0,24,33580,0,65700,1460,0,0,0,0
o,0x00000000,1716935976.644685,10.0.2.15,22,10.0.2.2,56842,1073725440,15694,0,65535,65700,0,0,4,1460,1,0,1,24,33580,0,65700,1536,0,0,0,0
i,0x00000000,1716935976.646377,10.0.2.15,22,10.0.2.2,56842,1073725440,15694,0,65535,65700,0,0,4,1460,1,0,0,24,33580,0,65700,0,0,0,0,0
o,0x00000000,1716935976.648843,10.0.2.15,22,10.0.2.2,56842,1073725440,15694,0,65535,65700,0,0,4,1460,1,0,0,24,33580,484,65700,0,0,0,0,0
i,0x00000000,1716935976.649374,10.0.2.15,22,10.0.2.2,56842,1073725440,15694,0,65535,65700,0,0,4,1460,1,0,0,24,33580,484,65700,0,484,0,0,0
i,0x00000000,1716935976.653917,10.0.2.15,22,10.0.2.2,56842,1073725440,16178,0,65535,65700,0,0,4,1460,1,0,0,24,33580,0,65700,0,0,0,0,0
i,0x00000000,1716935976.659270,10.0.2.15,22,10.0.2.2,56842,1073725440,16178,0,65535,65700,0,0,4,1460,1,0,0,24,33580,0,65700,0,0,0,0,0
o,0x00000000,1716935976.659275,10.0.2.15,22,10.0.2.2,56842,1073725440,16178,0,65535,65700,0,0,4,1460,1,0,1,24,33580,0,65700,44,0,0,0,0
o,0x00000000,1716935976.659417,10.0.2.15,22,10.0.2.2,56842,1073725440,16178,0,65535,65700,0,0,4,1460,1,0,0,24,33580,44,65700,0,0,0,0,0
i,0x00000000,1716935976.660043,10.0.2.15,22,10.0.2.2,56842,1073725440,16178,0,65535,65700,0,0,4,1460,1,0,0,24,33580,44,65700,0,44,0,0,0
i,0x00000000,1716935976.660380,10.0.2.15,22,10.0.2.2,56842,1073725440,16222,0,65535,65700,0,0,4,1460,1,0,0,24,33580,0,65700,0,0,0,0,0
o,0x00000000,1716935976.670548,10.0.2.15,22,10.0.2.2,56842,1073725440,16222,0,65535,65700,0,0,4,1460,1,0,0,24,33580,68,65700,0,0,0,0,0
i,0x00000000,1716935976.671074,10.0.2.15,22,10.0.2.2,56842,1073725440,16222,0,65535,65700,0,0,4,1460,1,0,0,24,33580,68,65700,0,68,0,0,0
i,0x00000000,1716935976.673371,10.0.2.15,22,10.0.2.2,56842,1073725440,16290,0,65535,65700,0,0,4,1460,1,0,0,24,33580,0,65700,0,0,0,0,0
o,0x00000000,1716935976.683016,10.0.2.15,22,10.0.2.2,56842,1073725440,16290,0,65535,65700,0,0,4,1460,1,0,0,24,33580,28,65700,0,0,0,0,0
i,0x00000000,1716935976.683767,10.0.2.15,22,10.0.2.2,56842,1073725440,16290,0,65535,65700,0,0,4,1460,1,0,0,24,33580,28,65700,0,28,0,0,0
i,0x00000000,1716935976.684204,10.0.2.15,22,10.0.2.2,56842,1073725440,16318,0,65535,65700,0,0,4,1460,1,0,0,24,33580,0,65700,0,0,0,0,0
o,0x00000000,1716935976.684997,10.0.2.15,22,10.0.2.2,56842,1073725440,16318,0,65535,65700,0,0,4,1460,1,0,0,24,33580,768,65700,112,0,0,0,0
i,0x00000000,1716935976.685682,10.0.2.15,22,10.0.2.2,56842,1073725440,16318,0,65535,65700,0,0,4,1460,1,0,0,24,33580,768,65700,112,768,0,0,0
o,0x00000000,1716935976.685783,10.0.2.15,22,10.0.2.2,56842,1073725440,17086,0,65535,65700,0,0,4,1460,1,0,0,24,33580,44,65700,0,0,0,0,0
i,0x00000000,1716935976.686344,10.0.2.15,22,10.0.2.2,56842,1073725440,17086,0,65535,65700,0,0,4,1460,1,0,0,24,33580,44,65700,0,44,0,0,0
i,0x00000000,1716935976.687031,10.0.2.15,22,10.0.2.2,56842,1073725440,17130,0,65535,65700,0,0,4,1460,1,0,0,23,33580,0,65700,0,0,0,0,0
o,0x00000000,1716935976.687307,10.0.2.15,22,10.0.2.2,56842,1073725440,17130,0,65535,65700,0,0,4,1460,1,0,4,23,33580,72,65700,0,0,0,0,0
i,0x00000000,1716935976.688379,10.0.2.15,22,10.0.2.2,56842,1073725440,17130,0,65535,65700,0,0,4,1460,1,0,4,23,33580,72,65700,0,72,0,0,0
i,0x00000000,1716935976.688450,10.0.2.15,22,10.0.2.2,56842,1073725440,17202,0,65535,65700,0,0,4,1460,1,0,4,23,33580,0,65700,0,0,0,0,0
o,0x00000000,1716935976.692364,172.16.1.2,37118,172.16.3.2,5101,1073725440,1073725440,0,0,0,0,0,2,536,0,1,672,100,32768,0,65536,0,0,0,0,0
o,0x00000000,1716935976.727472,10.0.2.15,22,10.0.2.2,56842,1073725440,17202,0,65535,65700,0,0,4,1460,1,0,5,23,33580,0,65700,0,0,0,0,0
i,0x00000000,1716935976.804636,172.16.1.2,37118,172.16.3.2,5101,1073725440,1073725440,0,0,0,0,0,2,536,0,1,672,100,32768,0,65536,0,1,0,0,0
o,0x00000000,1716935976.804656,172.16.1.2,37118,172.16.3.2,5101,11511,14480,0,65535,65700,6,6,4,1460,597,1,993,71,33580,0,65700,0,0,0,0,0
o,0x00000000,1716935976.805016,172.16.1.2,37118,172.16.3.2,5101,11511,14480,0,65535,65700,6,6,4,1460,597,1,996,71,33580,37,65700,0,0,0,0,0
i,0x00000000,1716935976.924601,172.16.1.2,37118,172.16.3.2,5101,11511,14480,0,65535,65700,6,6,4,1460,597,1,996,71,33580,37,65700,0,37,0,0,0
o,0x00000000,1716935976.924734,172.16.1.2,37118,172.16.3.2,5101,11511,14480,0,65728,65728,6,6,4,1460,567,1,996,69,33580,4,65700,0,0,0,0,0
o,0x00000000,1716935976.925103,172.16.1.2,37118,172.16.3.2,5101,11511,14480,0,65728,65728,6,6,4,1460,567,1,996,69,33580,128,65700,0,4,0,0,0
i,0x00000000,1716935977.045042,172.16.1.2,37118,172.16.3.2,5101,11511,14480,0,65728,65728,6,6,4,1460,567,1,996,69,33580,128,65700,0,128,0,0,0
i,0x00000000,1716935977.045052,172.16.1.2,37118,172.16.3.2,5101,11511,14480,0,65600,65728,6,6,4,1460,545,1,996,66,33580,0,65700,0,0,0,0,0
o,0x00000000,1716935977.045194,172.16.1.2,40514,172.16.3.2,5101,1073725440,1073725440,0,0,0,0,0,2,536,0,1,672,100,32768,0,65536,0,0,0,0,0
o,0x00000000,1716935977.076439,172.16.1.2,37118,172.16.3.2,5101,11511,14480,0,65728,65728,6,6,4,1460,545,1,997,66,33580,0,65700,0,0,0,0,0
i,0x00000000,1716935977.164943,172.16.1.2,40514,172.16.3.2,5101,1073725440,1073725440,0,0,0,0,0,2,536,0,1,672,100,32768,0,65536,0,1,0,0,0
o,0x00000000,1716935977.164965,172.16.1.2,40514,172.16.3.2,5101,11511,14480,0,65535,65700,6,6,4,1460,601,1,993,70,33580,0,65700,0,0,0,0,0
o,0x00000000,1716935977.165130,172.16.1.2,40514,172.16.3.2,5101,11511,14480,0,65535,65700,6,6,4,1460,601,1,992,70,33580,37,65700,0,0,0,0,0
i,0x00000000,1716935977.284310,172.16.1.2,37118,172.16.3.2,5101,11511,14480,0,65728,65728,6,6,4,1460,545,1,996,66,33580,0,65700,0,0,0,0,0
i,0x00000000,1716935977.284324,172.16.1.2,37118,172.16.3.2,5101,11511,14480,0,65728,65728,6,6,4,1460,545,1,996,66,33580,0,65700,1,0,0,0,0
o,0x00000000,1716935977.284332,172.16.1.2,37118,172.16.3.2,5101,11511,14480,0,65728,65728,6,6,4,1460,545,1,997,66,33580,0,65700,2,0,0,0,0
o,0x00000000,1716935977.284605,172.16.1.2,40514,172.16.3.2,5101,11511,14480,0,65535,65700,6,6,4,1460,601,1,992,70,33580,33580,65700,0,37,0,0,0
o,0x00000000,1716935977.284963,172.16.1.2,40514,172.16.3.2,5101,11511,14480,0,65535,65700,6,6,4,1460,601,1,992,70,33580,33580,65700,0,1485,0,0,0
o,0x00000000,1716935977.285283,172.16.1.2,40514,172.16.3.2,5101,11511,14480,0,65535,65700,6,6,4,1460,601,1,992,70,33580,33580,65700,0,2933,0,0,0
o,0x00000000,1716935977.285615,172.16.1.2,40514,172.16.3.2,5101,11511,14480,0,65535,65700,6,6,4,1460,601,1,992,70,33580,33580,65700,0,4381,0,0,0
o,0x00000000,1716935977.285932,172.16.1.2,40514,172.16.3.2,5101,11511,14480,0,65535,65700,6,6,4,1460,601,1,992,70,33580,33580,65700,0,5829,0,0,0
o,0x00000000,1716935977.286388,172.16.1.2,40514,172.16.3.2,5101,11511,14480,0,65535,65700,6,6,4,1460,601,1,992,70,33580,33580,65700,0,7277,0,0,0
o,0x00000000,1716935977.286924,172.16.1.2,40514,172.16.3.2,5101,11511,14480,0,65535,65700,6,6,4,1460,601,1,992,70,33580,33580,65700,0,8725,0,0,0
o,0x00000000,1716935977.287241,172.16.1.2,40514,172.16.3.2,5101,11511,14480,0,65535,65700,6,6,4,1460,601,1,992,70,33580,33580,65700,0,10173,0,0,0
o,0x00000000,1716935977.287593,172.16.1.2,40514,172.16.3.2,5101,11511,14480,0,65535,65700,6,6,4,1460,601,1,992,70,33580,33580,65700,0,11621,0,0,0
i,0x00000000,1716935977.314309,172.16.1.2,40514,172.16.3.2,5101,11511,14480,0,65535,65700,6,6,4,1460,601,1,992,70,33580,33580,65700,0,13069,0,0,0
o,0x00000000,1716935977.314317,172.16.1.2,40514,172.16.3.2,5101,11511,14480,0,65728,65728,6,6,4,1460,582,1,992,66,33580,33543,65700,0,13032,0,0,0
i,0x00000000,1716935977.583918,172.16.1.2,40514,172.16.3.2,5101,11511,14480,0,65728,65728,6,6,4,1460,582,1,992,66,33580,33543,65700,0,14480,0,0,0
o,0x00000000,1716935977.583937,172.16.1.2,40514,172.16.3.2,5101,11511,14480,0,64256,65728,6,6,4,1460,630,1,992,73,33580,30647,65700,0,11584,0,0,0
o,0x00000000,1716935977.584022,172.16.1.2,40514,172.16.3.2,5101,11511,14480,0,64256,65728,6,6,4,1460,630,1,992,73,33580,30647,65700,0,13032,0,0,0
i,0x00000000,1716935977.584113,172.16.1.2,40514,172.16.3.2,5101,11511,14480,0,64256,65728,6,6,4,1460,630,1,992,73,33580,30647,65700,0,14480,0,0,0
o,0x00000000,1716935977.584117,172.16.1.2,40514,172.16.3.2,5101,11511,14480,0,64256,65728,6,6,4,1460,672,1,992,77,33580,27751,65700,0,11584,0,0,0
o,0x00000000,1716935977.584191,172.16.1.2,40514,172.16.3.2,5101,11511,14480,0,64256,65728,6,6,4,1460,672,1,992,77,33580,27751,65700,0,13032,0,0,0
i,0x00000000,1716935977.584265,172.16.1.2,40514,172.16.3.2,5101,11511,14480,0,64256,65728,6,6,4,1460,672,1,992,77,33580,27751,65700,0,14480,0,0,0
o,0x00000000,1716935977.584267,172.16.1.2,40514,172.16.3.2,5101,11511,14480,0,64256,65728,6,6,4,1460,708,1,992,78,33580,24855,65700,0,11584,0,0,0
o,0x00000000,1716935977.584342,172.16.1.2,40514,172.16.3.2,5101,11511,14480,0,64256,65728,6,6,4,1460,708,1,992,78,33580,24855,65700,0,13032,0,0,0
i,0x00000000,1716935977.584631,172.16.1.2,40514,172.16.3.2,5101,11511,14480,0,64256,65728,6,6,4,1460,708,1,992,78,33580,24855,65700,0,14480,0,0,0
o,0x00000000,1716935977.584634,172.16.1.2,40514,172.16.3.2,5101,11511,14480,0,64256,65728,6,6,4,1460,736,1,992,77,33580,21959,65700,0,11584,0,0,0
o,0x00000000,1716935977.584709,172.16.1.2,40514,172.16.3.2,5101,11511,14480,0,64256,65728,6,6,4,1460,736,1,992,77,33580,21959,65700,0,13032,0,0,0
i,0x00000000,1716935977.613851,172.16.1.2,40514,172.16.3.2,5101,11511,14480,0,64256,65728,6,6,4,1460,736,1,992,77,33580,33580,65700,0,14480,0,0,0
o,0x00000000,1716935977.613862,172.16.1.2,40514,172.16.3.2,5101,11511,15940,0,64256,65728,6,6,4,1460,772,1,992,78,33580,30684,65700,0,11584,0,0,0
o,0x00000000,1716935977.614108,172.16.1.2,40514,172.16.3.2,5101,11511,15940,0,64256,65728,6,6,4,1460,772,1,992,78,33580,30684,65700,0,13032,0,0,0
o,0x00000000,1716935977.614353,172.16.1.2,40514,172.16.3.2,5101,11511,15940,0,64256,65728,6,6,4,1460,772,1,992,78,33580,30684,65700,0,14480,0,0,0
i,0x00000000,1716935977.894785,172.16.1.2,40514,172.16.3.2,5101,11511,15940,0,64256,65728,6,6,4,1460,772,1,992,78,41772,41772,65700,0,15928,0,0,0
o,0x00000000,1716935977.894805,172.16.1.2,40514,172.16.3.2,5101,11511,15940,0,64256,65728,6,6,4,1460,800,1,992,78,41772,38876,65700,0,13032,0,0,0
o,0x00000000,1716935977.894890,172.16.1.2,40514,172.16.3.2,5101,11511,15940,0,64256,65728,6,6,4,1460,800,1,992,78,41772,38876,65700,0,14480,0,0,0
i,0x00000000,1716935977.894964,172.16.1.2,40514,172.16.3.2,5101,11511,15940,0,64256,65728,6,6,4,1460,800,1,992,78,41772,38876,65700,0,15928,0,0,0
o,0x00000000,1716935977.894968,172.16.1.2,40514,172.16.3.2,5101,11511,15940,0,64256,65728,6,6,4,1460,824,1,992,76,41772,35980,65700,0,13032,0,0,0
o,0x00000000,1716935977.895049,172.16.1.2,40514,172.16.3.2,5101,11511,15940,0,64256,65728,6,6,4,1460,824,1,992,76,41772,35980,65700,0,14480,0,0,0
i,0x00000000,1716935977.895135,172.16.1.2,40514,172.16.3.2,5101,11511,15940,0,64256,65728,6,6,4,1460,824,1,992,76,41772,35980,65700,0,15928,0,0,0
o,0x00000000,1716935977.895138,172.16.1.2,40514,172.16.3.2,5101,11511,15940,0,64256,65728,6,6,4,1460,845,1,992,74,41772,33084,65700,0,13032,0,0,0
o,0x00000000,1716935977.895217,172.16.1.2,40514,172.16.3.2,5101,11511,15940,0,64256,65728,6,6,4,1460,845,1,992,74,41772,33084,65700,0,14480,0,0,0
i,0x00000000,1716935977.895290,172.16.1.2,40514,172.16.3.2,5101,11511,15940,0,64256,65728,6,6,4,1460,845,1,992,74,41772,33084,65700,0,15928,0,0,0
o,0x00000000,1716935977.895293,172.16.1.2,40514,172.16.3.2,5101,11511,15940,0,64256,65728,6,6,4,1460,864,1,992,73,41772,30188,65700,0,13032,0,0,0
o,0x00000000,1716935977.895367,172.16.1.2,40514,172.16.3.2,5101,11511,15940,0,64256,65728,6,6,4,1460,864,1,992,73,41772,30188,65700,0,14480,0,0,0
i,0x00000000,1716935977.924783,172.16.1.2,40514,172.16.3.2,5101,11511,15940,0,64256,65728,6,6,4,1460,864,1,992,73,41772,41772,65700,0,15928,0,0,0
o,0x00000000,1716935977.924791,172.16.1.2,40514,172.16.3.2,5101,11511,15940,0,64256,65728,6,6,4,1460,880,1,992,71,41772,38876,65700,0,13032,0,0,0
o,0x00000000,1716935977.925032,172.16.1.2,40514,172.16.3.2,5101,11511,15940,0,64256,65728,6,6,4,1460,880,1,992,71,41772,38876,65700,0,14480,0,0,0
i,0x00000000,1716935978.134227,172.16.1.2,40514,172.16.3.2,5101,11511,15940,0,64256,65728,6,6,4,1460,880,1,992,71,41772,41772,65700,0,15928,0,0,0
o,0x00000000,1716935978.134246,172.16.1.2,40514,172.16.3.2,5101,11511,17400,0,65728,65728,6,6,4,1460,978,1,992,93,41772,40324,65700,0,14480,0,0,0
o,0x00000000,1716935978.134492,172.16.1.2,40514,172.16.3.2,5101,11511,17400,0,65728,65728,6,6,4,1460,978,1,992,93,41772,40324,65700,0,15928,0,0,0
i,0x00000000,1716935978.184003,172.16.1.2,40514,172.16.3.2,5101,11511,17400,0,65728,65728,6,6,4,1460,978,1,992,93,41772,40324,65700,0,17376,0,0,0
o,0x00000000,1716935978.184013,172.16.1.2,40514,172.16.3.2,5101,11511,17400,0,64256,65728,6,6,4,1460,968,1,992,84,41772,37428,65700,0,14480,0,0,0
o,0x00000000,1716935978.184099,172.16.1.2,40514,172.16.3.2,5101,11511,17400,0,64256,65728,6,6,4,1460,968,1,992,84,41772,37428,65700,0,15928,0,0,0
i,0x00000000,1716935978.184202,172.16.1.2,40514,172.16.3.2,5101,11511,17400,0,64256,65728,6,6,4,1460,968,1,992,84,41772,37428,65700,0,17376,0,0,0
o,0x00000000,1716935978.184206,172.16.1.2,40514,172.16.3.2,5101,11511,17400,0,64256,65728,6,6,4,1460,959,1,992,78,41772,34532,65700,0,14480,0,0,0
o,0x00000000,1716935978.184384,172.16.1.2,40514,172.16.3.2,5101,11511,17400,0,64256,65728,6,6,4,1460,959,1,992,78,41772,34532,65700,0,15928,0,0,0
i,0x00000000,1716935978.184458,172.16.1.2,40514,172.16.3.2,5101,11511,17400,0,64256,65728,6,6,4,1460,959,1,992,78,41772,34532,65700,0,17376,0,0,0
o,0x00000000,1716935978.184461,172.16.1.2,40514,172.16.3.2,5101,11511,17400,0,64256,65728,6,6,4,1460,952,1,992,72,41772,31636,65700,0,14480,0,0,0
o,0x00000000,1716935978.184535,172.16.1.2,40514,172.16.3.2,5101,11511,17400,0,64256,65728,6,6,4,1460,952,1,992,72,41772,31636,65700,0,15928,0,0,0
i,0x00000000,1716935978.184616,172.16.1.2,40514,172.16.3.2,5101,11511,17400,0,64256,65728,6,6,4,1460,952,1,992,72,41772,31636,65700,0,17376,0,0,0
o,0x00000000,1716935978.184619,172.16.1.2,40514,172.16.3.2,5101,11511,17400,0,64256,65728,6,6,4,1460,945,1,992,68,41772,28740,65700,0,14480,0,0,0
o,0x00000000,1716935978.184693,172.16.1.2,40514,172.16.3.2,5101,11511,17400,0,64256,65728,6,6,4,1460,945,1,992,68,41772,28740,65700,0,15928,0,0,0
i,0x00000000,1716935978.224532,172.16.1.2,40514,172.16.3.2,5101,11511,17400,0,64256,65728,6,6,4,1460,945,1,992,68,41772,41772,65700,0,17376,0,0,0
o,0x00000000,1716935978.224538,172.16.1.2,40514,172.16.3.2,5101,11511,17400,0,64256,65728,6,6,4,1460,943,1,992,64,41772,38876,65700,0,14480,0,0,0
o,0x00000000,1716935978.224770,172.16.1.2,40514,172.16.3.2,5101,11511,17400,0,64256,65728,6,6,4,1460,943,1,992,64,41772,38876,65700,0,15928,0,0,0
i,0x00000000,1716935978.444283,172.16.1.2,40514,172.16.3.2,5101,11511,17400,0,64256,65728,6,6,4,1460,943,1,992,64,41772,41772,65700,0,17376,0,0,0
o,0x00000000,1716935978.444301,172.16.1.2,40514,172.16.3.2,5101,11511,18860,0,64256,65728,6,6,4,1460,950,1,992,62,41772,38876,65700,0,14480,0,0,0
o,0x00000000,1716935978.444550,172.16.1.2,40514,172.16.3.2,5101,11511,18860,0,64256,65728,6,6,4,1460,950,1,992,62,41772,38876,65700,0,15928,0,0,0
o,0x00000000,1716935978.444778,172.16.1.2,40514,172.16.3.2,5101,11511,18860,0,64256,65728,6,6,4,1460,950,1,992,62,41772,38876,65700,0,17376,0,0,0
i,0x00000000,1716935978.504260,172.16.1.2,40514,172.16.3.2,5101,11511,18860,0,64256,65728,6,6,4,1460,950,1,992,62,41772,41772,65700,0,18824,0,0,0
o,0x00000000,1716935978.504280,172.16.1.2,40514,172.16.3.2,5101,11511,18860,0,64256,65728,6,6,4,1460,960,1,992,62,41772,38876,65700,0,15928,0,0,0
o,0x00000000,1716935978.504369,172.16.1.2,40514,172.16.3.2,5101,11511,18860,0,64256,65728,6,6,4,1460,960,1,992,62,41772,38876,65700,0,17376,0,0,0
i,0x00000000,1716935978.504456,172.16.1.2,40514,172.16.3.2,5101,11511,18860,0,64256,65728,6,6,4,1460,960,1,992,62,41772,38876,65700,0,18824,0,0,0
o,0x00000000,1716935978.504460,172.16.1.2,40514,172.16.3.2,5101,11511,18860,0,64256,65728,6,6,4,1460,968,1,992,61,41772,35980,65700,0,15928,0,0,0
o,0x00000000,1716935978.504541,172.16.1.2,40514,172.16.3.2,5101,11511,18860,0,64256,65728,6,6,4,1460,968,1,992,61,41772,35980,65700,0,17376,0,0,0
i,0x00000000,1716935978.504614,172.16.1.2,40514,172.16.3.2,5101,11511,18860,0,64256,65728,6,6,4,1460,968,1,992,61,41772,35980,65700,0,18824,0,0,0
o,0x00000000,1716935978.504617,172.16.1.2,40514,172.16.3.2,5101,11511,18860,0,64256,65728,6,6,4,1460,975,1,992,60,41772,33084,65700,0,15928,0,0,0
o,0x00000000,1716935978.504698,172.16.1.2,40514,172.16.3.2,5101,11511,18860,0,64256,65728,6,6,4,1460,975,1,992,60,41772,33084,65700,0,17376,0,0,0
i,0x00000000,1716935978.504772,172.16.1.2,40514,172.16.3.2,5101,11511,18860,0,64256,65728,6,6,4,1460,975,1,992,60,41772,33084,65700,0,18824,0,0,0
o,0x00000000,1716935978.504774,172.16.1.2,40514,172.16.3.2,5101,11511,18860,0,64256,65728,6,6,4,1460,982,1,992,60,41772,30188,65700,0,15928,0,0,0
o,0x00000000,1716935978.504847,172.16.1.2,40514,172.16.3.2,5101,11511,18860,0,64256,65728,6,6,4,1460,982,1,992,60,41772,30188,65700,0,17376,0,0,0
i,0x00000000,1716935978.544631,172.16.1.2,40514,172.16.3.2,5101,11511,18860,0,64256,65728,6,6,4,1460,982,1,992,60,41772,41772,65700,0,18824,0,0,0
o,0x00000000,1716935978.544644,172.16.1.2,40514,172.16.3.2,5101,11511,18860,0,64256,65728,6,6,4,1460,988,1,992,59,41772,38876,65700,0,15928,0,0,0
o,0x00000000,1716935978.544920,172.16.1.2,40514,172.16.3.2,5101,11511,18860,0,64256,65728,6,6,4,1460,988,1,992,59,41772,38876,65700,0,17376,0,0,0
i,0x00000000,1716935978.754881,172.16.1.2,40514,172.16.3.2,5101,11511,18860,0,64256,65728,6,6,4,1460,988,1,992,59,41772,41772,65700,0,18824,0,0,0
o,0x00000000,1716935978.754904,172.16.1.2,40514,172.16.3.2,5101,11511,18860,0,64256,65728,6,6,4,1460,985,1,992,58,41772,38876,65700,0,15928,0,0,0
o,0x00000000,1716935978.755215,172.16.1.2,40514,172.16.3.2,5101,11511,18860,0,64256,65728,6,6,4,1460,985,1,992,58,41772,38876,65700,0,17376,0,0,0
i,0x00000000,1716935978.784942,172.16.1.2,40514,172.16.3.2,5101,11511,18860,0,64256,65728,6,6,4,1460,985,1,992,58,41772,41772,65700,0,18824,0,0,0
o,0x00000000,1716935978.784961,172.16.1.2,40514,172.16.3.2,5101,11511,18860,0,65728,65728,6,6,4,1460,994,1,992,59,41772,40324,65700,0,17376,0,0,0
i,0x00000000,1716935978.804819,172.16.1.2,40514,172.16.3.2,5101,11511,18860,0,65728,65728,6,6,4,1460,994,1,992,59,41772,40324,65700,0,18824,0,0,0
o,0x00000000,1716935978.804836,172.16.1.2,40514,172.16.3.2,5101,11511,20320,0,64256,65728,6,6,4,1460,990,1,992,57,41772,37428,65700,0,15928,0,0,0
o,0x00000000,1716935978.804924,172.16.1.2,40514,172.16.3.2,5101,11511,20320,0,64256,65728,6,6,4,1460,990,1,992,57,49964,37428,65700,0,17376,0,0,0
o,0x00000000,1716935978.805026,172.16.1.2,40514,172.16.3.2,5101,11511,20320,0,64256,65728,6,6,4,1460,990,1,992,57,49964,37428,65700,0,18824,0,0,0
i,0x00000000,1716935978.805114,172.16.1.2,40514,172.16.3.2,5101,11511,20320,0,64256,65728,6,6,4,1460,990,1,992,57,49964,37428,65700,0,20272,0,0,0
o,0x00000000,1716935978.805118,172.16.1.2,40514,172.16.3.2,5101,11511,20320,0,64256,65728,6,6,4,1460,987,1,992,56,49964,34532,65700,0,17376,0,0,0
o,0x00000000,1716935978.805197,172.16.1.2,40514,172.16.3.2,5101,11511,20320,0,64256,65728,6,6,4,1460,987,1,992,56,49964,34532,65700,0,18824,0,0,0
i,0x00000000,1716935978.805277,172.16.1.2,40514,172.16.3.2,5101,11511,20320,0,64256,65728,6,6,4,1460,987,1,992,56,49964,34532,65700,0,20272,0,0,0
o,0x00000000,1716935978.805280,172.16.1.2,40514,172.16.3.2,5101,11511,20320,0,64256,65728,6,6,4,1460,984,1,992,56,49964,31636,65700,0,17376,0,0,0
o,0x00000000,1716935978.805356,172.16.1.2,40514,172.16.3.2,5101,11511,20320,0,64256,65728,6,6,4,1460,984,1,992,56,49964,31636,65700,0,18824,0,0,0
i,0x00000000,1716935978.815004,172.16.1.2,40514,172.16.3.2,5101,11511,20320,0,64256,65728,6,6,4,1460,984,1,992,56,49964,49964,65700,0,20272,0,0,0
o,0x00000000,1716935978.815009,172.16.1.2,40514,172.16.3.2,5101,11511,20320,0,64256,65728,6,6,4,1460,981,1,992,55,49964,47068,65700,0,17376,0,0,0
o,0x00000000,1716935978.815259,172.16.1.2,40514,172.16.3.2,5101,11511,20320,0,64256,65728,6,6,4,1460,981,1,992,55,49964,47068,65700,0,18824,0,0,0
i,0x00000000,1716935978.933980,172.16.1.2,40514,172.16.3.2,5101,11511,20320,0,64256,65728,6,6,4,1460,981,1,992,55,49964,49964,65700,0,20272,0,0,0
o,0x00000000,1716935978.933992,172.16.1.2,40514,172.16.3.2,5101,11511,20320,0,64256,65728,6,6,4,1460,1015,1,992,63,49964,47068,65700,0,17376,0,0,0
o,0x00000000,1716935978.934238,172.16.1.2,40514,172.16.3.2,5101,11511,20320,0,64256,65728,6,6,4,1460,1015,1,992,63,49964,47068,65700,0,18824,0,0,0
i,0x00000000,1716935979.104328,172.16.1.2,40514,172.16.3.2,5101,11511,20320,0,64256,65728,6,6,4,1460,1015,1,992,63,49964,49964,65700,0,20272,0,0,0
o,0x00000000,1716935979.104343,172.16.1.2,40514,172.16.3.2,5101,11511,20320,0,64256,65728,6,6,4,1460,1029,1,992,64,49964,47068,65700,0,17376,0,0,0
o,0x00000000,1716935979.104591,172.16.1.2,40514,172.16.3.2,5101,11511,20320,0,64256,65728,6,6,4,1460,1029,1,992,64,49964,47068,65700,0,18824,0,0,0
i,0x00000000,1716935979.124392,172.16.1.2,40514,172.16.3.2,5101,11511,20320,0,64256,65728,6,6,4,1460,1029,1,992,64,49964,49964,65700,0,20272,0,0,0
o,0x00000000,1716935979.124401,172.16.1.2,40514,172.16.3.2,5101,11511,20320,0,64256,65728,6,6,4,1460,1037,1,992,64,49964,47068,65700,0,17376,0,0,0
o,0x00000000,1716935979.124516,172.16.1.2,40514,172.16.3.2,5101,11511,20320,0,64256,65728,6,6,4,1460,1037,1,992,64,49964,47068,65700,0,18824,0,0,0
i,0x00000000,1716935979.124606,172.16.1.2,40514,172.16.3.2,5101,11511,20320,0,64256,65728,6,6,4,1460,1037,1,992,64,49964,47068,65700,0,20272,0,0,0
o,0x00000000,1716935979.124608,172.16.1.2,40514,172.16.3.2,5101,11511,21780,0,64256,65728,6,6,4,1460,1032,1,992,62,49964,44172,65700,0,17376,0,0,0
o,0x00000000,1716935979.124683,172.16.1.2,40514,172.16.3.2,5101,11511,21780,0,64256,65728,6,6,4,1460,1032,1,992,62,49964,44172,65700,0,18824,0,0,0
o,0x00000000,1716935979.124756,172.16.1.2,40514,172.16.3.2,5101,11511,21780,0,64256,65728,6,6,4,1460,1032,1,992,62,49964,44172,65700,0,20272,0,0,0
i,0x00000000,1716935979.124830,172.16.1.2,40514,172.16.3.2,5101,11511,21780,0,64256,65728,6,6,4,1460,1032,1,992,62,49964,44172,65700,0,21720,0,0,0
o,0x00000000,1716935979.124832,172.16.1.2,40514,172.16.3.2,5101,11511,21780,0,64256,65728,6,6,4,1460,1027,1,992,61,49964,41276,65700,0,18824,0,0,0
o,0x00000000,1716935979.124905,172.16.1.2,40514,172.16.3.2,5101,11511,21780,0,64256,65728,6,6,4,1460,1027,1,992,61,49964,41276,65700,0,20272,0,0,0
i,0x00000000,1716935979.125189,172.16.1.2,40514,172.16.3.2,5101,11511,21780,0,64256,65728,6,6,4,1460,1027,1,992,61,49964,41276,65700,0,21720,0,0,0
o,0x00000000,1716935979.125191,172.16.1.2,40514,172.16.3.2,5101,11511,21780,0,64256,65728,6,6,4,1460,1023,1,992,59,49964,38380,65700,0,18824,0,0,0
o,0x00000000,1716935979.125272,172.16.1.2,40514,172.16.3.2,5101,11511,21780,0,64256,65728,6,6,4,1460,1023,1,992,59,49964,38380,65700,0,20272,0,0,0
i,0x00000000,1716935979.154895,172.16.1.2,40514,172.16.3.2,5101,11511,21780,0,64256,65728,6,6,4,1460,1023,1,992,59,49964,49964,65700,0,21720,0,0,0
o,0x00000000,1716935979.154901,172.16.1.2,40514,172.16.3.2,5101,11511,21780,0,64256,65728,6,6,4,1460,1028,1,992,59,49964,47068,65700,0,18824,0,0,0
o,0x00000000,1716935979.155142,172.16.1.2,40514,172.16.3.2,5101,11511,21780,0,64256,65728,6,6,4,1460,1028,1,992,59,49964,47068,65700,0,20272,0,0,0
i,0x00000000,1716935979.283589,172.16.1.2,40514,172.16.3.2,5101,11511,21780,0,64256,65728,6,6,4,1460,1028,1,992,59,49964,49964,65700,0,21720,0,0,0
o,0x00000000,1716935979.283611,172.16.1.2,40514,172.16.3.2,5101,11511,21780,0,64256,65728,6,6,4,1460,1040,1,992,61,49964,47068,65700,0,18824,0,0,0
o,0x00000000,1716935979.283872,172.16.1.2,40514,172.16.3.2,5101,11511,21780,0,64256,65728,6,6,4,1460,1040,1,992,61,49964,47068,65700,0,20272,0,0,0
i,0x00000000,1716935979.465026,172.16.1.2,40514,172.16.3.2,5101,11511,21780,0,64256,65728,6,6,4,1460,1040,1,992,61,49964,49964,65700,0,21720,0,0,0
o,0x00000000,1716935979.465051,172.16.1.2,40514,172.16.3.2,5101,11511,21780,0,64256,65728,6,6,4,1460,1054,1,992,62,49964,47068,65700,0,18824,0,0,0
o,0x00000000,1716935979.465323,172.16.1.2,40514,172.16.3.2,5101,11511,21780,0,64256,65728,6,6,4,1460,1054,1,992,62,49964,47068,65700,0,20272,0,0,0
i,0x00000000,1716935979.494947,172.16.1.2,40514,172.16.3.2,5101,11511,21780,0,64256,65728,6,6,4,1460,1054,1,992,62,49964,49964,65700,0,21720,0,0,0
o,0x00000000,1716935979.494983,172.16.1.2,40514,172.16.3.2,5101,11511,21780,0,64256,65728,6,6,4,1460,1071,1,992,65,49964,47068,65700,0,18824,0,0,0
o,0x00000000,1716935979.495280,172.16.1.2,40514,172.16.3.2,5101,11511,21780,0,64256,65728,6,6,4,1460,1071,1,992,65,49964,47068,65700,0,20272,0,0,0
i,0x00000000,1716935979.495368,172.16.1.2,40514,172.16.3.2,5101,11511,21780,0,64256,65728,6,6,4,1460,1071,1,992,65,49964,47068,65700,0,21720,0,0,0
o,0x00000000,1716935979.495371,172.16.1.2,40514,172.16.3.2,5101,11511,23240,0,64256,65728,6,6,4,1460,1086,1,992,66,49964,44172,65700,0,18824,0,0,0
o,0x00000000,1716935979.495443,172.16.1.2,40514,172.16.3.2,5101,11511,23240,0,64256,65728,6,6,4,1460,1086,1,992,66,49964,44172,65700,0,20272,0,0,0
o,0x00000000,1716935979.495522,172.16.1.2,40514,172.16.3.2,5101,11511,23240,0,64256,65728,6,6,4,1460,1086,1,992,66,58156,44172,65700,0,21720,0,0,0
i,0x00000000,1716935979.495919,172.16.1.2,40514,172.16.3.2,5101,11511,23240,0,64256,65728,6,6,4,1460,1086,1,992,66,58156,44172,65700,0,23168,0,0,0
o,0x00000000,1716935979.495923,172.16.1.2,40514,172.16.3.2,5101,11511,23240,0,64256,65728,6,6,4,1460,1099,1,992,67,58156,41276,65700,0,20272,0,0,0
o,0x00000000,1716935979.496029,172.16.1.2,40514,172.16.3.2,5101,11511,23240,0,64256,65728,6,6,4,1460,1099,1,992,67,58156,41276,65700,0,21720,0,0,0
i,0x00000000,1716935979.496123,172.16.1.2,40514,172.16.3.2,5101,11511,23240,0,64256,65728,6,6,4,1460,1099,1,992,67,58156,41276,65700,0,23168,0,0,0
o,0x00000000,1716935979.496126,172.16.1.2,40514,172.16.3.2,5101,11511,23240,0,64256,65728,6,6,4,1460,1110,1,992,67,58156,38380,65700,0,20272,0,0,0
o,0x00000000,1716935979.496303,172.16.1.2,40514,172.16.3.2,5101,11511,23240,0,64256,65728,6,6,4,1460,1110,1,992,67,58156,38380,65700,0,21720,0,0,0
i,0x00000000,1716935979.514421,172.16.1.2,40514,172.16.3.2,5101,11511,23240,0,64256,65728,6,6,4,1460,1110,1,992,67,58156,58156,65700,0,23168,0,0,0
o,0x00000000,1716935979.514433,172.16.1.2,40514,172.16.3.2,5101,11511,23240,0,65728,65728,6,6,4,1460,1128,1,992,69,58156,56708,65700,0,21720,0,0,0
i,0x00000000,1716935979.514669,172.16.1.2,40514,172.16.3.2,5101,11511,23240,0,65728,65728,6,6,4,1460,1128,1,992,69,58156,56708,65700,0,23168,0,0,0
o,0x00000000,1716935979.514671,172.16.1.2,40514,172.16.3.2,5101,11511,23240,0,64256,65728,6,6,4,1460,1131,1,992,66,58156,53812,65700,0,20272,0,0,0
o,0x00000000,1716935979.514972,172.16.1.2,40514,172.16.3.2,5101,11511,23240,0,64256,65728,6,6,4,1460,1131,1,992,66,58156,53812,65700,0,21720,0,0,0
i,0x00000000,1716935979.653910,172.16.1.2,40514,172.16.3.2,5101,11511,23240,0,64256,65728,6,6,4,1460,1131,1,992,66,58156,58156,65700,0,23168,0,0,0
o,0x00000000,1716935979.653928,172.16.1.2,40514,172.16.3.2,5101,11511,23240,0,64256,65728,6,6,4,1460,1138,1,992,65,58156,55260,65700,0,20272,0,0,0
o,0x00000000,1716935979.654174,172.16.1.2,40514,172.16.3.2,5101,11511,23240,0,64256,65728,6,6,4,1460,1138,1,992,65,58156,55260,65700,0,21720,0,0,0
i,0x00000000,1716935979.854540,172.16.1.2,40514,172.16.3.2,5101,11511,23240,0,64256,65728,6,6,4,1460,1138,1,992,65,58156,58156,65700,0,23168,0,0,0
o,0x00000000,1716935979.854561,172.16.1.2,40514,172.16.3.2,5101,11511,23240,0,64256,65728,6,6,4,1460,1152,1,992,67,58156,55260,65700,0,20272,0,0,0
o,0x00000000,1716935979.854847,172.16.1.2,40514,172.16.3.2,5101,11511,23240,0,64256,65728,6,6,4,1460,1152,1,992,67,58156,55260,65700,0,21720,0,0,0
i,0x00000000,1716935979.883751,172.16.1.2,40514,172.16.3.2,5101,11511,23240,0,64256,65728,6,6,4,1460,1152,1,992,67,58156,58156,65700,0,23168,0,0,0
o,0x00000000,1716935979.883761,172.16.1.2,40514,172.16.3.2,5101,11511,23240,0,64256,65728,6,6,4,1460,1160,1,992,66,58156,55260,65700,0,20272,0,0,0
o,0x00000000,1716935979.883841,172.16.1.2,40514,172.16.3.2,5101,11511,23240,0,64256,65728,6,6,4,1460,1160,1,992,66,58156,55260,65700,0,21720,0,0,0
i,0x00000000,1716935979.883916,172.16.1.2,40514,172.16.3.2,5101,11511,23240,0,64256,65728,6,6,4,1460,1160,1,992,66,58156,55260,65700,0,23168,0,0,0
o,0x00000000,1716935979.883920,172.16.1.2,40514,172.16.3.2,5101,11511,23240,0,64256,65728,6,6,4,1460,1167,1,992,66,58156,52364,65700,0,20272,0,0,0
o,0x00000000,1716935979.883993,172.16.1.2,40514,172.16.3.2,5101,11511,23240,0,64256,65728,6,6,4,1460,1167,1,992,66,58156,52364,65700,0,21720,0,0,0
i,0x00000000,1716935979.884067,172.16.1.2,40514,172.16.3.2,5101,11511,23240,0,64256,65728,6,6,4,1460,1167,1,992,66,58156,52364,65700,0,23168,0,0,0
o,0x00000000,1716935979.884069,172.16.1.2,40514,172.16.3.2,5101,11511,24700,0,64256,65728,6,6,4,1460,1174,1,992,65,58156,49468,65700,0,20272,0,0,0
o,0x00000000,1716935979.884141,172.16.1.2,40514,172.16.3.2,5101,11511,24700,0,64256,65728,6,6,4,1460,1174,1,992,65,58156,49468,65700,0,21720,0,0,0
o,0x00000000,1716935979.884213,172.16.1.2,40514,172.16.3.2,5101,11511,24700,0,64256,65728,6,6,4,1460,1174,1,992,65,58156,49468,65700,0,23168,0,0,0
i,0x00000000,1716935979.884293,172.16.1.2,40514,172.16.3.2,5101,11511,24700,0,64256,65728,6,6,4,1460,1174,1,992,65,58156,49468,65700,0,24616,0,0,0
o,0x00000000,1716935979.884295,172.16.1.2,40514,172.16.3.2,5101,11511,24700,0,64256,65728,6,6,4,1460,1180,1,992,65,58156,46572,65700,0,21720,0,0,0
o,0x00000000,1716935979.884368,172.16.1.2,40514,172.16.3.2,5101,11511,24700,0,64256,65728,6,6,4,1460,1180,1,992,65,58156,46572,65700,0,23168,0,0,0
i,0x00000000,1716935979.904077,172.16.1.2,40514,172.16.3.2,5101,11511,24700,0,64256,65728,6,6,4,1460,1180,1,992,65,58156,58156,65700,0,24616,0,0,0
o,0x00000000,1716935979.904087,172.16.1.2,40514,172.16.3.2,5101,11511,24700,0,65728,65728,6,6,4,1460,1193,1,992,67,58156,56708,65700,0,23168,0,0,0
i,0x00000000,1716935979.904326,172.16.1.2,40514,172.16.3.2,5101,11511,24700,0,65728,65728,6,6,4,1460,1193,1,992,67,58156,56708,65700,0,24616,0,0,0
o,0x00000000,1716935979.904329,172.16.1.2,40514,172.16.3.2,5101,11511,24700,0,64256,65728,6,6,4,1460,1200,1,992,66,58156,53812,65700,0,21720,0,0,0
o,0x00000000,1716935979.904562,172.16.1.2,40514,172.16.3.2,5101,11511,24700,0,64256,65728,6,6,4,1460,1200,1,992,66,58156,53812,65700,0,23168,0,0,0
i,0x00000000,1716935980.045113,172.16.1.2,40514,172.16.3.2,5101,11511,24700,0,64256,65728,6,6,4,1460,1200,1,992,66,58156,58156,65700,0,24616,0,0,0
o,0x00000000,1716935980.045125,172.16.1.2,40514,172.16.3.2,5101,11511,24700,0,64256,65728,6,6,4,1460,1262,1,992,81,58156,55260,65700,0,21720,0,0,0
o,0x00000000,1716935980.045485,172.16.1.2,40514,172.16.3.2,5101,11511,24700,0,64256,65728,6,6,4,1460,1262,1,992,81,58156,55260,65700,0,23168,0,0,0
i,0x00000000,1716935980.243655,172.16.1.2,40514,172.16.3.2,5101,11511,24700,0,64256,65728,6,6,4,1460,1262,1,992,81,58156,58156,65700,0,24616,0,0,0
o,0x00000000,1716935980.243673,172.16.1.2,40514,172.16.3.2,5101,11511,24700,0,65728,65728,6,6,4,1460,1337,1,992,97,58156,56708,65700,0,23168,0,0,0
i,0x00000000,1716935980.243760,172.16.1.2,40514,172.16.3.2,5101,11511,24700,0,65728,65728,6,6,4,1460,1337,1,992,97,58156,56708,65700,0,24616,0,0,0
o,0x00000000,1716935980.243765,172.16.1.2,40514,172.16.3.2,5101,11511,24700,0,64256,65728,6,6,4,1460,1326,1,992,91,58156,53812,65700,0,21720,0,0,0
o,0x00000000,1716935980.243839,172.16.1.2,40514,172.16.3.2,5101,11511,24700,0,64256,65728,6,6,4,1460,1326,1,992,91,58156,53812,65700,0,23168,0,0,0
i,0x00000000,1716935980.274204,172.16.1.2,40514,172.16.3.2,5101,11511,24700,0,64256,65728,6,6,4,1460,1326,1,992,91,58156,58156,65700,0,24616,0,0,0
o,0x00000000,1716935980.274214,172.16.1.2,40514,172.16.3.2,5101,11511,24700,0,64256,65728,6,6,4,1460,1317,1,992,85,58156,55260,65700,0,21720,0,0,0
o,0x00000000,1716935980.274302,172.16.1.2,40514,172.16.3.2,5101,11511,24700,0,64256,65728,6,6,4,1460,1317,1,992,85,58156,55260,65700,0,23168,0,0,0
i,0x00000000,1716935980.274377,172.16.1.2,40514,172.16.3.2,5101,11511,24700,0,64256,65728,6,6,4,1460,1317,1,992,85,58156,55260,65700,0,24616,0,0,0
o,0x00000000,1716935980.274380,172.16.1.2,40514,172.16.3.2,5101,11511,24700,0,64256,65728,6,6,4,1460,1309,1,992,81,58156,52364,65700,0,21720,0,0,0
o,0x00000000,1716935980.274453,172.16.1.2,40514,172.16.3.2,5101,11511,24700,0,64256,65728,6,6,4,1460,1309,1,992,81,58156,52364,65700,0,23168,0,0,0
i,0x00000000,1716935980.274526,172.16.1.2,40514,172.16.3.2,5101,11511,24700,0,64256,65728,6,6,4,1460,1309,1,992,81,58156,52364,65700,0,24616,0,0,0
o,0x00000000,1716935980.274529,172.16.1.2,40514,172.16.3.2,5101,11511,26160,0,64256,65728,6,6,4,1460,1302,1,992,78,58156,49468,65700,0,21720,0,0,0
o,0x00000000,1716935980.274621,172.16.1.2,40514,172.16.3.2,5101,11511,26160,0,64256,65728,6,6,4,1460,1302,1,992,78,58156,49468,65700,0,23168,0,0,0
o,0x00000000,1716935980.274708,172.16.1.2,40514,172.16.3.2,5101,11511,26160,0,64256,65728,6,6,4,1460,1302,1,992,78,58156,49468,65700,0,24616,0,0,0
i,0x00000000,1716935980.274988,172.16.1.2,40514,172.16.3.2,5101,11511,26160,0,64256,65728,6,6,4,1460,1302,1,992,78,58156,49468,65700,0,26064,0,0,0
o,0x00000000,1716935980.274991,172.16.1.2,40514,172.16.3.2,5101,11511,26160,0,64256,65728,6,6,4,1460,1296,1,992,75,58156,46572,65700,0,23168,0,0,0
o,0x00000000,1716935980.275067,172.16.1.2,40514,172.16.3.2,5101,11511,26160,0,64256,65728,6,6,4,1460,1296,1,992,75,58156,46572,65700,0,24616,0,0,0
i,0x00000000,1716935980.314377,172.16.1.2,40514,172.16.3.2,5101,11511,26160,0,64256,65728,6,6,4,1460,1296,1,992,75,58156,58156,65700,0,26064,0,0,0
o,0x00000000,1716935980.314398,172.16.1.2,40514,172.16.3.2,5101,11511,26160,0,65728,65728,6,6,4,1460,1306,1,992,74,58156,56708,65700,0,24616,0,0,0
i,0x00000000,1716935980.314553,172.16.1.2,40514,172.16.3.2,5101,11511,26160,0,65728,65728,6,6,4,1460,1306,1,992,74,58156,56708,65700,0,26064,0,0,0
o,0x00000000,1716935980.314559,172.16.1.2,40514,172.16.3.2,5101,11511,26160,0,64256,65728,6,6,4,1460,1307,1,992,71,58156,53812,65700,0,23168,0,0,0
o,0x00000000,1716935980.314667,172.16.1.2,40514,172.16.3.2,5101,11511,26160,0,64256,65728,6,6,4,1460,1307,1,992,71,58156,53812,65700,0,24616,0,0,0
i,0x00000000,1716935980.454462,172.16.1.2,40514,172.16.3.2,5101,11511,26160,0,64256,65728,6,6,4,1460,1307,1,992,71,58156,58156,65700,0,26064,0,0,0
o,0x00000000,1716935980.454482,172.16.1.2,40514,172.16.3.2,5101,11511,26160,0,64256,65728,6,6,4,1460,1360,1,992,84,58156,55260,65700,0,23168,0,0,0
o,0x00000000,1716935980.454736,172.16.1.2,40514,172.16.3.2,5101,11511,26160,0,64256,65728,6,6,4,1460,1360,1,992,84,58156,55260,65700,0,24616,0,0,0
i,0x00000000,1716935980.604553,172.16.1.2,40514,172.16.3.2,5101,11511,26160,0,64256,65728,6,6,4,1460,1360,1,992,84,58156,58156,65700,0,26064,0,0,0
o,0x00000000,1716935980.604578,172.16.1.2,40514,172.16.3.2,5101,11511,26160,0,65728,65728,6,6,4,1460,1414,1,992,93,58156,56708,65700,0,24616,0,0,0
i,0x00000000,1716935980.654506,172.16.1.2,40514,172.16.3.2,5101,11511,26160,0,65728,65728,6,6,4,1460,1414,1,992,93,58156,56708,65700,0,26064,0,0,0
o,0x00000000,1716935980.654517,172.16.1.2,40514,172.16.3.2,5101,11511,26160,0,64256,65728,6,6,4,1460,1402,1,992,89,58156,53812,65700,0,23168,0,0,0
o,0x00000000,1716935980.654752,172.16.1.2,40514,172.16.3.2,5101,11511,26160,0,64256,65728,6,6,4,1460,1402,1,992,89,58156,53812,65700,0,24616,0,0,0
i,0x00000000,1716935980.683654,172.16.1.2,40514,172.16.3.2,5101,11511,26160,0,64256,65728,6,6,4,1460,1402,1,992,89,58156,58156,65700,0,26064,0,0,0
o,0x00000000,1716935980.683672,172.16.1.2,40514,172.16.3.2,5101,11511,26160,0,65728,65728,6,6,4,1460,1403,1,992,83,58156,56708,65700,0,24616,0,0,0
i,0x00000000,1716935980.694777,172.16.1.2,40514,172.16.3.2,5101,11511,26160,0,65728,65728,6,6,4,1460,1403,1,992,83,58156,56708,65700,0,26064,0,0,0
o,0x00000000,1716935980.694785,172.16.1.2,40514,172.16.3.2,5101,11511,26160,0,64256,65728,6,6,4,1460,1396,1,992,80,58156,53812,65700,0,23168,0,0,0
o,0x00000000,1716935980.694865,172.16.1.2,40514,172.16.3.2,5101,11511,26160,0,64256,65728,6,6,4,1460,1396,1,992,80,58156,53812,65700,0,24616,0,0,0
i,0x00000000,1716935980.694939,172.16.1.2,40514,172.16.3.2,5101,11511,26160,0,64256,65728,6,6,4,1460,1396,1,992,80,58156,53812,65700,0,26064,0,0,0
o,0x00000000,1716935980.694943,172.16.1.2,40514,172.16.3.2,5101,11511,26160,0,64256,65728,6,6,4,1460,1390,1,992,77,58156,50916,65700,0,23168,0,0,0
o,0x00000000,1716935980.695038,172.16.1.2,40514,172.16.3.2,5101,11511,26160,0,64256,65728,6,6,4,1460,1390,1,992,77,58156,50916,65700,0,24616,0,0,0
i,0x00000000,1716935980.695112,172.16.1.2,40514,172.16.3.2,5101,11511,26160,0,64256,65728,6,6,4,1460,1390,1,992,77,66348,50916,65700,0,26064,0,0,0
o,0x00000000,1716935980.695124,172.16.1.2,40514,172.16.3.2,5101,11511,26160,0,64256,65728,6,6,4,1460,1385,1,992,75,66348,48020,65700,0,23168,0,0,0
o,0x00000000,1716935980.695197,172.16.1.2,40514,172.16.3.2,5101,11511,26160,0,64256,65728,6,6,4,1460,1385,1,992,75,66348,48020,65700,0,24616,0,0,0
i,0x00000000,1716935980.744572,172.16.1.2,40514,172.16.3.2,5101,11511,26160,0,64256,65728,6,6,4,1460,1385,1,992,75,66348,66348,65700,0,26064,0,0,0
o,0x00000000,1716935980.744580,172.16.1.2,40514,172.16.3.2,5101,11511,27620,0,65728,65728,6,6,4,1460,1400,1,992,76,66348,62004,65700,0,21720,0,0,0
o,0x00000000,1716935980.744815,172.16.1.2,40514,172.16.3.2,5101,11511,27620,0,65728,65728,6,6,4,1460,1400,1,992,76,66348,62004,65700,0,23168,0,0,0
o,0x00000000,1716935980.745046,172.16.1.2,40514,172.16.3.2,5101,11511,27620,0,65728,65728,6,6,4,1460,1400,1,992,76,66348,62004,65700,0,24616,0,0,0
o,0x00000000,1716935980.745274,172.16.1.2,40514,172.16.3.2,5101,11511,27620,0,65728,65728,6,6,4,1460,1400,1,992,76,66348,62004,65700,0,26064,0,0,0
i,0x00000000,1716935980.824714,172.16.1.2,40514,172.16.3.2,5101,11511,27620,0,65728,65728,6,6,4,1460,1400,1,992,76,66348,66348,65700,0,27512,0,0,0
o,0x00000000,1716935980.824742,172.16.1.2,40514,172.16.3.2,5101,11511,30408,0,65728,65728,6,6,4,1460,1400,1,992,76,66348,66348,65700,0,27512,0,0,0
o,0x00000000,1716935980.824877,172.16.1.2,40514,172.16.3.2,5101,11511,30408,0,65728,65728,6,6,4,1460,1400,1,992,76,66348,66348,65700,0,28960,0,0,0
i,0x00000000,1716935980.824959,172.16.1.2,40514,172.16.3.2,5101,11511,27620,0,65728,65728,6,6,4,1460,1400,1,992,76,66348,66348,65700,0,30408,0,0,0
o,0x00000000,1716935980.824963,172.16.1.2,40514,172.16.3.2,5101,13032,1448,0,65728,65728,6,6,4,1460,1400,1,537920480,76,66348,66348,65700,0,30408,0,0,0
i,0x00000000,1716935980.933552,172.16.1.2,40514,172.16.3.2,5101,13032,1448,0,65728,65728,6,6,4,1460,1400,1,537920480,76,66348,66348,65700,0,30408,0,0,0
o,0x00000000,1716935980.933568,172.16.1.2,40514,172.16.3.2,5101,13032,2896,0,65728,65728,6,6,4,1460,1400,1,537920480,76,66348,66348,65700,0,30408,0,0,0
i,0x00000000,1716935981.013954,172.16.1.2,40514,172.16.3.2,5101,13032,2896,0,65728,65728,6,6,4,1460,1400,1,537920480,76,66348,66348,65700,0,31856,0,0,0
i,0x00000000,1716935981.044463,172.16.1.2,40514,172.16.3.2,5101,13032,2896,0,65728,65728,6,6,4,1460,1400,1,537920480,76,66348,66348,65700,0,31856,0,0,0
o,0x00000000,1716935981.044472,172.16.1.2,40514,172.16.3.2,5101,13032,5792,0,65728,65728,6,6,4,1460,1400,1,537920480,76,66348,66348,65700,0,31856,0,0,0
o,0x00000000,1716935981.044575,172.16.1.2,40514,172.16.3.2,5101,13032,5792,0,65728,65728,6,6,4,1460,1400,1,537920480,76,66348,66348,65700,0,33304,0,0,0
i,0x00000000,1716935981.044650,172.16.1.2,40514,172.16.3.2,5101,13032,5792,0,65728,65728,6,6,4,1460,1400,1,537920480,76,66348,66348,65700,0,34752,0,0,0
o,0x00000000,1716935981.044653,172.16.1.2,40514,172.16.3.2,5101,13032,7240,0,65728,65728,6,6,4,1460,1400,1,537920480,76,66348,66348,65700,0,34752,0,0,0
i,0x00000000,1716935981.064072,172.16.1.2,40514,172.16.3.2,5101,13032,7240,0,65728,65728,6,6,4,1460,1400,1,537920480,76,66348,66348,65700,0,36200,0,0,0
i,0x00000000,1716935981.064076,172.16.1.2,40514,172.16.3.2,5101,13032,7240,0,65728,65728,6,6,4,1460,1400,1,537920480,76,66348,66348,65700,0,36200,0,0,0
o,0x00000000,1716935981.064081,172.16.1.2,40514,172.16.3.2,5101,13032,8688,0,65728,65728,6,6,4,1460,1400,1,537920480,76,66348,66348,65700,0,36200,0,0,0
i,0x00000000,1716935981.064189,172.16.1.2,40514,172.16.3.2,5101,13032,8688,0,65728,65728,6,6,4,1460,1400,1,537920480,76,66348,66348,65700,0,36200,0,0,0
i,0x00000000,1716935981.064491,172.16.1.2,40514,172.16.3.2,5101,13032,8688,0,65728,65728,6,6,4,1460,1400,1,537920480,76,66348,66348,65700,0,36200,0,0,0
i,0x00000000,1716935981.104487,172.16.1.2,40514,172.16.3.2,5101,13032,8688,0,65728,65728,6,6,4,1460,1400,1,537920480,76,66348,66348,65700,0,36200,0,0,0
o,0x00000000,1716935981.104497,172.16.1.2,40514,172.16.3.2,5101,13032,13032,0,65728,65728,6,6,4,1460,1400,1,537920480,76,66348,66348,65700,0,36200,0,0,0
o,0x00000000,1716935981.104587,172.16.1.2,40514,172.16.3.2,5101,13032,13032,0,65728,65728,6,6,4,1460,1400,1,537920480,76,66348,66348,65700,0,36200,0,0,0
o,0x00000000,1716935981.104663,172.16.1.2,40514,172.16.3.2,5101,13032,13032,0,65728,65728,6,6,4,1460,1400,1,537920480,76,66348,66348,65700,0,36200,0,0,0
i,0x00000000,1716935981.104737,172.16.1.2,40514,172.16.3.2,5101,13032,13032,0,65728,65728,6,6,4,1460,1400,1,537920480,76,66348,66348,65700,0,37648,0,0,0
o,0x00000000,1716935981.104741,172.16.1.2,40514,172.16.3.2,5101,13032,13032,0,65728,65728,6,6,4,1460,1400,1,537920481,76,66348,66348,65700,0,37648,0,0,0
i,0x00000000,1716935981.104818,172.16.1.2,40514,172.16.3.2,5101,13032,13032,0,45504,65728,6,6,4,1460,1333,1,537920480,88,66348,46076,65700,0,18824,0,0,0
i,0x00000000,1716935981.154711,172.16.1.2,40514,172.16.3.2,5101,13032,13032,0,65728,65728,6,6,4,1460,1333,1,537920480,88,66348,66348,65700,0,18824,0,0,0
o,0x00000000,1716935981.154716,172.16.1.2,40514,172.16.3.2,5101,13032,14480,0,65728,65728,6,6,4,1460,1333,1,537920480,88,66348,66348,65700,0,18824,0,0,0
i,0x00000000,1716935981.274075,172.16.1.2,40514,172.16.3.2,5101,13032,14480,0,65728,65728,6,6,4,1460,1333,1,537920480,88,66348,66348,65700,0,20272,0,0,0
o,0x00000000,1716935981.274088,172.16.1.2,40514,172.16.3.2,5101,13032,15928,0,65728,65728,6,6,4,1460,1333,1,537920480,88,66348,66348,65700,0,20272,0,0,0
i,0x00000000,1716935981.274178,172.16.1.2,40514,172.16.3.2,5101,13032,15928,0,65728,65728,6,6,4,1460,1333,1,537920480,88,66348,66348,65700,0,21720,0,0,0
o,0x00000000,1716935981.274181,172.16.1.2,40514,172.16.3.2,5101,13032,17376,0,65728,65728,6,6,4,1460,1333,1,537920480,88,66348,66348,65700,0,21720,0,0,0
i,0x00000000,1716935981.274263,172.16.1.2,40514,172.16.3.2,5101,13032,17376,0,65728,65728,6,6,4,1460,1333,1,537920480,88,66348,66348,65700,0,23168,0,0,0
o,0x00000000,1716935981.274265,172.16.1.2,40514,172.16.3.2,5101,13032,18824,0,65728,65728,6,6,4,1460,1333,1,537920480,88,66348,66348,65700,0,23168,0,0,0
i,0x00000000,1716935981.303813,172.16.1.2,40514,172.16.3.2,5101,13032,18824,0,65728,65728,6,6,4,1460,1333,1,537920480,88,66348,66348,65700,0,24616,0,0,0
o,0x00000000,1716935981.303825,172.16.1.2,40514,172.16.3.2,5101,13032,18824,0,65728,65728,6,6,4,1460,1333,1,537920481,88,66348,66348,65700,0,24616,0,0,0
i,0x00000000,1716935981.335143,172.16.1.2,40514,172.16.3.2,5101,13032,18824,0,59968,65728,6,6,4,1460,1263,1,537920480,96,66348,66348,65700,0,20272,0,0,0
o,0x00000000,1716935981.335155,172.16.1.2,40514,172.16.3.2,5101,13032,18824,0,59968,65728,6,6,4,1460,1263,1,537920481,96,66348,66348,65700,0,20272,0,0,0
i,0x00000000,1716935981.335245,172.16.1.2,40514,172.16.3.2,5101,13032,18824,0,64256,65728,6,6,4,1460,1198,1,537920480,101,66348,64900,65700,0,20272,0,0,0
o,0x00000000,1716935981.335250,172.16.1.2,40514,172.16.3.2,5101,13032,13044,0,57024,65728,6,6,4,1460,1141,1,992,103,66348,56212,65700,0,11584,0,0,0
i,0x00000000,1716935981.335345,172.16.1.2,40514,172.16.3.2,5101,13032,13044,0,57024,65728,6,6,4,1460,1141,1,992,103,66348,56212,65700,0,13032,0,0,0
o,0x00000000,1716935981.335348,172.16.1.2,40514,172.16.3.2,5101,13032,13044,0,64256,65728,6,6,4,1460,1091,1,992,102,66348,53316,65700,0,10136,0,0,0
o,0x00000000,1716935981.335421,172.16.1.2,40514,172.16.3.2,5101,13032,13044,0,64256,65728,6,6,4,1460,1091,1,992,102,66348,53316,65700,0,11584,0,0,0
i,0x00000000,1716935981.444668,172.16.1.2,40514,172.16.3.2,5101,13032,13044,0,64256,65728,6,6,4,1460,1091,1,992,102,66348,66348,65700,0,13032,0,0,0
o,0x00000000,1716935981.444678,172.16.1.2,40514,172.16.3.2,5101,13032,13044,0,65728,65728,6,6,4,1460,1071,1,992,94,66348,64900,65700,0,11584,0,0,0
i,0x00000000,1716935981.494498,172.16.1.2,40514,172.16.3.2,5101,13032,13044,0,65728,65728,6,6,4,1460,1071,1,992,94,66348,64900,65700,0,13032,0,0,0
o,0x00000000,1716935981.494511,172.16.1.2,40514,172.16.3.2,5101,13032,14504,0,64256,65728,6,6,4,1460,1026,1,992,94,66348,62004,65700,0,10136,0,0,0
o,0x00000000,1716935981.494769,172.16.1.2,40514,172.16.3.2,5101,13032,14504,0,64256,65728,6,6,4,1460,1026,1,992,94,66348,62004,65700,0,11584,0,0,0
o,0x00000000,1716935981.495004,172.16.1.2,40514,172.16.3.2,5101,13032,14504,0,64256,65728,6,6,4,1460,1026,1,992,94,66348,62004,65700,0,13032,0,0,0
i,0x00000000,1716935981.504439,172.16.1.2,40514,172.16.3.2,5101,13032,14504,0,64256,65728,6,6,4,1460,1026,1,992,94,66348,66348,65700,0,14480,0,0,0
o,0x00000000,1716935981.504448,172.16.1.2,40514,172.16.3.2,5101,13032,14504,0,65728,65728,6,6,4,1460,986,1,992,92,66348,64900,65700,0,13032,0,0,0
i,0x00000000,1716935981.564969,172.16.1.2,40514,172.16.3.2,5101,13032,14504,0,65728,65728,6,6,4,1460,986,1,992,92,66348,64900,65700,0,14480,0,0,0
o,0x00000000,1716935981.564984,172.16.1.2,40514,172.16.3.2,5101,13032,14504,0,64256,65728,6,6,4,1460,967,1,992,86,66348,62004,65700,0,11584,0,0,0
o,0x00000000,1716935981.565073,172.16.1.2,40514,172.16.3.2,5101,13032,14504,0,64256,65728,6,6,4,1460,967,1,992,86,66348,62004,65700,0,13032,0,0,0
i,0x00000000,1716935981.565147,172.16.1.2,40514,172.16.3.2,5101,13032,14504,0,64256,65728,6,6,4,1460,967,1,992,86,66348,62004,65700,0,14480,0,0,0
o,0x00000000,1716935981.565151,172.16.1.2,40514,172.16.3.2,5101,13032,14504,0,64256,65728,6,6,4,1460,939,1,992,83,66348,59108,65700,0,11584,0,0,0
o,0x00000000,1716935981.565224,172.16.1.2,40514,172.16.3.2,5101,13032,14504,0,64256,65728,6,6,4,1460,939,1,992,83,66348,59108,65700,0,13032,0,0,0
i,0x00000000,1716935981.673834,172.16.1.2,40514,172.16.3.2,5101,13032,14504,0,64256,65728,6,6,4,1460,939,1,992,83,66348,66348,65700,0,14480,0,0,0
o,0x00000000,1716935981.673857,172.16.1.2,40514,172.16.3.2,5101,13032,14504,0,65728,65728,6,6,4,1460,958,1,992,80,66348,64900,65700,0,13032,0,0,0
i,0x00000000,1716935981.723196,172.16.1.2,40514,172.16.3.2,5101,13032,14504,0,65728,65728,6,6,4,1460,958,1,992,80,66348,64900,65700,0,14480,0,0,0
o,0x00000000,1716935981.723213,172.16.1.2,40514,172.16.3.2,5101,13032,14504,0,64256,65728,6,6,4,1460,951,1,992,74,66348,62004,65700,0,11584,0,0,0
o,0x00000000,1716935981.723525,172.16.1.2,40514,172.16.3.2,5101,13032,14504,0,64256,65728,6,6,4,1460,951,1,992,74,66348,62004,65700,0,13032,0,0,0
i,0x00000000,1716935981.723752,172.16.1.2,40514,172.16.3.2,5101,13032,14504,0,64256,65728,6,6,4,1460,951,1,992,74,66348,62004,65700,0,14480,0,0,0
o,0x00000000,1716935981.723756,172.16.1.2,40514,172.16.3.2,5101,13032,15964,0,64256,65728,6,6,4,1460,921,1,992,75,66348,59108,65700,0,11584,0,0,0
o,0x00000000,1716935981.723992,172.16.1.2,40514,172.16.3.2,5101,13032,15964,0,64256,65728,6,6,4,1460,921,1,992,75,66348,59108,65700,0,13032,0,0,0
o,0x00000000,1716935981.724224,172.16.1.2,40514,172.16.3.2,5101,13032,15964,0,64256,65728,6,6,4,1460,921,1,992,75,66348,59108,65700,0,14480,0,0,0
i,0x00000000,1716935981.814568,172.16.1.2,40514,172.16.3.2,5101,13032,15964,0,64256,65728,6,6,4,1460,921,1,992,75,66348,66348,65700,0,15928,0,0,0
o,0x00000000,1716935981.814590,172.16.1.2,40514,172.16.3.2,5101,13032,15964,0,64256,65728,6,6,4,1460,930,1,992,71,66348,63452,65700,0,13032,0,0,0
o,0x00000000,1716935981.814861,172.16.1.2,40514,172.16.3.2,5101,13032,15964,0,64256,65728,6,6,4,1460,930,1,992,71,66348,63452,65700,0,14480,0,0,0
i,0x00000000,1716935981.815103,172.16.1.2,40514,172.16.3.2,5101,13032,15964,0,64256,65728,6,6,4,1460,930,1,992,71,66348,63452,65700,0,15928,0,0,0
o,0x00000000,1716935981.815107,172.16.1.2,40514,172.16.3.2,5101,13032,15964,0,64256,65728,6,6,4,1460,914,1,992,69,66348,60556,65700,0,13032,0,0,0
o,0x00000000,1716935981.815336,172.16.1.2,40514,172.16.3.2,5101,13032,15964,0,64256,65728,6,6,4,1460,914,1,992,69,66348,60556,65700,0,14480,0,0,0
i,0x00000000,1716935981.923997,172.16.1.2,40514,172.16.3.2,5101,13032,15964,0,64256,65728,6,6,4,1460,914,1,992,69,66348,66348,65700,0,15928,0,0,0
o,0x00000000,1716935981.924015,172.16.1.2,40514,172.16.3.2,5101,13032,15964,0,65728,65728,6,6,4,1460,940,1,992,71,66348,64900,65700,0,14480,0,0,0
i,0x00000000,1716935981.973972,172.16.1.2,40514,172.16.3.2,5101,13032,15964,0,65728,65728,6,6,4,1460,940,1,992,71,66348,64900,65700,0,15928,0,0,0
o,0x00000000,1716935981.973993,172.16.1.2,40514,172.16.3.2,5101,13032,15964,0,64256,65728,6,6,4,1460,943,1,992,66,66348,62004,65700,0,13032,0,0,0
o,0x00000000,1716935981.974076,172.16.1.2,40514,172.16.3.2,5101,13032,15964,0,64256,65728,6,6,4,1460,943,1,992,66,66348,62004,65700,0,14480,0,0,0
i,0x00000000,1716935981.974150,172.16.1.2,40514,172.16.3.2,5101,13032,15964,0,64256,65728,6,6,4,1460,943,1,992,66,66348,62004,65700,0,15928,0,0,0
o,0x00000000,1716935981.974153,172.16.1.2,40514,172.16.3.2,5101,13032,15964,0,64256,65728,6,6,4,1460,926,1,992,66,66348,59108,65700,0,13032,0,0,0
o,0x00000000,1716935981.974225,172.16.1.2,40514,172.16.3.2,5101,13032,15964,0,64256,65728,6,6,4,1460,926,1,992,66,66348,59108,65700,0,14480,0,0,0
i,0x00000000,1716935981.974298,172.16.1.2,40514,172.16.3.2,5101,13032,15964,0,64256,65728,6,6,4,1460,926,1,992,66,66348,59108,65700,0,15928,0,0,0
o,0x00000000,1716935981.974300,172.16.1.2,40514,172.16.3.2,5101,13032,17424,0,64256,65728,6,6,4,1460,911,1,992,65,66348,56212,65700,0,13032,0,0,0
o,0x00000000,1716935981.974374,172.16.1.2,40514,172.16.3.2,5101,13032,17424,0,64256,65728,6,6,4,1460,911,1,992,65,66348,56212,65700,0,14480,0,0,0
o,0x00000000,1716935981.974446,172.16.1.2,40514,172.16.3.2,5101,13032,17424,0,64256,65728,6,6,4,1460,911,1,992,65,66348,56212,65700,0,15928,0,0,0
i,0x00000000,1716935982.094386,172.16.1.2,40514,172.16.3.2,5101,13032,17424,0,64256,65728,6,6,4,1460,911,1,992,65,66348,66348,65700,0,17376,0,0,0
o,0x00000000,1716935982.094403,172.16.1.2,40514,172.16.3.2,5101,13032,17424,0,64256,65728,6,6,4,1460,910,1,992,61,66348,63452,65700,0,14480,0,0,0
o,0x00000000,1716935982.094657,172.16.1.2,40514,172.16.3.2,5101,13032,17424,0,64256,65728,6,6,4,1460,910,1,992,61,66348,63452,65700,0,15928,0,0,0
i,0x00000000,1716935982.094890,172.16.1.2,40514,172.16.3.2,5101,13032,17424,0,64256,65728,6,6,4,1460,910,1,992,61,66348,63452,65700,0,17376,0,0,0
o,0x00000000,1716935982.094893,172.16.1.2,40514,172.16.3.2,5101,13032,17424,0,64256,65728,6,6,4,1460,909,1,992,58,66348,60556,65700,0,14480,0,0,0
o,0x00000000,1716935982.095118,172.16.1.2,40514,172.16.3.2,5101,13032,17424,0,64256,65728,6,6,4,1460,909,1,992,58,66348,60556,65700,0,15928,0,0,0
i,0x00000000,1716935982.275177,172.16.1.2,40514,172.16.3.2,5101,13032,17424,0,64256,65728,6,6,4,1460,909,1,992,58,66348,66348,65700,0,17376,0,0,0
