enable_time_secs=1720562327	enable_time_usecs=292566	siftrver=1.2.4	hz=100	tcp_rtt_scale=32	sysname=FreeBSD	sysver=1301000	ipmode=4
o,0x00000000,1720562327.292594,10.0.2.15,22,10.0.2.2,56270,1073725440,17770,0,65535,65700,0,0,4,1460,1,0,4,24,33580,44,65700,0,0,0,0,0
o,0x00000000,1720562327.292702,10.0.2.15,22,10.0.2.2,56270,1073725440,17770,0,65535,65700,0,0,4,1460,1,0,4,24,33580,80,65700,0,44,0,0,0
i,0x00000000,1720562327.293141,10.0.2.15,22,10.0.2.2,56270,1073725440,17770,0,65535,65700,0,0,4,1460,1,0,4,24,33580,80,65700,0,80,0,0,0
i,0x00000000,1720562327.293145,10.0.2.15,22,10.0.2.2,56270,1073725440,17814,0,65535,65700,0,0,4,1460,1,0,4,24,33580,36,65700,0,36,0,0,0
o,0x00000000,1720562327.293207,10.0.2.15,22,10.0.2.2,56270,1073725440,17850,0,65535,65700,0,0,4,1460,1,0,4,24,33580,36,65700,0,0,0,0,0
i,0x00000000,1720562327.293810,10.0.2.15,22,10.0.2.2,56270,1073725440,17850,0,65535,65700,0,0,4,1460,1,0,4,24,33580,36,65700,0,36,0,0,0
o,0x00000000,1720562327.293957,10.0.2.15,22,10.0.2.2,56270,1073725440,17886,0,65535,65700,0,0,4,1460,1,0,4,24,33580,176,65700,0,0,0,0,0
i,0x00000000,1720562327.294600,10.0.2.15,22,10.0.2.2,56270,1073725440,17886,0,65535,65700,0,0,4,1460,1,0,4,24,33580,176,65700,0,176,0,0,0
i,0x00000000,1720562327.294603,10.0.2.15,22,10.0.2.2,56270,1073725440,18062,0,65535,65700,0,0,4,1460,1,0,4,24,33580,0,65700,0,0,0,0,0
i,0x00000000,1720562327.294605,10.0.2.15,22,10.0.2.2,56270,1073725440,18062,0,65535,65700,0,0,4,1460,1,0,4,24,33580,0,65700,36,0,0,0,0
o,0x00000000,1720562327.294606,10.0.2.15,22,10.0.2.2,56270,1073725440,18062,0,65535,65700,0,0,4,1460,1,0,5,24,33580,0,65700,96,0,0,0,0
i,0x00000000,1720562327.294681,10.0.2.15,22,10.0.2.2,56270,1073725440,18062,0,65535,65700,0,0,4,1460,1,0,4,24,33580,0,65700,96,0,0,0,0
o,0x00000000,1720562327.294684,10.0.2.15,22,10.0.2.2,56270,1073725440,18062,0,65535,65604,0,0,5,1460,1,0,7,24,33580,0,65700,96,0,0,0,0
o,0x00000000,1720562327.295323,10.0.2.15,22,10.0.2.2,56270,1073725440,18062,0,65535,65604,0,0,8,1460,1,0,4,24,33580,0,65700,0,0,0,0,0
i,0x00000000,1720562327.295789,10.0.2.15,22,10.0.2.2,56270,1073725440,18062,0,65535,65604,0,0,8,1460,1,0,20,24,33580,0,65700,0,1,0,0,0
i,0x00000000,1720562329.540183,10.0.2.15,22,10.0.2.2,56278,1073725440,14600,0,65535,65700,0,0,4,1460,1,0,0,27,33580,0,65700,0,0,0,0,0
o,0x00000000,1720562329.549567,10.0.2.15,22,10.0.2.2,56278,1073725440,14600,0,65535,65700,0,0,4,1460,1,0,0,27,33580,38,65700,42,0,0,0,0
i,0x00000000,1720562329.550535,10.0.2.15,22,10.0.2.2,56278,1073725440,14600,0,65535,65700,0,0,4,1460,1,0,0,27,33580,38,65700,0,38,0,0,0
i,0x00000000,1720562329.551217,10.0.2.15,22,10.0.2.2,56278,1073725440,14638,0,65535,65700,0,0,4,1460,1,0,0,24,33580,0,65700,0,0,0,0,0
i,0x00000000,1720562329.551221,10.0.2.15,22,10.0.2.2,56278,1073725440,14638,0,65535,65700,0,0,4,1460,1,0,0,24,33580,0,65700,1460,0,0,0,0
o,0x00000000,1720562329.551225,10.0.2.15,22,10.0.2.2,56278,1073725440,14638,0,65535,65700,0,0,4,1460,1,0,1,24,33580,0,65700,1536,0,0,0,0
o,0x00000000,1720562329.552321,10.0.2.15,22,10.0.2.2,56278,1073725440,14638,0,65535,65700,0,0,4,1460,1,0,0,24,33580,1056,65700,1536,0,0,0,0
i,0x00000000,1720562329.553000,10.0.2.15,22,10.0.2.2,56278,1073725440,14638,0,65535,65700,0,0,4,1460,1,0,0,24,33580,1056,65700,1536,1056,0,0,0
i,0x00000000,1720562329.556266,10.0.2.15,22,10.0.2.2,56278,1073725440,15694,0,65535,65700,0,0,4,1460,1,0,0,24,33580,0,65700,0,0,0,0,0
o,0x00000000,1720562329.559150,10.0.2.15,22,10.0.2.2,56278,1073725440,15694,0,65535,65700,0,0,4,1460,1,0,0,24,33580,484,65700,0,0,0,0,0
i,0x00000000,1720562329.560188,10.0.2.15,22,10.0.2.2,56278,1073725440,15694,0,65535,65700,0,0,4,1460,1,0,0,24,33580,484,65700,0,484,0,0,0
i,0x00000000,1720562329.567547,10.0.2.15,22,10.0.2.2,56278,1073725440,16178,0,65535,65700,0,0,4,1460,1,0,0,24,33580,0,65700,0,0,0,0,0
i,0x00000000,1720562329.567554,10.0.2.15,22,10.0.2.2,56278,1073725440,16178,0,65535,65700,0,0,4,1460,1,0,0,24,33580,0,65700,16,0,0,0,0
o,0x00000000,1720562329.567557,10.0.2.15,22,10.0.2.2,56278,1073725440,16178,0,65535,65700,0,0,4,1460,1,0,1,24,33580,0,65700,60,0,0,0,0
o,0x00000000,1720562329.567722,10.0.2.15,22,10.0.2.2,56278,1073725440,16178,0,65535,65700,0,0,4,1460,1,0,0,24,33580,44,65700,0,0,0,0,0
i,0x00000000,1720562329.568716,10.0.2.15,22,10.0.2.2,56278,1073725440,16178,0,65535,65700,0,0,4,1460,1,0,0,24,33580,44,65700,0,44,0,0,0
i,0x00000000,1720562329.568720,10.0.2.15,22,10.0.2.2,56278,1073725440,16222,0,65535,65700,0,0,4,1460,1,0,0,24,33580,0,65700,0,0,0,0,0
o,0x00000000,1720562329.578077,10.0.2.15,22,10.0.2.2,56278,1073725440,16222,0,65535,65700,0,0,4,1460,1,0,0,24,33580,68,65700,0,0,0,0,0
i,0x00000000,1720562329.579951,10.0.2.15,22,10.0.2.2,56278,1073725440,16222,0,65535,65700,0,0,4,1460,1,0,0,24,33580,68,65700,0,68,0,0,0
i,0x00000000,1720562329.579956,10.0.2.15,22,10.0.2.2,56278,1073725440,16290,0,65535,65700,0,0,4,1460,1,0,0,24,33580,0,65700,0,0,0,0,0
o,0x00000000,1720562329.580543,10.0.2.15,22,10.0.2.2,56278,1073725440,16290,0,65535,65700,0,0,4,1460,1,0,0,24,33580,332,65700,0,0,0,0,0
i,0x00000000,1720562329.581717,10.0.2.15,22,10.0.2.2,56278,1073725440,16290,0,65535,65700,0,0,4,1460,1,0,0,24,33580,332,65700,0,332,0,0,0
i,0x00000000,1720562329.583202,10.0.2.15,22,10.0.2.2,56278,1073725440,16622,0,65535,65700,0,0,4,1460,1,0,0,24,33580,0,65700,0,0,0,0,0
o,0x00000000,1720562329.599022,10.0.2.15,22,10.0.2.2,56278,1073725440,16622,0,65535,65700,0,0,4,1460,1,0,0,24,33580,28,65700,0,0,0,0,0
i,0x00000000,1720562329.599899,10.0.2.15,22,10.0.2.2,56278,1073725440,16622,0,65535,65700,0,0,4,1460,1,0,0,24,33580,28,65700,0,28,0,0,0
i,0x00000000,1720562329.600573,10.0.2.15,22,10.0.2.2,56278,1073725440,16650,0,65535,65700,0,0,4,1460,1,0,0,24,33580,0,65700,0,0,0,0,0
o,0x00000000,1720562329.600830,10.0.2.15,22,10.0.2.2,56278,1073725440,16650,0,65535,65700,0,0,4,1460,1,0,0,24,33580,768,65700,112,0,0,0,0
i,0x00000000,1720562329.601482,10.0.2.15,22,10.0.2.2,56278,1073725440,16650,0,65535,65700,0,0,4,1460,1,0,0,24,33580,768,65700,112,768,0,0,0
o,0x00000000,1720562329.601540,10.0.2.15,22,10.0.2.2,56278,1073725440,17418,0,65535,65700,0,0,4,1460,1,0,0,24,33580,140,65700,112,0,0,0,0
i,0x00000000,1720562329.602153,10.0.2.15,22,10.0.2.2,56278,1073725440,17418,0,65535,65700,0,0,4,1460,1,0,0,24,33580,140,65700,112,140,0,0,0
o,0x00000000,1720562329.602250,10.0.2.15,22,10.0.2.2,56278,1073725440,17558,0,65535,65700,0,0,4,1460,1,0,0,24,33580,44,65700,0,0,0,0,0
i,0x00000000,1720562329.602812,10.0.2.15,22,10.0.2.2,56278,1073725440,17558,0,65535,65700,0,0,4,1460,1,0,0,24,33580,44,65700,0,44,0,0,0
i,0x00000000,1720562329.671839,10.0.2.15,22,10.0.2.2,56278,1073725440,17602,0,65535,65700,0,0,4,1460,1,0,0,24,33580,0,65700,0,0,0,0,0
o,0x00000000,1720562329.672323,10.0.2.15,22,10.0.2.2,56278,1073725440,17602,0,65535,65700,0,0,4,1460,1,0,4,24,33580,72,65700,0,0,0,0,0
i,0x00000000,1720562329.673657,10.0.2.15,22,10.0.2.2,56278,1073725440,17602,0,65535,65700,0,0,4,1460,1,0,4,24,33580,72,65700,0,72,0,0,0
o,0x00000000,1720562329.677754,10.0.2.15,22,10.0.2.2,56278,1073725440,17674,0,65535,65700,0,0,4,1460,1,0,4,24,33580,44,65700,0,0,0,0,0
i,0x00000000,1720562329.679257,10.0.2.15,22,10.0.2.2,56278,1073725440,17674,0,65535,65700,0,0,4,1460,1,0,4,24,33580,44,65700,0,44,0,0,0
o,0x00000000,1720562329.679618,10.0.2.15,22,10.0.2.2,56278,1073725440,17718,0,65535,65700,0,0,4,1460,1,0,4,24,33580,104,65700,0,0,0,0,0
i,0x00000000,1720562329.680233,10.0.2.15,22,10.0.2.2,56278,1073725440,17718,0,65535,65700,0,0,4,1460,1,0,4,24,33580,104,65700,0,104,0,0,0
o,0x00000000,1720562329.680327,10.0.2.15,22,10.0.2.2,56278,1073725440,17822,0,65535,65700,0,0,4,1460,1,0,4,24,33580,44,65700,0,0,0,0,0
i,0x00000000,1720562329.680838,10.0.2.15,22,10.0.2.2,56278,1073725440,17822,0,65535,65700,0,0,4,1460,1,0,4,24,33580,44,65700,0,44,0,0,0
o,0x00000000,1720562329.684402,10.0.2.15,22,10.0.2.2,56278,1073725440,17866,0,65535,65700,0,0,4,1460,1,0,4,24,33580,72,65700,0,0,0,0,0
i,0x00000000,1720562329.685581,10.0.2.15,22,10.0.2.2,56278,1073725440,17866,0,65535,65700,0,0,4,1460,1,0,4,24,33580,72,65700,0,72,0,0,0
i,0x00000000,1720562329.685586,10.0.2.15,22,10.0.2.2,56278,1073725440,17938,0,65535,65700,0,0,4,1460,1,0,4,24,33580,0,65700,0,0,0,0,0
i,0x00000000,1720562329.685588,10.0.2.15,22,10.0.2.2,56278,1073725440,17938,0,65535,65700,0,0,4,1460,1,0,4,24,33580,0,65700,96,0,0,0,0
o,0x00000000,1720562329.685590,10.0.2.15,22,10.0.2.2,56278,1073725440,17938,0,65535,65604,0,0,5,1460,1,0,5,24,33580,0,65700,96,0,0,0,0
o,0x00000000,1720562329.690771,10.0.2.15,22,10.0.2.2,56278,1073725440,17938,0,65535,65604,0,0,8,1460,1,0,4,24,33580,0,65700,0,0,0,0,0
i,0x00000000,1720562329.691560,10.0.2.15,22,10.0.2.2,56278,1073725440,17938,0,65535,65604,0,0,8,1460,1,0,20,24,33580,0,65700,0,1,0,0,0
i,0x00000000,1720562330.833418,10.0.2.15,22,10.0.2.2,56290,1073725440,14600,0,65535,65700,0,0,4,1460,1,0,0,27,33580,0,65700,0,0,0,0,0
o,0x00000000,1720562330.839443,10.0.2.15,22,10.0.2.2,56290,1073725440,14600,0,65535,65700,0,0,4,1460,1,0,0,27,33580,38,65700,42,0,0,0,0
i,0x00000000,1720562330.840843,10.0.2.15,22,10.0.2.2,56290,1073725440,14600,0,65535,65700,0,0,4,1460,1,0,0,27,33580,38,65700,42,38,0,0,0
i,0x00000000,1720562330.841225,10.0.2.15,22,10.0.2.2,56290,1073725440,14638,0,65535,65700,0,0,4,1460,1,0,0,24,33580,0,65700,0,0,0,0,0
i,0x00000000,1720562330.841228,10.0.2.15,22,10.0.2.2,56290,1073725440,14638,0,65535,65700,0,0,4,1460,1,0,0,24,33580,0,65700,1460,0,0,0,0
o,0x00000000,1720562330.841231,10.0.2.15,22,10.0.2.2,56290,1073725440,14638,0,65535,65700,0,0,4,1460,1,0,1,24,33580,0,65700,1536,0,0,0,0
o,0x00000000,1720562330.841882,10.0.2.15,22,10.0.2.2,56290,1073725440,14638,0,65535,65700,0,0,4,1460,1,0,0,24,33580,1056,65700,1536,0,0,0,0
i,0x00000000,1720562330.842534,10.0.2.15,22,10.0.2.2,56290,1073725440,14638,0,65535,65700,0,0,4,1460,1,0,0,24,33580,1056,65700,1536,1056,0,0,0
i,0x00000000,1720562330.843919,10.0.2.15,22,10.0.2.2,56290,1073725440,15694,0,65535,65700,0,0,4,1460,1,0,0,24,33580,0,65700,0,0,0,0,0
o,0x00000000,1720562330.846454,10.0.2.15,22,10.0.2.2,56290,1073725440,15694,0,65535,65700,0,0,4,1460,1,0,0,24,33580,484,65700,0,0,0,0,0
i,0x00000000,1720562330.847096,10.0.2.15,22,10.0.2.2,56290,1073725440,15694,0,65535,65700,0,0,4,1460,1,0,0,24,33580,484,65700,0,484,0,0,0
i,0x00000000,1720562330.851597,10.0.2.15,22,10.0.2.2,56290,1073725440,16178,0,65535,65700,0,0,4,1460,1,0,0,24,33580,0,65700,0,0,0,0,0
i,0x00000000,1720562330.851603,10.0.2.15,22,10.0.2.2,56290,1073725440,16178,0,65535,65700,0,0,4,1460,1,0,0,24,33580,0,65700,16,0,0,0,0
o,0x00000000,1720562330.851606,10.0.2.15,22,10.0.2.2,56290,1073725440,16178,0,65535,65700,0,0,4,1460,1,0,1,24,33580,0,65700,60,0,0,0,0
o,0x00000000,1720562330.851768,10.0.2.15,22,10.0.2.2,56290,1073725440,16178,0,65535,65700,0,0,4,1460,1,0,0,24,33580,44,65700,0,0,0,0,0
i,0x00000000,1720562330.852428,10.0.2.15,22,10.0.2.2,56290,1073725440,16178,0,65535,65700,0,0,4,1460,1,0,0,24,33580,44,65700,0,44,0,0,0
i,0x00000000,1720562330.852432,10.0.2.15,22,10.0.2.2,56290,1073725440,16222,0,65535,65700,0,0,4,1460,1,0,0,24,33580,0,65700,0,0,0,0,0
o,0x00000000,1720562330.861999,10.0.2.15,22,10.0.2.2,56290,1073725440,16222,0,65535,65700,0,0,4,1460,1,0,0,24,33580,68,65700,0,0,0,0,0
i,0x00000000,1720562330.863841,10.0.2.15,22,10.0.2.2,56290,1073725440,16222,0,65535,65700,0,0,4,1460,1,0,0,24,33580,68,65700,0,68,0,0,0
i,0x00000000,1720562330.863848,10.0.2.15,22,10.0.2.2,56290,1073725440,16290,0,65535,65700,0,0,4,1460,1,0,0,24,33580,0,65700,0,0,0,0,0
o,0x00000000,1720562330.864534,10.0.2.15,22,10.0.2.2,56290,1073725440,16290,0,65535,65700,0,0,4,1460,1,0,0,24,33580,332,65700,0,0,0,0,0
i,0x00000000,1720562330.866024,10.0.2.15,22,10.0.2.2,56290,1073725440,16290,0,65535,65700,0,0,4,1460,1,0,0,24,33580,332,65700,0,332,0,0,0
i,0x00000000,1720562330.867497,10.0.2.15,22,10.0.2.2,56290,1073725440,16622,0,65535,65700,0,0,4,1460,1,0,0,24,33580,0,65700,0,0,0,0,0
o,0x00000000,1720562330.883665,10.0.2.15,22,10.0.2.2,56290,1073725440,16622,0,65535,65700,0,0,4,1460,1,0,0,24,33580,28,65700,0,0,0,0,0
i,0x00000000,1720562330.884546,10.0.2.15,22,10.0.2.2,56290,1073725440,16622,0,65535,65700,0,0,4,1460,1,0,0,24,33580,28,65700,0,28,0,0,0
i,0x00000000,1720562330.884888,10.0.2.15,22,10.0.2.2,56290,1073725440,16650,0,65535,65700,0,0,4,1460,1,0,0,24,33580,0,65700,0,0,0,0,0
o,0x00000000,1720562330.885490,10.0.2.15,22,10.0.2.2,56290,1073725440,16650,0,65535,65700,0,0,4,1460,1,0,0,24,33580,768,65700,112,0,0,0,0
i,0x00000000,1720562330.887018,10.0.2.15,22,10.0.2.2,56290,1073725440,16650,0,65535,65700,0,0,4,1460,1,0,0,24,33580,768,65700,112,768,0,0,0
o,0x00000000,1720562330.887151,10.0.2.15,22,10.0.2.2,56290,1073725440,17418,0,65535,65700,0,0,4,1460,1,0,0,24,33580,140,65700,112,0,0,0,0
i,0x00000000,1720562330.888084,10.0.2.15,22,10.0.2.2,56290,1073725440,17418,0,65535,65700,0,0,4,1460,1,0,0,24,33580,140,65700,112,140,0,0,0
o,0x00000000,1720562330.888198,10.0.2.15,22,10.0.2.2,56290,1073725440,17558,0,65535,65700,0,0,4,1460,1,0,0,24,33580,44,65700,0,0,0,0,0
i,0x00000000,1720562330.888716,10.0.2.15,22,10.0.2.2,56290,1073725440,17558,0,65535,65700,0,0,4,1460,1,0,0,24,33580,44,65700,0,44,0,0,0
i,0x00000000,1720562330.889264,10.0.2.15,22,10.0.2.2,56290,1073725440,17602,0,65535,65700,0,0,4,1460,1,0,0,24,33580,0,65700,0,0,0,0,0
o,0x00000000,1720562330.889603,10.0.2.15,22,10.0.2.2,56290,1073725440,17602,0,65535,65700,0,0,4,1460,1,0,4,24,33580,72,65700,0,0,0,0,0
i,0x00000000,1720562330.890297,10.0.2.15,22,10.0.2.2,56290,1073725440,17602,0,65535,65700,0,0,4,1460,1,0,4,24,33580,72,65700,0,72,0,0,0
i,0x00000000,1720562330.890909,10.0.2.15,22,10.0.2.2,56290,1073725440,17674,0,65535,65700,0,0,4,1460,1,0,4,24,33580,0,65700,0,0,0,0,0
o,0x00000000,1720562330.899979,172.16.1.2,61933,172.16.3.2,5101,1073725440,1073725440,0,0,0,0,0,2,536,0,1,672,100,32768,0,65536,0,0,0,0,0
o,0x00000000,1720562330.928355,10.0.2.15,22,10.0.2.2,56290,1073725440,17674,0,65535,65700,0,0,4,1460,1,0,5,24,33580,0,65700,0,0,0,0,0
i,0x00000000,1720562331.017829,172.16.1.2,61933,172.16.3.2,5101,1073725440,1073725440,0,0,0,0,0,2,536,0,1,672,100,32768,0,65536,0,1,0,0,0
o,0x00000000,1720562331.017855,172.16.1.2,61933,172.16.3.2,5101,43195,14480,0,65535,65700,6,6,4,1460,2916,1,993,214,33580,0,65700,0,0,0,0,0
o,0x00000000,1720562331.018831,172.16.1.2,61933,172.16.3.2,5101,43195,14480,0,65535,65700,6,6,4,1460,2916,1,996,214,33580,37,65700,0,0,0,0,0
i,0x00000000,1720562331.157588,172.16.1.2,61933,172.16.3.2,5101,43195,14480,0,65535,65700,6,6,4,1460,2916,1,996,214,33580,37,65700,0,37,0,0,0
o,0x00000000,1720562331.157762,172.16.1.2,61933,172.16.3.2,5101,43195,14517,0,65728,65728,6,6,4,1460,2608,1,996,256,33580,4,65700,0,0,0,0,0
o,0x00000000,1720562331.158311,172.16.1.2,61933,172.16.3.2,5101,43195,14517,0,65728,65728,6,6,4,1460,2608,1,996,256,33580,128,65700,0,4,0,0,0
i,0x00000000,1720562331.287119,172.16.1.2,61933,172.16.3.2,5101,43195,14517,0,65728,65728,6,6,4,1460,2608,1,996,256,33580,128,65700,0,128,0,0,0
i,0x00000000,1720562331.287138,172.16.1.2,61933,172.16.3.2,5101,43195,14645,0,65600,65728,6,6,4,1460,2330,1,996,278,33580,0,65700,0,0,0,0,0
o,0x00000000,1720562331.287425,172.16.1.2,56415,172.16.3.2,5101,1073725440,1073725440,0,0,0,0,0,2,536,0,1,672,100,32768,0,65536,0,0,0,0,0
o,0x00000000,1720562331.328595,172.16.1.2,61933,172.16.3.2,5101,43195,14645,0,65728,65728,6,6,4,1460,2330,1,997,278,33580,0,65700,0,0,0,0,0
i,0x00000000,1720562331.411867,172.16.1.2,56415,172.16.3.2,5101,1073725440,1073725440,0,0,0,0,0,2,536,0,1,672,100,32768,0,65536,0,1,0,0,0
o,0x00000000,1720562331.411902,172.16.1.2,56415,172.16.3.2,5101,43195,14480,0,65535,65700,6,6,4,1460,2920,1,993,213,33580,0,65700,0,0,0,0,0
o,0x00000000,1720562331.412650,172.16.1.2,56415,172.16.3.2,5101,43195,14480,0,65535,65700,6,6,4,1460,2920,1,992,213,33580,37,65700,0,0,0,0,0
i,0x00000000,1720562331.538018,172.16.1.2,61933,172.16.3.2,5101,43195,14645,0,65728,65728,6,6,4,1460,2330,1,996,278,33580,0,65700,0,0,0,0,0
i,0x00000000,1720562331.538033,172.16.1.2,61933,172.16.3.2,5101,43195,14645,0,65728,65728,6,6,4,1460,2330,1,996,278,33580,0,65700,1,0,0,0,0
o,0x00000000,1720562331.538043,172.16.1.2,61933,172.16.3.2,5101,43195,14645,0,65728,65728,6,6,4,1460,2330,1,997,278,33580,0,65700,2,0,0,0,0
o,0x00000000,1720562331.547060,172.16.1.2,56415,172.16.3.2,5101,43195,14480,0,65535,65700,6,6,4,1460,2920,1,992,213,33580,33580,65700,0,37,0,0,0
o,0x00000000,1720562331.547685,172.16.1.2,56415,172.16.3.2,5101,43195,14480,0,65535,65700,6,6,4,1460,2920,1,992,213,33580,33580,65700,0,1485,0,0,0
o,0x00000000,1720562331.548107,172.16.1.2,56415,172.16.3.2,5101,43195,14480,0,65535,65700,6,6,4,1460,2920,1,992,213,33580,33580,65700,0,2933,0,0,0
o,0x00000000,1720562331.548797,172.16.1.2,56415,172.16.3.2,5101,43195,14480,0,65535,65700,6,6,4,1460,2920,1,992,213,33580,33580,65700,0,4381,0,0,0
o,0x00000000,1720562331.549882,172.16.1.2,56415,172.16.3.2,5101,43195,14480,0,65535,65700,6,6,4,1460,2920,1,992,213,33580,33580,65700,0,5829,0,0,0
o,0x00000000,1720562331.550459,172.16.1.2,56415,172.16.3.2,5101,43195,14480,0,65535,65700,6,6,4,1460,2920,1,992,213,33580,33580,65700,0,7277,0,0,0
o,0x00000000,1720562331.551021,172.16.1.2,56415,172.16.3.2,5101,43195,14480,0,65535,65700,6,6,4,1460,2920,1,992,213,33580,33580,65700,0,8725,0,0,0
o,0x00000000,1720562331.551582,172.16.1.2,56415,172.16.3.2,5101,43195,14480,0,65535,65700,6,6,4,1460,2920,1,992,213,33580,33580,65700,0,10173,0,0,0
o,0x00000000,1720562331.552333,172.16.1.2,56415,172.16.3.2,5101,43195,14480,0,65535,65700,6,6,4,1460,2920,1,992,213,33580,33580,65700,0,11621,0,0,0
i,0x00000000,1720562331.556329,172.16.1.2,56415,172.16.3.2,5101,43195,14480,0,65535,65700,6,6,4,1460,2920,1,992,213,33580,33580,65700,0,13069,0,0,0
o,0x00000000,1720562331.556349,172.16.1.2,56415,172.16.3.2,5101,43195,14517,0,65728,65728,6,6,4,1460,2611,1,992,255,33580,33543,65700,0,13032,0,0,0
i,0x00000000,1720562331.768029,172.16.1.2,56415,172.16.3.2,5101,43195,14517,0,65728,65728,6,6,4,1460,2611,1,992,255,33580,33543,65700,0,14480,0,0,0
o,0x00000000,1720562331.768064,172.16.1.2,56415,172.16.3.2,5101,43195,15928,0,65728,65728,6,6,4,1460,2611,1,992,255,33580,33543,65700,0,14480,0,0,0
i,0x00000000,1720562331.789576,172.16.1.2,56415,172.16.3.2,5101,43195,14517,0,65728,65728,6,6,4,1460,2611,1,992,255,33580,33543,65700,0,15928,0,0,0
o,0x00000000,1720562331.789617,172.16.1.2,56415,172.16.3.2,5101,43195,17376,0,65728,65728,6,6,4,1460,2611,1,992,255,33580,33543,65700,0,15928,0,0,0
i,0x00000000,1720562331.793701,172.16.1.2,56415,172.16.3.2,5101,43195,14517,0,65728,65728,6,6,4,1460,2611,1,992,255,33580,33543,65700,0,17376,0,0,0
o,0x00000000,1720562331.793727,172.16.1.2,56415,172.16.3.2,5101,7240,1448,0,65728,65728,6,6,4,1460,2611,1,537920480,255,33580,33543,65700,0,17376,0,0,0
i,0x00000000,1720562331.798618,172.16.1.2,56415,172.16.3.2,5101,7240,1448,0,65728,65728,6,6,4,1460,2611,1,537920480,255,33580,33543,65700,0,17376,0,0,0
i,0x00000000,1720562331.826867,172.16.1.2,56415,172.16.3.2,5101,7240,1448,0,65728,65728,6,6,4,1460,2611,1,537920480,255,33580,33543,65700,0,17376,0,0,0
o,0x00000000,1720562331.826886,172.16.1.2,56415,172.16.3.2,5101,7240,2896,0,65728,65728,6,6,4,1460,2611,1,537920480,255,33580,33543,65700,0,17376,0,0,0
i,0x00000000,1720562331.827136,172.16.1.2,56415,172.16.3.2,5101,7240,2896,0,65728,65728,6,6,4,1460,2611,1,537920480,255,33580,33543,65700,0,18824,0,0,0
i,0x00000000,1720562331.852437,172.16.1.2,56415,172.16.3.2,5101,7240,2896,0,65728,65728,6,6,4,1460,2611,1,537920480,255,33580,33543,65700,0,18824,0,0,0
i,0x00000000,1720562331.852463,172.16.1.2,56415,172.16.3.2,5101,7240,2896,0,65728,65728,6,6,4,1460,2611,1,537920480,255,33580,33543,65700,0,18824,0,0,0
o,0x00000000,1720562331.852477,172.16.1.2,56415,172.16.3.2,5101,7240,4344,0,65728,65728,6,6,4,1460,2611,1,537920480,255,33580,33543,65700,0,18824,0,0,0
i,0x00000000,1720562331.876925,172.16.1.2,56415,172.16.3.2,5101,7240,4344,0,65728,65728,6,6,4,1460,2611,1,537920480,255,33580,33543,65700,0,20272,0,0,0
i,0x00000000,1720562331.919093,172.16.1.2,56415,172.16.3.2,5101,7240,4344,0,65728,65728,6,6,4,1460,2611,1,537920480,255,33580,33543,65700,0,20272,0,0,0
o,0x00000000,1720562331.919126,172.16.1.2,56415,172.16.3.2,5101,7240,5792,0,65728,65728,6,6,4,1460,2611,1,537920480,255,33580,33543,65700,0,20272,0,0,0
i,0x00000000,1720562331.921311,172.16.1.2,56415,172.16.3.2,5101,7240,5792,0,65728,65728,6,6,4,1460,2611,1,537920480,255,33580,33543,65700,0,21720,0,0,0
o,0x00000000,1720562331.921331,172.16.1.2,56415,172.16.3.2,5101,7240,7240,0,65728,65728,6,6,4,1460,2611,1,537920480,255,33580,33543,65700,0,21720,0,0,0
i,0x00000000,1720562331.958257,172.16.1.2,56415,172.16.3.2,5101,7240,7240,0,65728,65728,6,6,4,1460,2611,1,537920480,255,33580,33543,65700,0,23168,0,0,0
o,0x00000000,1720562331.958299,172.16.1.2,56415,172.16.3.2,5101,7240,7252,0,48384,65728,6,6,4,1460,2353,1,992,273,33580,16167,65700,0,5792,0,0,0
i,0x00000000,1720562331.964504,172.16.1.2,56415,172.16.3.2,5101,7240,7252,0,48384,65728,6,6,4,1460,2353,1,992,273,33580,33580,65700,0,7240,0,0,0
o,0x00000000,1720562331.964527,172.16.1.2,56415,172.16.3.2,5101,7240,8688,0,48384,65728,6,6,4,1460,2353,1,992,273,33580,33580,65700,0,7240,0,0,0
i,0x00000000,1720562332.007360,172.16.1.2,56415,172.16.3.2,5101,7240,7252,0,48384,65728,6,6,4,1460,2353,1,992,273,33580,33580,65700,0,8688,0,0,0
o,0x00000000,1720562332.007388,172.16.1.2,56415,172.16.3.2,5101,7240,8712,0,64256,65728,6,6,4,1460,2131,1,992,277,33580,30684,65700,0,5792,0,0,0
o,0x00000000,1720562332.008225,172.16.1.2,56415,172.16.3.2,5101,7240,8712,0,64256,65728,6,6,4,1460,2131,1,992,277,33580,30684,65700,0,7240,0,0,0
i,0x00000000,1720562332.088997,172.16.1.2,56415,172.16.3.2,5101,7240,8712,0,64256,65728,6,6,4,1460,2131,1,992,277,33580,33580,65700,0,8688,0,0,0
o,0x00000000,1720562332.089037,172.16.1.2,56415,172.16.3.2,5101,7240,8712,0,64256,65728,6,6,4,1460,1933,1,992,273,33580,30684,65700,0,5792,0,0,0
o,0x00000000,1720562332.090741,172.16.1.2,56415,172.16.3.2,5101,7240,8712,0,64256,65728,6,6,4,1460,1933,1,992,273,33580,30684,65700,0,7240,0,0,0
i,0x00000000,1720562332.126941,172.16.1.2,56415,172.16.3.2,5101,7240,8712,0,64256,65728,6,6,4,1460,1933,1,992,273,33580,33580,65700,0,8688,0,0,0
o,0x00000000,1720562332.126987,172.16.1.2,56415,172.16.3.2,5101,7240,10172,0,64256,65728,6,6,4,1460,1756,1,992,263,33580,30684,65700,0,5792,0,0,0
o,0x00000000,1720562332.128962,172.16.1.2,56415,172.16.3.2,5101,7240,10172,0,64256,65728,6,6,4,1460,1756,1,992,263,33580,30684,65700,0,7240,0,0,0
o,0x00000000,1720562332.130303,172.16.1.2,56415,172.16.3.2,5101,7240,10172,0,64256,65728,6,6,4,1460,1756,1,992,263,33580,30684,65700,0,8688,0,0,0
i,0x00000000,1720562332.180330,172.16.1.2,56415,172.16.3.2,5101,7240,10172,0,64256,65728,6,6,4,1460,1756,1,992,263,33580,33580,65700,0,10136,0,0,0
o,0x00000000,1720562332.180352,172.16.1.2,56415,172.16.3.2,5101,7240,10172,0,64256,65728,6,6,4,1460,1605,1,992,249,33580,30684,65700,0,7240,0,0,0
o,0x00000000,1720562332.181065,172.16.1.2,56415,172.16.3.2,5101,7240,10172,0,64256,65728,6,6,4,1460,1605,1,992,249,33580,30684,65700,0,8688,0,0,0
i,0x00000000,1720562332.247953,172.16.1.2,56415,172.16.3.2,5101,7240,10172,0,64256,65728,6,6,4,1460,1605,1,992,249,33580,33580,65700,0,10136,0,0,0
o,0x00000000,1720562332.247977,172.16.1.2,56415,172.16.3.2,5101,7240,10172,0,64256,65728,6,6,4,1460,1469,1,992,234,33580,30684,65700,0,7240,0,0,0
o,0x00000000,1720562332.248912,172.16.1.2,56415,172.16.3.2,5101,7240,10172,0,64256,65728,6,6,4,1460,1469,1,992,234,33580,30684,65700,0,8688,0,0,0
i,0x00000000,1720562332.320895,172.16.1.2,56415,172.16.3.2,5101,7240,10172,0,64256,65728,6,6,4,1460,1469,1,992,234,33580,33580,65700,0,10136,0,0,0
o,0x00000000,1720562332.320929,172.16.1.2,56415,172.16.3.2,5101,7240,11632,0,64256,65728,6,6,4,1460,1362,1,992,216,33580,30684,65700,0,7240,0,0,0
o,0x00000000,1720562332.322013,172.16.1.2,56415,172.16.3.2,5101,7240,11632,0,64256,65728,6,6,4,1460,1362,1,992,216,33580,30684,65700,0,8688,0,0,0
o,0x00000000,1720562332.322247,172.16.1.2,56415,172.16.3.2,5101,7240,11632,0,64256,65728,6,6,4,1460,1362,1,992,216,33580,30684,65700,0,10136,0,0,0
i,0x00000000,1720562332.340881,172.16.1.2,56415,172.16.3.2,5101,7240,11632,0,64256,65728,6,6,4,1460,1362,1,992,216,33580,33580,65700,0,11584,0,0,0
o,0x00000000,1720562332.340921,172.16.1.2,56415,172.16.3.2,5101,7240,11632,0,64256,65728,6,6,4,1460,1276,1,992,196,33580,30684,65700,0,8688,0,0,0
o,0x00000000,1720562332.342124,172.16.1.2,56415,172.16.3.2,5101,7240,11632,0,64256,65728,6,6,4,1460,1276,1,992,196,33580,30684,65700,0,10136,0,0,0
i,0x00000000,1720562332.386381,172.16.1.2,56415,172.16.3.2,5101,7240,11632,0,64256,65728,6,6,4,1460,1276,1,992,196,33580,33580,65700,0,11584,0,0,0
o,0x00000000,1720562332.386398,172.16.1.2,56415,172.16.3.2,5101,7240,11632,0,65728,65728,6,6,4,1460,1197,1,992,179,33580,32132,65700,0,10136,0,0,0
i,0x00000000,1720562332.428986,172.16.1.2,56415,172.16.3.2,5101,7240,11632,0,65728,65728,6,6,4,1460,1197,1,992,179,33580,32132,65700,0,11584,0,0,0
o,0x00000000,1720562332.429023,172.16.1.2,56415,172.16.3.2,5101,7240,11632,0,64256,65728,6,6,4,1460,1120,1,992,166,33580,29236,65700,0,8688,0,0,0
o,0x00000000,1720562332.430323,172.16.1.2,56415,172.16.3.2,5101,7240,11632,0,64256,65728,6,6,4,1460,1120,1,992,166,33580,29236,65700,0,10136,0,0,0
i,0x00000000,1720562332.494961,172.16.1.2,56415,172.16.3.2,5101,7240,11632,0,64256,65728,6,6,4,1460,1120,1,992,166,33580,33580,65700,0,11584,0,0,0
o,0x00000000,1720562332.494974,172.16.1.2,56415,172.16.3.2,5101,7240,11632,0,64256,65728,6,6,4,1460,1044,1,992,155,33580,30684,65700,0,8688,0,0,0
o,0x00000000,1720562332.495224,172.16.1.2,56415,172.16.3.2,5101,7240,11632,0,64256,65728,6,6,4,1460,1044,1,992,155,33580,30684,65700,0,10136,0,0,0
i,0x00000000,1720562332.534530,172.16.1.2,56415,172.16.3.2,5101,7240,11632,0,64256,65728,6,6,4,1460,1044,1,992,155,33580,33580,65700,0,11584,0,0,0
o,0x00000000,1720562332.534543,172.16.1.2,56415,172.16.3.2,5101,7240,13092,0,64256,65728,6,6,4,1460,998,1,992,139,33580,30684,65700,0,8688,0,0,0
o,0x00000000,1720562332.534796,172.16.1.2,56415,172.16.3.2,5101,7240,13092,0,64256,65728,6,6,4,1460,998,1,992,139,33580,30684,65700,0,10136,0,0,0
o,0x00000000,1720562332.535086,172.16.1.2,56415,172.16.3.2,5101,7240,13092,0,64256,65728,6,6,4,1460,998,1,992,139,33580,30684,65700,0,11584,0,0,0
i,0x00000000,1720562332.579068,172.16.1.2,56415,172.16.3.2,5101,7240,13092,0,64256,65728,6,6,4,1460,998,1,992,139,33580,33580,65700,0,13032,0,0,0
o,0x00000000,1720562332.579083,172.16.1.2,56415,172.16.3.2,5101,7240,13092,0,64256,65728,6,6,4,1460,970,1,992,123,33580,30684,65700,0,10136,0,0,0
o,0x00000000,1720562332.579338,172.16.1.2,56415,172.16.3.2,5101,7240,13092,0,64256,65728,6,6,4,1460,970,1,992,123,33580,30684,65700,0,11584,0,0,0
i,0x00000000,1720562332.605824,172.16.1.2,56415,172.16.3.2,5101,7240,13092,0,64256,65728,6,6,4,1460,970,1,992,123,33580,33580,65700,0,13032,0,0,0
o,0x00000000,1720562332.605846,172.16.1.2,56415,172.16.3.2,5101,7240,13092,0,65728,65728,6,6,4,1460,917,1,992,117,33580,32132,65700,0,11584,0,0,0
i,0x00000000,1720562332.655116,172.16.1.2,56415,172.16.3.2,5101,7240,13092,0,65728,65728,6,6,4,1460,917,1,992,117,33580,32132,65700,0,13032,0,0,0
o,0x00000000,1720562332.655144,172.16.1.2,56415,172.16.3.2,5101,7240,13092,0,64256,65728,6,6,4,1460,891,1,992,105,33580,29236,65700,0,10136,0,0,0
o,0x00000000,1720562332.655970,172.16.1.2,56415,172.16.3.2,5101,7240,13092,0,64256,65728,6,6,4,1460,891,1,992,105,33580,29236,65700,0,11584,0,0,0
i,0x00000000,1720562332.688560,172.16.1.2,56415,172.16.3.2,5101,7240,13092,0,64256,65728,6,6,4,1460,891,1,992,105,33580,33580,65700,0,13032,0,0,0
o,0x00000000,1720562332.688603,172.16.1.2,56415,172.16.3.2,5101,7240,13092,0,64256,65728,6,6,4,1460,860,1,992,98,33580,30684,65700,0,10136,0,0,0
o,0x00000000,1720562332.689894,172.16.1.2,56415,172.16.3.2,5101,7240,13092,0,64256,65728,6,6,4,1460,860,1,992,98,33580,30684,65700,0,11584,0,0,0
i,0x00000000,1720562332.746003,172.16.1.2,56415,172.16.3.2,5101,7240,13092,0,64256,65728,6,6,4,1460,860,1,992,98,33580,33580,65700,0,13032,0,0,0
o,0x00000000,1720562332.746016,172.16.1.2,56415,172.16.3.2,5101,7240,14552,0,64256,65728,6,6,4,1460,837,1,992,90,33580,30684,65700,0,10136,0,0,0
o,0x00000000,1720562332.746381,172.16.1.2,56415,172.16.3.2,5101,7240,14552,0,64256,65728,6,6,4,1460,837,1,992,90,33580,30684,65700,0,11584,0,0,0
o,0x00000000,1720562332.746617,172.16.1.2,56415,172.16.3.2,5101,7240,14552,0,64256,65728,6,6,4,1460,837,1,992,90,33580,30684,65700,0,13032,0,0,0
i,0x00000000,1720562332.798818,172.16.1.2,56415,172.16.3.2,5101,7240,14552,0,64256,65728,6,6,4,1460,837,1,992,90,33580,33580,65700,0,14480,0,0,0
o,0x00000000,1720562332.798851,172.16.1.2,56415,172.16.3.2,5101,7240,14552,0,65728,65728,6,6,4,1460,821,1,992,82,33580,32132,65700,0,13032,0,0,0
i,0x00000000,1720562332.827043,172.16.1.2,56415,172.16.3.2,5101,7240,14552,0,65728,65728,6,6,4,1460,821,1,992,82,33580,32132,65700,0,14480,0,0,0
o,0x00000000,1720562332.827070,172.16.1.2,56415,172.16.3.2,5101,7240,14552,0,64256,65728,6,6,4,1460,815,1,992,74,33580,29236,65700,0,11584,0,0,0
o,0x00000000,1720562332.828221,172.16.1.2,56415,172.16.3.2,5101,7240,14552,0,64256,65728,6,6,4,1460,815,1,992,74,33580,29236,65700,0,13032,0,0,0
i,0x00000000,1720562332.846562,172.16.1.2,56415,172.16.3.2,5101,7240,14552,0,64256,65728,6,6,4,1460,815,1,992,74,33580,33580,65700,0,14480,0,0,0
o,0x00000000,1720562332.846579,172.16.1.2,56415,172.16.3.2,5101,7240,15928,0,64256,65728,6,6,4,1460,815,1,992,74,33580,33580,65700,0,14480,0,0,0
i,0x00000000,1720562332.896074,172.16.1.2,56415,172.16.3.2,5101,7240,14552,0,64256,65728,6,6,4,1460,815,1,992,74,33580,33580,65700,0,15928,0,0,0
o,0x00000000,1720562332.896093,172.16.1.2,56415,172.16.3.2,5101,7240,17376,0,64256,65728,6,6,4,1460,815,1,992,74,33580,33580,65700,0,15928,0,0,0
i,0x00000000,1720562332.915999,172.16.1.2,56415,172.16.3.2,5101,7240,14552,0,64256,65728,6,6,4,1460,815,1,992,74,33580,33580,65700,0,17376,0,0,0
o,0x00000000,1720562332.916021,172.16.1.2,56415,172.16.3.2,5101,7240,1448,0,64256,65728,6,6,4,1460,815,1,537920480,74,33580,33580,65700,0,17376,0,0,0
i,0x00000000,1720562332.927389,172.16.1.2,56415,172.16.3.2,5101,7240,1448,0,64256,65728,6,6,4,1460,815,1,537920480,74,33580,33580,65700,0,17376,0,0,0
i,0x00000000,1720562332.946487,172.16.1.2,56415,172.16.3.2,5101,7240,1448,0,64256,65728,6,6,4,1460,815,1,537920480,74,33580,33580,65700,0,17376,0,0,0
o,0x00000000,1720562332.946503,172.16.1.2,56415,172.16.3.2,5101,7240,2896,0,64256,65728,6,6,4,1460,815,1,537920480,74,33580,33580,65700,0,17376,0,0,0
i,0x00000000,1720562333.028589,172.16.1.2,56415,172.16.3.2,5101,7240,2896,0,64256,65728,6,6,4,1460,815,1,537920480,74,33580,33580,65700,0,18824,0,0,0
o,0x00000000,1720562333.028616,172.16.1.2,56415,172.16.3.2,5101,7240,2896,0,64256,65728,6,6,4,1460,815,1,537920480,74,33580,33580,65700,0,18824,0,0,0
i,0x00000000,1720562333.029646,172.16.1.2,56415,172.16.3.2,5101,7240,2896,0,64256,65728,6,6,4,1460,815,1,537920480,74,33580,33580,65700,0,18824,0,0,0
i,0x00000000,1720562333.046568,172.16.1.2,56415,172.16.3.2,5101,7240,4344,0,64256,65728,6,6,4,1460,815,1,537920480,74,33580,33580,65700,0,18824,0,0,0
i,0x00000000,1720562333.046582,172.16.1.2,56415,172.16.3.2,5101,7240,4344,0,64256,65728,6,6,4,1460,815,1,537920480,74,33580,33580,65700,0,18824,0,0,0
o,0x00000000,1720562333.046589,172.16.1.2,56415,172.16.3.2,5101,7240,5792,0,64256,65728,6,6,4,1460,815,1,537920480,74,33580,33580,65700,0,18824,0,0,0
i,0x00000000,1720562333.120802,172.16.1.2,56415,172.16.3.2,5101,7240,5792,0,64256,65728,6,6,4,1460,815,1,537920480,74,33580,33580,65700,0,20272,0,0,0
o,0x00000000,1720562333.120830,172.16.1.2,56415,172.16.3.2,5101,7240,7240,0,64256,65728,6,6,4,1460,815,1,537920480,74,33580,33580,65700,0,20272,0,0,0
i,0x00000000,1720562333.121213,172.16.1.2,56415,172.16.3.2,5101,7240,7240,0,64256,65728,6,6,4,1460,815,1,537920480,74,33580,33580,65700,0,21720,0,0,0
o,0x00000000,1720562333.121231,172.16.1.2,56415,172.16.3.2,5101,7240,7240,0,64256,65728,6,6,4,1460,815,1,537920481,74,33580,33580,65700,0,21720,0,0,0
i,0x00000000,1720562333.122629,172.16.1.2,56415,172.16.3.2,5101,7240,7240,0,57088,65728,6,6,4,1460,798,1,537920480,71,33580,24892,65700,0,14480,0,0,0
o,0x00000000,1720562333.122648,172.16.1.2,56415,172.16.3.2,5101,7240,8688,0,57088,65728,6,6,4,1460,798,1,537920480,71,33580,24892,65700,0,14480,0,0,0
i,0x00000000,1720562333.168939,172.16.1.2,56415,172.16.3.2,5101,7240,8688,0,57088,65728,6,6,4,1460,798,1,537920480,71,33580,33580,65700,0,15928,0,0,0
o,0x00000000,1720562333.168985,172.16.1.2,56415,172.16.3.2,5101,7240,7252,0,55616,65728,6,6,4,1460,755,1,992,74,33580,23444,65700,0,5792,0,0,0
i,0x00000000,1720562333.240004,172.16.1.2,56415,172.16.3.2,5101,7240,7252,0,55616,65728,6,6,4,1460,755,1,992,74,33580,33580,65700,0,7240,0,0,0
o,0x00000000,1720562333.240026,172.16.1.2,56415,172.16.3.2,5101,7240,8712,0,65728,65728,6,6,4,1460,737,1,992,70,33580,32132,65700,0,5792,0,0,0
o,0x00000000,1720562333.240595,172.16.1.2,56415,172.16.3.2,5101,7240,8712,0,65728,65728,6,6,4,1460,737,1,992,70,33580,32132,65700,0,7240,0,0,0
i,0x00000000,1720562333.246782,172.16.1.2,56415,172.16.3.2,5101,7240,8712,0,65728,65728,6,6,4,1460,737,1,992,70,33580,32132,65700,0,8688,0,0,0
o,0x00000000,1720562333.246802,172.16.1.2,56415,172.16.3.2,5101,7240,8712,0,64256,65728,6,6,4,1460,693,1,992,73,33580,29236,65700,0,5792,0,0,0
o,0x00000000,1720562333.247086,172.16.1.2,56415,172.16.3.2,5101,7240,8712,0,64256,65728,6,6,4,1460,693,1,992,73,33580,29236,65700,0,7240,0,0,0
i,0x00000000,1720562333.305603,172.16.1.2,56415,172.16.3.2,5101,7240,8712,0,64256,65728,6,6,4,1460,693,1,992,73,33580,33580,65700,0,8688,0,0,0
o,0x00000000,1720562333.305616,172.16.1.2,56415,172.16.3.2,5101,7240,8712,0,65728,65728,6,6,4,1460,679,1,992,68,33580,32132,65700,0,7240,0,0,0
i,0x00000000,1720562333.339427,172.16.1.2,56415,172.16.3.2,5101,7240,8712,0,65728,65728,6,6,4,1460,679,1,992,68,33580,32132,65700,0,8688,0,0,0
o,0x00000000,1720562333.339468,172.16.1.2,56415,172.16.3.2,5101,7240,10172,0,65728,65728,6,6,4,1460,663,1,992,65,33580,30684,65700,0,7240,0,0,0
o,0x00000000,1720562333.341173,172.16.1.2,56415,172.16.3.2,5101,7240,10172,0,65728,65728,6,6,4,1460,663,1,992,65,33580,30684,65700,0,8688,0,0,0
i,0x00000000,1720562333.423246,172.16.1.2,56415,172.16.3.2,5101,7240,10172,0,65728,65728,6,6,4,1460,663,1,992,65,33580,33580,65700,0,10136,0,0,0
o,0x00000000,1720562333.423280,172.16.1.2,56415,172.16.3.2,5101,7240,10172,0,64256,65728,6,6,4,1460,653,1,992,61,33580,30684,65700,0,7240,0,0,0
o,0x00000000,1720562333.424267,172.16.1.2,56415,172.16.3.2,5101,7240,10172,0,64256,65728,6,6,4,1460,653,1,992,61,33580,30684,65700,0,8688,0,0,0
i,0x00000000,1720562333.453237,172.16.1.2,56415,172.16.3.2,5101,7240,10172,0,64256,65728,6,6,4,1460,653,1,992,61,33580,33580,65700,0,10136,0,0,0
o,0x00000000,1720562333.453275,172.16.1.2,56415,172.16.3.2,5101,7240,10172,0,64256,65728,6,6,4,1460,652,1,992,56,33580,30684,65700,0,7240,0,0,0
o,0x00000000,1720562333.454297,172.16.1.2,56415,172.16.3.2,5101,7240,10172,0,64256,65728,6,6,4,1460,652,1,992,56,33580,30684,65700,0,8688,0,0,0
i,0x00000000,1720562333.508309,172.16.1.2,56415,172.16.3.2,5101,7240,10172,0,64256,65728,6,6,4,1460,652,1,992,56,33580,33580,65700,0,10136,0,0,0
o,0x00000000,1720562333.508336,172.16.1.2,56415,172.16.3.2,5101,7240,10172,0,64256,65728,6,6,4,1460,651,1,992,52,33580,30684,65700,0,7240,0,0,0
o,0x00000000,1720562333.509415,172.16.1.2,56415,172.16.3.2,5101,7240,10172,0,64256,65728,6,6,4,1460,651,1,992,52,33580,30684,65700,0,8688,0,0,0
i,0x00000000,1720562333.557107,172.16.1.2,56415,172.16.3.2,5101,7240,10172,0,64256,65728,6,6,4,1460,651,1,992,52,33580,33580,65700,0,10136,0,0,0
o,0x00000000,1720562333.557126,172.16.1.2,56415,172.16.3.2,5101,7240,11632,0,65728,65728,6,6,4,1460,654,1,992,50,33580,32132,65700,0,8688,0,0,0
o,0x00000000,1720562333.557874,172.16.1.2,56415,172.16.3.2,5101,7240,11632,0,65728,65728,6,6,4,1460,654,1,992,50,33580,32132,65700,0,10136,0,0,0
i,0x00000000,1720562333.596611,172.16.1.2,56415,172.16.3.2,5101,7240,11632,0,65728,65728,6,6,4,1460,654,1,992,50,33580,32132,65700,0,11584,0,0,0
o,0x00000000,1720562333.596640,172.16.1.2,56415,172.16.3.2,5101,7240,11632,0,64256,65728,6,6,4,1460,641,1,992,51,33580,29236,65700,0,8688,0,0,0
o,0x00000000,1720562333.597427,172.16.1.2,56415,172.16.3.2,5101,7240,11632,0,64256,65728,6,6,4,1460,641,1,992,51,33580,29236,65700,0,10136,0,0,0
i,0x00000000,1720562333.599312,172.16.1.2,56415,172.16.3.2,5101,7240,11632,0,64256,65728,6,6,4,1460,641,1,992,51,33580,33580,65700,0,11584,0,0,0
o,0x00000000,1720562333.599333,172.16.1.2,56415,172.16.3.2,5101,7240,11632,0,64256,65728,6,6,4,1460,617,1,992,53,33580,30684,65700,0,8688,0,0,0
o,0x00000000,1720562333.600629,172.16.1.2,56415,172.16.3.2,5101,7240,11632,0,64256,65728,6,6,4,1460,617,1,992,53,33580,30684,65700,0,10136,0,0,0
i,0x00000000,1720562333.650864,172.16.1.2,56415,172.16.3.2,5101,7240,11632,0,64256,65728,6,6,4,1460,617,1,992,53,33580,33580,65700,0,11584,0,0,0
o,0x00000000,1720562333.650905,172.16.1.2,56415,172.16.3.2,5101,7240,11632,0,64256,65728,6,6,4,1460,596,1,992,54,33580,30684,65700,0,8688,0,0,0
o,0x00000000,1720562333.652247,172.16.1.2,56415,172.16.3.2,5101,7240,11632,0,64256,65728,6,6,4,1460,596,1,992,54,33580,30684,65700,0,10136,0,0,0
i,0x00000000,1720562333.777746,172.16.1.2,56415,172.16.3.2,5101,7240,11632,0,64256,65728,6,6,4,1460,596,1,992,54,33580,33580,65700,0,11584,0,0,0
o,0x00000000,1720562333.777782,172.16.1.2,56415,172.16.3.2,5101,7240,13092,0,64256,65728,6,6,4,1460,610,1,992,54,33580,30684,65700,0,8688,0,0,0
o,0x00000000,1720562333.778266,172.16.1.2,56415,172.16.3.2,5101,7240,13092,0,64256,65728,6,6,4,1460,610,1,992,54,33580,30684,65700,0,10136,0,0,0
o,0x00000000,1720562333.778675,172.16.1.2,56415,172.16.3.2,5101,7240,13092,0,64256,65728,6,6,4,1460,610,1,992,54,33580,30684,65700,0,11584,0,0,0
i,0x00000000,1720562333.779081,172.16.1.2,56415,172.16.3.2,5101,7240,13092,0,64256,65728,6,6,4,1460,610,1,992,54,33580,30684,65700,0,13032,0,0,0
o,0x00000000,1720562333.779105,172.16.1.2,56415,172.16.3.2,5101,7240,13092,0,64256,65728,6,6,4,1460,606,1,992,51,33580,27788,65700,0,10136,0,0,0
o,0x00000000,1720562333.779401,172.16.1.2,56415,172.16.3.2,5101,7240,13092,0,64256,65728,6,6,4,1460,606,1,992,51,33580,27788,65700,0,11584,0,0,0
i,0x00000000,1720562333.827104,172.16.1.2,56415,172.16.3.2,5101,7240,13092,0,64256,65728,6,6,4,1460,606,1,992,51,33580,33580,65700,0,13032,0,0,0
o,0x00000000,1720562333.827134,172.16.1.2,56415,172.16.3.2,5101,7240,13092,0,64256,65728,6,6,4,1460,623,1,992,53,33580,30684,65700,0,10136,0,0,0
o,0x00000000,1720562333.828534,172.16.1.2,56415,172.16.3.2,5101,7240,13092,0,64256,65728,6,6,4,1460,623,1,992,53,33580,30684,65700,0,11584,0,0,0
i,0x00000000,1720562333.866085,172.16.1.2,56415,172.16.3.2,5101,7240,13092,0,64256,65728,6,6,4,1460,623,1,992,53,33580,33580,65700,0,13032,0,0,0
o,0x00000000,1720562333.866100,172.16.1.2,56415,172.16.3.2,5101,7240,13092,0,64256,65728,6,6,4,1460,630,1,992,51,33580,30684,65700,0,10136,0,0,0
o,0x00000000,1720562333.866530,172.16.1.2,56415,172.16.3.2,5101,7240,13092,0,64256,65728,6,6,4,1460,630,1,992,51,33580,30684,65700,0,11584,0,0,0
i,0x00000000,1720562333.957071,172.16.1.2,56415,172.16.3.2,5101,7240,13092,0,64256,65728,6,6,4,1460,630,1,992,51,33580,33580,65700,0,13032,0,0,0
o,0x00000000,1720562333.957102,172.16.1.2,56415,172.16.3.2,5101,7240,13092,0,64256,65728,6,6,4,1460,624,1,992,50,33580,30684,65700,0,10136,0,0,0
o,0x00000000,1720562333.958055,172.16.1.2,56415,172.16.3.2,5101,7240,13092,0,64256,65728,6,6,4,1460,624,1,992,50,33580,30684,65700,0,11584,0,0,0
i,0x00000000,1720562334.005772,172.16.1.2,56415,172.16.3.2,5101,7240,13092,0,64256,65728,6,6,4,1460,624,1,992,50,33580,33580,65700,0,13032,0,0,0
o,0x00000000,1720562334.005796,172.16.1.2,56415,172.16.3.2,5101,7240,14552,0,64256,65728,6,6,4,1460,634,1,992,50,33580,30684,65700,0,10136,0,0,0
o,0x00000000,1720562334.007002,172.16.1.2,56415,172.16.3.2,5101,7240,14552,0,64256,65728,6,6,4,1460,634,1,992,50,33580,30684,65700,0,11584,0,0,0
o,0x00000000,1720562334.007841,172.16.1.2,56415,172.16.3.2,5101,7240,14552,0,64256,65728,6,6,4,1460,634,1,992,50,33580,30684,65700,0,13032,0,0,0
i,0x00000000,1720562334.049340,172.16.1.2,56415,172.16.3.2,5101,7240,14552,0,64256,65728,6,6,4,1460,634,1,992,50,33580,33580,65700,0,14480,0,0,0
o,0x00000000,1720562334.049381,172.16.1.2,56415,172.16.3.2,5101,7240,14552,0,65728,65728,6,6,4,1460,663,1,992,56,33580,32132,65700,0,13032,0,0,0
i,0x00000000,1720562334.067138,172.16.1.2,56415,172.16.3.2,5101,7240,14552,0,65728,65728,6,6,4,1460,663,1,992,56,33580,32132,65700,0,14480,0,0,0
o,0x00000000,1720562334.067178,172.16.1.2,56415,172.16.3.2,5101,7240,14552,0,64256,65728,6,6,4,1460,677,1,992,56,33580,29236,65700,0,11584,0,0,0
o,0x00000000,1720562334.068535,172.16.1.2,56415,172.16.3.2,5101,7240,14552,0,64256,65728,6,6,4,1460,677,1,992,56,33580,29236,65700,0,13032,0,0,0
i,0x00000000,1720562334.098032,172.16.1.2,56415,172.16.3.2,5101,7240,14552,0,64256,65728,6,6,4,1460,677,1,992,56,33580,33580,65700,0,14480,0,0,0
o,0x00000000,1720562334.098069,172.16.1.2,56415,172.16.3.2,5101,7240,14552,0,65728,65728,6,6,4,1460,685,1,992,54,33580,32132,65700,0,13032,0,0,0
i,0x00000000,1720562334.146993,172.16.1.2,56415,172.16.3.2,5101,7240,14552,0,65728,65728,6,6,4,1460,685,1,992,54,33580,32132,65700,0,14480,0,0,0
o,0x00000000,1720562334.147031,172.16.1.2,56415,172.16.3.2,5101,7240,14552,0,65728,65728,6,6,4,1460,712,1,992,59,33580,30684,65700,0,13032,0,0,0
i,0x00000000,1720562334.188626,172.16.1.2,56415,172.16.3.2,5101,7240,14552,0,65728,65728,6,6,4,1460,712,1,992,59,33580,33580,65700,0,14480,0,0,0
o,0x00000000,1720562334.188674,172.16.1.2,56415,172.16.3.2,5101,7240,14552,0,64256,65728,6,6,4,1460,715,1,992,55,33580,30684,65700,0,11584,0,0,0
o,0x00000000,1720562334.190028,172.16.1.2,56415,172.16.3.2,5101,7240,14552,0,64256,65728,6,6,4,1460,715,1,992,55,33580,30684,65700,0,13032,0,0,0
i,0x00000000,1720562334.239688,172.16.1.2,56415,172.16.3.2,5101,7240,14552,0,64256,65728,6,6,4,1460,715,1,992,55,33580,33580,65700,0,14480,0,0,0
o,0x00000000,1720562334.239704,172.16.1.2,56415,172.16.3.2,5101,7240,14552,0,65728,65728,6,6,4,1460,722,1,992,54,33580,32132,65700,0,13032,0,0,0
i,0x00000000,1720562334.239956,172.16.1.2,56415,172.16.3.2,5101,7240,14552,0,65728,65728,6,6,4,1460,722,1,992,54,33580,32132,65700,0,14480,0,0,0
o,0x00000000,1720562334.239961,172.16.1.2,56415,172.16.3.2,5101,7240,15928,0,65728,65728,6,6,4,1460,722,1,992,54,33580,32132,65700,0,14480,0,0,0
i,0x00000000,1720562334.265808,172.16.1.2,56415,172.16.3.2,5101,7240,14552,0,65728,65728,6,6,4,1460,722,1,992,54,33580,32132,65700,0,15928,0,0,0
o,0x00000000,1720562334.265821,172.16.1.2,56415,172.16.3.2,5101,7240,17376,0,65728,65728,6,6,4,1460,722,1,992,54,41772,32132,65700,0,15928,0,0,0
i,0x00000000,1720562334.295542,172.16.1.2,56415,172.16.3.2,5101,7240,14552,0,65728,65728,6,6,4,1460,722,1,992,54,41772,32132,65700,0,17376,0,0,0
o,0x00000000,1720562334.295567,172.16.1.2,56415,172.16.3.2,5101,7240,1448,0,65728,65728,6,6,4,1460,722,1,537920480,54,41772,32132,65700,0,17376,0,0,0
i,0x00000000,1720562334.297335,172.16.1.2,56415,172.16.3.2,5101,7240,1448,0,65728,65728,6,6,4,1460,722,1,537920480,54,41772,32132,65700,0,17376,0,0,0
i,0x00000000,1720562334.306811,172.16.1.2,56415,172.16.3.2,5101,7240,1448,0,65728,65728,6,6,4,1460,722,1,537920480,54,41772,32132,65700,0,17376,0,0,0
o,0x00000000,1720562334.306838,172.16.1.2,56415,172.16.3.2,5101,7240,2896,0,65728,65728,6,6,4,1460,722,1,537920480,54,41772,32132,65700,0,17376,0,0,0
i,0x00000000,1720562334.348032,172.16.1.2,56415,172.16.3.2,5101,7240,2896,0,65728,65728,6,6,4,1460,722,1,537920480,54,41772,32132,65700,0,18824,0,0,0
i,0x00000000,1720562334.378862,172.16.1.2,56415,172.16.3.2,5101,7240,2896,0,65728,65728,6,6,4,1460,722,1,537920480,54,41772,32132,65700,0,18824,0,0,0
i,0x00000000,1720562334.395159,172.16.1.2,56415,172.16.3.2,5101,7240,2896,0,65728,65728,6,6,4,1460,722,1,537920480,54,41772,32132,65700,0,18824,0,0,0
o,0x00000000,1720562334.395202,172.16.1.2,56415,172.16.3.2,5101,7240,4344,0,65728,65728,6,6,4,1460,722,1,537920480,54,41772,32132,65700,0,18824,0,0,0
i,0x00000000,1720562334.446199,172.16.1.2,56415,172.16.3.2,5101,7240,4344,0,65728,65728,6,6,4,1460,722,1,537920480,54,41772,32132,65700,0,20272,0,0,0
i,0x00000000,1720562334.448063,172.16.1.2,56415,172.16.3.2,5101,7240,4344,0,65728,65728,6,6,4,1460,722,1,537920480,54,41772,32132,65700,0,20272,0,0,0
o,0x00000000,1720562334.448091,172.16.1.2,56415,172.16.3.2,5101,7240,5792,0,65728,65728,6,6,4,1460,722,1,537920480,54,41772,32132,65700,0,20272,0,0,0
i,0x00000000,1720562334.499339,172.16.1.2,56415,172.16.3.2,5101,7240,5792,0,65728,65728,6,6,4,1460,722,1,537920480,54,41772,32132,65700,0,21720,0,0,0
o,0x00000000,1720562334.499370,172.16.1.2,56415,172.16.3.2,5101,7240,7240,0,65728,65728,6,6,4,1460,722,1,537920480,54,41772,32132,65700,0,21720,0,0,0
i,0x00000000,1720562334.501815,172.16.1.2,56415,172.16.3.2,5101,7240,7240,0,65728,65728,6,6,4,1460,722,1,537920480,54,41772,32132,65700,0,23168,0,0,0
o,0x00000000,1720562334.501836,172.16.1.2,56415,172.16.3.2,5101,7240,7252,0,48384,65728,6,6,4,1460,712,1,992,53,41772,14756,65700,0,5792,0,0,0
i,0x00000000,1720562334.502103,172.16.1.2,56415,172.16.3.2,5101,7240,7252,0,48384,65728,6,6,4,1460,712,1,992,53,41772,14756,65700,0,7240,0,0,0
o,0x00000000,1720562334.502116,172.16.1.2,56415,172.16.3.2,5101,7240,8688,0,48384,65728,6,6,4,1460,712,1,992,53,41772,14756,65700,0,7240,0,0,0
i,0x00000000,1720562334.547926,172.16.1.2,56415,172.16.3.2,5101,7240,7252,0,48384,65728,6,6,4,1460,712,1,992,53,41772,41772,65700,0,8688,0,0,0
o,0x00000000,1720562334.547970,172.16.1.2,56415,172.16.3.2,5101,7240,8712,0,65728,65728,6,6,4,1460,719,1,992,52,41772,40324,65700,0,7240,0,0,0
i,0x00000000,1720562334.599084,172.16.1.2,56415,172.16.3.2,5101,7240,8712,0,65728,65728,6,6,4,1460,719,1,992,52,41772,40324,65700,0,8688,0,0,0
o,0x00000000,1720562334.599130,172.16.1.2,56415,172.16.3.2,5101,7240,8712,0,65728,65728,6,6,4,1460,714,1,992,51,41772,38876,65700,0,7240,0,0,0
i,0x00000000,1720562334.666857,172.16.1.2,56415,172.16.3.2,5101,7240,8712,0,65728,65728,6,6,4,1460,714,1,992,51,41772,41772,65700,0,8688,0,0,0
o,0x00000000,1720562334.666894,172.16.1.2,56415,172.16.3.2,5101,7240,8712,0,65728,65728,6,6,4,1460,709,1,992,50,41772,40324,65700,0,7240,0,0,0
i,0x00000000,1720562334.686837,172.16.1.2,56415,172.16.3.2,5101,7240,8712,0,65728,65728,6,6,4,1460,709,1,992,50,41772,40324,65700,0,8688,0,0,0
o,0x00000000,1720562334.686851,172.16.1.2,56415,172.16.3.2,5101,7240,10172,0,64256,65728,6,6,4,1460,693,1,992,51,41772,37428,65700,0,5792,0,0,0
o,0x00000000,1720562334.687103,172.16.1.2,56415,172.16.3.2,5101,7240,10172,0,64256,65728,6,6,4,1460,693,1,992,51,41772,37428,65700,0,7240,0,0,0
o,0x00000000,1720562334.687731,172.16.1.2,56415,172.16.3.2,5101,7240,10172,0,64256,65728,6,6,4,1460,693,1,992,51,41772,37428,65700,0,8688,0,0,0
i,0x00000000,1720562334.688058,172.16.1.2,56415,172.16.3.2,5101,7240,10172,0,64256,65728,6,6,4,1460,693,1,992,51,41772,37428,65700,0,10136,0,0,0
o,0x00000000,1720562334.688063,172.16.1.2,56415,172.16.3.2,5101,7240,10172,0,64256,65728,6,6,4,1460,679,1,992,52,41772,34532,65700,0,7240,0,0,0
o,0x00000000,1720562334.688306,172.16.1.2,56415,172.16.3.2,5101,7240,10172,0,64256,65728,6,6,4,1460,679,1,992,52,41772,34532,65700,0,8688,0,0,0
i,0x00000000,1720562334.778388,172.16.1.2,56415,172.16.3.2,5101,7240,10172,0,64256,65728,6,6,4,1460,679,1,992,52,41772,41772,65700,0,10136,0,0,0
o,0x00000000,1720562334.778434,172.16.1.2,56415,172.16.3.2,5101,7240,10172,0,65728,65728,6,6,4,1460,663,1,992,53,41772,40324,65700,0,8688,0,0,0
i,0x00000000,1720562334.856631,172.16.1.2,56415,172.16.3.2,5101,7240,10172,0,65728,65728,6,6,4,1460,663,1,992,53,41772,40324,65700,0,10136,0,0,0
o,0x00000000,1720562334.856679,172.16.1.2,56415,172.16.3.2,5101,7240,10172,0,64256,65728,6,6,4,1460,657,1,992,51,41772,37428,65700,0,7240,0,0,0
o,0x00000000,1720562334.857665,172.16.1.2,56415,172.16.3.2,5101,7240,10172,0,64256,65728,6,6,4,1460,657,1,992,51,41772,37428,65700,0,8688,0,0,0
i,0x00000000,1720562334.877135,172.16.1.2,56415,172.16.3.2,5101,7240,10172,0,64256,65728,6,6,4,1460,657,1,992,51,41772,41772,65700,0,10136,0,0,0
o,0x00000000,1720562334.877176,172.16.1.2,56415,172.16.3.2,5101,7240,11632,0,62848,65728,6,6,4,1460,651,1,992,50,41772,38876,65700,0,7240,0,0,0
o,0x00000000,1720562334.878503,172.16.1.2,56415,172.16.3.2,5101,7240,11632,0,62848,65728,6,6,4,1460,651,1,992,50,41772,38876,65700,0,8688,0,0,0
o,0x00000000,1720562334.879804,172.16.1.2,56415,172.16.3.2,5101,7240,11632,0,62848,65728,6,6,4,1460,651,1,992,50,41772,38876,65700,0,10136,0,0,0
i,0x00000000,1720562334.909394,172.16.1.2,56415,172.16.3.2,5101,7240,11632,0,62848,65728,6,6,4,1460,651,1,992,50,41772,41772,65700,0,11584,0,0,0
o,0x00000000,1720562334.909407,172.16.1.2,56415,172.16.3.2,5101,7240,11632,0,64256,65728,6,6,4,1460,658,1,992,49,41772,38876,65700,0,8688,0,0,0
o,0x00000000,1720562334.909734,172.16.1.2,56415,172.16.3.2,5101,7240,11632,0,64256,65728,6,6,4,1460,658,1,992,49,41772,38876,65700,0,10136,0,0,0
i,0x00000000,1720562334.997879,172.16.1.2,56415,172.16.3.2,5101,7240,11632,0,64256,65728,6,6,4,1460,658,1,992,49,41772,41772,65700,0,11584,0,0,0
o,0x00000000,1720562334.997908,172.16.1.2,56415,172.16.3.2,5101,7240,11632,0,65728,65728,6,6,4,1460,664,1,992,49,41772,40324,65700,0,10136,0,0,0
i,0x00000000,1720562335.026199,172.16.1.2,56415,172.16.3.2,5101,7240,11632,0,65728,65728,6,6,4,1460,664,1,992,49,41772,40324,65700,0,11584,0,0,0
o,0x00000000,1720562335.026225,172.16.1.2,56415,172.16.3.2,5101,7240,11632,0,64256,65728,6,6,4,1460,645,1,992,51,41772,37428,65700,0,8688,0,0,0
o,0x00000000,1720562335.027267,172.16.1.2,56415,172.16.3.2,5101,7240,11632,0,64256,65728,6,6,4,1460,645,1,992,51,41772,37428,65700,0,10136,0,0,0
i,0x00000000,1720562335.077626,172.16.1.2,56415,172.16.3.2,5101,7240,11632,0,64256,65728,6,6,4,1460,645,1,992,51,41772,41772,65700,0,11584,0,0,0
o,0x00000000,1720562335.077667,172.16.1.2,56415,172.16.3.2,5101,7240,11632,0,64256,65728,6,6,4,1460,641,1,992,49,41772,38876,65700,0,8688,0,0,0
o,0x00000000,1720562335.079036,172.16.1.2,56415,172.16.3.2,5101,7240,11632,0,64256,65728,6,6,4,1460,641,1,992,49,41772,38876,65700,0,10136,0,0,0
i,0x00000000,1720562335.119500,172.16.1.2,56415,172.16.3.2,5101,7240,11632,0,64256,65728,6,6,4,1460,641,1,992,49,41772,41772,65700,0,11584,0,0,0
o,0x00000000,1720562335.119526,172.16.1.2,56415,172.16.3.2,5101,7240,13092,0,64256,65728,6,6,4,1460,657,1,992,51,41772,38876,65700,0,8688,0,0,0
o,0x00000000,1720562335.120360,172.16.1.2,56415,172.16.3.2,5101,7240,13092,0,64256,65728,6,6,4,1460,657,1,992,51,41772,38876,65700,0,10136,0,0,0
o,0x00000000,1720562335.121253,172.16.1.2,56415,172.16.3.2,5101,7240,13092,0,64256,65728,6,6,4,1460,657,1,992,51,41772,38876,65700,0,11584,0,0,0
i,0x00000000,1720562335.162816,172.16.1.2,56415,172.16.3.2,5101,7240,13092,0,64256,65728,6,6,4,1460,657,1,992,51,41772,41772,65700,0,13032,0,0,0
o,0x00000000,1720562335.162855,172.16.1.2,56415,172.16.3.2,5101,7240,13092,0,65728,65728,6,6,4,1460,675,1,992,54,41772,40324,65700,0,11584,0,0,0
i,0x00000000,1720562335.187294,172.16.1.2,56415,172.16.3.2,5101,7240,13092,0,65728,65728,6,6,4,1460,675,1,992,54,41772,40324,65700,0,13032,0,0,0
o,0x00000000,1720562335.187322,172.16.1.2,56415,172.16.3.2,5101,7240,13092,0,62848,65728,6,6,4,1460,663,1,992,53,41772,37428,65700,0,10136,0,0,0
o,0x00000000,1720562335.188158,172.16.1.2,56415,172.16.3.2,5101,7240,13092,0,62848,65728,6,6,4,1460,663,1,992,53,41772,37428,65700,0,11584,0,0,0
i,0x00000000,1720562335.266674,172.16.1.2,56415,172.16.3.2,5101,7240,13092,0,62848,65728,6,6,4,1460,663,1,992,53,41772,41772,65700,0,13032,0,0,0
o,0x00000000,1720562335.266702,172.16.1.2,56415,172.16.3.2,5101,7240,13092,0,65728,65728,6,6,4,1460,677,1,992,54,41772,40324,65700,0,11584,0,0,0
i,0x00000000,1720562335.277365,172.16.1.2,56415,172.16.3.2,5101,7240,13092,0,65728,65728,6,6,4,1460,677,1,992,54,41772,40324,65700,0,13032,0,0,0
o,0x00000000,1720562335.277387,172.16.1.2,56415,172.16.3.2,5101,7240,13092,0,64256,65728,6,6,4,1460,673,1,992,52,41772,37428,65700,0,10136,0,0,0
o,0x00000000,1720562335.278029,172.16.1.2,56415,172.16.3.2,5101,7240,13092,0,64256,65728,6,6,4,1460,673,1,992,52,41772,37428,65700,0,11584,0,0,0
i,0x00000000,1720562335.315962,172.16.1.2,56415,172.16.3.2,5101,7240,13092,0,64256,65728,6,6,4,1460,673,1,992,52,41772,41772,65700,0,13032,0,0,0
o,0x00000000,1720562335.315974,172.16.1.2,56415,172.16.3.2,5101,7240,14552,0,64256,65728,6,6,4,1460,665,1,992,51,41772,38876,65700,0,10136,0,0,0
o,0x00000000,1720562335.316337,172.16.1.2,56415,172.16.3.2,5101,7240,14552,0,64256,65728,6,6,4,1460,665,1,992,51,41772,38876,65700,0,11584,0,0,0
o,0x00000000,1720562335.316571,172.16.1.2,56415,172.16.3.2,5101,7240,14552,0,64256,65728,6,6,4,1460,665,1,992,51,41772,38876,65700,0,13032,0,0,0
i,0x00000000,1720562335.360529,172.16.1.2,56415,172.16.3.2,5101,7240,14552,0,64256,65728,6,6,4,1460,665,1,992,51,41772,41772,65700,0,14480,0,0,0
o,0x00000000,1720562335.360562,172.16.1.2,56415,172.16.3.2,5101,7240,14552,0,64256,65728,6,6,4,1460,678,1,992,52,41772,38876,65700,0,11584,0,0,0
o,0x00000000,1720562335.361634,172.16.1.2,56415,172.16.3.2,5101,7240,14552,0,64256,65728,6,6,4,1460,678,1,992,52,41772,38876,65700,0,13032,0,0,0
i,0x00000000,1720562335.428081,172.16.1.2,56415,172.16.3.2,5101,7240,14552,0,64256,65728,6,6,4,1460,678,1,992,52,41772,41772,65700,0,14480,0,0,0
o,0x00000000,1720562335.428120,172.16.1.2,56415,172.16.3.2,5101,7240,14552,0,64256,65728,6,6,4,1460,690,1,992,52,41772,38876,65700,0,11584,0,0,0
o,0x00000000,1720562335.429935,172.16.1.2,56415,172.16.3.2,5101,7240,14552,0,64256,65728,6,6,4,1460,690,1,992,52,41772,38876,65700,0,13032,0,0,0
i,0x00000000,1720562335.467197,172.16.1.2,56415,172.16.3.2,5101,7240,14552,0,64256,65728,6,6,4,1460,690,1,992,52,41772,41772,65700,0,14480,0,0,0
o,0x00000000,1720562335.467219,172.16.1.2,56415,172.16.3.2,5101,7240,14552,0,65728,65728,6,6,4,1460,684,1,992,51,41772,40324,65700,0,13032,0,0,0
i,0x00000000,1720562335.497312,172.16.1.2,56415,172.16.3.2,5101,7240,14552,0,65728,65728,6,6,4,1460,684,1,992,51,41772,40324,65700,0,14480,0,0,0
o,0x00000000,1720562335.497335,172.16.1.2,56415,172.16.3.2,5101,7240,14552,0,64256,65728,6,6,4,1460,687,1,992,49,41772,37428,65700,0,11584,0,0,0
o,0x00000000,1720562335.498004,172.16.1.2,56415,172.16.3.2,5101,7240,14552,0,64256,65728,6,6,4,1460,687,1,992,49,41772,37428,65700,0,13032,0,0,0
i,0x00000000,1720562335.536800,172.16.1.2,56415,172.16.3.2,5101,7240,14552,0,64256,65728,6,6,4,1460,687,1,992,49,41772,41772,65700,0,14480,0,0,0
o,0x00000000,1720562335.536837,172.16.1.2,56415,172.16.3.2,5101,7240,14552,0,64256,65728,6,6,4,1460,690,1,992,48,41772,38876,65700,0,11584,0,0,0
o,0x00000000,1720562335.537923,172.16.1.2,56415,172.16.3.2,5101,7240,14552,0,64256,65728,6,6,4,1460,690,1,992,48,41772,38876,65700,0,13032,0,0,0
i,0x00000000,1720562335.577806,172.16.1.2,56415,172.16.3.2,5101,7240,14552,0,64256,65728,6,6,4,1460,690,1,992,48,41772,41772,65700,0,14480,0,0,0
o,0x00000000,1720562335.577839,172.16.1.2,56415,172.16.3.2,5101,7240,16012,0,64256,65728,6,6,4,1460,708,1,992,51,41772,38876,65700,0,11584,0,0,0
o,0x00000000,1720562335.578893,172.16.1.2,56415,172.16.3.2,5101,7240,16012,0,64256,65728,6,6,4,1460,708,1,992,51,41772,38876,65700,0,13032,0,0,0
o,0x00000000,1720562335.580208,172.16.1.2,56415,172.16.3.2,5101,7240,16012,0,64256,65728,6,6,4,1460,708,1,992,51,41772,38876,65700,0,14480,0,0,0
i,0x00000000,1720562335.617335,172.16.1.2,56415,172.16.3.2,5101,7240,16012,0,64256,65728,6,6,4,1460,708,1,992,51,41772,41772,65700,0,15928,0,0,0
o,0x00000000,1720562335.617354,172.16.1.2,56415,172.16.3.2,5101,7240,17376,0,64256,65728,6,6,4,1460,708,1,992,51,41772,41772,65700,0,15928,0,0,0
i,0x00000000,1720562335.645528,172.16.1.2,56415,172.16.3.2,5101,7240,16012,0,64256,65728,6,6,4,1460,708,1,992,51,41772,41772,65700,0,17376,0,0,0
o,0x00000000,1720562335.645548,172.16.1.2,56415,172.16.3.2,5101,7240,18824,0,64256,65728,6,6,4,1460,708,1,992,51,41772,41772,65700,0,17376,0,0,0
i,0x00000000,1720562335.655270,172.16.1.2,56415,172.16.3.2,5101,7240,16012,0,64256,65728,6,6,4,1460,708,1,992,51,41772,41772,65700,0,18824,0,0,0
o,0x00000000,1720562335.655286,172.16.1.2,56415,172.16.3.2,5101,7240,1448,0,64256,65728,6,6,4,1460,708,1,537920480,51,41772,41772,65700,0,18824,0,0,0
i,0x00000000,1720562335.695411,172.16.1.2,56415,172.16.3.2,5101,7240,1448,0,64256,65728,6,6,4,1460,708,1,537920480,51,41772,41772,65700,0,18824,0,0,0
i,0x00000000,1720562335.704695,172.16.1.2,56415,172.16.3.2,5101,7240,1448,0,64256,65728,6,6,4,1460,708,1,537920480,51,41772,41772,65700,0,18824,0,0,0
i,0x00000000,1720562335.754209,172.16.1.2,56415,172.16.3.2,5101,7240,1448,0,64256,65728,6,6,4,1460,708,1,537920480,51,41772,41772,65700,0,18824,0,0,0
o,0x00000000,1720562335.754220,172.16.1.2,56415,172.16.3.2,5101,7240,2896,0,64256,65728,6,6,4,1460,708,1,537920480,51,41772,41772,65700,0,18824,0,0,0
i,0x00000000,1720562335.764791,172.16.1.2,56415,172.16.3.2,5101,7240,2896,0,64256,65728,6,6,4,1460,708,1,537920480,51,41772,41772,65700,0,20272,0,0,0
i,0x00000000,1720562335.798040,172.16.1.2,56415,172.16.3.2,5101,7240,2896,0,64256,65728,6,6,4,1460,708,1,537920480,51,41772,41772,65700,0,20272,0,0,0
o,0x00000000,1720562335.798053,172.16.1.2,56415,172.16.3.2,5101,7240,4344,0,64256,65728,6,6,4,1460,708,1,537920480,51,41772,41772,65700,0,20272,0,0,0
i,0x00000000,1720562335.827434,172.16.1.2,56415,172.16.3.2,5101,7240,4344,0,64256,65728,6,6,4,1460,708,1,537920480,51,41772,41772,65700,0,21720,0,0,0
i,0x00000000,1720562335.827447,172.16.1.2,56415,172.16.3.2,5101,7240,4344,0,64256,65728,6,6,4,1460,708,1,537920480,51,41772,41772,65700,0,21720,0,0,0
o,0x00000000,1720562335.827456,172.16.1.2,56415,172.16.3.2,5101,7240,5792,0,64256,65728,6,6,4,1460,708,1,537920480,51,41772,41772,65700,0,21720,0,0,0
i,0x00000000,1720562335.867629,172.16.1.2,56415,172.16.3.2,5101,7240,5792,0,64256,65728,6,6,4,1460,708,1,537920480,51,41772,41772,65700,0,21720,0,0,0
o,0x00000000,1720562335.867652,172.16.1.2,56415,172.16.3.2,5101,7240,7240,0,64256,65728,6,6,4,1460,708,1,537920480,51,41772,41772,65700,0,21720,0,0,0
i,0x00000000,1720562335.868423,172.16.1.2,56415,172.16.3.2,5101,7240,7240,0,64256,65728,6,6,4,1460,708,1,537920480,51,41772,41772,65700,0,23168,0,0,0
o,0x00000000,1720562335.868436,172.16.1.2,56415,172.16.3.2,5101,7240,7240,0,64256,65728,6,6,4,1460,708,1,537920481,51,41772,41772,65700,0,23168,0,0,0
i,0x00000000,1720562335.907299,172.16.1.2,56415,172.16.3.2,5101,7240,7240,0,51264,65728,6,6,4,1460,708,1,537920480,49,41772,41772,65700,0,10136,0,0,0
o,0x00000000,1720562335.907335,172.16.1.2,56415,172.16.3.2,5101,7240,8688,0,51264,65728,6,6,4,1460,708,1,537920480,49,41772,41772,65700,0,10136,0,0,0
i,0x00000000,1720562335.918729,172.16.1.2,56415,172.16.3.2,5101,7240,8688,0,51264,65728,6,6,4,1460,708,1,537920480,49,41772,41772,65700,0,11584,0,0,0
o,0x00000000,1720562335.918761,172.16.1.2,56415,172.16.3.2,5101,7240,10136,0,51264,65728,6,6,4,1460,708,1,537920480,49,41772,41772,65700,0,11584,0,0,0
i,0x00000000,1720562336.008557,172.16.1.2,56415,172.16.3.2,5101,7240,10136,0,51264,65728,6,6,4,1460,708,1,537920480,49,41772,41772,65700,0,13032,0,0,0
o,0x00000000,1720562336.008597,172.16.1.2,56415,172.16.3.2,5101,7240,7252,0,58496,65728,6,6,4,1460,692,1,992,51,41772,34532,65700,0,5792,0,0,0
i,0x00000000,1720562336.009443,172.16.1.2,56415,172.16.3.2,5101,7240,7252,0,58496,65728,6,6,4,1460,692,1,992,51,41772,34532,65700,0,7240,0,0,0
o,0x00000000,1720562336.009462,172.16.1.2,56415,172.16.3.2,5101,7240,8712,0,64256,65728,6,6,4,1460,662,1,992,55,41772,31636,65700,0,4344,0,0,0
o,0x00000000,1720562336.009767,172.16.1.2,56415,172.16.3.2,5101,7240,8712,0,64256,65728,6,6,4,1460,662,1,992,55,41772,31636,65700,0,5792,0,0,0
o,0x00000000,1720562336.010013,172.16.1.2,56415,172.16.3.2,5101,7240,8712,0,64256,65728,6,6,4,1460,662,1,992,55,41772,31636,65700,0,7240,0,0,0
i,0x00000000,1720562336.078276,172.16.1.2,56415,172.16.3.2,5101,7240,8712,0,64256,65728,6,6,4,1460,662,1,992,55,41772,41772,65700,0,8688,0,0,0
o,0x00000000,1720562336.078321,172.16.1.2,56415,172.16.3.2,5101,7240,8712,0,64256,65728,6,6,4,1460,648,1,992,55,41772,38876,65700,0,5792,0,0,0
