enable_time_secs=1720562125	enable_time_usecs=349940	siftrver=1.2.4	hz=100	tcp_rtt_scale=32	sysname=FreeBSD	sysver=1301000	ipmode=4
o,0x00000000,1720562125.349977,10.0.2.15,22,10.0.2.2,56322,1073725440,17770,0,65535,65700,0,0,4,1460,1,0,4,24,33580,44,65700,0,0,0,0,0
o,0x00000000,1720562125.350105,10.0.2.15,22,10.0.2.2,56322,1073725440,17770,0,65535,65700,0,0,4,1460,1,0,4,24,33580,80,65700,0,44,0,0,0
i,0x00000000,1720562125.350934,10.0.2.15,22,10.0.2.2,56322,1073725440,17770,0,65535,65700,0,0,4,1460,1,0,4,24,33580,80,65700,0,80,0,0,0
i,0x00000000,1720562125.350938,10.0.2.15,22,10.0.2.2,56322,1073725440,17814,0,65535,65700,0,0,4,1460,1,0,4,24,33580,36,65700,0,36,0,0,0
o,0x00000000,1720562125.351052,10.0.2.15,22,10.0.2.2,56322,1073725440,17850,0,65535,65700,0,0,4,1460,1,0,4,24,33580,36,65700,0,0,0,0,0
i,0x00000000,1720562125.351553,10.0.2.15,22,10.0.2.2,56322,1073725440,17850,0,65535,65700,0,0,4,1460,1,0,4,24,33580,36,65700,0,36,0,0,0
o,0x00000000,1720562125.351672,10.0.2.15,22,10.0.2.2,56322,1073725440,17886,0,65535,65700,0,0,4,1460,1,0,4,24,33580,36,65700,0,0,0,0,0
i,0x00000000,1720562125.352935,10.0.2.15,22,10.0.2.2,56322,1073725440,17886,0,65535,65700,0,0,4,1460,1,0,4,24,33580,36,65700,0,36,0,0,0
o,0x00000000,1720562125.353120,10.0.2.15,22,10.0.2.2,56322,1073725440,17922,0,65535,65700,0,0,4,1460,1,0,4,24,33580,140,65700,0,0,0,0,0
i,0x00000000,1720562125.354002,10.0.2.15,22,10.0.2.2,56322,1073725440,17922,0,65535,65700,0,0,4,1460,1,0,4,24,33580,140,65700,0,140,0,0,0
i,0x00000000,1720562125.354006,10.0.2.15,22,10.0.2.2,56322,1073725440,18062,0,65535,65700,0,0,4,1460,1,0,4,24,33580,0,65700,0,0,0,0,0
i,0x00000000,1720562125.354008,10.0.2.15,22,10.0.2.2,56322,1073725440,18062,0,65535,65700,0,0,4,1460,1,0,4,24,33580,0,65700,96,0,0,0,0
o,0x00000000,1720562125.354011,10.0.2.15,22,10.0.2.2,56322,1073725440,18062,0,65535,65604,0,0,5,1460,1,0,5,24,33580,0,65700,96,0,0,0,0
o,0x00000000,1720562125.354432,10.0.2.15,22,10.0.2.2,56322,1073725440,18062,0,65535,65604,0,0,8,1460,1,0,4,24,33580,0,65700,0,0,0,0,0
i,0x00000000,1720562125.355640,10.0.2.15,22,10.0.2.2,56322,1073725440,18062,0,65535,65604,0,0,8,1460,1,0,20,24,33580,0,65700,0,1,0,0,0
i,0x00000000,1720562127.549683,10.0.2.15,22,10.0.2.2,56336,1073725440,14600,0,65535,65700,0,0,4,1460,1,0,0,27,33580,0,65700,0,0,0,0,0
o,0x00000000,1720562127.555823,10.0.2.15,22,10.0.2.2,56336,1073725440,14600,0,65535,65700,0,0,4,1460,1,0,0,27,33580,38,65700,42,0,0,0,0
i,0x00000000,1720562127.556885,10.0.2.15,22,10.0.2.2,56336,1073725440,14600,0,65535,65700,0,0,4,1460,1,0,0,27,33580,38,65700,42,38,0,0,0
i,0x00000000,1720562127.557671,10.0.2.15,22,10.0.2.2,56336,1073725440,14638,0,65535,65700,0,0,4,1460,1,0,0,24,33580,0,65700,0,0,0,0,0
i,0x00000000,1720562127.557676,10.0.2.15,22,10.0.2.2,56336,1073725440,14638,0,65535,65700,0,0,4,1460,1,0,0,24,33580,0,65700,1460,0,0,0,0
o,0x00000000,1720562127.557681,10.0.2.15,22,10.0.2.2,56336,1073725440,14638,0,65535,65700,0,0,4,1460,1,0,1,24,33580,0,65700,1536,0,0,0,0
o,0x00000000,1720562127.558167,10.0.2.15,22,10.0.2.2,56336,1073725440,14638,0,65535,65700,0,0,4,1460,1,0,0,24,33580,1056,65700,1536,0,0,0,0
i,0x00000000,1720562127.558871,10.0.2.15,22,10.0.2.2,56336,1073725440,14638,0,65535,65700,0,0,4,1460,1,0,0,24,33580,1056,65700,1536,1056,0,0,0
i,0x00000000,1720562127.560139,10.0.2.15,22,10.0.2.2,56336,1073725440,15694,0,65535,65700,0,0,4,1460,1,0,0,24,33580,0,65700,0,0,0,0,0
o,0x00000000,1720562127.562469,10.0.2.15,22,10.0.2.2,56336,1073725440,15694,0,65535,65700,0,0,4,1460,1,0,0,24,33580,484,65700,0,0,0,0,0
i,0x00000000,1720562127.563197,10.0.2.15,22,10.0.2.2,56336,1073725440,15694,0,65535,65700,0,0,4,1460,1,0,0,24,33580,484,65700,0,484,0,0,0
i,0x00000000,1720562127.568987,10.0.2.15,22,10.0.2.2,56336,1073725440,16178,0,65535,65700,0,0,4,1460,1,0,0,24,33580,0,65700,0,0,0,0,0
i,0x00000000,1720562127.569006,10.0.2.15,22,10.0.2.2,56336,1073725440,16178,0,65535,65700,0,0,4,1460,1,0,0,24,33580,0,65700,16,0,0,0,0
o,0x00000000,1720562127.569010,10.0.2.15,22,10.0.2.2,56336,1073725440,16178,0,65535,65700,0,0,4,1460,1,0,1,24,33580,0,65700,60,0,0,0,0
o,0x00000000,1720562127.569194,10.0.2.15,22,10.0.2.2,56336,1073725440,16178,0,65535,65700,0,0,4,1460,1,0,0,24,33580,44,65700,0,0,0,0,0
i,0x00000000,1720562127.570077,10.0.2.15,22,10.0.2.2,56336,1073725440,16178,0,65535,65700,0,0,4,1460,1,0,0,24,33580,44,65700,0,44,0,0,0
i,0x00000000,1720562127.570084,10.0.2.15,22,10.0.2.2,56336,1073725440,16222,0,65535,65700,0,0,4,1460,1,0,0,24,33580,0,65700,0,0,0,0,0
o,0x00000000,1720562127.579634,10.0.2.15,22,10.0.2.2,56336,1073725440,16222,0,65535,65700,0,0,4,1460,1,0,0,24,33580,68,65700,0,0,0,0,0
i,0x00000000,1720562127.581230,10.0.2.15,22,10.0.2.2,56336,1073725440,16222,0,65535,65700,0,0,4,1460,1,0,0,24,33580,68,65700,0,68,0,0,0
i,0x00000000,1720562127.581237,10.0.2.15,22,10.0.2.2,56336,1073725440,16290,0,65535,65700,0,0,4,1460,1,0,0,24,33580,0,65700,0,0,0,0,0
o,0x00000000,1720562127.581596,10.0.2.15,22,10.0.2.2,56336,1073725440,16290,0,65535,65700,0,0,4,1460,1,0,0,24,33580,332,65700,0,0,0,0,0
i,0x00000000,1720562127.582937,10.0.2.15,22,10.0.2.2,56336,1073725440,16290,0,65535,65700,0,0,4,1460,1,0,0,24,33580,332,65700,0,332,0,0,0
i,0x00000000,1720562127.586644,10.0.2.15,22,10.0.2.2,56336,1073725440,16622,0,65535,65700,0,0,4,1460,1,0,0,24,33580,0,65700,0,0,0,0,0
o,0x00000000,1720562127.601790,10.0.2.15,22,10.0.2.2,56336,1073725440,16622,0,65535,65700,0,0,4,1460,1,0,0,24,33580,28,65700,0,0,0,0,0
i,0x00000000,1720562127.602441,10.0.2.15,22,10.0.2.2,56336,1073725440,16622,0,65535,65700,0,0,4,1460,1,0,0,24,33580,28,65700,0,28,0,0,0
i,0x00000000,1720562127.602842,10.0.2.15,22,10.0.2.2,56336,1073725440,16650,0,65535,65700,0,0,4,1460,1,0,0,24,33580,0,65700,0,0,0,0,0
o,0x00000000,1720562127.603743,10.0.2.15,22,10.0.2.2,56336,1073725440,16650,0,65535,65700,0,0,4,1460,1,0,0,24,33580,768,65700,112,0,0,0,0
i,0x00000000,1720562127.604429,10.0.2.15,22,10.0.2.2,56336,1073725440,16650,0,65535,65700,0,0,4,1460,1,0,0,24,33580,768,65700,112,768,0,0,0
o,0x00000000,1720562127.604499,10.0.2.15,22,10.0.2.2,56336,1073725440,17418,0,65535,65700,0,0,4,1460,1,0,0,24,33580,140,65700,112,0,0,0,0
i,0x00000000,1720562127.605181,10.0.2.15,22,10.0.2.2,56336,1073725440,17418,0,65535,65700,0,0,4,1460,1,0,0,24,33580,140,65700,112,140,0,0,0
o,0x00000000,1720562127.605323,10.0.2.15,22,10.0.2.2,56336,1073725440,17558,0,65535,65700,0,0,4,1460,1,0,0,24,33580,44,65700,0,0,0,0,0
i,0x00000000,1720562127.606398,10.0.2.15,22,10.0.2.2,56336,1073725440,17558,0,65535,65700,0,0,4,1460,1,0,0,24,33580,44,65700,0,44,0,0,0
i,0x00000000,1720562127.606403,10.0.2.15,22,10.0.2.2,56336,1073725440,17602,0,65535,65700,0,0,4,1460,1,0,0,23,33580,0,65700,0,0,0,0,0
o,0x00000000,1720562127.606763,10.0.2.15,22,10.0.2.2,56336,1073725440,17602,0,65535,65700,0,0,4,1460,1,0,4,23,33580,72,65700,0,0,0,0,0
i,0x00000000,1720562127.607600,10.0.2.15,22,10.0.2.2,56336,1073725440,17602,0,65535,65700,0,0,4,1460,1,0,4,23,33580,72,65700,0,72,0,0,0
o,0x00000000,1720562127.610617,10.0.2.15,22,10.0.2.2,56336,1073725440,17674,0,65535,65700,0,0,4,1460,1,0,4,23,33580,44,65700,0,0,0,0,0
i,0x00000000,1720562127.611347,10.0.2.15,22,10.0.2.2,56336,1073725440,17674,0,65535,65700,0,0,4,1460,1,0,4,23,33580,44,65700,0,44,0,0,0
o,0x00000000,1720562127.611808,10.0.2.15,22,10.0.2.2,56336,1073725440,17718,0,65535,65700,0,0,4,1460,1,0,4,23,33580,44,65700,0,0,0,0,0
i,0x00000000,1720562127.612778,10.0.2.15,22,10.0.2.2,56336,1073725440,17718,0,65535,65700,0,0,4,1460,1,0,4,23,33580,44,65700,0,44,0,0,0
o,0x00000000,1720562127.615711,10.0.2.15,22,10.0.2.2,56336,1073725440,17762,0,65535,65700,0,0,4,1460,1,0,4,23,33580,176,65700,0,0,0,0,0
i,0x00000000,1720562127.616635,10.0.2.15,22,10.0.2.2,56336,1073725440,17762,0,65535,65700,0,0,4,1460,1,0,4,23,33580,176,65700,0,176,0,0,0
i,0x00000000,1720562127.619374,10.0.2.15,22,10.0.2.2,56336,1073725440,17938,0,65535,65700,0,0,4,1460,1,0,4,24,33580,0,65700,0,0,0,0,0
i,0x00000000,1720562127.619382,10.0.2.15,22,10.0.2.2,56336,1073725440,17938,0,65535,65700,0,0,4,1460,1,0,4,24,33580,0,65700,96,0,0,0,0
o,0x00000000,1720562127.619387,10.0.2.15,22,10.0.2.2,56336,1073725440,17938,0,65535,65604,0,0,5,1460,1,0,5,24,33580,0,65700,96,0,0,0,0
o,0x00000000,1720562127.622960,10.0.2.15,22,10.0.2.2,56336,1073725440,17938,0,65535,65604,0,0,8,1460,1,0,4,24,33580,0,65700,0,0,0,0,0
i,0x00000000,1720562127.623835,10.0.2.15,22,10.0.2.2,56336,1073725440,17938,0,65535,65604,0,0,8,1460,1,0,20,24,33580,0,65700,0,1,0,0,0
i,0x00000000,1720562128.772275,10.0.2.15,22,10.0.2.2,56342,1073725440,14600,0,65535,65700,0,0,4,1460,1,0,0,27,33580,0,65700,0,0,0,0,0
o,0x00000000,1720562128.779553,10.0.2.15,22,10.0.2.2,56342,1073725440,14600,0,65535,65700,0,0,4,1460,1,0,0,27,33580,38,65700,42,0,0,0,0
i,0x00000000,1720562128.780998,10.0.2.15,22,10.0.2.2,56342,1073725440,14600,0,65535,65700,0,0,4,1460,1,0,0,27,33580,38,65700,42,38,0,0,0
i,0x00000000,1720562128.781005,10.0.2.15,22,10.0.2.2,56342,1073725440,14638,0,65535,65700,0,0,4,1460,1,0,0,24,33580,0,65700,42,0,0,0,0
i,0x00000000,1720562128.781006,10.0.2.15,22,10.0.2.2,56342,1073725440,14638,0,65535,65700,0,0,4,1460,1,0,0,24,33580,0,65700,1502,0,0,0,0
o,0x00000000,1720562128.781010,10.0.2.15,22,10.0.2.2,56342,1073725440,14638,0,65535,65700,0,0,4,1460,1,0,1,24,33580,0,65700,1578,0,0,0,0
o,0x00000000,1720562128.781756,10.0.2.15,22,10.0.2.2,56342,1073725440,14638,0,65535,65700,0,0,4,1460,1,0,0,24,33580,1056,65700,1536,0,0,0,0
i,0x00000000,1720562128.782424,10.0.2.15,22,10.0.2.2,56342,1073725440,14638,0,65535,65700,0,0,4,1460,1,0,0,24,33580,1056,65700,1536,1056,0,0,0
i,0x00000000,1720562128.783831,10.0.2.15,22,10.0.2.2,56342,1073725440,15694,0,65535,65700,0,0,4,1460,1,0,0,24,33580,0,65700,0,0,0,0,0
o,0x00000000,1720562128.786181,10.0.2.15,22,10.0.2.2,56342,1073725440,15694,0,65535,65700,0,0,4,1460,1,0,0,24,33580,484,65700,0,0,0,0,0
i,0x00000000,1720562128.786997,10.0.2.15,22,10.0.2.2,56342,1073725440,15694,0,65535,65700,0,0,4,1460,1,0,0,24,33580,484,65700,0,484,0,0,0
i,0x00000000,1720562128.791625,10.0.2.15,22,10.0.2.2,56342,1073725440,16178,0,65535,65700,0,0,4,1460,1,0,0,24,33580,0,65700,0,0,0,0,0
i,0x00000000,1720562128.791635,10.0.2.15,22,10.0.2.2,56342,1073725440,16178,0,65535,65700,0,0,4,1460,1,0,0,24,33580,0,65700,16,0,0,0,0
o,0x00000000,1720562128.791639,10.0.2.15,22,10.0.2.2,56342,1073725440,16178,0,65535,65700,0,0,4,1460,1,0,1,24,33580,0,65700,60,0,0,0,0
o,0x00000000,1720562128.791843,10.0.2.15,22,10.0.2.2,56342,1073725440,16178,0,65535,65700,0,0,4,1460,1,0,0,24,33580,44,65700,0,0,0,0,0
i,0x00000000,1720562128.792489,10.0.2.15,22,10.0.2.2,56342,1073725440,16178,0,65535,65700,0,0,4,1460,1,0,0,24,33580,44,65700,0,44,0,0,0
i,0x00000000,1720562128.792494,10.0.2.15,22,10.0.2.2,56342,1073725440,16222,0,65535,65700,0,0,4,1460,1,0,0,24,33580,0,65700,0,0,0,0,0
o,0x00000000,1720562128.801543,10.0.2.15,22,10.0.2.2,56342,1073725440,16222,0,65535,65700,0,0,4,1460,1,0,0,24,33580,68,65700,0,0,0,0,0
i,0x00000000,1720562128.802359,10.0.2.15,22,10.0.2.2,56342,1073725440,16222,0,65535,65700,0,0,4,1460,1,0,0,24,33580,68,65700,0,68,0,0,0
i,0x00000000,1720562128.802365,10.0.2.15,22,10.0.2.2,56342,1073725440,16290,0,65535,65700,0,0,4,1460,1,0,0,24,33580,0,65700,0,0,0,0,0
o,0x00000000,1720562128.802663,10.0.2.15,22,10.0.2.2,56342,1073725440,16290,0,65535,65700,0,0,4,1460,1,0,0,24,33580,332,65700,0,0,0,0,0
i,0x00000000,1720562128.803362,10.0.2.15,22,10.0.2.2,56342,1073725440,16290,0,65535,65700,0,0,4,1460,1,0,0,24,33580,332,65700,0,332,0,0,0
i,0x00000000,1720562128.804810,10.0.2.15,22,10.0.2.2,56342,1073725440,16622,0,65535,65700,0,0,4,1460,1,0,0,24,33580,0,65700,0,0,0,0,0
o,0x00000000,1720562128.822114,10.0.2.15,22,10.0.2.2,56342,1073725440,16622,0,65535,65700,0,0,4,1460,1,0,0,24,33580,28,65700,0,0,0,0,0
i,0x00000000,1720562128.822671,10.0.2.15,22,10.0.2.2,56342,1073725440,16622,0,65535,65700,0,0,4,1460,1,0,0,24,33580,28,65700,0,28,0,0,0
i,0x00000000,1720562128.823001,10.0.2.15,22,10.0.2.2,56342,1073725440,16650,0,65535,65700,0,0,4,1460,1,0,0,24,33580,0,65700,0,0,0,0,0
o,0x00000000,1720562128.823820,10.0.2.15,22,10.0.2.2,56342,1073725440,16650,0,65535,65700,0,0,4,1460,1,0,0,24,33580,768,65700,112,0,0,0,0
i,0x00000000,1720562128.824486,10.0.2.15,22,10.0.2.2,56342,1073725440,16650,0,65535,65700,0,0,4,1460,1,0,0,24,33580,768,65700,112,768,0,0,0
o,0x00000000,1720562128.824548,10.0.2.15,22,10.0.2.2,56342,1073725440,17418,0,65535,65700,0,0,4,1460,1,0,0,24,33580,140,65700,112,0,0,0,0
i,0x00000000,1720562128.825173,10.0.2.15,22,10.0.2.2,56342,1073725440,17418,0,65535,65700,0,0,4,1460,1,0,0,24,33580,140,65700,112,140,0,0,0
o,0x00000000,1720562128.825323,10.0.2.15,22,10.0.2.2,56342,1073725440,17558,0,65535,65700,0,0,4,1460,1,0,0,24,33580,44,65700,0,0,0,0,0
i,0x00000000,1720562128.826051,10.0.2.15,22,10.0.2.2,56342,1073725440,17558,0,65535,65700,0,0,4,1460,1,0,0,24,33580,44,65700,0,44,0,0,0
i,0x00000000,1720562128.826054,10.0.2.15,22,10.0.2.2,56342,1073725440,17602,0,65535,65700,0,0,4,1460,1,0,0,24,33580,0,65700,0,0,0,0,0
o,0x00000000,1720562128.826462,10.0.2.15,22,10.0.2.2,56342,1073725440,17602,0,65535,65700,0,0,4,1460,1,0,4,24,33580,72,65700,0,0,0,0,0
i,0x00000000,1720562128.827081,10.0.2.15,22,10.0.2.2,56342,1073725440,17602,0,65535,65700,0,0,4,1460,1,0,4,24,33580,72,65700,0,72,0,0,0
i,0x00000000,1720562128.827084,10.0.2.15,22,10.0.2.2,56342,1073725440,17674,0,65535,65700,0,0,4,1460,1,0,4,24,33580,0,65700,0,0,0,0,0
o,0x00000000,1720562128.830900,172.16.1.2,24634,172.16.3.2,5101,1073725440,1073725440,0,0,0,0,0,2,536,0,1,672,100,32768,0,65536,0,0,0,0,0
o,0x00000000,1720562128.868049,10.0.2.15,22,10.0.2.2,56342,1073725440,17674,0,65535,65700,0,0,4,1460,1,0,5,24,33580,0,65700,0,0,0,0,0
i,0x00000000,1720562128.947586,172.16.1.2,24634,172.16.3.2,5101,1073725440,1073725440,0,0,0,0,0,2,536,0,1,672,100,32768,0,65536,0,1,0,0,0
o,0x00000000,1720562128.947600,172.16.1.2,24634,172.16.3.2,5101,48891,14480,0,65535,65700,6,6,4,1460,775,1,993,80,33580,0,65700,0,0,0,0,0
o,0x00000000,1720562128.947956,172.16.1.2,24634,172.16.3.2,5101,48891,14480,0,65535,65700,6,6,4,1460,775,1,996,80,33580,37,65700,0,0,0,0,0
i,0x00000000,1720562129.068342,172.16.1.2,24634,172.16.3.2,5101,48891,14480,0,65535,65700,6,6,4,1460,775,1,996,80,33580,37,65700,0,37,0,0,0
o,0x00000000,1720562129.068466,172.16.1.2,24634,172.16.3.2,5101,48891,14517,0,65728,65728,6,6,4,1460,727,1,996,81,33580,4,65700,0,0,0,0,0
o,0x00000000,1720562129.068832,172.16.1.2,24634,172.16.3.2,5101,48891,14517,0,65728,65728,6,6,4,1460,727,1,996,81,33580,128,65700,0,4,0,0,0
i,0x00000000,1720562129.196265,172.16.1.2,24634,172.16.3.2,5101,48891,14517,0,65728,65728,6,6,4,1460,727,1,996,81,33580,128,65700,0,128,0,0,0
i,0x00000000,1720562129.196275,172.16.1.2,24634,172.16.3.2,5101,48891,14645,0,65600,65728,6,6,4,1460,685,1,996,81,33580,0,65700,0,0,0,0,0
o,0x00000000,1720562129.196376,172.16.1.2,49644,172.16.3.2,5101,1073725440,1073725440,0,0,0,0,0,2,536,0,1,672,100,32768,0,65536,0,0,0,0,0
o,0x00000000,1720562129.237641,172.16.1.2,24634,172.16.3.2,5101,48891,14645,0,65728,65728,6,6,4,1460,685,1,997,81,33580,0,65700,0,0,0,0,0
i,0x00000000,1720562129.305734,172.16.1.2,49644,172.16.3.2,5101,1073725440,1073725440,0,0,0,0,0,2,536,0,1,672,100,32768,0,65536,0,1,0,0,0
o,0x00000000,1720562129.305759,172.16.1.2,49644,172.16.3.2,5101,48891,14480,0,65535,65700,6,6,4,1460,767,1,993,82,33580,0,65700,0,0,0,0,0
o,0x00000000,1720562129.305916,172.16.1.2,49644,172.16.3.2,5101,48891,14480,0,65535,65700,6,6,4,1460,767,1,992,82,33580,37,65700,0,0,0,0,0
i,0x00000000,1720562129.439860,172.16.1.2,24634,172.16.3.2,5101,48891,14645,0,65728,65728,6,6,4,1460,685,1,996,81,33580,0,65700,0,0,0,0,0
i,0x00000000,1720562129.439886,172.16.1.2,24634,172.16.3.2,5101,48891,14645,0,65728,65728,6,6,4,1460,685,1,996,81,33580,0,65700,1,0,0,0,0
o,0x00000000,1720562129.439901,172.16.1.2,24634,172.16.3.2,5101,48891,14645,0,65728,65728,6,6,4,1460,685,1,997,81,33580,0,65700,2,0,0,0,0
o,0x00000000,1720562129.440883,172.16.1.2,49644,172.16.3.2,5101,48891,14480,0,65535,65700,6,6,4,1460,767,1,992,82,33580,33580,65700,0,37,0,0,0
o,0x00000000,1720562129.443053,172.16.1.2,49644,172.16.3.2,5101,48891,14480,0,65535,65700,6,6,4,1460,767,1,992,82,33580,33580,65700,0,1485,0,0,0
o,0x00000000,1720562129.444699,172.16.1.2,49644,172.16.3.2,5101,48891,14480,0,65535,65700,6,6,4,1460,767,1,992,82,33580,33580,65700,0,2933,0,0,0
o,0x00000000,1720562129.446279,172.16.1.2,49644,172.16.3.2,5101,48891,14480,0,65535,65700,6,6,4,1460,767,1,992,82,33580,33580,65700,0,4381,0,0,0
o,0x00000000,1720562129.448028,172.16.1.2,49644,172.16.3.2,5101,48891,14480,0,65535,65700,6,6,4,1460,767,1,992,82,33580,33580,65700,0,5829,0,0,0
o,0x00000000,1720562129.449258,172.16.1.2,49644,172.16.3.2,5101,48891,14480,0,65535,65700,6,6,4,1460,767,1,992,82,33580,33580,65700,0,7277,0,0,0
o,0x00000000,1720562129.450630,172.16.1.2,49644,172.16.3.2,5101,48891,14480,0,65535,65700,6,6,4,1460,767,1,992,82,33580,33580,65700,0,8725,0,0,0
o,0x00000000,1720562129.451655,172.16.1.2,49644,172.16.3.2,5101,48891,14480,0,65535,65700,6,6,4,1460,767,1,992,82,33580,33580,65700,0,10173,0,0,0
o,0x00000000,1720562129.452656,172.16.1.2,49644,172.16.3.2,5101,48891,14480,0,65535,65700,6,6,4,1460,767,1,992,82,33580,33580,65700,0,11621,0,0,0
i,0x00000000,1720562129.479346,172.16.1.2,49644,172.16.3.2,5101,48891,14480,0,65535,65700,6,6,4,1460,767,1,992,82,33580,33580,65700,0,13069,0,0,0
o,0x00000000,1720562129.479383,172.16.1.2,49644,172.16.3.2,5101,48891,14517,0,65728,65728,6,6,4,1460,744,1,992,77,33580,33543,65700,0,13032,0,0,0
i,0x00000000,1720562129.690153,172.16.1.2,49644,172.16.3.2,5101,48891,14517,0,65728,65728,6,6,4,1460,744,1,992,77,33580,33543,65700,0,14480,0,0,0
i,0x00000000,1720562129.710339,172.16.1.2,49644,172.16.3.2,5101,7713,10136,0,64256,65728,6,6,4,1460,751,1,536871904,71,33580,33580,65700,0,11584,0,0,0
i,0x00000000,1720562129.741745,172.16.1.2,49644,172.16.3.2,5101,7713,8688,0,64256,65728,6,6,4,1460,766,1,536871904,68,33580,33580,65700,0,8688,0,0,0
o,0x00000000,1720562129.741773,172.16.1.2,49644,172.16.3.2,5101,7713,7240,0,64256,65728,6,6,4,1460,787,1,536871904,68,33580,30684,65700,0,5792,0,0,0
i,0x00000000,1720562129.742528,172.16.1.2,49644,172.16.3.2,5101,7713,7240,0,64256,65728,6,6,4,1460,787,1,536871904,68,33580,30684,65700,0,7240,0,0,0
o,0x00000000,1720562129.742543,172.16.1.2,49644,172.16.3.2,5101,7713,7240,0,64256,65728,6,6,4,1460,805,1,536871904,67,33580,27788,65700,0,4344,0,0,0
o,0x00000000,1720562129.743288,172.16.1.2,49644,172.16.3.2,5101,7713,7240,0,64256,65728,6,6,4,1460,805,1,536871904,67,33580,27788,65700,0,5792,0,0,0
i,0x00000000,1720562129.788101,172.16.1.2,49644,172.16.3.2,5101,7713,7240,0,64256,65728,6,6,4,1460,805,1,536871904,67,33580,33580,65700,0,7240,0,0,0
o,0x00000000,1720562129.788134,172.16.1.2,49644,172.16.3.2,5101,7713,7240,0,64256,65728,6,6,4,1460,841,1,536871904,72,33580,30684,65700,0,4344,0,0,0
o,0x00000000,1720562129.789288,172.16.1.2,49644,172.16.3.2,5101,7713,7240,0,64256,65728,6,6,4,1460,841,1,536871904,72,33580,30684,65700,0,5792,0,0,0
i,0x00000000,1720562129.869270,172.16.1.2,49644,172.16.3.2,5101,7713,7240,0,64256,65728,6,6,4,1460,841,1,536871904,72,33580,33580,65700,0,7240,0,0,0
o,0x00000000,1720562129.869305,172.16.1.2,49644,172.16.3.2,5101,7713,8688,0,65728,65728,6,6,4,1460,788,1,992,77,33580,32132,65700,0,5792,0,0,0
o,0x00000000,1720562129.870335,172.16.1.2,49644,172.16.3.2,5101,7713,8688,0,65728,65728,6,6,4,1460,788,1,992,77,33580,32132,65700,0,7240,0,0,0
i,0x00000000,1720562129.909043,172.16.1.2,49644,172.16.3.2,5101,7713,8688,0,65728,65728,6,6,4,1460,788,1,992,77,33580,32132,65700,0,8688,0,0,0
o,0x00000000,1720562129.909086,172.16.1.2,49644,172.16.3.2,5101,7713,8688,0,64256,65728,6,6,4,1460,758,1,992,75,33580,29236,65700,0,5792,0,0,0
o,0x00000000,1720562129.910137,172.16.1.2,49644,172.16.3.2,5101,7713,8688,0,64256,65728,6,6,4,1460,758,1,992,75,33580,29236,65700,0,7240,0,0,0
i,0x00000000,1720562129.952627,172.16.1.2,49644,172.16.3.2,5101,7713,8688,0,64256,65728,6,6,4,1460,758,1,992,75,33580,33580,65700,0,8688,0,0,0
o,0x00000000,1720562129.952679,172.16.1.2,49644,172.16.3.2,5101,7713,8688,0,64256,65728,6,6,4,1460,728,1,992,74,33580,30684,65700,0,5792,0,0,0
o,0x00000000,1720562129.954755,172.16.1.2,49644,172.16.3.2,5101,7713,8688,0,64256,65728,6,6,4,1460,728,1,992,74,33580,30684,65700,0,7240,0,0,0
i,0x00000000,1720562130.012273,172.16.1.2,49644,172.16.3.2,5101,7713,8688,0,64256,65728,6,6,4,1460,728,1,992,74,33580,33580,65700,0,8688,0,0,0
o,0x00000000,1720562130.012290,172.16.1.2,49644,172.16.3.2,5101,7713,10148,0,64256,65728,6,6,4,1460,689,1,992,75,33580,30684,65700,0,5792,0,0,0
o,0x00000000,1720562130.012625,172.16.1.2,49644,172.16.3.2,5101,7713,10148,0,64256,65728,6,6,4,1460,689,1,992,75,33580,30684,65700,0,7240,0,0,0
o,0x00000000,1720562130.012924,172.16.1.2,49644,172.16.3.2,5101,7713,10148,0,64256,65728,6,6,4,1460,689,1,992,75,33580,30684,65700,0,8688,0,0,0
i,0x00000000,1720562130.077034,172.16.1.2,49644,172.16.3.2,5101,7713,10148,0,64256,65728,6,6,4,1460,689,1,992,75,33580,33580,65700,0,10136,0,0,0
o,0x00000000,1720562130.077047,172.16.1.2,49644,172.16.3.2,5101,7713,10148,0,64256,65728,6,6,4,1460,667,1,992,71,33580,30684,65700,0,7240,0,0,0
o,0x00000000,1720562130.077366,172.16.1.2,49644,172.16.3.2,5101,7713,10148,0,64256,65728,6,6,4,1460,667,1,992,71,33580,30684,65700,0,8688,0,0,0
i,0x00000000,1720562130.116916,172.16.1.2,49644,172.16.3.2,5101,7713,10148,0,64256,65728,6,6,4,1460,667,1,992,71,33580,33580,65700,0,10136,0,0,0
o,0x00000000,1720562130.116929,172.16.1.2,49644,172.16.3.2,5101,7713,10148,0,64256,65728,6,6,4,1460,648,1,992,68,33580,30684,65700,0,7240,0,0,0
o,0x00000000,1720562130.117189,172.16.1.2,49644,172.16.3.2,5101,7713,10148,0,64256,65728,6,6,4,1460,648,1,992,68,33580,30684,65700,0,8688,0,0,0
i,0x00000000,1720562130.166336,172.16.1.2,49644,172.16.3.2,5101,7713,10148,0,64256,65728,6,6,4,1460,648,1,992,68,33580,33580,65700,0,10136,0,0,0
o,0x00000000,1720562130.166350,172.16.1.2,49644,172.16.3.2,5101,7713,10148,0,64256,65728,6,6,4,1460,627,1,992,65,33580,30684,65700,0,7240,0,0,0
o,0x00000000,1720562130.166611,172.16.1.2,49644,172.16.3.2,5101,7713,10148,0,64256,65728,6,6,4,1460,627,1,992,65,33580,30684,65700,0,8688,0,0,0
i,0x00000000,1720562130.206994,172.16.1.2,49644,172.16.3.2,5101,7713,10148,0,64256,65728,6,6,4,1460,627,1,992,65,33580,33580,65700,0,10136,0,0,0
o,0x00000000,1720562130.207029,172.16.1.2,49644,172.16.3.2,5101,7713,10148,0,65728,65728,6,6,4,1460,629,1,992,59,33580,32132,65700,0,8688,0,0,0
i,0x00000000,1720562130.252736,172.16.1.2,49644,172.16.3.2,5101,7713,10148,0,65728,65728,6,6,4,1460,629,1,992,59,33580,32132,65700,0,10136,0,0,0
o,0x00000000,1720562130.252754,172.16.1.2,49644,172.16.3.2,5101,7713,11608,0,64256,65728,6,6,4,1460,619,1,992,57,33580,29236,65700,0,7240,0,0,0
o,0x00000000,1720562130.253301,172.16.1.2,49644,172.16.3.2,5101,7713,11608,0,64256,65728,6,6,4,1460,619,1,992,57,33580,29236,65700,0,8688,0,0,0
o,0x00000000,1720562130.253613,172.16.1.2,49644,172.16.3.2,5101,7713,11608,0,64256,65728,6,6,4,1460,619,1,992,57,33580,29236,65700,0,10136,0,0,0
i,0x00000000,1720562130.277712,172.16.1.2,49644,172.16.3.2,5101,7713,11608,0,64256,65728,6,6,4,1460,619,1,992,57,33580,33580,65700,0,11584,0,0,0
o,0x00000000,1720562130.277738,172.16.1.2,49644,172.16.3.2,5101,7713,11608,0,64256,65728,6,6,4,1460,606,1,992,55,33580,30684,65700,0,8688,0,0,0
o,0x00000000,1720562130.277995,172.16.1.2,49644,172.16.3.2,5101,7713,11608,0,64256,65728,6,6,4,1460,606,1,992,55,33580,30684,65700,0,10136,0,0,0
i,0x00000000,1720562130.348840,172.16.1.2,49644,172.16.3.2,5101,7713,11608,0,64256,65728,6,6,4,1460,606,1,992,55,33580,33580,65700,0,11584,0,0,0
o,0x00000000,1720562130.348872,172.16.1.2,49644,172.16.3.2,5101,7713,11608,0,64256,65728,6,6,4,1460,603,1,992,52,33580,30684,65700,0,8688,0,0,0
o,0x00000000,1720562130.349800,172.16.1.2,49644,172.16.3.2,5101,7713,11608,0,64256,65728,6,6,4,1460,603,1,992,52,33580,30684,65700,0,10136,0,0,0
i,0x00000000,1720562130.377941,172.16.1.2,49644,172.16.3.2,5101,7713,11608,0,64256,65728,6,6,4,1460,603,1,992,52,33580,33580,65700,0,11584,0,0,0
o,0x00000000,1720562130.377987,172.16.1.2,49644,172.16.3.2,5101,7713,11608,0,65728,65728,6,6,4,1460,596,1,992,50,33580,32132,65700,0,10136,0,0,0
i,0x00000000,1720562130.438378,172.16.1.2,49644,172.16.3.2,5101,7713,11608,0,65728,65728,6,6,4,1460,596,1,992,50,33580,32132,65700,0,11584,0,0,0
o,0x00000000,1720562130.438395,172.16.1.2,49644,172.16.3.2,5101,7713,13068,0,64256,65728,6,6,4,1460,598,1,992,48,33580,29236,65700,0,8688,0,0,0
o,0x00000000,1720562130.438654,172.16.1.2,49644,172.16.3.2,5101,7713,13068,0,64256,65728,6,6,4,1460,598,1,992,48,33580,29236,65700,0,10136,0,0,0
o,0x00000000,1720562130.438902,172.16.1.2,49644,172.16.3.2,5101,7713,13068,0,64256,65728,6,6,4,1460,598,1,992,48,33580,29236,65700,0,11584,0,0,0
i,0x00000000,1720562130.458496,172.16.1.2,49644,172.16.3.2,5101,7713,13068,0,64256,65728,6,6,4,1460,598,1,992,48,33580,33580,65700,0,13032,0,0,0
o,0x00000000,1720562130.458509,172.16.1.2,49644,172.16.3.2,5101,7713,13068,0,64256,65728,6,6,4,1460,608,1,992,48,33580,30684,65700,0,10136,0,0,0
o,0x00000000,1720562130.459311,172.16.1.2,49644,172.16.3.2,5101,7713,13068,0,64256,65728,6,6,4,1460,608,1,992,48,33580,30684,65700,0,11584,0,0,0
i,0x00000000,1720562130.525576,172.16.1.2,49644,172.16.3.2,5101,7713,13068,0,64256,65728,6,6,4,1460,608,1,992,48,33580,33580,65700,0,13032,0,0,0
o,0x00000000,1720562130.525619,172.16.1.2,49644,172.16.3.2,5101,7713,13068,0,65728,65728,6,6,4,1460,628,1,992,52,33580,32132,65700,0,11584,0,0,0
i,0x00000000,1720562130.538262,172.16.1.2,49644,172.16.3.2,5101,7713,13068,0,65728,65728,6,6,4,1460,628,1,992,52,33580,32132,65700,0,13032,0,0,0
o,0x00000000,1720562130.538299,172.16.1.2,49644,172.16.3.2,5101,7713,13068,0,64256,65728,6,6,4,1460,626,1,992,49,33580,29236,65700,0,10136,0,0,0
o,0x00000000,1720562130.539391,172.16.1.2,49644,172.16.3.2,5101,7713,13068,0,64256,65728,6,6,4,1460,626,1,992,49,33580,29236,65700,0,11584,0,0,0
i,0x00000000,1720562130.628003,172.16.1.2,49644,172.16.3.2,5101,7713,13068,0,64256,65728,6,6,4,1460,626,1,992,49,33580,33580,65700,0,13032,0,0,0
o,0x00000000,1720562130.628022,172.16.1.2,49644,172.16.3.2,5101,7713,13068,0,65728,65728,6,6,4,1460,648,1,992,53,33580,32132,65700,0,11584,0,0,0
i,0x00000000,1720562130.628175,172.16.1.2,49644,172.16.3.2,5101,7713,13068,0,65728,65728,6,6,4,1460,648,1,992,53,33580,32132,65700,0,13032,0,0,0
o,0x00000000,1720562130.628182,172.16.1.2,49644,172.16.3.2,5101,7713,13068,0,64256,65728,6,6,4,1460,639,1,992,51,33580,29236,65700,0,10136,0,0,0
o,0x00000000,1720562130.628320,172.16.1.2,49644,172.16.3.2,5101,7713,13068,0,64256,65728,6,6,4,1460,639,1,992,51,33580,29236,65700,0,11584,0,0,0
i,0x00000000,1720562130.678830,172.16.1.2,49644,172.16.3.2,5101,7713,13068,0,64256,65728,6,6,4,1460,639,1,992,51,33580,33580,65700,0,13032,0,0,0
o,0x00000000,1720562130.678848,172.16.1.2,49644,172.16.3.2,5101,8634,17376,0,64256,65728,6,6,4,1460,639,1,536871904,51,33580,33580,65700,0,13032,0,0,0
o,0x00000000,1720562130.679571,172.16.1.2,49644,172.16.3.2,5101,8634,17376,0,64256,65728,6,6,4,1460,639,1,536871904,51,33580,33580,65700,0,14480,0,0,0
o,0x00000000,1720562130.680195,172.16.1.2,49644,172.16.3.2,5101,8634,17376,0,64256,65728,6,6,4,1460,639,1,536871904,51,33580,33580,65700,0,15928,0,0,0
o,0x00000000,1720562130.680810,172.16.1.2,49644,172.16.3.2,5101,8634,17376,0,64256,65728,6,6,4,1460,652,1,536871904,52,41772,30684,65700,0,14480,0,0,0
o,0x00000000,1720562130.681342,172.16.1.2,49644,172.16.3.2,5101,8634,17376,0,64256,65728,6,6,4,1460,652,1,536871904,52,41772,30684,65700,0,15928,0,0,0
i,0x00000000,1720562130.739970,172.16.1.2,49644,172.16.3.2,5101,8634,17376,0,64256,65728,6,6,4,1460,652,1,536871904,52,41772,41772,65700,0,17376,0,0,0
o,0x00000000,1720562130.740025,172.16.1.2,49644,172.16.3.2,5101,8634,17388,0,64256,65728,6,6,4,1460,679,1,536871904,57,41772,38876,65700,0,14480,0,0,0
o,0x00000000,1720562130.742647,172.16.1.2,49644,172.16.3.2,5101,8634,17388,0,64256,65728,6,6,4,1460,679,1,536871904,57,41772,38876,65700,0,15928,0,0,0
i,0x00000000,1720562130.743974,172.16.1.2,49644,172.16.3.2,5101,8634,17388,0,64256,65728,6,6,4,1460,679,1,536871904,57,41772,38876,65700,0,17376,0,0,0
i,0x00000000,1720562130.867613,172.16.1.2,49644,172.16.3.2,5101,8634,14480,0,64256,65728,6,6,4,1460,671,1,536871904,54,41772,41772,65700,0,14480,0,0,0
o,0x00000000,1720562130.867628,172.16.1.2,49644,172.16.3.2,5101,8634,13032,0,64256,65728,6,6,4,1460,684,1,536871904,55,41772,38876,65700,0,11584,0,0,0
i,0x00000000,1720562130.896637,172.16.1.2,49644,172.16.3.2,5101,8634,13032,0,64256,65728,6,6,4,1460,684,1,536871904,55,41772,41772,65700,0,13032,0,0,0
o,0x00000000,1720562130.896657,172.16.1.2,49644,172.16.3.2,5101,8661,11584,0,64256,65728,6,6,4,1460,707,1,536871904,58,41772,38876,65700,0,10136,0,0,0
i,0x00000000,1720562130.937474,172.16.1.2,49644,172.16.3.2,5101,8661,11584,0,64256,65728,6,6,4,1460,707,1,536871904,58,41772,41772,65700,0,11584,0,0,0
o,0x00000000,1720562130.937490,172.16.1.2,49644,172.16.3.2,5101,8661,13032,0,64256,65728,6,6,4,1460,707,1,536871904,58,41772,41772,65700,0,11584,0,0,0
o,0x00000000,1720562130.937838,172.16.1.2,49644,172.16.3.2,5101,8661,13032,0,65728,65728,6,6,4,1460,723,1,536871904,58,41772,40324,65700,0,11584,0,0,0
i,0x00000000,1720562130.948588,172.16.1.2,49644,172.16.3.2,5101,8661,13032,0,65728,65728,6,6,4,1460,723,1,536871904,58,41772,40324,65700,0,13032,0,0,0
o,0x00000000,1720562130.948786,172.16.1.2,49644,172.16.3.2,5101,8661,11596,0,64256,65728,6,6,4,1460,741,1,536871904,59,41772,37428,65700,0,10136,0,0,0
i,0x00000000,1720562130.988692,172.16.1.2,49644,172.16.3.2,5101,8661,11596,0,64256,65728,6,6,4,1460,741,1,536871904,59,41772,41772,65700,0,11584,0,0,0
i,0x00000000,1720562131.028061,172.16.1.2,49644,172.16.3.2,5101,8661,8688,0,64256,65728,6,6,4,1460,773,1,536871904,64,41772,41772,65700,0,8688,0,0,0
i,0x00000000,1720562131.059433,172.16.1.2,49644,172.16.3.2,5101,8661,7240,0,65728,65728,6,6,4,1460,793,1,536871904,65,41772,40324,65700,0,7240,0,0,0
o,0x00000000,1720562131.059458,172.16.1.2,49644,172.16.3.2,5101,8661,10136,0,64256,65728,6,6,4,1460,766,1,992,66,41772,37428,65700,0,4344,0,0,0
o,0x00000000,1720562131.060157,172.16.1.2,49644,172.16.3.2,5101,8661,10136,0,64256,65728,6,6,4,1460,766,1,992,66,41772,37428,65700,0,5792,0,0,0
o,0x00000000,1720562131.060851,172.16.1.2,49644,172.16.3.2,5101,8661,10136,0,64256,65728,6,6,4,1460,766,1,992,66,41772,37428,65700,0,7240,0,0,0
o,0x00000000,1720562131.061551,172.16.1.2,49644,172.16.3.2,5101,8661,10136,0,64256,65728,6,6,4,1460,766,1,992,66,41772,37428,65700,0,8688,0,0,0
i,0x00000000,1720562131.109381,172.16.1.2,49644,172.16.3.2,5101,8661,10136,0,64256,65728,6,6,4,1460,766,1,992,66,41772,41772,65700,0,10136,0,0,0
o,0x00000000,1720562131.109421,172.16.1.2,49644,172.16.3.2,5101,8661,10136,0,64256,65728,6,6,4,1460,739,1,992,66,41772,38876,65700,0,7240,0,0,0
o,0x00000000,1720562131.110751,172.16.1.2,49644,172.16.3.2,5101,8661,10136,0,64256,65728,6,6,4,1460,739,1,992,66,41772,38876,65700,0,8688,0,0,0
i,0x00000000,1720562131.173639,172.16.1.2,49644,172.16.3.2,5101,8661,10136,0,64256,65728,6,6,4,1460,739,1,992,66,41772,41772,65700,0,10136,0,0,0
o,0x00000000,1720562131.173682,172.16.1.2,49644,172.16.3.2,5101,8661,10136,0,65728,65728,6,6,4,1460,735,1,992,61,41772,40324,65700,0,8688,0,0,0
i,0x00000000,1720562131.216588,172.16.1.2,49644,172.16.3.2,5101,8661,10136,0,65728,65728,6,6,4,1460,735,1,992,61,41772,41296,65700,0,10136,0,0,0
o,0x00000000,1720562131.216602,172.16.1.2,49644,172.16.3.2,5101,8661,10136,0,64256,65728,6,6,4,1460,708,1,992,63,41772,38400,65700,0,7240,0,0,0
o,0x00000000,1720562131.216851,172.16.1.2,49644,172.16.3.2,5101,8661,10136,0,64256,65728,6,6,4,1460,708,1,992,63,41772,38400,65700,0,8688,0,0,0
i,0x00000000,1720562131.268213,172.16.1.2,49644,172.16.3.2,5101,8661,10136,0,64256,65728,6,6,4,1460,708,1,992,63,41772,41772,65700,0,10136,0,0,0
o,0x00000000,1720562131.268234,172.16.1.2,49644,172.16.3.2,5101,8661,11596,0,64256,65728,6,6,4,1460,704,1,992,58,41772,38876,65700,0,7240,0,0,0
o,0x00000000,1720562131.268856,172.16.1.2,49644,172.16.3.2,5101,8661,11596,0,64256,65728,6,6,4,1460,704,1,992,58,41772,38876,65700,0,8688,0,0,0
o,0x00000000,1720562131.269406,172.16.1.2,49644,172.16.3.2,5101,8661,11596,0,64256,65728,6,6,4,1460,704,1,992,58,41772,38876,65700,0,10136,0,0,0
i,0x00000000,1720562131.278102,172.16.1.2,49644,172.16.3.2,5101,8661,11596,0,64256,65728,6,6,4,1460,704,1,992,58,41772,41772,65700,0,11584,0,0,0
o,0x00000000,1720562131.278123,172.16.1.2,49644,172.16.3.2,5101,8661,11596,0,64256,65728,6,6,4,1460,684,1,992,59,41772,38876,65700,0,8688,0,0,0
o,0x00000000,1720562131.278904,172.16.1.2,49644,172.16.3.2,5101,8661,11596,0,64256,65728,6,6,4,1460,684,1,992,59,41772,38876,65700,0,10136,0,0,0
i,0x00000000,1720562131.360345,172.16.1.2,49644,172.16.3.2,5101,8661,11596,0,64256,65728,6,6,4,1460,684,1,992,59,41772,41772,65700,0,11584,0,0,0
o,0x00000000,1720562131.360385,172.16.1.2,49644,172.16.3.2,5101,8661,11596,0,64256,65728,6,6,4,1460,671,1,992,57,41772,38876,65700,0,8688,0,0,0
o,0x00000000,1720562131.361755,172.16.1.2,49644,172.16.3.2,5101,8661,11596,0,64256,65728,6,6,4,1460,671,1,992,57,41772,38876,65700,0,10136,0,0,0
i,0x00000000,1720562131.426643,172.16.1.2,49644,172.16.3.2,5101,8661,11596,0,64256,65728,6,6,4,1460,671,1,992,57,41772,41772,65700,0,11584,0,0,0
o,0x00000000,1720562131.426656,172.16.1.2,49644,172.16.3.2,5101,8661,11596,0,65728,65728,6,6,4,1460,672,1,992,54,41772,40324,65700,0,10136,0,0,0
i,0x00000000,1720562131.452757,172.16.1.2,49644,172.16.3.2,5101,8661,11596,0,65728,65728,6,6,4,1460,672,1,992,54,41772,40324,65700,0,11584,0,0,0
o,0x00000000,1720562131.452797,172.16.1.2,49644,172.16.3.2,5101,8661,11596,0,64256,65728,6,6,4,1460,656,1,992,54,41772,37428,65700,0,8688,0,0,0
o,0x00000000,1720562131.454144,172.16.1.2,49644,172.16.3.2,5101,8661,11596,0,64256,65728,6,6,4,1460,656,1,992,54,41772,37428,65700,0,10136,0,0,0
i,0x00000000,1720562131.479437,172.16.1.2,49644,172.16.3.2,5101,8661,11596,0,64256,65728,6,6,4,1460,656,1,992,54,41772,41772,65700,0,11584,0,0,0
o,0x00000000,1720562131.479469,172.16.1.2,49644,172.16.3.2,5101,8661,13056,0,64256,65728,6,6,4,1460,658,1,992,51,41772,38876,65700,0,8688,0,0,0
o,0x00000000,1720562131.480431,172.16.1.2,49644,172.16.3.2,5101,8661,13056,0,64256,65728,6,6,4,1460,658,1,992,51,41772,38876,65700,0,10136,0,0,0
o,0x00000000,1720562131.482017,172.16.1.2,49644,172.16.3.2,5101,8661,13056,0,64256,65728,6,6,4,1460,658,1,992,51,41772,38876,65700,0,11584,0,0,0
i,0x00000000,1720562131.539565,172.16.1.2,49644,172.16.3.2,5101,8661,13056,0,64256,65728,6,6,4,1460,658,1,992,51,41772,41772,65700,0,13032,0,0,0
o,0x00000000,1720562131.539598,172.16.1.2,49644,172.16.3.2,5101,8661,13056,0,64256,65728,6,6,4,1460,676,1,992,53,41772,38876,65700,0,10136,0,0,0
o,0x00000000,1720562131.540509,172.16.1.2,49644,172.16.3.2,5101,8661,13056,0,64256,65728,6,6,4,1460,676,1,992,53,41772,38876,65700,0,11584,0,0,0
i,0x00000000,1720562131.590220,172.16.1.2,49644,172.16.3.2,5101,8661,13056,0,64256,65728,6,6,4,1460,676,1,992,53,41772,41772,65700,0,13032,0,0,0
o,0x00000000,1720562131.590261,172.16.1.2,49644,172.16.3.2,5101,8661,13056,0,65728,65728,6,6,4,1460,684,1,992,53,41772,40324,65700,0,11584,0,0,0
i,0x00000000,1720562131.617742,172.16.1.2,49644,172.16.3.2,5101,8661,13056,0,65728,65728,6,6,4,1460,684,1,992,53,41772,40324,65700,0,13032,0,0,0
o,0x00000000,1720562131.617762,172.16.1.2,49644,172.16.3.2,5101,8661,13056,0,65728,65728,6,6,4,1460,675,1,992,52,41772,38876,65700,0,11584,0,0,0
i,0x00000000,1720562131.648263,172.16.1.2,49644,172.16.3.2,5101,8661,13056,0,65728,65728,6,6,4,1460,675,1,992,52,41772,41772,65700,0,13032,0,0,0
o,0x00000000,1720562131.648289,172.16.1.2,49644,172.16.3.2,5101,8661,13056,0,64256,65728,6,6,4,1460,671,1,992,50,41772,38876,65700,0,10136,0,0,0
o,0x00000000,1720562131.649051,172.16.1.2,49644,172.16.3.2,5101,8661,13056,0,64256,65728,6,6,4,1460,671,1,992,50,41772,38876,65700,0,11584,0,0,0
i,0x00000000,1720562131.697950,172.16.1.2,49644,172.16.3.2,5101,8661,13056,0,64256,65728,6,6,4,1460,671,1,992,50,41772,41772,65700,0,13032,0,0,0
o,0x00000000,1720562131.697984,172.16.1.2,49644,172.16.3.2,5101,8661,13056,0,64256,65728,6,6,4,1460,672,1,992,48,41772,38876,65700,0,10136,0,0,0
o,0x00000000,1720562131.699012,172.16.1.2,49644,172.16.3.2,5101,8661,13056,0,64256,65728,6,6,4,1460,672,1,992,48,41772,38876,65700,0,11584,0,0,0
i,0x00000000,1720562131.726316,172.16.1.2,49644,172.16.3.2,5101,8661,13056,0,64256,65728,6,6,4,1460,672,1,992,48,41772,41772,65700,0,13032,0,0,0
o,0x00000000,1720562131.726329,172.16.1.2,49644,172.16.3.2,5101,8661,14516,0,64256,65728,6,6,4,1460,684,1,992,50,41772,38876,65700,0,10136,0,0,0
o,0x00000000,1720562131.726607,172.16.1.2,49644,172.16.3.2,5101,8661,14516,0,64256,65728,6,6,4,1460,684,1,992,50,41772,38876,65700,0,11584,0,0,0
o,0x00000000,1720562131.726845,172.16.1.2,49644,172.16.3.2,5101,8661,14516,0,64256,65728,6,6,4,1460,684,1,992,50,41772,38876,65700,0,13032,0,0,0
i,0x00000000,1720562131.796558,172.16.1.2,49644,172.16.3.2,5101,8661,14516,0,64256,65728,6,6,4,1460,684,1,992,50,41772,41772,65700,0,14480,0,0,0
o,0x00000000,1720562131.796577,172.16.1.2,49644,172.16.3.2,5101,8661,14516,0,64256,65728,6,6,4,1460,703,1,992,53,41772,38876,65700,0,11584,0,0,0
o,0x00000000,1720562131.797236,172.16.1.2,49644,172.16.3.2,5101,8661,14516,0,64256,65728,6,6,4,1460,703,1,992,53,41772,38876,65700,0,13032,0,0,0
i,0x00000000,1720562131.868969,172.16.1.2,49644,172.16.3.2,5101,8661,14516,0,64256,65728,6,6,4,1460,703,1,992,53,41772,41772,65700,0,14480,0,0,0
o,0x00000000,1720562131.868985,172.16.1.2,49644,172.16.3.2,5101,8661,14516,0,64256,65728,6,6,4,1460,712,1,992,53,41772,38876,65700,0,11584,0,0,0
o,0x00000000,1720562131.869247,172.16.1.2,49644,172.16.3.2,5101,8661,14516,0,64256,65728,6,6,4,1460,712,1,992,53,41772,38876,65700,0,13032,0,0,0
i,0x00000000,1720562131.909333,172.16.1.2,49644,172.16.3.2,5101,8661,14516,0,64256,65728,6,6,4,1460,712,1,992,53,41772,41772,65700,0,14480,0,0,0
o,0x00000000,1720562131.909375,172.16.1.2,49644,172.16.3.2,5101,8661,14516,0,65728,65728,6,6,4,1460,727,1,992,54,41772,40324,65700,0,13032,0,0,0
i,0x00000000,1720562131.939684,172.16.1.2,49644,172.16.3.2,5101,8661,14516,0,65728,65728,6,6,4,1460,727,1,992,54,41772,40324,65700,0,14480,0,0,0
o,0x00000000,1720562131.939715,172.16.1.2,49644,172.16.3.2,5101,10576,37648,0,65728,65728,6,6,4,1460,727,1,536871904,54,49964,40324,65700,0,14480,0,0,0
o,0x00000000,1720562131.941111,172.16.1.2,49644,172.16.3.2,5101,10576,37648,0,65728,65728,6,6,4,1460,727,1,536871904,54,49964,40324,65700,0,15928,0,0,0
o,0x00000000,1720562131.942215,172.16.1.2,49644,172.16.3.2,5101,10576,37648,0,65728,65728,6,6,4,1460,727,1,536871904,54,49964,40324,65700,0,17376,0,0,0
o,0x00000000,1720562131.943300,172.16.1.2,49644,172.16.3.2,5101,10576,37648,0,65728,65728,6,6,4,1460,727,1,536871904,54,49964,40324,65700,0,18824,0,0,0
o,0x00000000,1720562131.944373,172.16.1.2,49644,172.16.3.2,5101,10576,37648,0,65728,65728,6,6,4,1460,727,1,536871904,54,49964,40324,65700,0,20272,0,0,0
o,0x00000000,1720562131.945425,172.16.1.2,49644,172.16.3.2,5101,10576,37648,0,65728,65728,6,6,4,1460,727,1,536871904,54,49964,40324,65700,0,21720,0,0,0
o,0x00000000,1720562131.946804,172.16.1.2,49644,172.16.3.2,5101,10576,37648,0,65728,65728,6,6,4,1460,727,1,536871904,54,49964,40324,65700,0,23168,0,0,0
o,0x00000000,1720562131.947735,172.16.1.2,49644,172.16.3.2,5101,10576,37648,0,65728,65728,6,6,4,1460,727,1,536871904,54,49964,40324,65700,0,24616,0,0,0
o,0x00000000,1720562131.948532,172.16.1.2,49644,172.16.3.2,5101,10576,37648,0,65728,65728,6,6,4,1460,727,1,536871904,54,49964,40324,65700,0,26064,0,0,0
o,0x00000000,1720562131.949237,172.16.1.2,49644,172.16.3.2,5101,10576,37648,0,65728,65728,6,6,4,1460,727,1,536871904,54,49964,40324,65700,0,27512,0,0,0
o,0x00000000,1720562131.949772,172.16.1.2,49644,172.16.3.2,5101,10576,37648,0,65728,65728,6,6,4,1460,727,1,536871904,54,49964,40324,65700,0,28960,0,0,0
o,0x00000000,1720562131.950286,172.16.1.2,49644,172.16.3.2,5101,10576,37648,0,65728,65728,6,6,4,1460,727,1,536871904,54,49964,40324,65700,0,30408,0,0,0
o,0x00000000,1720562131.950799,172.16.1.2,49644,172.16.3.2,5101,10576,37648,0,65728,65728,6,6,4,1460,727,1,536871904,54,49964,40324,65700,0,31856,0,0,0
o,0x00000000,1720562131.951313,172.16.1.2,49644,172.16.3.2,5101,10576,37648,0,65728,65728,6,6,4,1460,727,1,536871904,54,49964,40324,65700,0,33304,0,0,0
o,0x00000000,1720562131.951824,172.16.1.2,49644,172.16.3.2,5101,10576,37648,0,65728,65728,6,6,4,1460,727,1,536871904,54,49964,40324,65700,0,34752,0,0,0
o,0x00000000,1720562131.952351,172.16.1.2,49644,172.16.3.2,5101,10576,37648,0,65728,65728,6,6,4,1460,727,1,536871904,54,49964,40324,65700,0,36200,0,0,0
o,0x00000000,1720562131.952889,172.16.1.2,49644,172.16.3.2,5101,10576,37648,0,64256,65728,6,6,4,1460,737,1,536871904,54,49964,37428,65700,0,34752,0,0,0
o,0x00000000,1720562131.954028,172.16.1.2,49644,172.16.3.2,5101,10576,37648,0,64256,65728,6,6,4,1460,737,1,536871904,54,58156,49964,65700,0,36200,0,0,0
i,0x00000000,1720562131.968439,172.16.1.2,49644,172.16.3.2,5101,10576,37648,0,64256,65728,6,6,4,1460,737,1,536871904,54,82732,82732,65700,0,37648,0,0,0
o,0x00000000,1720562131.968464,172.16.1.2,49644,172.16.3.2,5101,10576,36200,0,64256,65728,6,6,4,1460,741,1,536871904,52,82732,79836,65700,0,34752,0,0,0
i,0x00000000,1720562132.021016,172.16.1.2,49644,172.16.3.2,5101,10576,36200,0,64256,65728,6,6,4,1460,741,1,536871904,52,82732,82732,65700,0,36200,0,0,0
o,0x00000000,1720562132.021046,172.16.1.2,49644,172.16.3.2,5101,10576,36200,0,64256,65728,6,6,4,1460,765,1,536871904,57,82732,79836,65700,0,33304,0,0,0
o,0x00000000,1720562132.021445,172.16.1.2,49644,172.16.3.2,5101,10576,36200,0,64256,65728,6,6,4,1460,765,1,536871904,57,82732,79836,65700,0,34752,0,0,0
i,0x00000000,1720562132.056393,172.16.1.2,49644,172.16.3.2,5101,10576,36200,0,64256,65728,6,6,4,1460,765,1,536871904,57,82732,82732,65700,0,36200,0,0,0
o,0x00000000,1720562132.056407,172.16.1.2,49644,172.16.3.2,5101,10576,34752,0,64256,65728,6,6,4,1460,770,1,536871904,55,82732,79836,65700,0,33304,0,0,0
i,0x00000000,1720562132.089445,172.16.1.2,49644,172.16.3.2,5101,10576,34752,0,64256,65728,6,6,4,1460,770,1,536871904,55,82732,82732,65700,0,34752,0,0,0
o,0x00000000,1720562132.089477,172.16.1.2,49644,172.16.3.2,5101,10576,36200,0,64256,65728,6,6,4,1460,770,1,536871904,55,82732,82732,65700,0,34752,0,0,0
o,0x00000000,1720562132.090826,172.16.1.2,49644,172.16.3.2,5101,10576,36200,0,65728,65728,6,6,4,1460,762,1,536871904,54,82732,81284,65700,0,34752,0,0,0
i,0x00000000,1720562132.318128,172.16.1.2,49644,172.16.3.2,5101,10576,36200,0,65728,65728,6,6,4,1460,762,1,536871904,54,82732,81284,65700,0,36200,0,0,0
o,0x00000000,1720562132.318142,172.16.1.2,49644,172.16.3.2,5101,10576,36200,0,64256,65728,6,6,4,1460,827,1,992,70,82732,78388,65700,0,33304,0,0,0
o,0x00000000,1720562132.318393,172.16.1.2,49644,172.16.3.2,5101,10576,36200,0,64256,65728,6,6,4,1460,827,1,992,70,82732,78388,65700,0,34752,0,0,0
i,0x00000000,1720562132.376786,172.16.1.2,49644,172.16.3.2,5101,10576,36200,0,64256,65728,6,6,4,1460,827,1,992,70,82732,82732,65700,0,36200,0,0,0
o,0x00000000,1720562132.376799,172.16.1.2,49644,172.16.3.2,5101,10576,36200,0,64256,65728,6,6,4,1460,900,1,992,84,82732,79836,65700,0,33304,0,0,0
o,0x00000000,1720562132.377049,172.16.1.2,49644,172.16.3.2,5101,10576,36200,0,64256,65728,6,6,4,1460,900,1,992,84,82732,79836,65700,0,34752,0,0,0
i,0x00000000,1720562132.417835,172.16.1.2,49644,172.16.3.2,5101,10576,36200,0,64256,65728,6,6,4,1460,900,1,992,84,82732,82732,65700,0,36200,0,0,0
o,0x00000000,1720562132.417845,172.16.1.2,49644,172.16.3.2,5101,26055,125976,0,64256,65728,6,6,4,1460,900,1,536871904,84,82732,82732,65700,0,36200,0,0,0
o,0x00000000,1720562132.418096,172.16.1.2,49644,172.16.3.2,5101,26055,125976,0,64256,65728,6,6,4,1460,900,1,536871904,84,82732,82732,65700,0,37648,0,0,0
o,0x00000000,1720562132.418443,172.16.1.2,49644,172.16.3.2,5101,26055,125976,0,64256,65728,6,6,4,1460,900,1,536871904,84,82732,82732,65700,0,39096,0,0,0
o,0x00000000,1720562132.418677,172.16.1.2,49644,172.16.3.2,5101,26055,125976,0,64256,65728,6,6,4,1460,900,1,536871904,84,82732,82732,65700,0,40544,0,0,0
o,0x00000000,1720562132.418921,172.16.1.2,49644,172.16.3.2,5101,26055,125976,0,64256,65728,6,6,4,1460,900,1,536871904,84,82732,82732,65700,0,41992,0,0,0
o,0x00000000,1720562132.419345,172.16.1.2,49644,172.16.3.2,5101,26055,125976,0,64256,65728,6,6,4,1460,900,1,536871904,84,82732,82732,65700,0,43440,0,0,0
o,0x00000000,1720562132.419726,172.16.1.2,49644,172.16.3.2,5101,26055,125976,0,64256,65728,6,6,4,1460,900,1,536871904,84,82732,82732,65700,0,44888,0,0,0
o,0x00000000,1720562132.420090,172.16.1.2,49644,172.16.3.2,5101,26055,125976,0,64256,65728,6,6,4,1460,900,1,536871904,84,82732,82732,65700,0,46336,0,0,0
o,0x00000000,1720562132.420397,172.16.1.2,49644,172.16.3.2,5101,26055,125976,0,64256,65728,6,6,4,1460,900,1,536871904,84,82732,82732,65700,0,47784,0,0,0
o,0x00000000,1720562132.420669,172.16.1.2,49644,172.16.3.2,5101,26055,125976,0,64256,65728,6,6,4,1460,900,1,536871904,84,82732,82732,65700,0,49232,0,0,0
o,0x00000000,1720562132.420923,172.16.1.2,49644,172.16.3.2,5101,26055,125976,0,64256,65728,6,6,4,1460,900,1,536871904,84,82732,82732,65700,0,50680,0,0,0
o,0x00000000,1720562132.421171,172.16.1.2,49644,172.16.3.2,5101,26055,125976,0,64256,65728,6,6,4,1460,900,1,536871904,84,82732,82732,65700,0,52128,0,0,0
o,0x00000000,1720562132.421407,172.16.1.2,49644,172.16.3.2,5101,26055,125976,0,64256,65728,6,6,4,1460,900,1,536871904,84,82732,82732,65700,0,53576,0,0,0
o,0x00000000,1720562132.421661,172.16.1.2,49644,172.16.3.2,5101,26055,125976,0,64256,65728,6,6,4,1460,900,1,536871904,84,82732,82732,65700,0,55024,0,0,0
o,0x00000000,1720562132.421976,172.16.1.2,49644,172.16.3.2,5101,26055,125976,0,64256,65728,6,6,4,1460,900,1,536871904,84,82732,82732,65700,0,56472,0,0,0
o,0x00000000,1720562132.422235,172.16.1.2,49644,172.16.3.2,5101,26055,125976,0,64256,65728,6,6,4,1460,900,1,536871904,84,82732,82732,65700,0,57920,0,0,0
o,0x00000000,1720562132.422470,172.16.1.2,49644,172.16.3.2,5101,26055,125976,0,64256,65728,6,6,4,1460,900,1,536871904,84,82732,82732,65700,0,59368,0,0,0
o,0x00000000,1720562132.422747,172.16.1.2,49644,172.16.3.2,5101,26055,125976,0,64256,65728,6,6,4,1460,900,1,536871904,84,82732,82732,65700,0,60816,0,0,0
o,0x00000000,1720562132.423058,172.16.1.2,49644,172.16.3.2,5101,26055,125976,0,64256,65728,6,6,4,1460,900,1,536871904,84,82732,82732,65700,0,62264,0,0,0
o,0x00000000,1720562132.423385,172.16.1.2,49644,172.16.3.2,5101,26055,125976,0,64256,65728,6,6,4,1460,980,1,536871904,98,82732,79836,65700,0,60816,0,0,0
o,0x00000000,1720562132.423803,172.16.1.2,49644,172.16.3.2,5101,26055,125976,0,64256,65728,6,6,4,1460,980,1,536871904,98,82732,79836,65700,0,62264,0,0,0
i,0x00000000,1720562132.427244,172.16.1.2,49644,172.16.3.2,5101,26055,125976,0,64256,65728,6,6,4,1460,980,1,536871904,98,82732,82732,65700,0,63712,0,0,0
o,0x00000000,1720562132.427259,172.16.1.2,49644,172.16.3.2,5101,26055,128872,0,64256,65728,6,6,4,1460,1054,1,536871904,107,82732,79836,65700,0,60816,0,0,0
o,0x00000000,1720562132.427510,172.16.1.2,49644,172.16.3.2,5101,26055,128872,0,64256,65728,6,6,4,1460,1054,1,536871904,107,82732,79836,65700,0,62264,0,0,0
i,0x00000000,1720562132.476259,172.16.1.2,49644,172.16.3.2,5101,26055,128872,0,64256,65728,6,6,4,1460,1054,1,536871904,107,82732,82732,65700,0,63712,0,0,0
o,0x00000000,1720562132.476274,172.16.1.2,49644,172.16.3.2,5101,26055,130320,0,64256,65728,6,6,4,1460,1131,1,536871904,115,82732,79836,65700,0,60816,0,0,0
o,0x00000000,1720562132.476530,172.16.1.2,49644,172.16.3.2,5101,26055,130320,0,64256,65728,6,6,4,1460,1131,1,536871904,115,82732,79836,65700,0,62264,0,0,0
i,0x00000000,1720562132.516044,172.16.1.2,49644,172.16.3.2,5101,26055,130320,0,64256,65728,6,6,4,1460,1131,1,536871904,115,82732,82732,65700,0,63712,0,0,0
o,0x00000000,1720562132.516062,172.16.1.2,49644,172.16.3.2,5101,26055,133216,0,64256,65728,6,6,4,1460,1214,1,536871904,123,82732,79836,65700,0,60816,0,0,0
o,0x00000000,1720562132.516427,172.16.1.2,49644,172.16.3.2,5101,26055,133216,0,64256,65728,6,6,4,1460,1214,1,536871904,123,82732,79836,65700,0,62264,0,0,0
i,0x00000000,1720562132.528101,172.16.1.2,49644,172.16.3.2,5101,26055,133216,0,64256,65728,6,6,4,1460,1214,1,536871904,123,82732,82732,65700,0,63712,0,0,0
o,0x00000000,1720562132.528132,172.16.1.2,49644,172.16.3.2,5101,26055,134664,0,64256,65728,6,6,4,1460,1295,1,536871904,130,82732,79836,65700,0,60816,0,0,0
o,0x00000000,1720562132.528709,172.16.1.2,49644,172.16.3.2,5101,26055,134664,0,64256,65728,6,6,4,1460,1295,1,536871904,130,82732,79836,65700,0,62264,0,0,0
i,0x00000000,1720562132.556197,172.16.1.2,49644,172.16.3.2,5101,26055,134664,0,64256,65728,6,6,4,1460,1295,1,536871904,130,82732,82732,65700,0,63712,0,0,0
o,0x00000000,1720562132.556213,172.16.1.2,49644,172.16.3.2,5101,26055,137560,0,64256,65728,6,6,4,1460,1374,1,536871904,135,82732,79836,65700,0,60816,0,0,0
o,0x00000000,1720562132.556466,172.16.1.2,49644,172.16.3.2,5101,26055,137560,0,64256,65728,6,6,4,1460,1374,1,536871904,135,82732,79836,65700,0,62264,0,0,0
i,0x00000000,1720562132.576252,172.16.1.2,49644,172.16.3.2,5101,26055,137560,0,64256,65728,6,6,4,1460,1374,1,536871904,135,82732,82732,65700,0,63712,0,0,0
o,0x00000000,1720562132.576267,172.16.1.2,49644,172.16.3.2,5101,26055,140456,0,64256,65728,6,6,4,1460,1451,1,536871904,138,82732,79836,65700,0,60816,0,0,0
o,0x00000000,1720562132.576520,172.16.1.2,49644,172.16.3.2,5101,26055,140456,0,64256,65728,6,6,4,1460,1451,1,536871904,138,82732,79836,65700,0,62264,0,0,0
i,0x00000000,1720562132.606798,172.16.1.2,49644,172.16.3.2,5101,26055,140456,0,64256,65728,6,6,4,1460,1451,1,536871904,138,82732,82732,65700,0,63712,0,0,0
o,0x00000000,1720562132.606816,172.16.1.2,49644,172.16.3.2,5101,26055,141904,0,64256,65728,6,6,4,1460,1534,1,536871904,143,82732,79836,65700,0,60816,0,0,0
o,0x00000000,1720562132.607081,172.16.1.2,49644,172.16.3.2,5101,26055,141904,0,64256,65728,6,6,4,1460,1534,1,536871904,143,82732,79836,65700,0,62264,0,0,0
i,0x00000000,1720562132.627302,172.16.1.2,49644,172.16.3.2,5101,26055,141904,0,64256,65728,6,6,4,1460,1534,1,536871904,143,82732,82732,65700,0,63712,0,0,0
o,0x00000000,1720562132.627334,172.16.1.2,49644,172.16.3.2,5101,26055,144800,0,64256,65728,6,6,4,1460,1587,1,536871904,139,82732,79836,65700,0,60816,0,0,0
o,0x00000000,1720562132.628250,172.16.1.2,49644,172.16.3.2,5101,26055,144800,0,64256,65728,6,6,4,1460,1587,1,536871904,139,82732,79836,65700,0,62264,0,0,0
i,0x00000000,1720562132.678324,172.16.1.2,49644,172.16.3.2,5101,26055,144800,0,64256,65728,6,6,4,1460,1587,1,536871904,139,82732,82732,65700,0,63712,0,0,0
o,0x00000000,1720562132.678338,172.16.1.2,49644,172.16.3.2,5101,26055,146248,0,64256,65728,6,6,4,1460,1637,1,536871904,136,82732,79836,65700,0,60816,0,0,0
o,0x00000000,1720562132.678586,172.16.1.2,49644,172.16.3.2,5101,26055,146248,0,64256,65728,6,6,4,1460,1637,1,536871904,136,82732,79836,65700,0,62264,0,0,0
i,0x00000000,1720562132.751010,172.16.1.2,49644,172.16.3.2,5101,26055,146248,0,64256,65728,6,6,4,1460,1637,1,536871904,136,82732,82732,65700,0,63712,0,0,0
o,0x00000000,1720562132.751055,172.16.1.2,49644,172.16.3.2,5101,26055,149144,0,65728,65728,6,6,4,1460,1693,1,536871904,135,82732,81284,65700,0,62264,0,0,0
o,0x00000000,1720562132.752200,172.16.1.2,49644,172.16.3.2,5101,26055,149144,0,65728,65728,6,6,4,1460,1693,1,536871904,135,82732,81284,65700,0,63712,0,0,0
i,0x00000000,1720562133.132760,172.16.1.2,49644,172.16.3.2,5101,26055,149144,0,65728,65728,6,6,4,1460,1693,1,536871904,135,82732,82592,65700,0,65160,0,0,0
o,0x00000000,1720562133.132803,172.16.1.2,49644,172.16.3.2,5101,26055,150592,0,64256,65728,6,6,4,1460,1806,1,536871904,151,82732,79696,65700,0,62264,0,0,0
i,0x00000000,1720562133.207507,172.16.1.2,49644,172.16.3.2,5101,26055,150592,0,64256,65728,6,6,4,1460,1806,1,536871904,151,82732,82732,65700,0,63712,0,0,0
o,0x00000000,1720562133.207533,172.16.1.2,49644,172.16.3.2,5101,26055,152040,0,64256,65728,6,6,4,1460,1913,1,536871904,163,82732,79836,65700,0,60816,0,0,0
o,0x00000000,1720562133.207834,172.16.1.2,49644,172.16.3.2,5101,26055,152040,0,64256,65728,6,6,4,1460,1913,1,536871904,163,82732,79836,65700,0,62264,0,0,0
i,0x00000000,1720562133.215884,172.16.1.2,49644,172.16.3.2,5101,26055,152040,0,64256,65728,6,6,4,1460,1913,1,536871904,163,82732,82732,65700,0,63712,0,0,0
o,0x00000000,1720562133.215899,172.16.1.2,49644,172.16.3.2,5101,108017,86880,0,65728,65728,6,6,4,1460,1990,1,536871904,164,82732,81284,65700,0,62264,0,0,0
o,0x00000000,1720562133.216274,172.16.1.2,49644,172.16.3.2,5101,108017,86880,0,65728,65728,6,6,4,1460,1990,1,536871904,164,82732,81284,65700,0,63712,0,0,0
i,0x00000000,1720562133.266919,172.16.1.2,49644,172.16.3.2,5101,108017,86880,0,65728,65728,6,6,4,1460,1990,1,536871904,164,82732,81284,65700,0,65160,0,0,0
o,0x00000000,1720562133.266956,172.16.1.2,49644,172.16.3.2,5101,108017,86880,0,65728,65728,6,6,4,1460,2082,1,536871904,169,82732,79836,65700,0,63712,0,0,0
i,0x00000000,1720562133.286331,172.16.1.2,49644,172.16.3.2,5101,108017,86880,0,65728,65728,6,6,4,1460,2082,1,536871904,169,82732,82732,65700,0,65160,0,0,0
o,0x00000000,1720562133.286352,172.16.1.2,49644,172.16.3.2,5101,108017,85432,0,64256,65728,6,6,4,1460,2166,1,536871904,172,82732,79836,65700,0,62264,0,0,0
i,0x00000000,1720562133.305735,172.16.1.2,49644,172.16.3.2,5101,108017,85432,0,64256,65728,6,6,4,1460,2166,1,536871904,172,82732,82732,65700,0,63712,0,0,0
o,0x00000000,1720562133.305767,172.16.1.2,49644,172.16.3.2,5101,108017,85432,0,64256,65728,6,6,4,1460,2248,1,536871904,174,82732,79836,65700,0,60816,0,0,0
o,0x00000000,1720562133.306098,172.16.1.2,49644,172.16.3.2,5101,108017,85432,0,64256,65728,6,6,4,1460,2248,1,536871904,174,82732,79836,65700,0,62264,0,0,0
i,0x00000000,1720562133.338383,172.16.1.2,49644,172.16.3.2,5101,108017,85432,0,64256,65728,6,6,4,1460,2248,1,536871904,174,82732,82732,65700,0,63712,0,0,0
o,0x00000000,1720562133.338422,172.16.1.2,49644,172.16.3.2,5101,108017,85432,0,64256,65728,6,6,4,1460,2335,1,536871904,177,82732,79836,65700,0,60816,0,0,0
o,0x00000000,1720562133.338865,172.16.1.2,49644,172.16.3.2,5101,108017,85432,0,64256,65728,6,6,4,1460,2335,1,536871904,177,82732,79836,65700,0,62264,0,0,0
i,0x00000000,1720562133.378005,172.16.1.2,49644,172.16.3.2,5101,108017,85432,0,64256,65728,6,6,4,1460,2335,1,536871904,177,82732,82732,65700,0,63712,0,0,0
o,0x00000000,1720562133.378033,172.16.1.2,49644,172.16.3.2,5101,108017,85432,0,64256,65728,6,6,4,1460,2428,1,536871904,182,82732,79836,65700,0,60816,0,0,0
o,0x00000000,1720562133.378799,172.16.1.2,49644,172.16.3.2,5101,108017,85432,0,64256,65728,6,6,4,1460,2428,1,536871904,182,82732,79836,65700,0,62264,0,0,0
i,0x00000000,1720562133.399089,172.16.1.2,49644,172.16.3.2,5101,108017,85432,0,64256,65728,6,6,4,1460,2428,1,536871904,182,82732,82732,65700,0,63712,0,0,0
o,0x00000000,1720562133.399116,172.16.1.2,49644,172.16.3.2,5101,108017,85432,0,64256,65728,6,6,4,1460,2517,1,536871904,186,82732,79836,65700,0,60816,0,0,0
o,0x00000000,1720562133.399819,172.16.1.2,49644,172.16.3.2,5101,108017,85432,0,64256,65728,6,6,4,1460,2517,1,536871904,186,82732,79836,65700,0,62264,0,0,0
i,0x00000000,1720562133.426162,172.16.1.2,49644,172.16.3.2,5101,108017,85432,0,64256,65728,6,6,4,1460,2517,1,536871904,186,82732,82732,65700,0,63712,0,0,0
o,0x00000000,1720562133.426181,172.16.1.2,49644,172.16.3.2,5101,108017,85432,0,64256,65728,6,6,4,1460,2603,1,536871904,188,82732,79836,65700,0,60816,0,0,0
o,0x00000000,1720562133.426432,172.16.1.2,49644,172.16.3.2,5101,108017,85432,0,64256,65728,6,6,4,1460,2603,1,536871904,188,82732,79836,65700,0,62264,0,0,0
i,0x00000000,1720562133.446950,172.16.1.2,49644,172.16.3.2,5101,108017,85432,0,64256,65728,6,6,4,1460,2603,1,536871904,188,82732,82732,65700,0,63712,0,0,0
o,0x00000000,1720562133.446972,172.16.1.2,49644,172.16.3.2,5101,108017,85432,0,64256,65728,6,6,4,1460,2690,1,536871904,191,82732,79836,65700,0,60816,0,0,0
o,0x00000000,1720562133.447505,172.16.1.2,49644,172.16.3.2,5101,108017,85432,0,64256,65728,6,6,4,1460,2690,1,536871904,191,82732,79836,65700,0,62264,0,0,0
i,0x00000000,1720562133.488050,172.16.1.2,49644,172.16.3.2,5101,108017,85432,0,64256,65728,6,6,4,1460,2690,1,536871904,191,82732,82732,65700,0,63712,0,0,0
o,0x00000000,1720562133.488064,172.16.1.2,49644,172.16.3.2,5101,108017,85432,0,64256,65728,6,6,4,1460,2782,1,536871904,195,82732,79836,65700,0,60816,0,0,0
o,0x00000000,1720562133.488324,172.16.1.2,49644,172.16.3.2,5101,108017,85432,0,64256,65728,6,6,4,1460,2782,1,536871904,195,82732,79836,65700,0,62264,0,0,0
i,0x00000000,1720562133.496087,172.16.1.2,49644,172.16.3.2,5101,108017,85432,0,64256,65728,6,6,4,1460,2782,1,536871904,195,82732,82732,65700,0,63712,0,0,0
o,0x00000000,1720562133.496101,172.16.1.2,49644,172.16.3.2,5101,108017,85432,0,64256,65728,6,6,4,1460,2863,1,536871904,196,82732,79836,65700,0,60816,0,0,0
o,0x00000000,1720562133.496470,172.16.1.2,49644,172.16.3.2,5101,108017,85432,0,64256,65728,6,6,4,1460,2863,1,536871904,196,82732,79836,65700,0,62264,0,0,0
i,0x00000000,1720562133.528149,172.16.1.2,49644,172.16.3.2,5101,108017,85432,0,64256,65728,6,6,4,1460,2863,1,536871904,196,82732,82732,65700,0,63712,0,0,0
o,0x00000000,1720562133.528183,172.16.1.2,49644,172.16.3.2,5101,108017,85432,0,64256,65728,6,6,4,1460,2950,1,536871904,199,82732,79836,65700,0,60816,0,0,0
o,0x00000000,1720562133.529582,172.16.1.2,49644,172.16.3.2,5101,108017,85432,0,64256,65728,6,6,4,1460,2950,1,536871904,199,82732,79836,65700,0,62264,0,0,0
i,0x00000000,1720562133.553693,172.16.1.2,49644,172.16.3.2,5101,108017,85432,0,64256,65728,6,6,4,1460,2950,1,536871904,199,82732,82732,65700,0,63712,0,0,0
o,0x00000000,1720562133.553715,172.16.1.2,49644,172.16.3.2,5101,108017,85432,0,64256,65728,6,6,4,1460,3030,1,536871904,199,82732,79836,65700,0,60816,0,0,0
o,0x00000000,1720562133.554017,172.16.1.2,49644,172.16.3.2,5101,108017,85432,0,64256,65728,6,6,4,1460,3030,1,536871904,199,82732,79836,65700,0,62264,0,0,0
i,0x00000000,1720562133.576365,172.16.1.2,49644,172.16.3.2,5101,108017,85432,0,64256,65728,6,6,4,1460,3030,1,536871904,199,82732,82732,65700,0,63712,0,0,0
o,0x00000000,1720562133.576381,172.16.1.2,49644,172.16.3.2,5101,108017,85432,0,64256,65728,6,6,4,1460,3092,1,536871904,196,82732,79836,65700,0,60816,0,0,0
o,0x00000000,1720562133.576651,172.16.1.2,49644,172.16.3.2,5101,108017,85432,0,64256,65728,6,6,4,1460,3092,1,536871904,196,82732,79836,65700,0,62264,0,0,0
i,0x00000000,1720562133.616042,172.16.1.2,49644,172.16.3.2,5101,108017,85432,0,64256,65728,6,6,4,1460,3092,1,536871904,196,82732,82732,65700,0,63712,0,0,0
o,0x00000000,1720562133.616064,172.16.1.2,49644,172.16.3.2,5101,108017,85432,0,64256,65728,6,6,4,1460,3142,1,536871904,190,82732,79836,65700,0,60816,0,0,0
o,0x00000000,1720562133.616510,172.16.1.2,49644,172.16.3.2,5101,108017,85432,0,64256,65728,6,6,4,1460,3142,1,536871904,190,82732,79836,65700,0,62264,0,0,0
i,0x00000000,1720562133.636587,172.16.1.2,49644,172.16.3.2,5101,108017,85432,0,64256,65728,6,6,4,1460,3142,1,536871904,190,82732,82732,65700,0,63712,0,0,0
o,0x00000000,1720562133.636614,172.16.1.2,49644,172.16.3.2,5101,108017,85432,0,64256,65728,6,6,4,1460,3190,1,536871904,185,82732,79836,65700,0,60816,0,0,0
o,0x00000000,1720562133.636973,172.16.1.2,49644,172.16.3.2,5101,108017,85432,0,64256,65728,6,6,4,1460,3190,1,536871904,185,82732,79836,65700,0,62264,0,0,0
i,0x00000000,1720562133.678857,172.16.1.2,49644,172.16.3.2,5101,108017,85432,0,64256,65728,6,6,4,1460,3190,1,536871904,185,82732,82732,65700,0,63712,0,0,0
o,0x00000000,1720562133.678871,172.16.1.2,49644,172.16.3.2,5101,108017,85432,0,64256,65728,6,6,4,1460,3240,1,536871904,183,82732,79836,65700,0,60816,0,0,0
o,0x00000000,1720562133.678985,172.16.1.2,49644,172.16.3.2,5101,108017,85432,0,64256,65728,6,6,4,1460,3240,1,536871904,183,82732,79836,65700,0,62264,0,0,0
i,0x00000000,1720562133.679062,172.16.1.2,49644,172.16.3.2,5101,108017,85432,0,64256,65728,6,6,4,1460,3240,1,536871904,183,82732,79836,65700,0,63712,0,0,0
o,0x00000000,1720562133.679066,172.16.1.2,49644,172.16.3.2,5101,108017,85432,0,64256,65728,6,6,4,1460,3275,1,536871904,177,82732,76940,65700,0,60816,0,0,0
