enable_time_secs=1720560705	enable_time_usecs=574946	siftrver=1.2.4	hz=100	tcp_rtt_scale=32	sysname=FreeBSD	sysver=1301000	ipmode=4
o,0x00000000,1720560705.574988,10.0.2.15,22,10.0.2.2,56342,1073725440,17770,0,65535,65700,0,0,4,1460,1,0,4,24,33580,44,65700,0,0,0,0,0
o,0x00000000,1720560705.575130,10.0.2.15,22,10.0.2.2,56342,1073725440,17770,0,65535,65700,0,0,4,1460,1,0,4,24,33580,80,65700,0,44,0,0,0
i,0x00000000,1720560705.575631,10.0.2.15,22,10.0.2.2,56342,1073725440,17770,0,65535,65700,0,0,4,1460,1,0,4,24,33580,80,65700,0,80,0,0,0
i,0x00000000,1720560705.575638,10.0.2.15,22,10.0.2.2,56342,1073725440,17814,0,65535,65700,0,0,4,1460,1,0,4,24,33580,36,65700,0,36,0,0,0
o,0x00000000,1720560705.575845,10.0.2.15,22,10.0.2.2,56342,1073725440,17850,0,65535,65700,0,0,4,1460,1,0,4,24,33580,36,65700,0,0,0,0,0
i,0x00000000,1720560705.576555,10.0.2.15,22,10.0.2.2,56342,1073725440,17850,0,65535,65700,0,0,4,1460,1,0,4,24,33580,36,65700,0,36,0,0,0
o,0x00000000,1720560705.576876,10.0.2.15,22,10.0.2.2,56342,1073725440,17886,0,65535,65700,0,0,4,1460,1,0,4,23,33580,176,65700,0,0,0,0,0
i,0x00000000,1720560705.577597,10.0.2.15,22,10.0.2.2,56342,1073725440,17886,0,65535,65700,0,0,4,1460,1,0,4,23,33580,176,65700,0,176,0,0,0
i,0x00000000,1720560705.577602,10.0.2.15,22,10.0.2.2,56342,1073725440,18062,0,65535,65700,0,0,4,1460,1,0,4,23,33580,0,65700,0,0,0,0,0
i,0x00000000,1720560705.577604,10.0.2.15,22,10.0.2.2,56342,1073725440,18062,0,65535,65700,0,0,4,1460,1,0,4,23,33580,0,65700,96,0,0,0,0
o,0x00000000,1720560705.577607,10.0.2.15,22,10.0.2.2,56342,1073725440,18062,0,65535,65604,0,0,5,1460,1,0,5,23,33580,0,65700,96,0,0,0,0
o,0x00000000,1720560705.578359,10.0.2.15,22,10.0.2.2,56342,1073725440,18062,0,65535,65604,0,0,8,1460,1,0,4,23,33580,0,65700,0,0,0,0,0
i,0x00000000,1720560705.579069,10.0.2.15,22,10.0.2.2,56342,1073725440,18062,0,65535,65604,0,0,8,1460,1,0,20,23,33580,0,65700,0,1,0,0,0
i,0x00000000,1720560707.732684,10.0.2.15,22,10.0.2.2,56344,1073725440,14600,0,65535,65700,0,0,4,1460,1,0,0,27,33580,0,65700,0,0,0,0,0
o,0x00000000,1720560707.740449,10.0.2.15,22,10.0.2.2,56344,1073725440,14600,0,65535,65700,0,0,4,1460,1,0,0,27,33580,38,65700,42,0,0,0,0
i,0x00000000,1720560707.742031,10.0.2.15,22,10.0.2.2,56344,1073725440,14600,0,65535,65700,0,0,4,1460,1,0,0,27,33580,38,65700,42,38,0,0,0
i,0x00000000,1720560707.742529,10.0.2.15,22,10.0.2.2,56344,1073725440,14638,0,65535,65700,0,0,4,1460,1,0,0,23,33580,0,65700,42,0,0,0,0
i,0x00000000,1720560707.742535,10.0.2.15,22,10.0.2.2,56344,1073725440,14638,0,65535,65700,0,0,4,1460,1,0,0,23,33580,0,65700,1502,0,0,0,0
o,0x00000000,1720560707.742541,10.0.2.15,22,10.0.2.2,56344,1073725440,14638,0,65535,65700,0,0,4,1460,1,0,1,23,33580,0,65700,1578,0,0,0,0
o,0x00000000,1720560707.743565,10.0.2.15,22,10.0.2.2,56344,1073725440,14638,0,65535,65700,0,0,4,1460,1,0,0,23,33580,1056,65700,1536,0,0,0,0
i,0x00000000,1720560707.744518,10.0.2.15,22,10.0.2.2,56344,1073725440,14638,0,65535,65700,0,0,4,1460,1,0,0,23,33580,1056,65700,1536,1056,0,0,0
i,0x00000000,1720560707.746355,10.0.2.15,22,10.0.2.2,56344,1073725440,15694,0,65535,65700,0,0,4,1460,1,0,0,24,33580,0,65700,0,0,0,0,0
o,0x00000000,1720560707.749448,10.0.2.15,22,10.0.2.2,56344,1073725440,15694,0,65535,65700,0,0,4,1460,1,0,0,24,33580,484,65700,0,0,0,0,0
i,0x00000000,1720560707.750651,10.0.2.15,22,10.0.2.2,56344,1073725440,15694,0,65535,65700,0,0,4,1460,1,0,0,24,33580,484,65700,0,484,0,0,0
i,0x00000000,1720560707.756864,10.0.2.15,22,10.0.2.2,56344,1073725440,16178,0,65535,65700,0,0,4,1460,1,0,0,24,33580,0,65700,0,0,0,0,0
i,0x00000000,1720560707.756873,10.0.2.15,22,10.0.2.2,56344,1073725440,16178,0,65535,65700,0,0,4,1460,1,0,0,24,33580,0,65700,16,0,0,0,0
o,0x00000000,1720560707.756877,10.0.2.15,22,10.0.2.2,56344,1073725440,16178,0,65535,65700,0,0,4,1460,1,0,1,24,33580,0,65700,60,0,0,0,0
o,0x00000000,1720560707.757094,10.0.2.15,22,10.0.2.2,56344,1073725440,16178,0,65535,65700,0,0,4,1460,1,0,0,24,33580,44,65700,0,0,0,0,0
i,0x00000000,1720560707.758168,10.0.2.15,22,10.0.2.2,56344,1073725440,16178,0,65535,65700,0,0,4,1460,1,0,0,24,33580,44,65700,0,44,0,0,0
i,0x00000000,1720560707.758182,10.0.2.15,22,10.0.2.2,56344,1073725440,16222,0,65535,65700,0,0,4,1460,1,0,0,24,33580,0,65700,0,0,0,0,0
o,0x00000000,1720560707.767492,10.0.2.15,22,10.0.2.2,56344,1073725440,16222,0,65535,65700,0,0,4,1460,1,0,0,24,33580,68,65700,0,0,0,0,0
i,0x00000000,1720560707.768129,10.0.2.15,22,10.0.2.2,56344,1073725440,16222,0,65535,65700,0,0,4,1460,1,0,0,24,33580,68,65700,0,68,0,0,0
i,0x00000000,1720560707.768446,10.0.2.15,22,10.0.2.2,56344,1073725440,16290,0,65535,65700,0,0,4,1460,1,0,0,24,33580,0,65700,0,0,0,0,0
o,0x00000000,1720560707.768936,10.0.2.15,22,10.0.2.2,56344,1073725440,16290,0,65535,65700,0,0,4,1460,1,0,0,24,33580,332,65700,0,0,0,0,0
i,0x00000000,1720560707.769961,10.0.2.15,22,10.0.2.2,56344,1073725440,16290,0,65535,65700,0,0,4,1460,1,0,0,24,33580,332,65700,0,332,0,0,0
i,0x00000000,1720560707.772083,10.0.2.15,22,10.0.2.2,56344,1073725440,16622,0,65535,65700,0,0,4,1460,1,0,0,24,33580,0,65700,0,0,0,0,0
o,0x00000000,1720560707.787768,10.0.2.15,22,10.0.2.2,56344,1073725440,16622,0,65535,65700,0,0,4,1460,1,0,0,24,33580,28,65700,0,0,0,0,0
i,0x00000000,1720560707.789389,10.0.2.15,22,10.0.2.2,56344,1073725440,16622,0,65535,65700,0,0,4,1460,1,0,0,24,33580,28,65700,0,28,0,0,0
i,0x00000000,1720560707.789403,10.0.2.15,22,10.0.2.2,56344,1073725440,16650,0,65535,65700,0,0,4,1460,1,0,0,24,33580,0,65700,0,0,0,0,0
o,0x00000000,1720560707.791081,10.0.2.15,22,10.0.2.2,56344,1073725440,16650,0,65535,65700,0,0,4,1460,1,0,0,24,33580,768,65700,112,0,0,0,0
i,0x00000000,1720560707.791950,10.0.2.15,22,10.0.2.2,56344,1073725440,16650,0,65535,65700,0,0,4,1460,1,0,0,24,33580,768,65700,112,768,0,0,0
o,0x00000000,1720560707.792034,10.0.2.15,22,10.0.2.2,56344,1073725440,17418,0,65535,65700,0,0,4,1460,1,0,0,24,33580,140,65700,112,0,0,0,0
i,0x00000000,1720560707.792797,10.0.2.15,22,10.0.2.2,56344,1073725440,17418,0,65535,65700,0,0,4,1460,1,0,0,24,33580,140,65700,112,140,0,0,0
o,0x00000000,1720560707.793044,10.0.2.15,22,10.0.2.2,56344,1073725440,17558,0,65535,65700,0,0,4,1460,1,0,0,24,33580,44,65700,0,0,0,0,0
i,0x00000000,1720560707.793995,10.0.2.15,22,10.0.2.2,56344,1073725440,17558,0,65535,65700,0,0,4,1460,1,0,0,24,33580,44,65700,0,44,0,0,0
i,0x00000000,1720560707.794002,10.0.2.15,22,10.0.2.2,56344,1073725440,17602,0,65535,65700,0,0,4,1460,1,0,0,24,33580,0,65700,0,0,0,0,0
o,0x00000000,1720560707.794427,10.0.2.15,22,10.0.2.2,56344,1073725440,17602,0,65535,65700,0,0,4,1460,1,0,4,24,33580,72,65700,0,0,0,0,0
i,0x00000000,1720560707.795138,10.0.2.15,22,10.0.2.2,56344,1073725440,17602,0,65535,65700,0,0,4,1460,1,0,4,24,33580,72,65700,0,72,0,0,0
o,0x00000000,1720560707.799198,10.0.2.15,22,10.0.2.2,56344,1073725440,17674,0,65535,65700,0,0,4,1460,1,0,4,24,33580,44,65700,0,0,0,0,0
i,0x00000000,1720560707.799961,10.0.2.15,22,10.0.2.2,56344,1073725440,17674,0,65535,65700,0,0,4,1460,1,0,4,24,33580,44,65700,0,44,0,0,0
o,0x00000000,1720560707.800451,10.0.2.15,22,10.0.2.2,56344,1073725440,17718,0,65535,65700,0,0,4,1460,1,0,4,24,33580,44,65700,0,0,0,0,0
i,0x00000000,1720560707.801684,10.0.2.15,22,10.0.2.2,56344,1073725440,17718,0,65535,65700,0,0,4,1460,1,0,4,24,33580,44,65700,0,44,0,0,0
o,0x00000000,1720560707.804835,10.0.2.15,22,10.0.2.2,56344,1073725440,17762,0,65535,65700,0,0,4,1460,1,0,4,24,33580,176,65700,0,0,0,0,0
i,0x00000000,1720560707.806438,10.0.2.15,22,10.0.2.2,56344,1073725440,17762,0,65535,65700,0,0,4,1460,1,0,4,24,33580,176,65700,0,176,0,0,0
i,0x00000000,1720560707.807045,10.0.2.15,22,10.0.2.2,56344,1073725440,17938,0,65535,65700,0,0,4,1460,1,0,4,24,33580,0,65700,0,0,0,0,0
i,0x00000000,1720560707.807056,10.0.2.15,22,10.0.2.2,56344,1073725440,17938,0,65535,65700,0,0,4,1460,1,0,4,24,33580,0,65700,96,0,0,0,0
o,0x00000000,1720560707.807074,10.0.2.15,22,10.0.2.2,56344,1073725440,17938,0,65535,65604,0,0,5,1460,1,0,5,24,33580,0,65700,96,0,0,0,0
o,0x00000000,1720560707.818895,10.0.2.15,22,10.0.2.2,56344,1073725440,17938,0,65535,65604,0,0,8,1460,1,0,4,24,33580,0,65700,0,0,0,0,0
i,0x00000000,1720560707.820472,10.0.2.15,22,10.0.2.2,56344,1073725440,17938,0,65535,65604,0,0,8,1460,1,0,20,24,33580,0,65700,0,1,0,0,0
i,0x00000000,1720560708.968485,10.0.2.15,22,10.0.2.2,56354,1073725440,14600,0,65535,65700,0,0,4,1460,1,0,0,27,33580,0,65700,0,0,0,0,0
o,0x00000000,1720560708.976212,10.0.2.15,22,10.0.2.2,56354,1073725440,14600,0,65535,65700,0,0,4,1460,1,0,0,27,33580,38,65700,42,0,0,0,0
i,0x00000000,1720560708.977639,10.0.2.15,22,10.0.2.2,56354,1073725440,14600,0,65535,65700,0,0,4,1460,1,0,0,27,33580,38,65700,42,38,0,0,0
i,0x00000000,1720560708.977755,10.0.2.15,22,10.0.2.2,56354,1073725440,14638,0,65535,65700,0,0,4,1460,1,0,0,24,33580,0,65700,42,0,0,0,0
i,0x00000000,1720560708.977759,10.0.2.15,22,10.0.2.2,56354,1073725440,14638,0,65535,65700,0,0,4,1460,1,0,0,24,33580,0,65700,1502,0,0,0,0
o,0x00000000,1720560708.977765,10.0.2.15,22,10.0.2.2,56354,1073725440,14638,0,65535,65700,0,0,4,1460,1,0,1,24,33580,0,65700,1578,0,0,0,0
o,0x00000000,1720560708.978635,10.0.2.15,22,10.0.2.2,56354,1073725440,14638,0,65535,65700,0,0,4,1460,1,0,0,24,33580,1056,65700,1536,0,0,0,0
i,0x00000000,1720560708.979446,10.0.2.15,22,10.0.2.2,56354,1073725440,14638,0,65535,65700,0,0,4,1460,1,0,0,24,33580,1056,65700,1536,1056,0,0,0
i,0x00000000,1720560708.980682,10.0.2.15,22,10.0.2.2,56354,1073725440,15694,0,65535,65700,0,0,4,1460,1,0,0,24,33580,0,65700,0,0,0,0,0
o,0x00000000,1720560708.983530,10.0.2.15,22,10.0.2.2,56354,1073725440,15694,0,65535,65700,0,0,4,1460,1,0,0,24,33580,484,65700,0,0,0,0,0
i,0x00000000,1720560708.984332,10.0.2.15,22,10.0.2.2,56354,1073725440,15694,0,65535,65700,0,0,4,1460,1,0,0,24,33580,484,65700,0,484,0,0,0
i,0x00000000,1720560708.989128,10.0.2.15,22,10.0.2.2,56354,1073725440,16178,0,65535,65700,0,0,4,1460,1,0,0,24,33580,0,65700,0,0,0,0,0
i,0x00000000,1720560708.989137,10.0.2.15,22,10.0.2.2,56354,1073725440,16178,0,65535,65700,0,0,4,1460,1,0,0,24,33580,0,65700,16,0,0,0,0
o,0x00000000,1720560708.989140,10.0.2.15,22,10.0.2.2,56354,1073725440,16178,0,65535,65700,0,0,4,1460,1,0,1,24,33580,0,65700,60,0,0,0,0
o,0x00000000,1720560708.989315,10.0.2.15,22,10.0.2.2,56354,1073725440,16178,0,65535,65700,0,0,4,1460,1,0,0,24,33580,44,65700,0,0,0,0,0
i,0x00000000,1720560708.992888,10.0.2.15,22,10.0.2.2,56354,1073725440,16178,0,65535,65700,0,0,4,1460,1,0,0,24,33580,44,65700,0,44,0,0,0
i,0x00000000,1720560708.992896,10.0.2.15,22,10.0.2.2,56354,1073725440,16222,0,65535,65700,0,0,4,1460,1,0,0,24,33580,0,65700,0,0,0,0,0
o,0x00000000,1720560709.002399,10.0.2.15,22,10.0.2.2,56354,1073725440,16222,0,65535,65700,0,0,4,1460,1,0,0,24,33580,68,65700,0,0,0,0,0
i,0x00000000,1720560709.003304,10.0.2.15,22,10.0.2.2,56354,1073725440,16222,0,65535,65700,0,0,4,1460,1,0,0,24,33580,68,65700,0,68,0,0,0
i,0x00000000,1720560709.003311,10.0.2.15,22,10.0.2.2,56354,1073725440,16290,0,65535,65700,0,0,4,1460,1,0,0,24,33580,0,65700,0,0,0,0,0
o,0x00000000,1720560709.003625,10.0.2.15,22,10.0.2.2,56354,1073725440,16290,0,65535,65700,0,0,4,1460,1,0,0,24,33580,332,65700,0,0,0,0,0
i,0x00000000,1720560709.004305,10.0.2.15,22,10.0.2.2,56354,1073725440,16290,0,65535,65700,0,0,4,1460,1,0,0,24,33580,332,65700,0,332,0,0,0
i,0x00000000,1720560709.005747,10.0.2.15,22,10.0.2.2,56354,1073725440,16622,0,65535,65700,0,0,4,1460,1,0,0,24,33580,0,65700,0,0,0,0,0
o,0x00000000,1720560709.023589,10.0.2.15,22,10.0.2.2,56354,1073725440,16622,0,65535,65700,0,0,4,1460,1,0,0,24,33580,28,65700,0,0,0,0,0
i,0x00000000,1720560709.024851,10.0.2.15,22,10.0.2.2,56354,1073725440,16622,0,65535,65700,0,0,4,1460,1,0,0,24,33580,28,65700,0,28,0,0,0
i,0x00000000,1720560709.024864,10.0.2.15,22,10.0.2.2,56354,1073725440,16650,0,65535,65700,0,0,4,1460,1,0,0,24,33580,0,65700,0,0,0,0,0
o,0x00000000,1720560709.025620,10.0.2.15,22,10.0.2.2,56354,1073725440,16650,0,65535,65700,0,0,4,1460,1,0,0,24,33580,768,65700,112,0,0,0,0
i,0x00000000,1720560709.026553,10.0.2.15,22,10.0.2.2,56354,1073725440,16650,0,65535,65700,0,0,4,1460,1,0,0,24,33580,768,65700,112,768,0,0,0
o,0x00000000,1720560709.026703,10.0.2.15,22,10.0.2.2,56354,1073725440,17418,0,65535,65700,0,0,4,1460,1,0,0,24,33580,140,65700,112,0,0,0,0
i,0x00000000,1720560709.027497,10.0.2.15,22,10.0.2.2,56354,1073725440,17418,0,65535,65700,0,0,4,1460,1,0,0,24,33580,140,65700,112,140,0,0,0
o,0x00000000,1720560709.027680,10.0.2.15,22,10.0.2.2,56354,1073725440,17558,0,65535,65700,0,0,4,1460,1,0,0,24,33580,44,65700,0,0,0,0,0
i,0x00000000,1720560709.028586,10.0.2.15,22,10.0.2.2,56354,1073725440,17558,0,65535,65700,0,0,4,1460,1,0,0,24,33580,44,65700,0,44,0,0,0
i,0x00000000,1720560709.028595,10.0.2.15,22,10.0.2.2,56354,1073725440,17602,0,65535,65700,0,0,4,1460,1,0,0,24,33580,0,65700,0,0,0,0,0
o,0x00000000,1720560709.029155,10.0.2.15,22,10.0.2.2,56354,1073725440,17602,0,65535,65700,0,0,4,1460,1,0,4,24,33580,72,65700,0,0,0,0,0
i,0x00000000,1720560709.030005,10.0.2.15,22,10.0.2.2,56354,1073725440,17602,0,65535,65700,0,0,4,1460,1,0,4,24,33580,72,65700,0,72,0,0,0
i,0x00000000,1720560709.030014,10.0.2.15,22,10.0.2.2,56354,1073725440,17674,0,65535,65700,0,0,4,1460,1,0,4,24,33580,0,65700,0,0,0,0,0
o,0x00000000,1720560709.034066,172.16.1.2,21169,172.16.3.2,5101,1073725440,1073725440,0,0,0,0,0,2,536,0,1,672,100,32768,0,65536,0,0,0,0,0
o,0x00000000,1720560709.067281,10.0.2.15,22,10.0.2.2,56354,1073725440,17674,0,65535,65700,0,0,4,1460,1,0,5,24,33580,0,65700,0,0,0,0,0
i,0x00000000,1720560709.155648,172.16.1.2,21169,172.16.3.2,5101,1073725440,1073725440,0,0,0,0,0,2,536,0,1,672,100,32768,0,65536,0,1,0,0,0
o,0x00000000,1720560709.155662,172.16.1.2,21169,172.16.3.2,5101,11360,14480,0,65535,65700,6,6,4,1460,836,1,993,104,33580,0,65700,0,0,0,0,0
o,0x00000000,1720560709.155825,172.16.1.2,21169,172.16.3.2,5101,11360,14480,0,65535,65700,6,6,4,1460,836,1,996,104,33580,37,65700,0,0,0,0,0
i,0x00000000,1720560709.267672,172.16.1.2,21169,172.16.3.2,5101,11360,14480,0,65535,65700,6,6,4,1460,836,1,996,104,33580,37,65700,0,37,0,0,0
o,0x00000000,1720560709.267804,172.16.1.2,21169,172.16.3.2,5101,11360,14480,0,65728,65728,6,6,4,1460,780,1,996,102,33580,4,65700,0,0,0,0,0
o,0x00000000,1720560709.267928,172.16.1.2,21169,172.16.3.2,5101,11360,14480,0,65728,65728,6,6,4,1460,780,1,996,102,33580,128,65700,0,4,0,0,0
i,0x00000000,1720560709.393256,172.16.1.2,21169,172.16.3.2,5101,11360,14480,0,65728,65728,6,6,4,1460,780,1,996,102,33580,128,65700,0,128,0,0,0
i,0x00000000,1720560709.393274,172.16.1.2,21169,172.16.3.2,5101,11360,14480,0,65600,65728,6,6,4,1460,731,1,996,98,33580,0,65700,0,0,0,0,0
o,0x00000000,1720560709.393426,172.16.1.2,33282,172.16.3.2,5101,1073725440,1073725440,0,0,0,0,0,2,536,0,1,672,100,32768,0,65536,0,0,0,0,0
o,0x00000000,1720560709.427385,172.16.1.2,21169,172.16.3.2,5101,11360,14480,0,65728,65728,6,6,4,1460,731,1,997,98,33580,0,65700,0,0,0,0,0
i,0x00000000,1720560709.506262,172.16.1.2,33282,172.16.3.2,5101,1073725440,1073725440,0,0,0,0,0,2,536,0,1,672,100,32768,0,65536,0,1,0,0,0
o,0x00000000,1720560709.506288,172.16.1.2,33282,172.16.3.2,5101,11360,14480,0,65535,65700,6,6,4,1460,832,1,993,105,33580,0,65700,0,0,0,0,0
o,0x00000000,1720560709.506503,172.16.1.2,33282,172.16.3.2,5101,11360,14480,0,65535,65700,6,6,4,1460,832,1,992,105,33580,37,65700,0,0,0,0,0
i,0x00000000,1720560709.625687,172.16.1.2,21169,172.16.3.2,5101,11360,14480,0,65728,65728,6,6,4,1460,731,1,996,98,33580,0,65700,0,0,0,0,0
i,0x00000000,1720560709.625698,172.16.1.2,21169,172.16.3.2,5101,11360,14480,0,65728,65728,6,6,4,1460,731,1,996,98,33580,0,65700,1,0,0,0,0
o,0x00000000,1720560709.625703,172.16.1.2,21169,172.16.3.2,5101,11360,14480,0,65728,65728,6,6,4,1460,731,1,997,98,33580,0,65700,2,0,0,0,0
o,0x00000000,1720560709.625992,172.16.1.2,33282,172.16.3.2,5101,11360,14480,0,65535,65700,6,6,4,1460,832,1,992,105,33580,33580,65700,0,37,0,0,0
o,0x00000000,1720560709.626528,172.16.1.2,33282,172.16.3.2,5101,11360,14480,0,65535,65700,6,6,4,1460,832,1,992,105,33580,33580,65700,0,1485,0,0,0
o,0x00000000,1720560709.626904,172.16.1.2,33282,172.16.3.2,5101,11360,14480,0,65535,65700,6,6,4,1460,832,1,992,105,33580,33580,65700,0,2933,0,0,0
o,0x00000000,1720560709.627357,172.16.1.2,33282,172.16.3.2,5101,11360,14480,0,65535,65700,6,6,4,1460,832,1,992,105,33580,33580,65700,0,4381,0,0,0
o,0x00000000,1720560709.627835,172.16.1.2,33282,172.16.3.2,5101,11360,14480,0,65535,65700,6,6,4,1460,832,1,992,105,33580,33580,65700,0,5829,0,0,0
o,0x00000000,1720560709.628271,172.16.1.2,33282,172.16.3.2,5101,11360,14480,0,65535,65700,6,6,4,1460,832,1,992,105,33580,33580,65700,0,7277,0,0,0
o,0x00000000,1720560709.628749,172.16.1.2,33282,172.16.3.2,5101,11360,14480,0,65535,65700,6,6,4,1460,832,1,992,105,33580,33580,65700,0,8725,0,0,0
o,0x00000000,1720560709.629217,172.16.1.2,33282,172.16.3.2,5101,11360,14480,0,65535,65700,6,6,4,1460,832,1,992,105,33580,33580,65700,0,10173,0,0,0
o,0x00000000,1720560709.629698,172.16.1.2,33282,172.16.3.2,5101,11360,14480,0,65535,65700,6,6,4,1460,832,1,992,105,33580,33580,65700,0,11621,0,0,0
i,0x00000000,1720560709.658266,172.16.1.2,33282,172.16.3.2,5101,11360,14480,0,65535,65700,6,6,4,1460,832,1,992,105,33580,33580,65700,0,13069,0,0,0
o,0x00000000,1720560709.658314,172.16.1.2,33282,172.16.3.2,5101,11360,14480,0,65728,65728,6,6,4,1460,788,1,992,100,33580,33543,65700,0,13032,0,0,0
i,0x00000000,1720560709.876814,172.16.1.2,33282,172.16.3.2,5101,11360,14480,0,65728,65728,6,6,4,1460,788,1,992,100,33580,33543,65700,0,14480,0,0,0
o,0x00000000,1720560709.876829,172.16.1.2,33282,172.16.3.2,5101,11360,14480,0,64256,65728,6,6,4,1460,794,1,992,88,33580,30647,65700,0,11584,0,0,0
o,0x00000000,1720560709.877101,172.16.1.2,33282,172.16.3.2,5101,11360,14480,0,64256,65728,6,6,4,1460,794,1,992,88,33580,30647,65700,0,13032,0,0,0
i,0x00000000,1720560709.899074,172.16.1.2,33282,172.16.3.2,5101,11360,14480,0,64256,65728,6,6,4,1460,794,1,992,88,33580,33580,65700,0,14480,0,0,0
o,0x00000000,1720560709.899096,172.16.1.2,33282,172.16.3.2,5101,11360,14480,0,64256,65728,6,6,4,1460,803,1,992,79,33580,30684,65700,0,11584,0,0,0
o,0x00000000,1720560709.899425,172.16.1.2,33282,172.16.3.2,5101,11360,14480,0,64256,65728,6,6,4,1460,803,1,992,79,33580,30684,65700,0,13032,0,0,0
i,0x00000000,1720560709.927350,172.16.1.2,33282,172.16.3.2,5101,11360,14480,0,64256,65728,6,6,4,1460,803,1,992,79,33580,33580,65700,0,14480,0,0,0
o,0x00000000,1720560709.927364,172.16.1.2,33282,172.16.3.2,5101,11360,14480,0,64256,65728,6,6,4,1460,823,1,992,76,33580,30684,65700,0,11584,0,0,0
o,0x00000000,1720560709.927624,172.16.1.2,33282,172.16.3.2,5101,11360,14480,0,64256,65728,6,6,4,1460,823,1,992,76,33580,30684,65700,0,13032,0,0,0
i,0x00000000,1720560709.947527,172.16.1.2,33282,172.16.3.2,5101,11360,14480,0,64256,65728,6,6,4,1460,823,1,992,76,33580,33580,65700,0,14480,0,0,0
o,0x00000000,1720560709.947546,172.16.1.2,33282,172.16.3.2,5101,11360,14480,0,64256,65728,6,6,4,1460,849,1,992,76,33580,30684,65700,0,11584,0,0,0
o,0x00000000,1720560709.947892,172.16.1.2,33282,172.16.3.2,5101,11360,14480,0,64256,65728,6,6,4,1460,849,1,992,76,33580,30684,65700,0,13032,0,0,0
i,0x00000000,1720560709.978556,172.16.1.2,33282,172.16.3.2,5101,11360,14480,0,64256,65728,6,6,4,1460,849,1,992,76,33580,33580,65700,0,14480,0,0,0
o,0x00000000,1720560709.978572,172.16.1.2,33282,172.16.3.2,5101,11360,15940,0,64256,65728,6,6,4,1460,883,1,992,78,33580,30684,65700,0,11584,0,0,0
o,0x00000000,1720560709.978875,172.16.1.2,33282,172.16.3.2,5101,11360,15940,0,64256,65728,6,6,4,1460,883,1,992,78,33580,30684,65700,0,13032,0,0,0
o,0x00000000,1720560709.979144,172.16.1.2,33282,172.16.3.2,5101,11360,15940,0,64256,65728,6,6,4,1460,883,1,992,78,33580,30684,65700,0,14480,0,0,0
i,0x00000000,1720560710.045649,172.16.1.2,33282,172.16.3.2,5101,11360,15940,0,64256,65728,6,6,4,1460,883,1,992,78,41772,41772,65700,0,15928,0,0,0
o,0x00000000,1720560710.045668,172.16.1.2,33282,172.16.3.2,5101,11360,15940,0,64256,65728,6,6,4,1460,837,1,992,80,41772,38876,65700,0,13032,0,0,0
o,0x00000000,1720560710.045932,172.16.1.2,33282,172.16.3.2,5101,11360,15940,0,64256,65728,6,6,4,1460,837,1,992,80,41772,38876,65700,0,14480,0,0,0
i,0x00000000,1720560710.114889,172.16.1.2,33282,172.16.3.2,5101,11360,15940,0,64256,65728,6,6,4,1460,837,1,992,80,41772,41772,65700,0,15928,0,0,0
o,0x00000000,1720560710.114907,172.16.1.2,33282,172.16.3.2,5101,11360,15940,0,64256,65728,6,6,4,1460,817,1,992,76,41772,38876,65700,0,13032,0,0,0
o,0x00000000,1720560710.115311,172.16.1.2,33282,172.16.3.2,5101,11360,15940,0,64256,65728,6,6,4,1460,817,1,992,76,41772,38876,65700,0,14480,0,0,0
i,0x00000000,1720560710.175210,172.16.1.2,33282,172.16.3.2,5101,11360,15940,0,64256,65728,6,6,4,1460,817,1,992,76,41772,41772,65700,0,15928,0,0,0
o,0x00000000,1720560710.175224,172.16.1.2,33282,172.16.3.2,5101,11360,15940,0,64256,65728,6,6,4,1460,811,1,992,70,41772,38876,65700,0,13032,0,0,0
o,0x00000000,1720560710.175510,172.16.1.2,33282,172.16.3.2,5101,11360,15940,0,64256,65728,6,6,4,1460,811,1,992,70,41772,38876,65700,0,14480,0,0,0
i,0x00000000,1720560710.220595,172.16.1.2,33282,172.16.3.2,5101,11360,15940,0,64256,65728,6,6,4,1460,811,1,992,70,41772,41772,65700,0,15928,0,0,0
o,0x00000000,1720560710.220610,172.16.1.2,33282,172.16.3.2,5101,11360,15940,0,64256,65728,6,6,4,1460,818,1,992,66,41772,38876,65700,0,13032,0,0,0
o,0x00000000,1720560710.220880,172.16.1.2,33282,172.16.3.2,5101,11360,15940,0,64256,65728,6,6,4,1460,818,1,992,66,41772,38876,65700,0,14480,0,0,0
i,0x00000000,1720560710.245164,172.16.1.2,33282,172.16.3.2,5101,11360,15940,0,64256,65728,6,6,4,1460,818,1,992,66,41772,41772,65700,0,15928,0,0,0
o,0x00000000,1720560710.245178,172.16.1.2,33282,172.16.3.2,5101,11360,15940,0,64256,65728,6,6,4,1460,820,1,992,61,41772,38876,65700,0,13032,0,0,0
o,0x00000000,1720560710.245446,172.16.1.2,33282,172.16.3.2,5101,11360,15940,0,64256,65728,6,6,4,1460,820,1,992,61,41772,38876,65700,0,14480,0,0,0
i,0x00000000,1720560710.290750,172.16.1.2,33282,172.16.3.2,5101,11360,15940,0,64256,65728,6,6,4,1460,820,1,992,61,41772,41772,65700,0,15928,0,0,0
o,0x00000000,1720560710.290765,172.16.1.2,33282,172.16.3.2,5101,11360,17400,0,65728,65728,6,6,4,1460,842,1,992,63,41772,40324,65700,0,14480,0,0,0
o,0x00000000,1720560710.291069,172.16.1.2,33282,172.16.3.2,5101,11360,17400,0,65728,65728,6,6,4,1460,842,1,992,63,41772,40324,65700,0,15928,0,0,0
i,0x00000000,1720560710.331827,172.16.1.2,33282,172.16.3.2,5101,11360,17400,0,65728,65728,6,6,4,1460,842,1,992,63,41772,40324,65700,0,17376,0,0,0
o,0x00000000,1720560710.331841,172.16.1.2,33282,172.16.3.2,5101,11360,17400,0,64256,65728,6,6,4,1460,853,1,992,62,41772,37428,65700,0,14480,0,0,0
o,0x00000000,1720560710.332107,172.16.1.2,33282,172.16.3.2,5101,11360,17400,0,64256,65728,6,6,4,1460,853,1,992,62,41772,37428,65700,0,15928,0,0,0
i,0x00000000,1720560710.363230,172.16.1.2,33282,172.16.3.2,5101,11360,17400,0,64256,65728,6,6,4,1460,853,1,992,62,41772,41772,65700,0,17376,0,0,0
o,0x00000000,1720560710.363243,172.16.1.2,33282,172.16.3.2,5101,11360,17400,0,62848,65728,6,6,4,1460,847,1,992,59,41772,38876,65700,0,14480,0,0,0
o,0x00000000,1720560710.363517,172.16.1.2,33282,172.16.3.2,5101,11360,17400,0,62848,65728,6,6,4,1460,847,1,992,59,41772,38876,65700,0,15928,0,0,0
i,0x00000000,1720560710.435173,172.16.1.2,33282,172.16.3.2,5101,11360,17400,0,62848,65728,6,6,4,1460,847,1,992,59,41772,41772,65700,0,17376,0,0,0
o,0x00000000,1720560710.435194,172.16.1.2,33282,172.16.3.2,5101,11360,17400,0,64256,65728,6,6,4,1460,846,1,992,56,41772,38876,65700,0,14480,0,0,0
o,0x00000000,1720560710.435564,172.16.1.2,33282,172.16.3.2,5101,11360,17400,0,64256,65728,6,6,4,1460,846,1,992,56,41772,38876,65700,0,15928,0,0,0
i,0x00000000,1720560710.466624,172.16.1.2,33282,172.16.3.2,5101,11360,17400,0,64256,65728,6,6,4,1460,846,1,992,56,41772,41772,65700,0,17376,0,0,0
o,0x00000000,1720560710.466641,172.16.1.2,33282,172.16.3.2,5101,11360,17400,0,62848,65728,6,6,4,1460,837,1,992,56,41772,38876,65700,0,14480,0,0,0
o,0x00000000,1720560710.466929,172.16.1.2,33282,172.16.3.2,5101,11360,17400,0,62848,65728,6,6,4,1460,837,1,992,56,41772,38876,65700,0,15928,0,0,0
i,0x00000000,1720560710.559295,172.16.1.2,33282,172.16.3.2,5101,11360,17400,0,62848,65728,6,6,4,1460,837,1,992,56,41772,41772,65700,0,17376,0,0,0
o,0x00000000,1720560710.559308,172.16.1.2,33282,172.16.3.2,5101,11360,17400,0,64256,65728,6,6,4,1460,861,1,992,60,41772,38876,65700,0,14480,0,0,0
o,0x00000000,1720560710.559573,172.16.1.2,33282,172.16.3.2,5101,11360,17400,0,64256,65728,6,6,4,1460,861,1,992,60,41772,38876,65700,0,15928,0,0,0
i,0x00000000,1720560710.587093,172.16.1.2,33282,172.16.3.2,5101,11360,17400,0,64256,65728,6,6,4,1460,861,1,992,60,41772,41772,65700,0,17376,0,0,0
o,0x00000000,1720560710.587117,172.16.1.2,33282,172.16.3.2,5101,11360,18860,0,64256,65728,6,6,4,1460,870,1,992,59,41772,38876,65700,0,14480,0,0,0
o,0x00000000,1720560710.587473,172.16.1.2,33282,172.16.3.2,5101,11360,18860,0,64256,65728,6,6,4,1460,870,1,992,59,41772,38876,65700,0,15928,0,0,0
o,0x00000000,1720560710.587719,172.16.1.2,33282,172.16.3.2,5101,11360,18860,0,64256,65728,6,6,4,1460,870,1,992,59,41772,38876,65700,0,17376,0,0,0
i,0x00000000,1720560710.616945,172.16.1.2,33282,172.16.3.2,5101,11360,18860,0,64256,65728,6,6,4,1460,870,1,992,59,41772,41772,65700,0,18824,0,0,0
o,0x00000000,1720560710.616959,172.16.1.2,33282,172.16.3.2,5101,11360,18860,0,64256,65728,6,6,4,1460,878,1,992,59,41772,38876,65700,0,15928,0,0,0
o,0x00000000,1720560710.617365,172.16.1.2,33282,172.16.3.2,5101,11360,18860,0,64256,65728,6,6,4,1460,878,1,992,59,41772,38876,65700,0,17376,0,0,0
i,0x00000000,1720560710.665712,172.16.1.2,33282,172.16.3.2,5101,11360,18860,0,64256,65728,6,6,4,1460,878,1,992,59,41772,41772,65700,0,18824,0,0,0
o,0x00000000,1720560710.665725,172.16.1.2,33282,172.16.3.2,5101,11360,18860,0,64256,65728,6,6,4,1460,885,1,992,58,41772,38876,65700,0,15928,0,0,0
o,0x00000000,1720560710.665994,172.16.1.2,33282,172.16.3.2,5101,11360,18860,0,64256,65728,6,6,4,1460,885,1,992,58,41772,38876,65700,0,17376,0,0,0
i,0x00000000,1720560710.687182,172.16.1.2,33282,172.16.3.2,5101,11360,18860,0,64256,65728,6,6,4,1460,885,1,992,58,41772,41772,65700,0,18824,0,0,0
o,0x00000000,1720560710.687196,172.16.1.2,33282,172.16.3.2,5101,11360,18860,0,64256,65728,6,6,4,1460,875,1,992,58,41772,38876,65700,0,15928,0,0,0
o,0x00000000,1720560710.687475,172.16.1.2,33282,172.16.3.2,5101,11360,18860,0,64256,65728,6,6,4,1460,875,1,992,58,41772,38876,65700,0,17376,0,0,0
i,0x00000000,1720560710.747510,172.16.1.2,33282,172.16.3.2,5101,11360,18860,0,64256,65728,6,6,4,1460,875,1,992,58,41772,41772,65700,0,18824,0,0,0
o,0x00000000,1720560710.747522,172.16.1.2,33282,172.16.3.2,5101,11360,18860,0,64256,65728,6,6,4,1460,878,1,992,56,41772,38876,65700,0,15928,0,0,0
o,0x00000000,1720560710.747779,172.16.1.2,33282,172.16.3.2,5101,11360,18860,0,64256,65728,6,6,4,1460,878,1,992,56,41772,38876,65700,0,17376,0,0,0
i,0x00000000,1720560710.827044,172.16.1.2,33282,172.16.3.2,5101,11360,18860,0,64256,65728,6,6,4,1460,878,1,992,56,41772,41772,65700,0,18824,0,0,0
o,0x00000000,1720560710.827057,172.16.1.2,33282,172.16.3.2,5101,11360,18860,0,64256,65728,6,6,4,1460,873,1,992,55,41772,38876,65700,0,15928,0,0,0
o,0x00000000,1720560710.827310,172.16.1.2,33282,172.16.3.2,5101,11360,18860,0,64256,65728,6,6,4,1460,873,1,992,55,41772,38876,65700,0,17376,0,0,0
i,0x00000000,1720560710.889868,172.16.1.2,33282,172.16.3.2,5101,11360,18860,0,64256,65728,6,6,4,1460,873,1,992,55,41772,41772,65700,0,18824,0,0,0
o,0x00000000,1720560710.889883,172.16.1.2,33282,172.16.3.2,5101,11360,18860,0,65728,65728,6,6,4,1460,884,1,992,56,41772,40324,65700,0,17376,0,0,0
i,0x00000000,1720560710.935848,172.16.1.2,33282,172.16.3.2,5101,11360,18860,0,65728,65728,6,6,4,1460,884,1,992,56,41772,40324,65700,0,18824,0,0,0
o,0x00000000,1720560710.935887,172.16.1.2,33282,172.16.3.2,5101,11360,18860,0,65728,65728,6,6,4,1460,910,1,992,61,41772,38876,65700,0,17376,0,0,0
i,0x00000000,1720560710.937749,172.16.1.2,33282,172.16.3.2,5101,11360,18860,0,65728,65728,6,6,4,1460,910,1,992,61,41772,38876,65700,0,18824,0,0,0
o,0x00000000,1720560710.937776,172.16.1.2,33282,172.16.3.2,5101,11360,21720,0,65728,65728,6,6,4,1460,910,1,992,61,49964,38876,65700,0,18824,0,0,0
o,0x00000000,1720560710.939398,172.16.1.2,33282,172.16.3.2,5101,11360,21720,0,65728,65728,6,6,4,1460,910,1,992,61,49964,38876,65700,0,20272,0,0,0
i,0x00000000,1720560710.958158,172.16.1.2,33282,172.16.3.2,5101,11360,18860,0,65728,65728,6,6,4,1460,910,1,992,61,49964,49964,65700,0,21720,0,0,0
o,0x00000000,1720560710.958184,172.16.1.2,33282,172.16.3.2,5101,8688,1448,0,65728,65728,6,6,4,1460,910,1,537920480,61,49964,49964,65700,0,21720,0,0,0
i,0x00000000,1720560710.983830,172.16.1.2,33282,172.16.3.2,5101,8688,1448,0,65728,65728,6,6,4,1460,910,1,537920480,61,49964,49964,65700,0,21720,0,0,0
i,0x00000000,1720560711.006331,172.16.1.2,33282,172.16.3.2,5101,8688,1448,0,65728,65728,6,6,4,1460,910,1,537920480,61,49964,49964,65700,0,21720,0,0,0
o,0x00000000,1720560711.006344,172.16.1.2,33282,172.16.3.2,5101,8688,2896,0,65728,65728,6,6,4,1460,910,1,537920480,61,49964,49964,65700,0,21720,0,0,0
i,0x00000000,1720560711.006724,172.16.1.2,33282,172.16.3.2,5101,8688,2896,0,65728,65728,6,6,4,1460,910,1,537920480,61,49964,49964,65700,0,23168,0,0,0
i,0x00000000,1720560711.028614,172.16.1.2,33282,172.16.3.2,5101,8688,2896,0,65728,65728,6,6,4,1460,910,1,537920480,61,49964,49964,65700,0,23168,0,0,0
i,0x00000000,1720560711.065650,172.16.1.2,33282,172.16.3.2,5101,8688,2896,0,65728,65728,6,6,4,1460,910,1,537920480,61,49964,49964,65700,0,23168,0,0,0
o,0x00000000,1720560711.065666,172.16.1.2,33282,172.16.3.2,5101,8688,4344,0,65728,65728,6,6,4,1460,910,1,537920480,61,49964,49964,65700,0,23168,0,0,0
i,0x00000000,1720560711.138153,172.16.1.2,33282,172.16.3.2,5101,8688,4344,0,65728,65728,6,6,4,1460,910,1,537920480,61,49964,49964,65700,0,24616,0,0,0
i,0x00000000,1720560711.138163,172.16.1.2,33282,172.16.3.2,5101,8688,4344,0,65728,65728,6,6,4,1460,910,1,537920480,61,49964,49964,65700,0,24616,0,0,0
o,0x00000000,1720560711.138168,172.16.1.2,33282,172.16.3.2,5101,8688,5792,0,65728,65728,6,6,4,1460,910,1,537920480,61,49964,49964,65700,0,24616,0,0,0
i,0x00000000,1720560711.155011,172.16.1.2,33282,172.16.3.2,5101,8688,5792,0,65728,65728,6,6,4,1460,910,1,537920480,61,49964,49964,65700,0,26064,0,0,0
i,0x00000000,1720560711.155028,172.16.1.2,33282,172.16.3.2,5101,8688,5792,0,65728,65728,6,6,4,1460,910,1,537920480,61,49964,49964,65700,0,26064,0,0,0
i,0x00000000,1720560711.187659,172.16.1.2,33282,172.16.3.2,5101,8688,5792,0,65728,65728,6,6,4,1460,910,1,537920480,61,49964,49964,65700,0,26064,0,0,0
o,0x00000000,1720560711.187681,172.16.1.2,33282,172.16.3.2,5101,8688,7240,0,65728,65728,6,6,4,1460,910,1,537920480,61,49964,49964,65700,0,26064,0,0,0
i,0x00000000,1720560711.188362,172.16.1.2,33282,172.16.3.2,5101,8688,7240,0,65728,65728,6,6,4,1460,910,1,537920480,61,49964,49964,65700,0,27512,0,0,0
o,0x00000000,1720560711.188380,172.16.1.2,33282,172.16.3.2,5101,8688,8688,0,65728,65728,6,6,4,1460,910,1,537920481,61,49964,49964,65700,0,27512,0,0,0
o,0x00000000,1720560711.188530,172.16.1.2,33282,172.16.3.2,5101,8688,8688,0,45504,65728,6,6,4,1460,889,1,537920480,63,49964,29692,65700,0,7240,0,0,0
i,0x00000000,1720560711.192389,172.16.1.2,33282,172.16.3.2,5101,8688,8688,0,45504,65728,6,6,4,1460,889,1,537920480,63,49964,49964,65700,0,8688,0,0,0
o,0x00000000,1720560711.192402,172.16.1.2,33282,172.16.3.2,5101,8688,10136,0,45504,65728,6,6,4,1460,889,1,537920480,63,49964,49964,65700,0,8688,0,0,0
i,0x00000000,1720560711.217206,172.16.1.2,33282,172.16.3.2,5101,8688,10136,0,45504,65728,6,6,4,1460,889,1,537920480,63,49964,49964,65700,0,10136,0,0,0
o,0x00000000,1720560711.217238,172.16.1.2,33282,172.16.3.2,5101,8688,10136,0,45504,65728,6,6,4,1460,889,1,537920480,63,49964,49964,65700,0,10136,0,0,0
i,0x00000000,1720560711.264123,172.16.1.2,33282,172.16.3.2,5101,8688,10136,0,45504,65728,6,6,4,1460,889,1,537920480,63,49964,49964,65700,0,10136,0,0,0
o,0x00000000,1720560711.264135,172.16.1.2,33282,172.16.3.2,5101,8688,11584,0,45504,65728,6,6,4,1460,889,1,537920480,63,49964,49964,65700,0,10136,0,0,0
i,0x00000000,1720560711.266561,172.16.1.2,33282,172.16.3.2,5101,8688,11584,0,45504,65728,6,6,4,1460,889,1,537920480,63,49964,49964,65700,0,11584,0,0,0
o,0x00000000,1720560711.266572,172.16.1.2,33282,172.16.3.2,5101,8688,13032,0,45504,65728,6,6,4,1460,889,1,537920480,63,49964,49964,65700,0,11584,0,0,0
i,0x00000000,1720560711.325580,172.16.1.2,33282,172.16.3.2,5101,8688,13032,0,45504,65728,6,6,4,1460,889,1,537920480,63,49964,49964,65700,0,13032,0,0,0
o,0x00000000,1720560711.325596,172.16.1.2,33282,172.16.3.2,5101,8688,14480,0,45504,65728,6,6,4,1460,889,1,537920480,63,49964,49964,65700,0,13032,0,0,0
i,0x00000000,1720560711.386373,172.16.1.2,33282,172.16.3.2,5101,8688,14480,0,45504,65728,6,6,4,1460,889,1,537920480,63,49964,49964,65700,0,14480,0,0,0
o,0x00000000,1720560711.386393,172.16.1.2,33282,172.16.3.2,5101,8688,15928,0,45504,65728,6,6,4,1460,889,1,537920480,63,49964,49964,65700,0,14480,0,0,0
i,0x00000000,1720560711.386868,172.16.1.2,33282,172.16.3.2,5101,8688,15928,0,45504,65728,6,6,4,1460,889,1,537920480,63,49964,49964,65700,0,15928,0,0,0
o,0x00000000,1720560711.386878,172.16.1.2,33282,172.16.3.2,5101,8688,17376,0,45504,65728,6,6,4,1460,889,1,537920480,63,49964,49964,65700,0,15928,0,0,0
i,0x00000000,1720560711.387265,172.16.1.2,33282,172.16.3.2,5101,8688,17376,0,45504,65728,6,6,4,1460,889,1,537920480,63,49964,49964,65700,0,17376,0,0,0
o,0x00000000,1720560711.387278,172.16.1.2,33282,172.16.3.2,5101,8688,8700,0,55616,65728,6,6,4,1460,842,1,992,69,49964,39828,65700,0,7240,0,0,0
i,0x00000000,1720560711.438867,172.16.1.2,33282,172.16.3.2,5101,8688,8700,0,55616,65728,6,6,4,1460,842,1,992,69,49964,49964,65700,0,8688,0,0,0
o,0x00000000,1720560711.438893,172.16.1.2,33282,172.16.3.2,5101,8688,10160,0,65728,65728,6,6,4,1460,809,1,992,71,49964,48516,65700,0,7240,0,0,0
o,0x00000000,1720560711.439320,172.16.1.2,33282,172.16.3.2,5101,8688,10160,0,65728,65728,6,6,4,1460,809,1,992,71,49964,48516,65700,0,8688,0,0,0
i,0x00000000,1720560711.478452,172.16.1.2,33282,172.16.3.2,5101,8688,10160,0,65728,65728,6,6,4,1460,809,1,992,71,49964,48516,65700,0,10136,0,0,0
o,0x00000000,1720560711.478465,172.16.1.2,33282,172.16.3.2,5101,8688,10160,0,65728,65728,6,6,4,1460,792,1,992,68,49964,47068,65700,0,8688,0,0,0
i,0x00000000,1720560711.520283,172.16.1.2,33282,172.16.3.2,5101,8688,10160,0,65728,65728,6,6,4,1460,792,1,992,68,49964,49964,65700,0,10136,0,0,0
o,0x00000000,1720560711.520299,172.16.1.2,33282,172.16.3.2,5101,8688,10160,0,65728,65728,6,6,4,1460,769,1,992,67,49964,48516,65700,0,8688,0,0,0
i,0x00000000,1720560711.548531,172.16.1.2,33282,172.16.3.2,5101,8688,10160,0,65728,65728,6,6,4,1460,769,1,992,67,49964,48516,65700,0,10136,0,0,0
o,0x00000000,1720560711.548545,172.16.1.2,33282,172.16.3.2,5101,8688,10160,0,64256,65728,6,6,4,1460,737,1,992,69,49964,45620,65700,0,7240,0,0,0
o,0x00000000,1720560711.548819,172.16.1.2,33282,172.16.3.2,5101,8688,10160,0,64256,65728,6,6,4,1460,737,1,992,69,49964,45620,65700,0,8688,0,0,0
i,0x00000000,1720560711.614340,172.16.1.2,33282,172.16.3.2,5101,8688,10160,0,64256,65728,6,6,4,1460,737,1,992,69,49964,49964,65700,0,10136,0,0,0
o,0x00000000,1720560711.614354,172.16.1.2,33282,172.16.3.2,5101,8688,11620,0,64256,65728,6,6,4,1460,733,1,992,63,49964,47068,65700,0,7240,0,0,0
o,0x00000000,1720560711.614615,172.16.1.2,33282,172.16.3.2,5101,8688,11620,0,64256,65728,6,6,4,1460,733,1,992,63,49964,47068,65700,0,8688,0,0,0
o,0x00000000,1720560711.614858,172.16.1.2,33282,172.16.3.2,5101,8688,11620,0,64256,65728,6,6,4,1460,733,1,992,63,49964,47068,65700,0,10136,0,0,0
i,0x00000000,1720560711.645843,172.16.1.2,33282,172.16.3.2,5101,8688,11620,0,64256,65728,6,6,4,1460,733,1,992,63,49964,49964,65700,0,11584,0,0,0
o,0x00000000,1720560711.645856,172.16.1.2,33282,172.16.3.2,5101,8688,11620,0,64256,65728,6,6,4,1460,722,1,992,60,49964,47068,65700,0,8688,0,0,0
o,0x00000000,1720560711.646115,172.16.1.2,33282,172.16.3.2,5101,8688,11620,0,64256,65728,6,6,4,1460,722,1,992,60,49964,47068,65700,0,10136,0,0,0
i,0x00000000,1720560711.697215,172.16.1.2,33282,172.16.3.2,5101,8688,11620,0,64256,65728,6,6,4,1460,722,1,992,60,49964,49964,65700,0,11584,0,0,0
o,0x00000000,1720560711.697312,172.16.1.2,33282,172.16.3.2,5101,8688,11620,0,64256,65728,6,6,4,1460,704,1,992,60,49964,47068,65700,0,8688,0,0,0
o,0x00000000,1720560711.697874,172.16.1.2,33282,172.16.3.2,5101,8688,11620,0,64256,65728,6,6,4,1460,704,1,992,60,49964,47068,65700,0,10136,0,0,0
i,0x00000000,1720560711.748355,172.16.1.2,33282,172.16.3.2,5101,8688,11620,0,64256,65728,6,6,4,1460,704,1,992,60,49964,49964,65700,0,11584,0,0,0
o,0x00000000,1720560711.748368,172.16.1.2,33282,172.16.3.2,5101,8688,11620,0,65728,65728,6,6,4,1460,696,1,992,57,49964,48516,65700,0,10136,0,0,0
i,0x00000000,1720560711.776546,172.16.1.2,33282,172.16.3.2,5101,8688,11620,0,65728,65728,6,6,4,1460,696,1,992,57,49964,48516,65700,0,11584,0,0,0
o,0x00000000,1720560711.776589,172.16.1.2,33282,172.16.3.2,5101,8688,11620,0,64256,65728,6,6,4,1460,673,1,992,58,49964,45620,65700,0,8688,0,0,0
o,0x00000000,1720560711.777408,172.16.1.2,33282,172.16.3.2,5101,8688,11620,0,64256,65728,6,6,4,1460,673,1,992,58,49964,45620,65700,0,10136,0,0,0
i,0x00000000,1720560711.811171,172.16.1.2,33282,172.16.3.2,5101,8688,11620,0,64256,65728,6,6,4,1460,673,1,992,58,49964,49964,65700,0,11584,0,0,0
o,0x00000000,1720560711.811197,172.16.1.2,33282,172.16.3.2,5101,8688,13080,0,64256,65728,6,6,4,1460,669,1,992,55,49964,47068,65700,0,8688,0,0,0
o,0x00000000,1720560711.811473,172.16.1.2,33282,172.16.3.2,5101,8688,13080,0,64256,65728,6,6,4,1460,669,1,992,55,49964,47068,65700,0,10136,0,0,0
o,0x00000000,1720560711.811742,172.16.1.2,33282,172.16.3.2,5101,8688,13080,0,64256,65728,6,6,4,1460,669,1,992,55,49964,47068,65700,0,11584,0,0,0
i,0x00000000,1720560711.847580,172.16.1.2,33282,172.16.3.2,5101,8688,13080,0,64256,65728,6,6,4,1460,669,1,992,55,49964,49964,65700,0,13032,0,0,0
o,0x00000000,1720560711.847594,172.16.1.2,33282,172.16.3.2,5101,8688,13080,0,65728,65728,6,6,4,1460,670,1,992,52,49964,48516,65700,0,11584,0,0,0
i,0x00000000,1720560711.882129,172.16.1.2,33282,172.16.3.2,5101,8688,13080,0,65728,65728,6,6,4,1460,670,1,992,52,49964,48516,65700,0,13032,0,0,0
o,0x00000000,1720560711.882150,172.16.1.2,33282,172.16.3.2,5101,8688,13080,0,64256,65728,6,6,4,1460,659,1,992,51,49964,45620,65700,0,10136,0,0,0
o,0x00000000,1720560711.882460,172.16.1.2,33282,172.16.3.2,5101,8688,13080,0,64256,65728,6,6,4,1460,659,1,992,51,49964,45620,65700,0,11584,0,0,0
i,0x00000000,1720560711.972616,172.16.1.2,33282,172.16.3.2,5101,8688,13080,0,64256,65728,6,6,4,1460,659,1,992,51,49964,49964,65700,0,13032,0,0,0
o,0x00000000,1720560711.972640,172.16.1.2,33282,172.16.3.2,5101,8688,13080,0,65728,65728,6,6,4,1460,665,1,992,50,49964,48516,65700,0,11584,0,0,0
i,0x00000000,1720560711.996003,172.16.1.2,33282,172.16.3.2,5101,8688,13080,0,65728,65728,6,6,4,1460,665,1,992,50,49964,48516,65700,0,13032,0,0,0
o,0x00000000,1720560711.996017,172.16.1.2,33282,172.16.3.2,5101,8688,13080,0,64256,65728,6,6,4,1460,666,1,992,48,49964,45620,65700,0,10136,0,0,0
o,0x00000000,1720560711.996454,172.16.1.2,33282,172.16.3.2,5101,8688,13080,0,64256,65728,6,6,4,1460,666,1,992,48,49964,45620,65700,0,11584,0,0,0
i,0x00000000,1720560712.016923,172.16.1.2,33282,172.16.3.2,5101,8688,13080,0,64256,65728,6,6,4,1460,666,1,992,48,49964,49964,65700,0,13032,0,0,0
o,0x00000000,1720560712.016937,172.16.1.2,33282,172.16.3.2,5101,8688,14540,0,64256,65728,6,6,4,1460,663,1,992,47,49964,47068,65700,0,10136,0,0,0
o,0x00000000,1720560712.017217,172.16.1.2,33282,172.16.3.2,5101,8688,14540,0,64256,65728,6,6,4,1460,663,1,992,47,49964,47068,65700,0,11584,0,0,0
o,0x00000000,1720560712.017471,172.16.1.2,33282,172.16.3.2,5101,8688,14540,0,64256,65728,6,6,4,1460,663,1,992,47,49964,47068,65700,0,13032,0,0,0
i,0x00000000,1720560712.066352,172.16.1.2,33282,172.16.3.2,5101,8688,14540,0,64256,65728,6,6,4,1460,663,1,992,47,49964,49964,65700,0,14480,0,0,0
o,0x00000000,1720560712.066365,172.16.1.2,33282,172.16.3.2,5101,8688,14540,0,64256,65728,6,6,4,1460,681,1,992,51,49964,47068,65700,0,11584,0,0,0
o,0x00000000,1720560712.066621,172.16.1.2,33282,172.16.3.2,5101,8688,14540,0,64256,65728,6,6,4,1460,681,1,992,51,49964,47068,65700,0,13032,0,0,0
i,0x00000000,1720560712.099833,172.16.1.2,33282,172.16.3.2,5101,8688,14540,0,64256,65728,6,6,4,1460,681,1,992,51,49964,49964,65700,0,14480,0,0,0
o,0x00000000,1720560712.099846,172.16.1.2,33282,172.16.3.2,5101,8688,14540,0,64256,65728,6,6,4,1460,684,1,992,49,49964,47068,65700,0,11584,0,0,0
o,0x00000000,1720560712.100106,172.16.1.2,33282,172.16.3.2,5101,8688,14540,0,64256,65728,6,6,4,1460,684,1,992,49,49964,47068,65700,0,13032,0,0,0
i,0x00000000,1720560712.177464,172.16.1.2,33282,172.16.3.2,5101,8688,14540,0,64256,65728,6,6,4,1460,684,1,992,49,49964,49964,65700,0,14480,0,0,0
o,0x00000000,1720560712.177480,172.16.1.2,33282,172.16.3.2,5101,8688,14540,0,65728,65728,6,6,4,1460,679,1,992,48,49964,48516,65700,0,13032,0,0,0
i,0x00000000,1720560712.215566,172.16.1.2,33282,172.16.3.2,5101,8688,14540,0,65728,65728,6,6,4,1460,679,1,992,48,49964,48516,65700,0,14480,0,0,0
o,0x00000000,1720560712.215581,172.16.1.2,33282,172.16.3.2,5101,8688,14540,0,64256,65728,6,6,4,1460,679,1,992,46,49964,45620,65700,0,11584,0,0,0
o,0x00000000,1720560712.215841,172.16.1.2,33282,172.16.3.2,5101,8688,14540,0,64256,65728,6,6,4,1460,679,1,992,46,49964,45620,65700,0,13032,0,0,0
i,0x00000000,1720560712.264326,172.16.1.2,33282,172.16.3.2,5101,8688,14540,0,64256,65728,6,6,4,1460,679,1,992,46,49964,49964,65700,0,14480,0,0,0
o,0x00000000,1720560712.264339,172.16.1.2,33282,172.16.3.2,5101,8688,14540,0,64256,65728,6,6,4,1460,691,1,992,49,49964,47068,65700,0,11584,0,0,0
o,0x00000000,1720560712.264599,172.16.1.2,33282,172.16.3.2,5101,8688,14540,0,64256,65728,6,6,4,1460,691,1,992,49,49964,47068,65700,0,13032,0,0,0
i,0x00000000,1720560712.317189,172.16.1.2,33282,172.16.3.2,5101,8688,14540,0,64256,65728,6,6,4,1460,691,1,992,49,49964,49964,65700,0,14480,0,0,0
o,0x00000000,1720560712.317210,172.16.1.2,33282,172.16.3.2,5101,8688,16000,0,64256,65728,6,6,4,1460,725,1,992,56,49964,47068,65700,0,11584,0,0,0
o,0x00000000,1720560712.317615,172.16.1.2,33282,172.16.3.2,5101,8688,16000,0,64256,65728,6,6,4,1460,725,1,992,56,49964,47068,65700,0,13032,0,0,0
o,0x00000000,1720560712.317981,172.16.1.2,33282,172.16.3.2,5101,8688,16000,0,64256,65728,6,6,4,1460,725,1,992,56,49964,47068,65700,0,14480,0,0,0
i,0x00000000,1720560712.345616,172.16.1.2,33282,172.16.3.2,5101,8688,16000,0,64256,65728,6,6,4,1460,725,1,992,56,49964,49964,65700,0,15928,0,0,0
o,0x00000000,1720560712.345633,172.16.1.2,33282,172.16.3.2,5101,8688,16000,0,64256,65728,6,6,4,1460,743,1,992,58,49964,47068,65700,0,13032,0,0,0
o,0x00000000,1720560712.345916,172.16.1.2,33282,172.16.3.2,5101,8688,16000,0,64256,65728,6,6,4,1460,743,1,992,58,49964,47068,65700,0,14480,0,0,0
i,0x00000000,1720560712.386337,172.16.1.2,33282,172.16.3.2,5101,8688,16000,0,64256,65728,6,6,4,1460,743,1,992,58,49964,49964,65700,0,15928,0,0,0
o,0x00000000,1720560712.386357,172.16.1.2,33282,172.16.3.2,5101,8688,16000,0,64256,65728,6,6,4,1460,763,1,992,60,49964,47068,65700,0,13032,0,0,0
o,0x00000000,1720560712.386673,172.16.1.2,33282,172.16.3.2,5101,8688,16000,0,64256,65728,6,6,4,1460,763,1,992,60,49964,47068,65700,0,14480,0,0,0
i,0x00000000,1720560712.435719,172.16.1.2,33282,172.16.3.2,5101,8688,16000,0,64256,65728,6,6,4,1460,763,1,992,60,49964,49964,65700,0,15928,0,0,0
o,0x00000000,1720560712.435734,172.16.1.2,33282,172.16.3.2,5101,8688,16000,0,64256,65728,6,6,4,1460,756,1,992,57,49964,47068,65700,0,13032,0,0,0
o,0x00000000,1720560712.436028,172.16.1.2,33282,172.16.3.2,5101,8688,16000,0,64256,65728,6,6,4,1460,756,1,992,57,49964,47068,65700,0,14480,0,0,0
i,0x00000000,1720560712.487077,172.16.1.2,33282,172.16.3.2,5101,8688,16000,0,64256,65728,6,6,4,1460,756,1,992,57,49964,49964,65700,0,15928,0,0,0
o,0x00000000,1720560712.487092,172.16.1.2,33282,172.16.3.2,5101,8688,16000,0,64256,65728,6,6,4,1460,754,1,992,54,49964,47068,65700,0,13032,0,0,0
o,0x00000000,1720560712.487386,172.16.1.2,33282,172.16.3.2,5101,8688,16000,0,64256,65728,6,6,4,1460,754,1,992,54,49964,47068,65700,0,14480,0,0,0
i,0x00000000,1720560712.566266,172.16.1.2,33282,172.16.3.2,5101,8688,16000,0,64256,65728,6,6,4,1460,754,1,992,54,49964,49964,65700,0,15928,0,0,0
o,0x00000000,1720560712.566280,172.16.1.2,33282,172.16.3.2,5101,8688,16000,0,65728,65728,6,6,4,1460,756,1,992,52,49964,48516,65700,0,14480,0,0,0
i,0x00000000,1720560712.577254,172.16.1.2,33282,172.16.3.2,5101,8688,16000,0,65728,65728,6,6,4,1460,756,1,992,52,49964,48516,65700,0,15928,0,0,0
o,0x00000000,1720560712.577270,172.16.1.2,33282,172.16.3.2,5101,8688,17460,0,64256,65728,6,6,4,1460,766,1,992,53,49964,45620,65700,0,13032,0,0,0
o,0x00000000,1720560712.577561,172.16.1.2,33282,172.16.3.2,5101,8688,17460,0,64256,65728,6,6,4,1460,766,1,992,53,49964,45620,65700,0,14480,0,0,0
o,0x00000000,1720560712.577805,172.16.1.2,33282,172.16.3.2,5101,8688,17460,0,64256,65728,6,6,4,1460,766,1,992,53,49964,45620,65700,0,15928,0,0,0
i,0x00000000,1720560712.637338,172.16.1.2,33282,172.16.3.2,5101,8688,17460,0,64256,65728,6,6,4,1460,766,1,992,53,49964,49964,65700,0,17376,0,0,0
o,0x00000000,1720560712.637355,172.16.1.2,33282,172.16.3.2,5101,8688,17460,0,64256,65728,6,6,4,1460,787,1,992,56,49964,47068,65700,0,14480,0,0,0
o,0x00000000,1720560712.637734,172.16.1.2,33282,172.16.3.2,5101,8688,17460,0,64256,65728,6,6,4,1460,787,1,992,56,49964,47068,65700,0,15928,0,0,0
i,0x00000000,1720560712.645467,172.16.1.2,33282,172.16.3.2,5101,8688,17460,0,64256,65728,6,6,4,1460,787,1,992,56,49964,49964,65700,0,17376,0,0,0
o,0x00000000,1720560712.645482,172.16.1.2,33282,172.16.3.2,5101,8688,17460,0,64256,65728,6,6,4,1460,789,1,992,54,49964,47068,65700,0,14480,0,0,0
o,0x00000000,1720560712.645753,172.16.1.2,33282,172.16.3.2,5101,8688,17460,0,64256,65728,6,6,4,1460,789,1,992,54,49964,47068,65700,0,15928,0,0,0
i,0x00000000,1720560712.713356,172.16.1.2,33282,172.16.3.2,5101,8688,17460,0,64256,65728,6,6,4,1460,789,1,992,54,49964,49964,65700,0,17376,0,0,0
o,0x00000000,1720560712.713370,172.16.1.2,33282,172.16.3.2,5101,8688,17460,0,64256,65728,6,6,4,1460,803,1,992,56,49964,47068,65700,0,14480,0,0,0
o,0x00000000,1720560712.713632,172.16.1.2,33282,172.16.3.2,5101,8688,17460,0,64256,65728,6,6,4,1460,803,1,992,56,49964,47068,65700,0,15928,0,0,0
i,0x00000000,1720560712.774485,172.16.1.2,33282,172.16.3.2,5101,8688,17460,0,64256,65728,6,6,4,1460,803,1,992,56,49964,49964,65700,0,17376,0,0,0
o,0x00000000,1720560712.774528,172.16.1.2,33282,172.16.3.2,5101,8688,17460,0,64256,65728,6,6,4,1460,815,1,992,56,49964,47068,65700,0,14480,0,0,0
o,0x00000000,1720560712.775015,172.16.1.2,33282,172.16.3.2,5101,8688,17460,0,64256,65728,6,6,4,1460,815,1,992,56,49964,47068,65700,0,15928,0,0,0
i,0x00000000,1720560712.867978,172.16.1.2,33282,172.16.3.2,5101,8688,17460,0,64256,65728,6,6,4,1460,815,1,992,56,49964,49964,65700,0,17376,0,0,0
o,0x00000000,1720560712.867991,172.16.1.2,33282,172.16.3.2,5101,8688,17460,0,64256,65728,6,6,4,1460,834,1,992,59,49964,47068,65700,0,14480,0,0,0
o,0x00000000,1720560712.868263,172.16.1.2,33282,172.16.3.2,5101,8688,17460,0,64256,65728,6,6,4,1460,834,1,992,59,49964,47068,65700,0,15928,0,0,0
i,0x00000000,1720560712.899215,172.16.1.2,33282,172.16.3.2,5101,8688,17460,0,64256,65728,6,6,4,1460,834,1,992,59,49964,49964,65700,0,17376,0,0,0
o,0x00000000,1720560712.899233,172.16.1.2,33282,172.16.3.2,5101,8688,18920,0,64256,65728,6,6,4,1460,858,1,992,62,49964,47068,65700,0,14480,0,0,0
o,0x00000000,1720560712.899706,172.16.1.2,33282,172.16.3.2,5101,8688,18920,0,64256,65728,6,6,4,1460,858,1,992,62,49964,47068,65700,0,15928,0,0,0
o,0x00000000,1720560712.900208,172.16.1.2,33282,172.16.3.2,5101,8688,18920,0,64256,65728,6,6,4,1460,858,1,992,62,49964,47068,65700,0,17376,0,0,0
i,0x00000000,1720560712.966968,172.16.1.2,33282,172.16.3.2,5101,8688,18920,0,64256,65728,6,6,4,1460,858,1,992,62,49964,49964,65700,0,18824,0,0,0
o,0x00000000,1720560712.966983,172.16.1.2,33282,172.16.3.2,5101,8688,18920,0,64256,65728,6,6,4,1460,883,1,992,65,49964,47068,65700,0,15928,0,0,0
o,0x00000000,1720560712.967088,172.16.1.2,33282,172.16.3.2,5101,8688,18920,0,64256,65728,6,6,4,1460,883,1,992,65,49964,47068,65700,0,17376,0,0,0
i,0x00000000,1720560712.967209,172.16.1.2,33282,172.16.3.2,5101,8688,18920,0,64256,65728,6,6,4,1460,883,1,992,65,49964,47068,65700,0,18824,0,0,0
o,0x00000000,1720560712.967214,172.16.1.2,33282,172.16.3.2,5101,8688,18920,0,64256,65728,6,6,4,1460,905,1,992,67,49964,44172,65700,0,15928,0,0,0
o,0x00000000,1720560712.967326,172.16.1.2,33282,172.16.3.2,5101,8688,18920,0,64256,65728,6,6,4,1460,905,1,992,67,49964,44172,65700,0,17376,0,0,0
i,0x00000000,1720560713.005560,172.16.1.2,33282,172.16.3.2,5101,8688,18920,0,64256,65728,6,6,4,1460,905,1,992,67,49964,49964,65700,0,18824,0,0,0
o,0x00000000,1720560713.005574,172.16.1.2,33282,172.16.3.2,5101,8688,18920,0,64256,65728,6,6,4,1460,908,1,992,63,49964,47068,65700,0,15928,0,0,0
o,0x00000000,1720560713.005868,172.16.1.2,33282,172.16.3.2,5101,8688,18920,0,64256,65728,6,6,4,1460,908,1,992,63,49964,47068,65700,0,17376,0,0,0
i,0x00000000,1720560713.072264,172.16.1.2,33282,172.16.3.2,5101,8688,18920,0,64256,65728,6,6,4,1460,908,1,992,63,49964,49964,65700,0,18824,0,0,0
o,0x00000000,1720560713.072430,172.16.1.2,33282,172.16.3.2,5101,8688,18920,0,65728,65728,6,6,4,1460,915,1,992,61,49964,48516,65700,0,17376,0,0,0
i,0x00000000,1720560713.108235,172.16.1.2,33282,172.16.3.2,5101,8688,18920,0,65728,65728,6,6,4,1460,915,1,992,61,49964,48516,65700,0,18824,0,0,0
o,0x00000000,1720560713.108304,172.16.1.2,33282,172.16.3.2,5101,8688,18920,0,64256,65728,6,6,4,1460,937,1,992,64,49964,45620,65700,0,15928,0,0,0
o,0x00000000,1720560713.109485,172.16.1.2,33282,172.16.3.2,5101,8688,18920,0,64256,65728,6,6,4,1460,937,1,992,64,49964,45620,65700,0,17376,0,0,0
i,0x00000000,1720560713.135630,172.16.1.2,33282,172.16.3.2,5101,8688,18920,0,64256,65728,6,6,4,1460,937,1,992,64,49964,49964,65700,0,18824,0,0,0
o,0x00000000,1720560713.135648,172.16.1.2,33282,172.16.3.2,5101,8688,18920,0,65728,65728,6,6,4,1460,924,1,992,63,49964,48516,65700,0,17376,0,0,0
i,0x00000000,1720560713.177299,172.16.1.2,33282,172.16.3.2,5101,8688,18920,0,65728,65728,6,6,4,1460,924,1,992,63,49964,48516,65700,0,18824,0,0,0
o,0x00000000,1720560713.177320,172.16.1.2,33282,172.16.3.2,5101,8688,20380,0,64256,65728,6,6,4,1460,917,1,992,61,49964,45620,65700,0,15928,0,0,0
o,0x00000000,1720560713.177834,172.16.1.2,33282,172.16.3.2,5101,8688,20380,0,64256,65728,6,6,4,1460,917,1,992,61,49964,45620,65700,0,17376,0,0,0
o,0x00000000,1720560713.178401,172.16.1.2,33282,172.16.3.2,5101,8688,20380,0,64256,65728,6,6,4,1460,917,1,992,61,49964,45620,65700,0,18824,0,0,0
i,0x00000000,1720560713.229502,172.16.1.2,33282,172.16.3.2,5101,8688,20380,0,64256,65728,6,6,4,1460,917,1,992,61,49964,49964,65700,0,20272,0,0,0
o,0x00000000,1720560713.229521,172.16.1.2,33282,172.16.3.2,5101,8688,20380,0,65728,65728,6,6,4,1460,931,1,992,62,49964,48516,65700,0,18824,0,0,0
i,0x00000000,1720560713.236073,172.16.1.2,33282,172.16.3.2,5101,8688,20380,0,65728,65728,6,6,4,1460,931,1,992,62,49964,48516,65700,0,20272,0,0,0
o,0x00000000,1720560713.236089,172.16.1.2,33282,172.16.3.2,5101,8688,20380,0,64256,65728,6,6,4,1460,919,1,992,61,49964,45620,65700,0,17376,0,0,0
o,0x00000000,1720560713.236518,172.16.1.2,33282,172.16.3.2,5101,8688,20380,0,64256,65728,6,6,4,1460,919,1,992,61,49964,45620,65700,0,18824,0,0,0
i,0x00000000,1720560713.276797,172.16.1.2,33282,172.16.3.2,5101,8688,20380,0,64256,65728,6,6,4,1460,919,1,992,61,49964,49964,65700,0,20272,0,0,0
o,0x00000000,1720560713.276811,172.16.1.2,33282,172.16.3.2,5101,8688,20380,0,64256,65728,6,6,4,1460,929,1,992,61,49964,47068,65700,0,17376,0,0,0
o,0x00000000,1720560713.277071,172.16.1.2,33282,172.16.3.2,5101,8688,20380,0,64256,65728,6,6,4,1460,929,1,992,61,49964,47068,65700,0,18824,0,0,0
i,0x00000000,1720560713.357823,172.16.1.2,33282,172.16.3.2,5101,8688,20380,0,64256,65728,6,6,4,1460,929,1,992,61,49964,49964,65700,0,20272,0,0,0
o,0x00000000,1720560713.357844,172.16.1.2,33282,172.16.3.2,5101,8688,20380,0,64256,65728,6,6,4,1460,957,1,992,66,49964,47068,65700,0,17376,0,0,0
o,0x00000000,1720560713.358390,172.16.1.2,33282,172.16.3.2,5101,8688,20380,0,64256,65728,6,6,4,1460,957,1,992,66,49964,47068,65700,0,18824,0,0,0
i,0x00000000,1720560713.430602,172.16.1.2,33282,172.16.3.2,5101,8688,20380,0,64256,65728,6,6,4,1460,957,1,992,66,49964,49964,65700,0,20272,0,0,0
o,0x00000000,1720560713.430620,172.16.1.2,33282,172.16.3.2,5101,8688,20380,0,64256,65728,6,6,4,1460,982,1,992,69,49964,47068,65700,0,17376,0,0,0
o,0x00000000,1720560713.430894,172.16.1.2,33282,172.16.3.2,5101,8688,20380,0,64256,65728,6,6,4,1460,982,1,992,69,49964,47068,65700,0,18824,0,0,0
i,0x00000000,1720560713.460434,172.16.1.2,33282,172.16.3.2,5101,8688,20380,0,64256,65728,6,6,4,1460,982,1,992,69,49964,49964,65700,0,20272,0,0,0
o,0x00000000,1720560713.460474,172.16.1.2,33282,172.16.3.2,5101,8688,20380,0,64256,65728,6,6,4,1460,1000,1,992,69,49964,47068,65700,0,17376,0,0,0
o,0x00000000,1720560713.461712,172.16.1.2,33282,172.16.3.2,5101,8688,20380,0,64256,65728,6,6,4,1460,1000,1,992,69,49964,47068,65700,0,18824,0,0,0
i,0x00000000,1720560713.524895,172.16.1.2,33282,172.16.3.2,5101,8688,20380,0,64256,65728,6,6,4,1460,1000,1,992,69,49964,49288,65700,0,20272,0,0,0
o,0x00000000,1720560713.524947,172.16.1.2,33282,172.16.3.2,5101,8688,20380,0,64256,65728,6,6,4,1460,1011,1,992,68,49964,46392,65700,0,17376,0,0,0
o,0x00000000,1720560713.525766,172.16.1.2,33282,172.16.3.2,5101,8688,20380,0,64256,65728,6,6,4,1460,1011,1,992,68,49964,46392,65700,0,18824,0,0,0
i,0x00000000,1720560713.546287,172.16.1.2,33282,172.16.3.2,5101,8688,20380,0,64256,65728,6,6,4,1460,1011,1,992,68,49964,49964,65700,0,20272,0,0,0
o,0x00000000,1720560713.546301,172.16.1.2,33282,172.16.3.2,5101,8688,21840,0,64256,65728,6,6,4,1460,1029,1,992,69,49964,47068,65700,0,17376,0,0,0
o,0x00000000,1720560713.546562,172.16.1.2,33282,172.16.3.2,5101,8688,21840,0,64256,65728,6,6,4,1460,1029,1,992,69,49964,47068,65700,0,18824,0,0,0
o,0x00000000,1720560713.546813,172.16.1.2,33282,172.16.3.2,5101,8688,21840,0,64256,65728,6,6,4,1460,1029,1,992,69,49964,47068,65700,0,20272,0,0,0
i,0x00000000,1720560713.609174,172.16.1.2,33282,172.16.3.2,5101,8688,21840,0,64256,65728,6,6,4,1460,1029,1,992,69,49964,49964,65700,0,21720,0,0,0
o,0x00000000,1720560713.609191,172.16.1.2,33282,172.16.3.2,5101,8688,21840,0,62848,65728,6,6,4,1460,1053,1,992,71,49964,47068,65700,0,18824,0,0,0
o,0x00000000,1720560713.609496,172.16.1.2,33282,172.16.3.2,5101,8688,21840,0,62848,65728,6,6,4,1460,1053,1,992,71,49964,47068,65700,0,20272,0,0,0
i,0x00000000,1720560713.609844,172.16.1.2,33282,172.16.3.2,5101,8688,21840,0,62848,65728,6,6,4,1460,1053,1,992,71,49964,47068,65700,0,21720,0,0,0
o,0x00000000,1720560713.609865,172.16.1.2,33282,172.16.3.2,5101,8688,21840,0,64256,65728,6,6,4,1460,1054,1,992,67,49964,44172,65700,0,18824,0,0,0
o,0x00000000,1720560713.610442,172.16.1.2,33282,172.16.3.2,5101,8688,21840,0,64256,65728,6,6,4,1460,1054,1,992,67,49964,44172,65700,0,20272,0,0,0
i,0x00000000,1720560713.677173,172.16.1.2,33282,172.16.3.2,5101,8688,21840,0,64256,65728,6,6,4,1460,1054,1,992,67,49964,49964,65700,0,21720,0,0,0
o,0x00000000,1720560713.677192,172.16.1.2,33282,172.16.3.2,5101,8688,21840,0,64256,65728,6,6,4,1460,1051,1,992,64,49964,47068,65700,0,18824,0,0,0
o,0x00000000,1720560713.677740,172.16.1.2,33282,172.16.3.2,5101,8688,21840,0,64256,65728,6,6,4,1460,1051,1,992,64,49964,47068,65700,0,20272,0,0,0
i,0x00000000,1720560713.776077,172.16.1.2,33282,172.16.3.2,5101,8688,21840,0,64256,65728,6,6,4,1460,1051,1,992,64,49964,49964,65700,0,21720,0,0,0
o,0x00000000,1720560713.776090,172.16.1.2,33282,172.16.3.2,5101,8688,21840,0,64256,65728,6,6,4,1460,1052,1,992,62,49964,47068,65700,0,18824,0,0,0
o,0x00000000,1720560713.776461,172.16.1.2,33282,172.16.3.2,5101,8688,21840,0,64256,65728,6,6,4,1460,1052,1,992,62,49964,47068,65700,0,20272,0,0,0
i,0x00000000,1720560713.796426,172.16.1.2,33282,172.16.3.2,5101,8688,21840,0,64256,65728,6,6,4,1460,1052,1,992,62,49964,49964,65700,0,21720,0,0,0
o,0x00000000,1720560713.796438,172.16.1.2,33282,172.16.3.2,5101,8688,21840,0,65728,65728,6,6,4,1460,1053,1,992,60,49964,48516,65700,0,20272,0,0,0
i,0x00000000,1720560713.875725,172.16.1.2,33282,172.16.3.2,5101,8688,21840,0,65728,65728,6,6,4,1460,1053,1,992,60,49964,48516,65700,0,21720,0,0,0
o,0x00000000,1720560713.875761,172.16.1.2,33282,172.16.3.2,5101,8688,21840,0,65728,65728,6,6,4,1460,1086,1,992,67,49964,47068,65700,0,20272,0,0,0
i,0x00000000,1720560713.881686,172.16.1.2,33282,172.16.3.2,5101,8688,21840,0,65728,65728,6,6,4,1460,1086,1,992,67,49964,49964,65700,0,21720,0,0,0
o,0x00000000,1720560713.881720,172.16.1.2,33282,172.16.3.2,5101,8688,21840,0,64256,65728,6,6,4,1460,1091,1,992,65,49964,47068,65700,0,18824,0,0,0
o,0x00000000,1720560713.882652,172.16.1.2,33282,172.16.3.2,5101,8688,21840,0,64256,65728,6,6,4,1460,1091,1,992,65,49964,47068,65700,0,20272,0,0,0
i,0x00000000,1720560713.889373,172.16.1.2,33282,172.16.3.2,5101,8688,21840,0,64256,65728,6,6,4,1460,1091,1,992,65,49964,49964,65700,0,21720,0,0,0
o,0x00000000,1720560713.889402,172.16.1.2,33282,172.16.3.2,5101,8688,23300,0,64256,65728,6,6,4,1460,1091,1,992,63,49964,47068,65700,0,18824,0,0,0
o,0x00000000,1720560713.890348,172.16.1.2,33282,172.16.3.2,5101,8688,23300,0,64256,65728,6,6,4,1460,1091,1,992,63,49964,47068,65700,0,20272,0,0,0
o,0x00000000,1720560713.891370,172.16.1.2,33282,172.16.3.2,5101,8688,23300,0,64256,65728,6,6,4,1460,1091,1,992,63,49964,47068,65700,0,21720,0,0,0
i,0x00000000,1720560713.946639,172.16.1.2,33282,172.16.3.2,5101,8688,23300,0,64256,65728,6,6,4,1460,1091,1,992,63,49964,49964,65700,0,23168,0,0,0
o,0x00000000,1720560713.946654,172.16.1.2,33282,172.16.3.2,5101,8688,23300,0,65728,65728,6,6,4,1460,1115,1,992,67,49964,48516,65700,0,21720,0,0,0
i,0x00000000,1720560713.946919,172.16.1.2,33282,172.16.3.2,5101,8688,23300,0,65728,65728,6,6,4,1460,1115,1,992,67,49964,48516,65700,0,23168,0,0,0
o,0x00000000,1720560713.946937,172.16.1.2,33282,172.16.3.2,5101,8688,23300,0,64256,65728,6,6,4,1460,1108,1,992,66,49964,45620,65700,0,20272,0,0,0
o,0x00000000,1720560713.947188,172.16.1.2,33282,172.16.3.2,5101,8688,23300,0,64256,65728,6,6,4,1460,1108,1,992,66,49964,45620,65700,0,21720,0,0,0
i,0x00000000,1720560713.988427,172.16.1.2,33282,172.16.3.2,5101,8688,23300,0,64256,65728,6,6,4,1460,1108,1,992,66,58156,58156,65700,0,23168,0,0,0
o,0x00000000,1720560713.988441,172.16.1.2,33282,172.16.3.2,5101,8688,23300,0,64256,65728,6,6,4,1460,1118,1,992,66,58156,55260,65700,0,20272,0,0,0
o,0x00000000,1720560713.988714,172.16.1.2,33282,172.16.3.2,5101,8688,23300,0,64256,65728,6,6,4,1460,1118,1,992,66,58156,55260,65700,0,21720,0,0,0
i,0x00000000,1720560714.028248,172.16.1.2,33282,172.16.3.2,5101,8688,23300,0,64256,65728,6,6,4,1460,1118,1,992,66,58156,58156,65700,0,23168,0,0,0
o,0x00000000,1720560714.028261,172.16.1.2,33282,172.16.3.2,5101,8688,23300,0,64256,65728,6,6,4,1460,1119,1,992,63,58156,55260,65700,0,20272,0,0,0
o,0x00000000,1720560714.028522,172.16.1.2,33282,172.16.3.2,5101,8688,23300,0,64256,65728,6,6,4,1460,1119,1,992,63,58156,55260,65700,0,21720,0,0,0
i,0x00000000,1720560714.136351,172.16.1.2,33282,172.16.3.2,5101,8688,23300,0,64256,65728,6,6,4,1460,1119,1,992,63,58156,58156,65700,0,23168,0,0,0
o,0x00000000,1720560714.136367,172.16.1.2,33282,172.16.3.2,5101,8688,23300,0,64256,65728,6,6,4,1460,1124,1,992,63,58156,55260,65700,0,20272,0,0,0
o,0x00000000,1720560714.136656,172.16.1.2,33282,172.16.3.2,5101,8688,23300,0,64256,65728,6,6,4,1460,1124,1,992,63,58156,55260,65700,0,21720,0,0,0
i,0x00000000,1720560714.186481,172.16.1.2,33282,172.16.3.2,5101,8688,23300,0,64256,65728,6,6,4,1460,1124,1,992,63,58156,58156,65700,0,23168,0,0,0
o,0x00000000,1720560714.186494,172.16.1.2,33282,172.16.3.2,5101,8688,23300,0,65728,65728,6,6,4,1460,1140,1,992,65,58156,56708,65700,0,21720,0,0,0
i,0x00000000,1720560714.218409,172.16.1.2,33282,172.16.3.2,5101,8688,23300,0,65728,65728,6,6,4,1460,1140,1,992,65,58156,56708,65700,0,23168,0,0,0
o,0x00000000,1720560714.218450,172.16.1.2,33282,172.16.3.2,5101,8688,23300,0,65728,65728,6,6,4,1460,1138,1,992,63,58156,55260,65700,0,21720,0,0,0
