enable_time_secs=1720563449	enable_time_usecs=891960	siftrver=1.2.4	hz=100	tcp_rtt_scale=32	sysname=FreeBSD	sysver=1301000	ipmode=4
o,0x00000000,1720563449.892094,10.0.2.15,22,10.0.2.2,56308,1073725440,17770,0,65535,65700,0,0,4,1460,1,0,4,24,33580,44,65700,0,0,0,0,0
o,0x00000000,1720563449.892448,10.0.2.15,22,10.0.2.2,56308,1073725440,17770,0,65535,65700,0,0,4,1460,1,0,4,24,33580,80,65700,0,44,0,0,0
i,0x00000000,1720563449.893327,10.0.2.15,22,10.0.2.2,56308,1073725440,17770,0,65535,65700,0,0,4,1460,1,0,4,24,33580,80,65700,0,80,0,0,0
i,0x00000000,1720563449.893338,10.0.2.15,22,10.0.2.2,56308,1073725440,17814,0,65535,65700,0,0,4,1460,1,0,4,24,33580,36,65700,0,36,0,0,0
o,0x00000000,1720563449.893486,10.0.2.15,22,10.0.2.2,56308,1073725440,17850,0,65535,65700,0,0,4,1460,1,0,4,24,33580,36,65700,0,0,0,0,0
i,0x00000000,1720563449.893992,10.0.2.15,22,10.0.2.2,56308,1073725440,17850,0,65535,65700,0,0,4,1460,1,0,4,24,33580,36,65700,0,36,0,0,0
o,0x00000000,1720563449.894205,10.0.2.15,22,10.0.2.2,56308,1073725440,17886,0,65535,65700,0,0,4,1460,1,0,4,24,33580,176,65700,0,0,0,0,0
i,0x00000000,1720563449.896413,10.0.2.15,22,10.0.2.2,56308,1073725440,17886,0,65535,65700,0,0,4,1460,1,0,4,24,33580,176,65700,0,176,0,0,0
i,0x00000000,1720563449.896427,10.0.2.15,22,10.0.2.2,56308,1073725440,18062,0,65535,65700,0,0,4,1460,1,0,4,24,33580,0,65700,0,0,0,0,0
i,0x00000000,1720563449.896430,10.0.2.15,22,10.0.2.2,56308,1073725440,18062,0,65535,65700,0,0,4,1460,1,0,4,24,33580,0,65700,96,0,0,0,0
o,0x00000000,1720563449.896434,10.0.2.15,22,10.0.2.2,56308,1073725440,18062,0,65535,65604,0,0,5,1460,1,0,5,24,33580,0,65700,96,0,0,0,0
o,0x00000000,1720563449.897126,10.0.2.15,22,10.0.2.2,56308,1073725440,18062,0,65535,65604,0,0,8,1460,1,0,4,24,33580,0,65700,0,0,0,0,0
i,0x00000000,1720563449.897782,10.0.2.15,22,10.0.2.2,56308,1073725440,18062,0,65535,65604,0,0,8,1460,1,0,20,24,33580,0,65700,0,1,0,0,0
i,0x00000000,1720563452.223893,10.0.2.15,22,10.0.2.2,56294,1073725440,14600,0,65535,65700,0,0,4,1460,1,0,0,27,33580,0,65700,0,0,0,0,0
o,0x00000000,1720563452.231707,10.0.2.15,22,10.0.2.2,56294,1073725440,14600,0,65535,65700,0,0,4,1460,1,0,0,27,33580,38,65700,42,0,0,0,0
i,0x00000000,1720563452.232861,10.0.2.15,22,10.0.2.2,56294,1073725440,14600,0,65535,65700,0,0,4,1460,1,0,0,27,33580,38,65700,42,38,0,0,0
i,0x00000000,1720563452.232874,10.0.2.15,22,10.0.2.2,56294,1073725440,14638,0,65535,65700,0,0,4,1460,1,0,0,24,33580,0,65700,42,0,0,0,0
i,0x00000000,1720563452.232876,10.0.2.15,22,10.0.2.2,56294,1073725440,14638,0,65535,65700,0,0,4,1460,1,0,0,24,33580,0,65700,1502,0,0,0,0
o,0x00000000,1720563452.232880,10.0.2.15,22,10.0.2.2,56294,1073725440,14638,0,65535,65700,0,0,4,1460,1,0,1,24,33580,0,65700,1578,0,0,0,0
o,0x00000000,1720563452.233863,10.0.2.15,22,10.0.2.2,56294,1073725440,14638,0,65535,65700,0,0,4,1460,1,0,0,24,33580,1056,65700,1536,0,0,0,0
i,0x00000000,1720563452.234497,10.0.2.15,22,10.0.2.2,56294,1073725440,14638,0,65535,65700,0,0,4,1460,1,0,0,24,33580,1056,65700,1536,1056,0,0,0
i,0x00000000,1720563452.235455,10.0.2.15,22,10.0.2.2,56294,1073725440,15694,0,65535,65700,0,0,4,1460,1,0,0,24,33580,0,65700,0,0,0,0,0
o,0x00000000,1720563452.237831,10.0.2.15,22,10.0.2.2,56294,1073725440,15694,0,65535,65700,0,0,4,1460,1,0,0,24,33580,484,65700,0,0,0,0,0
i,0x00000000,1720563452.239301,10.0.2.15,22,10.0.2.2,56294,1073725440,15694,0,65535,65700,0,0,4,1460,1,0,0,24,33580,484,65700,0,484,0,0,0
i,0x00000000,1720563452.244061,10.0.2.15,22,10.0.2.2,56294,1073725440,16178,0,65535,65700,0,0,4,1460,1,0,0,24,33580,0,65700,0,0,0,0,0
i,0x00000000,1720563452.244070,10.0.2.15,22,10.0.2.2,56294,1073725440,16178,0,65535,65700,0,0,4,1460,1,0,0,24,33580,0,65700,16,0,0,0,0
o,0x00000000,1720563452.244075,10.0.2.15,22,10.0.2.2,56294,1073725440,16178,0,65535,65700,0,0,4,1460,1,0,1,24,33580,0,65700,60,0,0,0,0
o,0x00000000,1720563452.244430,10.0.2.15,22,10.0.2.2,56294,1073725440,16178,0,65535,65700,0,0,4,1460,1,0,0,24,33580,44,65700,0,0,0,0,0
i,0x00000000,1720563452.247400,10.0.2.15,22,10.0.2.2,56294,1073725440,16178,0,65535,65700,0,0,4,1460,1,0,0,24,33580,44,65700,0,44,0,0,0
i,0x00000000,1720563452.247410,10.0.2.15,22,10.0.2.2,56294,1073725440,16222,0,65535,65700,0,0,4,1460,1,0,0,23,33580,0,65700,0,0,0,0,0
o,0x00000000,1720563452.256472,10.0.2.15,22,10.0.2.2,56294,1073725440,16222,0,65535,65700,0,0,4,1460,1,0,0,23,33580,68,65700,0,0,0,0,0
i,0x00000000,1720563452.258369,10.0.2.15,22,10.0.2.2,56294,1073725440,16222,0,65535,65700,0,0,4,1460,1,0,0,23,33580,68,65700,0,68,0,0,0
i,0x00000000,1720563452.258393,10.0.2.15,22,10.0.2.2,56294,1073725440,16290,0,65535,65700,0,0,4,1460,1,0,0,23,33580,0,65700,0,0,0,0,0
o,0x00000000,1720563452.258960,10.0.2.15,22,10.0.2.2,56294,1073725440,16290,0,65535,65700,0,0,4,1460,1,0,0,23,33580,332,65700,0,0,0,0,0
i,0x00000000,1720563452.260232,10.0.2.15,22,10.0.2.2,56294,1073725440,16290,0,65535,65700,0,0,4,1460,1,0,0,23,33580,332,65700,0,332,0,0,0
i,0x00000000,1720563452.262773,10.0.2.15,22,10.0.2.2,56294,1073725440,16622,0,65535,65700,0,0,4,1460,1,0,0,23,33580,0,65700,0,0,0,0,0
o,0x00000000,1720563452.277934,10.0.2.15,22,10.0.2.2,56294,1073725440,16622,0,65535,65700,0,0,4,1460,1,0,0,23,33580,28,65700,0,0,0,0,0
i,0x00000000,1720563452.279338,10.0.2.15,22,10.0.2.2,56294,1073725440,16622,0,65535,65700,0,0,4,1460,1,0,0,23,33580,28,65700,0,28,0,0,0
i,0x00000000,1720563452.280032,10.0.2.15,22,10.0.2.2,56294,1073725440,16650,0,65535,65700,0,0,4,1460,1,0,0,23,33580,0,65700,0,0,0,0,0
o,0x00000000,1720563452.281756,10.0.2.15,22,10.0.2.2,56294,1073725440,16650,0,65535,65700,0,0,4,1460,1,0,0,23,33580,768,65700,112,0,0,0,0
i,0x00000000,1720563452.283093,10.0.2.15,22,10.0.2.2,56294,1073725440,16650,0,65535,65700,0,0,4,1460,1,0,0,23,33580,768,65700,112,768,0,0,0
o,0x00000000,1720563452.283313,10.0.2.15,22,10.0.2.2,56294,1073725440,17418,0,65535,65700,0,0,4,1460,1,0,0,24,33580,140,65700,112,0,0,0,0
i,0x00000000,1720563452.284892,10.0.2.15,22,10.0.2.2,56294,1073725440,17418,0,65535,65700,0,0,4,1460,1,0,0,24,33580,140,65700,112,140,0,0,0
o,0x00000000,1720563452.285172,10.0.2.15,22,10.0.2.2,56294,1073725440,17558,0,65535,65700,0,0,4,1460,1,0,0,24,33580,44,65700,0,0,0,0,0
i,0x00000000,1720563452.286577,10.0.2.15,22,10.0.2.2,56294,1073725440,17558,0,65535,65700,0,0,4,1460,1,0,0,24,33580,44,65700,0,44,0,0,0
i,0x00000000,1720563452.286580,10.0.2.15,22,10.0.2.2,56294,1073725440,17602,0,65535,65700,0,0,4,1460,1,0,0,23,33580,0,65700,0,0,0,0,0
o,0x00000000,1720563452.287056,10.0.2.15,22,10.0.2.2,56294,1073725440,17602,0,65535,65700,0,0,4,1460,1,0,4,23,33580,72,65700,0,0,0,0,0
i,0x00000000,1720563452.287706,10.0.2.15,22,10.0.2.2,56294,1073725440,17602,0,65535,65700,0,0,4,1460,1,0,4,23,33580,72,65700,0,72,0,0,0
o,0x00000000,1720563452.291511,10.0.2.15,22,10.0.2.2,56294,1073725440,17674,0,65535,65700,0,0,4,1460,1,0,4,23,33580,44,65700,0,0,0,0,0
i,0x00000000,1720563452.292714,10.0.2.15,22,10.0.2.2,56294,1073725440,17674,0,65535,65700,0,0,4,1460,1,0,4,23,33580,44,65700,0,44,0,0,0
o,0x00000000,1720563452.293217,10.0.2.15,22,10.0.2.2,56294,1073725440,17718,0,65535,65700,0,0,4,1460,1,0,4,23,33580,44,65700,0,0,0,0,0
i,0x00000000,1720563452.293967,10.0.2.15,22,10.0.2.2,56294,1073725440,17718,0,65535,65700,0,0,4,1460,1,0,4,23,33580,44,65700,0,44,0,0,0
o,0x00000000,1720563452.297863,10.0.2.15,22,10.0.2.2,56294,1073725440,17762,0,65535,65700,0,0,4,1460,1,0,4,23,33580,176,65700,0,0,0,0,0
i,0x00000000,1720563452.298772,10.0.2.15,22,10.0.2.2,56294,1073725440,17762,0,65535,65700,0,0,4,1460,1,0,4,23,33580,176,65700,0,176,0,0,0
i,0x00000000,1720563452.298778,10.0.2.15,22,10.0.2.2,56294,1073725440,17938,0,65535,65700,0,0,4,1460,1,0,4,24,33580,0,65700,0,0,0,0,0
i,0x00000000,1720563452.298779,10.0.2.15,22,10.0.2.2,56294,1073725440,17938,0,65535,65700,0,0,4,1460,1,0,4,24,33580,0,65700,96,0,0,0,0
o,0x00000000,1720563452.298782,10.0.2.15,22,10.0.2.2,56294,1073725440,17938,0,65535,65604,0,0,5,1460,1,0,5,24,33580,0,65700,96,0,0,0,0
o,0x00000000,1720563452.305997,10.0.2.15,22,10.0.2.2,56294,1073725440,17938,0,65535,65604,0,0,8,1460,1,0,4,24,33580,0,65700,0,0,0,0,0
i,0x00000000,1720563452.307056,10.0.2.15,22,10.0.2.2,56294,1073725440,17938,0,65535,65604,0,0,8,1460,1,0,20,24,33580,0,65700,0,1,0,0,0
i,0x00000000,1720563453.421955,10.0.2.15,22,10.0.2.2,56302,1073725440,14600,0,65535,65700,0,0,4,1460,1,0,0,27,33580,0,65700,0,0,0,0,0
o,0x00000000,1720563453.429506,10.0.2.15,22,10.0.2.2,56302,1073725440,14600,0,65535,65700,0,0,4,1460,1,0,0,27,33580,38,65700,42,0,0,0,0
i,0x00000000,1720563453.430622,10.0.2.15,22,10.0.2.2,56302,1073725440,14600,0,65535,65700,0,0,4,1460,1,0,0,27,33580,38,65700,42,38,0,0,0
i,0x00000000,1720563453.430710,10.0.2.15,22,10.0.2.2,56302,1073725440,14638,0,65535,65700,0,0,4,1460,1,0,0,24,33580,0,65700,42,0,0,0,0
i,0x00000000,1720563453.430719,10.0.2.15,22,10.0.2.2,56302,1073725440,14638,0,65535,65700,0,0,4,1460,1,0,0,24,33580,0,65700,1502,0,0,0,0
o,0x00000000,1720563453.430722,10.0.2.15,22,10.0.2.2,56302,1073725440,14638,0,65535,65700,0,0,4,1460,1,0,1,24,33580,0,65700,1578,0,0,0,0
o,0x00000000,1720563453.431478,10.0.2.15,22,10.0.2.2,56302,1073725440,14638,0,65535,65700,0,0,4,1460,1,0,0,24,33580,1056,65700,1536,0,0,0,0
i,0x00000000,1720563453.432162,10.0.2.15,22,10.0.2.2,56302,1073725440,14638,0,65535,65700,0,0,4,1460,1,0,0,24,33580,1056,65700,1536,1056,0,0,0
i,0x00000000,1720563453.433381,10.0.2.15,22,10.0.2.2,56302,1073725440,15694,0,65535,65700,0,0,4,1460,1,0,0,24,33580,0,65700,0,0,0,0,0
o,0x00000000,1720563453.435714,10.0.2.15,22,10.0.2.2,56302,1073725440,15694,0,65535,65700,0,0,4,1460,1,0,0,24,33580,484,65700,0,0,0,0,0
i,0x00000000,1720563453.436809,10.0.2.15,22,10.0.2.2,56302,1073725440,15694,0,65535,65700,0,0,4,1460,1,0,0,24,33580,484,65700,0,484,0,0,0
i,0x00000000,1720563453.442193,10.0.2.15,22,10.0.2.2,56302,1073725440,16178,0,65535,65700,0,0,4,1460,1,0,0,24,33580,0,65700,0,0,0,0,0
i,0x00000000,1720563453.442206,10.0.2.15,22,10.0.2.2,56302,1073725440,16178,0,65535,65700,0,0,4,1460,1,0,0,24,33580,0,65700,16,0,0,0,0
o,0x00000000,1720563453.442210,10.0.2.15,22,10.0.2.2,56302,1073725440,16178,0,65535,65700,0,0,4,1460,1,0,1,24,33580,0,65700,60,0,0,0,0
o,0x00000000,1720563453.442432,10.0.2.15,22,10.0.2.2,56302,1073725440,16178,0,65535,65700,0,0,4,1460,1,0,0,24,33580,44,65700,0,0,0,0,0
i,0x00000000,1720563453.443458,10.0.2.15,22,10.0.2.2,56302,1073725440,16178,0,65535,65700,0,0,4,1460,1,0,0,24,33580,44,65700,0,44,0,0,0
i,0x00000000,1720563453.443492,10.0.2.15,22,10.0.2.2,56302,1073725440,16222,0,65535,65700,0,0,4,1460,1,0,0,24,33580,0,65700,0,0,0,0,0
o,0x00000000,1720563453.453256,10.0.2.15,22,10.0.2.2,56302,1073725440,16222,0,65535,65700,0,0,4,1460,1,0,0,24,33580,68,65700,0,0,0,0,0
i,0x00000000,1720563453.454509,10.0.2.15,22,10.0.2.2,56302,1073725440,16222,0,65535,65700,0,0,4,1460,1,0,0,24,33580,68,65700,0,68,0,0,0
i,0x00000000,1720563453.454517,10.0.2.15,22,10.0.2.2,56302,1073725440,16290,0,65535,65700,0,0,4,1460,1,0,0,24,33580,0,65700,0,0,0,0,0
o,0x00000000,1720563453.454889,10.0.2.15,22,10.0.2.2,56302,1073725440,16290,0,65535,65700,0,0,4,1460,1,0,0,24,33580,332,65700,0,0,0,0,0
i,0x00000000,1720563453.455628,10.0.2.15,22,10.0.2.2,56302,1073725440,16290,0,65535,65700,0,0,4,1460,1,0,0,24,33580,332,65700,0,332,0,0,0
i,0x00000000,1720563453.458508,10.0.2.15,22,10.0.2.2,56302,1073725440,16622,0,65535,65700,0,0,4,1460,1,0,0,24,33580,0,65700,0,0,0,0,0
o,0x00000000,1720563453.474183,10.0.2.15,22,10.0.2.2,56302,1073725440,16622,0,65535,65700,0,0,4,1460,1,0,0,24,33580,28,65700,0,0,0,0,0
i,0x00000000,1720563453.475308,10.0.2.15,22,10.0.2.2,56302,1073725440,16622,0,65535,65700,0,0,4,1460,1,0,0,24,33580,28,65700,0,28,0,0,0
i,0x00000000,1720563453.476275,10.0.2.15,22,10.0.2.2,56302,1073725440,16650,0,65535,65700,0,0,4,1460,1,0,0,24,33580,0,65700,0,0,0,0,0
o,0x00000000,1720563453.477632,10.0.2.15,22,10.0.2.2,56302,1073725440,16650,0,65535,65700,0,0,4,1460,1,0,0,24,33580,768,65700,112,0,0,0,0
i,0x00000000,1720563453.479220,10.0.2.15,22,10.0.2.2,56302,1073725440,16650,0,65535,65700,0,0,4,1460,1,0,0,24,33580,768,65700,112,768,0,0,0
o,0x00000000,1720563453.479413,10.0.2.15,22,10.0.2.2,56302,1073725440,17418,0,65535,65700,0,0,4,1460,1,0,0,24,33580,140,65700,112,0,0,0,0
i,0x00000000,1720563453.480485,10.0.2.15,22,10.0.2.2,56302,1073725440,17418,0,65535,65700,0,0,4,1460,1,0,0,24,33580,140,65700,112,140,0,0,0
o,0x00000000,1720563453.480662,10.0.2.15,22,10.0.2.2,56302,1073725440,17558,0,65535,65700,0,0,4,1460,1,0,0,24,33580,44,65700,0,0,0,0,0
i,0x00000000,1720563453.481432,10.0.2.15,22,10.0.2.2,56302,1073725440,17558,0,65535,65700,0,0,4,1460,1,0,0,24,33580,44,65700,0,44,0,0,0
i,0x00000000,1720563453.481860,10.0.2.15,22,10.0.2.2,56302,1073725440,17602,0,65535,65700,0,0,4,1460,1,0,0,24,33580,0,65700,0,0,0,0,0
o,0x00000000,1720563453.482263,10.0.2.15,22,10.0.2.2,56302,1073725440,17602,0,65535,65700,0,0,4,1460,1,0,4,24,33580,72,65700,0,0,0,0,0
i,0x00000000,1720563453.483442,10.0.2.15,22,10.0.2.2,56302,1073725440,17602,0,65535,65700,0,0,4,1460,1,0,4,24,33580,72,65700,0,72,0,0,0
i,0x00000000,1720563453.483447,10.0.2.15,22,10.0.2.2,56302,1073725440,17674,0,65535,65700,0,0,4,1460,1,0,4,24,33580,0,65700,0,0,0,0,0
o,0x00000000,1720563453.489625,172.16.1.2,39251,172.16.3.2,5101,1073725440,1073725440,0,0,0,0,0,2,536,0,1,672,100,32768,0,65536,0,0,0,0,0
o,0x00000000,1720563453.517547,10.0.2.15,22,10.0.2.2,56302,1073725440,17674,0,65535,65700,0,0,4,1460,1,0,5,24,33580,0,65700,0,0,0,0,0
i,0x00000000,1720563453.621982,172.16.1.2,39251,172.16.3.2,5101,1073725440,1073725440,0,0,0,0,0,2,536,0,1,672,100,32768,0,65536,0,1,0,0,0
o,0x00000000,1720563453.622035,172.16.1.2,39251,172.16.3.2,5101,17680,14480,0,65535,65700,6,6,4,1460,740,1,993,97,33580,0,65700,0,0,0,0,0
o,0x00000000,1720563453.625045,172.16.1.2,39251,172.16.3.2,5101,17680,14480,0,65535,65700,6,6,4,1460,740,1,996,97,33580,37,65700,0,0,0,0,0
i,0x00000000,1720563453.733375,172.16.1.2,39251,172.16.3.2,5101,17680,14480,0,65535,65700,6,6,4,1460,740,1,996,97,33580,37,65700,0,37,0,0,0
o,0x00000000,1720563453.733684,172.16.1.2,39251,172.16.3.2,5101,17680,14517,0,65728,65728,6,6,4,1460,688,1,996,95,33580,4,65700,0,0,0,0,0
o,0x00000000,1720563453.734421,172.16.1.2,39251,172.16.3.2,5101,17680,14517,0,65728,65728,6,6,4,1460,688,1,996,95,33580,128,65700,0,4,0,0,0
i,0x00000000,1720563453.859540,172.16.1.2,39251,172.16.3.2,5101,17680,14517,0,65728,65728,6,6,4,1460,688,1,996,95,33580,128,65700,0,128,0,0,0
i,0x00000000,1720563453.861824,172.16.1.2,39251,172.16.3.2,5101,17680,14645,0,65600,65728,6,6,4,1460,654,1,996,89,33580,0,65700,0,0,0,0,0
o,0x00000000,1720563453.861921,172.16.1.2,25004,172.16.3.2,5101,1073725440,1073725440,0,0,0,0,0,2,536,0,1,672,100,32768,0,65536,0,0,0,0,0
o,0x00000000,1720563453.897696,172.16.1.2,39251,172.16.3.2,5101,17680,14645,0,65728,65728,6,6,4,1460,654,1,997,89,33580,0,65700,0,0,0,0,0
i,0x00000000,1720563453.982927,172.16.1.2,25004,172.16.3.2,5101,1073725440,1073725440,0,0,0,0,0,2,536,0,1,672,100,32768,0,65536,0,1,0,0,0
o,0x00000000,1720563453.982955,172.16.1.2,25004,172.16.3.2,5101,17680,14480,0,65535,65700,6,6,4,1460,740,1,993,97,33580,0,65700,0,0,0,0,0
o,0x00000000,1720563453.983332,172.16.1.2,25004,172.16.3.2,5101,17680,14480,0,65535,65700,6,6,4,1460,740,1,992,97,33580,37,65700,0,0,0,0,0
i,0x00000000,1720563454.114419,172.16.1.2,39251,172.16.3.2,5101,17680,14645,0,65728,65728,6,6,4,1460,654,1,996,89,33580,0,65700,0,0,0,0,0
i,0x00000000,1720563454.114437,172.16.1.2,39251,172.16.3.2,5101,17680,14645,0,65728,65728,6,6,4,1460,654,1,996,89,33580,0,65700,1,0,0,0,0
o,0x00000000,1720563454.114445,172.16.1.2,39251,172.16.3.2,5101,17680,14645,0,65728,65728,6,6,4,1460,654,1,997,89,33580,0,65700,2,0,0,0,0
o,0x00000000,1720563454.114819,172.16.1.2,25004,172.16.3.2,5101,17680,14480,0,65535,65700,6,6,4,1460,740,1,992,97,33580,33580,65700,0,37,0,0,0
o,0x00000000,1720563454.115201,172.16.1.2,25004,172.16.3.2,5101,17680,14480,0,65535,65700,6,6,4,1460,740,1,992,97,33580,33580,65700,0,1485,0,0,0
o,0x00000000,1720563454.115601,172.16.1.2,25004,172.16.3.2,5101,17680,14480,0,65535,65700,6,6,4,1460,740,1,992,97,33580,33580,65700,0,2933,0,0,0
o,0x00000000,1720563454.116108,172.16.1.2,25004,172.16.3.2,5101,17680,14480,0,65535,65700,6,6,4,1460,740,1,992,97,33580,33580,65700,0,4381,0,0,0
o,0x00000000,1720563454.116597,172.16.1.2,25004,172.16.3.2,5101,17680,14480,0,65535,65700,6,6,4,1460,740,1,992,97,33580,33580,65700,0,5829,0,0,0
o,0x00000000,1720563454.116928,172.16.1.2,25004,172.16.3.2,5101,17680,14480,0,65535,65700,6,6,4,1460,740,1,992,97,33580,33580,65700,0,7277,0,0,0
o,0x00000000,1720563454.117261,172.16.1.2,25004,172.16.3.2,5101,17680,14480,0,65535,65700,6,6,4,1460,740,1,992,97,33580,33580,65700,0,8725,0,0,0
o,0x00000000,1720563454.117666,172.16.1.2,25004,172.16.3.2,5101,17680,14480,0,65535,65700,6,6,4,1460,740,1,992,97,33580,33580,65700,0,10173,0,0,0
o,0x00000000,1720563454.118105,172.16.1.2,25004,172.16.3.2,5101,17680,14480,0,65535,65700,6,6,4,1460,740,1,992,97,33580,33580,65700,0,11621,0,0,0
i,0x00000000,1720563454.143859,172.16.1.2,25004,172.16.3.2,5101,17680,14480,0,65535,65700,6,6,4,1460,740,1,992,97,33580,33580,65700,0,13069,0,0,0
o,0x00000000,1720563454.143873,172.16.1.2,25004,172.16.3.2,5101,17680,14517,0,65728,65728,6,6,4,1460,708,1,992,91,33580,33543,65700,0,13032,0,0,0
i,0x00000000,1720563454.362067,172.16.1.2,25004,172.16.3.2,5101,17680,14517,0,65728,65728,6,6,4,1460,708,1,992,91,33580,33543,65700,0,14480,0,0,0
o,0x00000000,1720563454.362083,172.16.1.2,25004,172.16.3.2,5101,17680,17413,0,64256,65728,6,6,4,1460,716,1,992,81,33580,30647,65700,0,11584,0,0,0
o,0x00000000,1720563454.362347,172.16.1.2,25004,172.16.3.2,5101,17680,17413,0,64256,65728,6,6,4,1460,716,1,992,81,33580,30647,65700,0,13032,0,0,0
o,0x00000000,1720563454.362586,172.16.1.2,25004,172.16.3.2,5101,17680,17413,0,64256,65728,6,6,4,1460,716,1,992,81,41772,30647,65700,0,14480,0,0,0
o,0x00000000,1720563454.362820,172.16.1.2,25004,172.16.3.2,5101,17680,17413,0,64256,65728,6,6,4,1460,716,1,992,81,41772,30647,65700,0,15928,0,0,0
i,0x00000000,1720563454.373892,172.16.1.2,25004,172.16.3.2,5101,17680,17413,0,64256,65728,6,6,4,1460,716,1,992,81,41772,41772,65700,0,17376,0,0,0
o,0x00000000,1720563454.373932,172.16.1.2,25004,172.16.3.2,5101,17680,20309,0,64256,65728,6,6,4,1460,727,1,992,74,41772,38876,65700,0,14480,0,0,0
o,0x00000000,1720563454.374714,172.16.1.2,25004,172.16.3.2,5101,17680,20309,0,64256,65728,6,6,4,1460,727,1,992,74,41772,38876,65700,0,15928,0,0,0
o,0x00000000,1720563454.375405,172.16.1.2,25004,172.16.3.2,5101,17680,20309,0,64256,65728,6,6,4,1460,727,1,992,74,41772,38876,65700,0,17376,0,0,0
o,0x00000000,1720563454.376808,172.16.1.2,25004,172.16.3.2,5101,17680,20309,0,64256,65728,6,6,4,1460,727,1,992,74,49964,38876,65700,0,18824,0,0,0
i,0x00000000,1720563454.415103,172.16.1.2,25004,172.16.3.2,5101,17680,20309,0,64256,65728,6,6,4,1460,727,1,992,74,49964,49964,65700,0,20272,0,0,0
o,0x00000000,1720563454.415138,172.16.1.2,25004,172.16.3.2,5101,17680,20309,0,64256,65728,6,6,4,1460,753,1,992,74,49964,47068,65700,0,17376,0,0,0
o,0x00000000,1720563454.416024,172.16.1.2,25004,172.16.3.2,5101,17680,20309,0,64256,65728,6,6,4,1460,753,1,992,74,49964,47068,65700,0,18824,0,0,0
i,0x00000000,1720563454.434318,172.16.1.2,25004,172.16.3.2,5101,17680,20309,0,64256,65728,6,6,4,1460,753,1,992,74,49964,49964,65700,0,20272,0,0,0
o,0x00000000,1720563454.434339,172.16.1.2,25004,172.16.3.2,5101,17680,20309,0,64256,65728,6,6,4,1460,783,1,992,74,49964,47068,65700,0,17376,0,0,0
o,0x00000000,1720563454.435614,172.16.1.2,25004,172.16.3.2,5101,17680,20309,0,64256,65728,6,6,4,1460,783,1,992,74,49964,47068,65700,0,18824,0,0,0
i,0x00000000,1720563454.475062,172.16.1.2,25004,172.16.3.2,5101,17680,20309,0,64256,65728,6,6,4,1460,783,1,992,74,49964,49964,65700,0,20272,0,0,0
o,0x00000000,1720563454.475127,172.16.1.2,25004,172.16.3.2,5101,17680,20309,0,64256,65728,6,6,4,1460,826,1,992,79,49964,47068,65700,0,17376,0,0,0
o,0x00000000,1720563454.476809,172.16.1.2,25004,172.16.3.2,5101,17680,20309,0,64256,65728,6,6,4,1460,826,1,992,79,49964,47068,65700,0,18824,0,0,0
i,0x00000000,1720563454.574432,172.16.1.2,25004,172.16.3.2,5101,17680,20309,0,64256,65728,6,6,4,1460,826,1,992,79,49964,49964,65700,0,20272,0,0,0
o,0x00000000,1720563454.574487,172.16.1.2,25004,172.16.3.2,5101,17680,20309,0,64256,65728,6,6,4,1460,803,1,992,76,49964,47068,65700,0,17376,0,0,0
o,0x00000000,1720563454.575751,172.16.1.2,25004,172.16.3.2,5101,17680,20309,0,64256,65728,6,6,4,1460,803,1,992,76,49964,47068,65700,0,18824,0,0,0
i,0x00000000,1720563454.623413,172.16.1.2,25004,172.16.3.2,5101,17680,20309,0,64256,65728,6,6,4,1460,803,1,992,76,49964,49964,65700,0,20272,0,0,0
o,0x00000000,1720563454.623465,172.16.1.2,25004,172.16.3.2,5101,17680,20309,0,64256,65728,6,6,4,1460,807,1,992,69,49964,47068,65700,0,17376,0,0,0
o,0x00000000,1720563454.624703,172.16.1.2,25004,172.16.3.2,5101,17680,20309,0,64256,65728,6,6,4,1460,807,1,992,69,49964,47068,65700,0,18824,0,0,0
i,0x00000000,1720563454.672605,172.16.1.2,25004,172.16.3.2,5101,17680,20309,0,64256,65728,6,6,4,1460,807,1,992,69,49964,49964,65700,0,20272,0,0,0
o,0x00000000,1720563454.672628,172.16.1.2,25004,172.16.3.2,5101,17680,20309,0,64256,65728,6,6,4,1460,827,1,992,69,49964,47068,65700,0,17376,0,0,0
o,0x00000000,1720563454.673370,172.16.1.2,25004,172.16.3.2,5101,17680,20309,0,64256,65728,6,6,4,1460,827,1,992,69,49964,47068,65700,0,18824,0,0,0
i,0x00000000,1720563454.723916,172.16.1.2,25004,172.16.3.2,5101,17680,20309,0,64256,65728,6,6,4,1460,827,1,992,69,49964,49964,65700,0,20272,0,0,0
o,0x00000000,1720563454.723954,172.16.1.2,25004,172.16.3.2,5101,17680,20309,0,65728,65728,6,6,4,1460,860,1,992,72,49964,48516,65700,0,18824,0,0,0
i,0x00000000,1720563454.743732,172.16.1.2,25004,172.16.3.2,5101,17680,20309,0,65728,65728,6,6,4,1460,860,1,992,72,49964,48516,65700,0,20272,0,0,0
o,0x00000000,1720563454.743757,172.16.1.2,25004,172.16.3.2,5101,17680,21769,0,64256,65728,6,6,4,1460,897,1,992,76,49964,45620,65700,0,17376,0,0,0
o,0x00000000,1720563454.744765,172.16.1.2,25004,172.16.3.2,5101,17680,21769,0,64256,65728,6,6,4,1460,897,1,992,76,49964,45620,65700,0,18824,0,0,0
o,0x00000000,1720563454.746043,172.16.1.2,25004,172.16.3.2,5101,17680,21769,0,64256,65728,6,6,4,1460,897,1,992,76,49964,45620,65700,0,20272,0,0,0
i,0x00000000,1720563454.784648,172.16.1.2,25004,172.16.3.2,5101,17680,21769,0,64256,65728,6,6,4,1460,897,1,992,76,49964,49964,65700,0,21720,0,0,0
o,0x00000000,1720563454.784679,172.16.1.2,25004,172.16.3.2,5101,17680,21769,0,64256,65728,6,6,4,1460,933,1,992,79,49964,47068,65700,0,18824,0,0,0
o,0x00000000,1720563454.785525,172.16.1.2,25004,172.16.3.2,5101,17680,21769,0,64256,65728,6,6,4,1460,933,1,992,79,49964,47068,65700,0,20272,0,0,0
i,0x00000000,1720563454.809542,172.16.1.2,25004,172.16.3.2,5101,17680,21769,0,64256,65728,6,6,4,1460,933,1,992,79,49964,49964,65700,0,21720,0,0,0
o,0x00000000,1720563454.809571,172.16.1.2,25004,172.16.3.2,5101,17680,21769,0,64256,65728,6,6,4,1460,969,1,992,82,49964,47068,65700,0,18824,0,0,0
o,0x00000000,1720563454.810622,172.16.1.2,25004,172.16.3.2,5101,17680,21769,0,64256,65728,6,6,4,1460,969,1,992,82,49964,47068,65700,0,20272,0,0,0
i,0x00000000,1720563454.874521,172.16.1.2,25004,172.16.3.2,5101,17680,21769,0,64256,65728,6,6,4,1460,969,1,992,82,49964,49964,65700,0,21720,0,0,0
o,0x00000000,1720563454.874553,172.16.1.2,25004,172.16.3.2,5101,17680,21769,0,64256,65728,6,6,4,1460,1004,1,992,84,49964,47068,65700,0,18824,0,0,0
o,0x00000000,1720563454.876103,172.16.1.2,25004,172.16.3.2,5101,17680,21769,0,64256,65728,6,6,4,1460,1004,1,992,84,49964,47068,65700,0,20272,0,0,0
i,0x00000000,1720563454.914303,172.16.1.2,25004,172.16.3.2,5101,17680,21769,0,64256,65728,6,6,4,1460,1004,1,992,84,49964,49964,65700,0,21720,0,0,0
o,0x00000000,1720563454.914348,172.16.1.2,25004,172.16.3.2,5101,17680,21769,0,64256,65728,6,6,4,1460,1015,1,992,79,49964,47068,65700,0,18824,0,0,0
o,0x00000000,1720563454.915800,172.16.1.2,25004,172.16.3.2,5101,17680,21769,0,64256,65728,6,6,4,1460,1015,1,992,79,49964,47068,65700,0,20272,0,0,0
i,0x00000000,1720563454.987836,172.16.1.2,25004,172.16.3.2,5101,17680,21769,0,64256,65728,6,6,4,1460,1015,1,992,79,49964,49964,65700,0,21720,0,0,0
o,0x00000000,1720563454.987875,172.16.1.2,25004,172.16.3.2,5101,17680,21769,0,65728,65728,6,6,4,1460,1037,1,992,78,49964,48516,65700,0,20272,0,0,0
i,0x00000000,1720563455.015307,172.16.1.2,25004,172.16.3.2,5101,17680,21769,0,65728,65728,6,6,4,1460,1037,1,992,78,49964,48516,65700,0,21720,0,0,0
o,0x00000000,1720563455.015343,172.16.1.2,25004,172.16.3.2,5101,17680,21769,0,64256,65728,6,6,4,1460,1044,1,992,74,49964,45620,65700,0,18824,0,0,0
o,0x00000000,1720563455.017287,172.16.1.2,25004,172.16.3.2,5101,17680,21769,0,64256,65728,6,6,4,1460,1044,1,992,74,49964,45620,65700,0,20272,0,0,0
i,0x00000000,1720563455.063819,172.16.1.2,25004,172.16.3.2,5101,17680,21769,0,64256,65728,6,6,4,1460,1044,1,992,74,49964,49964,65700,0,21720,0,0,0
o,0x00000000,1720563455.063850,172.16.1.2,25004,172.16.3.2,5101,17680,21769,0,64256,65728,6,6,4,1460,1050,1,992,70,49964,47068,65700,0,18824,0,0,0
o,0x00000000,1720563455.064783,172.16.1.2,25004,172.16.3.2,5101,17680,21769,0,64256,65728,6,6,4,1460,1050,1,992,70,49964,47068,65700,0,20272,0,0,0
i,0x00000000,1720563455.102467,172.16.1.2,25004,172.16.3.2,5101,17680,21769,0,64256,65728,6,6,4,1460,1050,1,992,70,49964,49964,65700,0,21720,0,0,0
o,0x00000000,1720563455.102499,172.16.1.2,25004,172.16.3.2,5101,17680,21769,0,65728,65728,6,6,4,1460,1063,1,992,69,49964,48516,65700,0,20272,0,0,0
i,0x00000000,1720563455.122403,172.16.1.2,25004,172.16.3.2,5101,17680,21769,0,65728,65728,6,6,4,1460,1063,1,992,69,49964,48516,65700,0,21720,0,0,0
o,0x00000000,1720563455.122436,172.16.1.2,25004,172.16.3.2,5101,17680,23229,0,64256,65728,6,6,4,1460,1083,1,992,71,49964,45620,65700,0,18824,0,0,0
o,0x00000000,1720563455.123252,172.16.1.2,25004,172.16.3.2,5101,17680,23229,0,64256,65728,6,6,4,1460,1083,1,992,71,49964,45620,65700,0,20272,0,0,0
o,0x00000000,1720563455.123991,172.16.1.2,25004,172.16.3.2,5101,17680,23229,0,64256,65728,6,6,4,1460,1083,1,992,71,49964,45620,65700,0,21720,0,0,0
i,0x00000000,1720563455.172696,172.16.1.2,25004,172.16.3.2,5101,17680,23229,0,64256,65728,6,6,4,1460,1083,1,992,71,58156,58156,65700,0,23168,0,0,0
o,0x00000000,1720563455.172722,172.16.1.2,25004,172.16.3.2,5101,17680,23229,0,64256,65728,6,6,4,1460,1100,1,992,72,58156,55260,65700,0,20272,0,0,0
o,0x00000000,1720563455.173236,172.16.1.2,25004,172.16.3.2,5101,17680,23229,0,64256,65728,6,6,4,1460,1100,1,992,72,58156,55260,65700,0,21720,0,0,0
i,0x00000000,1720563455.215155,172.16.1.2,25004,172.16.3.2,5101,17680,23229,0,64256,65728,6,6,4,1460,1100,1,992,72,58156,58156,65700,0,23168,0,0,0
o,0x00000000,1720563455.215187,172.16.1.2,25004,172.16.3.2,5101,17680,23229,0,64256,65728,6,6,4,1460,1119,1,992,73,58156,55260,65700,0,20272,0,0,0
o,0x00000000,1720563455.216030,172.16.1.2,25004,172.16.3.2,5101,17680,23229,0,64256,65728,6,6,4,1460,1119,1,992,73,58156,55260,65700,0,21720,0,0,0
i,0x00000000,1720563455.266817,172.16.1.2,25004,172.16.3.2,5101,17680,23229,0,64256,65728,6,6,4,1460,1119,1,992,73,58156,58156,65700,0,23168,0,0,0
o,0x00000000,1720563455.266831,172.16.1.2,25004,172.16.3.2,5101,17680,23229,0,65728,65728,6,6,4,1460,1136,1,992,73,58156,56708,65700,0,21720,0,0,0
i,0x00000000,1720563455.289933,172.16.1.2,25004,172.16.3.2,5101,17680,23229,0,65728,65728,6,6,4,1460,1136,1,992,73,58156,56708,65700,0,23168,0,0,0
o,0x00000000,1720563455.289964,172.16.1.2,25004,172.16.3.2,5101,17680,23229,0,64256,65728,6,6,4,1460,1146,1,992,71,58156,53812,65700,0,20272,0,0,0
o,0x00000000,1720563455.291031,172.16.1.2,25004,172.16.3.2,5101,17680,23229,0,64256,65728,6,6,4,1460,1146,1,992,71,58156,53812,65700,0,21720,0,0,0
i,0x00000000,1720563455.352629,172.16.1.2,25004,172.16.3.2,5101,17680,23229,0,64256,65728,6,6,4,1460,1146,1,992,71,58156,58156,65700,0,23168,0,0,0
o,0x00000000,1720563455.352642,172.16.1.2,25004,172.16.3.2,5101,17680,23229,0,65728,65728,6,6,4,1460,1147,1,992,68,58156,56708,65700,0,21720,0,0,0
i,0x00000000,1720563455.384165,172.16.1.2,25004,172.16.3.2,5101,17680,23229,0,65728,65728,6,6,4,1460,1147,1,992,68,58156,56708,65700,0,23168,0,0,0
o,0x00000000,1720563455.384187,172.16.1.2,25004,172.16.3.2,5101,17680,23229,0,62848,65728,6,6,4,1460,1152,1,992,66,58156,53812,65700,0,20272,0,0,0
o,0x00000000,1720563455.384471,172.16.1.2,25004,172.16.3.2,5101,17680,23229,0,62848,65728,6,6,4,1460,1152,1,992,66,58156,53812,65700,0,21720,0,0,0
i,0x00000000,1720563455.423187,172.16.1.2,25004,172.16.3.2,5101,17680,23229,0,62848,65728,6,6,4,1460,1152,1,992,66,58156,58156,65700,0,23168,0,0,0
o,0x00000000,1720563455.423225,172.16.1.2,25004,172.16.3.2,5101,17680,23229,0,64256,65728,6,6,4,1460,1152,1,992,64,58156,55260,65700,0,20272,0,0,0
o,0x00000000,1720563455.423603,172.16.1.2,25004,172.16.3.2,5101,17680,23229,0,64256,65728,6,6,4,1460,1152,1,992,64,58156,55260,65700,0,21720,0,0,0
i,0x00000000,1720563455.472200,172.16.1.2,25004,172.16.3.2,5101,17680,23229,0,64256,65728,6,6,4,1460,1152,1,992,64,58156,58156,65700,0,23168,0,0,0
o,0x00000000,1720563455.472233,172.16.1.2,25004,172.16.3.2,5101,17680,23229,0,64256,65728,6,6,4,1460,1156,1,992,63,58156,55260,65700,0,20272,0,0,0
o,0x00000000,1720563455.472571,172.16.1.2,25004,172.16.3.2,5101,17680,23229,0,64256,65728,6,6,4,1460,1156,1,992,63,58156,55260,65700,0,21720,0,0,0
i,0x00000000,1720563455.501521,172.16.1.2,25004,172.16.3.2,5101,17680,23229,0,64256,65728,6,6,4,1460,1156,1,992,63,58156,58156,65700,0,23168,0,0,0
o,0x00000000,1720563455.501535,172.16.1.2,25004,172.16.3.2,5101,17680,24689,0,64256,65728,6,6,4,1460,1164,1,992,63,58156,55260,65700,0,20272,0,0,0
o,0x00000000,1720563455.501871,172.16.1.2,25004,172.16.3.2,5101,17680,24689,0,64256,65728,6,6,4,1460,1164,1,992,63,58156,55260,65700,0,21720,0,0,0
o,0x00000000,1720563455.502192,172.16.1.2,25004,172.16.3.2,5101,17680,24689,0,64256,65728,6,6,4,1460,1164,1,992,63,58156,55260,65700,0,23168,0,0,0
i,0x00000000,1720563455.557129,172.16.1.2,25004,172.16.3.2,5101,17680,24689,0,64256,65728,6,6,4,1460,1164,1,992,63,58156,57224,65700,0,24616,0,0,0
o,0x00000000,1720563455.557158,172.16.1.2,25004,172.16.3.2,5101,17680,24689,0,64256,65728,6,6,4,1460,1175,1,992,64,58156,54328,65700,0,21720,0,0,0
o,0x00000000,1720563455.557409,172.16.1.2,25004,172.16.3.2,5101,17680,24689,0,64256,65728,6,6,4,1460,1175,1,992,64,58156,54328,65700,0,23168,0,0,0
i,0x00000000,1720563455.597540,172.16.1.2,25004,172.16.3.2,5101,17680,24689,0,64256,65728,6,6,4,1460,1175,1,992,64,58156,58156,65700,0,24616,0,0,0
o,0x00000000,1720563455.597564,172.16.1.2,25004,172.16.3.2,5101,17680,24689,0,64256,65728,6,6,4,1460,1185,1,992,65,58156,55260,65700,0,21720,0,0,0
o,0x00000000,1720563455.597886,172.16.1.2,25004,172.16.3.2,5101,17680,24689,0,64256,65728,6,6,4,1460,1185,1,992,65,58156,55260,65700,0,23168,0,0,0
i,0x00000000,1720563455.672590,172.16.1.2,25004,172.16.3.2,5101,17680,24689,0,64256,65728,6,6,4,1460,1185,1,992,65,58156,58156,65700,0,24616,0,0,0
o,0x00000000,1720563455.672633,172.16.1.2,25004,172.16.3.2,5101,17680,24689,0,65728,65728,6,6,4,1460,1197,1,992,67,58156,56708,65700,0,23168,0,0,0
i,0x00000000,1720563455.676498,172.16.1.2,25004,172.16.3.2,5101,17680,24689,0,65728,65728,6,6,4,1460,1197,1,992,67,58156,56708,65700,0,24616,0,0,0
o,0x00000000,1720563455.676535,172.16.1.2,25004,172.16.3.2,5101,17680,24689,0,64256,65728,6,6,4,1460,1200,1,992,65,58156,53812,65700,0,21720,0,0,0
o,0x00000000,1720563455.676953,172.16.1.2,25004,172.16.3.2,5101,17680,24689,0,64256,65728,6,6,4,1460,1200,1,992,65,58156,53812,65700,0,23168,0,0,0
i,0x00000000,1720563455.743145,172.16.1.2,25004,172.16.3.2,5101,17680,24689,0,64256,65728,6,6,4,1460,1200,1,992,65,58156,58156,65700,0,24616,0,0,0
o,0x00000000,1720563455.743229,172.16.1.2,25004,172.16.3.2,5101,17680,24689,0,65728,65728,6,6,4,1460,1206,1,992,65,58156,56708,65700,0,23168,0,0,0
i,0x00000000,1720563455.776334,172.16.1.2,25004,172.16.3.2,5101,17680,24689,0,65728,65728,6,6,4,1460,1206,1,992,65,58156,56708,65700,0,24616,0,0,0
o,0x00000000,1720563455.776361,172.16.1.2,25004,172.16.3.2,5101,17680,24689,0,64256,65728,6,6,4,1460,1212,1,992,65,58156,53812,65700,0,21720,0,0,0
o,0x00000000,1720563455.776633,172.16.1.2,25004,172.16.3.2,5101,17680,24689,0,64256,65728,6,6,4,1460,1212,1,992,65,58156,53812,65700,0,23168,0,0,0
i,0x00000000,1720563455.833123,172.16.1.2,25004,172.16.3.2,5101,17680,24689,0,64256,65728,6,6,4,1460,1212,1,992,65,58156,58156,65700,0,24616,0,0,0
o,0x00000000,1720563455.833137,172.16.1.2,25004,172.16.3.2,5101,17680,24689,0,65728,65728,6,6,4,1460,1225,1,992,67,58156,56708,65700,0,23168,0,0,0
i,0x00000000,1720563455.833230,172.16.1.2,25004,172.16.3.2,5101,17680,24689,0,65728,65728,6,6,4,1460,1225,1,992,67,58156,56708,65700,0,24616,0,0,0
o,0x00000000,1720563455.833235,172.16.1.2,25004,172.16.3.2,5101,17680,26064,0,65728,65728,6,6,4,1460,1225,1,992,67,58156,56708,65700,0,24616,0,0,0
i,0x00000000,1720563455.842248,172.16.1.2,25004,172.16.3.2,5101,17680,24689,0,65728,65728,6,6,4,1460,1225,1,992,67,58156,56708,65700,0,26064,0,0,0
o,0x00000000,1720563455.842270,172.16.1.2,25004,172.16.3.2,5101,17680,27512,0,65728,65728,6,6,4,1460,1225,1,992,67,58156,56708,65700,0,26064,0,0,0
i,0x00000000,1720563455.898270,172.16.1.2,25004,172.16.3.2,5101,17680,24689,0,65728,65728,6,6,4,1460,1225,1,992,67,58156,56708,65700,0,27512,0,0,0
o,0x00000000,1720563455.898289,172.16.1.2,25004,172.16.3.2,5101,12344,1448,0,65728,65728,6,6,4,1460,1225,1,537920480,67,58156,56708,65700,0,27512,0,0,0
i,0x00000000,1720563455.898877,172.16.1.2,25004,172.16.3.2,5101,12344,1448,0,65728,65728,6,6,4,1460,1225,1,537920480,67,58156,56708,65700,0,27512,0,0,0
i,0x00000000,1720563455.941918,172.16.1.2,25004,172.16.3.2,5101,12344,1448,0,65728,65728,6,6,4,1460,1225,1,537920480,67,58156,56708,65700,0,27512,0,0,0
o,0x00000000,1720563455.941964,172.16.1.2,25004,172.16.3.2,5101,12344,2896,0,65728,65728,6,6,4,1460,1225,1,537920480,67,58156,56708,65700,0,27512,0,0,0
i,0x00000000,1720563455.942405,172.16.1.2,25004,172.16.3.2,5101,12344,2896,0,65728,65728,6,6,4,1460,1225,1,537920480,67,58156,56708,65700,0,27512,0,0,0
i,0x00000000,1720563455.960240,172.16.1.2,25004,172.16.3.2,5101,12344,2896,0,65728,65728,6,6,4,1460,1225,1,537920480,67,58156,56708,65700,0,27512,0,0,0
o,0x00000000,1720563455.960255,172.16.1.2,25004,172.16.3.2,5101,12344,4344,0,65728,65728,6,6,4,1460,1225,1,537920480,67,58156,56708,65700,0,27512,0,0,0
i,0x00000000,1720563455.980880,172.16.1.2,25004,172.16.3.2,5101,12344,4344,0,65728,65728,6,6,4,1460,1225,1,537920480,67,58156,56708,65700,0,28960,0,0,0
i,0x00000000,1720563455.992620,172.16.1.2,25004,172.16.3.2,5101,12344,4344,0,65728,65728,6,6,4,1460,1225,1,537920480,67,58156,56708,65700,0,28960,0,0,0
o,0x00000000,1720563455.992634,172.16.1.2,25004,172.16.3.2,5101,12344,5792,0,65728,65728,6,6,4,1460,1225,1,537920480,67,58156,56708,65700,0,28960,0,0,0
i,0x00000000,1720563456.022751,172.16.1.2,25004,172.16.3.2,5101,12344,5792,0,65728,65728,6,6,4,1460,1225,1,537920480,67,58156,56708,65700,0,30408,0,0,0
i,0x00000000,1720563456.073866,172.16.1.2,25004,172.16.3.2,5101,12344,5792,0,65728,65728,6,6,4,1460,1225,1,537920480,67,58156,56708,65700,0,30408,0,0,0
o,0x00000000,1720563456.073883,172.16.1.2,25004,172.16.3.2,5101,12344,5792,0,65728,65728,6,6,4,1460,1225,1,537920480,67,58156,56708,65700,0,30408,0,0,0
i,0x00000000,1720563456.074151,172.16.1.2,25004,172.16.3.2,5101,12344,5792,0,65728,65728,6,6,4,1460,1225,1,537920480,67,58156,56708,65700,0,30408,0,0,0
i,0x00000000,1720563456.091026,172.16.1.2,25004,172.16.3.2,5101,12344,7240,0,65728,65728,6,6,4,1460,1225,1,537920480,67,58156,56708,65700,0,30408,0,0,0
i,0x00000000,1720563456.135820,172.16.1.2,25004,172.16.3.2,5101,12344,7240,0,65728,65728,6,6,4,1460,1225,1,537920480,67,58156,56708,65700,0,30408,0,0,0
o,0x00000000,1720563456.135840,172.16.1.2,25004,172.16.3.2,5101,12344,8688,0,65728,65728,6,6,4,1460,1225,1,537920480,67,58156,56708,65700,0,30408,0,0,0
i,0x00000000,1720563456.136519,172.16.1.2,25004,172.16.3.2,5101,12344,8688,0,65728,65728,6,6,4,1460,1225,1,537920480,67,58156,56708,65700,0,31856,0,0,0
o,0x00000000,1720563456.136530,172.16.1.2,25004,172.16.3.2,5101,12344,10136,0,65728,65728,6,6,4,1460,1225,1,537920480,67,58156,56708,65700,0,31856,0,0,0
i,0x00000000,1720563456.136616,172.16.1.2,25004,172.16.3.2,5101,12344,10136,0,65728,65728,6,6,4,1460,1225,1,537920480,67,58156,56708,65700,0,33304,0,0,0
o,0x00000000,1720563456.136621,172.16.1.2,25004,172.16.3.2,5101,12344,11584,0,65728,65728,6,6,4,1460,1225,1,537920480,67,58156,56708,65700,0,33304,0,0,0
i,0x00000000,1720563456.162675,172.16.1.2,25004,172.16.3.2,5101,12344,11584,0,65728,65728,6,6,4,1460,1225,1,537920480,67,58156,56708,65700,0,34752,0,0,0
o,0x00000000,1720563456.162694,172.16.1.2,25004,172.16.3.2,5101,12344,13032,0,65728,65728,6,6,4,1460,1225,1,537920480,67,58156,56708,65700,0,34752,0,0,0
i,0x00000000,1720563456.184342,172.16.1.2,25004,172.16.3.2,5101,12344,13032,0,65728,65728,6,6,4,1460,1225,1,537920480,67,58156,56708,65700,0,36200,0,0,0
o,0x00000000,1720563456.184356,172.16.1.2,25004,172.16.3.2,5101,12344,14480,0,65728,65728,6,6,4,1460,1225,1,537920480,67,58156,56708,65700,0,36200,0,0,0
i,0x00000000,1720563456.222631,172.16.1.2,25004,172.16.3.2,5101,12344,14480,0,65728,65728,6,6,4,1460,1225,1,537920480,67,58156,56708,65700,0,37648,0,0,0
o,0x00000000,1720563456.222676,172.16.1.2,25004,172.16.3.2,5101,12344,14480,0,65728,65728,6,6,4,1460,1225,1,537920480,67,58156,56708,65700,0,37648,0,0,0
i,0x00000000,1720563456.291091,172.16.1.2,25004,172.16.3.2,5101,12344,14480,0,65728,65728,6,6,4,1460,1225,1,537920480,67,58156,56708,65700,0,39096,0,0,0
o,0x00000000,1720563456.291106,172.16.1.2,25004,172.16.3.2,5101,12344,15928,0,65728,65728,6,6,4,1460,1225,1,537920480,67,58156,56708,65700,0,39096,0,0,0
i,0x00000000,1720563456.296154,172.16.1.2,25004,172.16.3.2,5101,12344,15928,0,65728,65728,6,6,4,1460,1225,1,537920480,67,58156,56708,65700,0,40544,0,0,0
o,0x00000000,1720563456.296184,172.16.1.2,25004,172.16.3.2,5101,12344,17376,0,65728,65728,6,6,4,1460,1225,1,537920480,67,66348,56708,65700,0,40544,0,0,0
i,0x00000000,1720563456.333118,172.16.1.2,25004,172.16.3.2,5101,12344,17376,0,65728,65728,6,6,4,1460,1225,1,537920480,67,66348,56708,65700,0,41992,0,0,0
o,0x00000000,1720563456.333133,172.16.1.2,25004,172.16.3.2,5101,12344,18824,0,65728,65728,6,6,4,1460,1225,1,537920480,67,66348,56708,65700,0,41992,0,0,0
i,0x00000000,1720563456.333432,172.16.1.2,25004,172.16.3.2,5101,12344,18824,0,65728,65728,6,6,4,1460,1225,1,537920480,67,66348,56708,65700,0,43440,0,0,0
o,0x00000000,1720563456.333439,172.16.1.2,25004,172.16.3.2,5101,12344,20272,0,65728,65728,6,6,4,1460,1225,1,537920480,67,66348,56708,65700,0,43440,0,0,0
i,0x00000000,1720563456.384380,172.16.1.2,25004,172.16.3.2,5101,12344,20272,0,65728,65728,6,6,4,1460,1225,1,537920480,67,66348,56708,65700,0,44888,0,0,0
o,0x00000000,1720563456.384397,172.16.1.2,25004,172.16.3.2,5101,12344,21720,0,65728,65728,6,6,4,1460,1225,1,537920480,67,66348,56708,65700,0,44888,0,0,0
i,0x00000000,1720563456.390079,172.16.1.2,25004,172.16.3.2,5101,12344,21720,0,65728,65728,6,6,4,1460,1225,1,537920480,67,66348,56708,65700,0,46336,0,0,0
o,0x00000000,1720563456.390111,172.16.1.2,25004,172.16.3.2,5101,12344,23168,0,65728,65728,6,6,4,1460,1225,1,537920480,67,66348,56708,65700,0,46336,0,0,0
i,0x00000000,1720563456.433774,172.16.1.2,25004,172.16.3.2,5101,12344,23168,0,65728,65728,6,6,4,1460,1225,1,537920480,67,66348,56708,65700,0,47784,0,0,0
o,0x00000000,1720563456.433813,172.16.1.2,25004,172.16.3.2,5101,12344,24616,0,65728,65728,6,6,4,1460,1225,1,537920480,67,66348,56708,65700,0,47784,0,0,0
i,0x00000000,1720563456.485864,172.16.1.2,25004,172.16.3.2,5101,12344,24616,0,65728,65728,6,6,4,1460,1225,1,537920480,67,66348,56708,65700,0,49232,0,0,0
o,0x00000000,1720563456.485894,172.16.1.2,25004,172.16.3.2,5101,12344,26064,0,65728,65728,6,6,4,1460,1225,1,537920480,67,66348,56708,65700,0,49232,0,0,0
i,0x00000000,1720563456.487622,172.16.1.2,25004,172.16.3.2,5101,12344,26064,0,65728,65728,6,6,4,1460,1225,1,537920480,67,66348,56708,65700,0,50680,0,0,0
o,0x00000000,1720563456.487646,172.16.1.2,25004,172.16.3.2,5101,12344,27512,0,65728,65728,6,6,4,1460,1225,1,537920480,67,66348,56708,65700,0,50680,0,0,0
i,0x00000000,1720563456.545159,172.16.1.2,25004,172.16.3.2,5101,12344,27512,0,65728,65728,6,6,4,1460,1225,1,537920480,67,66348,56708,65700,0,52128,0,0,0
o,0x00000000,1720563456.545204,172.16.1.2,25004,172.16.3.2,5101,12344,28960,0,65728,65728,6,6,4,1460,1225,1,537920480,67,66348,56708,65700,0,52128,0,0,0
i,0x00000000,1720563456.547162,172.16.1.2,25004,172.16.3.2,5101,12344,28960,0,65728,65728,6,6,4,1460,1225,1,537920480,67,66348,56708,65700,0,53576,0,0,0
o,0x00000000,1720563456.547201,172.16.1.2,25004,172.16.3.2,5101,12344,30408,0,65728,65728,6,6,4,1460,1225,1,537920480,67,66348,56708,65700,0,53576,0,0,0
o,0x00000000,1720563456.566955,172.16.1.2,25004,172.16.3.2,5101,14480,1448,0,65728,65728,6,6,4,1460,1225,1,1075848161,114,66348,56708,65700,0,55024,0,0,0
i,0x00000000,1720563456.595392,172.16.1.2,25004,172.16.3.2,5101,14480,1448,0,65728,65728,6,6,4,1460,1225,1,1075848160,114,66348,56708,65700,0,55024,0,0,0
o,0x00000000,1720563456.595405,172.16.1.2,25004,172.16.3.2,5101,12344,31856,0,65728,65728,6,6,4,1460,1225,1,1613759456,114,66348,56708,65700,0,55024,0,0,0
o,0x00000000,1720563456.595689,172.16.1.2,25004,172.16.3.2,5101,12344,31856,0,65728,65728,6,6,4,1460,1225,1,1613759456,114,66348,56708,65700,0,55024,0,0,0
o,0x00000000,1720563456.595828,172.16.1.2,25004,172.16.3.2,5101,12344,31856,0,65728,65728,6,6,4,1460,1225,1,1613759456,114,66348,56708,65700,0,55024,0,0,0
i,0x00000000,1720563456.596375,172.16.1.2,25004,172.16.3.2,5101,12344,31856,0,65728,65728,6,6,4,1460,1225,1,1613759456,114,66348,56708,65700,0,56472,0,0,0
i,0x00000000,1720563456.645351,172.16.1.2,25004,172.16.3.2,5101,12344,33304,0,65728,65728,6,6,4,1460,1225,1,1613759456,114,66348,56708,65700,0,56472,0,0,0
i,0x00000000,1720563456.667885,172.16.1.2,25004,172.16.3.2,5101,12344,34752,0,65728,65728,6,6,4,1460,1225,1,1613759456,114,66348,56708,65700,0,56472,0,0,0
i,0x00000000,1720563456.746170,172.16.1.2,25004,172.16.3.2,5101,12344,36200,0,65728,65728,6,6,4,1460,1225,1,1613759456,114,66348,56708,65700,0,56472,0,0,0
i,0x00000000,1720563456.763785,172.16.1.2,25004,172.16.3.2,5101,12344,37648,0,65728,65728,6,6,4,1460,1225,1,1613759456,114,66348,56708,65700,0,56472,0,0,0
i,0x00000000,1720563456.765113,172.16.1.2,25004,172.16.3.2,5101,12344,39096,0,65728,65728,6,6,4,1460,1225,1,1613759456,114,66348,56708,65700,0,56472,0,0,0
o,0x00000000,1720563456.765130,172.16.1.2,25004,172.16.3.2,5101,12344,39096,0,65728,65728,6,6,4,1460,1225,1,1613759457,114,66348,56708,65700,0,56472,0,0,0
i,0x00000000,1720563456.766640,172.16.1.2,25004,172.16.3.2,5101,12344,39096,0,64320,65728,6,6,4,1460,1152,1,1613759456,81,66348,55260,65700,0,55260,0,0,0
i,0x00000000,1720563456.766722,172.16.1.2,25004,172.16.3.2,5101,12344,39096,0,65728,65728,6,6,4,1460,1152,1,1613759456,81,66348,55260,65700,0,55260,0,0,0
i,0x00000000,1720563456.766735,172.16.1.2,25004,172.16.3.2,5101,12344,3144,0,12160,65728,6,6,4,1460,1076,1,1075839968,91,66348,1684,65700,0,1684,0,0,0
o,0x00000000,1720563456.767134,172.16.1.2,25004,172.16.3.2,5101,12344,3144,0,12160,65728,6,6,4,1460,1076,1,1075839968,91,66348,66348,65700,0,1684,0,0,0
i,0x00000000,1720563456.810197,172.16.1.2,25004,172.16.3.2,5101,12344,3144,0,12160,65728,6,6,4,1460,1076,1,1075839968,91,66348,66348,65700,0,3132,0,0,0
o,0x00000000,1720563456.810222,172.16.1.2,25004,172.16.3.2,5101,12344,4592,0,65728,65728,6,6,4,1460,1026,1,1075839968,93,66348,64900,65700,0,1684,0,0,0
o,0x00000000,1720563456.810858,172.16.1.2,25004,172.16.3.2,5101,12344,4592,0,65728,65728,6,6,4,1460,1026,1,1075839968,93,66348,64900,65700,0,3132,0,0,0
i,0x00000000,1720563456.920050,172.16.1.2,25004,172.16.3.2,5101,12344,4592,0,65728,65728,6,6,4,1460,1026,1,1075839968,93,66348,64900,65700,0,4580,0,0,0
o,0x00000000,1720563456.920093,172.16.1.2,25004,172.16.3.2,5101,12344,6276,0,64256,65728,6,6,4,1460,962,1,1075839968,96,66348,63216,65700,0,2896,0,0,0
o,0x00000000,1720563456.921458,172.16.1.2,25004,172.16.3.2,5101,12344,6276,0,64256,65728,6,6,4,1460,962,1,1075839968,96,66348,63216,65700,0,4344,0,0,0
i,0x00000000,1720563456.946709,172.16.1.2,25004,172.16.3.2,5101,12344,6276,0,64256,65728,6,6,4,1460,962,1,1075839968,96,66348,66348,65700,0,5792,0,0,0
o,0x00000000,1720563456.946746,172.16.1.2,25004,172.16.3.2,5101,12344,9172,0,64256,65728,6,6,4,1460,898,1,1075839968,99,66348,63452,65700,0,2896,0,0,0
o,0x00000000,1720563456.947810,172.16.1.2,25004,172.16.3.2,5101,12344,9172,0,64256,65728,6,6,4,1460,898,1,1075839968,99,66348,63452,65700,0,4344,0,0,0
o,0x00000000,1720563456.948759,172.16.1.2,25004,172.16.3.2,5101,12344,9172,0,64256,65728,6,6,4,1460,898,1,1075839968,99,66348,63452,65700,0,5792,0,0,0
o,0x00000000,1720563456.949430,172.16.1.2,25004,172.16.3.2,5101,12344,9172,0,64256,65728,6,6,4,1460,898,1,1075839968,99,66348,63452,65700,0,7240,0,0,0
i,0x00000000,1720563457.083021,172.16.1.2,25004,172.16.3.2,5101,12344,9172,0,64256,65728,6,6,4,1460,898,1,1075839968,99,66348,66348,65700,0,8688,0,0,0
o,0x00000000,1720563457.083041,172.16.1.2,25004,172.16.3.2,5101,12344,12068,0,64256,65728,6,6,4,1460,850,1,1075839968,97,66348,63452,65700,0,5792,0,0,0
o,0x00000000,1720563457.083409,172.16.1.2,25004,172.16.3.2,5101,12344,12068,0,64256,65728,6,6,4,1460,850,1,1075839968,97,66348,63452,65700,0,7240,0,0,0
o,0x00000000,1720563457.083746,172.16.1.2,25004,172.16.3.2,5101,12344,12068,0,64256,65728,6,6,4,1460,850,1,1075839968,97,66348,63452,65700,0,8688,0,0,0
o,0x00000000,1720563457.084082,172.16.1.2,25004,172.16.3.2,5101,12344,12068,0,64256,65728,6,6,4,1460,850,1,1075839968,97,66348,63452,65700,0,10136,0,0,0
i,0x00000000,1720563457.112231,172.16.1.2,25004,172.16.3.2,5101,12344,12068,0,64256,65728,6,6,4,1460,850,1,1075839968,97,66348,66348,65700,0,11584,0,0,0
o,0x00000000,1720563457.112273,172.16.1.2,25004,172.16.3.2,5101,12344,14964,0,64256,65728,6,6,4,1460,808,1,1075839968,93,66348,63452,65700,0,8688,0,0,0
o,0x00000000,1720563457.112670,172.16.1.2,25004,172.16.3.2,5101,12344,14964,0,64256,65728,6,6,4,1460,808,1,1075839968,93,66348,63452,65700,0,10136,0,0,0
o,0x00000000,1720563457.113020,172.16.1.2,25004,172.16.3.2,5101,12344,14964,0,64256,65728,6,6,4,1460,808,1,1075839968,93,66348,63452,65700,0,11584,0,0,0
o,0x00000000,1720563457.113293,172.16.1.2,25004,172.16.3.2,5101,12344,14964,0,64256,65728,6,6,4,1460,808,1,1075839968,93,66348,63452,65700,0,13032,0,0,0
i,0x00000000,1720563457.143068,172.16.1.2,25004,172.16.3.2,5101,12344,14964,0,64256,65728,6,6,4,1460,808,1,1075839968,93,66348,66348,65700,0,14480,0,0,0
o,0x00000000,1720563457.143090,172.16.1.2,25004,172.16.3.2,5101,12344,14964,0,64256,65728,6,6,4,1460,783,1,1075839968,87,66348,63452,65700,0,11584,0,0,0
o,0x00000000,1720563457.143481,172.16.1.2,25004,172.16.3.2,5101,12344,14964,0,64256,65728,6,6,4,1460,783,1,1075839968,87,66348,63452,65700,0,13032,0,0,0
i,0x00000000,1720563457.292575,172.16.1.2,25004,172.16.3.2,5101,12344,14964,0,64256,65728,6,6,4,1460,783,1,1075839968,87,66348,66348,65700,0,14480,0,0,0
o,0x00000000,1720563457.292600,172.16.1.2,25004,172.16.3.2,5101,12344,14964,0,64256,65728,6,6,4,1460,770,1,1075839968,79,66348,63452,65700,0,11584,0,0,0
o,0x00000000,1720563457.293093,172.16.1.2,25004,172.16.3.2,5101,12344,14964,0,64256,65728,6,6,4,1460,770,1,1075839968,79,66348,63452,65700,0,13032,0,0,0
i,0x00000000,1720563457.344567,172.16.1.2,25004,172.16.3.2,5101,12344,14964,0,64256,65728,6,6,4,1460,770,1,1075839968,79,66348,66348,65700,0,14480,0,0,0
o,0x00000000,1720563457.344600,172.16.1.2,25004,172.16.3.2,5101,12344,14964,0,64256,65728,6,6,4,1460,778,1,1075839968,73,66348,63452,65700,0,11584,0,0,0
o,0x00000000,1720563457.345189,172.16.1.2,25004,172.16.3.2,5101,12344,14964,0,64256,65728,6,6,4,1460,778,1,1075839968,73,66348,63452,65700,0,13032,0,0,0
i,0x00000000,1720563457.375307,172.16.1.2,25004,172.16.3.2,5101,12344,14964,0,64256,65728,6,6,4,1460,778,1,1075839968,73,66348,66348,65700,0,14480,0,0,0
o,0x00000000,1720563457.375323,172.16.1.2,25004,172.16.3.2,5101,12344,14964,0,64256,65728,6,6,4,1460,785,1,1075839968,68,66348,63452,65700,0,11584,0,0,0
o,0x00000000,1720563457.375608,172.16.1.2,25004,172.16.3.2,5101,12344,14964,0,64256,65728,6,6,4,1460,785,1,1075839968,68,66348,63452,65700,0,13032,0,0,0
i,0x00000000,1720563457.395596,172.16.1.2,25004,172.16.3.2,5101,12344,14964,0,64256,65728,6,6,4,1460,785,1,1075839968,68,66348,66348,65700,0,14480,0,0,0
o,0x00000000,1720563457.395616,172.16.1.2,25004,172.16.3.2,5101,12344,14964,0,64256,65728,6,6,4,1460,799,1,1075839968,66,66348,63452,65700,0,11584,0,0,0
o,0x00000000,1720563457.396190,172.16.1.2,25004,172.16.3.2,5101,12344,14964,0,64256,65728,6,6,4,1460,799,1,1075839968,66,66348,63452,65700,0,13032,0,0,0
i,0x00000000,1720563457.427580,172.16.1.2,25004,172.16.3.2,5101,12344,14964,0,64256,65728,6,6,4,1460,799,1,1075839968,66,66348,66348,65700,0,14480,0,0,0
o,0x00000000,1720563457.427610,172.16.1.2,25004,172.16.3.2,5101,12344,16424,0,64256,65728,6,6,4,1460,816,1,1075839968,65,66348,63452,65700,0,11584,0,0,0
o,0x00000000,1720563457.427878,172.16.1.2,25004,172.16.3.2,5101,12344,16424,0,64256,65728,6,6,4,1460,816,1,1075839968,65,66348,63452,65700,0,13032,0,0,0
o,0x00000000,1720563457.428116,172.16.1.2,25004,172.16.3.2,5101,12344,16424,0,64256,65728,6,6,4,1460,816,1,1075839968,65,66348,63452,65700,0,14480,0,0,0
i,0x00000000,1720563457.489062,172.16.1.2,25004,172.16.3.2,5101,12344,16424,0,64256,65728,6,6,4,1460,816,1,1075839968,65,66348,66348,65700,0,15928,0,0,0
o,0x00000000,1720563457.489083,172.16.1.2,25004,172.16.3.2,5101,12344,16424,0,64256,65728,6,6,4,1460,790,1,1075839968,66,66348,63452,65700,0,13032,0,0,0
o,0x00000000,1720563457.490039,172.16.1.2,25004,172.16.3.2,5101,12344,16424,0,64256,65728,6,6,4,1460,790,1,1075839968,66,66348,63452,65700,0,14480,0,0,0
i,0x00000000,1720563457.565906,172.16.1.2,25004,172.16.3.2,5101,12344,16424,0,64256,65728,6,6,4,1460,790,1,1075839968,66,66348,66348,65700,0,15928,0,0,0
o,0x00000000,1720563457.565920,172.16.1.2,25004,172.16.3.2,5101,12344,16424,0,64256,65728,6,6,4,1460,780,1,1075839968,63,66348,63452,65700,0,13032,0,0,0
o,0x00000000,1720563457.566274,172.16.1.2,25004,172.16.3.2,5101,12344,16424,0,64256,65728,6,6,4,1460,780,1,1075839968,63,66348,63452,65700,0,14480,0,0,0
i,0x00000000,1720563457.622496,172.16.1.2,25004,172.16.3.2,5101,12344,16424,0,64256,65728,6,6,4,1460,780,1,1075839968,63,66348,66348,65700,0,15928,0,0,0
o,0x00000000,1720563457.622520,172.16.1.2,25004,172.16.3.2,5101,12344,16424,0,64256,65728,6,6,4,1460,783,1,1075839968,59,66348,63452,65700,0,13032,0,0,0
o,0x00000000,1720563457.623080,172.16.1.2,25004,172.16.3.2,5101,12344,16424,0,64256,65728,6,6,4,1460,783,1,1075839968,59,66348,63452,65700,0,14480,0,0,0
i,0x00000000,1720563457.654735,172.16.1.2,25004,172.16.3.2,5101,12344,16424,0,64256,65728,6,6,4,1460,783,1,1075839968,59,66348,66348,65700,0,15928,0,0,0
o,0x00000000,1720563457.654752,172.16.1.2,25004,172.16.3.2,5101,12344,16424,0,64256,65728,6,6,4,1460,790,1,1075839968,57,66348,63452,65700,0,13032,0,0,0
o,0x00000000,1720563457.655020,172.16.1.2,25004,172.16.3.2,5101,12344,16424,0,64256,65728,6,6,4,1460,790,1,1075839968,57,66348,63452,65700,0,14480,0,0,0
i,0x00000000,1720563457.704660,172.16.1.2,25004,172.16.3.2,5101,12344,16424,0,64256,65728,6,6,4,1460,790,1,1075839968,57,66348,66348,65700,0,15928,0,0,0
o,0x00000000,1720563457.704674,172.16.1.2,25004,172.16.3.2,5101,12344,17884,0,64256,65728,6,6,4,1460,796,1,1075839968,56,66348,63452,65700,0,13032,0,0,0
o,0x00000000,1720563457.704950,172.16.1.2,25004,172.16.3.2,5101,12344,17884,0,64256,65728,6,6,4,1460,796,1,1075839968,56,66348,63452,65700,0,14480,0,0,0
o,0x00000000,1720563457.705236,172.16.1.2,25004,172.16.3.2,5101,12344,17884,0,64256,65728,6,6,4,1460,796,1,1075839968,56,66348,63452,65700,0,15928,0,0,0
i,0x00000000,1720563457.743142,172.16.1.2,25004,172.16.3.2,5101,12344,17884,0,64256,65728,6,6,4,1460,796,1,1075839968,56,66348,66348,65700,0,17376,0,0,0
o,0x00000000,1720563457.743174,172.16.1.2,25004,172.16.3.2,5101,12344,17884,0,64256,65728,6,6,4,1460,817,1,1075839968,59,66348,63452,65700,0,14480,0,0,0
o,0x00000000,1720563457.743431,172.16.1.2,25004,172.16.3.2,5101,12344,17884,0,64256,65728,6,6,4,1460,817,1,1075839968,59,66348,63452,65700,0,15928,0,0,0
i,0x00000000,1720563457.782835,172.16.1.2,25004,172.16.3.2,5101,12344,17884,0,64256,65728,6,6,4,1460,817,1,1075839968,59,66348,66348,65700,0,17376,0,0,0
o,0x00000000,1720563457.782851,172.16.1.2,25004,172.16.3.2,5101,12344,17884,0,65728,65728,6,6,4,1460,831,1,1075839968,59,66348,64900,65700,0,15928,0,0,0
i,0x00000000,1720563457.840028,172.16.1.2,25004,172.16.3.2,5101,12344,17884,0,65728,65728,6,6,4,1460,831,1,1075839968,59,66348,64900,65700,0,17376,0,0,0
o,0x00000000,1720563457.840049,172.16.1.2,25004,172.16.3.2,5101,12344,17884,0,64256,65728,6,6,4,1460,840,1,1075839968,59,66348,62004,65700,0,14480,0,0,0
o,0x00000000,1720563457.840399,172.16.1.2,25004,172.16.3.2,5101,12344,17884,0,64256,65728,6,6,4,1460,840,1,1075839968,59,66348,62004,65700,0,15928,0,0,0
i,0x00000000,1720563457.881469,172.16.1.2,25004,172.16.3.2,5101,12344,17884,0,64256,65728,6,6,4,1460,840,1,1075839968,59,66348,66348,65700,0,17376,0,0,0
o,0x00000000,1720563457.881483,172.16.1.2,25004,172.16.3.2,5101,12344,17884,0,65728,65728,6,6,4,1460,839,1,1075839968,56,66348,64900,65700,0,15928,0,0,0
i,0x00000000,1720563457.910653,172.16.1.2,25004,172.16.3.2,5101,12344,17884,0,65728,65728,6,6,4,1460,839,1,1075839968,56,66348,64980,65700,0,17376,0,0,0
o,0x00000000,1720563457.910676,172.16.1.2,25004,172.16.3.2,5101,12344,17884,0,64256,65728,6,6,4,1460,851,1,1075839968,57,66348,62084,65700,0,14480,0,0,0
o,0x00000000,1720563457.910936,172.16.1.2,25004,172.16.3.2,5101,12344,17884,0,64256,65728,6,6,4,1460,851,1,1075839968,57,66348,62084,65700,0,15928,0,0,0
i,0x00000000,1720563457.979056,172.16.1.2,25004,172.16.3.2,5101,12344,17884,0,64256,65728,6,6,4,1460,851,1,1075839968,57,66348,66348,65700,0,17376,0,0,0
o,0x00000000,1720563457.979102,172.16.1.2,25004,172.16.3.2,5101,12344,17884,0,64256,65728,6,6,4,1460,873,1,1075839968,60,66348,63452,65700,0,14480,0,0,0
o,0x00000000,1720563457.980580,172.16.1.2,25004,172.16.3.2,5101,12344,17884,0,64256,65728,6,6,4,1460,873,1,1075839968,60,66348,63452,65700,0,15928,0,0,0
i,0x00000000,1720563457.981917,172.16.1.2,25004,172.16.3.2,5101,12344,17884,0,64256,65728,6,6,4,1460,873,1,1075839968,60,66348,66348,65700,0,17376,0,0,0
o,0x00000000,1720563457.981928,172.16.1.2,25004,172.16.3.2,5101,12344,17884,0,64256,65728,6,6,4,1460,876,1,1075839968,58,66348,63452,65700,0,14480,0,0,0
o,0x00000000,1720563457.982175,172.16.1.2,25004,172.16.3.2,5101,12344,17884,0,64256,65728,6,6,4,1460,876,1,1075839968,58,66348,63452,65700,0,15928,0,0,0
i,0x00000000,1720563458.037375,172.16.1.2,25004,172.16.3.2,5101,12344,17884,0,64256,65728,6,6,4,1460,876,1,1075839968,58,66348,66348,65700,0,17376,0,0,0
o,0x00000000,1720563458.037390,172.16.1.2,25004,172.16.3.2,5101,12344,19344,0,64256,65728,6,6,4,1460,887,1,1075839968,58,66348,63452,65700,0,14480,0,0,0
o,0x00000000,1720563458.037643,172.16.1.2,25004,172.16.3.2,5101,12344,19344,0,64256,65728,6,6,4,1460,887,1,1075839968,58,66348,63452,65700,0,15928,0,0,0
o,0x00000000,1720563458.037877,172.16.1.2,25004,172.16.3.2,5101,12344,19344,0,64256,65728,6,6,4,1460,887,1,1075839968,58,66348,63452,65700,0,17376,0,0,0
i,0x00000000,1720563458.102932,172.16.1.2,25004,172.16.3.2,5101,12344,19344,0,64256,65728,6,6,4,1460,887,1,1075839968,58,66348,66348,65700,0,18824,0,0,0
o,0x00000000,1720563458.102945,172.16.1.2,25004,172.16.3.2,5101,12344,19344,0,64256,65728,6,6,4,1460,905,1,1075839968,61,66348,63452,65700,0,15928,0,0,0
o,0x00000000,1720563458.103531,172.16.1.2,25004,172.16.3.2,5101,12344,19344,0,64256,65728,6,6,4,1460,905,1,1075839968,61,66348,63452,65700,0,17376,0,0,0
i,0x00000000,1720563458.164413,172.16.1.2,25004,172.16.3.2,5101,12344,19344,0,64256,65728,6,6,4,1460,905,1,1075839968,61,66348,66348,65700,0,18824,0,0,0
o,0x00000000,1720563458.164433,172.16.1.2,25004,172.16.3.2,5101,12344,19344,0,64256,65728,6,6,4,1460,920,1,1075839968,62,66348,63452,65700,0,15928,0,0,0
o,0x00000000,1720563458.164715,172.16.1.2,25004,172.16.3.2,5101,12344,19344,0,64256,65728,6,6,4,1460,920,1,1075839968,62,66348,63452,65700,0,17376,0,0,0
i,0x00000000,1720563458.205350,172.16.1.2,25004,172.16.3.2,5101,12344,19344,0,64256,65728,6,6,4,1460,920,1,1075839968,62,66348,66348,65700,0,18824,0,0,0
o,0x00000000,1720563458.205381,172.16.1.2,25004,172.16.3.2,5101,12344,19344,0,62848,65728,6,6,4,1460,917,1,1075839968,59,66348,63452,65700,0,15928,0,0,0
o,0x00000000,1720563458.206680,172.16.1.2,25004,172.16.3.2,5101,12344,19344,0,62848,65728,6,6,4,1460,917,1,1075839968,59,66348,63452,65700,0,17376,0,0,0
i,0x00000000,1720563458.254439,172.16.1.2,25004,172.16.3.2,5101,12344,19344,0,62848,65728,6,6,4,1460,917,1,1075839968,59,66348,66348,65700,0,18824,0,0,0
o,0x00000000,1720563458.254454,172.16.1.2,25004,172.16.3.2,5101,12344,19344,0,64256,65728,6,6,4,1460,911,1,1075839968,58,66348,63452,65700,0,15928,0,0,0
o,0x00000000,1720563458.254709,172.16.1.2,25004,172.16.3.2,5101,12344,19344,0,64256,65728,6,6,4,1460,911,1,1075839968,58,66348,63452,65700,0,17376,0,0,0
i,0x00000000,1720563458.314409,172.16.1.2,25004,172.16.3.2,5101,12344,19344,0,64256,65728,6,6,4,1460,911,1,1075839968,58,66348,66348,65700,0,18824,0,0,0
o,0x00000000,1720563458.314426,172.16.1.2,25004,172.16.3.2,5101,12344,19344,0,65728,65728,6,6,4,1460,930,1,1075839968,61,66348,64900,65700,0,17376,0,0,0
i,0x00000000,1720563458.314732,172.16.1.2,25004,172.16.3.2,5101,12344,19344,0,65728,65728,6,6,4,1460,930,1,1075839968,61,66348,64900,65700,0,18824,0,0,0
o,0x00000000,1720563458.314739,172.16.1.2,25004,172.16.3.2,5101,12344,19344,0,64256,65728,6,6,4,1460,946,1,1075839968,62,66348,62004,65700,0,15928,0,0,0
o,0x00000000,1720563458.314999,172.16.1.2,25004,172.16.3.2,5101,12344,19344,0,64256,65728,6,6,4,1460,946,1,1075839968,62,66348,62004,65700,0,17376,0,0,0
i,0x00000000,1720563458.370813,172.16.1.2,25004,172.16.3.2,5101,12344,19344,0,64256,65728,6,6,4,1460,946,1,1075839968,62,66348,66348,65700,0,18824,0,0,0
o,0x00000000,1720563458.370841,172.16.1.2,25004,172.16.3.2,5101,12344,20804,0,64256,65728,6,6,4,1460,960,1,1075839968,63,66348,63452,65700,0,15928,0,0,0
o,0x00000000,1720563458.371959,172.16.1.2,25004,172.16.3.2,5101,12344,20804,0,64256,65728,6,6,4,1460,960,1,1075839968,63,66348,63452,65700,0,17376,0,0,0
o,0x00000000,1720563458.372931,172.16.1.2,25004,172.16.3.2,5101,12344,20804,0,64256,65728,6,6,4,1460,960,1,1075839968,63,66348,63452,65700,0,18824,0,0,0
i,0x00000000,1720563458.412177,172.16.1.2,25004,172.16.3.2,5101,12344,20804,0,64256,65728,6,6,4,1460,960,1,1075839968,63,66348,66348,65700,0,20272,0,0,0
o,0x00000000,1720563458.412193,172.16.1.2,25004,172.16.3.2,5101,12344,20804,0,64256,65728,6,6,4,1460,964,1,1075839968,61,66348,63452,65700,0,17376,0,0,0
o,0x00000000,1720563458.412478,172.16.1.2,25004,172.16.3.2,5101,12344,20804,0,64256,65728,6,6,4,1460,964,1,1075839968,61,66348,63452,65700,0,18824,0,0,0
i,0x00000000,1720563458.473433,172.16.1.2,25004,172.16.3.2,5101,12344,20804,0,64256,65728,6,6,4,1460,964,1,1075839968,61,66348,66348,65700,0,20272,0,0,0
o,0x00000000,1720563458.473476,172.16.1.2,25004,172.16.3.2,5101,12344,20804,0,65728,65728,6,6,4,1460,968,1,1075839968,59,66348,64900,65700,0,18824,0,0,0
i,0x00000000,1720563458.474859,172.16.1.2,25004,172.16.3.2,5101,12344,20804,0,65728,65728,6,6,4,1460,968,1,1075839968,59,66348,64900,65700,0,20272,0,0,0
o,0x00000000,1720563458.474905,172.16.1.2,25004,172.16.3.2,5101,12344,23168,0,65728,65728,6,6,4,1460,968,1,1075839968,59,66348,64900,65700,0,20272,0,0,0
o,0x00000000,1720563458.475866,172.16.1.2,25004,172.16.3.2,5101,12344,23168,0,65728,65728,6,6,4,1460,968,1,1075839968,59,66348,64900,65700,0,21720,0,0,0
i,0x00000000,1720563458.526110,172.16.1.2,25004,172.16.3.2,5101,12344,20804,0,65728,65728,6,6,4,1460,968,1,1075839968,59,66348,64900,65700,0,23168,0,0,0
o,0x00000000,1720563458.526142,172.16.1.2,25004,172.16.3.2,5101,10402,1448,0,65728,65728,6,6,4,1460,968,1,1613759456,59,66348,64900,65700,0,23168,0,0,0
