enable_time_secs=1720561312	enable_time_usecs=267338	siftrver=1.2.4	hz=100	tcp_rtt_scale=32	sysname=FreeBSD	sysver=1301000	ipmode=4
o,0x00000000,1720561312.267372,10.0.2.15,22,10.0.2.2,56344,1073725440,17770,0,65535,65700,0,0,4,1460,1,0,4,24,33580,44,65700,0,0,0,0,0
o,0x00000000,1720561312.267556,10.0.2.15,22,10.0.2.2,56344,1073725440,17770,0,65535,65700,0,0,4,1460,1,0,4,24,33580,80,65700,0,44,0,0,0
i,0x00000000,1720561312.267984,10.0.2.15,22,10.0.2.2,56344,1073725440,17770,0,65535,65700,0,0,4,1460,1,0,4,24,33580,80,65700,0,80,0,0,0
i,0x00000000,1720561312.267989,10.0.2.15,22,10.0.2.2,56344,1073725440,17814,0,65535,65700,0,0,4,1460,1,0,4,24,33580,36,65700,0,36,0,0,0
o,0x00000000,1720561312.268053,10.0.2.15,22,10.0.2.2,56344,1073725440,17850,0,65535,65700,0,0,4,1460,1,0,4,24,33580,36,65700,0,0,0,0,0
i,0x00000000,1720561312.268703,10.0.2.15,22,10.0.2.2,56344,1073725440,17850,0,65535,65700,0,0,4,1460,1,0,4,24,33580,36,65700,0,36,0,0,0
o,0x00000000,1720561312.268788,10.0.2.15,22,10.0.2.2,56344,1073725440,17886,0,65535,65700,0,0,4,1460,1,0,4,24,33580,176,65700,0,0,0,0,0
i,0x00000000,1720561312.269489,10.0.2.15,22,10.0.2.2,56344,1073725440,17886,0,65535,65700,0,0,4,1460,1,0,4,24,33580,176,65700,0,176,0,0,0
i,0x00000000,1720561312.269497,10.0.2.15,22,10.0.2.2,56344,1073725440,18062,0,65535,65700,0,0,4,1460,1,0,4,24,33580,0,65700,0,0,0,0,0
i,0x00000000,1720561312.269500,10.0.2.15,22,10.0.2.2,56344,1073725440,18062,0,65535,65700,0,0,4,1460,1,0,4,24,33580,0,65700,96,0,0,0,0
o,0x00000000,1720561312.269505,10.0.2.15,22,10.0.2.2,56344,1073725440,18062,0,65535,65604,0,0,5,1460,1,0,5,24,33580,0,65700,96,0,0,0,0
o,0x00000000,1720561312.270576,10.0.2.15,22,10.0.2.2,56344,1073725440,18062,0,65535,65604,0,0,8,1460,1,0,4,24,33580,0,65700,0,0,0,0,0
i,0x00000000,1720561312.271470,10.0.2.15,22,10.0.2.2,56344,1073725440,18062,0,65535,65604,0,0,8,1460,1,0,20,24,33580,0,65700,0,1,0,0,0
i,0x00000000,1720561314.604764,10.0.2.15,22,10.0.2.2,56354,1073725440,14600,0,65535,65700,0,0,4,1460,1,0,0,27,33580,0,65700,0,0,0,0,0
o,0x00000000,1720561314.614303,10.0.2.15,22,10.0.2.2,56354,1073725440,14600,0,65535,65700,0,0,4,1460,1,0,0,27,33580,38,65700,42,0,0,0,0
i,0x00000000,1720561314.616594,10.0.2.15,22,10.0.2.2,56354,1073725440,14600,0,65535,65700,0,0,4,1460,1,0,0,27,33580,38,65700,42,38,0,0,0
i,0x00000000,1720561314.616618,10.0.2.15,22,10.0.2.2,56354,1073725440,14638,0,65535,65700,0,0,4,1460,1,0,0,24,33580,0,65700,42,0,0,0,0
i,0x00000000,1720561314.617017,10.0.2.15,22,10.0.2.2,56354,1073725440,14638,0,65535,65700,0,0,4,1460,1,0,0,24,33580,0,65700,1502,0,0,0,0
o,0x00000000,1720561314.617038,10.0.2.15,22,10.0.2.2,56354,1073725440,14638,0,65535,65700,0,0,4,1460,1,0,1,24,33580,0,65700,1578,0,0,0,0
o,0x00000000,1720561314.618355,10.0.2.15,22,10.0.2.2,56354,1073725440,14638,0,65535,65700,0,0,4,1460,1,0,0,24,33580,1056,65700,1536,0,0,0,0
i,0x00000000,1720561314.619220,10.0.2.15,22,10.0.2.2,56354,1073725440,14638,0,65535,65700,0,0,4,1460,1,0,0,24,33580,1056,65700,1536,1056,0,0,0
i,0x00000000,1720561314.620637,10.0.2.15,22,10.0.2.2,56354,1073725440,15694,0,65535,65700,0,0,4,1460,1,0,0,24,33580,0,65700,0,0,0,0,0
o,0x00000000,1720561314.623789,10.0.2.15,22,10.0.2.2,56354,1073725440,15694,0,65535,65700,0,0,4,1460,1,0,0,24,33580,484,65700,0,0,0,0,0
i,0x00000000,1720561314.625247,10.0.2.15,22,10.0.2.2,56354,1073725440,15694,0,65535,65700,0,0,4,1460,1,0,0,24,33580,484,65700,0,484,0,0,0
i,0x00000000,1720561314.632941,10.0.2.15,22,10.0.2.2,56354,1073725440,16178,0,65535,65700,0,0,4,1460,1,0,0,24,33580,0,65700,0,0,0,0,0
i,0x00000000,1720561314.632950,10.0.2.15,22,10.0.2.2,56354,1073725440,16178,0,65535,65700,0,0,4,1460,1,0,0,24,33580,0,65700,16,0,0,0,0
o,0x00000000,1720561314.632956,10.0.2.15,22,10.0.2.2,56354,1073725440,16178,0,65535,65700,0,0,4,1460,1,0,1,24,33580,0,65700,60,0,0,0,0
o,0x00000000,1720561314.633229,10.0.2.15,22,10.0.2.2,56354,1073725440,16178,0,65535,65700,0,0,4,1460,1,0,0,24,33580,44,65700,0,0,0,0,0
i,0x00000000,1720561314.634637,10.0.2.15,22,10.0.2.2,56354,1073725440,16178,0,65535,65700,0,0,4,1460,1,0,0,24,33580,44,65700,0,44,0,0,0
i,0x00000000,1720561314.634644,10.0.2.15,22,10.0.2.2,56354,1073725440,16222,0,65535,65700,0,0,4,1460,1,0,0,24,33580,0,65700,0,0,0,0,0
o,0x00000000,1720561314.643641,10.0.2.15,22,10.0.2.2,56354,1073725440,16222,0,65535,65700,0,0,4,1460,1,0,0,24,33580,68,65700,0,0,0,0,0
i,0x00000000,1720561314.644265,10.0.2.15,22,10.0.2.2,56354,1073725440,16222,0,65535,65700,0,0,4,1460,1,0,0,24,33580,68,65700,0,68,0,0,0
i,0x00000000,1720561314.644835,10.0.2.15,22,10.0.2.2,56354,1073725440,16290,0,65535,65700,0,0,4,1460,1,0,0,24,33580,0,65700,0,0,0,0,0
o,0x00000000,1720561314.645077,10.0.2.15,22,10.0.2.2,56354,1073725440,16290,0,65535,65700,0,0,4,1460,1,0,0,24,33580,332,65700,0,0,0,0,0
i,0x00000000,1720561314.645760,10.0.2.15,22,10.0.2.2,56354,1073725440,16290,0,65535,65700,0,0,4,1460,1,0,0,24,33580,332,65700,0,332,0,0,0
i,0x00000000,1720561314.647850,10.0.2.15,22,10.0.2.2,56354,1073725440,16622,0,65535,65700,0,0,4,1460,1,0,0,24,33580,0,65700,0,0,0,0,0
o,0x00000000,1720561314.663907,10.0.2.15,22,10.0.2.2,56354,1073725440,16622,0,65535,65700,0,0,4,1460,1,0,0,24,33580,28,65700,0,0,0,0,0
i,0x00000000,1720561314.664471,10.0.2.15,22,10.0.2.2,56354,1073725440,16622,0,65535,65700,0,0,4,1460,1,0,0,24,33580,28,65700,0,28,0,0,0
i,0x00000000,1720561314.664972,10.0.2.15,22,10.0.2.2,56354,1073725440,16650,0,65535,65700,0,0,4,1460,1,0,0,24,33580,0,65700,0,0,0,0,0
o,0x00000000,1720561314.665366,10.0.2.15,22,10.0.2.2,56354,1073725440,16650,0,65535,65700,0,0,4,1460,1,0,0,24,33580,768,65700,112,0,0,0,0
i,0x00000000,1720561314.666266,10.0.2.15,22,10.0.2.2,56354,1073725440,16650,0,65535,65700,0,0,4,1460,1,0,0,24,33580,768,65700,112,768,0,0,0
o,0x00000000,1720561314.666348,10.0.2.15,22,10.0.2.2,56354,1073725440,17418,0,65535,65700,0,0,4,1460,1,0,0,24,33580,140,65700,112,0,0,0,0
i,0x00000000,1720561314.667214,10.0.2.15,22,10.0.2.2,56354,1073725440,17418,0,65535,65700,0,0,4,1460,1,0,0,24,33580,140,65700,112,140,0,0,0
o,0x00000000,1720561314.667347,10.0.2.15,22,10.0.2.2,56354,1073725440,17558,0,65535,65700,0,0,4,1460,1,0,0,24,33580,44,65700,0,0,0,0,0
i,0x00000000,1720561314.667856,10.0.2.15,22,10.0.2.2,56354,1073725440,17558,0,65535,65700,0,0,4,1460,1,0,0,24,33580,44,65700,0,44,0,0,0
i,0x00000000,1720561314.668822,10.0.2.15,22,10.0.2.2,56354,1073725440,17602,0,65535,65700,0,0,4,1460,1,0,0,24,33580,0,65700,0,0,0,0,0
o,0x00000000,1720561314.669149,10.0.2.15,22,10.0.2.2,56354,1073725440,17602,0,65535,65700,0,0,4,1460,1,0,4,24,33580,72,65700,0,0,0,0,0
i,0x00000000,1720561314.669803,10.0.2.15,22,10.0.2.2,56354,1073725440,17602,0,65535,65700,0,0,4,1460,1,0,4,24,33580,72,65700,0,72,0,0,0
o,0x00000000,1720561314.673061,10.0.2.15,22,10.0.2.2,56354,1073725440,17674,0,65535,65700,0,0,4,1460,1,0,4,24,33580,44,65700,0,0,0,0,0
i,0x00000000,1720561314.673591,10.0.2.15,22,10.0.2.2,56354,1073725440,17674,0,65535,65700,0,0,4,1460,1,0,4,24,33580,44,65700,0,44,0,0,0
o,0x00000000,1720561314.673851,10.0.2.15,22,10.0.2.2,56354,1073725440,17718,0,65535,65700,0,0,4,1460,1,0,4,24,33580,44,65700,0,0,0,0,0
i,0x00000000,1720561314.674482,10.0.2.15,22,10.0.2.2,56354,1073725440,17718,0,65535,65700,0,0,4,1460,1,0,4,24,33580,44,65700,0,44,0,0,0
o,0x00000000,1720561314.678030,10.0.2.15,22,10.0.2.2,56354,1073725440,17762,0,65535,65700,0,0,4,1460,1,0,4,24,33580,176,65700,0,0,0,0,0
i,0x00000000,1720561314.678942,10.0.2.15,22,10.0.2.2,56354,1073725440,17762,0,65535,65700,0,0,4,1460,1,0,4,24,33580,176,65700,0,176,0,0,0
i,0x00000000,1720561314.679386,10.0.2.15,22,10.0.2.2,56354,1073725440,17938,0,65535,65700,0,0,4,1460,1,0,4,24,33580,0,65700,0,0,0,0,0
i,0x00000000,1720561314.679389,10.0.2.15,22,10.0.2.2,56354,1073725440,17938,0,65535,65700,0,0,4,1460,1,0,4,24,33580,0,65700,96,0,0,0,0
o,0x00000000,1720561314.679392,10.0.2.15,22,10.0.2.2,56354,1073725440,17938,0,65535,65604,0,0,5,1460,1,0,5,24,33580,0,65700,96,0,0,0,0
o,0x00000000,1720561314.800236,10.0.2.15,22,10.0.2.2,56354,1073725440,17938,0,65535,65604,0,0,8,1460,1,0,4,24,33580,0,65700,0,0,0,0,0
i,0x00000000,1720561314.808561,10.0.2.15,22,10.0.2.2,56354,1073725440,17938,0,65535,65604,0,0,8,1460,1,0,20,24,33580,0,65700,0,1,0,0,0
i,0x00000000,1720561315.810874,10.0.2.15,22,10.0.2.2,56258,1073725440,14600,0,65535,65700,0,0,4,1460,1,0,0,27,33580,0,65700,0,0,0,0,0
o,0x00000000,1720561315.816416,10.0.2.15,22,10.0.2.2,56258,1073725440,14600,0,65535,65700,0,0,4,1460,1,0,0,27,33580,38,65700,42,0,0,0,0
i,0x00000000,1720561315.817460,10.0.2.15,22,10.0.2.2,56258,1073725440,14600,0,65535,65700,0,0,4,1460,1,0,0,27,33580,38,65700,42,38,0,0,0
i,0x00000000,1720561315.817532,10.0.2.15,22,10.0.2.2,56258,1073725440,14638,0,65535,65700,0,0,4,1460,1,0,0,24,33580,0,65700,42,0,0,0,0
i,0x00000000,1720561315.817535,10.0.2.15,22,10.0.2.2,56258,1073725440,14638,0,65535,65700,0,0,4,1460,1,0,0,24,33580,0,65700,1502,0,0,0,0
o,0x00000000,1720561315.817538,10.0.2.15,22,10.0.2.2,56258,1073725440,14638,0,65535,65700,0,0,4,1460,1,0,1,24,33580,0,65700,1578,0,0,0,0
o,0x00000000,1720561315.818195,10.0.2.15,22,10.0.2.2,56258,1073725440,14638,0,65535,65700,0,0,4,1460,1,0,0,24,33580,1056,65700,1536,0,0,0,0
i,0x00000000,1720561315.819712,10.0.2.15,22,10.0.2.2,56258,1073725440,14638,0,65535,65700,0,0,4,1460,1,0,0,24,33580,1056,65700,0,1056,0,0,0
i,0x00000000,1720561315.820954,10.0.2.15,22,10.0.2.2,56258,1073725440,15694,0,65535,65700,0,0,4,1460,1,0,0,24,33580,0,65700,0,0,0,0,0
o,0x00000000,1720561315.823290,10.0.2.15,22,10.0.2.2,56258,1073725440,15694,0,65535,65700,0,0,4,1460,1,0,0,24,33580,484,65700,0,0,0,0,0
i,0x00000000,1720561315.823966,10.0.2.15,22,10.0.2.2,56258,1073725440,15694,0,65535,65700,0,0,4,1460,1,0,0,24,33580,484,65700,0,484,0,0,0
i,0x00000000,1720561315.828290,10.0.2.15,22,10.0.2.2,56258,1073725440,16178,0,65535,65700,0,0,4,1460,1,0,0,24,33580,0,65700,0,0,0,0,0
i,0x00000000,1720561315.828296,10.0.2.15,22,10.0.2.2,56258,1073725440,16178,0,65535,65700,0,0,4,1460,1,0,0,24,33580,0,65700,16,0,0,0,0
o,0x00000000,1720561315.828298,10.0.2.15,22,10.0.2.2,56258,1073725440,16178,0,65535,65700,0,0,4,1460,1,0,1,24,33580,0,65700,60,0,0,0,0
o,0x00000000,1720561315.828464,10.0.2.15,22,10.0.2.2,56258,1073725440,16178,0,65535,65700,0,0,4,1460,1,0,0,24,33580,44,65700,0,0,0,0,0
i,0x00000000,1720561315.829079,10.0.2.15,22,10.0.2.2,56258,1073725440,16178,0,65535,65700,0,0,4,1460,1,0,0,24,33580,44,65700,0,44,0,0,0
i,0x00000000,1720561315.829083,10.0.2.15,22,10.0.2.2,56258,1073725440,16222,0,65535,65700,0,0,4,1460,1,0,0,24,33580,0,65700,0,0,0,0,0
o,0x00000000,1720561315.838419,10.0.2.15,22,10.0.2.2,56258,1073725440,16222,0,65535,65700,0,0,4,1460,1,0,0,24,33580,68,65700,0,0,0,0,0
i,0x00000000,1720561315.839476,10.0.2.15,22,10.0.2.2,56258,1073725440,16222,0,65535,65700,0,0,4,1460,1,0,0,24,33580,68,65700,0,68,0,0,0
i,0x00000000,1720561315.839482,10.0.2.15,22,10.0.2.2,56258,1073725440,16290,0,65535,65700,0,0,4,1460,1,0,0,24,33580,0,65700,0,0,0,0,0
o,0x00000000,1720561315.839751,10.0.2.15,22,10.0.2.2,56258,1073725440,16290,0,65535,65700,0,0,4,1460,1,0,0,24,33580,332,65700,0,0,0,0,0
i,0x00000000,1720561315.840407,10.0.2.15,22,10.0.2.2,56258,1073725440,16290,0,65535,65700,0,0,4,1460,1,0,0,24,33580,332,65700,0,332,0,0,0
i,0x00000000,1720561315.841701,10.0.2.15,22,10.0.2.2,56258,1073725440,16622,0,65535,65700,0,0,4,1460,1,0,0,24,33580,0,65700,0,0,0,0,0
o,0x00000000,1720561315.860113,10.0.2.15,22,10.0.2.2,56258,1073725440,16622,0,65535,65700,0,0,4,1460,1,0,0,24,33580,28,65700,0,0,0,0,0
i,0x00000000,1720561315.860717,10.0.2.15,22,10.0.2.2,56258,1073725440,16622,0,65535,65700,0,0,4,1460,1,0,0,24,33580,28,65700,0,28,0,0,0
i,0x00000000,1720561315.861237,10.0.2.15,22,10.0.2.2,56258,1073725440,16650,0,65535,65700,0,0,4,1460,1,0,0,24,33580,0,65700,0,0,0,0,0
o,0x00000000,1720561315.861984,10.0.2.15,22,10.0.2.2,56258,1073725440,16650,0,65535,65700,0,0,4,1460,1,0,0,24,33580,768,65700,112,0,0,0,0
i,0x00000000,1720561315.862938,10.0.2.15,22,10.0.2.2,56258,1073725440,16650,0,65535,65700,0,0,4,1460,1,0,0,24,33580,768,65700,112,768,0,0,0
o,0x00000000,1720561315.862996,10.0.2.15,22,10.0.2.2,56258,1073725440,17418,0,65535,65700,0,0,4,1460,1,0,0,24,33580,140,65700,112,0,0,0,0
i,0x00000000,1720561315.863680,10.0.2.15,22,10.0.2.2,56258,1073725440,17418,0,65535,65700,0,0,4,1460,1,0,0,24,33580,140,65700,112,140,0,0,0
o,0x00000000,1720561315.863817,10.0.2.15,22,10.0.2.2,56258,1073725440,17558,0,65535,65700,0,0,4,1460,1,0,0,24,33580,44,65700,0,0,0,0,0
i,0x00000000,1720561315.864675,10.0.2.15,22,10.0.2.2,56258,1073725440,17558,0,65535,65700,0,0,4,1460,1,0,0,24,33580,44,65700,0,44,0,0,0
i,0x00000000,1720561315.864679,10.0.2.15,22,10.0.2.2,56258,1073725440,17602,0,65535,65700,0,0,4,1460,1,0,0,24,33580,0,65700,0,0,0,0,0
o,0x00000000,1720561315.864934,10.0.2.15,22,10.0.2.2,56258,1073725440,17602,0,65535,65700,0,0,4,1460,1,0,4,24,33580,72,65700,0,0,0,0,0
i,0x00000000,1720561315.866296,10.0.2.15,22,10.0.2.2,56258,1073725440,17602,0,65535,65700,0,0,4,1460,1,0,4,24,33580,72,65700,0,72,0,0,0
i,0x00000000,1720561315.866300,10.0.2.15,22,10.0.2.2,56258,1073725440,17674,0,65535,65700,0,0,4,1460,1,0,4,24,33580,0,65700,0,0,0,0,0
o,0x00000000,1720561315.870475,172.16.1.2,64630,172.16.3.2,5101,1073725440,1073725440,0,0,0,0,0,2,536,0,1,672,100,32768,0,65536,0,0,0,0,0
o,0x00000000,1720561315.906863,10.0.2.15,22,10.0.2.2,56258,1073725440,17674,0,65535,65700,0,0,4,1460,1,0,5,24,33580,0,65700,0,0,0,0,0
i,0x00000000,1720561315.981973,172.16.1.2,64630,172.16.3.2,5101,1073725440,1073725440,0,0,0,0,0,2,536,0,1,672,100,32768,0,65536,0,1,0,0,0
o,0x00000000,1720561315.981987,172.16.1.2,64630,172.16.3.2,5101,46477,14480,0,65535,65700,6,6,4,1460,633,1,993,64,33580,0,65700,0,0,0,0,0
o,0x00000000,1720561315.983045,172.16.1.2,64630,172.16.3.2,5101,46477,14480,0,65535,65700,6,6,4,1460,633,1,996,64,33580,37,65700,0,0,0,0,0
i,0x00000000,1720561316.107649,172.16.1.2,64630,172.16.3.2,5101,46477,14480,0,65535,65700,6,6,4,1460,633,1,996,64,33580,37,65700,0,37,0,0,0
o,0x00000000,1720561316.108108,172.16.1.2,64630,172.16.3.2,5101,46477,14517,0,65728,65728,6,6,4,1460,606,1,996,64,33580,4,65700,0,0,0,0,0
o,0x00000000,1720561316.109975,172.16.1.2,64630,172.16.3.2,5101,46477,14517,0,65728,65728,6,6,4,1460,606,1,996,64,33580,128,65700,0,4,0,0,0
i,0x00000000,1720561316.230786,172.16.1.2,64630,172.16.3.2,5101,46477,14517,0,65728,65728,6,6,4,1460,606,1,996,64,33580,128,65700,0,128,0,0,0
i,0x00000000,1720561316.231385,172.16.1.2,64630,172.16.3.2,5101,46477,14645,0,65600,65728,6,6,4,1460,579,1,996,64,33580,0,65700,0,0,0,0,0
o,0x00000000,1720561316.231563,172.16.1.2,64464,172.16.3.2,5101,1073725440,1073725440,0,0,0,0,0,2,536,0,1,672,100,32768,0,65536,0,0,0,0,0
o,0x00000000,1720561316.266852,172.16.1.2,64630,172.16.3.2,5101,46477,14645,0,65728,65728,6,6,4,1460,579,1,997,64,33580,0,65700,0,0,0,0,0
i,0x00000000,1720561316.354714,172.16.1.2,64464,172.16.3.2,5101,1073725440,1073725440,0,0,0,0,0,2,536,0,1,672,100,32768,0,65536,0,1,0,0,0
o,0x00000000,1720561316.354728,172.16.1.2,64464,172.16.3.2,5101,46477,14480,0,65535,65700,6,6,4,1460,637,1,993,63,33580,0,65700,0,0,0,0,0
o,0x00000000,1720561316.354872,172.16.1.2,64464,172.16.3.2,5101,46477,14480,0,65535,65700,6,6,4,1460,637,1,992,63,33580,37,65700,0,0,0,0,0
i,0x00000000,1720561316.482760,172.16.1.2,64630,172.16.3.2,5101,46477,14645,0,65728,65728,6,6,4,1460,579,1,996,64,33580,0,65700,0,0,0,0,0
i,0x00000000,1720561316.482779,172.16.1.2,64630,172.16.3.2,5101,46477,14645,0,65728,65728,6,6,4,1460,579,1,996,64,33580,0,65700,1,0,0,0,0
o,0x00000000,1720561316.482789,172.16.1.2,64630,172.16.3.2,5101,46477,14645,0,65728,65728,6,6,4,1460,579,1,997,64,33580,0,65700,2,0,0,0,0
o,0x00000000,1720561316.483520,172.16.1.2,64464,172.16.3.2,5101,46477,14480,0,65535,65700,6,6,4,1460,637,1,992,63,33580,33580,65700,0,37,0,0,0
o,0x00000000,1720561316.483998,172.16.1.2,64464,172.16.3.2,5101,46477,14480,0,65535,65700,6,6,4,1460,637,1,992,63,33580,33580,65700,0,1485,0,0,0
o,0x00000000,1720561316.485086,172.16.1.2,64464,172.16.3.2,5101,46477,14480,0,65535,65700,6,6,4,1460,637,1,992,63,33580,33580,65700,0,2933,0,0,0
o,0x00000000,1720561316.488465,172.16.1.2,64464,172.16.3.2,5101,46477,14480,0,65535,65700,6,6,4,1460,637,1,992,63,33580,33580,65700,0,4381,0,0,0
o,0x00000000,1720561316.490264,172.16.1.2,64464,172.16.3.2,5101,46477,14480,0,65535,65700,6,6,4,1460,637,1,992,63,33580,33580,65700,0,5829,0,0,0
o,0x00000000,1720561316.491631,172.16.1.2,64464,172.16.3.2,5101,46477,14480,0,65535,65700,6,6,4,1460,637,1,992,63,33580,33580,65700,0,7277,0,0,0
o,0x00000000,1720561316.492904,172.16.1.2,64464,172.16.3.2,5101,46477,14480,0,65535,65700,6,6,4,1460,637,1,992,63,33580,33580,65700,0,8725,0,0,0
o,0x00000000,1720561316.493867,172.16.1.2,64464,172.16.3.2,5101,46477,14480,0,65535,65700,6,6,4,1460,637,1,992,63,33580,33580,65700,0,10173,0,0,0
o,0x00000000,1720561316.494867,172.16.1.2,64464,172.16.3.2,5101,46477,14480,0,65535,65700,6,6,4,1460,637,1,992,63,33580,33580,65700,0,11621,0,0,0
i,0x00000000,1720561316.514971,172.16.1.2,64464,172.16.3.2,5101,46477,14480,0,65535,65700,6,6,4,1460,637,1,992,63,33580,33580,65700,0,13069,0,0,0
o,0x00000000,1720561316.515015,172.16.1.2,64464,172.16.3.2,5101,46477,14517,0,65728,65728,6,6,4,1460,622,1,992,61,33580,33543,65700,0,13032,0,0,0
i,0x00000000,1720561316.726268,172.16.1.2,64464,172.16.3.2,5101,46477,14517,0,65728,65728,6,6,4,1460,622,1,992,61,33580,33543,65700,0,14480,0,0,0
o,0x00000000,1720561316.726307,172.16.1.2,64464,172.16.3.2,5101,46477,17413,0,64256,65728,6,6,4,1460,637,1,992,60,33580,30647,65700,0,11584,0,0,0
o,0x00000000,1720561316.728262,172.16.1.2,64464,172.16.3.2,5101,46477,17413,0,64256,65728,6,6,4,1460,637,1,992,60,33580,30647,65700,0,13032,0,0,0
o,0x00000000,1720561316.729595,172.16.1.2,64464,172.16.3.2,5101,46477,17413,0,64256,65728,6,6,4,1460,637,1,992,60,41772,30647,65700,0,14480,0,0,0
o,0x00000000,1720561316.730817,172.16.1.2,64464,172.16.3.2,5101,46477,17413,0,64256,65728,6,6,4,1460,637,1,992,60,41772,30647,65700,0,15928,0,0,0
i,0x00000000,1720561316.745515,172.16.1.2,64464,172.16.3.2,5101,46477,17413,0,64256,65728,6,6,4,1460,637,1,992,60,41772,41772,65700,0,17376,0,0,0
o,0x00000000,1720561316.745555,172.16.1.2,64464,172.16.3.2,5101,46477,20309,0,64256,65728,6,6,4,1460,658,1,992,61,41772,38876,65700,0,14480,0,0,0
o,0x00000000,1720561316.747438,172.16.1.2,64464,172.16.3.2,5101,46477,20309,0,64256,65728,6,6,4,1460,658,1,992,61,41772,38876,65700,0,15928,0,0,0
o,0x00000000,1720561316.748728,172.16.1.2,64464,172.16.3.2,5101,46477,20309,0,64256,65728,6,6,4,1460,658,1,992,61,41772,38876,65700,0,17376,0,0,0
o,0x00000000,1720561316.750324,172.16.1.2,64464,172.16.3.2,5101,46477,20309,0,64256,65728,6,6,4,1460,658,1,992,61,49964,38876,65700,0,18824,0,0,0
i,0x00000000,1720561316.773426,172.16.1.2,64464,172.16.3.2,5101,46477,20309,0,64256,65728,6,6,4,1460,658,1,992,61,49964,49964,65700,0,20272,0,0,0
o,0x00000000,1720561316.773467,172.16.1.2,64464,172.16.3.2,5101,46477,23205,0,64256,65728,6,6,4,1460,688,1,992,64,49964,47068,65700,0,17376,0,0,0
o,0x00000000,1720561316.774812,172.16.1.2,64464,172.16.3.2,5101,46477,23205,0,64256,65728,6,6,4,1460,688,1,992,64,49964,47068,65700,0,18824,0,0,0
o,0x00000000,1720561316.775897,172.16.1.2,64464,172.16.3.2,5101,46477,23205,0,64256,65728,6,6,4,1460,688,1,992,64,49964,47068,65700,0,20272,0,0,0
o,0x00000000,1720561316.777638,172.16.1.2,64464,172.16.3.2,5101,46477,23205,0,64256,65728,6,6,4,1460,688,1,992,64,49964,47068,65700,0,21720,0,0,0
i,0x00000000,1720561316.783135,172.16.1.2,64464,172.16.3.2,5101,46477,23205,0,64256,65728,6,6,4,1460,688,1,992,64,49964,49964,65700,0,23168,0,0,0
o,0x00000000,1720561316.783158,172.16.1.2,64464,172.16.3.2,5101,46477,26101,0,64256,65728,6,6,4,1460,714,1,992,66,49964,47068,65700,0,20272,0,0,0
o,0x00000000,1720561316.784235,172.16.1.2,64464,172.16.3.2,5101,46477,26101,0,64256,65728,6,6,4,1460,714,1,992,66,58156,47068,65700,0,21720,0,0,0
o,0x00000000,1720561316.785341,172.16.1.2,64464,172.16.3.2,5101,46477,26101,0,64256,65728,6,6,4,1460,714,1,992,66,58156,47068,65700,0,23168,0,0,0
o,0x00000000,1720561316.786701,172.16.1.2,64464,172.16.3.2,5101,46477,26101,0,64256,65728,6,6,4,1460,714,1,992,66,58156,47068,65700,0,24616,0,0,0
i,0x00000000,1720561316.815037,172.16.1.2,64464,172.16.3.2,5101,46477,26101,0,64256,65728,6,6,4,1460,714,1,992,66,58156,58156,65700,0,26064,0,0,0
o,0x00000000,1720561316.815066,172.16.1.2,64464,172.16.3.2,5101,46477,28997,0,64256,65728,6,6,4,1460,749,1,992,70,58156,55260,65700,0,23168,0,0,0
o,0x00000000,1720561316.817135,172.16.1.2,64464,172.16.3.2,5101,46477,28997,0,64256,65728,6,6,4,1460,749,1,992,70,58156,55260,65700,0,24616,0,0,0
o,0x00000000,1720561316.818877,172.16.1.2,64464,172.16.3.2,5101,46477,28997,0,64256,65728,6,6,4,1460,749,1,992,70,58156,55260,65700,0,26064,0,0,0
o,0x00000000,1720561316.820594,172.16.1.2,64464,172.16.3.2,5101,46477,28997,0,64256,65728,6,6,4,1460,749,1,992,70,66348,55260,65700,0,27512,0,0,0
i,0x00000000,1720561316.935766,172.16.1.2,64464,172.16.3.2,5101,46477,28997,0,64256,65728,6,6,4,1460,749,1,992,70,66348,66348,65700,0,28960,0,0,0
o,0x00000000,1720561316.935811,172.16.1.2,64464,172.16.3.2,5101,46477,31893,0,64256,65728,6,6,4,1460,740,1,992,65,66348,63452,65700,0,26064,0,0,0
o,0x00000000,1720561316.938409,172.16.1.2,64464,172.16.3.2,5101,46477,31893,0,64256,65728,6,6,4,1460,740,1,992,65,66348,63452,65700,0,27512,0,0,0
o,0x00000000,1720561316.938958,172.16.1.2,64464,172.16.3.2,5101,46477,31893,0,64256,65728,6,6,4,1460,740,1,992,65,66348,63452,65700,0,28960,0,0,0
o,0x00000000,1720561316.939475,172.16.1.2,64464,172.16.3.2,5101,46477,31893,0,64256,65728,6,6,4,1460,740,1,992,65,66348,63452,65700,0,30408,0,0,0
i,0x00000000,1720561317.031265,172.16.1.2,64464,172.16.3.2,5101,46477,31893,0,64256,65728,6,6,4,1460,740,1,992,65,74540,74540,65700,0,31856,0,0,0
o,0x00000000,1720561317.031279,172.16.1.2,64464,172.16.3.2,5101,46477,33341,0,65728,65728,6,6,4,1460,768,1,992,68,74540,73092,65700,0,30408,0,0,0
o,0x00000000,1720561317.031554,172.16.1.2,64464,172.16.3.2,5101,46477,33341,0,65728,65728,6,6,4,1460,768,1,992,68,74540,73092,65700,0,31856,0,0,0
i,0x00000000,1720561317.062975,172.16.1.2,64464,172.16.3.2,5101,46477,33341,0,65728,65728,6,6,4,1460,768,1,992,68,74540,73092,65700,0,33304,0,0,0
o,0x00000000,1720561317.062991,172.16.1.2,64464,172.16.3.2,5101,46477,36237,0,64256,65728,6,6,4,1460,804,1,992,72,74540,70196,65700,0,30408,0,0,0
o,0x00000000,1720561317.063251,172.16.1.2,64464,172.16.3.2,5101,46477,36237,0,64256,65728,6,6,4,1460,804,1,992,72,74540,70196,65700,0,31856,0,0,0
o,0x00000000,1720561317.063494,172.16.1.2,64464,172.16.3.2,5101,46477,36237,0,64256,65728,6,6,4,1460,804,1,992,72,74540,70196,65700,0,33304,0,0,0
o,0x00000000,1720561317.063726,172.16.1.2,64464,172.16.3.2,5101,46477,36237,0,64256,65728,6,6,4,1460,804,1,992,72,82732,70196,65700,0,34752,0,0,0
i,0x00000000,1720561317.125646,172.16.1.2,64464,172.16.3.2,5101,46477,36237,0,64256,65728,6,6,4,1460,804,1,992,72,82732,82732,65700,0,36200,0,0,0
o,0x00000000,1720561317.125689,172.16.1.2,64464,172.16.3.2,5101,46477,37685,0,65728,65728,6,6,4,1460,852,1,992,78,82732,81284,65700,0,34752,0,0,0
o,0x00000000,1720561317.127522,172.16.1.2,64464,172.16.3.2,5101,46477,37685,0,65728,65728,6,6,4,1460,852,1,992,78,82732,81284,65700,0,36200,0,0,0
i,0x00000000,1720561317.163862,172.16.1.2,64464,172.16.3.2,5101,46477,37685,0,65728,65728,6,6,4,1460,852,1,992,78,82732,81284,65700,0,37648,0,0,0
o,0x00000000,1720561317.163907,172.16.1.2,64464,172.16.3.2,5101,46477,40581,0,64256,65728,6,6,4,1460,910,1,992,87,82732,78388,65700,0,34752,0,0,0
o,0x00000000,1720561317.166223,172.16.1.2,64464,172.16.3.2,5101,46477,40581,0,64256,65728,6,6,4,1460,910,1,992,87,82732,78388,65700,0,36200,0,0,0
o,0x00000000,1720561317.167771,172.16.1.2,64464,172.16.3.2,5101,46477,40581,0,64256,65728,6,6,4,1460,910,1,992,87,82732,78388,65700,0,37648,0,0,0
o,0x00000000,1720561317.168738,172.16.1.2,64464,172.16.3.2,5101,46477,40581,0,64256,65728,6,6,4,1460,910,1,992,87,82732,78388,65700,0,39096,0,0,0
i,0x00000000,1720561317.183841,172.16.1.2,64464,172.16.3.2,5101,46477,40581,0,64256,65728,6,6,4,1460,910,1,992,87,82732,82732,65700,0,40544,0,0,0
o,0x00000000,1720561317.183863,172.16.1.2,64464,172.16.3.2,5101,46477,43477,0,64256,65728,6,6,4,1460,957,1,992,90,82732,79836,65700,0,37648,0,0,0
o,0x00000000,1720561317.184455,172.16.1.2,64464,172.16.3.2,5101,46477,43477,0,64256,65728,6,6,4,1460,957,1,992,90,82732,79836,65700,0,39096,0,0,0
o,0x00000000,1720561317.185019,172.16.1.2,64464,172.16.3.2,5101,46477,43477,0,64256,65728,6,6,4,1460,957,1,992,90,82732,79836,65700,0,40544,0,0,0
o,0x00000000,1720561317.185499,172.16.1.2,64464,172.16.3.2,5101,46477,43477,0,64256,65728,6,6,4,1460,957,1,992,90,82732,79836,65700,0,41992,0,0,0
i,0x00000000,1720561317.204320,172.16.1.2,64464,172.16.3.2,5101,46477,43477,0,64256,65728,6,6,4,1460,957,1,992,90,82732,82732,65700,0,43440,0,0,0
o,0x00000000,1720561317.204357,172.16.1.2,64464,172.16.3.2,5101,46477,46373,0,64256,65728,6,6,4,1460,1006,1,992,94,82732,79836,65700,0,40544,0,0,0
o,0x00000000,1720561317.204941,172.16.1.2,64464,172.16.3.2,5101,46477,46373,0,64256,65728,6,6,4,1460,1006,1,992,94,82732,79836,65700,0,41992,0,0,0
o,0x00000000,1720561317.206401,172.16.1.2,64464,172.16.3.2,5101,46477,46373,0,64256,65728,6,6,4,1460,1006,1,992,94,82732,79836,65700,0,43440,0,0,0
o,0x00000000,1720561317.206771,172.16.1.2,64464,172.16.3.2,5101,46477,46373,0,64256,65728,6,6,4,1460,1006,1,992,94,82732,79836,65700,0,44888,0,0,0
i,0x00000000,1720561317.234095,172.16.1.2,64464,172.16.3.2,5101,46477,46373,0,64256,65728,6,6,4,1460,1006,1,992,94,82732,82732,65700,0,46336,0,0,0
o,0x00000000,1720561317.234121,172.16.1.2,64464,172.16.3.2,5101,46477,47821,0,65728,65728,6,6,4,1460,1061,1,992,99,82732,81284,65700,0,44888,0,0,0
o,0x00000000,1720561317.234867,172.16.1.2,64464,172.16.3.2,5101,46477,47821,0,65728,65728,6,6,4,1460,1061,1,992,99,82732,81284,65700,0,46336,0,0,0
i,0x00000000,1720561317.282839,172.16.1.2,64464,172.16.3.2,5101,46477,47821,0,65728,65728,6,6,4,1460,1061,1,992,99,82732,81284,65700,0,47784,0,0,0
o,0x00000000,1720561317.282858,172.16.1.2,64464,172.16.3.2,5101,46477,47821,0,64256,65728,6,6,4,1460,1129,1,992,106,82732,78388,65700,0,44888,0,0,0
o,0x00000000,1720561317.283268,172.16.1.2,64464,172.16.3.2,5101,46477,47821,0,64256,65728,6,6,4,1460,1129,1,992,106,82732,78388,65700,0,46336,0,0,0
i,0x00000000,1720561317.312411,172.16.1.2,64464,172.16.3.2,5101,46477,47821,0,64256,65728,6,6,4,1460,1129,1,992,106,82732,82732,65700,0,47784,0,0,0
o,0x00000000,1720561317.312430,172.16.1.2,64464,172.16.3.2,5101,46477,47821,0,64256,65728,6,6,4,1460,1196,1,992,112,82732,79836,65700,0,44888,0,0,0
o,0x00000000,1720561317.312899,172.16.1.2,64464,172.16.3.2,5101,46477,47821,0,64256,65728,6,6,4,1460,1196,1,992,112,82732,79836,65700,0,46336,0,0,0
i,0x00000000,1720561317.374391,172.16.1.2,64464,172.16.3.2,5101,46477,47821,0,64256,65728,6,6,4,1460,1196,1,992,112,82732,82732,65700,0,47784,0,0,0
o,0x00000000,1720561317.374412,172.16.1.2,64464,172.16.3.2,5101,46477,47821,0,64256,65728,6,6,4,1460,1267,1,992,119,82732,79836,65700,0,44888,0,0,0
o,0x00000000,1720561317.374953,172.16.1.2,64464,172.16.3.2,5101,46477,47821,0,64256,65728,6,6,4,1460,1267,1,992,119,82732,79836,65700,0,46336,0,0,0
i,0x00000000,1720561317.410165,172.16.1.2,64464,172.16.3.2,5101,46477,47821,0,64256,65728,6,6,4,1460,1267,1,992,119,82732,82732,65700,0,47784,0,0,0
o,0x00000000,1720561317.410207,172.16.1.2,64464,172.16.3.2,5101,46477,47821,0,65728,65728,6,6,4,1460,1345,1,992,126,82732,81284,65700,0,46336,0,0,0
i,0x00000000,1720561317.494135,172.16.1.2,64464,172.16.3.2,5101,46477,47821,0,65728,65728,6,6,4,1460,1345,1,992,126,82732,81284,65700,0,47784,0,0,0
o,0x00000000,1720561317.494178,172.16.1.2,64464,172.16.3.2,5101,46477,47821,0,64256,65728,6,6,4,1460,1401,1,992,126,82732,78388,65700,0,44888,0,0,0
o,0x00000000,1720561317.495617,172.16.1.2,64464,172.16.3.2,5101,46477,47821,0,64256,65728,6,6,4,1460,1401,1,992,126,82732,78388,65700,0,46336,0,0,0
i,0x00000000,1720561317.566093,172.16.1.2,64464,172.16.3.2,5101,46477,47821,0,64256,65728,6,6,4,1460,1401,1,992,126,82732,82732,65700,0,47784,0,0,0
o,0x00000000,1720561317.566134,172.16.1.2,64464,172.16.3.2,5101,46477,47821,0,64256,65728,6,6,4,1460,1474,1,992,131,82732,79836,65700,0,44888,0,0,0
o,0x00000000,1720561317.568674,172.16.1.2,64464,172.16.3.2,5101,46477,47821,0,64256,65728,6,6,4,1460,1474,1,992,131,82732,79836,65700,0,46336,0,0,0
i,0x00000000,1720561317.640473,172.16.1.2,64464,172.16.3.2,5101,46477,47821,0,64256,65728,6,6,4,1460,1474,1,992,131,82732,81840,65700,0,47784,0,0,0
o,0x00000000,1720561317.640508,172.16.1.2,64464,172.16.3.2,5101,46477,49232,0,64256,65728,6,6,4,1460,1474,1,992,131,82732,81840,65700,0,47784,0,0,0
i,0x00000000,1720561317.683613,172.16.1.2,64464,172.16.3.2,5101,46477,47821,0,64256,65728,6,6,4,1460,1474,1,992,131,82732,81840,65700,0,49232,0,0,0
o,0x00000000,1720561317.683647,172.16.1.2,64464,172.16.3.2,5101,46477,50680,0,64256,65728,6,6,4,1460,1474,1,992,131,82732,81840,65700,0,49232,0,0,0
i,0x00000000,1720561317.713353,172.16.1.2,64464,172.16.3.2,5101,46477,47821,0,64256,65728,6,6,4,1460,1474,1,992,131,82732,81840,65700,0,50680,0,0,0
o,0x00000000,1720561317.713389,172.16.1.2,64464,172.16.3.2,5101,23910,1448,0,64256,65728,6,6,4,1460,1474,1,537920480,131,82732,81840,65700,0,50680,0,0,0
i,0x00000000,1720561317.734277,172.16.1.2,64464,172.16.3.2,5101,23910,1448,0,64256,65728,6,6,4,1460,1474,1,537920480,131,82732,81840,65700,0,50680,0,0,0
i,0x00000000,1720561317.765474,172.16.1.2,64464,172.16.3.2,5101,23910,1448,0,64256,65728,6,6,4,1460,1474,1,537920480,131,82732,81840,65700,0,50680,0,0,0
o,0x00000000,1720561317.765508,172.16.1.2,64464,172.16.3.2,5101,23910,2896,0,64256,65728,6,6,4,1460,1474,1,537920480,131,82732,81840,65700,0,50680,0,0,0
i,0x00000000,1720561317.788060,172.16.1.2,64464,172.16.3.2,5101,23910,2896,0,64256,65728,6,6,4,1460,1474,1,537920480,131,82732,81840,65700,0,50680,0,0,0
i,0x00000000,1720561317.815834,172.16.1.2,64464,172.16.3.2,5101,23910,2896,0,64256,65728,6,6,4,1460,1474,1,537920480,131,82732,81840,65700,0,50680,0,0,0
o,0x00000000,1720561317.815859,172.16.1.2,64464,172.16.3.2,5101,23910,4344,0,64256,65728,6,6,4,1460,1474,1,537920480,131,82732,81840,65700,0,50680,0,0,0
i,0x00000000,1720561317.817183,172.16.1.2,64464,172.16.3.2,5101,23910,4344,0,64256,65728,6,6,4,1460,1474,1,537920480,131,82732,81840,65700,0,50680,0,0,0
i,0x00000000,1720561317.876735,172.16.1.2,64464,172.16.3.2,5101,23910,4344,0,64256,65728,6,6,4,1460,1474,1,537920480,131,82732,81840,65700,0,50680,0,0,0
o,0x00000000,1720561317.876765,172.16.1.2,64464,172.16.3.2,5101,23910,5792,0,64256,65728,6,6,4,1460,1474,1,537920480,131,82732,81840,65700,0,50680,0,0,0
i,0x00000000,1720561317.877049,172.16.1.2,64464,172.16.3.2,5101,23910,5792,0,64256,65728,6,6,4,1460,1474,1,537920480,131,82732,81840,65700,0,52128,0,0,0
o,0x00000000,1720561317.877060,172.16.1.2,64464,172.16.3.2,5101,23910,5792,0,64256,65728,6,6,4,1460,1474,1,537920480,131,82732,81840,65700,0,52128,0,0,0
i,0x00000000,1720561317.877251,172.16.1.2,64464,172.16.3.2,5101,23910,5792,0,64256,65728,6,6,4,1460,1474,1,537920480,131,82732,81840,65700,0,52128,0,0,0
o,0x00000000,1720561317.877260,172.16.1.2,64464,172.16.3.2,5101,23910,5792,0,64256,65728,6,6,4,1460,1474,1,537920481,131,82732,81840,65700,0,52128,0,0,0
i,0x00000000,1720561317.914007,172.16.1.2,64464,172.16.3.2,5101,23910,5792,0,58496,65728,6,6,4,1460,1354,1,537920480,141,82732,82732,65700,0,44888,0,0,0
i,0x00000000,1720561317.918460,172.16.1.2,64464,172.16.3.2,5101,23910,5792,0,65728,65728,6,6,4,1460,1354,1,537920480,141,82732,82732,65700,0,44888,0,0,0
i,0x00000000,1720561317.918469,172.16.1.2,64464,172.16.3.2,5101,23910,5792,0,65728,65728,6,6,4,1460,1354,1,537920480,141,82732,82732,65700,0,44888,0,0,0
o,0x00000000,1720561317.918479,172.16.1.2,64464,172.16.3.2,5101,23910,4344,0,65728,65728,6,6,4,1460,1354,1,537920481,141,82732,82732,65700,0,44888,0,0,0
i,0x00000000,1720561317.975670,172.16.1.2,64464,172.16.3.2,5101,23910,4344,0,61440,65728,6,6,4,1460,1245,1,537920480,145,82732,82732,65700,0,40544,0,0,0
o,0x00000000,1720561317.975710,172.16.1.2,64464,172.16.3.2,5101,23910,4344,0,61440,65728,6,6,4,1460,1245,1,537920481,145,82732,82732,65700,0,40544,0,0,0
i,0x00000000,1720561317.986128,172.16.1.2,64464,172.16.3.2,5101,23910,4344,0,59968,65728,6,6,4,1460,1158,1,537920480,142,82732,82732,65700,0,36200,0,0,0
i,0x00000000,1720561318.008506,172.16.1.2,64464,172.16.3.2,5101,23910,4344,0,65728,65728,6,6,4,1460,1158,1,537920480,142,82732,82732,65700,0,36200,0,0,0
i,0x00000000,1720561318.013227,172.16.1.2,64464,172.16.3.2,5101,23910,4344,0,65728,65728,6,6,4,1460,1158,1,537920480,142,82732,82732,65700,0,36200,0,0,0
i,0x00000000,1720561318.037824,172.16.1.2,64464,172.16.3.2,5101,23910,4344,0,65728,65728,6,6,4,1460,1158,1,537920480,142,82732,82732,65700,0,36200,0,0,0
o,0x00000000,1720561318.037854,172.16.1.2,64464,172.16.3.2,5101,23910,5792,0,65728,65728,6,6,4,1460,1158,1,537920481,142,82732,82732,65700,0,36200,0,0,0
i,0x00000000,1720561318.054232,172.16.1.2,64464,172.16.3.2,5101,23910,5792,0,62848,65728,6,6,4,1460,1078,1,537920480,138,82732,82732,65700,0,33304,0,0,0
i,0x00000000,1720561318.074609,172.16.1.2,64464,172.16.3.2,5101,23910,33304,0,62848,65728,6,6,4,1460,1078,1,537920480,138,82732,82732,65700,0,33304,0,0,0
o,0x00000000,1720561318.074630,172.16.1.2,64464,172.16.3.2,5101,23910,34752,0,62848,65728,6,6,4,1460,1078,1,537920480,138,82732,82732,65700,0,33304,0,0,0
i,0x00000000,1720561318.075402,172.16.1.2,64464,172.16.3.2,5101,23910,34752,0,62848,65728,6,6,4,1460,1078,1,537920480,138,82732,82732,65700,0,34752,0,0,0
i,0x00000000,1720561318.099278,172.16.1.2,64464,172.16.3.2,5101,23910,34752,0,62848,65728,6,6,4,1460,1078,1,537920480,138,82732,82732,65700,0,34752,0,0,0
o,0x00000000,1720561318.099302,172.16.1.2,64464,172.16.3.2,5101,23910,36200,0,62848,65728,6,6,4,1460,1078,1,537920480,138,82732,82732,65700,0,34752,0,0,0
i,0x00000000,1720561318.099636,172.16.1.2,64464,172.16.3.2,5101,23910,36200,0,62848,65728,6,6,4,1460,1078,1,537920480,138,82732,82732,65700,0,36200,0,0,0
i,0x00000000,1720561318.133028,172.16.1.2,64464,172.16.3.2,5101,23910,36200,0,62848,65728,6,6,4,1460,1078,1,537920480,138,82732,82732,65700,0,36200,0,0,0
i,0x00000000,1720561318.133053,172.16.1.2,64464,172.16.3.2,5101,23910,36200,0,62848,65728,6,6,4,1460,1078,1,537920480,138,82732,82732,65700,0,36200,0,0,0
o,0x00000000,1720561318.133068,172.16.1.2,64464,172.16.3.2,5101,23910,37648,0,62848,65728,6,6,4,1460,1078,1,537920480,138,82732,82732,65700,0,36200,0,0,0
i,0x00000000,1720561318.214191,172.16.1.2,64464,172.16.3.2,5101,23910,37648,0,62848,65728,6,6,4,1460,1078,1,537920480,138,82732,82732,65700,0,37648,0,0,0
o,0x00000000,1720561318.214227,172.16.1.2,64464,172.16.3.2,5101,23910,26064,0,62848,65728,6,6,4,1460,1078,1,537920480,138,82732,82732,65700,0,37648,0,0,0
o,0x00000000,1720561318.215623,172.16.1.2,64464,172.16.3.2,5101,23910,26064,0,62848,65728,6,6,4,1460,1078,1,537920480,138,82732,82732,65700,0,37648,0,0,0
o,0x00000000,1720561318.217574,172.16.1.2,64464,172.16.3.2,5101,23910,26064,0,62848,65728,6,6,4,1460,1078,1,537920480,138,82732,82732,65700,0,37648,0,0,0
o,0x00000000,1720561318.218881,172.16.1.2,64464,172.16.3.2,5101,23910,26064,0,62848,65728,6,6,4,1460,1078,1,537920480,138,82732,82732,65700,0,37648,0,0,0
o,0x00000000,1720561318.220733,172.16.1.2,64464,172.16.3.2,5101,23910,26064,0,62848,65728,6,6,4,1460,1078,1,537920480,138,82732,82732,65700,0,37648,0,0,0
o,0x00000000,1720561318.221064,172.16.1.2,64464,172.16.3.2,5101,23910,26064,0,62848,65728,6,6,4,1460,1078,1,537920480,138,82732,82732,65700,0,37648,0,0,0
o,0x00000000,1720561318.221409,172.16.1.2,64464,172.16.3.2,5101,23910,26064,0,62848,65728,6,6,4,1460,1078,1,537920480,138,82732,82732,65700,0,37648,0,0,0
o,0x00000000,1720561318.221887,172.16.1.2,64464,172.16.3.2,5101,23910,26064,0,62848,65728,6,6,4,1460,1078,1,537920480,138,82732,82732,65700,0,37648,0,0,0
o,0x00000000,1720561318.222207,172.16.1.2,64464,172.16.3.2,5101,23910,26064,0,62848,65728,6,6,4,1460,1078,1,537920480,138,82732,82732,65700,0,37648,0,0,0
o,0x00000000,1720561318.222530,172.16.1.2,64464,172.16.3.2,5101,23910,26064,0,62848,65728,6,6,4,1460,1078,1,537920480,138,82732,82732,65700,0,37648,0,0,0
o,0x00000000,1720561318.222850,172.16.1.2,64464,172.16.3.2,5101,23910,26064,0,62848,65728,6,6,4,1460,1078,1,537920480,138,82732,82732,65700,0,37648,0,0,0
o,0x00000000,1720561318.223181,172.16.1.2,64464,172.16.3.2,5101,23910,26064,0,62848,65728,6,6,4,1460,1078,1,537920480,138,82732,82732,65700,0,37648,0,0,0
o,0x00000000,1720561318.223502,172.16.1.2,64464,172.16.3.2,5101,23910,26064,0,62848,65728,6,6,4,1460,1078,1,537920480,138,82732,82732,65700,0,37648,0,0,0
o,0x00000000,1720561318.223835,172.16.1.2,64464,172.16.3.2,5101,23910,26064,0,62848,65728,6,6,4,1460,1078,1,537920480,138,82732,82732,65700,0,37648,0,0,0
o,0x00000000,1720561318.224155,172.16.1.2,64464,172.16.3.2,5101,23910,26064,0,62848,65728,6,6,4,1460,1078,1,537920480,138,82732,82732,65700,0,37648,0,0,0
o,0x00000000,1720561318.224474,172.16.1.2,64464,172.16.3.2,5101,23910,26064,0,62848,65728,6,6,4,1460,1078,1,537920480,138,82732,82732,65700,0,37648,0,0,0
o,0x00000000,1720561318.225009,172.16.1.2,64464,172.16.3.2,5101,23910,26064,0,62848,65728,6,6,4,1460,1078,1,537920480,138,82732,82732,65700,0,37648,0,0,0
o,0x00000000,1720561318.225416,172.16.1.2,64464,172.16.3.2,5101,23910,26064,0,62848,65728,6,6,4,1460,1078,1,537920480,138,82732,82732,65700,0,37648,0,0,0
i,0x00000000,1720561318.225758,172.16.1.2,64464,172.16.3.2,5101,23910,26064,0,62848,65728,6,6,4,1460,1078,1,537920480,138,82732,82732,65700,0,37648,0,0,0
o,0x00000000,1720561318.225765,172.16.1.2,64464,172.16.3.2,5101,23910,33304,0,62848,65728,6,6,4,1460,1078,1,537920480,138,82732,82732,65700,0,37648,0,0,0
o,0x00000000,1720561318.226105,172.16.1.2,64464,172.16.3.2,5101,23910,33304,0,62848,65728,6,6,4,1460,1078,1,537920480,138,82732,82732,65700,0,37648,0,0,0
o,0x00000000,1720561318.226611,172.16.1.2,64464,172.16.3.2,5101,23910,33304,0,62848,65728,6,6,4,1460,1078,1,537920480,138,82732,82732,65700,0,37648,0,0,0
i,0x00000000,1720561318.241831,172.16.1.2,64464,172.16.3.2,5101,23910,33304,0,62848,65728,6,6,4,1460,1078,1,537920480,138,82732,82732,65700,0,37648,0,0,0
i,0x00000000,1720561318.600134,172.16.1.2,64464,172.16.3.2,5101,23910,37648,0,62848,65728,6,6,4,1460,1078,1,537920480,138,82732,82732,65700,0,37648,0,0,0
o,0x00000000,1720561318.600144,172.16.1.2,64464,172.16.3.2,5101,23910,36200,0,62848,65728,6,6,4,1460,1078,1,537920481,138,82732,82732,65700,0,37648,0,0,0
i,0x00000000,1720561318.600235,172.16.1.2,64464,172.16.3.2,5101,23910,36200,0,64320,65728,6,6,4,1460,1096,1,537920480,122,82732,81284,65700,0,36200,0,0,0
o,0x00000000,1720561318.600239,172.16.1.2,64464,172.16.3.2,5101,23910,34752,0,64320,65728,6,6,4,1460,1096,1,537920481,122,82732,81284,65700,0,36200,0,0,0
i,0x00000000,1720561318.600524,172.16.1.2,64464,172.16.3.2,5101,23910,34752,0,64256,65728,6,6,4,1460,1111,1,537920480,109,82732,79836,65700,0,34752,0,0,0
o,0x00000000,1720561318.600527,172.16.1.2,64464,172.16.3.2,5101,23910,33304,0,64256,65728,6,6,4,1460,1111,1,537920481,109,82732,79836,65700,0,34752,0,0,0
i,0x00000000,1720561318.634663,172.16.1.2,64464,172.16.3.2,5101,23910,33304,0,64256,65728,6,6,4,1460,1125,1,537920480,100,82732,82732,65700,0,33304,0,0,0
o,0x00000000,1720561318.634697,172.16.1.2,64464,172.16.3.2,5101,23910,31856,0,64256,65728,6,6,4,1460,1125,1,537920481,100,82732,82732,65700,0,33304,0,0,0
i,0x00000000,1720561318.638565,172.16.1.2,64464,172.16.3.2,5101,23910,31856,0,64256,65728,6,6,4,1460,1153,1,537920480,96,82732,81284,65700,0,31856,0,0,0
o,0x00000000,1720561318.638580,172.16.1.2,64464,172.16.3.2,5101,23910,30408,0,64256,65728,6,6,4,1460,1153,1,537920481,96,82732,81284,65700,0,31856,0,0,0
i,0x00000000,1720561318.639464,172.16.1.2,64464,172.16.3.2,5101,23910,30408,0,62848,65728,6,6,4,1460,1177,1,537920480,93,82732,79836,65700,0,30408,0,0,0
o,0x00000000,1720561318.639481,172.16.1.2,64464,172.16.3.2,5101,23910,30408,0,62848,65728,6,6,4,1460,1177,1,537920481,93,82732,79836,65700,0,30408,0,0,0
i,0x00000000,1720561318.639885,172.16.1.2,64464,172.16.3.2,5101,23910,30408,0,61440,65728,6,6,4,1460,1198,1,537920480,90,82732,78388,65700,0,30408,0,0,0
o,0x00000000,1720561318.639901,172.16.1.2,64464,172.16.3.2,5101,23910,30408,0,61440,65728,6,6,4,1460,1198,1,537920481,90,82732,78388,65700,0,30408,0,0,0
i,0x00000000,1720561318.676129,172.16.1.2,64464,172.16.3.2,5101,23910,30408,0,64256,65728,6,6,4,1460,1217,1,537920480,87,82732,82732,65700,0,30408,0,0,0
o,0x00000000,1720561318.676149,172.16.1.2,64464,172.16.3.2,5101,23910,30408,0,64256,65728,6,6,4,1460,1217,1,537920481,87,82732,82732,65700,0,30408,0,0,0
i,0x00000000,1720561318.676706,172.16.1.2,64464,172.16.3.2,5101,23910,30408,0,64256,65728,6,6,4,1460,1249,1,537920480,89,82732,81284,65700,0,30408,0,0,0
o,0x00000000,1720561318.676716,172.16.1.2,64464,172.16.3.2,5101,23910,30408,0,64256,65728,6,6,4,1460,1249,1,537920481,89,82732,81284,65700,0,30408,0,0,0
i,0x00000000,1720561318.683207,172.16.1.2,64464,172.16.3.2,5101,23910,30408,0,64256,65728,6,6,4,1460,1277,1,537920480,89,82732,82732,65700,0,30408,0,0,0
o,0x00000000,1720561318.683223,172.16.1.2,64464,172.16.3.2,5101,23910,30408,0,64256,65728,6,6,4,1460,1277,1,537920481,89,82732,82732,65700,0,30408,0,0,0
i,0x00000000,1720561318.713002,172.16.1.2,64464,172.16.3.2,5101,23910,30408,0,64256,65728,6,6,4,1460,1302,1,537920480,89,82732,81284,65700,0,30408,0,0,0
o,0x00000000,1720561318.713013,172.16.1.2,64464,172.16.3.2,5101,23910,30408,0,64256,65728,6,6,4,1460,1302,1,537920481,89,82732,81284,65700,0,30408,0,0,0
i,0x00000000,1720561318.713770,172.16.1.2,64464,172.16.3.2,5101,23910,30408,0,64256,65728,6,6,4,1460,1336,1,537920480,92,82732,79836,65700,0,30408,0,0,0
o,0x00000000,1720561318.713792,172.16.1.2,64464,172.16.3.2,5101,23910,30408,0,64256,65728,6,6,4,1460,1336,1,537920481,92,82732,79836,65700,0,30408,0,0,0
i,0x00000000,1720561318.750862,172.16.1.2,64464,172.16.3.2,5101,23910,30408,0,64256,65728,6,6,4,1460,1365,1,537920480,92,82732,82732,65700,0,30408,0,0,0
o,0x00000000,1720561318.750873,172.16.1.2,64464,172.16.3.2,5101,23910,30408,0,64256,65728,6,6,4,1460,1365,1,537920481,92,82732,82732,65700,0,30408,0,0,0
i,0x00000000,1720561318.751330,172.16.1.2,64464,172.16.3.2,5101,23910,30408,0,64256,65728,6,6,4,1460,1407,1,537920480,96,82732,81284,65700,0,30408,0,0,0
o,0x00000000,1720561318.751335,172.16.1.2,64464,172.16.3.2,5101,23910,30408,0,64256,65728,6,6,4,1460,1407,1,537920481,96,82732,81284,65700,0,30408,0,0,0
i,0x00000000,1720561318.786979,172.16.1.2,64464,172.16.3.2,5101,23910,30408,0,64256,65728,6,6,4,1460,1444,1,537920480,99,82732,82732,65700,0,30408,0,0,0
o,0x00000000,1720561318.787008,172.16.1.2,64464,172.16.3.2,5101,23910,30408,0,64256,65728,6,6,4,1460,1444,1,537920481,99,82732,82732,65700,0,30408,0,0,0
i,0x00000000,1720561318.834399,172.16.1.2,64464,172.16.3.2,5101,23910,30408,0,64256,65728,6,6,4,1460,1492,1,537920480,104,82732,81284,65700,0,30408,0,0,0
o,0x00000000,1720561318.834434,172.16.1.2,64464,172.16.3.2,5101,23910,30408,0,64256,65728,6,6,4,1460,1492,1,537920481,104,82732,81284,65700,0,30408,0,0,0
i,0x00000000,1720561318.853952,172.16.1.2,64464,172.16.3.2,5101,23910,30408,0,64256,65728,6,6,4,1460,1554,1,537920480,112,82732,82732,65700,0,30408,0,0,0
o,0x00000000,1720561318.853987,172.16.1.2,64464,172.16.3.2,5101,23910,31856,0,64256,65728,6,6,4,1460,1554,1,537920480,112,82732,82732,65700,0,30408,0,0,0
i,0x00000000,1720561318.857190,172.16.1.2,64464,172.16.3.2,5101,23910,31856,0,64256,65728,6,6,4,1460,1554,1,537920480,112,82732,82732,65700,0,31856,0,0,0
o,0x00000000,1720561318.857206,172.16.1.2,64464,172.16.3.2,5101,23910,31856,0,64256,65728,6,6,4,1460,1554,1,537920481,112,82732,82732,65700,0,31856,0,0,0
i,0x00000000,1720561318.864432,172.16.1.2,64464,172.16.3.2,5101,23910,31856,0,64320,65728,6,6,4,1460,1616,1,537920480,119,82732,81284,65700,0,31856,0,0,0
o,0x00000000,1720561318.864448,172.16.1.2,64464,172.16.3.2,5101,23910,33304,0,64320,65728,6,6,4,1460,1616,1,537920480,119,82732,81284,65700,0,31856,0,0,0
i,0x00000000,1720561318.876254,172.16.1.2,64464,172.16.3.2,5101,23910,33304,0,64320,65728,6,6,4,1460,1616,1,537920480,119,82732,81284,65700,0,33304,0,0,0
o,0x00000000,1720561318.876278,172.16.1.2,64464,172.16.3.2,5101,23910,33304,0,64320,65728,6,6,4,1460,1616,1,537920481,119,82732,81284,65700,0,33304,0,0,0
i,0x00000000,1720561318.926202,172.16.1.2,64464,172.16.3.2,5101,23910,33304,0,64320,65728,6,6,4,1460,1678,1,537920480,124,82732,82732,65700,0,33304,0,0,0
o,0x00000000,1720561318.926237,172.16.1.2,64464,172.16.3.2,5101,23910,33304,0,64320,65728,6,6,4,1460,1678,1,537920481,124,82732,82732,65700,0,33304,0,0,0
i,0x00000000,1720561318.928099,172.16.1.2,64464,172.16.3.2,5101,23910,33304,0,64256,65728,6,6,4,1460,1753,1,537920480,132,82732,81284,65700,0,33304,0,0,0
o,0x00000000,1720561318.928125,172.16.1.2,64464,172.16.3.2,5101,23910,33304,0,64256,65728,6,6,4,1460,1753,1,537920481,132,82732,81284,65700,0,33304,0,0,0
i,0x00000000,1720561318.959766,172.16.1.2,64464,172.16.3.2,5101,23910,33304,0,64256,65728,6,6,4,1460,1818,1,537920480,136,82732,82732,65700,0,33304,0,0,0
o,0x00000000,1720561318.959799,172.16.1.2,64464,172.16.3.2,5101,23910,34752,0,64256,65728,6,6,4,1460,1818,1,537920480,136,82732,82732,65700,0,33304,0,0,0
i,0x00000000,1720561318.960832,172.16.1.2,64464,172.16.3.2,5101,23910,34752,0,64256,65728,6,6,4,1460,1818,1,537920480,136,82732,82732,65700,0,34752,0,0,0
i,0x00000000,1720561318.965270,172.16.1.2,64464,172.16.3.2,5101,23910,23910,0,64320,65728,6,6,4,1460,1883,1,992,140,82732,81284,65700,0,33304,0,0,0
i,0x00000000,1720561318.995392,172.16.1.2,64464,172.16.3.2,5101,23910,23910,0,64320,65728,6,6,4,1460,1883,1,992,140,82732,81284,65700,0,33304,0,0,0
o,0x00000000,1720561318.995429,172.16.1.2,64464,172.16.3.2,5101,11955,1448,0,64320,65728,6,6,4,1460,1883,1,537920480,140,82732,81284,65700,0,33304,0,0,0
i,0x00000000,1720561319.042593,172.16.1.2,64464,172.16.3.2,5101,11955,1448,0,64320,65728,6,6,4,1460,1883,1,537920480,140,82732,81284,65700,0,33304,0,0,0
o,0x00000000,1720561319.042604,172.16.1.2,64464,172.16.3.2,5101,11955,4344,0,64320,65728,6,6,4,1460,1883,1,537920480,140,82732,81284,65700,0,33304,0,0,0
o,0x00000000,1720561319.042871,172.16.1.2,64464,172.16.3.2,5101,11955,4344,0,64320,65728,6,6,4,1460,1883,1,537920480,140,82732,81284,65700,0,33304,0,0,0
i,0x00000000,1720561319.074673,172.16.1.2,64464,172.16.3.2,5101,11955,4344,0,64320,65728,6,6,4,1460,1883,1,537920480,140,82732,81284,65700,0,34752,0,0,0
i,0x00000000,1720561319.170950,172.16.1.2,64464,172.16.3.2,5101,11955,4344,0,64320,65728,6,6,4,1460,1883,1,537920480,140,82732,81284,65700,0,34752,0,0,0
i,0x00000000,1720561319.172255,172.16.1.2,64464,172.16.3.2,5101,11955,4344,0,64320,65728,6,6,4,1460,1883,1,537920480,140,82732,81284,65700,0,34752,0,0,0
o,0x00000000,1720561319.172291,172.16.1.2,64464,172.16.3.2,5101,11955,4344,0,64320,65728,6,6,4,1460,1883,1,537920481,140,82732,81284,65700,0,34752,0,0,0
i,0x00000000,1720561319.204587,172.16.1.2,64464,172.16.3.2,5101,11955,4344,0,64320,65728,6,6,4,1460,1720,1,537920480,160,82732,82732,65700,0,34752,0,0,0
i,0x00000000,1720561319.206832,172.16.1.2,64464,172.16.3.2,5101,11955,4344,0,65728,65728,6,6,4,1460,1720,1,537920480,160,82732,82732,65700,0,34752,0,0,0
i,0x00000000,1720561319.234301,172.16.1.2,64464,172.16.3.2,5101,11955,4344,0,65728,65728,6,6,4,1460,1720,1,537920480,160,82732,82732,65700,0,34752,0,0,0
o,0x00000000,1720561319.234312,172.16.1.2,64464,172.16.3.2,5101,11955,5792,0,65728,65728,6,6,4,1460,1720,1,537920481,160,82732,82732,65700,0,34752,0,0,0
i,0x00000000,1720561319.238531,172.16.1.2,64464,172.16.3.2,5101,11955,5792,0,48384,65728,6,6,4,1460,1581,1,537920480,169,82732,82732,65700,0,17376,0,0,0
i,0x00000000,1720561319.242351,172.16.1.2,64464,172.16.3.2,5101,11955,17376,0,48384,65728,6,6,4,1460,1581,1,537920480,169,82732,82732,65700,0,17376,0,0,0
i,0x00000000,1720561319.243094,172.16.1.2,64464,172.16.3.2,5101,11955,17376,0,48384,65728,6,6,4,1460,1581,1,537920480,169,82732,82732,65700,0,17376,0,0,0
i,0x00000000,1720561319.275390,172.16.1.2,64464,172.16.3.2,5101,11955,17376,0,48384,65728,6,6,4,1460,1581,1,537920480,169,82732,82732,65700,0,17376,0,0,0
i,0x00000000,1720561319.275398,172.16.1.2,64464,172.16.3.2,5101,11955,17376,0,48384,65728,6,6,4,1460,1581,1,537920480,169,82732,82732,65700,0,17376,0,0,0
o,0x00000000,1720561319.275403,172.16.1.2,64464,172.16.3.2,5101,11955,18824,0,48384,65728,6,6,4,1460,1581,1,537920480,169,82732,82732,65700,0,17376,0,0,0
i,0x00000000,1720561319.292175,172.16.1.2,64464,172.16.3.2,5101,11955,18824,0,48384,65728,6,6,4,1460,1581,1,537920480,169,82732,82732,65700,0,18824,0,0,0
o,0x00000000,1720561319.292187,172.16.1.2,64464,172.16.3.2,5101,11955,20272,0,48384,65728,6,6,4,1460,1581,1,537920480,169,82732,82732,65700,0,18824,0,0,0
i,0x00000000,1720561319.345873,172.16.1.2,64464,172.16.3.2,5101,11955,20272,0,48384,65728,6,6,4,1460,1581,1,537920480,169,82732,82732,65700,0,20272,0,0,0
o,0x00000000,1720561319.345907,172.16.1.2,64464,172.16.3.2,5101,11955,21720,0,48384,65728,6,6,4,1460,1581,1,537920480,169,82732,82732,65700,0,20272,0,0,0
i,0x00000000,1720561319.348125,172.16.1.2,64464,172.16.3.2,5101,11955,21720,0,48384,65728,6,6,4,1460,1581,1,537920480,169,82732,82732,65700,0,21720,0,0,0
o,0x00000000,1720561319.348147,172.16.1.2,64464,172.16.3.2,5101,11955,23168,0,48384,65728,6,6,4,1460,1581,1,537920480,169,82732,82732,65700,0,21720,0,0,0
i,0x00000000,1720561319.349500,172.16.1.2,64464,172.16.3.2,5101,11955,23168,0,48384,65728,6,6,4,1460,1581,1,537920480,169,82732,82732,65700,0,23168,0,0,0
o,0x00000000,1720561319.349503,172.16.1.2,64464,172.16.3.2,5101,11955,24616,0,48384,65728,6,6,4,1460,1581,1,537920480,169,82732,82732,65700,0,23168,0,0,0
i,0x00000000,1720561319.395852,172.16.1.2,64464,172.16.3.2,5101,11955,24616,0,48384,65728,6,6,4,1460,1581,1,537920480,169,82732,82732,65700,0,24616,0,0,0
o,0x00000000,1720561319.395884,172.16.1.2,64464,172.16.3.2,5101,11955,13032,0,48384,65728,6,6,4,1460,1581,1,537920480,169,82732,82732,65700,0,24616,0,0,0
o,0x00000000,1720561319.396302,172.16.1.2,64464,172.16.3.2,5101,11955,13032,0,48384,65728,6,6,4,1460,1581,1,537920480,169,82732,82732,65700,0,24616,0,0,0
o,0x00000000,1720561319.397225,172.16.1.2,64464,172.16.3.2,5101,11955,13032,0,48384,65728,6,6,4,1460,1581,1,537920480,169,82732,82732,65700,0,24616,0,0,0
o,0x00000000,1720561319.397541,172.16.1.2,64464,172.16.3.2,5101,11955,13032,0,48384,65728,6,6,4,1460,1581,1,537920480,169,82732,82732,65700,0,24616,0,0,0
o,0x00000000,1720561319.397821,172.16.1.2,64464,172.16.3.2,5101,11955,13032,0,48384,65728,6,6,4,1460,1581,1,537920480,169,82732,82732,65700,0,24616,0,0,0
o,0x00000000,1720561319.398103,172.16.1.2,64464,172.16.3.2,5101,11955,13032,0,48384,65728,6,6,4,1460,1581,1,537920480,169,82732,82732,65700,0,24616,0,0,0
o,0x00000000,1720561319.398381,172.16.1.2,64464,172.16.3.2,5101,11955,13032,0,48384,65728,6,6,4,1460,1581,1,537920480,169,82732,82732,65700,0,24616,0,0,0
o,0x00000000,1720561319.398663,172.16.1.2,64464,172.16.3.2,5101,11955,13032,0,48384,65728,6,6,4,1460,1581,1,537920480,169,82732,82732,65700,0,24616,0,0,0
o,0x00000000,1720561319.398979,172.16.1.2,64464,172.16.3.2,5101,11955,13032,0,48384,65728,6,6,4,1460,1581,1,537920480,169,82732,82732,65700,0,24616,0,0,0
i,0x00000000,1720561319.399263,172.16.1.2,64464,172.16.3.2,5101,11955,13032,0,48384,65728,6,6,4,1460,1581,1,537920480,169,82732,82732,65700,0,24616,0,0,0
o,0x00000000,1720561319.399275,172.16.1.2,64464,172.16.3.2,5101,11955,23168,0,48384,65728,6,6,4,1460,1581,1,537920480,169,82732,82732,65700,0,24616,0,0,0
i,0x00000000,1720561319.425903,172.16.1.2,64464,172.16.3.2,5101,11955,23168,0,48384,65728,6,6,4,1460,1581,1,537920480,169,82732,82732,65700,0,24616,0,0,0
i,0x00000000,1720561319.453172,172.16.1.2,64464,172.16.3.2,5101,11955,24616,0,48384,65728,6,6,4,1460,1581,1,537920480,169,82732,82732,65700,0,24616,0,0,0
i,0x00000000,1720561319.546956,172.16.1.2,64464,172.16.3.2,5101,11955,24616,0,48384,65728,6,6,4,1460,1581,1,537920480,169,82732,82732,65700,0,24616,0,0,0
i,0x00000000,1720561319.569324,172.16.1.2,64464,172.16.3.2,5101,11955,24616,0,48384,65728,6,6,4,1460,1581,1,537920480,169,82732,82732,65700,0,24616,0,0,0
i,0x00000000,1720561319.586826,172.16.1.2,64464,172.16.3.2,5101,11955,24616,0,48384,65728,6,6,4,1460,1581,1,537920480,169,82732,82732,65700,0,24616,0,0,0
i,0x00000000,1720561319.665044,172.16.1.2,64464,172.16.3.2,5101,11955,24616,0,48384,65728,6,6,4,1460,1581,1,537920480,169,82732,82732,65700,0,24616,0,0,0
o,0x00000000,1720561319.665063,172.16.1.2,64464,172.16.3.2,5101,11955,23168,0,48384,65728,6,6,4,1460,1581,1,537920481,169,82732,82732,65700,0,24616,0,0,0
i,0x00000000,1720561319.682749,172.16.1.2,64464,172.16.3.2,5101,11955,23168,0,64320,65728,6,6,4,1460,1492,1,537920480,163,82732,81284,65700,0,23168,0,0,0
o,0x00000000,1720561319.682767,172.16.1.2,64464,172.16.3.2,5101,11955,21720,0,64320,65728,6,6,4,1460,1492,1,537920481,163,82732,81284,65700,0,23168,0,0,0
i,0x00000000,1720561319.683332,172.16.1.2,64464,172.16.3.2,5101,11955,21720,0,64256,65728,6,6,4,1460,1422,1,537920480,154,82732,79836,65700,0,21720,0,0,0
o,0x00000000,1720561319.683342,172.16.1.2,64464,172.16.3.2,5101,11955,21720,0,64256,65728,6,6,4,1460,1422,1,537920481,154,82732,79836,65700,0,21720,0,0,0
i,0x00000000,1720561319.697674,172.16.1.2,64464,172.16.3.2,5101,11955,21720,0,64256,65728,6,6,4,1460,1357,1,537920480,146,82732,82732,65700,0,21720,0,0,0
o,0x00000000,1720561319.697695,172.16.1.2,64464,172.16.3.2,5101,11955,21720,0,64256,65728,6,6,4,1460,1357,1,537920481,146,82732,82732,65700,0,21720,0,0,0
i,0x00000000,1720561319.714556,172.16.1.2,64464,172.16.3.2,5101,11955,21720,0,64256,65728,6,6,4,1460,1308,1,537920480,136,82732,81284,65700,0,21720,0,0,0
o,0x00000000,1720561319.714582,172.16.1.2,64464,172.16.3.2,5101,11955,21720,0,64256,65728,6,6,4,1460,1308,1,537920481,136,82732,81284,65700,0,21720,0,0,0
i,0x00000000,1720561319.735234,172.16.1.2,64464,172.16.3.2,5101,11955,21720,0,64256,65728,6,6,4,1460,1269,1,537920480,126,82732,82732,65700,0,21720,0,0,0
o,0x00000000,1720561319.735263,172.16.1.2,64464,172.16.3.2,5101,11955,21720,0,64256,65728,6,6,4,1460,1269,1,537920481,126,82732,82732,65700,0,21720,0,0,0
i,0x00000000,1720561319.735822,172.16.1.2,64464,172.16.3.2,5101,11955,21720,0,64256,65728,6,6,4,1460,1243,1,537920480,115,82732,81284,65700,0,21720,0,0,0
o,0x00000000,1720561319.735839,172.16.1.2,64464,172.16.3.2,5101,11955,21720,0,64256,65728,6,6,4,1460,1243,1,537920481,115,82732,81284,65700,0,21720,0,0,0
i,0x00000000,1720561319.763458,172.16.1.2,64464,172.16.3.2,5101,11955,21720,0,62848,65728,6,6,4,1460,1220,1,537920480,106,82732,82732,65700,0,21720,0,0,0
o,0x00000000,1720561319.763470,172.16.1.2,64464,172.16.3.2,5101,11955,21720,0,62848,65728,6,6,4,1460,1220,1,537920481,106,82732,82732,65700,0,21720,0,0,0
i,0x00000000,1720561319.769258,172.16.1.2,64464,172.16.3.2,5101,11955,21720,0,64256,65728,6,6,4,1460,1212,1,537920480,96,82732,81284,65700,0,21720,0,0,0
o,0x00000000,1720561319.769268,172.16.1.2,64464,172.16.3.2,5101,11955,21720,0,64256,65728,6,6,4,1460,1212,1,537920481,96,82732,81284,65700,0,21720,0,0,0
i,0x00000000,1720561319.795059,172.16.1.2,64464,172.16.3.2,5101,11955,21720,0,64256,65728,6,6,4,1460,1209,1,537920480,87,82732,82732,65700,0,21720,0,0,0
o,0x00000000,1720561319.795074,172.16.1.2,64464,172.16.3.2,5101,11955,11596,0,54144,65728,6,6,4,1460,1214,1,992,81,82732,71148,65700,0,10136,0,0,0
i,0x00000000,1720561319.863868,172.16.1.2,64464,172.16.3.2,5101,11955,11596,0,54144,65728,6,6,4,1460,1214,1,992,81,82732,82732,65700,0,11584,0,0,0
o,0x00000000,1720561319.863899,172.16.1.2,64464,172.16.3.2,5101,11955,14492,0,64256,65728,6,6,4,1460,1131,1,992,93,82732,79836,65700,0,8688,0,0,0
o,0x00000000,1720561319.865393,172.16.1.2,64464,172.16.3.2,5101,11955,14492,0,64256,65728,6,6,4,1460,1131,1,992,93,82732,79836,65700,0,10136,0,0,0
o,0x00000000,1720561319.867723,172.16.1.2,64464,172.16.3.2,5101,11955,14492,0,64256,65728,6,6,4,1460,1131,1,992,93,82732,79836,65700,0,11584,0,0,0
o,0x00000000,1720561319.868744,172.16.1.2,64464,172.16.3.2,5101,11955,14492,0,64256,65728,6,6,4,1460,1131,1,992,93,82732,79836,65700,0,13032,0,0,0
i,0x00000000,1720561319.923929,172.16.1.2,64464,172.16.3.2,5101,11955,14492,0,64256,65728,6,6,4,1460,1131,1,992,93,82732,82732,65700,0,14480,0,0,0
o,0x00000000,1720561319.923971,172.16.1.2,64464,172.16.3.2,5101,11955,14492,0,65728,65728,6,6,4,1460,1070,1,992,97,82732,81284,65700,0,13032,0,0,0
i,0x00000000,1720561319.934657,172.16.1.2,64464,172.16.3.2,5101,11955,14492,0,65728,65728,6,6,4,1460,1070,1,992,97,82732,81284,65700,0,14480,0,0,0
o,0x00000000,1720561319.934695,172.16.1.2,64464,172.16.3.2,5101,11955,14492,0,64256,65728,6,6,4,1460,1017,1,992,98,82732,78388,65700,0,11584,0,0,0
o,0x00000000,1720561319.936081,172.16.1.2,64464,172.16.3.2,5101,11955,14492,0,64256,65728,6,6,4,1460,1017,1,992,98,82732,78388,65700,0,13032,0,0,0
i,0x00000000,1720561319.964092,172.16.1.2,64464,172.16.3.2,5101,11955,14492,0,64256,65728,6,6,4,1460,1017,1,992,98,82732,82732,65700,0,14480,0,0,0
o,0x00000000,1720561319.964132,172.16.1.2,64464,172.16.3.2,5101,11955,14492,0,62848,65728,6,6,4,1460,970,1,992,97,82732,79836,65700,0,11584,0,0,0
o,0x00000000,1720561319.965333,172.16.1.2,64464,172.16.3.2,5101,11955,14492,0,62848,65728,6,6,4,1460,970,1,992,97,82732,79836,65700,0,13032,0,0,0
i,0x00000000,1720561320.007441,172.16.1.2,64464,172.16.3.2,5101,11955,14492,0,62848,65728,6,6,4,1460,970,1,992,97,82732,82732,65700,0,14480,0,0,0
o,0x00000000,1720561320.007483,172.16.1.2,64464,172.16.3.2,5101,11955,14492,0,65728,65728,6,6,4,1460,933,1,992,93,82732,81284,65700,0,13032,0,0,0
i,0x00000000,1720561320.044989,172.16.1.2,64464,172.16.3.2,5101,11955,14492,0,65728,65728,6,6,4,1460,933,1,992,93,82732,81284,65700,0,14480,0,0,0
o,0x00000000,1720561320.045030,172.16.1.2,64464,172.16.3.2,5101,11955,14492,0,64256,65728,6,6,4,1460,889,1,992,92,82732,78388,65700,0,11584,0,0,0
o,0x00000000,1720561320.046266,172.16.1.2,64464,172.16.3.2,5101,11955,14492,0,64256,65728,6,6,4,1460,889,1,992,92,82732,78388,65700,0,13032,0,0,0
i,0x00000000,1720561320.104469,172.16.1.2,64464,172.16.3.2,5101,11955,14492,0,64256,65728,6,6,4,1460,889,1,992,92,82732,82732,65700,0,14480,0,0,0
o,0x00000000,1720561320.104510,172.16.1.2,64464,172.16.3.2,5101,11955,14492,0,64256,65728,6,6,4,1460,870,1,992,85,82732,79836,65700,0,11584,0,0,0
o,0x00000000,1720561320.105920,172.16.1.2,64464,172.16.3.2,5101,11955,14492,0,64256,65728,6,6,4,1460,870,1,992,85,82732,79836,65700,0,13032,0,0,0
i,0x00000000,1720561320.164948,172.16.1.2,64464,172.16.3.2,5101,11955,14492,0,64256,65728,6,6,4,1460,870,1,992,85,82732,82732,65700,0,14480,0,0,0
o,0x00000000,1720561320.164992,172.16.1.2,64464,172.16.3.2,5101,11955,15952,0,64256,65728,6,6,4,1460,854,1,992,79,82732,79836,65700,0,11584,0,0,0
o,0x00000000,1720561320.167141,172.16.1.2,64464,172.16.3.2,5101,11955,15952,0,64256,65728,6,6,4,1460,854,1,992,79,82732,79836,65700,0,13032,0,0,0
o,0x00000000,1720561320.168517,172.16.1.2,64464,172.16.3.2,5101,11955,15952,0,64256,65728,6,6,4,1460,854,1,992,79,82732,79836,65700,0,14480,0,0,0
i,0x00000000,1720561320.214740,172.16.1.2,64464,172.16.3.2,5101,11955,15952,0,64256,65728,6,6,4,1460,854,1,992,79,82732,82732,65700,0,15928,0,0,0
o,0x00000000,1720561320.214755,172.16.1.2,64464,172.16.3.2,5101,11955,15952,0,65728,65728,6,6,4,1460,856,1,992,72,82732,81284,65700,0,14480,0,0,0
i,0x00000000,1720561320.221924,172.16.1.2,64464,172.16.3.2,5101,11955,15952,0,65728,65728,6,6,4,1460,856,1,992,72,82732,81284,65700,0,15928,0,0,0
o,0x00000000,1720561320.221938,172.16.1.2,64464,172.16.3.2,5101,11955,15952,0,64256,65728,6,6,4,1460,853,1,992,66,82732,78388,65700,0,13032,0,0,0
o,0x00000000,1720561320.222266,172.16.1.2,64464,172.16.3.2,5101,11955,15952,0,64256,65728,6,6,4,1460,853,1,992,66,82732,78388,65700,0,14480,0,0,0
i,0x00000000,1720561320.273364,172.16.1.2,64464,172.16.3.2,5101,11955,15952,0,64256,65728,6,6,4,1460,853,1,992,66,82732,82732,65700,0,15928,0,0,0
o,0x00000000,1720561320.273378,172.16.1.2,64464,172.16.3.2,5101,11955,15952,0,64256,65728,6,6,4,1460,851,1,992,62,82732,79836,65700,0,13032,0,0,0
