enable_time_secs=1720561514	enable_time_usecs=539436	siftrver=1.2.4	hz=100	tcp_rtt_scale=32	sysname=FreeBSD	sysver=1301000	ipmode=4
o,0x00000000,1720561514.539484,10.0.2.15,22,10.0.2.2,56338,1073725440,17770,0,65535,65700,0,0,4,1460,1,0,4,24,33580,44,65700,0,0,0,0,0
o,0x00000000,1720561514.539690,10.0.2.15,22,10.0.2.2,56338,1073725440,17770,0,65535,65700,0,0,4,1460,1,0,4,24,33580,80,65700,0,44,0,0,0
i,0x00000000,1720561514.540543,10.0.2.15,22,10.0.2.2,56338,1073725440,17770,0,65535,65700,0,0,4,1460,1,0,4,24,33580,80,65700,0,80,0,0,0
i,0x00000000,1720561514.540548,10.0.2.15,22,10.0.2.2,56338,1073725440,17814,0,65535,65700,0,0,4,1460,1,0,4,24,33580,36,65700,0,36,0,0,0
o,0x00000000,1720561514.540687,10.0.2.15,22,10.0.2.2,56338,1073725440,17850,0,65535,65700,0,0,4,1460,1,0,4,24,33580,36,65700,0,0,0,0,0
i,0x00000000,1720561514.541306,10.0.2.15,22,10.0.2.2,56338,1073725440,17850,0,65535,65700,0,0,4,1460,1,0,4,24,33580,36,65700,0,36,0,0,0
o,0x00000000,1720561514.541410,10.0.2.15,22,10.0.2.2,56338,1073725440,17886,0,65535,65700,0,0,4,1460,1,0,4,24,33580,36,65700,0,0,0,0,0
i,0x00000000,1720561514.542265,10.0.2.15,22,10.0.2.2,56338,1073725440,17886,0,65535,65700,0,0,4,1460,1,0,4,24,33580,36,65700,0,36,0,0,0
o,0x00000000,1720561514.542408,10.0.2.15,22,10.0.2.2,56338,1073725440,17922,0,65535,65700,0,0,4,1460,1,0,4,24,33580,140,65700,0,0,0,0,0
i,0x00000000,1720561514.543577,10.0.2.15,22,10.0.2.2,56338,1073725440,17922,0,65535,65700,0,0,4,1460,1,0,4,24,33580,140,65700,0,140,0,0,0
i,0x00000000,1720561514.543615,10.0.2.15,22,10.0.2.2,56338,1073725440,18062,0,65535,65700,0,0,4,1460,1,0,4,24,33580,0,65700,0,0,0,0,0
i,0x00000000,1720561514.543618,10.0.2.15,22,10.0.2.2,56338,1073725440,18062,0,65535,65700,0,0,4,1460,1,0,4,24,33580,0,65700,96,0,0,0,0
o,0x00000000,1720561514.543621,10.0.2.15,22,10.0.2.2,56338,1073725440,18062,0,65535,65604,0,0,5,1460,1,0,5,24,33580,0,65700,96,0,0,0,0
o,0x00000000,1720561514.544022,10.0.2.15,22,10.0.2.2,56338,1073725440,18062,0,65535,65604,0,0,8,1460,1,0,4,24,33580,0,65700,0,0,0,0,0
i,0x00000000,1720561514.544762,10.0.2.15,22,10.0.2.2,56338,1073725440,18062,0,65535,65604,0,0,8,1460,1,0,20,24,33580,0,65700,0,1,0,0,0
i,0x00000000,1720561516.885757,10.0.2.15,22,10.0.2.2,56350,1073725440,14600,0,65535,65700,0,0,4,1460,1,0,0,27,33580,0,65700,0,0,0,0,0
o,0x00000000,1720561516.897148,10.0.2.15,22,10.0.2.2,56350,1073725440,14600,0,65535,65700,0,0,4,1460,1,0,0,27,33580,38,65700,42,0,0,0,0
i,0x00000000,1720561516.898576,10.0.2.15,22,10.0.2.2,56350,1073725440,14600,0,65535,65700,0,0,4,1460,1,0,0,27,33580,38,65700,42,38,0,0,0
i,0x00000000,1720561516.898582,10.0.2.15,22,10.0.2.2,56350,1073725440,14638,0,65535,65700,0,0,4,1460,1,0,0,24,33580,0,65700,42,0,0,0,0
i,0x00000000,1720561516.898584,10.0.2.15,22,10.0.2.2,56350,1073725440,14638,0,65535,65700,0,0,4,1460,1,0,0,24,33580,0,65700,1502,0,0,0,0
o,0x00000000,1720561516.898587,10.0.2.15,22,10.0.2.2,56350,1073725440,14638,0,65535,65700,0,0,4,1460,1,0,1,24,33580,0,65700,1578,0,0,0,0
o,0x00000000,1720561516.899720,10.0.2.15,22,10.0.2.2,56350,1073725440,14638,0,65535,65700,0,0,4,1460,1,0,0,24,33580,1056,65700,1536,0,0,0,0
i,0x00000000,1720561516.901692,10.0.2.15,22,10.0.2.2,56350,1073725440,14638,0,65535,65700,0,0,4,1460,1,0,0,24,33580,1056,65700,1536,1056,0,0,0
i,0x00000000,1720561516.903223,10.0.2.15,22,10.0.2.2,56350,1073725440,15694,0,65535,65700,0,0,4,1460,1,0,0,24,33580,0,65700,0,0,0,0,0
o,0x00000000,1720561516.907010,10.0.2.15,22,10.0.2.2,56350,1073725440,15694,0,65535,65700,0,0,4,1460,1,0,0,24,33580,484,65700,0,0,0,0,0
i,0x00000000,1720561516.907823,10.0.2.15,22,10.0.2.2,56350,1073725440,15694,0,65535,65700,0,0,4,1460,1,0,0,24,33580,484,65700,0,484,0,0,0
i,0x00000000,1720561516.915682,10.0.2.15,22,10.0.2.2,56350,1073725440,16178,0,65535,65700,0,0,4,1460,1,0,0,24,33580,0,65700,0,0,0,0,0
i,0x00000000,1720561516.915689,10.0.2.15,22,10.0.2.2,56350,1073725440,16178,0,65535,65700,0,0,4,1460,1,0,0,24,33580,0,65700,16,0,0,0,0
o,0x00000000,1720561516.915694,10.0.2.15,22,10.0.2.2,56350,1073725440,16178,0,65535,65700,0,0,4,1460,1,0,1,24,33580,0,65700,60,0,0,0,0
o,0x00000000,1720561516.916012,10.0.2.15,22,10.0.2.2,56350,1073725440,16178,0,65535,65700,0,0,4,1460,1,0,0,24,33580,44,65700,0,0,0,0,0
i,0x00000000,1720561516.917422,10.0.2.15,22,10.0.2.2,56350,1073725440,16178,0,65535,65700,0,0,4,1460,1,0,0,24,33580,44,65700,0,44,0,0,0
i,0x00000000,1720561516.917430,10.0.2.15,22,10.0.2.2,56350,1073725440,16222,0,65535,65700,0,0,4,1460,1,0,0,24,33580,0,65700,0,0,0,0,0
o,0x00000000,1720561516.927141,10.0.2.15,22,10.0.2.2,56350,1073725440,16222,0,65535,65700,0,0,4,1460,1,0,0,24,33580,68,65700,0,0,0,0,0
i,0x00000000,1720561516.928625,10.0.2.15,22,10.0.2.2,56350,1073725440,16222,0,65535,65700,0,0,4,1460,1,0,0,24,33580,68,65700,0,68,0,0,0
i,0x00000000,1720561516.928632,10.0.2.15,22,10.0.2.2,56350,1073725440,16290,0,65535,65700,0,0,4,1460,1,0,0,24,33580,0,65700,0,0,0,0,0
o,0x00000000,1720561516.929060,10.0.2.15,22,10.0.2.2,56350,1073725440,16290,0,65535,65700,0,0,4,1460,1,0,0,24,33580,332,65700,0,0,0,0,0
i,0x00000000,1720561516.930077,10.0.2.15,22,10.0.2.2,56350,1073725440,16290,0,65535,65700,0,0,4,1460,1,0,0,24,33580,332,65700,0,332,0,0,0
i,0x00000000,1720561516.933180,10.0.2.15,22,10.0.2.2,56350,1073725440,16622,0,65535,65700,0,0,4,1460,1,0,0,24,33580,0,65700,0,0,0,0,0
o,0x00000000,1720561516.947785,10.0.2.15,22,10.0.2.2,56350,1073725440,16622,0,65535,65700,0,0,4,1460,1,0,0,24,33580,28,65700,0,0,0,0,0
i,0x00000000,1720561516.948861,10.0.2.15,22,10.0.2.2,56350,1073725440,16622,0,65535,65700,0,0,4,1460,1,0,0,24,33580,28,65700,0,28,0,0,0
i,0x00000000,1720561516.949377,10.0.2.15,22,10.0.2.2,56350,1073725440,16650,0,65535,65700,0,0,4,1460,1,0,0,24,33580,0,65700,0,0,0,0,0
o,0x00000000,1720561516.950006,10.0.2.15,22,10.0.2.2,56350,1073725440,16650,0,65535,65700,0,0,4,1460,1,0,0,24,33580,768,65700,112,0,0,0,0
i,0x00000000,1720561516.951242,10.0.2.15,22,10.0.2.2,56350,1073725440,16650,0,65535,65700,0,0,4,1460,1,0,0,24,33580,768,65700,112,768,0,0,0
o,0x00000000,1720561516.951431,10.0.2.15,22,10.0.2.2,56350,1073725440,17418,0,65535,65700,0,0,4,1460,1,0,0,24,33580,140,65700,112,0,0,0,0
i,0x00000000,1720561516.952575,10.0.2.15,22,10.0.2.2,56350,1073725440,17418,0,65535,65700,0,0,4,1460,1,0,0,24,33580,140,65700,112,140,0,0,0
o,0x00000000,1720561516.952805,10.0.2.15,22,10.0.2.2,56350,1073725440,17558,0,65535,65700,0,0,4,1460,1,0,0,24,33580,44,65700,0,0,0,0,0
i,0x00000000,1720561516.954250,10.0.2.15,22,10.0.2.2,56350,1073725440,17558,0,65535,65700,0,0,4,1460,1,0,0,24,33580,44,65700,0,44,0,0,0
i,0x00000000,1720561516.954256,10.0.2.15,22,10.0.2.2,56350,1073725440,17602,0,65535,65700,0,0,4,1460,1,0,0,24,33580,0,65700,0,0,0,0,0
o,0x00000000,1720561516.954619,10.0.2.15,22,10.0.2.2,56350,1073725440,17602,0,65535,65700,0,0,4,1460,1,0,4,24,33580,72,65700,0,0,0,0,0
i,0x00000000,1720561516.955982,10.0.2.15,22,10.0.2.2,56350,1073725440,17602,0,65535,65700,0,0,4,1460,1,0,4,24,33580,72,65700,0,72,0,0,0
o,0x00000000,1720561516.960542,10.0.2.15,22,10.0.2.2,56350,1073725440,17674,0,65535,65700,0,0,4,1460,1,0,4,24,33580,44,65700,0,0,0,0,0
i,0x00000000,1720561516.961380,10.0.2.15,22,10.0.2.2,56350,1073725440,17674,0,65535,65700,0,0,4,1460,1,0,4,24,33580,44,65700,0,44,0,0,0
o,0x00000000,1720561516.961614,10.0.2.15,22,10.0.2.2,56350,1073725440,17718,0,65535,65700,0,0,4,1460,1,0,4,24,33580,44,65700,0,0,0,0,0
i,0x00000000,1720561516.962451,10.0.2.15,22,10.0.2.2,56350,1073725440,17718,0,65535,65700,0,0,4,1460,1,0,4,24,33580,44,65700,0,44,0,0,0
o,0x00000000,1720561516.965342,10.0.2.15,22,10.0.2.2,56350,1073725440,17762,0,65535,65700,0,0,4,1460,1,0,4,24,33580,176,65700,0,0,0,0,0
i,0x00000000,1720561516.966606,10.0.2.15,22,10.0.2.2,56350,1073725440,17762,0,65535,65700,0,0,4,1460,1,0,4,24,33580,176,65700,0,176,0,0,0
i,0x00000000,1720561516.966611,10.0.2.15,22,10.0.2.2,56350,1073725440,17938,0,65535,65700,0,0,4,1460,1,0,4,24,33580,0,65700,0,0,0,0,0
i,0x00000000,1720561516.966613,10.0.2.15,22,10.0.2.2,56350,1073725440,17938,0,65535,65700,0,0,4,1460,1,0,4,24,33580,0,65700,96,0,0,0,0
o,0x00000000,1720561516.966615,10.0.2.15,22,10.0.2.2,56350,1073725440,17938,0,65535,65604,0,0,5,1460,1,0,5,24,33580,0,65700,96,0,0,0,0
o,0x00000000,1720561516.971751,10.0.2.15,22,10.0.2.2,56350,1073725440,17938,0,65535,65604,0,0,8,1460,1,0,4,24,33580,0,65700,0,0,0,0,0
i,0x00000000,1720561516.972422,10.0.2.15,22,10.0.2.2,56350,1073725440,17938,0,65535,65604,0,0,8,1460,1,0,20,24,33580,0,65700,0,1,0,0,0
i,0x00000000,1720561518.142009,10.0.2.15,22,10.0.2.2,56352,1073725440,14600,0,65535,65700,0,0,4,1460,1,0,0,27,33580,0,65700,0,0,0,0,0
o,0x00000000,1720561518.149928,10.0.2.15,22,10.0.2.2,56352,1073725440,14600,0,65535,65700,0,0,4,1460,1,0,0,27,33580,38,65700,42,0,0,0,0
i,0x00000000,1720561518.151201,10.0.2.15,22,10.0.2.2,56352,1073725440,14600,0,65535,65700,0,0,4,1460,1,0,0,27,33580,38,65700,42,38,0,0,0
i,0x00000000,1720561518.151550,10.0.2.15,22,10.0.2.2,56352,1073725440,14638,0,65535,65700,0,0,4,1460,1,0,0,24,33580,0,65700,42,0,0,0,0
i,0x00000000,1720561518.151556,10.0.2.15,22,10.0.2.2,56352,1073725440,14638,0,65535,65700,0,0,4,1460,1,0,0,24,33580,0,65700,1502,0,0,0,0
o,0x00000000,1720561518.151562,10.0.2.15,22,10.0.2.2,56352,1073725440,14638,0,65535,65700,0,0,4,1460,1,0,1,24,33580,0,65700,1578,0,0,0,0
o,0x00000000,1720561518.152442,10.0.2.15,22,10.0.2.2,56352,1073725440,14638,0,65535,65700,0,0,4,1460,1,0,0,24,33580,1056,65700,1536,0,0,0,0
i,0x00000000,1720561518.153176,10.0.2.15,22,10.0.2.2,56352,1073725440,14638,0,65535,65700,0,0,4,1460,1,0,0,24,33580,1056,65700,1536,1056,0,0,0
i,0x00000000,1720561518.154462,10.0.2.15,22,10.0.2.2,56352,1073725440,15694,0,65535,65700,0,0,4,1460,1,0,0,24,33580,0,65700,0,0,0,0,0
o,0x00000000,1720561518.157011,10.0.2.15,22,10.0.2.2,56352,1073725440,15694,0,65535,65700,0,0,4,1460,1,0,0,24,33580,484,65700,0,0,0,0,0
i,0x00000000,1720561518.157953,10.0.2.15,22,10.0.2.2,56352,1073725440,15694,0,65535,65700,0,0,4,1460,1,0,0,24,33580,484,65700,0,484,0,0,0
i,0x00000000,1720561518.165535,10.0.2.15,22,10.0.2.2,56352,1073725440,16178,0,65535,65700,0,0,4,1460,1,0,0,24,33580,0,65700,0,0,0,0,0
i,0x00000000,1720561518.165544,10.0.2.15,22,10.0.2.2,56352,1073725440,16178,0,65535,65700,0,0,4,1460,1,0,0,24,33580,0,65700,16,0,0,0,0
o,0x00000000,1720561518.165549,10.0.2.15,22,10.0.2.2,56352,1073725440,16178,0,65535,65700,0,0,4,1460,1,0,1,24,33580,0,65700,60,0,0,0,0
o,0x00000000,1720561518.165809,10.0.2.15,22,10.0.2.2,56352,1073725440,16178,0,65535,65700,0,0,4,1460,1,0,0,24,33580,44,65700,0,0,0,0,0
i,0x00000000,1720561518.166945,10.0.2.15,22,10.0.2.2,56352,1073725440,16178,0,65535,65700,0,0,4,1460,1,0,0,24,33580,44,65700,0,44,0,0,0
i,0x00000000,1720561518.166951,10.0.2.15,22,10.0.2.2,56352,1073725440,16222,0,65535,65700,0,0,4,1460,1,0,0,24,33580,0,65700,0,0,0,0,0
o,0x00000000,1720561518.176987,10.0.2.15,22,10.0.2.2,56352,1073725440,16222,0,65535,65700,0,0,4,1460,1,0,0,24,33580,68,65700,0,0,0,0,0
i,0x00000000,1720561518.179342,10.0.2.15,22,10.0.2.2,56352,1073725440,16222,0,65535,65700,0,0,4,1460,1,0,0,24,33580,68,65700,0,68,0,0,0
i,0x00000000,1720561518.179352,10.0.2.15,22,10.0.2.2,56352,1073725440,16290,0,65535,65700,0,0,4,1460,1,0,0,24,33580,0,65700,0,0,0,0,0
o,0x00000000,1720561518.179917,10.0.2.15,22,10.0.2.2,56352,1073725440,16290,0,65535,65700,0,0,4,1460,1,0,0,24,33580,332,65700,0,0,0,0,0
i,0x00000000,1720561518.181483,10.0.2.15,22,10.0.2.2,56352,1073725440,16290,0,65535,65700,0,0,4,1460,1,0,0,24,33580,332,65700,0,332,0,0,0
i,0x00000000,1720561518.185034,10.0.2.15,22,10.0.2.2,56352,1073725440,16622,0,65535,65700,0,0,4,1460,1,0,0,24,33580,0,65700,0,0,0,0,0
o,0x00000000,1720561518.200413,10.0.2.15,22,10.0.2.2,56352,1073725440,16622,0,65535,65700,0,0,4,1460,1,0,0,24,33580,28,65700,0,0,0,0,0
i,0x00000000,1720561518.202736,10.0.2.15,22,10.0.2.2,56352,1073725440,16622,0,65535,65700,0,0,4,1460,1,0,0,24,33580,28,65700,0,28,0,0,0
i,0x00000000,1720561518.202749,10.0.2.15,22,10.0.2.2,56352,1073725440,16650,0,65535,65700,0,0,4,1460,1,0,0,24,33580,0,65700,0,0,0,0,0
o,0x00000000,1720561518.203473,10.0.2.15,22,10.0.2.2,56352,1073725440,16650,0,65535,65700,0,0,4,1460,1,0,0,24,33580,768,65700,112,0,0,0,0
i,0x00000000,1720561518.204154,10.0.2.15,22,10.0.2.2,56352,1073725440,16650,0,65535,65700,0,0,4,1460,1,0,0,24,33580,768,65700,112,768,0,0,0
o,0x00000000,1720561518.204210,10.0.2.15,22,10.0.2.2,56352,1073725440,17418,0,65535,65700,0,0,4,1460,1,0,0,24,33580,140,65700,112,0,0,0,0
i,0x00000000,1720561518.204887,10.0.2.15,22,10.0.2.2,56352,1073725440,17418,0,65535,65700,0,0,4,1460,1,0,0,24,33580,140,65700,112,140,0,0,0
o,0x00000000,1720561518.204981,10.0.2.15,22,10.0.2.2,56352,1073725440,17558,0,65535,65700,0,0,4,1460,1,0,0,24,33580,44,65700,0,0,0,0,0
i,0x00000000,1720561518.207062,10.0.2.15,22,10.0.2.2,56352,1073725440,17558,0,65535,65700,0,0,4,1460,1,0,0,24,33580,44,65700,0,44,0,0,0
i,0x00000000,1720561518.207070,10.0.2.15,22,10.0.2.2,56352,1073725440,17602,0,65535,65700,0,0,4,1460,1,0,0,23,33580,0,65700,0,0,0,0,0
o,0x00000000,1720561518.207972,10.0.2.15,22,10.0.2.2,56352,1073725440,17602,0,65535,65700,0,0,4,1460,1,0,4,23,33580,72,65700,0,0,0,0,0
i,0x00000000,1720561518.209686,10.0.2.15,22,10.0.2.2,56352,1073725440,17602,0,65535,65700,0,0,4,1460,1,0,4,23,33580,72,65700,0,72,0,0,0
i,0x00000000,1720561518.209693,10.0.2.15,22,10.0.2.2,56352,1073725440,17674,0,65535,65700,0,0,4,1460,1,0,4,23,33580,0,65700,0,0,0,0,0
o,0x00000000,1720561518.218533,172.16.1.2,64859,172.16.3.2,5101,1073725440,1073725440,0,0,0,0,0,2,536,0,1,672,100,32768,0,65536,0,0,0,0,0
o,0x00000000,1720561518.246289,10.0.2.15,22,10.0.2.2,56352,1073725440,17674,0,65535,65700,0,0,4,1460,1,0,5,23,33580,0,65700,0,0,0,0,0
i,0x00000000,1720561518.335429,172.16.1.2,64859,172.16.3.2,5101,1073725440,1073725440,0,0,0,0,0,2,536,0,1,672,100,32768,0,65536,0,1,0,0,0
o,0x00000000,1720561518.335443,172.16.1.2,64859,172.16.3.2,5101,4639,14480,0,65535,65700,6,6,4,1460,716,1,993,72,33580,0,65700,0,0,0,0,0
o,0x00000000,1720561518.335598,172.16.1.2,64859,172.16.3.2,5101,4639,14480,0,65535,65700,6,6,4,1460,716,1,996,72,33580,37,65700,0,0,0,0,0
i,0x00000000,1720561518.452442,172.16.1.2,64859,172.16.3.2,5101,4639,14480,0,65535,65700,6,6,4,1460,716,1,996,72,33580,37,65700,0,37,0,0,0
o,0x00000000,1720561518.452770,172.16.1.2,64859,172.16.3.2,5101,4639,14480,0,65728,65728,6,6,4,1460,675,1,996,74,33580,4,65700,0,0,0,0,0
o,0x00000000,1720561518.453131,172.16.1.2,64859,172.16.3.2,5101,4639,14480,0,65728,65728,6,6,4,1460,675,1,996,74,33580,128,65700,0,4,0,0,0
i,0x00000000,1720561518.582373,172.16.1.2,64859,172.16.3.2,5101,4639,14480,0,65728,65728,6,6,4,1460,675,1,996,74,33580,128,65700,0,128,0,0,0
i,0x00000000,1720561518.582400,172.16.1.2,64859,172.16.3.2,5101,4639,14480,0,65600,65728,6,6,4,1460,643,1,996,72,33580,0,65700,0,0,0,0,0
o,0x00000000,1720561518.582781,172.16.1.2,30171,172.16.3.2,5101,1073725440,1073725440,0,0,0,0,0,2,536,0,1,672,100,32768,0,65536,0,0,0,0,0
o,0x00000000,1720561518.617276,172.16.1.2,64859,172.16.3.2,5101,4639,14480,0,65728,65728,6,6,4,1460,643,1,997,72,33580,0,65700,0,0,0,0,0
i,0x00000000,1720561518.711635,172.16.1.2,30171,172.16.3.2,5101,1073725440,1073725440,0,0,0,0,0,2,536,0,1,672,100,32768,0,65536,0,1,0,0,0
o,0x00000000,1720561518.711675,172.16.1.2,30171,172.16.3.2,5101,4639,14480,0,65535,65700,6,6,4,1460,720,1,993,71,33580,0,65700,0,0,0,0,0
o,0x00000000,1720561518.712444,172.16.1.2,30171,172.16.3.2,5101,4639,14480,0,65535,65700,6,6,4,1460,720,1,992,71,33580,37,65700,0,0,0,0,0
i,0x00000000,1720561518.938285,172.16.1.2,30171,172.16.3.2,5101,4639,14480,0,65535,65700,6,6,4,1460,720,1,992,71,33580,37,65700,0,37,0,0,0
i,0x00000000,1720561518.938524,172.16.1.2,64859,172.16.3.2,5101,4639,14480,0,65728,65728,6,6,4,1460,643,1,996,72,33580,0,65700,0,0,0,0,0
i,0x00000000,1720561518.938554,172.16.1.2,64859,172.16.3.2,5101,4639,14480,0,65728,65728,6,6,4,1460,643,1,996,72,33580,0,65700,1,0,0,0,0
o,0x00000000,1720561518.938560,172.16.1.2,64859,172.16.3.2,5101,4639,14480,0,65728,65728,6,6,4,1460,643,1,997,72,33580,0,65700,2,0,0,0,0
o,0x00000000,1720561518.938757,172.16.1.2,30171,172.16.3.2,5101,4639,14480,0,65728,65728,6,6,4,1460,722,1,992,65,33580,33580,65700,0,0,0,0,0
o,0x00000000,1720561518.939087,172.16.1.2,30171,172.16.3.2,5101,4639,14480,0,65728,65728,6,6,4,1460,722,1,992,65,33580,33580,65700,0,1448,0,0,0
o,0x00000000,1720561518.939420,172.16.1.2,30171,172.16.3.2,5101,4639,14480,0,65728,65728,6,6,4,1460,722,1,992,65,33580,33580,65700,0,2896,0,0,0
o,0x00000000,1720561518.939739,172.16.1.2,30171,172.16.3.2,5101,4639,14480,0,65728,65728,6,6,4,1460,722,1,992,65,33580,33580,65700,0,4344,0,0,0
o,0x00000000,1720561518.940057,172.16.1.2,30171,172.16.3.2,5101,4639,14480,0,65728,65728,6,6,4,1460,722,1,992,65,33580,33580,65700,0,5792,0,0,0
o,0x00000000,1720561518.941664,172.16.1.2,30171,172.16.3.2,5101,4639,14480,0,65728,65728,6,6,4,1460,722,1,992,65,33580,33580,65700,0,7240,0,0,0
o,0x00000000,1720561518.943391,172.16.1.2,30171,172.16.3.2,5101,4639,14480,0,65728,65728,6,6,4,1460,722,1,992,65,33580,33580,65700,0,8688,0,0,0
o,0x00000000,1720561518.945016,172.16.1.2,30171,172.16.3.2,5101,4639,14480,0,65728,65728,6,6,4,1460,722,1,992,65,33580,33580,65700,0,10136,0,0,0
o,0x00000000,1720561518.947282,172.16.1.2,30171,172.16.3.2,5101,4639,14480,0,65728,65728,6,6,4,1460,722,1,992,65,33580,33580,65700,0,11584,0,0,0
o,0x00000000,1720561518.949177,172.16.1.2,30171,172.16.3.2,5101,4639,14480,0,65728,65728,6,6,4,1460,722,1,992,65,33580,33580,65700,0,13032,0,0,0
i,0x00000000,1720561519.171523,172.16.1.2,30171,172.16.3.2,5101,4639,14480,0,65728,65728,6,6,4,1460,722,1,992,65,33580,33580,65700,0,14480,0,0,0
o,0x00000000,1720561519.171555,172.16.1.2,30171,172.16.3.2,5101,4639,14480,0,64256,65728,6,6,4,1460,724,1,992,60,33580,30684,65700,0,11584,0,0,0
o,0x00000000,1720561519.172562,172.16.1.2,30171,172.16.3.2,5101,4639,14480,0,64256,65728,6,6,4,1460,724,1,992,60,33580,30684,65700,0,13032,0,0,0
i,0x00000000,1720561519.205054,172.16.1.2,30171,172.16.3.2,5101,4639,14480,0,64256,65728,6,6,4,1460,724,1,992,60,33580,33580,65700,0,14480,0,0,0
o,0x00000000,1720561519.205085,172.16.1.2,30171,172.16.3.2,5101,4639,14480,0,64256,65728,6,6,4,1460,738,1,992,59,33580,30684,65700,0,11584,0,0,0
o,0x00000000,1720561519.206831,172.16.1.2,30171,172.16.3.2,5101,4639,14480,0,64256,65728,6,6,4,1460,738,1,992,59,33580,30684,65700,0,13032,0,0,0
i,0x00000000,1720561519.222366,172.16.1.2,30171,172.16.3.2,5101,4639,14480,0,64256,65728,6,6,4,1460,738,1,992,59,33580,33580,65700,0,14480,0,0,0
o,0x00000000,1720561519.222388,172.16.1.2,30171,172.16.3.2,5101,4639,14480,0,64256,65728,6,6,4,1460,758,1,992,61,33580,30684,65700,0,11584,0,0,0
o,0x00000000,1720561519.223015,172.16.1.2,30171,172.16.3.2,5101,4639,14480,0,64256,65728,6,6,4,1460,758,1,992,61,33580,30684,65700,0,13032,0,0,0
i,0x00000000,1720561519.223591,172.16.1.2,30171,172.16.3.2,5101,4639,14480,0,64256,65728,6,6,4,1460,758,1,992,61,33580,30684,65700,0,14480,0,0,0
o,0x00000000,1720561519.223601,172.16.1.2,30171,172.16.3.2,5101,4639,14480,0,64256,65728,6,6,4,1460,776,1,992,62,33580,27788,65700,0,11584,0,0,0
o,0x00000000,1720561519.224174,172.16.1.2,30171,172.16.3.2,5101,4639,14480,0,64256,65728,6,6,4,1460,776,1,992,62,33580,27788,65700,0,13032,0,0,0
i,0x00000000,1720561519.281621,172.16.1.2,30171,172.16.3.2,5101,4639,14480,0,64256,65728,6,6,4,1460,776,1,992,62,33580,33580,65700,0,14480,0,0,0
o,0x00000000,1720561519.281640,172.16.1.2,30171,172.16.3.2,5101,4639,15940,0,64256,65728,6,6,4,1460,811,1,992,67,33580,30684,65700,0,11584,0,0,0
o,0x00000000,1720561519.282210,172.16.1.2,30171,172.16.3.2,5101,4639,15940,0,64256,65728,6,6,4,1460,811,1,992,67,33580,30684,65700,0,13032,0,0,0
o,0x00000000,1720561519.282780,172.16.1.2,30171,172.16.3.2,5101,4639,15940,0,64256,65728,6,6,4,1460,811,1,992,67,33580,30684,65700,0,14480,0,0,0
i,0x00000000,1720561519.341255,172.16.1.2,30171,172.16.3.2,5101,4639,15940,0,64256,65728,6,6,4,1460,811,1,992,67,41772,41772,65700,0,15928,0,0,0
o,0x00000000,1720561519.341301,172.16.1.2,30171,172.16.3.2,5101,4639,15940,0,64256,65728,6,6,4,1460,778,1,992,69,41772,38876,65700,0,13032,0,0,0
o,0x00000000,1720561519.343776,172.16.1.2,30171,172.16.3.2,5101,4639,15940,0,64256,65728,6,6,4,1460,778,1,992,69,41772,38876,65700,0,14480,0,0,0
i,0x00000000,1720561519.427946,172.16.1.2,30171,172.16.3.2,5101,4639,15940,0,64256,65728,6,6,4,1460,778,1,992,69,41772,41772,65700,0,15928,0,0,0
o,0x00000000,1720561519.427968,172.16.1.2,30171,172.16.3.2,5101,4639,15940,0,64256,65728,6,6,4,1460,769,1,992,65,41772,38876,65700,0,13032,0,0,0
o,0x00000000,1720561519.428559,172.16.1.2,30171,172.16.3.2,5101,4639,15940,0,64256,65728,6,6,4,1460,769,1,992,65,41772,38876,65700,0,14480,0,0,0
i,0x00000000,1720561519.472210,172.16.1.2,30171,172.16.3.2,5101,4639,15940,0,64256,65728,6,6,4,1460,769,1,992,65,41772,41772,65700,0,15928,0,0,0
o,0x00000000,1720561519.472224,172.16.1.2,30171,172.16.3.2,5101,4639,15940,0,65728,65728,6,6,4,1460,769,1,992,59,41772,40324,65700,0,14480,0,0,0
i,0x00000000,1720561519.482353,172.16.1.2,30171,172.16.3.2,5101,4639,15940,0,65728,65728,6,6,4,1460,769,1,992,59,41772,40324,65700,0,15928,0,0,0
o,0x00000000,1720561519.482370,172.16.1.2,30171,172.16.3.2,5101,4639,15940,0,62848,65728,6,6,4,1460,777,1,992,58,41772,37428,65700,0,13032,0,0,0
o,0x00000000,1720561519.482895,172.16.1.2,30171,172.16.3.2,5101,4639,15940,0,62848,65728,6,6,4,1460,777,1,992,58,41772,37428,65700,0,14480,0,0,0
i,0x00000000,1720561519.533031,172.16.1.2,30171,172.16.3.2,5101,4639,15940,0,62848,65728,6,6,4,1460,777,1,992,58,41772,41772,65700,0,15928,0,0,0
o,0x00000000,1720561519.533068,172.16.1.2,30171,172.16.3.2,5101,4639,15940,0,65728,65728,6,6,4,1460,800,1,992,61,41772,40324,65700,0,14480,0,0,0
i,0x00000000,1720561519.559155,172.16.1.2,30171,172.16.3.2,5101,4639,15940,0,65728,65728,6,6,4,1460,800,1,992,61,41772,40324,65700,0,15928,0,0,0
o,0x00000000,1720561519.559196,172.16.1.2,30171,172.16.3.2,5101,4639,15940,0,64256,65728,6,6,4,1460,812,1,992,60,41772,37428,65700,0,13032,0,0,0
o,0x00000000,1720561519.561768,172.16.1.2,30171,172.16.3.2,5101,4639,15940,0,64256,65728,6,6,4,1460,812,1,992,60,41772,37428,65700,0,14480,0,0,0
i,0x00000000,1720561519.583148,172.16.1.2,30171,172.16.3.2,5101,4639,15940,0,64256,65728,6,6,4,1460,812,1,992,60,41772,41772,65700,0,15928,0,0,0
o,0x00000000,1720561519.583200,172.16.1.2,30171,172.16.3.2,5101,4639,17400,0,65728,65728,6,6,4,1460,831,1,992,62,41772,40324,65700,0,14480,0,0,0
o,0x00000000,1720561519.584937,172.16.1.2,30171,172.16.3.2,5101,4639,17400,0,65728,65728,6,6,4,1460,831,1,992,62,41772,40324,65700,0,15928,0,0,0
i,0x00000000,1720561519.606186,172.16.1.2,30171,172.16.3.2,5101,4639,17400,0,65728,65728,6,6,4,1460,831,1,992,62,41772,40324,65700,0,17376,0,0,0
o,0x00000000,1720561519.606236,172.16.1.2,30171,172.16.3.2,5101,4639,17400,0,64256,65728,6,6,4,1460,832,1,992,58,41772,37428,65700,0,14480,0,0,0
o,0x00000000,1720561519.609583,172.16.1.2,30171,172.16.3.2,5101,4639,17400,0,64256,65728,6,6,4,1460,832,1,992,58,41772,37428,65700,0,15928,0,0,0
i,0x00000000,1720561519.666017,172.16.1.2,30171,172.16.3.2,5101,4639,17400,0,64256,65728,6,6,4,1460,832,1,992,58,41772,41772,65700,0,17376,0,0,0
o,0x00000000,1720561519.666048,172.16.1.2,30171,172.16.3.2,5101,4639,17400,0,64256,65728,6,6,4,1460,820,1,992,58,41772,38876,65700,0,14480,0,0,0
o,0x00000000,1720561519.667451,172.16.1.2,30171,172.16.3.2,5101,4639,17400,0,64256,65728,6,6,4,1460,820,1,992,58,41772,38876,65700,0,15928,0,0,0
i,0x00000000,1720561519.732462,172.16.1.2,30171,172.16.3.2,5101,4639,17400,0,64256,65728,6,6,4,1460,820,1,992,58,41772,41772,65700,0,17376,0,0,0
o,0x00000000,1720561519.732502,172.16.1.2,30171,172.16.3.2,5101,4639,17400,0,64256,65728,6,6,4,1460,822,1,992,55,41772,38876,65700,0,14480,0,0,0
o,0x00000000,1720561519.734404,172.16.1.2,30171,172.16.3.2,5101,4639,17400,0,64256,65728,6,6,4,1460,822,1,992,55,41772,38876,65700,0,15928,0,0,0
i,0x00000000,1720561519.793187,172.16.1.2,30171,172.16.3.2,5101,4639,17400,0,64256,65728,6,6,4,1460,822,1,992,55,41772,41772,65700,0,17376,0,0,0
o,0x00000000,1720561519.793222,172.16.1.2,30171,172.16.3.2,5101,4639,17400,0,65728,65728,6,6,4,1460,844,1,992,59,41772,40324,65700,0,15928,0,0,0
i,0x00000000,1720561519.828761,172.16.1.2,30171,172.16.3.2,5101,4639,17400,0,65728,65728,6,6,4,1460,844,1,992,59,41772,40324,65700,0,17376,0,0,0
o,0x00000000,1720561519.828806,172.16.1.2,30171,172.16.3.2,5101,4639,17400,0,62848,65728,6,6,4,1460,859,1,992,60,41772,37428,65700,0,14480,0,0,0
o,0x00000000,1720561519.829932,172.16.1.2,30171,172.16.3.2,5101,4639,17400,0,62848,65728,6,6,4,1460,859,1,992,60,41772,37428,65700,0,15928,0,0,0
i,0x00000000,1720561519.864884,172.16.1.2,30171,172.16.3.2,5101,4639,17400,0,62848,65728,6,6,4,1460,859,1,992,60,41772,41772,65700,0,17376,0,0,0
o,0x00000000,1720561519.864926,172.16.1.2,30171,172.16.3.2,5101,4639,17400,0,65728,65728,6,6,4,1460,872,1,992,60,41772,40324,65700,0,15928,0,0,0
i,0x00000000,1720561519.909743,172.16.1.2,30171,172.16.3.2,5101,4639,17400,0,65728,65728,6,6,4,1460,872,1,992,60,41772,40324,65700,0,17376,0,0,0
o,0x00000000,1720561519.909776,172.16.1.2,30171,172.16.3.2,5101,4639,18860,0,64256,65728,6,6,4,1460,895,1,992,63,41772,37428,65700,0,14480,0,0,0
o,0x00000000,1720561519.911113,172.16.1.2,30171,172.16.3.2,5101,4639,18860,0,64256,65728,6,6,4,1460,895,1,992,63,41772,37428,65700,0,15928,0,0,0
o,0x00000000,1720561519.912395,172.16.1.2,30171,172.16.3.2,5101,4639,18860,0,64256,65728,6,6,4,1460,895,1,992,63,41772,37428,65700,0,17376,0,0,0
i,0x00000000,1720561519.913726,172.16.1.2,30171,172.16.3.2,5101,4639,18860,0,64256,65728,6,6,4,1460,895,1,992,63,49964,37428,65700,0,18824,0,0,0
o,0x00000000,1720561519.913748,172.16.1.2,30171,172.16.3.2,5101,4639,18860,0,64256,65728,6,6,4,1460,904,1,992,62,49964,34532,65700,0,15928,0,0,0
o,0x00000000,1720561519.915616,172.16.1.2,30171,172.16.3.2,5101,4639,18860,0,64256,65728,6,6,4,1460,904,1,992,62,49964,34532,65700,0,17376,0,0,0
i,0x00000000,1720561519.953009,172.16.1.2,30171,172.16.3.2,5101,4639,18860,0,64256,65728,6,6,4,1460,904,1,992,62,49964,49964,65700,0,18824,0,0,0
o,0x00000000,1720561519.953043,172.16.1.2,30171,172.16.3.2,5101,4639,18860,0,64256,65728,6,6,4,1460,903,1,992,59,49964,47068,65700,0,15928,0,0,0
o,0x00000000,1720561519.954690,172.16.1.2,30171,172.16.3.2,5101,4639,18860,0,64256,65728,6,6,4,1460,903,1,992,59,49964,47068,65700,0,17376,0,0,0
i,0x00000000,1720561520.015187,172.16.1.2,30171,172.16.3.2,5101,4639,18860,0,64256,65728,6,6,4,1460,903,1,992,59,49964,49964,65700,0,18824,0,0,0
o,0x00000000,1720561520.015217,172.16.1.2,30171,172.16.3.2,5101,4639,18860,0,64256,65728,6,6,4,1460,899,1,992,57,49964,47068,65700,0,15928,0,0,0
o,0x00000000,1720561520.016777,172.16.1.2,30171,172.16.3.2,5101,4639,18860,0,64256,65728,6,6,4,1460,899,1,992,57,49964,47068,65700,0,17376,0,0,0
i,0x00000000,1720561520.073382,172.16.1.2,30171,172.16.3.2,5101,4639,18860,0,64256,65728,6,6,4,1460,899,1,992,57,49964,49964,65700,0,18824,0,0,0
o,0x00000000,1720561520.073395,172.16.1.2,30171,172.16.3.2,5101,4639,18860,0,65728,65728,6,6,4,1460,899,1,992,55,49964,48516,65700,0,17376,0,0,0
i,0x00000000,1720561520.107786,172.16.1.2,30171,172.16.3.2,5101,4639,18860,0,65728,65728,6,6,4,1460,899,1,992,55,49964,48516,65700,0,18824,0,0,0
o,0x00000000,1720561520.107826,172.16.1.2,30171,172.16.3.2,5101,4639,18860,0,65728,65728,6,6,4,1460,899,1,992,53,49964,47068,65700,0,17376,0,0,0
i,0x00000000,1720561520.153773,172.16.1.2,30171,172.16.3.2,5101,4639,18860,0,65728,65728,6,6,4,1460,899,1,992,53,49964,49964,65700,0,18824,0,0,0
o,0x00000000,1720561520.153812,172.16.1.2,30171,172.16.3.2,5101,4639,18860,0,65728,65728,6,6,4,1460,915,1,992,56,49964,48516,65700,0,17376,0,0,0
i,0x00000000,1720561520.174944,172.16.1.2,30171,172.16.3.2,5101,4639,18860,0,65728,65728,6,6,4,1460,915,1,992,56,49964,48516,65700,0,18824,0,0,0
o,0x00000000,1720561520.174986,172.16.1.2,30171,172.16.3.2,5101,4639,18860,0,64256,65728,6,6,4,1460,925,1,992,57,49964,45620,65700,0,15928,0,0,0
o,0x00000000,1720561520.176310,172.16.1.2,30171,172.16.3.2,5101,4639,18860,0,64256,65728,6,6,4,1460,925,1,992,57,49964,45620,65700,0,17376,0,0,0
i,0x00000000,1720561520.224479,172.16.1.2,30171,172.16.3.2,5101,4639,18860,0,64256,65728,6,6,4,1460,925,1,992,57,49964,49964,65700,0,18824,0,0,0
o,0x00000000,1720561520.224525,172.16.1.2,30171,172.16.3.2,5101,4639,18860,0,64256,65728,6,6,4,1460,934,1,992,57,49964,47068,65700,0,15928,0,0,0
o,0x00000000,1720561520.225975,172.16.1.2,30171,172.16.3.2,5101,4639,18860,0,64256,65728,6,6,4,1460,934,1,992,57,49964,47068,65700,0,17376,0,0,0
i,0x00000000,1720561520.241390,172.16.1.2,30171,172.16.3.2,5101,4639,18860,0,64256,65728,6,6,4,1460,934,1,992,57,49964,49964,65700,0,18824,0,0,0
o,0x00000000,1720561520.241420,172.16.1.2,30171,172.16.3.2,5101,4639,20320,0,64256,65728,6,6,4,1460,950,1,992,60,49964,47068,65700,0,15928,0,0,0
o,0x00000000,1720561520.241876,172.16.1.2,30171,172.16.3.2,5101,4639,20320,0,64256,65728,6,6,4,1460,950,1,992,60,49964,47068,65700,0,17376,0,0,0
o,0x00000000,1720561520.242180,172.16.1.2,30171,172.16.3.2,5101,4639,20320,0,64256,65728,6,6,4,1460,950,1,992,60,49964,47068,65700,0,18824,0,0,0
i,0x00000000,1720561520.283737,172.16.1.2,30171,172.16.3.2,5101,4639,20320,0,64256,65728,6,6,4,1460,950,1,992,60,49964,49964,65700,0,20272,0,0,0
o,0x00000000,1720561520.283755,172.16.1.2,30171,172.16.3.2,5101,4639,20320,0,64256,65728,6,6,4,1460,964,1,992,61,49964,47068,65700,0,17376,0,0,0
o,0x00000000,1720561520.284126,172.16.1.2,30171,172.16.3.2,5101,4639,20320,0,64256,65728,6,6,4,1460,964,1,992,61,49964,47068,65700,0,18824,0,0,0
i,0x00000000,1720561520.314587,172.16.1.2,30171,172.16.3.2,5101,4639,20320,0,64256,65728,6,6,4,1460,964,1,992,61,49964,49964,65700,0,20272,0,0,0
o,0x00000000,1720561520.314612,172.16.1.2,30171,172.16.3.2,5101,4639,20320,0,64256,65728,6,6,4,1460,964,1,992,59,49964,47068,65700,0,17376,0,0,0
o,0x00000000,1720561520.315265,172.16.1.2,30171,172.16.3.2,5101,4639,20320,0,64256,65728,6,6,4,1460,964,1,992,59,49964,47068,65700,0,18824,0,0,0
i,0x00000000,1720561520.410173,172.16.1.2,30171,172.16.3.2,5101,4639,20320,0,64256,65728,6,6,4,1460,964,1,992,59,49964,49964,65700,0,20272,0,0,0
o,0x00000000,1720561520.410218,172.16.1.2,30171,172.16.3.2,5101,4639,20320,0,65728,65728,6,6,4,1460,980,1,992,61,49964,48516,65700,0,18824,0,0,0
i,0x00000000,1720561520.435068,172.16.1.2,30171,172.16.3.2,5101,4639,20320,0,65728,65728,6,6,4,1460,980,1,992,61,49964,48516,65700,0,20272,0,0,0
o,0x00000000,1720561520.435105,172.16.1.2,30171,172.16.3.2,5101,4639,20320,0,65728,65728,6,6,4,1460,986,1,992,60,49964,47068,65700,0,18824,0,0,0
i,0x00000000,1720561520.462587,172.16.1.2,30171,172.16.3.2,5101,4639,20320,0,65728,65728,6,6,4,1460,986,1,992,60,49964,49964,65700,0,20272,0,0,0
o,0x00000000,1720561520.462614,172.16.1.2,30171,172.16.3.2,5101,4639,20320,0,62848,65728,6,6,4,1460,983,1,992,58,49964,47068,65700,0,17376,0,0,0
o,0x00000000,1720561520.463391,172.16.1.2,30171,172.16.3.2,5101,4639,20320,0,62848,65728,6,6,4,1460,983,1,992,58,49964,47068,65700,0,18824,0,0,0
i,0x00000000,1720561520.513346,172.16.1.2,30171,172.16.3.2,5101,4639,20320,0,62848,65728,6,6,4,1460,983,1,992,58,49964,49964,65700,0,20272,0,0,0
o,0x00000000,1720561520.513361,172.16.1.2,30171,172.16.3.2,5101,4639,20320,0,64256,65728,6,6,4,1460,993,1,992,59,49964,47068,65700,0,17376,0,0,0
o,0x00000000,1720561520.514192,172.16.1.2,30171,172.16.3.2,5101,4639,20320,0,64256,65728,6,6,4,1460,993,1,992,59,49964,47068,65700,0,18824,0,0,0
i,0x00000000,1720561520.568461,172.16.1.2,30171,172.16.3.2,5101,4639,20320,0,64256,65728,6,6,4,1460,993,1,992,59,49964,49964,65700,0,20272,0,0,0
o,0x00000000,1720561520.568498,172.16.1.2,30171,172.16.3.2,5101,4639,20320,0,64256,65728,6,6,4,1460,1005,1,992,61,49964,47068,65700,0,17376,0,0,0
o,0x00000000,1720561520.569754,172.16.1.2,30171,172.16.3.2,5101,4639,20320,0,64256,65728,6,6,4,1460,1005,1,992,61,49964,47068,65700,0,18824,0,0,0
i,0x00000000,1720561520.600180,172.16.1.2,30171,172.16.3.2,5101,4639,20320,0,64256,65728,6,6,4,1460,1005,1,992,61,49964,49964,65700,0,20272,0,0,0
o,0x00000000,1720561520.600220,172.16.1.2,30171,172.16.3.2,5101,4639,21780,0,64256,65728,6,6,4,1460,1024,1,992,64,49964,47068,65700,0,17376,0,0,0
o,0x00000000,1720561520.601548,172.16.1.2,30171,172.16.3.2,5101,4639,21780,0,64256,65728,6,6,4,1460,1024,1,992,64,49964,47068,65700,0,18824,0,0,0
o,0x00000000,1720561520.602630,172.16.1.2,30171,172.16.3.2,5101,4639,21780,0,64256,65728,6,6,4,1460,1024,1,992,64,49964,47068,65700,0,20272,0,0,0
i,0x00000000,1720561520.613675,172.16.1.2,30171,172.16.3.2,5101,4639,21780,0,64256,65728,6,6,4,1460,1024,1,992,64,49964,49964,65700,0,21720,0,0,0
o,0x00000000,1720561520.613711,172.16.1.2,30171,172.16.3.2,5101,4639,23168,0,64256,65728,6,6,4,1460,1024,1,992,64,49964,49964,65700,0,21720,0,0,0
i,0x00000000,1720561520.645736,172.16.1.2,30171,172.16.3.2,5101,4639,21780,0,64256,65728,6,6,4,1460,1024,1,992,64,49964,49964,65700,0,23168,0,0,0
o,0x00000000,1720561520.645759,172.16.1.2,30171,172.16.3.2,5101,4639,24616,0,64256,65728,6,6,4,1460,1024,1,992,64,49964,49964,65700,0,23168,0,0,0
i,0x00000000,1720561520.679082,172.16.1.2,30171,172.16.3.2,5101,4639,21780,0,64256,65728,6,6,4,1460,1024,1,992,64,49964,49964,65700,0,24616,0,0,0
o,0x00000000,1720561520.679109,172.16.1.2,30171,172.16.3.2,5101,10136,1448,0,64256,65728,6,6,4,1460,1024,1,537920480,64,49964,49964,65700,0,24616,0,0,0
i,0x00000000,1720561520.713743,172.16.1.2,30171,172.16.3.2,5101,10136,1448,0,64256,65728,6,6,4,1460,1024,1,537920480,64,49964,49964,65700,0,24616,0,0,0
i,0x00000000,1720561520.713769,172.16.1.2,30171,172.16.3.2,5101,10136,1448,0,64256,65728,6,6,4,1460,1024,1,537920480,64,49964,49964,65700,0,24616,0,0,0
o,0x00000000,1720561520.713783,172.16.1.2,30171,172.16.3.2,5101,10136,2896,0,64256,65728,6,6,4,1460,1024,1,537920480,64,49964,49964,65700,0,24616,0,0,0
i,0x00000000,1720561520.744061,172.16.1.2,30171,172.16.3.2,5101,10136,2896,0,64256,65728,6,6,4,1460,1024,1,537920480,64,49964,49964,65700,0,26064,0,0,0
i,0x00000000,1720561520.763300,172.16.1.2,30171,172.16.3.2,5101,10136,2896,0,64256,65728,6,6,4,1460,1024,1,537920480,64,49964,49964,65700,0,26064,0,0,0
i,0x00000000,1720561520.816907,172.16.1.2,30171,172.16.3.2,5101,10136,2896,0,64256,65728,6,6,4,1460,1024,1,537920480,64,49964,49964,65700,0,26064,0,0,0
o,0x00000000,1720561520.816941,172.16.1.2,30171,172.16.3.2,5101,10136,4344,0,64256,65728,6,6,4,1460,1024,1,537920480,64,49964,49964,65700,0,26064,0,0,0
i,0x00000000,1720561520.857603,172.16.1.2,30171,172.16.3.2,5101,10136,4344,0,64256,65728,6,6,4,1460,1024,1,537920480,64,49964,49964,65700,0,27512,0,0,0
o,0x00000000,1720561520.857619,172.16.1.2,30171,172.16.3.2,5101,10136,4344,0,64256,65728,6,6,4,1460,1024,1,537920480,64,49964,49964,65700,0,27512,0,0,0
i,0x00000000,1720561520.857798,172.16.1.2,30171,172.16.3.2,5101,10136,4344,0,64256,65728,6,6,4,1460,1024,1,537920480,64,49964,49964,65700,0,27512,0,0,0
i,0x00000000,1720561520.910705,172.16.1.2,30171,172.16.3.2,5101,10136,5792,0,64256,65728,6,6,4,1460,1024,1,537920480,64,49964,49964,65700,0,27512,0,0,0
o,0x00000000,1720561520.910738,172.16.1.2,30171,172.16.3.2,5101,10136,5792,0,64256,65728,6,6,4,1460,1024,1,537920480,64,49964,49964,65700,0,27512,0,0,0
i,0x00000000,1720561520.911930,172.16.1.2,30171,172.16.3.2,5101,10136,5792,0,64256,65728,6,6,4,1460,1024,1,537920480,64,49964,49964,65700,0,27512,0,0,0
i,0x00000000,1720561520.932730,172.16.1.2,30171,172.16.3.2,5101,10136,7240,0,64256,65728,6,6,4,1460,1024,1,537920480,64,49964,49964,65700,0,27512,0,0,0
o,0x00000000,1720561520.932762,172.16.1.2,30171,172.16.3.2,5101,10136,10136,0,64256,65728,6,6,4,1460,1024,1,537920480,64,49964,49964,65700,0,27512,0,0,0
o,0x00000000,1720561520.933755,172.16.1.2,30171,172.16.3.2,5101,10136,10136,0,64256,65728,6,6,4,1460,1024,1,537920480,64,49964,49964,65700,0,27512,0,0,0
i,0x00000000,1720561520.933833,172.16.1.2,30171,172.16.3.2,5101,10136,10136,0,64256,65728,6,6,4,1460,1024,1,537920480,64,49964,49964,65700,0,28960,0,0,0
o,0x00000000,1720561520.933837,172.16.1.2,30171,172.16.3.2,5101,10136,10136,0,64256,65728,6,6,4,1460,1024,1,537920481,64,49964,49964,65700,0,28960,0,0,0
i,0x00000000,1720561520.934741,172.16.1.2,30171,172.16.3.2,5101,10136,10136,0,52736,65728,6,6,4,1460,996,1,537920480,67,49964,36932,65700,0,17376,0,0,0
o,0x00000000,1720561520.934760,172.16.1.2,30171,172.16.3.2,5101,10136,11584,0,52736,65728,6,6,4,1460,996,1,537920480,67,49964,36932,65700,0,17376,0,0,0
i,0x00000000,1720561521.015116,172.16.1.2,30171,172.16.3.2,5101,10136,11584,0,52736,65728,6,6,4,1460,996,1,537920480,67,49964,49964,65700,0,18824,0,0,0
o,0x00000000,1720561521.015151,172.16.1.2,30171,172.16.3.2,5101,10136,13032,0,52736,65728,6,6,4,1460,996,1,537920480,67,49964,49964,65700,0,18824,0,0,0
i,0x00000000,1720561521.015569,172.16.1.2,30171,172.16.3.2,5101,10136,13032,0,52736,65728,6,6,4,1460,996,1,537920480,67,49964,49964,65700,0,20272,0,0,0
o,0x00000000,1720561521.015584,172.16.1.2,30171,172.16.3.2,5101,10136,13032,0,52736,65728,6,6,4,1460,996,1,537920481,67,49964,49964,65700,0,20272,0,0,0
i,0x00000000,1720561521.094395,172.16.1.2,30171,172.16.3.2,5101,10136,13032,0,61440,65728,6,6,4,1460,932,1,537920480,77,49964,49964,65700,0,17376,0,0,0
o,0x00000000,1720561521.094427,172.16.1.2,30171,172.16.3.2,5101,10136,13032,0,61440,65728,6,6,4,1460,932,1,537920481,77,49964,49964,65700,0,17376,0,0,0
i,0x00000000,1720561521.104037,172.16.1.2,30171,172.16.3.2,5101,10136,13032,0,61376,65728,6,6,4,1460,888,1,537920480,80,49964,49964,65700,0,14480,0,0,0
o,0x00000000,1720561521.104070,172.16.1.2,30171,172.16.3.2,5101,10136,10148,0,59968,65728,6,6,4,1460,845,1,992,81,49964,44172,65700,0,8688,0,0,0
i,0x00000000,1720561521.143509,172.16.1.2,30171,172.16.3.2,5101,10136,10148,0,59968,65728,6,6,4,1460,845,1,992,81,49964,49964,65700,0,10136,0,0,0
o,0x00000000,1720561521.143552,172.16.1.2,30171,172.16.3.2,5101,10136,10148,0,64256,65728,6,6,4,1460,824,1,992,77,49964,47068,65700,0,7240,0,0,0
o,0x00000000,1720561521.144886,172.16.1.2,30171,172.16.3.2,5101,10136,10148,0,64256,65728,6,6,4,1460,824,1,992,77,49964,47068,65700,0,8688,0,0,0
i,0x00000000,1720561521.203492,172.16.1.2,30171,172.16.3.2,5101,10136,10148,0,64256,65728,6,6,4,1460,824,1,992,77,49964,49964,65700,0,10136,0,0,0
o,0x00000000,1720561521.203534,172.16.1.2,30171,172.16.3.2,5101,10136,10148,0,65728,65728,6,6,4,1460,829,1,992,70,49964,48516,65700,0,8688,0,0,0
i,0x00000000,1720561521.231583,172.16.1.2,30171,172.16.3.2,5101,10136,10148,0,65728,65728,6,6,4,1460,829,1,992,70,49964,48516,65700,0,10136,0,0,0
o,0x00000000,1720561521.231624,172.16.1.2,30171,172.16.3.2,5101,10136,11608,0,64256,65728,6,6,4,1460,814,1,992,67,49964,45620,65700,0,7240,0,0,0
o,0x00000000,1720561521.232172,172.16.1.2,30171,172.16.3.2,5101,10136,11608,0,64256,65728,6,6,4,1460,814,1,992,67,49964,45620,65700,0,8688,0,0,0
o,0x00000000,1720561521.232592,172.16.1.2,30171,172.16.3.2,5101,10136,11608,0,64256,65728,6,6,4,1460,814,1,992,67,49964,45620,65700,0,10136,0,0,0
i,0x00000000,1720561521.305605,172.16.1.2,30171,172.16.3.2,5101,10136,11608,0,64256,65728,6,6,4,1460,814,1,992,67,49964,49964,65700,0,11584,0,0,0
o,0x00000000,1720561521.305641,172.16.1.2,30171,172.16.3.2,5101,10136,11608,0,64256,65728,6,6,4,1460,797,1,992,66,49964,47068,65700,0,8688,0,0,0
o,0x00000000,1720561521.307334,172.16.1.2,30171,172.16.3.2,5101,10136,11608,0,64256,65728,6,6,4,1460,797,1,992,66,49964,47068,65700,0,10136,0,0,0
i,0x00000000,1720561521.313455,172.16.1.2,30171,172.16.3.2,5101,10136,11608,0,64256,65728,6,6,4,1460,797,1,992,66,49964,49964,65700,0,11584,0,0,0
o,0x00000000,1720561521.313484,172.16.1.2,30171,172.16.3.2,5101,10136,11608,0,64256,65728,6,6,4,1460,762,1,992,68,49964,47068,65700,0,8688,0,0,0
o,0x00000000,1720561521.314210,172.16.1.2,30171,172.16.3.2,5101,10136,11608,0,64256,65728,6,6,4,1460,762,1,992,68,49964,47068,65700,0,10136,0,0,0
i,0x00000000,1720561521.383157,172.16.1.2,30171,172.16.3.2,5101,10136,11608,0,64256,65728,6,6,4,1460,762,1,992,68,49964,49964,65700,0,11584,0,0,0
o,0x00000000,1720561521.383170,172.16.1.2,30171,172.16.3.2,5101,10136,11608,0,64256,65728,6,6,4,1460,735,1,992,68,49964,47068,65700,0,8688,0,0,0
o,0x00000000,1720561521.383414,172.16.1.2,30171,172.16.3.2,5101,10136,11608,0,64256,65728,6,6,4,1460,735,1,992,68,49964,47068,65700,0,10136,0,0,0
i,0x00000000,1720561521.403795,172.16.1.2,30171,172.16.3.2,5101,10136,11608,0,64256,65728,6,6,4,1460,735,1,992,68,49964,49964,65700,0,11584,0,0,0
o,0x00000000,1720561521.403809,172.16.1.2,30171,172.16.3.2,5101,10136,13068,0,64256,65728,6,6,4,1460,712,1,992,67,49964,47068,65700,0,8688,0,0,0
o,0x00000000,1720561521.404658,172.16.1.2,30171,172.16.3.2,5101,10136,13068,0,64256,65728,6,6,4,1460,712,1,992,67,49964,47068,65700,0,10136,0,0,0
o,0x00000000,1720561521.405016,172.16.1.2,30171,172.16.3.2,5101,10136,13068,0,64256,65728,6,6,4,1460,712,1,992,67,49964,47068,65700,0,11584,0,0,0
i,0x00000000,1720561521.485560,172.16.1.2,30171,172.16.3.2,5101,10136,13068,0,64256,65728,6,6,4,1460,712,1,992,67,49964,49964,65700,0,13032,0,0,0
o,0x00000000,1720561521.485606,172.16.1.2,30171,172.16.3.2,5101,10136,13068,0,64256,65728,6,6,4,1460,691,1,992,65,49964,47068,65700,0,10136,0,0,0
o,0x00000000,1720561521.487748,172.16.1.2,30171,172.16.3.2,5101,10136,13068,0,64256,65728,6,6,4,1460,691,1,992,65,49964,47068,65700,0,11584,0,0,0
i,0x00000000,1720561521.502265,172.16.1.2,30171,172.16.3.2,5101,10136,13068,0,64256,65728,6,6,4,1460,691,1,992,65,49964,49964,65700,0,13032,0,0,0
o,0x00000000,1720561521.502307,172.16.1.2,30171,172.16.3.2,5101,10136,13068,0,64256,65728,6,6,4,1460,681,1,992,61,49964,47068,65700,0,10136,0,0,0
o,0x00000000,1720561521.503532,172.16.1.2,30171,172.16.3.2,5101,10136,13068,0,64256,65728,6,6,4,1460,681,1,992,61,49964,47068,65700,0,11584,0,0,0
i,0x00000000,1720561521.585089,172.16.1.2,30171,172.16.3.2,5101,10136,13068,0,64256,65728,6,6,4,1460,681,1,992,61,49964,49964,65700,0,13032,0,0,0
o,0x00000000,1720561521.585103,172.16.1.2,30171,172.16.3.2,5101,10136,13068,0,64256,65728,6,6,4,1460,676,1,992,57,49964,47068,65700,0,10136,0,0,0
o,0x00000000,1720561521.585349,172.16.1.2,30171,172.16.3.2,5101,10136,13068,0,64256,65728,6,6,4,1460,676,1,992,57,49964,47068,65700,0,11584,0,0,0
i,0x00000000,1720561521.634103,172.16.1.2,30171,172.16.3.2,5101,10136,13068,0,64256,65728,6,6,4,1460,676,1,992,57,49964,49964,65700,0,13032,0,0,0
o,0x00000000,1720561521.634143,172.16.1.2,30171,172.16.3.2,5101,10136,14528,0,64256,65728,6,6,4,1460,684,1,992,56,49964,47068,65700,0,10136,0,0,0
o,0x00000000,1720561521.635532,172.16.1.2,30171,172.16.3.2,5101,10136,14528,0,64256,65728,6,6,4,1460,684,1,992,56,49964,47068,65700,0,11584,0,0,0
o,0x00000000,1720561521.638209,172.16.1.2,30171,172.16.3.2,5101,10136,14528,0,64256,65728,6,6,4,1460,684,1,992,56,49964,47068,65700,0,13032,0,0,0
i,0x00000000,1720561521.684199,172.16.1.2,30171,172.16.3.2,5101,10136,14528,0,64256,65728,6,6,4,1460,684,1,992,56,49964,49964,65700,0,14480,0,0,0
o,0x00000000,1720561521.684241,172.16.1.2,30171,172.16.3.2,5101,10136,14528,0,64256,65728,6,6,4,1460,711,1,992,60,49964,47068,65700,0,11584,0,0,0
o,0x00000000,1720561521.685620,172.16.1.2,30171,172.16.3.2,5101,10136,14528,0,64256,65728,6,6,4,1460,711,1,992,60,49964,47068,65700,0,13032,0,0,0
i,0x00000000,1720561521.734509,172.16.1.2,30171,172.16.3.2,5101,10136,14528,0,64256,65728,6,6,4,1460,711,1,992,60,49964,49964,65700,0,14480,0,0,0
o,0x00000000,1720561521.734550,172.16.1.2,30171,172.16.3.2,5101,10136,14528,0,64256,65728,6,6,4,1460,715,1,992,56,49964,47068,65700,0,11584,0,0,0
o,0x00000000,1720561521.735944,172.16.1.2,30171,172.16.3.2,5101,10136,14528,0,64256,65728,6,6,4,1460,715,1,992,56,49964,47068,65700,0,13032,0,0,0
i,0x00000000,1720561521.782816,172.16.1.2,30171,172.16.3.2,5101,10136,14528,0,64256,65728,6,6,4,1460,715,1,992,56,49964,49964,65700,0,14480,0,0,0
o,0x00000000,1720561521.782850,172.16.1.2,30171,172.16.3.2,5101,10136,14528,0,65728,65728,6,6,4,1460,738,1,992,59,49964,48516,65700,0,13032,0,0,0
i,0x00000000,1720561521.817422,172.16.1.2,30171,172.16.3.2,5101,10136,14528,0,65728,65728,6,6,4,1460,738,1,992,59,49964,48516,65700,0,14480,0,0,0
o,0x00000000,1720561521.817463,172.16.1.2,30171,172.16.3.2,5101,10136,14528,0,64256,65728,6,6,4,1460,742,1,992,56,49964,45620,65700,0,11584,0,0,0
o,0x00000000,1720561521.818674,172.16.1.2,30171,172.16.3.2,5101,10136,14528,0,64256,65728,6,6,4,1460,742,1,992,56,49964,45620,65700,0,13032,0,0,0
i,0x00000000,1720561521.850474,172.16.1.2,30171,172.16.3.2,5101,10136,14528,0,64256,65728,6,6,4,1460,742,1,992,56,49964,49964,65700,0,14480,0,0,0
o,0x00000000,1720561521.850486,172.16.1.2,30171,172.16.3.2,5101,10136,14528,0,64256,65728,6,6,4,1460,738,1,992,54,49964,47068,65700,0,11584,0,0,0
o,0x00000000,1720561521.850736,172.16.1.2,30171,172.16.3.2,5101,10136,14528,0,64256,65728,6,6,4,1460,738,1,992,54,49964,47068,65700,0,13032,0,0,0
i,0x00000000,1720561521.902322,172.16.1.2,30171,172.16.3.2,5101,10136,14528,0,64256,65728,6,6,4,1460,738,1,992,54,49964,49964,65700,0,14480,0,0,0
o,0x00000000,1720561521.902374,172.16.1.2,30171,172.16.3.2,5101,10136,15988,0,65728,65728,6,6,4,1460,750,1,992,55,49964,48516,65700,0,13032,0,0,0
o,0x00000000,1720561521.904028,172.16.1.2,30171,172.16.3.2,5101,10136,15988,0,65728,65728,6,6,4,1460,750,1,992,55,49964,48516,65700,0,14480,0,0,0
i,0x00000000,1720561521.912249,172.16.1.2,30171,172.16.3.2,5101,10136,15988,0,65728,65728,6,6,4,1460,750,1,992,55,49964,48516,65700,0,15928,0,0,0
o,0x00000000,1720561521.912288,172.16.1.2,30171,172.16.3.2,5101,10136,15988,0,64256,65728,6,6,4,1460,749,1,992,52,49964,45620,65700,0,13032,0,0,0
o,0x00000000,1720561521.913868,172.16.1.2,30171,172.16.3.2,5101,10136,15988,0,64256,65728,6,6,4,1460,749,1,992,52,49964,45620,65700,0,14480,0,0,0
i,0x00000000,1720561521.955825,172.16.1.2,30171,172.16.3.2,5101,10136,15988,0,64256,65728,6,6,4,1460,749,1,992,52,49964,49964,65700,0,15928,0,0,0
o,0x00000000,1720561521.955868,172.16.1.2,30171,172.16.3.2,5101,10136,15988,0,64256,65728,6,6,4,1460,744,1,992,51,49964,47068,65700,0,13032,0,0,0
o,0x00000000,1720561521.957719,172.16.1.2,30171,172.16.3.2,5101,10136,15988,0,64256,65728,6,6,4,1460,744,1,992,51,49964,47068,65700,0,14480,0,0,0
i,0x00000000,1720561522.038492,172.16.1.2,30171,172.16.3.2,5101,10136,15988,0,64256,65728,6,6,4,1460,744,1,992,51,49964,49964,65700,0,15928,0,0,0
o,0x00000000,1720561522.038536,172.16.1.2,30171,172.16.3.2,5101,10136,15988,0,64256,65728,6,6,4,1460,755,1,992,52,49964,47068,65700,0,13032,0,0,0
o,0x00000000,1720561522.039982,172.16.1.2,30171,172.16.3.2,5101,10136,15988,0,64256,65728,6,6,4,1460,755,1,992,52,49964,47068,65700,0,14480,0,0,0
i,0x00000000,1720561522.096175,172.16.1.2,30171,172.16.3.2,5101,10136,15988,0,64256,65728,6,6,4,1460,755,1,992,52,49964,49964,65700,0,15928,0,0,0
o,0x00000000,1720561522.096216,172.16.1.2,30171,172.16.3.2,5101,10136,15988,0,65728,65728,6,6,4,1460,769,1,992,54,49964,48516,65700,0,14480,0,0,0
i,0x00000000,1720561522.116781,172.16.1.2,30171,172.16.3.2,5101,10136,15988,0,65728,65728,6,6,4,1460,769,1,992,54,49964,48516,65700,0,15928,0,0,0
o,0x00000000,1720561522.116821,172.16.1.2,30171,172.16.3.2,5101,10136,15988,0,64256,65728,6,6,4,1460,777,1,992,54,49964,45620,65700,0,13032,0,0,0
o,0x00000000,1720561522.118098,172.16.1.2,30171,172.16.3.2,5101,10136,15988,0,64256,65728,6,6,4,1460,777,1,992,54,49964,45620,65700,0,14480,0,0,0
i,0x00000000,1720561522.193280,172.16.1.2,30171,172.16.3.2,5101,10136,15988,0,64256,65728,6,6,4,1460,777,1,992,54,49964,49964,65700,0,15928,0,0,0
o,0x00000000,1720561522.193320,172.16.1.2,30171,172.16.3.2,5101,10136,17448,0,64256,65728,6,6,4,1460,796,1,992,57,49964,47068,65700,0,13032,0,0,0
o,0x00000000,1720561522.194653,172.16.1.2,30171,172.16.3.2,5101,10136,17448,0,64256,65728,6,6,4,1460,796,1,992,57,49964,47068,65700,0,14480,0,0,0
o,0x00000000,1720561522.195934,172.16.1.2,30171,172.16.3.2,5101,10136,17448,0,64256,65728,6,6,4,1460,796,1,992,57,49964,47068,65700,0,15928,0,0,0
i,0x00000000,1720561522.223589,172.16.1.2,30171,172.16.3.2,5101,10136,17448,0,64256,65728,6,6,4,1460,796,1,992,57,49964,49964,65700,0,17376,0,0,0
o,0x00000000,1720561522.223632,172.16.1.2,30171,172.16.3.2,5101,10136,17448,0,64256,65728,6,6,4,1460,821,1,992,61,49964,47068,65700,0,14480,0,0,0
o,0x00000000,1720561522.224996,172.16.1.2,30171,172.16.3.2,5101,10136,17448,0,64256,65728,6,6,4,1460,821,1,992,61,49964,47068,65700,0,15928,0,0,0
i,0x00000000,1720561522.242515,172.16.1.2,30171,172.16.3.2,5101,10136,17448,0,64256,65728,6,6,4,1460,821,1,992,61,49964,49964,65700,0,17376,0,0,0
o,0x00000000,1720561522.242531,172.16.1.2,30171,172.16.3.2,5101,10136,17448,0,65728,65728,6,6,4,1460,835,1,992,61,49964,48516,65700,0,15928,0,0,0
i,0x00000000,1720561522.283299,172.16.1.2,30171,172.16.3.2,5101,10136,17448,0,65728,65728,6,6,4,1460,835,1,992,61,49964,48516,65700,0,17376,0,0,0
o,0x00000000,1720561522.283315,172.16.1.2,30171,172.16.3.2,5101,10136,17448,0,64256,65728,6,6,4,1460,859,1,992,64,49964,45620,65700,0,14480,0,0,0
o,0x00000000,1720561522.283751,172.16.1.2,30171,172.16.3.2,5101,10136,17448,0,64256,65728,6,6,4,1460,859,1,992,64,49964,45620,65700,0,15928,0,0,0
i,0x00000000,1720561522.312002,172.16.1.2,30171,172.16.3.2,5101,10136,17448,0,64256,65728,6,6,4,1460,859,1,992,64,49964,49964,65700,0,17376,0,0,0
o,0x00000000,1720561522.312051,172.16.1.2,30171,172.16.3.2,5101,10136,17448,0,64256,65728,6,6,4,1460,856,1,992,60,49964,47068,65700,0,14480,0,0,0
o,0x00000000,1720561522.313029,172.16.1.2,30171,172.16.3.2,5101,10136,17448,0,64256,65728,6,6,4,1460,856,1,992,60,49964,47068,65700,0,15928,0,0,0
i,0x00000000,1720561522.364339,172.16.1.2,30171,172.16.3.2,5101,10136,17448,0,64256,65728,6,6,4,1460,856,1,992,60,49964,49964,65700,0,17376,0,0,0
o,0x00000000,1720561522.364381,172.16.1.2,30171,172.16.3.2,5101,10136,17448,0,64256,65728,6,6,4,1460,845,1,992,59,49964,47068,65700,0,14480,0,0,0
o,0x00000000,1720561522.365625,172.16.1.2,30171,172.16.3.2,5101,10136,17448,0,64256,65728,6,6,4,1460,845,1,992,59,49964,47068,65700,0,15928,0,0,0
i,0x00000000,1720561522.422285,172.16.1.2,30171,172.16.3.2,5101,10136,17448,0,64256,65728,6,6,4,1460,845,1,992,59,49964,49964,65700,0,17376,0,0,0
o,0x00000000,1720561522.422327,172.16.1.2,30171,172.16.3.2,5101,10136,17448,0,64256,65728,6,6,4,1460,832,1,992,59,49964,47068,65700,0,14480,0,0,0
o,0x00000000,1720561522.423664,172.16.1.2,30171,172.16.3.2,5101,10136,17448,0,64256,65728,6,6,4,1460,832,1,992,59,49964,47068,65700,0,15928,0,0,0
i,0x00000000,1720561522.471694,172.16.1.2,30171,172.16.3.2,5101,10136,17448,0,64256,65728,6,6,4,1460,832,1,992,59,49964,49964,65700,0,17376,0,0,0
o,0x00000000,1720561522.471721,172.16.1.2,30171,172.16.3.2,5101,10136,18908,0,65728,65728,6,6,4,1460,840,1,992,58,49964,48516,65700,0,15928,0,0,0
o,0x00000000,1720561522.472512,172.16.1.2,30171,172.16.3.2,5101,10136,18908,0,65728,65728,6,6,4,1460,840,1,992,58,49964,48516,65700,0,17376,0,0,0
i,0x00000000,1720561522.506268,172.16.1.2,30171,172.16.3.2,5101,10136,18908,0,65728,65728,6,6,4,1460,840,1,992,58,49964,48516,65700,0,18824,0,0,0
o,0x00000000,1720561522.506309,172.16.1.2,30171,172.16.3.2,5101,10136,18908,0,65728,65728,6,6,4,1460,847,1,992,57,49964,47068,65700,0,17376,0,0,0
i,0x00000000,1720561522.534702,172.16.1.2,30171,172.16.3.2,5101,10136,18908,0,65728,65728,6,6,4,1460,847,1,992,57,49964,49964,65700,0,18824,0,0,0
o,0x00000000,1720561522.534743,172.16.1.2,30171,172.16.3.2,5101,10136,18908,0,64256,65728,6,6,4,1460,862,1,992,58,49964,47068,65700,0,15928,0,0,0
o,0x00000000,1720561522.535969,172.16.1.2,30171,172.16.3.2,5101,10136,18908,0,64256,65728,6,6,4,1460,862,1,992,58,49964,47068,65700,0,17376,0,0,0
i,0x00000000,1720561522.606134,172.16.1.2,30171,172.16.3.2,5101,10136,18908,0,64256,65728,6,6,4,1460,862,1,992,58,49964,49964,65700,0,18824,0,0,0
o,0x00000000,1720561522.606173,172.16.1.2,30171,172.16.3.2,5101,10136,18908,0,64256,65728,6,6,4,1460,879,1,992,60,49964,47068,65700,0,15928,0,0,0
o,0x00000000,1720561522.608684,172.16.1.2,30171,172.16.3.2,5101,10136,18908,0,64256,65728,6,6,4,1460,879,1,992,60,49964,47068,65700,0,17376,0,0,0
i,0x00000000,1720561522.645632,172.16.1.2,30171,172.16.3.2,5101,10136,18908,0,64256,65728,6,6,4,1460,879,1,992,60,49964,49964,65700,0,18824,0,0,0
o,0x00000000,1720561522.645667,172.16.1.2,30171,172.16.3.2,5101,10136,18908,0,64256,65728,6,6,4,1460,902,1,992,63,49964,47068,65700,0,15928,0,0,0
o,0x00000000,1720561522.647302,172.16.1.2,30171,172.16.3.2,5101,10136,18908,0,64256,65728,6,6,4,1460,902,1,992,63,49964,47068,65700,0,17376,0,0,0
i,0x00000000,1720561522.672365,172.16.1.2,30171,172.16.3.2,5101,10136,18908,0,64256,65728,6,6,4,1460,902,1,992,63,49964,49964,65700,0,18824,0,0,0
o,0x00000000,1720561522.672399,172.16.1.2,30171,172.16.3.2,5101,10136,18908,0,65728,65728,6,6,4,1460,914,1,992,63,49964,48516,65700,0,17376,0,0,0
i,0x00000000,1720561522.716932,172.16.1.2,30171,172.16.3.2,5101,10136,18908,0,65728,65728,6,6,4,1460,914,1,992,63,49964,48516,65700,0,18824,0,0,0
o,0x00000000,1720561522.716974,172.16.1.2,30171,172.16.3.2,5101,10136,18908,0,64256,65728,6,6,4,1460,944,1,992,68,49964,45620,65700,0,15928,0,0,0
o,0x00000000,1720561522.719815,172.16.1.2,30171,172.16.3.2,5101,10136,18908,0,64256,65728,6,6,4,1460,944,1,992,68,49964,45620,65700,0,17376,0,0,0
i,0x00000000,1720561522.764093,172.16.1.2,30171,172.16.3.2,5101,10136,18908,0,64256,65728,6,6,4,1460,944,1,992,68,49964,49964,65700,0,18824,0,0,0
o,0x00000000,1720561522.764133,172.16.1.2,30171,172.16.3.2,5101,10136,18908,0,64256,65728,6,6,4,1460,962,1,992,68,49964,47068,65700,0,15928,0,0,0
o,0x00000000,1720561522.766050,172.16.1.2,30171,172.16.3.2,5101,10136,18908,0,64256,65728,6,6,4,1460,962,1,992,68,49964,47068,65700,0,17376,0,0,0
i,0x00000000,1720561522.773633,172.16.1.2,30171,172.16.3.2,5101,10136,18908,0,64256,65728,6,6,4,1460,962,1,992,68,49964,49288,65700,0,18824,0,0,0
o,0x00000000,1720561522.773670,172.16.1.2,30171,172.16.3.2,5101,10136,20368,0,65728,65728,6,6,4,1460,958,1,992,65,49964,47840,65700,0,17376,0,0,0
o,0x00000000,1720561522.774979,172.16.1.2,30171,172.16.3.2,5101,10136,20368,0,65728,65728,6,6,4,1460,958,1,992,65,49964,47840,65700,0,18824,0,0,0
i,0x00000000,1720561522.834327,172.16.1.2,30171,172.16.3.2,5101,10136,20368,0,65728,65728,6,6,4,1460,958,1,992,65,49964,49964,65700,0,20272,0,0,0
o,0x00000000,1720561522.834368,172.16.1.2,30171,172.16.3.2,5101,10136,20368,0,64256,65728,6,6,4,1460,967,1,992,63,49964,47068,65700,0,17376,0,0,0
o,0x00000000,1720561522.836247,172.16.1.2,30171,172.16.3.2,5101,10136,20368,0,64256,65728,6,6,4,1460,967,1,992,63,49964,47068,65700,0,18824,0,0,0
i,0x00000000,1720561522.870319,172.16.1.2,30171,172.16.3.2,5101,10136,20368,0,64256,65728,6,6,4,1460,967,1,992,63,49964,49964,65700,0,20272,0,0,0
o,0x00000000,1720561522.870345,172.16.1.2,30171,172.16.3.2,5101,10136,20368,0,64256,65728,6,6,4,1460,983,1,992,65,49964,47068,65700,0,17376,0,0,0
o,0x00000000,1720561522.871081,172.16.1.2,30171,172.16.3.2,5101,10136,20368,0,64256,65728,6,6,4,1460,983,1,992,65,49964,47068,65700,0,18824,0,0,0
i,0x00000000,1720561522.911565,172.16.1.2,30171,172.16.3.2,5101,10136,20368,0,64256,65728,6,6,4,1460,983,1,992,65,49964,49964,65700,0,20272,0,0,0
o,0x00000000,1720561522.911605,172.16.1.2,30171,172.16.3.2,5101,10136,20368,0,64256,65728,6,6,4,1460,981,1,992,62,49964,47068,65700,0,17376,0,0,0
o,0x00000000,1720561522.912949,172.16.1.2,30171,172.16.3.2,5101,10136,20368,0,64256,65728,6,6,4,1460,981,1,992,62,49964,47068,65700,0,18824,0,0,0
i,0x00000000,1720561522.998384,172.16.1.2,30171,172.16.3.2,5101,10136,20368,0,64256,65728,6,6,4,1460,981,1,992,62,49964,49964,65700,0,20272,0,0,0
o,0x00000000,1720561522.998440,172.16.1.2,30171,172.16.3.2,5101,10136,20368,0,64256,65728,6,6,4,1460,999,1,992,64,49964,47068,65700,0,17376,0,0,0
o,0x00000000,1720561522.999896,172.16.1.2,30171,172.16.3.2,5101,10136,20368,0,64256,65728,6,6,4,1460,999,1,992,64,49964,47068,65700,0,18824,0,0,0
i,0x00000000,1720561523.024392,172.16.1.2,30171,172.16.3.2,5101,10136,20368,0,64256,65728,6,6,4,1460,999,1,992,64,49964,49964,65700,0,20272,0,0,0
o,0x00000000,1720561523.024433,172.16.1.2,30171,172.16.3.2,5101,10136,20368,0,64256,65728,6,6,4,1460,995,1,992,62,49964,47068,65700,0,17376,0,0,0
o,0x00000000,1720561523.026919,172.16.1.2,30171,172.16.3.2,5101,10136,20368,0,64256,65728,6,6,4,1460,995,1,992,62,49964,47068,65700,0,18824,0,0,0
i,0x00000000,1720561523.083621,172.16.1.2,30171,172.16.3.2,5101,10136,20368,0,64256,65728,6,6,4,1460,995,1,992,62,49964,49964,65700,0,20272,0,0,0
o,0x00000000,1720561523.083644,172.16.1.2,30171,172.16.3.2,5101,10136,20368,0,64256,65728,6,6,4,1460,995,1,992,59,49964,47068,65700,0,17376,0,0,0
o,0x00000000,1720561523.084255,172.16.1.2,30171,172.16.3.2,5101,10136,20368,0,64256,65728,6,6,4,1460,995,1,992,59,49964,47068,65700,0,18824,0,0,0
i,0x00000000,1720561523.112460,172.16.1.2,30171,172.16.3.2,5101,10136,20368,0,64256,65728,6,6,4,1460,995,1,992,59,49964,49964,65700,0,20272,0,0,0
o,0x00000000,1720561523.112497,172.16.1.2,30171,172.16.3.2,5101,10136,21828,0,64256,65728,6,6,4,1460,1007,1,992,60,49964,47068,65700,0,17376,0,0,0
o,0x00000000,1720561523.114370,172.16.1.2,30171,172.16.3.2,5101,10136,21828,0,64256,65728,6,6,4,1460,1007,1,992,60,49964,47068,65700,0,18824,0,0,0
o,0x00000000,1720561523.115563,172.16.1.2,30171,172.16.3.2,5101,10136,21828,0,64256,65728,6,6,4,1460,1007,1,992,60,49964,47068,65700,0,20272,0,0,0
i,0x00000000,1720561523.171647,172.16.1.2,30171,172.16.3.2,5101,10136,21828,0,64256,65728,6,6,4,1460,1007,1,992,60,49964,49964,65700,0,21720,0,0,0
o,0x00000000,1720561523.171668,172.16.1.2,30171,172.16.3.2,5101,10136,21828,0,64256,65728,6,6,4,1460,1018,1,992,61,49964,47068,65700,0,18824,0,0,0
o,0x00000000,1720561523.172235,172.16.1.2,30171,172.16.3.2,5101,10136,21828,0,64256,65728,6,6,4,1460,1018,1,992,61,49964,47068,65700,0,20272,0,0,0
i,0x00000000,1720561523.214293,172.16.1.2,30171,172.16.3.2,5101,10136,21828,0,64256,65728,6,6,4,1460,1018,1,992,61,49964,49964,65700,0,21720,0,0,0
o,0x00000000,1720561523.214316,172.16.1.2,30171,172.16.3.2,5101,10136,21828,0,64256,65728,6,6,4,1460,1023,1,992,60,49964,47068,65700,0,18824,0,0,0
o,0x00000000,1720561523.214958,172.16.1.2,30171,172.16.3.2,5101,10136,21828,0,64256,65728,6,6,4,1460,1023,1,992,60,49964,47068,65700,0,20272,0,0,0
i,0x00000000,1720561523.253906,172.16.1.2,30171,172.16.3.2,5101,10136,21828,0,64256,65728,6,6,4,1460,1023,1,992,60,49964,49964,65700,0,21720,0,0,0
o,0x00000000,1720561523.253921,172.16.1.2,30171,172.16.3.2,5101,10136,21828,0,64256,65728,6,6,4,1460,1028,1,992,60,49964,47068,65700,0,18824,0,0,0
o,0x00000000,1720561523.254175,172.16.1.2,30171,172.16.3.2,5101,10136,21828,0,64256,65728,6,6,4,1460,1028,1,992,60,49964,47068,65700,0,20272,0,0,0
i,0x00000000,1720561523.334458,172.16.1.2,30171,172.16.3.2,5101,10136,21828,0,64256,65728,6,6,4,1460,1028,1,992,60,49964,49964,65700,0,21720,0,0,0
o,0x00000000,1720561523.334512,172.16.1.2,30171,172.16.3.2,5101,10136,21828,0,65728,65728,6,6,4,1460,1032,1,992,59,49964,48516,65700,0,20272,0,0,0
i,0x00000000,1720561523.372838,172.16.1.2,30171,172.16.3.2,5101,10136,21828,0,65728,65728,6,6,4,1460,1032,1,992,59,49964,48516,65700,0,21720,0,0,0
o,0x00000000,1720561523.372884,172.16.1.2,30171,172.16.3.2,5101,10136,21828,0,64256,65728,6,6,4,1460,1047,1,992,61,49964,45620,65700,0,18824,0,0,0
o,0x00000000,1720561523.373998,172.16.1.2,30171,172.16.3.2,5101,10136,21828,0,64256,65728,6,6,4,1460,1047,1,992,61,49964,45620,65700,0,20272,0,0,0
i,0x00000000,1720561523.435040,172.16.1.2,30171,172.16.3.2,5101,10136,21828,0,64256,65728,6,6,4,1460,1047,1,992,61,49964,49964,65700,0,21720,0,0,0
o,0x00000000,1720561523.435091,172.16.1.2,30171,172.16.3.2,5101,10136,21828,0,64256,65728,6,6,4,1460,1077,1,992,67,49964,47068,65700,0,18824,0,0,0
o,0x00000000,1720561523.437707,172.16.1.2,30171,172.16.3.2,5101,10136,21828,0,64256,65728,6,6,4,1460,1077,1,992,67,49964,47068,65700,0,20272,0,0,0
i,0x00000000,1720561523.468463,172.16.1.2,30171,172.16.3.2,5101,10136,21828,0,64256,65728,6,6,4,1460,1077,1,992,67,49964,49964,65700,0,21720,0,0,0
o,0x00000000,1720561523.468501,172.16.1.2,30171,172.16.3.2,5101,10136,21828,0,62848,65728,6,6,4,1460,1099,1,992,70,49964,47068,65700,0,18824,0,0,0
o,0x00000000,1720561523.469851,172.16.1.2,30171,172.16.3.2,5101,10136,21828,0,62848,65728,6,6,4,1460,1099,1,992,70,49964,47068,65700,0,20272,0,0,0
