enable_time_secs=1720648947	enable_time_usecs=529600	siftrver=1.2.4	hz=100	tcp_rtt_scale=32	sysname=FreeBSD	sysver=1301000	ipmode=4
o,0x00000000,1720648947.529634,10.0.2.15,22,10.0.2.2,52404,1073725440,17770,0,65535,65700,0,0,4,1460,1,0,4,24,33580,44,65700,0,0,0,0,0
o,0x00000000,1720648947.529740,10.0.2.15,22,10.0.2.2,52404,1073725440,17770,0,65535,65700,0,0,4,1460,1,0,4,24,33580,80,65700,0,44,0,0,0
i,0x00000000,1720648947.530317,10.0.2.15,22,10.0.2.2,52404,1073725440,17770,0,65535,65700,0,0,4,1460,1,0,4,24,33580,80,65700,0,80,0,0,0
i,0x00000000,1720648947.530391,10.0.2.15,22,10.0.2.2,52404,1073725440,17814,0,65535,65700,0,0,4,1460,1,0,4,24,33580,36,65700,0,36,0,0,0
o,0x00000000,1720648947.530454,10.0.2.15,22,10.0.2.2,52404,1073725440,17850,0,65535,65700,0,0,4,1460,1,0,4,24,33580,36,65700,0,0,0,0,0
i,0x00000000,1720648947.530879,10.0.2.15,22,10.0.2.2,52404,1073725440,17850,0,65535,65700,0,0,4,1460,1,0,4,24,33580,36,65700,0,36,0,0,0
o,0x00000000,1720648947.531097,10.0.2.15,22,10.0.2.2,52404,1073725440,17886,0,65535,65700,0,0,4,1460,1,0,4,24,33580,176,65700,0,0,0,0,0
i,0x00000000,1720648947.531778,10.0.2.15,22,10.0.2.2,52404,1073725440,17886,0,65535,65700,0,0,4,1460,1,0,4,24,33580,176,65700,0,176,0,0,0
i,0x00000000,1720648947.531782,10.0.2.15,22,10.0.2.2,52404,1073725440,18062,0,65535,65700,0,0,4,1460,1,0,4,24,33580,0,65700,0,0,0,0,0
i,0x00000000,1720648947.531783,10.0.2.15,22,10.0.2.2,52404,1073725440,18062,0,65535,65700,0,0,4,1460,1,0,4,24,33580,0,65700,96,0,0,0,0
o,0x00000000,1720648947.531787,10.0.2.15,22,10.0.2.2,52404,1073725440,18062,0,65535,65604,0,0,5,1460,1,0,5,24,33580,0,65700,96,0,0,0,0
o,0x00000000,1720648947.532816,10.0.2.15,22,10.0.2.2,52404,1073725440,18062,0,65535,65604,0,0,8,1460,1,0,4,24,33580,0,65700,0,0,0,0,0
i,0x00000000,1720648947.533511,10.0.2.15,22,10.0.2.2,52404,1073725440,18062,0,65535,65604,0,0,8,1460,1,0,20,24,33580,0,65700,0,1,0,0,0
i,0x00000000,1720648949.607697,10.0.2.15,22,10.0.2.2,52416,1073725440,14600,0,65535,65700,0,0,4,1460,1,0,0,27,33580,0,65700,0,0,0,0,0
o,0x00000000,1720648949.614336,10.0.2.15,22,10.0.2.2,52416,1073725440,14600,0,65535,65700,0,0,4,1460,1,0,0,27,33580,38,65700,42,0,0,0,0
i,0x00000000,1720648949.615781,10.0.2.15,22,10.0.2.2,52416,1073725440,14600,0,65535,65700,0,0,4,1460,1,0,0,27,33580,38,65700,42,38,0,0,0
i,0x00000000,1720648949.615790,10.0.2.15,22,10.0.2.2,52416,1073725440,14638,0,65535,65700,0,0,4,1460,1,0,0,24,33580,0,65700,42,0,0,0,0
i,0x00000000,1720648949.615791,10.0.2.15,22,10.0.2.2,52416,1073725440,14638,0,65535,65700,0,0,4,1460,1,0,0,24,33580,0,65700,1502,0,0,0,0
o,0x00000000,1720648949.615794,10.0.2.15,22,10.0.2.2,52416,1073725440,14638,0,65535,65700,0,0,4,1460,1,0,1,24,33580,0,65700,1578,0,0,0,0
o,0x00000000,1720648949.616744,10.0.2.15,22,10.0.2.2,52416,1073725440,14638,0,65535,65700,0,0,4,1460,1,0,0,24,33580,1056,65700,1536,0,0,0,0
i,0x00000000,1720648949.617417,10.0.2.15,22,10.0.2.2,52416,1073725440,14638,0,65535,65700,0,0,4,1460,1,0,0,24,33580,1056,65700,1536,1056,0,0,0
i,0x00000000,1720648949.618796,10.0.2.15,22,10.0.2.2,52416,1073725440,15694,0,65535,65700,0,0,4,1460,1,0,0,24,33580,0,65700,0,0,0,0,0
o,0x00000000,1720648949.621228,10.0.2.15,22,10.0.2.2,52416,1073725440,15694,0,65535,65700,0,0,4,1460,1,0,0,24,33580,484,65700,0,0,0,0,0
i,0x00000000,1720648949.621926,10.0.2.15,22,10.0.2.2,52416,1073725440,15694,0,65535,65700,0,0,4,1460,1,0,0,24,33580,484,65700,0,484,0,0,0
i,0x00000000,1720648949.626323,10.0.2.15,22,10.0.2.2,52416,1073725440,16178,0,65535,65700,0,0,4,1460,1,0,0,24,33580,0,65700,0,0,0,0,0
i,0x00000000,1720648949.626327,10.0.2.15,22,10.0.2.2,52416,1073725440,16178,0,65535,65700,0,0,4,1460,1,0,0,24,33580,0,65700,16,0,0,0,0
o,0x00000000,1720648949.626329,10.0.2.15,22,10.0.2.2,52416,1073725440,16178,0,65535,65700,0,0,4,1460,1,0,1,24,33580,0,65700,60,0,0,0,0
o,0x00000000,1720648949.626527,10.0.2.15,22,10.0.2.2,52416,1073725440,16178,0,65535,65700,0,0,4,1460,1,0,0,24,33580,44,65700,0,0,0,0,0
i,0x00000000,1720648949.627204,10.0.2.15,22,10.0.2.2,52416,1073725440,16178,0,65535,65700,0,0,4,1460,1,0,0,24,33580,44,65700,0,44,0,0,0
i,0x00000000,1720648949.627207,10.0.2.15,22,10.0.2.2,52416,1073725440,16222,0,65535,65700,0,0,4,1460,1,0,0,24,33580,0,65700,0,0,0,0,0
o,0x00000000,1720648949.636518,10.0.2.15,22,10.0.2.2,52416,1073725440,16222,0,65535,65700,0,0,4,1460,1,0,0,24,33580,68,65700,0,0,0,0,0
i,0x00000000,1720648949.637389,10.0.2.15,22,10.0.2.2,52416,1073725440,16222,0,65535,65700,0,0,4,1460,1,0,0,24,33580,68,65700,0,68,0,0,0
i,0x00000000,1720648949.637393,10.0.2.15,22,10.0.2.2,52416,1073725440,16290,0,65535,65700,0,0,4,1460,1,0,0,24,33580,0,65700,0,0,0,0,0
o,0x00000000,1720648949.637668,10.0.2.15,22,10.0.2.2,52416,1073725440,16290,0,65535,65700,0,0,4,1460,1,0,0,24,33580,332,65700,0,0,0,0,0
i,0x00000000,1720648949.638330,10.0.2.15,22,10.0.2.2,52416,1073725440,16290,0,65535,65700,0,0,4,1460,1,0,0,24,33580,332,65700,0,332,0,0,0
i,0x00000000,1720648949.639910,10.0.2.15,22,10.0.2.2,52416,1073725440,16622,0,65535,65700,0,0,4,1460,1,0,0,24,33580,0,65700,0,0,0,0,0
o,0x00000000,1720648949.656421,10.0.2.15,22,10.0.2.2,52416,1073725440,16622,0,65535,65700,0,0,4,1460,1,0,0,24,33580,28,65700,0,0,0,0,0
i,0x00000000,1720648949.657247,10.0.2.15,22,10.0.2.2,52416,1073725440,16622,0,65535,65700,0,0,4,1460,1,0,0,24,33580,28,65700,0,28,0,0,0
i,0x00000000,1720648949.657250,10.0.2.15,22,10.0.2.2,52416,1073725440,16650,0,65535,65700,0,0,4,1460,1,0,0,24,33580,0,65700,0,0,0,0,0
o,0x00000000,1720648949.657833,10.0.2.15,22,10.0.2.2,52416,1073725440,16650,0,65535,65700,0,0,4,1460,1,0,0,24,33580,768,65700,112,0,0,0,0
i,0x00000000,1720648949.658529,10.0.2.15,22,10.0.2.2,52416,1073725440,16650,0,65535,65700,0,0,4,1460,1,0,0,24,33580,768,65700,112,768,0,0,0
o,0x00000000,1720648949.658583,10.0.2.15,22,10.0.2.2,52416,1073725440,17418,0,65535,65700,0,0,4,1460,1,0,0,24,33580,140,65700,112,0,0,0,0
i,0x00000000,1720648949.659268,10.0.2.15,22,10.0.2.2,52416,1073725440,17418,0,65535,65700,0,0,4,1460,1,0,0,24,33580,140,65700,112,140,0,0,0
o,0x00000000,1720648949.659368,10.0.2.15,22,10.0.2.2,52416,1073725440,17558,0,65535,65700,0,0,4,1460,1,0,0,24,33580,44,65700,0,0,0,0,0
i,0x00000000,1720648949.661774,10.0.2.15,22,10.0.2.2,52416,1073725440,17558,0,65535,65700,0,0,4,1460,1,0,0,24,33580,44,65700,0,44,0,0,0
i,0x00000000,1720648949.661777,10.0.2.15,22,10.0.2.2,52416,1073725440,17602,0,65535,65700,0,0,4,1460,1,0,0,24,33580,0,65700,0,0,0,0,0
o,0x00000000,1720648949.662178,10.0.2.15,22,10.0.2.2,52416,1073725440,17602,0,65535,65700,0,0,4,1460,1,0,4,24,33580,72,65700,0,0,0,0,0
i,0x00000000,1720648949.662829,10.0.2.15,22,10.0.2.2,52416,1073725440,17602,0,65535,65700,0,0,4,1460,1,0,4,24,33580,72,65700,0,72,0,0,0
o,0x00000000,1720648949.667126,10.0.2.15,22,10.0.2.2,52416,1073725440,17674,0,65535,65700,0,0,4,1460,1,0,4,24,33580,44,65700,0,0,0,0,0
i,0x00000000,1720648949.667759,10.0.2.15,22,10.0.2.2,52416,1073725440,17674,0,65535,65700,0,0,4,1460,1,0,4,24,33580,44,65700,0,44,0,0,0
o,0x00000000,1720648949.668238,10.0.2.15,22,10.0.2.2,52416,1073725440,17718,0,65535,65700,0,0,4,1460,1,0,4,24,33580,44,65700,0,0,0,0,0
i,0x00000000,1720648949.668908,10.0.2.15,22,10.0.2.2,52416,1073725440,17718,0,65535,65700,0,0,4,1460,1,0,4,24,33580,44,65700,0,44,0,0,0
o,0x00000000,1720648949.671854,10.0.2.15,22,10.0.2.2,52416,1073725440,17762,0,65535,65700,0,0,4,1460,1,0,4,24,33580,176,65700,0,0,0,0,0
i,0x00000000,1720648949.672544,10.0.2.15,22,10.0.2.2,52416,1073725440,17762,0,65535,65700,0,0,4,1460,1,0,4,24,33580,176,65700,0,176,0,0,0
i,0x00000000,1720648949.672547,10.0.2.15,22,10.0.2.2,52416,1073725440,17938,0,65535,65700,0,0,4,1460,1,0,4,24,33580,0,65700,0,0,0,0,0
i,0x00000000,1720648949.672549,10.0.2.15,22,10.0.2.2,52416,1073725440,17938,0,65535,65700,0,0,4,1460,1,0,4,24,33580,0,65700,96,0,0,0,0
o,0x00000000,1720648949.672552,10.0.2.15,22,10.0.2.2,52416,1073725440,17938,0,65535,65604,0,0,5,1460,1,0,5,24,33580,0,65700,96,0,0,0,0
o,0x00000000,1720648949.679979,10.0.2.15,22,10.0.2.2,52416,1073725440,17938,0,65535,65604,0,0,8,1460,1,0,4,24,33580,0,65700,0,0,0,0,0
i,0x00000000,1720648949.680757,10.0.2.15,22,10.0.2.2,52416,1073725440,17938,0,65535,65604,0,0,8,1460,1,0,20,24,33580,0,65700,0,1,0,0,0
i,0x00000000,1720648949.945417,172.16.3.2,5101,172.16.1.2,41293,10499,14480,0,65728,65700,6,6,4,1460,509,1,992,52,33580,0,65700,0,0,0,0,0
o,0x00000000,1720648949.945671,172.16.3.2,5101,172.16.1.2,41293,10499,14480,0,65728,65700,6,6,4,1460,509,1,996,52,33580,1,65700,0,0,0,0,0
i,0x00000000,1720648950.069633,172.16.3.2,5101,172.16.1.2,41293,10499,14480,0,65728,65700,6,6,4,1460,509,1,996,52,33580,1,65700,0,1,0,0,0
i,0x00000000,1720648950.069650,172.16.3.2,5101,172.16.1.2,41293,10499,14480,0,65728,65728,6,6,4,1460,494,1,996,51,33580,0,65700,4,0,0,0,0
o,0x00000000,1720648950.069657,172.16.3.2,5101,172.16.1.2,41293,10499,14480,0,65728,65728,6,6,4,1460,494,1,997,51,33580,0,65700,128,0,0,0,0
o,0x00000000,1720648950.070122,172.16.3.2,5101,172.16.1.2,41293,10499,14480,0,65728,65728,6,6,4,1460,494,1,996,51,33580,1,65700,0,0,0,0,0
o,0x00000000,1720648950.070327,10.0.2.15,22,10.0.2.2,52548,1073725440,14600,0,65535,65700,0,0,4,1460,1,0,4,24,33580,84,65700,0,0,0,0,0
i,0x00000000,1720648950.070971,10.0.2.15,22,10.0.2.2,52548,1073725440,14600,0,65535,65700,0,0,4,1460,1,0,4,24,33580,84,65700,0,84,0,0,0
i,0x00000000,1720648950.215312,172.16.3.2,5101,172.16.1.2,41293,10499,14480,0,65728,65728,6,6,4,1460,494,1,996,51,33580,1,65700,0,1,0,0,0
i,0x00000000,1720648950.308728,172.16.3.2,5101,172.16.1.2,16093,10499,14480,0,65728,65700,6,6,4,1460,505,1,992,53,33580,0,65700,0,0,0,0,0
o,0x00000000,1720648950.310543,172.16.3.2,5101,172.16.1.2,41293,10499,14480,0,65728,65728,6,6,4,1460,489,1,996,49,33580,1,65700,0,0,0,0,0
o,0x00000000,1720648950.310640,172.16.3.2,5101,172.16.1.2,41293,10499,14480,0,65728,65728,6,6,4,1460,489,1,996,49,33580,2,65700,0,1,0,0,0
o,0x00000000,1720648950.311067,10.0.2.15,22,10.0.2.2,52548,1073725440,14600,0,65535,65700,0,0,4,1460,1,0,4,24,33580,108,65700,0,0,0,0,0
i,0x00000000,1720648950.311795,10.0.2.15,22,10.0.2.2,52548,1073725440,14600,0,65535,65700,0,0,4,1460,1,0,4,24,33580,108,65700,0,108,0,0,0
o,0x00000000,1720648950.345895,172.16.3.2,5101,172.16.1.2,16093,10499,14480,0,65728,65700,6,6,4,1460,505,1,993,53,33580,0,65700,0,0,0,0,0
i,0x00000000,1720648950.433003,172.16.3.2,5101,172.16.1.2,41293,10499,14480,0,65728,65728,6,6,4,1460,489,1,996,49,33580,2,65700,0,2,0,0,0
i,0x00000000,1720648950.526227,172.16.3.2,5101,172.16.1.2,16093,10499,14480,0,65728,65700,6,6,4,1460,505,1,992,53,33580,0,65700,0,0,0,0,0
i,0x00000000,1720648950.536782,172.16.3.2,5101,172.16.1.2,16093,10499,14480,0,65728,65700,6,6,4,1460,505,1,992,53,33580,0,65700,0,0,0,0,0
o,0x00000000,1720648950.536794,172.16.3.2,5101,172.16.1.2,16093,10499,14480,0,65728,65700,6,6,4,1460,505,1,993,53,33580,0,65700,1448,0,0,0,0
i,0x00000000,1720648950.545666,172.16.3.2,5101,172.16.1.2,16093,10499,14480,0,65728,65700,6,6,4,1460,505,1,992,53,33580,0,65700,0,0,0,0,0
i,0x00000000,1720648950.557400,172.16.3.2,5101,172.16.1.2,16093,10499,14480,0,65728,65700,6,6,4,1460,505,1,992,53,33580,0,65700,0,0,0,0,0
o,0x00000000,1720648950.557408,172.16.3.2,5101,172.16.1.2,16093,10499,14480,0,65728,65700,6,6,4,1460,505,1,993,53,33580,0,65700,1448,0,0,0,0
i,0x00000000,1720648950.575574,172.16.3.2,5101,172.16.1.2,16093,10499,14480,0,65728,65700,6,6,4,1460,505,1,992,53,33580,0,65700,0,0,0,0,0
i,0x00000000,1720648950.584763,172.16.3.2,5101,172.16.1.2,16093,10499,14480,0,65728,65700,6,6,4,1460,505,1,992,53,33580,0,65700,0,0,0,0,0
o,0x00000000,1720648950.584774,172.16.3.2,5101,172.16.1.2,16093,10499,14480,0,65728,65700,6,6,4,1460,505,1,993,53,33580,0,65700,1448,0,0,0,0
i,0x00000000,1720648950.595195,172.16.3.2,5101,172.16.1.2,16093,10499,14480,0,65728,65700,6,6,4,1460,505,1,992,53,33580,0,65700,0,0,0,0,0
i,0x00000000,1720648950.605623,172.16.3.2,5101,172.16.1.2,16093,10499,14480,0,65728,65700,6,6,4,1460,505,1,992,53,33580,0,65700,0,0,0,0,0
o,0x00000000,1720648950.605638,172.16.3.2,5101,172.16.1.2,16093,10499,14480,0,65728,65700,6,6,4,1460,505,1,993,53,33580,0,65700,1448,0,0,0,0
i,0x00000000,1720648950.625216,172.16.3.2,5101,172.16.1.2,16093,10499,14480,0,65728,65700,6,6,4,1460,505,1,992,53,33580,0,65700,0,0,0,0,0
i,0x00000000,1720648950.635610,172.16.3.2,5101,172.16.1.2,16093,10499,14480,0,65728,65700,6,6,4,1460,505,1,992,53,33580,0,65700,0,0,0,0,0
o,0x00000000,1720648950.635622,172.16.3.2,5101,172.16.1.2,16093,10499,14480,0,65728,65700,6,6,4,1460,505,1,993,53,33580,0,65700,1448,0,0,0,0
i,0x00000000,1720648950.755068,172.16.3.2,5101,172.16.1.2,16093,10499,14480,0,65728,65700,6,6,4,1460,505,1,992,53,33580,0,65700,0,0,0,0,0
i,0x00000000,1720648950.764339,172.16.3.2,5101,172.16.1.2,16093,10499,14480,0,65728,65700,6,6,4,1460,505,1,992,53,33580,0,65700,0,0,0,0,0
o,0x00000000,1720648950.764349,172.16.3.2,5101,172.16.1.2,16093,10499,14480,0,65728,65700,6,6,4,1460,505,1,993,53,33580,0,65700,1448,0,0,0,0
i,0x00000000,1720648950.817469,172.16.3.2,5101,172.16.1.2,16093,10499,14480,0,65728,65700,6,6,4,1460,505,1,992,53,33580,0,65700,0,0,0,0,0
i,0x00000000,1720648950.825178,172.16.3.2,5101,172.16.1.2,16093,10499,14480,0,65728,65700,6,6,4,1460,505,1,992,53,33580,0,65700,0,0,0,0,0
o,0x00000000,1720648950.825189,172.16.3.2,5101,172.16.1.2,16093,10499,14480,0,65728,65700,6,6,4,1460,505,1,993,53,33580,0,65700,1448,0,0,0,0
i,0x00000000,1720648950.845070,172.16.3.2,5101,172.16.1.2,16093,10499,14480,0,65728,65700,6,6,4,1460,505,1,992,53,33580,0,65700,0,0,0,0,0
i,0x00000000,1720648950.855587,172.16.3.2,5101,172.16.1.2,16093,10499,14480,0,65728,65700,6,6,4,1460,505,1,992,53,33580,0,65700,0,0,0,0,0
o,0x00000000,1720648950.855596,172.16.3.2,5101,172.16.1.2,16093,10499,14480,0,65728,65700,6,6,4,1460,505,1,993,53,33580,0,65700,1448,0,0,0,0
i,0x00000000,1720648950.864940,172.16.3.2,5101,172.16.1.2,16093,10499,14480,0,65728,65700,6,6,4,1460,505,1,992,53,33580,0,65700,0,0,0,0,0
i,0x00000000,1720648950.875159,172.16.3.2,5101,172.16.1.2,16093,10499,14480,0,65728,65700,6,6,4,1460,505,1,992,53,33580,0,65700,0,0,0,0,0
o,0x00000000,1720648950.875167,172.16.3.2,5101,172.16.1.2,16093,10499,14480,0,65728,65700,6,6,4,1460,505,1,993,53,33580,0,65700,1448,0,0,0,0
i,0x00000000,1720648950.885702,172.16.3.2,5101,172.16.1.2,16093,10499,14480,0,65728,65700,6,6,4,1460,505,1,992,53,33580,0,65700,0,0,0,0,0
i,0x00000000,1720648950.911086,172.16.3.2,5101,172.16.1.2,16093,10499,14480,0,65728,65700,6,6,4,1460,505,1,992,53,33580,0,65700,0,0,0,0,0
o,0x00000000,1720648950.911094,172.16.3.2,5101,172.16.1.2,16093,10499,14480,0,65728,65700,6,6,4,1460,505,1,993,53,33580,0,65700,1448,0,0,0,0
i,0x00000000,1720648950.915768,172.16.3.2,5101,172.16.1.2,16093,10499,14480,0,65728,65700,6,6,4,1460,505,1,992,53,33580,0,65700,0,0,0,0,0
i,0x00000000,1720648950.925198,172.16.3.2,5101,172.16.1.2,16093,10499,14480,0,65728,65700,6,6,4,1460,505,1,992,53,33580,0,65700,0,0,0,0,0
o,0x00000000,1720648950.925204,172.16.3.2,5101,172.16.1.2,16093,10499,14480,0,65728,65700,6,6,4,1460,505,1,993,53,33580,0,65700,1448,0,0,0,0
i,0x00000000,1720648950.975197,172.16.3.2,5101,172.16.1.2,16093,10499,14480,0,65728,65700,6,6,4,1460,505,1,992,53,33580,0,65700,0,0,0,0,0
o,0x00000000,1720648950.975285,172.16.3.2,5101,172.16.1.2,16093,10499,14480,0,65728,65700,6,6,4,1460,505,1,993,53,33580,0,65700,0,0,0,0,0
i,0x00000000,1720648950.984587,172.16.3.2,5101,172.16.1.2,16093,10499,14480,0,65728,65700,6,6,4,1460,505,1,992,53,33580,0,65700,0,0,0,0,0
i,0x00000000,1720648951.005284,172.16.3.2,5101,172.16.1.2,16093,10499,14480,0,65728,65700,6,6,4,1460,505,1,992,53,33580,0,65700,0,0,0,0,0
o,0x00000000,1720648951.005295,172.16.3.2,5101,172.16.1.2,16093,10499,14480,0,65728,65700,6,6,4,1460,505,1,993,53,33580,0,65700,1448,0,0,0,0
i,0x00000000,1720648951.046149,172.16.3.2,5101,172.16.1.2,16093,10499,14480,0,65728,65700,6,6,4,1460,505,1,992,53,33580,0,65700,0,0,0,0,0
i,0x00000000,1720648951.066985,172.16.3.2,5101,172.16.1.2,16093,10499,14480,0,65728,65700,6,6,4,1460,505,1,992,53,33580,0,65700,0,0,0,0,0
o,0x00000000,1720648951.066994,172.16.3.2,5101,172.16.1.2,16093,10499,14480,0,65728,65700,6,6,4,1460,505,1,993,53,33580,0,65700,1448,0,0,0,0
i,0x00000000,1720648951.074929,172.16.3.2,5101,172.16.1.2,16093,10499,14480,0,65728,65700,6,6,4,1460,505,1,992,53,33580,0,65700,0,0,0,0,0
o,0x00000000,1720648951.106780,172.16.3.2,5101,172.16.1.2,16093,10499,14480,0,65728,65700,6,6,4,1460,505,1,993,53,33580,0,65700,0,0,0,0,0
i,0x00000000,1720648951.169976,172.16.3.2,5101,172.16.1.2,16093,10499,14480,0,65728,65700,6,6,4,1460,505,1,992,53,33580,0,65700,0,0,0,0,0
i,0x00000000,1720648951.175726,172.16.3.2,5101,172.16.1.2,16093,10499,14480,0,65728,65700,6,6,4,1460,505,1,992,53,33580,0,65700,0,0,0,0,0
o,0x00000000,1720648951.175742,172.16.3.2,5101,172.16.1.2,16093,10499,14480,0,65728,65700,6,6,4,1460,505,1,993,53,33580,0,65700,1448,0,0,0,0
i,0x00000000,1720648951.185418,172.16.3.2,5101,172.16.1.2,16093,10499,14480,0,65728,65700,6,6,4,1460,505,1,992,53,33580,0,65700,0,0,0,0,0
o,0x00000000,1720648951.216713,172.16.3.2,5101,172.16.1.2,16093,10499,14480,0,65728,65700,6,6,4,1460,505,1,993,53,33580,0,65700,0,0,0,0,0
i,0x00000000,1720648951.243695,172.16.3.2,5101,172.16.1.2,16093,10499,14480,0,65728,65700,6,6,4,1460,505,1,992,53,33580,0,65700,0,0,0,0,0
i,0x00000000,1720648951.264444,172.16.3.2,5101,172.16.1.2,16093,10499,14480,0,65728,65700,6,6,4,1460,505,1,992,53,33580,0,65700,0,0,0,0,0
o,0x00000000,1720648951.264456,172.16.3.2,5101,172.16.1.2,16093,10499,14480,0,65728,65700,6,6,4,1460,505,1,993,53,33580,0,65700,1448,0,0,0,0
i,0x00000000,1720648951.284642,172.16.3.2,5101,172.16.1.2,16093,10499,14480,0,65728,65700,6,6,4,1460,505,1,992,53,33580,0,65700,0,0,0,0,0
i,0x00000000,1720648951.295141,172.16.3.2,5101,172.16.1.2,16093,10499,14480,0,65728,65700,6,6,4,1460,505,1,992,53,33580,0,65700,0,0,0,0,0
o,0x00000000,1720648951.295150,172.16.3.2,5101,172.16.1.2,16093,10499,14480,0,65728,65700,6,6,4,1460,505,1,993,53,33580,0,65700,1448,0,0,0,0
i,0x00000000,1720648951.305028,172.16.3.2,5101,172.16.1.2,16093,10499,14480,0,65728,65700,6,6,4,1460,505,1,992,53,33580,0,65700,0,0,0,0,0
o,0x00000000,1720648951.316701,10.0.2.15,22,10.0.2.2,52548,1073725440,14600,0,65535,65700,0,0,4,1460,1,0,4,24,33580,156,65700,0,0,0,0,0
i,0x00000000,1720648951.317531,10.0.2.15,22,10.0.2.2,52548,1073725440,14600,0,65535,65700,0,0,4,1460,1,0,4,24,33580,156,65700,0,156,0,0,0
o,0x00000000,1720648951.336409,172.16.3.2,5101,172.16.1.2,16093,10499,14480,0,65728,65700,6,6,4,1460,505,1,993,53,33580,0,65700,0,0,0,0,0
i,0x00000000,1720648951.344804,172.16.3.2,5101,172.16.1.2,16093,10499,14480,0,65728,65700,6,6,4,1460,505,1,992,53,33580,0,65700,0,0,0,0,0
i,0x00000000,1720648951.355096,172.16.3.2,5101,172.16.1.2,16093,10499,14480,0,65728,65700,6,6,4,1460,505,1,992,53,33580,0,65700,0,0,0,0,0
o,0x00000000,1720648951.355102,172.16.3.2,5101,172.16.1.2,16093,10499,14480,0,65728,65700,6,6,4,1460,505,1,993,53,33580,0,65700,1448,0,0,0,0
i,0x00000000,1720648951.384476,172.16.3.2,5101,172.16.1.2,16093,10499,14480,0,65728,65700,6,6,4,1460,505,1,992,53,33580,0,65700,0,0,0,0,0
i,0x00000000,1720648951.394805,172.16.3.2,5101,172.16.1.2,16093,10499,14480,0,65728,65700,6,6,4,1460,505,1,992,53,33580,0,65700,0,0,0,0,0
o,0x00000000,1720648951.394814,172.16.3.2,5101,172.16.1.2,16093,10499,14480,0,65728,65700,6,6,4,1460,505,1,993,53,33580,0,65700,1448,0,0,0,0
i,0x00000000,1720648951.440786,172.16.3.2,5101,172.16.1.2,16093,10499,14480,0,65728,65700,6,6,4,1460,505,1,992,53,33580,0,65700,0,0,0,0,0
o,0x00000000,1720648951.476481,172.16.3.2,5101,172.16.1.2,16093,10499,14480,0,65728,65700,6,6,4,1460,505,1,993,53,33580,0,65700,0,0,0,0,0
i,0x00000000,1720648951.495012,172.16.3.2,5101,172.16.1.2,16093,10499,14480,0,65728,65700,6,6,4,1460,505,1,992,53,33580,0,65700,0,0,0,0,0
i,0x00000000,1720648951.514052,172.16.3.2,5101,172.16.1.2,16093,10499,14480,0,65728,65700,6,6,4,1460,505,1,992,53,33580,0,65700,0,0,0,0,0
o,0x00000000,1720648951.514061,172.16.3.2,5101,172.16.1.2,16093,10499,14480,0,65728,65700,6,6,4,1460,505,1,993,53,33580,0,65700,1448,0,0,0,0
i,0x00000000,1720648951.525166,172.16.3.2,5101,172.16.1.2,16093,10499,14480,0,65728,65700,6,6,4,1460,505,1,992,53,33580,0,65700,0,0,0,0,0
i,0x00000000,1720648951.525171,172.16.3.2,5101,172.16.1.2,16093,10499,14480,0,65728,65700,6,6,4,1460,505,1,993,53,33580,0,65700,1448,0,0,0,0
o,0x00000000,1720648951.525174,172.16.3.2,5101,172.16.1.2,16093,10499,14480,0,65728,65700,6,6,4,1460,505,1,993,53,33580,0,65700,2896,0,0,0,0
i,0x00000000,1720648951.534580,172.16.3.2,5101,172.16.1.2,16093,10499,14480,0,65728,65700,6,6,4,1460,505,1,992,53,33580,0,65700,0,0,0,0,0
i,0x00000000,1720648951.566021,172.16.3.2,5101,172.16.1.2,16093,10499,14480,0,65728,65700,6,6,4,1460,505,1,992,53,33580,0,65700,0,0,0,0,0
o,0x00000000,1720648951.566033,172.16.3.2,5101,172.16.1.2,16093,10499,14480,0,65728,65700,6,6,4,1460,505,1,993,53,33580,0,65700,1448,0,0,0,0
i,0x00000000,1720648951.586715,172.16.3.2,5101,172.16.1.2,16093,10499,14480,0,65728,65700,6,6,4,1460,505,1,992,53,33580,0,65700,0,0,0,0,0
i,0x00000000,1720648951.618235,172.16.3.2,5101,172.16.1.2,16093,10499,14480,0,65728,65700,6,6,4,1460,505,1,992,53,33580,0,65700,0,0,0,0,0
o,0x00000000,1720648951.618274,172.16.3.2,5101,172.16.1.2,16093,10499,14480,0,65728,65700,6,6,4,1460,505,1,993,53,33580,0,65700,1448,0,0,0,0
i,0x00000000,1720648951.665424,172.16.3.2,5101,172.16.1.2,16093,10499,14480,0,65728,65700,6,6,4,1460,505,1,992,53,33580,0,65700,0,0,0,0,0
o,0x00000000,1720648951.695963,172.16.3.2,5101,172.16.1.2,16093,10499,14480,0,65728,65700,6,6,4,1460,505,1,993,53,33580,0,65700,0,0,0,0,0
i,0x00000000,1720648951.715220,172.16.3.2,5101,172.16.1.2,16093,10499,14480,0,65728,65700,6,6,4,1460,505,1,992,53,33580,0,65700,0,0,0,0,0
i,0x00000000,1720648951.724829,172.16.3.2,5101,172.16.1.2,16093,10499,14480,0,65728,65700,6,6,4,1460,505,1,992,53,33580,0,65700,0,0,0,0,0
o,0x00000000,1720648951.724836,172.16.3.2,5101,172.16.1.2,16093,10499,14480,0,65728,65700,6,6,4,1460,505,1,993,53,33580,0,65700,1448,0,0,0,0
i,0x00000000,1720648951.735171,172.16.3.2,5101,172.16.1.2,16093,10499,14480,0,65728,65700,6,6,4,1460,505,1,992,53,33580,0,65700,0,0,0,0,0
i,0x00000000,1720648951.744683,172.16.3.2,5101,172.16.1.2,16093,10499,14480,0,65728,65700,6,6,4,1460,505,1,992,53,33580,0,65700,0,0,0,0,0
o,0x00000000,1720648951.744689,172.16.3.2,5101,172.16.1.2,16093,10499,14480,0,65728,65700,6,6,4,1460,505,1,993,53,33580,0,65700,1448,0,0,0,0
i,0x00000000,1720648951.835575,172.16.3.2,5101,172.16.1.2,16093,10499,14480,0,65728,65700,6,6,4,1460,505,1,992,53,33580,0,65700,0,0,0,0,0
o,0x00000000,1720648951.876280,172.16.3.2,5101,172.16.1.2,16093,10499,14480,0,65728,65700,6,6,4,1460,505,1,993,53,33580,0,65700,0,0,0,0,0
i,0x00000000,1720648951.884290,172.16.3.2,5101,172.16.1.2,16093,10499,14480,0,65728,65700,6,6,4,1460,505,1,992,53,33580,0,65700,0,0,0,0,0
i,0x00000000,1720648951.894624,172.16.3.2,5101,172.16.1.2,16093,10499,14480,0,65728,65700,6,6,4,1460,505,1,992,53,33580,0,65700,0,0,0,0,0
o,0x00000000,1720648951.894632,172.16.3.2,5101,172.16.1.2,16093,10499,14480,0,65728,65700,6,6,4,1460,505,1,993,53,33580,0,65700,1448,0,0,0,0
i,0x00000000,1720648951.905113,172.16.3.2,5101,172.16.1.2,16093,10499,14480,0,65728,65700,6,6,4,1460,505,1,992,53,33580,0,65700,0,0,0,0,0
i,0x00000000,1720648951.930634,172.16.3.2,5101,172.16.1.2,16093,10499,14480,0,65728,65700,6,6,4,1460,505,1,992,53,33580,0,65700,0,0,0,0,0
o,0x00000000,1720648951.930640,172.16.3.2,5101,172.16.1.2,16093,10499,14480,0,65728,65700,6,6,4,1460,505,1,993,53,33580,0,65700,1448,0,0,0,0
i,0x00000000,1720648951.936366,172.16.3.2,5101,172.16.1.2,16093,10499,14480,0,65728,65700,6,6,4,1460,505,1,992,53,33580,0,65700,0,0,0,0,0
o,0x00000000,1720648951.976497,172.16.3.2,5101,172.16.1.2,16093,10499,14480,0,65728,65700,6,6,4,1460,505,1,993,53,33580,0,65700,0,0,0,0,0
i,0x00000000,1720648952.034809,172.16.3.2,5101,172.16.1.2,16093,10499,14480,0,65728,65700,6,6,4,1460,505,1,992,53,33580,0,65700,0,0,0,0,0
i,0x00000000,1720648952.065874,172.16.3.2,5101,172.16.1.2,16093,10499,14480,0,65728,65700,6,6,4,1460,505,1,992,53,33580,0,65700,0,0,0,0,0
o,0x00000000,1720648952.065892,172.16.3.2,5101,172.16.1.2,16093,10499,14480,0,65728,65700,6,6,4,1460,505,1,993,53,33580,0,65700,1448,0,0,0,0
i,0x00000000,1720648952.074915,172.16.3.2,5101,172.16.1.2,16093,10499,14480,0,65728,65700,6,6,4,1460,505,1,992,53,33580,0,65700,0,0,0,0,0
i,0x00000000,1720648952.085132,172.16.3.2,5101,172.16.1.2,16093,10499,14480,0,65728,65700,6,6,4,1460,505,1,992,53,33580,0,65700,0,0,0,0,0
o,0x00000000,1720648952.085139,172.16.3.2,5101,172.16.1.2,16093,10499,14480,0,65728,65700,6,6,4,1460,505,1,993,53,33580,0,65700,1448,0,0,0,0
i,0x00000000,1720648952.104799,172.16.3.2,5101,172.16.1.2,16093,10499,14480,0,65728,65700,6,6,4,1460,505,1,992,53,33580,0,65700,0,0,0,0,0
i,0x00000000,1720648952.128223,172.16.3.2,5101,172.16.1.2,16093,10499,14480,0,65728,65700,6,6,4,1460,505,1,992,53,33580,0,65700,0,0,0,0,0
o,0x00000000,1720648952.128234,172.16.3.2,5101,172.16.1.2,16093,10499,14480,0,65728,65700,6,6,4,1460,505,1,993,53,33580,0,65700,1448,0,0,0,0
i,0x00000000,1720648952.154918,172.16.3.2,5101,172.16.1.2,16093,10499,14480,0,65728,65700,6,6,4,1460,505,1,992,53,33580,0,65700,0,0,0,0,0
o,0x00000000,1720648952.185616,172.16.3.2,5101,172.16.1.2,16093,10499,14480,0,65728,65700,6,6,4,1460,505,1,993,53,33580,0,65700,0,0,0,0,0
i,0x00000000,1720648952.205103,172.16.3.2,5101,172.16.1.2,16093,10499,14480,0,65728,65700,6,6,4,1460,505,1,992,53,33580,0,65700,0,0,0,0,0
o,0x00000000,1720648952.236874,172.16.3.2,5101,172.16.1.2,16093,10499,14480,0,65728,65700,6,6,4,1460,505,1,993,53,33580,0,65700,0,0,0,0,0
i,0x00000000,1720648952.260779,172.16.3.2,5101,172.16.1.2,16093,10499,14480,0,65728,65700,6,6,4,1460,505,1,992,53,33580,0,65700,0,0,0,0,0
i,0x00000000,1720648952.266752,172.16.3.2,5101,172.16.1.2,16093,10499,14480,0,65728,65700,6,6,4,1460,505,1,992,53,33580,0,65700,0,0,0,0,0
o,0x00000000,1720648952.266758,172.16.3.2,5101,172.16.1.2,16093,10499,14480,0,65728,65700,6,6,4,1460,505,1,993,53,33580,0,65700,1448,0,0,0,0
i,0x00000000,1720648952.295182,172.16.3.2,5101,172.16.1.2,16093,10499,14480,0,65728,65700,6,6,4,1460,505,1,992,53,33580,0,65700,0,0,0,0,0
i,0x00000000,1720648952.314399,172.16.3.2,5101,172.16.1.2,16093,10499,14480,0,65728,65700,6,6,4,1460,505,1,992,53,33580,0,65700,0,0,0,0,0
o,0x00000000,1720648952.314413,172.16.3.2,5101,172.16.1.2,16093,10499,14480,0,65728,65700,6,6,4,1460,505,1,993,53,33580,0,65700,1448,0,0,0,0
o,0x00000000,1720648952.326963,10.0.2.15,22,10.0.2.2,52548,1073725440,14600,0,65535,65700,0,0,4,1460,1,0,4,24,33580,108,65700,0,0,0,0,0
i,0x00000000,1720648952.327475,10.0.2.15,22,10.0.2.2,52548,1073725440,14600,0,65535,65700,0,0,4,1460,1,0,4,24,33580,108,65700,0,108,0,0,0
i,0x00000000,1720648952.334322,172.16.3.2,5101,172.16.1.2,16093,10499,14480,0,65728,65700,6,6,4,1460,505,1,992,53,33580,0,65700,0,0,0,0,0
i,0x00000000,1720648952.344547,172.16.3.2,5101,172.16.1.2,16093,10499,14480,0,65728,65700,6,6,4,1460,505,1,992,53,33580,0,65700,0,0,0,0,0
o,0x00000000,1720648952.344556,172.16.3.2,5101,172.16.1.2,16093,10499,14480,0,65728,65700,6,6,4,1460,505,1,993,53,33580,0,65700,1448,0,0,0,0
i,0x00000000,1720648952.375195,172.16.3.2,5101,172.16.1.2,16093,10499,14480,0,65728,65700,6,6,4,1460,505,1,992,53,33580,0,65700,0,0,0,0,0
o,0x00000000,1720648952.405796,172.16.3.2,5101,172.16.1.2,16093,10499,14480,0,65728,65700,6,6,4,1460,505,1,993,53,33580,0,65700,0,0,0,0,0
i,0x00000000,1720648952.414898,172.16.3.2,5101,172.16.1.2,16093,10499,14480,0,65728,65700,6,6,4,1460,505,1,992,53,33580,0,65700,0,0,0,0,0
o,0x00000000,1720648952.447443,172.16.3.2,5101,172.16.1.2,16093,10499,14480,0,65728,65700,6,6,4,1460,505,1,993,53,33580,0,65700,0,0,0,0,0
i,0x00000000,1720648952.455051,172.16.3.2,5101,172.16.1.2,16093,10499,14480,0,65728,65700,6,6,4,1460,505,1,992,53,33580,0,65700,0,0,0,0,0
i,0x00000000,1720648952.477392,172.16.3.2,5101,172.16.1.2,16093,10499,14480,0,65728,65700,6,6,4,1460,505,1,992,53,33580,0,65700,0,0,0,0,0
o,0x00000000,1720648952.477401,172.16.3.2,5101,172.16.1.2,16093,10499,14480,0,65728,65700,6,6,4,1460,505,1,993,53,33580,0,65700,1448,0,0,0,0
i,0x00000000,1720648952.504720,172.16.3.2,5101,172.16.1.2,16093,10499,14480,0,65728,65700,6,6,4,1460,505,1,992,53,33580,0,65700,0,0,0,0,0
i,0x00000000,1720648952.524609,172.16.3.2,5101,172.16.1.2,16093,10499,14480,0,65728,65700,6,6,4,1460,505,1,992,53,33580,0,65700,0,0,0,0,0
o,0x00000000,1720648952.524618,172.16.3.2,5101,172.16.1.2,16093,10499,14480,0,65728,65700,6,6,4,1460,505,1,993,53,33580,0,65700,1448,0,0,0,0
i,0x00000000,1720648952.534841,172.16.3.2,5101,172.16.1.2,16093,10499,14480,0,65728,65700,6,6,4,1460,505,1,992,53,33580,0,65700,0,0,0,0,0
i,0x00000000,1720648952.555866,172.16.3.2,5101,172.16.1.2,16093,10499,14480,0,65728,65700,6,6,4,1460,505,1,992,53,33580,0,65700,0,0,0,0,0
o,0x00000000,1720648952.555873,172.16.3.2,5101,172.16.1.2,16093,10499,14480,0,65728,65700,6,6,4,1460,505,1,993,53,33580,0,65700,1448,0,0,0,0
i,0x00000000,1720648952.564455,172.16.3.2,5101,172.16.1.2,16093,10499,14480,0,65728,65700,6,6,4,1460,505,1,992,53,33580,0,65700,0,0,0,0,0
o,0x00000000,1720648952.596191,172.16.3.2,5101,172.16.1.2,16093,10499,14480,0,65728,65700,6,6,4,1460,505,1,993,53,33580,0,65700,0,0,0,0,0
i,0x00000000,1720648952.618260,172.16.3.2,5101,172.16.1.2,16093,10499,14480,0,65728,65700,6,6,4,1460,505,1,992,53,33580,0,65700,0,0,0,0,0
i,0x00000000,1720648952.639053,172.16.3.2,5101,172.16.1.2,16093,10499,14480,0,65728,65700,6,6,4,1460,505,1,992,53,33580,0,65700,0,0,0,0,0
o,0x00000000,1720648952.639069,172.16.3.2,5101,172.16.1.2,16093,10499,14480,0,65728,65700,6,6,4,1460,505,1,993,53,33580,0,65700,1448,0,0,0,0
i,0x00000000,1720648952.664854,172.16.3.2,5101,172.16.1.2,16093,10499,14480,0,65728,65700,6,6,4,1460,505,1,992,53,33580,0,65700,0,0,0,0,0
i,0x00000000,1720648952.674978,172.16.3.2,5101,172.16.1.2,16093,10499,14480,0,65728,65700,6,6,4,1460,505,1,992,53,33580,0,65700,0,0,0,0,0
o,0x00000000,1720648952.674987,172.16.3.2,5101,172.16.1.2,16093,10499,14480,0,65728,65700,6,6,4,1460,505,1,993,53,33580,0,65700,1448,0,0,0,0
i,0x00000000,1720648952.764215,172.16.3.2,5101,172.16.1.2,16093,10499,14480,0,65728,65700,6,6,4,1460,505,1,992,53,33580,0,65700,0,0,0,0,0
i,0x00000000,1720648952.774332,172.16.3.2,5101,172.16.1.2,16093,10499,14480,0,65728,65700,6,6,4,1460,505,1,992,53,33580,0,65700,0,0,0,0,0
o,0x00000000,1720648952.774343,172.16.3.2,5101,172.16.1.2,16093,10499,14480,0,65728,65700,6,6,4,1460,505,1,993,53,33580,0,65700,1448,0,0,0,0
i,0x00000000,1720648952.806127,172.16.3.2,5101,172.16.1.2,16093,10499,14480,0,65728,65700,6,6,4,1460,505,1,992,53,33580,0,65700,0,0,0,0,0
o,0x00000000,1720648952.806539,172.16.3.2,5101,172.16.1.2,16093,10499,14480,0,65728,65700,6,6,4,1460,505,1,993,53,33580,0,65700,0,0,0,0,0
i,0x00000000,1720648952.814371,172.16.3.2,5101,172.16.1.2,16093,10499,14480,0,65728,65700,6,6,4,1460,505,1,992,53,33580,0,65700,0,0,0,0,0
i,0x00000000,1720648952.826724,172.16.3.2,5101,172.16.1.2,16093,10499,14480,0,65728,65700,6,6,4,1460,505,1,992,53,33580,0,65700,0,0,0,0,0
o,0x00000000,1720648952.826732,172.16.3.2,5101,172.16.1.2,16093,10499,14480,0,65728,65700,6,6,4,1460,505,1,993,53,33580,0,65700,1448,0,0,0,0
i,0x00000000,1720648952.834213,172.16.3.2,5101,172.16.1.2,16093,10499,14480,0,65728,65700,6,6,4,1460,505,1,992,53,33580,0,65700,0,0,0,0,0
i,0x00000000,1720648952.854584,172.16.3.2,5101,172.16.1.2,16093,10499,14480,0,65728,65700,6,6,4,1460,505,1,992,53,33580,0,65700,0,0,0,0,0
o,0x00000000,1720648952.854592,172.16.3.2,5101,172.16.1.2,16093,10499,14480,0,65728,65700,6,6,4,1460,505,1,993,53,33580,0,65700,1448,0,0,0,0
i,0x00000000,1720648952.865658,172.16.3.2,5101,172.16.1.2,16093,10499,14480,0,65728,65700,6,6,4,1460,505,1,992,53,33580,0,65700,0,0,0,0,0
i,0x00000000,1720648952.873932,172.16.3.2,5101,172.16.1.2,16093,10499,14480,0,65728,65700,6,6,4,1460,505,1,992,53,33580,0,65700,0,0,0,0,0
o,0x00000000,1720648952.873938,172.16.3.2,5101,172.16.1.2,16093,10499,14480,0,65728,65700,6,6,4,1460,505,1,993,53,33580,0,65700,1448,0,0,0,0
i,0x00000000,1720648952.914397,172.16.3.2,5101,172.16.1.2,16093,10499,14480,0,65728,65700,6,6,4,1460,505,1,992,53,33580,0,65700,0,0,0,0,0
o,0x00000000,1720648952.945886,172.16.3.2,5101,172.16.1.2,16093,10499,14480,0,65728,65700,6,6,4,1460,505,1,993,53,33580,0,65700,0,0,0,0,0
i,0x00000000,1720648953.025043,172.16.3.2,5101,172.16.1.2,16093,10499,14480,0,65728,65700,6,6,4,1460,505,1,992,53,33580,0,65700,0,0,0,0,0
i,0x00000000,1720648953.034194,172.16.3.2,5101,172.16.1.2,16093,10499,14480,0,65728,65700,6,6,4,1460,505,1,992,53,33580,0,65700,0,0,0,0,0
o,0x00000000,1720648953.034205,172.16.3.2,5101,172.16.1.2,16093,10499,14480,0,65728,65700,6,6,4,1460,505,1,993,53,33580,0,65700,1448,0,0,0,0
i,0x00000000,1720648953.054728,172.16.3.2,5101,172.16.1.2,16093,10499,14480,0,65728,65700,6,6,4,1460,505,1,992,53,33580,0,65700,0,0,0,0,0
i,0x00000000,1720648953.074422,172.16.3.2,5101,172.16.1.2,16093,10499,14480,0,65728,65700,6,6,4,1460,505,1,992,53,33580,0,65700,0,0,0,0,0
o,0x00000000,1720648953.074431,172.16.3.2,5101,172.16.1.2,16093,10499,14480,0,65728,65700,6,6,4,1460,505,1,993,53,33580,0,65700,1448,0,0,0,0
i,0x00000000,1720648953.085019,172.16.3.2,5101,172.16.1.2,16093,10499,14480,0,65728,65700,6,6,4,1460,505,1,992,53,33580,0,65700,0,0,0,0,0
i,0x00000000,1720648953.095578,172.16.3.2,5101,172.16.1.2,16093,10499,14480,0,65728,65700,6,6,4,1460,505,1,992,53,33580,0,65700,0,0,0,0,0
o,0x00000000,1720648953.095584,172.16.3.2,5101,172.16.1.2,16093,10499,14480,0,65728,65700,6,6,4,1460,505,1,993,53,33580,0,65700,1448,0,0,0,0
i,0x00000000,1720648953.104231,172.16.3.2,5101,172.16.1.2,16093,10499,14480,0,65728,65700,6,6,4,1460,505,1,992,53,33580,0,65700,0,0,0,0,0
i,0x00000000,1720648953.114631,172.16.3.2,5101,172.16.1.2,16093,10499,14480,0,65728,65700,6,6,4,1460,505,1,992,53,33580,0,65700,0,0,0,0,0
o,0x00000000,1720648953.114638,172.16.3.2,5101,172.16.1.2,16093,10499,14480,0,65728,65700,6,6,4,1460,505,1,993,53,33580,0,65700,1448,0,0,0,0
i,0x00000000,1720648953.134187,172.16.3.2,5101,172.16.1.2,16093,10499,14480,0,65728,65700,6,6,4,1460,505,1,992,53,33580,0,65700,0,0,0,0,0
i,0x00000000,1720648953.158680,172.16.3.2,5101,172.16.1.2,16093,10499,14480,0,65728,65700,6,6,4,1460,505,1,992,53,33580,0,65700,0,0,0,0,0
o,0x00000000,1720648953.158694,172.16.3.2,5101,172.16.1.2,16093,10499,14480,0,65728,65700,6,6,4,1460,505,1,993,53,33580,0,65700,1448,0,0,0,0
i,0x00000000,1720648953.234283,172.16.3.2,5101,172.16.1.2,16093,10499,14480,0,65728,65700,6,6,4,1460,505,1,992,53,33580,0,65700,0,0,0,0,0
i,0x00000000,1720648953.244567,172.16.3.2,5101,172.16.1.2,16093,10499,14480,0,65728,65700,6,6,4,1460,505,1,992,53,33580,0,65700,0,0,0,0,0
o,0x00000000,1720648953.244577,172.16.3.2,5101,172.16.1.2,16093,10499,14480,0,65728,65700,6,6,4,1460,505,1,993,53,33580,0,65700,1448,0,0,0,0
i,0x00000000,1720648953.273957,172.16.3.2,5101,172.16.1.2,16093,10499,14480,0,65728,65700,6,6,4,1460,505,1,992,53,33580,0,65700,0,0,0,0,0
o,0x00000000,1720648953.306336,172.16.3.2,5101,172.16.1.2,16093,10499,14480,0,65728,65700,6,6,4,1460,505,1,993,53,33580,0,65700,0,0,0,0,0
i,0x00000000,1720648953.314334,172.16.3.2,5101,172.16.1.2,16093,10499,14480,0,65728,65700,6,6,4,1460,505,1,992,53,33580,0,65700,0,0,0,0,0
i,0x00000000,1720648953.324887,172.16.3.2,5101,172.16.1.2,16093,10499,14480,0,65728,65700,6,6,4,1460,505,1,992,53,33580,0,65700,0,0,0,0,0
o,0x00000000,1720648953.324893,172.16.3.2,5101,172.16.1.2,16093,10499,14480,0,65728,65700,6,6,4,1460,505,1,993,53,33580,0,65700,1448,0,0,0,0
o,0x00000000,1720648953.326156,10.0.2.15,22,10.0.2.2,52548,1073725440,14600,0,65535,65700,0,0,4,1460,1,0,4,24,33580,108,65700,0,0,0,0,0
i,0x00000000,1720648953.326824,10.0.2.15,22,10.0.2.2,52548,1073725440,14600,0,65535,65700,0,0,4,1460,1,0,4,24,33580,108,65700,0,108,0,0,0
i,0x00000000,1720648953.334194,172.16.3.2,5101,172.16.1.2,16093,10499,14480,0,65728,65700,6,6,4,1460,505,1,992,53,33580,0,65700,0,0,0,0,0
o,0x00000000,1720648953.366670,172.16.3.2,5101,172.16.1.2,16093,10499,14480,0,65728,65700,6,6,4,1460,505,1,993,53,33580,0,65700,0,0,0,0,0
i,0x00000000,1720648953.553449,172.16.3.2,5101,172.16.1.2,16093,10499,14480,0,65728,65700,6,6,4,1460,505,1,992,53,33580,0,65700,0,0,0,0,0
i,0x00000000,1720648953.556253,172.16.3.2,5101,172.16.1.2,16093,10499,14480,0,65728,65700,6,6,4,1460,505,1,992,53,33580,0,65700,0,0,0,0,0
o,0x00000000,1720648953.556263,172.16.3.2,5101,172.16.1.2,16093,10499,14480,0,65728,65700,6,6,4,1460,505,1,993,53,33580,0,65700,1448,0,0,0,0
i,0x00000000,1720648953.564889,172.16.3.2,5101,172.16.1.2,16093,10499,14480,0,65728,65700,6,6,4,1460,505,1,992,53,33580,0,65700,0,0,0,0,0
i,0x00000000,1720648953.585212,172.16.3.2,5101,172.16.1.2,16093,10499,14480,0,65728,65700,6,6,4,1460,505,1,992,53,33580,0,65700,0,0,0,0,0
o,0x00000000,1720648953.585221,172.16.3.2,5101,172.16.1.2,16093,10499,14480,0,65728,65700,6,6,4,1460,505,1,993,53,33580,0,65700,1448,0,0,0,0
i,0x00000000,1720648953.605094,172.16.3.2,5101,172.16.1.2,16093,10499,14480,0,65728,65700,6,6,4,1460,505,1,992,53,33580,0,65700,0,0,0,0,0
o,0x00000000,1720648953.605162,172.16.3.2,5101,172.16.1.2,16093,10499,14480,0,65728,65700,6,6,4,1460,505,1,993,53,33580,0,65700,0,0,0,0,0
i,0x00000000,1720648953.614512,172.16.3.2,5101,172.16.1.2,16093,10499,14480,0,65728,65700,6,6,4,1460,505,1,992,53,33580,0,65700,0,0,0,0,0
i,0x00000000,1720648953.645533,172.16.3.2,5101,172.16.1.2,16093,10499,14480,0,65728,65700,6,6,4,1460,505,1,992,53,33580,0,65700,0,0,0,0,0
o,0x00000000,1720648953.645547,172.16.3.2,5101,172.16.1.2,16093,10499,14480,0,65728,65700,6,6,4,1460,505,1,993,53,33580,0,65700,1448,0,0,0,0
i,0x00000000,1720648953.654398,172.16.3.2,5101,172.16.1.2,16093,10499,14480,0,65728,65700,6,6,4,1460,505,1,992,53,33580,0,65700,0,0,0,0,0
i,0x00000000,1720648953.664922,172.16.3.2,5101,172.16.1.2,16093,10499,14480,0,65728,65700,6,6,4,1460,505,1,992,53,33580,0,65700,0,0,0,0,0
o,0x00000000,1720648953.664933,172.16.3.2,5101,172.16.1.2,16093,10499,14480,0,65728,65700,6,6,4,1460,505,1,993,53,33580,0,65700,1448,0,0,0,0
i,0x00000000,1720648953.684568,172.16.3.2,5101,172.16.1.2,16093,10499,14480,0,65728,65700,6,6,4,1460,505,1,992,53,33580,0,65700,0,0,0,0,0
i,0x00000000,1720648953.694879,172.16.3.2,5101,172.16.1.2,16093,10499,14480,0,65728,65700,6,6,4,1460,505,1,992,53,33580,0,65700,0,0,0,0,0
o,0x00000000,1720648953.694886,172.16.3.2,5101,172.16.1.2,16093,10499,14480,0,65728,65700,6,6,4,1460,505,1,993,53,33580,0,65700,1448,0,0,0,0
i,0x00000000,1720648953.704250,172.16.3.2,5101,172.16.1.2,16093,10499,14480,0,65728,65700,6,6,4,1460,505,1,992,53,33580,0,65700,0,0,0,0,0
i,0x00000000,1720648953.723782,172.16.3.2,5101,172.16.1.2,16093,10499,14480,0,65728,65700,6,6,4,1460,505,1,992,53,33580,0,65700,0,0,0,0,0
o,0x00000000,1720648953.723789,172.16.3.2,5101,172.16.1.2,16093,10499,14480,0,65728,65700,6,6,4,1460,505,1,993,53,33580,0,65700,1448,0,0,0,0
i,0x00000000,1720648953.743737,172.16.3.2,5101,172.16.1.2,16093,10499,14480,0,65728,65700,6,6,4,1460,505,1,992,53,33580,0,65700,0,0,0,0,0
i,0x00000000,1720648953.754256,172.16.3.2,5101,172.16.1.2,16093,10499,14480,0,65728,65700,6,6,4,1460,505,1,992,53,33580,0,65700,0,0,0,0,0
o,0x00000000,1720648953.754263,172.16.3.2,5101,172.16.1.2,16093,10499,14480,0,65728,65700,6,6,4,1460,505,1,993,53,33580,0,65700,1448,0,0,0,0
i,0x00000000,1720648953.764694,172.16.3.2,5101,172.16.1.2,16093,10499,14480,0,65728,65700,6,6,4,1460,505,1,992,53,33580,0,65700,0,0,0,0,0
i,0x00000000,1720648953.774097,172.16.3.2,5101,172.16.1.2,16093,10499,14480,0,65728,65700,6,6,4,1460,505,1,992,53,33580,0,65700,0,0,0,0,0
o,0x00000000,1720648953.774105,172.16.3.2,5101,172.16.1.2,16093,10499,14480,0,65728,65700,6,6,4,1460,505,1,993,53,33580,0,65700,1448,0,0,0,0
i,0x00000000,1720648953.798858,172.16.3.2,5101,172.16.1.2,16093,10499,14480,0,65728,65700,6,6,4,1460,505,1,992,53,33580,0,65700,0,0,0,0,0
i,0x00000000,1720648953.805242,172.16.3.2,5101,172.16.1.2,16093,10499,14480,0,65728,65700,6,6,4,1460,505,1,992,53,33580,0,65700,0,0,0,0,0
o,0x00000000,1720648953.805253,172.16.3.2,5101,172.16.1.2,16093,10499,14480,0,65728,65700,6,6,4,1460,505,1,993,53,33580,0,65700,1448,0,0,0,0
i,0x00000000,1720648953.813592,172.16.3.2,5101,172.16.1.2,16093,10499,14480,0,65728,65700,6,6,4,1460,505,1,992,53,33580,0,65700,0,0,0,0,0
i,0x00000000,1720648953.824300,172.16.3.2,5101,172.16.1.2,16093,10499,14480,0,65728,65700,6,6,4,1460,505,1,992,53,33580,0,65700,0,0,0,0,0
o,0x00000000,1720648953.824306,172.16.3.2,5101,172.16.1.2,16093,10499,14480,0,65728,65700,6,6,4,1460,505,1,993,53,33580,0,65700,1448,0,0,0,0
i,0x00000000,1720648953.843972,172.16.3.2,5101,172.16.1.2,16093,10499,14480,0,65728,65700,6,6,4,1460,505,1,992,53,33580,0,65700,0,0,0,0,0
i,0x00000000,1720648953.874086,172.16.3.2,5101,172.16.1.2,16093,10499,14480,0,65728,65700,6,6,4,1460,505,1,992,53,33580,0,65700,0,0,0,0,0
o,0x00000000,1720648953.874095,172.16.3.2,5101,172.16.1.2,16093,10499,14480,0,65728,65700,6,6,4,1460,505,1,993,53,33580,0,65700,1448,0,0,0,0
o,0x00000000,1720648954.326098,10.0.2.15,22,10.0.2.2,52548,1073725440,14600,0,65535,65700,0,0,4,1460,1,0,4,24,33580,108,65700,0,0,0,0,0
i,0x00000000,1720648954.326782,10.0.2.15,22,10.0.2.2,52548,1073725440,14600,0,65535,65700,0,0,4,1460,1,0,4,24,33580,108,65700,0,108,0,0,0
i,0x00000000,1720648954.332154,172.16.3.2,5101,172.16.1.2,16093,10499,14480,0,65728,65700,6,6,4,1460,505,1,992,53,33580,0,65700,0,0,0,0,0
i,0x00000000,1720648954.342683,172.16.3.2,5101,172.16.1.2,16093,10499,14480,0,65728,65700,6,6,4,1460,505,1,992,53,33580,0,65700,0,0,0,0,0
o,0x00000000,1720648954.342692,172.16.3.2,5101,172.16.1.2,16093,10499,14480,0,65728,65700,6,6,4,1460,505,1,993,53,33580,0,65700,1448,0,0,0,0
i,0x00000000,1720648954.373648,172.16.3.2,5101,172.16.1.2,16093,10499,14480,0,65728,65700,6,6,4,1460,505,1,992,53,33580,0,65700,0,0,0,0,0
o,0x00000000,1720648954.373709,172.16.3.2,5101,172.16.1.2,16093,10499,14480,0,65728,65700,6,6,4,1460,505,1,993,53,33580,0,65700,0,0,0,0,0
i,0x00000000,1720648954.402737,172.16.3.2,5101,172.16.1.2,16093,10499,14480,0,65728,65700,6,6,4,1460,505,1,992,53,33580,0,65700,0,0,0,0,0
i,0x00000000,1720648954.425571,172.16.3.2,5101,172.16.1.2,16093,10499,14480,0,65728,65700,6,6,4,1460,505,1,992,53,33580,0,65700,0,0,0,0,0
o,0x00000000,1720648954.425587,172.16.3.2,5101,172.16.1.2,16093,10499,14480,0,65728,65700,6,6,4,1460,505,1,993,53,33580,0,65700,1448,0,0,0,0
i,0x00000000,1720648954.433192,172.16.3.2,5101,172.16.1.2,16093,10499,14480,0,65728,65700,6,6,4,1460,505,1,992,53,33580,0,65700,0,0,0,0,0
i,0x00000000,1720648954.443712,172.16.3.2,5101,172.16.1.2,16093,10499,14480,0,65728,65700,6,6,4,1460,505,1,992,53,33580,0,65700,0,0,0,0,0
o,0x00000000,1720648954.443721,172.16.3.2,5101,172.16.1.2,16093,10499,14480,0,65728,65700,6,6,4,1460,505,1,993,53,33580,0,65700,1448,0,0,0,0
i,0x00000000,1720648954.487843,172.16.3.2,5101,172.16.1.2,16093,10499,14480,0,65728,65700,6,6,4,1460,505,1,992,53,33580,0,65700,0,0,0,0,0
i,0x00000000,1720648954.493564,172.16.3.2,5101,172.16.1.2,16093,10499,14480,0,65728,65700,6,6,4,1460,505,1,992,53,33580,0,65700,0,0,0,0,0
o,0x00000000,1720648954.493578,172.16.3.2,5101,172.16.1.2,16093,10499,14480,0,65728,65700,6,6,4,1460,505,1,993,53,33580,0,65700,1448,0,0,0,0
i,0x00000000,1720648954.504149,172.16.3.2,5101,172.16.1.2,16093,10499,14480,0,65728,65700,6,6,4,1460,505,1,992,53,33580,0,65700,0,0,0,0,0
i,0x00000000,1720648954.514304,172.16.3.2,5101,172.16.1.2,16093,10499,14480,0,65728,65700,6,6,4,1460,505,1,992,53,33580,0,65700,0,0,0,0,0
o,0x00000000,1720648954.514311,172.16.3.2,5101,172.16.1.2,16093,10499,14480,0,65728,65700,6,6,4,1460,505,1,993,53,33580,0,65700,1448,0,0,0,0
i,0x00000000,1720648954.533992,172.16.3.2,5101,172.16.1.2,16093,10499,14480,0,65728,65700,6,6,4,1460,505,1,992,53,33580,0,65700,0,0,0,0,0
i,0x00000000,1720648954.550004,172.16.3.2,5101,172.16.1.2,16093,10499,14480,0,65728,65700,6,6,4,1460,505,1,992,53,33580,0,65700,0,0,0,0,0
o,0x00000000,1720648954.550011,172.16.3.2,5101,172.16.1.2,16093,10499,14480,0,65728,65700,6,6,4,1460,505,1,993,53,33580,0,65700,1448,0,0,0,0
i,0x00000000,1720648954.555247,172.16.3.2,5101,172.16.1.2,16093,10499,14480,0,65728,65700,6,6,4,1460,505,1,992,53,33580,0,65700,0,0,0,0,0
i,0x00000000,1720648954.570038,172.16.3.2,5101,172.16.1.2,16093,10499,14480,0,65728,65700,6,6,4,1460,505,1,992,53,33580,0,65700,0,0,0,0,0
o,0x00000000,1720648954.570046,172.16.3.2,5101,172.16.1.2,16093,10499,14480,0,65728,65700,6,6,4,1460,505,1,993,53,33580,0,65700,1448,0,0,0,0
i,0x00000000,1720648954.591720,172.16.3.2,5101,172.16.1.2,16093,10499,14480,0,65728,65700,6,6,4,1460,505,1,992,53,33580,0,65700,0,0,0,0,0
i,0x00000000,1720648954.593451,172.16.3.2,5101,172.16.1.2,16093,10499,14480,0,65728,65700,6,6,4,1460,505,1,992,53,33580,0,65700,0,0,0,0,0
o,0x00000000,1720648954.593456,172.16.3.2,5101,172.16.1.2,16093,10499,14480,0,65728,65700,6,6,4,1460,505,1,993,53,33580,0,65700,1448,0,0,0,0
i,0x00000000,1720648954.603752,172.16.3.2,5101,172.16.1.2,16093,10499,14480,0,65728,65700,6,6,4,1460,505,1,992,53,33580,0,65700,0,0,0,0,0
i,0x00000000,1720648954.614737,172.16.3.2,5101,172.16.1.2,16093,10499,14480,0,65728,65700,6,6,4,1460,505,1,992,53,33580,0,65700,0,0,0,0,0
o,0x00000000,1720648954.614746,172.16.3.2,5101,172.16.1.2,16093,10499,14480,0,65728,65700,6,6,4,1460,505,1,993,53,33580,0,65700,1448,0,0,0,0
i,0x00000000,1720648954.623769,172.16.3.2,5101,172.16.1.2,16093,10499,14480,0,65728,65700,6,6,4,1460,505,1,992,53,33580,0,65700,0,0,0,0,0
i,0x00000000,1720648954.643586,172.16.3.2,5101,172.16.1.2,16093,10499,14480,0,65728,65700,6,6,4,1460,505,1,992,53,33580,0,65700,0,0,0,0,0
o,0x00000000,1720648954.643596,172.16.3.2,5101,172.16.1.2,16093,10499,14480,0,65728,65700,6,6,4,1460,505,1,993,53,33580,0,65700,1448,0,0,0,0
i,0x00000000,1720648954.653970,172.16.3.2,5101,172.16.1.2,16093,10499,14480,0,65728,65700,6,6,4,1460,505,1,992,53,33580,0,65700,0,0,0,0,0
i,0x00000000,1720648954.664698,172.16.3.2,5101,172.16.1.2,16093,10499,14480,0,65728,65700,6,6,4,1460,505,1,992,53,33580,0,65700,0,0,0,0,0
o,0x00000000,1720648954.664705,172.16.3.2,5101,172.16.1.2,16093,10499,14480,0,65728,65700,6,6,4,1460,505,1,993,53,33580,0,65700,1448,0,0,0,0
i,0x00000000,1720648954.674134,172.16.3.2,5101,172.16.1.2,16093,10499,14480,0,65728,65700,6,6,4,1460,505,1,992,53,33580,0,65700,0,0,0,0,0
i,0x00000000,1720648954.694878,172.16.3.2,5101,172.16.1.2,16093,10499,14480,0,65728,65700,6,6,4,1460,505,1,992,53,33580,0,65700,0,0,0,0,0
o,0x00000000,1720648954.694888,172.16.3.2,5101,172.16.1.2,16093,10499,14480,0,65728,65700,6,6,4,1460,505,1,993,53,33580,0,65700,1448,0,0,0,0
i,0x00000000,1720648954.704721,172.16.3.2,5101,172.16.1.2,16093,10499,14480,0,65728,65700,6,6,4,1460,505,1,992,53,33580,0,65700,0,0,0,0,0
i,0x00000000,1720648954.716439,172.16.3.2,5101,172.16.1.2,16093,10499,14480,0,65728,65700,6,6,4,1460,505,1,992,53,33580,0,65700,0,0,0,0,0
o,0x00000000,1720648954.716444,172.16.3.2,5101,172.16.1.2,16093,10499,14480,0,65728,65700,6,6,4,1460,505,1,993,53,33580,0,65700,1448,0,0,0,0
i,0x00000000,1720648954.724340,172.16.3.2,5101,172.16.1.2,16093,10499,14480,0,65728,65700,6,6,4,1460,505,1,992,53,33580,0,65700,0,0,0,0,0
i,0x00000000,1720648954.743822,172.16.3.2,5101,172.16.1.2,16093,10499,14480,0,65728,65700,6,6,4,1460,505,1,992,53,33580,0,65700,0,0,0,0,0
o,0x00000000,1720648954.743828,172.16.3.2,5101,172.16.1.2,16093,10499,14480,0,65728,65700,6,6,4,1460,505,1,993,53,33580,0,65700,1448,0,0,0,0
i,0x00000000,1720648954.754194,172.16.3.2,5101,172.16.1.2,16093,10499,14480,0,65728,65700,6,6,4,1460,505,1,992,53,33580,0,65700,0,0,0,0,0
i,0x00000000,1720648954.763741,172.16.3.2,5101,172.16.1.2,16093,10499,14480,0,65728,65700,6,6,4,1460,505,1,992,53,33580,0,65700,0,0,0,0,0
o,0x00000000,1720648954.763748,172.16.3.2,5101,172.16.1.2,16093,10499,14480,0,65728,65700,6,6,4,1460,505,1,993,53,33580,0,65700,1448,0,0,0,0
i,0x00000000,1720648954.774105,172.16.3.2,5101,172.16.1.2,16093,10499,14480,0,65728,65700,6,6,4,1460,505,1,992,53,33580,0,65700,0,0,0,0,0
i,0x00000000,1720648954.793911,172.16.3.2,5101,172.16.1.2,16093,10499,14480,0,65728,65700,6,6,4,1460,505,1,992,53,33580,0,65700,0,0,0,0,0
o,0x00000000,1720648954.793924,172.16.3.2,5101,172.16.1.2,16093,10499,14480,0,65728,65700,6,6,4,1460,505,1,993,53,33580,0,65700,1448,0,0,0,0
i,0x00000000,1720648954.804410,172.16.3.2,5101,172.16.1.2,16093,10499,14480,0,65728,65700,6,6,4,1460,505,1,992,53,33580,0,65700,0,0,0,0,0
i,0x00000000,1720648954.813695,172.16.3.2,5101,172.16.1.2,16093,10499,14480,0,65728,65700,6,6,4,1460,505,1,992,53,33580,0,65700,0,0,0,0,0
o,0x00000000,1720648954.813706,172.16.3.2,5101,172.16.1.2,16093,10499,14480,0,65728,65700,6,6,4,1460,505,1,993,53,33580,0,65700,1448,0,0,0,0
i,0x00000000,1720648954.824009,172.16.3.2,5101,172.16.1.2,16093,10499,14480,0,65728,65700,6,6,4,1460,505,1,992,53,33580,0,65700,0,0,0,0,0
i,0x00000000,1720648954.843914,172.16.3.2,5101,172.16.1.2,16093,10499,14480,0,65728,65700,6,6,4,1460,505,1,992,53,33580,0,65700,0,0,0,0,0
o,0x00000000,1720648954.843923,172.16.3.2,5101,172.16.1.2,16093,10499,14480,0,65728,65700,6,6,4,1460,505,1,993,53,33580,0,65700,1448,0,0,0,0
i,0x00000000,1720648954.854249,172.16.3.2,5101,172.16.1.2,16093,10499,14480,0,65728,65700,6,6,4,1460,505,1,992,53,33580,0,65700,0,0,0,0,0
i,0x00000000,1720648954.863693,172.16.3.2,5101,172.16.1.2,16093,10499,14480,0,65728,65700,6,6,4,1460,505,1,992,53,33580,0,65700,0,0,0,0,0
o,0x00000000,1720648954.863699,172.16.3.2,5101,172.16.1.2,16093,10499,14480,0,65728,65700,6,6,4,1460,505,1,993,53,33580,0,65700,1448,0,0,0,0
i,0x00000000,1720648954.874378,172.16.3.2,5101,172.16.1.2,16093,10499,14480,0,65728,65700,6,6,4,1460,505,1,992,53,33580,0,65700,0,0,0,0,0
i,0x00000000,1720648954.894017,172.16.3.2,5101,172.16.1.2,16093,10499,14480,0,65728,65700,6,6,4,1460,505,1,992,53,33580,0,65700,0,0,0,0,0
o,0x00000000,1720648954.894024,172.16.3.2,5101,172.16.1.2,16093,10499,14480,0,65728,65700,6,6,4,1460,505,1,993,53,33580,0,65700,1448,0,0,0,0
i,0x00000000,1720648954.903607,172.16.3.2,5101,172.16.1.2,16093,10499,14480,0,65728,65700,6,6,4,1460,505,1,992,53,33580,0,65700,0,0,0,0,0
o,0x00000000,1720648954.935930,172.16.3.2,5101,172.16.1.2,16093,10499,14480,0,65728,65700,6,6,4,1460,505,1,993,53,33580,0,65700,0,0,0,0,0
i,0x00000000,1720648954.963725,172.16.3.2,5101,172.16.1.2,16093,10499,14480,0,65728,65700,6,6,4,1460,505,1,992,53,33580,0,65700,0,0,0,0,0
i,0x00000000,1720648954.973443,172.16.3.2,5101,172.16.1.2,16093,10499,14480,0,65728,65700,6,6,4,1460,505,1,992,53,33580,0,65700,0,0,0,0,0
o,0x00000000,1720648954.973449,172.16.3.2,5101,172.16.1.2,16093,10499,14480,0,65728,65700,6,6,4,1460,505,1,993,53,33580,0,65700,1448,0,0,0,0
o,0x00000000,1720648955.325978,10.0.2.15,22,10.0.2.2,52548,1073725440,14600,0,65535,65700,0,0,4,1460,1,0,4,24,33580,108,65700,0,0,0,0,0
i,0x00000000,1720648955.326689,10.0.2.15,22,10.0.2.2,52548,1073725440,14600,0,65535,65700,0,0,4,1460,1,0,4,24,33580,108,65700,0,108,0,0,0
i,0x00000000,1720648955.391450,172.16.3.2,5101,172.16.1.2,16093,10499,14480,0,65728,65700,6,6,4,1460,505,1,992,53,33580,0,65700,0,0,0,0,0
i,0x00000000,1720648955.395196,172.16.3.2,5101,172.16.1.2,16093,10499,14480,0,65728,65700,6,6,4,1460,505,1,992,53,33580,0,65700,0,0,0,0,0
o,0x00000000,1720648955.395206,172.16.3.2,5101,172.16.1.2,16093,10499,14480,0,65728,65700,6,6,4,1460,505,1,993,53,33580,0,65700,1448,0,0,0,0
i,0x00000000,1720648955.443380,172.16.3.2,5101,172.16.1.2,16093,10499,14480,0,65728,65700,6,6,4,1460,505,1,992,53,33580,0,65700,0,0,0,0,0
o,0x00000000,1720648955.443449,172.16.3.2,5101,172.16.1.2,16093,10499,14480,0,65728,65700,6,6,4,1460,505,1,993,53,33580,0,65700,0,0,0,0,0
i,0x00000000,1720648955.444283,172.16.3.2,5101,172.16.1.2,16093,10499,14480,0,65728,65700,6,6,4,1460,505,1,992,53,33580,0,65700,0,0,0,0,0
o,0x00000000,1720648955.475731,172.16.3.2,5101,172.16.1.2,16093,10499,14480,0,65728,65700,6,6,4,1460,505,1,993,53,33580,0,65700,0,0,0,0,0
i,0x00000000,1720648955.483766,172.16.3.2,5101,172.16.1.2,16093,10499,14480,0,65728,65700,6,6,4,1460,505,1,992,53,33580,0,65700,0,0,0,0,0
i,0x00000000,1720648955.494097,172.16.3.2,5101,172.16.1.2,16093,10499,14480,0,65728,65700,6,6,4,1460,505,1,992,53,33580,0,65700,0,0,0,0,0
o,0x00000000,1720648955.494108,172.16.3.2,5101,172.16.1.2,16093,10499,14480,0,65728,65700,6,6,4,1460,505,1,993,53,33580,0,65700,1448,0,0,0,0
i,0x00000000,1720648955.536660,172.16.3.2,5101,172.16.1.2,16093,10499,14480,0,65728,65700,6,6,4,1460,505,1,992,53,33580,0,65700,0,0,0,0,0
i,0x00000000,1720648955.544407,172.16.3.2,5101,172.16.1.2,16093,10499,14480,0,65728,65700,6,6,4,1460,505,1,992,53,33580,0,65700,0,0,0,0,0
o,0x00000000,1720648955.544414,172.16.3.2,5101,172.16.1.2,16093,10499,14480,0,65728,65700,6,6,4,1460,505,1,993,53,33580,0,65700,1448,0,0,0,0
i,0x00000000,1720648955.553712,172.16.3.2,5101,172.16.1.2,16093,10499,14480,0,65728,65700,6,6,4,1460,505,1,992,53,33580,0,65700,0,0,0,0,0
o,0x00000000,1720648955.587062,172.16.3.2,5101,172.16.1.2,16093,10499,14480,0,65728,65700,6,6,4,1460,505,1,993,53,33580,0,65700,0,0,0,0,0
i,0x00000000,1720648955.588415,172.16.3.2,5101,172.16.1.2,16093,10499,14480,0,65728,65700,6,6,4,1460,505,1,992,53,33580,0,65700,0,0,0,0,0
i,0x00000000,1720648955.595023,172.16.3.2,5101,172.16.1.2,16093,10499,14480,0,65728,65700,6,6,4,1460,505,1,992,53,33580,0,65700,0,0,0,0,0
o,0x00000000,1720648955.595030,172.16.3.2,5101,172.16.1.2,16093,10499,14480,0,65728,65700,6,6,4,1460,505,1,993,53,33580,0,65700,1448,0,0,0,0
i,0x00000000,1720648955.603601,172.16.3.2,5101,172.16.1.2,16093,10499,14480,0,65728,65700,6,6,4,1460,505,1,992,53,33580,0,65700,0,0,0,0,0
i,0x00000000,1720648955.612939,172.16.3.2,5101,172.16.1.2,16093,10499,14480,0,65728,65700,6,6,4,1460,505,1,992,53,33580,0,65700,0,0,0,0,0
o,0x00000000,1720648955.612948,172.16.3.2,5101,172.16.1.2,16093,10499,14480,0,65728,65700,6,6,4,1460,505,1,993,53,33580,0,65700,1448,0,0,0,0
i,0x00000000,1720648955.633670,172.16.3.2,5101,172.16.1.2,16093,10499,14480,0,65728,65700,6,6,4,1460,505,1,992,53,33580,0,65700,0,0,0,0,0
i,0x00000000,1720648955.651027,172.16.3.2,5101,172.16.1.2,16093,10499,14480,0,65728,65700,6,6,4,1460,505,1,992,53,33580,0,65700,0,0,0,0,0
o,0x00000000,1720648955.651036,172.16.3.2,5101,172.16.1.2,16093,10499,14480,0,65728,65700,6,6,4,1460,505,1,993,53,33580,0,65700,1448,0,0,0,0
i,0x00000000,1720648955.653574,172.16.3.2,5101,172.16.1.2,16093,10499,14480,0,65728,65700,6,6,4,1460,505,1,992,53,33580,0,65700,0,0,0,0,0
i,0x00000000,1720648955.665963,172.16.3.2,5101,172.16.1.2,16093,10499,14480,0,65728,65700,6,6,4,1460,505,1,992,53,33580,0,65700,0,0,0,0,0
o,0x00000000,1720648955.665969,172.16.3.2,5101,172.16.1.2,16093,10499,14480,0,65728,65700,6,6,4,1460,505,1,993,53,33580,0,65700,1448,0,0,0,0
i,0x00000000,1720648955.683808,172.16.3.2,5101,172.16.1.2,16093,10499,14480,0,65728,65700,6,6,4,1460,505,1,992,53,33580,0,65700,0,0,0,0,0
i,0x00000000,1720648955.693100,172.16.3.2,5101,172.16.1.2,16093,10499,14480,0,65728,65700,6,6,4,1460,505,1,992,53,33580,0,65700,0,0,0,0,0
o,0x00000000,1720648955.693111,172.16.3.2,5101,172.16.1.2,16093,10499,14480,0,65728,65700,6,6,4,1460,505,1,993,53,33580,0,65700,1448,0,0,0,0
i,0x00000000,1720648955.703538,172.16.3.2,5101,172.16.1.2,16093,10499,14480,0,65728,65700,6,6,4,1460,505,1,992,53,33580,0,65700,0,0,0,0,0
i,0x00000000,1720648955.714137,172.16.3.2,5101,172.16.1.2,16093,10499,14480,0,65728,65700,6,6,4,1460,505,1,992,53,33580,0,65700,0,0,0,0,0
o,0x00000000,1720648955.714144,172.16.3.2,5101,172.16.1.2,16093,10499,14480,0,65728,65700,6,6,4,1460,505,1,993,53,33580,0,65700,1448,0,0,0,0
i,0x00000000,1720648955.733935,172.16.3.2,5101,172.16.1.2,16093,10499,14480,0,65728,65700,6,6,4,1460,505,1,992,53,33580,0,65700,0,0,0,0,0
i,0x00000000,1720648955.743193,172.16.3.2,5101,172.16.1.2,16093,10499,14480,0,65728,65700,6,6,4,1460,505,1,992,53,33580,0,65700,0,0,0,0,0
o,0x00000000,1720648955.743199,172.16.3.2,5101,172.16.1.2,16093,10499,14480,0,65728,65700,6,6,4,1460,505,1,993,53,33580,0,65700,1448,0,0,0,0
i,0x00000000,1720648955.753755,172.16.3.2,5101,172.16.1.2,16093,10499,14480,0,65728,65700,6,6,4,1460,505,1,992,53,33580,0,65700,0,0,0,0,0
i,0x00000000,1720648955.764058,172.16.3.2,5101,172.16.1.2,16093,10499,14480,0,65728,65700,6,6,4,1460,505,1,992,53,33580,0,65700,0,0,0,0,0
o,0x00000000,1720648955.764065,172.16.3.2,5101,172.16.1.2,16093,10499,14480,0,65728,65700,6,6,4,1460,505,1,993,53,33580,0,65700,1448,0,0,0,0
i,0x00000000,1720648955.784776,172.16.3.2,5101,172.16.1.2,16093,10499,14480,0,65728,65700,6,6,4,1460,505,1,992,53,33580,0,65700,0,0,0,0,0
i,0x00000000,1720648955.793551,172.16.3.2,5101,172.16.1.2,16093,10499,14480,0,65728,65700,6,6,4,1460,505,1,992,53,33580,0,65700,0,0,0,0,0
o,0x00000000,1720648955.793561,172.16.3.2,5101,172.16.1.2,16093,10499,14480,0,65728,65700,6,6,4,1460,505,1,993,53,33580,0,65700,1448,0,0,0,0
i,0x00000000,1720648955.803822,172.16.3.2,5101,172.16.1.2,16093,10499,14480,0,65728,65700,6,6,4,1460,505,1,992,53,33580,0,65700,0,0,0,0,0
i,0x00000000,1720648955.816922,172.16.3.2,5101,172.16.1.2,16093,10499,14480,0,65728,65700,6,6,4,1460,505,1,992,53,33580,0,65700,0,0,0,0,0
o,0x00000000,1720648955.816935,172.16.3.2,5101,172.16.1.2,16093,10499,14480,0,65728,65700,6,6,4,1460,505,1,993,53,33580,0,65700,1448,0,0,0,0
i,0x00000000,1720648955.833968,172.16.3.2,5101,172.16.1.2,16093,10499,14480,0,65728,65700,6,6,4,1460,505,1,992,53,33580,0,65700,0,0,0,0,0
i,0x00000000,1720648955.843333,172.16.3.2,5101,172.16.1.2,16093,10499,14480,0,65728,65700,6,6,4,1460,505,1,992,53,33580,0,65700,0,0,0,0,0
o,0x00000000,1720648955.843340,172.16.3.2,5101,172.16.1.2,16093,10499,14480,0,65728,65700,6,6,4,1460,505,1,993,53,33580,0,65700,1448,0,0,0,0
i,0x00000000,1720648955.853809,172.16.3.2,5101,172.16.1.2,16093,10499,14480,0,65728,65700,6,6,4,1460,505,1,992,53,33580,0,65700,0,0,0,0,0
i,0x00000000,1720648955.863155,172.16.3.2,5101,172.16.1.2,16093,10499,14480,0,65728,65700,6,6,4,1460,505,1,992,53,33580,0,65700,0,0,0,0,0
o,0x00000000,1720648955.863161,172.16.3.2,5101,172.16.1.2,16093,10499,14480,0,65728,65700,6,6,4,1460,505,1,993,53,33580,0,65700,1448,0,0,0,0
i,0x00000000,1720648955.873509,172.16.3.2,5101,172.16.1.2,16093,10499,14480,0,65728,65700,6,6,4,1460,505,1,992,53,33580,0,65700,0,0,0,0,0
i,0x00000000,1720648955.893384,172.16.3.2,5101,172.16.1.2,16093,10499,14480,0,65728,65700,6,6,4,1460,505,1,992,53,33580,0,65700,0,0,0,0,0
o,0x00000000,1720648955.893390,172.16.3.2,5101,172.16.1.2,16093,10499,14480,0,65728,65700,6,6,4,1460,505,1,993,53,33580,0,65700,1448,0,0,0,0
i,0x00000000,1720648955.903697,172.16.3.2,5101,172.16.1.2,16093,10499,14480,0,65728,65700,6,6,4,1460,505,1,992,53,33580,0,65700,0,0,0,0,0
i,0x00000000,1720648955.920687,172.16.3.2,5101,172.16.1.2,16093,10499,14480,0,65728,65700,6,6,4,1460,505,1,992,53,33580,0,65700,0,0,0,0,0
o,0x00000000,1720648955.920694,172.16.3.2,5101,172.16.1.2,16093,10499,14480,0,65728,65700,6,6,4,1460,505,1,993,53,33580,0,65700,1448,0,0,0,0
i,0x00000000,1720648955.925494,172.16.3.2,5101,172.16.1.2,16093,10499,14480,0,65728,65700,6,6,4,1460,505,1,992,53,33580,0,65700,0,0,0,0,0
i,0x00000000,1720648955.943373,172.16.3.2,5101,172.16.1.2,16093,10499,14480,0,65728,65700,6,6,4,1460,505,1,992,53,33580,0,65700,0,0,0,0,0
o,0x00000000,1720648955.943379,172.16.3.2,5101,172.16.1.2,16093,10499,14480,0,65728,65700,6,6,4,1460,505,1,993,53,33580,0,65700,1448,0,0,0,0
i,0x00000000,1720648955.953701,172.16.3.2,5101,172.16.1.2,16093,10499,14480,0,65728,65700,6,6,4,1460,505,1,992,53,33580,0,65700,0,0,0,0,0
o,0x00000000,1720648955.986394,172.16.3.2,5101,172.16.1.2,16093,10499,14480,0,65728,65700,6,6,4,1460,505,1,993,53,33580,0,65700,0,0,0,0,0
i,0x00000000,1720648955.993289,172.16.3.2,5101,172.16.1.2,16093,10499,14480,0,65728,65700,6,6,4,1460,505,1,992,53,33580,0,65700,0,0,0,0,0
i,0x00000000,1720648956.002790,172.16.3.2,5101,172.16.1.2,16093,10499,14480,0,65728,65700,6,6,4,1460,505,1,992,53,33580,0,65700,0,0,0,0,0
o,0x00000000,1720648956.002797,172.16.3.2,5101,172.16.1.2,16093,10499,14480,0,65728,65700,6,6,4,1460,505,1,993,53,33580,0,65700,1448,0,0,0,0
i,0x00000000,1720648956.044458,172.16.3.2,5101,172.16.1.2,16093,10499,14480,0,65728,65700,6,6,4,1460,505,1,992,53,33580,0,65700,0,0,0,0,0
i,0x00000000,1720648956.072999,172.16.3.2,5101,172.16.1.2,16093,10499,14480,0,65728,65700,6,6,4,1460,505,1,992,53,33580,0,65700,0,0,0,0,0
