enable_time_secs=1720649147	enable_time_usecs=942106	siftrver=1.2.4	hz=100	tcp_rtt_scale=32	sysname=FreeBSD	sysver=1301000	ipmode=4
o,0x00000000,1720649147.942150,10.0.2.15,22,10.0.2.2,52404,1073725440,17770,0,65535,65700,0,0,4,1460,1,0,4,24,33580,44,65700,0,0,0,0,0
o,0x00000000,1720649147.942286,10.0.2.15,22,10.0.2.2,52404,1073725440,17770,0,65535,65700,0,0,4,1460,1,0,4,24,33580,80,65700,0,44,0,0,0
i,0x00000000,1720649147.943013,10.0.2.15,22,10.0.2.2,52404,1073725440,17770,0,65535,65700,0,0,4,1460,1,0,4,24,33580,80,65700,0,80,0,0,0
i,0x00000000,1720649147.943360,10.0.2.15,22,10.0.2.2,52404,1073725440,17814,0,65535,65700,0,0,4,1460,1,0,4,24,33580,36,65700,0,36,0,0,0
o,0x00000000,1720649147.943468,10.0.2.15,22,10.0.2.2,52404,1073725440,17850,0,65535,65700,0,0,4,1460,1,0,4,24,33580,36,65700,0,0,0,0,0
i,0x00000000,1720649147.943876,10.0.2.15,22,10.0.2.2,52404,1073725440,17850,0,65535,65700,0,0,4,1460,1,0,4,24,33580,36,65700,0,36,0,0,0
o,0x00000000,1720649147.944062,10.0.2.15,22,10.0.2.2,52404,1073725440,17886,0,65535,65700,0,0,4,1460,1,0,4,24,33580,176,65700,0,0,0,0,0
i,0x00000000,1720649147.944744,10.0.2.15,22,10.0.2.2,52404,1073725440,17886,0,65535,65700,0,0,4,1460,1,0,4,24,33580,176,65700,0,176,0,0,0
i,0x00000000,1720649147.944747,10.0.2.15,22,10.0.2.2,52404,1073725440,18062,0,65535,65700,0,0,4,1460,1,0,4,24,33580,0,65700,0,0,0,0,0
i,0x00000000,1720649147.944748,10.0.2.15,22,10.0.2.2,52404,1073725440,18062,0,65535,65700,0,0,4,1460,1,0,4,24,33580,0,65700,96,0,0,0,0
o,0x00000000,1720649147.944752,10.0.2.15,22,10.0.2.2,52404,1073725440,18062,0,65535,65604,0,0,5,1460,1,0,5,24,33580,0,65700,96,0,0,0,0
o,0x00000000,1720649147.945544,10.0.2.15,22,10.0.2.2,52404,1073725440,18062,0,65535,65604,0,0,8,1460,1,0,4,24,33580,0,65700,0,0,0,0,0
i,0x00000000,1720649147.946158,10.0.2.15,22,10.0.2.2,52404,1073725440,18062,0,65535,65604,0,0,8,1460,1,0,20,24,33580,0,65700,0,1,0,0,0
i,0x00000000,1720649150.019322,10.0.2.15,22,10.0.2.2,52406,1073725440,14600,0,65535,65700,0,0,4,1460,1,0,0,27,33580,0,65700,0,0,0,0,0
o,0x00000000,1720649150.026189,10.0.2.15,22,10.0.2.2,52406,1073725440,14600,0,65535,65700,0,0,4,1460,1,0,0,27,33580,38,65700,42,0,0,0,0
i,0x00000000,1720649150.027108,10.0.2.15,22,10.0.2.2,52406,1073725440,14600,0,65535,65700,0,0,4,1460,1,0,0,27,33580,38,65700,42,38,0,0,0
i,0x00000000,1720649150.027179,10.0.2.15,22,10.0.2.2,52406,1073725440,14638,0,65535,65700,0,0,4,1460,1,0,0,24,33580,0,65700,42,0,0,0,0
i,0x00000000,1720649150.027181,10.0.2.15,22,10.0.2.2,52406,1073725440,14638,0,65535,65700,0,0,4,1460,1,0,0,24,33580,0,65700,1502,0,0,0,0
o,0x00000000,1720649150.027184,10.0.2.15,22,10.0.2.2,52406,1073725440,14638,0,65535,65700,0,0,4,1460,1,0,1,24,33580,0,65700,1578,0,0,0,0
o,0x00000000,1720649150.027887,10.0.2.15,22,10.0.2.2,52406,1073725440,14638,0,65535,65700,0,0,4,1460,1,0,0,24,33580,1056,65700,1536,0,0,0,0
i,0x00000000,1720649150.028583,10.0.2.15,22,10.0.2.2,52406,1073725440,14638,0,65535,65700,0,0,4,1460,1,0,0,24,33580,1056,65700,1536,1056,0,0,0
i,0x00000000,1720649150.029802,10.0.2.15,22,10.0.2.2,52406,1073725440,15694,0,65535,65700,0,0,4,1460,1,0,0,24,33580,0,65700,0,0,0,0,0
o,0x00000000,1720649150.032251,10.0.2.15,22,10.0.2.2,52406,1073725440,15694,0,65535,65700,0,0,4,1460,1,0,0,24,33580,484,65700,0,0,0,0,0
i,0x00000000,1720649150.032962,10.0.2.15,22,10.0.2.2,52406,1073725440,15694,0,65535,65700,0,0,4,1460,1,0,0,24,33580,484,65700,0,484,0,0,0
i,0x00000000,1720649150.037305,10.0.2.15,22,10.0.2.2,52406,1073725440,16178,0,65535,65700,0,0,4,1460,1,0,0,24,33580,0,65700,0,0,0,0,0
i,0x00000000,1720649150.037309,10.0.2.15,22,10.0.2.2,52406,1073725440,16178,0,65535,65700,0,0,4,1460,1,0,0,24,33580,0,65700,16,0,0,0,0
o,0x00000000,1720649150.037311,10.0.2.15,22,10.0.2.2,52406,1073725440,16178,0,65535,65700,0,0,4,1460,1,0,1,24,33580,0,65700,60,0,0,0,0
o,0x00000000,1720649150.037479,10.0.2.15,22,10.0.2.2,52406,1073725440,16178,0,65535,65700,0,0,4,1460,1,0,0,24,33580,44,65700,0,0,0,0,0
i,0x00000000,1720649150.038149,10.0.2.15,22,10.0.2.2,52406,1073725440,16178,0,65535,65700,0,0,4,1460,1,0,0,24,33580,44,65700,0,44,0,0,0
i,0x00000000,1720649150.038152,10.0.2.15,22,10.0.2.2,52406,1073725440,16222,0,65535,65700,0,0,4,1460,1,0,0,24,33580,0,65700,0,0,0,0,0
o,0x00000000,1720649150.048178,10.0.2.15,22,10.0.2.2,52406,1073725440,16222,0,65535,65700,0,0,4,1460,1,0,0,24,33580,68,65700,0,0,0,0,0
i,0x00000000,1720649150.049094,10.0.2.15,22,10.0.2.2,52406,1073725440,16222,0,65535,65700,0,0,4,1460,1,0,0,24,33580,68,65700,0,68,0,0,0
i,0x00000000,1720649150.049099,10.0.2.15,22,10.0.2.2,52406,1073725440,16290,0,65535,65700,0,0,4,1460,1,0,0,24,33580,0,65700,0,0,0,0,0
o,0x00000000,1720649150.049373,10.0.2.15,22,10.0.2.2,52406,1073725440,16290,0,65535,65700,0,0,4,1460,1,0,0,24,33580,332,65700,0,0,0,0,0
i,0x00000000,1720649150.050046,10.0.2.15,22,10.0.2.2,52406,1073725440,16290,0,65535,65700,0,0,4,1460,1,0,0,24,33580,332,65700,0,332,0,0,0
i,0x00000000,1720649150.051489,10.0.2.15,22,10.0.2.2,52406,1073725440,16622,0,65535,65700,0,0,4,1460,1,0,0,24,33580,0,65700,0,0,0,0,0
o,0x00000000,1720649150.068105,10.0.2.15,22,10.0.2.2,52406,1073725440,16622,0,65535,65700,0,0,4,1460,1,0,0,24,33580,28,65700,0,0,0,0,0
i,0x00000000,1720649150.068629,10.0.2.15,22,10.0.2.2,52406,1073725440,16622,0,65535,65700,0,0,4,1460,1,0,0,24,33580,28,65700,0,28,0,0,0
i,0x00000000,1720649150.069100,10.0.2.15,22,10.0.2.2,52406,1073725440,16650,0,65535,65700,0,0,4,1460,1,0,0,24,33580,0,65700,0,0,0,0,0
o,0x00000000,1720649150.069639,10.0.2.15,22,10.0.2.2,52406,1073725440,16650,0,65535,65700,0,0,4,1460,1,0,0,24,33580,768,65700,112,0,0,0,0
i,0x00000000,1720649150.070301,10.0.2.15,22,10.0.2.2,52406,1073725440,16650,0,65535,65700,0,0,4,1460,1,0,0,24,33580,768,65700,112,768,0,0,0
o,0x00000000,1720649150.070356,10.0.2.15,22,10.0.2.2,52406,1073725440,17418,0,65535,65700,0,0,4,1460,1,0,0,24,33580,140,65700,112,0,0,0,0
i,0x00000000,1720649150.070975,10.0.2.15,22,10.0.2.2,52406,1073725440,17418,0,65535,65700,0,0,4,1460,1,0,0,24,33580,140,65700,112,140,0,0,0
o,0x00000000,1720649150.071072,10.0.2.15,22,10.0.2.2,52406,1073725440,17558,0,65535,65700,0,0,4,1460,1,0,0,24,33580,44,65700,0,0,0,0,0
i,0x00000000,1720649150.071980,10.0.2.15,22,10.0.2.2,52406,1073725440,17558,0,65535,65700,0,0,4,1460,1,0,0,24,33580,44,65700,0,44,0,0,0
i,0x00000000,1720649150.071989,10.0.2.15,22,10.0.2.2,52406,1073725440,17602,0,65535,65700,0,0,4,1460,1,0,0,24,33580,0,65700,0,0,0,0,0
o,0x00000000,1720649150.072302,10.0.2.15,22,10.0.2.2,52406,1073725440,17602,0,65535,65700,0,0,4,1460,1,0,4,24,33580,72,65700,0,0,0,0,0
i,0x00000000,1720649150.073041,10.0.2.15,22,10.0.2.2,52406,1073725440,17602,0,65535,65700,0,0,4,1460,1,0,4,24,33580,72,65700,0,72,0,0,0
o,0x00000000,1720649150.076027,10.0.2.15,22,10.0.2.2,52406,1073725440,17674,0,65535,65700,0,0,4,1460,1,0,4,24,33580,44,65700,0,0,0,0,0
i,0x00000000,1720649150.076589,10.0.2.15,22,10.0.2.2,52406,1073725440,17674,0,65535,65700,0,0,4,1460,1,0,4,24,33580,44,65700,0,44,0,0,0
o,0x00000000,1720649150.077144,10.0.2.15,22,10.0.2.2,52406,1073725440,17718,0,65535,65700,0,0,4,1460,1,0,4,24,33580,104,65700,0,0,0,0,0
i,0x00000000,1720649150.077817,10.0.2.15,22,10.0.2.2,52406,1073725440,17718,0,65535,65700,0,0,4,1460,1,0,4,24,33580,104,65700,0,104,0,0,0
o,0x00000000,1720649150.077916,10.0.2.15,22,10.0.2.2,52406,1073725440,17822,0,65535,65700,0,0,4,1460,1,0,4,24,33580,44,65700,0,0,0,0,0
i,0x00000000,1720649150.078377,10.0.2.15,22,10.0.2.2,52406,1073725440,17822,0,65535,65700,0,0,4,1460,1,0,4,24,33580,44,65700,0,44,0,0,0
o,0x00000000,1720649150.081791,10.0.2.15,22,10.0.2.2,52406,1073725440,17866,0,65535,65700,0,0,4,1460,1,0,4,24,33580,72,65700,0,0,0,0,0
i,0x00000000,1720649150.082809,10.0.2.15,22,10.0.2.2,52406,1073725440,17866,0,65535,65700,0,0,4,1460,1,0,4,24,33580,72,65700,0,72,0,0,0
i,0x00000000,1720649150.082812,10.0.2.15,22,10.0.2.2,52406,1073725440,17938,0,65535,65700,0,0,4,1460,1,0,4,24,33580,0,65700,0,0,0,0,0
i,0x00000000,1720649150.082814,10.0.2.15,22,10.0.2.2,52406,1073725440,17938,0,65535,65700,0,0,4,1460,1,0,4,24,33580,0,65700,96,0,0,0,0
o,0x00000000,1720649150.082817,10.0.2.15,22,10.0.2.2,52406,1073725440,17938,0,65535,65604,0,0,5,1460,1,0,5,24,33580,0,65700,96,0,0,0,0
o,0x00000000,1720649150.088233,10.0.2.15,22,10.0.2.2,52406,1073725440,17938,0,65535,65604,0,0,8,1460,1,0,4,24,33580,0,65700,0,0,0,0,0
i,0x00000000,1720649150.089024,10.0.2.15,22,10.0.2.2,52406,1073725440,17938,0,65535,65604,0,0,8,1460,1,0,20,24,33580,0,65700,0,1,0,0,0
i,0x00000000,1720649150.328364,172.16.3.2,5101,172.16.1.2,55230,10499,14480,0,65728,65700,6,6,4,1460,458,1,992,43,33580,0,65700,0,0,0,0,0
o,0x00000000,1720649150.328440,172.16.3.2,5101,172.16.1.2,55230,10499,14480,0,65728,65700,6,6,4,1460,458,1,996,43,33580,1,65700,0,0,0,0,0
i,0x00000000,1720649150.447916,172.16.3.2,5101,172.16.1.2,55230,10499,14480,0,65728,65700,6,6,4,1460,458,1,996,43,33580,1,65700,0,1,0,0,0
i,0x00000000,1720649150.447932,172.16.3.2,5101,172.16.1.2,55230,10499,14480,0,65728,65728,6,6,4,1460,449,1,996,43,33580,0,65700,4,0,0,0,0
o,0x00000000,1720649150.447939,172.16.3.2,5101,172.16.1.2,55230,10499,14480,0,65728,65728,6,6,4,1460,449,1,997,43,33580,0,65700,128,0,0,0,0
o,0x00000000,1720649150.448316,172.16.3.2,5101,172.16.1.2,55230,10499,14480,0,65728,65728,6,6,4,1460,449,1,996,43,33580,1,65700,0,0,0,0,0
o,0x00000000,1720649150.448474,10.0.2.15,22,10.0.2.2,52548,1073725440,14600,0,65535,65700,0,0,4,1460,1,0,4,24,33580,84,65700,0,0,0,0,0
i,0x00000000,1720649150.449305,10.0.2.15,22,10.0.2.2,52548,1073725440,14600,0,65535,65700,0,0,4,1460,1,0,4,24,33580,84,65700,0,84,0,0,0
i,0x00000000,1720649150.597616,172.16.3.2,5101,172.16.1.2,55230,10499,14480,0,65728,65728,6,6,4,1460,449,1,996,43,33580,1,65700,0,1,0,0,0
i,0x00000000,1720649150.691529,172.16.3.2,5101,172.16.1.2,21596,10499,14480,0,65728,65700,6,6,4,1460,454,1,992,43,33580,0,65700,0,0,0,0,0
o,0x00000000,1720649150.693160,172.16.3.2,5101,172.16.1.2,55230,10499,14480,0,65728,65728,6,6,4,1460,453,1,996,41,33580,1,65700,0,0,0,0,0
o,0x00000000,1720649150.693254,172.16.3.2,5101,172.16.1.2,55230,10499,14480,0,65728,65728,6,6,4,1460,453,1,996,41,33580,2,65700,0,1,0,0,0
o,0x00000000,1720649150.693669,10.0.2.15,22,10.0.2.2,52548,1073725440,14600,0,65535,65700,0,0,4,1460,1,0,4,24,33580,108,65700,0,0,0,0,0
i,0x00000000,1720649150.694377,10.0.2.15,22,10.0.2.2,52548,1073725440,14600,0,65535,65700,0,0,4,1460,1,0,4,24,33580,108,65700,0,108,0,0,0
o,0x00000000,1720649150.726566,172.16.3.2,5101,172.16.1.2,21596,10499,14480,0,65728,65700,6,6,4,1460,454,1,993,43,33580,0,65700,0,0,0,0,0
i,0x00000000,1720649150.807480,172.16.3.2,5101,172.16.1.2,55230,10499,14480,0,65728,65728,6,6,4,1460,453,1,996,41,33580,2,65700,0,2,0,0,0
i,0x00000000,1720649150.910355,172.16.3.2,5101,172.16.1.2,21596,10499,14480,0,65728,65700,6,6,4,1460,454,1,992,43,33580,0,65700,0,0,0,0,0
o,0x00000000,1720649150.910372,172.16.3.2,5101,172.16.1.2,21596,10499,14480,0,65728,65728,6,6,4,1460,454,1,993,43,33580,0,65700,0,0,1,0,0
i,0x00000000,1720649150.917754,172.16.3.2,5101,172.16.1.2,21596,10499,14480,0,65728,65728,6,6,4,1460,454,1,992,43,33580,0,65700,0,0,1,0,0
o,0x00000000,1720649150.917766,172.16.3.2,5101,172.16.1.2,21596,10499,14480,0,65728,65728,6,6,4,1460,454,1,993,43,33580,0,65700,0,0,1,0,0
i,0x00000000,1720649150.926935,172.16.3.2,5101,172.16.1.2,21596,10499,14480,0,65728,65728,6,6,4,1460,454,1,992,43,33580,0,65700,0,0,1,0,0
o,0x00000000,1720649150.926945,172.16.3.2,5101,172.16.1.2,21596,10499,14480,0,65728,65728,6,6,4,1460,454,1,993,43,33580,0,65700,0,0,1,0,0
i,0x00000000,1720649150.936558,172.16.3.2,5101,172.16.1.2,21596,10499,14480,0,65728,65728,6,6,4,1460,454,1,992,43,33580,0,65700,0,0,1,0,0
o,0x00000000,1720649150.936563,172.16.3.2,5101,172.16.1.2,21596,10499,14480,0,65728,65728,6,6,4,1460,454,1,993,43,33580,0,65700,0,0,1,0,0
i,0x00000000,1720649150.957523,172.16.3.2,5101,172.16.1.2,21596,10499,14480,0,65728,65728,6,6,4,1460,454,1,992,43,33580,0,65700,0,0,1,0,0
o,0x00000000,1720649150.957532,172.16.3.2,5101,172.16.1.2,21596,10499,14480,0,65728,65728,6,6,4,1460,454,1,993,43,33580,0,65700,0,0,1,0,0
i,0x00000000,1720649150.966947,172.16.3.2,5101,172.16.1.2,21596,10499,14480,0,65728,65728,6,6,4,1460,454,1,992,43,33580,0,65700,0,0,1,0,0
o,0x00000000,1720649150.966953,172.16.3.2,5101,172.16.1.2,21596,10499,14480,0,65728,65728,6,6,4,1460,454,1,993,43,33580,0,65700,0,0,1,0,0
i,0x00000000,1720649150.977106,172.16.3.2,5101,172.16.1.2,21596,10499,14480,0,65728,65728,6,6,4,1460,454,1,992,43,33580,0,65700,0,0,1,0,0
o,0x00000000,1720649150.977112,172.16.3.2,5101,172.16.1.2,21596,10499,14480,0,65728,65728,6,6,4,1460,454,1,993,43,33580,0,65700,0,0,1,0,0
i,0x00000000,1720649150.986644,172.16.3.2,5101,172.16.1.2,21596,10499,14480,0,65728,65728,6,6,4,1460,454,1,992,43,33580,0,65700,0,0,1,0,0
o,0x00000000,1720649150.986649,172.16.3.2,5101,172.16.1.2,21596,10499,14480,0,65728,65728,6,6,4,1460,454,1,993,43,33580,0,65700,0,0,1,0,0
i,0x00000000,1720649151.006452,172.16.3.2,5101,172.16.1.2,21596,10499,14480,0,65728,65728,6,6,4,1460,454,1,992,43,33580,0,65700,0,0,1,0,0
o,0x00000000,1720649151.006457,172.16.3.2,5101,172.16.1.2,21596,10499,14480,0,65728,65728,6,6,4,1460,454,1,993,43,33580,0,65700,0,0,1,0,0
i,0x00000000,1720649151.056723,172.16.3.2,5101,172.16.1.2,21596,10499,14480,0,65728,65728,6,6,4,1460,454,1,992,43,33580,0,65700,0,0,1,0,0
o,0x00000000,1720649151.056729,172.16.3.2,5101,172.16.1.2,21596,10499,14480,0,65728,65728,6,6,4,1460,454,1,993,43,33580,0,65700,0,0,1,0,0
i,0x00000000,1720649151.077174,172.16.3.2,5101,172.16.1.2,21596,10499,14480,0,65728,65728,6,6,4,1460,454,1,992,43,33580,0,65700,0,0,1,0,0
o,0x00000000,1720649151.077179,172.16.3.2,5101,172.16.1.2,21596,10499,14480,0,65728,65728,6,6,4,1460,454,1,993,43,33580,0,65700,0,0,1,0,0
i,0x00000000,1720649151.097987,172.16.3.2,5101,172.16.1.2,21596,10499,14480,0,65728,65728,6,6,4,1460,454,1,992,43,33580,0,65700,0,0,1,0,0
o,0x00000000,1720649151.098005,172.16.3.2,5101,172.16.1.2,21596,10499,14480,0,65728,65728,6,6,4,1460,454,1,993,43,33580,0,65700,17376,0,0,0,0
o,0x00000000,1720649151.098153,172.16.3.2,5101,172.16.1.2,21596,10499,14480,0,65728,65728,6,6,4,1460,454,1,992,43,33580,0,65700,0,0,0,0,0
i,0x00000000,1720649151.116895,172.16.3.2,5101,172.16.1.2,21596,10499,14480,0,65728,65728,6,6,4,1460,454,1,992,43,33580,0,65700,0,0,0,0,0
i,0x00000000,1720649151.147365,172.16.3.2,5101,172.16.1.2,21596,10499,14480,0,65728,65728,6,6,4,1460,454,1,992,43,33580,0,65700,0,0,0,0,0
o,0x00000000,1720649151.147377,172.16.3.2,5101,172.16.1.2,21596,10499,14480,0,65728,65728,6,6,4,1460,454,1,993,43,33580,0,65700,1448,0,0,0,0
i,0x00000000,1720649151.243024,172.16.3.2,5101,172.16.1.2,21596,10499,14480,0,65728,65728,6,6,4,1460,454,1,992,43,33580,0,65700,0,0,0,0,0
i,0x00000000,1720649151.251290,172.16.3.2,5101,172.16.1.2,21596,10499,14480,0,65728,65728,6,6,4,1460,454,1,992,43,33580,0,65700,0,0,0,0,0
o,0x00000000,1720649151.251302,172.16.3.2,5101,172.16.1.2,21596,10499,14480,0,65728,65728,6,6,4,1460,454,1,993,43,33580,0,65700,1448,0,0,0,0
i,0x00000000,1720649151.257367,172.16.3.2,5101,172.16.1.2,21596,10499,14480,0,65728,65728,6,6,4,1460,454,1,992,43,33580,0,65700,0,0,0,0,0
o,0x00000000,1720649151.296290,172.16.3.2,5101,172.16.1.2,21596,10499,14480,0,65728,65728,6,6,4,1460,454,1,993,43,33580,0,65700,0,0,0,0,0
i,0x00000000,1720649151.297113,172.16.3.2,5101,172.16.1.2,21596,10499,14480,0,65728,65728,6,6,4,1460,454,1,992,43,33580,0,65700,0,0,0,0,0
i,0x00000000,1720649151.307384,172.16.3.2,5101,172.16.1.2,21596,10499,14480,0,65728,65728,6,6,4,1460,454,1,992,43,33580,0,65700,0,0,0,0,0
o,0x00000000,1720649151.307393,172.16.3.2,5101,172.16.1.2,21596,10499,14480,0,65728,65728,6,6,4,1460,454,1,993,43,33580,0,65700,1448,0,0,0,0
i,0x00000000,1720649151.317987,172.16.3.2,5101,172.16.1.2,21596,10499,14480,0,65728,65728,6,6,4,1460,454,1,992,43,33580,0,65700,0,0,0,0,0
o,0x00000000,1720649151.356508,172.16.3.2,5101,172.16.1.2,21596,10499,14480,0,65728,65728,6,6,4,1460,454,1,993,43,33580,0,65700,0,0,0,0,0
i,0x00000000,1720649151.401621,172.16.3.2,5101,172.16.1.2,21596,10499,14480,0,65728,65728,6,6,4,1460,454,1,992,43,33580,0,65700,0,0,0,0,0
i,0x00000000,1720649151.411554,172.16.3.2,5101,172.16.1.2,21596,10499,14480,0,65728,65728,6,6,4,1460,454,1,992,43,33580,0,65700,0,0,0,0,0
o,0x00000000,1720649151.411563,172.16.3.2,5101,172.16.1.2,21596,10499,14480,0,65728,65728,6,6,4,1460,454,1,993,43,33580,0,65700,1448,0,0,0,0
i,0x00000000,1720649151.453302,172.16.3.2,5101,172.16.1.2,21596,10499,14480,0,65728,65728,6,6,4,1460,454,1,992,43,33580,0,65700,0,0,0,0,0
i,0x00000000,1720649151.463488,172.16.3.2,5101,172.16.1.2,21596,10499,14480,0,65728,65728,6,6,4,1460,454,1,992,43,33580,0,65700,0,0,0,0,0
o,0x00000000,1720649151.463494,172.16.3.2,5101,172.16.1.2,21596,10499,14480,0,65728,65728,6,6,4,1460,454,1,993,43,33580,0,65700,1448,0,0,0,0
i,0x00000000,1720649151.470027,172.16.3.2,5101,172.16.1.2,21596,10499,14480,0,65728,65728,6,6,4,1460,454,1,992,43,33580,0,65700,0,0,0,0,0
i,0x00000000,1720649151.477982,172.16.3.2,5101,172.16.1.2,21596,10499,14480,0,65728,65728,6,6,4,1460,454,1,992,43,33580,0,65700,0,0,0,0,0
o,0x00000000,1720649151.477987,172.16.3.2,5101,172.16.1.2,21596,10499,14480,0,65728,65728,6,6,4,1460,454,1,993,43,33580,0,65700,1448,0,0,0,0
i,0x00000000,1720649151.536436,172.16.3.2,5101,172.16.1.2,21596,10499,14480,0,65728,65728,6,6,4,1460,454,1,992,43,33580,0,65700,0,0,0,0,0
i,0x00000000,1720649151.546736,172.16.3.2,5101,172.16.1.2,21596,10499,14480,0,65728,65728,6,6,4,1460,454,1,992,43,33580,0,65700,0,0,0,0,0
o,0x00000000,1720649151.546751,172.16.3.2,5101,172.16.1.2,21596,10499,14480,0,65728,65728,6,6,4,1460,454,1,993,43,33580,0,65700,1448,0,0,0,0
i,0x00000000,1720649151.567703,172.16.3.2,5101,172.16.1.2,21596,10499,14480,0,65728,65728,6,6,4,1460,454,1,992,43,33580,0,65700,0,0,0,0,0
o,0x00000000,1720649151.607109,172.16.3.2,5101,172.16.1.2,21596,10499,14480,0,65728,65728,6,6,4,1460,454,1,993,43,33580,0,65700,0,0,0,0,0
i,0x00000000,1720649151.636940,172.16.3.2,5101,172.16.1.2,21596,10499,14480,0,65728,65728,6,6,4,1460,454,1,992,43,33580,0,65700,0,0,0,0,0
i,0x00000000,1720649151.646400,172.16.3.2,5101,172.16.1.2,21596,10499,14480,0,65728,65728,6,6,4,1460,454,1,992,43,33580,0,65700,0,0,0,0,0
o,0x00000000,1720649151.646408,172.16.3.2,5101,172.16.1.2,21596,10499,14480,0,65728,65728,6,6,4,1460,454,1,993,43,33580,0,65700,1448,0,0,0,0
i,0x00000000,1720649151.656878,172.16.3.2,5101,172.16.1.2,21596,10499,14480,0,65728,65728,6,6,4,1460,454,1,992,43,33580,0,65700,0,0,0,0,0
i,0x00000000,1720649151.683040,172.16.3.2,5101,172.16.1.2,21596,10499,14480,0,65728,65728,6,6,4,1460,454,1,992,43,33580,0,65700,0,0,0,0,0
o,0x00000000,1720649151.683047,172.16.3.2,5101,172.16.1.2,21596,10499,14480,0,65728,65728,6,6,4,1460,454,1,993,43,33580,0,65700,1448,0,0,0,0
i,0x00000000,1720649151.707100,172.16.3.2,5101,172.16.1.2,21596,10499,14480,0,65728,65728,6,6,4,1460,454,1,992,43,33580,0,65700,0,0,0,0,0
o,0x00000000,1720649151.707753,10.0.2.15,22,10.0.2.2,52548,1073725440,14600,0,65535,65700,0,0,4,1460,1,0,4,24,33580,156,65700,0,0,0,0,0
i,0x00000000,1720649151.708592,10.0.2.15,22,10.0.2.2,52548,1073725440,14600,0,65535,65700,0,0,4,1460,1,0,4,24,33580,156,65700,0,156,0,0,0
i,0x00000000,1720649151.737408,172.16.3.2,5101,172.16.1.2,21596,10499,14480,0,65728,65728,6,6,4,1460,454,1,992,43,33580,0,65700,0,0,0,0,0
o,0x00000000,1720649151.737429,172.16.3.2,5101,172.16.1.2,21596,10499,14480,0,65728,65728,6,6,4,1460,454,1,993,43,33580,0,65700,1448,0,0,0,0
i,0x00000000,1720649151.746894,172.16.3.2,5101,172.16.1.2,21596,10499,14480,0,65728,65728,6,6,4,1460,454,1,992,43,33580,0,65700,0,0,0,0,0
o,0x00000000,1720649151.786415,172.16.3.2,5101,172.16.1.2,21596,10499,14480,0,65728,65728,6,6,4,1460,454,1,993,43,33580,0,65700,0,0,0,0,0
i,0x00000000,1720649151.787619,172.16.3.2,5101,172.16.1.2,21596,10499,14480,0,65728,65728,6,6,4,1460,454,1,992,43,33580,0,65700,0,0,0,0,0
o,0x00000000,1720649151.826165,172.16.3.2,5101,172.16.1.2,21596,10499,14480,0,65728,65728,6,6,4,1460,454,1,993,43,33580,0,65700,0,0,0,0,0
i,0x00000000,1720649151.827239,172.16.3.2,5101,172.16.1.2,21596,10499,14480,0,65728,65728,6,6,4,1460,454,1,992,43,33580,0,65700,0,0,0,0,0
i,0x00000000,1720649151.848500,172.16.3.2,5101,172.16.1.2,21596,10499,14480,0,65728,65728,6,6,4,1460,454,1,992,43,33580,0,65700,0,0,0,0,0
o,0x00000000,1720649151.848508,172.16.3.2,5101,172.16.1.2,21596,10499,14480,0,65728,65728,6,6,4,1460,454,1,993,43,33580,0,65700,1448,0,0,0,0
i,0x00000000,1720649151.856941,172.16.3.2,5101,172.16.1.2,21596,10499,14480,0,65728,65728,6,6,4,1460,454,1,992,43,33580,0,65700,0,0,0,0,0
o,0x00000000,1720649151.896100,172.16.3.2,5101,172.16.1.2,21596,10499,14480,0,65728,65728,6,6,4,1460,454,1,993,43,33580,0,65700,0,0,0,0,0
i,0x00000000,1720649151.897613,172.16.3.2,5101,172.16.1.2,21596,10499,14480,0,65728,65728,6,6,4,1460,454,1,992,43,33580,0,65700,0,0,0,0,0
i,0x00000000,1720649151.906832,172.16.3.2,5101,172.16.1.2,21596,10499,14480,0,65728,65728,6,6,4,1460,454,1,992,43,33580,0,65700,0,0,0,0,0
o,0x00000000,1720649151.906838,172.16.3.2,5101,172.16.1.2,21596,10499,14480,0,65728,65728,6,6,4,1460,454,1,993,43,33580,0,65700,1448,0,0,0,0
i,0x00000000,1720649151.926632,172.16.3.2,5101,172.16.1.2,21596,10499,14480,0,65728,65728,6,6,4,1460,454,1,992,43,33580,0,65700,0,0,0,0,0
i,0x00000000,1720649151.953652,172.16.3.2,5101,172.16.1.2,21596,10499,14480,0,65728,65728,6,6,4,1460,454,1,992,43,33580,0,65700,0,0,0,0,0
o,0x00000000,1720649151.953665,172.16.3.2,5101,172.16.1.2,21596,10499,14480,0,65728,65728,6,6,4,1460,454,1,993,43,33580,0,65700,1448,0,0,0,0
i,0x00000000,1720649151.986233,172.16.3.2,5101,172.16.1.2,21596,10499,14480,0,65728,65728,6,6,4,1460,454,1,992,43,33580,0,65700,0,0,0,0,0
i,0x00000000,1720649152.016264,172.16.3.2,5101,172.16.1.2,21596,10499,14480,0,65728,65728,6,6,4,1460,454,1,992,43,33580,0,65700,0,0,0,0,0
o,0x00000000,1720649152.016273,172.16.3.2,5101,172.16.1.2,21596,10499,14480,0,65728,65728,6,6,4,1460,454,1,993,43,33580,0,65700,1448,0,0,0,0
i,0x00000000,1720649152.026514,172.16.3.2,5101,172.16.1.2,21596,10499,14480,0,65728,65728,6,6,4,1460,454,1,992,43,33580,0,65700,0,0,0,0,0
i,0x00000000,1720649152.036952,172.16.3.2,5101,172.16.1.2,21596,10499,14480,0,65728,65728,6,6,4,1460,454,1,992,43,33580,0,65700,0,0,0,0,0
o,0x00000000,1720649152.036957,172.16.3.2,5101,172.16.1.2,21596,10499,14480,0,65728,65728,6,6,4,1460,454,1,993,43,33580,0,65700,1448,0,0,0,0
i,0x00000000,1720649152.086418,172.16.3.2,5101,172.16.1.2,21596,10499,14480,0,65728,65728,6,6,4,1460,454,1,992,43,33580,0,65700,0,0,0,0,0
i,0x00000000,1720649152.116753,172.16.3.2,5101,172.16.1.2,21596,10499,14480,0,65728,65728,6,6,4,1460,454,1,992,43,33580,0,65700,0,0,0,0,0
o,0x00000000,1720649152.116766,172.16.3.2,5101,172.16.1.2,21596,10499,14480,0,65728,65728,6,6,4,1460,454,1,993,43,33580,0,65700,1448,0,0,0,0
i,0x00000000,1720649152.127001,172.16.3.2,5101,172.16.1.2,21596,10499,14480,0,65728,65728,6,6,4,1460,454,1,992,43,33580,0,65700,0,0,0,0,0
i,0x00000000,1720649152.141434,172.16.3.2,5101,172.16.1.2,21596,10499,14480,0,65728,65728,6,6,4,1460,454,1,992,43,33580,0,65700,0,0,0,0,0
o,0x00000000,1720649152.141440,172.16.3.2,5101,172.16.1.2,21596,10499,14480,0,65728,65728,6,6,4,1460,454,1,993,43,33580,0,65700,1448,0,0,0,0
i,0x00000000,1720649152.183102,172.16.3.2,5101,172.16.1.2,21596,10499,14480,0,65728,65728,6,6,4,1460,454,1,992,43,33580,0,65700,0,0,0,0,0
i,0x00000000,1720649152.206770,172.16.3.2,5101,172.16.1.2,21596,10499,14480,0,65728,65728,6,6,4,1460,454,1,992,43,33580,0,65700,0,0,0,0,0
o,0x00000000,1720649152.206780,172.16.3.2,5101,172.16.1.2,21596,10499,14480,0,65728,65700,6,6,4,1460,454,1,993,43,33580,0,65700,0,0,1,0,0
i,0x00000000,1720649152.226629,172.16.3.2,5101,172.16.1.2,21596,10499,14480,0,65728,65700,6,6,4,1460,454,1,992,43,33580,0,65700,0,0,1,0,0
o,0x00000000,1720649152.226636,172.16.3.2,5101,172.16.1.2,21596,10499,14480,0,65728,65728,6,6,4,1460,454,1,993,43,33580,0,65700,0,0,1,0,0
i,0x00000000,1720649152.266444,172.16.3.2,5101,172.16.1.2,21596,10499,14480,0,65728,65728,6,6,4,1460,454,1,992,43,33580,0,65700,0,0,1,0,0
o,0x00000000,1720649152.266453,172.16.3.2,5101,172.16.1.2,21596,10499,14480,0,65728,65728,6,6,4,1460,454,1,993,43,33580,0,65700,0,0,1,0,0
i,0x00000000,1720649152.276513,172.16.3.2,5101,172.16.1.2,21596,10499,14480,0,65728,65728,6,6,4,1460,454,1,992,43,33580,0,65700,0,0,1,0,0
o,0x00000000,1720649152.276519,172.16.3.2,5101,172.16.1.2,21596,10499,14480,0,65728,65728,6,6,4,1460,454,1,993,43,33580,0,65700,0,0,1,0,0
i,0x00000000,1720649152.326350,172.16.3.2,5101,172.16.1.2,21596,10499,14480,0,65728,65728,6,6,4,1460,454,1,992,43,33580,0,65700,0,0,1,0,0
o,0x00000000,1720649152.326362,172.16.3.2,5101,172.16.1.2,21596,10499,14480,0,65728,65728,6,6,4,1460,454,1,993,43,33580,0,65700,0,0,2,0,0
i,0x00000000,1720649152.346054,172.16.3.2,5101,172.16.1.2,21596,10499,14480,0,65728,65728,6,6,4,1460,454,1,992,43,33580,0,65700,0,0,2,0,0
o,0x00000000,1720649152.346063,172.16.3.2,5101,172.16.1.2,21596,10499,14480,0,65728,65728,6,6,4,1460,454,1,993,43,33580,0,65700,0,0,2,0,0
i,0x00000000,1720649152.380658,172.16.3.2,5101,172.16.1.2,21596,10499,14480,0,65728,65728,6,6,4,1460,454,1,992,43,33580,0,65700,0,0,2,0,0
o,0x00000000,1720649152.380671,172.16.3.2,5101,172.16.1.2,21596,10499,14480,0,65728,65728,6,6,4,1460,454,1,993,43,33580,0,65700,0,0,2,0,0
i,0x00000000,1720649152.386609,172.16.3.2,5101,172.16.1.2,21596,10499,14480,0,65728,65728,6,6,4,1460,454,1,992,43,33580,0,65700,0,0,2,0,0
o,0x00000000,1720649152.386619,172.16.3.2,5101,172.16.1.2,21596,10499,14480,0,65728,65728,6,6,4,1460,454,1,993,43,33580,0,65700,0,0,2,0,0
i,0x00000000,1720649152.406429,172.16.3.2,5101,172.16.1.2,21596,10499,14480,0,65728,65728,6,6,4,1460,454,1,992,43,33580,0,65700,0,0,2,0,0
o,0x00000000,1720649152.406434,172.16.3.2,5101,172.16.1.2,21596,10499,14480,0,65728,65728,6,6,4,1460,454,1,993,43,33580,0,65700,0,0,2,0,0
i,0x00000000,1720649152.427338,172.16.3.2,5101,172.16.1.2,21596,10499,14480,0,65728,65728,6,6,4,1460,454,1,992,43,33580,0,65700,0,0,2,0,0
o,0x00000000,1720649152.427343,172.16.3.2,5101,172.16.1.2,21596,10499,14480,0,65728,65728,6,6,4,1460,454,1,993,43,33580,0,65700,0,0,2,0,0
i,0x00000000,1720649152.451623,172.16.3.2,5101,172.16.1.2,21596,10499,14480,0,65728,65728,6,6,4,1460,454,1,992,43,33580,0,65700,0,0,2,0,0
o,0x00000000,1720649152.451633,172.16.3.2,5101,172.16.1.2,21596,10499,14480,0,65728,65728,6,6,4,1460,454,1,993,43,33580,0,65700,7240,0,1,0,0
i,0x00000000,1720649152.478632,172.16.3.2,5101,172.16.1.2,21596,10499,14480,0,65728,65728,6,6,4,1460,454,1,992,43,33580,0,65700,0,0,1,0,0
o,0x00000000,1720649152.478638,172.16.3.2,5101,172.16.1.2,21596,10499,14480,0,65728,65700,6,6,4,1460,454,1,993,43,33580,0,65700,10136,0,0,0,0
i,0x00000000,1720649152.516451,172.16.3.2,5101,172.16.1.2,21596,10499,14480,0,65728,65700,6,6,4,1460,454,1,992,43,33580,0,65700,0,0,0,0,0
o,0x00000000,1720649152.556898,172.16.3.2,5101,172.16.1.2,21596,10499,14480,0,65728,65700,6,6,4,1460,454,1,993,43,33580,0,65700,0,0,0,0,0
i,0x00000000,1720649152.566826,172.16.3.2,5101,172.16.1.2,21596,10499,14480,0,65728,65700,6,6,4,1460,454,1,992,43,33580,0,65700,0,0,0,0,0
i,0x00000000,1720649152.588674,172.16.3.2,5101,172.16.1.2,21596,10499,14480,0,65728,65700,6,6,4,1460,454,1,992,43,33580,0,65700,0,0,0,0,0
o,0x00000000,1720649152.588681,172.16.3.2,5101,172.16.1.2,21596,10499,14480,0,65728,65700,6,6,4,1460,454,1,993,43,33580,0,65700,1448,0,0,0,0
i,0x00000000,1720649152.616840,172.16.3.2,5101,172.16.1.2,21596,10499,14480,0,65728,65700,6,6,4,1460,454,1,992,43,33580,0,65700,0,0,0,0,0
i,0x00000000,1720649152.626315,172.16.3.2,5101,172.16.1.2,21596,10499,14480,0,65728,65700,6,6,4,1460,454,1,992,43,33580,0,65700,0,0,0,0,0
o,0x00000000,1720649152.626322,172.16.3.2,5101,172.16.1.2,21596,10499,14480,0,65728,65700,6,6,4,1460,454,1,993,43,33580,0,65700,1448,0,0,0,0
o,0x00000000,1720649152.707494,10.0.2.15,22,10.0.2.2,52548,1073725440,14600,0,65535,65700,0,0,4,1460,1,0,4,24,33580,108,65700,0,0,0,0,0
i,0x00000000,1720649152.708483,10.0.2.15,22,10.0.2.2,52548,1073725440,14600,0,65535,65700,0,0,4,1460,1,0,4,24,33580,108,65700,0,108,0,0,0
i,0x00000000,1720649152.708619,172.16.3.2,5101,172.16.1.2,21596,10499,14480,0,65728,65700,6,6,4,1460,454,1,992,43,33580,0,65700,0,0,0,0,0
i,0x00000000,1720649152.716004,172.16.3.2,5101,172.16.1.2,21596,10499,14480,0,65728,65700,6,6,4,1460,454,1,992,43,33580,0,65700,0,0,0,0,0
o,0x00000000,1720649152.716013,172.16.3.2,5101,172.16.1.2,21596,10499,14480,0,65728,65700,6,6,4,1460,454,1,993,43,33580,0,65700,1448,0,0,0,0
i,0x00000000,1720649152.726322,172.16.3.2,5101,172.16.1.2,21596,10499,14480,0,65728,65700,6,6,4,1460,454,1,992,43,33580,0,65700,0,0,0,0,0
i,0x00000000,1720649152.736730,172.16.3.2,5101,172.16.1.2,21596,10499,14480,0,65728,65700,6,6,4,1460,454,1,992,43,33580,0,65700,0,0,0,0,0
o,0x00000000,1720649152.736740,172.16.3.2,5101,172.16.1.2,21596,10499,14480,0,65728,65700,6,6,4,1460,454,1,993,43,33580,0,65700,1448,0,0,0,0
i,0x00000000,1720649152.786770,172.16.3.2,5101,172.16.1.2,21596,10499,14480,0,65728,65700,6,6,4,1460,454,1,992,43,33580,0,65700,0,0,0,0,0
i,0x00000000,1720649152.795953,172.16.3.2,5101,172.16.1.2,21596,10499,14480,0,65728,65700,6,6,4,1460,454,1,992,43,33580,0,65700,0,0,0,0,0
o,0x00000000,1720649152.795966,172.16.3.2,5101,172.16.1.2,21596,10499,14480,0,65728,65700,6,6,4,1460,454,1,993,43,33580,0,65700,1448,0,0,0,0
i,0x00000000,1720649152.817891,172.16.3.2,5101,172.16.1.2,21596,10499,14480,0,65728,65700,6,6,4,1460,454,1,992,43,33580,0,65700,0,0,0,0,0
o,0x00000000,1720649152.856170,172.16.3.2,5101,172.16.1.2,21596,10499,14480,0,65728,65700,6,6,4,1460,454,1,993,43,33580,0,65700,0,0,0,0,0
i,0x00000000,1720649152.880793,172.16.3.2,5101,172.16.1.2,21596,10499,14480,0,65728,65700,6,6,4,1460,454,1,992,43,33580,0,65700,0,0,0,0,0
i,0x00000000,1720649152.886618,172.16.3.2,5101,172.16.1.2,21596,10499,14480,0,65728,65700,6,6,4,1460,454,1,992,43,33580,0,65700,0,0,0,0,0
o,0x00000000,1720649152.886625,172.16.3.2,5101,172.16.1.2,21596,10499,14480,0,65728,65700,6,6,4,1460,454,1,993,43,33580,0,65700,1448,0,0,0,0
i,0x00000000,1720649152.897053,172.16.3.2,5101,172.16.1.2,21596,10499,14480,0,65728,65700,6,6,4,1460,454,1,992,43,33580,0,65700,0,0,0,0,0
i,0x00000000,1720649152.912376,172.16.3.2,5101,172.16.1.2,21596,10499,14480,0,65728,65700,6,6,4,1460,454,1,992,43,33580,0,65700,0,0,0,0,0
o,0x00000000,1720649152.912386,172.16.3.2,5101,172.16.1.2,21596,10499,14480,0,65728,65700,6,6,4,1460,454,1,993,43,33580,0,65700,1448,0,0,0,0
i,0x00000000,1720649152.974918,172.16.3.2,5101,172.16.1.2,21596,10499,14480,0,65728,65700,6,6,4,1460,454,1,992,43,33580,0,65700,0,0,0,0,0
i,0x00000000,1720649152.996155,172.16.3.2,5101,172.16.1.2,21596,10499,14480,0,65728,65700,6,6,4,1460,454,1,992,43,33580,0,65700,0,0,0,0,0
o,0x00000000,1720649152.996164,172.16.3.2,5101,172.16.1.2,21596,10499,14480,0,65728,65700,6,6,4,1460,454,1,993,43,33580,0,65700,1448,0,0,0,0
i,0x00000000,1720649153.016952,172.16.3.2,5101,172.16.1.2,21596,10499,14480,0,65728,65700,6,6,4,1460,454,1,992,43,33580,0,65700,0,0,0,0,0
o,0x00000000,1720649153.055978,172.16.3.2,5101,172.16.1.2,21596,10499,14480,0,65728,65700,6,6,4,1460,454,1,993,43,33580,0,65700,0,0,0,0,0
i,0x00000000,1720649153.079630,172.16.3.2,5101,172.16.1.2,21596,10499,14480,0,65728,65700,6,6,4,1460,454,1,992,43,33580,0,65700,0,0,0,0,0
i,0x00000000,1720649153.089982,172.16.3.2,5101,172.16.1.2,21596,10499,14480,0,65728,65700,6,6,4,1460,454,1,992,43,33580,0,65700,0,0,0,0,0
o,0x00000000,1720649153.089988,172.16.3.2,5101,172.16.1.2,21596,10499,14480,0,65728,65700,6,6,4,1460,454,1,993,43,33580,0,65700,1448,0,0,0,0
i,0x00000000,1720649153.096877,172.16.3.2,5101,172.16.1.2,21596,10499,14480,0,65728,65700,6,6,4,1460,454,1,992,43,33580,0,65700,0,0,0,0,0
i,0x00000000,1720649153.106496,172.16.3.2,5101,172.16.1.2,21596,10499,14480,0,65728,65700,6,6,4,1460,454,1,992,43,33580,0,65700,0,0,0,0,0
o,0x00000000,1720649153.106504,172.16.3.2,5101,172.16.1.2,21596,10499,14480,0,65728,65700,6,6,4,1460,454,1,993,43,33580,0,65700,1448,0,0,0,0
i,0x00000000,1720649153.125759,172.16.3.2,5101,172.16.1.2,21596,10499,14480,0,65728,65700,6,6,4,1460,454,1,992,43,33580,0,65700,0,0,0,0,0
i,0x00000000,1720649153.166605,172.16.3.2,5101,172.16.1.2,21596,10499,14480,0,65728,65700,6,6,4,1460,454,1,992,43,33580,0,65700,0,0,0,0,0
o,0x00000000,1720649153.166617,172.16.3.2,5101,172.16.1.2,21596,10499,14480,0,65728,65700,6,6,4,1460,454,1,993,43,33580,0,65700,1448,0,0,0,0
i,0x00000000,1720649153.186509,172.16.3.2,5101,172.16.1.2,21596,10499,14480,0,65728,65700,6,6,4,1460,454,1,992,43,33580,0,65700,0,0,0,0,0
o,0x00000000,1720649153.226863,172.16.3.2,5101,172.16.1.2,21596,10499,14480,0,65728,65700,6,6,4,1460,454,1,993,43,33580,0,65700,0,0,0,0,0
i,0x00000000,1720649153.236548,172.16.3.2,5101,172.16.1.2,21596,10499,14480,0,65728,65700,6,6,4,1460,454,1,992,43,33580,0,65700,0,0,0,0,0
i,0x00000000,1720649153.265790,172.16.3.2,5101,172.16.1.2,21596,10499,14480,0,65728,65700,6,6,4,1460,454,1,992,43,33580,0,65700,0,0,0,0,0
o,0x00000000,1720649153.265799,172.16.3.2,5101,172.16.1.2,21596,10499,14480,0,65728,65700,6,6,4,1460,454,1,993,43,33580,0,65700,1448,0,0,0,0
i,0x00000000,1720649153.276255,172.16.3.2,5101,172.16.1.2,21596,10499,14480,0,65728,65700,6,6,4,1460,454,1,992,43,33580,0,65700,0,0,0,0,0
i,0x00000000,1720649153.315804,172.16.3.2,5101,172.16.1.2,21596,10499,14480,0,65728,65700,6,6,4,1460,454,1,992,43,33580,0,65700,0,0,0,0,0
o,0x00000000,1720649153.315818,172.16.3.2,5101,172.16.1.2,21596,10499,14480,0,65728,65700,6,6,4,1460,454,1,993,43,33580,0,65700,0,0,1,0,0
i,0x00000000,1720649153.326132,172.16.3.2,5101,172.16.1.2,21596,10499,14480,0,65728,65700,6,6,4,1460,454,1,992,43,33580,0,65700,0,0,1,0,0
o,0x00000000,1720649153.326140,172.16.3.2,5101,172.16.1.2,21596,10499,14480,0,65728,65728,6,6,4,1460,454,1,993,43,33580,0,65700,0,0,1,0,0
i,0x00000000,1720649153.351741,172.16.3.2,5101,172.16.1.2,21596,10499,14480,0,65728,65728,6,6,4,1460,454,1,992,43,33580,0,65700,0,0,1,0,0
o,0x00000000,1720649153.351768,172.16.3.2,5101,172.16.1.2,21596,10499,14480,0,65728,65728,6,6,4,1460,454,1,993,43,33580,0,65700,0,0,1,0,0
i,0x00000000,1720649153.372636,172.16.3.2,5101,172.16.1.2,21596,10499,14480,0,65728,65728,6,6,4,1460,454,1,992,43,33580,0,65700,0,0,1,0,0
o,0x00000000,1720649153.372645,172.16.3.2,5101,172.16.1.2,21596,10499,14480,0,65728,65728,6,6,4,1460,454,1,993,43,33580,0,65700,0,0,1,0,0
i,0x00000000,1720649153.414660,172.16.3.2,5101,172.16.1.2,21596,10499,14480,0,65728,65728,6,6,4,1460,454,1,992,43,33580,0,65700,0,0,1,0,0
o,0x00000000,1720649153.414672,172.16.3.2,5101,172.16.1.2,21596,10499,14480,0,65728,65728,6,6,4,1460,454,1,993,43,33580,0,65700,0,0,1,0,0
i,0x00000000,1720649153.415945,172.16.3.2,5101,172.16.1.2,21596,10499,14480,0,65728,65728,6,6,4,1460,454,1,992,43,33580,0,65700,0,0,1,0,0
o,0x00000000,1720649153.415951,172.16.3.2,5101,172.16.1.2,21596,10499,14480,0,65728,65728,6,6,4,1460,454,1,993,43,33580,0,65700,0,0,1,0,0
i,0x00000000,1720649153.456746,172.16.3.2,5101,172.16.1.2,21596,10499,14480,0,65728,65728,6,6,4,1460,454,1,992,43,33580,0,65700,0,0,1,0,0
o,0x00000000,1720649153.456751,172.16.3.2,5101,172.16.1.2,21596,10499,14480,0,65728,65728,6,6,4,1460,454,1,993,43,33580,0,65700,0,0,1,0,0
i,0x00000000,1720649153.476387,172.16.3.2,5101,172.16.1.2,21596,10499,14480,0,65728,65728,6,6,4,1460,454,1,992,43,33580,0,65700,0,0,1,0,0
o,0x00000000,1720649153.476392,172.16.3.2,5101,172.16.1.2,21596,10499,14480,0,65728,65728,6,6,4,1460,454,1,993,43,33580,0,65700,0,0,1,0,0
i,0x00000000,1720649153.506672,172.16.3.2,5101,172.16.1.2,21596,10499,14480,0,65728,65728,6,6,4,1460,454,1,992,43,33580,0,65700,0,0,1,0,0
o,0x00000000,1720649153.506684,172.16.3.2,5101,172.16.1.2,21596,10499,14480,0,65728,65728,6,6,4,1460,454,1,993,43,33580,0,65700,0,0,1,0,0
i,0x00000000,1720649153.516551,172.16.3.2,5101,172.16.1.2,21596,10499,14480,0,65728,65728,6,6,4,1460,454,1,992,43,33580,0,65700,0,0,1,0,0
o,0x00000000,1720649153.516562,172.16.3.2,5101,172.16.1.2,21596,10499,14480,0,65728,65728,6,6,4,1460,454,1,993,43,33580,0,65700,14480,0,0,0,0
i,0x00000000,1720649153.550302,172.16.3.2,5101,172.16.1.2,21596,10499,14480,0,65728,65728,6,6,4,1460,454,1,992,43,33580,0,65700,0,0,0,0,0
i,0x00000000,1720649153.556736,172.16.3.2,5101,172.16.1.2,21596,10499,14480,0,65728,65728,6,6,4,1460,454,1,992,43,33580,0,65700,0,0,0,0,0
o,0x00000000,1720649153.556745,172.16.3.2,5101,172.16.1.2,21596,10499,14480,0,65728,65728,6,6,4,1460,454,1,993,43,33580,0,65700,1448,0,0,0,0
i,0x00000000,1720649153.636601,172.16.3.2,5101,172.16.1.2,21596,10499,14480,0,65728,65728,6,6,4,1460,454,1,992,43,33580,0,65700,0,0,0,0,0
i,0x00000000,1720649153.645863,172.16.3.2,5101,172.16.1.2,21596,10499,14480,0,65728,65728,6,6,4,1460,454,1,992,43,33580,0,65700,0,0,0,0,0
o,0x00000000,1720649153.645871,172.16.3.2,5101,172.16.1.2,21596,10499,14480,0,65728,65728,6,6,4,1460,454,1,993,43,33580,0,65700,1448,0,0,0,0
i,0x00000000,1720649153.666790,172.16.3.2,5101,172.16.1.2,21596,10499,14480,0,65728,65728,6,6,4,1460,454,1,992,43,33580,0,65700,0,0,0,0,0
o,0x00000000,1720649153.706698,172.16.3.2,5101,172.16.1.2,21596,10499,14480,0,65728,65728,6,6,4,1460,454,1,993,43,33580,0,65700,0,0,0,0,0
i,0x00000000,1720649153.707429,172.16.3.2,5101,172.16.1.2,21596,10499,14480,0,65728,65728,6,6,4,1460,454,1,992,43,33580,0,65700,0,0,0,0,0
o,0x00000000,1720649153.707833,10.0.2.15,22,10.0.2.2,52548,1073725440,14600,0,65535,65700,0,0,4,1460,1,0,4,24,33580,108,65700,0,0,0,0,0
i,0x00000000,1720649153.708626,10.0.2.15,22,10.0.2.2,52548,1073725440,14600,0,65535,65700,0,0,4,1460,1,0,4,24,33580,108,65700,0,108,0,0,0
i,0x00000000,1720649153.725924,172.16.3.2,5101,172.16.1.2,21596,10499,14480,0,65728,65728,6,6,4,1460,454,1,992,43,33580,0,65700,0,0,0,0,0
o,0x00000000,1720649153.725935,172.16.3.2,5101,172.16.1.2,21596,10499,14480,0,65728,65728,6,6,4,1460,454,1,993,43,33580,0,65700,1448,0,0,0,0
i,0x00000000,1720649153.736409,172.16.3.2,5101,172.16.1.2,21596,10499,14480,0,65728,65728,6,6,4,1460,454,1,992,43,33580,0,65700,0,0,0,0,0
o,0x00000000,1720649153.776582,172.16.3.2,5101,172.16.1.2,21596,10499,14480,0,65728,65728,6,6,4,1460,454,1,993,43,33580,0,65700,0,0,0,0,0
i,0x00000000,1720649153.786156,172.16.3.2,5101,172.16.1.2,21596,10499,14480,0,65728,65728,6,6,4,1460,454,1,992,43,33580,0,65700,0,0,0,0,0
i,0x00000000,1720649153.796563,172.16.3.2,5101,172.16.1.2,21596,10499,14480,0,65728,65728,6,6,4,1460,454,1,992,43,33580,0,65700,0,0,0,0,0
o,0x00000000,1720649153.796571,172.16.3.2,5101,172.16.1.2,21596,10499,14480,0,65728,65728,6,6,4,1460,454,1,993,43,33580,0,65700,1448,0,0,0,0
i,0x00000000,1720649153.865937,172.16.3.2,5101,172.16.1.2,21596,10499,14480,0,65728,65728,6,6,4,1460,454,1,992,43,33580,0,65700,0,0,0,0,0
i,0x00000000,1720649153.885905,172.16.3.2,5101,172.16.1.2,21596,10499,14480,0,65728,65728,6,6,4,1460,454,1,992,43,33580,0,65700,0,0,0,0,0
o,0x00000000,1720649153.885914,172.16.3.2,5101,172.16.1.2,21596,10499,14480,0,65728,65728,6,6,4,1460,454,1,993,43,33580,0,65700,1448,0,0,0,0
i,0x00000000,1720649153.895955,172.16.3.2,5101,172.16.1.2,21596,10499,14480,0,65728,65728,6,6,4,1460,454,1,992,43,33580,0,65700,0,0,0,0,0
i,0x00000000,1720649153.916085,172.16.3.2,5101,172.16.1.2,21596,10499,14480,0,65728,65728,6,6,4,1460,454,1,992,43,33580,0,65700,0,0,0,0,0
o,0x00000000,1720649153.916099,172.16.3.2,5101,172.16.1.2,21596,10499,14480,0,65728,65728,6,6,4,1460,454,1,993,43,33580,0,65700,1448,0,0,0,0
i,0x00000000,1720649153.956292,172.16.3.2,5101,172.16.1.2,21596,10499,14480,0,65728,65728,6,6,4,1460,454,1,992,43,33580,0,65700,0,0,0,0,0
i,0x00000000,1720649153.965753,172.16.3.2,5101,172.16.1.2,21596,10499,14480,0,65728,65728,6,6,4,1460,454,1,992,43,33580,0,65700,0,0,0,0,0
o,0x00000000,1720649153.965762,172.16.3.2,5101,172.16.1.2,21596,10499,14480,0,65728,65728,6,6,4,1460,454,1,993,43,33580,0,65700,1448,0,0,0,0
i,0x00000000,1720649153.975943,172.16.3.2,5101,172.16.1.2,21596,10499,14480,0,65728,65728,6,6,4,1460,454,1,992,43,33580,0,65700,0,0,0,0,0
o,0x00000000,1720649154.016029,172.16.3.2,5101,172.16.1.2,21596,10499,14480,0,65728,65728,6,6,4,1460,454,1,993,43,33580,0,65700,0,0,0,0,0
i,0x00000000,1720649154.042668,172.16.3.2,5101,172.16.1.2,21596,10499,14480,0,65728,65728,6,6,4,1460,454,1,992,43,33580,0,65700,0,0,0,0,0
o,0x00000000,1720649154.076396,172.16.3.2,5101,172.16.1.2,21596,10499,14480,0,65728,65728,6,6,4,1460,454,1,993,43,33580,0,65700,0,0,0,0,0
i,0x00000000,1720649154.085507,172.16.3.2,5101,172.16.1.2,21596,10499,14480,0,65728,65728,6,6,4,1460,454,1,992,43,33580,0,65700,0,0,0,0,0
i,0x00000000,1720649154.095725,172.16.3.2,5101,172.16.1.2,21596,10499,14480,0,65728,65728,6,6,4,1460,454,1,992,43,33580,0,65700,0,0,0,0,0
o,0x00000000,1720649154.095732,172.16.3.2,5101,172.16.1.2,21596,10499,14480,0,65728,65728,6,6,4,1460,454,1,993,43,33580,0,65700,1448,0,0,0,0
i,0x00000000,1720649154.125765,172.16.3.2,5101,172.16.1.2,21596,10499,14480,0,65728,65728,6,6,4,1460,454,1,992,43,33580,0,65700,0,0,0,0,0
i,0x00000000,1720649154.145950,172.16.3.2,5101,172.16.1.2,21596,10499,14480,0,65728,65728,6,6,4,1460,454,1,992,43,33580,0,65700,0,0,0,0,0
o,0x00000000,1720649154.145962,172.16.3.2,5101,172.16.1.2,21596,10499,14480,0,65728,65728,6,6,4,1460,454,1,993,43,33580,0,65700,1448,0,0,0,0
i,0x00000000,1720649154.167599,172.16.3.2,5101,172.16.1.2,21596,10499,14480,0,65728,65728,6,6,4,1460,454,1,992,43,33580,0,65700,0,0,0,0,0
i,0x00000000,1720649154.176080,172.16.3.2,5101,172.16.1.2,21596,10499,14480,0,65728,65728,6,6,4,1460,454,1,992,43,33580,0,65700,0,0,0,0,0
o,0x00000000,1720649154.176089,172.16.3.2,5101,172.16.1.2,21596,10499,14480,0,65728,65728,6,6,4,1460,454,1,993,43,33580,0,65700,1448,0,0,0,0
i,0x00000000,1720649154.206335,172.16.3.2,5101,172.16.1.2,21596,10499,14480,0,65728,65728,6,6,4,1460,454,1,992,43,33580,0,65700,0,0,0,0,0
o,0x00000000,1720649154.246198,172.16.3.2,5101,172.16.1.2,21596,10499,14480,0,65728,65728,6,6,4,1460,454,1,993,43,33580,0,65700,0,0,0,0,0
i,0x00000000,1720649154.247058,172.16.3.2,5101,172.16.1.2,21596,10499,14480,0,65728,65728,6,6,4,1460,454,1,992,43,33580,0,65700,0,0,0,0,0
o,0x00000000,1720649154.286618,172.16.3.2,5101,172.16.1.2,21596,10499,14480,0,65728,65728,6,6,4,1460,454,1,993,43,33580,0,65700,0,0,0,0,0
i,0x00000000,1720649154.287856,172.16.3.2,5101,172.16.1.2,21596,10499,14480,0,65728,65728,6,6,4,1460,454,1,992,43,33580,0,65700,0,0,0,0,0
i,0x00000000,1720649154.313609,172.16.3.2,5101,172.16.1.2,21596,10499,14480,0,65728,65728,6,6,4,1460,454,1,992,43,33580,0,65700,0,0,0,0,0
o,0x00000000,1720649154.313618,172.16.3.2,5101,172.16.1.2,21596,10499,14480,0,65728,65728,6,6,4,1460,454,1,993,43,33580,0,65700,1448,0,0,0,0
i,0x00000000,1720649154.335633,172.16.3.2,5101,172.16.1.2,21596,10499,14480,0,65728,65728,6,6,4,1460,454,1,992,43,33580,0,65700,0,0,0,0,0
i,0x00000000,1720649154.365796,172.16.3.2,5101,172.16.1.2,21596,10499,14480,0,65728,65728,6,6,4,1460,454,1,992,43,33580,0,65700,0,0,0,0,0
o,0x00000000,1720649154.365808,172.16.3.2,5101,172.16.1.2,21596,10499,14480,0,65728,65728,6,6,4,1460,454,1,993,43,33580,0,65700,1448,0,0,0,0
i,0x00000000,1720649154.376280,172.16.3.2,5101,172.16.1.2,21596,10499,14480,0,65728,65728,6,6,4,1460,454,1,992,43,33580,0,65700,0,0,0,0,0
o,0x00000000,1720649154.376287,172.16.3.2,5101,172.16.1.2,21596,10499,14480,0,65728,65700,6,6,4,1460,454,1,993,43,33580,0,65700,0,0,1,0,0
i,0x00000000,1720649154.385578,172.16.3.2,5101,172.16.1.2,21596,10499,14480,0,65728,65700,6,6,4,1460,454,1,992,43,33580,0,65700,0,0,1,0,0
o,0x00000000,1720649154.385584,172.16.3.2,5101,172.16.1.2,21596,10499,14480,0,65728,65728,6,6,4,1460,454,1,993,43,33580,0,65700,0,0,1,0,0
i,0x00000000,1720649154.395966,172.16.3.2,5101,172.16.1.2,21596,10499,14480,0,65728,65728,6,6,4,1460,454,1,992,43,33580,0,65700,0,0,1,0,0
o,0x00000000,1720649154.395971,172.16.3.2,5101,172.16.1.2,21596,10499,14480,0,65728,65728,6,6,4,1460,454,1,993,43,33580,0,65700,0,0,1,0,0
i,0x00000000,1720649154.445373,172.16.3.2,5101,172.16.1.2,21596,10499,14480,0,65728,65728,6,6,4,1460,454,1,992,43,33580,0,65700,0,0,1,0,0
o,0x00000000,1720649154.445388,172.16.3.2,5101,172.16.1.2,21596,10499,14480,0,65728,65728,6,6,4,1460,454,1,993,43,33580,0,65700,0,0,1,0,0
i,0x00000000,1720649154.485908,172.16.3.2,5101,172.16.1.2,21596,10499,14480,0,65728,65728,6,6,4,1460,454,1,992,43,33580,0,65700,0,0,1,0,0
o,0x00000000,1720649154.485918,172.16.3.2,5101,172.16.1.2,21596,10499,14480,0,65728,65728,6,6,4,1460,454,1,993,43,33580,0,65700,0,0,1,0,0
i,0x00000000,1720649154.496398,172.16.3.2,5101,172.16.1.2,21596,10499,14480,0,65728,65728,6,6,4,1460,454,1,992,43,33580,0,65700,0,0,1,0,0
o,0x00000000,1720649154.496405,172.16.3.2,5101,172.16.1.2,21596,10499,14480,0,65728,65728,6,6,4,1460,454,1,993,43,33580,0,65700,0,0,1,0,0
i,0x00000000,1720649154.516059,172.16.3.2,5101,172.16.1.2,21596,10499,14480,0,65728,65728,6,6,4,1460,454,1,992,43,33580,0,65700,0,0,1,0,0
o,0x00000000,1720649154.516068,172.16.3.2,5101,172.16.1.2,21596,10499,14480,0,65728,65728,6,6,4,1460,454,1,993,43,33580,0,65700,0,0,1,0,0
i,0x00000000,1720649154.567148,172.16.3.2,5101,172.16.1.2,21596,10499,14480,0,65728,65728,6,6,4,1460,454,1,992,43,33580,0,65700,0,0,1,0,0
o,0x00000000,1720649154.567164,172.16.3.2,5101,172.16.1.2,21596,10499,14480,0,65728,65728,6,6,4,1460,454,1,993,43,33580,0,65700,0,0,1,0,0
i,0x00000000,1720649154.575954,172.16.3.2,5101,172.16.1.2,21596,10499,14480,0,65728,65728,6,6,4,1460,454,1,992,43,33580,0,65700,0,0,1,0,0
o,0x00000000,1720649154.575963,172.16.3.2,5101,172.16.1.2,21596,10499,14480,0,65728,65728,6,6,4,1460,454,1,993,43,33580,0,65700,0,0,1,0,0
i,0x00000000,1720649154.586257,172.16.3.2,5101,172.16.1.2,21596,10499,14480,0,65728,65728,6,6,4,1460,454,1,992,43,33580,0,65700,0,0,1,0,0
o,0x00000000,1720649154.586262,172.16.3.2,5101,172.16.1.2,21596,10499,14480,0,65728,65728,6,6,4,1460,454,1,993,43,33580,0,65700,0,0,1,0,0
i,0x00000000,1720649154.595570,172.16.3.2,5101,172.16.1.2,21596,10499,14480,0,65728,65728,6,6,4,1460,454,1,992,43,33580,0,65700,0,0,1,0,0
o,0x00000000,1720649154.595579,172.16.3.2,5101,172.16.1.2,21596,10499,14480,0,65728,65728,6,6,4,1460,454,1,993,43,33580,0,65700,15928,0,0,0,0
i,0x00000000,1720649154.657411,172.16.3.2,5101,172.16.1.2,21596,10499,14480,0,65728,65728,6,6,4,1460,454,1,992,43,33580,0,65700,0,0,0,0,0
o,0x00000000,1720649154.657475,172.16.3.2,5101,172.16.1.2,21596,10499,14480,0,65728,65728,6,6,4,1460,454,1,992,43,33580,0,65700,0,0,0,0,0
o,0x00000000,1720649154.707566,10.0.2.15,22,10.0.2.2,52548,1073725440,14600,0,65535,65700,0,0,4,1460,1,0,4,24,33580,108,65700,0,0,0,0,0
i,0x00000000,1720649154.708216,10.0.2.15,22,10.0.2.2,52548,1073725440,14600,0,65535,65700,0,0,4,1460,1,0,4,24,33580,108,65700,0,108,0,0,0
i,0x00000000,1720649154.725558,172.16.3.2,5101,172.16.1.2,21596,10499,14480,0,65728,65728,6,6,4,1460,454,1,992,43,33580,0,65700,0,0,0,0,0
i,0x00000000,1720649154.751958,172.16.3.2,5101,172.16.1.2,21596,10499,14480,0,65728,65728,6,6,4,1460,454,1,992,43,33580,0,65700,0,0,0,0,0
o,0x00000000,1720649154.751978,172.16.3.2,5101,172.16.1.2,21596,10499,14480,0,65728,65728,6,6,4,1460,454,1,993,43,33580,0,65700,1448,0,0,0,0
i,0x00000000,1720649154.757012,172.16.3.2,5101,172.16.1.2,21596,10499,14480,0,65728,65728,6,6,4,1460,454,1,992,43,33580,0,65700,0,0,0,0,0
o,0x00000000,1720649154.795803,172.16.3.2,5101,172.16.1.2,21596,10499,14480,0,65728,65728,6,6,4,1460,454,1,993,43,33580,0,65700,0,0,0,0,0
i,0x00000000,1720649154.805923,172.16.3.2,5101,172.16.1.2,21596,10499,14480,0,65728,65728,6,6,4,1460,454,1,992,43,33580,0,65700,0,0,0,0,0
i,0x00000000,1720649154.815480,172.16.3.2,5101,172.16.1.2,21596,10499,14480,0,65728,65728,6,6,4,1460,454,1,992,43,33580,0,65700,0,0,0,0,0
o,0x00000000,1720649154.815489,172.16.3.2,5101,172.16.1.2,21596,10499,14480,0,65728,65728,6,6,4,1460,454,1,993,43,33580,0,65700,1448,0,0,0,0
i,0x00000000,1720649154.907907,172.16.3.2,5101,172.16.1.2,21596,10499,14480,0,65728,65728,6,6,4,1460,454,1,992,43,33580,0,65700,0,0,0,0,0
i,0x00000000,1720649154.915795,172.16.3.2,5101,172.16.1.2,21596,10499,14480,0,65728,65728,6,6,4,1460,454,1,992,43,33580,0,65700,0,0,0,0,0
o,0x00000000,1720649154.915805,172.16.3.2,5101,172.16.1.2,21596,10499,14480,0,65728,65728,6,6,4,1460,454,1,993,43,33580,0,65700,1448,0,0,0,0
i,0x00000000,1720649154.925662,172.16.3.2,5101,172.16.1.2,21596,10499,14480,0,65728,65728,6,6,4,1460,454,1,992,43,33580,0,65700,0,0,0,0,0
o,0x00000000,1720649154.966998,172.16.3.2,5101,172.16.1.2,21596,10499,14480,0,65728,65728,6,6,4,1460,454,1,993,43,33580,0,65700,0,0,0,0,0
i,0x00000000,1720649154.968058,172.16.3.2,5101,172.16.1.2,21596,10499,14480,0,65728,65728,6,6,4,1460,454,1,992,43,33580,0,65700,0,0,0,0,0
i,0x00000000,1720649154.976018,172.16.3.2,5101,172.16.1.2,21596,10499,14480,0,65728,65728,6,6,4,1460,454,1,992,43,33580,0,65700,0,0,0,0,0
o,0x00000000,1720649154.976027,172.16.3.2,5101,172.16.1.2,21596,10499,14480,0,65728,65728,6,6,4,1460,454,1,993,43,33580,0,65700,1448,0,0,0,0
i,0x00000000,1720649154.986451,172.16.3.2,5101,172.16.1.2,21596,10499,14480,0,65728,65728,6,6,4,1460,454,1,992,43,33580,0,65700,0,0,0,0,0
o,0x00000000,1720649155.027428,172.16.3.2,5101,172.16.1.2,21596,10499,14480,0,65728,65728,6,6,4,1460,454,1,993,43,33580,0,65700,0,0,0,0,0
i,0x00000000,1720649155.064292,172.16.3.2,5101,172.16.1.2,21596,10499,14480,0,65728,65728,6,6,4,1460,454,1,992,43,33580,0,65700,0,0,0,0,0
i,0x00000000,1720649155.074192,172.16.3.2,5101,172.16.1.2,21596,10499,14480,0,65728,65728,6,6,4,1460,454,1,992,43,33580,0,65700,0,0,0,0,0
o,0x00000000,1720649155.074199,172.16.3.2,5101,172.16.1.2,21596,10499,14480,0,65728,65728,6,6,4,1460,454,1,993,43,33580,0,65700,1448,0,0,0,0
i,0x00000000,1720649155.125390,172.16.3.2,5101,172.16.1.2,21596,10499,14480,0,65728,65728,6,6,4,1460,454,1,992,43,33580,0,65700,0,0,0,0,0
i,0x00000000,1720649155.136896,172.16.3.2,5101,172.16.1.2,21596,10499,14480,0,65728,65728,6,6,4,1460,454,1,992,43,33580,0,65700,0,0,0,0,0
o,0x00000000,1720649155.136905,172.16.3.2,5101,172.16.1.2,21596,10499,14480,0,65728,65728,6,6,4,1460,454,1,993,43,33580,0,65700,1448,0,0,0,0
i,0x00000000,1720649155.146333,172.16.3.2,5101,172.16.1.2,21596,10499,14480,0,65728,65728,6,6,4,1460,454,1,992,43,33580,0,65700,0,0,0,0,0
i,0x00000000,1720649155.178489,172.16.3.2,5101,172.16.1.2,21596,10499,14480,0,65728,65728,6,6,4,1460,454,1,992,43,33580,0,65700,0,0,0,0,0
o,0x00000000,1720649155.178499,172.16.3.2,5101,172.16.1.2,21596,10499,14480,0,65728,65728,6,6,4,1460,454,1,993,43,33580,0,65700,1448,0,0,0,0
i,0x00000000,1720649155.215137,172.16.3.2,5101,172.16.1.2,21596,10499,14480,0,65728,65728,6,6,4,1460,454,1,992,43,33580,0,65700,0,0,0,0,0
i,0x00000000,1720649155.225607,172.16.3.2,5101,172.16.1.2,21596,10499,14480,0,65728,65728,6,6,4,1460,454,1,992,43,33580,0,65700,0,0,0,0,0
o,0x00000000,1720649155.225614,172.16.3.2,5101,172.16.1.2,21596,10499,14480,0,65728,65728,6,6,4,1460,454,1,993,43,33580,0,65700,1448,0,0,0,0
i,0x00000000,1720649155.235977,172.16.3.2,5101,172.16.1.2,21596,10499,14480,0,65728,65728,6,6,4,1460,454,1,992,43,33580,0,65700,0,0,0,0,0
o,0x00000000,1720649155.277067,172.16.3.2,5101,172.16.1.2,21596,10499,14480,0,65728,65728,6,6,4,1460,454,1,993,43,33580,0,65700,0,0,0,0,0
i,0x00000000,1720649155.286653,172.16.3.2,5101,172.16.1.2,21596,10499,14480,0,65728,65728,6,6,4,1460,454,1,992,43,33580,0,65700,0,0,0,0,0
o,0x00000000,1720649155.326517,172.16.3.2,5101,172.16.1.2,21596,10499,14480,0,65728,65728,6,6,4,1460,454,1,993,43,33580,0,65700,0,0,0,0,0
i,0x00000000,1720649155.327374,172.16.3.2,5101,172.16.1.2,21596,10499,14480,0,65728,65728,6,6,4,1460,454,1,992,43,33580,0,65700,0,0,0,0,0
i,0x00000000,1720649155.335962,172.16.3.2,5101,172.16.1.2,21596,10499,14480,0,65728,65728,6,6,4,1460,454,1,992,43,33580,0,65700,0,0,0,0,0
o,0x00000000,1720649155.335971,172.16.3.2,5101,172.16.1.2,21596,10499,14480,0,65728,65728,6,6,4,1460,454,1,993,43,33580,0,65700,1448,0,0,0,0
i,0x00000000,1720649155.365624,172.16.3.2,5101,172.16.1.2,21596,10499,14480,0,65728,65728,6,6,4,1460,454,1,992,43,33580,0,65700,0,0,0,0,0
i,0x00000000,1720649155.386357,172.16.3.2,5101,172.16.1.2,21596,10499,14480,0,65728,65728,6,6,4,1460,454,1,992,43,33580,0,65700,0,0,0,0,0
o,0x00000000,1720649155.386363,172.16.3.2,5101,172.16.1.2,21596,10499,14480,0,65728,65728,6,6,4,1460,454,1,993,43,33580,0,65700,1448,0,0,0,0
i,0x00000000,1720649155.404911,172.16.3.2,5101,172.16.1.2,21596,10499,14480,0,65728,65728,6,6,4,1460,454,1,992,43,33580,0,65700,0,0,0,0,0
i,0x00000000,1720649155.417767,172.16.3.2,5101,172.16.1.2,21596,10499,14480,0,65728,65728,6,6,4,1460,454,1,992,43,33580,0,65700,0,0,0,0,0
o,0x00000000,1720649155.417774,172.16.3.2,5101,172.16.1.2,21596,10499,14480,0,65728,65728,6,6,4,1460,454,1,993,43,33580,0,65700,1448,0,0,0,0
i,0x00000000,1720649155.445708,172.16.3.2,5101,172.16.1.2,21596,10499,14480,0,65728,65728,6,6,4,1460,454,1,992,43,33580,0,65700,0,0,0,0,0
o,0x00000000,1720649155.486831,172.16.3.2,5101,172.16.1.2,21596,10499,14480,0,65728,65728,6,6,4,1460,454,1,993,43,33580,0,65700,0,0,0,0,0
i,0x00000000,1720649155.495873,172.16.3.2,5101,172.16.1.2,21596,10499,14480,0,65728,65728,6,6,4,1460,454,1,992,43,33580,0,65700,0,0,0,0,0
i,0x00000000,1720649155.525442,172.16.3.2,5101,172.16.1.2,21596,10499,14480,0,65728,65728,6,6,4,1460,454,1,992,43,33580,0,65700,0,0,0,0,0
o,0x00000000,1720649155.525454,172.16.3.2,5101,172.16.1.2,21596,10499,14480,0,65728,65728,6,6,4,1460,454,1,993,43,33580,0,65700,1448,0,0,0,0
i,0x00000000,1720649155.545437,172.16.3.2,5101,172.16.1.2,21596,10499,14480,0,65728,65728,6,6,4,1460,454,1,992,43,33580,0,65700,0,0,0,0,0
i,0x00000000,1720649155.555773,172.16.3.2,5101,172.16.1.2,21596,10499,14480,0,65728,65728,6,6,4,1460,454,1,992,43,33580,0,65700,0,0,0,0,0
o,0x00000000,1720649155.555786,172.16.3.2,5101,172.16.1.2,21596,10499,14480,0,65728,65728,6,6,4,1460,454,1,993,43,33580,0,65700,1448,0,0,0,0
i,0x00000000,1720649155.586012,172.16.3.2,5101,172.16.1.2,21596,10499,14480,0,65728,65728,6,6,4,1460,454,1,992,43,33580,0,65700,0,0,0,0,0
i,0x00000000,1720649155.615395,172.16.3.2,5101,172.16.1.2,21596,10499,14480,0,65728,65728,6,6,4,1460,454,1,992,43,33580,0,65700,0,0,0,0,0
o,0x00000000,1720649155.615403,172.16.3.2,5101,172.16.1.2,21596,10499,14480,0,65728,65700,6,6,4,1460,454,1,993,43,33580,0,65700,0,0,1,0,0
i,0x00000000,1720649155.625378,172.16.3.2,5101,172.16.1.2,21596,10499,14480,0,65728,65700,6,6,4,1460,454,1,992,43,33580,0,65700,0,0,1,0,0
o,0x00000000,1720649155.625383,172.16.3.2,5101,172.16.1.2,21596,10499,14480,0,65728,65728,6,6,4,1460,454,1,993,43,33580,0,65700,0,0,1,0,0
i,0x00000000,1720649155.665190,172.16.3.2,5101,172.16.1.2,21596,10499,14480,0,65728,65728,6,6,4,1460,454,1,992,43,33580,0,65700,0,0,1,0,0
o,0x00000000,1720649155.665196,172.16.3.2,5101,172.16.1.2,21596,10499,14480,0,65728,65728,6,6,4,1460,454,1,993,43,33580,0,65700,0,0,1,0,0
o,0x00000000,1720649155.707735,10.0.2.15,22,10.0.2.2,52548,1073725440,14600,0,65535,65700,0,0,4,1460,1,0,4,24,33580,108,65700,0,0,0,0,0
i,0x00000000,1720649155.708625,10.0.2.15,22,10.0.2.2,52548,1073725440,14600,0,65535,65700,0,0,4,1460,1,0,4,24,33580,108,65700,0,108,0,0,0
i,0x00000000,1720649155.716732,172.16.3.2,5101,172.16.1.2,21596,10499,14480,0,65728,65728,6,6,4,1460,454,1,992,43,33580,0,65700,0,0,1,0,0
o,0x00000000,1720649155.716741,172.16.3.2,5101,172.16.1.2,21596,10499,14480,0,65728,65728,6,6,4,1460,454,1,993,43,33580,0,65700,0,0,1,0,0
i,0x00000000,1720649155.725593,172.16.3.2,5101,172.16.1.2,21596,10499,14480,0,65728,65728,6,6,4,1460,454,1,992,43,33580,0,65700,0,0,1,0,0
o,0x00000000,1720649155.725604,172.16.3.2,5101,172.16.1.2,21596,10499,14480,0,65728,65728,6,6,4,1460,454,1,993,43,33580,0,65700,0,0,1,0,0
i,0x00000000,1720649155.735883,172.16.3.2,5101,172.16.1.2,21596,10499,14480,0,65728,65728,6,6,4,1460,454,1,992,43,33580,0,65700,0,0,1,0,0
o,0x00000000,1720649155.735888,172.16.3.2,5101,172.16.1.2,21596,10499,14480,0,65728,65728,6,6,4,1460,454,1,993,43,33580,0,65700,0,0,1,0,0
i,0x00000000,1720649155.745226,172.16.3.2,5101,172.16.1.2,21596,10499,14480,0,65728,65728,6,6,4,1460,454,1,992,43,33580,0,65700,0,0,1,0,0
o,0x00000000,1720649155.745236,172.16.3.2,5101,172.16.1.2,21596,10499,14480,0,65728,65728,6,6,4,1460,454,1,993,43,33580,0,65700,0,0,1,0,0
i,0x00000000,1720649155.777340,172.16.3.2,5101,172.16.1.2,21596,10499,14480,0,65728,65728,6,6,4,1460,454,1,992,43,33580,0,65700,0,0,1,0,0
o,0x00000000,1720649155.777355,172.16.3.2,5101,172.16.1.2,21596,10499,14480,0,65728,65728,6,6,4,1460,454,1,993,43,33580,0,65700,0,0,1,0,0
i,0x00000000,1720649155.804834,172.16.3.2,5101,172.16.1.2,21596,10499,14480,0,65728,65728,6,6,4,1460,454,1,992,43,33580,0,65700,0,0,1,0,0
o,0x00000000,1720649155.804845,172.16.3.2,5101,172.16.1.2,21596,10499,14480,0,65728,65728,6,6,4,1460,454,1,993,43,33580,0,65700,0,0,1,0,0
i,0x00000000,1720649155.815309,172.16.3.2,5101,172.16.1.2,21596,10499,14480,0,65728,65728,6,6,4,1460,454,1,992,43,33580,0,65700,0,0,1,0,0
o,0x00000000,1720649155.815319,172.16.3.2,5101,172.16.1.2,21596,10499,14480,0,65728,65728,6,6,4,1460,454,1,993,43,33580,0,65700,14480,0,0,0,0
i,0x00000000,1720649155.865394,172.16.3.2,5101,172.16.1.2,21596,10499,14480,0,65728,65728,6,6,4,1460,454,1,992,43,33580,0,65700,0,0,0,0,0
i,0x00000000,1720649155.885074,172.16.3.2,5101,172.16.1.2,21596,10499,14480,0,65728,65728,6,6,4,1460,454,1,992,43,33580,0,65700,0,0,0,0,0
o,0x00000000,1720649155.885082,172.16.3.2,5101,172.16.1.2,21596,10499,14480,0,65728,65728,6,6,4,1460,454,1,993,43,33580,0,65700,1448,0,0,0,0
i,0x00000000,1720649155.915400,172.16.3.2,5101,172.16.1.2,21596,10499,14480,0,65728,65728,6,6,4,1460,454,1,992,43,33580,0,65700,0,0,0,0,0
o,0x00000000,1720649155.947083,172.16.3.2,5101,172.16.1.2,21596,10499,14480,0,65728,65728,6,6,4,1460,454,1,993,43,33580,0,65700,0,0,0,0,0
i,0x00000000,1720649155.965237,172.16.3.2,5101,172.16.1.2,21596,10499,14480,0,65728,65728,6,6,4,1460,454,1,992,43,33580,0,65700,0,0,0,0,0
i,0x00000000,1720649155.975826,172.16.3.2,5101,172.16.1.2,21596,10499,14480,0,65728,65728,6,6,4,1460,454,1,992,43,33580,0,65700,0,0,0,0,0
o,0x00000000,1720649155.975834,172.16.3.2,5101,172.16.1.2,21596,10499,14480,0,65728,65728,6,6,4,1460,454,1,993,43,33580,0,65700,1448,0,0,0,0
i,0x00000000,1720649156.072593,172.16.3.2,5101,172.16.1.2,21596,10499,14480,0,65728,65728,6,6,4,1460,454,1,992,43,33580,0,65700,0,0,0,0,0
i,0x00000000,1720649156.082580,172.16.3.2,5101,172.16.1.2,21596,10499,14480,0,65728,65728,6,6,4,1460,454,1,992,43,33580,0,65700,0,0,0,0,0
o,0x00000000,1720649156.082589,172.16.3.2,5101,172.16.1.2,21596,10499,14480,0,65728,65728,6,6,4,1460,454,1,993,43,33580,0,65700,1448,0,0,0,0
i,0x00000000,1720649156.085857,172.16.3.2,5101,172.16.1.2,21596,10499,14480,0,65728,65728,6,6,4,1460,454,1,992,43,33580,0,65700,0,0,0,0,0
i,0x00000000,1720649156.124692,172.16.3.2,5101,172.16.1.2,21596,10499,14480,0,65728,65728,6,6,4,1460,454,1,992,43,33580,0,65700,0,0,0,0,0
o,0x00000000,1720649156.124705,172.16.3.2,5101,172.16.1.2,21596,10499,14480,0,65728,65728,6,6,4,1460,454,1,993,43,33580,0,65700,1448,0,0,0,0
i,0x00000000,1720649156.134828,172.16.3.2,5101,172.16.1.2,21596,10499,14480,0,65728,65728,6,6,4,1460,454,1,992,43,33580,0,65700,0,0,0,0,0
i,0x00000000,1720649156.145572,172.16.3.2,5101,172.16.1.2,21596,10499,14480,0,65728,65728,6,6,4,1460,454,1,992,43,33580,0,65700,0,0,0,0,0
o,0x00000000,1720649156.145600,172.16.3.2,5101,172.16.1.2,21596,10499,14480,0,65728,65728,6,6,4,1460,454,1,993,43,33580,0,65700,1448,0,0,0,0
i,0x00000000,1720649156.205221,172.16.3.2,5101,172.16.1.2,21596,10499,14480,0,65728,65728,6,6,4,1460,454,1,992,43,33580,0,65700,0,0,0,0,0
i,0x00000000,1720649156.225096,172.16.3.2,5101,172.16.1.2,21596,10499,14480,0,65728,65728,6,6,4,1460,454,1,992,43,33580,0,65700,0,0,0,0,0
o,0x00000000,1720649156.225105,172.16.3.2,5101,172.16.1.2,21596,10499,14480,0,65728,65728,6,6,4,1460,454,1,993,43,33580,0,65700,1448,0,0,0,0
i,0x00000000,1720649156.255333,172.16.3.2,5101,172.16.1.2,21596,10499,14480,0,65728,65728,6,6,4,1460,454,1,992,43,33580,0,65700,0,0,0,0,0
i,0x00000000,1720649156.264655,172.16.3.2,5101,172.16.1.2,21596,10499,14480,0,65728,65728,6,6,4,1460,454,1,992,43,33580,0,65700,0,0,0,0,0
o,0x00000000,1720649156.264662,172.16.3.2,5101,172.16.1.2,21596,10499,14480,0,65728,65728,6,6,4,1460,454,1,993,43,33580,0,65700,1448,0,0,0,0
i,0x00000000,1720649156.305321,172.16.3.2,5101,172.16.1.2,21596,10499,14480,0,65728,65728,6,6,4,1460,454,1,992,43,33580,0,65700,0,0,0,0,0
