enable_time_secs=1720647316	enable_time_usecs=476680	siftrver=1.2.4	hz=100	tcp_rtt_scale=32	sysname=FreeBSD	sysver=1301000	ipmode=4
o,0x00000000,1720647316.476746,10.0.2.15,22,10.0.2.2,52408,1073725440,17770,0,65535,65700,0,0,4,1460,0,0,4,23,33580,44,65700,0,0,0,0,0
o,0x00000000,1720647316.476842,10.0.2.15,22,10.0.2.2,52408,1073725440,17770,0,65535,65700,0,0,4,1460,0,0,4,23,33580,80,65700,0,44,0,0,0
i,0x00000000,1720647316.477331,10.0.2.15,22,10.0.2.2,52408,1073725440,17770,0,65535,65700,0,0,4,1460,0,0,4,23,33580,80,65700,0,80,0,0,0
i,0x00000000,1720647316.477335,10.0.2.15,22,10.0.2.2,52408,1073725440,17814,0,65535,65700,0,0,4,1460,0,0,4,23,33580,36,65700,0,36,0,0,0
o,0x00000000,1720647316.477414,10.0.2.15,22,10.0.2.2,52408,1073725440,17850,0,65535,65700,0,0,4,1460,0,0,4,23,33580,36,65700,0,0,0,0,0
i,0x00000000,1720647316.477901,10.0.2.15,22,10.0.2.2,52408,1073725440,17850,0,65535,65700,0,0,4,1460,0,0,4,23,33580,36,65700,0,36,0,0,0
o,0x00000000,1720647316.478032,10.0.2.15,22,10.0.2.2,52408,1073725440,17886,0,65535,65700,0,0,4,1460,0,0,4,23,33580,176,65700,0,0,0,0,0
i,0x00000000,1720647316.478690,10.0.2.15,22,10.0.2.2,52408,1073725440,17886,0,65535,65700,0,0,4,1460,0,0,4,23,33580,176,65700,0,176,0,0,0
i,0x00000000,1720647316.478770,10.0.2.15,22,10.0.2.2,52408,1073725440,18062,0,65535,65700,0,0,4,1460,0,0,4,23,33580,0,65700,0,0,0,0,0
i,0x00000000,1720647316.478772,10.0.2.15,22,10.0.2.2,52408,1073725440,18062,0,65535,65700,0,0,4,1460,0,0,4,23,33580,0,65700,96,0,0,0,0
o,0x00000000,1720647316.478774,10.0.2.15,22,10.0.2.2,52408,1073725440,18062,0,65535,65604,0,0,5,1460,0,0,5,23,33580,0,65700,96,0,0,0,0
o,0x00000000,1720647316.479103,10.0.2.15,22,10.0.2.2,52408,1073725440,18062,0,65535,65604,0,0,8,1460,0,0,4,23,33580,0,65700,0,0,0,0,0
i,0x00000000,1720647316.479824,10.0.2.15,22,10.0.2.2,52408,1073725440,18062,0,65535,65604,0,0,8,1460,0,0,20,23,33580,0,65700,0,1,0,0,0
i,0x00000000,1720647318.554105,10.0.2.15,22,10.0.2.2,52416,1073725440,14600,0,65535,65700,0,0,4,1460,0,0,0,100,33580,0,65700,0,0,0,0,0
o,0x00000000,1720647318.560593,10.0.2.15,22,10.0.2.2,52416,1073725440,14600,0,65535,65700,0,0,4,1460,0,0,0,100,33580,38,65700,42,0,0,0,0
i,0x00000000,1720647318.561596,10.0.2.15,22,10.0.2.2,52416,1073725440,14600,0,65535,65700,0,0,4,1460,0,0,0,100,33580,38,65700,42,38,0,0,0
i,0x00000000,1720647318.562042,10.0.2.15,22,10.0.2.2,52416,1073725440,14638,0,65535,65700,0,0,4,1460,0,0,0,23,33580,0,65700,42,0,0,0,0
i,0x00000000,1720647318.562045,10.0.2.15,22,10.0.2.2,52416,1073725440,14638,0,65535,65700,0,0,4,1460,0,0,0,23,33580,0,65700,1502,0,0,0,0
o,0x00000000,1720647318.562048,10.0.2.15,22,10.0.2.2,52416,1073725440,14638,0,65535,65700,0,0,4,1460,0,0,1,23,33580,0,65700,1578,0,0,0,0
o,0x00000000,1720647318.562844,10.0.2.15,22,10.0.2.2,52416,1073725440,14638,0,65535,65700,0,0,4,1460,0,0,0,23,33580,1056,65700,1536,0,0,0,0
i,0x00000000,1720647318.563563,10.0.2.15,22,10.0.2.2,52416,1073725440,14638,0,65535,65700,0,0,4,1460,0,0,0,23,33580,1056,65700,1536,1056,0,0,0
i,0x00000000,1720647318.564929,10.0.2.15,22,10.0.2.2,52416,1073725440,15694,0,65535,65700,0,0,4,1460,0,0,0,23,33580,0,65700,0,0,0,0,0
o,0x00000000,1720647318.567340,10.0.2.15,22,10.0.2.2,52416,1073725440,15694,0,65535,65700,0,0,4,1460,0,0,0,23,33580,484,65700,0,0,0,0,0
i,0x00000000,1720647318.568312,10.0.2.15,22,10.0.2.2,52416,1073725440,15694,0,65535,65700,0,0,4,1460,0,0,0,23,33580,484,65700,0,484,0,0,0
i,0x00000000,1720647318.573137,10.0.2.15,22,10.0.2.2,52416,1073725440,16178,0,65535,65700,0,0,4,1460,0,0,0,23,33580,0,65700,0,0,0,0,0
i,0x00000000,1720647318.573141,10.0.2.15,22,10.0.2.2,52416,1073725440,16178,0,65535,65700,0,0,4,1460,0,0,0,23,33580,0,65700,16,0,0,0,0
o,0x00000000,1720647318.573145,10.0.2.15,22,10.0.2.2,52416,1073725440,16178,0,65535,65700,0,0,4,1460,0,0,1,23,33580,0,65700,60,0,0,0,0
o,0x00000000,1720647318.573305,10.0.2.15,22,10.0.2.2,52416,1073725440,16178,0,65535,65700,0,0,4,1460,0,0,0,23,33580,44,65700,0,0,0,0,0
i,0x00000000,1720647318.573703,10.0.2.15,22,10.0.2.2,52416,1073725440,16178,0,65535,65700,0,0,4,1460,0,0,0,23,33580,44,65700,0,44,0,0,0
i,0x00000000,1720647318.574095,10.0.2.15,22,10.0.2.2,52416,1073725440,16222,0,65535,65700,0,0,4,1460,0,0,0,23,33580,0,65700,0,0,0,0,0
o,0x00000000,1720647318.583723,10.0.2.15,22,10.0.2.2,52416,1073725440,16222,0,65535,65700,0,0,4,1460,0,0,0,23,33580,68,65700,0,0,0,0,0
i,0x00000000,1720647318.584258,10.0.2.15,22,10.0.2.2,52416,1073725440,16222,0,65535,65700,0,0,4,1460,0,0,0,23,33580,68,65700,0,68,0,0,0
i,0x00000000,1720647318.584797,10.0.2.15,22,10.0.2.2,52416,1073725440,16290,0,65535,65700,0,0,4,1460,0,0,0,23,33580,0,65700,0,0,0,0,0
o,0x00000000,1720647318.585074,10.0.2.15,22,10.0.2.2,52416,1073725440,16290,0,65535,65700,0,0,4,1460,0,0,0,23,33580,332,65700,0,0,0,0,0
i,0x00000000,1720647318.585985,10.0.2.15,22,10.0.2.2,52416,1073725440,16290,0,65535,65700,0,0,4,1460,0,0,0,23,33580,332,65700,0,332,0,0,0
i,0x00000000,1720647318.587320,10.0.2.15,22,10.0.2.2,52416,1073725440,16622,0,65535,65700,0,0,4,1460,0,0,0,23,33580,0,65700,0,0,0,0,0
o,0x00000000,1720647318.603539,10.0.2.15,22,10.0.2.2,52416,1073725440,16622,0,65535,65700,0,0,4,1460,0,0,0,23,33580,28,65700,0,0,0,0,0
i,0x00000000,1720647318.604098,10.0.2.15,22,10.0.2.2,52416,1073725440,16622,0,65535,65700,0,0,4,1460,0,0,0,23,33580,28,65700,0,28,0,0,0
i,0x00000000,1720647318.604579,10.0.2.15,22,10.0.2.2,52416,1073725440,16650,0,65535,65700,0,0,4,1460,0,0,0,23,33580,0,65700,0,0,0,0,0
o,0x00000000,1720647318.605223,10.0.2.15,22,10.0.2.2,52416,1073725440,16650,0,65535,65700,0,0,4,1460,0,0,0,23,33580,768,65700,112,0,0,0,0
i,0x00000000,1720647318.606016,10.0.2.15,22,10.0.2.2,52416,1073725440,16650,0,65535,65700,0,0,4,1460,0,0,0,23,33580,768,65700,112,768,0,0,0
o,0x00000000,1720647318.606687,10.0.2.15,22,10.0.2.2,52416,1073725440,17418,0,65535,65700,0,0,4,1460,0,0,0,23,33580,140,65700,112,0,0,0,0
i,0x00000000,1720647318.607337,10.0.2.15,22,10.0.2.2,52416,1073725440,17418,0,65535,65700,0,0,4,1460,0,0,0,23,33580,140,65700,112,140,0,0,0
o,0x00000000,1720647318.607437,10.0.2.15,22,10.0.2.2,52416,1073725440,17558,0,65535,65700,0,0,4,1460,0,0,0,23,33580,44,65700,0,0,0,0,0
i,0x00000000,1720647318.607972,10.0.2.15,22,10.0.2.2,52416,1073725440,17558,0,65535,65700,0,0,4,1460,0,0,0,23,33580,44,65700,0,44,0,0,0
i,0x00000000,1720647318.608455,10.0.2.15,22,10.0.2.2,52416,1073725440,17602,0,65535,65700,0,0,4,1460,0,0,0,23,33580,0,65700,0,0,0,0,0
o,0x00000000,1720647318.608857,10.0.2.15,22,10.0.2.2,52416,1073725440,17602,0,65535,65700,0,0,4,1460,0,0,4,23,33580,72,65700,0,0,0,0,0
i,0x00000000,1720647318.609511,10.0.2.15,22,10.0.2.2,52416,1073725440,17602,0,65535,65700,0,0,4,1460,0,0,4,23,33580,72,65700,0,72,0,0,0
o,0x00000000,1720647318.613608,10.0.2.15,22,10.0.2.2,52416,1073725440,17674,0,65535,65700,0,0,4,1460,0,0,4,23,33580,44,65700,0,0,0,0,0
i,0x00000000,1720647318.614143,10.0.2.15,22,10.0.2.2,52416,1073725440,17674,0,65535,65700,0,0,4,1460,0,0,4,23,33580,44,65700,0,44,0,0,0
o,0x00000000,1720647318.615241,10.0.2.15,22,10.0.2.2,52416,1073725440,17718,0,65535,65700,0,0,4,1460,0,0,4,23,33580,44,65700,0,0,0,0,0
i,0x00000000,1720647318.616266,10.0.2.15,22,10.0.2.2,52416,1073725440,17718,0,65535,65700,0,0,4,1460,0,0,4,23,33580,44,65700,0,44,0,0,0
o,0x00000000,1720647318.616788,10.0.2.15,22,10.0.2.2,52416,1073725440,17762,0,65535,65700,0,0,4,1460,0,0,4,23,33580,104,65700,0,0,0,0,0
i,0x00000000,1720647318.617219,10.0.2.15,22,10.0.2.2,52416,1073725440,17762,0,65535,65700,0,0,4,1460,0,0,4,23,33580,104,65700,0,104,0,0,0
o,0x00000000,1720647318.624539,10.0.2.15,22,10.0.2.2,52416,1073725440,17866,0,65535,65700,0,0,4,1460,0,0,4,23,33580,72,65700,0,0,0,0,0
i,0x00000000,1720647318.625800,10.0.2.15,22,10.0.2.2,52416,1073725440,17866,0,65535,65700,0,0,4,1460,0,0,4,23,33580,72,65700,0,72,0,0,0
i,0x00000000,1720647318.625903,10.0.2.15,22,10.0.2.2,52416,1073725440,17938,0,65535,65700,0,0,4,1460,0,0,4,23,33580,0,65700,0,0,0,0,0
i,0x00000000,1720647318.625905,10.0.2.15,22,10.0.2.2,52416,1073725440,17938,0,65535,65700,0,0,4,1460,0,0,4,23,33580,0,65700,96,0,0,0,0
o,0x00000000,1720647318.625909,10.0.2.15,22,10.0.2.2,52416,1073725440,17938,0,65535,65604,0,0,5,1460,0,0,5,23,33580,0,65700,96,0,0,0,0
o,0x00000000,1720647318.626745,10.0.2.15,22,10.0.2.2,52416,1073725440,17938,0,65535,65604,0,0,8,1460,0,0,4,23,33580,0,65700,0,0,0,0,0
i,0x00000000,1720647318.627449,10.0.2.15,22,10.0.2.2,52416,1073725440,17938,0,65535,65604,0,0,8,1460,0,0,20,23,33580,0,65700,0,1,0,0,0
i,0x00000000,1720647318.933676,172.16.3.2,5101,172.16.1.2,42074,1073725440,14480,0,65728,65700,6,6,4,1460,416,1,992,59,33580,0,65700,0,0,0,0,0
o,0x00000000,1720647318.933771,172.16.3.2,5101,172.16.1.2,42074,1073725440,14480,0,65728,65700,6,6,4,1460,416,1,996,59,33580,1,65700,0,0,0,0,0
i,0x00000000,1720647319.058407,172.16.3.2,5101,172.16.1.2,42074,1073725440,14480,0,65728,65700,6,6,4,1460,416,1,996,59,33580,1,65700,0,1,0,0,0
i,0x00000000,1720647319.058424,172.16.3.2,5101,172.16.1.2,42074,1073725440,14481,0,65728,65728,6,6,4,1460,416,1,996,52,33580,0,65700,4,0,0,0,0
o,0x00000000,1720647319.058432,172.16.3.2,5101,172.16.1.2,42074,1073725440,14481,0,65728,65728,6,6,4,1460,416,1,997,52,33580,0,65700,128,0,0,0,0
o,0x00000000,1720647319.058929,172.16.3.2,5101,172.16.1.2,42074,1073725440,14481,0,65728,65728,6,6,4,1460,416,1,996,52,33580,1,65700,0,0,0,0,0
o,0x00000000,1720647319.059630,10.0.2.15,22,10.0.2.2,52548,1073725440,14600,0,65535,65700,0,0,4,1460,1,0,4,24,33580,84,65700,0,0,0,0,0
i,0x00000000,1720647319.060318,10.0.2.15,22,10.0.2.2,52548,1073725440,14600,0,65535,65700,0,0,4,1460,1,0,4,24,33580,84,65700,0,84,0,0,0
i,0x00000000,1720647319.209017,172.16.3.2,5101,172.16.1.2,42074,1073725440,14481,0,65728,65728,6,6,4,1460,416,1,996,52,33580,1,65700,0,1,0,0,0
i,0x00000000,1720647319.299882,172.16.3.2,5101,172.16.1.2,28893,1073725440,14480,0,65728,65700,6,6,4,1460,384,1,992,56,33580,0,65700,0,0,0,0,0
o,0x00000000,1720647319.302816,172.16.3.2,5101,172.16.1.2,42074,1073725440,14482,0,65728,65728,6,6,4,1460,424,1,996,50,33580,1,65700,0,0,0,0,0
o,0x00000000,1720647319.302916,172.16.3.2,5101,172.16.1.2,42074,1073725440,14482,0,65728,65728,6,6,4,1460,424,1,996,50,33580,2,65700,0,1,0,0,0
o,0x00000000,1720647319.303569,10.0.2.15,22,10.0.2.2,52548,1073725440,14600,0,65535,65700,0,0,4,1460,1,0,4,24,33580,108,65700,0,0,0,0,0
i,0x00000000,1720647319.304272,10.0.2.15,22,10.0.2.2,52548,1073725440,14600,0,65535,65700,0,0,4,1460,1,0,4,24,33580,108,65700,0,108,0,0,0
o,0x00000000,1720647319.336436,172.16.3.2,5101,172.16.1.2,28893,1073725440,14480,0,65728,65700,6,6,4,1460,384,1,993,56,33580,0,65700,0,0,0,0,0
i,0x00000000,1720647319.418594,172.16.3.2,5101,172.16.1.2,42074,1073725440,14482,0,65728,65728,6,6,4,1460,424,1,996,50,33580,2,65700,0,2,0,0,0
i,0x00000000,1720647319.526712,172.16.3.2,5101,172.16.1.2,28893,1073725440,14480,0,65728,65700,6,6,4,1460,384,1,992,56,33580,0,65700,0,0,0,0,0
i,0x00000000,1720647319.536841,172.16.3.2,5101,172.16.1.2,28893,1073725440,14480,0,65728,65700,6,6,4,1460,384,1,992,56,33580,0,65700,0,0,0,0,0
o,0x00000000,1720647319.536853,172.16.3.2,5101,172.16.1.2,28893,1073725440,14480,0,65728,65700,6,6,4,1460,384,1,993,56,33580,0,65700,1448,0,0,0,0
i,0x00000000,1720647319.539005,172.16.3.2,5101,172.16.1.2,28893,1073725440,14480,0,65728,65700,6,6,4,1460,384,1,992,56,33580,0,65700,0,0,0,0,0
i,0x00000000,1720647319.549172,172.16.3.2,5101,172.16.1.2,28893,1073725440,14480,0,65728,65700,6,6,4,1460,384,1,992,56,33580,0,65700,0,0,0,0,0
o,0x00000000,1720647319.549180,172.16.3.2,5101,172.16.1.2,28893,1073725440,14480,0,65728,65700,6,6,4,1460,384,1,993,56,33580,0,65700,1448,0,0,0,0
i,0x00000000,1720647319.578504,172.16.3.2,5101,172.16.1.2,28893,1073725440,14480,0,65728,65700,6,6,4,1460,384,1,992,56,33580,0,65700,0,0,0,0,0
i,0x00000000,1720647319.579346,172.16.3.2,5101,172.16.1.2,28893,1073725440,14480,0,65728,65700,6,6,4,1460,384,1,992,56,33580,0,65700,0,0,0,0,0
o,0x00000000,1720647319.579357,172.16.3.2,5101,172.16.1.2,28893,1073725440,14480,0,65728,65700,6,6,4,1460,384,1,993,56,33580,0,65700,1448,0,0,0,0
i,0x00000000,1720647319.588597,172.16.3.2,5101,172.16.1.2,28893,1073725440,14480,0,65728,65700,6,6,4,1460,384,1,992,56,33580,0,65700,0,0,0,0,0
i,0x00000000,1720647319.609824,172.16.3.2,5101,172.16.1.2,28893,1073725440,14480,0,65728,65700,6,6,4,1460,384,1,992,56,33580,0,65700,0,0,0,0,0
o,0x00000000,1720647319.609832,172.16.3.2,5101,172.16.1.2,28893,1073725440,14480,0,65728,65700,6,6,4,1460,384,1,993,56,33580,0,65700,1448,0,0,0,0
i,0x00000000,1720647319.619035,172.16.3.2,5101,172.16.1.2,28893,1073725440,14480,0,65728,65700,6,6,4,1460,384,1,992,56,33580,0,65700,0,0,0,0,0
i,0x00000000,1720647319.630717,172.16.3.2,5101,172.16.1.2,28893,1073725440,14480,0,65728,65700,6,6,4,1460,384,1,992,56,33580,0,65700,0,0,0,0,0
o,0x00000000,1720647319.630723,172.16.3.2,5101,172.16.1.2,28893,1073725440,14480,0,65728,65700,6,6,4,1460,384,1,993,56,33580,0,65700,1448,0,0,0,0
i,0x00000000,1720647319.741133,172.16.3.2,5101,172.16.1.2,28893,1073725440,14480,0,65728,65700,6,6,4,1460,384,1,992,56,33580,0,65700,0,0,0,0,0
i,0x00000000,1720647319.755755,172.16.3.2,5101,172.16.1.2,28893,1073725440,14480,0,65728,65700,6,6,4,1460,384,1,992,56,33580,0,65700,0,0,0,0,0
o,0x00000000,1720647319.755765,172.16.3.2,5101,172.16.1.2,28893,1073725440,14480,0,65728,65700,6,6,4,1460,384,1,993,56,33580,0,65700,1448,0,0,0,0
i,0x00000000,1720647319.812909,172.16.3.2,5101,172.16.1.2,28893,1073725440,14480,0,65728,65700,6,6,4,1460,384,1,992,56,33580,0,65700,0,0,0,0,0
o,0x00000000,1720647319.847415,172.16.3.2,5101,172.16.1.2,28893,1073725440,14480,0,65728,65700,6,6,4,1460,384,1,993,56,33580,0,65700,0,0,0,0,0
i,0x00000000,1720647319.870241,172.16.3.2,5101,172.16.1.2,28893,1073725440,14480,0,65728,65700,6,6,4,1460,384,1,992,56,33580,0,65700,0,0,0,0,0
i,0x00000000,1720647319.880906,172.16.3.2,5101,172.16.1.2,28893,1073725440,14480,0,65728,65700,6,6,4,1460,384,1,992,56,33580,0,65700,0,0,0,0,0
o,0x00000000,1720647319.880913,172.16.3.2,5101,172.16.1.2,28893,1073725440,14480,0,65728,65700,6,6,4,1460,384,1,993,56,33580,0,65700,1448,0,0,0,0
i,0x00000000,1720647319.901864,172.16.3.2,5101,172.16.1.2,28893,1073725440,14480,0,65728,65700,6,6,4,1460,384,1,992,56,33580,0,65700,0,0,0,0,0
o,0x00000000,1720647319.936284,172.16.3.2,5101,172.16.1.2,28893,1073725440,14480,0,65728,65700,6,6,4,1460,384,1,993,56,33580,0,65700,0,0,0,0,0
i,0x00000000,1720647319.959596,172.16.3.2,5101,172.16.1.2,28893,1073725440,14480,0,65728,65700,6,6,4,1460,384,1,992,56,33580,0,65700,0,0,0,0,0
i,0x00000000,1720647319.975525,172.16.3.2,5101,172.16.1.2,28893,1073725440,14480,0,65728,65700,6,6,4,1460,384,1,992,56,33580,0,65700,0,0,0,0,0
o,0x00000000,1720647319.975540,172.16.3.2,5101,172.16.1.2,28893,1073725440,14480,0,65728,65700,6,6,4,1460,384,1,993,56,33580,0,65700,1448,0,0,0,0
i,0x00000000,1720647319.979323,172.16.3.2,5101,172.16.1.2,28893,1073725440,14480,0,65728,65700,6,6,4,1460,384,1,992,56,33580,0,65700,0,0,0,0,0
i,0x00000000,1720647319.995282,172.16.3.2,5101,172.16.1.2,28893,1073725440,14480,0,65728,65700,6,6,4,1460,384,1,992,56,33580,0,65700,0,0,0,0,0
o,0x00000000,1720647319.995290,172.16.3.2,5101,172.16.1.2,28893,1073725440,14480,0,65728,65700,6,6,4,1460,384,1,993,56,33580,0,65700,1448,0,0,0,0
i,0x00000000,1720647320.008548,172.16.3.2,5101,172.16.1.2,28893,1073725440,14480,0,65728,65700,6,6,4,1460,384,1,992,56,33580,0,65700,0,0,0,0,0
i,0x00000000,1720647320.026562,172.16.3.2,5101,172.16.1.2,28893,1073725440,14480,0,65728,65700,6,6,4,1460,384,1,992,56,33580,0,65700,0,0,0,0,0
o,0x00000000,1720647320.026570,172.16.3.2,5101,172.16.1.2,28893,1073725440,14480,0,65728,65700,6,6,4,1460,384,1,993,56,33580,0,65700,1448,0,0,0,0
i,0x00000000,1720647320.029390,172.16.3.2,5101,172.16.1.2,28893,1073725440,14480,0,65728,65700,6,6,4,1460,384,1,992,56,33580,0,65700,0,0,0,0,0
o,0x00000000,1720647320.066118,172.16.3.2,5101,172.16.1.2,28893,1073725440,14480,0,65728,65700,6,6,4,1460,384,1,993,56,33580,0,65700,0,0,0,0,0
i,0x00000000,1720647320.089192,172.16.3.2,5101,172.16.1.2,28893,1073725440,14480,0,65728,65700,6,6,4,1460,384,1,992,56,33580,0,65700,0,0,0,0,0
i,0x00000000,1720647320.099325,172.16.3.2,5101,172.16.1.2,28893,1073725440,14480,0,65728,65700,6,6,4,1460,384,1,992,56,33580,0,65700,0,0,0,0,0
o,0x00000000,1720647320.099332,172.16.3.2,5101,172.16.1.2,28893,1073725440,14480,0,65728,65700,6,6,4,1460,384,1,993,56,33580,0,65700,1448,0,0,0,0
i,0x00000000,1720647320.120244,172.16.3.2,5101,172.16.1.2,28893,1073725440,14480,0,65728,65700,6,6,4,1460,384,1,992,56,33580,0,65700,0,0,0,0,0
o,0x00000000,1720647320.156709,172.16.3.2,5101,172.16.1.2,28893,1073725440,14480,0,65728,65700,6,6,4,1460,384,1,993,56,33580,0,65700,0,0,0,0,0
i,0x00000000,1720647320.157912,172.16.3.2,5101,172.16.1.2,28893,1073725440,14480,0,65728,65700,6,6,4,1460,384,1,992,56,33580,0,65700,0,0,0,0,0
i,0x00000000,1720647320.169475,172.16.3.2,5101,172.16.1.2,28893,1073725440,14480,0,65728,65700,6,6,4,1460,384,1,992,56,33580,0,65700,0,0,0,0,0
o,0x00000000,1720647320.169483,172.16.3.2,5101,172.16.1.2,28893,1073725440,14480,0,65728,65700,6,6,4,1460,384,1,993,56,33580,0,65700,1448,0,0,0,0
i,0x00000000,1720647320.182504,172.16.3.2,5101,172.16.1.2,28893,1073725440,14480,0,65728,65700,6,6,4,1460,384,1,992,56,33580,0,65700,0,0,0,0,0
i,0x00000000,1720647320.193121,172.16.3.2,5101,172.16.1.2,28893,1073725440,14480,0,65728,65700,6,6,4,1460,384,1,992,56,33580,0,65700,0,0,0,0,0
o,0x00000000,1720647320.193128,172.16.3.2,5101,172.16.1.2,28893,1073725440,14480,0,65728,65700,6,6,4,1460,384,1,993,56,33580,0,65700,1448,0,0,0,0
i,0x00000000,1720647320.258141,172.16.3.2,5101,172.16.1.2,28893,1073725440,14480,0,65728,65700,6,6,4,1460,384,1,992,56,33580,0,65700,0,0,0,0,0
o,0x00000000,1720647320.296261,172.16.3.2,5101,172.16.1.2,28893,1073725440,14480,0,65728,65700,6,6,4,1460,384,1,993,56,33580,0,65700,0,0,0,0,0
o,0x00000000,1720647320.306996,10.0.2.15,22,10.0.2.2,52548,1073725440,14600,0,65535,65700,0,0,4,1460,1,0,4,24,33580,156,65700,0,0,0,0,0
i,0x00000000,1720647320.307678,10.0.2.15,22,10.0.2.2,52548,1073725440,14600,0,65535,65700,0,0,4,1460,1,0,4,24,33580,156,65700,0,156,0,0,0
i,0x00000000,1720647320.309052,172.16.3.2,5101,172.16.1.2,28893,1073725440,14480,0,65728,65700,6,6,4,1460,384,1,992,56,33580,0,65700,0,0,0,0,0
o,0x00000000,1720647320.346403,172.16.3.2,5101,172.16.1.2,28893,1073725440,14480,0,65728,65700,6,6,4,1460,384,1,993,56,33580,0,65700,0,0,0,0,0
i,0x00000000,1720647320.379940,172.16.3.2,5101,172.16.1.2,28893,1073725440,14480,0,65728,65700,6,6,4,1460,384,1,992,56,33580,0,65700,0,0,0,0,0
i,0x00000000,1720647320.388639,172.16.3.2,5101,172.16.1.2,28893,1073725440,14480,0,65728,65700,6,6,4,1460,384,1,992,56,33580,0,65700,0,0,0,0,0
o,0x00000000,1720647320.388652,172.16.3.2,5101,172.16.1.2,28893,1073725440,14480,0,65728,65700,6,6,4,1460,384,1,993,56,33580,0,65700,1448,0,0,0,0
i,0x00000000,1720647320.458175,172.16.3.2,5101,172.16.1.2,28893,1073725440,14480,0,65728,65700,6,6,4,1460,384,1,992,56,33580,0,65700,0,0,0,0,0
i,0x00000000,1720647320.468631,172.16.3.2,5101,172.16.1.2,28893,1073725440,14480,0,65728,65700,6,6,4,1460,384,1,992,56,33580,0,65700,0,0,0,0,0
o,0x00000000,1720647320.468641,172.16.3.2,5101,172.16.1.2,28893,1073725440,14480,0,65728,65700,6,6,4,1460,384,1,993,56,33580,0,65700,1448,0,0,0,0
i,0x00000000,1720647320.520638,172.16.3.2,5101,172.16.1.2,28893,1073725440,14480,0,65728,65700,6,6,4,1460,384,1,992,56,33580,0,65700,0,0,0,0,0
o,0x00000000,1720647320.520722,172.16.3.2,5101,172.16.1.2,28893,1073725440,14480,0,65728,65700,6,6,4,1460,384,1,993,56,33580,0,65700,0,0,1,0,0
i,0x00000000,1720647320.535337,172.16.3.2,5101,172.16.1.2,28893,1073725440,14480,0,65728,65700,6,6,4,1460,384,1,992,56,33580,0,65700,0,0,1,0,0
o,0x00000000,1720647320.535348,172.16.3.2,5101,172.16.1.2,28893,1073725440,14480,0,65728,65728,6,6,4,1460,384,1,993,56,33580,0,65700,0,0,1,0,0
i,0x00000000,1720647320.570316,172.16.3.2,5101,172.16.1.2,28893,1073725440,14480,0,65728,65728,6,6,4,1460,384,1,992,56,33580,0,65700,0,0,1,0,0
o,0x00000000,1720647320.570328,172.16.3.2,5101,172.16.1.2,28893,1073725440,14480,0,65728,65728,6,6,4,1460,384,1,993,56,33580,0,65700,0,0,1,0,0
i,0x00000000,1720647320.621271,172.16.3.2,5101,172.16.1.2,28893,1073725440,14480,0,65728,65728,6,6,4,1460,384,1,992,56,33580,0,65700,0,0,1,0,0
o,0x00000000,1720647320.621283,172.16.3.2,5101,172.16.1.2,28893,1073725440,14480,0,65728,65728,6,6,4,1460,384,1,993,56,33580,0,65700,0,0,1,0,0
i,0x00000000,1720647320.628894,172.16.3.2,5101,172.16.1.2,28893,1073725440,14480,0,65728,65728,6,6,4,1460,384,1,992,56,33580,0,65700,0,0,1,0,0
o,0x00000000,1720647320.628901,172.16.3.2,5101,172.16.1.2,28893,1073725440,14480,0,65728,65728,6,6,4,1460,384,1,993,56,33580,0,65700,0,0,1,0,0
i,0x00000000,1720647320.668588,172.16.3.2,5101,172.16.1.2,28893,1073725440,14480,0,65728,65728,6,6,4,1460,384,1,992,56,33580,0,65700,0,0,1,0,0
o,0x00000000,1720647320.668595,172.16.3.2,5101,172.16.1.2,28893,1073725440,14480,0,65728,65728,6,6,4,1460,384,1,993,56,33580,0,65700,0,0,1,0,0
i,0x00000000,1720647320.680557,172.16.3.2,5101,172.16.1.2,28893,1073725440,14480,0,65728,65728,6,6,4,1460,384,1,992,56,33580,0,65700,0,0,1,0,0
o,0x00000000,1720647320.680562,172.16.3.2,5101,172.16.1.2,28893,1073725440,14480,0,65728,65728,6,6,4,1460,384,1,993,56,33580,0,65700,0,0,2,0,0
i,0x00000000,1720647320.691187,172.16.3.2,5101,172.16.1.2,28893,1073725440,14480,0,65728,65728,6,6,4,1460,384,1,992,56,33580,0,65700,0,0,2,0,0
o,0x00000000,1720647320.691192,172.16.3.2,5101,172.16.1.2,28893,1073725440,14480,0,65728,65728,6,6,4,1460,384,1,993,56,33580,0,65700,0,0,2,0,0
i,0x00000000,1720647320.698697,172.16.3.2,5101,172.16.1.2,28893,1073725440,14480,0,65728,65728,6,6,4,1460,384,1,992,56,33580,0,65700,0,0,2,0,0
o,0x00000000,1720647320.698702,172.16.3.2,5101,172.16.1.2,28893,1073725440,14480,0,65728,65728,6,6,4,1460,384,1,993,56,33580,0,65700,0,0,2,0,0
i,0x00000000,1720647320.721948,172.16.3.2,5101,172.16.1.2,28893,1073725440,14480,0,65728,65728,6,6,4,1460,384,1,992,56,33580,0,65700,0,0,2,0,0
o,0x00000000,1720647320.721953,172.16.3.2,5101,172.16.1.2,28893,1073725440,14480,0,65728,65728,6,6,4,1460,384,1,993,56,33580,0,65700,0,0,3,0,0
i,0x00000000,1720647320.742975,172.16.3.2,5101,172.16.1.2,28893,1073725440,14480,0,65728,65728,6,6,4,1460,384,1,992,56,33580,0,65700,0,0,3,0,0
o,0x00000000,1720647320.742981,172.16.3.2,5101,172.16.1.2,28893,1073725440,14480,0,65728,65728,6,6,4,1460,384,1,993,56,33580,0,65700,0,0,3,0,0
i,0x00000000,1720647320.763546,172.16.3.2,5101,172.16.1.2,28893,1073725440,14480,0,65728,65728,6,6,4,1460,384,1,992,56,33580,0,65700,0,0,3,0,0
o,0x00000000,1720647320.763554,172.16.3.2,5101,172.16.1.2,28893,1073725440,14480,0,65728,65728,6,6,4,1460,384,1,993,56,33580,0,65700,0,0,4,0,0
i,0x00000000,1720647320.784705,172.16.3.2,5101,172.16.1.2,28893,1073725440,14480,0,65728,65728,6,6,4,1460,384,1,992,56,33580,0,65700,0,0,4,0,0
o,0x00000000,1720647320.784719,172.16.3.2,5101,172.16.1.2,28893,1073725440,14480,0,65728,65728,6,6,4,1460,384,1,993,56,33580,0,65700,0,0,5,0,0
i,0x00000000,1720647320.789003,172.16.3.2,5101,172.16.1.2,28893,1073725440,14480,0,65728,65728,6,6,4,1460,384,1,992,56,33580,0,65700,0,0,5,0,0
o,0x00000000,1720647320.789009,172.16.3.2,5101,172.16.1.2,28893,1073725440,14480,0,65728,65728,6,6,4,1460,384,1,993,56,33580,0,65700,0,0,5,0,0
i,0x00000000,1720647320.850333,172.16.3.2,5101,172.16.1.2,28893,1073725440,14480,0,65728,65728,6,6,4,1460,384,1,992,56,33580,0,65700,0,0,5,0,0
o,0x00000000,1720647320.850341,172.16.3.2,5101,172.16.1.2,28893,1073725440,14480,0,65728,65728,6,6,4,1460,384,1,993,56,33580,0,65700,0,0,6,0,0
i,0x00000000,1720647320.858723,172.16.3.2,5101,172.16.1.2,28893,1073725440,14480,0,65728,65728,6,6,4,1460,384,1,992,56,33580,0,65700,0,0,6,0,0
o,0x00000000,1720647320.858728,172.16.3.2,5101,172.16.1.2,28893,1073725440,14480,0,65728,65728,6,6,4,1460,384,1,993,56,33580,0,65700,0,0,7,0,0
i,0x00000000,1720647320.888043,172.16.3.2,5101,172.16.1.2,28893,1073725440,14480,0,65728,65728,6,6,4,1460,384,1,992,56,33580,0,65700,0,0,7,0,0
o,0x00000000,1720647320.888050,172.16.3.2,5101,172.16.1.2,28893,1073725440,14480,0,65728,65728,6,6,4,1460,384,1,993,56,33580,0,65700,0,0,7,0,0
i,0x00000000,1720647320.898496,172.16.3.2,5101,172.16.1.2,28893,1073725440,14480,0,65728,65728,6,6,4,1460,384,1,992,56,33580,0,65700,0,0,7,0,0
o,0x00000000,1720647320.898501,172.16.3.2,5101,172.16.1.2,28893,1073725440,14480,0,65728,65728,6,6,4,1460,384,1,993,56,33580,0,65700,0,0,8,0,0
i,0x00000000,1720647320.908844,172.16.3.2,5101,172.16.1.2,28893,1073725440,14480,0,65728,65728,6,6,4,1460,384,1,992,56,33580,0,65700,0,0,8,0,0
o,0x00000000,1720647320.908850,172.16.3.2,5101,172.16.1.2,28893,1073725440,14480,0,65728,65728,6,6,4,1460,384,1,993,56,33580,0,65700,0,0,9,0,0
i,0x00000000,1720647320.919290,172.16.3.2,5101,172.16.1.2,28893,1073725440,14480,0,65728,65728,6,6,4,1460,384,1,992,56,33580,0,65700,0,0,9,0,0
o,0x00000000,1720647320.919295,172.16.3.2,5101,172.16.1.2,28893,1073725440,14480,0,65728,65728,6,6,4,1460,384,1,993,56,33580,0,65700,0,0,10,0,0
i,0x00000000,1720647320.992646,172.16.3.2,5101,172.16.1.2,28893,1073725440,14480,0,65728,65728,6,6,4,1460,384,1,992,56,33580,0,65700,0,0,10,0,0
o,0x00000000,1720647320.992662,172.16.3.2,5101,172.16.1.2,28893,1073725440,14480,0,65728,65728,6,6,4,1460,384,1,993,56,33580,0,65700,0,0,9,0,0
i,0x00000000,1720647320.998584,172.16.3.2,5101,172.16.1.2,28893,1073725440,14480,0,65728,65728,6,6,4,1460,384,1,992,56,33580,0,65700,0,0,9,0,0
o,0x00000000,1720647320.998590,172.16.3.2,5101,172.16.1.2,28893,1073725440,14480,0,65728,65728,6,6,4,1460,384,1,993,56,33580,0,65700,0,0,9,0,0
i,0x00000000,1720647321.158518,172.16.3.2,5101,172.16.1.2,28893,1073725440,14480,0,65728,65728,6,6,4,1460,384,1,992,56,33580,0,65700,0,0,9,0,0
o,0x00000000,1720647321.158536,172.16.3.2,5101,172.16.1.2,28893,1073725440,14480,0,65728,65728,6,6,4,1460,384,1,993,56,33580,0,65700,0,0,8,0,0
i,0x00000000,1720647321.168414,172.16.3.2,5101,172.16.1.2,28893,1073725440,14480,0,65728,65728,6,6,4,1460,384,1,992,56,33580,0,65700,0,0,8,0,0
o,0x00000000,1720647321.168421,172.16.3.2,5101,172.16.1.2,28893,1073725440,14480,0,65728,65728,6,6,4,1460,384,1,993,56,33580,0,65700,0,0,8,0,0
i,0x00000000,1720647321.178303,172.16.3.2,5101,172.16.1.2,28893,1073725440,14480,0,65728,65728,6,6,4,1460,384,1,992,56,33580,0,65700,0,0,8,0,0
o,0x00000000,1720647321.178310,172.16.3.2,5101,172.16.1.2,28893,1073725440,14480,0,65728,65728,6,6,4,1460,384,1,993,56,33580,0,65700,0,0,7,0,0
i,0x00000000,1720647321.189506,172.16.3.2,5101,172.16.1.2,28893,1073725440,14480,0,65728,65728,6,6,4,1460,384,1,992,56,33580,0,65700,0,0,7,0,0
o,0x00000000,1720647321.189512,172.16.3.2,5101,172.16.1.2,28893,1073725440,14480,0,65728,65728,6,6,4,1460,384,1,993,56,33580,0,65700,0,0,7,0,0
i,0x00000000,1720647321.216714,172.16.3.2,5101,172.16.1.2,28893,1073725440,14480,0,65728,65728,6,6,4,1460,384,1,992,56,33580,0,65700,0,0,7,0,0
o,0x00000000,1720647321.216719,172.16.3.2,5101,172.16.1.2,28893,1073725440,14480,0,65728,65728,6,6,4,1460,384,1,993,56,33580,0,65700,0,0,6,0,0
i,0x00000000,1720647321.241767,172.16.3.2,5101,172.16.1.2,28893,1073725440,14480,0,65728,65728,6,6,4,1460,384,1,992,56,33580,0,65700,0,0,6,0,0
o,0x00000000,1720647321.241773,172.16.3.2,5101,172.16.1.2,28893,1073725440,14480,0,65728,65728,6,6,4,1460,384,1,993,56,33580,0,65700,0,0,6,0,0
i,0x00000000,1720647321.258731,172.16.3.2,5101,172.16.1.2,28893,1073725440,14480,0,65728,65728,6,6,4,1460,384,1,992,56,33580,0,65700,0,0,6,0,0
o,0x00000000,1720647321.258735,172.16.3.2,5101,172.16.1.2,28893,1073725440,14480,0,65728,65728,6,6,4,1460,384,1,993,56,33580,0,65700,0,0,6,0,0
i,0x00000000,1720647321.283759,172.16.3.2,5101,172.16.1.2,28893,1073725440,14480,0,65728,65728,6,6,4,1460,384,1,992,56,33580,0,65700,0,0,6,0,0
o,0x00000000,1720647321.283764,172.16.3.2,5101,172.16.1.2,28893,1073725440,14480,0,65728,65728,6,6,4,1460,384,1,993,56,33580,0,65700,0,0,6,0,0
i,0x00000000,1720647321.298127,172.16.3.2,5101,172.16.1.2,28893,1073725440,14480,0,65728,65728,6,6,4,1460,384,1,992,56,33580,0,65700,0,0,6,0,0
o,0x00000000,1720647321.298133,172.16.3.2,5101,172.16.1.2,28893,1073725440,14480,0,65728,65728,6,6,4,1460,384,1,993,56,33580,0,65700,0,0,6,0,0
i,0x00000000,1720647321.308377,172.16.3.2,5101,172.16.1.2,28893,1073725440,14480,0,65728,65728,6,6,4,1460,384,1,992,56,33580,0,65700,0,0,6,0,0
o,0x00000000,1720647321.308382,172.16.3.2,5101,172.16.1.2,28893,1073725440,14480,0,65728,65728,6,6,4,1460,384,1,993,56,33580,0,65700,0,0,6,0,0
o,0x00000000,1720647321.316336,10.0.2.15,22,10.0.2.2,52548,1073725440,14600,0,65535,65700,0,0,4,1460,1,0,4,24,33580,108,65700,0,0,0,0,0
i,0x00000000,1720647321.317005,10.0.2.15,22,10.0.2.2,52548,1073725440,14600,0,65535,65700,0,0,4,1460,1,0,4,24,33580,108,65700,0,108,0,0,0
i,0x00000000,1720647321.322292,172.16.3.2,5101,172.16.1.2,28893,1073725440,14480,0,65728,65728,6,6,4,1460,384,1,992,56,33580,0,65700,0,0,6,0,0
o,0x00000000,1720647321.322297,172.16.3.2,5101,172.16.1.2,28893,1073725440,14480,0,65728,65728,6,6,4,1460,384,1,993,56,33580,0,65700,0,0,6,0,0
i,0x00000000,1720647321.328181,172.16.3.2,5101,172.16.1.2,28893,1073725440,14480,0,65728,65728,6,6,4,1460,384,1,992,56,33580,0,65700,0,0,6,0,0
o,0x00000000,1720647321.328186,172.16.3.2,5101,172.16.1.2,28893,1073725440,14480,0,65728,65728,6,6,4,1460,384,1,993,56,33580,0,65700,0,0,6,0,0
i,0x00000000,1720647321.357176,172.16.3.2,5101,172.16.1.2,28893,1073725440,14480,0,65728,65728,6,6,4,1460,384,1,992,56,33580,0,65700,0,0,6,0,0
o,0x00000000,1720647321.357207,172.16.3.2,5101,172.16.1.2,28893,1073725440,14480,0,65728,65728,6,6,4,1460,384,1,993,56,33580,0,65700,0,0,6,0,0
i,0x00000000,1720647321.358259,172.16.3.2,5101,172.16.1.2,28893,1073725440,14480,0,65728,65728,6,6,4,1460,384,1,992,56,33580,0,65700,0,0,6,0,0
o,0x00000000,1720647321.358264,172.16.3.2,5101,172.16.1.2,28893,1073725440,14480,0,65728,65728,6,6,4,1460,384,1,993,56,33580,0,65700,0,0,6,0,0
i,0x00000000,1720647321.369122,172.16.3.2,5101,172.16.1.2,28893,1073725440,14480,0,65728,65728,6,6,4,1460,384,1,992,56,33580,0,65700,0,0,6,0,0
o,0x00000000,1720647321.369131,172.16.3.2,5101,172.16.1.2,28893,1073725440,14480,0,65728,65728,6,6,4,1460,384,1,993,56,33580,0,65700,0,0,6,0,0
i,0x00000000,1720647321.388800,172.16.3.2,5101,172.16.1.2,28893,1073725440,14480,0,65728,65728,6,6,4,1460,384,1,992,56,33580,0,65700,0,0,6,0,0
o,0x00000000,1720647321.388807,172.16.3.2,5101,172.16.1.2,28893,1073725440,14480,0,65728,65728,6,6,4,1460,384,1,993,56,33580,0,65700,0,0,5,0,0
i,0x00000000,1720647322.039473,172.16.3.2,5101,172.16.1.2,28893,1073725440,14480,0,65728,65728,6,6,4,1460,384,1,992,56,33580,0,65700,0,0,5,0,0
o,0x00000000,1720647322.039495,172.16.3.2,5101,172.16.1.2,28893,1073725440,14480,0,65728,65728,6,6,4,1460,384,1,993,56,33580,0,65700,10136,0,4,0,0
i,0x00000000,1720647322.178121,172.16.3.2,5101,172.16.1.2,28893,1073725440,14480,0,65728,65728,6,6,4,1460,384,1,992,56,33580,0,65700,0,0,4,0,0
o,0x00000000,1720647322.178146,172.16.3.2,5101,172.16.1.2,28893,1073725440,14480,0,65728,65700,6,6,4,1460,384,1,993,56,33580,0,65700,5792,0,3,0,0
i,0x00000000,1720647322.188532,172.16.3.2,5101,172.16.1.2,28893,1073725440,14480,0,65728,65700,6,6,4,1460,384,1,992,56,33580,0,65700,0,0,3,0,0
o,0x00000000,1720647322.188538,172.16.3.2,5101,172.16.1.2,28893,1073725440,14480,0,65728,65700,6,6,4,1460,384,1,993,56,33580,0,65700,0,0,3,0,0
o,0x00000000,1720647322.317001,10.0.2.15,22,10.0.2.2,52548,1073725440,14600,0,65535,65700,0,0,4,1460,1,0,4,24,33580,108,65700,0,0,0,0,0
i,0x00000000,1720647322.317857,10.0.2.15,22,10.0.2.2,52548,1073725440,14600,0,65535,65700,0,0,4,1460,1,0,4,24,33580,108,65700,0,108,0,0,0
i,0x00000000,1720647322.320120,172.16.3.2,5101,172.16.1.2,28893,1073725440,14480,0,65728,65700,6,6,4,1460,384,1,992,56,33580,0,65700,0,0,3,0,0
o,0x00000000,1720647322.320134,172.16.3.2,5101,172.16.1.2,28893,1073725440,14480,0,65728,65728,6,6,4,1460,384,1,993,56,33580,0,65700,4344,0,2,0,0
i,0x00000000,1720647322.327712,172.16.3.2,5101,172.16.1.2,28893,1073725440,14480,0,65728,65728,6,6,4,1460,384,1,992,56,33580,0,65700,0,0,2,0,0
o,0x00000000,1720647322.327719,172.16.3.2,5101,172.16.1.2,28893,1073725440,14480,0,65728,65700,6,6,4,1460,384,1,993,56,33580,0,65700,0,0,2,0,0
i,0x00000000,1720647322.460516,172.16.3.2,5101,172.16.1.2,28893,1073725440,14480,0,65728,65700,6,6,4,1460,384,1,992,56,33580,0,65700,0,0,2,0,0
o,0x00000000,1720647322.460558,172.16.3.2,5101,172.16.1.2,28893,1073725440,14480,0,65728,65728,6,6,4,1460,384,1,993,56,33580,0,65700,2896,0,1,0,0
i,0x00000000,1720647322.467828,172.16.3.2,5101,172.16.1.2,28893,1073725440,14480,0,65728,65728,6,6,4,1460,384,1,992,56,33580,0,65700,0,0,1,0,0
o,0x00000000,1720647322.467835,172.16.3.2,5101,172.16.1.2,28893,1073725440,14480,0,65728,65700,6,6,4,1460,384,1,993,56,33580,0,65700,0,0,1,0,0
i,0x00000000,1720647322.606259,172.16.3.2,5101,172.16.1.2,28893,1073725440,14480,0,65728,65700,6,6,4,1460,384,1,992,56,33580,0,65700,0,0,1,0,0
o,0x00000000,1720647322.606279,172.16.3.2,5101,172.16.1.2,28893,1073725440,14480,0,65728,65728,6,6,4,1460,384,1,993,56,33580,0,65700,1448,0,1,0,0
i,0x00000000,1720647322.607881,172.16.3.2,5101,172.16.1.2,28893,1073725440,14480,0,65728,65728,6,6,4,1460,384,1,992,56,33580,0,65700,0,0,1,0,0
o,0x00000000,1720647322.607893,172.16.3.2,5101,172.16.1.2,28893,1073725440,14480,0,65728,65700,6,6,4,1460,384,1,993,56,33580,0,65700,39096,0,0,0,0
o,0x00000000,1720647322.608032,172.16.3.2,5101,172.16.1.2,28893,1073725440,14480,0,65728,65700,6,6,4,1460,384,1,992,56,33580,0,65700,0,0,0,0,0
i,0x00000000,1720647322.788389,172.16.3.2,5101,172.16.1.2,28893,1073725440,14480,0,65728,65700,6,6,4,1460,384,1,992,56,33580,0,65700,0,0,0,0,0
o,0x00000000,1720647322.788407,172.16.3.2,5101,172.16.1.2,28893,1073725440,14480,0,65728,65728,6,6,4,1460,384,1,993,56,33580,0,65700,0,0,0,0,0
i,0x00000000,1720647322.803736,172.16.3.2,5101,172.16.1.2,28893,1073725440,14480,0,65728,65728,6,6,4,1460,384,1,992,56,33580,0,65700,0,0,0,0,0
o,0x00000000,1720647322.803748,172.16.3.2,5101,172.16.1.2,28893,1073725440,14480,0,65728,65728,6,6,4,1460,384,1,993,56,33580,0,65700,0,0,0,0,0
i,0x00000000,1720647322.814405,172.16.3.2,5101,172.16.1.2,28893,1073725440,14480,0,65728,65728,6,6,4,1460,384,1,992,56,33580,0,65700,0,0,0,0,0
o,0x00000000,1720647322.814430,172.16.3.2,5101,172.16.1.2,28893,1073725440,14480,0,65728,65728,6,6,4,1460,384,1,993,56,33580,0,65700,0,0,0,0,0
i,0x00000000,1720647322.827480,172.16.3.2,5101,172.16.1.2,28893,1073725440,14480,0,65728,65728,6,6,4,1460,384,1,992,56,33580,0,65700,0,0,0,0,0
o,0x00000000,1720647322.827566,172.16.3.2,5101,172.16.1.2,28893,1073725440,14480,0,65728,65728,6,6,4,1460,384,1,993,56,33580,0,65700,0,0,0,0,0
i,0x00000000,1720647322.838565,172.16.3.2,5101,172.16.1.2,28893,1073725440,14480,0,65728,65728,6,6,4,1460,384,1,992,56,33580,0,65700,0,0,0,0,0
i,0x00000000,1720647322.855777,172.16.3.2,5101,172.16.1.2,28893,1073725440,14480,0,65728,65728,6,6,4,1460,384,1,992,56,33580,0,65700,0,0,0,0,0
o,0x00000000,1720647322.855783,172.16.3.2,5101,172.16.1.2,28893,1073725440,14480,0,65728,65728,6,6,4,1460,384,1,993,56,33580,0,65700,1448,0,0,0,0
i,0x00000000,1720647322.857452,172.16.3.2,5101,172.16.1.2,28893,1073725440,14480,0,65728,65728,6,6,4,1460,384,1,992,56,33580,0,65700,0,0,0,0,0
o,0x00000000,1720647322.897124,172.16.3.2,5101,172.16.1.2,28893,1073725440,14480,0,65728,65728,6,6,4,1460,384,1,993,56,33580,0,65700,0,0,0,0,0
i,0x00000000,1720647322.957353,172.16.3.2,5101,172.16.1.2,28893,1073725440,14480,0,65728,65728,6,6,4,1460,384,1,992,56,33580,0,65700,0,0,0,0,0
i,0x00000000,1720647322.981186,172.16.3.2,5101,172.16.1.2,28893,1073725440,14480,0,65728,65728,6,6,4,1460,384,1,992,56,33580,0,65700,0,0,0,0,0
o,0x00000000,1720647322.981203,172.16.3.2,5101,172.16.1.2,28893,1073725440,14480,0,65728,65728,6,6,4,1460,384,1,993,56,33580,0,65700,1448,0,0,0,0
i,0x00000000,1720647322.987520,172.16.3.2,5101,172.16.1.2,28893,1073725440,14480,0,65728,65728,6,6,4,1460,384,1,992,56,33580,0,65700,0,0,0,0,0
o,0x00000000,1720647323.026686,172.16.3.2,5101,172.16.1.2,28893,1073725440,14480,0,65728,65728,6,6,4,1460,384,1,993,56,33580,0,65700,0,0,0,0,0
i,0x00000000,1720647323.043233,172.16.3.2,5101,172.16.1.2,28893,1073725440,14480,0,65728,65728,6,6,4,1460,384,1,992,56,33580,0,65700,0,0,0,0,0
i,0x00000000,1720647323.053443,172.16.3.2,5101,172.16.1.2,28893,1073725440,14480,0,65728,65728,6,6,4,1460,384,1,992,56,33580,0,65700,0,0,0,0,0
o,0x00000000,1720647323.053470,172.16.3.2,5101,172.16.1.2,28893,1073725440,14480,0,65728,65728,6,6,4,1460,384,1,993,56,33580,0,65700,1448,0,0,0,0
i,0x00000000,1720647323.147468,172.16.3.2,5101,172.16.1.2,28893,1073725440,14480,0,65728,65728,6,6,4,1460,384,1,992,56,33580,0,65700,0,0,0,0,0
i,0x00000000,1720647323.157454,172.16.3.2,5101,172.16.1.2,28893,1073725440,14480,0,65728,65728,6,6,4,1460,384,1,992,56,33580,0,65700,0,0,0,0,0
o,0x00000000,1720647323.157473,172.16.3.2,5101,172.16.1.2,28893,1073725440,14480,0,65728,65728,6,6,4,1460,384,1,993,56,33580,0,65700,1448,0,0,0,0
i,0x00000000,1720647323.167963,172.16.3.2,5101,172.16.1.2,28893,1073725440,14480,0,65728,65728,6,6,4,1460,384,1,992,56,33580,0,65700,0,0,0,0,0
o,0x00000000,1720647323.206207,172.16.3.2,5101,172.16.1.2,28893,1073725440,14480,0,65728,65728,6,6,4,1460,384,1,993,56,33580,0,65700,0,0,0,0,0
i,0x00000000,1720647323.219621,172.16.3.2,5101,172.16.1.2,28893,1073725440,14480,0,65728,65728,6,6,4,1460,384,1,992,56,33580,0,65700,0,0,0,0,0
i,0x00000000,1720647323.230177,172.16.3.2,5101,172.16.1.2,28893,1073725440,14480,0,65728,65728,6,6,4,1460,384,1,992,56,33580,0,65700,0,0,0,0,0
o,0x00000000,1720647323.230188,172.16.3.2,5101,172.16.1.2,28893,1073725440,14480,0,65728,65728,6,6,4,1460,384,1,993,56,33580,0,65700,1448,0,0,0,0
i,0x00000000,1720647323.247461,172.16.3.2,5101,172.16.1.2,28893,1073725440,14480,0,65728,65728,6,6,4,1460,384,1,992,56,33580,0,65700,0,0,0,0,0
i,0x00000000,1720647323.257601,172.16.3.2,5101,172.16.1.2,28893,1073725440,14480,0,65728,65728,6,6,4,1460,384,1,992,56,33580,0,65700,0,0,0,0,0
o,0x00000000,1720647323.257608,172.16.3.2,5101,172.16.1.2,28893,1073725440,14480,0,65728,65728,6,6,4,1460,384,1,993,56,33580,0,65700,1448,0,0,0,0
i,0x00000000,1720647323.271577,172.16.3.2,5101,172.16.1.2,28893,1073725440,14480,0,65728,65728,6,6,4,1460,384,1,992,56,33580,0,65700,0,0,0,0,0
o,0x00000000,1720647323.306485,172.16.3.2,5101,172.16.1.2,28893,1073725440,14480,0,65728,65728,6,6,4,1460,384,1,993,56,33580,0,65700,0,0,0,0,0
o,0x00000000,1720647323.316870,10.0.2.15,22,10.0.2.2,52548,1073725440,14600,0,65535,65700,0,0,4,1460,1,0,4,24,33580,108,65700,0,0,0,0,0
i,0x00000000,1720647323.317589,10.0.2.15,22,10.0.2.2,52548,1073725440,14600,0,65535,65700,0,0,4,1460,1,0,4,24,33580,108,65700,0,108,0,0,0
i,0x00000000,1720647323.323370,172.16.3.2,5101,172.16.1.2,28893,1073725440,14480,0,65728,65728,6,6,4,1460,384,1,992,56,33580,0,65700,0,0,0,0,0
i,0x00000000,1720647323.338174,172.16.3.2,5101,172.16.1.2,28893,1073725440,14480,0,65728,65728,6,6,4,1460,384,1,992,56,33580,0,65700,0,0,0,0,0
o,0x00000000,1720647323.338186,172.16.3.2,5101,172.16.1.2,28893,1073725440,14480,0,65728,65728,6,6,4,1460,384,1,993,56,33580,0,65700,1448,0,0,0,0
i,0x00000000,1720647323.377937,172.16.3.2,5101,172.16.1.2,28893,1073725440,14480,0,65728,65728,6,6,4,1460,384,1,992,56,33580,0,65700,0,0,0,0,0
i,0x00000000,1720647323.396707,172.16.3.2,5101,172.16.1.2,28893,1073725440,14480,0,65728,65728,6,6,4,1460,384,1,992,56,33580,0,65700,0,0,0,0,0
o,0x00000000,1720647323.396720,172.16.3.2,5101,172.16.1.2,28893,1073725440,14480,0,65728,65728,6,6,4,1460,384,1,993,56,33580,0,65700,1448,0,0,0,0
i,0x00000000,1720647323.427643,172.16.3.2,5101,172.16.1.2,28893,1073725440,14480,0,65728,65728,6,6,4,1460,384,1,992,56,33580,0,65700,0,0,0,0,0
o,0x00000000,1720647323.467053,172.16.3.2,5101,172.16.1.2,28893,1073725440,14480,0,65728,65728,6,6,4,1460,384,1,993,56,33580,0,65700,0,0,0,0,0
i,0x00000000,1720647323.468391,172.16.3.2,5101,172.16.1.2,28893,1073725440,14480,0,65728,65728,6,6,4,1460,384,1,992,56,33580,0,65700,0,0,0,0,0
i,0x00000000,1720647323.468953,172.16.3.2,5101,172.16.1.2,28893,1073725440,14480,0,65728,65728,6,6,4,1460,384,1,992,56,33580,0,65700,0,0,0,0,0
o,0x00000000,1720647323.468959,172.16.3.2,5101,172.16.1.2,28893,1073725440,14480,0,65728,65728,6,6,4,1460,384,1,993,56,33580,0,65700,1448,0,0,0,0
i,0x00000000,1720647323.500859,172.16.3.2,5101,172.16.1.2,28893,1073725440,14480,0,65728,65728,6,6,4,1460,384,1,992,56,33580,0,65700,0,0,0,0,0
i,0x00000000,1720647323.511952,172.16.3.2,5101,172.16.1.2,28893,1073725440,14480,0,65728,65728,6,6,4,1460,384,1,992,56,33580,0,65700,0,0,0,0,0
o,0x00000000,1720647323.511988,172.16.3.2,5101,172.16.1.2,28893,1073725440,14480,0,65728,65728,6,6,4,1460,384,1,993,56,33580,0,65700,1448,0,0,0,0
i,0x00000000,1720647323.562991,172.16.3.2,5101,172.16.1.2,28893,1073725440,14480,0,65728,65728,6,6,4,1460,384,1,992,56,33580,0,65700,0,0,0,0,0
i,0x00000000,1720647323.581770,172.16.3.2,5101,172.16.1.2,28893,1073725440,14480,0,65728,65728,6,6,4,1460,384,1,992,56,33580,0,65700,0,0,0,0,0
o,0x00000000,1720647323.581787,172.16.3.2,5101,172.16.1.2,28893,1073725440,14480,0,65728,65728,6,6,4,1460,384,1,993,56,33580,0,65700,1448,0,0,0,0
i,0x00000000,1720647323.587631,172.16.3.2,5101,172.16.1.2,28893,1073725440,14480,0,65728,65728,6,6,4,1460,384,1,992,56,33580,0,65700,0,0,0,0,0
o,0x00000000,1720647323.626447,172.16.3.2,5101,172.16.1.2,28893,1073725440,14480,0,65728,65728,6,6,4,1460,384,1,993,56,33580,0,65700,0,0,0,0,0
i,0x00000000,1720647323.638483,172.16.3.2,5101,172.16.1.2,28893,1073725440,14480,0,65728,65728,6,6,4,1460,384,1,992,56,33580,0,65700,0,0,0,0,0
i,0x00000000,1720647323.647779,172.16.3.2,5101,172.16.1.2,28893,1073725440,14480,0,65728,65728,6,6,4,1460,384,1,992,56,33580,0,65700,0,0,0,0,0
o,0x00000000,1720647323.647790,172.16.3.2,5101,172.16.1.2,28893,1073725440,14480,0,65728,65728,6,6,4,1460,384,1,993,56,33580,0,65700,1448,0,0,0,0
i,0x00000000,1720647323.688188,172.16.3.2,5101,172.16.1.2,28893,1073725440,14480,0,65728,65728,6,6,4,1460,384,1,992,56,33580,0,65700,0,0,0,0,0
i,0x00000000,1720647323.697711,172.16.3.2,5101,172.16.1.2,28893,1073725440,14480,0,65728,65728,6,6,4,1460,384,1,992,56,33580,0,65700,0,0,0,0,0
o,0x00000000,1720647323.697719,172.16.3.2,5101,172.16.1.2,28893,1073725440,14480,0,65728,65728,6,6,4,1460,384,1,993,56,33580,0,65700,1448,0,0,0,0
i,0x00000000,1720647323.707845,172.16.3.2,5101,172.16.1.2,28893,1073725440,14480,0,65728,65728,6,6,4,1460,384,1,992,56,33580,0,65700,0,0,0,0,0
o,0x00000000,1720647323.746922,172.16.3.2,5101,172.16.1.2,28893,1073725440,14480,0,65728,65728,6,6,4,1460,384,1,993,56,33580,0,65700,0,0,0,0,0
i,0x00000000,1720647323.747971,172.16.3.2,5101,172.16.1.2,28893,1073725440,14480,0,65728,65728,6,6,4,1460,384,1,992,56,33580,0,65700,0,0,0,0,0
i,0x00000000,1720647323.759985,172.16.3.2,5101,172.16.1.2,28893,1073725440,14480,0,65728,65728,6,6,4,1460,384,1,992,56,33580,0,65700,0,0,0,0,0
o,0x00000000,1720647323.759997,172.16.3.2,5101,172.16.1.2,28893,1073725440,14480,0,65728,65728,6,6,4,1460,384,1,993,56,33580,0,65700,1448,0,0,0,0
i,0x00000000,1720647323.777051,172.16.3.2,5101,172.16.1.2,28893,1073725440,14480,0,65728,65728,6,6,4,1460,384,1,992,56,33580,0,65700,0,0,0,0,0
o,0x00000000,1720647323.816080,172.16.3.2,5101,172.16.1.2,28893,1073725440,14480,0,65728,65728,6,6,4,1460,384,1,993,56,33580,0,65700,0,0,0,0,0
i,0x00000000,1720647323.827934,172.16.3.2,5101,172.16.1.2,28893,1073725440,14480,0,65728,65728,6,6,4,1460,384,1,992,56,33580,0,65700,0,0,0,0,0
i,0x00000000,1720647323.848642,172.16.3.2,5101,172.16.1.2,28893,1073725440,14480,0,65728,65728,6,6,4,1460,384,1,992,56,33580,0,65700,0,0,0,0,0
o,0x00000000,1720647323.848653,172.16.3.2,5101,172.16.1.2,28893,1073725440,14480,0,65728,65728,6,6,4,1460,384,1,993,56,33580,0,65700,1448,0,0,0,0
i,0x00000000,1720647323.884483,172.16.3.2,5101,172.16.1.2,28893,1073725440,14480,0,65728,65728,6,6,4,1460,384,1,992,56,33580,0,65700,0,0,0,0,0
i,0x00000000,1720647323.887992,172.16.3.2,5101,172.16.1.2,28893,1073725440,14480,0,65728,65728,6,6,4,1460,384,1,992,56,33580,0,65700,0,0,0,0,0
o,0x00000000,1720647323.887999,172.16.3.2,5101,172.16.1.2,28893,1073725440,14480,0,65728,65728,6,6,4,1460,384,1,993,56,33580,0,65700,1448,0,0,0,0
i,0x00000000,1720647323.917382,172.16.3.2,5101,172.16.1.2,28893,1073725440,14480,0,65728,65728,6,6,4,1460,384,1,992,56,33580,0,65700,0,0,0,0,0
o,0x00000000,1720647323.956231,172.16.3.2,5101,172.16.1.2,28893,1073725440,14480,0,65728,65728,6,6,4,1460,384,1,993,56,33580,0,65700,0,0,0,0,0
i,0x00000000,1720647323.957543,172.16.3.2,5101,172.16.1.2,28893,1073725440,14480,0,65728,65728,6,6,4,1460,384,1,992,56,33580,0,65700,0,0,0,0,0
i,0x00000000,1720647323.967377,172.16.3.2,5101,172.16.1.2,28893,1073725440,14480,0,65728,65728,6,6,4,1460,384,1,992,56,33580,0,65700,0,0,0,0,0
o,0x00000000,1720647323.967415,172.16.3.2,5101,172.16.1.2,28893,1073725440,14480,0,65728,65728,6,6,4,1460,384,1,993,56,33580,0,65700,1448,0,0,0,0
i,0x00000000,1720647323.988071,172.16.3.2,5101,172.16.1.2,28893,1073725440,14480,0,65728,65728,6,6,4,1460,384,1,992,56,33580,0,65700,0,0,0,0,0
o,0x00000000,1720647324.027278,172.16.3.2,5101,172.16.1.2,28893,1073725440,14480,0,65728,65728,6,6,4,1460,384,1,993,56,33580,0,65700,0,0,0,0,0
i,0x00000000,1720647324.027387,172.16.3.2,5101,172.16.1.2,28893,1073725440,14480,0,65728,65728,6,6,4,1460,384,1,992,56,33580,0,65700,0,0,0,0,0
i,0x00000000,1720647324.039670,172.16.3.2,5101,172.16.1.2,28893,1073725440,14480,0,65728,65728,6,6,4,1460,384,1,992,56,33580,0,65700,0,0,0,0,0
o,0x00000000,1720647324.039680,172.16.3.2,5101,172.16.1.2,28893,1073725440,14480,0,65728,65728,6,6,4,1460,384,1,993,56,33580,0,65700,1448,0,0,0,0
i,0x00000000,1720647324.092028,172.16.3.2,5101,172.16.1.2,28893,1073725440,14480,0,65728,65728,6,6,4,1460,384,1,992,56,33580,0,65700,0,0,0,0,0
i,0x00000000,1720647324.097393,172.16.3.2,5101,172.16.1.2,28893,1073725440,14480,0,65728,65728,6,6,4,1460,384,1,992,56,33580,0,65700,0,0,0,0,0
o,0x00000000,1720647324.097409,172.16.3.2,5101,172.16.1.2,28893,1073725440,14480,0,65728,65728,6,6,4,1460,384,1,993,56,33580,0,65700,1448,0,0,0,0
i,0x00000000,1720647324.121579,172.16.3.2,5101,172.16.1.2,28893,1073725440,14480,0,65728,65728,6,6,4,1460,384,1,992,56,33580,0,65700,0,0,0,0,0
o,0x00000000,1720647324.157034,172.16.3.2,5101,172.16.1.2,28893,1073725440,14480,0,65728,65728,6,6,4,1460,384,1,993,56,33580,0,65700,0,0,0,0,0
i,0x00000000,1720647324.157389,172.16.3.2,5101,172.16.1.2,28893,1073725440,14480,0,65728,65728,6,6,4,1460,384,1,992,56,33580,0,65700,0,0,0,0,0
i,0x00000000,1720647324.183029,172.16.3.2,5101,172.16.1.2,28893,1073725440,14480,0,65728,65728,6,6,4,1460,384,1,992,56,33580,0,65700,0,0,0,0,0
o,0x00000000,1720647324.183047,172.16.3.2,5101,172.16.1.2,28893,1073725440,14480,0,65728,65728,6,6,4,1460,384,1,993,56,33580,0,65700,1448,0,0,0,0
i,0x00000000,1720647324.187586,172.16.3.2,5101,172.16.1.2,28893,1073725440,14480,0,65728,65728,6,6,4,1460,384,1,992,56,33580,0,65700,0,0,0,0,0
o,0x00000000,1720647324.226681,172.16.3.2,5101,172.16.1.2,28893,1073725440,14480,0,65728,65728,6,6,4,1460,384,1,993,56,33580,0,65700,0,0,0,0,0
i,0x00000000,1720647324.237555,172.16.3.2,5101,172.16.1.2,28893,1073725440,14480,0,65728,65728,6,6,4,1460,384,1,992,56,33580,0,65700,0,0,0,0,0
i,0x00000000,1720647324.246869,172.16.3.2,5101,172.16.1.2,28893,1073725440,14480,0,65728,65728,6,6,4,1460,384,1,992,56,33580,0,65700,0,0,0,0,0
o,0x00000000,1720647324.246876,172.16.3.2,5101,172.16.1.2,28893,1073725440,14480,0,65728,65728,6,6,4,1460,384,1,993,56,33580,0,65700,1448,0,0,0,0
i,0x00000000,1720647324.257505,172.16.3.2,5101,172.16.1.2,28893,1073725440,14480,0,65728,65728,6,6,4,1460,384,1,992,56,33580,0,65700,0,0,0,0,0
o,0x00000000,1720647324.297239,172.16.3.2,5101,172.16.1.2,28893,1073725440,14480,0,65728,65728,6,6,4,1460,384,1,993,56,33580,0,65700,0,0,0,0,0
i,0x00000000,1720647324.298309,172.16.3.2,5101,172.16.1.2,28893,1073725440,14480,0,65728,65728,6,6,4,1460,384,1,992,56,33580,0,65700,0,0,0,0,0
i,0x00000000,1720647324.307092,172.16.3.2,5101,172.16.1.2,28893,1073725440,14480,0,65728,65728,6,6,4,1460,384,1,992,56,33580,0,65700,0,0,0,0,0
o,0x00000000,1720647324.307099,172.16.3.2,5101,172.16.1.2,28893,1073725440,14480,0,65728,65728,6,6,4,1460,384,1,993,56,33580,0,65700,1448,0,0,0,0
o,0x00000000,1720647324.317167,10.0.2.15,22,10.0.2.2,52548,1073725440,14600,0,65535,65700,0,0,4,1460,1,0,4,24,33580,108,65700,0,0,0,0,0
i,0x00000000,1720647324.317899,10.0.2.15,22,10.0.2.2,52548,1073725440,14600,0,65535,65700,0,0,4,1460,1,0,4,24,33580,108,65700,0,108,0,0,0
i,0x00000000,1720647324.319617,172.16.3.2,5101,172.16.1.2,28893,1073725440,14480,0,65728,65728,6,6,4,1460,384,1,992,56,33580,0,65700,0,0,0,0,0
o,0x00000000,1720647324.355815,172.16.3.2,5101,172.16.1.2,28893,1073725440,14480,0,65728,65728,6,6,4,1460,384,1,993,56,33580,0,65700,0,0,0,0,0
i,0x00000000,1720647324.367626,172.16.3.2,5101,172.16.1.2,28893,1073725440,14480,0,65728,65728,6,6,4,1460,384,1,992,56,33580,0,65700,0,0,0,0,0
i,0x00000000,1720647324.391983,172.16.3.2,5101,172.16.1.2,28893,1073725440,14480,0,65728,65728,6,6,4,1460,384,1,992,56,33580,0,65700,0,0,0,0,0
o,0x00000000,1720647324.391998,172.16.3.2,5101,172.16.1.2,28893,1073725440,14480,0,65728,65728,6,6,4,1460,384,1,993,56,33580,0,65700,1448,0,0,0,0
i,0x00000000,1720647324.446826,172.16.3.2,5101,172.16.1.2,28893,1073725440,14480,0,65728,65728,6,6,4,1460,384,1,992,56,33580,0,65700,0,0,0,0,0
i,0x00000000,1720647324.458046,172.16.3.2,5101,172.16.1.2,28893,1073725440,14480,0,65728,65728,6,6,4,1460,384,1,992,56,33580,0,65700,0,0,0,0,0
o,0x00000000,1720647324.458063,172.16.3.2,5101,172.16.1.2,28893,1073725440,14480,0,65728,65728,6,6,4,1460,384,1,993,56,33580,0,65700,1448,0,0,0,0
i,0x00000000,1720647324.467420,172.16.3.2,5101,172.16.1.2,28893,1073725440,14480,0,65728,65728,6,6,4,1460,384,1,992,56,33580,0,65700,0,0,0,0,0
o,0x00000000,1720647324.506790,172.16.3.2,5101,172.16.1.2,28893,1073725440,14480,0,65728,65728,6,6,4,1460,384,1,993,56,33580,0,65700,0,0,0,0,0
i,0x00000000,1720647324.527507,172.16.3.2,5101,172.16.1.2,28893,1073725440,14480,0,65728,65728,6,6,4,1460,384,1,992,56,33580,0,65700,0,0,0,0,0
i,0x00000000,1720647324.528069,172.16.3.2,5101,172.16.1.2,28893,1073725440,14480,0,65728,65728,6,6,4,1460,384,1,992,56,33580,0,65700,0,0,0,0,0
o,0x00000000,1720647324.528077,172.16.3.2,5101,172.16.1.2,28893,1073725440,14480,0,65728,65728,6,6,4,1460,384,1,993,56,33580,0,65700,1448,0,0,0,0
i,0x00000000,1720647324.537374,172.16.3.2,5101,172.16.1.2,28893,1073725440,14480,0,65728,65728,6,6,4,1460,384,1,992,56,33580,0,65700,0,0,0,0,0
i,0x00000000,1720647324.568852,172.16.3.2,5101,172.16.1.2,28893,1073725440,14480,0,65728,65728,6,6,4,1460,384,1,992,56,33580,0,65700,0,0,0,0,0
o,0x00000000,1720647324.568870,172.16.3.2,5101,172.16.1.2,28893,1073725440,14480,0,65728,65728,6,6,4,1460,384,1,993,56,33580,0,65700,1448,0,0,0,0
i,0x00000000,1720647324.608496,172.16.3.2,5101,172.16.1.2,28893,1073725440,14480,0,65728,65728,6,6,4,1460,384,1,992,56,33580,0,65700,0,0,0,0,0
i,0x00000000,1720647324.617188,172.16.3.2,5101,172.16.1.2,28893,1073725440,14480,0,65728,65728,6,6,4,1460,384,1,992,56,33580,0,65700,0,0,0,0,0
o,0x00000000,1720647324.617200,172.16.3.2,5101,172.16.1.2,28893,1073725440,14480,0,65728,65728,6,6,4,1460,384,1,993,56,33580,0,65700,1448,0,0,0,0
i,0x00000000,1720647324.630958,172.16.3.2,5101,172.16.1.2,28893,1073725440,14480,0,65728,65728,6,6,4,1460,384,1,992,56,33580,0,65700,0,0,0,0,0
o,0x00000000,1720647324.667078,172.16.3.2,5101,172.16.1.2,28893,1073725440,14480,0,65728,65728,6,6,4,1460,384,1,993,56,33580,0,65700,0,0,0,0,0
i,0x00000000,1720647324.668441,172.16.3.2,5101,172.16.1.2,28893,1073725440,14480,0,65728,65728,6,6,4,1460,384,1,992,56,33580,0,65700,0,0,0,0,0
i,0x00000000,1720647324.693899,172.16.3.2,5101,172.16.1.2,28893,1073725440,14480,0,65728,65728,6,6,4,1460,384,1,992,56,33580,0,65700,0,0,0,0,0
o,0x00000000,1720647324.693906,172.16.3.2,5101,172.16.1.2,28893,1073725440,14480,0,65728,65728,6,6,4,1460,384,1,993,56,33580,0,65700,1448,0,0,0,0
i,0x00000000,1720647324.697941,172.16.3.2,5101,172.16.1.2,28893,1073725440,14480,0,65728,65728,6,6,4,1460,384,1,992,56,33580,0,65700,0,0,0,0,0
o,0x00000000,1720647324.737172,172.16.3.2,5101,172.16.1.2,28893,1073725440,14480,0,65728,65728,6,6,4,1460,384,1,993,56,33580,0,65700,0,0,0,0,0
i,0x00000000,1720647324.747248,172.16.3.2,5101,172.16.1.2,28893,1073725440,14480,0,65728,65728,6,6,4,1460,384,1,992,56,33580,0,65700,0,0,0,0,0
o,0x00000000,1720647324.787357,172.16.3.2,5101,172.16.1.2,28893,1073725440,14480,0,65728,65728,6,6,4,1460,384,1,993,56,33580,0,65700,0,0,0,0,0
i,0x00000000,1720647324.787933,172.16.3.2,5101,172.16.1.2,28893,1073725440,14480,0,65728,65728,6,6,4,1460,384,1,992,56,33580,0,65700,0,0,0,0,0
i,0x00000000,1720647324.798146,172.16.3.2,5101,172.16.1.2,28893,1073725440,14480,0,65728,65728,6,6,4,1460,384,1,992,56,33580,0,65700,0,0,0,0,0
o,0x00000000,1720647324.798154,172.16.3.2,5101,172.16.1.2,28893,1073725440,14480,0,65728,65728,6,6,4,1460,384,1,993,56,33580,0,65700,1448,0,0,0,0
i,0x00000000,1720647324.837906,172.16.3.2,5101,172.16.1.2,28893,1073725440,14480,0,65728,65728,6,6,4,1460,384,1,992,56,33580,0,65700,0,0,0,0,0
i,0x00000000,1720647324.860733,172.16.3.2,5101,172.16.1.2,28893,1073725440,14480,0,65728,65728,6,6,4,1460,384,1,992,56,33580,0,65700,0,0,0,0,0
o,0x00000000,1720647324.860747,172.16.3.2,5101,172.16.1.2,28893,1073725440,14480,0,65728,65728,6,6,4,1460,384,1,993,56,33580,0,65700,1448,0,0,0,0
i,0x00000000,1720647324.881833,172.16.3.2,5101,172.16.1.2,28893,1073725440,14480,0,65728,65728,6,6,4,1460,384,1,992,56,33580,0,65700,0,0,0,0,0
i,0x00000000,1720647324.912606,172.16.3.2,5101,172.16.1.2,28893,1073725440,14480,0,65728,65728,6,6,4,1460,384,1,992,56,33580,0,65700,0,0,0,0,0
o,0x00000000,1720647324.912619,172.16.3.2,5101,172.16.1.2,28893,1073725440,14480,0,65728,65728,6,6,4,1460,384,1,993,56,33580,0,65700,1448,0,0,0,0
i,0x00000000,1720647324.923434,172.16.3.2,5101,172.16.1.2,28893,1073725440,14480,0,65728,65728,6,6,4,1460,384,1,992,56,33580,0,65700,0,0,0,0,0
i,0x00000000,1720647324.937421,172.16.3.2,5101,172.16.1.2,28893,1073725440,14480,0,65728,65728,6,6,4,1460,384,1,992,56,33580,0,65700,0,0,0,0,0
o,0x00000000,1720647324.937431,172.16.3.2,5101,172.16.1.2,28893,1073725440,14480,0,65728,65728,6,6,4,1460,384,1,993,56,33580,0,65700,1448,0,0,0,0
i,0x00000000,1720647324.965053,172.16.3.2,5101,172.16.1.2,28893,1073725440,14480,0,65728,65728,6,6,4,1460,384,1,992,56,33580,0,65700,0,0,0,0,0
i,0x00000000,1720647324.975291,172.16.3.2,5101,172.16.1.2,28893,1073725440,14480,0,65728,65728,6,6,4,1460,384,1,992,56,33580,0,65700,0,0,0,0,0
o,0x00000000,1720647324.975299,172.16.3.2,5101,172.16.1.2,28893,1073725440,14480,0,65728,65728,6,6,4,1460,384,1,993,56,33580,0,65700,1448,0,0,0,0
i,0x00000000,1720647325.016883,172.16.3.2,5101,172.16.1.2,28893,1073725440,14480,0,65728,65728,6,6,4,1460,384,1,992,56,33580,0,65700,0,0,0,0,0
i,0x00000000,1720647325.027539,172.16.3.2,5101,172.16.1.2,28893,1073725440,14480,0,65728,65728,6,6,4,1460,384,1,992,56,33580,0,65700,0,0,0,0,0
o,0x00000000,1720647325.027547,172.16.3.2,5101,172.16.1.2,28893,1073725440,14480,0,65728,65728,6,6,4,1460,384,1,993,56,33580,0,65700,1448,0,0,0,0
i,0x00000000,1720647325.079364,172.16.3.2,5101,172.16.1.2,28893,1073725440,14480,0,65728,65728,6,6,4,1460,384,1,992,56,33580,0,65700,0,0,0,0,0
o,0x00000000,1720647325.116769,172.16.3.2,5101,172.16.1.2,28893,1073725440,14480,0,65728,65728,6,6,4,1460,384,1,993,56,33580,0,65700,0,0,0,0,0
i,0x00000000,1720647325.117748,172.16.3.2,5101,172.16.1.2,28893,1073725440,14480,0,65728,65728,6,6,4,1460,384,1,992,56,33580,0,65700,0,0,0,0,0
i,0x00000000,1720647325.142018,172.16.3.2,5101,172.16.1.2,28893,1073725440,14480,0,65728,65728,6,6,4,1460,384,1,992,56,33580,0,65700,0,0,0,0,0
o,0x00000000,1720647325.142033,172.16.3.2,5101,172.16.1.2,28893,1073725440,14480,0,65728,65728,6,6,4,1460,384,1,993,56,33580,0,65700,1448,0,0,0,0
i,0x00000000,1720647325.142298,172.16.3.2,5101,172.16.1.2,28893,1073725440,14480,0,65728,65728,6,6,4,1460,384,1,992,56,33580,0,65700,1448,0,0,0,0
i,0x00000000,1720647325.167308,172.16.3.2,5101,172.16.1.2,28893,1073725440,14480,0,65728,65728,6,6,4,1460,384,1,992,56,33580,0,65700,0,0,0,0,0
o,0x00000000,1720647325.167319,172.16.3.2,5101,172.16.1.2,28893,1073725440,14480,0,65728,65728,6,6,4,1460,384,1,993,56,33580,0,65700,1448,0,0,0,0
i,0x00000000,1720647325.196520,172.16.3.2,5101,172.16.1.2,28893,1073725440,14480,0,65728,65728,6,6,4,1460,384,1,992,56,33580,0,65700,0,0,0,0,0
i,0x00000000,1720647325.217397,172.16.3.2,5101,172.16.1.2,28893,1073725440,14480,0,65728,65728,6,6,4,1460,384,1,992,56,33580,0,65700,0,0,0,0,0
o,0x00000000,1720647325.217405,172.16.3.2,5101,172.16.1.2,28893,1073725440,14480,0,65728,65728,6,6,4,1460,384,1,993,56,33580,0,65700,1448,0,0,0,0
i,0x00000000,1720647325.226889,172.16.3.2,5101,172.16.1.2,28893,1073725440,14480,0,65728,65728,6,6,4,1460,384,1,992,56,33580,0,65700,0,0,0,0,0
i,0x00000000,1720647325.245991,172.16.3.2,5101,172.16.1.2,28893,1073725440,14480,0,65728,65728,6,6,4,1460,384,1,992,56,33580,0,65700,0,0,0,0,0
o,0x00000000,1720647325.245999,172.16.3.2,5101,172.16.1.2,28893,1073725440,14480,0,65728,65728,6,6,4,1460,384,1,993,56,33580,0,65700,1448,0,0,0,0
i,0x00000000,1720647325.281070,172.16.3.2,5101,172.16.1.2,28893,1073725440,14480,0,65728,65728,6,6,4,1460,384,1,992,56,33580,0,65700,0,0,0,0,0
i,0x00000000,1720647325.286722,172.16.3.2,5101,172.16.1.2,28893,1073725440,14480,0,65728,65728,6,6,4,1460,384,1,992,56,33580,0,65700,0,0,0,0,0
o,0x00000000,1720647325.286734,172.16.3.2,5101,172.16.1.2,28893,1073725440,14480,0,65728,65700,6,6,4,1460,384,1,993,56,33580,0,65700,0,0,1,0,0
i,0x00000000,1720647325.296705,172.16.3.2,5101,172.16.1.2,28893,1073725440,14480,0,65728,65700,6,6,4,1460,384,1,992,56,33580,0,65700,0,0,1,0,0
o,0x00000000,1720647325.296714,172.16.3.2,5101,172.16.1.2,28893,1073725440,14480,0,65728,65728,6,6,4,1460,384,1,993,56,33580,0,65700,0,0,1,0,0
o,0x00000000,1720647325.316305,10.0.2.15,22,10.0.2.2,52548,1073725440,14600,0,65535,65700,0,0,4,1460,1,0,4,24,33580,108,65700,0,0,0,0,0
i,0x00000000,1720647325.317113,10.0.2.15,22,10.0.2.2,52548,1073725440,14600,0,65535,65700,0,0,4,1460,1,0,4,24,33580,108,65700,0,108,0,0,0
i,0x00000000,1720647325.380572,172.16.3.2,5101,172.16.1.2,28893,1073725440,14480,0,65728,65728,6,6,4,1460,384,1,992,56,33580,0,65700,0,0,1,0,0
o,0x00000000,1720647325.380588,172.16.3.2,5101,172.16.1.2,28893,1073725440,14480,0,65728,65728,6,6,4,1460,384,1,993,56,33580,0,65700,0,0,1,0,0
i,0x00000000,1720647325.386869,172.16.3.2,5101,172.16.1.2,28893,1073725440,14480,0,65728,65728,6,6,4,1460,384,1,992,56,33580,0,65700,0,0,1,0,0
o,0x00000000,1720647325.386879,172.16.3.2,5101,172.16.1.2,28893,1073725440,14480,0,65728,65728,6,6,4,1460,384,1,993,56,33580,0,65700,0,0,1,0,0
i,0x00000000,1720647325.432906,172.16.3.2,5101,172.16.1.2,28893,1073725440,14480,0,65728,65728,6,6,4,1460,384,1,992,56,33580,0,65700,0,0,1,0,0
o,0x00000000,1720647325.432922,172.16.3.2,5101,172.16.1.2,28893,1073725440,14480,0,65728,65728,6,6,4,1460,384,1,993,56,33580,0,65700,0,0,1,0,0
i,0x00000000,1720647325.484598,172.16.3.2,5101,172.16.1.2,28893,1073725440,14480,0,65728,65728,6,6,4,1460,384,1,992,56,33580,0,65700,0,0,1,0,0
o,0x00000000,1720647325.484615,172.16.3.2,5101,172.16.1.2,28893,1073725440,14480,0,65728,65728,6,6,4,1460,384,1,993,56,33580,0,65700,0,0,1,0,0
i,0x00000000,1720647325.485759,172.16.3.2,5101,172.16.1.2,28893,1073725440,14480,0,65728,65728,6,6,4,1460,384,1,992,56,33580,0,65700,0,0,1,0,0
o,0x00000000,1720647325.485781,172.16.3.2,5101,172.16.1.2,28893,1073725440,14480,0,65728,65728,6,6,4,1460,384,1,993,56,33580,0,65700,0,0,1,0,0
i,0x00000000,1720647325.497438,172.16.3.2,5101,172.16.1.2,28893,1073725440,14480,0,65728,65728,6,6,4,1460,384,1,992,56,33580,0,65700,0,0,1,0,0
o,0x00000000,1720647325.497442,172.16.3.2,5101,172.16.1.2,28893,1073725440,14480,0,65728,65728,6,6,4,1460,384,1,993,56,33580,0,65700,0,0,1,0,0
i,0x00000000,1720647325.518420,172.16.3.2,5101,172.16.1.2,28893,1073725440,14480,0,65728,65728,6,6,4,1460,384,1,992,56,33580,0,65700,0,0,1,0,0
o,0x00000000,1720647325.518435,172.16.3.2,5101,172.16.1.2,28893,1073725440,14480,0,65728,65728,6,6,4,1460,384,1,993,56,33580,0,65700,0,0,1,0,0
i,0x00000000,1720647325.536596,172.16.3.2,5101,172.16.1.2,28893,1073725440,14480,0,65728,65728,6,6,4,1460,384,1,992,56,33580,0,65700,0,0,1,0,0
