enable_time_secs=1720647519	enable_time_usecs=346410	siftrver=1.2.4	hz=100	tcp_rtt_scale=32	sysname=FreeBSD	sysver=1301000	ipmode=4
o,0x00000000,1720647519.346443,10.0.2.15,22,10.0.2.2,52388,1073725440,17770,0,65535,65700,0,0,4,1460,32,0,4,23,33580,44,65700,0,0,0,0,0
o,0x00000000,1720647519.346545,10.0.2.15,22,10.0.2.2,52388,1073725440,17770,0,65535,65700,0,0,4,1460,32,0,4,23,33580,80,65700,0,44,0,0,0
i,0x00000000,1720647519.347001,10.0.2.15,22,10.0.2.2,52388,1073725440,17770,0,65535,65700,0,0,4,1460,32,0,4,23,33580,80,65700,0,80,0,0,0
i,0x00000000,1720647519.347004,10.0.2.15,22,10.0.2.2,52388,1073725440,17814,0,65535,65700,0,0,4,1460,24,0,4,24,33580,36,65700,0,36,0,0,0
o,0x00000000,1720647519.347063,10.0.2.15,22,10.0.2.2,52388,1073725440,17850,0,65535,65700,0,0,4,1460,24,0,4,24,33580,36,65700,0,0,0,0,0
i,0x00000000,1720647519.347502,10.0.2.15,22,10.0.2.2,52388,1073725440,17850,0,65535,65700,0,0,4,1460,24,0,4,24,33580,36,65700,0,36,0,0,0
o,0x00000000,1720647519.347673,10.0.2.15,22,10.0.2.2,52388,1073725440,17886,0,65535,65700,0,0,4,1460,17,0,4,25,33580,176,65700,0,0,0,0,0
i,0x00000000,1720647519.348477,10.0.2.15,22,10.0.2.2,52388,1073725440,17886,0,65535,65700,0,0,4,1460,17,0,4,25,33580,176,65700,0,176,0,0,0
i,0x00000000,1720647519.348480,10.0.2.15,22,10.0.2.2,52388,1073725440,18062,0,65535,65700,0,0,4,1460,11,0,4,25,33580,0,65700,0,0,0,0,0
i,0x00000000,1720647519.348482,10.0.2.15,22,10.0.2.2,52388,1073725440,18062,0,65535,65700,0,0,4,1460,11,0,4,25,33580,0,65700,96,0,0,0,0
o,0x00000000,1720647519.348484,10.0.2.15,22,10.0.2.2,52388,1073725440,18062,0,65535,65604,0,0,5,1460,11,0,5,25,33580,0,65700,96,0,0,0,0
o,0x00000000,1720647519.348912,10.0.2.15,22,10.0.2.2,52388,1073725440,18062,0,65535,65604,0,0,8,1460,11,0,4,25,33580,0,65700,0,0,0,0,0
i,0x00000000,1720647519.349353,10.0.2.15,22,10.0.2.2,52388,1073725440,18062,0,65535,65604,0,0,8,1460,11,0,20,25,33580,0,65700,0,1,0,0,0
i,0x00000000,1720647521.421067,10.0.2.15,22,10.0.2.2,52392,1073725440,14600,0,65535,65700,0,0,4,1460,6,0,0,30,33580,0,65700,0,0,0,0,0
o,0x00000000,1720647521.427362,10.0.2.15,22,10.0.2.2,52392,1073725440,14600,0,65535,65700,0,0,4,1460,6,0,0,30,33580,38,65700,42,0,0,0,0
i,0x00000000,1720647521.428247,10.0.2.15,22,10.0.2.2,52392,1073725440,14600,0,65535,65700,0,0,4,1460,6,0,0,30,33580,38,65700,42,38,0,0,0
i,0x00000000,1720647521.428647,10.0.2.15,22,10.0.2.2,52392,1073725440,14638,0,65535,65700,0,0,4,1460,2,0,0,24,33580,0,65700,0,0,0,0,0
i,0x00000000,1720647521.428662,10.0.2.15,22,10.0.2.2,52392,1073725440,14638,0,65535,65700,0,0,4,1460,2,0,0,24,33580,0,65700,1460,0,0,0,0
o,0x00000000,1720647521.428665,10.0.2.15,22,10.0.2.2,52392,1073725440,14638,0,65535,65700,0,0,4,1460,2,0,1,24,33580,0,65700,1536,0,0,0,0
o,0x00000000,1720647521.429795,10.0.2.15,22,10.0.2.2,52392,1073725440,14638,0,65535,65700,0,0,4,1460,2,0,0,24,33580,1056,65700,1536,0,0,0,0
i,0x00000000,1720647521.430515,10.0.2.15,22,10.0.2.2,52392,1073725440,14638,0,65535,65700,0,0,4,1460,2,0,0,24,33580,1056,65700,1536,1056,0,0,0
i,0x00000000,1720647521.431799,10.0.2.15,22,10.0.2.2,52392,1073725440,15694,0,65535,65700,0,0,4,1460,1,0,0,24,33580,0,65700,0,0,0,0,0
o,0x00000000,1720647521.434537,10.0.2.15,22,10.0.2.2,52392,1073725440,15694,0,65535,65700,0,0,4,1460,1,0,0,24,33580,484,65700,0,0,0,0,0
i,0x00000000,1720647521.435290,10.0.2.15,22,10.0.2.2,52392,1073725440,15694,0,65535,65700,0,0,4,1460,1,0,0,24,33580,484,65700,0,484,0,0,0
i,0x00000000,1720647521.439724,10.0.2.15,22,10.0.2.2,52392,1073725440,16178,0,65535,65700,0,0,4,1460,1,0,0,24,33580,0,65700,0,0,0,0,0
i,0x00000000,1720647521.439727,10.0.2.15,22,10.0.2.2,52392,1073725440,16178,0,65535,65700,0,0,4,1460,1,0,0,24,33580,0,65700,16,0,0,0,0
o,0x00000000,1720647521.439729,10.0.2.15,22,10.0.2.2,52392,1073725440,16178,0,65535,65700,0,0,4,1460,1,0,1,24,33580,0,65700,60,0,0,0,0
o,0x00000000,1720647521.439895,10.0.2.15,22,10.0.2.2,52392,1073725440,16178,0,65535,65700,0,0,4,1460,1,0,0,24,33580,44,65700,0,0,0,0,0
i,0x00000000,1720647521.440618,10.0.2.15,22,10.0.2.2,52392,1073725440,16178,0,65535,65700,0,0,4,1460,1,0,0,24,33580,44,65700,0,44,0,0,0
i,0x00000000,1720647521.440621,10.0.2.15,22,10.0.2.2,52392,1073725440,16222,0,65535,65700,0,0,4,1460,1,0,0,24,33580,0,65700,0,0,0,0,0
o,0x00000000,1720647521.450234,10.0.2.15,22,10.0.2.2,52392,1073725440,16222,0,65535,65700,0,0,4,1460,1,0,0,24,33580,68,65700,0,0,0,0,0
i,0x00000000,1720647521.450729,10.0.2.15,22,10.0.2.2,52392,1073725440,16222,0,65535,65700,0,0,4,1460,1,0,0,24,33580,68,65700,0,68,0,0,0
i,0x00000000,1720647521.454151,10.0.2.15,22,10.0.2.2,52392,1073725440,16290,0,65535,65700,0,0,4,1460,1,0,0,24,33580,0,65700,0,0,0,0,0
o,0x00000000,1720647521.454409,10.0.2.15,22,10.0.2.2,52392,1073725440,16290,0,65535,65700,0,0,4,1460,1,0,0,24,33580,332,65700,0,0,0,0,0
i,0x00000000,1720647521.455066,10.0.2.15,22,10.0.2.2,52392,1073725440,16290,0,65535,65700,0,0,4,1460,1,0,0,24,33580,332,65700,0,332,0,0,0
i,0x00000000,1720647521.456808,10.0.2.15,22,10.0.2.2,52392,1073725440,16622,0,65535,65700,0,0,4,1460,1,0,0,24,33580,0,65700,0,0,0,0,0
o,0x00000000,1720647521.473639,10.0.2.15,22,10.0.2.2,52392,1073725440,16622,0,65535,65700,0,0,4,1460,1,0,0,24,33580,28,65700,0,0,0,0,0
i,0x00000000,1720647521.474716,10.0.2.15,22,10.0.2.2,52392,1073725440,16622,0,65535,65700,0,0,4,1460,1,0,0,24,33580,28,65700,0,28,0,0,0
i,0x00000000,1720647521.474743,10.0.2.15,22,10.0.2.2,52392,1073725440,16650,0,65535,65700,0,0,4,1460,1,0,0,24,33580,0,65700,0,0,0,0,0
o,0x00000000,1720647521.475379,10.0.2.15,22,10.0.2.2,52392,1073725440,16650,0,65535,65700,0,0,4,1460,1,0,0,24,33580,768,65700,112,0,0,0,0
i,0x00000000,1720647521.476185,10.0.2.15,22,10.0.2.2,52392,1073725440,16650,0,65535,65700,0,0,4,1460,1,0,0,24,33580,768,65700,112,768,0,0,0
o,0x00000000,1720647521.476253,10.0.2.15,22,10.0.2.2,52392,1073725440,17418,0,65535,65700,0,0,4,1460,1,0,0,24,33580,140,65700,112,0,0,0,0
i,0x00000000,1720647521.476891,10.0.2.15,22,10.0.2.2,52392,1073725440,17418,0,65535,65700,0,0,4,1460,1,0,0,24,33580,140,65700,112,140,0,0,0
o,0x00000000,1720647521.476992,10.0.2.15,22,10.0.2.2,52392,1073725440,17558,0,65535,65700,0,0,4,1460,1,0,0,24,33580,44,65700,0,0,0,0,0
i,0x00000000,1720647521.477920,10.0.2.15,22,10.0.2.2,52392,1073725440,17558,0,65535,65700,0,0,4,1460,1,0,0,24,33580,44,65700,0,44,0,0,0
i,0x00000000,1720647521.477924,10.0.2.15,22,10.0.2.2,52392,1073725440,17602,0,65535,65700,0,0,4,1460,1,0,0,24,33580,0,65700,0,0,0,0,0
o,0x00000000,1720647521.478349,10.0.2.15,22,10.0.2.2,52392,1073725440,17602,0,65535,65700,0,0,4,1460,1,0,4,24,33580,72,65700,0,0,0,0,0
i,0x00000000,1720647521.479037,10.0.2.15,22,10.0.2.2,52392,1073725440,17602,0,65535,65700,0,0,4,1460,1,0,4,24,33580,72,65700,0,72,0,0,0
o,0x00000000,1720647521.483122,10.0.2.15,22,10.0.2.2,52392,1073725440,17674,0,65535,65700,0,0,4,1460,1,0,4,24,33580,44,65700,0,0,0,0,0
i,0x00000000,1720647521.483731,10.0.2.15,22,10.0.2.2,52392,1073725440,17674,0,65535,65700,0,0,4,1460,1,0,4,24,33580,44,65700,0,44,0,0,0
o,0x00000000,1720647521.484108,10.0.2.15,22,10.0.2.2,52392,1073725440,17718,0,65535,65700,0,0,4,1460,1,0,4,24,33580,44,65700,0,0,0,0,0
i,0x00000000,1720647521.484879,10.0.2.15,22,10.0.2.2,52392,1073725440,17718,0,65535,65700,0,0,4,1460,1,0,4,24,33580,44,65700,0,44,0,0,0
o,0x00000000,1720647521.486339,10.0.2.15,22,10.0.2.2,52392,1073725440,17762,0,65535,65700,0,0,4,1460,1,0,4,24,33580,176,65700,0,0,0,0,0
i,0x00000000,1720647521.487283,10.0.2.15,22,10.0.2.2,52392,1073725440,17762,0,65535,65700,0,0,4,1460,1,0,4,24,33580,176,65700,0,176,0,0,0
i,0x00000000,1720647521.487286,10.0.2.15,22,10.0.2.2,52392,1073725440,17938,0,65535,65700,0,0,4,1460,1,0,4,24,33580,0,65700,0,0,0,0,0
i,0x00000000,1720647521.487288,10.0.2.15,22,10.0.2.2,52392,1073725440,17938,0,65535,65700,0,0,4,1460,1,0,4,24,33580,0,65700,96,0,0,0,0
o,0x00000000,1720647521.487291,10.0.2.15,22,10.0.2.2,52392,1073725440,17938,0,65535,65604,0,0,5,1460,1,0,5,24,33580,0,65700,96,0,0,0,0
o,0x00000000,1720647521.494537,10.0.2.15,22,10.0.2.2,52392,1073725440,17938,0,65535,65604,0,0,8,1460,1,0,4,24,33580,0,65700,0,0,0,0,0
i,0x00000000,1720647521.495817,10.0.2.15,22,10.0.2.2,52392,1073725440,17938,0,65535,65604,0,0,8,1460,1,0,20,24,33580,0,65700,0,1,0,0,0
i,0x00000000,1720647521.732448,172.16.3.2,5101,172.16.1.2,11139,7500,14480,0,65728,65700,6,6,4,1460,632,1,992,76,33580,0,65700,0,0,0,0,0
o,0x00000000,1720647521.732528,172.16.3.2,5101,172.16.1.2,11139,7500,14480,0,65728,65700,6,6,4,1460,632,1,996,76,33580,1,65700,0,0,0,0,0
i,0x00000000,1720647521.850133,172.16.3.2,5101,172.16.1.2,11139,7500,14480,0,65728,65700,6,6,4,1460,632,1,996,76,33580,1,65700,0,1,0,0,0
i,0x00000000,1720647521.850149,172.16.3.2,5101,172.16.1.2,11139,7500,14480,0,65728,65728,6,6,4,1460,601,1,996,74,33580,0,65700,4,0,0,0,0
o,0x00000000,1720647521.850156,172.16.3.2,5101,172.16.1.2,11139,7500,14480,0,65728,65728,6,6,4,1460,601,1,997,74,33580,0,65700,128,0,0,0,0
o,0x00000000,1720647521.850557,172.16.3.2,5101,172.16.1.2,11139,7500,14480,0,65728,65728,6,6,4,1460,601,1,996,74,33580,1,65700,0,0,0,0,0
o,0x00000000,1720647521.850813,10.0.2.15,22,10.0.2.2,52548,1073725440,14600,0,65535,65700,0,0,4,1460,1,0,4,24,33580,84,65700,0,0,0,0,0
i,0x00000000,1720647521.851602,10.0.2.15,22,10.0.2.2,52548,1073725440,14600,0,65535,65700,0,0,4,1460,1,0,4,24,33580,84,65700,0,84,0,0,0
i,0x00000000,1720647521.999555,172.16.3.2,5101,172.16.1.2,11139,7500,14480,0,65728,65728,6,6,4,1460,601,1,996,74,33580,1,65700,0,1,0,0,0
i,0x00000000,1720647522.095682,172.16.3.2,5101,172.16.1.2,62604,7500,14480,0,65728,65700,6,6,4,1460,632,1,992,76,33580,0,65700,0,0,0,0,0
o,0x00000000,1720647522.097931,172.16.3.2,5101,172.16.1.2,11139,7500,14480,0,65728,65728,6,6,4,1460,586,1,996,68,33580,1,65700,0,0,0,0,0
o,0x00000000,1720647522.098028,172.16.3.2,5101,172.16.1.2,11139,7500,14480,0,65728,65728,6,6,4,1460,586,1,996,68,33580,2,65700,0,1,0,0,0
o,0x00000000,1720647522.098731,10.0.2.15,22,10.0.2.2,52548,1073725440,14600,0,65535,65700,0,0,4,1460,1,0,4,24,33580,108,65700,0,0,0,0,0
i,0x00000000,1720647522.099665,10.0.2.15,22,10.0.2.2,52548,1073725440,14600,0,65535,65700,0,0,4,1460,1,0,4,24,33580,108,65700,0,108,0,0,0
o,0x00000000,1720647522.136524,172.16.3.2,5101,172.16.1.2,62604,7500,14480,0,65728,65700,6,6,4,1460,632,1,993,76,33580,0,65700,0,0,0,0,0
i,0x00000000,1720647522.211134,172.16.3.2,5101,172.16.1.2,11139,7500,14480,0,65728,65728,6,6,4,1460,586,1,996,68,33580,2,65700,0,2,0,0,0
i,0x00000000,1720647522.309873,172.16.3.2,5101,172.16.1.2,62604,7500,14480,0,65728,65700,6,6,4,1460,632,1,992,76,33580,0,65700,0,0,0,0,0
i,0x00000000,1720647522.321081,172.16.3.2,5101,172.16.1.2,62604,7500,14480,0,65728,65700,6,6,4,1460,632,1,992,76,33580,0,65700,0,0,0,0,0
o,0x00000000,1720647522.321093,172.16.3.2,5101,172.16.1.2,62604,7500,14480,0,65728,65700,6,6,4,1460,632,1,993,76,33580,0,65700,1448,0,0,0,0
i,0x00000000,1720647522.329794,172.16.3.2,5101,172.16.1.2,62604,7500,14480,0,65728,65700,6,6,4,1460,632,1,992,76,33580,0,65700,0,0,0,0,0
i,0x00000000,1720647522.348552,172.16.3.2,5101,172.16.1.2,62604,7500,14480,0,65728,65700,6,6,4,1460,632,1,992,76,33580,0,65700,0,0,0,0,0
o,0x00000000,1720647522.348561,172.16.3.2,5101,172.16.1.2,62604,7500,14480,0,65728,65700,6,6,4,1460,632,1,993,76,33580,0,65700,1448,0,0,0,0
i,0x00000000,1720647522.360605,172.16.3.2,5101,172.16.1.2,62604,7500,14480,0,65728,65700,6,6,4,1460,632,1,992,76,33580,0,65700,0,0,0,0,0
i,0x00000000,1720647522.371952,172.16.3.2,5101,172.16.1.2,62604,7500,14480,0,65728,65700,6,6,4,1460,632,1,992,76,33580,0,65700,0,0,0,0,0
o,0x00000000,1720647522.371958,172.16.3.2,5101,172.16.1.2,62604,7500,14480,0,65728,65700,6,6,4,1460,632,1,993,76,33580,0,65700,1448,0,0,0,0
i,0x00000000,1720647522.389998,172.16.3.2,5101,172.16.1.2,62604,7500,14480,0,65728,65700,6,6,4,1460,632,1,992,76,33580,0,65700,0,0,0,0,0
i,0x00000000,1720647522.390723,172.16.3.2,5101,172.16.1.2,62604,7500,14480,0,65728,65700,6,6,4,1460,632,1,992,76,33580,0,65700,0,0,0,0,0
o,0x00000000,1720647522.390728,172.16.3.2,5101,172.16.1.2,62604,7500,14480,0,65728,65700,6,6,4,1460,632,1,993,76,33580,0,65700,1448,0,0,0,0
i,0x00000000,1720647522.410711,172.16.3.2,5101,172.16.1.2,62604,7500,14480,0,65728,65700,6,6,4,1460,632,1,992,76,33580,0,65700,0,0,0,0,0
i,0x00000000,1720647522.421069,172.16.3.2,5101,172.16.1.2,62604,7500,14480,0,65728,65700,6,6,4,1460,632,1,992,76,33580,0,65700,0,0,0,0,0
o,0x00000000,1720647522.421076,172.16.3.2,5101,172.16.1.2,62604,7500,14480,0,65728,65700,6,6,4,1460,632,1,993,76,33580,0,65700,1448,0,0,0,0
i,0x00000000,1720647522.483569,172.16.3.2,5101,172.16.1.2,62604,7500,14480,0,65728,65700,6,6,4,1460,632,1,992,76,33580,0,65700,0,0,0,0,0
i,0x00000000,1720647522.504442,172.16.3.2,5101,172.16.1.2,62604,7500,14480,0,65728,65700,6,6,4,1460,632,1,992,76,33580,0,65700,0,0,0,0,0
o,0x00000000,1720647522.504474,172.16.3.2,5101,172.16.1.2,62604,7500,14480,0,65728,65700,6,6,4,1460,632,1,993,76,33580,0,65700,1448,0,0,0,0
i,0x00000000,1720647522.530190,172.16.3.2,5101,172.16.1.2,62604,7500,14480,0,65728,65700,6,6,4,1460,632,1,992,76,33580,0,65700,0,0,0,0,0
i,0x00000000,1720647522.566625,172.16.3.2,5101,172.16.1.2,62604,7500,14480,0,65728,65700,6,6,4,1460,632,1,992,76,33580,0,65700,0,0,0,0,0
o,0x00000000,1720647522.566633,172.16.3.2,5101,172.16.1.2,62604,7500,14480,0,65728,65700,6,6,4,1460,632,1,993,76,33580,0,65700,1448,0,0,0,0
i,0x00000000,1720647522.609879,172.16.3.2,5101,172.16.1.2,62604,7500,14480,0,65728,65700,6,6,4,1460,632,1,992,76,33580,0,65700,0,0,0,0,0
i,0x00000000,1720647522.639727,172.16.3.2,5101,172.16.1.2,62604,7500,14480,0,65728,65700,6,6,4,1460,632,1,992,76,33580,0,65700,0,0,0,0,0
o,0x00000000,1720647522.639734,172.16.3.2,5101,172.16.1.2,62604,7500,14480,0,65728,65700,6,6,4,1460,632,1,993,76,33580,0,65700,1448,0,0,0,0
i,0x00000000,1720647522.640824,172.16.3.2,5101,172.16.1.2,62604,7500,14480,0,65728,65700,6,6,4,1460,632,1,992,76,33580,0,65700,0,0,0,0,0
i,0x00000000,1720647522.649679,172.16.3.2,5101,172.16.1.2,62604,7500,14480,0,65728,65700,6,6,4,1460,632,1,992,76,33580,0,65700,0,0,0,0,0
o,0x00000000,1720647522.649685,172.16.3.2,5101,172.16.1.2,62604,7500,14480,0,65728,65700,6,6,4,1460,632,1,993,76,33580,0,65700,1448,0,0,0,0
i,0x00000000,1720647522.691997,172.16.3.2,5101,172.16.1.2,62604,7500,14480,0,65728,65700,6,6,4,1460,632,1,992,76,33580,0,65700,0,0,0,0,0
i,0x00000000,1720647522.699561,172.16.3.2,5101,172.16.1.2,62604,7500,14480,0,65728,65700,6,6,4,1460,632,1,992,76,33580,0,65700,0,0,0,0,0
o,0x00000000,1720647522.699567,172.16.3.2,5101,172.16.1.2,62604,7500,14480,0,65728,65700,6,6,4,1460,632,1,993,76,33580,0,65700,1448,0,0,0,0
i,0x00000000,1720647522.712264,172.16.3.2,5101,172.16.1.2,62604,7500,14480,0,65728,65700,6,6,4,1460,632,1,992,76,33580,0,65700,0,0,0,0,0
o,0x00000000,1720647522.745917,172.16.3.2,5101,172.16.1.2,62604,7500,14480,0,65728,65700,6,6,4,1460,632,1,993,76,33580,0,65700,0,0,0,0,0
i,0x00000000,1720647522.750464,172.16.3.2,5101,172.16.1.2,62604,7500,14480,0,65728,65700,6,6,4,1460,632,1,992,76,33580,0,65700,0,0,0,0,0
i,0x00000000,1720647522.764373,172.16.3.2,5101,172.16.1.2,62604,7500,14480,0,65728,65700,6,6,4,1460,632,1,992,76,33580,0,65700,0,0,0,0,0
o,0x00000000,1720647522.764382,172.16.3.2,5101,172.16.1.2,62604,7500,14480,0,65728,65700,6,6,4,1460,632,1,993,76,33580,0,65700,1448,0,0,0,0
i,0x00000000,1720647522.800401,172.16.3.2,5101,172.16.1.2,62604,7500,14480,0,65728,65700,6,6,4,1460,632,1,992,76,33580,0,65700,0,0,0,0,0
i,0x00000000,1720647522.836623,172.16.3.2,5101,172.16.1.2,62604,7500,14480,0,65728,65700,6,6,4,1460,632,1,992,76,33580,0,65700,0,0,0,0,0
o,0x00000000,1720647522.836633,172.16.3.2,5101,172.16.1.2,62604,7500,14480,0,65728,65700,6,6,4,1460,632,1,993,76,33580,0,65700,1448,0,0,0,0
i,0x00000000,1720647522.850345,172.16.3.2,5101,172.16.1.2,62604,7500,14480,0,65728,65700,6,6,4,1460,632,1,992,76,33580,0,65700,0,0,0,0,0
i,0x00000000,1720647522.880919,172.16.3.2,5101,172.16.1.2,62604,7500,14480,0,65728,65700,6,6,4,1460,632,1,992,76,33580,0,65700,0,0,0,0,0
o,0x00000000,1720647522.880927,172.16.3.2,5101,172.16.1.2,62604,7500,14480,0,65728,65700,6,6,4,1460,632,1,993,76,33580,0,65700,1448,0,0,0,0
i,0x00000000,1720647522.930397,172.16.3.2,5101,172.16.1.2,62604,7500,14480,0,65728,65700,6,6,4,1460,632,1,992,76,33580,0,65700,0,0,0,0,0
i,0x00000000,1720647522.930421,172.16.3.2,5101,172.16.1.2,62604,7500,14480,0,65728,65700,6,6,4,1460,632,1,992,76,33580,0,65700,1448,0,0,0,0
o,0x00000000,1720647522.930428,172.16.3.2,5101,172.16.1.2,62604,7500,14480,0,65728,65700,6,6,4,1460,632,1,993,76,33580,0,65700,2896,0,0,0,0
i,0x00000000,1720647522.972026,172.16.3.2,5101,172.16.1.2,62604,7500,14480,0,65728,65700,6,6,4,1460,632,1,992,76,33580,0,65700,0,0,0,0,0
i,0x00000000,1720647522.982083,172.16.3.2,5101,172.16.1.2,62604,7500,14480,0,65728,65700,6,6,4,1460,632,1,992,76,33580,0,65700,0,0,0,0,0
o,0x00000000,1720647522.982091,172.16.3.2,5101,172.16.1.2,62604,7500,14480,0,65728,65700,6,6,4,1460,632,1,993,76,33580,0,65700,1448,0,0,0,0
i,0x00000000,1720647522.989900,172.16.3.2,5101,172.16.1.2,62604,7500,14480,0,65728,65700,6,6,4,1460,632,1,992,76,33580,0,65700,0,0,0,0,0
o,0x00000000,1720647523.026958,172.16.3.2,5101,172.16.1.2,62604,7500,14480,0,65728,65700,6,6,4,1460,632,1,993,76,33580,0,65700,0,0,0,0,0
i,0x00000000,1720647523.030426,172.16.3.2,5101,172.16.1.2,62604,7500,14480,0,65728,65700,6,6,4,1460,632,1,992,76,33580,0,65700,0,0,0,0,0
i,0x00000000,1720647523.044227,172.16.3.2,5101,172.16.1.2,62604,7500,14480,0,65728,65700,6,6,4,1460,632,1,992,76,33580,0,65700,0,0,0,0,0
o,0x00000000,1720647523.044235,172.16.3.2,5101,172.16.1.2,62604,7500,14480,0,65728,65700,6,6,4,1460,632,1,993,76,33580,0,65700,1448,0,0,0,0
i,0x00000000,1720647523.080446,172.16.3.2,5101,172.16.1.2,62604,7500,14480,0,65728,65700,6,6,4,1460,632,1,992,76,33580,0,65700,0,0,0,0,0
o,0x00000000,1720647523.107259,10.0.2.15,22,10.0.2.2,52548,1073725440,14600,0,65535,65700,0,0,4,1460,1,0,4,24,33580,156,65700,0,0,0,0,0
i,0x00000000,1720647523.107984,10.0.2.15,22,10.0.2.2,52548,1073725440,14600,0,65535,65700,0,0,4,1460,1,0,4,24,33580,156,65700,0,156,0,0,0
o,0x00000000,1720647523.116717,172.16.3.2,5101,172.16.1.2,62604,7500,14480,0,65728,65700,6,6,4,1460,632,1,993,76,33580,0,65700,0,0,0,0,0
i,0x00000000,1720647523.119776,172.16.3.2,5101,172.16.1.2,62604,7500,14480,0,65728,65700,6,6,4,1460,632,1,992,76,33580,0,65700,0,0,0,0,0
i,0x00000000,1720647523.137798,172.16.3.2,5101,172.16.1.2,62604,7500,14480,0,65728,65700,6,6,4,1460,632,1,992,76,33580,0,65700,0,0,0,0,0
o,0x00000000,1720647523.137806,172.16.3.2,5101,172.16.1.2,62604,7500,14480,0,65728,65700,6,6,4,1460,632,1,993,76,33580,0,65700,1448,0,0,0,0
i,0x00000000,1720647523.139090,172.16.3.2,5101,172.16.1.2,62604,7500,14480,0,65728,65700,6,6,4,1460,632,1,992,76,33580,0,65700,0,0,0,0,0
o,0x00000000,1720647523.176353,172.16.3.2,5101,172.16.1.2,62604,7500,14480,0,65728,65700,6,6,4,1460,632,1,993,76,33580,0,65700,0,0,0,0,0
i,0x00000000,1720647523.180459,172.16.3.2,5101,172.16.1.2,62604,7500,14480,0,65728,65700,6,6,4,1460,632,1,992,76,33580,0,65700,0,0,0,0,0
i,0x00000000,1720647523.200351,172.16.3.2,5101,172.16.1.2,62604,7500,14480,0,65728,65700,6,6,4,1460,632,1,992,76,33580,0,65700,0,0,0,0,0
o,0x00000000,1720647523.200357,172.16.3.2,5101,172.16.1.2,62604,7500,14480,0,65728,65700,6,6,4,1460,632,1,993,76,33580,0,65700,1448,0,0,0,0
i,0x00000000,1720647523.210391,172.16.3.2,5101,172.16.1.2,62604,7500,14480,0,65728,65700,6,6,4,1460,632,1,992,76,33580,0,65700,0,0,0,0,0
o,0x00000000,1720647523.246938,172.16.3.2,5101,172.16.1.2,62604,7500,14480,0,65728,65700,6,6,4,1460,632,1,993,76,33580,0,65700,0,0,0,0,0
i,0x00000000,1720647523.262662,172.16.3.2,5101,172.16.1.2,62604,7500,14480,0,65728,65700,6,6,4,1460,632,1,992,76,33580,0,65700,0,0,0,0,0
i,0x00000000,1720647523.270142,172.16.3.2,5101,172.16.1.2,62604,7500,14480,0,65728,65700,6,6,4,1460,632,1,992,76,33580,0,65700,0,0,0,0,0
o,0x00000000,1720647523.270148,172.16.3.2,5101,172.16.1.2,62604,7500,14480,0,65728,65700,6,6,4,1460,632,1,993,76,33580,0,65700,1448,0,0,0,0
i,0x00000000,1720647523.293924,172.16.3.2,5101,172.16.1.2,62604,7500,14480,0,65728,65700,6,6,4,1460,632,1,992,76,33580,0,65700,0,0,0,0,0
i,0x00000000,1720647523.323415,172.16.3.2,5101,172.16.1.2,62604,7500,14480,0,65728,65700,6,6,4,1460,632,1,992,76,33580,0,65700,0,0,0,0,0
o,0x00000000,1720647523.323427,172.16.3.2,5101,172.16.1.2,62604,7500,14480,0,65728,65700,6,6,4,1460,632,1,993,76,33580,0,65700,1448,0,0,0,0
i,0x00000000,1720647523.350922,172.16.3.2,5101,172.16.1.2,62604,7500,14480,0,65728,65700,6,6,4,1460,632,1,992,76,33580,0,65700,0,0,0,0,0
i,0x00000000,1720647523.366917,172.16.3.2,5101,172.16.1.2,62604,7500,14480,0,65728,65700,6,6,4,1460,632,1,992,76,33580,0,65700,0,0,0,0,0
o,0x00000000,1720647523.366925,172.16.3.2,5101,172.16.1.2,62604,7500,14480,0,65728,65700,6,6,4,1460,632,1,993,76,33580,0,65700,1448,0,0,0,0
i,0x00000000,1720647523.400028,172.16.3.2,5101,172.16.1.2,62604,7500,14480,0,65728,65700,6,6,4,1460,632,1,992,76,33580,0,65700,0,0,0,0,0
o,0x00000000,1720647523.400058,172.16.3.2,5101,172.16.1.2,62604,7500,14480,0,65728,65700,6,6,4,1460,632,1,993,76,33580,0,65700,0,0,1,0,0
i,0x00000000,1720647523.419879,172.16.3.2,5101,172.16.1.2,62604,7500,14480,0,65728,65700,6,6,4,1460,632,1,992,76,33580,0,65700,0,0,1,0,0
o,0x00000000,1720647523.419884,172.16.3.2,5101,172.16.1.2,62604,7500,14480,0,65728,65728,6,6,4,1460,632,1,993,76,33580,0,65700,0,0,1,0,0
i,0x00000000,1720647523.429317,172.16.3.2,5101,172.16.1.2,62604,7500,14480,0,65728,65728,6,6,4,1460,632,1,992,76,33580,0,65700,0,0,1,0,0
o,0x00000000,1720647523.429322,172.16.3.2,5101,172.16.1.2,62604,7500,14480,0,65728,65728,6,6,4,1460,632,1,993,76,33580,0,65700,0,0,1,0,0
i,0x00000000,1720647523.460819,172.16.3.2,5101,172.16.1.2,62604,7500,14480,0,65728,65728,6,6,4,1460,632,1,992,76,33580,0,65700,0,0,1,0,0
o,0x00000000,1720647523.460833,172.16.3.2,5101,172.16.1.2,62604,7500,14480,0,65728,65728,6,6,4,1460,632,1,993,76,33580,0,65700,0,0,1,0,0
i,0x00000000,1720647523.469134,172.16.3.2,5101,172.16.1.2,62604,7500,14480,0,65728,65728,6,6,4,1460,632,1,992,76,33580,0,65700,0,0,1,0,0
o,0x00000000,1720647523.469140,172.16.3.2,5101,172.16.1.2,62604,7500,14480,0,65728,65728,6,6,4,1460,632,1,993,76,33580,0,65700,0,0,1,0,0
i,0x00000000,1720647523.509765,172.16.3.2,5101,172.16.1.2,62604,7500,14480,0,65728,65728,6,6,4,1460,632,1,992,76,33580,0,65700,0,0,1,0,0
o,0x00000000,1720647523.509777,172.16.3.2,5101,172.16.1.2,62604,7500,14480,0,65728,65728,6,6,4,1460,632,1,993,76,33580,0,65700,0,0,1,0,0
i,0x00000000,1720647523.559729,172.16.3.2,5101,172.16.1.2,62604,7500,14480,0,65728,65728,6,6,4,1460,632,1,992,76,33580,0,65700,0,0,1,0,0
o,0x00000000,1720647523.559738,172.16.3.2,5101,172.16.1.2,62604,7500,14480,0,65728,65728,6,6,4,1460,632,1,993,76,33580,0,65700,0,0,2,0,0
i,0x00000000,1720647523.584833,172.16.3.2,5101,172.16.1.2,62604,7500,14480,0,65728,65728,6,6,4,1460,632,1,992,76,33580,0,65700,0,0,2,0,0
o,0x00000000,1720647523.584838,172.16.3.2,5101,172.16.1.2,62604,7500,14480,0,65728,65728,6,6,4,1460,632,1,993,76,33580,0,65700,0,0,2,0,0
i,0x00000000,1720647523.610374,172.16.3.2,5101,172.16.1.2,62604,7500,14480,0,65728,65728,6,6,4,1460,632,1,992,76,33580,0,65700,0,0,2,0,0
o,0x00000000,1720647523.610379,172.16.3.2,5101,172.16.1.2,62604,7500,14480,0,65728,65728,6,6,4,1460,632,1,993,76,33580,0,65700,0,0,2,0,0
i,0x00000000,1720647523.637136,172.16.3.2,5101,172.16.1.2,62604,7500,14480,0,65728,65728,6,6,4,1460,632,1,992,76,33580,0,65700,0,0,2,0,0
o,0x00000000,1720647523.637141,172.16.3.2,5101,172.16.1.2,62604,7500,14480,0,65728,65728,6,6,4,1460,632,1,993,76,33580,0,65700,0,0,2,0,0
i,0x00000000,1720647523.650223,172.16.3.2,5101,172.16.1.2,62604,7500,14480,0,65728,65728,6,6,4,1460,632,1,992,76,33580,0,65700,0,0,2,0,0
o,0x00000000,1720647523.650228,172.16.3.2,5101,172.16.1.2,62604,7500,14480,0,65728,65728,6,6,4,1460,632,1,993,76,33580,0,65700,0,0,2,0,0
i,0x00000000,1720647523.659551,172.16.3.2,5101,172.16.1.2,62604,7500,14480,0,65728,65728,6,6,4,1460,632,1,992,76,33580,0,65700,0,0,2,0,0
o,0x00000000,1720647523.659555,172.16.3.2,5101,172.16.1.2,62604,7500,14480,0,65728,65728,6,6,4,1460,632,1,993,76,33580,0,65700,0,0,2,0,0
i,0x00000000,1720647523.678500,172.16.3.2,5101,172.16.1.2,62604,7500,14480,0,65728,65728,6,6,4,1460,632,1,992,76,33580,0,65700,0,0,2,0,0
o,0x00000000,1720647523.678505,172.16.3.2,5101,172.16.1.2,62604,7500,14480,0,65728,65728,6,6,4,1460,632,1,993,76,33580,0,65700,0,0,2,0,0
i,0x00000000,1720647523.679822,172.16.3.2,5101,172.16.1.2,62604,7500,14480,0,65728,65728,6,6,4,1460,632,1,992,76,33580,0,65700,0,0,2,0,0
o,0x00000000,1720647523.679845,172.16.3.2,5101,172.16.1.2,62604,7500,14480,0,65728,65728,6,6,4,1460,632,1,993,76,33580,0,65700,0,0,2,0,0
i,0x00000000,1720647523.700224,172.16.3.2,5101,172.16.1.2,62604,7500,14480,0,65728,65728,6,6,4,1460,632,1,992,76,33580,0,65700,0,0,2,0,0
o,0x00000000,1720647523.700235,172.16.3.2,5101,172.16.1.2,62604,7500,14480,0,65728,65728,6,6,4,1460,632,1,993,76,33580,0,65700,10136,0,1,0,0
i,0x00000000,1720647523.802961,172.16.3.2,5101,172.16.1.2,62604,7500,14480,0,65728,65728,6,6,4,1460,632,1,992,76,33580,0,65700,0,0,1,0,0
o,0x00000000,1720647523.802978,172.16.3.2,5101,172.16.1.2,62604,7500,14480,0,65728,65700,6,6,4,1460,632,1,993,76,33580,0,65700,0,0,2,0,0
i,0x00000000,1720647523.833697,172.16.3.2,5101,172.16.1.2,62604,7500,14480,0,65728,65700,6,6,4,1460,632,1,992,76,33580,0,65700,0,0,2,0,0
o,0x00000000,1720647523.833705,172.16.3.2,5101,172.16.1.2,62604,7500,14480,0,65728,65728,6,6,4,1460,632,1,993,76,33580,0,65700,0,0,2,0,0
i,0x00000000,1720647523.840438,172.16.3.2,5101,172.16.1.2,62604,7500,14480,0,65728,65728,6,6,4,1460,632,1,992,76,33580,0,65700,0,0,2,0,0
o,0x00000000,1720647523.840443,172.16.3.2,5101,172.16.1.2,62604,7500,14480,0,65728,65728,6,6,4,1460,632,1,993,76,33580,0,65700,0,0,2,0,0
i,0x00000000,1720647523.854460,172.16.3.2,5101,172.16.1.2,62604,7500,14480,0,65728,65728,6,6,4,1460,632,1,992,76,33580,0,65700,0,0,2,0,0
o,0x00000000,1720647523.854465,172.16.3.2,5101,172.16.1.2,62604,7500,14480,0,65728,65728,6,6,4,1460,632,1,993,76,33580,0,65700,0,0,2,0,0
i,0x00000000,1720647523.859269,172.16.3.2,5101,172.16.1.2,62604,7500,14480,0,65728,65728,6,6,4,1460,632,1,992,76,33580,0,65700,0,0,2,0,0
o,0x00000000,1720647523.859274,172.16.3.2,5101,172.16.1.2,62604,7500,14480,0,65728,65728,6,6,4,1460,632,1,993,76,33580,0,65700,0,0,2,0,0
i,0x00000000,1720647523.948105,172.16.3.2,5101,172.16.1.2,62604,7500,14480,0,65728,65728,6,6,4,1460,632,1,992,76,33580,0,65700,0,0,2,0,0
o,0x00000000,1720647523.948122,172.16.3.2,5101,172.16.1.2,62604,7500,14480,0,65728,65728,6,6,4,1460,632,1,993,76,33580,0,65700,0,0,2,0,0
i,0x00000000,1720647523.949381,172.16.3.2,5101,172.16.1.2,62604,7500,14480,0,65728,65728,6,6,4,1460,632,1,992,76,33580,0,65700,0,0,2,0,0
o,0x00000000,1720647523.949386,172.16.3.2,5101,172.16.1.2,62604,7500,14480,0,65728,65728,6,6,4,1460,632,1,993,76,33580,0,65700,0,0,2,0,0
i,0x00000000,1720647524.010737,172.16.3.2,5101,172.16.1.2,62604,7500,14480,0,65728,65728,6,6,4,1460,632,1,992,76,33580,0,65700,0,0,2,0,0
o,0x00000000,1720647524.010755,172.16.3.2,5101,172.16.1.2,62604,7500,14480,0,65728,65728,6,6,4,1460,632,1,993,76,33580,0,65700,0,0,2,0,0
i,0x00000000,1720647524.021055,172.16.3.2,5101,172.16.1.2,62604,7500,14480,0,65728,65728,6,6,4,1460,632,1,992,76,33580,0,65700,0,0,2,0,0
o,0x00000000,1720647524.021061,172.16.3.2,5101,172.16.1.2,62604,7500,14480,0,65728,65728,6,6,4,1460,632,1,993,76,33580,0,65700,0,0,2,0,0
i,0x00000000,1720647524.042020,172.16.3.2,5101,172.16.1.2,62604,7500,14480,0,65728,65728,6,6,4,1460,632,1,992,76,33580,0,65700,0,0,2,0,0
o,0x00000000,1720647524.042028,172.16.3.2,5101,172.16.1.2,62604,7500,14480,0,65728,65728,6,6,4,1460,632,1,993,76,33580,0,65700,0,0,2,0,0
i,0x00000000,1720647524.048759,172.16.3.2,5101,172.16.1.2,62604,7500,14480,0,65728,65728,6,6,4,1460,632,1,992,76,33580,0,65700,0,0,2,0,0
o,0x00000000,1720647524.048764,172.16.3.2,5101,172.16.1.2,62604,7500,14480,0,65728,65728,6,6,4,1460,632,1,993,76,33580,0,65700,0,0,2,0,0
i,0x00000000,1720647524.104168,172.16.3.2,5101,172.16.1.2,62604,7500,14480,0,65728,65728,6,6,4,1460,632,1,992,76,33580,0,65700,0,0,2,0,0
o,0x00000000,1720647524.104181,172.16.3.2,5101,172.16.1.2,62604,7500,14480,0,65728,65728,6,6,4,1460,632,1,993,76,33580,0,65700,0,0,2,0,0
i,0x00000000,1720647524.109939,172.16.3.2,5101,172.16.1.2,62604,7500,14480,0,65728,65728,6,6,4,1460,632,1,992,76,33580,0,65700,0,0,2,0,0
o,0x00000000,1720647524.109945,172.16.3.2,5101,172.16.1.2,62604,7500,14480,0,65728,65728,6,6,4,1460,632,1,993,76,33580,0,65700,0,0,2,0,0
o,0x00000000,1720647524.116977,10.0.2.15,22,10.0.2.2,52548,1073725440,14600,0,65535,65700,0,0,4,1460,1,0,4,24,33580,108,65700,0,0,0,0,0
i,0x00000000,1720647524.117723,10.0.2.15,22,10.0.2.2,52548,1073725440,14600,0,65535,65700,0,0,4,1460,1,0,4,24,33580,108,65700,0,108,0,0,0
i,0x00000000,1720647524.171342,172.16.3.2,5101,172.16.1.2,62604,7500,14480,0,65728,65728,6,6,4,1460,632,1,992,76,33580,0,65700,0,0,2,0,0
o,0x00000000,1720647524.171349,172.16.3.2,5101,172.16.1.2,62604,7500,14480,0,65728,65728,6,6,4,1460,632,1,993,76,33580,0,65700,0,0,2,0,0
i,0x00000000,1720647524.178710,172.16.3.2,5101,172.16.1.2,62604,7500,14480,0,65728,65728,6,6,4,1460,632,1,992,76,33580,0,65700,0,0,2,0,0
o,0x00000000,1720647524.178715,172.16.3.2,5101,172.16.1.2,62604,7500,14480,0,65728,65728,6,6,4,1460,632,1,993,76,33580,0,65700,0,0,2,0,0
i,0x00000000,1720647524.208395,172.16.3.2,5101,172.16.1.2,62604,7500,14480,0,65728,65728,6,6,4,1460,632,1,992,76,33580,0,65700,0,0,2,0,0
o,0x00000000,1720647524.208400,172.16.3.2,5101,172.16.1.2,62604,7500,14480,0,65728,65728,6,6,4,1460,632,1,993,76,33580,0,65700,0,0,2,0,0
i,0x00000000,1720647524.208652,172.16.3.2,5101,172.16.1.2,62604,7500,14480,0,65728,65728,6,6,4,1460,632,1,992,76,33580,0,65700,0,0,2,0,0
o,0x00000000,1720647524.208655,172.16.3.2,5101,172.16.1.2,62604,7500,14480,0,65728,65728,6,6,4,1460,632,1,993,76,33580,0,65700,0,0,2,0,0
i,0x00000000,1720647524.259372,172.16.3.2,5101,172.16.1.2,62604,7500,14480,0,65728,65728,6,6,4,1460,632,1,992,76,33580,0,65700,0,0,2,0,0
o,0x00000000,1720647524.259393,172.16.3.2,5101,172.16.1.2,62604,7500,14480,0,65728,65728,6,6,4,1460,632,1,993,76,33580,0,65700,0,0,2,0,0
i,0x00000000,1720647524.268801,172.16.3.2,5101,172.16.1.2,62604,7500,14480,0,65728,65728,6,6,4,1460,632,1,992,76,33580,0,65700,0,0,2,0,0
o,0x00000000,1720647524.268807,172.16.3.2,5101,172.16.1.2,62604,7500,14480,0,65728,65728,6,6,4,1460,632,1,993,76,33580,0,65700,0,0,2,0,0
i,0x00000000,1720647524.367008,172.16.3.2,5101,172.16.1.2,62604,7500,14480,0,65728,65728,6,6,4,1460,632,1,992,76,33580,0,65700,0,0,2,0,0
o,0x00000000,1720647524.367026,172.16.3.2,5101,172.16.1.2,62604,7500,14480,0,65728,65728,6,6,4,1460,632,1,993,76,33580,0,65700,0,0,2,0,0
i,0x00000000,1720647524.368301,172.16.3.2,5101,172.16.1.2,62604,7500,14480,0,65728,65728,6,6,4,1460,632,1,992,76,33580,0,65700,0,0,2,0,0
o,0x00000000,1720647524.368307,172.16.3.2,5101,172.16.1.2,62604,7500,14480,0,65728,65728,6,6,4,1460,632,1,993,76,33580,0,65700,0,0,2,0,0
i,0x00000000,1720647524.378964,172.16.3.2,5101,172.16.1.2,62604,7500,14480,0,65728,65728,6,6,4,1460,632,1,992,76,33580,0,65700,0,0,2,0,0
o,0x00000000,1720647524.378969,172.16.3.2,5101,172.16.1.2,62604,7500,14480,0,65728,65728,6,6,4,1460,632,1,993,76,33580,0,65700,0,0,2,0,0
i,0x00000000,1720647524.394647,172.16.3.2,5101,172.16.1.2,62604,7500,14480,0,65728,65728,6,6,4,1460,632,1,992,76,33580,0,65700,0,0,2,0,0
o,0x00000000,1720647524.394652,172.16.3.2,5101,172.16.1.2,62604,7500,14480,0,65728,65728,6,6,4,1460,632,1,993,76,33580,0,65700,0,0,2,0,0
i,0x00000000,1720647524.448602,172.16.3.2,5101,172.16.1.2,62604,7500,14480,0,65728,65728,6,6,4,1460,632,1,992,76,33580,0,65700,0,0,2,0,0
o,0x00000000,1720647524.448609,172.16.3.2,5101,172.16.1.2,62604,7500,14480,0,65728,65728,6,6,4,1460,632,1,993,76,33580,0,65700,0,0,2,0,0
i,0x00000000,1720647524.459893,172.16.3.2,5101,172.16.1.2,62604,7500,14480,0,65728,65728,6,6,4,1460,632,1,992,76,33580,0,65700,0,0,2,0,0
o,0x00000000,1720647524.459911,172.16.3.2,5101,172.16.1.2,62604,7500,14480,0,65728,65728,6,6,4,1460,632,1,993,76,33580,0,65700,13032,0,1,0,0
i,0x00000000,1720647524.518000,172.16.3.2,5101,172.16.1.2,62604,7500,14480,0,65728,65728,6,6,4,1460,632,1,992,76,33580,0,65700,0,0,1,0,0
o,0x00000000,1720647524.518016,172.16.3.2,5101,172.16.1.2,62604,7500,14480,0,65728,65700,6,6,4,1460,632,1,993,76,33580,0,65700,0,0,1,0,0
o,0x00000000,1720647525.116289,10.0.2.15,22,10.0.2.2,52548,1073725440,14600,0,65535,65700,0,0,4,1460,1,0,4,24,33580,108,65700,0,0,0,0,0
i,0x00000000,1720647525.117016,10.0.2.15,22,10.0.2.2,52548,1073725440,14600,0,65535,65700,0,0,4,1460,1,0,4,24,33580,108,65700,0,108,0,0,0
i,0x00000000,1720647525.289746,172.16.3.2,5101,172.16.1.2,62604,7500,14480,0,65728,65700,6,6,4,1460,632,1,992,76,33580,0,65700,0,0,1,0,0
o,0x00000000,1720647525.289796,172.16.3.2,5101,172.16.1.2,62604,7500,14480,0,65728,65728,6,6,4,1460,632,1,993,76,33580,0,65700,36200,0,0,0,0
o,0x00000000,1720647525.290034,172.16.3.2,5101,172.16.1.2,62604,7500,14480,0,65728,65728,6,6,4,1460,632,1,992,76,33580,0,65700,0,0,0,0,0
i,0x00000000,1720647525.424337,172.16.3.2,5101,172.16.1.2,62604,7500,14480,0,65728,65728,6,6,4,1460,632,1,992,76,33580,0,65700,0,0,0,0,0
i,0x00000000,1720647525.434939,172.16.3.2,5101,172.16.1.2,62604,7500,14480,0,65728,65728,6,6,4,1460,632,1,992,76,33580,0,65700,0,0,0,0,0
o,0x00000000,1720647525.434949,172.16.3.2,5101,172.16.1.2,62604,7500,14480,0,65728,65728,6,6,4,1460,632,1,993,76,33580,0,65700,1448,0,0,0,0
i,0x00000000,1720647525.455141,172.16.3.2,5101,172.16.1.2,62604,7500,14480,0,65728,65728,6,6,4,1460,632,1,992,76,33580,0,65700,0,0,0,0,0
o,0x00000000,1720647525.486547,172.16.3.2,5101,172.16.1.2,62604,7500,14480,0,65728,65728,6,6,4,1460,632,1,993,76,33580,0,65700,0,0,0,0,0
i,0x00000000,1720647525.549817,172.16.3.2,5101,172.16.1.2,62604,7500,14480,0,65728,65728,6,6,4,1460,632,1,992,76,33580,0,65700,0,0,0,0,0
i,0x00000000,1720647525.570371,172.16.3.2,5101,172.16.1.2,62604,7500,14480,0,65728,65728,6,6,4,1460,632,1,992,76,33580,0,65700,0,0,0,0,0
o,0x00000000,1720647525.570380,172.16.3.2,5101,172.16.1.2,62604,7500,14480,0,65728,65728,6,6,4,1460,632,1,993,76,33580,0,65700,1448,0,0,0,0
i,0x00000000,1720647525.579145,172.16.3.2,5101,172.16.1.2,62604,7500,14480,0,65728,65728,6,6,4,1460,632,1,992,76,33580,0,65700,0,0,0,0,0
o,0x00000000,1720647525.616535,172.16.3.2,5101,172.16.1.2,62604,7500,14480,0,65728,65728,6,6,4,1460,632,1,993,76,33580,0,65700,0,0,0,0,0
i,0x00000000,1720647525.639012,172.16.3.2,5101,172.16.1.2,62604,7500,14480,0,65728,65728,6,6,4,1460,632,1,992,76,33580,0,65700,0,0,0,0,0
o,0x00000000,1720647525.676487,172.16.3.2,5101,172.16.1.2,62604,7500,14480,0,65728,65728,6,6,4,1460,632,1,993,76,33580,0,65700,0,0,0,0,0
i,0x00000000,1720647525.713145,172.16.3.2,5101,172.16.1.2,62604,7500,14480,0,65728,65728,6,6,4,1460,632,1,992,76,33580,0,65700,0,0,0,0,0
i,0x00000000,1720647525.718721,172.16.3.2,5101,172.16.1.2,62604,7500,14480,0,65728,65728,6,6,4,1460,632,1,992,76,33580,0,65700,0,0,0,0,0
o,0x00000000,1720647525.718727,172.16.3.2,5101,172.16.1.2,62604,7500,14480,0,65728,65728,6,6,4,1460,632,1,993,76,33580,0,65700,1448,0,0,0,0
i,0x00000000,1720647525.759808,172.16.3.2,5101,172.16.1.2,62604,7500,14480,0,65728,65728,6,6,4,1460,632,1,992,76,33580,0,65700,0,0,0,0,0
o,0x00000000,1720647525.796986,172.16.3.2,5101,172.16.1.2,62604,7500,14480,0,65728,65728,6,6,4,1460,632,1,993,76,33580,0,65700,0,0,0,0,0
i,0x00000000,1720647525.852524,172.16.3.2,5101,172.16.1.2,62604,7500,14480,0,65728,65728,6,6,4,1460,632,1,992,76,33580,0,65700,0,0,0,0,0
i,0x00000000,1720647525.858918,172.16.3.2,5101,172.16.1.2,62604,7500,14480,0,65728,65728,6,6,4,1460,632,1,992,76,33580,0,65700,0,0,0,0,0
o,0x00000000,1720647525.858928,172.16.3.2,5101,172.16.1.2,62604,7500,14480,0,65728,65728,6,6,4,1460,632,1,993,76,33580,0,65700,1448,0,0,0,0
i,0x00000000,1720647525.859355,172.16.3.2,5101,172.16.1.2,62604,7500,14480,0,65728,65728,6,6,4,1460,632,1,992,76,33580,0,65700,1448,0,0,0,0
i,0x00000000,1720647525.868366,172.16.3.2,5101,172.16.1.2,62604,7500,14480,0,65728,65728,6,6,4,1460,632,1,992,76,33580,0,65700,0,0,0,0,0
o,0x00000000,1720647525.868372,172.16.3.2,5101,172.16.1.2,62604,7500,14480,0,65728,65728,6,6,4,1460,632,1,993,76,33580,0,65700,1448,0,0,0,0
i,0x00000000,1720647525.908964,172.16.3.2,5101,172.16.1.2,62604,7500,14480,0,65728,65728,6,6,4,1460,632,1,992,76,33580,0,65700,0,0,0,0,0
o,0x00000000,1720647525.946670,172.16.3.2,5101,172.16.1.2,62604,7500,14480,0,65728,65728,6,6,4,1460,632,1,993,76,33580,0,65700,0,0,0,0,0
i,0x00000000,1720647525.999986,172.16.3.2,5101,172.16.1.2,62604,7500,14480,0,65728,65728,6,6,4,1460,632,1,992,76,33580,0,65700,0,0,0,0,0
i,0x00000000,1720647526.009088,172.16.3.2,5101,172.16.1.2,62604,7500,14480,0,65728,65728,6,6,4,1460,632,1,992,76,33580,0,65700,0,0,0,0,0
o,0x00000000,1720647526.009098,172.16.3.2,5101,172.16.1.2,62604,7500,14480,0,65728,65728,6,6,4,1460,632,1,993,76,33580,0,65700,1448,0,0,0,0
i,0x00000000,1720647526.019276,172.16.3.2,5101,172.16.1.2,62604,7500,14480,0,65728,65728,6,6,4,1460,632,1,992,76,33580,0,65700,0,0,0,0,0
i,0x00000000,1720647526.029652,172.16.3.2,5101,172.16.1.2,62604,7500,14480,0,65728,65728,6,6,4,1460,632,1,992,76,33580,0,65700,0,0,0,0,0
o,0x00000000,1720647526.029661,172.16.3.2,5101,172.16.1.2,62604,7500,14480,0,65728,65728,6,6,4,1460,632,1,993,76,33580,0,65700,1448,0,0,0,0
i,0x00000000,1720647526.050526,172.16.3.2,5101,172.16.1.2,62604,7500,14480,0,65728,65728,6,6,4,1460,632,1,992,76,33580,0,65700,0,0,0,0,0
o,0x00000000,1720647526.086588,172.16.3.2,5101,172.16.1.2,62604,7500,14480,0,65728,65728,6,6,4,1460,632,1,993,76,33580,0,65700,0,0,0,0,0
i,0x00000000,1720647526.088690,172.16.3.2,5101,172.16.1.2,62604,7500,14480,0,65728,65728,6,6,4,1460,632,1,992,76,33580,0,65700,0,0,0,0,0
o,0x00000000,1720647526.116786,10.0.2.15,22,10.0.2.2,52548,1073725440,14600,0,65535,65700,0,0,4,1460,1,0,4,24,33580,108,65700,0,0,0,0,0
i,0x00000000,1720647526.117624,10.0.2.15,22,10.0.2.2,52548,1073725440,14600,0,65535,65700,0,0,4,1460,1,0,4,24,33580,108,65700,0,108,0,0,0
o,0x00000000,1720647526.127126,172.16.3.2,5101,172.16.1.2,62604,7500,14480,0,65728,65728,6,6,4,1460,632,1,993,76,33580,0,65700,0,0,0,0,0
i,0x00000000,1720647526.178623,172.16.3.2,5101,172.16.1.2,62604,7500,14480,0,65728,65728,6,6,4,1460,632,1,992,76,33580,0,65700,0,0,0,0,0
i,0x00000000,1720647526.188905,172.16.3.2,5101,172.16.1.2,62604,7500,14480,0,65728,65728,6,6,4,1460,632,1,992,76,33580,0,65700,0,0,0,0,0
o,0x00000000,1720647526.188911,172.16.3.2,5101,172.16.1.2,62604,7500,14480,0,65728,65728,6,6,4,1460,632,1,993,76,33580,0,65700,1448,0,0,0,0
i,0x00000000,1720647526.206416,172.16.3.2,5101,172.16.1.2,62604,7500,14480,0,65728,65728,6,6,4,1460,632,1,992,76,33580,0,65700,0,0,0,0,0
i,0x00000000,1720647526.233369,172.16.3.2,5101,172.16.1.2,62604,7500,14480,0,65728,65728,6,6,4,1460,632,1,992,76,33580,0,65700,0,0,0,0,0
o,0x00000000,1720647526.233376,172.16.3.2,5101,172.16.1.2,62604,7500,14480,0,65728,65728,6,6,4,1460,632,1,993,76,33580,0,65700,1448,0,0,0,0
i,0x00000000,1720647526.238812,172.16.3.2,5101,172.16.1.2,62604,7500,14480,0,65728,65728,6,6,4,1460,632,1,992,76,33580,0,65700,0,0,0,0,0
i,0x00000000,1720647526.258195,172.16.3.2,5101,172.16.1.2,62604,7500,14480,0,65728,65728,6,6,4,1460,632,1,992,76,33580,0,65700,0,0,0,0,0
o,0x00000000,1720647526.258203,172.16.3.2,5101,172.16.1.2,62604,7500,14480,0,65728,65728,6,6,4,1460,632,1,993,76,33580,0,65700,1448,0,0,0,0
i,0x00000000,1720647526.289922,172.16.3.2,5101,172.16.1.2,62604,7500,14480,0,65728,65728,6,6,4,1460,632,1,992,76,33580,0,65700,0,0,0,0,0
o,0x00000000,1720647526.326272,172.16.3.2,5101,172.16.1.2,62604,7500,14480,0,65728,65728,6,6,4,1460,632,1,993,76,33580,0,65700,0,0,0,0,0
i,0x00000000,1720647526.341587,172.16.3.2,5101,172.16.1.2,62604,7500,14480,0,65728,65728,6,6,4,1460,632,1,992,76,33580,0,65700,0,0,0,0,0
o,0x00000000,1720647526.376479,172.16.3.2,5101,172.16.1.2,62604,7500,14480,0,65728,65728,6,6,4,1460,632,1,993,76,33580,0,65700,0,0,0,0,0
i,0x00000000,1720647526.393723,172.16.3.2,5101,172.16.1.2,62604,7500,14480,0,65728,65728,6,6,4,1460,632,1,992,76,33580,0,65700,0,0,0,0,0
i,0x00000000,1720647526.398762,172.16.3.2,5101,172.16.1.2,62604,7500,14480,0,65728,65728,6,6,4,1460,632,1,992,76,33580,0,65700,0,0,0,0,0
o,0x00000000,1720647526.398768,172.16.3.2,5101,172.16.1.2,62604,7500,14480,0,65728,65728,6,6,4,1460,632,1,993,76,33580,0,65700,1448,0,0,0,0
i,0x00000000,1720647526.435178,172.16.3.2,5101,172.16.1.2,62604,7500,14480,0,65728,65728,6,6,4,1460,632,1,992,76,33580,0,65700,0,0,0,0,0
i,0x00000000,1720647526.448767,172.16.3.2,5101,172.16.1.2,62604,7500,14480,0,65728,65728,6,6,4,1460,632,1,992,76,33580,0,65700,0,0,0,0,0
o,0x00000000,1720647526.448774,172.16.3.2,5101,172.16.1.2,62604,7500,14480,0,65728,65728,6,6,4,1460,632,1,993,76,33580,0,65700,1448,0,0,0,0
i,0x00000000,1720647526.476747,172.16.3.2,5101,172.16.1.2,62604,7500,14480,0,65728,65728,6,6,4,1460,632,1,992,76,33580,0,65700,0,0,0,0,0
i,0x00000000,1720647526.478205,172.16.3.2,5101,172.16.1.2,62604,7500,14480,0,65728,65728,6,6,4,1460,632,1,992,76,33580,0,65700,0,0,0,0,0
o,0x00000000,1720647526.478212,172.16.3.2,5101,172.16.1.2,62604,7500,14480,0,65728,65728,6,6,4,1460,632,1,993,76,33580,0,65700,1448,0,0,0,0
i,0x00000000,1720647526.515295,172.16.3.2,5101,172.16.1.2,62604,7500,14480,0,65728,65728,6,6,4,1460,632,1,992,76,33580,0,65700,0,0,0,0,0
o,0x00000000,1720647526.546368,172.16.3.2,5101,172.16.1.2,62604,7500,14480,0,65728,65728,6,6,4,1460,632,1,993,76,33580,0,65700,0,0,0,0,0
i,0x00000000,1720647526.549952,172.16.3.2,5101,172.16.1.2,62604,7500,14480,0,65728,65728,6,6,4,1460,632,1,992,76,33580,0,65700,0,0,0,0,0
o,0x00000000,1720647526.586251,172.16.3.2,5101,172.16.1.2,62604,7500,14480,0,65728,65728,6,6,4,1460,632,1,993,76,33580,0,65700,0,0,0,0,0
i,0x00000000,1720647526.587182,172.16.3.2,5101,172.16.1.2,62604,7500,14480,0,65728,65728,6,6,4,1460,632,1,992,76,33580,0,65700,0,0,0,0,0
i,0x00000000,1720647526.612308,172.16.3.2,5101,172.16.1.2,62604,7500,14480,0,65728,65728,6,6,4,1460,632,1,992,76,33580,0,65700,0,0,0,0,0
o,0x00000000,1720647526.612314,172.16.3.2,5101,172.16.1.2,62604,7500,14480,0,65728,65728,6,6,4,1460,632,1,993,76,33580,0,65700,1448,0,0,0,0
i,0x00000000,1720647526.643718,172.16.3.2,5101,172.16.1.2,62604,7500,14480,0,65728,65728,6,6,4,1460,632,1,992,76,33580,0,65700,0,0,0,0,0
i,0x00000000,1720647526.658532,172.16.3.2,5101,172.16.1.2,62604,7500,14480,0,65728,65728,6,6,4,1460,632,1,992,76,33580,0,65700,0,0,0,0,0
o,0x00000000,1720647526.658538,172.16.3.2,5101,172.16.1.2,62604,7500,14480,0,65728,65728,6,6,4,1460,632,1,993,76,33580,0,65700,1448,0,0,0,0
i,0x00000000,1720647526.668543,172.16.3.2,5101,172.16.1.2,62604,7500,14480,0,65728,65728,6,6,4,1460,632,1,992,76,33580,0,65700,0,0,0,0,0
i,0x00000000,1720647526.695402,172.16.3.2,5101,172.16.1.2,62604,7500,14480,0,65728,65728,6,6,4,1460,632,1,992,76,33580,0,65700,0,0,0,0,0
o,0x00000000,1720647526.695409,172.16.3.2,5101,172.16.1.2,62604,7500,14480,0,65728,65728,6,6,4,1460,632,1,993,76,33580,0,65700,1448,0,0,0,0
i,0x00000000,1720647526.699648,172.16.3.2,5101,172.16.1.2,62604,7500,14480,0,65728,65728,6,6,4,1460,632,1,992,76,33580,0,65700,0,0,0,0,0
o,0x00000000,1720647526.736550,172.16.3.2,5101,172.16.1.2,62604,7500,14480,0,65728,65728,6,6,4,1460,632,1,993,76,33580,0,65700,0,0,0,0,0
i,0x00000000,1720647526.748893,172.16.3.2,5101,172.16.1.2,62604,7500,14480,0,65728,65728,6,6,4,1460,632,1,992,76,33580,0,65700,0,0,0,0,0
i,0x00000000,1720647526.778797,172.16.3.2,5101,172.16.1.2,62604,7500,14480,0,65728,65728,6,6,4,1460,632,1,992,76,33580,0,65700,0,0,0,0,0
o,0x00000000,1720647526.778811,172.16.3.2,5101,172.16.1.2,62604,7500,14480,0,65728,65728,6,6,4,1460,632,1,993,76,33580,0,65700,1448,0,0,0,0
i,0x00000000,1720647526.799550,172.16.3.2,5101,172.16.1.2,62604,7500,14480,0,65728,65728,6,6,4,1460,632,1,992,76,33580,0,65700,0,0,0,0,0
i,0x00000000,1720647526.807877,172.16.3.2,5101,172.16.1.2,62604,7500,14480,0,65728,65728,6,6,4,1460,632,1,992,76,33580,0,65700,0,0,0,0,0
o,0x00000000,1720647526.807884,172.16.3.2,5101,172.16.1.2,62604,7500,14480,0,65728,65728,6,6,4,1460,632,1,993,76,33580,0,65700,1448,0,0,0,0
i,0x00000000,1720647526.872436,172.16.3.2,5101,172.16.1.2,62604,7500,14480,0,65728,65728,6,6,4,1460,632,1,992,76,33580,0,65700,0,0,0,0,0
i,0x00000000,1720647526.879552,172.16.3.2,5101,172.16.1.2,62604,7500,14480,0,65728,65728,6,6,4,1460,632,1,992,76,33580,0,65700,0,0,0,0,0
o,0x00000000,1720647526.879560,172.16.3.2,5101,172.16.1.2,62604,7500,14480,0,65728,65728,6,6,4,1460,632,1,993,76,33580,0,65700,1448,0,0,0,0
i,0x00000000,1720647526.903683,172.16.3.2,5101,172.16.1.2,62604,7500,14480,0,65728,65728,6,6,4,1460,632,1,992,76,33580,0,65700,0,0,0,0,0
i,0x00000000,1720647526.913935,172.16.3.2,5101,172.16.1.2,62604,7500,14480,0,65728,65728,6,6,4,1460,632,1,992,76,33580,0,65700,0,0,0,0,0
o,0x00000000,1720647526.913943,172.16.3.2,5101,172.16.1.2,62604,7500,14480,0,65728,65728,6,6,4,1460,632,1,993,76,33580,0,65700,1448,0,0,0,0
i,0x00000000,1720647526.949618,172.16.3.2,5101,172.16.1.2,62604,7500,14480,0,65728,65728,6,6,4,1460,632,1,992,76,33580,0,65700,0,0,0,0,0
o,0x00000000,1720647526.986592,172.16.3.2,5101,172.16.1.2,62604,7500,14480,0,65728,65728,6,6,4,1460,632,1,993,76,33580,0,65700,0,0,0,0,0
i,0x00000000,1720647526.989425,172.16.3.2,5101,172.16.1.2,62604,7500,14480,0,65728,65728,6,6,4,1460,632,1,992,76,33580,0,65700,0,0,0,0,0
i,0x00000000,1720647527.006954,172.16.3.2,5101,172.16.1.2,62604,7500,14480,0,65728,65728,6,6,4,1460,632,1,992,76,33580,0,65700,0,0,0,0,0
o,0x00000000,1720647527.006968,172.16.3.2,5101,172.16.1.2,62604,7500,14480,0,65728,65728,6,6,4,1460,632,1,993,76,33580,0,65700,1448,0,0,0,0
i,0x00000000,1720647527.008278,172.16.3.2,5101,172.16.1.2,62604,7500,14480,0,65728,65728,6,6,4,1460,632,1,992,76,33580,0,65700,0,0,0,0,0
o,0x00000000,1720647527.046697,172.16.3.2,5101,172.16.1.2,62604,7500,14480,0,65728,65728,6,6,4,1460,632,1,993,76,33580,0,65700,0,0,0,0,0
i,0x00000000,1720647527.050601,172.16.3.2,5101,172.16.1.2,62604,7500,14480,0,65728,65728,6,6,4,1460,632,1,992,76,33580,0,65700,0,0,0,0,0
i,0x00000000,1720647527.058348,172.16.3.2,5101,172.16.1.2,62604,7500,14480,0,65728,65728,6,6,4,1460,632,1,992,76,33580,0,65700,0,0,0,0,0
o,0x00000000,1720647527.058355,172.16.3.2,5101,172.16.1.2,62604,7500,14480,0,65728,65728,6,6,4,1460,632,1,993,76,33580,0,65700,1448,0,0,0,0
i,0x00000000,1720647527.114101,172.16.3.2,5101,172.16.1.2,62604,7500,14480,0,65728,65728,6,6,4,1460,632,1,992,76,33580,0,65700,0,0,0,0,0
o,0x00000000,1720647527.116406,10.0.2.15,22,10.0.2.2,52548,1073725440,14600,0,65535,65700,0,0,4,1460,1,0,4,24,33580,108,65700,0,0,0,0,0
i,0x00000000,1720647527.117085,10.0.2.15,22,10.0.2.2,52548,1073725440,14600,0,65535,65700,0,0,4,1460,1,0,4,24,33580,108,65700,0,108,0,0,0
i,0x00000000,1720647527.117767,172.16.3.2,5101,172.16.1.2,62604,7500,14480,0,65728,65728,6,6,4,1460,632,1,992,76,33580,0,65700,0,0,0,0,0
o,0x00000000,1720647527.117774,172.16.3.2,5101,172.16.1.2,62604,7500,14480,0,65728,65728,6,6,4,1460,632,1,993,76,33580,0,65700,1448,0,0,0,0
i,0x00000000,1720647527.173630,172.16.3.2,5101,172.16.1.2,62604,7500,14480,0,65728,65728,6,6,4,1460,632,1,992,76,33580,0,65700,0,0,0,0,0
i,0x00000000,1720647527.184348,172.16.3.2,5101,172.16.1.2,62604,7500,14480,0,65728,65728,6,6,4,1460,632,1,992,76,33580,0,65700,0,0,0,0,0
o,0x00000000,1720647527.184355,172.16.3.2,5101,172.16.1.2,62604,7500,14480,0,65728,65728,6,6,4,1460,632,1,993,76,33580,0,65700,1448,0,0,0,0
i,0x00000000,1720647527.188347,172.16.3.2,5101,172.16.1.2,62604,7500,14480,0,65728,65728,6,6,4,1460,632,1,992,76,33580,0,65700,0,0,0,0,0
i,0x00000000,1720647527.222549,172.16.3.2,5101,172.16.1.2,62604,7500,14480,0,65728,65728,6,6,4,1460,632,1,992,76,33580,0,65700,0,0,0,0,0
o,0x00000000,1720647527.222555,172.16.3.2,5101,172.16.1.2,62604,7500,14480,0,65728,65728,6,6,4,1460,632,1,993,76,33580,0,65700,1448,0,0,0,0
i,0x00000000,1720647527.235629,172.16.3.2,5101,172.16.1.2,62604,7500,14480,0,65728,65728,6,6,4,1460,632,1,992,76,33580,0,65700,0,0,0,0,0
i,0x00000000,1720647527.268240,172.16.3.2,5101,172.16.1.2,62604,7500,14480,0,65728,65728,6,6,4,1460,632,1,992,76,33580,0,65700,0,0,0,0,0
o,0x00000000,1720647527.268247,172.16.3.2,5101,172.16.1.2,62604,7500,14480,0,65728,65728,6,6,4,1460,632,1,993,76,33580,0,65700,1448,0,0,0,0
i,0x00000000,1720647527.300005,172.16.3.2,5101,172.16.1.2,62604,7500,14480,0,65728,65728,6,6,4,1460,632,1,992,76,33580,0,65700,0,0,0,0,0
i,0x00000000,1720647527.318777,172.16.3.2,5101,172.16.1.2,62604,7500,14480,0,65728,65728,6,6,4,1460,632,1,992,76,33580,0,65700,0,0,0,0,0
o,0x00000000,1720647527.318789,172.16.3.2,5101,172.16.1.2,62604,7500,14480,0,65728,65728,6,6,4,1460,632,1,993,76,33580,0,65700,1448,0,0,0,0
i,0x00000000,1720647527.350229,172.16.3.2,5101,172.16.1.2,62604,7500,14480,0,65728,65728,6,6,4,1460,632,1,992,76,33580,0,65700,0,0,0,0,0
i,0x00000000,1720647527.360335,172.16.3.2,5101,172.16.1.2,62604,7500,14480,0,65728,65728,6,6,4,1460,632,1,992,76,33580,0,65700,0,0,0,0,0
o,0x00000000,1720647527.360341,172.16.3.2,5101,172.16.1.2,62604,7500,14480,0,65728,65728,6,6,4,1460,632,1,993,76,33580,0,65700,1448,0,0,0,0
i,0x00000000,1720647527.381139,172.16.3.2,5101,172.16.1.2,62604,7500,14480,0,65728,65728,6,6,4,1460,632,1,992,76,33580,0,65700,0,0,0,0,0
o,0x00000000,1720647527.416315,172.16.3.2,5101,172.16.1.2,62604,7500,14480,0,65728,65728,6,6,4,1460,632,1,993,76,33580,0,65700,0,0,0,0,0
i,0x00000000,1720647527.433153,172.16.3.2,5101,172.16.1.2,62604,7500,14480,0,65728,65728,6,6,4,1460,632,1,992,76,33580,0,65700,0,0,0,0,0
i,0x00000000,1720647527.464315,172.16.3.2,5101,172.16.1.2,62604,7500,14480,0,65728,65728,6,6,4,1460,632,1,992,76,33580,0,65700,0,0,0,0,0
o,0x00000000,1720647527.464323,172.16.3.2,5101,172.16.1.2,62604,7500,14480,0,65728,65728,6,6,4,1460,632,1,993,76,33580,0,65700,1448,0,0,0,0
i,0x00000000,1720647527.500195,172.16.3.2,5101,172.16.1.2,62604,7500,14480,0,65728,65728,6,6,4,1460,632,1,992,76,33580,0,65700,0,0,0,0,0
i,0x00000000,1720647527.515633,172.16.3.2,5101,172.16.1.2,62604,7500,14480,0,65728,65728,6,6,4,1460,632,1,992,76,33580,0,65700,0,0,0,0,0
o,0x00000000,1720647527.515648,172.16.3.2,5101,172.16.1.2,62604,7500,14480,0,65728,65728,6,6,4,1460,632,1,993,76,33580,0,65700,1448,0,0,0,0
i,0x00000000,1720647527.518252,172.16.3.2,5101,172.16.1.2,62604,7500,14480,0,65728,65728,6,6,4,1460,632,1,992,76,33580,0,65700,0,0,0,0,0
o,0x00000000,1720647527.556568,172.16.3.2,5101,172.16.1.2,62604,7500,14480,0,65728,65728,6,6,4,1460,632,1,993,76,33580,0,65700,0,0,0,0,0
i,0x00000000,1720647527.557563,172.16.3.2,5101,172.16.1.2,62604,7500,14480,0,65728,65728,6,6,4,1460,632,1,992,76,33580,0,65700,0,0,0,0,0
i,0x00000000,1720647527.568759,172.16.3.2,5101,172.16.1.2,62604,7500,14480,0,65728,65728,6,6,4,1460,632,1,992,76,33580,0,65700,0,0,0,0,0
o,0x00000000,1720647527.568766,172.16.3.2,5101,172.16.1.2,62604,7500,14480,0,65728,65728,6,6,4,1460,632,1,993,76,33580,0,65700,1448,0,0,0,0
i,0x00000000,1720647527.578985,172.16.3.2,5101,172.16.1.2,62604,7500,14480,0,65728,65728,6,6,4,1460,632,1,992,76,33580,0,65700,0,0,0,0,0
i,0x00000000,1720647527.610431,172.16.3.2,5101,172.16.1.2,62604,7500,14480,0,65728,65728,6,6,4,1460,632,1,992,76,33580,0,65700,0,0,0,0,0
o,0x00000000,1720647527.610437,172.16.3.2,5101,172.16.1.2,62604,7500,14480,0,65728,65728,6,6,4,1460,632,1,993,76,33580,0,65700,1448,0,0,0,0
i,0x00000000,1720647527.651738,172.16.3.2,5101,172.16.1.2,62604,7500,14480,0,65728,65728,6,6,4,1460,632,1,992,76,33580,0,65700,0,0,0,0,0
i,0x00000000,1720647527.662359,172.16.3.2,5101,172.16.1.2,62604,7500,14480,0,65728,65728,6,6,4,1460,632,1,992,76,33580,0,65700,0,0,0,0,0
o,0x00000000,1720647527.662365,172.16.3.2,5101,172.16.1.2,62604,7500,14480,0,65728,65728,6,6,4,1460,632,1,993,76,33580,0,65700,1448,0,0,0,0
i,0x00000000,1720647527.714097,172.16.3.2,5101,172.16.1.2,62604,7500,14480,0,65728,65728,6,6,4,1460,632,1,992,76,33580,0,65700,0,0,0,0,0
i,0x00000000,1720647527.720594,172.16.3.2,5101,172.16.1.2,62604,7500,14480,0,65728,65728,6,6,4,1460,632,1,992,76,33580,0,65700,0,0,0,0,0
o,0x00000000,1720647527.720604,172.16.3.2,5101,172.16.1.2,62604,7500,14480,0,65728,65728,6,6,4,1460,632,1,993,76,33580,0,65700,1448,0,0,0,0
i,0x00000000,1720647527.727962,172.16.3.2,5101,172.16.1.2,62604,7500,14480,0,65728,65728,6,6,4,1460,632,1,992,76,33580,0,65700,0,0,0,0,0
o,0x00000000,1720647527.766239,172.16.3.2,5101,172.16.1.2,62604,7500,14480,0,65728,65728,6,6,4,1460,632,1,993,76,33580,0,65700,0,0,0,0,0
i,0x00000000,1720647527.787333,172.16.3.2,5101,172.16.1.2,62604,7500,14480,0,65728,65728,6,6,4,1460,632,1,992,76,33580,0,65700,0,0,0,0,0
i,0x00000000,1720647527.816133,172.16.3.2,5101,172.16.1.2,62604,7500,14480,0,65728,65728,6,6,4,1460,632,1,992,76,33580,0,65700,0,0,0,0,0
o,0x00000000,1720647527.816142,172.16.3.2,5101,172.16.1.2,62604,7500,14480,0,65728,65728,6,6,4,1460,632,1,993,76,33580,0,65700,1448,0,0,0,0
i,0x00000000,1720647527.827820,172.16.3.2,5101,172.16.1.2,62604,7500,14480,0,65728,65728,6,6,4,1460,632,1,992,76,33580,0,65700,0,0,0,0,0
o,0x00000000,1720647527.866111,172.16.3.2,5101,172.16.1.2,62604,7500,14480,0,65728,65728,6,6,4,1460,632,1,993,76,33580,0,65700,0,0,0,0,0
i,0x00000000,1720647527.867495,172.16.3.2,5101,172.16.1.2,62604,7500,14480,0,65728,65728,6,6,4,1460,632,1,992,76,33580,0,65700,0,0,0,0,0
i,0x00000000,1720647527.879997,172.16.3.2,5101,172.16.1.2,62604,7500,14480,0,65728,65728,6,6,4,1460,632,1,992,76,33580,0,65700,0,0,0,0,0
o,0x00000000,1720647527.880003,172.16.3.2,5101,172.16.1.2,62604,7500,14480,0,65728,65728,6,6,4,1460,632,1,993,76,33580,0,65700,1448,0,0,0,0
i,0x00000000,1720647527.888497,172.16.3.2,5101,172.16.1.2,62604,7500,14480,0,65728,65728,6,6,4,1460,632,1,992,76,33580,0,65700,0,0,0,0,0
i,0x00000000,1720647527.902006,172.16.3.2,5101,172.16.1.2,62604,7500,14480,0,65728,65728,6,6,4,1460,632,1,992,76,33580,0,65700,0,0,0,0,0
o,0x00000000,1720647527.902011,172.16.3.2,5101,172.16.1.2,62604,7500,14480,0,65728,65728,6,6,4,1460,632,1,993,76,33580,0,65700,1448,0,0,0,0
i,0x00000000,1720647527.943866,172.16.3.2,5101,172.16.1.2,62604,7500,14480,0,65728,65728,6,6,4,1460,632,1,992,76,33580,0,65700,0,0,0,0,0
i,0x00000000,1720647527.954107,172.16.3.2,5101,172.16.1.2,62604,7500,14480,0,65728,65728,6,6,4,1460,632,1,992,76,33580,0,65700,0,0,0,0,0
o,0x00000000,1720647527.954115,172.16.3.2,5101,172.16.1.2,62604,7500,14480,0,65728,65728,6,6,4,1460,632,1,993,76,33580,0,65700,1448,0,0,0,0
i,0x00000000,1720647527.985646,172.16.3.2,5101,172.16.1.2,62604,7500,14480,0,65728,65728,6,6,4,1460,632,1,992,76,33580,0,65700,0,0,0,0,0
i,0x00000000,1720647528.016752,172.16.3.2,5101,172.16.1.2,62604,7500,14480,0,65728,65728,6,6,4,1460,632,1,992,76,33580,0,65700,0,0,0,0,0
o,0x00000000,1720647528.016763,172.16.3.2,5101,172.16.1.2,62604,7500,14480,0,65728,65728,6,6,4,1460,632,1,993,76,33580,0,65700,1448,0,0,0,0
i,0x00000000,1720647528.050352,172.16.3.2,5101,172.16.1.2,62604,7500,14480,0,65728,65728,6,6,4,1460,632,1,992,76,33580,0,65700,0,0,0,0,0
o,0x00000000,1720647528.085956,172.16.3.2,5101,172.16.1.2,62604,7500,14480,0,65728,65728,6,6,4,1460,632,1,993,76,33580,0,65700,0,0,0,0,0
i,0x00000000,1720647528.089260,172.16.3.2,5101,172.16.1.2,62604,7500,14480,0,65728,65728,6,6,4,1460,632,1,992,76,33580,0,65700,0,0,0,0,0
o,0x00000000,1720647528.116121,10.0.2.15,22,10.0.2.2,52548,1073725440,14600,0,65535,65700,0,0,4,1460,1,0,4,24,33580,108,65700,0,0,0,0,0
i,0x00000000,1720647528.116835,10.0.2.15,22,10.0.2.2,52548,1073725440,14600,0,65535,65700,0,0,4,1460,1,0,4,24,33580,108,65700,0,108,0,0,0
i,0x00000000,1720647528.120149,172.16.3.2,5101,172.16.1.2,62604,7500,14480,0,65728,65728,6,6,4,1460,632,1,992,76,33580,0,65700,0,0,0,0,0
o,0x00000000,1720647528.120159,172.16.3.2,5101,172.16.1.2,62604,7500,14480,0,65728,65728,6,6,4,1460,632,1,993,76,33580,0,65700,1448,0,0,0,0
i,0x00000000,1720647528.141401,172.16.3.2,5101,172.16.1.2,62604,7500,14480,0,65728,65728,6,6,4,1460,632,1,992,76,33580,0,65700,0,0,0,0,0
i,0x00000000,1720647528.172348,172.16.3.2,5101,172.16.1.2,62604,7500,14480,0,65728,65728,6,6,4,1460,632,1,992,76,33580,0,65700,0,0,0,0,0
o,0x00000000,1720647528.172357,172.16.3.2,5101,172.16.1.2,62604,7500,14480,0,65728,65728,6,6,4,1460,632,1,993,76,33580,0,65700,1448,0,0,0,0
i,0x00000000,1720647528.179117,172.16.3.2,5101,172.16.1.2,62604,7500,14480,0,65728,65728,6,6,4,1460,632,1,992,76,33580,0,65700,0,0,0,0,0
i,0x00000000,1720647528.197724,172.16.3.2,5101,172.16.1.2,62604,7500,14480,0,65728,65728,6,6,4,1460,632,1,992,76,33580,0,65700,0,0,0,0,0
o,0x00000000,1720647528.197731,172.16.3.2,5101,172.16.1.2,62604,7500,14480,0,65728,65728,6,6,4,1460,632,1,993,76,33580,0,65700,1448,0,0,0,0
i,0x00000000,1720647528.209196,172.16.3.2,5101,172.16.1.2,62604,7500,14480,0,65728,65728,6,6,4,1460,632,1,992,76,33580,0,65700,0,0,0,0,0
o,0x00000000,1720647528.247070,172.16.3.2,5101,172.16.1.2,62604,7500,14480,0,65728,65728,6,6,4,1460,632,1,993,76,33580,0,65700,0,0,0,0,0
i,0x00000000,1720647528.248094,172.16.3.2,5101,172.16.1.2,62604,7500,14480,0,65728,65728,6,6,4,1460,632,1,992,76,33580,0,65700,0,0,0,0,0
i,0x00000000,1720647528.265715,172.16.3.2,5101,172.16.1.2,62604,7500,14480,0,65728,65728,6,6,4,1460,632,1,992,76,33580,0,65700,0,0,0,0,0
o,0x00000000,1720647528.265722,172.16.3.2,5101,172.16.1.2,62604,7500,14480,0,65728,65728,6,6,4,1460,632,1,993,76,33580,0,65700,1448,0,0,0,0
i,0x00000000,1720647528.278026,172.16.3.2,5101,172.16.1.2,62604,7500,14480,0,65728,65728,6,6,4,1460,632,1,992,76,33580,0,65700,0,0,0,0,0
i,0x00000000,1720647528.297275,172.16.3.2,5101,172.16.1.2,62604,7500,14480,0,65728,65728,6,6,4,1460,632,1,992,76,33580,0,65700,0,0,0,0,0
o,0x00000000,1720647528.297291,172.16.3.2,5101,172.16.1.2,62604,7500,14480,0,65728,65728,6,6,4,1460,632,1,993,76,33580,0,65700,1448,0,0,0,0
i,0x00000000,1720647528.327749,172.16.3.2,5101,172.16.1.2,62604,7500,14480,0,65728,65728,6,6,4,1460,632,1,992,76,33580,0,65700,0,0,0,0,0
o,0x00000000,1720647528.327770,172.16.3.2,5101,172.16.1.2,62604,7500,14480,0,65728,65700,6,6,4,1460,632,1,993,76,33580,0,65700,0,0,1,0,0
i,0x00000000,1720647528.390174,172.16.3.2,5101,172.16.1.2,62604,7500,14480,0,65728,65700,6,6,4,1460,632,1,992,76,33580,0,65700,0,0,1,0,0
o,0x00000000,1720647528.390185,172.16.3.2,5101,172.16.1.2,62604,7500,14480,0,65728,65728,6,6,4,1460,632,1,993,76,33580,0,65700,0,0,1,0,0
i,0x00000000,1720647528.417927,172.16.3.2,5101,172.16.1.2,62604,7500,14480,0,65728,65728,6,6,4,1460,632,1,992,76,33580,0,65700,0,0,1,0,0
o,0x00000000,1720647528.417934,172.16.3.2,5101,172.16.1.2,62604,7500,14480,0,65728,65728,6,6,4,1460,632,1,993,76,33580,0,65700,0,0,1,0,0
i,0x00000000,1720647528.442246,172.16.3.2,5101,172.16.1.2,62604,7500,14480,0,65728,65728,6,6,4,1460,632,1,992,76,33580,0,65700,0,0,1,0,0
o,0x00000000,1720647528.442251,172.16.3.2,5101,172.16.1.2,62604,7500,14480,0,65728,65728,6,6,4,1460,632,1,993,76,33580,0,65700,0,0,1,0,0
i,0x00000000,1720647528.483873,172.16.3.2,5101,172.16.1.2,62604,7500,14480,0,65728,65728,6,6,4,1460,632,1,992,76,33580,0,65700,0,0,1,0,0
o,0x00000000,1720647528.483880,172.16.3.2,5101,172.16.1.2,62604,7500,14480,0,65728,65728,6,6,4,1460,632,1,993,76,33580,0,65700,0,0,1,0,0
i,0x00000000,1720647528.494005,172.16.3.2,5101,172.16.1.2,62604,7500,14480,0,65728,65728,6,6,4,1460,632,1,992,76,33580,0,65700,0,0,1,0,0
o,0x00000000,1720647528.494010,172.16.3.2,5101,172.16.1.2,62604,7500,14480,0,65728,65728,6,6,4,1460,632,1,993,76,33580,0,65700,0,0,1,0,0
i,0x00000000,1720647528.535860,172.16.3.2,5101,172.16.1.2,62604,7500,14480,0,65728,65728,6,6,4,1460,632,1,992,76,33580,0,65700,0,0,1,0,0
o,0x00000000,1720647528.535878,172.16.3.2,5101,172.16.1.2,62604,7500,14480,0,65728,65728,6,6,4,1460,632,1,993,76,33580,0,65700,0,0,2,0,0
i,0x00000000,1720647528.547951,172.16.3.2,5101,172.16.1.2,62604,7500,14480,0,65728,65728,6,6,4,1460,632,1,992,76,33580,0,65700,0,0,2,0,0
o,0x00000000,1720647528.547955,172.16.3.2,5101,172.16.1.2,62604,7500,14480,0,65728,65728,6,6,4,1460,632,1,993,76,33580,0,65700,0,0,2,0,0
i,0x00000000,1720647528.576836,172.16.3.2,5101,172.16.1.2,62604,7500,14480,0,65728,65728,6,6,4,1460,632,1,992,76,33580,0,65700,0,0,2,0,0
o,0x00000000,1720647528.576843,172.16.3.2,5101,172.16.1.2,62604,7500,14480,0,65728,65728,6,6,4,1460,632,1,993,76,33580,0,65700,0,0,2,0,0
