enable_time_secs=1720648124	enable_time_usecs=242984	siftrver=1.2.4	hz=100	tcp_rtt_scale=32	sysname=FreeBSD	sysver=1301000	ipmode=4
o,0x00000000,1720648124.243015,10.0.2.15,22,10.0.2.2,52414,1073725440,17770,0,65535,65700,0,0,4,1460,1,0,4,24,33580,44,65700,0,0,0,0,0
o,0x00000000,1720648124.243113,10.0.2.15,22,10.0.2.2,52414,1073725440,17770,0,65535,65700,0,0,4,1460,1,0,4,24,33580,80,65700,0,44,0,0,0
i,0x00000000,1720648124.243528,10.0.2.15,22,10.0.2.2,52414,1073725440,17770,0,65535,65700,0,0,4,1460,1,0,4,24,33580,80,65700,0,80,0,0,0
i,0x00000000,1720648124.243531,10.0.2.15,22,10.0.2.2,52414,1073725440,17814,0,65535,65700,0,0,4,1460,1,0,4,24,33580,36,65700,0,36,0,0,0
o,0x00000000,1720648124.243589,10.0.2.15,22,10.0.2.2,52414,1073725440,17850,0,65535,65700,0,0,4,1460,1,0,4,24,33580,36,65700,0,0,0,0,0
i,0x00000000,1720648124.244023,10.0.2.15,22,10.0.2.2,52414,1073725440,17850,0,65535,65700,0,0,4,1460,1,0,4,24,33580,36,65700,0,36,0,0,0
o,0x00000000,1720648124.244096,10.0.2.15,22,10.0.2.2,52414,1073725440,17886,0,65535,65700,0,0,4,1460,1,0,4,24,33580,36,65700,0,0,0,0,0
i,0x00000000,1720648124.244755,10.0.2.15,22,10.0.2.2,52414,1073725440,17886,0,65535,65700,0,0,4,1460,1,0,4,24,33580,36,65700,0,36,0,0,0
o,0x00000000,1720648124.244911,10.0.2.15,22,10.0.2.2,52414,1073725440,17922,0,65535,65700,0,0,4,1460,1,0,4,24,33580,140,65700,0,0,0,0,0
i,0x00000000,1720648124.245973,10.0.2.15,22,10.0.2.2,52414,1073725440,17922,0,65535,65700,0,0,4,1460,1,0,4,24,33580,140,65700,0,140,0,0,0
i,0x00000000,1720648124.245976,10.0.2.15,22,10.0.2.2,52414,1073725440,18062,0,65535,65700,0,0,4,1460,1,0,4,24,33580,0,65700,0,0,0,0,0
i,0x00000000,1720648124.245977,10.0.2.15,22,10.0.2.2,52414,1073725440,18062,0,65535,65700,0,0,4,1460,1,0,4,24,33580,0,65700,96,0,0,0,0
o,0x00000000,1720648124.245980,10.0.2.15,22,10.0.2.2,52414,1073725440,18062,0,65535,65604,0,0,5,1460,1,0,5,24,33580,0,65700,96,0,0,0,0
o,0x00000000,1720648124.246785,10.0.2.15,22,10.0.2.2,52414,1073725440,18062,0,65535,65604,0,0,8,1460,1,0,4,24,33580,0,65700,0,0,0,0,0
i,0x00000000,1720648124.247184,10.0.2.15,22,10.0.2.2,52414,1073725440,18062,0,65535,65604,0,0,8,1460,1,0,20,24,33580,0,65700,0,1,0,0,0
i,0x00000000,1720648126.322267,10.0.2.15,22,10.0.2.2,52430,1073725440,14600,0,65535,65700,0,0,4,1460,1,0,0,28,33580,0,65700,0,0,0,0,0
o,0x00000000,1720648126.328359,10.0.2.15,22,10.0.2.2,52430,1073725440,14600,0,65535,65700,0,0,4,1460,1,0,0,28,33580,38,65700,42,0,0,0,0
i,0x00000000,1720648126.329254,10.0.2.15,22,10.0.2.2,52430,1073725440,14600,0,65535,65700,0,0,4,1460,1,0,0,28,33580,38,65700,42,38,0,0,0
i,0x00000000,1720648126.329651,10.0.2.15,22,10.0.2.2,52430,1073725440,14638,0,65535,65700,0,0,4,1460,1,0,0,24,33580,0,65700,0,0,0,0,0
i,0x00000000,1720648126.329654,10.0.2.15,22,10.0.2.2,52430,1073725440,14638,0,65535,65700,0,0,4,1460,1,0,0,24,33580,0,65700,1460,0,0,0,0
o,0x00000000,1720648126.329656,10.0.2.15,22,10.0.2.2,52430,1073725440,14638,0,65535,65700,0,0,4,1460,1,0,1,24,33580,0,65700,1536,0,0,0,0
o,0x00000000,1720648126.330826,10.0.2.15,22,10.0.2.2,52430,1073725440,14638,0,65535,65700,0,0,4,1460,1,0,0,24,33580,1056,65700,1536,0,0,0,0
i,0x00000000,1720648126.331542,10.0.2.15,22,10.0.2.2,52430,1073725440,14638,0,65535,65700,0,0,4,1460,1,0,0,24,33580,1056,65700,1536,1056,0,0,0
i,0x00000000,1720648126.332709,10.0.2.15,22,10.0.2.2,52430,1073725440,15694,0,65535,65700,0,0,4,1460,1,0,0,24,33580,0,65700,0,0,0,0,0
o,0x00000000,1720648126.335259,10.0.2.15,22,10.0.2.2,52430,1073725440,15694,0,65535,65700,0,0,4,1460,1,0,0,24,33580,484,65700,0,0,0,0,0
i,0x00000000,1720648126.336178,10.0.2.15,22,10.0.2.2,52430,1073725440,15694,0,65535,65700,0,0,4,1460,1,0,0,24,33580,484,65700,0,484,0,0,0
i,0x00000000,1720648126.340527,10.0.2.15,22,10.0.2.2,52430,1073725440,16178,0,65535,65700,0,0,4,1460,1,0,0,24,33580,0,65700,0,0,0,0,0
i,0x00000000,1720648126.340531,10.0.2.15,22,10.0.2.2,52430,1073725440,16178,0,65535,65700,0,0,4,1460,1,0,0,24,33580,0,65700,16,0,0,0,0
o,0x00000000,1720648126.340533,10.0.2.15,22,10.0.2.2,52430,1073725440,16178,0,65535,65700,0,0,4,1460,1,0,1,24,33580,0,65700,60,0,0,0,0
o,0x00000000,1720648126.340722,10.0.2.15,22,10.0.2.2,52430,1073725440,16178,0,65535,65700,0,0,4,1460,1,0,0,24,33580,44,65700,0,0,0,0,0
i,0x00000000,1720648126.341329,10.0.2.15,22,10.0.2.2,52430,1073725440,16178,0,65535,65700,0,0,4,1460,1,0,0,24,33580,44,65700,0,44,0,0,0
i,0x00000000,1720648126.341331,10.0.2.15,22,10.0.2.2,52430,1073725440,16222,0,65535,65700,0,0,4,1460,1,0,0,24,33580,0,65700,0,0,0,0,0
o,0x00000000,1720648126.351058,10.0.2.15,22,10.0.2.2,52430,1073725440,16222,0,65535,65700,0,0,4,1460,1,0,0,24,33580,68,65700,0,0,0,0,0
i,0x00000000,1720648126.351837,10.0.2.15,22,10.0.2.2,52430,1073725440,16222,0,65535,65700,0,0,4,1460,1,0,0,24,33580,68,65700,0,68,0,0,0
i,0x00000000,1720648126.351841,10.0.2.15,22,10.0.2.2,52430,1073725440,16290,0,65535,65700,0,0,4,1460,1,0,0,24,33580,0,65700,0,0,0,0,0
o,0x00000000,1720648126.352218,10.0.2.15,22,10.0.2.2,52430,1073725440,16290,0,65535,65700,0,0,4,1460,1,0,0,24,33580,332,65700,0,0,0,0,0
i,0x00000000,1720648126.353024,10.0.2.15,22,10.0.2.2,52430,1073725440,16290,0,65535,65700,0,0,4,1460,1,0,0,24,33580,332,65700,0,332,0,0,0
i,0x00000000,1720648126.354171,10.0.2.15,22,10.0.2.2,52430,1073725440,16622,0,65535,65700,0,0,4,1460,1,0,0,24,33580,0,65700,0,0,0,0,0
o,0x00000000,1720648126.371930,10.0.2.15,22,10.0.2.2,52430,1073725440,16622,0,65535,65700,0,0,4,1460,1,0,0,24,33580,28,65700,0,0,0,0,0
i,0x00000000,1720648126.372732,10.0.2.15,22,10.0.2.2,52430,1073725440,16622,0,65535,65700,0,0,4,1460,1,0,0,24,33580,28,65700,0,28,0,0,0
i,0x00000000,1720648126.372760,10.0.2.15,22,10.0.2.2,52430,1073725440,16650,0,65535,65700,0,0,4,1460,1,0,0,24,33580,0,65700,0,0,0,0,0
o,0x00000000,1720648126.373806,10.0.2.15,22,10.0.2.2,52430,1073725440,16650,0,65535,65700,0,0,4,1460,1,0,0,24,33580,768,65700,112,0,0,0,0
i,0x00000000,1720648126.374452,10.0.2.15,22,10.0.2.2,52430,1073725440,16650,0,65535,65700,0,0,4,1460,1,0,0,24,33580,768,65700,112,768,0,0,0
o,0x00000000,1720648126.374551,10.0.2.15,22,10.0.2.2,52430,1073725440,17418,0,65535,65700,0,0,4,1460,1,0,0,24,33580,140,65700,112,0,0,0,0
i,0x00000000,1720648126.375513,10.0.2.15,22,10.0.2.2,52430,1073725440,17418,0,65535,65700,0,0,4,1460,1,0,0,24,33580,140,65700,112,140,0,0,0
o,0x00000000,1720648126.375670,10.0.2.15,22,10.0.2.2,52430,1073725440,17558,0,65535,65700,0,0,4,1460,1,0,0,24,33580,44,65700,0,0,0,0,0
i,0x00000000,1720648126.376419,10.0.2.15,22,10.0.2.2,52430,1073725440,17558,0,65535,65700,0,0,4,1460,1,0,0,24,33580,44,65700,0,44,0,0,0
i,0x00000000,1720648126.376434,10.0.2.15,22,10.0.2.2,52430,1073725440,17602,0,65535,65700,0,0,4,1460,1,0,0,24,33580,0,65700,0,0,0,0,0
o,0x00000000,1720648126.376785,10.0.2.15,22,10.0.2.2,52430,1073725440,17602,0,65535,65700,0,0,4,1460,1,0,4,24,33580,72,65700,0,0,0,0,0
i,0x00000000,1720648126.377524,10.0.2.15,22,10.0.2.2,52430,1073725440,17602,0,65535,65700,0,0,4,1460,1,0,4,24,33580,72,65700,0,72,0,0,0
o,0x00000000,1720648126.381399,10.0.2.15,22,10.0.2.2,52430,1073725440,17674,0,65535,65700,0,0,4,1460,1,0,4,24,33580,44,65700,0,0,0,0,0
i,0x00000000,1720648126.381981,10.0.2.15,22,10.0.2.2,52430,1073725440,17674,0,65535,65700,0,0,4,1460,1,0,4,24,33580,44,65700,0,44,0,0,0
o,0x00000000,1720648126.382390,10.0.2.15,22,10.0.2.2,52430,1073725440,17718,0,65535,65700,0,0,4,1460,1,0,4,24,33580,44,65700,0,0,0,0,0
i,0x00000000,1720648126.383078,10.0.2.15,22,10.0.2.2,52430,1073725440,17718,0,65535,65700,0,0,4,1460,1,0,4,24,33580,44,65700,0,44,0,0,0
o,0x00000000,1720648126.386765,10.0.2.15,22,10.0.2.2,52430,1073725440,17762,0,65535,65700,0,0,4,1460,1,0,4,24,33580,176,65700,0,0,0,0,0
i,0x00000000,1720648126.387760,10.0.2.15,22,10.0.2.2,52430,1073725440,17762,0,65535,65700,0,0,4,1460,1,0,4,24,33580,176,65700,0,176,0,0,0
i,0x00000000,1720648126.387764,10.0.2.15,22,10.0.2.2,52430,1073725440,17938,0,65535,65700,0,0,4,1460,1,0,4,24,33580,0,65700,0,0,0,0,0
i,0x00000000,1720648126.387765,10.0.2.15,22,10.0.2.2,52430,1073725440,17938,0,65535,65700,0,0,4,1460,1,0,4,24,33580,0,65700,96,0,0,0,0
o,0x00000000,1720648126.387767,10.0.2.15,22,10.0.2.2,52430,1073725440,17938,0,65535,65604,0,0,5,1460,1,0,5,24,33580,0,65700,96,0,0,0,0
o,0x00000000,1720648126.394874,10.0.2.15,22,10.0.2.2,52430,1073725440,17938,0,65535,65604,0,0,8,1460,1,0,4,24,33580,0,65700,0,0,0,0,0
i,0x00000000,1720648126.395909,10.0.2.15,22,10.0.2.2,52430,1073725440,17938,0,65535,65604,0,0,8,1460,1,0,20,24,33580,0,65700,0,1,0,0,0
i,0x00000000,1720648126.623956,172.16.3.2,5101,172.16.1.2,52158,10447,14480,0,65728,65700,6,6,4,1460,491,1,992,58,33580,0,65700,0,0,0,0,0
o,0x00000000,1720648126.624035,172.16.3.2,5101,172.16.1.2,52158,10447,14480,0,65728,65700,6,6,4,1460,491,1,996,58,33580,1,65700,0,0,0,0,0
i,0x00000000,1720648126.748439,172.16.3.2,5101,172.16.1.2,52158,10447,14480,0,65728,65700,6,6,4,1460,491,1,996,58,33580,1,65700,0,1,0,0,0
i,0x00000000,1720648126.748455,172.16.3.2,5101,172.16.1.2,52158,10447,14480,0,65728,65728,6,6,4,1460,482,1,996,54,33580,0,65700,4,0,0,0,0
o,0x00000000,1720648126.748462,172.16.3.2,5101,172.16.1.2,52158,10447,14480,0,65728,65728,6,6,4,1460,482,1,997,54,33580,0,65700,128,0,0,0,0
o,0x00000000,1720648126.748630,172.16.3.2,5101,172.16.1.2,52158,10447,14480,0,65728,65728,6,6,4,1460,482,1,996,54,33580,1,65700,0,0,0,0,0
o,0x00000000,1720648126.749033,10.0.2.15,22,10.0.2.2,52548,1073725440,14600,0,65535,65700,0,0,4,1460,1,0,4,24,33580,84,65700,0,0,0,0,0
i,0x00000000,1720648126.749681,10.0.2.15,22,10.0.2.2,52548,1073725440,14600,0,65535,65700,0,0,4,1460,1,0,4,24,33580,84,65700,0,84,0,0,0
i,0x00000000,1720648126.893945,172.16.3.2,5101,172.16.1.2,52158,10447,14480,0,65728,65728,6,6,4,1460,482,1,996,54,33580,1,65700,0,1,0,0,0
i,0x00000000,1720648126.987590,172.16.3.2,5101,172.16.1.2,38852,10447,14480,0,65728,65700,6,6,4,1460,495,1,992,57,33580,0,65700,0,0,0,0,0
o,0x00000000,1720648126.989379,172.16.3.2,5101,172.16.1.2,52158,10447,14480,0,65728,65728,6,6,4,1460,478,1,996,50,33580,1,65700,0,0,0,0,0
o,0x00000000,1720648126.989730,172.16.3.2,5101,172.16.1.2,52158,10447,14480,0,65728,65728,6,6,4,1460,478,1,996,50,33580,2,65700,0,1,0,0,0
o,0x00000000,1720648126.989878,10.0.2.15,22,10.0.2.2,52548,1073725440,14600,0,65535,65700,0,0,4,1460,1,0,4,24,33580,108,65700,0,0,0,0,0
i,0x00000000,1720648126.990546,10.0.2.15,22,10.0.2.2,52548,1073725440,14600,0,65535,65700,0,0,4,1460,1,0,4,24,33580,108,65700,0,108,0,0,0
o,0x00000000,1720648127.026470,172.16.3.2,5101,172.16.1.2,38852,10447,14480,0,65728,65700,6,6,4,1460,495,1,993,57,33580,0,65700,0,0,0,0,0
i,0x00000000,1720648127.104082,172.16.3.2,5101,172.16.1.2,52158,10447,14480,0,65728,65728,6,6,4,1460,478,1,996,50,33580,2,65700,0,2,0,0,0
i,0x00000000,1720648127.203793,172.16.3.2,5101,172.16.1.2,38852,10447,14480,0,65728,65700,6,6,4,1460,495,1,992,57,33580,0,65700,0,0,0,0,0
i,0x00000000,1720648127.216891,172.16.3.2,5101,172.16.1.2,38852,10447,14480,0,65728,65700,6,6,4,1460,495,1,992,57,33580,0,65700,0,0,0,0,0
o,0x00000000,1720648127.216911,172.16.3.2,5101,172.16.1.2,38852,10447,14480,0,65728,65700,6,6,4,1460,495,1,993,57,33580,0,65700,1448,0,0,0,0
i,0x00000000,1720648127.224331,172.16.3.2,5101,172.16.1.2,38852,10447,14480,0,65728,65700,6,6,4,1460,495,1,992,57,33580,0,65700,0,0,0,0,0
i,0x00000000,1720648127.237394,172.16.3.2,5101,172.16.1.2,38852,10447,14480,0,65728,65700,6,6,4,1460,495,1,992,57,33580,0,65700,0,0,0,0,0
o,0x00000000,1720648127.237404,172.16.3.2,5101,172.16.1.2,38852,10447,14480,0,65728,65700,6,6,4,1460,495,1,993,57,33580,0,65700,1448,0,0,0,0
i,0x00000000,1720648127.258134,172.16.3.2,5101,172.16.1.2,38852,10447,14480,0,65728,65700,6,6,4,1460,495,1,992,57,33580,0,65700,0,0,0,0,0
i,0x00000000,1720648127.268149,172.16.3.2,5101,172.16.1.2,38852,10447,14480,0,65728,65700,6,6,4,1460,495,1,992,57,33580,0,65700,0,0,0,0,0
o,0x00000000,1720648127.268157,172.16.3.2,5101,172.16.1.2,38852,10447,14480,0,65728,65700,6,6,4,1460,495,1,993,57,33580,0,65700,1448,0,0,0,0
i,0x00000000,1720648127.273977,172.16.3.2,5101,172.16.1.2,38852,10447,14480,0,65728,65700,6,6,4,1460,495,1,992,57,33580,0,65700,0,0,0,0,0
i,0x00000000,1720648127.283340,172.16.3.2,5101,172.16.1.2,38852,10447,14480,0,65728,65700,6,6,4,1460,495,1,992,57,33580,0,65700,0,0,0,0,0
o,0x00000000,1720648127.283347,172.16.3.2,5101,172.16.1.2,38852,10447,14480,0,65728,65700,6,6,4,1460,495,1,993,57,33580,0,65700,1448,0,0,0,0
i,0x00000000,1720648127.309646,172.16.3.2,5101,172.16.1.2,38852,10447,14480,0,65728,65700,6,6,4,1460,495,1,992,57,33580,0,65700,0,0,0,0,0
i,0x00000000,1720648127.314315,172.16.3.2,5101,172.16.1.2,38852,10447,14480,0,65728,65700,6,6,4,1460,495,1,992,57,33580,0,65700,0,0,0,0,0
o,0x00000000,1720648127.314322,172.16.3.2,5101,172.16.1.2,38852,10447,14480,0,65728,65700,6,6,4,1460,495,1,993,57,33580,0,65700,1448,0,0,0,0
i,0x00000000,1720648127.382164,172.16.3.2,5101,172.16.1.2,38852,10447,14480,0,65728,65700,6,6,4,1460,495,1,992,57,33580,0,65700,0,0,0,0,0
i,0x00000000,1720648127.385298,172.16.3.2,5101,172.16.1.2,38852,10447,14480,0,65728,65700,6,6,4,1460,495,1,992,57,33580,0,65700,0,0,0,0,0
o,0x00000000,1720648127.385306,172.16.3.2,5101,172.16.1.2,38852,10447,14480,0,65728,65700,6,6,4,1460,495,1,993,57,33580,0,65700,1448,0,0,0,0
i,0x00000000,1720648127.423573,172.16.3.2,5101,172.16.1.2,38852,10447,14480,0,65728,65700,6,6,4,1460,495,1,992,57,33580,0,65700,0,0,0,0,0
o,0x00000000,1720648127.456035,172.16.3.2,5101,172.16.1.2,38852,10447,14480,0,65728,65700,6,6,4,1460,495,1,993,57,33580,0,65700,0,0,0,0,0
i,0x00000000,1720648127.465151,172.16.3.2,5101,172.16.1.2,38852,10447,14480,0,65728,65700,6,6,4,1460,495,1,992,57,33580,0,65700,0,0,0,0,0
o,0x00000000,1720648127.496661,172.16.3.2,5101,172.16.1.2,38852,10447,14480,0,65728,65700,6,6,4,1460,495,1,993,57,33580,0,65700,0,0,0,0,0
i,0x00000000,1720648127.503263,172.16.3.2,5101,172.16.1.2,38852,10447,14480,0,65728,65700,6,6,4,1460,495,1,992,57,33580,0,65700,0,0,0,0,0
i,0x00000000,1720648127.524136,172.16.3.2,5101,172.16.1.2,38852,10447,14480,0,65728,65700,6,6,4,1460,495,1,992,57,33580,0,65700,0,0,0,0,0
o,0x00000000,1720648127.524164,172.16.3.2,5101,172.16.1.2,38852,10447,14480,0,65728,65700,6,6,4,1460,495,1,993,57,33580,0,65700,1448,0,0,0,0
i,0x00000000,1720648127.533294,172.16.3.2,5101,172.16.1.2,38852,10447,14480,0,65728,65700,6,6,4,1460,495,1,992,57,33580,0,65700,0,0,0,0,0
i,0x00000000,1720648127.548247,172.16.3.2,5101,172.16.1.2,38852,10447,14480,0,65728,65700,6,6,4,1460,495,1,992,57,33580,0,65700,0,0,0,0,0
o,0x00000000,1720648127.548253,172.16.3.2,5101,172.16.1.2,38852,10447,14480,0,65728,65700,6,6,4,1460,495,1,993,57,33580,0,65700,1448,0,0,0,0
i,0x00000000,1720648127.584053,172.16.3.2,5101,172.16.1.2,38852,10447,14480,0,65728,65700,6,6,4,1460,495,1,992,57,33580,0,65700,0,0,0,0,0
i,0x00000000,1720648127.600055,172.16.3.2,5101,172.16.1.2,38852,10447,14480,0,65728,65700,6,6,4,1460,495,1,992,57,33580,0,65700,0,0,0,0,0
o,0x00000000,1720648127.600061,172.16.3.2,5101,172.16.1.2,38852,10447,14480,0,65728,65700,6,6,4,1460,495,1,993,57,33580,0,65700,1448,0,0,0,0
i,0x00000000,1720648127.603099,172.16.3.2,5101,172.16.1.2,38852,10447,14480,0,65728,65700,6,6,4,1460,495,1,992,57,33580,0,65700,0,0,0,0,0
i,0x00000000,1720648127.633990,172.16.3.2,5101,172.16.1.2,38852,10447,14480,0,65728,65700,6,6,4,1460,495,1,992,57,33580,0,65700,0,0,0,0,0
o,0x00000000,1720648127.633997,172.16.3.2,5101,172.16.1.2,38852,10447,14480,0,65728,65700,6,6,4,1460,495,1,993,57,33580,0,65700,1448,0,0,0,0
i,0x00000000,1720648127.662689,172.16.3.2,5101,172.16.1.2,38852,10447,14480,0,65728,65700,6,6,4,1460,495,1,992,57,33580,0,65700,0,0,0,0,0
o,0x00000000,1720648127.696663,172.16.3.2,5101,172.16.1.2,38852,10447,14480,0,65728,65700,6,6,4,1460,495,1,993,57,33580,0,65700,0,0,0,0,0
i,0x00000000,1720648127.712687,172.16.3.2,5101,172.16.1.2,38852,10447,14480,0,65728,65700,6,6,4,1460,495,1,992,57,33580,0,65700,0,0,0,0,0
i,0x00000000,1720648127.723281,172.16.3.2,5101,172.16.1.2,38852,10447,14480,0,65728,65700,6,6,4,1460,495,1,992,57,33580,0,65700,0,0,0,0,0
o,0x00000000,1720648127.723290,172.16.3.2,5101,172.16.1.2,38852,10447,14480,0,65728,65700,6,6,4,1460,495,1,993,57,33580,0,65700,1448,0,0,0,0
i,0x00000000,1720648127.745653,172.16.3.2,5101,172.16.1.2,38852,10447,14480,0,65728,65700,6,6,4,1460,495,1,992,57,33580,0,65700,0,0,0,0,0
o,0x00000000,1720648127.786729,172.16.3.2,5101,172.16.1.2,38852,10447,14480,0,65728,65700,6,6,4,1460,495,1,993,57,33580,0,65700,0,0,0,0,0
i,0x00000000,1720648127.787575,172.16.3.2,5101,172.16.1.2,38852,10447,14480,0,65728,65700,6,6,4,1460,495,1,992,57,33580,0,65700,0,0,0,0,0
i,0x00000000,1720648127.793041,172.16.3.2,5101,172.16.1.2,38852,10447,14480,0,65728,65700,6,6,4,1460,495,1,992,57,33580,0,65700,0,0,0,0,0
o,0x00000000,1720648127.793049,172.16.3.2,5101,172.16.1.2,38852,10447,14480,0,65728,65700,6,6,4,1460,495,1,993,57,33580,0,65700,1448,0,0,0,0
i,0x00000000,1720648127.808042,172.16.3.2,5101,172.16.1.2,38852,10447,14480,0,65728,65700,6,6,4,1460,495,1,992,57,33580,0,65700,0,0,0,0,0
o,0x00000000,1720648127.846394,172.16.3.2,5101,172.16.1.2,38852,10447,14480,0,65728,65700,6,6,4,1460,495,1,993,57,33580,0,65700,0,0,0,0,0
i,0x00000000,1720648127.853462,172.16.3.2,5101,172.16.1.2,38852,10447,14480,0,65728,65700,6,6,4,1460,495,1,992,57,33580,0,65700,0,0,0,0,0
i,0x00000000,1720648127.873425,172.16.3.2,5101,172.16.1.2,38852,10447,14480,0,65728,65700,6,6,4,1460,495,1,992,57,33580,0,65700,0,0,0,0,0
o,0x00000000,1720648127.873435,172.16.3.2,5101,172.16.1.2,38852,10447,14480,0,65728,65700,6,6,4,1460,495,1,993,57,33580,0,65700,1448,0,0,0,0
i,0x00000000,1720648127.914109,172.16.3.2,5101,172.16.1.2,38852,10447,14480,0,65728,65700,6,6,4,1460,495,1,992,57,33580,0,65700,0,0,0,0,0
i,0x00000000,1720648127.933003,172.16.3.2,5101,172.16.1.2,38852,10447,14480,0,65728,65700,6,6,4,1460,495,1,992,57,33580,0,65700,0,0,0,0,0
o,0x00000000,1720648127.933014,172.16.3.2,5101,172.16.1.2,38852,10447,14480,0,65728,65700,6,6,4,1460,495,1,993,57,33580,0,65700,1448,0,0,0,0
i,0x00000000,1720648127.934027,172.16.3.2,5101,172.16.1.2,38852,10447,14480,0,65728,65700,6,6,4,1460,495,1,992,57,33580,0,65700,0,0,0,0,0
i,0x00000000,1720648127.954062,172.16.3.2,5101,172.16.1.2,38852,10447,14480,0,65728,65700,6,6,4,1460,495,1,992,57,33580,0,65700,0,0,0,0,0
o,0x00000000,1720648127.954068,172.16.3.2,5101,172.16.1.2,38852,10447,14480,0,65728,65700,6,6,4,1460,495,1,993,57,33580,0,65700,1448,0,0,0,0
i,0x00000000,1720648127.996654,172.16.3.2,5101,172.16.1.2,38852,10447,14480,0,65728,65700,6,6,4,1460,495,1,992,57,33580,0,65700,0,0,0,0,0
o,0x00000000,1720648128.006556,10.0.2.15,22,10.0.2.2,52548,1073725440,14600,0,65535,65700,0,0,4,1460,1,0,4,24,33580,156,65700,0,0,0,0,0
i,0x00000000,1720648128.007290,10.0.2.15,22,10.0.2.2,52548,1073725440,14600,0,65535,65700,0,0,4,1460,1,0,4,24,33580,156,65700,0,156,0,0,0
i,0x00000000,1720648128.013903,172.16.3.2,5101,172.16.1.2,38852,10447,14480,0,65728,65700,6,6,4,1460,495,1,992,57,33580,0,65700,0,0,0,0,0
o,0x00000000,1720648128.013912,172.16.3.2,5101,172.16.1.2,38852,10447,14480,0,65728,65700,6,6,4,1460,495,1,993,57,33580,0,65700,1448,0,0,0,0
i,0x00000000,1720648128.065989,172.16.3.2,5101,172.16.1.2,38852,10447,14480,0,65728,65700,6,6,4,1460,495,1,992,57,33580,0,65700,0,0,0,0,0
i,0x00000000,1720648128.079132,172.16.3.2,5101,172.16.1.2,38852,10447,14480,0,65728,65700,6,6,4,1460,495,1,992,57,33580,0,65700,0,0,0,0,0
o,0x00000000,1720648128.079144,172.16.3.2,5101,172.16.1.2,38852,10447,14480,0,65728,65700,6,6,4,1460,495,1,993,57,33580,0,65700,1448,0,0,0,0
i,0x00000000,1720648128.084835,172.16.3.2,5101,172.16.1.2,38852,10447,14480,0,65728,65700,6,6,4,1460,495,1,992,57,33580,0,65700,0,0,0,0,0
o,0x00000000,1720648128.116393,172.16.3.2,5101,172.16.1.2,38852,10447,14480,0,65728,65700,6,6,4,1460,495,1,993,57,33580,0,65700,0,0,0,0,0
i,0x00000000,1720648128.153801,172.16.3.2,5101,172.16.1.2,38852,10447,14480,0,65728,65700,6,6,4,1460,495,1,992,57,33580,0,65700,0,0,0,0,0
i,0x00000000,1720648128.172630,172.16.3.2,5101,172.16.1.2,38852,10447,14480,0,65728,65700,6,6,4,1460,495,1,992,57,33580,0,65700,0,0,0,0,0
o,0x00000000,1720648128.172638,172.16.3.2,5101,172.16.1.2,38852,10447,14480,0,65728,65700,6,6,4,1460,495,1,993,57,33580,0,65700,1448,0,0,0,0
i,0x00000000,1720648128.184009,172.16.3.2,5101,172.16.1.2,38852,10447,14480,0,65728,65700,6,6,4,1460,495,1,992,57,33580,0,65700,0,0,0,0,0
o,0x00000000,1720648128.215746,172.16.3.2,5101,172.16.1.2,38852,10447,14480,0,65728,65700,6,6,4,1460,495,1,993,57,33580,0,65700,0,0,0,0,0
i,0x00000000,1720648128.216669,172.16.3.2,5101,172.16.1.2,38852,10447,14480,0,65728,65700,6,6,4,1460,495,1,992,57,33580,0,65700,0,0,0,0,0
i,0x00000000,1720648128.237329,172.16.3.2,5101,172.16.1.2,38852,10447,14480,0,65728,65700,6,6,4,1460,495,1,992,57,33580,0,65700,0,0,0,0,0
o,0x00000000,1720648128.237338,172.16.3.2,5101,172.16.1.2,38852,10447,14480,0,65728,65700,6,6,4,1460,495,1,993,57,33580,0,65700,1448,0,0,0,0
i,0x00000000,1720648128.245581,172.16.3.2,5101,172.16.1.2,38852,10447,14480,0,65728,65700,6,6,4,1460,495,1,992,57,33580,0,65700,0,0,0,0,0
i,0x00000000,1720648128.266068,172.16.3.2,5101,172.16.1.2,38852,10447,14480,0,65728,65700,6,6,4,1460,495,1,992,57,33580,0,65700,0,0,0,0,0
o,0x00000000,1720648128.266078,172.16.3.2,5101,172.16.1.2,38852,10447,14480,0,65728,65700,6,6,4,1460,495,1,993,57,33580,0,65700,1448,0,0,0,0
i,0x00000000,1720648128.292877,172.16.3.2,5101,172.16.1.2,38852,10447,14480,0,65728,65700,6,6,4,1460,495,1,992,57,33580,0,65700,0,0,0,0,0
i,0x00000000,1720648128.317890,172.16.3.2,5101,172.16.1.2,38852,10447,14480,0,65728,65700,6,6,4,1460,495,1,992,57,33580,0,65700,0,0,0,0,0
o,0x00000000,1720648128.317900,172.16.3.2,5101,172.16.1.2,38852,10447,14480,0,65728,65700,6,6,4,1460,495,1,993,57,33580,0,65700,1448,0,0,0,0
i,0x00000000,1720648128.323787,172.16.3.2,5101,172.16.1.2,38852,10447,14480,0,65728,65700,6,6,4,1460,495,1,992,57,33580,0,65700,0,0,0,0,0
o,0x00000000,1720648128.356438,172.16.3.2,5101,172.16.1.2,38852,10447,14480,0,65728,65700,6,6,4,1460,495,1,993,57,33580,0,65700,0,0,0,0,0
i,0x00000000,1720648128.370085,172.16.3.2,5101,172.16.1.2,38852,10447,14480,0,65728,65700,6,6,4,1460,495,1,992,57,33580,0,65700,0,0,0,0,0
i,0x00000000,1720648128.399941,172.16.3.2,5101,172.16.1.2,38852,10447,14480,0,65728,65700,6,6,4,1460,495,1,992,57,33580,0,65700,0,0,0,0,0
o,0x00000000,1720648128.399947,172.16.3.2,5101,172.16.1.2,38852,10447,14480,0,65728,65700,6,6,4,1460,495,1,993,57,33580,0,65700,1448,0,0,0,0
i,0x00000000,1720648128.463107,172.16.3.2,5101,172.16.1.2,38852,10447,14480,0,65728,65700,6,6,4,1460,495,1,992,57,33580,0,65700,0,0,0,0,0
o,0x00000000,1720648128.463119,172.16.3.2,5101,172.16.1.2,38852,10447,14480,0,65728,65700,6,6,4,1460,495,1,993,57,33580,0,65700,0,0,1,0,0
i,0x00000000,1720648128.473472,172.16.3.2,5101,172.16.1.2,38852,10447,14480,0,65728,65700,6,6,4,1460,495,1,992,57,33580,0,65700,0,0,1,0,0
o,0x00000000,1720648128.473478,172.16.3.2,5101,172.16.1.2,38852,10447,14480,0,65728,65728,6,6,4,1460,495,1,993,57,33580,0,65700,0,0,1,0,0
i,0x00000000,1720648128.495188,172.16.3.2,5101,172.16.1.2,38852,10447,14480,0,65728,65728,6,6,4,1460,495,1,992,57,33580,0,65700,0,0,1,0,0
o,0x00000000,1720648128.495204,172.16.3.2,5101,172.16.1.2,38852,10447,14480,0,65728,65728,6,6,4,1460,495,1,993,57,33580,0,65700,0,0,1,0,0
i,0x00000000,1720648128.536763,172.16.3.2,5101,172.16.1.2,38852,10447,14480,0,65728,65728,6,6,4,1460,495,1,992,57,33580,0,65700,0,0,1,0,0
o,0x00000000,1720648128.536776,172.16.3.2,5101,172.16.1.2,38852,10447,14480,0,65728,65728,6,6,4,1460,495,1,993,57,33580,0,65700,0,0,1,0,0
i,0x00000000,1720648128.552793,172.16.3.2,5101,172.16.1.2,38852,10447,14480,0,65728,65728,6,6,4,1460,495,1,992,57,33580,0,65700,0,0,1,0,0
o,0x00000000,1720648128.552803,172.16.3.2,5101,172.16.1.2,38852,10447,14480,0,65728,65728,6,6,4,1460,495,1,993,57,33580,0,65700,0,0,1,0,0
i,0x00000000,1720648128.563199,172.16.3.2,5101,172.16.1.2,38852,10447,14480,0,65728,65728,6,6,4,1460,495,1,992,57,33580,0,65700,0,0,1,0,0
o,0x00000000,1720648128.563206,172.16.3.2,5101,172.16.1.2,38852,10447,14480,0,65728,65728,6,6,4,1460,495,1,993,57,33580,0,65700,0,0,2,0,0
i,0x00000000,1720648128.578176,172.16.3.2,5101,172.16.1.2,38852,10447,14480,0,65728,65728,6,6,4,1460,495,1,992,57,33580,0,65700,0,0,2,0,0
o,0x00000000,1720648128.578181,172.16.3.2,5101,172.16.1.2,38852,10447,14480,0,65728,65728,6,6,4,1460,495,1,993,57,33580,0,65700,0,0,2,0,0
i,0x00000000,1720648128.630756,172.16.3.2,5101,172.16.1.2,38852,10447,14480,0,65728,65728,6,6,4,1460,495,1,992,57,33580,0,65700,0,0,2,0,0
o,0x00000000,1720648128.630762,172.16.3.2,5101,172.16.1.2,38852,10447,14480,0,65728,65728,6,6,4,1460,495,1,993,57,33580,0,65700,0,0,2,0,0
i,0x00000000,1720648128.633311,172.16.3.2,5101,172.16.1.2,38852,10447,14480,0,65728,65728,6,6,4,1460,495,1,992,57,33580,0,65700,0,0,2,0,0
o,0x00000000,1720648128.633317,172.16.3.2,5101,172.16.1.2,38852,10447,14480,0,65728,65728,6,6,4,1460,495,1,993,57,33580,0,65700,0,0,3,0,0
i,0x00000000,1720648128.661957,172.16.3.2,5101,172.16.1.2,38852,10447,14480,0,65728,65728,6,6,4,1460,495,1,992,57,33580,0,65700,0,0,3,0,0
o,0x00000000,1720648128.661975,172.16.3.2,5101,172.16.1.2,38852,10447,14480,0,65728,65728,6,6,4,1460,495,1,993,57,33580,0,65700,8688,0,2,0,0
i,0x00000000,1720648128.693047,172.16.3.2,5101,172.16.1.2,38852,10447,14480,0,65728,65728,6,6,4,1460,495,1,992,57,33580,0,65700,0,0,2,0,0
o,0x00000000,1720648128.693055,172.16.3.2,5101,172.16.1.2,38852,10447,14480,0,65728,65700,6,6,4,1460,495,1,993,57,33580,0,65700,0,0,2,0,0
i,0x00000000,1720648128.702659,172.16.3.2,5101,172.16.1.2,38852,10447,14480,0,65728,65700,6,6,4,1460,495,1,992,57,33580,0,65700,0,0,2,0,0
o,0x00000000,1720648128.702666,172.16.3.2,5101,172.16.1.2,38852,10447,14480,0,65728,65728,6,6,4,1460,495,1,993,57,33580,0,65700,0,0,2,0,0
i,0x00000000,1720648128.734479,172.16.3.2,5101,172.16.1.2,38852,10447,14480,0,65728,65728,6,6,4,1460,495,1,992,57,33580,0,65700,0,0,2,0,0
o,0x00000000,1720648128.734491,172.16.3.2,5101,172.16.1.2,38852,10447,14480,0,65728,65728,6,6,4,1460,495,1,993,57,33580,0,65700,0,0,2,0,0
i,0x00000000,1720648128.765611,172.16.3.2,5101,172.16.1.2,38852,10447,14480,0,65728,65728,6,6,4,1460,495,1,992,57,33580,0,65700,0,0,2,0,0
o,0x00000000,1720648128.765627,172.16.3.2,5101,172.16.1.2,38852,10447,14480,0,65728,65728,6,6,4,1460,495,1,993,57,33580,0,65700,5792,0,1,0,0
i,0x00000000,1720648128.776297,172.16.3.2,5101,172.16.1.2,38852,10447,14480,0,65728,65728,6,6,4,1460,495,1,992,57,33580,0,65700,0,0,1,0,0
o,0x00000000,1720648128.776304,172.16.3.2,5101,172.16.1.2,38852,10447,14480,0,65728,65700,6,6,4,1460,495,1,993,57,33580,0,65700,0,0,1,0,0
i,0x00000000,1720648128.799224,172.16.3.2,5101,172.16.1.2,38852,10447,14480,0,65728,65700,6,6,4,1460,495,1,992,57,33580,0,65700,0,0,1,0,0
o,0x00000000,1720648128.799228,172.16.3.2,5101,172.16.1.2,38852,10447,14480,0,65728,65728,6,6,4,1460,495,1,993,57,33580,0,65700,0,0,1,0,0
i,0x00000000,1720648128.803148,172.16.3.2,5101,172.16.1.2,38852,10447,14480,0,65728,65728,6,6,4,1460,495,1,992,57,33580,0,65700,0,0,1,0,0
o,0x00000000,1720648128.803154,172.16.3.2,5101,172.16.1.2,38852,10447,14480,0,65728,65728,6,6,4,1460,495,1,993,57,33580,0,65700,2896,0,0,0,0
i,0x00000000,1720648128.803229,172.16.3.2,5101,172.16.1.2,38852,10447,14480,0,65728,65728,6,6,4,1460,495,1,992,57,33580,0,65700,2896,0,0,0,0
i,0x00000000,1720648128.893223,172.16.3.2,5101,172.16.1.2,38852,10447,14480,0,65728,62848,6,6,4,1460,495,1,992,57,33580,0,65700,0,0,0,0,0
o,0x00000000,1720648128.893238,172.16.3.2,5101,172.16.1.2,38852,10447,14480,0,65728,65700,6,6,4,1460,495,1,993,57,33580,0,65700,0,0,1,0,0
i,0x00000000,1720648128.912907,172.16.3.2,5101,172.16.1.2,38852,10447,14480,0,65728,65700,6,6,4,1460,495,1,992,57,33580,0,65700,0,0,1,0,0
o,0x00000000,1720648129.006833,10.0.2.15,22,10.0.2.2,52548,1073725440,14600,0,65535,65700,0,0,4,1460,1,0,4,24,33580,108,65700,0,0,0,0,0
i,0x00000000,1720648129.007467,10.0.2.15,22,10.0.2.2,52548,1073725440,14600,0,65535,65700,0,0,4,1460,1,0,4,24,33580,108,65700,0,108,0,0,0
i,0x00000000,1720648129.078601,172.16.3.2,5101,172.16.1.2,38852,10447,14480,0,65728,65728,6,6,4,1460,495,1,992,57,33580,0,65700,0,0,1,0,0
o,0x00000000,1720648129.078616,172.16.3.2,5101,172.16.1.2,38852,10447,14480,0,65728,65728,6,6,4,1460,495,1,993,57,33580,0,65700,0,0,1,0,0
i,0x00000000,1720648129.083412,172.16.3.2,5101,172.16.1.2,38852,10447,14480,0,65728,65728,6,6,4,1460,495,1,992,57,33580,0,65700,0,0,1,0,0
o,0x00000000,1720648129.083421,172.16.3.2,5101,172.16.1.2,38852,10447,14480,0,65728,65728,6,6,4,1460,495,1,993,57,33580,0,65700,1448,0,1,0,0
i,0x00000000,1720648129.092830,172.16.3.2,5101,172.16.1.2,38852,10447,14480,0,65728,65728,6,6,4,1460,495,1,992,57,33580,0,65700,0,0,1,0,0
o,0x00000000,1720648129.092842,172.16.3.2,5101,172.16.1.2,38852,10447,14480,0,65728,65700,6,6,4,1460,495,1,993,57,33580,0,65700,0,0,1,0,0
i,0x00000000,1720648129.119713,172.16.3.2,5101,172.16.1.2,38852,10447,14480,0,65728,65700,6,6,4,1460,495,1,992,57,33580,0,65700,0,0,1,0,0
o,0x00000000,1720648129.119734,172.16.3.2,5101,172.16.1.2,38852,10447,14480,0,65728,65728,6,6,4,1460,495,1,993,57,33580,0,65700,1448,0,1,0,0
i,0x00000000,1720648129.125058,172.16.3.2,5101,172.16.1.2,38852,10447,14480,0,65728,65728,6,6,4,1460,495,1,992,57,33580,0,65700,0,0,1,0,0
o,0x00000000,1720648129.125064,172.16.3.2,5101,172.16.1.2,38852,10447,14480,0,65728,65700,6,6,4,1460,495,1,993,57,33580,0,65700,0,0,1,0,0
i,0x00000000,1720648129.140302,172.16.3.2,5101,172.16.1.2,38852,10447,14480,0,65728,65700,6,6,4,1460,495,1,992,57,33580,0,65700,0,0,1,0,0
o,0x00000000,1720648129.140309,172.16.3.2,5101,172.16.1.2,38852,10447,14480,0,65728,65728,6,6,4,1460,495,1,993,57,33580,0,65700,1448,0,1,0,0
i,0x00000000,1720648129.143048,172.16.3.2,5101,172.16.1.2,38852,10447,14480,0,65728,65728,6,6,4,1460,495,1,992,57,33580,0,65700,0,0,1,0,0
o,0x00000000,1720648129.143058,172.16.3.2,5101,172.16.1.2,38852,10447,14480,0,65728,65700,6,6,4,1460,495,1,993,57,33580,0,65700,1448,0,1,0,0
i,0x00000000,1720648129.225924,172.16.3.2,5101,172.16.1.2,38852,10447,14480,0,65728,65700,6,6,4,1460,495,1,992,57,33580,0,65700,0,0,1,0,0
o,0x00000000,1720648129.225930,172.16.3.2,5101,172.16.1.2,38852,10447,14480,0,65728,65700,6,6,4,1460,495,1,993,57,33580,0,65700,0,0,1,0,0
i,0x00000000,1720648129.266145,172.16.3.2,5101,172.16.1.2,38852,10447,14480,0,65728,65700,6,6,4,1460,495,1,992,57,33580,0,65700,0,0,1,0,0
o,0x00000000,1720648129.266162,172.16.3.2,5101,172.16.1.2,38852,10447,14480,0,65728,65728,6,6,4,1460,495,1,993,57,33580,0,65700,0,0,1,0,0
i,0x00000000,1720648129.282487,172.16.3.2,5101,172.16.1.2,38852,10447,14480,0,65728,65728,6,6,4,1460,495,1,992,57,33580,0,65700,0,0,1,0,0
o,0x00000000,1720648129.282493,172.16.3.2,5101,172.16.1.2,38852,10447,14480,0,65728,65728,6,6,4,1460,495,1,993,57,33580,0,65700,0,0,1,0,0
i,0x00000000,1720648129.292930,172.16.3.2,5101,172.16.1.2,38852,10447,14480,0,65728,65728,6,6,4,1460,495,1,992,57,33580,0,65700,0,0,1,0,0
o,0x00000000,1720648129.292936,172.16.3.2,5101,172.16.1.2,38852,10447,14480,0,65728,65728,6,6,4,1460,495,1,993,57,33580,0,65700,0,0,1,0,0
i,0x00000000,1720648129.307926,172.16.3.2,5101,172.16.1.2,38852,10447,14480,0,65728,65728,6,6,4,1460,495,1,992,57,33580,0,65700,0,0,1,0,0
o,0x00000000,1720648129.307934,172.16.3.2,5101,172.16.1.2,38852,10447,14480,0,65728,65728,6,6,4,1460,495,1,993,57,33580,0,65700,0,0,1,0,0
i,0x00000000,1720648129.313595,172.16.3.2,5101,172.16.1.2,38852,10447,14480,0,65728,65728,6,6,4,1460,495,1,992,57,33580,0,65700,0,0,1,0,0
o,0x00000000,1720648129.313601,172.16.3.2,5101,172.16.1.2,38852,10447,14480,0,65728,65728,6,6,4,1460,495,1,993,57,33580,0,65700,0,0,1,0,0
i,0x00000000,1720648129.389862,172.16.3.2,5101,172.16.1.2,38852,10447,14480,0,65728,65728,6,6,4,1460,495,1,992,57,33580,0,65700,0,0,1,0,0
o,0x00000000,1720648129.389879,172.16.3.2,5101,172.16.1.2,38852,10447,14480,0,65728,65728,6,6,4,1460,495,1,993,57,33580,0,65700,15928,0,0,0,0
i,0x00000000,1720648129.403972,172.16.3.2,5101,172.16.1.2,38852,10447,14480,0,65728,65728,6,6,4,1460,495,1,992,57,33580,0,65700,0,0,0,0,0
o,0x00000000,1720648129.404026,172.16.3.2,5101,172.16.1.2,38852,10447,14480,0,65728,65728,6,6,4,1460,495,1,993,57,33580,0,65700,0,0,0,0,0
i,0x00000000,1720648129.433869,172.16.3.2,5101,172.16.1.2,38852,10447,14480,0,65728,65728,6,6,4,1460,495,1,992,57,33580,0,65700,0,0,0,0,0
o,0x00000000,1720648129.466168,172.16.3.2,5101,172.16.1.2,38852,10447,14480,0,65728,65728,6,6,4,1460,495,1,993,57,33580,0,65700,0,0,0,0,0
i,0x00000000,1720648129.527770,172.16.3.2,5101,172.16.1.2,38852,10447,14480,0,65728,65728,6,6,4,1460,495,1,992,57,33580,0,65700,0,0,0,0,0
i,0x00000000,1720648129.538490,172.16.3.2,5101,172.16.1.2,38852,10447,14480,0,65728,65728,6,6,4,1460,495,1,992,57,33580,0,65700,0,0,0,0,0
o,0x00000000,1720648129.538502,172.16.3.2,5101,172.16.1.2,38852,10447,14480,0,65728,65728,6,6,4,1460,495,1,993,57,33580,0,65700,1448,0,0,0,0
i,0x00000000,1720648129.553319,172.16.3.2,5101,172.16.1.2,38852,10447,14480,0,65728,65728,6,6,4,1460,495,1,992,57,33580,0,65700,0,0,0,0,0
o,0x00000000,1720648129.586178,172.16.3.2,5101,172.16.1.2,38852,10447,14480,0,65728,65728,6,6,4,1460,495,1,993,57,33580,0,65700,0,0,0,0,0
i,0x00000000,1720648129.662647,172.16.3.2,5101,172.16.1.2,38852,10447,14480,0,65728,65728,6,6,4,1460,495,1,992,57,33580,0,65700,0,0,0,0,0
i,0x00000000,1720648129.662658,172.16.3.2,5101,172.16.1.2,38852,10447,14480,0,65728,65728,6,6,4,1460,495,1,992,57,33580,0,65700,1448,0,0,0,0
o,0x00000000,1720648129.662666,172.16.3.2,5101,172.16.1.2,38852,10447,14480,0,65728,65728,6,6,4,1460,495,1,993,57,33580,0,65700,2896,0,0,0,0
i,0x00000000,1720648129.663368,172.16.3.2,5101,172.16.1.2,38852,10447,14480,0,65728,65728,6,6,4,1460,495,1,992,57,33580,0,65700,0,0,0,0,0
i,0x00000000,1720648129.673515,172.16.3.2,5101,172.16.1.2,38852,10447,14480,0,65728,65728,6,6,4,1460,495,1,992,57,33580,0,65700,0,0,0,0,0
o,0x00000000,1720648129.673520,172.16.3.2,5101,172.16.1.2,38852,10447,14480,0,65728,65728,6,6,4,1460,495,1,993,57,33580,0,65700,1448,0,0,0,0
i,0x00000000,1720648129.747027,172.16.3.2,5101,172.16.1.2,38852,10447,14480,0,65728,65728,6,6,4,1460,495,1,992,57,33580,0,65700,0,0,0,0,0
i,0x00000000,1720648129.756959,172.16.3.2,5101,172.16.1.2,38852,10447,14480,0,65728,65728,6,6,4,1460,495,1,992,57,33580,0,65700,0,0,0,0,0
o,0x00000000,1720648129.756969,172.16.3.2,5101,172.16.1.2,38852,10447,14480,0,65728,65728,6,6,4,1460,495,1,993,57,33580,0,65700,1448,0,0,0,0
i,0x00000000,1720648129.812905,172.16.3.2,5101,172.16.1.2,38852,10447,14480,0,65728,65728,6,6,4,1460,495,1,992,57,33580,0,65700,0,0,0,0,0
i,0x00000000,1720648129.822817,172.16.3.2,5101,172.16.1.2,38852,10447,14480,0,65728,65728,6,6,4,1460,495,1,992,57,33580,0,65700,0,0,0,0,0
o,0x00000000,1720648129.822826,172.16.3.2,5101,172.16.1.2,38852,10447,14480,0,65728,65728,6,6,4,1460,495,1,993,57,33580,0,65700,1448,0,0,0,0
i,0x00000000,1720648129.833166,172.16.3.2,5101,172.16.1.2,38852,10447,14480,0,65728,65728,6,6,4,1460,495,1,992,57,33580,0,65700,0,0,0,0,0
i,0x00000000,1720648129.855115,172.16.3.2,5101,172.16.1.2,38852,10447,14480,0,65728,65728,6,6,4,1460,495,1,992,57,33580,0,65700,0,0,0,0,0
o,0x00000000,1720648129.855124,172.16.3.2,5101,172.16.1.2,38852,10447,14480,0,65728,65728,6,6,4,1460,495,1,993,57,33580,0,65700,1448,0,0,0,0
i,0x00000000,1720648129.913522,172.16.3.2,5101,172.16.1.2,38852,10447,14480,0,65728,65728,6,6,4,1460,495,1,992,57,33580,0,65700,0,0,0,0,0
i,0x00000000,1720648129.923699,172.16.3.2,5101,172.16.1.2,38852,10447,14480,0,65728,65728,6,6,4,1460,495,1,992,57,33580,0,65700,0,0,0,0,0
o,0x00000000,1720648129.923710,172.16.3.2,5101,172.16.1.2,38852,10447,14480,0,65728,65728,6,6,4,1460,495,1,993,57,33580,0,65700,1448,0,0,0,0
i,0x00000000,1720648129.924531,172.16.3.2,5101,172.16.1.2,38852,10447,14480,0,65728,65728,6,6,4,1460,495,1,992,57,33580,0,65700,0,0,0,0,0
o,0x00000000,1720648129.956005,172.16.3.2,5101,172.16.1.2,38852,10447,14480,0,65728,65728,6,6,4,1460,495,1,993,57,33580,0,65700,0,0,0,0,0
i,0x00000000,1720648129.992799,172.16.3.2,5101,172.16.1.2,38852,10447,14480,0,65728,65728,6,6,4,1460,495,1,992,57,33580,0,65700,0,0,0,0,0
i,0x00000000,1720648129.992807,172.16.3.2,5101,172.16.1.2,38852,10447,14480,0,65728,65728,6,6,4,1460,495,1,992,57,33580,0,65700,1448,0,0,0,0
o,0x00000000,1720648129.992811,172.16.3.2,5101,172.16.1.2,38852,10447,14480,0,65728,65728,6,6,4,1460,495,1,993,57,33580,0,65700,2896,0,0,0,0
o,0x00000000,1720648130.006694,10.0.2.15,22,10.0.2.2,52548,1073725440,14600,0,65535,65700,0,0,4,1460,1,0,4,24,33580,108,65700,0,0,0,0,0
i,0x00000000,1720648130.007347,10.0.2.15,22,10.0.2.2,52548,1073725440,14600,0,65535,65700,0,0,4,1460,1,0,4,24,33580,108,65700,0,108,0,0,0
i,0x00000000,1720648130.017851,172.16.3.2,5101,172.16.1.2,38852,10447,14480,0,65728,65728,6,6,4,1460,495,1,992,57,33580,0,65700,0,0,0,0,0
i,0x00000000,1720648130.028312,172.16.3.2,5101,172.16.1.2,38852,10447,14480,0,65728,65728,6,6,4,1460,495,1,992,57,33580,0,65700,0,0,0,0,0
o,0x00000000,1720648130.028319,172.16.3.2,5101,172.16.1.2,38852,10447,14480,0,65728,65728,6,6,4,1460,495,1,993,57,33580,0,65700,1448,0,0,0,0
i,0x00000000,1720648130.083078,172.16.3.2,5101,172.16.1.2,38852,10447,14480,0,65728,65728,6,6,4,1460,495,1,992,57,33580,0,65700,0,0,0,0,0
i,0x00000000,1720648130.092815,172.16.3.2,5101,172.16.1.2,38852,10447,14480,0,65728,65728,6,6,4,1460,495,1,992,57,33580,0,65700,0,0,0,0,0
o,0x00000000,1720648130.092834,172.16.3.2,5101,172.16.1.2,38852,10447,14480,0,65728,65728,6,6,4,1460,495,1,993,57,33580,0,65700,1448,0,0,0,0
i,0x00000000,1720648130.133947,172.16.3.2,5101,172.16.1.2,38852,10447,14480,0,65728,65728,6,6,4,1460,495,1,992,57,33580,0,65700,0,0,0,0,0
i,0x00000000,1720648130.142541,172.16.3.2,5101,172.16.1.2,38852,10447,14480,0,65728,65728,6,6,4,1460,495,1,992,57,33580,0,65700,0,0,0,0,0
o,0x00000000,1720648130.142551,172.16.3.2,5101,172.16.1.2,38852,10447,14480,0,65728,65728,6,6,4,1460,495,1,993,57,33580,0,65700,1448,0,0,0,0
i,0x00000000,1720648130.194588,172.16.3.2,5101,172.16.1.2,38852,10447,14480,0,65728,65728,6,6,4,1460,495,1,992,57,33580,0,65700,0,0,0,0,0
i,0x00000000,1720648130.195301,172.16.3.2,5101,172.16.1.2,38852,10447,14480,0,65728,65728,6,6,4,1460,495,1,992,57,33580,0,65700,0,0,0,0,0
o,0x00000000,1720648130.195311,172.16.3.2,5101,172.16.1.2,38852,10447,14480,0,65728,65728,6,6,4,1460,495,1,993,57,33580,0,65700,1448,0,0,0,0
i,0x00000000,1720648130.202314,172.16.3.2,5101,172.16.1.2,38852,10447,14480,0,65728,65728,6,6,4,1460,495,1,992,57,33580,0,65700,0,0,0,0,0
o,0x00000000,1720648130.236520,172.16.3.2,5101,172.16.1.2,38852,10447,14480,0,65728,65728,6,6,4,1460,495,1,993,57,33580,0,65700,0,0,0,0,0
i,0x00000000,1720648130.242085,172.16.3.2,5101,172.16.1.2,38852,10447,14480,0,65728,65728,6,6,4,1460,495,1,992,57,33580,0,65700,0,0,0,0,0
i,0x00000000,1720648130.257193,172.16.3.2,5101,172.16.1.2,38852,10447,14480,0,65728,65728,6,6,4,1460,495,1,992,57,33580,0,65700,0,0,0,0,0
o,0x00000000,1720648130.257210,172.16.3.2,5101,172.16.1.2,38852,10447,14480,0,65728,65728,6,6,4,1460,495,1,993,57,33580,0,65700,1448,0,0,0,0
i,0x00000000,1720648130.302611,172.16.3.2,5101,172.16.1.2,38852,10447,14480,0,65728,65728,6,6,4,1460,495,1,992,57,33580,0,65700,0,0,0,0,0
i,0x00000000,1720648130.316875,172.16.3.2,5101,172.16.1.2,38852,10447,14480,0,65728,65728,6,6,4,1460,495,1,992,57,33580,0,65700,0,0,0,0,0
o,0x00000000,1720648130.316890,172.16.3.2,5101,172.16.1.2,38852,10447,14480,0,65728,65728,6,6,4,1460,495,1,993,57,33580,0,65700,1448,0,0,0,0
i,0x00000000,1720648130.361827,172.16.3.2,5101,172.16.1.2,38852,10447,14480,0,65728,65728,6,6,4,1460,495,1,992,57,33580,0,65700,0,0,0,0,0
i,0x00000000,1720648130.362204,172.16.3.2,5101,172.16.1.2,38852,10447,14480,0,65728,65728,6,6,4,1460,495,1,992,57,33580,0,65700,0,0,0,0,0
o,0x00000000,1720648130.362211,172.16.3.2,5101,172.16.1.2,38852,10447,14480,0,65728,65728,6,6,4,1460,495,1,993,57,33580,0,65700,1448,0,0,0,0
i,0x00000000,1720648130.383767,172.16.3.2,5101,172.16.1.2,38852,10447,14480,0,65728,65728,6,6,4,1460,495,1,992,57,33580,0,65700,0,0,0,0,0
o,0x00000000,1720648130.415839,172.16.3.2,5101,172.16.1.2,38852,10447,14480,0,65728,65728,6,6,4,1460,495,1,993,57,33580,0,65700,0,0,0,0,0
i,0x00000000,1720648130.424128,172.16.3.2,5101,172.16.1.2,38852,10447,14480,0,65728,65728,6,6,4,1460,495,1,992,57,33580,0,65700,0,0,0,0,0
i,0x00000000,1720648130.434912,172.16.3.2,5101,172.16.1.2,38852,10447,14480,0,65728,65728,6,6,4,1460,495,1,992,57,33580,0,65700,0,0,0,0,0
o,0x00000000,1720648130.434918,172.16.3.2,5101,172.16.1.2,38852,10447,14480,0,65728,65728,6,6,4,1460,495,1,993,57,33580,0,65700,1448,0,0,0,0
i,0x00000000,1720648130.476342,172.16.3.2,5101,172.16.1.2,38852,10447,14480,0,65728,65728,6,6,4,1460,495,1,992,57,33580,0,65700,0,0,0,0,0
i,0x00000000,1720648130.484021,172.16.3.2,5101,172.16.1.2,38852,10447,14480,0,65728,65728,6,6,4,1460,495,1,992,57,33580,0,65700,0,0,0,0,0
o,0x00000000,1720648130.484032,172.16.3.2,5101,172.16.1.2,38852,10447,14480,0,65728,65728,6,6,4,1460,495,1,993,57,33580,0,65700,1448,0,0,0,0
i,0x00000000,1720648130.536687,172.16.3.2,5101,172.16.1.2,38852,10447,14480,0,65728,65728,6,6,4,1460,495,1,992,57,33580,0,65700,0,0,0,0,0
i,0x00000000,1720648130.545809,172.16.3.2,5101,172.16.1.2,38852,10447,14480,0,65728,65728,6,6,4,1460,495,1,992,57,33580,0,65700,0,0,0,0,0
o,0x00000000,1720648130.545820,172.16.3.2,5101,172.16.1.2,38852,10447,14480,0,65728,65728,6,6,4,1460,495,1,993,57,33580,0,65700,1448,0,0,0,0
i,0x00000000,1720648130.581192,172.16.3.2,5101,172.16.1.2,38852,10447,14480,0,65728,65728,6,6,4,1460,495,1,992,57,33580,0,65700,0,0,0,0,0
i,0x00000000,1720648130.603752,172.16.3.2,5101,172.16.1.2,38852,10447,14480,0,65728,65728,6,6,4,1460,495,1,992,57,33580,0,65700,0,0,0,0,0
o,0x00000000,1720648130.603765,172.16.3.2,5101,172.16.1.2,38852,10447,14480,0,65728,65728,6,6,4,1460,495,1,993,57,33580,0,65700,1448,0,0,0,0
i,0x00000000,1720648130.633114,172.16.3.2,5101,172.16.1.2,38852,10447,14480,0,65728,65728,6,6,4,1460,495,1,992,57,33580,0,65700,0,0,0,0,0
i,0x00000000,1720648130.654010,172.16.3.2,5101,172.16.1.2,38852,10447,14480,0,65728,65728,6,6,4,1460,495,1,992,57,33580,0,65700,0,0,0,0,0
o,0x00000000,1720648130.654022,172.16.3.2,5101,172.16.1.2,38852,10447,14480,0,65728,65728,6,6,4,1460,495,1,993,57,33580,0,65700,1448,0,0,0,0
i,0x00000000,1720648130.664586,172.16.3.2,5101,172.16.1.2,38852,10447,14480,0,65728,65728,6,6,4,1460,495,1,992,57,33580,0,65700,0,0,0,0,0
i,0x00000000,1720648130.695766,172.16.3.2,5101,172.16.1.2,38852,10447,14480,0,65728,65728,6,6,4,1460,495,1,992,57,33580,0,65700,0,0,0,0,0
o,0x00000000,1720648130.695777,172.16.3.2,5101,172.16.1.2,38852,10447,14480,0,65728,65728,6,6,4,1460,495,1,993,57,33580,0,65700,1448,0,0,0,0
i,0x00000000,1720648130.712851,172.16.3.2,5101,172.16.1.2,38852,10447,14480,0,65728,65728,6,6,4,1460,495,1,992,57,33580,0,65700,0,0,0,0,0
i,0x00000000,1720648130.737516,172.16.3.2,5101,172.16.1.2,38852,10447,14480,0,65728,65728,6,6,4,1460,495,1,992,57,33580,0,65700,0,0,0,0,0
o,0x00000000,1720648130.737525,172.16.3.2,5101,172.16.1.2,38852,10447,14480,0,65728,65728,6,6,4,1460,495,1,993,57,33580,0,65700,1448,0,0,0,0
i,0x00000000,1720648130.742448,172.16.3.2,5101,172.16.1.2,38852,10447,14480,0,65728,65728,6,6,4,1460,495,1,992,57,33580,0,65700,0,0,0,0,0
o,0x00000000,1720648130.776148,172.16.3.2,5101,172.16.1.2,38852,10447,14480,0,65728,65728,6,6,4,1460,495,1,993,57,33580,0,65700,0,0,0,0,0
i,0x00000000,1720648130.789857,172.16.3.2,5101,172.16.1.2,38852,10447,14480,0,65728,65728,6,6,4,1460,495,1,992,57,33580,0,65700,0,0,0,0,0
o,0x00000000,1720648130.826403,172.16.3.2,5101,172.16.1.2,38852,10447,14480,0,65728,65728,6,6,4,1460,495,1,993,57,33580,0,65700,0,0,0,0,0
i,0x00000000,1720648130.827553,172.16.3.2,5101,172.16.1.2,38852,10447,14480,0,65728,65728,6,6,4,1460,495,1,992,57,33580,0,65700,0,0,0,0,0
i,0x00000000,1720648130.843133,172.16.3.2,5101,172.16.1.2,38852,10447,14480,0,65728,65728,6,6,4,1460,495,1,992,57,33580,0,65700,0,0,0,0,0
o,0x00000000,1720648130.843139,172.16.3.2,5101,172.16.1.2,38852,10447,14480,0,65728,65728,6,6,4,1460,495,1,993,57,33580,0,65700,1448,0,0,0,0
i,0x00000000,1720648130.884149,172.16.3.2,5101,172.16.1.2,38852,10447,14480,0,65728,65728,6,6,4,1460,495,1,992,57,33580,0,65700,0,0,0,0,0
i,0x00000000,1720648130.915346,172.16.3.2,5101,172.16.1.2,38852,10447,14480,0,65728,65728,6,6,4,1460,495,1,992,57,33580,0,65700,0,0,0,0,0
o,0x00000000,1720648130.915363,172.16.3.2,5101,172.16.1.2,38852,10447,14480,0,65728,65728,6,6,4,1460,495,1,993,57,33580,0,65700,1448,0,0,0,0
i,0x00000000,1720648130.922970,172.16.3.2,5101,172.16.1.2,38852,10447,14480,0,65728,65728,6,6,4,1460,495,1,992,57,33580,0,65700,0,0,0,0,0
o,0x00000000,1720648130.956362,172.16.3.2,5101,172.16.1.2,38852,10447,14480,0,65728,65728,6,6,4,1460,495,1,993,57,33580,0,65700,0,0,0,0,0
i,0x00000000,1720648130.957384,172.16.3.2,5101,172.16.1.2,38852,10447,14480,0,65728,65728,6,6,4,1460,495,1,992,57,33580,0,65700,0,0,0,0,0
i,0x00000000,1720648130.967279,172.16.3.2,5101,172.16.1.2,38852,10447,14480,0,65728,65728,6,6,4,1460,495,1,992,57,33580,0,65700,0,0,0,0,0
o,0x00000000,1720648130.967285,172.16.3.2,5101,172.16.1.2,38852,10447,14480,0,65728,65728,6,6,4,1460,495,1,993,57,33580,0,65700,1448,0,0,0,0
i,0x00000000,1720648130.983760,172.16.3.2,5101,172.16.1.2,38852,10447,14480,0,65728,65728,6,6,4,1460,495,1,992,57,33580,0,65700,0,0,0,0,0
i,0x00000000,1720648131.002652,172.16.3.2,5101,172.16.1.2,38852,10447,14480,0,65728,65728,6,6,4,1460,495,1,992,57,33580,0,65700,0,0,0,0,0
o,0x00000000,1720648131.002658,172.16.3.2,5101,172.16.1.2,38852,10447,14480,0,65728,65728,6,6,4,1460,495,1,993,57,33580,0,65700,1448,0,0,0,0
o,0x00000000,1720648131.006089,10.0.2.15,22,10.0.2.2,52548,1073725440,14600,0,65535,65700,0,0,4,1460,1,0,4,24,33580,108,65700,0,0,0,0,0
i,0x00000000,1720648131.006853,10.0.2.15,22,10.0.2.2,52548,1073725440,14600,0,65535,65700,0,0,4,1460,1,0,4,24,33580,108,65700,0,108,0,0,0
i,0x00000000,1720648131.039559,172.16.3.2,5101,172.16.1.2,38852,10447,14480,0,65728,65728,6,6,4,1460,495,1,992,57,33580,0,65700,0,0,0,0,0
i,0x00000000,1720648131.061515,172.16.3.2,5101,172.16.1.2,38852,10447,14480,0,65728,65728,6,6,4,1460,495,1,992,57,33580,0,65700,0,0,0,0,0
o,0x00000000,1720648131.061526,172.16.3.2,5101,172.16.1.2,38852,10447,14480,0,65728,65728,6,6,4,1460,495,1,993,57,33580,0,65700,1448,0,0,0,0
i,0x00000000,1720648131.124287,172.16.3.2,5101,172.16.1.2,38852,10447,14480,0,65728,65728,6,6,4,1460,495,1,992,57,33580,0,65700,0,0,0,0,0
i,0x00000000,1720648131.124536,172.16.3.2,5101,172.16.1.2,38852,10447,14480,0,65728,65728,6,6,4,1460,495,1,992,57,33580,0,65700,1448,0,0,0,0
o,0x00000000,1720648131.124545,172.16.3.2,5101,172.16.1.2,38852,10447,14480,0,65728,65728,6,6,4,1460,495,1,993,57,33580,0,65700,2896,0,0,0,0
i,0x00000000,1720648131.155243,172.16.3.2,5101,172.16.1.2,38852,10447,14480,0,65728,65728,6,6,4,1460,495,1,992,57,33580,0,65700,0,0,0,0,0
o,0x00000000,1720648131.186585,172.16.3.2,5101,172.16.1.2,38852,10447,14480,0,65728,65728,6,6,4,1460,495,1,993,57,33580,0,65700,0,0,0,0,0
i,0x00000000,1720648131.192078,172.16.3.2,5101,172.16.1.2,38852,10447,14480,0,65728,65728,6,6,4,1460,495,1,992,57,33580,0,65700,0,0,0,0,0
i,0x00000000,1720648131.202423,172.16.3.2,5101,172.16.1.2,38852,10447,14480,0,65728,65728,6,6,4,1460,495,1,992,57,33580,0,65700,0,0,0,0,0
o,0x00000000,1720648131.202428,172.16.3.2,5101,172.16.1.2,38852,10447,14480,0,65728,65728,6,6,4,1460,495,1,993,57,33580,0,65700,1448,0,0,0,0
i,0x00000000,1720648131.227867,172.16.3.2,5101,172.16.1.2,38852,10447,14480,0,65728,65728,6,6,4,1460,495,1,992,57,33580,0,65700,0,0,0,0,0
i,0x00000000,1720648131.253699,172.16.3.2,5101,172.16.1.2,38852,10447,14480,0,65728,65728,6,6,4,1460,495,1,992,57,33580,0,65700,0,0,0,0,0
o,0x00000000,1720648131.253712,172.16.3.2,5101,172.16.1.2,38852,10447,14480,0,65728,65728,6,6,4,1460,495,1,993,57,33580,0,65700,1448,0,0,0,0
i,0x00000000,1720648131.262029,172.16.3.2,5101,172.16.1.2,38852,10447,14480,0,65728,65728,6,6,4,1460,495,1,992,57,33580,0,65700,0,0,0,0,0
i,0x00000000,1720648131.290811,172.16.3.2,5101,172.16.1.2,38852,10447,14480,0,65728,65728,6,6,4,1460,495,1,992,57,33580,0,65700,0,0,0,0,0
o,0x00000000,1720648131.290834,172.16.3.2,5101,172.16.1.2,38852,10447,14480,0,65728,65728,6,6,4,1460,495,1,993,57,33580,0,65700,1448,0,0,0,0
i,0x00000000,1720648131.291964,172.16.3.2,5101,172.16.1.2,38852,10447,14480,0,65728,65728,6,6,4,1460,495,1,992,57,33580,0,65700,0,0,0,0,0
o,0x00000000,1720648131.327039,172.16.3.2,5101,172.16.1.2,38852,10447,14480,0,65728,65728,6,6,4,1460,495,1,993,57,33580,0,65700,0,0,0,0,0
i,0x00000000,1720648131.332937,172.16.3.2,5101,172.16.1.2,38852,10447,14480,0,65728,65728,6,6,4,1460,495,1,992,57,33580,0,65700,0,0,0,0,0
i,0x00000000,1720648131.342885,172.16.3.2,5101,172.16.1.2,38852,10447,14480,0,65728,65728,6,6,4,1460,495,1,992,57,33580,0,65700,0,0,0,0,0
o,0x00000000,1720648131.342893,172.16.3.2,5101,172.16.1.2,38852,10447,14480,0,65728,65728,6,6,4,1460,495,1,993,57,33580,0,65700,1448,0,0,0,0
i,0x00000000,1720648131.405074,172.16.3.2,5101,172.16.1.2,38852,10447,14480,0,65728,65728,6,6,4,1460,495,1,992,57,33580,0,65700,0,0,0,0,0
i,0x00000000,1720648131.420906,172.16.3.2,5101,172.16.1.2,38852,10447,14480,0,65728,65728,6,6,4,1460,495,1,992,57,33580,0,65700,0,0,0,0,0
o,0x00000000,1720648131.420914,172.16.3.2,5101,172.16.1.2,38852,10447,14480,0,65728,65728,6,6,4,1460,495,1,993,57,33580,0,65700,1448,0,0,0,0
i,0x00000000,1720648131.453358,172.16.3.2,5101,172.16.1.2,38852,10447,14480,0,65728,65728,6,6,4,1460,495,1,992,57,33580,0,65700,0,0,0,0,0
i,0x00000000,1720648131.467378,172.16.3.2,5101,172.16.1.2,38852,10447,14480,0,65728,65728,6,6,4,1460,495,1,992,57,33580,0,65700,0,0,0,0,0
o,0x00000000,1720648131.467386,172.16.3.2,5101,172.16.1.2,38852,10447,14480,0,65728,65728,6,6,4,1460,495,1,993,57,33580,0,65700,1448,0,0,0,0
i,0x00000000,1720648131.509153,172.16.3.2,5101,172.16.1.2,38852,10447,14480,0,65728,65728,6,6,4,1460,495,1,992,57,33580,0,65700,0,0,0,0,0
i,0x00000000,1720648131.529865,172.16.3.2,5101,172.16.1.2,38852,10447,14480,0,65728,65728,6,6,4,1460,495,1,992,57,33580,0,65700,0,0,0,0,0
o,0x00000000,1720648131.529878,172.16.3.2,5101,172.16.1.2,38852,10447,14480,0,65728,65728,6,6,4,1460,495,1,993,57,33580,0,65700,1448,0,0,0,0
i,0x00000000,1720648131.571636,172.16.3.2,5101,172.16.1.2,38852,10447,14480,0,65728,65728,6,6,4,1460,495,1,992,57,33580,0,65700,0,0,0,0,0
i,0x00000000,1720648131.582891,172.16.3.2,5101,172.16.1.2,38852,10447,14480,0,65728,65728,6,6,4,1460,495,1,992,57,33580,0,65700,0,0,0,0,0
o,0x00000000,1720648131.582900,172.16.3.2,5101,172.16.1.2,38852,10447,14480,0,65728,65728,6,6,4,1460,495,1,993,57,33580,0,65700,1448,0,0,0,0
i,0x00000000,1720648131.583060,172.16.3.2,5101,172.16.1.2,38852,10447,14480,0,65728,65728,6,6,4,1460,495,1,992,57,33580,0,65700,1448,0,0,0,0
o,0x00000000,1720648131.615666,172.16.3.2,5101,172.16.1.2,38852,10447,14480,0,65728,65728,6,6,4,1460,495,1,993,57,33580,0,65700,0,0,0,0,0
i,0x00000000,1720648131.622882,172.16.3.2,5101,172.16.1.2,38852,10447,14480,0,65728,65728,6,6,4,1460,495,1,992,57,33580,0,65700,0,0,0,0,0
i,0x00000000,1720648131.642936,172.16.3.2,5101,172.16.1.2,38852,10447,14480,0,65728,65728,6,6,4,1460,495,1,992,57,33580,0,65700,0,0,0,0,0
o,0x00000000,1720648131.642942,172.16.3.2,5101,172.16.1.2,38852,10447,14480,0,65728,65728,6,6,4,1460,495,1,993,57,33580,0,65700,1448,0,0,0,0
i,0x00000000,1720648131.673992,172.16.3.2,5101,172.16.1.2,38852,10447,14480,0,65728,65728,6,6,4,1460,495,1,992,57,33580,0,65700,0,0,0,0,0
i,0x00000000,1720648131.686984,172.16.3.2,5101,172.16.1.2,38852,10447,14480,0,65728,65728,6,6,4,1460,495,1,992,57,33580,0,65700,0,0,0,0,0
o,0x00000000,1720648131.686993,172.16.3.2,5101,172.16.1.2,38852,10447,14480,0,65728,65728,6,6,4,1460,495,1,993,57,33580,0,65700,1448,0,0,0,0
i,0x00000000,1720648131.739563,172.16.3.2,5101,172.16.1.2,38852,10447,14480,0,65728,65728,6,6,4,1460,495,1,992,57,33580,0,65700,0,0,0,0,0
i,0x00000000,1720648131.741895,172.16.3.2,5101,172.16.1.2,38852,10447,14480,0,65728,65728,6,6,4,1460,495,1,992,57,33580,0,65700,0,0,0,0,0
o,0x00000000,1720648131.741903,172.16.3.2,5101,172.16.1.2,38852,10447,14480,0,65728,65728,6,6,4,1460,495,1,993,57,33580,0,65700,1448,0,0,0,0
i,0x00000000,1720648131.752321,172.16.3.2,5101,172.16.1.2,38852,10447,14480,0,65728,65728,6,6,4,1460,495,1,992,57,33580,0,65700,0,0,0,0,0
o,0x00000000,1720648131.786155,172.16.3.2,5101,172.16.1.2,38852,10447,14480,0,65728,65728,6,6,4,1460,495,1,993,57,33580,0,65700,0,0,0,0,0
i,0x00000000,1720648131.792096,172.16.3.2,5101,172.16.1.2,38852,10447,14480,0,65728,65728,6,6,4,1460,495,1,992,57,33580,0,65700,0,0,0,0,0
i,0x00000000,1720648131.812342,172.16.3.2,5101,172.16.1.2,38852,10447,14480,0,65728,65728,6,6,4,1460,495,1,992,57,33580,0,65700,0,0,0,0,0
o,0x00000000,1720648131.812350,172.16.3.2,5101,172.16.1.2,38852,10447,14480,0,65728,65728,6,6,4,1460,495,1,993,57,33580,0,65700,1448,0,0,0,0
i,0x00000000,1720648131.854443,172.16.3.2,5101,172.16.1.2,38852,10447,14480,0,65728,65728,6,6,4,1460,495,1,992,57,33580,0,65700,0,0,0,0,0
i,0x00000000,1720648131.862209,172.16.3.2,5101,172.16.1.2,38852,10447,14480,0,65728,65728,6,6,4,1460,495,1,992,57,33580,0,65700,0,0,0,0,0
o,0x00000000,1720648131.862218,172.16.3.2,5101,172.16.1.2,38852,10447,14480,0,65728,65728,6,6,4,1460,495,1,993,57,33580,0,65700,1448,0,0,0,0
i,0x00000000,1720648131.901872,172.16.3.2,5101,172.16.1.2,38852,10447,14480,0,65728,65728,6,6,4,1460,495,1,992,57,33580,0,65700,0,0,0,0,0
i,0x00000000,1720648131.916173,172.16.3.2,5101,172.16.1.2,38852,10447,14480,0,65728,65728,6,6,4,1460,495,1,992,57,33580,0,65700,0,0,0,0,0
o,0x00000000,1720648131.916188,172.16.3.2,5101,172.16.1.2,38852,10447,14480,0,65728,65728,6,6,4,1460,495,1,993,57,33580,0,65700,1448,0,0,0,0
i,0x00000000,1720648131.926496,172.16.3.2,5101,172.16.1.2,38852,10447,14480,0,65728,65728,6,6,4,1460,495,1,992,57,33580,0,65700,0,0,0,0,0
i,0x00000000,1720648131.962487,172.16.3.2,5101,172.16.1.2,38852,10447,14480,0,65728,65728,6,6,4,1460,495,1,992,57,33580,0,65700,0,0,0,0,0
o,0x00000000,1720648131.962498,172.16.3.2,5101,172.16.1.2,38852,10447,14480,0,65728,65728,6,6,4,1460,495,1,993,57,33580,0,65700,1448,0,0,0,0
i,0x00000000,1720648131.971808,172.16.3.2,5101,172.16.1.2,38852,10447,14480,0,65728,65728,6,6,4,1460,495,1,992,57,33580,0,65700,0,0,0,0,0
i,0x00000000,1720648132.002044,172.16.3.2,5101,172.16.1.2,38852,10447,14480,0,65728,65728,6,6,4,1460,495,1,992,57,33580,0,65700,0,0,0,0,0
o,0x00000000,1720648132.002051,172.16.3.2,5101,172.16.1.2,38852,10447,14480,0,65728,65728,6,6,4,1460,495,1,993,57,33580,0,65700,1448,0,0,0,0
o,0x00000000,1720648132.006545,10.0.2.15,22,10.0.2.2,52548,1073725440,14600,0,65535,65700,0,0,4,1460,1,0,4,24,33580,108,65700,0,0,0,0,0
i,0x00000000,1720648132.007220,10.0.2.15,22,10.0.2.2,52548,1073725440,14600,0,65535,65700,0,0,4,1460,1,0,4,24,33580,108,65700,0,108,0,0,0
i,0x00000000,1720648132.041661,172.16.3.2,5101,172.16.1.2,38852,10447,14480,0,65728,65728,6,6,4,1460,495,1,992,57,33580,0,65700,0,0,0,0,0
o,0x00000000,1720648132.078103,172.16.3.2,5101,172.16.1.2,38852,10447,14480,0,65728,65728,6,6,4,1460,495,1,993,57,33580,0,65700,0,0,0,0,0
i,0x00000000,1720648132.082241,172.16.3.2,5101,172.16.1.2,38852,10447,14480,0,65728,65728,6,6,4,1460,495,1,992,57,33580,0,65700,0,0,0,0,0
i,0x00000000,1720648132.103233,172.16.3.2,5101,172.16.1.2,38852,10447,14480,0,65728,65728,6,6,4,1460,495,1,992,57,33580,0,65700,0,0,0,0,0
o,0x00000000,1720648132.103249,172.16.3.2,5101,172.16.1.2,38852,10447,14480,0,65728,65728,6,6,4,1460,495,1,993,57,33580,0,65700,1448,0,0,0,0
i,0x00000000,1720648132.132963,172.16.3.2,5101,172.16.1.2,38852,10447,14480,0,65728,65728,6,6,4,1460,495,1,992,57,33580,0,65700,0,0,0,0,0
i,0x00000000,1720648132.155345,172.16.3.2,5101,172.16.1.2,38852,10447,14480,0,65728,65728,6,6,4,1460,495,1,992,57,33580,0,65700,0,0,0,0,0
o,0x00000000,1720648132.155353,172.16.3.2,5101,172.16.1.2,38852,10447,14480,0,65728,65728,6,6,4,1460,495,1,993,57,33580,0,65700,1448,0,0,0,0
i,0x00000000,1720648132.165886,172.16.3.2,5101,172.16.1.2,38852,10447,14480,0,65728,65728,6,6,4,1460,495,1,992,57,33580,0,65700,0,0,0,0,0
i,0x00000000,1720648132.192821,172.16.3.2,5101,172.16.1.2,38852,10447,14480,0,65728,65728,6,6,4,1460,495,1,992,57,33580,0,65700,0,0,0,0,0
o,0x00000000,1720648132.192828,172.16.3.2,5101,172.16.1.2,38852,10447,14480,0,65728,65728,6,6,4,1460,495,1,993,57,33580,0,65700,1448,0,0,0,0
i,0x00000000,1720648132.218152,172.16.3.2,5101,172.16.1.2,38852,10447,14480,0,65728,65728,6,6,4,1460,495,1,992,57,33580,0,65700,0,0,0,0,0
i,0x00000000,1720648132.247334,172.16.3.2,5101,172.16.1.2,38852,10447,14480,0,65728,65728,6,6,4,1460,495,1,992,57,33580,0,65700,0,0,0,0,0
o,0x00000000,1720648132.247341,172.16.3.2,5101,172.16.1.2,38852,10447,14480,0,65728,65700,6,6,4,1460,495,1,993,57,33580,0,65700,0,0,1,0,0
i,0x00000000,1720648132.252442,172.16.3.2,5101,172.16.1.2,38852,10447,14480,0,65728,65700,6,6,4,1460,495,1,992,57,33580,0,65700,0,0,1,0,0
o,0x00000000,1720648132.252448,172.16.3.2,5101,172.16.1.2,38852,10447,14480,0,65728,65728,6,6,4,1460,495,1,993,57,33580,0,65700,0,0,1,0,0
i,0x00000000,1720648132.332636,172.16.3.2,5101,172.16.1.2,38852,10447,14480,0,65728,65728,6,6,4,1460,495,1,992,57,33580,0,65700,0,0,1,0,0
o,0x00000000,1720648132.332653,172.16.3.2,5101,172.16.1.2,38852,10447,14480,0,65728,65728,6,6,4,1460,495,1,993,57,33580,0,65700,0,0,1,0,0
i,0x00000000,1720648132.343397,172.16.3.2,5101,172.16.1.2,38852,10447,14480,0,65728,65728,6,6,4,1460,495,1,992,57,33580,0,65700,0,0,1,0,0
o,0x00000000,1720648132.343402,172.16.3.2,5101,172.16.1.2,38852,10447,14480,0,65728,65728,6,6,4,1460,495,1,993,57,33580,0,65700,0,0,1,0,0
i,0x00000000,1720648132.374335,172.16.3.2,5101,172.16.1.2,38852,10447,14480,0,65728,65728,6,6,4,1460,495,1,992,57,33580,0,65700,0,0,1,0,0
o,0x00000000,1720648132.374342,172.16.3.2,5101,172.16.1.2,38852,10447,14480,0,65728,65728,6,6,4,1460,495,1,993,57,33580,0,65700,0,0,1,0,0
i,0x00000000,1720648132.381527,172.16.3.2,5101,172.16.1.2,38852,10447,14480,0,65728,65728,6,6,4,1460,495,1,992,57,33580,0,65700,0,0,1,0,0
o,0x00000000,1720648132.381533,172.16.3.2,5101,172.16.1.2,38852,10447,14480,0,65728,65728,6,6,4,1460,495,1,993,57,33580,0,65700,0,0,1,0,0
i,0x00000000,1720648132.426892,172.16.3.2,5101,172.16.1.2,38852,10447,14480,0,65728,65728,6,6,4,1460,495,1,992,57,33580,0,65700,0,0,1,0,0
o,0x00000000,1720648132.426897,172.16.3.2,5101,172.16.1.2,38852,10447,14480,0,65728,65728,6,6,4,1460,495,1,993,57,33580,0,65700,0,0,1,0,0
i,0x00000000,1720648132.432001,172.16.3.2,5101,172.16.1.2,38852,10447,14480,0,65728,65728,6,6,4,1460,495,1,992,57,33580,0,65700,0,0,1,0,0
o,0x00000000,1720648132.432006,172.16.3.2,5101,172.16.1.2,38852,10447,14480,0,65728,65728,6,6,4,1460,495,1,993,57,33580,0,65700,0,0,1,0,0
i,0x00000000,1720648132.457832,172.16.3.2,5101,172.16.1.2,38852,10447,14480,0,65728,65728,6,6,4,1460,495,1,992,57,33580,0,65700,0,0,1,0,0
o,0x00000000,1720648132.457839,172.16.3.2,5101,172.16.1.2,38852,10447,14480,0,65728,65728,6,6,4,1460,495,1,993,57,33580,0,65700,0,0,2,0,0
i,0x00000000,1720648132.478683,172.16.3.2,5101,172.16.1.2,38852,10447,14480,0,65728,65728,6,6,4,1460,495,1,992,57,33580,0,65700,0,0,2,0,0
o,0x00000000,1720648132.478700,172.16.3.2,5101,172.16.1.2,38852,10447,14480,0,65728,65728,6,6,4,1460,495,1,993,57,33580,0,65700,0,0,2,0,0
i,0x00000000,1720648132.483019,172.16.3.2,5101,172.16.1.2,38852,10447,14480,0,65728,65728,6,6,4,1460,495,1,992,57,33580,0,65700,0,0,2,0,0
o,0x00000000,1720648132.483030,172.16.3.2,5101,172.16.1.2,38852,10447,14480,0,65728,65728,6,6,4,1460,495,1,993,57,33580,0,65700,13032,0,1,0,0
i,0x00000000,1720648132.498446,172.16.3.2,5101,172.16.1.2,38852,10447,14480,0,65728,65728,6,6,4,1460,495,1,992,57,33580,0,65700,0,0,1,0,0
o,0x00000000,1720648132.498455,172.16.3.2,5101,172.16.1.2,38852,10447,14480,0,65728,65700,6,6,4,1460,495,1,993,57,33580,0,65700,0,0,1,0,0
i,0x00000000,1720648132.510003,172.16.3.2,5101,172.16.1.2,38852,10447,14480,0,65728,65700,6,6,4,1460,495,1,992,57,33580,0,65700,0,0,1,0,0
o,0x00000000,1720648132.510009,172.16.3.2,5101,172.16.1.2,38852,10447,14480,0,65728,65728,6,6,4,1460,495,1,993,57,33580,0,65700,0,0,1,0,0
i,0x00000000,1720648132.530662,172.16.3.2,5101,172.16.1.2,38852,10447,14480,0,65728,65728,6,6,4,1460,495,1,992,57,33580,0,65700,0,0,1,0,0
o,0x00000000,1720648132.530667,172.16.3.2,5101,172.16.1.2,38852,10447,14480,0,65728,65728,6,6,4,1460,495,1,993,57,33580,0,65700,0,0,1,0,0
