enable_time_secs=1720648326	enable_time_usecs=112961	siftrver=1.2.4	hz=100	tcp_rtt_scale=32	sysname=FreeBSD	sysver=1301000	ipmode=4
o,0x00000000,1720648326.112992,10.0.2.15,22,10.0.2.2,52444,1073725440,17770,0,65535,65700,0,0,4,1460,1,0,4,24,33580,44,65700,0,0,0,0,0
o,0x00000000,1720648326.113088,10.0.2.15,22,10.0.2.2,52444,1073725440,17770,0,65535,65700,0,0,4,1460,1,0,4,24,33580,80,65700,0,44,0,0,0
i,0x00000000,1720648326.113805,10.0.2.15,22,10.0.2.2,52444,1073725440,17770,0,65535,65700,0,0,4,1460,1,0,4,24,33580,80,65700,0,80,0,0,0
i,0x00000000,1720648326.113808,10.0.2.15,22,10.0.2.2,52444,1073725440,17814,0,65535,65700,0,0,4,1460,1,0,4,24,33580,36,65700,0,36,0,0,0
o,0x00000000,1720648326.113908,10.0.2.15,22,10.0.2.2,52444,1073725440,17850,0,65535,65700,0,0,4,1460,1,0,4,24,33580,36,65700,0,0,0,0,0
i,0x00000000,1720648326.114405,10.0.2.15,22,10.0.2.2,52444,1073725440,17850,0,65535,65700,0,0,4,1460,1,0,4,24,33580,36,65700,0,36,0,0,0
o,0x00000000,1720648326.114487,10.0.2.15,22,10.0.2.2,52444,1073725440,17886,0,65535,65700,0,0,4,1460,1,0,4,24,33580,176,65700,0,0,0,0,0
i,0x00000000,1720648326.115142,10.0.2.15,22,10.0.2.2,52444,1073725440,17886,0,65535,65700,0,0,4,1460,1,0,4,24,33580,176,65700,0,176,0,0,0
i,0x00000000,1720648326.115144,10.0.2.15,22,10.0.2.2,52444,1073725440,18062,0,65535,65700,0,0,4,1460,1,0,4,24,33580,0,65700,0,0,0,0,0
i,0x00000000,1720648326.115145,10.0.2.15,22,10.0.2.2,52444,1073725440,18062,0,65535,65700,0,0,4,1460,1,0,4,24,33580,0,65700,96,0,0,0,0
o,0x00000000,1720648326.115148,10.0.2.15,22,10.0.2.2,52444,1073725440,18062,0,65535,65604,0,0,5,1460,1,0,5,24,33580,0,65700,96,0,0,0,0
o,0x00000000,1720648326.115500,10.0.2.15,22,10.0.2.2,52444,1073725440,18062,0,65535,65604,0,0,8,1460,1,0,4,24,33580,0,65700,0,0,0,0,0
i,0x00000000,1720648326.116324,10.0.2.15,22,10.0.2.2,52444,1073725440,18062,0,65535,65604,0,0,8,1460,1,0,20,24,33580,0,65700,0,1,0,0,0
i,0x00000000,1720648328.188029,10.0.2.15,22,10.0.2.2,52458,1073725440,14600,0,65535,65700,0,0,4,1460,1,0,0,28,33580,0,65700,0,0,0,0,0
o,0x00000000,1720648328.193986,10.0.2.15,22,10.0.2.2,52458,1073725440,14600,0,65535,65700,0,0,4,1460,1,0,0,28,33580,38,65700,42,0,0,0,0
i,0x00000000,1720648328.194984,10.0.2.15,22,10.0.2.2,52458,1073725440,14600,0,65535,65700,0,0,4,1460,1,0,0,28,33580,38,65700,42,38,0,0,0
i,0x00000000,1720648328.195023,10.0.2.15,22,10.0.2.2,52458,1073725440,14638,0,65535,65700,0,0,4,1460,1,0,0,24,33580,0,65700,42,0,0,0,0
i,0x00000000,1720648328.195026,10.0.2.15,22,10.0.2.2,52458,1073725440,14638,0,65535,65700,0,0,4,1460,1,0,0,24,33580,0,65700,1502,0,0,0,0
o,0x00000000,1720648328.195030,10.0.2.15,22,10.0.2.2,52458,1073725440,14638,0,65535,65700,0,0,4,1460,1,0,1,24,33580,0,65700,1578,0,0,0,0
o,0x00000000,1720648328.196460,10.0.2.15,22,10.0.2.2,52458,1073725440,14638,0,65535,65700,0,0,4,1460,1,0,0,24,33580,1056,65700,1536,0,0,0,0
i,0x00000000,1720648328.197140,10.0.2.15,22,10.0.2.2,52458,1073725440,14638,0,65535,65700,0,0,4,1460,1,0,0,24,33580,1056,65700,1536,1056,0,0,0
i,0x00000000,1720648328.198208,10.0.2.15,22,10.0.2.2,52458,1073725440,15694,0,65535,65700,0,0,4,1460,1,0,0,24,33580,0,65700,0,0,0,0,0
o,0x00000000,1720648328.200566,10.0.2.15,22,10.0.2.2,52458,1073725440,15694,0,65535,65700,0,0,4,1460,1,0,0,24,33580,484,65700,0,0,0,0,0
i,0x00000000,1720648328.201416,10.0.2.15,22,10.0.2.2,52458,1073725440,15694,0,65535,65700,0,0,4,1460,1,0,0,24,33580,484,65700,0,484,0,0,0
i,0x00000000,1720648328.206045,10.0.2.15,22,10.0.2.2,52458,1073725440,16178,0,65535,65700,0,0,4,1460,1,0,0,24,33580,0,65700,0,0,0,0,0
i,0x00000000,1720648328.206049,10.0.2.15,22,10.0.2.2,52458,1073725440,16178,0,65535,65700,0,0,4,1460,1,0,0,24,33580,0,65700,16,0,0,0,0
o,0x00000000,1720648328.206051,10.0.2.15,22,10.0.2.2,52458,1073725440,16178,0,65535,65700,0,0,4,1460,1,0,1,24,33580,0,65700,60,0,0,0,0
o,0x00000000,1720648328.206223,10.0.2.15,22,10.0.2.2,52458,1073725440,16178,0,65535,65700,0,0,4,1460,1,0,0,24,33580,44,65700,0,0,0,0,0
i,0x00000000,1720648328.207374,10.0.2.15,22,10.0.2.2,52458,1073725440,16178,0,65535,65700,0,0,4,1460,1,0,0,24,33580,44,65700,0,44,0,0,0
i,0x00000000,1720648328.207377,10.0.2.15,22,10.0.2.2,52458,1073725440,16222,0,65535,65700,0,0,4,1460,1,0,0,24,33580,0,65700,0,0,0,0,0
o,0x00000000,1720648328.217018,10.0.2.15,22,10.0.2.2,52458,1073725440,16222,0,65535,65700,0,0,4,1460,1,0,0,24,33580,68,65700,0,0,0,0,0
i,0x00000000,1720648328.217914,10.0.2.15,22,10.0.2.2,52458,1073725440,16222,0,65535,65700,0,0,4,1460,1,0,0,24,33580,68,65700,0,68,0,0,0
i,0x00000000,1720648328.217918,10.0.2.15,22,10.0.2.2,52458,1073725440,16290,0,65535,65700,0,0,4,1460,1,0,0,24,33580,0,65700,0,0,0,0,0
o,0x00000000,1720648328.218165,10.0.2.15,22,10.0.2.2,52458,1073725440,16290,0,65535,65700,0,0,4,1460,1,0,0,24,33580,332,65700,0,0,0,0,0
i,0x00000000,1720648328.218781,10.0.2.15,22,10.0.2.2,52458,1073725440,16290,0,65535,65700,0,0,4,1460,1,0,0,24,33580,332,65700,0,332,0,0,0
i,0x00000000,1720648328.220155,10.0.2.15,22,10.0.2.2,52458,1073725440,16622,0,65535,65700,0,0,4,1460,1,0,0,24,33580,0,65700,0,0,0,0,0
o,0x00000000,1720648328.237120,10.0.2.15,22,10.0.2.2,52458,1073725440,16622,0,65535,65700,0,0,4,1460,1,0,0,24,33580,28,65700,0,0,0,0,0
i,0x00000000,1720648328.237597,10.0.2.15,22,10.0.2.2,52458,1073725440,16622,0,65535,65700,0,0,4,1460,1,0,0,24,33580,28,65700,0,28,0,0,0
i,0x00000000,1720648328.238125,10.0.2.15,22,10.0.2.2,52458,1073725440,16650,0,65535,65700,0,0,4,1460,1,0,0,24,33580,0,65700,0,0,0,0,0
o,0x00000000,1720648328.238784,10.0.2.15,22,10.0.2.2,52458,1073725440,16650,0,65535,65700,0,0,4,1460,1,0,0,24,33580,768,65700,112,0,0,0,0
i,0x00000000,1720648328.239411,10.0.2.15,22,10.0.2.2,52458,1073725440,16650,0,65535,65700,0,0,4,1460,1,0,0,24,33580,768,65700,112,768,0,0,0
o,0x00000000,1720648328.239508,10.0.2.15,22,10.0.2.2,52458,1073725440,17418,0,65535,65700,0,0,4,1460,1,0,0,24,33580,140,65700,112,0,0,0,0
i,0x00000000,1720648328.240113,10.0.2.15,22,10.0.2.2,52458,1073725440,17418,0,65535,65700,0,0,4,1460,1,0,0,24,33580,140,65700,112,140,0,0,0
o,0x00000000,1720648328.240253,10.0.2.15,22,10.0.2.2,52458,1073725440,17558,0,65535,65700,0,0,4,1460,1,0,0,24,33580,44,65700,0,0,0,0,0
i,0x00000000,1720648328.240960,10.0.2.15,22,10.0.2.2,52458,1073725440,17558,0,65535,65700,0,0,4,1460,1,0,0,24,33580,44,65700,0,44,0,0,0
i,0x00000000,1720648328.241002,10.0.2.15,22,10.0.2.2,52458,1073725440,17602,0,65535,65700,0,0,4,1460,1,0,0,24,33580,0,65700,0,0,0,0,0
o,0x00000000,1720648328.241290,10.0.2.15,22,10.0.2.2,52458,1073725440,17602,0,65535,65700,0,0,4,1460,1,0,4,24,33580,72,65700,0,0,0,0,0
i,0x00000000,1720648328.241909,10.0.2.15,22,10.0.2.2,52458,1073725440,17602,0,65535,65700,0,0,4,1460,1,0,4,24,33580,72,65700,0,72,0,0,0
o,0x00000000,1720648328.245102,10.0.2.15,22,10.0.2.2,52458,1073725440,17674,0,65535,65700,0,0,4,1460,1,0,4,24,33580,44,65700,0,0,0,0,0
i,0x00000000,1720648328.245956,10.0.2.15,22,10.0.2.2,52458,1073725440,17674,0,65535,65700,0,0,4,1460,1,0,4,24,33580,44,65700,0,44,0,0,0
o,0x00000000,1720648328.246492,10.0.2.15,22,10.0.2.2,52458,1073725440,17718,0,65535,65700,0,0,4,1460,1,0,4,23,33580,44,65700,0,0,0,0,0
i,0x00000000,1720648328.247146,10.0.2.15,22,10.0.2.2,52458,1073725440,17718,0,65535,65700,0,0,4,1460,1,0,4,23,33580,44,65700,0,44,0,0,0
o,0x00000000,1720648328.250576,10.0.2.15,22,10.0.2.2,52458,1073725440,17762,0,65535,65700,0,0,4,1460,1,0,4,23,33580,176,65700,0,0,0,0,0
i,0x00000000,1720648328.251234,10.0.2.15,22,10.0.2.2,52458,1073725440,17762,0,65535,65700,0,0,4,1460,1,0,4,23,33580,176,65700,0,176,0,0,0
i,0x00000000,1720648328.251237,10.0.2.15,22,10.0.2.2,52458,1073725440,17938,0,65535,65700,0,0,4,1460,1,0,4,23,33580,0,65700,0,0,0,0,0
i,0x00000000,1720648328.251559,10.0.2.15,22,10.0.2.2,52458,1073725440,17938,0,65535,65700,0,0,4,1460,1,0,4,23,33580,0,65700,96,0,0,0,0
o,0x00000000,1720648328.251563,10.0.2.15,22,10.0.2.2,52458,1073725440,17938,0,65535,65604,0,0,5,1460,1,0,5,23,33580,0,65700,96,0,0,0,0
o,0x00000000,1720648328.257939,10.0.2.15,22,10.0.2.2,52458,1073725440,17938,0,65535,65604,0,0,8,1460,1,0,4,23,33580,0,65700,0,0,0,0,0
i,0x00000000,1720648328.258631,10.0.2.15,22,10.0.2.2,52458,1073725440,17938,0,65535,65604,0,0,8,1460,1,0,20,23,33580,0,65700,0,1,0,0,0
i,0x00000000,1720648328.504809,172.16.3.2,5101,172.16.1.2,44357,8996,14480,0,65728,65700,6,6,4,1460,498,1,992,56,33580,0,65700,0,0,0,0,0
o,0x00000000,1720648328.504888,172.16.3.2,5101,172.16.1.2,44357,8996,14480,0,65728,65700,6,6,4,1460,498,1,996,56,33580,1,65700,0,0,0,0,0
i,0x00000000,1720648328.615131,172.16.3.2,5101,172.16.1.2,44357,8996,14480,0,65728,65700,6,6,4,1460,498,1,996,56,33580,1,65700,0,1,0,0,0
i,0x00000000,1720648328.615147,172.16.3.2,5101,172.16.1.2,44357,8996,14480,0,65728,65728,6,6,4,1460,480,1,996,55,33580,0,65700,4,0,0,0,0
o,0x00000000,1720648328.615154,172.16.3.2,5101,172.16.1.2,44357,8996,14480,0,65728,65728,6,6,4,1460,480,1,997,55,33580,0,65700,128,0,0,0,0
o,0x00000000,1720648328.615325,172.16.3.2,5101,172.16.1.2,44357,8996,14480,0,65728,65728,6,6,4,1460,480,1,996,55,33580,1,65700,0,0,0,0,0
o,0x00000000,1720648328.615855,10.0.2.15,22,10.0.2.2,52548,1073725440,14600,0,65535,65700,0,0,4,1460,1,0,4,24,33580,84,65700,0,0,0,0,0
i,0x00000000,1720648328.616424,10.0.2.15,22,10.0.2.2,52548,1073725440,14600,0,65535,65700,0,0,4,1460,1,0,4,24,33580,84,65700,0,84,0,0,0
i,0x00000000,1720648328.765596,172.16.3.2,5101,172.16.1.2,44357,8996,14480,0,65728,65728,6,6,4,1460,480,1,996,55,33580,1,65700,0,1,0,0,0
i,0x00000000,1720648328.859279,172.16.3.2,5101,172.16.1.2,41039,8996,14480,0,65728,65700,6,6,4,1460,498,1,992,56,33580,0,65700,0,0,0,0,0
o,0x00000000,1720648328.861027,172.16.3.2,5101,172.16.1.2,44357,8996,14480,0,65728,65728,6,6,4,1460,480,1,996,50,33580,1,65700,0,0,0,0,0
o,0x00000000,1720648328.861382,172.16.3.2,5101,172.16.1.2,44357,8996,14480,0,65728,65728,6,6,4,1460,480,1,996,50,33580,2,65700,0,1,0,0,0
o,0x00000000,1720648328.861614,10.0.2.15,22,10.0.2.2,52548,1073725440,14600,0,65535,65700,0,0,4,1460,1,0,4,24,33580,108,65700,0,0,0,0,0
i,0x00000000,1720648328.862272,10.0.2.15,22,10.0.2.2,52548,1073725440,14600,0,65535,65700,0,0,4,1460,1,0,4,24,33580,108,65700,0,108,0,0,0
o,0x00000000,1720648328.895624,172.16.3.2,5101,172.16.1.2,41039,8996,14480,0,65728,65700,6,6,4,1460,498,1,993,56,33580,0,65700,0,0,0,0,0
i,0x00000000,1720648328.977321,172.16.3.2,5101,172.16.1.2,44357,8996,14480,0,65728,65728,6,6,4,1460,480,1,996,50,33580,2,65700,0,2,0,0,0
i,0x00000000,1720648329.077117,172.16.3.2,5101,172.16.1.2,41039,8996,14480,0,65728,65700,6,6,4,1460,498,1,992,56,33580,0,65700,0,0,0,0,0
i,0x00000000,1720648329.087650,172.16.3.2,5101,172.16.1.2,41039,8996,14480,0,65728,65700,6,6,4,1460,498,1,992,56,33580,0,65700,0,0,0,0,0
o,0x00000000,1720648329.087660,172.16.3.2,5101,172.16.1.2,41039,8996,14480,0,65728,65700,6,6,4,1460,498,1,993,56,33580,0,65700,1448,0,0,0,0
i,0x00000000,1720648329.098308,172.16.3.2,5101,172.16.1.2,41039,8996,14480,0,65728,65700,6,6,4,1460,498,1,992,56,33580,0,65700,0,0,0,0,0
i,0x00000000,1720648329.105032,172.16.3.2,5101,172.16.1.2,41039,8996,14480,0,65728,65700,6,6,4,1460,498,1,992,56,33580,0,65700,0,0,0,0,0
o,0x00000000,1720648329.105039,172.16.3.2,5101,172.16.1.2,41039,8996,14480,0,65728,65700,6,6,4,1460,498,1,993,56,33580,0,65700,1448,0,0,0,0
i,0x00000000,1720648329.129946,172.16.3.2,5101,172.16.1.2,41039,8996,14480,0,65728,65700,6,6,4,1460,498,1,992,56,33580,0,65700,0,0,0,0,0
i,0x00000000,1720648329.136987,172.16.3.2,5101,172.16.1.2,41039,8996,14480,0,65728,65700,6,6,4,1460,498,1,992,56,33580,0,65700,0,0,0,0,0
o,0x00000000,1720648329.136993,172.16.3.2,5101,172.16.1.2,41039,8996,14480,0,65728,65700,6,6,4,1460,498,1,993,56,33580,0,65700,1448,0,0,0,0
i,0x00000000,1720648329.150259,172.16.3.2,5101,172.16.1.2,41039,8996,14480,0,65728,65700,6,6,4,1460,498,1,992,56,33580,0,65700,0,0,0,0,0
i,0x00000000,1720648329.160965,172.16.3.2,5101,172.16.1.2,41039,8996,14480,0,65728,65700,6,6,4,1460,498,1,992,56,33580,0,65700,0,0,0,0,0
o,0x00000000,1720648329.160971,172.16.3.2,5101,172.16.1.2,41039,8996,14480,0,65728,65700,6,6,4,1460,498,1,993,56,33580,0,65700,1448,0,0,0,0
i,0x00000000,1720648329.174903,172.16.3.2,5101,172.16.1.2,41039,8996,14480,0,65728,65700,6,6,4,1460,498,1,992,56,33580,0,65700,0,0,0,0,0
i,0x00000000,1720648329.185159,172.16.3.2,5101,172.16.1.2,41039,8996,14480,0,65728,65700,6,6,4,1460,498,1,992,56,33580,0,65700,0,0,0,0,0
o,0x00000000,1720648329.185168,172.16.3.2,5101,172.16.1.2,41039,8996,14480,0,65728,65700,6,6,4,1460,498,1,993,56,33580,0,65700,1448,0,0,0,0
i,0x00000000,1720648329.245772,172.16.3.2,5101,172.16.1.2,41039,8996,14480,0,65728,65700,6,6,4,1460,498,1,992,56,33580,0,65700,0,0,0,0,0
i,0x00000000,1720648329.254934,172.16.3.2,5101,172.16.1.2,41039,8996,14480,0,65728,65700,6,6,4,1460,498,1,992,56,33580,0,65700,0,0,0,0,0
o,0x00000000,1720648329.254944,172.16.3.2,5101,172.16.1.2,41039,8996,14480,0,65728,65700,6,6,4,1460,498,1,993,56,33580,0,65700,1448,0,0,0,0
i,0x00000000,1720648329.298209,172.16.3.2,5101,172.16.1.2,41039,8996,14480,0,65728,65700,6,6,4,1460,498,1,992,56,33580,0,65700,0,0,0,0,0
o,0x00000000,1720648329.336364,172.16.3.2,5101,172.16.1.2,41039,8996,14480,0,65728,65700,6,6,4,1460,498,1,993,56,33580,0,65700,0,0,0,0,0
i,0x00000000,1720648329.337591,172.16.3.2,5101,172.16.1.2,41039,8996,14480,0,65728,65700,6,6,4,1460,498,1,992,56,33580,0,65700,0,0,0,0,0
o,0x00000000,1720648329.376638,172.16.3.2,5101,172.16.1.2,41039,8996,14480,0,65728,65700,6,6,4,1460,498,1,993,56,33580,0,65700,0,0,0,0,0
i,0x00000000,1720648329.378347,172.16.3.2,5101,172.16.1.2,41039,8996,14480,0,65728,65700,6,6,4,1460,498,1,992,56,33580,0,65700,0,0,0,0,0
i,0x00000000,1720648329.399850,172.16.3.2,5101,172.16.1.2,41039,8996,14480,0,65728,65700,6,6,4,1460,498,1,992,56,33580,0,65700,0,0,0,0,0
o,0x00000000,1720648329.399860,172.16.3.2,5101,172.16.1.2,41039,8996,14480,0,65728,65700,6,6,4,1460,498,1,993,56,33580,0,65700,1448,0,0,0,0
i,0x00000000,1720648329.404409,172.16.3.2,5101,172.16.1.2,41039,8996,14480,0,65728,65700,6,6,4,1460,498,1,992,56,33580,0,65700,0,0,0,0,0
i,0x00000000,1720648329.420429,172.16.3.2,5101,172.16.1.2,41039,8996,14480,0,65728,65700,6,6,4,1460,498,1,992,56,33580,0,65700,0,0,0,0,0
o,0x00000000,1720648329.420457,172.16.3.2,5101,172.16.1.2,41039,8996,14480,0,65728,65700,6,6,4,1460,498,1,993,56,33580,0,65700,1448,0,0,0,0
i,0x00000000,1720648329.455229,172.16.3.2,5101,172.16.1.2,41039,8996,14480,0,65728,65700,6,6,4,1460,498,1,992,56,33580,0,65700,0,0,0,0,0
i,0x00000000,1720648329.464666,172.16.3.2,5101,172.16.1.2,41039,8996,14480,0,65728,65700,6,6,4,1460,498,1,992,56,33580,0,65700,0,0,0,0,0
o,0x00000000,1720648329.464675,172.16.3.2,5101,172.16.1.2,41039,8996,14480,0,65728,65700,6,6,4,1460,498,1,993,56,33580,0,65700,1448,0,0,0,0
i,0x00000000,1720648329.482685,172.16.3.2,5101,172.16.1.2,41039,8996,14480,0,65728,65700,6,6,4,1460,498,1,992,56,33580,0,65700,0,0,0,0,0
i,0x00000000,1720648329.505295,172.16.3.2,5101,172.16.1.2,41039,8996,14480,0,65728,65700,6,6,4,1460,498,1,992,56,33580,0,65700,0,0,0,0,0
o,0x00000000,1720648329.505301,172.16.3.2,5101,172.16.1.2,41039,8996,14480,0,65728,65700,6,6,4,1460,498,1,993,56,33580,0,65700,1448,0,0,0,0
i,0x00000000,1720648329.526072,172.16.3.2,5101,172.16.1.2,41039,8996,14480,0,65728,65700,6,6,4,1460,498,1,992,56,33580,0,65700,0,0,0,0,0
o,0x00000000,1720648329.566359,172.16.3.2,5101,172.16.1.2,41039,8996,14480,0,65728,65700,6,6,4,1460,498,1,993,56,33580,0,65700,0,0,0,0,0
i,0x00000000,1720648329.583964,172.16.3.2,5101,172.16.1.2,41039,8996,14480,0,65728,65700,6,6,4,1460,498,1,992,56,33580,0,65700,0,0,0,0,0
i,0x00000000,1720648329.596964,172.16.3.2,5101,172.16.1.2,41039,8996,14480,0,65728,65700,6,6,4,1460,498,1,992,56,33580,0,65700,0,0,0,0,0
o,0x00000000,1720648329.596973,172.16.3.2,5101,172.16.1.2,41039,8996,14480,0,65728,65700,6,6,4,1460,498,1,993,56,33580,0,65700,1448,0,0,0,0
i,0x00000000,1720648329.628380,172.16.3.2,5101,172.16.1.2,41039,8996,14480,0,65728,65700,6,6,4,1460,498,1,992,56,33580,0,65700,0,0,0,0,0
i,0x00000000,1720648329.644550,172.16.3.2,5101,172.16.1.2,41039,8996,14480,0,65728,65700,6,6,4,1460,498,1,992,56,33580,0,65700,0,0,0,0,0
o,0x00000000,1720648329.644562,172.16.3.2,5101,172.16.1.2,41039,8996,14480,0,65728,65700,6,6,4,1460,498,1,993,56,33580,0,65700,1448,0,0,0,0
i,0x00000000,1720648329.670475,172.16.3.2,5101,172.16.1.2,41039,8996,14480,0,65728,65700,6,6,4,1460,498,1,992,56,33580,0,65700,0,0,0,0,0
i,0x00000000,1720648329.705933,172.16.3.2,5101,172.16.1.2,41039,8996,14480,0,65728,65700,6,6,4,1460,498,1,992,56,33580,0,65700,0,0,0,0,0
o,0x00000000,1720648329.705943,172.16.3.2,5101,172.16.1.2,41039,8996,14480,0,65728,65700,6,6,4,1460,498,1,993,56,33580,0,65700,1448,0,0,0,0
i,0x00000000,1720648329.732051,172.16.3.2,5101,172.16.1.2,41039,8996,14480,0,65728,65700,6,6,4,1460,498,1,992,56,33580,0,65700,0,0,0,0,0
i,0x00000000,1720648329.752860,172.16.3.2,5101,172.16.1.2,41039,8996,14480,0,65728,65700,6,6,4,1460,498,1,992,56,33580,0,65700,0,0,0,0,0
o,0x00000000,1720648329.752872,172.16.3.2,5101,172.16.1.2,41039,8996,14480,0,65728,65700,6,6,4,1460,498,1,993,56,33580,0,65700,1448,0,0,0,0
i,0x00000000,1720648329.785542,172.16.3.2,5101,172.16.1.2,41039,8996,14480,0,65728,65700,6,6,4,1460,498,1,992,56,33580,0,65700,0,0,0,0,0
i,0x00000000,1720648329.795182,172.16.3.2,5101,172.16.1.2,41039,8996,14480,0,65728,65700,6,6,4,1460,498,1,992,56,33580,0,65700,0,0,0,0,0
o,0x00000000,1720648329.795190,172.16.3.2,5101,172.16.1.2,41039,8996,14480,0,65728,65700,6,6,4,1460,498,1,993,56,33580,0,65700,1448,0,0,0,0
i,0x00000000,1720648329.815139,172.16.3.2,5101,172.16.1.2,41039,8996,14480,0,65728,65700,6,6,4,1460,498,1,992,56,33580,0,65700,0,0,0,0,0
o,0x00000000,1720648329.846656,172.16.3.2,5101,172.16.1.2,41039,8996,14480,0,65728,65700,6,6,4,1460,498,1,993,56,33580,0,65700,0,0,0,0,0
i,0x00000000,1720648329.847908,172.16.3.2,5101,172.16.1.2,41039,8996,14480,0,65728,65700,6,6,4,1460,498,1,992,56,33580,0,65700,0,0,0,0,0
o,0x00000000,1720648329.877112,10.0.2.15,22,10.0.2.2,52548,1073725440,14600,0,65535,65700,0,0,4,1460,1,0,4,24,33580,156,65700,0,0,0,0,0
i,0x00000000,1720648329.877791,10.0.2.15,22,10.0.2.2,52548,1073725440,14600,0,65535,65700,0,0,4,1460,1,0,4,24,33580,156,65700,0,156,0,0,0
o,0x00000000,1720648329.887251,172.16.3.2,5101,172.16.1.2,41039,8996,14480,0,65728,65700,6,6,4,1460,498,1,993,56,33580,0,65700,0,0,0,0,0
i,0x00000000,1720648329.888241,172.16.3.2,5101,172.16.1.2,41039,8996,14480,0,65728,65700,6,6,4,1460,498,1,992,56,33580,0,65700,0,0,0,0,0
i,0x00000000,1720648329.888246,172.16.3.2,5101,172.16.1.2,41039,8996,14480,0,65728,65700,6,6,4,1460,498,1,992,56,33580,0,65700,1448,0,0,0,0
o,0x00000000,1720648329.888249,172.16.3.2,5101,172.16.1.2,41039,8996,14480,0,65728,65700,6,6,4,1460,498,1,993,56,33580,0,65700,2896,0,0,0,0
i,0x00000000,1720648329.914320,172.16.3.2,5101,172.16.1.2,41039,8996,14480,0,65728,65700,6,6,4,1460,498,1,992,56,33580,0,65700,0,0,0,0,0
o,0x00000000,1720648329.946648,172.16.3.2,5101,172.16.1.2,41039,8996,14480,0,65728,65700,6,6,4,1460,498,1,993,56,33580,0,65700,0,0,0,0,0
i,0x00000000,1720648329.948037,172.16.3.2,5101,172.16.1.2,41039,8996,14480,0,65728,65700,6,6,4,1460,498,1,992,56,33580,0,65700,0,0,0,0,0
o,0x00000000,1720648329.986183,172.16.3.2,5101,172.16.1.2,41039,8996,14480,0,65728,65700,6,6,4,1460,498,1,993,56,33580,0,65700,0,0,0,0,0
i,0x00000000,1720648330.002077,172.16.3.2,5101,172.16.1.2,41039,8996,14480,0,65728,65700,6,6,4,1460,498,1,992,56,33580,0,65700,0,0,0,0,0
i,0x00000000,1720648330.005896,172.16.3.2,5101,172.16.1.2,41039,8996,14480,0,65728,65700,6,6,4,1460,498,1,992,56,33580,0,65700,0,0,0,0,0
o,0x00000000,1720648330.005906,172.16.3.2,5101,172.16.1.2,41039,8996,14480,0,65728,65700,6,6,4,1460,498,1,993,56,33580,0,65700,1448,0,0,0,0
i,0x00000000,1720648330.014831,172.16.3.2,5101,172.16.1.2,41039,8996,14480,0,65728,65700,6,6,4,1460,498,1,992,56,33580,0,65700,0,0,0,0,0
i,0x00000000,1720648330.035776,172.16.3.2,5101,172.16.1.2,41039,8996,14480,0,65728,65700,6,6,4,1460,498,1,992,56,33580,0,65700,0,0,0,0,0
o,0x00000000,1720648330.035791,172.16.3.2,5101,172.16.1.2,41039,8996,14480,0,65728,65700,6,6,4,1460,498,1,993,56,33580,0,65700,1448,0,0,0,0
i,0x00000000,1720648330.084876,172.16.3.2,5101,172.16.1.2,41039,8996,14480,0,65728,65700,6,6,4,1460,498,1,992,56,33580,0,65700,0,0,0,0,0
i,0x00000000,1720648330.106375,172.16.3.2,5101,172.16.1.2,41039,8996,14480,0,65728,65700,6,6,4,1460,498,1,992,56,33580,0,65700,0,0,0,0,0
o,0x00000000,1720648330.106384,172.16.3.2,5101,172.16.1.2,41039,8996,14480,0,65728,65700,6,6,4,1460,498,1,993,56,33580,0,65700,1448,0,0,0,0
i,0x00000000,1720648330.114520,172.16.3.2,5101,172.16.1.2,41039,8996,14480,0,65728,65700,6,6,4,1460,498,1,992,56,33580,0,65700,0,0,0,0,0
i,0x00000000,1720648330.137061,172.16.3.2,5101,172.16.1.2,41039,8996,14480,0,65728,65700,6,6,4,1460,498,1,992,56,33580,0,65700,0,0,0,0,0
o,0x00000000,1720648330.137068,172.16.3.2,5101,172.16.1.2,41039,8996,14480,0,65728,65700,6,6,4,1460,498,1,993,56,33580,0,65700,1448,0,0,0,0
i,0x00000000,1720648330.168654,172.16.3.2,5101,172.16.1.2,41039,8996,14480,0,65728,65700,6,6,4,1460,498,1,992,56,33580,0,65700,0,0,0,0,0
i,0x00000000,1720648330.174258,172.16.3.2,5101,172.16.1.2,41039,8996,14480,0,65728,65700,6,6,4,1460,498,1,992,56,33580,0,65700,0,0,0,0,0
o,0x00000000,1720648330.174264,172.16.3.2,5101,172.16.1.2,41039,8996,14480,0,65728,65700,6,6,4,1460,498,1,993,56,33580,0,65700,1448,0,0,0,0
i,0x00000000,1720648330.184605,172.16.3.2,5101,172.16.1.2,41039,8996,14480,0,65728,65700,6,6,4,1460,498,1,992,56,33580,0,65700,0,0,0,0,0
o,0x00000000,1720648330.216186,172.16.3.2,5101,172.16.1.2,41039,8996,14480,0,65728,65700,6,6,4,1460,498,1,993,56,33580,0,65700,0,0,0,0,0
i,0x00000000,1720648330.244718,172.16.3.2,5101,172.16.1.2,41039,8996,14480,0,65728,65700,6,6,4,1460,498,1,992,56,33580,0,65700,0,0,0,0,0
i,0x00000000,1720648330.272463,172.16.3.2,5101,172.16.1.2,41039,8996,14480,0,65728,65700,6,6,4,1460,498,1,992,56,33580,0,65700,0,0,0,0,0
o,0x00000000,1720648330.272475,172.16.3.2,5101,172.16.1.2,41039,8996,14480,0,65728,65700,6,6,4,1460,498,1,993,56,33580,0,65700,1448,0,0,0,0
i,0x00000000,1720648330.303625,172.16.3.2,5101,172.16.1.2,41039,8996,14480,0,65728,65700,6,6,4,1460,498,1,992,56,33580,0,65700,0,0,0,0,0
o,0x00000000,1720648330.336924,172.16.3.2,5101,172.16.1.2,41039,8996,14480,0,65728,65700,6,6,4,1460,498,1,993,56,33580,0,65700,0,0,0,0,0
i,0x00000000,1720648330.344709,172.16.3.2,5101,172.16.1.2,41039,8996,14480,0,65728,65700,6,6,4,1460,498,1,992,56,33580,0,65700,0,0,0,0,0
i,0x00000000,1720648330.355346,172.16.3.2,5101,172.16.1.2,41039,8996,14480,0,65728,65700,6,6,4,1460,498,1,992,56,33580,0,65700,0,0,0,0,0
o,0x00000000,1720648330.355352,172.16.3.2,5101,172.16.1.2,41039,8996,14480,0,65728,65700,6,6,4,1460,498,1,993,56,33580,0,65700,1448,0,0,0,0
i,0x00000000,1720648330.376125,172.16.3.2,5101,172.16.1.2,41039,8996,14480,0,65728,65700,6,6,4,1460,498,1,992,56,33580,0,65700,0,0,0,0,0
i,0x00000000,1720648330.407059,172.16.3.2,5101,172.16.1.2,41039,8996,14480,0,65728,65700,6,6,4,1460,498,1,992,56,33580,0,65700,0,0,0,0,0
o,0x00000000,1720648330.407070,172.16.3.2,5101,172.16.1.2,41039,8996,14480,0,65728,65700,6,6,4,1460,498,1,993,56,33580,0,65700,1448,0,0,0,0
i,0x00000000,1720648330.435311,172.16.3.2,5101,172.16.1.2,41039,8996,14480,0,65728,65700,6,6,4,1460,498,1,992,56,33580,0,65700,0,0,0,0,0
i,0x00000000,1720648330.458835,172.16.3.2,5101,172.16.1.2,41039,8996,14480,0,65728,65700,6,6,4,1460,498,1,992,56,33580,0,65700,0,0,0,0,0
o,0x00000000,1720648330.458851,172.16.3.2,5101,172.16.1.2,41039,8996,14480,0,65728,65700,6,6,4,1460,498,1,993,56,33580,0,65700,1448,0,0,0,0
i,0x00000000,1720648330.464519,172.16.3.2,5101,172.16.1.2,41039,8996,14480,0,65728,65700,6,6,4,1460,498,1,992,56,33580,0,65700,0,0,0,0,0
i,0x00000000,1720648330.464524,172.16.3.2,5101,172.16.1.2,41039,8996,14480,0,65728,65700,6,6,4,1460,498,1,992,56,33580,0,65700,1448,0,0,0,0
o,0x00000000,1720648330.464527,172.16.3.2,5101,172.16.1.2,41039,8996,14480,0,65728,65700,6,6,4,1460,498,1,993,56,33580,0,65700,2896,0,0,0,0
i,0x00000000,1720648330.506354,172.16.3.2,5101,172.16.1.2,41039,8996,14480,0,65728,65700,6,6,4,1460,498,1,992,56,33580,0,65700,0,0,0,0,0
i,0x00000000,1720648330.521521,172.16.3.2,5101,172.16.1.2,41039,8996,14480,0,65728,65700,6,6,4,1460,498,1,992,56,33580,0,65700,0,0,0,0,0
o,0x00000000,1720648330.521530,172.16.3.2,5101,172.16.1.2,41039,8996,14480,0,65728,65700,6,6,4,1460,498,1,993,56,33580,0,65700,1448,0,0,0,0
i,0x00000000,1720648330.543963,172.16.3.2,5101,172.16.1.2,41039,8996,14480,0,65728,65700,6,6,4,1460,498,1,992,56,33580,0,65700,0,0,0,0,0
o,0x00000000,1720648330.576573,172.16.3.2,5101,172.16.1.2,41039,8996,14480,0,65728,65700,6,6,4,1460,498,1,993,56,33580,0,65700,0,0,0,0,0
i,0x00000000,1720648330.606384,172.16.3.2,5101,172.16.1.2,41039,8996,14480,0,65728,65700,6,6,4,1460,498,1,992,56,33580,0,65700,0,0,0,0,0
i,0x00000000,1720648330.614943,172.16.3.2,5101,172.16.1.2,41039,8996,14480,0,65728,65700,6,6,4,1460,498,1,992,56,33580,0,65700,0,0,0,0,0
o,0x00000000,1720648330.614950,172.16.3.2,5101,172.16.1.2,41039,8996,14480,0,65728,65700,6,6,4,1460,498,1,993,56,33580,0,65700,1448,0,0,0,0
i,0x00000000,1720648330.654813,172.16.3.2,5101,172.16.1.2,41039,8996,14480,0,65728,65700,6,6,4,1460,498,1,992,56,33580,0,65700,0,0,0,0,0
o,0x00000000,1720648330.685910,172.16.3.2,5101,172.16.1.2,41039,8996,14480,0,65728,65700,6,6,4,1460,498,1,993,56,33580,0,65700,0,0,0,0,0
i,0x00000000,1720648330.708271,172.16.3.2,5101,172.16.1.2,41039,8996,14480,0,65728,65700,6,6,4,1460,498,1,992,56,33580,0,65700,0,0,0,0,0
i,0x00000000,1720648330.718602,172.16.3.2,5101,172.16.1.2,41039,8996,14480,0,65728,65700,6,6,4,1460,498,1,992,56,33580,0,65700,0,0,0,0,0
o,0x00000000,1720648330.718609,172.16.3.2,5101,172.16.1.2,41039,8996,14480,0,65728,65700,6,6,4,1460,498,1,993,56,33580,0,65700,1448,0,0,0,0
i,0x00000000,1720648330.725279,172.16.3.2,5101,172.16.1.2,41039,8996,14480,0,65728,65700,6,6,4,1460,498,1,992,56,33580,0,65700,0,0,0,0,0
o,0x00000000,1720648330.756103,172.16.3.2,5101,172.16.1.2,41039,8996,14480,0,65728,65700,6,6,4,1460,498,1,993,56,33580,0,65700,0,0,0,0,0
i,0x00000000,1720648330.770506,172.16.3.2,5101,172.16.1.2,41039,8996,14480,0,65728,65700,6,6,4,1460,498,1,992,56,33580,0,65700,0,0,0,0,0
i,0x00000000,1720648330.781394,172.16.3.2,5101,172.16.1.2,41039,8996,14480,0,65728,65700,6,6,4,1460,498,1,992,56,33580,0,65700,0,0,0,0,0
o,0x00000000,1720648330.781402,172.16.3.2,5101,172.16.1.2,41039,8996,14480,0,65728,65700,6,6,4,1460,498,1,993,56,33580,0,65700,1448,0,0,0,0
i,0x00000000,1720648330.794120,172.16.3.2,5101,172.16.1.2,41039,8996,14480,0,65728,65700,6,6,4,1460,498,1,992,56,33580,0,65700,0,0,0,0,0
i,0x00000000,1720648330.814894,172.16.3.2,5101,172.16.1.2,41039,8996,14480,0,65728,65700,6,6,4,1460,498,1,992,56,33580,0,65700,0,0,0,0,0
o,0x00000000,1720648330.814903,172.16.3.2,5101,172.16.1.2,41039,8996,14480,0,65728,65700,6,6,4,1460,498,1,993,56,33580,0,65700,1448,0,0,0,0
i,0x00000000,1720648330.824451,172.16.3.2,5101,172.16.1.2,41039,8996,14480,0,65728,65700,6,6,4,1460,498,1,992,56,33580,0,65700,0,0,0,0,0
i,0x00000000,1720648330.845024,172.16.3.2,5101,172.16.1.2,41039,8996,14480,0,65728,65700,6,6,4,1460,498,1,992,56,33580,0,65700,0,0,0,0,0
o,0x00000000,1720648330.845033,172.16.3.2,5101,172.16.1.2,41039,8996,14480,0,65728,65700,6,6,4,1460,498,1,993,56,33580,0,65700,1448,0,0,0,0
i,0x00000000,1720648330.864425,172.16.3.2,5101,172.16.1.2,41039,8996,14480,0,65728,65700,6,6,4,1460,498,1,992,56,33580,0,65700,0,0,0,0,0
i,0x00000000,1720648330.874498,172.16.3.2,5101,172.16.1.2,41039,8996,14480,0,65728,65700,6,6,4,1460,498,1,992,56,33580,0,65700,0,0,0,0,0
o,0x00000000,1720648330.874505,172.16.3.2,5101,172.16.1.2,41039,8996,14480,0,65728,65700,6,6,4,1460,498,1,993,56,33580,0,65700,1448,0,0,0,0
o,0x00000000,1720648330.876787,10.0.2.15,22,10.0.2.2,52548,1073725440,14600,0,65535,65700,0,0,4,1460,1,0,4,24,33580,108,65700,0,0,0,0,0
i,0x00000000,1720648330.877529,10.0.2.15,22,10.0.2.2,52548,1073725440,14600,0,65535,65700,0,0,4,1460,1,0,4,24,33580,108,65700,0,108,0,0,0
i,0x00000000,1720648330.936791,172.16.3.2,5101,172.16.1.2,41039,8996,14480,0,65728,65700,6,6,4,1460,498,1,992,56,33580,0,65700,0,0,0,0,0
o,0x00000000,1720648330.936828,172.16.3.2,5101,172.16.1.2,41039,8996,14480,0,65728,65700,6,6,4,1460,498,1,993,56,33580,0,65700,0,0,1,0,0
i,0x00000000,1720648330.999065,172.16.3.2,5101,172.16.1.2,41039,8996,14480,0,65728,65700,6,6,4,1460,498,1,992,56,33580,0,65700,0,0,1,0,0
o,0x00000000,1720648330.999082,172.16.3.2,5101,172.16.1.2,41039,8996,14480,0,65728,65728,6,6,4,1460,498,1,993,56,33580,0,65700,0,0,1,0,0
i,0x00000000,1720648331.004568,172.16.3.2,5101,172.16.1.2,41039,8996,14480,0,65728,65728,6,6,4,1460,498,1,992,56,33580,0,65700,0,0,1,0,0
o,0x00000000,1720648331.004579,172.16.3.2,5101,172.16.1.2,41039,8996,14480,0,65728,65728,6,6,4,1460,498,1,993,56,33580,0,65700,0,0,1,0,0
i,0x00000000,1720648331.013886,172.16.3.2,5101,172.16.1.2,41039,8996,14480,0,65728,65728,6,6,4,1460,498,1,992,56,33580,0,65700,0,0,1,0,0
o,0x00000000,1720648331.013894,172.16.3.2,5101,172.16.1.2,41039,8996,14480,0,65728,65728,6,6,4,1460,498,1,993,56,33580,0,65700,0,0,1,0,0
i,0x00000000,1720648331.059604,172.16.3.2,5101,172.16.1.2,41039,8996,14480,0,65728,65728,6,6,4,1460,498,1,992,56,33580,0,65700,0,0,1,0,0
o,0x00000000,1720648331.059617,172.16.3.2,5101,172.16.1.2,41039,8996,14480,0,65728,65728,6,6,4,1460,498,1,993,56,33580,0,65700,0,0,1,0,0
i,0x00000000,1720648331.102803,172.16.3.2,5101,172.16.1.2,41039,8996,14480,0,65728,65728,6,6,4,1460,498,1,992,56,33580,0,65700,0,0,1,0,0
o,0x00000000,1720648331.102811,172.16.3.2,5101,172.16.1.2,41039,8996,14480,0,65728,65728,6,6,4,1460,498,1,993,56,33580,0,65700,0,0,2,0,0
i,0x00000000,1720648331.103939,172.16.3.2,5101,172.16.1.2,41039,8996,14480,0,65728,65728,6,6,4,1460,498,1,992,56,33580,0,65700,0,0,2,0,0
o,0x00000000,1720648331.103945,172.16.3.2,5101,172.16.1.2,41039,8996,14480,0,65728,65728,6,6,4,1460,498,1,993,56,33580,0,65700,0,0,2,0,0
i,0x00000000,1720648331.135990,172.16.3.2,5101,172.16.1.2,41039,8996,14480,0,65728,65728,6,6,4,1460,498,1,992,56,33580,0,65700,0,0,2,0,0
o,0x00000000,1720648331.135995,172.16.3.2,5101,172.16.1.2,41039,8996,14480,0,65728,65728,6,6,4,1460,498,1,993,56,33580,0,65700,0,0,3,0,0
i,0x00000000,1720648331.144536,172.16.3.2,5101,172.16.1.2,41039,8996,14480,0,65728,65728,6,6,4,1460,498,1,992,56,33580,0,65700,0,0,3,0,0
o,0x00000000,1720648331.144541,172.16.3.2,5101,172.16.1.2,41039,8996,14480,0,65728,65728,6,6,4,1460,498,1,993,56,33580,0,65700,0,0,3,0,0
i,0x00000000,1720648331.186265,172.16.3.2,5101,172.16.1.2,41039,8996,14480,0,65728,65728,6,6,4,1460,498,1,992,56,33580,0,65700,0,0,3,0,0
o,0x00000000,1720648331.186275,172.16.3.2,5101,172.16.1.2,41039,8996,14480,0,65728,65728,6,6,4,1460,498,1,993,56,33580,0,65700,0,0,4,0,0
i,0x00000000,1720648331.197021,172.16.3.2,5101,172.16.1.2,41039,8996,14480,0,65728,65728,6,6,4,1460,498,1,992,56,33580,0,65700,0,0,4,0,0
o,0x00000000,1720648331.197027,172.16.3.2,5101,172.16.1.2,41039,8996,14480,0,65728,65728,6,6,4,1460,498,1,993,56,33580,0,65700,0,0,4,0,0
i,0x00000000,1720648331.224430,172.16.3.2,5101,172.16.1.2,41039,8996,14480,0,65728,65728,6,6,4,1460,498,1,992,56,33580,0,65700,0,0,4,0,0
o,0x00000000,1720648331.224439,172.16.3.2,5101,172.16.1.2,41039,8996,14480,0,65728,65728,6,6,4,1460,498,1,993,56,33580,0,65700,1448,0,4,0,0
i,0x00000000,1720648331.259353,172.16.3.2,5101,172.16.1.2,41039,8996,14480,0,65728,65728,6,6,4,1460,498,1,992,56,33580,0,65700,0,0,4,0,0
o,0x00000000,1720648331.259371,172.16.3.2,5101,172.16.1.2,41039,8996,14480,0,65728,65700,6,6,4,1460,498,1,993,56,33580,0,65700,8688,0,3,0,0
i,0x00000000,1720648331.274989,172.16.3.2,5101,172.16.1.2,41039,8996,14480,0,65728,65700,6,6,4,1460,498,1,992,56,33580,0,65700,0,0,3,0,0
o,0x00000000,1720648331.274998,172.16.3.2,5101,172.16.1.2,41039,8996,14480,0,65728,65700,6,6,4,1460,498,1,993,56,33580,0,65700,4344,0,2,0,0
i,0x00000000,1720648331.283966,172.16.3.2,5101,172.16.1.2,41039,8996,14480,0,65728,65700,6,6,4,1460,498,1,992,56,33580,0,65700,0,0,2,0,0
o,0x00000000,1720648331.283973,172.16.3.2,5101,172.16.1.2,41039,8996,14480,0,65728,65700,6,6,4,1460,498,1,993,56,33580,0,65700,1448,0,2,0,0
i,0x00000000,1720648331.334569,172.16.3.2,5101,172.16.1.2,41039,8996,14480,0,65728,65700,6,6,4,1460,498,1,992,56,33580,0,65700,0,0,2,0,0
o,0x00000000,1720648331.334578,172.16.3.2,5101,172.16.1.2,41039,8996,14480,0,65728,65700,6,6,4,1460,498,1,993,56,33580,0,65700,4344,0,1,0,0
i,0x00000000,1720648331.363222,172.16.3.2,5101,172.16.1.2,41039,8996,14480,0,65728,65700,6,6,4,1460,498,1,992,56,33580,0,65700,0,0,1,0,0
o,0x00000000,1720648331.363229,172.16.3.2,5101,172.16.1.2,41039,8996,14480,0,65728,65700,6,6,4,1460,498,1,993,56,33580,0,65700,4344,0,0,0,0
i,0x00000000,1720648331.375186,172.16.3.2,5101,172.16.1.2,41039,8996,14480,0,65728,65700,6,6,4,1460,498,1,992,56,33580,0,65700,0,0,0,0,0
o,0x00000000,1720648331.375190,172.16.3.2,5101,172.16.1.2,41039,8996,14480,0,65728,65700,6,6,4,1460,498,1,993,56,33580,0,65700,0,0,1,0,0
i,0x00000000,1720648331.405016,172.16.3.2,5101,172.16.1.2,41039,8996,14480,0,65728,65700,6,6,4,1460,498,1,992,56,33580,0,65700,0,0,1,0,0
o,0x00000000,1720648331.405027,172.16.3.2,5101,172.16.1.2,41039,8996,14480,0,65728,65728,6,6,4,1460,498,1,993,56,33580,0,65700,0,0,1,0,0
i,0x00000000,1720648331.446498,172.16.3.2,5101,172.16.1.2,41039,8996,14480,0,65728,65728,6,6,4,1460,498,1,992,56,33580,0,65700,0,0,1,0,0
o,0x00000000,1720648331.446516,172.16.3.2,5101,172.16.1.2,41039,8996,14480,0,65728,65728,6,6,4,1460,498,1,993,56,33580,0,65700,0,0,1,0,0
i,0x00000000,1720648331.447711,172.16.3.2,5101,172.16.1.2,41039,8996,14480,0,65728,65728,6,6,4,1460,498,1,992,56,33580,0,65700,0,0,1,0,0
o,0x00000000,1720648331.447718,172.16.3.2,5101,172.16.1.2,41039,8996,14480,0,65728,65728,6,6,4,1460,498,1,993,56,33580,0,65700,0,0,1,0,0
i,0x00000000,1720648331.489058,172.16.3.2,5101,172.16.1.2,41039,8996,14480,0,65728,65728,6,6,4,1460,498,1,992,56,33580,0,65700,0,0,1,0,0
o,0x00000000,1720648331.489075,172.16.3.2,5101,172.16.1.2,41039,8996,14480,0,65728,65728,6,6,4,1460,498,1,993,56,33580,0,65700,0,0,1,0,0
i,0x00000000,1720648331.524212,172.16.3.2,5101,172.16.1.2,41039,8996,14480,0,65728,65728,6,6,4,1460,498,1,992,56,33580,0,65700,0,0,1,0,0
o,0x00000000,1720648331.524218,172.16.3.2,5101,172.16.1.2,41039,8996,14480,0,65728,65728,6,6,4,1460,498,1,993,56,33580,0,65700,0,0,1,0,0
i,0x00000000,1720648331.524453,172.16.3.2,5101,172.16.1.2,41039,8996,14480,0,65728,65728,6,6,4,1460,498,1,992,56,33580,0,65700,0,0,1,0,0
i,0x00000000,1720648331.539976,172.16.3.2,5101,172.16.1.2,41039,8996,14480,0,65728,65728,6,6,4,1460,498,1,992,56,33580,0,65700,0,0,1,0,0
o,0x00000000,1720648331.539982,172.16.3.2,5101,172.16.1.2,41039,8996,14480,0,65728,65728,6,6,4,1460,498,1,993,56,33580,0,65700,0,0,1,0,0
i,0x00000000,1720648331.554964,172.16.3.2,5101,172.16.1.2,41039,8996,14480,0,65728,65728,6,6,4,1460,498,1,992,56,33580,0,65700,0,0,1,0,0
o,0x00000000,1720648331.554973,172.16.3.2,5101,172.16.1.2,41039,8996,14480,0,65728,65728,6,6,4,1460,498,1,993,56,33580,0,65700,11584,0,0,0,0
i,0x00000000,1720648331.581753,172.16.3.2,5101,172.16.1.2,41039,8996,14480,0,65728,65728,6,6,4,1460,498,1,992,56,33580,0,65700,0,0,0,0,0
i,0x00000000,1720648331.614519,172.16.3.2,5101,172.16.1.2,41039,8996,14480,0,65728,65728,6,6,4,1460,498,1,992,56,33580,0,65700,0,0,0,0,0
o,0x00000000,1720648331.614531,172.16.3.2,5101,172.16.1.2,41039,8996,14480,0,65728,65728,6,6,4,1460,498,1,993,56,33580,0,65700,1448,0,0,0,0
i,0x00000000,1720648331.643738,172.16.3.2,5101,172.16.1.2,41039,8996,14480,0,65728,65728,6,6,4,1460,498,1,992,56,33580,0,65700,0,0,0,0,0
i,0x00000000,1720648331.654254,172.16.3.2,5101,172.16.1.2,41039,8996,14480,0,65728,65728,6,6,4,1460,498,1,992,56,33580,0,65700,0,0,0,0,0
o,0x00000000,1720648331.654263,172.16.3.2,5101,172.16.1.2,41039,8996,14480,0,65728,65728,6,6,4,1460,498,1,993,56,33580,0,65700,1448,0,0,0,0
i,0x00000000,1720648331.695555,172.16.3.2,5101,172.16.1.2,41039,8996,14480,0,65728,65728,6,6,4,1460,498,1,992,56,33580,0,65700,0,0,0,0,0
i,0x00000000,1720648331.706275,172.16.3.2,5101,172.16.1.2,41039,8996,14480,0,65728,65728,6,6,4,1460,498,1,992,56,33580,0,65700,0,0,0,0,0
o,0x00000000,1720648331.706282,172.16.3.2,5101,172.16.1.2,41039,8996,14480,0,65728,65728,6,6,4,1460,498,1,993,56,33580,0,65700,1448,0,0,0,0
i,0x00000000,1720648331.726682,172.16.3.2,5101,172.16.1.2,41039,8996,14480,0,65728,65728,6,6,4,1460,498,1,992,56,33580,0,65700,0,0,0,0,0
o,0x00000000,1720648331.766314,172.16.3.2,5101,172.16.1.2,41039,8996,14480,0,65728,65728,6,6,4,1460,498,1,993,56,33580,0,65700,0,0,0,0,0
i,0x00000000,1720648331.767566,172.16.3.2,5101,172.16.1.2,41039,8996,14480,0,65728,65728,6,6,4,1460,498,1,992,56,33580,0,65700,0,0,0,0,0
o,0x00000000,1720648331.806848,172.16.3.2,5101,172.16.1.2,41039,8996,14480,0,65728,65728,6,6,4,1460,498,1,993,56,33580,0,65700,0,0,0,0,0
i,0x00000000,1720648331.807837,172.16.3.2,5101,172.16.1.2,41039,8996,14480,0,65728,65728,6,6,4,1460,498,1,992,56,33580,0,65700,0,0,0,0,0
i,0x00000000,1720648331.820445,172.16.3.2,5101,172.16.1.2,41039,8996,14480,0,65728,65728,6,6,4,1460,498,1,992,56,33580,0,65700,0,0,0,0,0
o,0x00000000,1720648331.820451,172.16.3.2,5101,172.16.1.2,41039,8996,14480,0,65728,65728,6,6,4,1460,498,1,993,56,33580,0,65700,1448,0,0,0,0
i,0x00000000,1720648331.824973,172.16.3.2,5101,172.16.1.2,41039,8996,14480,0,65728,65728,6,6,4,1460,498,1,992,56,33580,0,65700,0,0,0,0,0
o,0x00000000,1720648331.856705,172.16.3.2,5101,172.16.1.2,41039,8996,14480,0,65728,65728,6,6,4,1460,498,1,993,56,33580,0,65700,0,0,0,0,0
i,0x00000000,1720648331.872202,172.16.3.2,5101,172.16.1.2,41039,8996,14480,0,65728,65728,6,6,4,1460,498,1,992,56,33580,0,65700,0,0,0,0,0
i,0x00000000,1720648331.873875,172.16.3.2,5101,172.16.1.2,41039,8996,14480,0,65728,65728,6,6,4,1460,498,1,992,56,33580,0,65700,0,0,0,0,0
o,0x00000000,1720648331.873882,172.16.3.2,5101,172.16.1.2,41039,8996,14480,0,65728,65728,6,6,4,1460,498,1,993,56,33580,0,65700,1448,0,0,0,0
o,0x00000000,1720648331.876548,10.0.2.15,22,10.0.2.2,52548,1073725440,14600,0,65535,65700,0,0,4,1460,1,0,4,24,33580,108,65700,0,0,0,0,0
i,0x00000000,1720648331.877209,10.0.2.15,22,10.0.2.2,52548,1073725440,14600,0,65535,65700,0,0,4,1460,1,0,4,24,33580,108,65700,0,108,0,0,0
i,0x00000000,1720648331.913577,172.16.3.2,5101,172.16.1.2,41039,8996,14480,0,65728,65728,6,6,4,1460,498,1,992,56,33580,0,65700,0,0,0,0,0
i,0x00000000,1720648331.914421,172.16.3.2,5101,172.16.1.2,41039,8996,14480,0,65728,65728,6,6,4,1460,498,1,992,56,33580,0,65700,0,0,0,0,0
o,0x00000000,1720648331.914430,172.16.3.2,5101,172.16.1.2,41039,8996,14480,0,65728,65728,6,6,4,1460,498,1,993,56,33580,0,65700,1448,0,0,0,0
i,0x00000000,1720648331.973817,172.16.3.2,5101,172.16.1.2,41039,8996,14480,0,65728,65728,6,6,4,1460,498,1,992,56,33580,0,65700,0,0,0,0,0
o,0x00000000,1720648332.006871,172.16.3.2,5101,172.16.1.2,41039,8996,14480,0,65728,65728,6,6,4,1460,498,1,993,56,33580,0,65700,0,0,0,0,0
i,0x00000000,1720648332.007937,172.16.3.2,5101,172.16.1.2,41039,8996,14480,0,65728,65728,6,6,4,1460,498,1,992,56,33580,0,65700,0,0,0,0,0
i,0x00000000,1720648332.015329,172.16.3.2,5101,172.16.1.2,41039,8996,14480,0,65728,65728,6,6,4,1460,498,1,992,56,33580,0,65700,0,0,0,0,0
o,0x00000000,1720648332.015359,172.16.3.2,5101,172.16.1.2,41039,8996,14480,0,65728,65728,6,6,4,1460,498,1,993,56,33580,0,65700,1448,0,0,0,0
i,0x00000000,1720648332.059057,172.16.3.2,5101,172.16.1.2,41039,8996,14480,0,65728,65728,6,6,4,1460,498,1,992,56,33580,0,65700,0,0,0,0,0
i,0x00000000,1720648332.065021,172.16.3.2,5101,172.16.1.2,41039,8996,14480,0,65728,65728,6,6,4,1460,498,1,992,56,33580,0,65700,0,0,0,0,0
o,0x00000000,1720648332.065031,172.16.3.2,5101,172.16.1.2,41039,8996,14480,0,65728,65728,6,6,4,1460,498,1,993,56,33580,0,65700,1448,0,0,0,0
i,0x00000000,1720648332.095191,172.16.3.2,5101,172.16.1.2,41039,8996,14480,0,65728,65728,6,6,4,1460,498,1,992,56,33580,0,65700,0,0,0,0,0
i,0x00000000,1720648332.121651,172.16.3.2,5101,172.16.1.2,41039,8996,14480,0,65728,65728,6,6,4,1460,498,1,992,56,33580,0,65700,0,0,0,0,0
o,0x00000000,1720648332.121658,172.16.3.2,5101,172.16.1.2,41039,8996,14480,0,65728,65728,6,6,4,1460,498,1,993,56,33580,0,65700,1448,0,0,0,0
i,0x00000000,1720648332.131768,172.16.3.2,5101,172.16.1.2,41039,8996,14480,0,65728,65728,6,6,4,1460,498,1,992,56,33580,0,65700,0,0,0,0,0
i,0x00000000,1720648332.143600,172.16.3.2,5101,172.16.1.2,41039,8996,14480,0,65728,65728,6,6,4,1460,498,1,992,56,33580,0,65700,0,0,0,0,0
o,0x00000000,1720648332.143606,172.16.3.2,5101,172.16.1.2,41039,8996,14480,0,65728,65728,6,6,4,1460,498,1,993,56,33580,0,65700,1448,0,0,0,0
i,0x00000000,1720648332.173803,172.16.3.2,5101,172.16.1.2,41039,8996,14480,0,65728,65728,6,6,4,1460,498,1,992,56,33580,0,65700,0,0,0,0,0
i,0x00000000,1720648332.194860,172.16.3.2,5101,172.16.1.2,41039,8996,14480,0,65728,65728,6,6,4,1460,498,1,992,56,33580,0,65700,0,0,0,0,0
o,0x00000000,1720648332.194877,172.16.3.2,5101,172.16.1.2,41039,8996,14480,0,65728,65728,6,6,4,1460,498,1,993,56,33580,0,65700,1448,0,0,0,0
i,0x00000000,1720648332.247029,172.16.3.2,5101,172.16.1.2,41039,8996,14480,0,65728,65728,6,6,4,1460,498,1,992,56,33580,0,65700,0,0,0,0,0
i,0x00000000,1720648332.283915,172.16.3.2,5101,172.16.1.2,41039,8996,14480,0,65728,65728,6,6,4,1460,498,1,992,56,33580,0,65700,0,0,0,0,0
o,0x00000000,1720648332.283925,172.16.3.2,5101,172.16.1.2,41039,8996,14480,0,65728,65728,6,6,4,1460,498,1,993,56,33580,0,65700,1448,0,0,0,0
i,0x00000000,1720648332.294331,172.16.3.2,5101,172.16.1.2,41039,8996,14480,0,65728,65728,6,6,4,1460,498,1,992,56,33580,0,65700,0,0,0,0,0
o,0x00000000,1720648332.327151,172.16.3.2,5101,172.16.1.2,41039,8996,14480,0,65728,65728,6,6,4,1460,498,1,993,56,33580,0,65700,0,0,0,0,0
i,0x00000000,1720648332.340449,172.16.3.2,5101,172.16.1.2,41039,8996,14480,0,65728,65728,6,6,4,1460,498,1,992,56,33580,0,65700,0,0,0,0,0
i,0x00000000,1720648332.347685,172.16.3.2,5101,172.16.1.2,41039,8996,14480,0,65728,65728,6,6,4,1460,498,1,992,56,33580,0,65700,0,0,0,0,0
o,0x00000000,1720648332.347691,172.16.3.2,5101,172.16.1.2,41039,8996,14480,0,65728,65728,6,6,4,1460,498,1,993,56,33580,0,65700,1448,0,0,0,0
i,0x00000000,1720648332.354125,172.16.3.2,5101,172.16.1.2,41039,8996,14480,0,65728,65728,6,6,4,1460,498,1,992,56,33580,0,65700,0,0,0,0,0
o,0x00000000,1720648332.387211,172.16.3.2,5101,172.16.1.2,41039,8996,14480,0,65728,65728,6,6,4,1460,498,1,993,56,33580,0,65700,0,0,0,0,0
i,0x00000000,1720648332.394221,172.16.3.2,5101,172.16.1.2,41039,8996,14480,0,65728,65728,6,6,4,1460,498,1,992,56,33580,0,65700,0,0,0,0,0
i,0x00000000,1720648332.403547,172.16.3.2,5101,172.16.1.2,41039,8996,14480,0,65728,65728,6,6,4,1460,498,1,992,56,33580,0,65700,0,0,0,0,0
o,0x00000000,1720648332.403554,172.16.3.2,5101,172.16.1.2,41039,8996,14480,0,65728,65728,6,6,4,1460,498,1,993,56,33580,0,65700,1448,0,0,0,0
i,0x00000000,1720648332.419990,172.16.3.2,5101,172.16.1.2,41039,8996,14480,0,65728,65728,6,6,4,1460,498,1,992,56,33580,0,65700,0,0,0,0,0
i,0x00000000,1720648332.455136,172.16.3.2,5101,172.16.1.2,41039,8996,14480,0,65728,65728,6,6,4,1460,498,1,992,56,33580,0,65700,0,0,0,0,0
o,0x00000000,1720648332.455158,172.16.3.2,5101,172.16.1.2,41039,8996,14480,0,65728,65728,6,6,4,1460,498,1,993,56,33580,0,65700,1448,0,0,0,0
i,0x00000000,1720648332.465302,172.16.3.2,5101,172.16.1.2,41039,8996,14480,0,65728,65728,6,6,4,1460,498,1,992,56,33580,0,65700,0,0,0,0,0
o,0x00000000,1720648332.496125,172.16.3.2,5101,172.16.1.2,41039,8996,14480,0,65728,65728,6,6,4,1460,498,1,993,56,33580,0,65700,0,0,0,0,0
i,0x00000000,1720648332.524915,172.16.3.2,5101,172.16.1.2,41039,8996,14480,0,65728,65728,6,6,4,1460,498,1,992,56,33580,0,65700,0,0,0,0,0
i,0x00000000,1720648332.548784,172.16.3.2,5101,172.16.1.2,41039,8996,14480,0,65728,65728,6,6,4,1460,498,1,992,56,33580,0,65700,0,0,0,0,0
o,0x00000000,1720648332.548791,172.16.3.2,5101,172.16.1.2,41039,8996,14480,0,65728,65728,6,6,4,1460,498,1,993,56,33580,0,65700,1448,0,0,0,0
i,0x00000000,1720648332.590387,172.16.3.2,5101,172.16.1.2,41039,8996,14480,0,65728,65728,6,6,4,1460,498,1,992,56,33580,0,65700,0,0,0,0,0
i,0x00000000,1720648332.611185,172.16.3.2,5101,172.16.1.2,41039,8996,14480,0,65728,65728,6,6,4,1460,498,1,992,56,33580,0,65700,0,0,0,0,0
o,0x00000000,1720648332.611193,172.16.3.2,5101,172.16.1.2,41039,8996,14480,0,65728,65728,6,6,4,1460,498,1,993,56,33580,0,65700,1448,0,0,0,0
i,0x00000000,1720648332.613369,172.16.3.2,5101,172.16.1.2,41039,8996,14480,0,65728,65728,6,6,4,1460,498,1,992,56,33580,0,65700,0,0,0,0,0
i,0x00000000,1720648332.623969,172.16.3.2,5101,172.16.1.2,41039,8996,14480,0,65728,65728,6,6,4,1460,498,1,992,56,33580,0,65700,0,0,0,0,0
o,0x00000000,1720648332.623975,172.16.3.2,5101,172.16.1.2,41039,8996,14480,0,65728,65728,6,6,4,1460,498,1,993,56,33580,0,65700,1448,0,0,0,0
i,0x00000000,1720648332.673622,172.16.3.2,5101,172.16.1.2,41039,8996,14480,0,65728,65728,6,6,4,1460,498,1,992,56,33580,0,65700,0,0,0,0,0
i,0x00000000,1720648332.683925,172.16.3.2,5101,172.16.1.2,41039,8996,14480,0,65728,65728,6,6,4,1460,498,1,992,56,33580,0,65700,0,0,0,0,0
o,0x00000000,1720648332.683934,172.16.3.2,5101,172.16.1.2,41039,8996,14480,0,65728,65728,6,6,4,1460,498,1,993,56,33580,0,65700,1448,0,0,0,0
i,0x00000000,1720648332.694218,172.16.3.2,5101,172.16.1.2,41039,8996,14480,0,65728,65728,6,6,4,1460,498,1,992,56,33580,0,65700,0,0,0,0,0
o,0x00000000,1720648332.725962,172.16.3.2,5101,172.16.1.2,41039,8996,14480,0,65728,65728,6,6,4,1460,498,1,993,56,33580,0,65700,0,0,0,0,0
i,0x00000000,1720648332.733350,172.16.3.2,5101,172.16.1.2,41039,8996,14480,0,65728,65728,6,6,4,1460,498,1,992,56,33580,0,65700,0,0,0,0,0
i,0x00000000,1720648332.744054,172.16.3.2,5101,172.16.1.2,41039,8996,14480,0,65728,65728,6,6,4,1460,498,1,992,56,33580,0,65700,0,0,0,0,0
o,0x00000000,1720648332.744061,172.16.3.2,5101,172.16.1.2,41039,8996,14480,0,65728,65728,6,6,4,1460,498,1,993,56,33580,0,65700,1448,0,0,0,0
i,0x00000000,1720648332.766862,172.16.3.2,5101,172.16.1.2,41039,8996,14480,0,65728,65728,6,6,4,1460,498,1,992,56,33580,0,65700,0,0,0,0,0
o,0x00000000,1720648332.806028,172.16.3.2,5101,172.16.1.2,41039,8996,14480,0,65728,65728,6,6,4,1460,498,1,993,56,33580,0,65700,0,0,0,0,0
i,0x00000000,1720648332.824198,172.16.3.2,5101,172.16.1.2,41039,8996,14480,0,65728,65728,6,6,4,1460,498,1,992,56,33580,0,65700,0,0,0,0,0
i,0x00000000,1720648332.839680,172.16.3.2,5101,172.16.1.2,41039,8996,14480,0,65728,65728,6,6,4,1460,498,1,992,56,33580,0,65700,0,0,0,0,0
o,0x00000000,1720648332.839689,172.16.3.2,5101,172.16.1.2,41039,8996,14480,0,65728,65728,6,6,4,1460,498,1,993,56,33580,0,65700,1448,0,0,0,0
i,0x00000000,1720648332.874153,172.16.3.2,5101,172.16.1.2,41039,8996,14480,0,65728,65728,6,6,4,1460,498,1,992,56,33580,0,65700,0,0,0,0,0
o,0x00000000,1720648332.876246,10.0.2.15,22,10.0.2.2,52548,1073725440,14600,0,65535,65700,0,0,4,1460,1,0,4,24,33580,108,65700,0,0,0,0,0
i,0x00000000,1720648332.876908,10.0.2.15,22,10.0.2.2,52548,1073725440,14600,0,65535,65700,0,0,4,1460,1,0,4,24,33580,108,65700,0,108,0,0,0
i,0x00000000,1720648332.883576,172.16.3.2,5101,172.16.1.2,41039,8996,14480,0,65728,65728,6,6,4,1460,498,1,992,56,33580,0,65700,0,0,0,0,0
o,0x00000000,1720648332.883583,172.16.3.2,5101,172.16.1.2,41039,8996,14480,0,65728,65728,6,6,4,1460,498,1,993,56,33580,0,65700,1448,0,0,0,0
i,0x00000000,1720648332.901977,172.16.3.2,5101,172.16.1.2,41039,8996,14480,0,65728,65728,6,6,4,1460,498,1,992,56,33580,0,65700,0,0,0,0,0
i,0x00000000,1720648332.925741,172.16.3.2,5101,172.16.1.2,41039,8996,14480,0,65728,65728,6,6,4,1460,498,1,992,56,33580,0,65700,0,0,0,0,0
o,0x00000000,1720648332.925748,172.16.3.2,5101,172.16.1.2,41039,8996,14480,0,65728,65728,6,6,4,1460,498,1,993,56,33580,0,65700,1448,0,0,0,0
i,0x00000000,1720648332.943549,172.16.3.2,5101,172.16.1.2,41039,8996,14480,0,65728,65728,6,6,4,1460,498,1,992,56,33580,0,65700,0,0,0,0,0
o,0x00000000,1720648332.943556,172.16.3.2,5101,172.16.1.2,41039,8996,14480,0,65728,65700,6,6,4,1460,498,1,993,56,33580,0,65700,0,0,1,0,0
i,0x00000000,1720648332.953930,172.16.3.2,5101,172.16.1.2,41039,8996,14480,0,65728,65700,6,6,4,1460,498,1,992,56,33580,0,65700,0,0,1,0,0
o,0x00000000,1720648332.953935,172.16.3.2,5101,172.16.1.2,41039,8996,14480,0,65728,65728,6,6,4,1460,498,1,993,56,33580,0,65700,0,0,1,0,0
i,0x00000000,1720648333.005781,172.16.3.2,5101,172.16.1.2,41039,8996,14480,0,65728,65728,6,6,4,1460,498,1,992,56,33580,0,65700,0,0,1,0,0
o,0x00000000,1720648333.005799,172.16.3.2,5101,172.16.1.2,41039,8996,14480,0,65728,65728,6,6,4,1460,498,1,993,56,33580,0,65700,0,0,2,0,0
i,0x00000000,1720648333.044449,172.16.3.2,5101,172.16.1.2,41039,8996,14480,0,65728,65728,6,6,4,1460,498,1,992,56,33580,0,65700,0,0,2,0,0
o,0x00000000,1720648333.044467,172.16.3.2,5101,172.16.1.2,41039,8996,14480,0,65728,65728,6,6,4,1460,498,1,993,56,33580,0,65700,0,0,2,0,0
i,0x00000000,1720648333.058118,172.16.3.2,5101,172.16.1.2,41039,8996,14480,0,65728,65728,6,6,4,1460,498,1,992,56,33580,0,65700,0,0,2,0,0
o,0x00000000,1720648333.058125,172.16.3.2,5101,172.16.1.2,41039,8996,14480,0,65728,65728,6,6,4,1460,498,1,993,56,33580,0,65700,0,0,2,0,0
i,0x00000000,1720648333.098727,172.16.3.2,5101,172.16.1.2,41039,8996,14480,0,65728,65728,6,6,4,1460,498,1,992,56,33580,0,65700,0,0,2,0,0
o,0x00000000,1720648333.098734,172.16.3.2,5101,172.16.1.2,41039,8996,14480,0,65728,65728,6,6,4,1460,498,1,993,56,33580,0,65700,0,0,2,0,0
i,0x00000000,1720648333.109883,172.16.3.2,5101,172.16.1.2,41039,8996,14480,0,65728,65728,6,6,4,1460,498,1,992,56,33580,0,65700,0,0,2,0,0
o,0x00000000,1720648333.109888,172.16.3.2,5101,172.16.1.2,41039,8996,14480,0,65728,65728,6,6,4,1460,498,1,993,56,33580,0,65700,0,0,2,0,0
i,0x00000000,1720648333.143810,172.16.3.2,5101,172.16.1.2,41039,8996,14480,0,65728,65728,6,6,4,1460,498,1,992,56,33580,0,65700,0,0,2,0,0
o,0x00000000,1720648333.143816,172.16.3.2,5101,172.16.1.2,41039,8996,14480,0,65728,65728,6,6,4,1460,498,1,993,56,33580,0,65700,0,0,2,0,0
i,0x00000000,1720648333.162074,172.16.3.2,5101,172.16.1.2,41039,8996,14480,0,65728,65728,6,6,4,1460,498,1,992,56,33580,0,65700,0,0,2,0,0
o,0x00000000,1720648333.162079,172.16.3.2,5101,172.16.1.2,41039,8996,14480,0,65728,65728,6,6,4,1460,498,1,993,56,33580,0,65700,0,0,2,0,0
i,0x00000000,1720648333.185234,172.16.3.2,5101,172.16.1.2,41039,8996,14480,0,65728,65728,6,6,4,1460,498,1,992,56,33580,0,65700,0,0,2,0,0
o,0x00000000,1720648333.185242,172.16.3.2,5101,172.16.1.2,41039,8996,14480,0,65728,65728,6,6,4,1460,498,1,993,56,33580,0,65700,0,0,2,0,0
i,0x00000000,1720648333.193320,172.16.3.2,5101,172.16.1.2,41039,8996,14480,0,65728,65728,6,6,4,1460,498,1,992,56,33580,0,65700,0,0,2,0,0
o,0x00000000,1720648333.193325,172.16.3.2,5101,172.16.1.2,41039,8996,14480,0,65728,65728,6,6,4,1460,498,1,993,56,33580,0,65700,0,0,2,0,0
i,0x00000000,1720648333.213657,172.16.3.2,5101,172.16.1.2,41039,8996,14480,0,65728,65728,6,6,4,1460,498,1,992,56,33580,0,65700,0,0,2,0,0
o,0x00000000,1720648333.213661,172.16.3.2,5101,172.16.1.2,41039,8996,14480,0,65728,65728,6,6,4,1460,498,1,993,56,33580,0,65700,0,0,2,0,0
i,0x00000000,1720648333.234241,172.16.3.2,5101,172.16.1.2,41039,8996,14480,0,65728,65728,6,6,4,1460,498,1,992,56,33580,0,65700,0,0,2,0,0
o,0x00000000,1720648333.234254,172.16.3.2,5101,172.16.1.2,41039,8996,14480,0,65728,65728,6,6,4,1460,498,1,993,56,33580,0,65700,4344,0,1,0,0
i,0x00000000,1720648333.244785,172.16.3.2,5101,172.16.1.2,41039,8996,14480,0,65728,65728,6,6,4,1460,498,1,992,56,33580,0,65700,0,0,1,0,0
o,0x00000000,1720648333.244792,172.16.3.2,5101,172.16.1.2,41039,8996,14480,0,65728,65700,6,6,4,1460,498,1,993,56,33580,0,65700,1448,0,1,0,0
i,0x00000000,1720648333.286846,172.16.3.2,5101,172.16.1.2,41039,8996,14480,0,65728,65700,6,6,4,1460,498,1,992,56,33580,0,65700,0,0,1,0,0
o,0x00000000,1720648333.286858,172.16.3.2,5101,172.16.1.2,41039,8996,14480,0,65728,65700,6,6,4,1460,498,1,993,56,33580,0,65700,15928,0,0,0,0
i,0x00000000,1720648333.335100,172.16.3.2,5101,172.16.1.2,41039,8996,14480,0,65728,65700,6,6,4,1460,498,1,992,56,33580,0,65700,0,0,0,0,0
o,0x00000000,1720648333.335168,172.16.3.2,5101,172.16.1.2,41039,8996,14480,0,65728,65700,6,6,4,1460,498,1,992,56,33580,0,65700,0,0,0,0,0
i,0x00000000,1720648333.359961,172.16.3.2,5101,172.16.1.2,41039,8996,14480,0,65728,65700,6,6,4,1460,498,1,992,56,33580,0,65700,0,0,0,0,0
i,0x00000000,1720648333.391038,172.16.3.2,5101,172.16.1.2,41039,8996,14480,0,65728,65700,6,6,4,1460,498,1,992,56,33580,0,65700,0,0,0,0,0
o,0x00000000,1720648333.391049,172.16.3.2,5101,172.16.1.2,41039,8996,14480,0,65728,65700,6,6,4,1460,498,1,993,56,33580,0,65700,1448,0,0,0,0
i,0x00000000,1720648333.393724,172.16.3.2,5101,172.16.1.2,41039,8996,14480,0,65728,65700,6,6,4,1460,498,1,992,56,33580,0,65700,0,0,0,0,0
i,0x00000000,1720648333.403443,172.16.3.2,5101,172.16.1.2,41039,8996,14480,0,65728,65700,6,6,4,1460,498,1,992,56,33580,0,65700,0,0,0,0,0
o,0x00000000,1720648333.403449,172.16.3.2,5101,172.16.1.2,41039,8996,14480,0,65728,65700,6,6,4,1460,498,1,993,56,33580,0,65700,1448,0,0,0,0
i,0x00000000,1720648333.454392,172.16.3.2,5101,172.16.1.2,41039,8996,14480,0,65728,65700,6,6,4,1460,498,1,992,56,33580,0,65700,0,0,0,0,0
i,0x00000000,1720648333.463874,172.16.3.2,5101,172.16.1.2,41039,8996,14480,0,65728,65700,6,6,4,1460,498,1,992,56,33580,0,65700,0,0,0,0,0
o,0x00000000,1720648333.463884,172.16.3.2,5101,172.16.1.2,41039,8996,14480,0,65728,65700,6,6,4,1460,498,1,993,56,33580,0,65700,1448,0,0,0,0
i,0x00000000,1720648333.474262,172.16.3.2,5101,172.16.1.2,41039,8996,14480,0,65728,65700,6,6,4,1460,498,1,992,56,33580,0,65700,0,0,0,0,0
o,0x00000000,1720648333.507104,172.16.3.2,5101,172.16.1.2,41039,8996,14480,0,65728,65700,6,6,4,1460,498,1,993,56,33580,0,65700,0,0,0,0,0
i,0x00000000,1720648333.522917,172.16.3.2,5101,172.16.1.2,41039,8996,14480,0,65728,65700,6,6,4,1460,498,1,992,56,33580,0,65700,0,0,0,0,0
o,0x00000000,1720648333.556651,172.16.3.2,5101,172.16.1.2,41039,8996,14480,0,65728,65700,6,6,4,1460,498,1,993,56,33580,0,65700,0,0,0,0,0
i,0x00000000,1720648333.567698,172.16.3.2,5101,172.16.1.2,41039,8996,14480,0,65728,65700,6,6,4,1460,498,1,992,56,33580,0,65700,0,0,0,0,0
i,0x00000000,1720648333.574185,172.16.3.2,5101,172.16.1.2,41039,8996,14480,0,65728,65700,6,6,4,1460,498,1,992,56,33580,0,65700,0,0,0,0,0
o,0x00000000,1720648333.574193,172.16.3.2,5101,172.16.1.2,41039,8996,14480,0,65728,65700,6,6,4,1460,498,1,993,56,33580,0,65700,1448,0,0,0,0
i,0x00000000,1720648333.588403,172.16.3.2,5101,172.16.1.2,41039,8996,14480,0,65728,65700,6,6,4,1460,498,1,992,56,33580,0,65700,0,0,0,0,0
i,0x00000000,1720648333.622925,172.16.3.2,5101,172.16.1.2,41039,8996,14480,0,65728,65700,6,6,4,1460,498,1,992,56,33580,0,65700,0,0,0,0,0
o,0x00000000,1720648333.622937,172.16.3.2,5101,172.16.1.2,41039,8996,14480,0,65728,65700,6,6,4,1460,498,1,993,56,33580,0,65700,1448,0,0,0,0
i,0x00000000,1720648333.661152,172.16.3.2,5101,172.16.1.2,41039,8996,14480,0,65728,65700,6,6,4,1460,498,1,992,56,33580,0,65700,0,0,0,0,0
i,0x00000000,1720648333.664386,172.16.3.2,5101,172.16.1.2,41039,8996,14480,0,65728,65700,6,6,4,1460,498,1,992,56,33580,0,65700,0,0,0,0,0
o,0x00000000,1720648333.664403,172.16.3.2,5101,172.16.1.2,41039,8996,14480,0,65728,65700,6,6,4,1460,498,1,993,56,33580,0,65700,1448,0,0,0,0
i,0x00000000,1720648333.690303,172.16.3.2,5101,172.16.1.2,41039,8996,14480,0,65728,65700,6,6,4,1460,498,1,992,56,33580,0,65700,0,0,0,0,0
o,0x00000000,1720648333.726595,172.16.3.2,5101,172.16.1.2,41039,8996,14480,0,65728,65700,6,6,4,1460,498,1,993,56,33580,0,65700,0,0,0,0,0
i,0x00000000,1720648333.733081,172.16.3.2,5101,172.16.1.2,41039,8996,14480,0,65728,65700,6,6,4,1460,498,1,992,56,33580,0,65700,0,0,0,0,0
o,0x00000000,1720648333.766331,172.16.3.2,5101,172.16.1.2,41039,8996,14480,0,65728,65700,6,6,4,1460,498,1,993,56,33580,0,65700,0,0,0,0,0
i,0x00000000,1720648333.775771,172.16.3.2,5101,172.16.1.2,41039,8996,14480,0,65728,65700,6,6,4,1460,498,1,992,56,33580,0,65700,0,0,0,0,0
i,0x00000000,1720648333.786417,172.16.3.2,5101,172.16.1.2,41039,8996,14480,0,65728,65700,6,6,4,1460,498,1,992,56,33580,0,65700,0,0,0,0,0
o,0x00000000,1720648333.786426,172.16.3.2,5101,172.16.1.2,41039,8996,14480,0,65728,65700,6,6,4,1460,498,1,993,56,33580,0,65700,1448,0,0,0,0
i,0x00000000,1720648333.793584,172.16.3.2,5101,172.16.1.2,41039,8996,14480,0,65728,65700,6,6,4,1460,498,1,992,56,33580,0,65700,0,0,0,0,0
o,0x00000000,1720648333.826181,172.16.3.2,5101,172.16.1.2,41039,8996,14480,0,65728,65700,6,6,4,1460,498,1,993,56,33580,0,65700,0,0,0,0,0
i,0x00000000,1720648333.832987,172.16.3.2,5101,172.16.1.2,41039,8996,14480,0,65728,65700,6,6,4,1460,498,1,992,56,33580,0,65700,0,0,0,0,0
i,0x00000000,1720648333.848732,172.16.3.2,5101,172.16.1.2,41039,8996,14480,0,65728,65700,6,6,4,1460,498,1,992,56,33580,0,65700,0,0,0,0,0
o,0x00000000,1720648333.848740,172.16.3.2,5101,172.16.1.2,41039,8996,14480,0,65728,65700,6,6,4,1460,498,1,993,56,33580,0,65700,1448,0,0,0,0
o,0x00000000,1720648333.877216,10.0.2.15,22,10.0.2.2,52548,1073725440,14600,0,65535,65700,0,0,4,1460,1,0,4,24,33580,108,65700,0,0,0,0,0
i,0x00000000,1720648333.877954,10.0.2.15,22,10.0.2.2,52548,1073725440,14600,0,65535,65700,0,0,4,1460,1,0,4,24,33580,108,65700,0,108,0,0,0
i,0x00000000,1720648333.879483,172.16.3.2,5101,172.16.1.2,41039,8996,14480,0,65728,65700,6,6,4,1460,498,1,992,56,33580,0,65700,0,0,0,0,0
i,0x00000000,1720648333.890790,172.16.3.2,5101,172.16.1.2,41039,8996,14480,0,65728,65700,6,6,4,1460,498,1,992,56,33580,0,65700,0,0,0,0,0
o,0x00000000,1720648333.890797,172.16.3.2,5101,172.16.1.2,41039,8996,14480,0,65728,65700,6,6,4,1460,498,1,993,56,33580,0,65700,1448,0,0,0,0
i,0x00000000,1720648333.910754,172.16.3.2,5101,172.16.1.2,41039,8996,14480,0,65728,65700,6,6,4,1460,498,1,992,56,33580,0,65700,0,0,0,0,0
o,0x00000000,1720648333.946795,172.16.3.2,5101,172.16.1.2,41039,8996,14480,0,65728,65700,6,6,4,1460,498,1,993,56,33580,0,65700,0,0,0,0,0
i,0x00000000,1720648333.963972,172.16.3.2,5101,172.16.1.2,41039,8996,14480,0,65728,65700,6,6,4,1460,498,1,992,56,33580,0,65700,0,0,0,0,0
o,0x00000000,1720648333.996195,172.16.3.2,5101,172.16.1.2,41039,8996,14480,0,65728,65700,6,6,4,1460,498,1,993,56,33580,0,65700,0,0,0,0,0
i,0x00000000,1720648334.004789,172.16.3.2,5101,172.16.1.2,41039,8996,14480,0,65728,65700,6,6,4,1460,498,1,992,56,33580,0,65700,0,0,0,0,0
i,0x00000000,1720648334.015609,172.16.3.2,5101,172.16.1.2,41039,8996,14480,0,65728,65700,6,6,4,1460,498,1,992,56,33580,0,65700,0,0,0,0,0
o,0x00000000,1720648334.015622,172.16.3.2,5101,172.16.1.2,41039,8996,14480,0,65728,65700,6,6,4,1460,498,1,993,56,33580,0,65700,1448,0,0,0,0
i,0x00000000,1720648334.032836,172.16.3.2,5101,172.16.1.2,41039,8996,14480,0,65728,65700,6,6,4,1460,498,1,992,56,33580,0,65700,0,0,0,0,0
i,0x00000000,1720648334.043325,172.16.3.2,5101,172.16.1.2,41039,8996,14480,0,65728,65700,6,6,4,1460,498,1,992,56,33580,0,65700,0,0,0,0,0
o,0x00000000,1720648334.043335,172.16.3.2,5101,172.16.1.2,41039,8996,14480,0,65728,65700,6,6,4,1460,498,1,993,56,33580,0,65700,1448,0,0,0,0
i,0x00000000,1720648334.078302,172.16.3.2,5101,172.16.1.2,41039,8996,14480,0,65728,65700,6,6,4,1460,498,1,992,56,33580,0,65700,0,0,0,0,0
i,0x00000000,1720648334.098154,172.16.3.2,5101,172.16.1.2,41039,8996,14480,0,65728,65700,6,6,4,1460,498,1,992,56,33580,0,65700,0,0,0,0,0
o,0x00000000,1720648334.098162,172.16.3.2,5101,172.16.1.2,41039,8996,14480,0,65728,65700,6,6,4,1460,498,1,993,56,33580,0,65700,1448,0,0,0,0
i,0x00000000,1720648334.118934,172.16.3.2,5101,172.16.1.2,41039,8996,14480,0,65728,65700,6,6,4,1460,498,1,992,56,33580,0,65700,0,0,0,0,0
i,0x00000000,1720648334.123786,172.16.3.2,5101,172.16.1.2,41039,8996,14480,0,65728,65700,6,6,4,1460,498,1,992,56,33580,0,65700,0,0,0,0,0
o,0x00000000,1720648334.123793,172.16.3.2,5101,172.16.1.2,41039,8996,14480,0,65728,65700,6,6,4,1460,498,1,993,56,33580,0,65700,1448,0,0,0,0
i,0x00000000,1720648334.181255,172.16.3.2,5101,172.16.1.2,41039,8996,14480,0,65728,65700,6,6,4,1460,498,1,992,56,33580,0,65700,0,0,0,0,0
o,0x00000000,1720648334.216574,172.16.3.2,5101,172.16.1.2,41039,8996,14480,0,65728,65700,6,6,4,1460,498,1,993,56,33580,0,65700,0,0,0,0,0
i,0x00000000,1720648334.223483,172.16.3.2,5101,172.16.1.2,41039,8996,14480,0,65728,65700,6,6,4,1460,498,1,992,56,33580,0,65700,0,0,0,0,0
i,0x00000000,1720648334.233846,172.16.3.2,5101,172.16.1.2,41039,8996,14480,0,65728,65700,6,6,4,1460,498,1,992,56,33580,0,65700,0,0,0,0,0
